{'lipoC2': 7.78, 'temp': 23.56, 'lipoC3S3': 11.77, 'rot1': 0, 'rot0': 0, 'rot3': 0, 'rot2': 0, 'state': 'normal', 'yaw': -0.5, 'datetime': '2018-10-12 14:05:44.399794', 'mgs': 0, 'depth': 2.225, 'time': 1.36, 'pitch': -0.2, 'roll': -6.54}
{'lipoC2': 7.78, 'temp': 23.56, 'lipoC3S3': 11.77, 'rot1': 0, 'rot0': 0, 'rot3': 0, 'rot2': 0, 'state': 'normal', 'yaw': -0.96, 'datetime': '2018-10-12 14:05:44.416755', 'mgs': 0, 'depth': 2.148, 'time': 1.46, 'pitch': 0.12, 'roll': -6.35}
{'lipoC2': 7.78, 'temp': 23.56, 'lipoC3S3': 11.77, 'rot1': 0, 'rot0': 0, 'rot3': 0, 'rot2': 0, 'state': 'normal', 'yaw': -1.23, 'datetime': '2018-10-12 14:05:44.433671', 'mgs': 0, 'depth': 2.225, 'time': 1.55, 'pitch': 0.61, 'roll': -6.52}
{'lipoC2': 7.78, 'temp': 23.56, 'lipoC3S3': 11.77, 'rot1': 0, 'rot0': 0, 'rot3': 0, 'rot2': 0, 'state': 'normal', 'yaw': -1.29, 'datetime': '2018-10-12 14:05:44.450588', 'mgs': 0, 'depth': 2.225, 'time': 1.65, 'pitch': 1.26, 'roll': -7.19}
{'lipoC2': 7.78, 'temp': 23.5, 'lipoC3S3': 11.77, 'rot1': 0, 'rot0': 0, 'rot3': 0, 'rot2': 0, 'state': 'normal', 'yaw': -1.28, 'datetime': '2018-10-12 14:05:44.467445', 'mgs': 0, 'depth': 2.148, 'time': 1.75, 'pitch': 1.83, 'roll': -7.98}
{'lipoC2': 7.78, 'temp': 23.5, 'lipoC3S3': 11.79, 'rot1': 0, 'rot0': 0, 'rot3': 0, 'rot2': 0, 'state': 'normal', 'yaw': -1.16, 'datetime': '2018-10-12 14:05:44.482932', 'mgs': 0, 'depth': 2.148, 'time': 1.84, 'pitch': 2.38, 'roll': -8.75}
{'lipoC2': 7.78, 'temp': 23.5, 'lipoC3S3': 11.77, 'rot1': 0, 'rot0': 0, 'rot3': 0, 'rot2': 0, 'state': 'normal', 'yaw': -0.9, 'datetime': '2018-10-12 14:05:44.490274', 'mgs': 0, 'depth': 2.148, 'time': 1.94, 'pitch': 2.89, 'roll': -9.23}
{'lipoC2': 7.78, 'temp': 23.5, 'lipoC3S3': 11.77, 'rot1': 0, 'rot0': 0, 'rot3': 0, 'rot2': 0, 'state': 'normal', 'yaw': -0.71, 'datetime': '2018-10-12 14:05:44.497575', 'mgs': 0, 'depth': 2.148, 'time': 2.04, 'pitch': 3.12, 'roll': -9.47}
{'lipoC2': 7.77, 'temp': 23.5, 'lipoC3S3': 11.77, 'rot1': 0, 'rot0': 0, 'rot3': 0, 'rot2': 0, 'state': 'normal', 'yaw': -0.58, 'datetime': '2018-10-12 14:05:44.504937', 'mgs': 0, 'depth': 2.148, 'time': 2.14, 'pitch': 3.11, 'roll': -9.7}
{'lipoC2': 7.78, 'temp': 23.5, 'lipoC3S3': 11.79, 'rot1': 0, 'rot0': 0, 'rot3': 0, 'rot2': 0, 'state': 'normal', 'yaw': -0.37, 'datetime': '2018-10-12 14:05:44.590028', 'mgs': 0, 'depth': 2.148, 'time': 2.23, 'pitch': 2.97, 'roll': -9.93}
{'lipoC2': 7.77, 'temp': 23.5, 'lipoC3S3': 11.77, 'rot1': 0, 'rot0': 0, 'rot3': 0, 'rot2': 0, 'state': 'normal', 'yaw': -0.1, 'datetime': '2018-10-12 14:05:44.687087', 'mgs': 0, 'depth': 2.148, 'time': 2.33, 'pitch': 2.67, 'roll': -10.19}
{'lipoC2': 7.78, 'temp': 23.5, 'lipoC3S3': 11.77, 'rot1': 0, 'rot0': 0, 'rot3': 0, 'rot2': 0, 'state': 'normal', 'yaw': 0.2, 'datetime': '2018-10-12 14:05:44.784145', 'mgs': 0, 'depth': 2.148, 'time': 2.43, 'pitch': 2.29, 'roll': -10.38}
{'lipoC2': 7.77, 'temp': 23.5, 'lipoC3S3': 11.77, 'rot1': 0, 'rot0': 0, 'rot3': 0, 'rot2': 0, 'state': 'normal', 'yaw': 0.58, 'datetime': '2018-10-12 14:05:44.881126', 'mgs': 0, 'depth': 2.148, 'time': 2.52, 'pitch': 1.77, 'roll': -10.65}
{'lipoC2': 7.78, 'temp': 23.5, 'lipoC3S3': 11.77, 'rot1': 0, 'rot0': 0, 'rot3': 0, 'rot2': 0, 'state': 'normal', 'yaw': 1.0, 'datetime': '2018-10-12 14:05:44.978158', 'mgs': 0, 'depth': 2.148, 'time': 2.62, 'pitch': 1.17, 'roll': -10.74}
{'lipoC2': 7.77, 'temp': 23.5, 'lipoC3S3': 11.77, 'rot1': 0, 'rot0': 0, 'rot3': 0, 'rot2': 0, 'state': 'normal', 'yaw': 1.38, 'datetime': '2018-10-12 14:05:45.076506', 'mgs': 0, 'depth': 2.225, 'time': 2.72, 'pitch': 0.59, 'roll': -10.71}
{'lipoC2': 7.78, 'temp': 23.5, 'lipoC3S3': 11.79, 'rot1': 0, 'rot0': 0, 'rot3': 0, 'rot2': 0, 'state': 'normal', 'yaw': 1.79, 'datetime': '2018-10-12 14:05:45.173521', 'mgs': 0, 'depth': 2.148, 'time': 2.82, 'pitch': -0.09, 'roll': -10.46}
{'lipoC2': 7.78, 'temp': 23.56, 'lipoC3S3': 11.77, 'rot1': 0, 'rot0': 0, 'rot3': 0, 'rot2': 0, 'state': 'normal', 'yaw': 2.23, 'datetime': '2018-10-12 14:05:45.275838', 'mgs': 0, 'depth': 2.148, 'time': 2.91, 'pitch': -0.75, 'roll': -9.98}
{'lipoC2': 7.78, 'temp': 23.56, 'lipoC3S3': 11.79, 'rot1': 0, 'rot0': 0, 'rot3': 0, 'rot2': 0, 'state': 'normal', 'yaw': 2.51, 'datetime': '2018-10-12 14:05:45.373395', 'mgs': 0, 'depth': 2.225, 'time': 3.01, 'pitch': -1.36, 'roll': -9.55}
{'lipoC2': 7.77, 'temp': 23.56, 'lipoC3S3': 11.77, 'rot1': 0, 'rot0': 0, 'rot3': 0, 'rot2': 0, 'state': 'normal', 'yaw': 2.75, 'datetime': '2018-10-12 14:05:45.471950', 'mgs': 0, 'depth': 2.301, 'time': 3.11, 'pitch': -2.05, 'roll': -8.91}
{'lipoC2': 7.78, 'temp': 23.5, 'lipoC3S3': 11.77, 'rot1': 0, 'rot0': 0, 'rot3': 0, 'rot2': 0, 'state': 'normal', 'yaw': 2.8, 'datetime': '2018-10-12 14:05:45.569208', 'mgs': 0, 'depth': 2.301, 'time': 3.21, 'pitch': -2.77, 'roll': -7.97}
{'lipoC2': 7.78, 'temp': 23.5, 'lipoC3S3': 11.79, 'rot1': 0, 'rot0': 0, 'rot3': 0, 'rot2': 0, 'state': 'normal', 'yaw': 2.73, 'datetime': '2018-10-12 14:05:45.666151', 'mgs': 0, 'depth': 2.301, 'time': 3.31, 'pitch': -3.39, 'roll': -7.01}
{'lipoC2': 7.78, 'temp': 23.5, 'lipoC3S3': 11.79, 'rot1': 0, 'rot0': 0, 'rot3': 0, 'rot2': 0, 'state': 'normal', 'yaw': 2.76, 'datetime': '2018-10-12 14:05:45.759297', 'mgs': 0, 'depth': 2.301, 'time': 3.4, 'pitch': -3.69, 'roll': -6.64}
{'lipoC2': 7.78, 'temp': 23.5, 'lipoC3S3': 11.77, 'rot1': 0, 'rot0': 0, 'rot3': 0, 'rot2': 0, 'state': 'normal', 'yaw': 2.78, 'datetime': '2018-10-12 14:05:45.862651', 'mgs': 0, 'depth': 2.454, 'time': 3.5, 'pitch': -3.86, 'roll': -6.62}
{'lipoC2': 7.78, 'temp': 23.5, 'lipoC3S3': 11.79, 'rot1': 0, 'rot0': 0, 'rot3': 0, 'rot2': 0, 'state': 'normal', 'yaw': 2.77, 'datetime': '2018-10-12 14:05:45.954124', 'mgs': 0, 'depth': 2.301, 'time': 3.6, 'pitch': -3.82, 'roll': -6.57}
{'lipoC2': 7.78, 'temp': 23.5, 'lipoC3S3': 11.79, 'rot1': 0, 'rot0': 0, 'rot3': 0, 'rot2': 0, 'state': 'normal', 'yaw': 2.48, 'datetime': '2018-10-12 14:05:46.051133', 'mgs': 0, 'depth': 2.301, 'time': 3.69, 'pitch': -3.75, 'roll': -7.01}
{'lipoC2': 7.77, 'temp': 23.5, 'lipoC3S3': 11.79, 'rot1': 0, 'rot0': 0, 'rot3': 0, 'rot2': 0, 'state': 'normal', 'yaw': 1.94, 'datetime': '2018-10-12 14:05:46.148179', 'mgs': 0, 'depth': 2.377, 'time': 3.79, 'pitch': -3.75, 'roll': -7.79}
{'lipoC2': 7.78, 'temp': 23.5, 'lipoC3S3': 11.79, 'rot1': 0, 'rot0': 0, 'rot3': 0, 'rot2': 0, 'state': 'normal', 'yaw': 1.28, 'datetime': '2018-10-12 14:05:46.245250', 'mgs': 0, 'depth': 2.377, 'time': 3.89, 'pitch': -3.66, 'roll': -8.5}
{'lipoC2': 7.77, 'temp': 23.5, 'lipoC3S3': 11.77, 'rot1': 0, 'rot0': 0, 'rot3': 0, 'rot2': 0, 'state': 'normal', 'yaw': 0.7, 'datetime': '2018-10-12 14:05:46.342256', 'mgs': 0, 'depth': 2.377, 'time': 3.99, 'pitch': -3.37, 'roll': -8.88}
{'lipoC2': 7.78, 'temp': 23.5, 'lipoC3S3': 11.79, 'rot1': 0, 'rot0': 0, 'rot3': 0, 'rot2': 0, 'state': 'normal', 'yaw': 0.25, 'datetime': '2018-10-12 14:05:46.439500', 'mgs': 0, 'depth': 2.377, 'time': 4.08, 'pitch': -2.94, 'roll': -8.95}
{'lipoC2': 7.78, 'temp': 23.5, 'lipoC3S3': 11.79, 'rot1': 0, 'rot0': 0, 'rot3': 0, 'rot2': 0, 'state': 'normal', 'yaw': -0.18, 'datetime': '2018-10-12 14:05:46.541159', 'mgs': 0, 'depth': 2.377, 'time': 4.18, 'pitch': -2.3, 'roll': -8.81}
{'lipoC2': 7.78, 'temp': 23.5, 'lipoC3S3': 11.77, 'rot1': 0, 'rot0': 0, 'rot3': 0, 'rot2': 0, 'state': 'normal', 'yaw': -0.61, 'datetime': '2018-10-12 14:05:46.638577', 'mgs': 0, 'depth': 2.377, 'time': 4.28, 'pitch': -1.6, 'roll': -8.52}
{'lipoC2': 7.78, 'temp': 23.5, 'lipoC3S3': 11.79, 'rot1': 0, 'rot0': 0, 'rot3': 0, 'rot2': 0, 'state': 'normal', 'yaw': -1.09, 'datetime': '2018-10-12 14:05:46.732450', 'mgs': 0, 'depth': 2.301, 'time': 4.38, 'pitch': -0.92, 'roll': -8.07}
{'lipoC2': 7.78, 'temp': 23.5, 'lipoC3S3': 11.79, 'rot1': 0, 'rot0': 0, 'rot3': 0, 'rot2': 0, 'state': 'normal', 'yaw': -1.54, 'datetime': '2018-10-12 14:05:46.833473', 'mgs': 0, 'depth': 2.377, 'time': 4.47, 'pitch': -0.36, 'roll': -7.53}
{'lipoC2': 7.78, 'temp': 23.5, 'lipoC3S3': 11.77, 'rot1': 0, 'rot0': 0, 'rot3': 0, 'rot2': 0, 'state': 'normal', 'yaw': -2.01, 'datetime': '2018-10-12 14:05:46.931588', 'mgs': 0, 'depth': 2.377, 'time': 4.57, 'pitch': 0.19, 'roll': -6.91}
{'lipoC2': 7.78, 'temp': 23.56, 'lipoC3S3': 11.79, 'rot1': 0, 'rot0': 0, 'rot3': 0, 'rot2': 0, 'state': 'normal', 'yaw': -2.4, 'datetime': '2018-10-12 14:05:47.028565', 'mgs': 0, 'depth': 2.377, 'time': 4.67, 'pitch': 0.61, 'roll': -6.39}
{'lipoC2': 7.78, 'temp': 23.56, 'lipoC3S3': 11.79, 'rot1': 0, 'rot0': 0, 'rot3': 0, 'rot2': 0, 'state': 'normal', 'yaw': -2.75, 'datetime': '2018-10-12 14:05:47.126174', 'mgs': 1, 'depth': 2.377, 'time': 4.77, 'pitch': 0.86, 'roll': -6.12}
{'lipoC2': 7.78, 'temp': 23.56, 'lipoC3S3': 11.79, 'rot1': 0, 'rot0': 0, 'rot3': 0, 'rot2': 0, 'state': 'normal', 'yaw': 0.0, 'datetime': '2018-10-12 14:05:48.645690', 'mgs': 0, 'depth': 2.606, 'time': 1.26, 'pitch': -2.03, 'roll': -7.12}
{'lipoC2': 7.78, 'temp': 23.56, 'lipoC3S3': 11.79, 'rot1': 0, 'rot0': 0, 'rot3': 0, 'rot2': 0, 'state': 'normal', 'yaw': 0.38, 'datetime': '2018-10-12 14:05:48.663892', 'mgs': 0, 'depth': 2.682, 'time': 1.36, 'pitch': -2.04, 'roll': -6.63}
{'lipoC2': 7.78, 'temp': 23.56, 'lipoC3S3': 11.79, 'rot1': 0, 'rot0': 0, 'rot3': 0, 'rot2': 0, 'state': 'normal', 'yaw': 0.64, 'datetime': '2018-10-12 14:05:48.687802', 'mgs': 0, 'depth': 2.606, 'time': 1.45, 'pitch': -1.98, 'roll': -6.21}
{'lipoC2': 7.78, 'temp': 23.5, 'lipoC3S3': 11.69, 'rot1': 0, 'rot0': 0, 'rot3': 0, 'rot2': 0, 'state': 'normal', 'yaw': 0.81, 'datetime': '2018-10-12 14:05:48.778967', 'mgs': 0, 'depth': 3.064, 'time': 1.55, 'pitch': -1.89, 'roll': -5.81}
{'lipoC2': 7.78, 'temp': 23.5, 'lipoC3S3': 11.71, 'rot1': 0, 'rot0': 0, 'rot3': 1, 'rot2': 1, 'state': 'normal', 'yaw': 0.85, 'datetime': '2018-10-12 14:05:48.876137', 'mgs': 0, 'depth': 2.911, 'time': 1.65, 'pitch': -1.65, 'roll': -5.83}
{'lipoC2': 7.78, 'temp': 23.5, 'lipoC3S3': 11.67, 'rot1': 0, 'rot0': 0, 'rot3': 1, 'rot2': 1, 'state': 'normal', 'yaw': 0.71, 'datetime': '2018-10-12 14:05:48.972791', 'mgs': 0, 'depth': 2.835, 'time': 1.74, 'pitch': -1.34, 'roll': -6.29}
{'lipoC2': 7.78, 'temp': 23.5, 'lipoC3S3': 11.69, 'rot1': 0, 'rot0': 0, 'rot3': 2, 'rot2': 2, 'state': 'normal', 'yaw': 0.35, 'datetime': '2018-10-12 14:05:49.069374', 'mgs': 0, 'depth': 2.606, 'time': 1.84, 'pitch': -1.11, 'roll': -7.09}
{'lipoC2': 7.77, 'temp': 23.5, 'lipoC3S3': 11.69, 'rot1': 0, 'rot0': 0, 'rot3': 2, 'rot2': 2, 'state': 'normal', 'yaw': -0.26, 'datetime': '2018-10-12 14:05:49.166056', 'mgs': 0, 'depth': 2.682, 'time': 1.94, 'pitch': -0.89, 'roll': -8.3}
{'lipoC2': 7.78, 'temp': 23.5, 'lipoC3S3': 11.69, 'rot1': 0, 'rot0': 0, 'rot3': 3, 'rot2': 3, 'state': 'normal', 'yaw': -0.9, 'datetime': '2018-10-12 14:05:49.263091', 'mgs': 0, 'depth': 2.835, 'time': 2.04, 'pitch': -0.69, 'roll': -9.4}
{'lipoC2': 7.78, 'temp': 23.5, 'lipoC3S3': 11.69, 'rot1': 0, 'rot0': 0, 'rot3': 3, 'rot2': 4, 'state': 'normal', 'yaw': -1.56, 'datetime': '2018-10-12 14:05:49.359532', 'mgs': 0, 'depth': 2.835, 'time': 2.13, 'pitch': -0.36, 'roll': -10.35}
{'lipoC2': 7.78, 'temp': 23.56, 'lipoC3S3': 11.72, 'rot1': 0, 'rot0': 0, 'rot3': 4, 'rot2': 4, 'state': 'normal', 'yaw': -2.16, 'datetime': '2018-10-12 14:05:49.456430', 'mgs': 0, 'depth': 3.14, 'time': 2.23, 'pitch': 0.06, 'roll': -10.93}
{'lipoC2': 7.77, 'temp': 23.56, 'lipoC3S3': 11.71, 'rot1': 0, 'rot0': 0, 'rot3': 4, 'rot2': 5, 'state': 'normal', 'yaw': -2.68, 'datetime': '2018-10-12 14:05:49.553179', 'mgs': 0, 'depth': 2.911, 'time': 2.33, 'pitch': 0.47, 'roll': -11.13}
{'lipoC2': 7.77, 'temp': 23.56, 'lipoC3S3': 11.72, 'rot1': 0, 'rot0': 0, 'rot3': 5, 'rot2': 6, 'state': 'normal', 'yaw': -3.23, 'datetime': '2018-10-12 14:05:49.649833', 'mgs': 0, 'depth': 3.14, 'time': 2.42, 'pitch': 0.89, 'roll': -11.04}
{'lipoC2': 7.78, 'temp': 23.5, 'lipoC3S3': 11.72, 'rot1': 0, 'rot0': 0, 'rot3': 5, 'rot2': 6, 'state': 'normal', 'yaw': -3.77, 'datetime': '2018-10-12 14:05:49.746539', 'mgs': 0, 'depth': 3.293, 'time': 2.52, 'pitch': 1.25, 'roll': -10.71}
{'lipoC2': 7.79, 'temp': 23.5, 'lipoC3S3': 11.67, 'rot1': 0, 'rot0': 0, 'rot3': 6, 'rot2': 7, 'state': 'normal', 'yaw': -4.21, 'datetime': '2018-10-12 14:05:49.843972', 'mgs': 0, 'depth': 3.217, 'time': 2.62, 'pitch': 1.51, 'roll': -10.19}
{'lipoC2': 7.78, 'temp': 23.0, 'lipoC3S3': 11.73, 'rot1': 0, 'rot0': 0, 'rot3': 6, 'rot2': 7, 'state': 'normal', 'yaw': -4.62, 'datetime': '2018-10-12 14:05:49.941851', 'mgs': 0, 'depth': 3.369, 'time': 2.71, 'pitch': 1.65, 'roll': -9.4}
{'lipoC2': 7.78, 'temp': 23.0, 'lipoC3S3': 11.73, 'rot1': 0, 'rot0': 0, 'rot3': 7, 'rot2': 8, 'state': 'normal', 'yaw': -4.96, 'datetime': '2018-10-12 14:05:50.038607', 'mgs': 0, 'depth': 3.369, 'time': 2.81, 'pitch': 1.68, 'roll': -8.48}
{'lipoC2': 7.77, 'temp': 23.0, 'lipoC3S3': 11.67, 'rot1': 0, 'rot0': 0, 'rot3': 7, 'rot2': 9, 'state': 'normal', 'yaw': -5.27, 'datetime': '2018-10-12 14:05:50.135266', 'mgs': 0, 'depth': 3.445, 'time': 2.91, 'pitch': 1.64, 'roll': -7.44}
{'lipoC2': 7.78, 'temp': 23.63, 'lipoC3S3': 11.72, 'rot1': 0, 'rot0': 0, 'rot3': 8, 'rot2': 9, 'state': 'normal', 'yaw': -5.54, 'datetime': '2018-10-12 14:05:50.233252', 'mgs': 0, 'depth': 3.598, 'time': 3.01, 'pitch': 1.51, 'roll': -6.52}
{'lipoC2': 7.78, 'temp': 23.63, 'lipoC3S3': 11.73, 'rot1': 0, 'rot0': 0, 'rot3': 8, 'rot2': 10, 'state': 'normal', 'yaw': -5.83, 'datetime': '2018-10-12 14:05:50.330108', 'mgs': 0, 'depth': 3.598, 'time': 3.1, 'pitch': 1.32, 'roll': -5.55}
{'lipoC2': 7.78, 'temp': 23.56, 'lipoC3S3': 11.72, 'rot1': 0, 'rot0': 0, 'rot3': 8, 'rot2': 10, 'state': 'normal', 'yaw': -6.11, 'datetime': '2018-10-12 14:05:50.427173', 'mgs': 0, 'depth': 3.674, 'time': 3.2, 'pitch': 1.11, 'roll': -4.73}
{'lipoC2': 7.78, 'temp': 23.56, 'lipoC3S3': 11.72, 'rot1': 0, 'rot0': 0, 'rot3': 9, 'rot2': 11, 'state': 'normal', 'yaw': -6.34, 'datetime': '2018-10-12 14:05:50.523825', 'mgs': 0, 'depth': 3.903, 'time': 3.3, 'pitch': 0.89, 'roll': -4.13}
{'lipoC2': 7.78, 'temp': 23.5, 'lipoC3S3': 11.72, 'rot1': 0, 'rot0': 0, 'rot3': 9, 'rot2': 11, 'state': 'normal', 'yaw': -6.55, 'datetime': '2018-10-12 14:05:50.620634', 'mgs': 0, 'depth': 3.979, 'time': 3.39, 'pitch': 0.64, 'roll': -3.69}
{'lipoC2': 7.77, 'temp': 23.5, 'lipoC3S3': 11.73, 'rot1': 0, 'rot0': 0, 'rot3': 10, 'rot2': 12, 'state': 'normal', 'yaw': -6.8, 'datetime': '2018-10-12 14:05:50.718064', 'mgs': 0, 'depth': 4.056, 'time': 3.49, 'pitch': 0.4, 'roll': -3.45}
{'lipoC2': 7.78, 'temp': 23.5, 'lipoC3S3': 11.73, 'rot1': 0, 'rot0': 0, 'rot3': 10, 'rot2': 13, 'state': 'normal', 'yaw': -7.02, 'datetime': '2018-10-12 14:05:50.814822', 'mgs': 0, 'depth': 3.751, 'time': 3.59, 'pitch': 0.19, 'roll': -3.41}
{'lipoC2': 7.78, 'temp': 23.5, 'lipoC3S3': 11.69, 'rot1': 0, 'rot0': 0, 'rot3': 11, 'rot2': 13, 'state': 'normal', 'yaw': -7.22, 'datetime': '2018-10-12 14:05:50.911884', 'mgs': 0, 'depth': 3.827, 'time': 3.68, 'pitch': -0.01, 'roll': -3.54}
{'lipoC2': 7.78, 'temp': 23.5, 'lipoC3S3': 11.72, 'rot1': 0, 'rot0': 0, 'rot3': 11, 'rot2': 14, 'state': 'normal', 'yaw': -7.41, 'datetime': '2018-10-12 14:05:51.008817', 'mgs': 0, 'depth': 4.056, 'time': 3.78, 'pitch': -0.2, 'roll': -3.83}
{'lipoC2': 7.77, 'temp': 23.56, 'lipoC3S3': 11.73, 'rot1': 0, 'rot0': 0, 'rot3': 11, 'rot2': 14, 'state': 'normal', 'yaw': -7.57, 'datetime': '2018-10-12 14:05:51.105998', 'mgs': 0, 'depth': 3.903, 'time': 3.88, 'pitch': -0.33, 'roll': -4.21}
{'lipoC2': 7.78, 'temp': 23.56, 'lipoC3S3': 11.69, 'rot1': 0, 'rot0': 0, 'rot3': 12, 'rot2': 15, 'state': 'normal', 'yaw': -7.73, 'datetime': '2018-10-12 14:05:51.203131', 'mgs': 0, 'depth': 3.979, 'time': 3.98, 'pitch': -0.43, 'roll': -4.73}
{'lipoC2': 7.78, 'temp': 23.56, 'lipoC3S3': 11.72, 'rot1': 0, 'rot0': 0, 'rot3': 12, 'rot2': 15, 'state': 'normal', 'yaw': -7.88, 'datetime': '2018-10-12 14:05:51.300139', 'mgs': 0, 'depth': 4.132, 'time': 4.07, 'pitch': -0.49, 'roll': -5.29}
{'lipoC2': 7.77, 'temp': 23.5, 'lipoC3S3': 11.69, 'rot1': 0, 'rot0': 0, 'rot3': 13, 'rot2': 16, 'state': 'normal', 'yaw': -8.06, 'datetime': '2018-10-12 14:05:51.397608', 'mgs': 0, 'depth': 4.056, 'time': 4.17, 'pitch': -0.51, 'roll': -5.85}
{'lipoC2': 7.78, 'temp': 23.5, 'lipoC3S3': 11.73, 'rot1': 0, 'rot0': 0, 'rot3': 13, 'rot2': 16, 'state': 'normal', 'yaw': -8.22, 'datetime': '2018-10-12 14:05:51.495946', 'mgs': 0, 'depth': 4.132, 'time': 4.27, 'pitch': -0.52, 'roll': -6.31}
{'lipoC2': 7.78, 'temp': 23.56, 'lipoC3S3': 11.72, 'rot1': 0, 'rot0': 0, 'rot3': 14, 'rot2': 17, 'state': 'normal', 'yaw': -8.44, 'datetime': '2018-10-12 14:05:51.592938', 'mgs': 0, 'depth': 4.285, 'time': 4.37, 'pitch': -0.48, 'roll': -6.79}
{'lipoC2': 7.78, 'temp': 23.56, 'lipoC3S3': 11.69, 'rot1': 0, 'rot0': 0, 'rot3': 14, 'rot2': 17, 'state': 'normal', 'yaw': -8.68, 'datetime': '2018-10-12 14:05:51.690181', 'mgs': 0, 'depth': 4.208, 'time': 4.46, 'pitch': -0.43, 'roll': -7.2}
{'lipoC2': 7.78, 'temp': 23.56, 'lipoC3S3': 11.71, 'rot1': 0, 'rot0': 0, 'rot3': 14, 'rot2': 18, 'state': 'normal', 'yaw': -8.87, 'datetime': '2018-10-12 14:05:51.787729', 'mgs': 0, 'depth': 4.285, 'time': 4.56, 'pitch': -0.37, 'roll': -7.49}
{'lipoC2': 7.78, 'temp': 23.5, 'lipoC3S3': 11.73, 'rot1': 0, 'rot0': 0, 'rot3': 15, 'rot2': 19, 'state': 'normal', 'yaw': -9.11, 'datetime': '2018-10-12 14:05:51.886046', 'mgs': 0, 'depth': 4.361, 'time': 4.66, 'pitch': -0.33, 'roll': -7.71}
{'lipoC2': 7.78, 'temp': 23.5, 'lipoC3S3': 11.75, 'rot1': 0, 'rot0': 0, 'rot3': 15, 'rot2': 19, 'state': 'normal', 'yaw': -9.31, 'datetime': '2018-10-12 14:05:51.983815', 'mgs': 0, 'depth': 4.437, 'time': 4.76, 'pitch': -0.31, 'roll': -7.81}
{'lipoC2': 7.78, 'temp': 23.63, 'lipoC3S3': 11.71, 'rot1': 0, 'rot0': 0, 'rot3': 16, 'rot2': 20, 'state': 'normal', 'yaw': -9.49, 'datetime': '2018-10-12 14:05:52.080861', 'mgs': 0, 'depth': 4.437, 'time': 4.86, 'pitch': -0.3, 'roll': -7.79}
{'lipoC2': 7.78, 'temp': 23.63, 'lipoC3S3': 11.73, 'rot1': 0, 'rot0': 0, 'rot3': 16, 'rot2': 20, 'state': 'normal', 'yaw': -9.67, 'datetime': '2018-10-12 14:05:52.178472', 'mgs': 0, 'depth': 4.514, 'time': 4.95, 'pitch': -0.26, 'roll': -7.65}
{'lipoC2': 7.78, 'temp': 23.63, 'lipoC3S3': 11.73, 'rot1': 0, 'rot0': 0, 'rot3': 16, 'rot2': 21, 'state': 'normal', 'yaw': -9.9, 'datetime': '2018-10-12 14:05:52.275985', 'mgs': 0, 'depth': 4.819, 'time': 5.05, 'pitch': -0.22, 'roll': -7.41}
{'lipoC2': 7.78, 'temp': 23.5, 'lipoC3S3': 11.77, 'rot1': 0, 'rot0': 0, 'rot3': 17, 'rot2': 21, 'state': 'normal', 'yaw': -10.13, 'datetime': '2018-10-12 14:05:52.372858', 'mgs': 0, 'depth': 4.59, 'time': 5.15, 'pitch': -0.24, 'roll': -7.08}
{'lipoC2': 7.77, 'temp': 23.5, 'lipoC3S3': 11.77, 'rot1': 0, 'rot0': 0, 'rot3': 17, 'rot2': 21, 'state': 'normal', 'yaw': -10.36, 'datetime': '2018-10-12 14:05:52.469889', 'mgs': 0, 'depth': 4.742, 'time': 5.24, 'pitch': -0.31, 'roll': -6.62}
{'lipoC2': 7.78, 'temp': 23.5, 'lipoC3S3': 11.77, 'rot1': 0, 'rot0': 0, 'rot3': 17, 'rot2': 21, 'state': 'normal', 'yaw': -10.54, 'datetime': '2018-10-12 14:05:52.567003', 'mgs': 0, 'depth': 4.742, 'time': 5.34, 'pitch': -0.4, 'roll': -6.13}
{'lipoC2': 7.77, 'temp': 23.5, 'lipoC3S3': 11.76, 'rot1': 0, 'rot0': 0, 'rot3': 17, 'rot2': 21, 'state': 'normal', 'yaw': -10.72, 'datetime': '2018-10-12 14:05:52.663965', 'mgs': 0, 'depth': 4.742, 'time': 5.44, 'pitch': -0.49, 'roll': -5.58}
{'lipoC2': 7.78, 'temp': 23.5, 'lipoC3S3': 11.77, 'rot1': 0, 'rot0': 0, 'rot3': 17, 'rot2': 21, 'state': 'normal', 'yaw': -10.91, 'datetime': '2018-10-12 14:05:52.761012', 'mgs': 0, 'depth': 4.819, 'time': 5.54, 'pitch': -0.55, 'roll': -5.05}
{'lipoC2': 7.77, 'temp': 23.5, 'lipoC3S3': 11.77, 'rot1': 0, 'rot0': 0, 'rot3': 17, 'rot2': 21, 'state': 'normal', 'yaw': -11.09, 'datetime': '2018-10-12 14:05:52.858048', 'mgs': 0, 'depth': 4.895, 'time': 5.63, 'pitch': -0.6, 'roll': -4.59}
{'lipoC2': 7.78, 'temp': 23.5, 'lipoC3S3': 11.67, 'rot1': 0, 'rot0': 0, 'rot3': 18, 'rot2': 21, 'state': 'normal', 'yaw': -11.28, 'datetime': '2018-10-12 14:05:52.955136', 'mgs': 0, 'depth': 4.895, 'time': 5.73, 'pitch': -0.63, 'roll': -4.12}
{'lipoC2': 7.77, 'temp': 23.5, 'lipoC3S3': 11.73, 'rot1': 0, 'rot0': 0, 'rot3': 18, 'rot2': 22, 'state': 'normal', 'yaw': -11.49, 'datetime': '2018-10-12 14:05:53.052237', 'mgs': 0, 'depth': 5.276, 'time': 5.83, 'pitch': -0.73, 'roll': -3.63}
{'lipoC2': 7.78, 'temp': 23.5, 'lipoC3S3': 11.73, 'rot1': 0, 'rot0': 0, 'rot3': 18, 'rot2': 22, 'state': 'normal', 'yaw': -11.68, 'datetime': '2018-10-12 14:05:53.150031', 'mgs': 0, 'depth': 5.2, 'time': 5.93, 'pitch': -0.82, 'roll': -3.16}
{'lipoC2': 7.78, 'temp': 23.5, 'lipoC3S3': 11.69, 'rot1': 0, 'rot0': 0, 'rot3': 19, 'rot2': 23, 'state': 'normal', 'yaw': -11.91, 'datetime': '2018-10-12 14:05:53.248301', 'mgs': 0, 'depth': 4.895, 'time': 6.02, 'pitch': -0.88, 'roll': -2.67}
{'lipoC2': 7.78, 'temp': 23.5, 'lipoC3S3': 11.75, 'rot1': 0, 'rot0': 0, 'rot3': 19, 'rot2': 23, 'state': 'normal', 'yaw': -12.12, 'datetime': '2018-10-12 14:05:53.341401', 'mgs': 0, 'depth': 4.895, 'time': 6.12, 'pitch': -0.88, 'roll': -2.28}
{'lipoC2': 7.78, 'temp': 23.5, 'lipoC3S3': 11.71, 'rot1': 0, 'rot0': 0, 'rot3': 20, 'rot2': 24, 'state': 'normal', 'yaw': -12.34, 'datetime': '2018-10-12 14:05:53.438310', 'mgs': 0, 'depth': 4.819, 'time': 6.22, 'pitch': -0.89, 'roll': -2.04}
{'lipoC2': 7.77, 'temp': 23.5, 'lipoC3S3': 11.77, 'rot1': 0, 'rot0': 0, 'rot3': 20, 'rot2': 24, 'state': 'normal', 'yaw': -12.53, 'datetime': '2018-10-12 14:05:53.536843', 'mgs': 0, 'depth': 4.895, 'time': 6.32, 'pitch': -0.9, 'roll': -1.95}
{'lipoC2': 7.77, 'temp': 23.5, 'lipoC3S3': 11.77, 'rot1': 0, 'rot0': 0, 'rot3': 20, 'rot2': 24, 'state': 'normal', 'yaw': -12.73, 'datetime': '2018-10-12 14:05:53.634418', 'mgs': 0, 'depth': 4.895, 'time': 6.41, 'pitch': -0.86, 'roll': -2.08}
{'lipoC2': 7.78, 'temp': 23.5, 'lipoC3S3': 11.72, 'rot1': 0, 'rot0': 0, 'rot3': 20, 'rot2': 24, 'state': 'normal', 'yaw': -12.9, 'datetime': '2018-10-12 14:05:53.731603', 'mgs': 0, 'depth': 4.819, 'time': 6.51, 'pitch': -0.78, 'roll': -2.45}
{'lipoC2': 7.78, 'temp': 23.5, 'lipoC3S3': 11.68, 'rot1': 0, 'rot0': 0, 'rot3': 20, 'rot2': 25, 'state': 'normal', 'yaw': -13.06, 'datetime': '2018-10-12 14:05:53.828510', 'mgs': 0, 'depth': 4.819, 'time': 6.61, 'pitch': -0.71, 'roll': -2.89}
{'lipoC2': 7.78, 'temp': 23.5, 'lipoC3S3': 11.77, 'rot1': 0, 'rot0': 0, 'rot3': 20, 'rot2': 25, 'state': 'normal', 'yaw': -13.2, 'datetime': '2018-10-12 14:05:53.925998', 'mgs': 0, 'depth': 4.742, 'time': 6.71, 'pitch': -0.65, 'roll': -3.28}
{'lipoC2': 7.77, 'temp': 23.44, 'lipoC3S3': 11.77, 'rot1': 0, 'rot0': 0, 'rot3': 20, 'rot2': 25, 'state': 'normal', 'yaw': -13.36, 'datetime': '2018-10-12 14:05:54.022988', 'mgs': 0, 'depth': 4.819, 'time': 6.8, 'pitch': -0.55, 'roll': -3.83}
{'lipoC2': 7.78, 'temp': 23.44, 'lipoC3S3': 11.77, 'rot1': 0, 'rot0': 0, 'rot3': 20, 'rot2': 25, 'state': 'normal', 'yaw': -13.5, 'datetime': '2018-10-12 14:05:54.120108', 'mgs': 0, 'depth': 4.666, 'time': 6.9, 'pitch': -0.43, 'roll': -4.48}
{'lipoC2': 7.78, 'temp': 23.44, 'lipoC3S3': 11.77, 'rot1': 0, 'rot0': 0, 'rot3': 20, 'rot2': 25, 'state': 'normal', 'yaw': -13.63, 'datetime': '2018-10-12 14:05:54.217263', 'mgs': 0, 'depth': 4.666, 'time': 7.0, 'pitch': -0.33, 'roll': -5.09}
{'lipoC2': 7.77, 'temp': 23.56, 'lipoC3S3': 11.77, 'rot1': 0, 'rot0': 0, 'rot3': 20, 'rot2': 25, 'state': 'normal', 'yaw': -13.75, 'datetime': '2018-10-12 14:05:54.314424', 'mgs': 0, 'depth': 4.59, 'time': 7.1, 'pitch': -0.23, 'roll': -5.74}
{'lipoC2': 7.78, 'temp': 23.56, 'lipoC3S3': 11.77, 'rot1': 0, 'rot0': 0, 'rot3': 20, 'rot2': 25, 'state': 'normal', 'yaw': -13.88, 'datetime': '2018-10-12 14:05:54.411405', 'mgs': 0, 'depth': 4.59, 'time': 7.19, 'pitch': -0.16, 'roll': -6.31}
{'lipoC2': 7.77, 'temp': 23.56, 'lipoC3S3': 11.77, 'rot1': 0, 'rot0': 0, 'rot3': 20, 'rot2': 25, 'state': 'normal', 'yaw': -14.01, 'datetime': '2018-10-12 14:05:54.508523', 'mgs': 0, 'depth': 4.59, 'time': 7.29, 'pitch': -0.11, 'roll': -6.76}
{'lipoC2': 7.78, 'temp': 23.56, 'lipoC3S3': 11.77, 'rot1': 0, 'rot0': 0, 'rot3': 20, 'rot2': 25, 'state': 'normal', 'yaw': -14.13, 'datetime': '2018-10-12 14:05:54.605546', 'mgs': 0, 'depth': 4.59, 'time': 7.39, 'pitch': -0.12, 'roll': -7.07}
{'lipoC2': 7.78, 'temp': 23.56, 'lipoC3S3': 11.77, 'rot1': 0, 'rot0': 0, 'rot3': 20, 'rot2': 25, 'state': 'normal', 'yaw': -14.26, 'datetime': '2018-10-12 14:05:54.702651', 'mgs': 0, 'depth': 4.514, 'time': 7.48, 'pitch': -0.15, 'roll': -7.28}
{'lipoC2': 7.78, 'temp': 23.5, 'lipoC3S3': 11.77, 'rot1': 0, 'rot0': 0, 'rot3': 20, 'rot2': 25, 'state': 'normal', 'yaw': -14.4, 'datetime': '2018-10-12 14:05:54.799597', 'mgs': 0, 'depth': 4.514, 'time': 7.58, 'pitch': -0.17, 'roll': -7.35}
{'lipoC2': 7.78, 'temp': 23.5, 'lipoC3S3': 11.68, 'rot1': 0, 'rot0': 0, 'rot3': 21, 'rot2': 25, 'state': 'normal', 'yaw': -14.52, 'datetime': '2018-10-12 14:05:54.898193', 'mgs': 0, 'depth': 4.59, 'time': 7.68, 'pitch': -0.19, 'roll': -7.34}
{'lipoC2': 7.78, 'temp': 23.56, 'lipoC3S3': 11.75, 'rot1': 0, 'rot0': 0, 'rot3': 21, 'rot2': 26, 'state': 'normal', 'yaw': -14.65, 'datetime': '2018-10-12 14:05:55.005224', 'mgs': 0, 'depth': 4.59, 'time': 7.78, 'pitch': -0.21, 'roll': -7.32}
{'lipoC2': 7.78, 'temp': 23.56, 'lipoC3S3': 11.77, 'rot1': 0, 'rot0': 0, 'rot3': 21, 'rot2': 26, 'state': 'normal', 'yaw': -14.78, 'datetime': '2018-10-12 14:05:55.093167', 'mgs': 0, 'depth': 4.514, 'time': 7.88, 'pitch': -0.22, 'roll': -7.32}
{'lipoC2': 7.78, 'temp': 23.56, 'lipoC3S3': 11.77, 'rot1': 0, 'rot0': 0, 'rot3': 21, 'rot2': 26, 'state': 'normal', 'yaw': -14.91, 'datetime': '2018-10-12 14:05:55.190158', 'mgs': 0, 'depth': 4.437, 'time': 7.97, 'pitch': -0.24, 'roll': -7.15}
{'lipoC2': 7.78, 'temp': 23.44, 'lipoC3S3': 11.73, 'rot1': 0, 'rot0': 0, 'rot3': 21, 'rot2': 26, 'state': 'normal', 'yaw': -15.02, 'datetime': '2018-10-12 14:05:55.288220', 'mgs': 0, 'depth': 4.59, 'time': 8.07, 'pitch': -0.26, 'roll': -6.88}
{'lipoC2': 7.78, 'temp': 23.44, 'lipoC3S3': 11.73, 'rot1': 0, 'rot0': 0, 'rot3': 22, 'rot2': 27, 'state': 'normal', 'yaw': -15.14, 'datetime': '2018-10-12 14:05:55.386544', 'mgs': 0, 'depth': 4.59, 'time': 8.17, 'pitch': -0.27, 'roll': -6.58}
{'lipoC2': 7.77, 'temp': 23.5, 'lipoC3S3': 11.77, 'rot1': 0, 'rot0': 0, 'rot3': 22, 'rot2': 27, 'state': 'normal', 'yaw': -15.21, 'datetime': '2018-10-12 14:05:55.483936', 'mgs': 0, 'depth': 4.59, 'time': 8.27, 'pitch': -0.24, 'roll': -6.33}
{'lipoC2': 7.78, 'temp': 23.5, 'lipoC3S3': 11.79, 'rot1': 0, 'rot0': 0, 'rot3': 22, 'rot2': 27, 'state': 'normal', 'yaw': -15.15, 'datetime': '2018-10-12 14:05:55.580916', 'mgs': 0, 'depth': 4.514, 'time': 8.36, 'pitch': -0.14, 'roll': -5.77}
{'lipoC2': 7.78, 'temp': 23.5, 'lipoC3S3': 11.72, 'rot1': 0, 'rot0': 0, 'rot3': 22, 'rot2': 27, 'state': 'normal', 'yaw': -15.01, 'datetime': '2018-10-12 14:05:55.678894', 'mgs': 0, 'depth': 4.666, 'time': 8.46, 'pitch': -0.02, 'roll': -5.18}
{'lipoC2': 7.78, 'temp': 23.56, 'lipoC3S3': 11.75, 'rot1': 0, 'rot0': 0, 'rot3': 23, 'rot2': 27, 'state': 'normal', 'yaw': -14.86, 'datetime': '2018-10-12 14:05:55.775911', 'mgs': 0, 'depth': 4.895, 'time': 8.56, 'pitch': 0.12, 'roll': -4.63}
{'lipoC2': 7.78, 'temp': 23.56, 'lipoC3S3': 11.72, 'rot1': 0, 'rot0': 0, 'rot3': 23, 'rot2': 28, 'state': 'normal', 'yaw': -14.72, 'datetime': '2018-10-12 14:05:55.877922', 'mgs': 0, 'depth': 4.437, 'time': 8.66, 'pitch': 0.24, 'roll': -4.24}
{'lipoC2': 7.78, 'temp': 23.5, 'lipoC3S3': 11.69, 'rot1': 0, 'rot0': 0, 'rot3': 24, 'rot2': 29, 'state': 'normal', 'yaw': -14.47, 'datetime': '2018-10-12 14:05:55.975374', 'mgs': 0, 'depth': 4.437, 'time': 8.75, 'pitch': 0.34, 'roll': -3.8}
{'lipoC2': 7.78, 'temp': 23.5, 'lipoC3S3': 11.72, 'rot1': 0, 'rot0': 0, 'rot3': 24, 'rot2': 29, 'state': 'normal', 'yaw': -14.13, 'datetime': '2018-10-12 14:05:56.072402', 'mgs': 0, 'depth': 4.666, 'time': 8.85, 'pitch': 0.48, 'roll': -3.68}
{'lipoC2': 7.78, 'temp': 23.5, 'lipoC3S3': 11.75, 'rot1': 0, 'rot0': 0, 'rot3': 25, 'rot2': 29, 'state': 'normal', 'yaw': -13.59, 'datetime': '2018-10-12 14:05:56.169569', 'mgs': 0, 'depth': 4.437, 'time': 8.95, 'pitch': 0.77, 'roll': -4.16}
{'lipoC2': 7.77, 'temp': 23.5, 'lipoC3S3': 11.72, 'rot1': 0, 'rot0': 0, 'rot3': 25, 'rot2': 30, 'state': 'normal', 'yaw': -12.94, 'datetime': '2018-10-12 14:05:56.266442', 'mgs': 0, 'depth': 4.437, 'time': 9.04, 'pitch': 1.14, 'roll': -5.02}
{'lipoC2': 7.78, 'temp': 23.5, 'lipoC3S3': 11.69, 'rot1': 0, 'rot0': 0, 'rot3': 25, 'rot2': 30, 'state': 'normal', 'yaw': -12.3, 'datetime': '2018-10-12 14:05:56.363507', 'mgs': 0, 'depth': 4.285, 'time': 9.14, 'pitch': 1.46, 'roll': -5.91}
{'lipoC2': 7.78, 'temp': 23.56, 'lipoC3S3': 11.73, 'rot1': 0, 'rot0': 0, 'rot3': 26, 'rot2': 31, 'state': 'normal', 'yaw': -11.58, 'datetime': '2018-10-12 14:05:56.460593', 'mgs': 0, 'depth': 4.514, 'time': 9.24, 'pitch': 1.74, 'roll': -6.84}
{'lipoC2': 7.78, 'temp': 23.56, 'lipoC3S3': 11.73, 'rot1': 0, 'rot0': 0, 'rot3': 26, 'rot2': 31, 'state': 'normal', 'yaw': -10.87, 'datetime': '2018-10-12 14:05:56.557579', 'mgs': 0, 'depth': 4.361, 'time': 9.34, 'pitch': 1.91, 'roll': -7.65}
{'lipoC2': 7.78, 'temp': 23.56, 'lipoC3S3': 11.69, 'rot1': 0, 'rot0': 0, 'rot3': 27, 'rot2': 32, 'state': 'normal', 'yaw': -10.22, 'datetime': '2018-10-12 14:05:56.655993', 'mgs': 0, 'depth': 4.285, 'time': 9.44, 'pitch': 1.97, 'roll': -8.24}
{'lipoC2': 7.77, 'temp': 23.5, 'lipoC3S3': 11.73, 'rot1': 0, 'rot0': 0, 'rot3': 27, 'rot2': 32, 'state': 'normal', 'yaw': -9.49, 'datetime': '2018-10-12 14:05:56.754492', 'mgs': 0, 'depth': 4.361, 'time': 9.53, 'pitch': 1.93, 'roll': -8.7}
{'lipoC2': 7.78, 'temp': 23.5, 'lipoC3S3': 11.69, 'rot1': 0, 'rot0': 0, 'rot3': 27, 'rot2': 33, 'state': 'normal', 'yaw': -8.77, 'datetime': '2018-10-12 14:05:56.851321', 'mgs': 0, 'depth': 4.285, 'time': 9.63, 'pitch': 1.79, 'roll': -8.95}
{'lipoC2': 7.78, 'temp': 23.5, 'lipoC3S3': 11.73, 'rot1': 0, 'rot0': 0, 'rot3': 28, 'rot2': 33, 'state': 'normal', 'yaw': -7.9, 'datetime': '2018-10-12 14:05:56.948334', 'mgs': 0, 'depth': 4.514, 'time': 9.73, 'pitch': 1.68, 'roll': -9.15}
{'lipoC2': 7.78, 'temp': 23.5, 'lipoC3S3': 11.73, 'rot1': 0, 'rot0': 0, 'rot3': 28, 'rot2': 34, 'state': 'normal', 'yaw': -6.97, 'datetime': '2018-10-12 14:05:57.046373', 'mgs': 0, 'depth': 4.208, 'time': 9.83, 'pitch': 1.65, 'roll': -9.77}
{'lipoC2': 7.78, 'temp': 23.5, 'lipoC3S3': 11.73, 'rot1': 0, 'rot0': 0, 'rot3': 29, 'rot2': 34, 'state': 'normal', 'yaw': -5.96, 'datetime': '2018-10-12 14:05:57.144821', 'mgs': 0, 'depth': 4.361, 'time': 9.92, 'pitch': 1.57, 'roll': -11.68}
{'lipoC2': 7.77, 'temp': 23.56, 'lipoC3S3': 11.67, 'rot1': 0, 'rot0': 0, 'rot3': 29, 'rot2': 35, 'state': 'normal', 'yaw': -5.03, 'datetime': '2018-10-12 14:05:57.242367', 'mgs': 0, 'depth': 4.132, 'time': 10.02, 'pitch': 1.34, 'roll': -15.45}
{'lipoC2': 7.78, 'temp': 23.56, 'lipoC3S3': 11.73, 'rot1': 0, 'rot0': 0, 'rot3': 29, 'rot2': 35, 'state': 'normal', 'yaw': -3.82, 'datetime': '2018-10-12 14:05:57.339357', 'mgs': 0, 'depth': 4.361, 'time': 10.12, 'pitch': 1.29, 'roll': -19.33}
{'lipoC2': 7.78, 'temp': 23.5, 'lipoC3S3': 11.75, 'rot1': 0, 'rot0': 0, 'rot3': 30, 'rot2': 36, 'state': 'normal', 'yaw': -2.62, 'datetime': '2018-10-12 14:05:57.437283', 'mgs': 0, 'depth': 3.979, 'time': 10.22, 'pitch': 1.34, 'roll': -21.57}
{'lipoC2': 7.78, 'temp': 23.5, 'lipoC3S3': 11.72, 'rot1': 0, 'rot0': 0, 'rot3': 30, 'rot2': 36, 'state': 'normal', 'yaw': -1.43, 'datetime': '2018-10-12 14:05:57.535608', 'mgs': 0, 'depth': 3.827, 'time': 10.31, 'pitch': 1.39, 'roll': -24.46}
{'lipoC2': 7.78, 'temp': 23.5, 'lipoC3S3': 11.72, 'rot1': 0, 'rot0': 0, 'rot3': 30, 'rot2': 37, 'state': 'normal', 'yaw': -0.48, 'datetime': '2018-10-12 14:05:57.632625', 'mgs': 0, 'depth': 3.979, 'time': 10.41, 'pitch': 1.52, 'roll': -28.2}
{'lipoC2': 7.77, 'temp': 23.5, 'lipoC3S3': 11.73, 'rot1': 0, 'rot0': 0, 'rot3': 31, 'rot2': 37, 'state': 'normal', 'yaw': 0.29, 'datetime': '2018-10-12 14:05:57.727787', 'mgs': 0, 'depth': 3.522, 'time': 10.51, 'pitch': 1.72, 'roll': -31.99}
{'lipoC2': 7.77, 'temp': 23.5, 'lipoC3S3': 11.69, 'rot1': 0, 'rot0': 0, 'rot3': 31, 'rot2': 38, 'state': 'normal', 'yaw': 0.68, 'datetime': '2018-10-12 14:05:57.826716', 'mgs': 0, 'depth': 3.445, 'time': 10.61, 'pitch': 1.69, 'roll': -35.47}
{'lipoC2': 7.78, 'temp': 23.5, 'lipoC3S3': 11.67, 'rot1': 0, 'rot0': 0, 'rot3': 32, 'rot2': 39, 'state': 'normal', 'yaw': 0.94, 'datetime': '2018-10-12 14:05:57.923785', 'mgs': 0, 'depth': 3.217, 'time': 10.7, 'pitch': 1.49, 'roll': -38.46}
{'lipoC2': 7.78, 'temp': 23.5, 'lipoC3S3': 11.71, 'rot1': 0, 'rot0': 0, 'rot3': 32, 'rot2': 39, 'state': 'normal', 'yaw': 1.01, 'datetime': '2018-10-12 14:05:58.019252', 'mgs': 0, 'depth': 3.14, 'time': 10.8, 'pitch': 1.13, 'roll': -39.78}
{'lipoC2': 7.78, 'temp': 23.5, 'lipoC3S3': 11.71, 'rot1': 0, 'rot0': 0, 'rot3': 32, 'rot2': 40, 'state': 'normal', 'yaw': 0.91, 'datetime': '2018-10-12 14:05:58.117926', 'mgs': 0, 'depth': 2.682, 'time': 10.9, 'pitch': 0.79, 'roll': -39.26}
{'lipoC2': 7.78, 'temp': 23.69, 'lipoC3S3': 11.67, 'rot1': 0, 'rot0': 0, 'rot3': 33, 'rot2': 40, 'state': 'normal', 'yaw': 0.57, 'datetime': '2018-10-12 14:05:58.215276', 'mgs': 0, 'depth': 2.454, 'time': 10.99, 'pitch': 0.47, 'roll': -37.54}
{'lipoC2': 7.78, 'temp': 23.69, 'lipoC3S3': 11.65, 'rot1': 0, 'rot0': 0, 'rot3': 33, 'rot2': 41, 'state': 'normal', 'yaw': -0.06, 'datetime': '2018-10-12 14:05:58.312137', 'mgs': 0, 'depth': 2.454, 'time': 11.09, 'pitch': 0.29, 'roll': -35.42}
{'lipoC2': 7.78, 'temp': 23.5, 'lipoC3S3': 11.65, 'rot1': 0, 'rot0': 0, 'rot3': 34, 'rot2': 41, 'state': 'normal', 'yaw': -0.77, 'datetime': '2018-10-12 14:05:58.409649', 'mgs': 0, 'depth': 2.225, 'time': 11.19, 'pitch': 0.24, 'roll': -33.31}
{'lipoC2': 7.78, 'temp': 23.5, 'lipoC3S3': 11.69, 'rot1': 0, 'rot0': 0, 'rot3': 34, 'rot2': 42, 'state': 'normal', 'yaw': -1.59, 'datetime': '2018-10-12 14:05:58.508514', 'mgs': 0, 'depth': 2.301, 'time': 11.29, 'pitch': 0.36, 'roll': -31.65}
{'lipoC2': 7.77, 'temp': 23.5, 'lipoC3S3': 11.67, 'rot1': 0, 'rot0': 0, 'rot3': 35, 'rot2': 43, 'state': 'normal', 'yaw': -2.56, 'datetime': '2018-10-12 14:05:58.610055', 'mgs': 0, 'depth': 1.996, 'time': 11.39, 'pitch': 0.42, 'roll': -30.63}
{'lipoC2': 7.78, 'temp': 23.56, 'lipoC3S3': 11.65, 'rot1': 0, 'rot0': 0, 'rot3': 35, 'rot2': 43, 'state': 'normal', 'yaw': -3.59, 'datetime': '2018-10-12 14:05:58.696775', 'mgs': 0, 'depth': 1.996, 'time': 11.48, 'pitch': 0.38, 'roll': -29.92}
{'lipoC2': 7.77, 'temp': 23.56, 'lipoC3S3': 11.64, 'rot1': 0, 'rot0': 0, 'rot3': 36, 'rot2': 44, 'state': 'normal', 'yaw': -4.54, 'datetime': '2018-10-12 14:05:58.794597', 'mgs': 0, 'depth': 1.996, 'time': 11.58, 'pitch': 0.45, 'roll': -29.5}
{'lipoC2': 7.77, 'temp': 23.5, 'lipoC3S3': 11.67, 'rot1': 0, 'rot0': 0, 'rot3': 37, 'rot2': 45, 'state': 'normal', 'yaw': -5.61, 'datetime': '2018-10-12 14:05:58.892892', 'mgs': 0, 'depth': 1.767, 'time': 11.68, 'pitch': 0.67, 'roll': -29.27}
{'lipoC2': 7.78, 'temp': 23.5, 'lipoC3S3': 11.65, 'rot1': 0, 'rot0': 0, 'rot3': 37, 'rot2': 45, 'state': 'normal', 'yaw': -6.63, 'datetime': '2018-10-12 14:05:58.990012', 'mgs': 0, 'depth': 1.767, 'time': 11.78, 'pitch': 1.09, 'roll': -29.26}
{'lipoC2': 7.78, 'temp': 23.5, 'lipoC3S3': 11.64, 'rot1': 0, 'rot0': 0, 'rot3': 38, 'rot2': 46, 'state': 'normal', 'yaw': -7.65, 'datetime': '2018-10-12 14:05:59.086979', 'mgs': 0, 'depth': 1.92, 'time': 11.87, 'pitch': 1.55, 'roll': -29.22}
{'lipoC2': 7.78, 'temp': 23.5, 'lipoC3S3': 11.64, 'rot1': 0, 'rot0': 0, 'rot3': 38, 'rot2': 47, 'state': 'normal', 'yaw': -8.52, 'datetime': '2018-10-12 14:05:59.184719', 'mgs': 0, 'depth': 1.92, 'time': 11.97, 'pitch': 1.88, 'roll': -29.06}
{'lipoC2': 7.78, 'temp': 23.5, 'lipoC3S3': 11.69, 'rot1': 0, 'rot0': 0, 'rot3': 39, 'rot2': 47, 'state': 'normal', 'yaw': -9.4, 'datetime': '2018-10-12 14:05:59.281682', 'mgs': 0, 'depth': 1.767, 'time': 12.07, 'pitch': 2.23, 'roll': -28.91}
{'lipoC2': 7.77, 'temp': 23.5, 'lipoC3S3': 11.67, 'rot1': 0, 'rot0': 0, 'rot3': 39, 'rot2': 48, 'state': 'normal', 'yaw': -10.22, 'datetime': '2018-10-12 14:05:59.386571', 'mgs': 0, 'depth': 1.996, 'time': 12.17, 'pitch': 2.66, 'roll': -28.94}
{'lipoC2': 7.78, 'temp': 23.5, 'lipoC3S3': 11.64, 'rot1': 0, 'rot0': 0, 'rot3': 40, 'rot2': 49, 'state': 'normal', 'yaw': -10.89, 'datetime': '2018-10-12 14:05:59.483827', 'mgs': 0, 'depth': 1.92, 'time': 12.26, 'pitch': 3.06, 'roll': -29.0}
{'lipoC2': 7.78, 'temp': 23.5, 'lipoC3S3': 11.68, 'rot1': 0, 'rot0': 0, 'rot3': 40, 'rot2': 49, 'state': 'normal', 'yaw': -11.53, 'datetime': '2018-10-12 14:05:59.581014', 'mgs': 0, 'depth': 1.843, 'time': 12.36, 'pitch': 3.49, 'roll': -28.97}
{'lipoC2': 7.77, 'temp': 23.5, 'lipoC3S3': 11.69, 'rot1': 0, 'rot0': 0, 'rot3': 41, 'rot2': 50, 'state': 'normal', 'yaw': -12.09, 'datetime': '2018-10-12 14:05:59.677904', 'mgs': 0, 'depth': 1.843, 'time': 12.46, 'pitch': 3.87, 'roll': -28.7}
{'lipoC2': 7.78, 'temp': 23.5, 'lipoC3S3': 11.64, 'rot1': 0, 'rot0': 0, 'rot3': 41, 'rot2': 51, 'state': 'normal', 'yaw': -12.62, 'datetime': '2018-10-12 14:05:59.775279', 'mgs': 0, 'depth': 1.538, 'time': 12.56, 'pitch': 4.08, 'roll': -28.28}
{'lipoC2': 7.78, 'temp': 23.5, 'lipoC3S3': 11.67, 'rot1': 0, 'rot0': 0, 'rot3': 42, 'rot2': 51, 'state': 'normal', 'yaw': -13.06, 'datetime': '2018-10-12 14:05:59.872169', 'mgs': 0, 'depth': 1.691, 'time': 12.65, 'pitch': 4.15, 'roll': -28.14}
{'lipoC2': 7.78, 'temp': 23.5, 'lipoC3S3': 11.68, 'rot1': 0, 'rot0': 0, 'rot3': 42, 'rot2': 52, 'state': 'normal', 'yaw': -13.5, 'datetime': '2018-10-12 14:05:59.969174', 'mgs': 0, 'depth': 1.767, 'time': 12.75, 'pitch': 4.12, 'roll': -28.34}
{'lipoC2': 7.78, 'temp': 23.56, 'lipoC3S3': 11.67, 'rot1': 0, 'rot0': 0, 'rot3': 43, 'rot2': 53, 'state': 'normal', 'yaw': -13.91, 'datetime': '2018-10-12 14:06:00.066247', 'mgs': 0, 'depth': 1.538, 'time': 12.85, 'pitch': 4.02, 'roll': -28.75}
{'lipoC2': 7.78, 'temp': 23.56, 'lipoC3S3': 11.71, 'rot1': 0, 'rot0': 0, 'rot3': 44, 'rot2': 53, 'state': 'normal', 'yaw': -14.18, 'datetime': '2018-10-12 14:06:00.164633', 'mgs': 0, 'depth': 1.767, 'time': 12.94, 'pitch': 3.96, 'roll': -29.12}
{'lipoC2': 7.78, 'temp': 23.56, 'lipoC3S3': 11.67, 'rot1': 0, 'rot0': 0, 'rot3': 44, 'rot2': 54, 'state': 'normal', 'yaw': -14.42, 'datetime': '2018-10-12 14:06:00.262910', 'mgs': 0, 'depth': 1.691, 'time': 13.04, 'pitch': 3.91, 'roll': -29.4}
{'lipoC2': 7.78, 'temp': 23.5, 'lipoC3S3': 11.65, 'rot1': 0, 'rot0': 0, 'rot3': 45, 'rot2': 55, 'state': 'normal', 'yaw': -14.65, 'datetime': '2018-10-12 14:06:00.360025', 'mgs': 0, 'depth': 1.843, 'time': 13.14, 'pitch': 3.84, 'roll': -29.44}
{'lipoC2': 7.78, 'temp': 23.5, 'lipoC3S3': 11.68, 'rot1': 0, 'rot0': 0, 'rot3': 45, 'rot2': 55, 'state': 'normal', 'yaw': -14.83, 'datetime': '2018-10-12 14:06:00.457166', 'mgs': 0, 'depth': 1.996, 'time': 13.24, 'pitch': 3.68, 'roll': -29.2}
{'lipoC2': 7.78, 'temp': 23.5, 'lipoC3S3': 11.67, 'rot1': 0, 'rot0': 0, 'rot3': 46, 'rot2': 56, 'state': 'normal', 'yaw': -14.94, 'datetime': '2018-10-12 14:06:00.555277', 'mgs': 0, 'depth': 1.691, 'time': 13.34, 'pitch': 3.47, 'roll': -28.86}
{'lipoC2': 7.78, 'temp': 23.5, 'lipoC3S3': 11.67, 'rot1': 0, 'rot0': 0, 'rot3': 46, 'rot2': 57, 'state': 'normal', 'yaw': -14.91, 'datetime': '2018-10-12 14:06:00.653530', 'mgs': 0, 'depth': 1.92, 'time': 13.43, 'pitch': 3.3, 'roll': -28.38}
{'lipoC2': 7.78, 'temp': 23.5, 'lipoC3S3': 11.65, 'rot1': 0, 'rot0': 0, 'rot3': 47, 'rot2': 58, 'state': 'normal', 'yaw': -14.77, 'datetime': '2018-10-12 14:06:00.750960', 'mgs': 0, 'depth': 1.691, 'time': 13.53, 'pitch': 3.17, 'roll': -27.97}
{'lipoC2': 7.78, 'temp': 23.5, 'lipoC3S3': 11.69, 'rot1': 0, 'rot0': 0, 'rot3': 47, 'rot2': 58, 'state': 'normal', 'yaw': -14.69, 'datetime': '2018-10-12 14:06:00.848969', 'mgs': 0, 'depth': 1.691, 'time': 13.63, 'pitch': 3.08, 'roll': -27.69}
{'lipoC2': 7.78, 'temp': 23.5, 'lipoC3S3': 11.67, 'rot1': 0, 'rot0': 0, 'rot3': 48, 'rot2': 59, 'state': 'normal', 'yaw': -14.61, 'datetime': '2018-10-12 14:06:00.946005', 'mgs': 0, 'depth': 1.92, 'time': 13.73, 'pitch': 3.0, 'roll': -27.61}
{'lipoC2': 7.77, 'temp': 23.56, 'lipoC3S3': 11.65, 'rot1': 0, 'rot0': 0, 'rot3': 49, 'rot2': 59, 'state': 'normal', 'yaw': -14.55, 'datetime': '2018-10-12 14:06:01.038974', 'mgs': 0, 'depth': 1.691, 'time': 13.82, 'pitch': 2.89, 'roll': -27.76}
{'lipoC2': 7.78, 'temp': 23.56, 'lipoC3S3': 11.63, 'rot1': 0, 'rot0': 0, 'rot3': 49, 'rot2': 60, 'state': 'normal', 'yaw': -14.51, 'datetime': '2018-10-12 14:06:01.135433', 'mgs': 0, 'depth': 1.92, 'time': 13.92, 'pitch': 2.8, 'roll': -27.93}
{'lipoC2': 7.78, 'temp': 23.56, 'lipoC3S3': 11.68, 'rot1': 0, 'rot0': 0, 'rot3': 50, 'rot2': 61, 'state': 'normal', 'yaw': -14.48, 'datetime': '2018-10-12 14:06:01.232387', 'mgs': 0, 'depth': 1.996, 'time': 14.02, 'pitch': 2.75, 'roll': -28.06}
{'lipoC2': 7.78, 'temp': 23.69, 'lipoC3S3': 11.65, 'rot1': 0, 'rot0': 0, 'rot3': 50, 'rot2': 61, 'state': 'normal', 'yaw': -14.46, 'datetime': '2018-10-12 14:06:01.330545', 'mgs': 0, 'depth': 1.767, 'time': 14.12, 'pitch': 2.74, 'roll': -28.17}
{'lipoC2': 7.78, 'temp': 23.69, 'lipoC3S3': 11.67, 'rot1': 0, 'rot0': 0, 'rot3': 51, 'rot2': 62, 'state': 'normal', 'yaw': -14.36, 'datetime': '2018-10-12 14:06:01.428793', 'mgs': 0, 'depth': 1.92, 'time': 14.22, 'pitch': 2.69, 'roll': -28.25}
{'lipoC2': 7.78, 'temp': 23.56, 'lipoC3S3': 11.65, 'rot1': 0, 'rot0': 0, 'rot3': 51, 'rot2': 63, 'state': 'normal', 'yaw': -14.33, 'datetime': '2018-10-12 14:06:01.526055', 'mgs': 0, 'depth': 1.843, 'time': 14.31, 'pitch': 2.62, 'roll': -28.24}
{'lipoC2': 7.78, 'temp': 23.56, 'lipoC3S3': 11.63, 'rot1': 0, 'rot0': 0, 'rot3': 52, 'rot2': 63, 'state': 'normal', 'yaw': -14.29, 'datetime': '2018-10-12 14:06:01.625961', 'mgs': 0, 'depth': 1.92, 'time': 14.41, 'pitch': 2.55, 'roll': -27.96}
{'lipoC2': 7.78, 'temp': 23.56, 'lipoC3S3': 11.68, 'rot1': 0, 'rot0': 0, 'rot3': 52, 'rot2': 64, 'state': 'normal', 'yaw': -14.28, 'datetime': '2018-10-12 14:06:01.725080', 'mgs': 0, 'depth': 2.072, 'time': 14.51, 'pitch': 2.53, 'roll': -27.54}
{'lipoC2': 7.78, 'temp': 23.5, 'lipoC3S3': 11.67, 'rot1': 0, 'rot0': 0, 'rot3': 53, 'rot2': 65, 'state': 'normal', 'yaw': -14.34, 'datetime': '2018-10-12 14:06:01.822093', 'mgs': 0, 'depth': 1.691, 'time': 14.6, 'pitch': 2.55, 'roll': -27.12}
{'lipoC2': 7.78, 'temp': 23.5, 'lipoC3S3': 11.65, 'rot1': 0, 'rot0': 0, 'rot3': 54, 'rot2': 65, 'state': 'normal', 'yaw': -14.42, 'datetime': '2018-10-12 14:06:01.919189', 'mgs': 0, 'depth': 1.843, 'time': 14.7, 'pitch': 2.68, 'roll': -26.92}
{'lipoC2': 7.78, 'temp': 23.5, 'lipoC3S3': 11.68, 'rot1': 0, 'rot0': 0, 'rot3': 54, 'rot2': 66, 'state': 'normal', 'yaw': -14.48, 'datetime': '2018-10-12 14:06:02.017412', 'mgs': 0, 'depth': 2.072, 'time': 14.8, 'pitch': 2.81, 'roll': -26.89}
{'lipoC2': 7.78, 'temp': 23.5, 'lipoC3S3': 11.64, 'rot1': 0, 'rot0': 0, 'rot3': 55, 'rot2': 67, 'state': 'normal', 'yaw': -14.56, 'datetime': '2018-10-12 14:06:02.115959', 'mgs': 0, 'depth': 1.92, 'time': 14.9, 'pitch': 2.96, 'roll': -26.99}
{'lipoC2': 7.78, 'temp': 23.5, 'lipoC3S3': 11.68, 'rot1': 0, 'rot0': 0, 'rot3': 55, 'rot2': 67, 'state': 'normal', 'yaw': -14.63, 'datetime': '2018-10-12 14:06:02.212846', 'mgs': 0, 'depth': 2.072, 'time': 14.99, 'pitch': 3.09, 'roll': -27.14}
{'lipoC2': 7.78, 'temp': 23.5, 'lipoC3S3': 11.68, 'rot1': 0, 'rot0': 0, 'rot3': 56, 'rot2': 68, 'state': 'normal', 'yaw': -14.7, 'datetime': '2018-10-12 14:06:02.309813', 'mgs': 0, 'depth': 1.996, 'time': 15.09, 'pitch': 3.22, 'roll': -27.31}
{'lipoC2': 7.78, 'temp': 23.5, 'lipoC3S3': 11.64, 'rot1': 0, 'rot0': 0, 'rot3': 56, 'rot2': 69, 'state': 'normal', 'yaw': -14.77, 'datetime': '2018-10-12 14:06:02.407985', 'mgs': 0, 'depth': 1.996, 'time': 15.19, 'pitch': 3.37, 'roll': -27.61}
{'lipoC2': 7.78, 'temp': 23.5, 'lipoC3S3': 11.68, 'rot1': 0, 'rot0': 0, 'rot3': 57, 'rot2': 69, 'state': 'normal', 'yaw': -14.84, 'datetime': '2018-10-12 14:06:02.506285', 'mgs': 0, 'depth': 2.148, 'time': 15.29, 'pitch': 3.52, 'roll': -28.12}
{'lipoC2': 7.77, 'temp': 23.5, 'lipoC3S3': 11.64, 'rot1': 0, 'rot0': 0, 'rot3': 58, 'rot2': 70, 'state': 'normal', 'yaw': -14.83, 'datetime': '2018-10-12 14:06:02.603442', 'mgs': 0, 'depth': 1.92, 'time': 15.39, 'pitch': 3.61, 'roll': -28.58}
{'lipoC2': 7.78, 'temp': 23.5, 'lipoC3S3': 11.65, 'rot1': 0, 'rot0': 0, 'rot3': 58, 'rot2': 71, 'state': 'normal', 'yaw': -14.83, 'datetime': '2018-10-12 14:06:02.700687', 'mgs': 0, 'depth': 2.072, 'time': 15.48, 'pitch': 3.62, 'roll': -28.86}
{'lipoC2': 7.78, 'temp': 23.5, 'lipoC3S3': 11.68, 'rot1': 0, 'rot0': 0, 'rot3': 59, 'rot2': 71, 'state': 'normal', 'yaw': -14.9, 'datetime': '2018-10-12 14:06:02.798814', 'mgs': 0, 'depth': 1.996, 'time': 15.58, 'pitch': 3.57, 'roll': -28.96}
{'lipoC2': 7.78, 'temp': 23.5, 'lipoC3S3': 11.65, 'rot1': 0, 'rot0': 0, 'rot3': 59, 'rot2': 72, 'state': 'normal', 'yaw': -14.95, 'datetime': '2018-10-12 14:06:02.896954', 'mgs': 0, 'depth': 1.996, 'time': 15.68, 'pitch': 3.57, 'roll': -28.93}
{'lipoC2': 7.78, 'temp': 23.5, 'lipoC3S3': 11.69, 'rot1': 0, 'rot0': 0, 'rot3': 60, 'rot2': 73, 'state': 'normal', 'yaw': -14.96, 'datetime': '2018-10-12 14:06:02.994060', 'mgs': 0, 'depth': 1.996, 'time': 15.78, 'pitch': 3.71, 'roll': -28.81}
{'lipoC2': 7.77, 'temp': 23.5, 'lipoC3S3': 11.67, 'rot1': 0, 'rot0': 0, 'rot3': 61, 'rot2': 73, 'state': 'normal', 'yaw': -14.94, 'datetime': '2018-10-12 14:06:03.091854', 'mgs': 0, 'depth': 1.92, 'time': 15.87, 'pitch': 3.87, 'roll': -28.71}
{'lipoC2': 7.78, 'temp': 23.5, 'lipoC3S3': 11.65, 'rot1': 0, 'rot0': 0, 'rot3': 61, 'rot2': 74, 'state': 'normal', 'yaw': -14.97, 'datetime': '2018-10-12 14:06:03.188313', 'mgs': 0, 'depth': 1.92, 'time': 15.97, 'pitch': 3.98, 'roll': -28.8}
{'lipoC2': 7.78, 'temp': 23.44, 'lipoC3S3': 11.64, 'rot1': 0, 'rot0': 0, 'rot3': 62, 'rot2': 75, 'state': 'normal', 'yaw': -14.91, 'datetime': '2018-10-12 14:06:03.285237', 'mgs': 0, 'depth': 2.148, 'time': 16.07, 'pitch': 4.15, 'roll': -29.03}
{'lipoC2': 7.78, 'temp': 23.44, 'lipoC3S3': 11.68, 'rot1': 0, 'rot0': 0, 'rot3': 62, 'rot2': 75, 'state': 'normal', 'yaw': -14.81, 'datetime': '2018-10-12 14:06:03.382370', 'mgs': 0, 'depth': 2.148, 'time': 16.17, 'pitch': 4.31, 'roll': -29.08}
{'lipoC2': 7.78, 'temp': 23.5, 'lipoC3S3': 11.65, 'rot1': 0, 'rot0': 0, 'rot3': 63, 'rot2': 76, 'state': 'normal', 'yaw': -14.63, 'datetime': '2018-10-12 14:06:03.479431', 'mgs': 0, 'depth': 2.072, 'time': 16.26, 'pitch': 4.42, 'roll': -28.85}
{'lipoC2': 7.77, 'temp': 23.5, 'lipoC3S3': 11.63, 'rot1': 0, 'rot0': 0, 'rot3': 63, 'rot2': 77, 'state': 'normal', 'yaw': -14.37, 'datetime': '2018-10-12 14:06:03.576624', 'mgs': 0, 'depth': 2.148, 'time': 16.36, 'pitch': 4.56, 'roll': -28.59}
{'lipoC2': 7.77, 'temp': 23.5, 'lipoC3S3': 11.67, 'rot1': 0, 'rot0': 0, 'rot3': 64, 'rot2': 77, 'state': 'normal', 'yaw': -14.02, 'datetime': '2018-10-12 14:06:03.673689', 'mgs': 0, 'depth': 2.225, 'time': 16.46, 'pitch': 4.63, 'roll': -28.65}
{'lipoC2': 7.78, 'temp': 23.5, 'lipoC3S3': 11.69, 'rot1': 0, 'rot0': 0, 'rot3': 65, 'rot2': 78, 'state': 'normal', 'yaw': -13.64, 'datetime': '2018-10-12 14:06:03.771255', 'mgs': 0, 'depth': 2.072, 'time': 16.56, 'pitch': 4.57, 'roll': -29.19}
{'lipoC2': 7.78, 'temp': 23.5, 'lipoC3S3': 11.63, 'rot1': 0, 'rot0': 0, 'rot3': 65, 'rot2': 79, 'state': 'normal', 'yaw': -13.31, 'datetime': '2018-10-12 14:06:03.869537', 'mgs': 0, 'depth': 1.92, 'time': 16.65, 'pitch': 4.34, 'roll': -30.08}
{'lipoC2': 7.77, 'temp': 23.56, 'lipoC3S3': 11.63, 'rot1': 0, 'rot0': 0, 'rot3': 66, 'rot2': 79, 'state': 'normal', 'yaw': -12.85, 'datetime': '2018-10-12 14:06:03.967551', 'mgs': 0, 'depth': 2.072, 'time': 16.75, 'pitch': 3.97, 'roll': -31.19}
{'lipoC2': 7.78, 'temp': 23.56, 'lipoC3S3': 11.68, 'rot1': 0, 'rot0': 0, 'rot3': 66, 'rot2': 80, 'state': 'normal', 'yaw': -12.4, 'datetime': '2018-10-12 14:06:04.064574', 'mgs': 0, 'depth': 2.072, 'time': 16.85, 'pitch': 3.46, 'roll': -31.96}
{'lipoC2': 7.78, 'temp': 23.56, 'lipoC3S3': 11.64, 'rot1': 0, 'rot0': 0, 'rot3': 67, 'rot2': 81, 'state': 'normal', 'yaw': -12.04, 'datetime': '2018-10-12 14:06:04.161872', 'mgs': 0, 'depth': 1.767, 'time': 16.95, 'pitch': 2.84, 'roll': -32.19}
{'lipoC2': 7.77, 'temp': 23.5, 'lipoC3S3': 11.68, 'rot1': 0, 'rot0': 0, 'rot3': 67, 'rot2': 81, 'state': 'normal', 'yaw': -11.82, 'datetime': '2018-10-12 14:06:04.260445', 'mgs': 0, 'depth': 1.92, 'time': 17.04, 'pitch': 2.23, 'roll': -31.97}
{'lipoC2': 7.78, 'temp': 23.5, 'lipoC3S3': 11.64, 'rot1': 0, 'rot0': 0, 'rot3': 68, 'rot2': 82, 'state': 'normal', 'yaw': -11.65, 'datetime': '2018-10-12 14:06:04.357524', 'mgs': 0, 'depth': 1.843, 'time': 17.14, 'pitch': 1.62, 'roll': -31.49}
{'lipoC2': 7.78, 'temp': 23.5, 'lipoC3S3': 11.61, 'rot1': 0, 'rot0': 0, 'rot3': 68, 'rot2': 83, 'state': 'normal', 'yaw': -11.53, 'datetime': '2018-10-12 14:06:04.454470', 'mgs': 0, 'depth': 1.843, 'time': 17.24, 'pitch': 1.16, 'roll': -31.08}
{'lipoC2': 7.78, 'temp': 23.5, 'lipoC3S3': 11.63, 'rot1': 0, 'rot0': 0, 'rot3': 69, 'rot2': 83, 'state': 'normal', 'yaw': -11.46, 'datetime': '2018-10-12 14:06:04.552105', 'mgs': 0, 'depth': 1.92, 'time': 17.34, 'pitch': 1.0, 'roll': -30.96}
{'lipoC2': 7.78, 'temp': 23.5, 'lipoC3S3': 11.67, 'rot1': 0, 'rot0': 0, 'rot3': 70, 'rot2': 84, 'state': 'normal', 'yaw': -11.45, 'datetime': '2018-10-12 14:06:04.649191', 'mgs': 0, 'depth': 1.92, 'time': 17.43, 'pitch': 1.0, 'roll': -31.03}
{'lipoC2': 7.78, 'temp': 23.56, 'lipoC3S3': 11.67, 'rot1': 0, 'rot0': 0, 'rot3': 70, 'rot2': 85, 'state': 'normal', 'yaw': -11.47, 'datetime': '2018-10-12 14:06:04.746321', 'mgs': 0, 'depth': 1.92, 'time': 17.53, 'pitch': 1.04, 'roll': -31.19}
{'lipoC2': 7.78, 'temp': 23.56, 'lipoC3S3': 11.64, 'rot1': 0, 'rot0': 0, 'rot3': 71, 'rot2': 85, 'state': 'normal', 'yaw': -11.56, 'datetime': '2018-10-12 14:06:04.843334', 'mgs': 0, 'depth': 1.691, 'time': 17.63, 'pitch': 1.07, 'roll': -31.3}
{'lipoC2': 7.78, 'temp': 23.5, 'lipoC3S3': 11.63, 'rot1': 0, 'rot0': 0, 'rot3': 71, 'rot2': 86, 'state': 'normal', 'yaw': -11.73, 'datetime': '2018-10-12 14:06:04.940416', 'mgs': 0, 'depth': 1.843, 'time': 17.73, 'pitch': 1.1, 'roll': -31.46}
{'lipoC2': 7.78, 'temp': 23.5, 'lipoC3S3': 11.67, 'rot1': 0, 'rot0': 0, 'rot3': 72, 'rot2': 87, 'state': 'normal', 'yaw': -12.0, 'datetime': '2018-10-12 14:06:05.037399', 'mgs': 0, 'depth': 1.767, 'time': 17.82, 'pitch': 1.13, 'roll': -31.84}
{'lipoC2': 7.77, 'temp': 23.5, 'lipoC3S3': 11.65, 'rot1': 0, 'rot0': 0, 'rot3': 73, 'rot2': 87, 'state': 'normal', 'yaw': -12.36, 'datetime': '2018-10-12 14:06:05.134654', 'mgs': 0, 'depth': 1.691, 'time': 17.92, 'pitch': 1.13, 'roll': -32.44}
{'lipoC2': 7.77, 'temp': 23.44, 'lipoC3S3': 11.63, 'rot1': 0, 'rot0': 0, 'rot3': 73, 'rot2': 88, 'state': 'normal', 'yaw': -12.66, 'datetime': '2018-10-12 14:06:05.231413', 'mgs': 0, 'depth': 1.691, 'time': 18.02, 'pitch': 1.11, 'roll': -32.93}
{'lipoC2': 7.78, 'temp': 23.44, 'lipoC3S3': 11.63, 'rot1': 0, 'rot0': 0, 'rot3': 74, 'rot2': 89, 'state': 'normal', 'yaw': -13.02, 'datetime': '2018-10-12 14:06:05.328473', 'mgs': 0, 'depth': 1.843, 'time': 18.11, 'pitch': 1.12, 'roll': -33.01}
{'lipoC2': 7.78, 'temp': 23.5, 'lipoC3S3': 11.67, 'rot1': 0, 'rot0': 0, 'rot3': 74, 'rot2': 89, 'state': 'normal', 'yaw': -13.37, 'datetime': '2018-10-12 14:06:05.425661', 'mgs': 0, 'depth': 1.843, 'time': 18.21, 'pitch': 1.18, 'roll': -32.64}
{'lipoC2': 7.78, 'temp': 23.5, 'lipoC3S3': 11.65, 'rot1': 0, 'rot0': 0, 'rot3': 75, 'rot2': 90, 'state': 'normal', 'yaw': -13.68, 'datetime': '2018-10-12 14:06:05.523618', 'mgs': 0, 'depth': 1.538, 'time': 18.31, 'pitch': 1.28, 'roll': -32.21}
{'lipoC2': 7.77, 'temp': 23.5, 'lipoC3S3': 11.68, 'rot1': 0, 'rot0': 0, 'rot3': 75, 'rot2': 91, 'state': 'normal', 'yaw': -14.03, 'datetime': '2018-10-12 14:06:05.622045', 'mgs': 0, 'depth': 1.691, 'time': 18.41, 'pitch': 1.33, 'roll': -31.84}
{'lipoC2': 7.77, 'temp': 23.44, 'lipoC3S3': 11.67, 'rot1': 0, 'rot0': 0, 'rot3': 76, 'rot2': 91, 'state': 'normal', 'yaw': -14.42, 'datetime': '2018-10-12 14:06:05.719225', 'mgs': 0, 'depth': 1.767, 'time': 18.5, 'pitch': 1.34, 'roll': -31.69}
{'lipoC2': 7.78, 'temp': 23.44, 'lipoC3S3': 11.64, 'rot1': 0, 'rot0': 0, 'rot3': 76, 'rot2': 92, 'state': 'normal', 'yaw': -14.82, 'datetime': '2018-10-12 14:06:05.816094', 'mgs': 0, 'depth': 1.538, 'time': 18.6, 'pitch': 1.44, 'roll': -31.72}
{'lipoC2': 7.78, 'temp': 23.56, 'lipoC3S3': 11.64, 'rot1': 0, 'rot0': 0, 'rot3': 77, 'rot2': 93, 'state': 'normal', 'yaw': -15.19, 'datetime': '2018-10-12 14:06:05.914143', 'mgs': 0, 'depth': 1.614, 'time': 18.7, 'pitch': 1.55, 'roll': -31.75}
{'lipoC2': 7.78, 'temp': 23.56, 'lipoC3S3': 11.65, 'rot1': 0, 'rot0': 0, 'rot3': 78, 'rot2': 93, 'state': 'normal', 'yaw': -15.5, 'datetime': '2018-10-12 14:06:06.012350', 'mgs': 0, 'depth': 1.843, 'time': 18.8, 'pitch': 1.66, 'roll': -31.76}
{'lipoC2': 7.78, 'temp': 23.56, 'lipoC3S3': 11.64, 'rot1': 0, 'rot0': 0, 'rot3': 78, 'rot2': 94, 'state': 'normal', 'yaw': -15.64, 'datetime': '2018-10-12 14:06:06.109858', 'mgs': 0, 'depth': 1.614, 'time': 18.9, 'pitch': 1.78, 'roll': -31.72}
{'lipoC2': 7.78, 'temp': 23.5, 'lipoC3S3': 11.63, 'rot1': 0, 'rot0': 0, 'rot3': 79, 'rot2': 95, 'state': 'normal', 'yaw': -15.82, 'datetime': '2018-10-12 14:06:06.206436', 'mgs': 0, 'depth': 1.767, 'time': 18.99, 'pitch': 1.82, 'roll': -31.68}
{'lipoC2': 7.78, 'temp': 23.5, 'lipoC3S3': 11.67, 'rot1': 0, 'rot0': 0, 'rot3': 79, 'rot2': 95, 'state': 'normal', 'yaw': -16.05, 'datetime': '2018-10-12 14:06:06.304564', 'mgs': 0, 'depth': 1.691, 'time': 19.09, 'pitch': 1.82, 'roll': -31.84}
{'lipoC2': 7.78, 'temp': 23.44, 'lipoC3S3': 11.65, 'rot1': 0, 'rot0': 0, 'rot3': 80, 'rot2': 96, 'state': 'normal', 'yaw': -16.44, 'datetime': '2018-10-12 14:06:06.401584', 'mgs': 0, 'depth': 1.462, 'time': 19.19, 'pitch': 1.81, 'roll': -32.12}
{'lipoC2': 7.78, 'temp': 23.44, 'lipoC3S3': 11.63, 'rot1': 0, 'rot0': 0, 'rot3': 81, 'rot2': 97, 'state': 'normal', 'yaw': -16.86, 'datetime': '2018-10-12 14:06:06.498682', 'mgs': 0, 'depth': 1.614, 'time': 19.28, 'pitch': 1.74, 'roll': -32.27}
{'lipoC2': 7.78, 'temp': 23.44, 'lipoC3S3': 11.65, 'rot1': 0, 'rot0': 0, 'rot3': 81, 'rot2': 97, 'state': 'normal', 'yaw': -17.45, 'datetime': '2018-10-12 14:06:06.595830', 'mgs': 0, 'depth': 1.843, 'time': 19.38, 'pitch': 1.54, 'roll': -32.16}
{'lipoC2': 7.78, 'temp': 23.5, 'lipoC3S3': 11.65, 'rot1': 0, 'rot0': 0, 'rot3': 82, 'rot2': 98, 'state': 'normal', 'yaw': -17.94, 'datetime': '2018-10-12 14:06:06.693109', 'mgs': 0, 'depth': 1.538, 'time': 19.48, 'pitch': 1.54, 'roll': -31.88}
{'lipoC2': 7.78, 'temp': 23.5, 'lipoC3S3': 11.65, 'rot1': 0, 'rot0': 0, 'rot3': 82, 'rot2': 99, 'state': 'normal', 'yaw': -18.46, 'datetime': '2018-10-12 14:06:06.789962', 'mgs': 0, 'depth': 1.614, 'time': 19.58, 'pitch': 1.9, 'roll': -31.13}
{'lipoC2': 7.78, 'temp': 23.5, 'lipoC3S3': 11.64, 'rot1': 0, 'rot0': 0, 'rot3': 83, 'rot2': 99, 'state': 'normal', 'yaw': -19.07, 'datetime': '2018-10-12 14:06:06.887018', 'mgs': 0, 'depth': 1.691, 'time': 19.67, 'pitch': 2.3, 'roll': -29.74}
{'lipoC2': 7.78, 'temp': 23.5, 'lipoC3S3': 11.67, 'rot1': 0, 'rot0': 0, 'rot3': 83, 'rot2': 100, 'state': 'normal', 'yaw': -19.48, 'datetime': '2018-10-12 14:06:06.984278', 'mgs': 0, 'depth': 1.691, 'time': 19.77, 'pitch': 2.69, 'roll': -28.1}
{'lipoC2': 7.78, 'temp': 23.5, 'lipoC3S3': 11.64, 'rot1': 0, 'rot0': 0, 'rot3': 84, 'rot2': 101, 'state': 'normal', 'yaw': -19.77, 'datetime': '2018-10-12 14:06:07.081445', 'mgs': 0, 'depth': 1.691, 'time': 19.87, 'pitch': 2.95, 'roll': -27.22}
{'lipoC2': 7.78, 'temp': 23.5, 'lipoC3S3': 11.64, 'rot1': 0, 'rot0': 0, 'rot3': 85, 'rot2': 101, 'state': 'normal', 'yaw': -19.98, 'datetime': '2018-10-12 14:06:07.178578', 'mgs': 0, 'depth': 1.767, 'time': 19.97, 'pitch': 3.1, 'roll': -27.01}
{'lipoC2': 7.78, 'temp': 23.5, 'lipoC3S3': 11.65, 'rot1': 0, 'rot0': 0, 'rot3': 85, 'rot2': 102, 'state': 'normal', 'yaw': -19.99, 'datetime': '2018-10-12 14:06:07.276950', 'mgs': 0, 'depth': 1.538, 'time': 20.06, 'pitch': 3.12, 'roll': -27.0}
{'lipoC2': 7.78, 'temp': 23.5, 'lipoC3S3': 11.67, 'rot1': 0, 'rot0': 0, 'rot3': 86, 'rot2': 103, 'state': 'normal', 'yaw': -19.78, 'datetime': '2018-10-12 14:06:07.375202', 'mgs': 0, 'depth': 1.691, 'time': 20.16, 'pitch': 3.19, 'roll': -27.11}
{'lipoC2': 7.78, 'temp': 23.5, 'lipoC3S3': 11.64, 'rot1': 0, 'rot0': 0, 'rot3': 86, 'rot2': 103, 'state': 'normal', 'yaw': -19.38, 'datetime': '2018-10-12 14:06:07.472357', 'mgs': 0, 'depth': 1.538, 'time': 20.26, 'pitch': 3.18, 'roll': -26.78}
{'lipoC2': 7.78, 'temp': 23.5, 'lipoC3S3': 11.63, 'rot1': 0, 'rot0': 0, 'rot3': 87, 'rot2': 104, 'state': 'normal', 'yaw': -18.93, 'datetime': '2018-10-12 14:06:07.569440', 'mgs': 0, 'depth': 1.462, 'time': 20.36, 'pitch': 2.93, 'roll': -26.33}
{'lipoC2': 7.77, 'temp': 23.5, 'lipoC3S3': 11.67, 'rot1': 0, 'rot0': 0, 'rot3': 88, 'rot2': 105, 'state': 'normal', 'yaw': -18.56, 'datetime': '2018-10-12 14:06:07.667516', 'mgs': 0, 'depth': 1.462, 'time': 20.45, 'pitch': 2.52, 'roll': -26.17}
{'lipoC2': 7.78, 'temp': 23.5, 'lipoC3S3': 11.61, 'rot1': 0, 'rot0': 0, 'rot3': 88, 'rot2': 106, 'state': 'normal', 'yaw': -18.13, 'datetime': '2018-10-12 14:06:07.765921', 'mgs': 0, 'depth': 1.614, 'time': 20.55, 'pitch': 1.92, 'roll': -26.38}
{'lipoC2': 7.77, 'temp': 23.5, 'lipoC3S3': 11.67, 'rot1': 0, 'rot0': 0, 'rot3': 89, 'rot2': 106, 'state': 'normal', 'yaw': -17.74, 'datetime': '2018-10-12 14:06:07.863051', 'mgs': 0, 'depth': 1.614, 'time': 20.65, 'pitch': 1.25, 'roll': -26.66}
{'lipoC2': 7.78, 'temp': 23.5, 'lipoC3S3': 11.64, 'rot1': 0, 'rot0': 0, 'rot3': 89, 'rot2': 107, 'state': 'normal', 'yaw': -17.44, 'datetime': '2018-10-12 14:06:07.960119', 'mgs': 0, 'depth': 1.385, 'time': 20.75, 'pitch': 0.65, 'roll': -26.75}
{'lipoC2': 7.78, 'temp': 23.5, 'lipoC3S3': 11.64, 'rot1': 0, 'rot0': 0, 'rot3': 90, 'rot2': 107, 'state': 'normal', 'yaw': -17.2, 'datetime': '2018-10-12 14:06:08.057992', 'mgs': 0, 'depth': 1.385, 'time': 20.85, 'pitch': 0.13, 'roll': -26.54}
{'lipoC2': 7.78, 'temp': 23.5, 'lipoC3S3': 11.64, 'rot1': 0, 'rot0': 0, 'rot3': 90, 'rot2': 108, 'state': 'normal', 'yaw': -16.95, 'datetime': '2018-10-12 14:06:08.155222', 'mgs': 0, 'depth': 1.538, 'time': 20.94, 'pitch': -0.18, 'roll': -26.2}
{'lipoC2': 7.78, 'temp': 23.5, 'lipoC3S3': 11.65, 'rot1': 0, 'rot0': 0, 'rot3': 91, 'rot2': 109, 'state': 'normal', 'yaw': -16.86, 'datetime': '2018-10-12 14:06:08.252264', 'mgs': 0, 'depth': 1.614, 'time': 21.04, 'pitch': -0.29, 'roll': -25.73}
{'lipoC2': 7.77, 'temp': 23.5, 'lipoC3S3': 11.63, 'rot1': 0, 'rot0': 0, 'rot3': 92, 'rot2': 109, 'state': 'normal', 'yaw': -16.96, 'datetime': '2018-10-12 14:06:08.349382', 'mgs': 0, 'depth': 1.462, 'time': 21.14, 'pitch': -0.34, 'roll': -25.09}
{'lipoC2': 7.78, 'temp': 23.5, 'lipoC3S3': 11.61, 'rot1': 0, 'rot0': 0, 'rot3': 92, 'rot2': 110, 'state': 'normal', 'yaw': -17.01, 'datetime': '2018-10-12 14:06:08.447053', 'mgs': 0, 'depth': 1.614, 'time': 21.24, 'pitch': -0.31, 'roll': -24.61}
{'lipoC2': 7.78, 'temp': 23.5, 'lipoC3S3': 11.65, 'rot1': 0, 'rot0': 0, 'rot3': 93, 'rot2': 111, 'state': 'normal', 'yaw': -17.1, 'datetime': '2018-10-12 14:06:08.543663', 'mgs': 0, 'depth': 1.538, 'time': 21.33, 'pitch': -0.17, 'roll': -24.21}
{'lipoC2': 7.78, 'temp': 23.5, 'lipoC3S3': 11.65, 'rot1': 0, 'rot0': 0, 'rot3': 93, 'rot2': 111, 'state': 'normal', 'yaw': -17.19, 'datetime': '2018-10-12 14:06:08.640844', 'mgs': 0, 'depth': 1.462, 'time': 21.43, 'pitch': -0.05, 'roll': -24.23}
{'lipoC2': 7.78, 'temp': 23.5, 'lipoC3S3': 11.63, 'rot1': 0, 'rot0': 0, 'rot3': 94, 'rot2': 112, 'state': 'normal', 'yaw': -17.13, 'datetime': '2018-10-12 14:06:08.738157', 'mgs': 0, 'depth': 1.767, 'time': 21.53, 'pitch': 0.13, 'roll': -24.34}
{'lipoC2': 7.77, 'temp': 23.5, 'lipoC3S3': 11.65, 'rot1': 0, 'rot0': 0, 'rot3': 94, 'rot2': 113, 'state': 'normal', 'yaw': -16.88, 'datetime': '2018-10-12 14:06:08.835059', 'mgs': 0, 'depth': 1.767, 'time': 21.62, 'pitch': 0.44, 'roll': -23.9}
{'lipoC2': 7.78, 'temp': 23.5, 'lipoC3S3': 11.65, 'rot1': 0, 'rot0': 0, 'rot3': 95, 'rot2': 113, 'state': 'normal', 'yaw': -16.45, 'datetime': '2018-10-12 14:06:08.932185', 'mgs': 0, 'depth': 1.614, 'time': 21.72, 'pitch': 0.8, 'roll': -23.56}
