{'lipoC2': 7.91, 'temp': 24.81, 'lipoC3S3': 11.97, 'rot1': 0, 'rot0': 0, 'rot3': 0, 'rot2': 0, 'state': 'normal', 'yaw': 0.0, 'datetime': '2018-10-12 13:33:40.135729', 'mgs': 0, 'depth': 1.614, 'time': 1.26, 'pitch': -0.98, 'roll': -5.22}
{'lipoC2': 7.91, 'temp': 24.81, 'lipoC3S3': 11.98, 'rot1': 0, 'rot0': 0, 'rot3': 0, 'rot2': 0, 'state': 'normal', 'yaw': 0.33, 'datetime': '2018-10-12 13:33:40.152748', 'mgs': 0, 'depth': 1.538, 'time': 1.36, 'pitch': -1.57, 'roll': -5.28}
{'lipoC2': 7.91, 'temp': 24.81, 'lipoC3S3': 11.97, 'rot1': 0, 'rot0': 0, 'rot3': 0, 'rot2': 0, 'state': 'normal', 'yaw': 0.45, 'datetime': '2018-10-12 13:33:40.169777', 'mgs': 0, 'depth': 1.462, 'time': 1.46, 'pitch': -2.76, 'roll': -4.76}
{'lipoC2': 7.91, 'temp': 24.75, 'lipoC3S3': 11.98, 'rot1': 0, 'rot0': 0, 'rot3': 0, 'rot2': 0, 'state': 'normal', 'yaw': 0.57, 'datetime': '2018-10-12 13:33:40.186862', 'mgs': 0, 'depth': 1.462, 'time': 1.55, 'pitch': -4.03, 'roll': -4.54}
{'lipoC2': 7.91, 'temp': 24.75, 'lipoC3S3': 11.97, 'rot1': 0, 'rot0': 0, 'rot3': 0, 'rot2': 0, 'state': 'normal', 'yaw': 0.99, 'datetime': '2018-10-12 13:33:40.267272', 'mgs': 0, 'depth': 1.538, 'time': 1.65, 'pitch': -5.01, 'roll': -5.24}
{'lipoC2': 7.92, 'temp': 24.75, 'lipoC3S3': 11.97, 'rot1': 0, 'rot0': 0, 'rot3': 0, 'rot2': 0, 'state': 'normal', 'yaw': 1.51, 'datetime': '2018-10-12 13:33:40.364270', 'mgs': 0, 'depth': 1.462, 'time': 1.75, 'pitch': -5.41, 'roll': -5.73}
{'lipoC2': 7.91, 'temp': 24.75, 'lipoC3S3': 11.97, 'rot1': 0, 'rot0': 0, 'rot3': 0, 'rot2': 0, 'state': 'normal', 'yaw': 1.59, 'datetime': '2018-10-12 13:33:40.461237', 'mgs': 0, 'depth': 1.385, 'time': 1.85, 'pitch': -5.57, 'roll': -5.16}
{'lipoC2': 7.91, 'temp': 24.75, 'lipoC3S3': 11.97, 'rot1': 0, 'rot0': 0, 'rot3': 0, 'rot2': 0, 'state': 'normal', 'yaw': 1.4, 'datetime': '2018-10-12 13:33:40.559099', 'mgs': 0, 'depth': 1.385, 'time': 1.94, 'pitch': -5.49, 'roll': -4.62}
{'lipoC2': 7.92, 'temp': 24.75, 'lipoC3S3': 11.98, 'rot1': 0, 'rot0': 0, 'rot3': 0, 'rot2': 0, 'state': 'normal', 'yaw': 1.06, 'datetime': '2018-10-12 13:33:40.656062', 'mgs': 0, 'depth': 1.385, 'time': 2.04, 'pitch': -5.13, 'roll': -4.51}
{'lipoC2': 7.91, 'temp': 24.75, 'lipoC3S3': 11.98, 'rot1': 0, 'rot0': 0, 'rot3': 0, 'rot2': 0, 'state': 'normal', 'yaw': 0.66, 'datetime': '2018-10-12 13:33:40.753061', 'mgs': 0, 'depth': 1.309, 'time': 2.14, 'pitch': -4.71, 'roll': -4.35}
{'lipoC2': 7.91, 'temp': 24.75, 'lipoC3S3': 11.98, 'rot1': 0, 'rot0': 0, 'rot3': 0, 'rot2': 0, 'state': 'normal', 'yaw': 0.25, 'datetime': '2018-10-12 13:33:40.850321', 'mgs': 0, 'depth': 1.309, 'time': 2.23, 'pitch': -4.47, 'roll': -3.8}
{'lipoC2': 7.91, 'temp': 24.75, 'lipoC3S3': 11.98, 'rot1': 0, 'rot0': 0, 'rot3': 0, 'rot2': 0, 'state': 'normal', 'yaw': -0.32, 'datetime': '2018-10-12 13:33:40.947294', 'mgs': 0, 'depth': 1.385, 'time': 2.33, 'pitch': -4.61, 'roll': -3.08}
{'lipoC2': 7.91, 'temp': 24.75, 'lipoC3S3': 11.98, 'rot1': 0, 'rot0': 0, 'rot3': 0, 'rot2': 0, 'state': 'normal', 'yaw': -0.69, 'datetime': '2018-10-12 13:33:41.047509', 'mgs': 0, 'depth': 1.309, 'time': 2.43, 'pitch': -4.99, 'roll': -2.95}
{'lipoC2': 7.91, 'temp': 24.75, 'lipoC3S3': 11.97, 'rot1': 0, 'rot0': 0, 'rot3': 0, 'rot2': 0, 'state': 'normal', 'yaw': -1.07, 'datetime': '2018-10-12 13:33:41.146614', 'mgs': 0, 'depth': 1.309, 'time': 2.53, 'pitch': -5.55, 'roll': -3.11}
{'lipoC2': 7.91, 'temp': 24.75, 'lipoC3S3': 11.97, 'rot1': 0, 'rot0': 0, 'rot3': 0, 'rot2': 0, 'state': 'normal', 'yaw': -1.6, 'datetime': '2018-10-12 13:33:41.243543', 'mgs': 0, 'depth': 1.309, 'time': 2.62, 'pitch': -6.21, 'roll': -3.27}
{'lipoC2': 7.91, 'temp': 24.75, 'lipoC3S3': 11.98, 'rot1': 0, 'rot0': 0, 'rot3': 0, 'rot2': 0, 'state': 'normal', 'yaw': -2.25, 'datetime': '2018-10-12 13:33:41.340598', 'mgs': 0, 'depth': 1.309, 'time': 2.72, 'pitch': -6.93, 'roll': -3.35}
{'lipoC2': 7.91, 'temp': 24.75, 'lipoC3S3': 11.97, 'rot1': 0, 'rot0': 0, 'rot3': 0, 'rot2': 0, 'state': 'normal', 'yaw': -2.42, 'datetime': '2018-10-12 13:33:41.437651', 'mgs': 0, 'depth': 1.309, 'time': 2.82, 'pitch': -7.12, 'roll': -3.8}
{'lipoC2': 7.92, 'temp': 24.75, 'lipoC3S3': 11.97, 'rot1': 0, 'rot0': 0, 'rot3': 0, 'rot2': 0, 'state': 'normal', 'yaw': -2.57, 'datetime': '2018-10-12 13:33:41.535951', 'mgs': 0, 'depth': 1.309, 'time': 2.91, 'pitch': -6.89, 'roll': -4.08}
{'lipoC2': 7.91, 'temp': 24.75, 'lipoC3S3': 11.97, 'rot1': 0, 'rot0': 0, 'rot3': 0, 'rot2': 0, 'state': 'normal', 'yaw': -3.0, 'datetime': '2018-10-12 13:33:41.633428', 'mgs': 0, 'depth': 1.385, 'time': 3.01, 'pitch': -6.43, 'roll': -4.03}
{'lipoC2': 7.92, 'temp': 24.75, 'lipoC3S3': 11.97, 'rot1': 0, 'rot0': 0, 'rot3': 0, 'rot2': 0, 'state': 'normal', 'yaw': -3.3, 'datetime': '2018-10-12 13:33:41.730267', 'mgs': 0, 'depth': 1.309, 'time': 3.11, 'pitch': -5.67, 'roll': -4.15}
{'lipoC2': 7.91, 'temp': 24.75, 'lipoC3S3': 11.97, 'rot1': 0, 'rot0': 0, 'rot3': 0, 'rot2': 0, 'state': 'normal', 'yaw': -3.6, 'datetime': '2018-10-12 13:33:41.827536', 'mgs': 0, 'depth': 1.233, 'time': 3.21, 'pitch': -4.9, 'roll': -4.04}
{'lipoC2': 7.91, 'temp': 24.75, 'lipoC3S3': 11.98, 'rot1': 0, 'rot0': 0, 'rot3': 0, 'rot2': 0, 'state': 'normal', 'yaw': -3.92, 'datetime': '2018-10-12 13:33:41.925820', 'mgs': 0, 'depth': 1.385, 'time': 3.31, 'pitch': -4.42, 'roll': -4.04}
{'lipoC2': 7.92, 'temp': 24.75, 'lipoC3S3': 11.97, 'rot1': 0, 'rot0': 0, 'rot3': 0, 'rot2': 0, 'state': 'normal', 'yaw': -4.32, 'datetime': '2018-10-12 13:33:42.022998', 'mgs': 0, 'depth': 1.309, 'time': 3.4, 'pitch': -4.22, 'roll': -4.37}
{'lipoC2': 7.91, 'temp': 24.75, 'lipoC3S3': 11.97, 'rot1': 0, 'rot0': 0, 'rot3': 0, 'rot2': 0, 'state': 'normal', 'yaw': -4.7, 'datetime': '2018-10-12 13:33:42.120324', 'mgs': 0, 'depth': 1.309, 'time': 3.5, 'pitch': -4.3, 'roll': -4.74}
{'lipoC2': 7.91, 'temp': 24.75, 'lipoC3S3': 11.97, 'rot1': 0, 'rot0': 0, 'rot3': 0, 'rot2': 0, 'state': 'normal', 'yaw': -4.88, 'datetime': '2018-10-12 13:33:42.217871', 'mgs': 0, 'depth': 1.385, 'time': 3.6, 'pitch': -4.46, 'roll': -4.9}
{'lipoC2': 7.91, 'temp': 24.69, 'lipoC3S3': 11.98, 'rot1': 0, 'rot0': 0, 'rot3': 0, 'rot2': 0, 'state': 'normal', 'yaw': -5.01, 'datetime': '2018-10-12 13:33:42.314857', 'mgs': 0, 'depth': 1.309, 'time': 3.69, 'pitch': -4.71, 'roll': -4.75}
{'lipoC2': 7.91, 'temp': 24.69, 'lipoC3S3': 11.97, 'rot1': 0, 'rot0': 0, 'rot3': 0, 'rot2': 0, 'state': 'normal', 'yaw': -4.99, 'datetime': '2018-10-12 13:33:42.411853', 'mgs': 0, 'depth': 1.462, 'time': 3.79, 'pitch': -5.01, 'roll': -4.4}
{'lipoC2': 7.92, 'temp': 24.75, 'lipoC3S3': 11.98, 'rot1': 0, 'rot0': 0, 'rot3': 0, 'rot2': 0, 'state': 'normal', 'yaw': -4.82, 'datetime': '2018-10-12 13:33:42.508820', 'mgs': 0, 'depth': 1.385, 'time': 3.89, 'pitch': -5.3, 'roll': -4.1}
{'lipoC2': 7.91, 'temp': 24.75, 'lipoC3S3': 11.98, 'rot1': 0, 'rot0': 0, 'rot3': 0, 'rot2': 0, 'state': 'normal', 'yaw': -4.66, 'datetime': '2018-10-12 13:33:42.605843', 'mgs': 0, 'depth': 1.462, 'time': 3.99, 'pitch': -5.52, 'roll': -3.91}
{'lipoC2': 7.91, 'temp': 24.75, 'lipoC3S3': 11.98, 'rot1': 0, 'rot0': 0, 'rot3': 0, 'rot2': 0, 'state': 'normal', 'yaw': -4.26, 'datetime': '2018-10-12 13:33:42.702868', 'mgs': 0, 'depth': 1.462, 'time': 4.08, 'pitch': -5.48, 'roll': -3.47}
{'lipoC2': 7.91, 'temp': 24.69, 'lipoC3S3': 11.97, 'rot1': 0, 'rot0': 0, 'rot3': 0, 'rot2': 0, 'state': 'normal', 'yaw': -3.5, 'datetime': '2018-10-12 13:33:42.799928', 'mgs': 0, 'depth': 1.462, 'time': 4.18, 'pitch': -5.01, 'roll': -3.05}
{'lipoC2': 7.92, 'temp': 24.69, 'lipoC3S3': 11.98, 'rot1': 0, 'rot0': 0, 'rot3': 0, 'rot2': 0, 'state': 'normal', 'yaw': -3.08, 'datetime': '2018-10-12 13:33:42.896801', 'mgs': 0, 'depth': 1.462, 'time': 4.28, 'pitch': -4.55, 'roll': -3.04}
{'lipoC2': 7.91, 'temp': 24.75, 'lipoC3S3': 11.97, 'rot1': 0, 'rot0': 0, 'rot3': 0, 'rot2': 0, 'state': 'normal', 'yaw': -3.02, 'datetime': '2018-10-12 13:33:42.993893', 'mgs': 0, 'depth': 1.538, 'time': 4.37, 'pitch': -4.34, 'roll': -3.87}
{'lipoC2': 7.91, 'temp': 24.75, 'lipoC3S3': 11.98, 'rot1': 0, 'rot0': 0, 'rot3': 0, 'rot2': 0, 'state': 'normal', 'yaw': -3.06, 'datetime': '2018-10-12 13:33:43.090928', 'mgs': 0, 'depth': 1.462, 'time': 4.47, 'pitch': -4.31, 'roll': -5.12}
{'lipoC2': 7.91, 'temp': 24.75, 'lipoC3S3': 11.97, 'rot1': 0, 'rot0': 0, 'rot3': 0, 'rot2': 0, 'state': 'normal', 'yaw': -2.91, 'datetime': '2018-10-12 13:33:43.189215', 'mgs': 0, 'depth': 1.538, 'time': 4.57, 'pitch': -4.12, 'roll': -6.07}
{'lipoC2': 7.91, 'temp': 24.75, 'lipoC3S3': 11.97, 'rot1': 0, 'rot0': 0, 'rot3': 0, 'rot2': 0, 'state': 'normal', 'yaw': -2.65, 'datetime': '2018-10-12 13:33:43.287659', 'mgs': 0, 'depth': 1.614, 'time': 4.67, 'pitch': -3.81, 'roll': -6.71}
{'lipoC2': 7.91, 'temp': 24.75, 'lipoC3S3': 11.98, 'rot1': 0, 'rot0': 0, 'rot3': 0, 'rot2': 0, 'state': 'normal', 'yaw': -2.32, 'datetime': '2018-10-12 13:33:43.384725', 'mgs': 0, 'depth': 1.614, 'time': 4.76, 'pitch': -3.55, 'roll': -6.83}
{'lipoC2': 7.91, 'temp': 24.75, 'lipoC3S3': 11.98, 'rot1': 0, 'rot0': 0, 'rot3': 0, 'rot2': 0, 'state': 'normal', 'yaw': -2.11, 'datetime': '2018-10-12 13:33:43.481753', 'mgs': 0, 'depth': 1.538, 'time': 4.86, 'pitch': -3.47, 'roll': -6.67}
{'lipoC2': 7.91, 'temp': 24.75, 'lipoC3S3': 11.97, 'rot1': 0, 'rot0': 0, 'rot3': 0, 'rot2': 0, 'state': 'normal', 'yaw': -1.78, 'datetime': '2018-10-12 13:33:43.579949', 'mgs': 0, 'depth': 1.614, 'time': 4.96, 'pitch': -3.46, 'roll': -6.56}
{'lipoC2': 7.91, 'temp': 24.75, 'lipoC3S3': 11.98, 'rot1': 0, 'rot0': 0, 'rot3': 0, 'rot2': 0, 'state': 'normal', 'yaw': -1.06, 'datetime': '2018-10-12 13:33:43.678068', 'mgs': 0, 'depth': 1.614, 'time': 5.06, 'pitch': -3.27, 'roll': -6.66}
{'lipoC2': 7.91, 'temp': 24.69, 'lipoC3S3': 11.97, 'rot1': 0, 'rot0': 0, 'rot3': 0, 'rot2': 0, 'state': 'normal', 'yaw': 0.01, 'datetime': '2018-10-12 13:33:43.775015', 'mgs': 0, 'depth': 1.614, 'time': 5.16, 'pitch': -2.89, 'roll': -6.47}
{'lipoC2': 7.91, 'temp': 24.69, 'lipoC3S3': 11.97, 'rot1': 0, 'rot0': 0, 'rot3': 0, 'rot2': 0, 'state': 'normal', 'yaw': 1.29, 'datetime': '2018-10-12 13:33:43.872056', 'mgs': 0, 'depth': 1.614, 'time': 5.25, 'pitch': -2.47, 'roll': -5.87}
{'lipoC2': 7.91, 'temp': 24.75, 'lipoC3S3': 11.98, 'rot1': 0, 'rot0': 0, 'rot3': 0, 'rot2': 0, 'state': 'normal', 'yaw': 2.4, 'datetime': '2018-10-12 13:33:43.968935', 'mgs': 0, 'depth': 1.614, 'time': 5.35, 'pitch': -2.25, 'roll': -5.43}
{'lipoC2': 7.91, 'temp': 24.75, 'lipoC3S3': 11.97, 'rot1': 0, 'rot0': 0, 'rot3': 0, 'rot2': 0, 'state': 'normal', 'yaw': 3.67, 'datetime': '2018-10-12 13:33:44.066025', 'mgs': 0, 'depth': 1.691, 'time': 5.45, 'pitch': -2.2, 'roll': -5.25}
{'lipoC2': 7.91, 'temp': 24.75, 'lipoC3S3': 11.97, 'rot1': 0, 'rot0': 0, 'rot3': 0, 'rot2': 0, 'state': 'normal', 'yaw': 5.12, 'datetime': '2018-10-12 13:33:44.163044', 'mgs': 0, 'depth': 1.691, 'time': 5.54, 'pitch': -2.16, 'roll': -5.15}
{'lipoC2': 7.92, 'temp': 24.69, 'lipoC3S3': 11.97, 'rot1': 0, 'rot0': 0, 'rot3': 0, 'rot2': 0, 'state': 'normal', 'yaw': 6.77, 'datetime': '2018-10-12 13:33:44.260029', 'mgs': 0, 'depth': 1.767, 'time': 5.64, 'pitch': -1.91, 'roll': -5.25}
{'lipoC2': 7.92, 'temp': 24.69, 'lipoC3S3': 11.97, 'rot1': 0, 'rot0': 0, 'rot3': 0, 'rot2': 0, 'state': 'normal', 'yaw': 8.85, 'datetime': '2018-10-12 13:33:44.356968', 'mgs': 0, 'depth': 1.691, 'time': 5.74, 'pitch': -1.33, 'roll': -5.63}
{'lipoC2': 7.91, 'temp': 24.75, 'lipoC3S3': 11.98, 'rot1': 0, 'rot0': 0, 'rot3': 0, 'rot2': 0, 'state': 'normal', 'yaw': 10.65, 'datetime': '2018-10-12 13:33:44.454039', 'mgs': 0, 'depth': 1.767, 'time': 5.84, 'pitch': -0.84, 'roll': -6.62}
{'lipoC2': 7.91, 'temp': 24.75, 'lipoC3S3': 11.98, 'rot1': 0, 'rot0': 0, 'rot3': 0, 'rot2': 0, 'state': 'normal', 'yaw': 11.63, 'datetime': '2018-10-12 13:33:44.551352', 'mgs': 0, 'depth': 1.767, 'time': 5.93, 'pitch': -0.83, 'roll': -7.63}
{'lipoC2': 7.91, 'temp': 24.75, 'lipoC3S3': 11.98, 'rot1': 0, 'rot0': 0, 'rot3': 0, 'rot2': 0, 'state': 'normal', 'yaw': 12.47, 'datetime': '2018-10-12 13:33:44.648325', 'mgs': 0, 'depth': 1.843, 'time': 6.03, 'pitch': -1.08, 'roll': -8.14}
{'lipoC2': 7.92, 'temp': 24.69, 'lipoC3S3': 11.98, 'rot1': 0, 'rot0': 0, 'rot3': 0, 'rot2': 0, 'state': 'normal', 'yaw': 13.83, 'datetime': '2018-10-12 13:33:44.745366', 'mgs': 0, 'depth': 1.767, 'time': 6.13, 'pitch': -0.94, 'roll': -7.7}
{'lipoC2': 7.91, 'temp': 24.69, 'lipoC3S3': 11.97, 'rot1': 0, 'rot0': 0, 'rot3': 0, 'rot2': 0, 'state': 'normal', 'yaw': 15.6, 'datetime': '2018-10-12 13:33:44.842828', 'mgs': 0, 'depth': 1.767, 'time': 6.22, 'pitch': -0.45, 'roll': -7.15}
{'lipoC2': 7.91, 'temp': 24.75, 'lipoC3S3': 11.98, 'rot1': 0, 'rot0': 0, 'rot3': 0, 'rot2': 0, 'state': 'normal', 'yaw': 17.07, 'datetime': '2018-10-12 13:33:44.941172', 'mgs': 0, 'depth': 1.843, 'time': 6.32, 'pitch': -0.18, 'roll': -7.46}
{'lipoC2': 7.91, 'temp': 24.75, 'lipoC3S3': 11.97, 'rot1': 0, 'rot0': 0, 'rot3': 0, 'rot2': 0, 'state': 'normal', 'yaw': 18.31, 'datetime': '2018-10-12 13:33:45.039265', 'mgs': 0, 'depth': 1.767, 'time': 6.42, 'pitch': -0.22, 'roll': -8.3}
{'lipoC2': 7.91, 'temp': 24.75, 'lipoC3S3': 11.97, 'rot1': 0, 'rot0': 0, 'rot3': 0, 'rot2': 0, 'state': 'normal', 'yaw': 19.19, 'datetime': '2018-10-12 13:33:45.132768', 'mgs': 0, 'depth': 1.767, 'time': 6.52, 'pitch': -0.56, 'roll': -8.77}
{'lipoC2': 7.91, 'temp': 24.69, 'lipoC3S3': 11.98, 'rot1': 0, 'rot0': 0, 'rot3': 0, 'rot2': 0, 'state': 'normal', 'yaw': 19.88, 'datetime': '2018-10-12 13:33:45.232792', 'mgs': 0, 'depth': 1.767, 'time': 6.62, 'pitch': -0.96, 'roll': -8.66}
{'lipoC2': 7.92, 'temp': 24.69, 'lipoC3S3': 11.98, 'rot1': 0, 'rot0': 0, 'rot3': 0, 'rot2': 0, 'state': 'normal', 'yaw': 20.76, 'datetime': '2018-10-12 13:33:45.331163', 'mgs': 0, 'depth': 1.767, 'time': 6.71, 'pitch': -1.31, 'roll': -8.22}
{'lipoC2': 7.92, 'temp': 24.75, 'lipoC3S3': 11.98, 'rot1': 0, 'rot0': 0, 'rot3': 0, 'rot2': 0, 'state': 'normal', 'yaw': 21.78, 'datetime': '2018-10-12 13:33:45.428138', 'mgs': 0, 'depth': 1.767, 'time': 6.81, 'pitch': -1.51, 'roll': -8.06}
{'lipoC2': 7.92, 'temp': 24.75, 'lipoC3S3': 11.98, 'rot1': 0, 'rot0': 0, 'rot3': 0, 'rot2': 0, 'state': 'normal', 'yaw': 22.77, 'datetime': '2018-10-12 13:33:45.525143', 'mgs': 0, 'depth': 1.843, 'time': 6.91, 'pitch': -1.69, 'roll': -8.24}
{'lipoC2': 7.91, 'temp': 24.75, 'lipoC3S3': 11.98, 'rot1': 0, 'rot0': 0, 'rot3': 0, 'rot2': 0, 'state': 'normal', 'yaw': 23.38, 'datetime': '2018-10-12 13:33:45.622772', 'mgs': 0, 'depth': 1.843, 'time': 7.01, 'pitch': -2.03, 'roll': -8.33}
{'lipoC2': 7.91, 'temp': 24.75, 'lipoC3S3': 11.98, 'rot1': 0, 'rot0': 0, 'rot3': 0, 'rot2': 0, 'state': 'normal', 'yaw': 23.76, 'datetime': '2018-10-12 13:33:45.719873', 'mgs': 0, 'depth': 1.843, 'time': 7.1, 'pitch': -2.56, 'roll': -8.11}
{'lipoC2': 7.91, 'temp': 24.75, 'lipoC3S3': 11.98, 'rot1': 0, 'rot0': 0, 'rot3': 0, 'rot2': 0, 'state': 'normal', 'yaw': 24.06, 'datetime': '2018-10-12 13:33:45.816848', 'mgs': 0, 'depth': 1.843, 'time': 7.2, 'pitch': -3.04, 'roll': -7.87}
{'lipoC2': 7.92, 'temp': 24.69, 'lipoC3S3': 11.98, 'rot1': 0, 'rot0': 0, 'rot3': 0, 'rot2': 0, 'state': 'normal', 'yaw': 24.4, 'datetime': '2018-10-12 13:33:45.914109', 'mgs': 0, 'depth': 1.843, 'time': 7.3, 'pitch': -3.27, 'roll': -7.75}
{'lipoC2': 7.91, 'temp': 24.69, 'lipoC3S3': 11.98, 'rot1': 0, 'rot0': 0, 'rot3': 0, 'rot2': 0, 'state': 'normal', 'yaw': 24.71, 'datetime': '2018-10-12 13:33:46.011222', 'mgs': 0, 'depth': 1.843, 'time': 7.39, 'pitch': -3.26, 'roll': -7.69}
{'lipoC2': 7.91, 'temp': 24.69, 'lipoC3S3': 11.98, 'rot1': 0, 'rot0': 0, 'rot3': 0, 'rot2': 0, 'state': 'normal', 'yaw': 24.89, 'datetime': '2018-10-12 13:33:46.108285', 'mgs': 0, 'depth': 1.767, 'time': 7.49, 'pitch': -3.14, 'roll': -7.56}
{'lipoC2': 7.91, 'temp': 24.69, 'lipoC3S3': 11.97, 'rot1': 0, 'rot0': 0, 'rot3': 0, 'rot2': 0, 'state': 'normal', 'yaw': 24.87, 'datetime': '2018-10-12 13:33:46.205351', 'mgs': 0, 'depth': 1.767, 'time': 7.59, 'pitch': -2.96, 'roll': -7.46}
{'lipoC2': 7.91, 'temp': 24.69, 'lipoC3S3': 11.98, 'rot1': 0, 'rot0': 0, 'rot3': 0, 'rot2': 0, 'state': 'normal', 'yaw': 24.77, 'datetime': '2018-10-12 13:33:46.302327', 'mgs': 0, 'depth': 1.691, 'time': 7.69, 'pitch': -2.75, 'roll': -7.36}
{'lipoC2': 7.91, 'temp': 24.69, 'lipoC3S3': 11.98, 'rot1': 0, 'rot0': 0, 'rot3': 0, 'rot2': 0, 'state': 'normal', 'yaw': 24.72, 'datetime': '2018-10-12 13:33:46.398114', 'mgs': 0, 'depth': 1.767, 'time': 7.78, 'pitch': -2.42, 'roll': -7.25}
{'lipoC2': 7.91, 'temp': 24.69, 'lipoC3S3': 11.98, 'rot1': 0, 'rot0': 0, 'rot3': 0, 'rot2': 0, 'state': 'normal', 'yaw': 24.83, 'datetime': '2018-10-12 13:33:46.496506', 'mgs': 0, 'depth': 1.767, 'time': 7.88, 'pitch': -2.09, 'roll': -7.19}
{'lipoC2': 7.92, 'temp': 24.69, 'lipoC3S3': 11.97, 'rot1': 0, 'rot0': 0, 'rot3': 0, 'rot2': 0, 'state': 'normal', 'yaw': 24.96, 'datetime': '2018-10-12 13:33:46.594887', 'mgs': 0, 'depth': 1.767, 'time': 7.98, 'pitch': -1.93, 'roll': -6.87}
{'lipoC2': 7.91, 'temp': 24.75, 'lipoC3S3': 11.97, 'rot1': 0, 'rot0': 0, 'rot3': 0, 'rot2': 0, 'state': 'normal', 'yaw': 25.08, 'datetime': '2018-10-12 13:33:46.693076', 'mgs': 0, 'depth': 1.767, 'time': 8.08, 'pitch': -1.94, 'roll': -6.54}
{'lipoC2': 7.91, 'temp': 24.75, 'lipoC3S3': 11.97, 'rot1': 0, 'rot0': 0, 'rot3': 0, 'rot2': 0, 'state': 'normal', 'yaw': 25.27, 'datetime': '2018-10-12 13:33:46.790443', 'mgs': 0, 'depth': 1.767, 'time': 8.17, 'pitch': -2.08, 'roll': -6.63}
{'lipoC2': 7.91, 'temp': 24.69, 'lipoC3S3': 11.97, 'rot1': 0, 'rot0': 0, 'rot3': 0, 'rot2': 0, 'state': 'normal', 'yaw': 25.65, 'datetime': '2018-10-12 13:33:46.887155', 'mgs': 0, 'depth': 1.767, 'time': 8.27, 'pitch': -2.21, 'roll': -6.75}
{'lipoC2': 7.91, 'temp': 24.69, 'lipoC3S3': 11.98, 'rot1': 0, 'rot0': 0, 'rot3': 0, 'rot2': 0, 'state': 'normal', 'yaw': 26.23, 'datetime': '2018-10-12 13:33:46.985033', 'mgs': 0, 'depth': 1.691, 'time': 8.37, 'pitch': -2.14, 'roll': -6.57}
{'lipoC2': 7.91, 'temp': 24.69, 'lipoC3S3': 11.98, 'rot1': 0, 'rot0': 0, 'rot3': 0, 'rot2': 0, 'state': 'normal', 'yaw': 26.77, 'datetime': '2018-10-12 13:33:47.083489', 'mgs': 0, 'depth': 1.691, 'time': 8.47, 'pitch': -2.01, 'roll': -6.27}
{'lipoC2': 7.91, 'temp': 24.69, 'lipoC3S3': 11.98, 'rot1': 0, 'rot0': 0, 'rot3': 0, 'rot2': 0, 'state': 'normal', 'yaw': 26.92, 'datetime': '2018-10-12 13:33:47.180472', 'mgs': 0, 'depth': 1.691, 'time': 8.56, 'pitch': -2.12, 'roll': -6.08}
{'lipoC2': 7.91, 'temp': 24.69, 'lipoC3S3': 11.97, 'rot1': 0, 'rot0': 0, 'rot3': 0, 'rot2': 0, 'state': 'normal', 'yaw': 26.96, 'datetime': '2018-10-12 13:33:47.277412', 'mgs': 0, 'depth': 1.691, 'time': 8.66, 'pitch': -2.3, 'roll': -6.3}
{'lipoC2': 7.91, 'temp': 24.69, 'lipoC3S3': 11.98, 'rot1': 0, 'rot0': 0, 'rot3': 0, 'rot2': 0, 'state': 'normal', 'yaw': 27.19, 'datetime': '2018-10-12 13:33:47.375490', 'mgs': 0, 'depth': 1.691, 'time': 8.76, 'pitch': -2.34, 'roll': -6.57}
{'lipoC2': 7.91, 'temp': 24.69, 'lipoC3S3': 11.97, 'rot1': 0, 'rot0': 0, 'rot3': 0, 'rot2': 0, 'state': 'normal', 'yaw': 27.62, 'datetime': '2018-10-12 13:33:47.472568', 'mgs': 0, 'depth': 1.767, 'time': 8.86, 'pitch': -2.28, 'roll': -6.58}
{'lipoC2': 7.92, 'temp': 24.69, 'lipoC3S3': 11.97, 'rot1': 0, 'rot0': 0, 'rot3': 0, 'rot2': 0, 'state': 'normal', 'yaw': 28.0, 'datetime': '2018-10-12 13:33:47.569646', 'mgs': 0, 'depth': 1.691, 'time': 8.95, 'pitch': -2.22, 'roll': -6.44}
{'lipoC2': 7.92, 'temp': 24.69, 'lipoC3S3': 11.98, 'rot1': 0, 'rot0': 0, 'rot3': 0, 'rot2': 0, 'state': 'normal', 'yaw': 28.11, 'datetime': '2018-10-12 13:33:47.661984', 'mgs': 0, 'depth': 1.691, 'time': 9.05, 'pitch': -2.29, 'roll': -6.6}
{'lipoC2': 7.91, 'temp': 24.69, 'lipoC3S3': 11.98, 'rot1': 0, 'rot0': 0, 'rot3': 0, 'rot2': 0, 'state': 'normal', 'yaw': 28.12, 'datetime': '2018-10-12 13:33:47.758959', 'mgs': 0, 'depth': 1.691, 'time': 9.15, 'pitch': -2.37, 'roll': -7.07}
{'lipoC2': 7.91, 'temp': 24.69, 'lipoC3S3': 11.97, 'rot1': 0, 'rot0': 0, 'rot3': 0, 'rot2': 0, 'state': 'normal', 'yaw': 28.21, 'datetime': '2018-10-12 13:33:47.856210', 'mgs': 0, 'depth': 1.691, 'time': 9.25, 'pitch': -2.3, 'roll': -7.46}
{'lipoC2': 7.91, 'temp': 24.69, 'lipoC3S3': 11.98, 'rot1': 0, 'rot0': 0, 'rot3': 0, 'rot2': 0, 'state': 'normal', 'yaw': 28.41, 'datetime': '2018-10-12 13:33:47.957745', 'mgs': 0, 'depth': 1.767, 'time': 9.34, 'pitch': -2.04, 'roll': -7.52}
{'lipoC2': 7.92, 'temp': 24.69, 'lipoC3S3': 11.97, 'rot1': 0, 'rot0': 0, 'rot3': 0, 'rot2': 0, 'state': 'normal', 'yaw': 28.53, 'datetime': '2018-10-12 13:33:48.057631', 'mgs': 0, 'depth': 1.691, 'time': 9.44, 'pitch': -1.78, 'roll': -7.5}
{'lipoC2': 7.92, 'temp': 24.69, 'lipoC3S3': 11.98, 'rot1': 0, 'rot0': 0, 'rot3': 0, 'rot2': 0, 'state': 'normal', 'yaw': 28.5, 'datetime': '2018-10-12 13:33:48.151894', 'mgs': 0, 'depth': 1.691, 'time': 9.54, 'pitch': -1.6, 'roll': -7.45}
{'lipoC2': 7.91, 'temp': 24.69, 'lipoC3S3': 11.97, 'rot1': 0, 'rot0': 0, 'rot3': 0, 'rot2': 0, 'state': 'normal', 'yaw': 28.4, 'datetime': '2018-10-12 13:33:48.248913', 'mgs': 0, 'depth': 1.614, 'time': 9.63, 'pitch': -1.49, 'roll': -7.43}
{'lipoC2': 7.91, 'temp': 24.69, 'lipoC3S3': 11.97, 'rot1': 0, 'rot0': 0, 'rot3': 0, 'rot2': 0, 'state': 'normal', 'yaw': 28.37, 'datetime': '2018-10-12 13:33:48.347100', 'mgs': 0, 'depth': 1.767, 'time': 9.73, 'pitch': -1.4, 'roll': -7.37}
{'lipoC2': 7.91, 'temp': 24.69, 'lipoC3S3': 11.97, 'rot1': 0, 'rot0': 0, 'rot3': 0, 'rot2': 0, 'state': 'normal', 'yaw': 28.36, 'datetime': '2018-10-12 13:33:48.445505', 'mgs': 0, 'depth': 1.691, 'time': 9.83, 'pitch': -1.35, 'roll': -7.31}
{'lipoC2': 7.91, 'temp': 24.69, 'lipoC3S3': 11.98, 'rot1': 0, 'rot0': 0, 'rot3': 0, 'rot2': 0, 'state': 'normal', 'yaw': 28.29, 'datetime': '2018-10-12 13:33:48.543226', 'mgs': 0, 'depth': 1.691, 'time': 9.93, 'pitch': -1.4, 'roll': -7.26}
{'lipoC2': 7.91, 'temp': 24.69, 'lipoC3S3': 11.97, 'rot1': 0, 'rot0': 0, 'rot3': 0, 'rot2': 0, 'state': 'normal', 'yaw': 28.13, 'datetime': '2018-10-12 13:33:48.639566', 'mgs': 0, 'depth': 1.767, 'time': 10.02, 'pitch': -1.56, 'roll': -7.37}
{'lipoC2': 7.91, 'temp': 24.69, 'lipoC3S3': 11.97, 'rot1': 0, 'rot0': 0, 'rot3': 0, 'rot2': 0, 'state': 'normal', 'yaw': 27.97, 'datetime': '2018-10-12 13:33:48.737543', 'mgs': 0, 'depth': 1.691, 'time': 10.12, 'pitch': -1.7, 'roll': -7.49}
{'lipoC2': 7.92, 'temp': 24.69, 'lipoC3S3': 11.97, 'rot1': 0, 'rot0': 0, 'rot3': 0, 'rot2': 0, 'state': 'normal', 'yaw': 27.83, 'datetime': '2018-10-12 13:33:48.835919', 'mgs': 0, 'depth': 1.691, 'time': 10.22, 'pitch': -1.7, 'roll': -7.57}
{'lipoC2': 7.91, 'temp': 24.69, 'lipoC3S3': 11.97, 'rot1': 0, 'rot0': 0, 'rot3': 0, 'rot2': 0, 'state': 'normal', 'yaw': 27.78, 'datetime': '2018-10-12 13:33:48.932839', 'mgs': 0, 'depth': 1.767, 'time': 10.32, 'pitch': -1.62, 'roll': -7.66}
{'lipoC2': 7.91, 'temp': 24.69, 'lipoC3S3': 11.97, 'rot1': 0, 'rot0': 0, 'rot3': 0, 'rot2': 0, 'state': 'normal', 'yaw': 27.7, 'datetime': '2018-10-12 13:33:49.030002', 'mgs': 0, 'depth': 1.767, 'time': 10.42, 'pitch': -1.48, 'roll': -7.82}
{'lipoC2': 7.91, 'temp': 24.63, 'lipoC3S3': 11.98, 'rot1': 0, 'rot0': 0, 'rot3': 0, 'rot2': 0, 'state': 'normal', 'yaw': 27.62, 'datetime': '2018-10-12 13:33:49.127497', 'mgs': 0, 'depth': 1.767, 'time': 10.51, 'pitch': -1.35, 'roll': -8.17}
{'lipoC2': 7.91, 'temp': 24.63, 'lipoC3S3': 11.98, 'rot1': 0, 'rot0': 0, 'rot3': 0, 'rot2': 0, 'state': 'normal', 'yaw': 27.62, 'datetime': '2018-10-12 13:33:49.224604', 'mgs': 0, 'depth': 1.767, 'time': 10.61, 'pitch': -1.3, 'roll': -8.62}
{'lipoC2': 7.92, 'temp': 24.69, 'lipoC3S3': 11.97, 'rot1': 0, 'rot0': 0, 'rot3': 0, 'rot2': 0, 'state': 'normal', 'yaw': 27.74, 'datetime': '2018-10-12 13:33:49.321652', 'mgs': 0, 'depth': 1.767, 'time': 10.71, 'pitch': -1.41, 'roll': -8.85}
{'lipoC2': 7.91, 'temp': 24.69, 'lipoC3S3': 11.98, 'rot1': 0, 'rot0': 0, 'rot3': 0, 'rot2': 0, 'state': 'normal', 'yaw': 27.92, 'datetime': '2018-10-12 13:33:49.418852', 'mgs': 0, 'depth': 1.843, 'time': 10.81, 'pitch': -1.66, 'roll': -8.95}
{'lipoC2': 7.91, 'temp': 24.69, 'lipoC3S3': 11.97, 'rot1': 0, 'rot0': 0, 'rot3': 0, 'rot2': 0, 'state': 'normal', 'yaw': 28.28, 'datetime': '2018-10-12 13:33:49.514189', 'mgs': 0, 'depth': 1.92, 'time': 10.9, 'pitch': -2.09, 'roll': -9.1}
{'lipoC2': 7.92, 'temp': 24.69, 'lipoC3S3': 11.97, 'rot1': 0, 'rot0': 0, 'rot3': 0, 'rot2': 0, 'state': 'normal', 'yaw': 28.71, 'datetime': '2018-10-12 13:33:49.613169', 'mgs': 0, 'depth': 1.843, 'time': 11.0, 'pitch': -2.58, 'roll': -9.16}
{'lipoC2': 7.91, 'temp': 24.69, 'lipoC3S3': 11.98, 'rot1': 0, 'rot0': 0, 'rot3': 0, 'rot2': 0, 'state': 'normal', 'yaw': 29.04, 'datetime': '2018-10-12 13:33:49.709915', 'mgs': 0, 'depth': 1.92, 'time': 11.1, 'pitch': -3.09, 'roll': -9.13}
{'lipoC2': 7.91, 'temp': 24.63, 'lipoC3S3': 11.98, 'rot1': 0, 'rot0': 0, 'rot3': 0, 'rot2': 0, 'state': 'normal', 'yaw': 29.2, 'datetime': '2018-10-12 13:33:49.807042', 'mgs': 0, 'depth': 1.92, 'time': 11.19, 'pitch': -3.51, 'roll': -8.96}
{'lipoC2': 7.91, 'temp': 24.63, 'lipoC3S3': 11.97, 'rot1': 0, 'rot0': 0, 'rot3': 0, 'rot2': 0, 'state': 'normal', 'yaw': 29.26, 'datetime': '2018-10-12 13:33:49.904052', 'mgs': 0, 'depth': 1.92, 'time': 11.29, 'pitch': -3.85, 'roll': -8.3}
{'lipoC2': 7.91, 'temp': 24.63, 'lipoC3S3': 11.98, 'rot1': 0, 'rot0': 0, 'rot3': 0, 'rot2': 0, 'state': 'normal', 'yaw': 29.3, 'datetime': '2018-10-12 13:33:50.001428', 'mgs': 0, 'depth': 1.92, 'time': 11.39, 'pitch': -4.06, 'roll': -7.36}
{'lipoC2': 7.91, 'temp': 24.69, 'lipoC3S3': 11.98, 'rot1': 0, 'rot0': 0, 'rot3': 0, 'rot2': 0, 'state': 'normal', 'yaw': 29.45, 'datetime': '2018-10-12 13:33:50.099677', 'mgs': 0, 'depth': 1.996, 'time': 11.49, 'pitch': -4.02, 'roll': -6.75}
{'lipoC2': 7.91, 'temp': 24.69, 'lipoC3S3': 11.98, 'rot1': 0, 'rot0': 0, 'rot3': 0, 'rot2': 0, 'state': 'normal', 'yaw': 29.68, 'datetime': '2018-10-12 13:33:50.197919', 'mgs': 0, 'depth': 1.996, 'time': 11.59, 'pitch': -3.63, 'roll': -6.91}
{'lipoC2': 7.91, 'temp': 24.69, 'lipoC3S3': 11.97, 'rot1': 0, 'rot0': 0, 'rot3': 0, 'rot2': 0, 'state': 'normal', 'yaw': 29.7, 'datetime': '2018-10-12 13:33:50.294899', 'mgs': 0, 'depth': 1.996, 'time': 11.68, 'pitch': -3.29, 'roll': -7.94}
{'lipoC2': 7.91, 'temp': 24.69, 'lipoC3S3': 11.98, 'rot1': 0, 'rot0': 0, 'rot3': 0, 'rot2': 0, 'state': 'normal', 'yaw': 29.51, 'datetime': '2018-10-12 13:33:50.392095', 'mgs': 0, 'depth': 1.92, 'time': 11.78, 'pitch': -3.13, 'roll': -8.77}
{'lipoC2': 7.91, 'temp': 24.69, 'lipoC3S3': 11.98, 'rot1': 0, 'rot0': 0, 'rot3': 0, 'rot2': 0, 'state': 'normal', 'yaw': 29.31, 'datetime': '2018-10-12 13:33:50.490031', 'mgs': 0, 'depth': 1.92, 'time': 11.88, 'pitch': -3.0, 'roll': -9.18}
{'lipoC2': 7.91, 'temp': 24.69, 'lipoC3S3': 11.97, 'rot1': 0, 'rot0': 0, 'rot3': 0, 'rot2': 0, 'state': 'normal', 'yaw': 29.24, 'datetime': '2018-10-12 13:33:50.588482', 'mgs': 0, 'depth': 1.843, 'time': 11.98, 'pitch': -2.74, 'roll': -9.59}
{'lipoC2': 7.91, 'temp': 24.69, 'lipoC3S3': 11.97, 'rot1': 0, 'rot0': 0, 'rot3': 0, 'rot2': 0, 'state': 'normal', 'yaw': 29.19, 'datetime': '2018-10-12 13:33:50.683999', 'mgs': 0, 'depth': 1.92, 'time': 12.07, 'pitch': -2.41, 'roll': -9.81}
{'lipoC2': 7.92, 'temp': 24.69, 'lipoC3S3': 11.97, 'rot1': 0, 'rot0': 0, 'rot3': 0, 'rot2': 0, 'state': 'normal', 'yaw': 29.0, 'datetime': '2018-10-12 13:33:50.782592', 'mgs': 0, 'depth': 1.843, 'time': 12.17, 'pitch': -2.17, 'roll': -9.61}
{'lipoC2': 7.91, 'temp': 24.69, 'lipoC3S3': 11.97, 'rot1': 0, 'rot0': 0, 'rot3': 0, 'rot2': 0, 'state': 'normal', 'yaw': 28.77, 'datetime': '2018-10-12 13:33:50.880182', 'mgs': 0, 'depth': 1.843, 'time': 12.27, 'pitch': -2.04, 'roll': -9.25}
{'lipoC2': 7.91, 'temp': 24.69, 'lipoC3S3': 11.97, 'rot1': 0, 'rot0': 0, 'rot3': 0, 'rot2': 0, 'state': 'normal', 'yaw': 28.55, 'datetime': '2018-10-12 13:33:50.977384', 'mgs': 0, 'depth': 1.767, 'time': 12.37, 'pitch': -1.9, 'roll': -8.78}
{'lipoC2': 7.92, 'temp': 24.69, 'lipoC3S3': 11.98, 'rot1': 0, 'rot0': 0, 'rot3': 0, 'rot2': 0, 'state': 'normal', 'yaw': 28.54, 'datetime': '2018-10-12 13:33:51.074440', 'mgs': 0, 'depth': 1.843, 'time': 12.46, 'pitch': -1.73, 'roll': -8.32}
{'lipoC2': 7.91, 'temp': 24.69, 'lipoC3S3': 11.98, 'rot1': 0, 'rot0': 0, 'rot3': 0, 'rot2': 0, 'state': 'normal', 'yaw': 28.7, 'datetime': '2018-10-12 13:33:51.171653', 'mgs': 0, 'depth': 1.843, 'time': 12.56, 'pitch': -1.59, 'roll': -8.04}
{'lipoC2': 7.91, 'temp': 24.69, 'lipoC3S3': 11.98, 'rot1': 0, 'rot0': 0, 'rot3': 0, 'rot2': 0, 'state': 'normal', 'yaw': 28.93, 'datetime': '2018-10-12 13:33:51.268610', 'mgs': 0, 'depth': 1.691, 'time': 12.66, 'pitch': -1.56, 'roll': -7.95}
{'lipoC2': 7.91, 'temp': 24.69, 'lipoC3S3': 11.97, 'rot1': 0, 'rot0': 0, 'rot3': 0, 'rot2': 0, 'state': 'normal', 'yaw': 29.06, 'datetime': '2018-10-12 13:33:51.365647', 'mgs': 0, 'depth': 1.767, 'time': 12.75, 'pitch': -1.76, 'roll': -7.87}
{'lipoC2': 7.92, 'temp': 24.69, 'lipoC3S3': 11.97, 'rot1': 0, 'rot0': 0, 'rot3': 0, 'rot2': 0, 'state': 'normal', 'yaw': 29.12, 'datetime': '2018-10-12 13:33:51.462655', 'mgs': 0, 'depth': 1.691, 'time': 12.85, 'pitch': -2.06, 'roll': -7.79}
{'lipoC2': 7.91, 'temp': 24.69, 'lipoC3S3': 11.97, 'rot1': 0, 'rot0': 0, 'rot3': 0, 'rot2': 0, 'state': 'normal', 'yaw': 29.22, 'datetime': '2018-10-12 13:33:51.559863', 'mgs': 0, 'depth': 1.767, 'time': 12.95, 'pitch': -2.29, 'roll': -7.64}
{'lipoC2': 7.91, 'temp': 24.69, 'lipoC3S3': 11.98, 'rot1': 0, 'rot0': 0, 'rot3': 0, 'rot2': 0, 'state': 'normal', 'yaw': 29.33, 'datetime': '2018-10-12 13:33:51.656788', 'mgs': 0, 'depth': 1.614, 'time': 13.05, 'pitch': -2.5, 'roll': -7.26}
{'lipoC2': 7.91, 'temp': 24.75, 'lipoC3S3': 11.97, 'rot1': 0, 'rot0': 0, 'rot3': 0, 'rot2': 0, 'state': 'normal', 'yaw': 29.39, 'datetime': '2018-10-12 13:33:51.753790', 'mgs': 0, 'depth': 1.691, 'time': 13.14, 'pitch': -2.69, 'roll': -6.84}
{'lipoC2': 7.91, 'temp': 24.75, 'lipoC3S3': 11.98, 'rot1': 0, 'rot0': 0, 'rot3': 0, 'rot2': 0, 'state': 'normal', 'yaw': 29.41, 'datetime': '2018-10-12 13:33:51.852175', 'mgs': 0, 'depth': 1.691, 'time': 13.24, 'pitch': -2.84, 'roll': -6.62}
{'lipoC2': 7.91, 'temp': 24.63, 'lipoC3S3': 11.98, 'rot1': 0, 'rot0': 0, 'rot3': 0, 'rot2': 0, 'state': 'normal', 'yaw': 29.43, 'datetime': '2018-10-12 13:33:51.950313', 'mgs': 1, 'depth': 1.691, 'time': 13.34, 'pitch': -2.97, 'roll': -6.58}
{'lipoC2': 7.91, 'temp': 24.69, 'lipoC3S3': 11.97, 'rot1': 0, 'rot0': 0, 'rot3': 0, 'rot2': 0, 'state': 'normal', 'yaw': 0.0, 'datetime': '2018-10-12 13:33:53.469951', 'mgs': 0, 'depth': 1.767, 'time': 1.26, 'pitch': -2.05, 'roll': -8.12}
{'lipoC2': 7.91, 'temp': 24.69, 'lipoC3S3': 11.98, 'rot1': 0, 'rot0': 0, 'rot3': 0, 'rot2': 0, 'state': 'normal', 'yaw': -0.03, 'datetime': '2018-10-12 13:33:53.495669', 'mgs': 0, 'depth': 1.691, 'time': 1.36, 'pitch': -1.83, 'roll': -8.32}
{'lipoC2': 7.91, 'temp': 24.69, 'lipoC3S3': 11.98, 'rot1': 0, 'rot0': 0, 'rot3': 0, 'rot2': 0, 'state': 'normal', 'yaw': -0.05, 'datetime': '2018-10-12 13:33:53.512627', 'mgs': 0, 'depth': 1.767, 'time': 1.45, 'pitch': -1.67, 'roll': -8.54}
{'lipoC2': 7.91, 'temp': 24.69, 'lipoC3S3': 11.89, 'rot1': 0, 'rot0': 0, 'rot3': 0, 'rot2': 0, 'state': 'normal', 'yaw': -0.06, 'datetime': '2018-10-12 13:33:53.600725', 'mgs': 0, 'depth': 1.767, 'time': 1.55, 'pitch': -1.6, 'roll': -8.74}
{'lipoC2': 7.91, 'temp': 24.69, 'lipoC3S3': 11.84, 'rot1': 0, 'rot0': 0, 'rot3': 1, 'rot2': 1, 'state': 'normal', 'yaw': -0.05, 'datetime': '2018-10-12 13:33:53.700439', 'mgs': 0, 'depth': 1.614, 'time': 1.65, 'pitch': -1.65, 'roll': -8.7}
{'lipoC2': 7.91, 'temp': 24.69, 'lipoC3S3': 11.9, 'rot1': 1, 'rot0': 1, 'rot3': 2, 'rot2': 1, 'state': 'normal', 'yaw': -0.01, 'datetime': '2018-10-12 13:33:53.796929', 'mgs': 0, 'depth': 1.767, 'time': 1.74, 'pitch': -1.82, 'roll': -8.07}
{'lipoC2': 7.91, 'temp': 24.69, 'lipoC3S3': 11.9, 'rot1': 2, 'rot0': 2, 'rot3': 2, 'rot2': 2, 'state': 'normal', 'yaw': 0.09, 'datetime': '2018-10-12 13:33:53.894645', 'mgs': 0, 'depth': 2.072, 'time': 1.84, 'pitch': -1.99, 'roll': -7.39}
{'lipoC2': 7.91, 'temp': 24.69, 'lipoC3S3': 11.72, 'rot1': 3, 'rot0': 4, 'rot3': 2, 'rot2': 3, 'state': 'normal', 'yaw': 0.15, 'datetime': '2018-10-12 13:33:53.992678', 'mgs': 0, 'depth': 1.767, 'time': 1.94, 'pitch': -2.29, 'roll': -6.11}
{'lipoC2': 7.91, 'temp': 24.69, 'lipoC3S3': 11.81, 'rot1': 4, 'rot0': 5, 'rot3': 3, 'rot2': 3, 'state': 'normal', 'yaw': 0.27, 'datetime': '2018-10-12 13:33:54.089390', 'mgs': 0, 'depth': 1.843, 'time': 2.04, 'pitch': -2.5, 'roll': -4.39}
{'lipoC2': 7.91, 'temp': 24.69, 'lipoC3S3': 11.83, 'rot1': 5, 'rot0': 6, 'rot3': 4, 'rot2': 4, 'state': 'normal', 'yaw': 0.41, 'datetime': '2018-10-12 13:33:54.185936', 'mgs': 0, 'depth': 1.92, 'time': 2.13, 'pitch': -2.57, 'roll': -2.55}
{'lipoC2': 7.92, 'temp': 24.69, 'lipoC3S3': 11.84, 'rot1': 6, 'rot0': 7, 'rot3': 4, 'rot2': 5, 'state': 'normal', 'yaw': 0.56, 'datetime': '2018-10-12 13:33:54.284016', 'mgs': 0, 'depth': 2.072, 'time': 2.23, 'pitch': -2.64, 'roll': -1.05}
{'lipoC2': 7.92, 'temp': 24.69, 'lipoC3S3': 11.84, 'rot1': 8, 'rot0': 8, 'rot3': 5, 'rot2': 5, 'state': 'normal', 'yaw': 0.69, 'datetime': '2018-10-12 13:33:54.380566', 'mgs': 0, 'depth': 1.92, 'time': 2.33, 'pitch': -2.78, 'roll': 0.27}
{'lipoC2': 7.92, 'temp': 24.69, 'lipoC3S3': 11.83, 'rot1': 9, 'rot0': 9, 'rot3': 5, 'rot2': 6, 'state': 'normal', 'yaw': 0.79, 'datetime': '2018-10-12 13:33:54.477308', 'mgs': 0, 'depth': 1.843, 'time': 2.42, 'pitch': -2.99, 'roll': 1.21}
{'lipoC2': 7.91, 'temp': 24.69, 'lipoC3S3': 11.71, 'rot1': 10, 'rot0': 10, 'rot3': 6, 'rot2': 6, 'state': 'normal', 'yaw': 0.89, 'datetime': '2018-10-12 13:33:54.574467', 'mgs': 0, 'depth': 1.843, 'time': 2.52, 'pitch': -3.2, 'roll': 1.78}
{'lipoC2': 7.91, 'temp': 24.69, 'lipoC3S3': 11.85, 'rot1': 11, 'rot0': 11, 'rot3': 6, 'rot2': 7, 'state': 'normal', 'yaw': 0.93, 'datetime': '2018-10-12 13:33:54.671359', 'mgs': 0, 'depth': 2.988, 'time': 2.62, 'pitch': -3.46, 'roll': 2.18}
{'lipoC2': 7.91, 'temp': 24.69, 'lipoC3S3': 11.88, 'rot1': 12, 'rot0': 12, 'rot3': 7, 'rot2': 8, 'state': 'normal', 'yaw': 0.94, 'datetime': '2018-10-12 13:33:54.768426', 'mgs': 0, 'depth': 2.148, 'time': 2.72, 'pitch': -3.66, 'roll': 2.32}
{'lipoC2': 7.92, 'temp': 24.69, 'lipoC3S3': 11.71, 'rot1': 13, 'rot0': 13, 'rot3': 8, 'rot2': 9, 'state': 'normal', 'yaw': 1.01, 'datetime': '2018-10-12 13:33:54.865448', 'mgs': 0, 'depth': 1.843, 'time': 2.81, 'pitch': -3.74, 'roll': 2.29}
{'lipoC2': 7.91, 'temp': 24.69, 'lipoC3S3': 11.83, 'rot1': 14, 'rot0': 14, 'rot3': 8, 'rot2': 9, 'state': 'normal', 'yaw': 1.15, 'datetime': '2018-10-12 13:33:54.962397', 'mgs': 0, 'depth': 3.064, 'time': 2.91, 'pitch': -3.7, 'roll': 2.08}
{'lipoC2': 7.91, 'temp': 24.69, 'lipoC3S3': 11.88, 'rot1': 15, 'rot0': 15, 'rot3': 9, 'rot2': 10, 'state': 'normal', 'yaw': 1.33, 'datetime': '2018-10-12 13:33:55.059863', 'mgs': 0, 'depth': 2.148, 'time': 3.01, 'pitch': -3.52, 'roll': 1.71}
{'lipoC2': 7.92, 'temp': 24.69, 'lipoC3S3': 11.79, 'rot1': 16, 'rot0': 17, 'rot3': 9, 'rot2': 11, 'state': 'normal', 'yaw': 1.53, 'datetime': '2018-10-12 13:33:55.157545', 'mgs': 0, 'depth': 1.92, 'time': 3.11, 'pitch': -3.29, 'roll': 1.26}
{'lipoC2': 7.92, 'temp': 24.63, 'lipoC3S3': 11.8, 'rot1': 17, 'rot0': 18, 'rot3': 10, 'rot2': 12, 'state': 'normal', 'yaw': 1.55, 'datetime': '2018-10-12 13:33:55.256240', 'mgs': 0, 'depth': 1.614, 'time': 3.2, 'pitch': -3.04, 'roll': 0.58}
{'lipoC2': 7.91, 'temp': 24.63, 'lipoC3S3': 11.79, 'rot1': 18, 'rot0': 19, 'rot3': 11, 'rot2': 13, 'state': 'normal', 'yaw': 1.28, 'datetime': '2018-10-12 13:33:55.355108', 'mgs': 0, 'depth': 1.843, 'time': 3.3, 'pitch': -2.87, 'roll': -0.26}
{'lipoC2': 7.91, 'temp': 24.69, 'lipoC3S3': 11.89, 'rot1': 18, 'rot0': 20, 'rot3': 11, 'rot2': 13, 'state': 'normal', 'yaw': 0.76, 'datetime': '2018-10-12 13:33:55.452506', 'mgs': 0, 'depth': 2.072, 'time': 3.4, 'pitch': -2.8, 'roll': -1.06}
{'lipoC2': 7.91, 'temp': 24.69, 'lipoC3S3': 11.88, 'rot1': 19, 'rot0': 21, 'rot3': 12, 'rot2': 14, 'state': 'normal', 'yaw': 0.06, 'datetime': '2018-10-12 13:33:55.549779', 'mgs': 0, 'depth': 2.377, 'time': 3.5, 'pitch': -2.89, 'roll': -1.62}
{'lipoC2': 7.91, 'temp': 24.69, 'lipoC3S3': 11.81, 'rot1': 20, 'rot0': 22, 'rot3': 12, 'rot2': 14, 'state': 'normal', 'yaw': -0.74, 'datetime': '2018-10-12 13:33:55.648146', 'mgs': 0, 'depth': 1.843, 'time': 3.6, 'pitch': -3.11, 'roll': -1.93}
{'lipoC2': 7.91, 'temp': 24.69, 'lipoC3S3': 11.77, 'rot1': 21, 'rot0': 23, 'rot3': 13, 'rot2': 15, 'state': 'normal', 'yaw': -1.77, 'datetime': '2018-10-12 13:33:55.746821', 'mgs': 0, 'depth': 1.767, 'time': 3.7, 'pitch': -3.48, 'roll': -2.2}
{'lipoC2': 7.92, 'temp': 24.69, 'lipoC3S3': 11.83, 'rot1': 22, 'rot0': 24, 'rot3': 14, 'rot2': 16, 'state': 'normal', 'yaw': -2.66, 'datetime': '2018-10-12 13:33:55.845495', 'mgs': 0, 'depth': 1.843, 'time': 3.79, 'pitch': -3.88, 'roll': -2.43}
{'lipoC2': 7.91, 'temp': 24.69, 'lipoC3S3': 11.84, 'rot1': 23, 'rot0': 25, 'rot3': 14, 'rot2': 16, 'state': 'normal', 'yaw': -3.34, 'datetime': '2018-10-12 13:33:55.943064', 'mgs': 0, 'depth': 1.843, 'time': 3.89, 'pitch': -4.26, 'roll': -2.6}
{'lipoC2': 7.91, 'temp': 24.69, 'lipoC3S3': 11.88, 'rot1': 24, 'rot0': 27, 'rot3': 15, 'rot2': 17, 'state': 'normal', 'yaw': -3.77, 'datetime': '2018-10-12 13:33:56.040483', 'mgs': 0, 'depth': 2.148, 'time': 3.99, 'pitch': -4.54, 'roll': -2.77}
{'lipoC2': 7.91, 'temp': 24.69, 'lipoC3S3': 11.83, 'rot1': 25, 'rot0': 28, 'rot3': 15, 'rot2': 18, 'state': 'normal', 'yaw': -3.77, 'datetime': '2018-10-12 13:33:56.138790', 'mgs': 0, 'depth': 2.835, 'time': 4.09, 'pitch': -4.65, 'roll': -3.09}
{'lipoC2': 7.91, 'temp': 24.63, 'lipoC3S3': 11.84, 'rot1': 26, 'rot0': 29, 'rot3': 16, 'rot2': 18, 'state': 'normal', 'yaw': -3.39, 'datetime': '2018-10-12 13:33:56.237412', 'mgs': 0, 'depth': 2.606, 'time': 4.19, 'pitch': -4.64, 'roll': -3.57}
{'lipoC2': 7.91, 'temp': 24.63, 'lipoC3S3': 11.84, 'rot1': 27, 'rot0': 29, 'rot3': 17, 'rot2': 19, 'state': 'normal', 'yaw': -2.68, 'datetime': '2018-10-12 13:33:56.334813', 'mgs': 0, 'depth': 1.92, 'time': 4.28, 'pitch': -4.61, 'roll': -4.1}
{'lipoC2': 7.91, 'temp': 24.69, 'lipoC3S3': 11.88, 'rot1': 29, 'rot0': 30, 'rot3': 17, 'rot2': 20, 'state': 'normal', 'yaw': -1.72, 'datetime': '2018-10-12 13:33:56.432204', 'mgs': 0, 'depth': 2.072, 'time': 4.38, 'pitch': -4.66, 'roll': -4.5}
{'lipoC2': 7.91, 'temp': 24.69, 'lipoC3S3': 11.9, 'rot1': 30, 'rot0': 31, 'rot3': 18, 'rot2': 21, 'state': 'normal', 'yaw': -0.73, 'datetime': '2018-10-12 13:33:56.529863', 'mgs': 0, 'depth': 2.148, 'time': 4.48, 'pitch': -4.76, 'roll': -4.65}
{'lipoC2': 7.92, 'temp': 24.69, 'lipoC3S3': 11.81, 'rot1': 31, 'rot0': 32, 'rot3': 18, 'rot2': 21, 'state': 'normal', 'yaw': 0.4, 'datetime': '2018-10-12 13:33:56.627236', 'mgs': 0, 'depth': 2.835, 'time': 4.58, 'pitch': -4.95, 'roll': -4.6}
{'lipoC2': 7.92, 'temp': 24.69, 'lipoC3S3': 11.83, 'rot1': 32, 'rot0': 33, 'rot3': 19, 'rot2': 22, 'state': 'normal', 'yaw': 1.32, 'datetime': '2018-10-12 13:33:56.724602', 'mgs': 0, 'depth': 1.843, 'time': 4.67, 'pitch': -5.18, 'roll': -4.32}
{'lipoC2': 7.91, 'temp': 24.69, 'lipoC3S3': 11.83, 'rot1': 33, 'rot0': 35, 'rot3': 20, 'rot2': 23, 'state': 'normal', 'yaw': 2.02, 'datetime': '2018-10-12 13:33:56.822117', 'mgs': 0, 'depth': 1.843, 'time': 4.77, 'pitch': -5.4, 'roll': -3.94}
{'lipoC2': 7.91, 'temp': 24.69, 'lipoC3S3': 11.85, 'rot1': 34, 'rot0': 36, 'rot3': 20, 'rot2': 23, 'state': 'normal', 'yaw': 2.57, 'datetime': '2018-10-12 13:33:56.919791', 'mgs': 0, 'depth': 1.92, 'time': 4.87, 'pitch': -5.55, 'roll': -3.64}
{'lipoC2': 7.91, 'temp': 24.69, 'lipoC3S3': 11.89, 'rot1': 35, 'rot0': 37, 'rot3': 21, 'rot2': 24, 'state': 'normal', 'yaw': 2.87, 'datetime': '2018-10-12 13:33:57.017083', 'mgs': 0, 'depth': 2.072, 'time': 4.97, 'pitch': -5.7, 'roll': -3.54}
{'lipoC2': 7.91, 'temp': 24.69, 'lipoC3S3': 11.84, 'rot1': 36, 'rot0': 38, 'rot3': 21, 'rot2': 25, 'state': 'normal', 'yaw': 2.85, 'datetime': '2018-10-12 13:33:57.114788', 'mgs': 0, 'depth': 2.759, 'time': 5.07, 'pitch': -5.86, 'roll': -3.6}
{'lipoC2': 7.92, 'temp': 24.69, 'lipoC3S3': 11.77, 'rot1': 37, 'rot0': 39, 'rot3': 22, 'rot2': 25, 'state': 'normal', 'yaw': 2.57, 'datetime': '2018-10-12 13:33:57.212200', 'mgs': 0, 'depth': 2.072, 'time': 5.16, 'pitch': -6.09, 'roll': -3.72}
{'lipoC2': 7.92, 'temp': 24.69, 'lipoC3S3': 11.83, 'rot1': 37, 'rot0': 40, 'rot3': 22, 'rot2': 26, 'state': 'normal', 'yaw': 2.11, 'datetime': '2018-10-12 13:33:57.310746', 'mgs': 0, 'depth': 2.53, 'time': 5.26, 'pitch': -6.4, 'roll': -3.71}
{'lipoC2': 7.91, 'temp': 24.69, 'lipoC3S3': 11.84, 'rot1': 38, 'rot0': 41, 'rot3': 23, 'rot2': 27, 'state': 'normal', 'yaw': 1.42, 'datetime': '2018-10-12 13:33:57.409539', 'mgs': 0, 'depth': 2.377, 'time': 5.36, 'pitch': -6.86, 'roll': -3.59}
{'lipoC2': 7.92, 'temp': 24.69, 'lipoC3S3': 11.81, 'rot1': 39, 'rot0': 42, 'rot3': 24, 'rot2': 27, 'state': 'normal', 'yaw': 0.55, 'datetime': '2018-10-12 13:33:57.508245', 'mgs': 0, 'depth': 2.682, 'time': 5.46, 'pitch': -7.41, 'roll': -3.29}
{'lipoC2': 7.91, 'temp': 24.69, 'lipoC3S3': 11.94, 'rot1': 40, 'rot0': 43, 'rot3': 24, 'rot2': 28, 'state': 'normal', 'yaw': -0.4, 'datetime': '2018-10-12 13:33:57.603942', 'mgs': 0, 'depth': 1.996, 'time': 5.56, 'pitch': -7.97, 'roll': -3.01}
{'lipoC2': 7.91, 'temp': 24.69, 'lipoC3S3': 11.94, 'rot1': 40, 'rot0': 43, 'rot3': 24, 'rot2': 28, 'state': 'normal', 'yaw': -1.2, 'datetime': '2018-10-12 13:33:57.702945', 'mgs': 0, 'depth': 1.996, 'time': 5.65, 'pitch': -8.46, 'roll': -3.44}
{'lipoC2': 7.91, 'temp': 24.69, 'lipoC3S3': 11.9, 'rot1': 40, 'rot0': 43, 'rot3': 24, 'rot2': 28, 'state': 'normal', 'yaw': -1.85, 'datetime': '2018-10-12 13:33:57.801529', 'mgs': 0, 'depth': 1.691, 'time': 5.75, 'pitch': -8.86, 'roll': -4.31}
{'lipoC2': 7.91, 'temp': 24.63, 'lipoC3S3': 11.88, 'rot1': 40, 'rot0': 43, 'rot3': 24, 'rot2': 29, 'state': 'normal', 'yaw': -2.5, 'datetime': '2018-10-12 13:33:57.900208', 'mgs': 0, 'depth': 2.072, 'time': 5.85, 'pitch': -9.12, 'roll': -5.68}
{'lipoC2': 7.91, 'temp': 24.63, 'lipoC3S3': 11.84, 'rot1': 41, 'rot0': 44, 'rot3': 25, 'rot2': 29, 'state': 'normal', 'yaw': -2.9, 'datetime': '2018-10-12 13:33:57.998834', 'mgs': 0, 'depth': 2.072, 'time': 5.95, 'pitch': -9.06, 'roll': -6.85}
{'lipoC2': 7.92, 'temp': 24.63, 'lipoC3S3': 11.88, 'rot1': 42, 'rot0': 45, 'rot3': 25, 'rot2': 30, 'state': 'normal', 'yaw': -2.96, 'datetime': '2018-10-12 13:33:58.096315', 'mgs': 0, 'depth': 2.377, 'time': 6.05, 'pitch': -8.64, 'roll': -7.5}
{'lipoC2': 7.91, 'temp': 24.69, 'lipoC3S3': 11.87, 'rot1': 43, 'rot0': 46, 'rot3': 26, 'rot2': 31, 'state': 'normal', 'yaw': -2.72, 'datetime': '2018-10-12 13:33:58.193739', 'mgs': 0, 'depth': 3.14, 'time': 6.15, 'pitch': -7.96, 'roll': -7.82}
{'lipoC2': 7.92, 'temp': 24.69, 'lipoC3S3': 11.81, 'rot1': 44, 'rot0': 47, 'rot3': 26, 'rot2': 31, 'state': 'normal', 'yaw': -2.35, 'datetime': '2018-10-12 13:33:58.292319', 'mgs': 0, 'depth': 2.606, 'time': 6.24, 'pitch': -7.17, 'roll': -7.93}
{'lipoC2': 7.91, 'temp': 24.69, 'lipoC3S3': 11.87, 'rot1': 45, 'rot0': 47, 'rot3': 27, 'rot2': 32, 'state': 'normal', 'yaw': -1.81, 'datetime': '2018-10-12 13:33:58.391100', 'mgs': 0, 'depth': 3.064, 'time': 6.34, 'pitch': -6.17, 'roll': -7.96}
{'lipoC2': 7.91, 'temp': 24.69, 'lipoC3S3': 11.79, 'rot1': 47, 'rot0': 48, 'rot3': 27, 'rot2': 32, 'state': 'normal', 'yaw': -1.2, 'datetime': '2018-10-12 13:33:58.488488', 'mgs': 0, 'depth': 2.225, 'time': 6.44, 'pitch': -5.19, 'roll': -7.85}
{'lipoC2': 7.91, 'temp': 24.69, 'lipoC3S3': 11.9, 'rot1': 48, 'rot0': 49, 'rot3': 27, 'rot2': 33, 'state': 'normal', 'yaw': -0.5, 'datetime': '2018-10-12 13:33:58.586026', 'mgs': 0, 'depth': 2.377, 'time': 6.54, 'pitch': -4.27, 'roll': -7.62}
{'lipoC2': 7.91, 'temp': 24.69, 'lipoC3S3': 11.88, 'rot1': 49, 'rot0': 50, 'rot3': 28, 'rot2': 33, 'state': 'normal', 'yaw': 0.16, 'datetime': '2018-10-12 13:33:58.683545', 'mgs': 0, 'depth': 2.53, 'time': 6.64, 'pitch': -3.52, 'roll': -7.23}
{'lipoC2': 7.91, 'temp': 24.69, 'lipoC3S3': 11.85, 'rot1': 50, 'rot0': 51, 'rot3': 28, 'rot2': 34, 'state': 'normal', 'yaw': 0.92, 'datetime': '2018-10-12 13:33:58.780969', 'mgs': 0, 'depth': 3.827, 'time': 6.73, 'pitch': -2.78, 'roll': -6.58}
{'lipoC2': 7.92, 'temp': 24.63, 'lipoC3S3': 11.81, 'rot1': 51, 'rot0': 52, 'rot3': 29, 'rot2': 34, 'state': 'normal', 'yaw': 1.45, 'datetime': '2018-10-12 13:33:58.878236', 'mgs': 0, 'depth': 2.759, 'time': 6.83, 'pitch': -2.15, 'roll': -5.62}
{'lipoC2': 7.91, 'temp': 24.63, 'lipoC3S3': 11.8, 'rot1': 52, 'rot0': 53, 'rot3': 29, 'rot2': 35, 'state': 'normal', 'yaw': 1.7, 'datetime': '2018-10-12 13:33:58.975730', 'mgs': 0, 'depth': 2.682, 'time': 6.93, 'pitch': -1.67, 'roll': -4.44}
{'lipoC2': 7.91, 'temp': 24.63, 'lipoC3S3': 11.88, 'rot1': 53, 'rot0': 54, 'rot3': 30, 'rot2': 35, 'state': 'normal', 'yaw': 1.76, 'datetime': '2018-10-12 13:33:59.073396', 'mgs': 0, 'depth': 2.835, 'time': 7.03, 'pitch': -1.43, 'roll': -3.34}
{'lipoC2': 7.91, 'temp': 24.44, 'lipoC3S3': 11.88, 'rot1': 54, 'rot0': 55, 'rot3': 30, 'rot2': 36, 'state': 'normal', 'yaw': 1.51, 'datetime': '2018-10-12 13:33:59.170745', 'mgs': 0, 'depth': 3.217, 'time': 7.12, 'pitch': -1.42, 'roll': -2.33}
{'lipoC2': 7.92, 'temp': 24.44, 'lipoC3S3': 11.89, 'rot1': 55, 'rot0': 56, 'rot3': 30, 'rot2': 36, 'state': 'normal', 'yaw': 0.91, 'datetime': '2018-10-12 13:33:59.268068', 'mgs': 0, 'depth': 3.369, 'time': 7.22, 'pitch': -1.68, 'roll': -1.59}
{'lipoC2': 7.91, 'temp': 25.06, 'lipoC3S3': 11.81, 'rot1': 56, 'rot0': 57, 'rot3': 30, 'rot2': 36, 'state': 'normal', 'yaw': 0.05, 'datetime': '2018-10-12 13:33:59.365484', 'mgs': 0, 'depth': 2.988, 'time': 7.32, 'pitch': -2.12, 'roll': -0.95}
{'lipoC2': 7.92, 'temp': 25.06, 'lipoC3S3': 11.87, 'rot1': 57, 'rot0': 58, 'rot3': 30, 'rot2': 36, 'state': 'normal', 'yaw': -0.7, 'datetime': '2018-10-12 13:33:59.464505', 'mgs': 0, 'depth': 3.293, 'time': 7.42, 'pitch': -2.58, 'roll': -0.35}
{'lipoC2': 7.92, 'temp': 24.69, 'lipoC3S3': 11.88, 'rot1': 58, 'rot0': 60, 'rot3': 30, 'rot2': 36, 'state': 'normal', 'yaw': -1.44, 'datetime': '2018-10-12 13:33:59.563035', 'mgs': 0, 'depth': 3.598, 'time': 7.52, 'pitch': -3.13, 'roll': 0.31}
{'lipoC2': 7.92, 'temp': 24.69, 'lipoC3S3': 11.92, 'rot1': 59, 'rot0': 61, 'rot3': 30, 'rot2': 36, 'state': 'normal', 'yaw': -2.07, 'datetime': '2018-10-12 13:33:59.661922', 'mgs': 0, 'depth': 3.674, 'time': 7.61, 'pitch': -3.7, 'roll': 0.9}
{'lipoC2': 7.92, 'temp': 24.69, 'lipoC3S3': 11.89, 'rot1': 60, 'rot0': 61, 'rot3': 30, 'rot2': 36, 'state': 'normal', 'yaw': -2.36, 'datetime': '2018-10-12 13:33:59.759105', 'mgs': 0, 'depth': 3.369, 'time': 7.71, 'pitch': -4.21, 'roll': 1.24}
{'lipoC2': 7.91, 'temp': 24.56, 'lipoC3S3': 11.84, 'rot1': 61, 'rot0': 62, 'rot3': 30, 'rot2': 36, 'state': 'normal', 'yaw': -2.26, 'datetime': '2018-10-12 13:33:59.856760', 'mgs': 0, 'depth': 3.369, 'time': 7.81, 'pitch': -4.63, 'roll': 1.32}
{'lipoC2': 7.91, 'temp': 24.56, 'lipoC3S3': 11.88, 'rot1': 62, 'rot0': 63, 'rot3': 30, 'rot2': 36, 'state': 'normal', 'yaw': -1.88, 'datetime': '2018-10-12 13:33:59.955275', 'mgs': 0, 'depth': 3.369, 'time': 7.91, 'pitch': -4.99, 'roll': 1.3}
{'lipoC2': 7.91, 'temp': 24.69, 'lipoC3S3': 11.89, 'rot1': 63, 'rot0': 64, 'rot3': 31, 'rot2': 37, 'state': 'normal', 'yaw': -1.22, 'datetime': '2018-10-12 13:34:00.058788', 'mgs': 0, 'depth': 3.369, 'time': 8.01, 'pitch': -5.3, 'roll': 1.32}
{'lipoC2': 7.91, 'temp': 24.69, 'lipoC3S3': 11.84, 'rot1': 64, 'rot0': 65, 'rot3': 31, 'rot2': 37, 'state': 'normal', 'yaw': -0.37, 'datetime': '2018-10-12 13:34:00.152673', 'mgs': 0, 'depth': 3.445, 'time': 8.11, 'pitch': -5.52, 'roll': 1.35}
{'lipoC2': 7.92, 'temp': 24.69, 'lipoC3S3': 11.87, 'rot1': 65, 'rot0': 66, 'rot3': 31, 'rot2': 38, 'state': 'normal', 'yaw': 0.63, 'datetime': '2018-10-12 13:34:00.249948', 'mgs': 0, 'depth': 3.751, 'time': 8.2, 'pitch': -5.61, 'roll': 1.42}
{'lipoC2': 7.93, 'temp': 24.69, 'lipoC3S3': 11.84, 'rot1': 66, 'rot0': 67, 'rot3': 32, 'rot2': 38, 'state': 'normal', 'yaw': 1.55, 'datetime': '2018-10-12 13:34:00.347196', 'mgs': 0, 'depth': 3.903, 'time': 8.3, 'pitch': -5.63, 'roll': 1.65}
{'lipoC2': 7.92, 'temp': 24.69, 'lipoC3S3': 11.83, 'rot1': 67, 'rot0': 68, 'rot3': 32, 'rot2': 39, 'state': 'normal', 'yaw': 2.22, 'datetime': '2018-10-12 13:34:00.445815', 'mgs': 0, 'depth': 3.369, 'time': 8.4, 'pitch': -5.65, 'roll': 2.02}
{'lipoC2': 7.91, 'temp': 24.69, 'lipoC3S3': 11.88, 'rot1': 68, 'rot0': 69, 'rot3': 33, 'rot2': 39, 'state': 'normal', 'yaw': 2.83, 'datetime': '2018-10-12 13:34:00.544126', 'mgs': 0, 'depth': 3.369, 'time': 8.5, 'pitch': -5.63, 'roll': 2.57}
{'lipoC2': 7.91, 'temp': 24.69, 'lipoC3S3': 11.87, 'rot1': 69, 'rot0': 70, 'rot3': 33, 'rot2': 40, 'state': 'normal', 'yaw': 3.09, 'datetime': '2018-10-12 13:34:00.641612', 'mgs': 0, 'depth': 4.056, 'time': 8.6, 'pitch': -5.64, 'roll': 3.17}
{'lipoC2': 7.92, 'temp': 24.69, 'lipoC3S3': 11.8, 'rot1': 70, 'rot0': 71, 'rot3': 33, 'rot2': 40, 'state': 'normal', 'yaw': 2.97, 'datetime': '2018-10-12 13:34:00.738985', 'mgs': 0, 'depth': 3.293, 'time': 8.69, 'pitch': -5.63, 'roll': 3.76}
{'lipoC2': 7.92, 'temp': 24.75, 'lipoC3S3': 11.75, 'rot1': 71, 'rot0': 72, 'rot3': 34, 'rot2': 41, 'state': 'normal', 'yaw': 2.62, 'datetime': '2018-10-12 13:34:00.836623', 'mgs': 0, 'depth': 3.217, 'time': 8.79, 'pitch': -5.61, 'roll': 4.23}
{'lipoC2': 7.91, 'temp': 24.75, 'lipoC3S3': 11.84, 'rot1': 72, 'rot0': 74, 'rot3': 34, 'rot2': 42, 'state': 'normal', 'yaw': 1.97, 'datetime': '2018-10-12 13:34:00.934007', 'mgs': 0, 'depth': 3.14, 'time': 8.89, 'pitch': -5.56, 'roll': 4.73}
{'lipoC2': 7.91, 'temp': 24.63, 'lipoC3S3': 11.89, 'rot1': 72, 'rot0': 75, 'rot3': 35, 'rot2': 42, 'state': 'normal', 'yaw': 1.11, 'datetime': '2018-10-12 13:34:01.038537', 'mgs': 0, 'depth': 3.14, 'time': 8.99, 'pitch': -5.54, 'roll': 5.18}
{'lipoC2': 7.91, 'temp': 24.63, 'lipoC3S3': 11.89, 'rot1': 73, 'rot0': 76, 'rot3': 35, 'rot2': 42, 'state': 'normal', 'yaw': 0.1, 'datetime': '2018-10-12 13:34:01.128800', 'mgs': 0, 'depth': 3.598, 'time': 9.08, 'pitch': -5.47, 'roll': 5.41}
{'lipoC2': 7.91, 'temp': 24.63, 'lipoC3S3': 11.83, 'rot1': 74, 'rot0': 77, 'rot3': 35, 'rot2': 42, 'state': 'normal', 'yaw': -0.91, 'datetime': '2018-10-12 13:34:01.226091', 'mgs': 0, 'depth': 3.064, 'time': 9.18, 'pitch': -5.44, 'roll': 5.42}
{'lipoC2': 7.91, 'temp': 24.69, 'lipoC3S3': 11.9, 'rot1': 75, 'rot0': 78, 'rot3': 35, 'rot2': 42, 'state': 'normal', 'yaw': -2.15, 'datetime': '2018-10-12 13:34:01.323554', 'mgs': 0, 'depth': 2.988, 'time': 9.28, 'pitch': -5.45, 'roll': 5.22}
{'lipoC2': 7.91, 'temp': 24.69, 'lipoC3S3': 11.9, 'rot1': 76, 'rot0': 79, 'rot3': 35, 'rot2': 42, 'state': 'normal', 'yaw': -3.45, 'datetime': '2018-10-12 13:34:01.421191', 'mgs': 0, 'depth': 3.369, 'time': 9.38, 'pitch': -5.5, 'roll': 4.8}
{'lipoC2': 7.91, 'temp': 24.69, 'lipoC3S3': 11.9, 'rot1': 77, 'rot0': 80, 'rot3': 35, 'rot2': 42, 'state': 'normal', 'yaw': -4.37, 'datetime': '2018-10-12 13:34:01.518653', 'mgs': 0, 'depth': 2.911, 'time': 9.47, 'pitch': -5.54, 'roll': 4.18}
{'lipoC2': 7.92, 'temp': 24.69, 'lipoC3S3': 11.88, 'rot1': 78, 'rot0': 81, 'rot3': 35, 'rot2': 42, 'state': 'normal', 'yaw': -4.79, 'datetime': '2018-10-12 13:34:01.616776', 'mgs': 0, 'depth': 2.53, 'time': 9.57, 'pitch': -5.53, 'roll': 3.41}
{'lipoC2': 7.91, 'temp': 24.69, 'lipoC3S3': 11.88, 'rot1': 79, 'rot0': 82, 'rot3': 36, 'rot2': 43, 'state': 'normal', 'yaw': -4.91, 'datetime': '2018-10-12 13:34:01.713713', 'mgs': 0, 'depth': 2.682, 'time': 9.67, 'pitch': -5.52, 'roll': 2.26}
{'lipoC2': 7.91, 'temp': 24.69, 'lipoC3S3': 11.87, 'rot1': 80, 'rot0': 82, 'rot3': 36, 'rot2': 43, 'state': 'normal', 'yaw': -4.73, 'datetime': '2018-10-12 13:34:01.814225', 'mgs': 0, 'depth': 3.064, 'time': 9.77, 'pitch': -5.52, 'roll': 0.92}
{'lipoC2': 7.91, 'temp': 24.69, 'lipoC3S3': 11.8, 'rot1': 81, 'rot0': 83, 'rot3': 37, 'rot2': 43, 'state': 'normal', 'yaw': -4.29, 'datetime': '2018-10-12 13:34:01.911754', 'mgs': 0, 'depth': 2.53, 'time': 9.87, 'pitch': -5.5, 'roll': -0.4}
{'lipoC2': 7.91, 'temp': 24.69, 'lipoC3S3': 11.85, 'rot1': 82, 'rot0': 84, 'rot3': 37, 'rot2': 43, 'state': 'normal', 'yaw': -3.6, 'datetime': '2018-10-12 13:34:02.009325', 'mgs': 0, 'depth': 2.53, 'time': 9.97, 'pitch': -5.49, 'roll': -1.54}
{'lipoC2': 7.92, 'temp': 24.69, 'lipoC3S3': 11.85, 'rot1': 83, 'rot0': 84, 'rot3': 38, 'rot2': 43, 'state': 'normal', 'yaw': -2.81, 'datetime': '2018-10-12 13:34:06.069666', 'mgs': 0, 'depth': 2.454, 'time': 10.06, 'pitch': -5.38, 'roll': -2.53}
{'lipoC2': 7.91, 'temp': 24.69, 'lipoC3S3': 11.87, 'rot1': 83, 'rot0': 84, 'rot3': 38, 'rot2': 43, 'state': 'normal', 'yaw': -1.97, 'datetime': '2018-10-12 13:34:06.093490', 'mgs': 0, 'depth': 2.377, 'time': 10.16, 'pitch': -5.32, 'roll': -3.89}
{'lipoC2': 7.91, 'temp': 24.75, 'lipoC3S3': 11.87, 'rot1': 83, 'rot0': 84, 'rot3': 39, 'rot2': 44, 'state': 'normal', 'yaw': -1.26, 'datetime': '2018-10-12 13:34:06.123901', 'mgs': 0, 'depth': 2.377, 'time': 10.26, 'pitch': -5.27, 'roll': -5.39}
{'lipoC2': 7.92, 'temp': 24.75, 'lipoC3S3': 11.89, 'rot1': 83, 'rot0': 84, 'rot3': 39, 'rot2': 45, 'state': 'normal', 'yaw': -0.69, 'datetime': '2018-10-12 13:34:06.134446', 'mgs': 0, 'depth': 2.301, 'time': 10.36, 'pitch': -5.34, 'roll': -6.83}
{'lipoC2': 7.91, 'temp': 24.69, 'lipoC3S3': 11.85, 'rot1': 83, 'rot0': 84, 'rot3': 39, 'rot2': 45, 'state': 'normal', 'yaw': -0.27, 'datetime': '2018-10-12 13:34:06.156207', 'mgs': 0, 'depth': 2.148, 'time': 10.46, 'pitch': -5.49, 'roll': -7.91}
{'lipoC2': 7.91, 'temp': 24.69, 'lipoC3S3': 11.84, 'rot1': 83, 'rot0': 84, 'rot3': 40, 'rot2': 46, 'state': 'normal', 'yaw': 0.12, 'datetime': '2018-10-12 13:34:06.164690', 'mgs': 0, 'depth': 2.148, 'time': 10.56, 'pitch': -5.77, 'roll': -8.82}
{'lipoC2': 7.91, 'temp': 24.69, 'lipoC3S3': 11.84, 'rot1': 83, 'rot0': 84, 'rot3': 40, 'rot2': 46, 'state': 'normal', 'yaw': 0.41, 'datetime': '2018-10-12 13:34:06.188936', 'mgs': 0, 'depth': 2.225, 'time': 10.65, 'pitch': -6.15, 'roll': -9.4}
{'lipoC2': 7.91, 'temp': 24.69, 'lipoC3S3': 11.87, 'rot1': 83, 'rot0': 84, 'rot3': 41, 'rot2': 47, 'state': 'normal', 'yaw': 0.64, 'datetime': '2018-10-12 13:34:06.196918', 'mgs': 0, 'depth': 1.996, 'time': 10.75, 'pitch': -6.53, 'roll': -9.7}
{'lipoC2': 7.91, 'temp': 24.69, 'lipoC3S3': 11.9, 'rot1': 83, 'rot0': 84, 'rot3': 41, 'rot2': 48, 'state': 'normal', 'yaw': 0.82, 'datetime': '2018-10-12 13:34:06.216291', 'mgs': 0, 'depth': 2.301, 'time': 10.85, 'pitch': -6.9, 'roll': -9.79}
{'lipoC2': 7.92, 'temp': 24.63, 'lipoC3S3': 11.88, 'rot1': 83, 'rot0': 84, 'rot3': 42, 'rot2': 48, 'state': 'normal', 'yaw': 0.87, 'datetime': '2018-10-12 13:34:06.224346', 'mgs': 0, 'depth': 2.148, 'time': 10.94, 'pitch': -7.19, 'roll': -9.76}
{'lipoC2': 7.91, 'temp': 24.63, 'lipoC3S3': 11.87, 'rot1': 83, 'rot0': 84, 'rot3': 42, 'rot2': 49, 'state': 'normal', 'yaw': 0.92, 'datetime': '2018-10-12 13:34:06.243716', 'mgs': 0, 'depth': 1.92, 'time': 11.04, 'pitch': -7.46, 'roll': -9.61}
{'lipoC2': 7.91, 'temp': 24.63, 'lipoC3S3': 11.89, 'rot1': 83, 'rot0': 84, 'rot3': 43, 'rot2': 50, 'state': 'normal', 'yaw': 0.95, 'datetime': '2018-10-12 13:34:06.251643', 'mgs': 0, 'depth': 1.92, 'time': 11.14, 'pitch': -7.64, 'roll': -9.39}
{'lipoC2': 7.91, 'temp': 24.69, 'lipoC3S3': 11.89, 'rot1': 83, 'rot0': 84, 'rot3': 43, 'rot2': 50, 'state': 'normal', 'yaw': 0.96, 'datetime': '2018-10-12 13:34:06.271006', 'mgs': 0, 'depth': 1.92, 'time': 11.24, 'pitch': -7.7, 'roll': -9.19}
{'lipoC2': 7.91, 'temp': 24.69, 'lipoC3S3': 11.9, 'rot1': 83, 'rot0': 84, 'rot3': 43, 'rot2': 51, 'state': 'normal', 'yaw': 0.94, 'datetime': '2018-10-12 13:34:06.278884', 'mgs': 0, 'depth': 2.148, 'time': 11.34, 'pitch': -7.61, 'roll': -8.99}
{'lipoC2': 7.91, 'temp': 24.75, 'lipoC3S3': 11.89, 'rot1': 83, 'rot0': 84, 'rot3': 44, 'rot2': 51, 'state': 'normal', 'yaw': 0.91, 'datetime': '2018-10-12 13:34:06.298186', 'mgs': 0, 'depth': 1.996, 'time': 11.43, 'pitch': -7.38, 'roll': -8.82}
{'lipoC2': 7.91, 'temp': 24.75, 'lipoC3S3': 11.87, 'rot1': 83, 'rot0': 84, 'rot3': 45, 'rot2': 52, 'state': 'normal', 'yaw': 0.9, 'datetime': '2018-10-12 13:34:06.306123', 'mgs': 0, 'depth': 1.691, 'time': 11.53, 'pitch': -7.09, 'roll': -8.64}
{'lipoC2': 7.91, 'temp': 24.75, 'lipoC3S3': 11.89, 'rot1': 83, 'rot0': 84, 'rot3': 45, 'rot2': 53, 'state': 'normal', 'yaw': 0.87, 'datetime': '2018-10-12 13:34:06.325474', 'mgs': 0, 'depth': 1.767, 'time': 11.63, 'pitch': -6.91, 'roll': -8.47}
{'lipoC2': 7.91, 'temp': 24.69, 'lipoC3S3': 11.88, 'rot1': 83, 'rot0': 84, 'rot3': 45, 'rot2': 53, 'state': 'normal', 'yaw': 0.86, 'datetime': '2018-10-12 13:34:06.333390', 'mgs': 0, 'depth': 1.843, 'time': 11.73, 'pitch': -6.87, 'roll': -8.28}
{'lipoC2': 7.91, 'temp': 24.69, 'lipoC3S3': 11.87, 'rot1': 83, 'rot0': 84, 'rot3': 46, 'rot2': 54, 'state': 'normal', 'yaw': 0.89, 'datetime': '2018-10-12 13:34:06.352746', 'mgs': 0, 'depth': 2.072, 'time': 11.83, 'pitch': -7.06, 'roll': -8.16}
{'lipoC2': 7.91, 'temp': 24.69, 'lipoC3S3': 11.87, 'rot1': 83, 'rot0': 84, 'rot3': 46, 'rot2': 55, 'state': 'normal', 'yaw': 0.87, 'datetime': '2018-10-12 13:34:06.360702', 'mgs': 0, 'depth': 1.92, 'time': 11.92, 'pitch': -7.48, 'roll': -8.12}
{'lipoC2': 7.91, 'temp': 24.69, 'lipoC3S3': 11.89, 'rot1': 83, 'rot0': 84, 'rot3': 47, 'rot2': 55, 'state': 'normal', 'yaw': 0.86, 'datetime': '2018-10-12 13:34:06.380029', 'mgs': 0, 'depth': 1.843, 'time': 12.02, 'pitch': -7.98, 'roll': -8.11}
{'lipoC2': 7.92, 'temp': 24.69, 'lipoC3S3': 11.89, 'rot1': 83, 'rot0': 84, 'rot3': 48, 'rot2': 56, 'state': 'normal', 'yaw': 0.86, 'datetime': '2018-10-12 13:34:06.387953', 'mgs': 0, 'depth': 2.072, 'time': 12.12, 'pitch': -8.49, 'roll': -8.13}
{'lipoC2': 7.91, 'temp': 24.69, 'lipoC3S3': 11.89, 'rot1': 83, 'rot0': 84, 'rot3': 48, 'rot2': 57, 'state': 'normal', 'yaw': 0.83, 'datetime': '2018-10-12 13:34:06.407308', 'mgs': 0, 'depth': 2.148, 'time': 12.22, 'pitch': -9.06, 'roll': -8.15}
{'lipoC2': 7.92, 'temp': 24.69, 'lipoC3S3': 11.9, 'rot1': 83, 'rot0': 84, 'rot3': 48, 'rot2': 57, 'state': 'normal', 'yaw': 0.78, 'datetime': '2018-10-12 13:34:06.415619', 'mgs': 0, 'depth': 2.148, 'time': 12.32, 'pitch': -9.66, 'roll': -8.21}
{'lipoC2': 7.91, 'temp': 24.69, 'lipoC3S3': 11.87, 'rot1': 83, 'rot0': 84, 'rot3': 49, 'rot2': 58, 'state': 'normal', 'yaw': 0.67, 'datetime': '2018-10-12 13:34:06.434786', 'mgs': 0, 'depth': 1.996, 'time': 12.42, 'pitch': -10.25, 'roll': -8.29}
{'lipoC2': 7.91, 'temp': 24.69, 'lipoC3S3': 11.88, 'rot1': 83, 'rot0': 84, 'rot3': 49, 'rot2': 59, 'state': 'normal', 'yaw': 0.59, 'datetime': '2018-10-12 13:34:06.442293', 'mgs': 0, 'depth': 1.92, 'time': 12.51, 'pitch': -10.84, 'roll': -8.38}
{'lipoC2': 7.92, 'temp': 24.75, 'lipoC3S3': 11.9, 'rot1': 83, 'rot0': 84, 'rot3': 50, 'rot2': 59, 'state': 'normal', 'yaw': 0.51, 'datetime': '2018-10-12 13:34:06.461211', 'mgs': 0, 'depth': 1.843, 'time': 12.61, 'pitch': -11.31, 'roll': -8.47}
{'lipoC2': 7.91, 'temp': 24.75, 'lipoC3S3': 11.9, 'rot1': 83, 'rot0': 84, 'rot3': 51, 'rot2': 60, 'state': 'normal', 'yaw': 0.41, 'datetime': '2018-10-12 13:34:06.468670', 'mgs': 0, 'depth': 1.996, 'time': 12.71, 'pitch': -11.75, 'roll': -8.52}
{'lipoC2': 7.91, 'temp': 24.75, 'lipoC3S3': 11.92, 'rot1': 83, 'rot0': 84, 'rot3': 51, 'rot2': 60, 'state': 'normal', 'yaw': 0.31, 'datetime': '2018-10-12 13:34:06.487549', 'mgs': 0, 'depth': 1.996, 'time': 12.81, 'pitch': -12.05, 'roll': -8.54}
{'lipoC2': 7.92, 'temp': 24.75, 'lipoC3S3': 11.89, 'rot1': 83, 'rot0': 84, 'rot3': 51, 'rot2': 61, 'state': 'normal', 'yaw': 0.24, 'datetime': '2018-10-12 13:34:06.495081', 'mgs': 0, 'depth': 2.148, 'time': 12.9, 'pitch': -12.22, 'roll': -8.52}
{'lipoC2': 7.91, 'temp': 24.75, 'lipoC3S3': 11.89, 'rot1': 83, 'rot0': 84, 'rot3': 52, 'rot2': 62, 'state': 'normal', 'yaw': 0.15, 'datetime': '2018-10-12 13:34:06.514023', 'mgs': 0, 'depth': 2.148, 'time': 13.0, 'pitch': -12.26, 'roll': -8.5}
{'lipoC2': 7.92, 'temp': 24.69, 'lipoC3S3': 11.9, 'rot1': 83, 'rot0': 84, 'rot3': 52, 'rot2': 62, 'state': 'normal', 'yaw': 0.15, 'datetime': '2018-10-12 13:34:06.521528', 'mgs': 0, 'depth': 2.148, 'time': 13.1, 'pitch': -12.24, 'roll': -8.42}
{'lipoC2': 7.91, 'temp': 24.69, 'lipoC3S3': 11.87, 'rot1': 83, 'rot0': 84, 'rot3': 53, 'rot2': 63, 'state': 'normal', 'yaw': 0.13, 'datetime': '2018-10-12 13:34:06.540424', 'mgs': 0, 'depth': 2.072, 'time': 13.2, 'pitch': -12.12, 'roll': -8.28}
