{'lipoC2': 7.76, 'temp': 23.5, 'lipoC3S3': 11.72, 'rot1': 0, 'rot0': 0, 'rot3': 0, 'rot2': 0, 'state': 'normal', 'yaw': 0.0, 'datetime': '2018-10-12 14:10:58.130875', 'mgs': 0, 'depth': 1.691, 'time': 1.26, 'pitch': -1.59, 'roll': -22.53}
{'lipoC2': 7.76, 'temp': 23.5, 'lipoC3S3': 11.72, 'rot1': 0, 'rot0': 0, 'rot3': 0, 'rot2': 0, 'state': 'normal', 'yaw': -0.09, 'datetime': '2018-10-12 14:10:58.147502', 'mgs': 0, 'depth': 1.614, 'time': 1.36, 'pitch': -1.4, 'roll': -22.83}
{'lipoC2': 7.76, 'temp': 23.5, 'lipoC3S3': 11.73, 'rot1': 0, 'rot0': 0, 'rot3': 0, 'rot2': 0, 'state': 'normal', 'yaw': -0.06, 'datetime': '2018-10-12 14:10:58.164129', 'mgs': 0, 'depth': 1.614, 'time': 1.45, 'pitch': -1.23, 'roll': -23.0}
{'lipoC2': 7.76, 'temp': 23.56, 'lipoC3S3': 11.73, 'rot1': 0, 'rot0': 0, 'rot3': 0, 'rot2': 0, 'state': 'normal', 'yaw': 0.08, 'datetime': '2018-10-12 14:10:58.180783', 'mgs': 0, 'depth': 1.614, 'time': 1.55, 'pitch': -1.12, 'roll': -22.92}
{'lipoC2': 7.76, 'temp': 23.56, 'lipoC3S3': 11.73, 'rot1': 0, 'rot0': 0, 'rot3': 0, 'rot2': 0, 'state': 'normal', 'yaw': 0.31, 'datetime': '2018-10-12 14:10:58.197382', 'mgs': 0, 'depth': 1.614, 'time': 1.65, 'pitch': -1.15, 'roll': -22.51}
{'lipoC2': 7.76, 'temp': 23.5, 'lipoC3S3': 11.72, 'rot1': 0, 'rot0': 0, 'rot3': 0, 'rot2': 0, 'state': 'normal', 'yaw': 0.55, 'datetime': '2018-10-12 14:10:58.214100', 'mgs': 0, 'depth': 1.691, 'time': 1.75, 'pitch': -1.29, 'roll': -22.02}
{'lipoC2': 7.76, 'temp': 23.5, 'lipoC3S3': 11.72, 'rot1': 0, 'rot0': 0, 'rot3': 0, 'rot2': 0, 'state': 'normal', 'yaw': 0.86, 'datetime': '2018-10-12 14:10:58.230927', 'mgs': 0, 'depth': 1.614, 'time': 1.84, 'pitch': -1.48, 'roll': -21.6}
{'lipoC2': 7.76, 'temp': 23.5, 'lipoC3S3': 11.73, 'rot1': 0, 'rot0': 0, 'rot3': 0, 'rot2': 0, 'state': 'normal', 'yaw': 1.22, 'datetime': '2018-10-12 14:10:58.238757', 'mgs': 0, 'depth': 1.538, 'time': 1.94, 'pitch': -1.64, 'roll': -21.35}
{'lipoC2': 7.76, 'temp': 23.5, 'lipoC3S3': 11.73, 'rot1': 0, 'rot0': 0, 'rot3': 0, 'rot2': 0, 'state': 'normal', 'yaw': 1.63, 'datetime': '2018-10-12 14:10:58.246018', 'mgs': 0, 'depth': 1.614, 'time': 2.04, 'pitch': -1.76, 'roll': -21.23}
{'lipoC2': 7.76, 'temp': 23.5, 'lipoC3S3': 11.72, 'rot1': 0, 'rot0': 0, 'rot3': 0, 'rot2': 0, 'state': 'normal', 'yaw': 2.05, 'datetime': '2018-10-12 14:10:58.253254', 'mgs': 0, 'depth': 1.614, 'time': 2.14, 'pitch': -1.89, 'roll': -21.11}
{'lipoC2': 7.76, 'temp': 23.5, 'lipoC3S3': 11.72, 'rot1': 0, 'rot0': 0, 'rot3': 0, 'rot2': 0, 'state': 'normal', 'yaw': 2.41, 'datetime': '2018-10-12 14:10:58.260519', 'mgs': 0, 'depth': 1.538, 'time': 2.23, 'pitch': -2.0, 'roll': -20.99}
{'lipoC2': 7.76, 'temp': 23.5, 'lipoC3S3': 11.73, 'rot1': 0, 'rot0': 0, 'rot3': 0, 'rot2': 0, 'state': 'normal', 'yaw': 2.76, 'datetime': '2018-10-12 14:10:58.318900', 'mgs': 0, 'depth': 1.614, 'time': 2.33, 'pitch': -2.08, 'roll': -20.98}
{'lipoC2': 7.76, 'temp': 23.44, 'lipoC3S3': 11.72, 'rot1': 0, 'rot0': 0, 'rot3': 0, 'rot2': 0, 'state': 'normal', 'yaw': 3.09, 'datetime': '2018-10-12 14:10:58.415945', 'mgs': 0, 'depth': 1.614, 'time': 2.43, 'pitch': -2.05, 'roll': -21.08}
{'lipoC2': 7.76, 'temp': 23.44, 'lipoC3S3': 11.73, 'rot1': 0, 'rot0': 0, 'rot3': 0, 'rot2': 0, 'state': 'normal', 'yaw': 3.41, 'datetime': '2018-10-12 14:10:58.512931', 'mgs': 0, 'depth': 1.691, 'time': 2.53, 'pitch': -1.92, 'roll': -21.12}
{'lipoC2': 7.76, 'temp': 23.44, 'lipoC3S3': 11.73, 'rot1': 0, 'rot0': 0, 'rot3': 0, 'rot2': 0, 'state': 'normal', 'yaw': 3.65, 'datetime': '2018-10-12 14:10:58.611228', 'mgs': 0, 'depth': 1.614, 'time': 2.63, 'pitch': -1.79, 'roll': -21.12}
{'lipoC2': 7.76, 'temp': 23.56, 'lipoC3S3': 11.73, 'rot1': 0, 'rot0': 0, 'rot3': 0, 'rot2': 0, 'state': 'normal', 'yaw': 3.81, 'datetime': '2018-10-12 14:10:58.709123', 'mgs': 0, 'depth': 1.691, 'time': 2.72, 'pitch': -1.64, 'roll': -21.08}
{'lipoC2': 7.77, 'temp': 23.56, 'lipoC3S3': 11.73, 'rot1': 0, 'rot0': 0, 'rot3': 0, 'rot2': 0, 'state': 'normal', 'yaw': 3.88, 'datetime': '2018-10-12 14:10:58.806155', 'mgs': 0, 'depth': 1.691, 'time': 2.82, 'pitch': -1.55, 'roll': -21.13}
{'lipoC2': 7.76, 'temp': 23.5, 'lipoC3S3': 11.73, 'rot1': 0, 'rot0': 0, 'rot3': 0, 'rot2': 0, 'state': 'normal', 'yaw': 3.86, 'datetime': '2018-10-12 14:10:58.903395', 'mgs': 0, 'depth': 1.614, 'time': 2.92, 'pitch': -1.48, 'roll': -21.36}
{'lipoC2': 7.76, 'temp': 23.5, 'lipoC3S3': 11.72, 'rot1': 0, 'rot0': 0, 'rot3': 0, 'rot2': 0, 'state': 'normal', 'yaw': 3.85, 'datetime': '2018-10-12 14:10:59.005526', 'mgs': 0, 'depth': 1.691, 'time': 3.02, 'pitch': -1.46, 'roll': -21.7}
{'lipoC2': 7.76, 'temp': 23.5, 'lipoC3S3': 11.72, 'rot1': 0, 'rot0': 0, 'rot3': 0, 'rot2': 0, 'state': 'normal', 'yaw': 3.84, 'datetime': '2018-10-12 14:10:59.102400', 'mgs': 0, 'depth': 1.691, 'time': 3.11, 'pitch': -1.46, 'roll': -22.02}
{'lipoC2': 7.77, 'temp': 23.5, 'lipoC3S3': 11.72, 'rot1': 0, 'rot0': 0, 'rot3': 0, 'rot2': 0, 'state': 'normal', 'yaw': 3.71, 'datetime': '2018-10-12 14:10:59.199386', 'mgs': 0, 'depth': 1.691, 'time': 3.21, 'pitch': -1.51, 'roll': -22.39}
{'lipoC2': 7.76, 'temp': 23.5, 'lipoC3S3': 11.72, 'rot1': 0, 'rot0': 0, 'rot3': 0, 'rot2': 0, 'state': 'normal', 'yaw': 3.53, 'datetime': '2018-10-12 14:10:59.296314', 'mgs': 0, 'depth': 1.691, 'time': 3.31, 'pitch': -1.58, 'roll': -22.69}
{'lipoC2': 7.76, 'temp': 23.5, 'lipoC3S3': 11.72, 'rot1': 0, 'rot0': 0, 'rot3': 0, 'rot2': 0, 'state': 'normal', 'yaw': 3.33, 'datetime': '2018-10-12 14:10:59.393459', 'mgs': 0, 'depth': 1.767, 'time': 3.4, 'pitch': -1.67, 'roll': -22.85}
{'lipoC2': 7.76, 'temp': 23.5, 'lipoC3S3': 11.72, 'rot1': 0, 'rot0': 0, 'rot3': 0, 'rot2': 0, 'state': 'normal', 'yaw': 3.11, 'datetime': '2018-10-12 14:10:59.490520', 'mgs': 0, 'depth': 1.691, 'time': 3.5, 'pitch': -1.72, 'roll': -22.9}
{'lipoC2': 7.76, 'temp': 23.5, 'lipoC3S3': 11.72, 'rot1': 0, 'rot0': 0, 'rot3': 0, 'rot2': 0, 'state': 'normal', 'yaw': 2.89, 'datetime': '2018-10-12 14:10:59.588936', 'mgs': 0, 'depth': 1.614, 'time': 3.6, 'pitch': -1.74, 'roll': -23.01}
{'lipoC2': 7.76, 'temp': 23.5, 'lipoC3S3': 11.72, 'rot1': 0, 'rot0': 0, 'rot3': 0, 'rot2': 0, 'state': 'normal', 'yaw': 2.72, 'datetime': '2018-10-12 14:10:59.687309', 'mgs': 0, 'depth': 1.691, 'time': 3.7, 'pitch': -1.67, 'roll': -23.08}
{'lipoC2': 7.76, 'temp': 23.5, 'lipoC3S3': 11.72, 'rot1': 0, 'rot0': 0, 'rot3': 0, 'rot2': 0, 'state': 'normal', 'yaw': 2.64, 'datetime': '2018-10-12 14:10:59.784867', 'mgs': 0, 'depth': 1.691, 'time': 3.8, 'pitch': -1.53, 'roll': -22.97}
{'lipoC2': 7.76, 'temp': 23.56, 'lipoC3S3': 11.72, 'rot1': 0, 'rot0': 0, 'rot3': 0, 'rot2': 0, 'state': 'normal', 'yaw': 2.57, 'datetime': '2018-10-12 14:10:59.882067', 'mgs': 0, 'depth': 1.691, 'time': 3.89, 'pitch': -1.36, 'roll': -22.76}
{'lipoC2': 7.76, 'temp': 23.56, 'lipoC3S3': 11.72, 'rot1': 0, 'rot0': 0, 'rot3': 0, 'rot2': 0, 'state': 'normal', 'yaw': 2.51, 'datetime': '2018-10-12 14:10:59.979753', 'mgs': 0, 'depth': 1.767, 'time': 3.99, 'pitch': -1.21, 'roll': -22.58}
{'lipoC2': 7.76, 'temp': 23.56, 'lipoC3S3': 11.72, 'rot1': 0, 'rot0': 0, 'rot3': 0, 'rot2': 0, 'state': 'normal', 'yaw': 2.45, 'datetime': '2018-10-12 14:11:00.078022', 'mgs': 1, 'depth': 1.691, 'time': 4.09, 'pitch': -1.07, 'roll': -22.5}
{'lipoC2': 7.76, 'temp': 23.5, 'lipoC3S3': 11.72, 'rot1': 0, 'rot0': 0, 'rot3': 0, 'rot2': 0, 'state': 'normal', 'yaw': 0.0, 'datetime': '2018-10-12 14:11:01.597635', 'mgs': 0, 'depth': 1.767, 'time': 1.26, 'pitch': -2.15, 'roll': -20.37}
{'lipoC2': 7.76, 'temp': 23.5, 'lipoC3S3': 11.73, 'rot1': 0, 'rot0': 0, 'rot3': 0, 'rot2': 0, 'state': 'normal', 'yaw': 0.13, 'datetime': '2018-10-12 14:11:01.628265', 'mgs': 0, 'depth': 1.843, 'time': 1.36, 'pitch': -2.32, 'roll': -20.01}
{'lipoC2': 7.76, 'temp': 23.5, 'lipoC3S3': 11.72, 'rot1': 0, 'rot0': 0, 'rot3': 0, 'rot2': 0, 'state': 'normal', 'yaw': 0.14, 'datetime': '2018-10-12 14:11:01.645136', 'mgs': 0, 'depth': 1.767, 'time': 1.46, 'pitch': -2.51, 'roll': -19.87}
{'lipoC2': 7.76, 'temp': 23.5, 'lipoC3S3': 11.72, 'rot1': 0, 'rot0': 0, 'rot3': 0, 'rot2': 0, 'state': 'normal', 'yaw': 0.06, 'datetime': '2018-10-12 14:11:01.732529', 'mgs': 0, 'depth': 1.843, 'time': 1.55, 'pitch': -2.58, 'roll': -19.73}
{'lipoC2': 7.76, 'temp': 23.5, 'lipoC3S3': 11.63, 'rot1': 0, 'rot0': 0, 'rot3': 0, 'rot2': 0, 'state': 'normal', 'yaw': 0.0, 'datetime': '2018-10-12 14:11:01.830485', 'mgs': 0, 'depth': 1.767, 'time': 1.65, 'pitch': -2.5, 'roll': -19.22}
{'lipoC2': 7.76, 'temp': 23.5, 'lipoC3S3': 11.67, 'rot1': 1, 'rot0': 1, 'rot3': 0, 'rot2': 0, 'state': 'normal', 'yaw': -0.08, 'datetime': '2018-10-12 14:11:01.927289', 'mgs': 0, 'depth': 1.843, 'time': 1.75, 'pitch': -2.26, 'roll': -17.92}
{'lipoC2': 7.76, 'temp': 23.5, 'lipoC3S3': 11.67, 'rot1': 2, 'rot0': 2, 'rot3': 0, 'rot2': 0, 'state': 'normal', 'yaw': -0.22, 'datetime': '2018-10-12 14:11:02.023965', 'mgs': 0, 'depth': 1.843, 'time': 1.84, 'pitch': -1.92, 'roll': -15.94}
{'lipoC2': 7.76, 'temp': 23.44, 'lipoC3S3': 11.67, 'rot1': 3, 'rot0': 3, 'rot3': 0, 'rot2': 0, 'state': 'normal', 'yaw': -0.37, 'datetime': '2018-10-12 14:11:02.121505', 'mgs': 0, 'depth': 2.911, 'time': 1.94, 'pitch': -1.58, 'roll': -14.1}
{'lipoC2': 7.77, 'temp': 23.44, 'lipoC3S3': 11.64, 'rot1': 4, 'rot0': 4, 'rot3': 0, 'rot2': 0, 'state': 'normal', 'yaw': -0.5, 'datetime': '2018-10-12 14:11:02.218078', 'mgs': 0, 'depth': 2.454, 'time': 2.04, 'pitch': -1.19, 'roll': -12.01}
{'lipoC2': 7.77, 'temp': 23.44, 'lipoC3S3': 11.71, 'rot1': 5, 'rot0': 5, 'rot3': 0, 'rot2': 0, 'state': 'normal', 'yaw': -0.57, 'datetime': '2018-10-12 14:11:02.314747', 'mgs': 0, 'depth': 2.072, 'time': 2.14, 'pitch': -0.83, 'roll': -9.96}
{'lipoC2': 7.76, 'temp': 23.5, 'lipoC3S3': 11.59, 'rot1': 7, 'rot0': 6, 'rot3': 0, 'rot2': 0, 'state': 'normal', 'yaw': -0.61, 'datetime': '2018-10-12 14:11:02.411522', 'mgs': 0, 'depth': 2.072, 'time': 2.23, 'pitch': -0.57, 'roll': -8.13}
{'lipoC2': 7.76, 'temp': 23.5, 'lipoC3S3': 11.67, 'rot1': 8, 'rot0': 7, 'rot3': 0, 'rot2': 0, 'state': 'normal', 'yaw': -0.64, 'datetime': '2018-10-12 14:11:02.508100', 'mgs': 0, 'depth': 2.148, 'time': 2.33, 'pitch': -0.35, 'roll': -6.13}
{'lipoC2': 7.76, 'temp': 23.5, 'lipoC3S3': 11.67, 'rot1': 9, 'rot0': 8, 'rot3': 0, 'rot2': 0, 'state': 'normal', 'yaw': -0.65, 'datetime': '2018-10-12 14:11:02.604799', 'mgs': 0, 'depth': 2.225, 'time': 2.42, 'pitch': -0.16, 'roll': -4.21}
{'lipoC2': 7.76, 'temp': 23.5, 'lipoC3S3': 11.67, 'rot1': 10, 'rot0': 10, 'rot3': 0, 'rot2': 0, 'state': 'normal', 'yaw': -0.66, 'datetime': '2018-10-12 14:11:02.701924', 'mgs': 0, 'depth': 1.385, 'time': 2.52, 'pitch': -0.04, 'roll': -2.57}
{'lipoC2': 7.76, 'temp': 23.5, 'lipoC3S3': 11.67, 'rot1': 11, 'rot0': 11, 'rot3': 0, 'rot2': 0, 'state': 'normal', 'yaw': -0.7, 'datetime': '2018-10-12 14:11:02.798822', 'mgs': 0, 'depth': 2.225, 'time': 2.62, 'pitch': 0.05, 'roll': -0.8}
{'lipoC2': 7.76, 'temp': 23.5, 'lipoC3S3': 11.58, 'rot1': 12, 'rot0': 12, 'rot3': 0, 'rot2': 0, 'state': 'normal', 'yaw': -0.69, 'datetime': '2018-10-12 14:11:02.895993', 'mgs': 0, 'depth': 2.225, 'time': 2.72, 'pitch': 0.05, 'roll': 0.81}
{'lipoC2': 7.76, 'temp': 23.5, 'lipoC3S3': 11.67, 'rot1': 13, 'rot0': 13, 'rot3': 0, 'rot2': 0, 'state': 'normal', 'yaw': -0.7, 'datetime': '2018-10-12 14:11:02.994245', 'mgs': 0, 'depth': 2.072, 'time': 2.81, 'pitch': -0.03, 'roll': 2.07}
{'lipoC2': 7.77, 'temp': 23.44, 'lipoC3S3': 11.65, 'rot1': 14, 'rot0': 14, 'rot3': 0, 'rot2': 0, 'state': 'normal', 'yaw': -0.71, 'datetime': '2018-10-12 14:11:03.092451', 'mgs': 0, 'depth': 2.301, 'time': 2.91, 'pitch': -0.22, 'roll': 3.2}
{'lipoC2': 7.75, 'temp': 23.44, 'lipoC3S3': 11.65, 'rot1': 15, 'rot0': 15, 'rot3': 0, 'rot2': 0, 'state': 'normal', 'yaw': -0.72, 'datetime': '2018-10-12 14:11:03.189520', 'mgs': 0, 'depth': 2.835, 'time': 3.01, 'pitch': -0.49, 'roll': 4.09}
{'lipoC2': 7.76, 'temp': 23.44, 'lipoC3S3': 11.67, 'rot1': 16, 'rot0': 16, 'rot3': 0, 'rot2': 0, 'state': 'normal', 'yaw': -0.81, 'datetime': '2018-10-12 14:11:03.286477', 'mgs': 0, 'depth': 2.225, 'time': 3.11, 'pitch': -0.78, 'roll': 4.65}
{'lipoC2': 7.76, 'temp': 23.5, 'lipoC3S3': 11.52, 'rot1': 17, 'rot0': 17, 'rot3': 0, 'rot2': 0, 'state': 'normal', 'yaw': -0.94, 'datetime': '2018-10-12 14:11:03.384818', 'mgs': 0, 'depth': 2.377, 'time': 3.21, 'pitch': -1.03, 'roll': 4.87}
{'lipoC2': 7.76, 'temp': 23.5, 'lipoC3S3': 11.65, 'rot1': 18, 'rot0': 19, 'rot3': 0, 'rot2': 0, 'state': 'normal', 'yaw': -1.03, 'datetime': '2018-10-12 14:11:03.483133', 'mgs': 0, 'depth': 2.301, 'time': 3.3, 'pitch': -1.31, 'roll': 4.77}
{'lipoC2': 7.76, 'temp': 23.5, 'lipoC3S3': 11.68, 'rot1': 19, 'rot0': 19, 'rot3': 0, 'rot2': 0, 'state': 'normal', 'yaw': -1.09, 'datetime': '2018-10-12 14:11:03.580044', 'mgs': 0, 'depth': 2.377, 'time': 3.4, 'pitch': -1.56, 'roll': 4.34}
{'lipoC2': 7.76, 'temp': 23.5, 'lipoC3S3': 11.61, 'rot1': 20, 'rot0': 20, 'rot3': 0, 'rot2': 0, 'state': 'normal', 'yaw': -0.89, 'datetime': '2018-10-12 14:11:03.677156', 'mgs': 0, 'depth': 2.377, 'time': 3.5, 'pitch': -1.77, 'roll': 3.59}
{'lipoC2': 7.76, 'temp': 23.5, 'lipoC3S3': 11.68, 'rot1': 21, 'rot0': 21, 'rot3': 0, 'rot2': 0, 'state': 'normal', 'yaw': -0.46, 'datetime': '2018-10-12 14:11:03.775463', 'mgs': 0, 'depth': 2.301, 'time': 3.6, 'pitch': -1.85, 'roll': 2.75}
{'lipoC2': 7.76, 'temp': 23.56, 'lipoC3S3': 11.64, 'rot1': 23, 'rot0': 22, 'rot3': 0, 'rot2': 0, 'state': 'normal', 'yaw': 0.24, 'datetime': '2018-10-12 14:11:03.869593', 'mgs': 0, 'depth': 2.225, 'time': 3.69, 'pitch': -1.85, 'roll': 1.74}
{'lipoC2': 7.77, 'temp': 23.56, 'lipoC3S3': 11.51, 'rot1': 24, 'rot0': 23, 'rot3': 0, 'rot2': 0, 'state': 'normal', 'yaw': 0.84, 'datetime': '2018-10-12 14:11:03.969485', 'mgs': 0, 'depth': 2.301, 'time': 3.79, 'pitch': -1.8, 'roll': 0.93}
{'lipoC2': 7.76, 'temp': 23.5, 'lipoC3S3': 11.65, 'rot1': 25, 'rot0': 24, 'rot3': 0, 'rot2': 0, 'state': 'normal', 'yaw': 1.22, 'datetime': '2018-10-12 14:11:04.066698', 'mgs': 0, 'depth': 1.92, 'time': 3.89, 'pitch': -1.74, 'roll': 0.46}
{'lipoC2': 7.76, 'temp': 23.5, 'lipoC3S3': 11.68, 'rot1': 26, 'rot0': 25, 'rot3': 0, 'rot2': 0, 'state': 'normal', 'yaw': 1.52, 'datetime': '2018-10-12 14:11:04.163754', 'mgs': 0, 'depth': 2.301, 'time': 3.99, 'pitch': -1.74, 'roll': 0.14}
{'lipoC2': 7.76, 'temp': 23.5, 'lipoC3S3': 11.61, 'rot1': 27, 'rot0': 26, 'rot3': 0, 'rot2': 0, 'state': 'normal', 'yaw': 1.59, 'datetime': '2018-10-12 14:11:04.260788', 'mgs': 0, 'depth': 2.301, 'time': 4.08, 'pitch': -1.74, 'roll': -0.21}
{'lipoC2': 7.76, 'temp': 23.56, 'lipoC3S3': 11.67, 'rot1': 27, 'rot0': 27, 'rot3': 0, 'rot2': 0, 'state': 'normal', 'yaw': 1.35, 'datetime': '2018-10-12 14:11:04.357975', 'mgs': 0, 'depth': 2.835, 'time': 4.18, 'pitch': -1.74, 'roll': -0.74}
{'lipoC2': 7.76, 'temp': 23.56, 'lipoC3S3': 11.68, 'rot1': 28, 'rot0': 28, 'rot3': 0, 'rot2': 0, 'state': 'normal', 'yaw': 0.94, 'datetime': '2018-10-12 14:11:04.455159', 'mgs': 0, 'depth': 2.377, 'time': 4.28, 'pitch': -1.75, 'roll': -1.31}
{'lipoC2': 7.76, 'temp': 23.5, 'lipoC3S3': 11.68, 'rot1': 29, 'rot0': 29, 'rot3': 0, 'rot2': 0, 'state': 'normal', 'yaw': 0.28, 'datetime': '2018-10-12 14:11:04.552106', 'mgs': 0, 'depth': 2.301, 'time': 4.37, 'pitch': -1.8, 'roll': -1.94}
{'lipoC2': 7.76, 'temp': 23.5, 'lipoC3S3': 11.63, 'rot1': 30, 'rot0': 30, 'rot3': 0, 'rot2': 0, 'state': 'normal', 'yaw': -0.58, 'datetime': '2018-10-12 14:11:04.648987', 'mgs': 0, 'depth': 2.301, 'time': 4.47, 'pitch': -1.94, 'roll': -2.46}
{'lipoC2': 7.76, 'temp': 23.5, 'lipoC3S3': 11.65, 'rot1': 31, 'rot0': 32, 'rot3': 0, 'rot2': 0, 'state': 'normal', 'yaw': -1.49, 'datetime': '2018-10-12 14:11:04.747295', 'mgs': 0, 'depth': 3.369, 'time': 4.57, 'pitch': -2.12, 'roll': -2.79}
{'lipoC2': 7.76, 'temp': 23.5, 'lipoC3S3': 11.52, 'rot1': 32, 'rot0': 33, 'rot3': 0, 'rot2': 0, 'state': 'normal', 'yaw': -2.39, 'datetime': '2018-10-12 14:11:04.845595', 'mgs': 0, 'depth': 2.377, 'time': 4.67, 'pitch': -2.3, 'roll': -2.89}
{'lipoC2': 7.77, 'temp': 23.5, 'lipoC3S3': 11.64, 'rot1': 33, 'rot0': 34, 'rot3': 0, 'rot2': 0, 'state': 'normal', 'yaw': -3.1, 'datetime': '2018-10-12 14:11:04.942712', 'mgs': 0, 'depth': 2.911, 'time': 4.76, 'pitch': -2.46, 'roll': -2.79}
{'lipoC2': 7.76, 'temp': 23.5, 'lipoC3S3': 11.67, 'rot1': 34, 'rot0': 35, 'rot3': 0, 'rot2': 0, 'state': 'normal', 'yaw': -3.61, 'datetime': '2018-10-12 14:11:05.039704', 'mgs': 0, 'depth': 2.454, 'time': 4.86, 'pitch': -2.57, 'roll': -2.59}
{'lipoC2': 7.76, 'temp': 23.5, 'lipoC3S3': 11.65, 'rot1': 35, 'rot0': 35, 'rot3': 0, 'rot2': 0, 'state': 'normal', 'yaw': -3.78, 'datetime': '2018-10-12 14:11:05.138205', 'mgs': 0, 'depth': 2.454, 'time': 4.96, 'pitch': -2.58, 'roll': -2.48}
{'lipoC2': 7.77, 'temp': 23.5, 'lipoC3S3': 11.68, 'rot1': 36, 'rot0': 36, 'rot3': 0, 'rot2': 0, 'state': 'normal', 'yaw': -3.68, 'datetime': '2018-10-12 14:11:05.236476', 'mgs': 0, 'depth': 2.53, 'time': 5.06, 'pitch': -2.57, 'roll': -2.41}
{'lipoC2': 7.76, 'temp': 23.5, 'lipoC3S3': 11.58, 'rot1': 37, 'rot0': 37, 'rot3': 0, 'rot2': 0, 'state': 'normal', 'yaw': -3.3, 'datetime': '2018-10-12 14:11:05.333445', 'mgs': 0, 'depth': 2.606, 'time': 5.16, 'pitch': -2.47, 'roll': -2.33}
{'lipoC2': 7.76, 'temp': 23.5, 'lipoC3S3': 11.67, 'rot1': 38, 'rot0': 38, 'rot3': 0, 'rot2': 0, 'state': 'normal', 'yaw': -2.7, 'datetime': '2018-10-12 14:11:05.430479', 'mgs': 0, 'depth': 2.835, 'time': 5.25, 'pitch': -2.33, 'roll': -2.27}
{'lipoC2': 7.76, 'temp': 23.5, 'lipoC3S3': 11.65, 'rot1': 39, 'rot0': 39, 'rot3': 0, 'rot2': 0, 'state': 'normal', 'yaw': -1.99, 'datetime': '2018-10-12 14:11:05.528869', 'mgs': 0, 'depth': 2.53, 'time': 5.35, 'pitch': -2.14, 'roll': -2.24}
{'lipoC2': 7.76, 'temp': 23.5, 'lipoC3S3': 11.55, 'rot1': 41, 'rot0': 39, 'rot3': 0, 'rot2': 0, 'state': 'normal', 'yaw': -1.08, 'datetime': '2018-10-12 14:11:05.625899', 'mgs': 0, 'depth': 2.606, 'time': 5.45, 'pitch': -1.89, 'roll': -2.11}
{'lipoC2': 7.76, 'temp': 23.5, 'lipoC3S3': 11.64, 'rot1': 42, 'rot0': 40, 'rot3': 0, 'rot2': 1, 'state': 'normal', 'yaw': -0.06, 'datetime': '2018-10-12 14:11:05.722777', 'mgs': 0, 'depth': 3.064, 'time': 5.55, 'pitch': -1.58, 'roll': -1.77}
{'lipoC2': 7.76, 'temp': 23.5, 'lipoC3S3': 11.64, 'rot1': 43, 'rot0': 41, 'rot3': 1, 'rot2': 1, 'state': 'normal', 'yaw': 0.92, 'datetime': '2018-10-12 14:11:05.820019', 'mgs': 0, 'depth': 2.53, 'time': 5.64, 'pitch': -1.3, 'roll': -1.29}
{'lipoC2': 7.76, 'temp': 23.5, 'lipoC3S3': 11.58, 'rot1': 44, 'rot0': 42, 'rot3': 1, 'rot2': 2, 'state': 'normal', 'yaw': 2.03, 'datetime': '2018-10-12 14:11:05.917246', 'mgs': 0, 'depth': 2.606, 'time': 5.74, 'pitch': -1.06, 'roll': -0.61}
{'lipoC2': 7.76, 'temp': 23.5, 'lipoC3S3': 11.71, 'rot1': 45, 'rot0': 42, 'rot3': 2, 'rot2': 2, 'state': 'normal', 'yaw': 2.95, 'datetime': '2018-10-12 14:11:06.009624', 'mgs': 0, 'depth': 2.682, 'time': 5.84, 'pitch': -0.94, 'roll': 0.14}
{'lipoC2': 7.76, 'temp': 23.5, 'lipoC3S3': 11.71, 'rot1': 45, 'rot0': 42, 'rot3': 2, 'rot2': 2, 'state': 'normal', 'yaw': 3.59, 'datetime': '2018-10-12 14:11:06.106641', 'mgs': 0, 'depth': 2.606, 'time': 5.94, 'pitch': -0.91, 'roll': 0.23}
{'lipoC2': 7.76, 'temp': 23.5, 'lipoC3S3': 11.6, 'rot1': 45, 'rot0': 42, 'rot3': 3, 'rot2': 2, 'state': 'normal', 'yaw': 4.17, 'datetime': '2018-10-12 14:11:06.207109', 'mgs': 0, 'depth': 2.988, 'time': 6.03, 'pitch': -0.91, 'roll': -0.39}
{'lipoC2': 7.76, 'temp': 23.5, 'lipoC3S3': 11.51, 'rot1': 45, 'rot0': 43, 'rot3': 3, 'rot2': 3, 'state': 'normal', 'yaw': 4.65, 'datetime': '2018-10-12 14:11:06.305168', 'mgs': 0, 'depth': 2.835, 'time': 6.13, 'pitch': -0.76, 'roll': -1.64}
{'lipoC2': 7.76, 'temp': 23.5, 'lipoC3S3': 11.4, 'rot1': 46, 'rot0': 45, 'rot3': 3, 'rot2': 3, 'state': 'normal', 'yaw': 4.62, 'datetime': '2018-10-12 14:11:06.402178', 'mgs': 0, 'depth': 2.682, 'time': 6.23, 'pitch': -0.5, 'roll': -2.43}
{'lipoC2': 7.76, 'temp': 23.5, 'lipoC3S3': 11.55, 'rot1': 48, 'rot0': 46, 'rot3': 4, 'rot2': 4, 'state': 'normal', 'yaw': 4.09, 'datetime': '2018-10-12 14:11:06.500534', 'mgs': 0, 'depth': 3.445, 'time': 6.32, 'pitch': -0.34, 'roll': -2.33}
{'lipoC2': 7.77, 'temp': 23.5, 'lipoC3S3': 11.5, 'rot1': 49, 'rot0': 48, 'rot3': 5, 'rot2': 5, 'state': 'normal', 'yaw': 3.07, 'datetime': '2018-10-12 14:11:06.595233', 'mgs': 0, 'depth': 2.759, 'time': 6.42, 'pitch': -0.27, 'roll': -1.71}
{'lipoC2': 7.77, 'temp': 23.5, 'lipoC3S3': 11.47, 'rot1': 50, 'rot0': 49, 'rot3': 5, 'rot2': 5, 'state': 'normal', 'yaw': 1.71, 'datetime': '2018-10-12 14:11:06.693784', 'mgs': 0, 'depth': 3.827, 'time': 6.52, 'pitch': -0.26, 'roll': -0.96}
{'lipoC2': 7.77, 'temp': 23.44, 'lipoC3S3': 11.55, 'rot1': 51, 'rot0': 51, 'rot3': 6, 'rot2': 6, 'state': 'normal', 'yaw': 0.09, 'datetime': '2018-10-12 14:11:06.792902', 'mgs': 0, 'depth': 3.751, 'time': 6.62, 'pitch': -0.29, 'roll': -0.31}
{'lipoC2': 7.77, 'temp': 23.44, 'lipoC3S3': 11.34, 'rot1': 52, 'rot0': 52, 'rot3': 6, 'rot2': 7, 'state': 'normal', 'yaw': -1.53, 'datetime': '2018-10-12 14:11:06.891963', 'mgs': 0, 'depth': 2.911, 'time': 6.72, 'pitch': -0.41, 'roll': 0.28}
{'lipoC2': 7.76, 'temp': 23.31, 'lipoC3S3': 11.55, 'rot1': 54, 'rot0': 54, 'rot3': 7, 'rot2': 7, 'state': 'normal', 'yaw': -3.21, 'datetime': '2018-10-12 14:11:06.989665', 'mgs': 0, 'depth': 3.293, 'time': 6.81, 'pitch': -0.57, 'roll': 1.04}
{'lipoC2': 7.76, 'temp': 23.31, 'lipoC3S3': 11.43, 'rot1': 55, 'rot0': 55, 'rot3': 7, 'rot2': 8, 'state': 'normal', 'yaw': -4.64, 'datetime': '2018-10-12 14:11:07.086453', 'mgs': 0, 'depth': 3.064, 'time': 6.91, 'pitch': -0.74, 'roll': 1.92}
{'lipoC2': 7.76, 'temp': 23.31, 'lipoC3S3': 11.51, 'rot1': 57, 'rot0': 57, 'rot3': 8, 'rot2': 8, 'state': 'normal', 'yaw': -5.75, 'datetime': '2018-10-12 14:11:07.183417', 'mgs': 0, 'depth': 3.064, 'time': 7.01, 'pitch': -0.81, 'roll': 2.83}
{'lipoC2': 7.76, 'temp': 23.81, 'lipoC3S3': 11.56, 'rot1': 58, 'rot0': 58, 'rot3': 8, 'rot2': 9, 'state': 'normal', 'yaw': -6.32, 'datetime': '2018-10-12 14:11:07.281766', 'mgs': 0, 'depth': 3.369, 'time': 7.11, 'pitch': -0.78, 'roll': 3.51}
{'lipoC2': 7.77, 'temp': 23.81, 'lipoC3S3': 11.51, 'rot1': 59, 'rot0': 59, 'rot3': 9, 'rot2': 10, 'state': 'normal', 'yaw': -6.48, 'datetime': '2018-10-12 14:11:07.379678', 'mgs': 0, 'depth': 4.361, 'time': 7.2, 'pitch': -0.63, 'roll': 4.12}
{'lipoC2': 7.76, 'temp': 23.88, 'lipoC3S3': 11.55, 'rot1': 61, 'rot0': 60, 'rot3': 10, 'rot2': 10, 'state': 'normal', 'yaw': -6.26, 'datetime': '2018-10-12 14:11:07.476800', 'mgs': 0, 'depth': 3.522, 'time': 7.3, 'pitch': -0.44, 'roll': 4.64}
{'lipoC2': 7.76, 'temp': 23.88, 'lipoC3S3': 11.48, 'rot1': 62, 'rot0': 62, 'rot3': 10, 'rot2': 11, 'state': 'normal', 'yaw': -5.84, 'datetime': '2018-10-12 14:11:07.574224', 'mgs': 0, 'depth': 4.514, 'time': 7.4, 'pitch': -0.22, 'roll': 5.0}
{'lipoC2': 7.77, 'temp': 23.88, 'lipoC3S3': 11.46, 'rot1': 64, 'rot0': 63, 'rot3': 11, 'rot2': 11, 'state': 'normal', 'yaw': -5.23, 'datetime': '2018-10-12 14:11:07.671835', 'mgs': 0, 'depth': 3.293, 'time': 7.5, 'pitch': -0.0, 'roll': 5.2}
{'lipoC2': 7.76, 'temp': 23.38, 'lipoC3S3': 11.58, 'rot1': 65, 'rot0': 64, 'rot3': 11, 'rot2': 12, 'state': 'normal', 'yaw': -4.52, 'datetime': '2018-10-12 14:11:07.769090', 'mgs': 0, 'depth': 3.751, 'time': 7.59, 'pitch': 0.06, 'roll': 5.15}
{'lipoC2': 7.77, 'temp': 23.38, 'lipoC3S3': 11.5, 'rot1': 66, 'rot0': 65, 'rot3': 12, 'rot2': 13, 'state': 'normal', 'yaw': -3.77, 'datetime': '2018-10-12 14:11:07.866455', 'mgs': 0, 'depth': 4.361, 'time': 7.69, 'pitch': 0.06, 'roll': 4.85}
{'lipoC2': 7.77, 'temp': 23.56, 'lipoC3S3': 11.42, 'rot1': 68, 'rot0': 66, 'rot3': 12, 'rot2': 13, 'state': 'normal', 'yaw': -3.02, 'datetime': '2018-10-12 14:11:07.964040', 'mgs': 0, 'depth': 3.369, 'time': 7.79, 'pitch': 0.05, 'roll': 4.43}
{'lipoC2': 7.76, 'temp': 23.56, 'lipoC3S3': 11.59, 'rot1': 70, 'rot0': 67, 'rot3': 13, 'rot2': 14, 'state': 'normal', 'yaw': -2.13, 'datetime': '2018-10-12 14:11:08.061508', 'mgs': 0, 'depth': 3.522, 'time': 7.89, 'pitch': 0.09, 'roll': 3.84}
{'lipoC2': 7.77, 'temp': 23.56, 'lipoC3S3': 11.52, 'rot1': 71, 'rot0': 68, 'rot3': 13, 'rot2': 14, 'state': 'normal', 'yaw': -1.19, 'datetime': '2018-10-12 14:11:08.158777', 'mgs': 0, 'depth': 4.666, 'time': 7.99, 'pitch': 0.16, 'roll': 3.16}
{'lipoC2': 7.76, 'temp': 23.5, 'lipoC3S3': 11.51, 'rot1': 72, 'rot0': 70, 'rot3': 14, 'rot2': 15, 'state': 'normal', 'yaw': -0.18, 'datetime': '2018-10-12 14:11:08.256317', 'mgs': 0, 'depth': 3.522, 'time': 8.08, 'pitch': 0.3, 'roll': 2.49}
{'lipoC2': 7.76, 'temp': 23.5, 'lipoC3S3': 11.48, 'rot1': 74, 'rot0': 71, 'rot3': 14, 'rot2': 15, 'state': 'normal', 'yaw': 0.74, 'datetime': '2018-10-12 14:11:08.354758', 'mgs': 0, 'depth': 3.522, 'time': 8.18, 'pitch': 0.44, 'roll': 1.96}
{'lipoC2': 7.76, 'temp': 23.63, 'lipoC3S3': 11.51, 'rot1': 75, 'rot0': 73, 'rot3': 15, 'rot2': 16, 'state': 'normal', 'yaw': 1.53, 'datetime': '2018-10-12 14:11:08.453470', 'mgs': 0, 'depth': 3.522, 'time': 8.28, 'pitch': 0.57, 'roll': 1.59}
{'lipoC2': 7.76, 'temp': 23.63, 'lipoC3S3': 11.54, 'rot1': 77, 'rot0': 74, 'rot3': 15, 'rot2': 17, 'state': 'normal', 'yaw': 2.07, 'datetime': '2018-10-12 14:11:08.552271', 'mgs': 0, 'depth': 3.827, 'time': 8.38, 'pitch': 0.59, 'roll': 1.44}
{'lipoC2': 7.76, 'temp': 23.63, 'lipoC3S3': 11.54, 'rot1': 78, 'rot0': 76, 'rot3': 16, 'rot2': 17, 'state': 'normal', 'yaw': 2.38, 'datetime': '2018-10-12 14:11:08.649961', 'mgs': 0, 'depth': 3.827, 'time': 8.48, 'pitch': 0.65, 'roll': 1.48}
{'lipoC2': 7.77, 'temp': 23.56, 'lipoC3S3': 11.46, 'rot1': 79, 'rot0': 78, 'rot3': 16, 'rot2': 18, 'state': 'normal', 'yaw': 2.11, 'datetime': '2018-10-12 14:11:08.747380', 'mgs': 0, 'depth': 4.742, 'time': 8.57, 'pitch': 0.67, 'roll': 1.63}
{'lipoC2': 7.76, 'temp': 23.56, 'lipoC3S3': 11.47, 'rot1': 80, 'rot0': 79, 'rot3': 17, 'rot2': 18, 'state': 'normal', 'yaw': 1.4, 'datetime': '2018-10-12 14:11:08.845564', 'mgs': 0, 'depth': 3.598, 'time': 8.67, 'pitch': 0.68, 'roll': 1.77}
{'lipoC2': 7.76, 'temp': 23.5, 'lipoC3S3': 11.47, 'rot1': 82, 'rot0': 81, 'rot3': 18, 'rot2': 19, 'state': 'normal', 'yaw': 0.24, 'datetime': '2018-10-12 14:11:08.944420', 'mgs': 0, 'depth': 3.674, 'time': 8.77, 'pitch': 0.57, 'roll': 1.94}
{'lipoC2': 7.76, 'temp': 23.5, 'lipoC3S3': 11.51, 'rot1': 83, 'rot0': 82, 'rot3': 18, 'rot2': 20, 'state': 'normal', 'yaw': -1.22, 'datetime': '2018-10-12 14:11:09.042955', 'mgs': 0, 'depth': 3.674, 'time': 8.87, 'pitch': 0.42, 'roll': 2.14}
{'lipoC2': 7.77, 'temp': 23.5, 'lipoC3S3': 11.47, 'rot1': 84, 'rot0': 84, 'rot3': 18, 'rot2': 20, 'state': 'normal', 'yaw': -2.87, 'datetime': '2018-10-12 14:11:09.140419', 'mgs': 0, 'depth': 4.361, 'time': 8.97, 'pitch': 0.24, 'roll': 2.4}
{'lipoC2': 7.77, 'temp': 23.5, 'lipoC3S3': 11.39, 'rot1': 85, 'rot0': 85, 'rot3': 19, 'rot2': 21, 'state': 'normal', 'yaw': -4.61, 'datetime': '2018-10-12 14:11:09.237769', 'mgs': 0, 'depth': 3.827, 'time': 9.06, 'pitch': 0.09, 'roll': 2.68}
{'lipoC2': 7.76, 'temp': 23.5, 'lipoC3S3': 11.58, 'rot1': 86, 'rot0': 86, 'rot3': 19, 'rot2': 21, 'state': 'normal', 'yaw': -5.73, 'datetime': '2018-10-12 14:11:13.291580', 'mgs': 0, 'depth': 3.903, 'time': 9.16, 'pitch': 0.05, 'roll': 2.84}
{'lipoC2': 7.76, 'temp': 23.5, 'lipoC3S3': 11.58, 'rot1': 86, 'rot0': 86, 'rot3': 19, 'rot2': 21, 'state': 'normal', 'yaw': -6.71, 'datetime': '2018-10-12 14:11:13.309579', 'mgs': 0, 'depth': 3.979, 'time': 9.26, 'pitch': -0.17, 'roll': 2.56}
{'lipoC2': 7.76, 'temp': 23.5, 'lipoC3S3': 11.61, 'rot1': 86, 'rot0': 86, 'rot3': 20, 'rot2': 22, 'state': 'normal', 'yaw': -7.57, 'datetime': '2018-10-12 14:11:13.340986', 'mgs': 0, 'depth': 3.827, 'time': 9.36, 'pitch': -0.53, 'roll': 1.85}
{'lipoC2': 7.76, 'temp': 23.75, 'lipoC3S3': 11.63, 'rot1': 86, 'rot0': 86, 'rot3': 20, 'rot2': 23, 'state': 'normal', 'yaw': -8.36, 'datetime': '2018-10-12 14:11:13.348888', 'mgs': 0, 'depth': 4.056, 'time': 9.46, 'pitch': -0.96, 'roll': 0.84}
{'lipoC2': 7.76, 'temp': 23.75, 'lipoC3S3': 11.59, 'rot1': 86, 'rot0': 86, 'rot3': 20, 'rot2': 23, 'state': 'normal', 'yaw': -9.0, 'datetime': '2018-10-12 14:11:13.368175', 'mgs': 0, 'depth': 3.903, 'time': 9.55, 'pitch': -1.34, 'roll': -0.22}
{'lipoC2': 7.76, 'temp': 23.75, 'lipoC3S3': 11.61, 'rot1': 86, 'rot0': 86, 'rot3': 21, 'rot2': 24, 'state': 'normal', 'yaw': -9.63, 'datetime': '2018-10-12 14:11:13.376070', 'mgs': 0, 'depth': 3.674, 'time': 9.65, 'pitch': -1.7, 'roll': -1.48}
{'lipoC2': 7.76, 'temp': 23.5, 'lipoC3S3': 11.63, 'rot1': 86, 'rot0': 86, 'rot3': 21, 'rot2': 24, 'state': 'normal', 'yaw': -10.18, 'datetime': '2018-10-12 14:11:13.395527', 'mgs': 0, 'depth': 3.903, 'time': 9.75, 'pitch': -2.0, 'roll': -2.75}
{'lipoC2': 7.76, 'temp': 23.5, 'lipoC3S3': 11.6, 'rot1': 86, 'rot0': 86, 'rot3': 22, 'rot2': 25, 'state': 'normal', 'yaw': -10.69, 'datetime': '2018-10-12 14:11:13.403446', 'mgs': 0, 'depth': 3.598, 'time': 9.85, 'pitch': -2.23, 'roll': -4.0}
{'lipoC2': 7.76, 'temp': 23.5, 'lipoC3S3': 11.64, 'rot1': 86, 'rot0': 86, 'rot3': 22, 'rot2': 26, 'state': 'normal', 'yaw': -11.1, 'datetime': '2018-10-12 14:11:13.422777', 'mgs': 0, 'depth': 3.522, 'time': 9.94, 'pitch': -2.4, 'roll': -5.04}
{'lipoC2': 7.77, 'temp': 23.5, 'lipoC3S3': 11.63, 'rot1': 86, 'rot0': 86, 'rot3': 22, 'rot2': 26, 'state': 'normal', 'yaw': -11.47, 'datetime': '2018-10-12 14:11:13.430849', 'mgs': 0, 'depth': 3.751, 'time': 10.04, 'pitch': -2.55, 'roll': -6.04}
{'lipoC2': 7.76, 'temp': 23.5, 'lipoC3S3': 11.61, 'rot1': 86, 'rot0': 86, 'rot3': 23, 'rot2': 27, 'state': 'normal', 'yaw': -11.78, 'datetime': '2018-10-12 14:11:13.450120', 'mgs': 0, 'depth': 3.369, 'time': 10.14, 'pitch': -2.69, 'roll': -6.87}
{'lipoC2': 7.76, 'temp': 23.5, 'lipoC3S3': 11.6, 'rot1': 86, 'rot0': 86, 'rot3': 23, 'rot2': 27, 'state': 'normal', 'yaw': -12.09, 'datetime': '2018-10-12 14:11:13.458067', 'mgs': 0, 'depth': 3.369, 'time': 10.24, 'pitch': -2.78, 'roll': -7.46}
{'lipoC2': 7.76, 'temp': 23.5, 'lipoC3S3': 11.61, 'rot1': 86, 'rot0': 86, 'rot3': 24, 'rot2': 28, 'state': 'normal', 'yaw': -12.38, 'datetime': '2018-10-12 14:11:13.477342', 'mgs': 0, 'depth': 3.293, 'time': 10.34, 'pitch': -2.81, 'roll': -7.81}
{'lipoC2': 7.76, 'temp': 23.56, 'lipoC3S3': 11.6, 'rot1': 86, 'rot0': 86, 'rot3': 24, 'rot2': 29, 'state': 'normal', 'yaw': -12.71, 'datetime': '2018-10-12 14:11:13.485242', 'mgs': 0, 'depth': 3.293, 'time': 10.44, 'pitch': -2.86, 'roll': -7.96}
{'lipoC2': 7.76, 'temp': 23.56, 'lipoC3S3': 11.64, 'rot1': 86, 'rot0': 86, 'rot3': 25, 'rot2': 29, 'state': 'normal', 'yaw': -13.06, 'datetime': '2018-10-12 14:11:13.504535', 'mgs': 0, 'depth': 3.522, 'time': 10.53, 'pitch': -2.91, 'roll': -7.86}
{'lipoC2': 7.76, 'temp': 23.56, 'lipoC3S3': 11.59, 'rot1': 86, 'rot0': 86, 'rot3': 25, 'rot2': 30, 'state': 'normal', 'yaw': -13.45, 'datetime': '2018-10-12 14:11:13.512441', 'mgs': 0, 'depth': 3.217, 'time': 10.63, 'pitch': -2.96, 'roll': -7.55}
{'lipoC2': 7.76, 'temp': 23.5, 'lipoC3S3': 11.63, 'rot1': 86, 'rot0': 86, 'rot3': 25, 'rot2': 30, 'state': 'normal', 'yaw': -13.82, 'datetime': '2018-10-12 14:11:13.531752', 'mgs': 0, 'depth': 3.14, 'time': 10.73, 'pitch': -3.01, 'roll': -7.12}
{'lipoC2': 7.76, 'temp': 23.5, 'lipoC3S3': 11.63, 'rot1': 86, 'rot0': 86, 'rot3': 26, 'rot2': 31, 'state': 'normal', 'yaw': -14.16, 'datetime': '2018-10-12 14:11:13.539610', 'mgs': 0, 'depth': 2.988, 'time': 10.83, 'pitch': -3.06, 'roll': -6.64}
{'lipoC2': 7.76, 'temp': 23.56, 'lipoC3S3': 11.64, 'rot1': 86, 'rot0': 86, 'rot3': 26, 'rot2': 32, 'state': 'normal', 'yaw': -14.51, 'datetime': '2018-10-12 14:11:13.558888', 'mgs': 0, 'depth': 2.988, 'time': 10.93, 'pitch': -3.12, 'roll': -6.0}
{'lipoC2': 7.76, 'temp': 23.56, 'lipoC3S3': 11.64, 'rot1': 86, 'rot0': 86, 'rot3': 27, 'rot2': 32, 'state': 'normal', 'yaw': -14.86, 'datetime': '2018-10-12 14:11:13.566803', 'mgs': 0, 'depth': 2.911, 'time': 11.02, 'pitch': -3.15, 'roll': -5.3}
{'lipoC2': 7.76, 'temp': 23.56, 'lipoC3S3': 11.63, 'rot1': 86, 'rot0': 86, 'rot3': 27, 'rot2': 33, 'state': 'normal', 'yaw': -15.17, 'datetime': '2018-10-12 14:11:13.586103', 'mgs': 0, 'depth': 3.14, 'time': 11.12, 'pitch': -3.18, 'roll': -4.59}
{'lipoC2': 7.76, 'temp': 23.5, 'lipoC3S3': 11.64, 'rot1': 86, 'rot0': 86, 'rot3': 28, 'rot2': 33, 'state': 'normal', 'yaw': -15.42, 'datetime': '2018-10-12 14:11:13.593980', 'mgs': 0, 'depth': 3.14, 'time': 11.22, 'pitch': -3.19, 'roll': -4.0}
{'lipoC2': 7.76, 'temp': 23.5, 'lipoC3S3': 11.64, 'rot1': 86, 'rot0': 86, 'rot3': 28, 'rot2': 34, 'state': 'normal', 'yaw': -15.73, 'datetime': '2018-10-12 14:11:13.613279', 'mgs': 0, 'depth': 2.988, 'time': 11.32, 'pitch': -3.17, 'roll': -3.49}
{'lipoC2': 7.76, 'temp': 23.56, 'lipoC3S3': 11.6, 'rot1': 86, 'rot0': 86, 'rot3': 29, 'rot2': 35, 'state': 'normal', 'yaw': -16.01, 'datetime': '2018-10-12 14:11:13.620941', 'mgs': 0, 'depth': 2.682, 'time': 11.42, 'pitch': -3.19, 'roll': -3.11}
{'lipoC2': 7.76, 'temp': 23.56, 'lipoC3S3': 11.64, 'rot1': 86, 'rot0': 86, 'rot3': 29, 'rot2': 35, 'state': 'normal', 'yaw': -16.26, 'datetime': '2018-10-12 14:11:13.639911', 'mgs': 0, 'depth': 2.682, 'time': 11.51, 'pitch': -3.2, 'roll': -2.85}
{'lipoC2': 7.76, 'temp': 23.56, 'lipoC3S3': 11.63, 'rot1': 86, 'rot0': 86, 'rot3': 29, 'rot2': 36, 'state': 'normal', 'yaw': -16.48, 'datetime': '2018-10-12 14:11:13.647564', 'mgs': 0, 'depth': 2.759, 'time': 11.61, 'pitch': -3.21, 'roll': -2.67}
{'lipoC2': 7.77, 'temp': 23.5, 'lipoC3S3': 11.61, 'rot1': 86, 'rot0': 86, 'rot3': 30, 'rot2': 36, 'state': 'normal', 'yaw': -16.65, 'datetime': '2018-10-12 14:11:13.666424', 'mgs': 0, 'depth': 2.454, 'time': 11.71, 'pitch': -3.22, 'roll': -2.54}
{'lipoC2': 7.76, 'temp': 23.5, 'lipoC3S3': 11.65, 'rot1': 86, 'rot0': 86, 'rot3': 30, 'rot2': 37, 'state': 'normal', 'yaw': -16.84, 'datetime': '2018-10-12 14:11:13.673912', 'mgs': 0, 'depth': 2.759, 'time': 11.81, 'pitch': -3.17, 'roll': -2.43}
{'lipoC2': 7.76, 'temp': 23.56, 'lipoC3S3': 11.59, 'rot1': 86, 'rot0': 86, 'rot3': 31, 'rot2': 38, 'state': 'normal', 'yaw': -17.03, 'datetime': '2018-10-12 14:11:13.692785', 'mgs': 0, 'depth': 2.53, 'time': 11.9, 'pitch': -3.05, 'roll': -2.41}
{'lipoC2': 7.76, 'temp': 23.56, 'lipoC3S3': 11.61, 'rot1': 86, 'rot0': 86, 'rot3': 31, 'rot2': 38, 'state': 'normal', 'yaw': -17.22, 'datetime': '2018-10-12 14:11:13.700216', 'mgs': 0, 'depth': 2.225, 'time': 12.0, 'pitch': -2.9, 'roll': -2.46}
{'lipoC2': 7.76, 'temp': 23.56, 'lipoC3S3': 11.65, 'rot1': 86, 'rot0': 86, 'rot3': 32, 'rot2': 39, 'state': 'normal', 'yaw': -17.36, 'datetime': '2018-10-12 14:11:13.719043', 'mgs': 0, 'depth': 2.225, 'time': 12.1, 'pitch': -2.8, 'roll': -2.62}
{'lipoC2': 7.76, 'temp': 23.56, 'lipoC3S3': 11.64, 'rot1': 86, 'rot0': 86, 'rot3': 32, 'rot2': 40, 'state': 'normal', 'yaw': -17.5, 'datetime': '2018-10-12 14:11:13.726551', 'mgs': 0, 'depth': 2.377, 'time': 12.2, 'pitch': -2.78, 'roll': -2.89}
{'lipoC2': 7.76, 'temp': 23.56, 'lipoC3S3': 11.61, 'rot1': 86, 'rot0': 86, 'rot3': 33, 'rot2': 40, 'state': 'normal', 'yaw': -17.59, 'datetime': '2018-10-12 14:11:13.745426', 'mgs': 0, 'depth': 2.072, 'time': 12.3, 'pitch': -2.87, 'roll': -3.23}
{'lipoC2': 7.76, 'temp': 23.5, 'lipoC3S3': 11.64, 'rot1': 86, 'rot0': 86, 'rot3': 33, 'rot2': 41, 'state': 'normal', 'yaw': -17.59, 'datetime': '2018-10-12 14:11:13.752920', 'mgs': 0, 'depth': 2.301, 'time': 12.39, 'pitch': -2.9, 'roll': -3.54}
{'lipoC2': 7.76, 'temp': 23.5, 'lipoC3S3': 11.64, 'rot1': 86, 'rot0': 86, 'rot3': 34, 'rot2': 41, 'state': 'normal', 'yaw': -17.59, 'datetime': '2018-10-12 14:11:13.771751', 'mgs': 0, 'depth': 2.225, 'time': 12.49, 'pitch': -2.9, 'roll': -3.9}
{'lipoC2': 7.76, 'temp': 23.5, 'lipoC3S3': 11.65, 'rot1': 86, 'rot0': 86, 'rot3': 34, 'rot2': 42, 'state': 'normal', 'yaw': -17.59, 'datetime': '2018-10-12 14:11:13.779213', 'mgs': 0, 'depth': 2.148, 'time': 12.59, 'pitch': -2.9, 'roll': -4.21}
{'lipoC2': 7.76, 'temp': 23.56, 'lipoC3S3': 11.65, 'rot1': 86, 'rot0': 86, 'rot3': 35, 'rot2': 43, 'state': 'normal', 'yaw': -17.6, 'datetime': '2018-10-12 14:11:13.798022', 'mgs': 0, 'depth': 1.996, 'time': 12.69, 'pitch': -2.91, 'roll': -4.49}
{'lipoC2': 7.76, 'temp': 23.56, 'lipoC3S3': 11.64, 'rot1': 86, 'rot0': 86, 'rot3': 35, 'rot2': 43, 'state': 'normal', 'yaw': -17.63, 'datetime': '2018-10-12 14:11:13.805487', 'mgs': 0, 'depth': 2.072, 'time': 12.79, 'pitch': -2.91, 'roll': -4.74}
{'lipoC2': 7.76, 'temp': 23.5, 'lipoC3S3': 11.64, 'rot1': 86, 'rot0': 86, 'rot3': 35, 'rot2': 44, 'state': 'normal', 'yaw': -17.65, 'datetime': '2018-10-12 14:11:13.824366', 'mgs': 0, 'depth': 2.148, 'time': 12.88, 'pitch': -2.89, 'roll': -4.98}
{'lipoC2': 7.76, 'temp': 23.5, 'lipoC3S3': 11.65, 'rot1': 86, 'rot0': 86, 'rot3': 36, 'rot2': 45, 'state': 'normal', 'yaw': -17.65, 'datetime': '2018-10-12 14:11:13.831889', 'mgs': 0, 'depth': 2.148, 'time': 12.98, 'pitch': -2.82, 'roll': -5.28}
{'lipoC2': 7.76, 'temp': 23.5, 'lipoC3S3': 11.65, 'rot1': 86, 'rot0': 86, 'rot3': 37, 'rot2': 45, 'state': 'normal', 'yaw': -17.66, 'datetime': '2018-10-12 14:11:13.850766', 'mgs': 0, 'depth': 2.225, 'time': 13.08, 'pitch': -2.82, 'roll': -5.6}
{'lipoC2': 7.76, 'temp': 23.56, 'lipoC3S3': 11.63, 'rot1': 86, 'rot0': 86, 'rot3': 37, 'rot2': 46, 'state': 'normal', 'yaw': -17.65, 'datetime': '2018-10-12 14:11:13.858243', 'mgs': 0, 'depth': 2.301, 'time': 13.18, 'pitch': -2.95, 'roll': -5.84}
{'lipoC2': 7.77, 'temp': 23.56, 'lipoC3S3': 11.61, 'rot1': 86, 'rot0': 86, 'rot3': 37, 'rot2': 46, 'state': 'normal', 'yaw': -17.51, 'datetime': '2018-10-12 14:11:13.877263', 'mgs': 0, 'depth': 2.911, 'time': 13.28, 'pitch': -3.06, 'roll': -6.0}
{'lipoC2': 7.77, 'temp': 23.5, 'lipoC3S3': 11.63, 'rot1': 87, 'rot0': 87, 'rot3': 38, 'rot2': 47, 'state': 'normal', 'yaw': -16.87, 'datetime': '2018-10-12 14:11:13.884777', 'mgs': 0, 'depth': 2.225, 'time': 13.38, 'pitch': -2.99, 'roll': -5.98}
{'lipoC2': 7.76, 'temp': 23.5, 'lipoC3S3': 11.63, 'rot1': 88, 'rot0': 88, 'rot3': 38, 'rot2': 48, 'state': 'normal', 'yaw': -15.69, 'datetime': '2018-10-12 14:11:13.903685', 'mgs': 0, 'depth': 2.225, 'time': 13.47, 'pitch': -2.78, 'roll': -5.75}
{'lipoC2': 7.77, 'temp': 23.5, 'lipoC3S3': 11.64, 'rot1': 89, 'rot0': 89, 'rot3': 39, 'rot2': 48, 'state': 'normal', 'yaw': -13.98, 'datetime': '2018-10-12 14:11:13.911171', 'mgs': 0, 'depth': 1.843, 'time': 13.57, 'pitch': -2.39, 'roll': -5.4}
{'lipoC2': 7.76, 'temp': 23.5, 'lipoC3S3': 11.65, 'rot1': 90, 'rot0': 89, 'rot3': 39, 'rot2': 48, 'state': 'normal', 'yaw': -11.79, 'datetime': '2018-10-12 14:11:13.930029', 'mgs': 0, 'depth': 1.843, 'time': 13.67, 'pitch': -1.91, 'roll': -5.09}
{'lipoC2': 7.76, 'temp': 23.5, 'lipoC3S3': 11.67, 'rot1': 91, 'rot0': 90, 'rot3': 39, 'rot2': 48, 'state': 'normal', 'yaw': -9.54, 'datetime': '2018-10-12 14:11:13.937567', 'mgs': 0, 'depth': 1.996, 'time': 13.77, 'pitch': -1.47, 'roll': -4.98}
{'lipoC2': 7.76, 'temp': 23.44, 'lipoC3S3': 11.67, 'rot1': 91, 'rot0': 91, 'rot3': 39, 'rot2': 48, 'state': 'normal', 'yaw': -6.77, 'datetime': '2018-10-12 14:11:14.027386', 'mgs': 0, 'depth': 2.225, 'time': 13.86, 'pitch': -1.0, 'roll': -5.09}
{'lipoC2': 7.76, 'temp': 23.44, 'lipoC3S3': 11.64, 'rot1': 92, 'rot0': 92, 'rot3': 39, 'rot2': 48, 'state': 'normal', 'yaw': -3.7, 'datetime': '2018-10-12 14:11:14.124785', 'mgs': 0, 'depth': 2.072, 'time': 13.96, 'pitch': -0.53, 'roll': -5.41}
{'lipoC2': 7.76, 'temp': 23.5, 'lipoC3S3': 11.67, 'rot1': 93, 'rot0': 93, 'rot3': 39, 'rot2': 48, 'state': 'normal', 'yaw': -0.33, 'datetime': '2018-10-12 14:11:14.222198', 'mgs': 0, 'depth': 2.072, 'time': 14.06, 'pitch': -0.07, 'roll': -5.74}
{'lipoC2': 7.76, 'temp': 23.5, 'lipoC3S3': 11.65, 'rot1': 94, 'rot0': 93, 'rot3': 39, 'rot2': 48, 'state': 'normal', 'yaw': 2.95, 'datetime': '2018-10-12 14:11:14.319789', 'mgs': 0, 'depth': 2.606, 'time': 14.16, 'pitch': 0.3, 'roll': -5.93}
{'lipoC2': 7.76, 'temp': 23.5, 'lipoC3S3': 11.52, 'rot1': 95, 'rot0': 94, 'rot3': 39, 'rot2': 49, 'state': 'normal', 'yaw': 6.85, 'datetime': '2018-10-12 14:11:14.417213', 'mgs': 0, 'depth': 2.072, 'time': 14.26, 'pitch': 0.7, 'roll': -5.95}
{'lipoC2': 7.76, 'temp': 23.5, 'lipoC3S3': 11.63, 'rot1': 96, 'rot0': 95, 'rot3': 39, 'rot2': 49, 'state': 'normal', 'yaw': 10.97, 'datetime': '2018-10-12 14:11:14.514630', 'mgs': 0, 'depth': 2.454, 'time': 14.35, 'pitch': 1.01, 'roll': -5.78}
{'lipoC2': 7.76, 'temp': 23.5, 'lipoC3S3': 11.58, 'rot1': 96, 'rot0': 96, 'rot3': 40, 'rot2': 50, 'state': 'normal', 'yaw': 15.23, 'datetime': '2018-10-12 14:11:14.612056', 'mgs': 0, 'depth': 2.377, 'time': 14.45, 'pitch': 1.28, 'roll': -5.49}
{'lipoC2': 7.77, 'temp': 23.5, 'lipoC3S3': 11.58, 'rot1': 97, 'rot0': 97, 'rot3': 40, 'rot2': 50, 'state': 'normal', 'yaw': 19.12, 'datetime': '2018-10-12 14:11:14.710797', 'mgs': 0, 'depth': 2.301, 'time': 14.55, 'pitch': 1.54, 'roll': -5.22}
{'lipoC2': 7.77, 'temp': 23.5, 'lipoC3S3': 11.64, 'rot1': 98, 'rot0': 97, 'rot3': 41, 'rot2': 50, 'state': 'normal', 'yaw': 23.54, 'datetime': '2018-10-12 14:11:14.813382', 'mgs': 0, 'depth': 2.148, 'time': 14.65, 'pitch': 1.92, 'roll': -4.9}
{'lipoC2': 7.76, 'temp': 23.5, 'lipoC3S3': 11.65, 'rot1': 99, 'rot0': 98, 'rot3': 41, 'rot2': 50, 'state': 'normal', 'yaw': 28.07, 'datetime': '2018-10-12 14:11:14.913505', 'mgs': 0, 'depth': 2.225, 'time': 14.75, 'pitch': 2.3, 'roll': -4.7}
{'lipoC2': 7.76, 'temp': 23.56, 'lipoC3S3': 11.64, 'rot1': 100, 'rot0': 99, 'rot3': 41, 'rot2': 50, 'state': 'normal', 'yaw': 32.75, 'datetime': '2018-10-12 14:11:15.010887', 'mgs': 0, 'depth': 2.148, 'time': 14.84, 'pitch': 2.57, 'roll': -4.61}
{'lipoC2': 7.76, 'temp': 23.56, 'lipoC3S3': 11.65, 'rot1': 101, 'rot0': 100, 'rot3': 41, 'rot2': 50, 'state': 'normal', 'yaw': 37.52, 'datetime': '2018-10-12 14:11:15.108558', 'mgs': 0, 'depth': 2.225, 'time': 14.94, 'pitch': 2.72, 'roll': -4.64}
{'lipoC2': 7.76, 'temp': 23.56, 'lipoC3S3': 11.65, 'rot1': 101, 'rot0': 101, 'rot3': 41, 'rot2': 50, 'state': 'normal', 'yaw': 41.89, 'datetime': '2018-10-12 14:11:15.207068', 'mgs': 0, 'depth': 3.064, 'time': 15.04, 'pitch': 2.79, 'roll': -4.77}
{'lipoC2': 7.76, 'temp': 23.56, 'lipoC3S3': 11.65, 'rot1': 102, 'rot0': 102, 'rot3': 41, 'rot2': 50, 'state': 'normal', 'yaw': 46.81, 'datetime': '2018-10-12 14:11:15.306002', 'mgs': 0, 'depth': 2.301, 'time': 15.14, 'pitch': 2.85, 'roll': -4.9}
{'lipoC2': 7.76, 'temp': 23.56, 'lipoC3S3': 11.67, 'rot1': 103, 'rot0': 103, 'rot3': 41, 'rot2': 50, 'state': 'normal', 'yaw': 51.8, 'datetime': '2018-10-12 14:11:15.404858', 'mgs': 0, 'depth': 2.301, 'time': 15.24, 'pitch': 2.98, 'roll': -4.93}
{'lipoC2': 7.77, 'temp': 23.56, 'lipoC3S3': 11.65, 'rot1': 104, 'rot0': 104, 'rot3': 41, 'rot2': 50, 'state': 'normal', 'yaw': 56.88, 'datetime': '2018-10-12 14:11:15.502972', 'mgs': 0, 'depth': 2.301, 'time': 15.34, 'pitch': 3.18, 'roll': -4.84}
{'lipoC2': 7.76, 'temp': 23.56, 'lipoC3S3': 11.68, 'rot1': 105, 'rot0': 104, 'rot3': 41, 'rot2': 50, 'state': 'normal', 'yaw': 62.04, 'datetime': '2018-10-12 14:11:15.600610', 'mgs': 0, 'depth': 2.301, 'time': 15.43, 'pitch': 3.43, 'roll': -4.75}
{'lipoC2': 7.76, 'temp': 23.56, 'lipoC3S3': 11.65, 'rot1': 105, 'rot0': 105, 'rot3': 41, 'rot2': 50, 'state': 'normal', 'yaw': 67.27, 'datetime': '2018-10-12 14:11:15.698371', 'mgs': 0, 'depth': 2.301, 'time': 15.53, 'pitch': 3.71, 'roll': -4.73}
{'lipoC2': 7.75, 'temp': 23.56, 'lipoC3S3': 11.67, 'rot1': 106, 'rot0': 106, 'rot3': 41, 'rot2': 50, 'state': 'normal', 'yaw': 72.03, 'datetime': '2018-10-12 14:11:15.797204', 'mgs': 0, 'depth': 2.454, 'time': 15.63, 'pitch': 4.0, 'roll': -4.84}
{'lipoC2': 7.76, 'temp': 23.56, 'lipoC3S3': 11.67, 'rot1': 107, 'rot0': 107, 'rot3': 41, 'rot2': 50, 'state': 'normal', 'yaw': 77.37, 'datetime': '2018-10-12 14:11:15.895956', 'mgs': 0, 'depth': 2.759, 'time': 15.73, 'pitch': 4.42, 'roll': -5.06}
{'lipoC2': 7.77, 'temp': 23.56, 'lipoC3S3': 11.58, 'rot1': 108, 'rot0': 108, 'rot3': 41, 'rot2': 51, 'state': 'normal', 'yaw': 82.78, 'datetime': '2018-10-12 14:11:15.993567', 'mgs': 0, 'depth': 2.301, 'time': 15.83, 'pitch': 4.91, 'roll': -5.27}
{'lipoC2': 7.76, 'temp': 23.56, 'lipoC3S3': 11.51, 'rot1': 109, 'rot0': 108, 'rot3': 41, 'rot2': 51, 'state': 'normal', 'yaw': 88.25, 'datetime': '2018-10-12 14:11:16.091232', 'mgs': 0, 'depth': 2.377, 'time': 15.93, 'pitch': 5.41, 'roll': -5.18}
{'lipoC2': 7.76, 'temp': 23.56, 'lipoC3S3': 11.59, 'rot1': 109, 'rot0': 109, 'rot3': 42, 'rot2': 52, 'state': 'normal', 'yaw': 93.19, 'datetime': '2018-10-12 14:11:16.189043', 'mgs': 0, 'depth': 2.454, 'time': 16.02, 'pitch': 5.84, 'roll': -4.83}
{'lipoC2': 7.76, 'temp': 23.56, 'lipoC3S3': 11.58, 'rot1': 110, 'rot0': 110, 'rot3': 42, 'rot2': 52, 'state': 'normal', 'yaw': 98.69, 'datetime': '2018-10-12 14:11:16.286686', 'mgs': 0, 'depth': 2.454, 'time': 16.12, 'pitch': 6.24, 'roll': -4.26}
{'lipoC2': 7.76, 'temp': 23.56, 'lipoC3S3': 11.64, 'rot1': 111, 'rot0': 111, 'rot3': 43, 'rot2': 52, 'state': 'normal', 'yaw': 104.21, 'datetime': '2018-10-12 14:11:16.384394', 'mgs': 0, 'depth': 2.377, 'time': 16.22, 'pitch': 6.51, 'roll': -3.65}
{'lipoC2': 7.76, 'temp': 23.56, 'lipoC3S3': 11.68, 'rot1': 111, 'rot0': 111, 'rot3': 43, 'rot2': 53, 'state': 'normal', 'yaw': 109.7, 'datetime': '2018-10-12 14:11:16.481926', 'mgs': 0, 'depth': 2.454, 'time': 16.32, 'pitch': 6.69, 'roll': -3.13}
{'lipoC2': 7.76, 'temp': 23.56, 'lipoC3S3': 11.63, 'rot1': 111, 'rot0': 111, 'rot3': 43, 'rot2': 53, 'state': 'normal', 'yaw': 114.24, 'datetime': '2018-10-12 14:11:16.578060', 'mgs': 0, 'depth': 2.759, 'time': 16.41, 'pitch': 6.75, 'roll': -2.88}
{'lipoC2': 7.76, 'temp': 23.56, 'lipoC3S3': 11.64, 'rot1': 111, 'rot0': 111, 'rot3': 44, 'rot2': 54, 'state': 'normal', 'yaw': 118.94, 'datetime': '2018-10-12 14:11:16.677492', 'mgs': 0, 'depth': 2.759, 'time': 16.51, 'pitch': 6.77, 'roll': -2.98}
{'lipoC2': 7.76, 'temp': 23.56, 'lipoC3S3': 11.59, 'rot1': 111, 'rot0': 111, 'rot3': 44, 'rot2': 54, 'state': 'normal', 'yaw': 123.37, 'datetime': '2018-10-12 14:11:16.775141', 'mgs': 0, 'depth': 2.682, 'time': 16.61, 'pitch': 6.65, 'roll': -3.33}
{'lipoC2': 7.76, 'temp': 23.56, 'lipoC3S3': 11.6, 'rot1': 111, 'rot0': 111, 'rot3': 45, 'rot2': 55, 'state': 'normal', 'yaw': 127.53, 'datetime': '2018-10-12 14:11:16.872815', 'mgs': 0, 'depth': 2.606, 'time': 16.71, 'pitch': 6.43, 'roll': -3.72}
{'lipoC2': 7.76, 'temp': 23.56, 'lipoC3S3': 11.64, 'rot1': 111, 'rot0': 111, 'rot3': 45, 'rot2': 56, 'state': 'normal', 'yaw': 131.42, 'datetime': '2018-10-12 14:11:16.970942', 'mgs': 0, 'depth': 2.911, 'time': 16.81, 'pitch': 6.12, 'roll': -4.13}
{'lipoC2': 7.76, 'temp': 23.56, 'lipoC3S3': 11.63, 'rot1': 111, 'rot0': 111, 'rot3': 46, 'rot2': 56, 'state': 'normal', 'yaw': 134.71, 'datetime': '2018-10-12 14:11:17.070013', 'mgs': 0, 'depth': 2.682, 'time': 16.91, 'pitch': 5.82, 'roll': -4.56}
{'lipoC2': 7.76, 'temp': 23.56, 'lipoC3S3': 11.6, 'rot1': 111, 'rot0': 111, 'rot3': 46, 'rot2': 57, 'state': 'normal', 'yaw': 138.18, 'datetime': '2018-10-12 14:11:17.168911', 'mgs': 0, 'depth': 2.759, 'time': 17.0, 'pitch': 5.45, 'roll': -5.11}
{'lipoC2': 7.76, 'temp': 23.56, 'lipoC3S3': 11.64, 'rot1': 111, 'rot0': 111, 'rot3': 46, 'rot2': 57, 'state': 'normal', 'yaw': 141.5, 'datetime': '2018-10-12 14:11:17.267775', 'mgs': 0, 'depth': 2.988, 'time': 17.1, 'pitch': 5.11, 'roll': -5.68}
{'lipoC2': 7.76, 'temp': 23.56, 'lipoC3S3': 11.59, 'rot1': 111, 'rot0': 111, 'rot3': 47, 'rot2': 58, 'state': 'normal', 'yaw': 144.68, 'datetime': '2018-10-12 14:11:17.365508', 'mgs': 0, 'depth': 2.911, 'time': 17.2, 'pitch': 4.76, 'roll': -6.22}
{'lipoC2': 7.76, 'temp': 23.56, 'lipoC3S3': 11.6, 'rot1': 111, 'rot0': 111, 'rot3': 48, 'rot2': 59, 'state': 'normal', 'yaw': 147.74, 'datetime': '2018-10-12 14:11:17.463102', 'mgs': 0, 'depth': 2.835, 'time': 17.3, 'pitch': 4.42, 'roll': -6.72}
{'lipoC2': 7.76, 'temp': 23.56, 'lipoC3S3': 11.65, 'rot1': 111, 'rot0': 111, 'rot3': 48, 'rot2': 59, 'state': 'normal', 'yaw': 150.38, 'datetime': '2018-10-12 14:11:17.561300', 'mgs': 0, 'depth': 3.293, 'time': 17.4, 'pitch': 4.13, 'roll': -7.15}
{'lipoC2': 7.76, 'temp': 24.19, 'lipoC3S3': 11.65, 'rot1': 111, 'rot0': 111, 'rot3': 48, 'rot2': 60, 'state': 'normal', 'yaw': 153.18, 'datetime': '2018-10-12 14:11:17.660169', 'mgs': 0, 'depth': 2.988, 'time': 17.5, 'pitch': 3.85, 'roll': -7.57}
{'lipoC2': 7.76, 'temp': 24.19, 'lipoC3S3': 11.63, 'rot1': 111, 'rot0': 111, 'rot3': 49, 'rot2': 60, 'state': 'normal', 'yaw': 155.85, 'datetime': '2018-10-12 14:11:17.759106', 'mgs': 0, 'depth': 3.064, 'time': 17.59, 'pitch': 3.62, 'roll': -7.89}
{'lipoC2': 7.76, 'temp': 23.56, 'lipoC3S3': 11.64, 'rot1': 111, 'rot0': 111, 'rot3': 49, 'rot2': 61, 'state': 'normal', 'yaw': 158.4, 'datetime': '2018-10-12 14:11:17.857381', 'mgs': 0, 'depth': 3.369, 'time': 17.69, 'pitch': 3.43, 'roll': -8.09}
{'lipoC2': 7.76, 'temp': 23.56, 'lipoC3S3': 11.64, 'rot1': 111, 'rot0': 111, 'rot3': 50, 'rot2': 61, 'state': 'normal', 'yaw': 160.8, 'datetime': '2018-10-12 14:11:17.955139', 'mgs': 0, 'depth': 3.293, 'time': 17.79, 'pitch': 3.25, 'roll': -8.13}
{'lipoC2': 7.76, 'temp': 23.56, 'lipoC3S3': 11.6, 'rot1': 111, 'rot0': 111, 'rot3': 50, 'rot2': 62, 'state': 'normal', 'yaw': 163.11, 'datetime': '2018-10-12 14:11:18.052631', 'mgs': 0, 'depth': 3.293, 'time': 17.89, 'pitch': 3.07, 'roll': -8.01}
{'lipoC2': 7.76, 'temp': 23.56, 'lipoC3S3': 11.64, 'rot1': 111, 'rot0': 111, 'rot3': 51, 'rot2': 62, 'state': 'normal', 'yaw': 165.1, 'datetime': '2018-10-12 14:11:18.151731', 'mgs': 0, 'depth': 3.522, 'time': 17.99, 'pitch': 2.9, 'roll': -7.78}
{'lipoC2': 7.76, 'temp': 23.56, 'lipoC3S3': 11.63, 'rot1': 111, 'rot0': 111, 'rot3': 51, 'rot2': 63, 'state': 'normal', 'yaw': 167.22, 'datetime': '2018-10-12 14:11:18.249877', 'mgs': 0, 'depth': 3.369, 'time': 18.08, 'pitch': 2.72, 'roll': -7.44}
{'lipoC2': 7.76, 'temp': 23.56, 'lipoC3S3': 11.64, 'rot1': 111, 'rot0': 111, 'rot3': 52, 'rot2': 64, 'state': 'normal', 'yaw': 169.24, 'datetime': '2018-10-12 14:11:18.347511', 'mgs': 0, 'depth': 3.522, 'time': 18.18, 'pitch': 2.54, 'roll': -7.02}
{'lipoC2': 7.76, 'temp': 23.56, 'lipoC3S3': 11.65, 'rot1': 111, 'rot0': 111, 'rot3': 52, 'rot2': 64, 'state': 'normal', 'yaw': 171.19, 'datetime': '2018-10-12 14:11:18.445137', 'mgs': 0, 'depth': 3.064, 'time': 18.28, 'pitch': 2.37, 'roll': -6.56}
{'lipoC2': 7.76, 'temp': 23.56, 'lipoC3S3': 11.65, 'rot1': 111, 'rot0': 111, 'rot3': 53, 'rot2': 65, 'state': 'normal', 'yaw': 172.85, 'datetime': '2018-10-12 14:11:18.542939', 'mgs': 0, 'depth': 3.445, 'time': 18.38, 'pitch': 2.19, 'roll': -6.15}
{'lipoC2': 7.76, 'temp': 23.06, 'lipoC3S3': 11.64, 'rot1': 111, 'rot0': 111, 'rot3': 53, 'rot2': 65, 'state': 'normal', 'yaw': 174.63, 'datetime': '2018-10-12 14:11:18.640547', 'mgs': 0, 'depth': 3.979, 'time': 18.48, 'pitch': 2.01, 'roll': -5.69}
{'lipoC2': 7.76, 'temp': 23.06, 'lipoC3S3': 11.65, 'rot1': 111, 'rot0': 111, 'rot3': 53, 'rot2': 66, 'state': 'normal', 'yaw': 176.35, 'datetime': '2018-10-12 14:11:18.738165', 'mgs': 0, 'depth': 3.903, 'time': 18.58, 'pitch': 1.85, 'roll': -5.26}
{'lipoC2': 7.76, 'temp': 23.56, 'lipoC3S3': 11.6, 'rot1': 111, 'rot0': 111, 'rot3': 54, 'rot2': 66, 'state': 'normal', 'yaw': 177.91, 'datetime': '2018-10-12 14:11:18.835745', 'mgs': 0, 'depth': 3.827, 'time': 18.67, 'pitch': 1.67, 'roll': -4.87}
{'lipoC2': 7.76, 'temp': 23.56, 'lipoC3S3': 11.64, 'rot1': 111, 'rot0': 111, 'rot3': 54, 'rot2': 67, 'state': 'normal', 'yaw': 179.07, 'datetime': '2018-10-12 14:11:18.933609', 'mgs': 0, 'depth': 3.979, 'time': 18.77, 'pitch': 1.44, 'roll': -4.83}
{'lipoC2': 7.76, 'temp': 23.56, 'lipoC3S3': 11.6, 'rot1': 111, 'rot0': 111, 'rot3': 55, 'rot2': 68, 'state': 'normal', 'yaw': -179.93, 'datetime': '2018-10-12 14:11:19.031402', 'mgs': 0, 'depth': 3.751, 'time': 18.87, 'pitch': 1.12, 'roll': -5.28}
{'lipoC2': 7.76, 'temp': 23.56, 'lipoC3S3': 11.6, 'rot1': 111, 'rot0': 111, 'rot3': 55, 'rot2': 68, 'state': 'normal', 'yaw': -179.24, 'datetime': '2018-10-12 14:11:19.129099', 'mgs': 0, 'depth': 3.903, 'time': 18.97, 'pitch': 0.77, 'roll': -6.08}
{'lipoC2': 7.76, 'temp': 23.56, 'lipoC3S3': 11.63, 'rot1': 111, 'rot0': 111, 'rot3': 56, 'rot2': 69, 'state': 'normal', 'yaw': -178.85, 'datetime': '2018-10-12 14:11:19.226811', 'mgs': 0, 'depth': 3.979, 'time': 19.06, 'pitch': 0.43, 'roll': -7.03}
{'lipoC2': 7.76, 'temp': 23.56, 'lipoC3S3': 11.64, 'rot1': 111, 'rot0': 111, 'rot3': 56, 'rot2': 69, 'state': 'normal', 'yaw': -178.7, 'datetime': '2018-10-12 14:11:19.324982', 'mgs': 0, 'depth': 4.285, 'time': 19.16, 'pitch': 0.13, 'roll': -7.98}
{'lipoC2': 7.76, 'temp': 23.56, 'lipoC3S3': 11.64, 'rot1': 111, 'rot0': 111, 'rot3': 57, 'rot2': 70, 'state': 'normal', 'yaw': -178.67, 'datetime': '2018-10-12 14:11:19.424406', 'mgs': 0, 'depth': 4.132, 'time': 19.26, 'pitch': -0.07, 'roll': -8.71}
{'lipoC2': 7.76, 'temp': 23.56, 'lipoC3S3': 11.65, 'rot1': 111, 'rot0': 111, 'rot3': 57, 'rot2': 70, 'state': 'normal', 'yaw': -178.65, 'datetime': '2018-10-12 14:11:19.523322', 'mgs': 0, 'depth': 4.208, 'time': 19.36, 'pitch': -0.17, 'roll': -9.28}
{'lipoC2': 7.76, 'temp': 23.31, 'lipoC3S3': 11.65, 'rot1': 111, 'rot0': 111, 'rot3': 57, 'rot2': 71, 'state': 'normal', 'yaw': -178.66, 'datetime': '2018-10-12 14:11:19.622368', 'mgs': 0, 'depth': 4.514, 'time': 19.46, 'pitch': -0.15, 'roll': -9.63}
{'lipoC2': 7.76, 'temp': 23.31, 'lipoC3S3': 11.61, 'rot1': 111, 'rot0': 111, 'rot3': 58, 'rot2': 71, 'state': 'normal', 'yaw': -178.68, 'datetime': '2018-10-12 14:11:19.720322', 'mgs': 0, 'depth': 4.208, 'time': 19.56, 'pitch': 0.01, 'roll': -9.73}
{'lipoC2': 7.76, 'temp': 23.5, 'lipoC3S3': 11.61, 'rot1': 111, 'rot0': 111, 'rot3': 58, 'rot2': 72, 'state': 'normal', 'yaw': -178.65, 'datetime': '2018-10-12 14:11:19.818266', 'mgs': 0, 'depth': 4.285, 'time': 19.66, 'pitch': 0.28, 'roll': -9.52}
{'lipoC2': 7.76, 'temp': 23.5, 'lipoC3S3': 11.61, 'rot1': 111, 'rot0': 111, 'rot3': 59, 'rot2': 72, 'state': 'normal', 'yaw': -178.59, 'datetime': '2018-10-12 14:11:19.916144', 'mgs': 0, 'depth': 4.361, 'time': 19.75, 'pitch': 0.61, 'roll': -9.0}
{'lipoC2': 7.76, 'temp': 23.5, 'lipoC3S3': 11.65, 'rot1': 111, 'rot0': 111, 'rot3': 59, 'rot2': 73, 'state': 'normal', 'yaw': -178.51, 'datetime': '2018-10-12 14:11:20.015218', 'mgs': 0, 'depth': 4.666, 'time': 19.85, 'pitch': 0.94, 'roll': -8.32}
{'lipoC2': 7.76, 'temp': 23.56, 'lipoC3S3': 11.67, 'rot1': 111, 'rot0': 111, 'rot3': 59, 'rot2': 73, 'state': 'normal', 'yaw': -178.41, 'datetime': '2018-10-12 14:11:20.114237', 'mgs': 0, 'depth': 4.437, 'time': 19.95, 'pitch': 1.33, 'roll': -7.4}
{'lipoC2': 7.76, 'temp': 23.56, 'lipoC3S3': 11.63, 'rot1': 111, 'rot0': 111, 'rot3': 60, 'rot2': 74, 'state': 'normal', 'yaw': -178.29, 'datetime': '2018-10-12 14:11:20.213229', 'mgs': 0, 'depth': 4.437, 'time': 20.05, 'pitch': 1.66, 'roll': -6.47}
{'lipoC2': 7.76, 'temp': 23.56, 'lipoC3S3': 11.65, 'rot1': 111, 'rot0': 111, 'rot3': 60, 'rot2': 74, 'state': 'normal', 'yaw': -178.25, 'datetime': '2018-10-12 14:11:20.325623', 'mgs': 0, 'depth': 4.666, 'time': 20.15, 'pitch': 1.89, 'roll': -6.11}
{'lipoC2': 7.76, 'temp': 23.56, 'lipoC3S3': 11.65, 'rot1': 111, 'rot0': 111, 'rot3': 61, 'rot2': 75, 'state': 'normal', 'yaw': -178.31, 'datetime': '2018-10-12 14:11:20.409443', 'mgs': 0, 'depth': 4.819, 'time': 20.25, 'pitch': 2.04, 'roll': -6.58}
{'lipoC2': 7.76, 'temp': 23.56, 'lipoC3S3': 11.69, 'rot1': 111, 'rot0': 111, 'rot3': 61, 'rot2': 75, 'state': 'normal', 'yaw': -178.39, 'datetime': '2018-10-12 14:11:20.501981', 'mgs': 0, 'depth': 4.59, 'time': 20.34, 'pitch': 2.11, 'roll': -7.53}
{'lipoC2': 7.76, 'temp': 23.56, 'lipoC3S3': 11.69, 'rot1': 111, 'rot0': 111, 'rot3': 61, 'rot2': 75, 'state': 'normal', 'yaw': -178.39, 'datetime': '2018-10-12 14:11:20.600930', 'mgs': 0, 'depth': 4.59, 'time': 20.44, 'pitch': 2.12, 'roll': -8.27}
{'lipoC2': 7.77, 'temp': 23.56, 'lipoC3S3': 11.59, 'rot1': 111, 'rot0': 111, 'rot3': 61, 'rot2': 75, 'state': 'normal', 'yaw': -178.39, 'datetime': '2018-10-12 14:11:20.699928', 'mgs': 0, 'depth': 4.742, 'time': 20.54, 'pitch': 2.12, 'roll': -8.67}
{'lipoC2': 7.77, 'temp': 23.56, 'lipoC3S3': 11.52, 'rot1': 112, 'rot0': 112, 'rot3': 62, 'rot2': 76, 'state': 'normal', 'yaw': -178.41, 'datetime': '2018-10-12 14:11:20.798965', 'mgs': 0, 'depth': 5.2, 'time': 20.64, 'pitch': 2.14, 'roll': -8.82}
{'lipoC2': 7.77, 'temp': 23.56, 'lipoC3S3': 11.54, 'rot1': 113, 'rot0': 114, 'rot3': 62, 'rot2': 77, 'state': 'normal', 'yaw': -178.79, 'datetime': '2018-10-12 14:11:20.896682', 'mgs': 0, 'depth': 5.887, 'time': 20.74, 'pitch': 2.11, 'roll': -8.09}
{'lipoC2': 7.77, 'temp': 23.56, 'lipoC3S3': 11.54, 'rot1': 114, 'rot0': 115, 'rot3': 63, 'rot2': 77, 'state': 'normal', 'yaw': -179.71, 'datetime': '2018-10-12 14:11:20.994411', 'mgs': 0, 'depth': 5.734, 'time': 20.84, 'pitch': 1.99, 'roll': -6.2}
{'lipoC2': 7.77, 'temp': 23.38, 'lipoC3S3': 11.52, 'rot1': 115, 'rot0': 117, 'rot3': 63, 'rot2': 78, 'state': 'normal', 'yaw': 179.26, 'datetime': '2018-10-12 14:11:21.092145', 'mgs': 0, 'depth': 5.276, 'time': 20.94, 'pitch': 2.03, 'roll': -3.76}
{'lipoC2': 7.77, 'temp': 23.38, 'lipoC3S3': 11.54, 'rot1': 117, 'rot0': 118, 'rot3': 64, 'rot2': 78, 'state': 'normal', 'yaw': 178.17, 'datetime': '2018-10-12 14:11:21.193261', 'mgs': 0, 'depth': 5.887, 'time': 21.03, 'pitch': 2.09, 'roll': -0.56}
{'lipoC2': 7.77, 'temp': 23.5, 'lipoC3S3': 11.34, 'rot1': 118, 'rot0': 120, 'rot3': 64, 'rot2': 79, 'state': 'normal', 'yaw': 177.35, 'datetime': '2018-10-12 14:11:21.292499', 'mgs': 0, 'depth': 4.895, 'time': 21.13, 'pitch': 2.17, 'roll': 0.32}
{'lipoC2': 7.76, 'temp': 23.5, 'lipoC3S3': 11.4, 'rot1': 120, 'rot0': 121, 'rot3': 64, 'rot2': 79, 'state': 'normal', 'yaw': 176.62, 'datetime': '2018-10-12 14:11:21.390266', 'mgs': 0, 'depth': 5.2, 'time': 21.23, 'pitch': 1.89, 'roll': 0.88}
{'lipoC2': 7.76, 'temp': 23.44, 'lipoC3S3': 11.42, 'rot1': 122, 'rot0': 122, 'rot3': 65, 'rot2': 80, 'state': 'normal', 'yaw': 176.3, 'datetime': '2018-10-12 14:11:21.487852', 'mgs': 0, 'depth': 5.2, 'time': 21.33, 'pitch': 1.7, 'roll': 1.43}
{'lipoC2': 7.76, 'temp': 23.44, 'lipoC3S3': 11.55, 'rot1': 123, 'rot0': 123, 'rot3': 65, 'rot2': 80, 'state': 'normal', 'yaw': 176.43, 'datetime': '2018-10-12 14:11:21.585455', 'mgs': 0, 'depth': 5.2, 'time': 21.42, 'pitch': 1.74, 'roll': 2.16}
{'lipoC2': 7.76, 'temp': 23.44, 'lipoC3S3': 11.56, 'rot1': 124, 'rot0': 125, 'rot3': 66, 'rot2': 81, 'state': 'normal', 'yaw': 176.97, 'datetime': '2018-10-12 14:11:21.683668', 'mgs': 0, 'depth': 6.421, 'time': 21.52, 'pitch': 1.94, 'roll': 2.96}
{'lipoC2': 7.77, 'temp': 23.56, 'lipoC3S3': 11.56, 'rot1': 126, 'rot0': 126, 'rot3': 66, 'rot2': 81, 'state': 'normal', 'yaw': 177.78, 'datetime': '2018-10-12 14:11:21.780762', 'mgs': 0, 'depth': 6.268, 'time': 21.62, 'pitch': 2.21, 'roll': 3.9}
{'lipoC2': 7.76, 'temp': 23.56, 'lipoC3S3': 11.5, 'rot1': 127, 'rot0': 127, 'rot3': 66, 'rot2': 82, 'state': 'normal', 'yaw': 178.54, 'datetime': '2018-10-12 14:11:21.879241', 'mgs': 0, 'depth': 5.2, 'time': 21.72, 'pitch': 2.2, 'roll': 4.59}
{'lipoC2': 7.76, 'temp': 23.56, 'lipoC3S3': 11.58, 'rot1': 129, 'rot0': 128, 'rot3': 66, 'rot2': 82, 'state': 'normal', 'yaw': 179.44, 'datetime': '2018-10-12 14:11:21.978237', 'mgs': 0, 'depth': 5.963, 'time': 21.82, 'pitch': 2.01, 'roll': 5.37}
{'lipoC2': 7.76, 'temp': 23.56, 'lipoC3S3': 11.6, 'rot1': 130, 'rot0': 129, 'rot3': 66, 'rot2': 82, 'state': 'normal', 'yaw': -179.47, 'datetime': '2018-10-12 14:11:22.077101', 'mgs': 0, 'depth': 5.734, 'time': 21.92, 'pitch': 1.91, 'roll': 6.4}
{'lipoC2': 7.76, 'temp': 23.56, 'lipoC3S3': 11.55, 'rot1': 132, 'rot0': 130, 'rot3': 67, 'rot2': 82, 'state': 'normal', 'yaw': -178.21, 'datetime': '2018-10-12 14:11:22.175754', 'mgs': 0, 'depth': 5.963, 'time': 22.02, 'pitch': 1.89, 'roll': 7.57}
{'lipoC2': 7.76, 'temp': 23.5, 'lipoC3S3': 11.54, 'rot1': 133, 'rot0': 132, 'rot3': 67, 'rot2': 82, 'state': 'normal', 'yaw': -176.9, 'datetime': '2018-10-12 14:11:22.273616', 'mgs': 0, 'depth': 6.345, 'time': 22.11, 'pitch': 1.92, 'roll': 8.75}
{'lipoC2': 7.77, 'temp': 23.5, 'lipoC3S3': 11.54, 'rot1': 134, 'rot0': 133, 'rot3': 67, 'rot2': 83, 'state': 'normal', 'yaw': -176.12, 'datetime': '2018-10-12 14:11:22.371397', 'mgs': 0, 'depth': 5.582, 'time': 22.21, 'pitch': 2.01, 'roll': 9.96}
{'lipoC2': 7.77, 'temp': 23.5, 'lipoC3S3': 11.52, 'rot1': 136, 'rot0': 135, 'rot3': 68, 'rot2': 83, 'state': 'normal', 'yaw': -175.92, 'datetime': '2018-10-12 14:11:22.474834', 'mgs': 0, 'depth': 6.116, 'time': 22.31, 'pitch': 2.09, 'roll': 11.03}
