{'lipoC2': 7.68, 'temp': 26.88, 'lipoC3S3': 12.02, 'rot1': 0, 'rot0': 0, 'rot3': 0, 'rot2': 0, 'state': 'normal', 'yaw': 0.0, 'datetime': '2018-10-12 17:22:55.044674', 'mgs': 0, 'depth': -0.98, 'time': 1.26, 'pitch': 0.29, 'roll': -8.95}
{'lipoC2': 7.68, 'temp': 26.88, 'lipoC3S3': 12.01, 'rot1': 0, 'rot0': 0, 'rot3': 0, 'rot2': 0, 'state': 'normal', 'yaw': 0.01, 'datetime': '2018-10-12 17:22:55.061722', 'mgs': 0, 'depth': -1.056, 'time': 1.36, 'pitch': 0.27, 'roll': -8.87}
{'lipoC2': 7.68, 'temp': 26.88, 'lipoC3S3': 12.01, 'rot1': 0, 'rot0': 0, 'rot3': 0, 'rot2': 0, 'state': 'normal', 'yaw': 0.0, 'datetime': '2018-10-12 17:22:55.078866', 'mgs': 0, 'depth': -1.056, 'time': 1.45, 'pitch': 0.27, 'roll': -8.81}
{'lipoC2': 7.68, 'temp': 26.81, 'lipoC3S3': 12.01, 'rot1': 0, 'rot0': 0, 'rot3': 0, 'rot2': 0, 'state': 'normal', 'yaw': 0.0, 'datetime': '2018-10-12 17:22:55.095816', 'mgs': 0, 'depth': -0.98, 'time': 1.55, 'pitch': 0.27, 'roll': -8.78}
{'lipoC2': 7.68, 'temp': 26.81, 'lipoC3S3': 12.01, 'rot1': 0, 'rot0': 0, 'rot3': 0, 'rot2': 0, 'state': 'normal', 'yaw': 0.0, 'datetime': '2018-10-12 17:22:55.112947', 'mgs': 0, 'depth': -1.056, 'time': 1.65, 'pitch': 0.26, 'roll': -8.71}
{'lipoC2': 7.68, 'temp': 26.88, 'lipoC3S3': 12.01, 'rot1': 0, 'rot0': 0, 'rot3': 0, 'rot2': 0, 'state': 'normal', 'yaw': 0.01, 'datetime': '2018-10-12 17:22:55.129839', 'mgs': 0, 'depth': -1.056, 'time': 1.75, 'pitch': 0.26, 'roll': -8.65}
{'lipoC2': 7.68, 'temp': 26.88, 'lipoC3S3': 12.01, 'rot1': 0, 'rot0': 0, 'rot3': 0, 'rot2': 0, 'state': 'normal', 'yaw': 0.26, 'datetime': '2018-10-12 17:22:55.146958', 'mgs': 0, 'depth': -1.056, 'time': 1.85, 'pitch': 0.25, 'roll': -8.61}
{'lipoC2': 7.68, 'temp': 26.81, 'lipoC3S3': 12.02, 'rot1': 0, 'rot0': 0, 'rot3': 0, 'rot2': 0, 'state': 'normal', 'yaw': 0.21, 'datetime': '2018-10-12 17:22:55.155659', 'mgs': 0, 'depth': -1.056, 'time': 1.94, 'pitch': 0.25, 'roll': -8.59}
{'lipoC2': 7.68, 'temp': 26.81, 'lipoC3S3': 12.01, 'rot1': 0, 'rot0': 0, 'rot3': 0, 'rot2': 0, 'state': 'normal', 'yaw': 0.34, 'datetime': '2018-10-12 17:22:55.163118', 'mgs': 0, 'depth': -1.056, 'time': 2.04, 'pitch': 0.24, 'roll': -8.59}
{'lipoC2': 7.67, 'temp': 26.81, 'lipoC3S3': 12.01, 'rot1': 0, 'rot0': 0, 'rot3': 0, 'rot2': 0, 'state': 'normal', 'yaw': 0.47, 'datetime': '2018-10-12 17:22:55.170461', 'mgs': 0, 'depth': -1.132, 'time': 2.14, 'pitch': 0.23, 'roll': -8.51}
{'lipoC2': 7.68, 'temp': 26.81, 'lipoC3S3': 12.01, 'rot1': 0, 'rot0': 0, 'rot3': 0, 'rot2': 0, 'state': 'normal', 'yaw': 0.47, 'datetime': '2018-10-12 17:22:55.177878', 'mgs': 0, 'depth': -1.056, 'time': 2.24, 'pitch': 0.24, 'roll': -8.5}
{'lipoC2': 7.67, 'temp': 26.81, 'lipoC3S3': 12.01, 'rot1': 0, 'rot0': 0, 'rot3': 0, 'rot2': 0, 'state': 'normal', 'yaw': 0.54, 'datetime': '2018-10-12 17:22:55.185208', 'mgs': 0, 'depth': -1.056, 'time': 2.33, 'pitch': 0.25, 'roll': -8.46}
{'lipoC2': 7.68, 'temp': 26.81, 'lipoC3S3': 12.01, 'rot1': 0, 'rot0': 0, 'rot3': 0, 'rot2': 0, 'state': 'normal', 'yaw': 0.74, 'datetime': '2018-10-12 17:22:55.252414', 'mgs': 0, 'depth': -1.056, 'time': 2.43, 'pitch': 0.29, 'roll': -8.43}
{'lipoC2': 7.67, 'temp': 26.81, 'lipoC3S3': 12.01, 'rot1': 0, 'rot0': 0, 'rot3': 0, 'rot2': 0, 'state': 'normal', 'yaw': 1.03, 'datetime': '2018-10-12 17:22:55.349531', 'mgs': 0, 'depth': -1.056, 'time': 2.53, 'pitch': 0.3, 'roll': -8.4}
{'lipoC2': 7.68, 'temp': 26.81, 'lipoC3S3': 12.02, 'rot1': 0, 'rot0': 0, 'rot3': 0, 'rot2': 0, 'state': 'normal', 'yaw': 1.15, 'datetime': '2018-10-12 17:22:55.446628', 'mgs': 0, 'depth': -1.056, 'time': 2.63, 'pitch': 0.32, 'roll': -8.37}
{'lipoC2': 7.68, 'temp': 26.81, 'lipoC3S3': 12.02, 'rot1': 0, 'rot0': 0, 'rot3': 0, 'rot2': 0, 'state': 'normal', 'yaw': 1.1, 'datetime': '2018-10-12 17:22:55.543710', 'mgs': 0, 'depth': -1.056, 'time': 2.72, 'pitch': 0.3, 'roll': -8.36}
{'lipoC2': 7.67, 'temp': 26.81, 'lipoC3S3': 12.01, 'rot1': 0, 'rot0': 0, 'rot3': 0, 'rot2': 0, 'state': 'normal', 'yaw': 1.1, 'datetime': '2018-10-12 17:22:55.640789', 'mgs': 0, 'depth': -1.056, 'time': 2.82, 'pitch': 0.3, 'roll': -8.32}
{'lipoC2': 7.67, 'temp': 26.81, 'lipoC3S3': 12.01, 'rot1': 0, 'rot0': 0, 'rot3': 0, 'rot2': 0, 'state': 'normal', 'yaw': 1.07, 'datetime': '2018-10-12 17:22:55.737889', 'mgs': 0, 'depth': -0.98, 'time': 2.92, 'pitch': 0.29, 'roll': -8.31}
{'lipoC2': 7.68, 'temp': 26.81, 'lipoC3S3': 12.01, 'rot1': 0, 'rot0': 0, 'rot3': 0, 'rot2': 0, 'state': 'normal', 'yaw': 1.07, 'datetime': '2018-10-12 17:22:55.836366', 'mgs': 0, 'depth': -1.056, 'time': 3.02, 'pitch': 0.32, 'roll': -8.29}
{'lipoC2': 7.68, 'temp': 26.81, 'lipoC3S3': 12.01, 'rot1': 0, 'rot0': 0, 'rot3': 0, 'rot2': 0, 'state': 'normal', 'yaw': 1.07, 'datetime': '2018-10-12 17:22:55.940098', 'mgs': 0, 'depth': -0.98, 'time': 3.12, 'pitch': 0.3, 'roll': -8.27}
{'lipoC2': 7.68, 'temp': 26.81, 'lipoC3S3': 12.01, 'rot1': 0, 'rot0': 0, 'rot3': 0, 'rot2': 0, 'state': 'normal', 'yaw': 1.07, 'datetime': '2018-10-12 17:22:56.037179', 'mgs': 0, 'depth': -0.98, 'time': 3.21, 'pitch': 0.3, 'roll': -8.26}
{'lipoC2': 7.67, 'temp': 26.81, 'lipoC3S3': 12.01, 'rot1': 0, 'rot0': 0, 'rot3': 0, 'rot2': 0, 'state': 'normal', 'yaw': 1.07, 'datetime': '2018-10-12 17:22:56.134255', 'mgs': 0, 'depth': -1.132, 'time': 3.31, 'pitch': 0.3, 'roll': -8.24}
{'lipoC2': 7.67, 'temp': 26.88, 'lipoC3S3': 12.01, 'rot1': 0, 'rot0': 0, 'rot3': 0, 'rot2': 0, 'state': 'normal', 'yaw': 1.07, 'datetime': '2018-10-12 17:22:56.232186', 'mgs': 0, 'depth': -0.98, 'time': 3.41, 'pitch': 0.3, 'roll': -8.24}
{'lipoC2': 7.67, 'temp': 26.88, 'lipoC3S3': 12.01, 'rot1': 0, 'rot0': 0, 'rot3': 0, 'rot2': 0, 'state': 'normal', 'yaw': 1.07, 'datetime': '2018-10-12 17:22:56.330620', 'mgs': 0, 'depth': -0.98, 'time': 3.51, 'pitch': 0.29, 'roll': -8.22}
{'lipoC2': 7.68, 'temp': 26.88, 'lipoC3S3': 12.01, 'rot1': 0, 'rot0': 0, 'rot3': 0, 'rot2': 0, 'state': 'normal', 'yaw': 1.07, 'datetime': '2018-10-12 17:22:56.428048', 'mgs': 0, 'depth': -1.056, 'time': 3.6, 'pitch': 0.29, 'roll': -8.22}
{'lipoC2': 7.68, 'temp': 26.81, 'lipoC3S3': 12.01, 'rot1': 0, 'rot0': 0, 'rot3': 0, 'rot2': 0, 'state': 'normal', 'yaw': 1.07, 'datetime': '2018-10-12 17:22:56.525305', 'mgs': 0, 'depth': -1.056, 'time': 3.7, 'pitch': 0.29, 'roll': -8.22}
{'lipoC2': 7.67, 'temp': 26.81, 'lipoC3S3': 12.01, 'rot1': 0, 'rot0': 0, 'rot3': 0, 'rot2': 0, 'state': 'normal', 'yaw': 1.07, 'datetime': '2018-10-12 17:22:56.623004', 'mgs': 0, 'depth': -1.056, 'time': 3.8, 'pitch': 0.29, 'roll': -8.22}
{'lipoC2': 7.68, 'temp': 26.81, 'lipoC3S3': 12.01, 'rot1': 0, 'rot0': 0, 'rot3': 0, 'rot2': 0, 'state': 'normal', 'yaw': 1.07, 'datetime': '2018-10-12 17:22:56.721343', 'mgs': 0, 'depth': -1.056, 'time': 3.9, 'pitch': 0.29, 'roll': -8.22}
{'lipoC2': 7.68, 'temp': 26.81, 'lipoC3S3': 12.01, 'rot1': 0, 'rot0': 0, 'rot3': 0, 'rot2': 0, 'state': 'normal', 'yaw': 1.07, 'datetime': '2018-10-12 17:22:56.819259', 'mgs': 0, 'depth': -1.056, 'time': 3.99, 'pitch': 0.29, 'roll': -8.22}
{'lipoC2': 7.67, 'temp': 26.81, 'lipoC3S3': 12.01, 'rot1': 0, 'rot0': 0, 'rot3': 0, 'rot2': 0, 'state': 'normal', 'yaw': 1.07, 'datetime': '2018-10-12 17:22:56.916193', 'mgs': 0, 'depth': -1.056, 'time': 4.09, 'pitch': 0.29, 'roll': -8.22}
{'lipoC2': 7.68, 'temp': 26.81, 'lipoC3S3': 12.01, 'rot1': 0, 'rot0': 0, 'rot3': 0, 'rot2': 0, 'state': 'normal', 'yaw': 1.07, 'datetime': '2018-10-12 17:22:57.013844', 'mgs': 0, 'depth': -1.132, 'time': 4.19, 'pitch': 0.29, 'roll': -8.22}
{'lipoC2': 7.68, 'temp': 26.81, 'lipoC3S3': 12.02, 'rot1': 0, 'rot0': 0, 'rot3': 0, 'rot2': 0, 'state': 'normal', 'yaw': 1.07, 'datetime': '2018-10-12 17:22:57.112272', 'mgs': 0, 'depth': -1.056, 'time': 4.29, 'pitch': 0.29, 'roll': -8.22}
{'lipoC2': 7.68, 'temp': 26.81, 'lipoC3S3': 12.01, 'rot1': 0, 'rot0': 0, 'rot3': 0, 'rot2': 0, 'state': 'normal', 'yaw': 1.07, 'datetime': '2018-10-12 17:22:57.210486', 'mgs': 0, 'depth': -1.056, 'time': 4.39, 'pitch': 0.29, 'roll': -8.22}
{'lipoC2': 7.67, 'temp': 26.81, 'lipoC3S3': 12.01, 'rot1': 0, 'rot0': 0, 'rot3': 0, 'rot2': 0, 'state': 'normal', 'yaw': 1.07, 'datetime': '2018-10-12 17:22:57.307588', 'mgs': 0, 'depth': -0.98, 'time': 4.48, 'pitch': 0.29, 'roll': -8.22}
{'lipoC2': 7.67, 'temp': 26.81, 'lipoC3S3': 12.01, 'rot1': 0, 'rot0': 0, 'rot3': 0, 'rot2': 0, 'state': 'normal', 'yaw': 1.07, 'datetime': '2018-10-12 17:22:57.404571', 'mgs': 0, 'depth': -1.056, 'time': 4.58, 'pitch': 0.29, 'roll': -8.22}
{'lipoC2': 7.67, 'temp': 26.81, 'lipoC3S3': 12.01, 'rot1': 0, 'rot0': 0, 'rot3': 0, 'rot2': 0, 'state': 'normal', 'yaw': 1.07, 'datetime': '2018-10-12 17:22:57.501721', 'mgs': 0, 'depth': -1.132, 'time': 4.68, 'pitch': 0.29, 'roll': -8.22}
{'lipoC2': 7.68, 'temp': 26.81, 'lipoC3S3': 12.01, 'rot1': 0, 'rot0': 0, 'rot3': 0, 'rot2': 0, 'state': 'normal', 'yaw': 1.07, 'datetime': '2018-10-12 17:22:57.598950', 'mgs': 0, 'depth': -1.056, 'time': 4.78, 'pitch': 0.29, 'roll': -8.22}
{'lipoC2': 7.67, 'temp': 26.88, 'lipoC3S3': 12.01, 'rot1': 0, 'rot0': 0, 'rot3': 0, 'rot2': 0, 'state': 'normal', 'yaw': 1.07, 'datetime': '2018-10-12 17:22:57.695919', 'mgs': 0, 'depth': -1.132, 'time': 4.87, 'pitch': 0.29, 'roll': -8.22}
{'lipoC2': 7.67, 'temp': 26.88, 'lipoC3S3': 12.01, 'rot1': 0, 'rot0': 0, 'rot3': 0, 'rot2': 0, 'state': 'normal', 'yaw': 1.07, 'datetime': '2018-10-12 17:22:57.795830', 'mgs': 0, 'depth': -1.132, 'time': 4.97, 'pitch': 0.29, 'roll': -8.22}
{'lipoC2': 7.67, 'temp': 26.88, 'lipoC3S3': 12.01, 'rot1': 0, 'rot0': 0, 'rot3': 0, 'rot2': 0, 'state': 'normal', 'yaw': 1.07, 'datetime': '2018-10-12 17:22:57.887509', 'mgs': 0, 'depth': -1.132, 'time': 5.07, 'pitch': 0.29, 'roll': -8.22}
{'lipoC2': 7.68, 'temp': 26.88, 'lipoC3S3': 12.02, 'rot1': 0, 'rot0': 0, 'rot3': 0, 'rot2': 0, 'state': 'normal', 'yaw': 1.07, 'datetime': '2018-10-12 17:22:57.984917', 'mgs': 0, 'depth': -1.056, 'time': 5.17, 'pitch': 0.29, 'roll': -8.22}
{'lipoC2': 7.68, 'temp': 26.88, 'lipoC3S3': 12.01, 'rot1': 0, 'rot0': 0, 'rot3': 0, 'rot2': 0, 'state': 'normal', 'yaw': 1.07, 'datetime': '2018-10-12 17:22:58.081990', 'mgs': 0, 'depth': -1.056, 'time': 5.26, 'pitch': 0.29, 'roll': -8.22}
{'lipoC2': 7.68, 'temp': 26.81, 'lipoC3S3': 12.01, 'rot1': 0, 'rot0': 0, 'rot3': 0, 'rot2': 0, 'state': 'normal', 'yaw': 1.07, 'datetime': '2018-10-12 17:22:58.179918', 'mgs': 0, 'depth': -1.056, 'time': 5.36, 'pitch': 0.29, 'roll': -8.22}
{'lipoC2': 7.68, 'temp': 26.81, 'lipoC3S3': 12.01, 'rot1': 0, 'rot0': 0, 'rot3': 0, 'rot2': 0, 'state': 'normal', 'yaw': 1.07, 'datetime': '2018-10-12 17:22:58.278318', 'mgs': 0, 'depth': -1.056, 'time': 5.46, 'pitch': 0.29, 'roll': -8.22}
{'lipoC2': 7.68, 'temp': 26.81, 'lipoC3S3': 12.01, 'rot1': 0, 'rot0': 0, 'rot3': 0, 'rot2': 0, 'state': 'normal', 'yaw': 1.07, 'datetime': '2018-10-12 17:22:58.375786', 'mgs': 0, 'depth': -1.056, 'time': 5.56, 'pitch': 0.29, 'roll': -8.22}
{'lipoC2': 7.68, 'temp': 26.81, 'lipoC3S3': 12.02, 'rot1': 0, 'rot0': 0, 'rot3': 0, 'rot2': 0, 'state': 'normal', 'yaw': 1.07, 'datetime': '2018-10-12 17:22:58.472905', 'mgs': 0, 'depth': -1.056, 'time': 5.66, 'pitch': 0.29, 'roll': -8.22}
{'lipoC2': 7.68, 'temp': 26.81, 'lipoC3S3': 12.01, 'rot1': 0, 'rot0': 0, 'rot3': 0, 'rot2': 0, 'state': 'normal', 'yaw': 1.07, 'datetime': '2018-10-12 17:22:58.575670', 'mgs': 0, 'depth': -1.056, 'time': 5.75, 'pitch': 0.29, 'roll': -8.22}
{'lipoC2': 7.67, 'temp': 26.75, 'lipoC3S3': 12.01, 'rot1': 0, 'rot0': 0, 'rot3': 0, 'rot2': 0, 'state': 'normal', 'yaw': 1.07, 'datetime': '2018-10-12 17:22:58.674449', 'mgs': 0, 'depth': -1.132, 'time': 5.85, 'pitch': 0.29, 'roll': -8.22}
{'lipoC2': 7.67, 'temp': 26.75, 'lipoC3S3': 12.01, 'rot1': 0, 'rot0': 0, 'rot3': 0, 'rot2': 0, 'state': 'normal', 'yaw': 1.07, 'datetime': '2018-10-12 17:22:58.772348', 'mgs': 0, 'depth': -0.98, 'time': 5.95, 'pitch': 0.29, 'roll': -8.22}
{'lipoC2': 7.67, 'temp': 26.75, 'lipoC3S3': 12.01, 'rot1': 0, 'rot0': 0, 'rot3': 0, 'rot2': 0, 'state': 'normal', 'yaw': 1.07, 'datetime': '2018-10-12 17:22:58.869437', 'mgs': 0, 'depth': -1.132, 'time': 6.05, 'pitch': 0.29, 'roll': -8.22}
{'lipoC2': 7.68, 'temp': 26.81, 'lipoC3S3': 12.02, 'rot1': 0, 'rot0': 0, 'rot3': 0, 'rot2': 0, 'state': 'normal', 'yaw': 1.01, 'datetime': '2018-10-12 17:22:58.966989', 'mgs': 0, 'depth': -1.056, 'time': 6.14, 'pitch': 0.29, 'roll': -8.22}
{'lipoC2': 7.68, 'temp': 26.81, 'lipoC3S3': 12.02, 'rot1': 0, 'rot0': 0, 'rot3': 0, 'rot2': 0, 'state': 'normal', 'yaw': 1.01, 'datetime': '2018-10-12 17:22:59.065477', 'mgs': 0, 'depth': -1.056, 'time': 6.24, 'pitch': 0.28, 'roll': -8.22}
{'lipoC2': 7.67, 'temp': 26.81, 'lipoC3S3': 12.01, 'rot1': 0, 'rot0': 0, 'rot3': 0, 'rot2': 0, 'state': 'normal', 'yaw': 0.93, 'datetime': '2018-10-12 17:22:59.163021', 'mgs': 0, 'depth': -1.056, 'time': 6.34, 'pitch': 0.24, 'roll': -8.21}
{'lipoC2': 7.68, 'temp': 26.81, 'lipoC3S3': 12.01, 'rot1': 0, 'rot0': 0, 'rot3': 0, 'rot2': 0, 'state': 'normal', 'yaw': 0.9, 'datetime': '2018-10-12 17:22:59.260000', 'mgs': 0, 'depth': -1.056, 'time': 6.44, 'pitch': 0.23, 'roll': -8.22}
{'lipoC2': 7.68, 'temp': 26.81, 'lipoC3S3': 12.01, 'rot1': 0, 'rot0': 0, 'rot3': 0, 'rot2': 0, 'state': 'normal', 'yaw': 0.92, 'datetime': '2018-10-12 17:22:59.357267', 'mgs': 0, 'depth': -1.056, 'time': 6.54, 'pitch': 0.24, 'roll': -8.31}
{'lipoC2': 7.67, 'temp': 26.88, 'lipoC3S3': 12.01, 'rot1': 0, 'rot0': 0, 'rot3': 0, 'rot2': 0, 'state': 'normal', 'yaw': 1.14, 'datetime': '2018-10-12 17:22:59.454367', 'mgs': 0, 'depth': -0.98, 'time': 6.63, 'pitch': 0.23, 'roll': -8.37}
{'lipoC2': 7.67, 'temp': 26.88, 'lipoC3S3': 12.01, 'rot1': 0, 'rot0': 0, 'rot3': 0, 'rot2': 0, 'state': 'normal', 'yaw': 1.04, 'datetime': '2018-10-12 17:22:59.551661', 'mgs': 0, 'depth': -1.132, 'time': 6.73, 'pitch': 0.05, 'roll': -8.24}
{'lipoC2': 7.67, 'temp': 26.81, 'lipoC3S3': 12.01, 'rot1': 0, 'rot0': 0, 'rot3': 0, 'rot2': 0, 'state': 'normal', 'yaw': 0.52, 'datetime': '2018-10-12 17:22:59.648661', 'mgs': 0, 'depth': -1.132, 'time': 6.83, 'pitch': -0.4, 'roll': -7.95}
{'lipoC2': 7.67, 'temp': 26.81, 'lipoC3S3': 12.01, 'rot1': 0, 'rot0': 0, 'rot3': 0, 'rot2': 0, 'state': 'normal', 'yaw': 0.06, 'datetime': '2018-10-12 17:22:59.747036', 'mgs': 0, 'depth': -0.98, 'time': 6.93, 'pitch': -0.47, 'roll': -7.34}
{'lipoC2': 7.68, 'temp': 26.81, 'lipoC3S3': 12.01, 'rot1': 0, 'rot0': 0, 'rot3': 0, 'rot2': 0, 'state': 'normal', 'yaw': -0.04, 'datetime': '2018-10-12 17:22:59.845357', 'mgs': 0, 'depth': -1.056, 'time': 7.02, 'pitch': -0.13, 'roll': -6.92}
{'lipoC2': 7.67, 'temp': 26.88, 'lipoC3S3': 12.01, 'rot1': 0, 'rot0': 0, 'rot3': 0, 'rot2': 0, 'state': 'normal', 'yaw': -0.12, 'datetime': '2018-10-12 17:22:59.942520', 'mgs': 0, 'depth': -1.132, 'time': 7.12, 'pitch': -0.16, 'roll': -5.99}
{'lipoC2': 7.68, 'temp': 26.88, 'lipoC3S3': 12.01, 'rot1': 0, 'rot0': 0, 'rot3': 0, 'rot2': 0, 'state': 'normal', 'yaw': -0.75, 'datetime': '2018-10-12 17:23:00.039636', 'mgs': 0, 'depth': -1.056, 'time': 7.22, 'pitch': -0.4, 'roll': -6.39}
{'lipoC2': 7.67, 'temp': 26.81, 'lipoC3S3': 12.01, 'rot1': 0, 'rot0': 0, 'rot3': 0, 'rot2': 0, 'state': 'normal', 'yaw': -1.08, 'datetime': '2018-10-12 17:23:00.138078', 'mgs': 0, 'depth': -1.056, 'time': 7.32, 'pitch': -0.36, 'roll': -6.37}
{'lipoC2': 7.67, 'temp': 26.81, 'lipoC3S3': 12.01, 'rot1': 0, 'rot0': 0, 'rot3': 0, 'rot2': 0, 'state': 'normal', 'yaw': -0.99, 'datetime': '2018-10-12 17:23:00.236506', 'mgs': 0, 'depth': -1.056, 'time': 7.41, 'pitch': -0.23, 'roll': -6.17}
{'lipoC2': 7.67, 'temp': 26.81, 'lipoC3S3': 12.01, 'rot1': 0, 'rot0': 0, 'rot3': 0, 'rot2': 0, 'state': 'normal', 'yaw': -0.91, 'datetime': '2018-10-12 17:23:00.333757', 'mgs': 0, 'depth': -1.132, 'time': 7.51, 'pitch': 0.19, 'roll': -5.58}
{'lipoC2': 7.67, 'temp': 26.81, 'lipoC3S3': 12.01, 'rot1': 0, 'rot0': 0, 'rot3': 0, 'rot2': 0, 'state': 'normal', 'yaw': -1.02, 'datetime': '2018-10-12 17:23:00.430855', 'mgs': 0, 'depth': -1.056, 'time': 7.61, 'pitch': -1.09, 'roll': -5.93}
{'lipoC2': 7.68, 'temp': 26.81, 'lipoC3S3': 12.01, 'rot1': 0, 'rot0': 0, 'rot3': 0, 'rot2': 0, 'state': 'normal', 'yaw': -0.09, 'datetime': '2018-10-12 17:23:00.529038', 'mgs': 0, 'depth': -1.056, 'time': 7.71, 'pitch': -0.3, 'roll': -6.32}
{'lipoC2': 7.68, 'temp': 26.81, 'lipoC3S3': 12.01, 'rot1': 0, 'rot0': 0, 'rot3': 0, 'rot2': 0, 'state': 'normal', 'yaw': 0.79, 'datetime': '2018-10-12 17:23:00.627489', 'mgs': 0, 'depth': -1.056, 'time': 7.81, 'pitch': 0.2, 'roll': -6.51}
{'lipoC2': 7.67, 'temp': 26.81, 'lipoC3S3': 12.01, 'rot1': 0, 'rot0': 0, 'rot3': 0, 'rot2': 0, 'state': 'normal', 'yaw': 0.67, 'datetime': '2018-10-12 17:23:00.724534', 'mgs': 0, 'depth': -0.98, 'time': 7.9, 'pitch': -0.45, 'roll': -6.48}
{'lipoC2': 7.67, 'temp': 26.81, 'lipoC3S3': 12.01, 'rot1': 0, 'rot0': 0, 'rot3': 0, 'rot2': 0, 'state': 'normal', 'yaw': -0.28, 'datetime': '2018-10-12 17:23:00.821671', 'mgs': 0, 'depth': -1.056, 'time': 8.0, 'pitch': -0.01, 'roll': -6.65}
{'lipoC2': 7.68, 'temp': 26.81, 'lipoC3S3': 12.02, 'rot1': 0, 'rot0': 0, 'rot3': 0, 'rot2': 0, 'state': 'normal', 'yaw': -0.73, 'datetime': '2018-10-12 17:23:00.918760', 'mgs': 0, 'depth': -1.056, 'time': 8.1, 'pitch': -0.24, 'roll': -6.63}
{'lipoC2': 7.67, 'temp': 26.81, 'lipoC3S3': 12.01, 'rot1': 0, 'rot0': 0, 'rot3': 0, 'rot2': 0, 'state': 'normal', 'yaw': -0.97, 'datetime': '2018-10-12 17:23:01.016215', 'mgs': 0, 'depth': -1.056, 'time': 8.2, 'pitch': -0.08, 'roll': -6.89}
{'lipoC2': 7.68, 'temp': 26.88, 'lipoC3S3': 12.01, 'rot1': 0, 'rot0': 0, 'rot3': 0, 'rot2': 0, 'state': 'normal', 'yaw': -0.76, 'datetime': '2018-10-12 17:23:01.113112', 'mgs': 0, 'depth': -1.056, 'time': 8.29, 'pitch': 0.18, 'roll': -7.34}
{'lipoC2': 7.68, 'temp': 26.88, 'lipoC3S3': 12.01, 'rot1': 0, 'rot0': 0, 'rot3': 0, 'rot2': 0, 'state': 'normal', 'yaw': -0.65, 'datetime': '2018-10-12 17:23:01.210360', 'mgs': 0, 'depth': -0.98, 'time': 8.39, 'pitch': -0.06, 'roll': -7.95}
{'lipoC2': 7.67, 'temp': 26.81, 'lipoC3S3': 12.01, 'rot1': 0, 'rot0': 0, 'rot3': 0, 'rot2': 0, 'state': 'normal', 'yaw': -0.52, 'datetime': '2018-10-12 17:23:01.307481', 'mgs': 0, 'depth': -1.056, 'time': 8.49, 'pitch': -0.47, 'roll': -9.12}
{'lipoC2': 7.67, 'temp': 26.81, 'lipoC3S3': 12.01, 'rot1': 0, 'rot0': 0, 'rot3': 0, 'rot2': 0, 'state': 'normal', 'yaw': 0.14, 'datetime': '2018-10-12 17:23:01.404591', 'mgs': 0, 'depth': -1.056, 'time': 8.59, 'pitch': 0.59, 'roll': -9.62}
{'lipoC2': 7.68, 'temp': 26.81, 'lipoC3S3': 12.02, 'rot1': 0, 'rot0': 0, 'rot3': 0, 'rot2': 0, 'state': 'normal', 'yaw': 0.53, 'datetime': '2018-10-12 17:23:01.501735', 'mgs': 0, 'depth': -1.132, 'time': 8.68, 'pitch': 0.44, 'roll': -9.53}
{'lipoC2': 7.68, 'temp': 26.81, 'lipoC3S3': 12.01, 'rot1': 0, 'rot0': 0, 'rot3': 0, 'rot2': 0, 'state': 'normal', 'yaw': 0.2, 'datetime': '2018-10-12 17:23:01.600124', 'mgs': 0, 'depth': -0.98, 'time': 8.78, 'pitch': 0.13, 'roll': -9.23}
{'lipoC2': 7.67, 'temp': 26.81, 'lipoC3S3': 12.01, 'rot1': 0, 'rot0': 0, 'rot3': 0, 'rot2': 0, 'state': 'normal', 'yaw': -1.07, 'datetime': '2018-10-12 17:23:01.698610', 'mgs': 0, 'depth': -1.056, 'time': 8.88, 'pitch': 0.63, 'roll': -9.82}
{'lipoC2': 7.68, 'temp': 26.81, 'lipoC3S3': 12.01, 'rot1': 0, 'rot0': 0, 'rot3': 0, 'rot2': 0, 'state': 'normal', 'yaw': -2.33, 'datetime': '2018-10-12 17:23:01.795698', 'mgs': 0, 'depth': -0.98, 'time': 8.98, 'pitch': 0.29, 'roll': -9.61}
{'lipoC2': 7.67, 'temp': 26.81, 'lipoC3S3': 12.01, 'rot1': 0, 'rot0': 0, 'rot3': 0, 'rot2': 0, 'state': 'normal', 'yaw': -3.37, 'datetime': '2018-10-12 17:23:01.892788', 'mgs': 0, 'depth': -1.056, 'time': 9.07, 'pitch': 0.13, 'roll': -9.69}
{'lipoC2': 7.68, 'temp': 26.81, 'lipoC3S3': 12.01, 'rot1': 0, 'rot0': 0, 'rot3': 0, 'rot2': 0, 'state': 'normal', 'yaw': -4.11, 'datetime': '2018-10-12 17:23:01.991256', 'mgs': 0, 'depth': -0.98, 'time': 9.17, 'pitch': -0.12, 'roll': -9.71}
{'lipoC2': 7.67, 'temp': 26.81, 'lipoC3S3': 12.01, 'rot1': 0, 'rot0': 0, 'rot3': 0, 'rot2': 0, 'state': 'normal', 'yaw': -5.0, 'datetime': '2018-10-12 17:23:02.089549', 'mgs': 0, 'depth': -1.056, 'time': 9.27, 'pitch': -0.21, 'roll': -9.59}
{'lipoC2': 7.67, 'temp': 26.81, 'lipoC3S3': 12.01, 'rot1': 0, 'rot0': 0, 'rot3': 0, 'rot2': 0, 'state': 'normal', 'yaw': -6.1, 'datetime': '2018-10-12 17:23:02.186717', 'mgs': 0, 'depth': -0.98, 'time': 9.37, 'pitch': -0.26, 'roll': -9.74}
{'lipoC2': 7.67, 'temp': 26.88, 'lipoC3S3': 12.01, 'rot1': 0, 'rot0': 0, 'rot3': 0, 'rot2': 0, 'state': 'normal', 'yaw': -7.04, 'datetime': '2018-10-12 17:23:02.283816', 'mgs': 0, 'depth': -1.056, 'time': 9.46, 'pitch': -0.43, 'roll': -9.87}
{'lipoC2': 7.68, 'temp': 26.88, 'lipoC3S3': 12.01, 'rot1': 0, 'rot0': 0, 'rot3': 0, 'rot2': 0, 'state': 'normal', 'yaw': -7.7, 'datetime': '2018-10-12 17:23:02.382177', 'mgs': 0, 'depth': -1.056, 'time': 9.56, 'pitch': -0.56, 'roll': -9.82}
{'lipoC2': 7.68, 'temp': 26.88, 'lipoC3S3': 12.01, 'rot1': 0, 'rot0': 0, 'rot3': 0, 'rot2': 0, 'state': 'normal', 'yaw': -8.12, 'datetime': '2018-10-12 17:23:02.480458', 'mgs': 0, 'depth': -1.056, 'time': 9.66, 'pitch': -0.39, 'roll': -10.23}
{'lipoC2': 7.68, 'temp': 26.81, 'lipoC3S3': 12.01, 'rot1': 0, 'rot0': 0, 'rot3': 0, 'rot2': 0, 'state': 'normal', 'yaw': -8.31, 'datetime': '2018-10-12 17:23:02.577776', 'mgs': 0, 'depth': -0.98, 'time': 9.76, 'pitch': -0.47, 'roll': -10.6}
{'lipoC2': 7.67, 'temp': 26.81, 'lipoC3S3': 12.01, 'rot1': 0, 'rot0': 0, 'rot3': 0, 'rot2': 0, 'state': 'normal', 'yaw': -7.95, 'datetime': '2018-10-12 17:23:02.674738', 'mgs': 0, 'depth': -1.132, 'time': 9.86, 'pitch': -0.56, 'roll': -10.81}
{'lipoC2': 7.67, 'temp': 26.88, 'lipoC3S3': 12.01, 'rot1': 0, 'rot0': 0, 'rot3': 0, 'rot2': 0, 'state': 'normal', 'yaw': -7.45, 'datetime': '2018-10-12 17:23:02.771810', 'mgs': 0, 'depth': -1.056, 'time': 9.95, 'pitch': -0.36, 'roll': -11.02}
{'lipoC2': 7.67, 'temp': 26.88, 'lipoC3S3': 12.01, 'rot1': 0, 'rot0': 0, 'rot3': 0, 'rot2': 0, 'state': 'normal', 'yaw': -6.75, 'datetime': '2018-10-12 17:23:02.868980', 'mgs': 0, 'depth': -1.056, 'time': 10.05, 'pitch': -0.32, 'roll': -11.41}
{'lipoC2': 7.67, 'temp': 26.88, 'lipoC3S3': 12.01, 'rot1': 0, 'rot0': 0, 'rot3': 0, 'rot2': 0, 'state': 'normal', 'yaw': -6.15, 'datetime': '2018-10-12 17:23:02.966079', 'mgs': 0, 'depth': -1.056, 'time': 10.15, 'pitch': -0.0, 'roll': -11.69}
{'lipoC2': 7.67, 'temp': 26.88, 'lipoC3S3': 12.01, 'rot1': 0, 'rot0': 0, 'rot3': 0, 'rot2': 0, 'state': 'normal', 'yaw': -5.91, 'datetime': '2018-10-12 17:23:03.063369', 'mgs': 0, 'depth': -0.98, 'time': 10.25, 'pitch': -0.46, 'roll': -12.07}
{'lipoC2': 7.68, 'temp': 26.88, 'lipoC3S3': 12.01, 'rot1': 0, 'rot0': 0, 'rot3': 0, 'rot2': 0, 'state': 'normal', 'yaw': -5.47, 'datetime': '2018-10-12 17:23:03.160595', 'mgs': 0, 'depth': -1.056, 'time': 10.34, 'pitch': -0.14, 'roll': -12.21}
{'lipoC2': 7.68, 'temp': 26.88, 'lipoC3S3': 12.01, 'rot1': 0, 'rot0': 0, 'rot3': 0, 'rot2': 0, 'state': 'normal', 'yaw': -4.77, 'datetime': '2018-10-12 17:23:03.257683', 'mgs': 0, 'depth': -0.98, 'time': 10.44, 'pitch': -0.2, 'roll': -12.4}
{'lipoC2': 7.67, 'temp': 26.88, 'lipoC3S3': 12.01, 'rot1': 0, 'rot0': 0, 'rot3': 0, 'rot2': 0, 'state': 'normal', 'yaw': -4.37, 'datetime': '2018-10-12 17:23:03.354774', 'mgs': 0, 'depth': -1.056, 'time': 10.54, 'pitch': -0.05, 'roll': -12.58}
{'lipoC2': 7.68, 'temp': 26.88, 'lipoC3S3': 12.01, 'rot1': 0, 'rot0': 0, 'rot3': 0, 'rot2': 0, 'state': 'normal', 'yaw': -4.61, 'datetime': '2018-10-12 17:23:03.453209', 'mgs': 0, 'depth': -1.056, 'time': 10.64, 'pitch': -0.04, 'roll': -12.47}
{'lipoC2': 7.68, 'temp': 26.81, 'lipoC3S3': 12.01, 'rot1': 0, 'rot0': 0, 'rot3': 0, 'rot2': 0, 'state': 'normal', 'yaw': -5.81, 'datetime': '2018-10-12 17:23:03.551579', 'mgs': 0, 'depth': -1.056, 'time': 10.73, 'pitch': -0.59, 'roll': -12.41}
{'lipoC2': 7.68, 'temp': 26.81, 'lipoC3S3': 12.01, 'rot1': 0, 'rot0': 0, 'rot3': 0, 'rot2': 0, 'state': 'normal', 'yaw': -7.54, 'datetime': '2018-10-12 17:23:03.648699', 'mgs': 0, 'depth': -1.056, 'time': 10.83, 'pitch': -0.58, 'roll': -12.64}
{'lipoC2': 7.68, 'temp': 26.88, 'lipoC3S3': 12.01, 'rot1': 0, 'rot0': 0, 'rot3': 0, 'rot2': 0, 'state': 'normal', 'yaw': -9.12, 'datetime': '2018-10-12 17:23:03.745787', 'mgs': 0, 'depth': -1.056, 'time': 10.93, 'pitch': -0.93, 'roll': -12.29}
{'lipoC2': 7.67, 'temp': 26.88, 'lipoC3S3': 12.01, 'rot1': 0, 'rot0': 0, 'rot3': 0, 'rot2': 0, 'state': 'normal', 'yaw': -10.02, 'datetime': '2018-10-12 17:23:03.844221', 'mgs': 0, 'depth': -1.056, 'time': 11.03, 'pitch': -0.89, 'roll': -12.23}
{'lipoC2': 7.68, 'temp': 26.88, 'lipoC3S3': 12.01, 'rot1': 0, 'rot0': 0, 'rot3': 0, 'rot2': 0, 'state': 'normal', 'yaw': -10.16, 'datetime': '2018-10-12 17:23:03.942617', 'mgs': 0, 'depth': -1.056, 'time': 11.13, 'pitch': -0.76, 'roll': -11.95}
{'lipoC2': 7.68, 'temp': 26.81, 'lipoC3S3': 12.01, 'rot1': 0, 'rot0': 0, 'rot3': 0, 'rot2': 0, 'state': 'normal', 'yaw': -10.4, 'datetime': '2018-10-12 17:23:04.040695', 'mgs': 0, 'depth': -1.132, 'time': 11.22, 'pitch': -0.44, 'roll': -11.76}
{'lipoC2': 7.68, 'temp': 26.81, 'lipoC3S3': 12.02, 'rot1': 0, 'rot0': 0, 'rot3': 0, 'rot2': 0, 'state': 'normal', 'yaw': -10.52, 'datetime': '2018-10-12 17:23:04.137764', 'mgs': 0, 'depth': -0.98, 'time': 11.32, 'pitch': -0.64, 'roll': -11.44}
{'lipoC2': 7.68, 'temp': 26.81, 'lipoC3S3': 12.01, 'rot1': 0, 'rot0': 0, 'rot3': 0, 'rot2': 0, 'state': 'normal', 'yaw': -10.19, 'datetime': '2018-10-12 17:23:04.235453', 'mgs': 0, 'depth': -1.056, 'time': 11.42, 'pitch': -0.67, 'roll': -11.42}
{'lipoC2': 7.67, 'temp': 26.81, 'lipoC3S3': 12.01, 'rot1': 0, 'rot0': 0, 'rot3': 0, 'rot2': 0, 'state': 'normal', 'yaw': -9.14, 'datetime': '2018-10-12 17:23:04.333854', 'mgs': 0, 'depth': -1.132, 'time': 11.52, 'pitch': -0.4, 'roll': -11.13}
{'lipoC2': 7.68, 'temp': 26.81, 'lipoC3S3': 12.01, 'rot1': 0, 'rot0': 0, 'rot3': 0, 'rot2': 0, 'state': 'normal', 'yaw': -8.11, 'datetime': '2018-10-12 17:23:04.431024', 'mgs': 0, 'depth': -1.056, 'time': 11.61, 'pitch': -0.48, 'roll': -11.01}
{'lipoC2': 7.67, 'temp': 26.81, 'lipoC3S3': 12.01, 'rot1': 0, 'rot0': 0, 'rot3': 0, 'rot2': 0, 'state': 'normal', 'yaw': -7.62, 'datetime': '2018-10-12 17:23:04.528181', 'mgs': 0, 'depth': -0.98, 'time': 11.71, 'pitch': -0.5, 'roll': -10.88}
{'lipoC2': 7.68, 'temp': 26.81, 'lipoC3S3': 12.01, 'rot1': 0, 'rot0': 0, 'rot3': 0, 'rot2': 0, 'state': 'normal', 'yaw': -7.41, 'datetime': '2018-10-12 17:23:04.625469', 'mgs': 0, 'depth': -1.056, 'time': 11.81, 'pitch': -0.3, 'roll': -10.65}
{'lipoC2': 7.68, 'temp': 26.81, 'lipoC3S3': 12.01, 'rot1': 0, 'rot0': 0, 'rot3': 0, 'rot2': 0, 'state': 'normal', 'yaw': -6.79, 'datetime': '2018-10-12 17:23:04.722599', 'mgs': 0, 'depth': -1.056, 'time': 11.91, 'pitch': -0.17, 'roll': -10.36}
{'lipoC2': 7.68, 'temp': 26.81, 'lipoC3S3': 12.01, 'rot1': 0, 'rot0': 0, 'rot3': 0, 'rot2': 0, 'state': 'normal', 'yaw': -6.53, 'datetime': '2018-10-12 17:23:04.819713', 'mgs': 0, 'depth': -1.056, 'time': 12.0, 'pitch': -0.13, 'roll': -10.58}
{'lipoC2': 7.67, 'temp': 26.81, 'lipoC3S3': 12.01, 'rot1': 0, 'rot0': 0, 'rot3': 0, 'rot2': 0, 'state': 'normal', 'yaw': -6.25, 'datetime': '2018-10-12 17:23:04.916917', 'mgs': 0, 'depth': -1.132, 'time': 12.1, 'pitch': -0.0, 'roll': -10.14}
{'lipoC2': 7.67, 'temp': 26.81, 'lipoC3S3': 12.01, 'rot1': 0, 'rot0': 0, 'rot3': 0, 'rot2': 0, 'state': 'normal', 'yaw': -6.01, 'datetime': '2018-10-12 17:23:05.014014', 'mgs': 0, 'depth': -1.056, 'time': 12.2, 'pitch': -0.01, 'roll': -10.2}
{'lipoC2': 7.67, 'temp': 26.81, 'lipoC3S3': 12.01, 'rot1': 0, 'rot0': 0, 'rot3': 0, 'rot2': 0, 'state': 'normal', 'yaw': -5.8, 'datetime': '2018-10-12 17:23:05.111174', 'mgs': 0, 'depth': -1.056, 'time': 12.3, 'pitch': -0.05, 'roll': -9.89}
{'lipoC2': 7.67, 'temp': 26.81, 'lipoC3S3': 12.01, 'rot1': 0, 'rot0': 0, 'rot3': 0, 'rot2': 0, 'state': 'normal', 'yaw': -5.77, 'datetime': '2018-10-12 17:23:05.208307', 'mgs': 0, 'depth': -1.056, 'time': 12.39, 'pitch': -0.27, 'roll': -9.74}
{'lipoC2': 7.67, 'temp': 26.81, 'lipoC3S3': 12.01, 'rot1': 0, 'rot0': 0, 'rot3': 0, 'rot2': 0, 'state': 'normal', 'yaw': -5.74, 'datetime': '2018-10-12 17:23:05.306747', 'mgs': 0, 'depth': -1.056, 'time': 12.49, 'pitch': -0.15, 'roll': -9.66}
{'lipoC2': 7.68, 'temp': 26.81, 'lipoC3S3': 12.01, 'rot1': 0, 'rot0': 0, 'rot3': 0, 'rot2': 0, 'state': 'normal', 'yaw': -5.81, 'datetime': '2018-10-12 17:23:05.403445', 'mgs': 0, 'depth': -1.056, 'time': 12.59, 'pitch': -0.16, 'roll': -9.66}
{'lipoC2': 7.68, 'temp': 26.81, 'lipoC3S3': 12.01, 'rot1': 0, 'rot0': 0, 'rot3': 0, 'rot2': 0, 'state': 'normal', 'yaw': -5.87, 'datetime': '2018-10-12 17:23:05.503181', 'mgs': 0, 'depth': -1.056, 'time': 12.69, 'pitch': -0.28, 'roll': -9.72}
{'lipoC2': 7.68, 'temp': 26.81, 'lipoC3S3': 12.01, 'rot1': 0, 'rot0': 0, 'rot3': 0, 'rot2': 0, 'state': 'normal', 'yaw': -5.73, 'datetime': '2018-10-12 17:23:05.600179', 'mgs': 0, 'depth': -1.056, 'time': 12.78, 'pitch': -0.11, 'roll': -9.77}
{'lipoC2': 7.67, 'temp': 26.81, 'lipoC3S3': 12.01, 'rot1': 0, 'rot0': 0, 'rot3': 0, 'rot2': 0, 'state': 'normal', 'yaw': -5.75, 'datetime': '2018-10-12 17:23:05.697928', 'mgs': 0, 'depth': -1.056, 'time': 12.88, 'pitch': -0.1, 'roll': -9.88}
{'lipoC2': 7.68, 'temp': 26.81, 'lipoC3S3': 12.01, 'rot1': 0, 'rot0': 0, 'rot3': 0, 'rot2': 0, 'state': 'normal', 'yaw': -5.95, 'datetime': '2018-10-12 17:23:05.796312', 'mgs': 0, 'depth': -1.056, 'time': 12.98, 'pitch': -0.02, 'roll': -9.08}
{'lipoC2': 7.67, 'temp': 26.81, 'lipoC3S3': 12.01, 'rot1': 0, 'rot0': 0, 'rot3': 0, 'rot2': 0, 'state': 'normal', 'yaw': -6.94, 'datetime': '2018-10-12 17:23:05.894435', 'mgs': 0, 'depth': -1.132, 'time': 13.08, 'pitch': -0.13, 'roll': -9.77}
{'lipoC2': 7.68, 'temp': 26.81, 'lipoC3S3': 12.01, 'rot1': 0, 'rot0': 0, 'rot3': 0, 'rot2': 0, 'state': 'normal', 'yaw': -8.06, 'datetime': '2018-10-12 17:23:05.991499', 'mgs': 0, 'depth': -1.056, 'time': 13.18, 'pitch': -0.62, 'roll': -9.36}
{'lipoC2': 7.67, 'temp': 26.81, 'lipoC3S3': 12.01, 'rot1': 0, 'rot0': 0, 'rot3': 0, 'rot2': 0, 'state': 'normal', 'yaw': -8.65, 'datetime': '2018-10-12 17:23:06.088928', 'mgs': 0, 'depth': -1.132, 'time': 13.27, 'pitch': -0.45, 'roll': -9.61}
{'lipoC2': 7.67, 'temp': 26.88, 'lipoC3S3': 12.01, 'rot1': 0, 'rot0': 0, 'rot3': 0, 'rot2': 0, 'state': 'normal', 'yaw': -8.56, 'datetime': '2018-10-12 17:23:06.187347', 'mgs': 0, 'depth': -1.056, 'time': 13.37, 'pitch': -0.55, 'roll': -9.41}
{'lipoC2': 7.67, 'temp': 26.88, 'lipoC3S3': 12.01, 'rot1': 0, 'rot0': 0, 'rot3': 0, 'rot2': 0, 'state': 'normal', 'yaw': -8.12, 'datetime': '2018-10-12 17:23:06.284624', 'mgs': 0, 'depth': -1.056, 'time': 13.47, 'pitch': -0.42, 'roll': -9.34}
{'lipoC2': 7.67, 'temp': 26.88, 'lipoC3S3': 12.01, 'rot1': 0, 'rot0': 0, 'rot3': 0, 'rot2': 0, 'state': 'normal', 'yaw': -7.13, 'datetime': '2018-10-12 17:23:06.381756', 'mgs': 0, 'depth': -1.132, 'time': 13.57, 'pitch': -0.04, 'roll': -9.8}
{'lipoC2': 7.67, 'temp': 26.81, 'lipoC3S3': 12.02, 'rot1': 0, 'rot0': 0, 'rot3': 0, 'rot2': 0, 'state': 'normal', 'yaw': -6.12, 'datetime': '2018-10-12 17:23:06.479175', 'mgs': 0, 'depth': -1.056, 'time': 13.66, 'pitch': -0.16, 'roll': -9.52}
{'lipoC2': 7.67, 'temp': 26.81, 'lipoC3S3': 12.01, 'rot1': 0, 'rot0': 0, 'rot3': 0, 'rot2': 0, 'state': 'normal', 'yaw': -5.33, 'datetime': '2018-10-12 17:23:06.576272', 'mgs': 0, 'depth': -1.056, 'time': 13.76, 'pitch': -0.17, 'roll': -9.95}
{'lipoC2': 7.68, 'temp': 26.81, 'lipoC3S3': 12.01, 'rot1': 0, 'rot0': 0, 'rot3': 0, 'rot2': 0, 'state': 'normal', 'yaw': -4.47, 'datetime': '2018-10-12 17:23:06.673417', 'mgs': 0, 'depth': -1.056, 'time': 13.86, 'pitch': 0.01, 'roll': -9.75}
{'lipoC2': 7.67, 'temp': 26.81, 'lipoC3S3': 12.01, 'rot1': 0, 'rot0': 0, 'rot3': 0, 'rot2': 0, 'state': 'normal', 'yaw': -3.5, 'datetime': '2018-10-12 17:23:06.770515', 'mgs': 0, 'depth': -1.056, 'time': 13.96, 'pitch': 0.11, 'roll': -10.12}
{'lipoC2': 7.67, 'temp': 26.81, 'lipoC3S3': 12.01, 'rot1': 0, 'rot0': 0, 'rot3': 0, 'rot2': 0, 'state': 'normal', 'yaw': -2.73, 'datetime': '2018-10-12 17:23:06.867660', 'mgs': 0, 'depth': -1.056, 'time': 14.05, 'pitch': 0.15, 'roll': -9.86}
{'lipoC2': 7.68, 'temp': 26.81, 'lipoC3S3': 12.0, 'rot1': 0, 'rot0': 0, 'rot3': 0, 'rot2': 0, 'state': 'normal', 'yaw': -1.91, 'datetime': '2018-10-12 17:23:06.964810', 'mgs': 0, 'depth': -0.98, 'time': 14.15, 'pitch': 0.54, 'roll': -9.82}
{'lipoC2': 7.68, 'temp': 26.81, 'lipoC3S3': 12.02, 'rot1': 0, 'rot0': 0, 'rot3': 0, 'rot2': 0, 'state': 'normal', 'yaw': -1.66, 'datetime': '2018-10-12 17:23:07.061939', 'mgs': 0, 'depth': -1.056, 'time': 14.25, 'pitch': 0.3, 'roll': -9.8}
{'lipoC2': 7.68, 'temp': 26.81, 'lipoC3S3': 12.01, 'rot1': 0, 'rot0': 0, 'rot3': 0, 'rot2': 0, 'state': 'normal', 'yaw': -1.91, 'datetime': '2018-10-12 17:23:07.159967', 'mgs': 0, 'depth': -1.056, 'time': 14.35, 'pitch': 0.09, 'roll': -9.79}
{'lipoC2': 7.68, 'temp': 26.81, 'lipoC3S3': 12.01, 'rot1': 0, 'rot0': 0, 'rot3': 0, 'rot2': 0, 'state': 'normal', 'yaw': -2.7, 'datetime': '2018-10-12 17:23:07.258479', 'mgs': 0, 'depth': -1.056, 'time': 14.44, 'pitch': 0.38, 'roll': -9.4}
{'lipoC2': 7.67, 'temp': 26.81, 'lipoC3S3': 12.02, 'rot1': 0, 'rot0': 0, 'rot3': 0, 'rot2': 0, 'state': 'normal', 'yaw': -3.55, 'datetime': '2018-10-12 17:23:07.356588', 'mgs': 0, 'depth': -1.056, 'time': 14.54, 'pitch': 0.05, 'roll': -9.98}
{'lipoC2': 7.68, 'temp': 26.81, 'lipoC3S3': 12.01, 'rot1': 0, 'rot0': 0, 'rot3': 0, 'rot2': 0, 'state': 'normal', 'yaw': -4.66, 'datetime': '2018-10-12 17:23:07.453740', 'mgs': 0, 'depth': -1.056, 'time': 14.64, 'pitch': -0.16, 'roll': -9.46}
{'lipoC2': 7.68, 'temp': 26.81, 'lipoC3S3': 12.01, 'rot1': 0, 'rot0': 0, 'rot3': 0, 'rot2': 0, 'state': 'normal', 'yaw': -5.86, 'datetime': '2018-10-12 17:23:07.551096', 'mgs': 0, 'depth': -1.056, 'time': 14.74, 'pitch': -0.26, 'roll': -10.17}
{'lipoC2': 7.67, 'temp': 26.81, 'lipoC3S3': 12.01, 'rot1': 0, 'rot0': 0, 'rot3': 0, 'rot2': 0, 'state': 'normal', 'yaw': -6.96, 'datetime': '2018-10-12 17:23:07.649480', 'mgs': 0, 'depth': -1.056, 'time': 14.84, 'pitch': -0.66, 'roll': -9.92}
{'lipoC2': 7.68, 'temp': 26.81, 'lipoC3S3': 12.01, 'rot1': 0, 'rot0': 0, 'rot3': 0, 'rot2': 0, 'state': 'normal', 'yaw': -8.19, 'datetime': '2018-10-12 17:23:07.747910', 'mgs': 0, 'depth': -1.056, 'time': 14.94, 'pitch': -0.46, 'roll': -9.88}
{'lipoC2': 7.67, 'temp': 26.88, 'lipoC3S3': 12.01, 'rot1': 0, 'rot0': 0, 'rot3': 0, 'rot2': 0, 'state': 'normal', 'yaw': -8.89, 'datetime': '2018-10-12 17:23:07.844938', 'mgs': 0, 'depth': -1.056, 'time': 15.03, 'pitch': -1.03, 'roll': -10.36}
{'lipoC2': 7.67, 'temp': 26.88, 'lipoC3S3': 12.01, 'rot1': 0, 'rot0': 0, 'rot3': 0, 'rot2': 0, 'state': 'normal', 'yaw': -9.46, 'datetime': '2018-10-12 17:23:07.940756', 'mgs': 0, 'depth': -1.132, 'time': 15.13, 'pitch': -0.51, 'roll': -9.8}
{'lipoC2': 7.68, 'temp': 26.88, 'lipoC3S3': 12.01, 'rot1': 0, 'rot0': 0, 'rot3': 0, 'rot2': 0, 'state': 'normal', 'yaw': -9.78, 'datetime': '2018-10-12 17:23:08.040557', 'mgs': 0, 'depth': -1.056, 'time': 15.23, 'pitch': -0.65, 'roll': -10.04}
{'lipoC2': 7.67, 'temp': 26.81, 'lipoC3S3': 12.01, 'rot1': 0, 'rot0': 0, 'rot3': 0, 'rot2': 0, 'state': 'normal', 'yaw': -9.37, 'datetime': '2018-10-12 17:23:08.138167', 'mgs': 0, 'depth': -1.056, 'time': 15.32, 'pitch': -0.56, 'roll': -9.87}
{'lipoC2': 7.67, 'temp': 26.81, 'lipoC3S3': 12.01, 'rot1': 0, 'rot0': 0, 'rot3': 0, 'rot2': 0, 'state': 'normal', 'yaw': -8.6, 'datetime': '2018-10-12 17:23:08.235184', 'mgs': 0, 'depth': -0.98, 'time': 15.42, 'pitch': -0.52, 'roll': -9.68}
{'lipoC2': 7.67, 'temp': 26.81, 'lipoC3S3': 12.01, 'rot1': 0, 'rot0': 0, 'rot3': 0, 'rot2': 0, 'state': 'normal', 'yaw': -8.29, 'datetime': '2018-10-12 17:23:08.332383', 'mgs': 0, 'depth': -1.056, 'time': 15.52, 'pitch': -0.57, 'roll': -9.38}
{'lipoC2': 7.68, 'temp': 26.81, 'lipoC3S3': 12.01, 'rot1': 0, 'rot0': 0, 'rot3': 0, 'rot2': 0, 'state': 'normal', 'yaw': -8.73, 'datetime': '2018-10-12 17:23:08.429627', 'mgs': 0, 'depth': -1.056, 'time': 15.62, 'pitch': -0.59, 'roll': -9.47}
{'lipoC2': 7.68, 'temp': 26.81, 'lipoC3S3': 12.01, 'rot1': 0, 'rot0': 0, 'rot3': 0, 'rot2': 0, 'state': 'normal', 'yaw': -8.97, 'datetime': '2018-10-12 17:23:08.526855', 'mgs': 0, 'depth': -0.98, 'time': 15.71, 'pitch': -0.68, 'roll': -9.54}
{'lipoC2': 7.68, 'temp': 26.81, 'lipoC3S3': 12.01, 'rot1': 0, 'rot0': 0, 'rot3': 0, 'rot2': 0, 'state': 'normal', 'yaw': -8.11, 'datetime': '2018-10-12 17:23:08.623820', 'mgs': 0, 'depth': -0.98, 'time': 15.81, 'pitch': -0.52, 'roll': -9.95}
{'lipoC2': 7.68, 'temp': 26.81, 'lipoC3S3': 12.01, 'rot1': 0, 'rot0': 0, 'rot3': 0, 'rot2': 0, 'state': 'normal', 'yaw': -6.69, 'datetime': '2018-10-12 17:23:08.720996', 'mgs': 0, 'depth': -1.056, 'time': 15.91, 'pitch': -0.62, 'roll': -9.83}
{'lipoC2': 7.68, 'temp': 26.81, 'lipoC3S3': 12.01, 'rot1': 0, 'rot0': 0, 'rot3': 0, 'rot2': 0, 'state': 'normal', 'yaw': -5.76, 'datetime': '2018-10-12 17:23:08.818029', 'mgs': 0, 'depth': -0.98, 'time': 16.01, 'pitch': -0.42, 'roll': -10.13}
{'lipoC2': 7.68, 'temp': 26.81, 'lipoC3S3': 12.02, 'rot1': 0, 'rot0': 0, 'rot3': 0, 'rot2': 0, 'state': 'normal', 'yaw': -5.65, 'datetime': '2018-10-12 17:23:08.915091', 'mgs': 0, 'depth': -1.132, 'time': 16.1, 'pitch': -0.2, 'roll': -9.99}
{'lipoC2': 7.68, 'temp': 26.81, 'lipoC3S3': 12.01, 'rot1': 0, 'rot0': 0, 'rot3': 0, 'rot2': 0, 'state': 'normal', 'yaw': -6.46, 'datetime': '2018-10-12 17:23:09.013075', 'mgs': 0, 'depth': -1.056, 'time': 16.2, 'pitch': -0.25, 'roll': -10.49}
{'lipoC2': 7.67, 'temp': 26.81, 'lipoC3S3': 12.01, 'rot1': 0, 'rot0': 0, 'rot3': 0, 'rot2': 0, 'state': 'normal', 'yaw': -7.72, 'datetime': '2018-10-12 17:23:09.111621', 'mgs': 0, 'depth': -1.056, 'time': 16.3, 'pitch': -0.51, 'roll': -10.65}
{'lipoC2': 7.68, 'temp': 26.81, 'lipoC3S3': 12.01, 'rot1': 0, 'rot0': 0, 'rot3': 0, 'rot2': 0, 'state': 'normal', 'yaw': -8.91, 'datetime': '2018-10-12 17:23:09.207226', 'mgs': 0, 'depth': -1.056, 'time': 16.4, 'pitch': -0.27, 'roll': -10.31}
{'lipoC2': 7.67, 'temp': 26.81, 'lipoC3S3': 12.01, 'rot1': 0, 'rot0': 0, 'rot3': 0, 'rot2': 0, 'state': 'normal', 'yaw': -10.14, 'datetime': '2018-10-12 17:23:09.309101', 'mgs': 0, 'depth': -1.056, 'time': 16.5, 'pitch': -0.51, 'roll': -10.06}
{'lipoC2': 7.68, 'temp': 26.81, 'lipoC3S3': 12.01, 'rot1': 0, 'rot0': 0, 'rot3': 0, 'rot2': 0, 'state': 'normal', 'yaw': -11.39, 'datetime': '2018-10-12 17:23:09.398715', 'mgs': 0, 'depth': -1.132, 'time': 16.59, 'pitch': -0.74, 'roll': -9.92}
{'lipoC2': 7.68, 'temp': 26.81, 'lipoC3S3': 12.02, 'rot1': 0, 'rot0': 0, 'rot3': 0, 'rot2': 0, 'state': 'normal', 'yaw': -12.1, 'datetime': '2018-10-12 17:23:09.506868', 'mgs': 0, 'depth': -1.056, 'time': 16.69, 'pitch': -1.02, 'roll': -9.93}
{'lipoC2': 7.68, 'temp': 26.81, 'lipoC3S3': 12.01, 'rot1': 0, 'rot0': 0, 'rot3': 0, 'rot2': 0, 'state': 'normal', 'yaw': -12.19, 'datetime': '2018-10-12 17:23:09.595495', 'mgs': 0, 'depth': -1.056, 'time': 16.79, 'pitch': -0.88, 'roll': -9.71}
{'lipoC2': 7.67, 'temp': 26.81, 'lipoC3S3': 12.01, 'rot1': 0, 'rot0': 0, 'rot3': 0, 'rot2': 0, 'state': 'normal', 'yaw': -12.17, 'datetime': '2018-10-12 17:23:09.699745', 'mgs': 0, 'depth': -1.056, 'time': 16.89, 'pitch': -1.07, 'roll': -9.86}
{'lipoC2': 7.67, 'temp': 26.81, 'lipoC3S3': 12.01, 'rot1': 0, 'rot0': 0, 'rot3': 0, 'rot2': 0, 'state': 'normal', 'yaw': -12.34, 'datetime': '2018-10-12 17:23:09.790537', 'mgs': 0, 'depth': -1.056, 'time': 16.98, 'pitch': -0.92, 'roll': -9.69}
{'lipoC2': 7.68, 'temp': 26.81, 'lipoC3S3': 12.02, 'rot1': 0, 'rot0': 0, 'rot3': 0, 'rot2': 0, 'state': 'normal', 'yaw': -12.63, 'datetime': '2018-10-12 17:23:09.888194', 'mgs': 0, 'depth': -1.056, 'time': 17.08, 'pitch': -1.04, 'roll': -10.02}
{'lipoC2': 7.67, 'temp': 26.81, 'lipoC3S3': 12.01, 'rot1': 0, 'rot0': 1, 'rot3': 0, 'rot2': 0, 'state': 'normal', 'yaw': -13.19, 'datetime': '2018-10-12 17:23:09.991523', 'mgs': 0, 'depth': -1.132, 'time': 17.18, 'pitch': -1.1, 'roll': -9.82}
{'lipoC2': 7.67, 'temp': 26.81, 'lipoC3S3': 12.01, 'rot1': 0, 'rot0': 1, 'rot3': 0, 'rot2': 0, 'state': 'normal', 'yaw': -13.77, 'datetime': '2018-10-12 17:23:10.088522', 'mgs': 0, 'depth': -1.056, 'time': 17.28, 'pitch': -1.09, 'roll': -10.15}
{'lipoC2': 7.67, 'temp': 26.81, 'lipoC3S3': 12.01, 'rot1': 0, 'rot0': 1, 'rot3': 0, 'rot2': 0, 'state': 'normal', 'yaw': -14.24, 'datetime': '2018-10-12 17:23:10.185603', 'mgs': 0, 'depth': -1.056, 'time': 17.38, 'pitch': -1.1, 'roll': -10.0}
{'lipoC2': 7.67, 'temp': 26.81, 'lipoC3S3': 12.01, 'rot1': 0, 'rot0': 1, 'rot3': 0, 'rot2': 0, 'state': 'normal', 'yaw': -14.43, 'datetime': '2018-10-12 17:23:10.282672', 'mgs': 0, 'depth': -1.056, 'time': 17.47, 'pitch': -1.18, 'roll': -9.69}
{'lipoC2': 7.68, 'temp': 26.81, 'lipoC3S3': 12.01, 'rot1': 0, 'rot0': 1, 'rot3': 0, 'rot2': 0, 'state': 'normal', 'yaw': -13.96, 'datetime': '2018-10-12 17:23:10.379868', 'mgs': 0, 'depth': -0.98, 'time': 17.57, 'pitch': -1.16, 'roll': -10.07}
{'lipoC2': 7.67, 'temp': 26.81, 'lipoC3S3': 12.01, 'rot1': 0, 'rot0': 1, 'rot3': 0, 'rot2': 0, 'state': 'normal', 'yaw': -13.02, 'datetime': '2018-10-12 17:23:10.476968', 'mgs': 0, 'depth': -1.056, 'time': 17.67, 'pitch': -0.95, 'roll': -9.4}
{'lipoC2': 7.68, 'temp': 26.81, 'lipoC3S3': 12.01, 'rot1': 0, 'rot0': 1, 'rot3': 0, 'rot2': 0, 'state': 'normal', 'yaw': -11.74, 'datetime': '2018-10-12 17:23:10.574111', 'mgs': 0, 'depth': -1.056, 'time': 17.76, 'pitch': -0.87, 'roll': -9.59}
{'lipoC2': 7.68, 'temp': 26.81, 'lipoC3S3': 12.01, 'rot1': 0, 'rot0': 1, 'rot3': 0, 'rot2': 0, 'state': 'normal', 'yaw': -10.26, 'datetime': '2018-10-12 17:23:10.671236', 'mgs': 0, 'depth': -1.056, 'time': 17.86, 'pitch': -0.48, 'roll': -9.48}
{'lipoC2': 7.67, 'temp': 26.81, 'lipoC3S3': 12.01, 'rot1': 0, 'rot0': 1, 'rot3': 0, 'rot2': 0, 'state': 'normal', 'yaw': -8.84, 'datetime': '2018-10-12 17:23:10.768437', 'mgs': 0, 'depth': -1.056, 'time': 17.96, 'pitch': -0.39, 'roll': -9.31}
{'lipoC2': 7.68, 'temp': 26.81, 'lipoC3S3': 12.01, 'rot1': 0, 'rot0': 1, 'rot3': 0, 'rot2': 0, 'state': 'normal', 'yaw': -8.03, 'datetime': '2018-10-12 17:23:10.866288', 'mgs': 0, 'depth': -1.056, 'time': 18.06, 'pitch': -0.26, 'roll': -9.44}
{'lipoC2': 7.67, 'temp': 26.81, 'lipoC3S3': 12.01, 'rot1': 0, 'rot0': 1, 'rot3': 0, 'rot2': 0, 'state': 'normal', 'yaw': -7.25, 'datetime': '2018-10-12 17:23:10.964677', 'mgs': 0, 'depth': -1.132, 'time': 18.15, 'pitch': -0.25, 'roll': -9.1}
{'lipoC2': 7.67, 'temp': 26.81, 'lipoC3S3': 12.01, 'rot1': 0, 'rot0': 1, 'rot3': 0, 'rot2': 0, 'state': 'normal', 'yaw': -6.69, 'datetime': '2018-10-12 17:23:11.063049', 'mgs': 0, 'depth': -1.056, 'time': 18.25, 'pitch': -0.4, 'roll': -9.08}
{'lipoC2': 7.67, 'temp': 26.81, 'lipoC3S3': 12.01, 'rot1': 0, 'rot0': 1, 'rot3': 0, 'rot2': 0, 'state': 'normal', 'yaw': -6.54, 'datetime': '2018-10-12 17:23:11.160160', 'mgs': 0, 'depth': -1.056, 'time': 18.35, 'pitch': -0.38, 'roll': -8.86}
{'lipoC2': 7.67, 'temp': 26.81, 'lipoC3S3': 12.01, 'rot1': 0, 'rot0': 1, 'rot3': 0, 'rot2': 0, 'state': 'normal', 'yaw': -6.99, 'datetime': '2018-10-12 17:23:11.257410', 'mgs': 0, 'depth': -1.056, 'time': 18.45, 'pitch': -0.34, 'roll': -9.2}
{'lipoC2': 7.68, 'temp': 26.81, 'lipoC3S3': 12.01, 'rot1': 0, 'rot0': 1, 'rot3': 0, 'rot2': 0, 'state': 'normal', 'yaw': -7.6, 'datetime': '2018-10-12 17:23:11.355694', 'mgs': 0, 'depth': -1.132, 'time': 18.55, 'pitch': -0.5, 'roll': -9.01}
{'lipoC2': 7.68, 'temp': 26.81, 'lipoC3S3': 12.01, 'rot1': 0, 'rot0': 1, 'rot3': 0, 'rot2': 0, 'state': 'normal', 'yaw': -8.24, 'datetime': '2018-10-12 17:23:11.454194', 'mgs': 0, 'depth': -1.056, 'time': 18.64, 'pitch': -0.37, 'roll': -8.76}
{'lipoC2': 7.68, 'temp': 26.81, 'lipoC3S3': 12.01, 'rot1': 0, 'rot0': 1, 'rot3': 0, 'rot2': 0, 'state': 'normal', 'yaw': -8.97, 'datetime': '2018-10-12 17:23:11.551374', 'mgs': 0, 'depth': -1.056, 'time': 18.74, 'pitch': -0.63, 'roll': -9.14}
{'lipoC2': 7.68, 'temp': 26.81, 'lipoC3S3': 12.01, 'rot1': 0, 'rot0': 1, 'rot3': 0, 'rot2': 0, 'state': 'normal', 'yaw': -9.56, 'datetime': '2018-10-12 17:23:11.648419', 'mgs': 0, 'depth': -1.056, 'time': 18.84, 'pitch': -0.58, 'roll': -8.96}
{'lipoC2': 7.68, 'temp': 26.81, 'lipoC3S3': 12.01, 'rot1': 0, 'rot0': 1, 'rot3': 0, 'rot2': 0, 'state': 'normal', 'yaw': -9.54, 'datetime': '2018-10-12 17:23:11.746726', 'mgs': 0, 'depth': -1.056, 'time': 18.94, 'pitch': -0.58, 'roll': -9.18}
{'lipoC2': 7.67, 'temp': 26.81, 'lipoC3S3': 12.01, 'rot1': 0, 'rot0': 1, 'rot3': 0, 'rot2': 0, 'state': 'normal', 'yaw': -9.06, 'datetime': '2018-10-12 17:23:11.845143', 'mgs': 0, 'depth': -1.132, 'time': 19.04, 'pitch': -0.72, 'roll': -9.53}
{'lipoC2': 7.68, 'temp': 26.81, 'lipoC3S3': 12.01, 'rot1': 0, 'rot0': 1, 'rot3': 0, 'rot2': 0, 'state': 'normal', 'yaw': -8.58, 'datetime': '2018-10-12 17:23:11.942451', 'mgs': 0, 'depth': -1.056, 'time': 19.13, 'pitch': -0.26, 'roll': -8.95}
{'lipoC2': 7.68, 'temp': 26.81, 'lipoC3S3': 12.01, 'rot1': 0, 'rot0': 1, 'rot3': 0, 'rot2': 0, 'state': 'normal', 'yaw': -8.93, 'datetime': '2018-10-12 17:23:12.039459', 'mgs': 0, 'depth': -0.98, 'time': 19.23, 'pitch': -0.3, 'roll': -9.07}
{'lipoC2': 7.68, 'temp': 26.81, 'lipoC3S3': 12.01, 'rot1': 0, 'rot0': 1, 'rot3': 0, 'rot2': 0, 'state': 'normal', 'yaw': -9.65, 'datetime': '2018-10-12 17:23:12.136599', 'mgs': 0, 'depth': -1.056, 'time': 19.33, 'pitch': -0.83, 'roll': -9.47}
{'lipoC2': 7.68, 'temp': 26.81, 'lipoC3S3': 12.01, 'rot1': 0, 'rot0': 1, 'rot3': 0, 'rot2': 0, 'state': 'normal', 'yaw': -10.68, 'datetime': '2018-10-12 17:23:12.233719', 'mgs': 0, 'depth': -1.056, 'time': 19.42, 'pitch': -0.96, 'roll': -9.23}
{'lipoC2': 7.67, 'temp': 26.81, 'lipoC3S3': 12.01, 'rot1': 0, 'rot0': 1, 'rot3': 0, 'rot2': 0, 'state': 'normal', 'yaw': -11.19, 'datetime': '2018-10-12 17:23:12.330895', 'mgs': 0, 'depth': -1.056, 'time': 19.52, 'pitch': -0.83, 'roll': -9.19}
{'lipoC2': 7.68, 'temp': 26.81, 'lipoC3S3': 12.0, 'rot1': 0, 'rot0': 1, 'rot3': 0, 'rot2': 0, 'state': 'normal', 'yaw': -10.99, 'datetime': '2018-10-12 17:23:12.428198', 'mgs': 0, 'depth': -1.056, 'time': 19.62, 'pitch': -0.76, 'roll': -9.26}
{'lipoC2': 7.68, 'temp': 26.81, 'lipoC3S3': 12.01, 'rot1': 0, 'rot0': 1, 'rot3': 0, 'rot2': 0, 'state': 'normal', 'yaw': -10.6, 'datetime': '2018-10-12 17:23:12.525220', 'mgs': 0, 'depth': -1.056, 'time': 19.72, 'pitch': -0.85, 'roll': -8.57}
{'lipoC2': 7.67, 'temp': 26.81, 'lipoC3S3': 12.01, 'rot1': 0, 'rot0': 1, 'rot3': 0, 'rot2': 0, 'state': 'normal', 'yaw': -9.77, 'datetime': '2018-10-12 17:23:12.622363', 'mgs': 0, 'depth': -0.98, 'time': 19.81, 'pitch': -0.39, 'roll': -9.65}
{'lipoC2': 7.67, 'temp': 26.81, 'lipoC3S3': 12.01, 'rot1': 0, 'rot0': 1, 'rot3': 0, 'rot2': 0, 'state': 'normal', 'yaw': -8.34, 'datetime': '2018-10-12 17:23:12.719546', 'mgs': 0, 'depth': -1.056, 'time': 19.91, 'pitch': -0.24, 'roll': -8.59}
{'lipoC2': 7.67, 'temp': 26.81, 'lipoC3S3': 12.01, 'rot1': 0, 'rot0': 1, 'rot3': 0, 'rot2': 0, 'state': 'normal', 'yaw': -7.48, 'datetime': '2018-10-12 17:23:12.817936', 'mgs': 0, 'depth': -1.056, 'time': 20.01, 'pitch': -0.26, 'roll': -9.18}
{'lipoC2': 7.67, 'temp': 26.81, 'lipoC3S3': 12.01, 'rot1': 0, 'rot0': 1, 'rot3': 0, 'rot2': 0, 'state': 'normal', 'yaw': -6.81, 'datetime': '2018-10-12 17:23:12.916260', 'mgs': 0, 'depth': -1.056, 'time': 20.11, 'pitch': -0.19, 'roll': -8.88}
{'lipoC2': 7.67, 'temp': 26.81, 'lipoC3S3': 12.01, 'rot1': 0, 'rot0': 1, 'rot3': 0, 'rot2': 0, 'state': 'normal', 'yaw': -6.48, 'datetime': '2018-10-12 17:23:13.013572', 'mgs': 0, 'depth': -1.132, 'time': 20.2, 'pitch': -0.17, 'roll': -8.95}
{'lipoC2': 7.67, 'temp': 26.81, 'lipoC3S3': 12.01, 'rot1': 0, 'rot0': 1, 'rot3': 0, 'rot2': 0, 'state': 'normal', 'yaw': -6.59, 'datetime': '2018-10-12 17:23:13.110510', 'mgs': 0, 'depth': -1.132, 'time': 20.3, 'pitch': -0.41, 'roll': -9.02}
{'lipoC2': 7.68, 'temp': 26.75, 'lipoC3S3': 12.01, 'rot1': 0, 'rot0': 1, 'rot3': 0, 'rot2': 0, 'state': 'normal', 'yaw': -7.15, 'datetime': '2018-10-12 17:23:13.208858', 'mgs': 0, 'depth': -1.056, 'time': 20.4, 'pitch': -0.37, 'roll': -8.95}
{'lipoC2': 7.68, 'temp': 26.75, 'lipoC3S3': 12.01, 'rot1': 0, 'rot0': 1, 'rot3': 0, 'rot2': 0, 'state': 'normal', 'yaw': -8.26, 'datetime': '2018-10-12 17:23:13.307227', 'mgs': 0, 'depth': -1.056, 'time': 20.5, 'pitch': -0.26, 'roll': -8.76}
{'lipoC2': 7.68, 'temp': 26.75, 'lipoC3S3': 12.01, 'rot1': 0, 'rot0': 1, 'rot3': 0, 'rot2': 0, 'state': 'normal', 'yaw': -9.49, 'datetime': '2018-10-12 17:23:13.404745', 'mgs': 0, 'depth': -1.056, 'time': 20.6, 'pitch': -0.46, 'roll': -8.97}
{'lipoC2': 7.68, 'temp': 26.88, 'lipoC3S3': 12.01, 'rot1': 0, 'rot0': 1, 'rot3': 0, 'rot2': 0, 'state': 'normal', 'yaw': -10.12, 'datetime': '2018-10-12 17:23:13.501894', 'mgs': 0, 'depth': -1.132, 'time': 20.69, 'pitch': -0.55, 'roll': -8.95}
{'lipoC2': 7.68, 'temp': 26.88, 'lipoC3S3': 12.01, 'rot1': 0, 'rot0': 1, 'rot3': 0, 'rot2': 0, 'state': 'normal', 'yaw': -10.24, 'datetime': '2018-10-12 17:23:13.599809', 'mgs': 0, 'depth': -1.056, 'time': 20.79, 'pitch': -0.75, 'roll': -8.99}
{'lipoC2': 7.67, 'temp': 26.81, 'lipoC3S3': 12.01, 'rot1': 0, 'rot0': 1, 'rot3': 0, 'rot2': 0, 'state': 'normal', 'yaw': -10.18, 'datetime': '2018-10-12 17:23:13.698182', 'mgs': 0, 'depth': -1.056, 'time': 20.89, 'pitch': -0.4, 'roll': -8.84}
{'lipoC2': 7.68, 'temp': 26.81, 'lipoC3S3': 12.01, 'rot1': 0, 'rot0': 1, 'rot3': 0, 'rot2': 0, 'state': 'normal', 'yaw': -10.56, 'datetime': '2018-10-12 17:23:13.795164', 'mgs': 0, 'depth': -1.056, 'time': 20.99, 'pitch': -0.31, 'roll': -9.44}
{'lipoC2': 7.67, 'temp': 26.81, 'lipoC3S3': 12.01, 'rot1': 0, 'rot0': 1, 'rot3': 0, 'rot2': 0, 'state': 'normal', 'yaw': -11.36, 'datetime': '2018-10-12 17:23:13.892357', 'mgs': 0, 'depth': -1.132, 'time': 21.08, 'pitch': -0.67, 'roll': -8.23}
{'lipoC2': 7.67, 'temp': 26.81, 'lipoC3S3': 12.01, 'rot1': 0, 'rot0': 1, 'rot3': 0, 'rot2': 0, 'state': 'normal', 'yaw': -12.13, 'datetime': '2018-10-12 17:23:13.989493', 'mgs': 0, 'depth': -1.056, 'time': 21.18, 'pitch': -0.26, 'roll': -9.4}
{'lipoC2': 7.67, 'temp': 26.81, 'lipoC3S3': 12.01, 'rot1': 0, 'rot0': 1, 'rot3': 0, 'rot2': 0, 'state': 'normal', 'yaw': -12.23, 'datetime': '2018-10-12 17:23:14.086632', 'mgs': 0, 'depth': -0.98, 'time': 21.28, 'pitch': -0.77, 'roll': -8.9}
{'lipoC2': 7.68, 'temp': 26.81, 'lipoC3S3': 12.01, 'rot1': 0, 'rot0': 1, 'rot3': 0, 'rot2': 0, 'state': 'normal', 'yaw': -11.56, 'datetime': '2018-10-12 17:23:14.183674', 'mgs': 0, 'depth': -1.056, 'time': 21.38, 'pitch': 0.16, 'roll': -9.19}
{'lipoC2': 7.67, 'temp': 26.81, 'lipoC3S3': 12.01, 'rot1': 0, 'rot0': 1, 'rot3': 0, 'rot2': 0, 'state': 'normal', 'yaw': -10.38, 'datetime': '2018-10-12 17:23:14.280981', 'mgs': 0, 'depth': -1.132, 'time': 21.47, 'pitch': -0.24, 'roll': -9.06}
{'lipoC2': 7.68, 'temp': 26.81, 'lipoC3S3': 12.01, 'rot1': 0, 'rot0': 1, 'rot3': 0, 'rot2': 0, 'state': 'normal', 'yaw': -9.39, 'datetime': '2018-10-12 17:23:14.377172', 'mgs': 0, 'depth': -1.056, 'time': 21.57, 'pitch': -0.06, 'roll': -9.0}
{'lipoC2': 7.68, 'temp': 26.81, 'lipoC3S3': 12.01, 'rot1': 0, 'rot0': 1, 'rot3': 0, 'rot2': 0, 'state': 'normal', 'yaw': -8.94, 'datetime': '2018-10-12 17:23:14.475299', 'mgs': 0, 'depth': -1.056, 'time': 21.67, 'pitch': 0.15, 'roll': -9.42}
{'lipoC2': 7.67, 'temp': 26.81, 'lipoC3S3': 12.01, 'rot1': 0, 'rot0': 1, 'rot3': 0, 'rot2': 0, 'state': 'normal', 'yaw': -8.81, 'datetime': '2018-10-12 17:23:14.572611', 'mgs': 0, 'depth': -1.132, 'time': 21.77, 'pitch': 0.21, 'roll': -9.09}
{'lipoC2': 7.68, 'temp': 26.81, 'lipoC3S3': 12.02, 'rot1': 0, 'rot0': 1, 'rot3': 0, 'rot2': 0, 'state': 'normal', 'yaw': -8.85, 'datetime': '2018-10-12 17:23:14.671083', 'mgs': 0, 'depth': -1.056, 'time': 21.86, 'pitch': 0.29, 'roll': -9.02}
{'lipoC2': 7.67, 'temp': 26.81, 'lipoC3S3': 12.01, 'rot1': 0, 'rot0': 1, 'rot3': 0, 'rot2': 0, 'state': 'normal', 'yaw': -9.31, 'datetime': '2018-10-12 17:23:14.769513', 'mgs': 0, 'depth': -1.132, 'time': 21.96, 'pitch': -0.05, 'roll': -9.06}
{'lipoC2': 7.68, 'temp': 26.81, 'lipoC3S3': 12.01, 'rot1': 0, 'rot0': 1, 'rot3': 0, 'rot2': 0, 'state': 'normal', 'yaw': -10.17, 'datetime': '2018-10-12 17:23:14.867095', 'mgs': 0, 'depth': -1.056, 'time': 22.06, 'pitch': -0.21, 'roll': -8.85}
{'lipoC2': 7.68, 'temp': 26.81, 'lipoC3S3': 12.02, 'rot1': 0, 'rot0': 1, 'rot3': 0, 'rot2': 0, 'state': 'normal', 'yaw': -10.32, 'datetime': '2018-10-12 17:23:14.964196', 'mgs': 0, 'depth': -1.056, 'time': 22.16, 'pitch': -0.03, 'roll': -8.6}
{'lipoC2': 7.68, 'temp': 26.81, 'lipoC3S3': 12.01, 'rot1': 0, 'rot0': 1, 'rot3': 0, 'rot2': 0, 'state': 'normal', 'yaw': -9.8, 'datetime': '2018-10-12 17:23:15.062110', 'mgs': 0, 'depth': -0.98, 'time': 22.26, 'pitch': -0.3, 'roll': -8.61}
{'lipoC2': 7.67, 'temp': 26.81, 'lipoC3S3': 12.01, 'rot1': 0, 'rot0': 1, 'rot3': 0, 'rot2': 0, 'state': 'normal', 'yaw': -8.64, 'datetime': '2018-10-12 17:23:15.160471', 'mgs': 0, 'depth': -1.132, 'time': 22.35, 'pitch': -0.12, 'roll': -8.53}
{'lipoC2': 7.68, 'temp': 26.81, 'lipoC3S3': 12.01, 'rot1': 0, 'rot0': 1, 'rot3': 0, 'rot2': 0, 'state': 'normal', 'yaw': -7.29, 'datetime': '2018-10-12 17:23:15.258840', 'mgs': 0, 'depth': -1.056, 'time': 22.45, 'pitch': 0.24, 'roll': -9.04}
{'lipoC2': 7.67, 'temp': 26.81, 'lipoC3S3': 12.01, 'rot1': 0, 'rot0': 1, 'rot3': 0, 'rot2': 0, 'state': 'normal', 'yaw': -6.55, 'datetime': '2018-10-12 17:23:15.355908', 'mgs': 0, 'depth': -1.132, 'time': 22.55, 'pitch': 0.09, 'roll': -8.39}
{'lipoC2': 7.68, 'temp': 26.81, 'lipoC3S3': 12.01, 'rot1': 0, 'rot0': 1, 'rot3': 0, 'rot2': 0, 'state': 'normal', 'yaw': -6.29, 'datetime': '2018-10-12 17:23:15.453098', 'mgs': 0, 'depth': -1.056, 'time': 22.65, 'pitch': 0.27, 'roll': -9.15}
{'lipoC2': 7.67, 'temp': 26.81, 'lipoC3S3': 12.01, 'rot1': 0, 'rot0': 1, 'rot3': 0, 'rot2': 0, 'state': 'normal', 'yaw': -6.24, 'datetime': '2018-10-12 17:23:15.551545', 'mgs': 0, 'depth': -1.056, 'time': 22.75, 'pitch': 0.01, 'roll': -8.98}
{'lipoC2': 7.68, 'temp': 26.81, 'lipoC3S3': 12.01, 'rot1': 0, 'rot0': 1, 'rot3': 0, 'rot2': 0, 'state': 'normal', 'yaw': -5.92, 'datetime': '2018-10-12 17:23:15.648982', 'mgs': 0, 'depth': -1.056, 'time': 22.84, 'pitch': 0.27, 'roll': -9.01}
{'lipoC2': 7.68, 'temp': 26.81, 'lipoC3S3': 12.01, 'rot1': 0, 'rot0': 1, 'rot3': 0, 'rot2': 0, 'state': 'normal', 'yaw': -5.84, 'datetime': '2018-10-12 17:23:15.746052', 'mgs': 0, 'depth': -0.98, 'time': 22.94, 'pitch': 0.28, 'roll': -9.22}
{'lipoC2': 7.68, 'temp': 26.88, 'lipoC3S3': 12.01, 'rot1': 0, 'rot0': 1, 'rot3': 0, 'rot2': 0, 'state': 'normal', 'yaw': -5.72, 'datetime': '2018-10-12 17:23:15.843358', 'mgs': 0, 'depth': -1.056, 'time': 23.04, 'pitch': 0.36, 'roll': -9.07}
{'lipoC2': 7.68, 'temp': 26.88, 'lipoC3S3': 12.0, 'rot1': 0, 'rot0': 1, 'rot3': 0, 'rot2': 0, 'state': 'normal', 'yaw': -5.74, 'datetime': '2018-10-12 17:23:15.940534', 'mgs': 0, 'depth': -1.056, 'time': 23.14, 'pitch': -0.02, 'roll': -9.17}
{'lipoC2': 7.68, 'temp': 26.88, 'lipoC3S3': 12.01, 'rot1': 0, 'rot0': 1, 'rot3': 0, 'rot2': 0, 'state': 'normal', 'yaw': -5.42, 'datetime': '2018-10-12 17:23:16.037805', 'mgs': 0, 'depth': -1.056, 'time': 23.23, 'pitch': 0.38, 'roll': -9.09}
{'lipoC2': 7.67, 'temp': 26.81, 'lipoC3S3': 12.01, 'rot1': 0, 'rot0': 1, 'rot3': 0, 'rot2': 0, 'state': 'normal', 'yaw': -4.55, 'datetime': '2018-10-12 17:23:16.134701', 'mgs': 0, 'depth': -1.132, 'time': 23.33, 'pitch': 0.38, 'roll': -9.26}
{'lipoC2': 7.67, 'temp': 26.81, 'lipoC3S3': 12.01, 'rot1': 0, 'rot0': 1, 'rot3': 0, 'rot2': 0, 'state': 'normal', 'yaw': -3.74, 'datetime': '2018-10-12 17:23:16.231902', 'mgs': 0, 'depth': -1.132, 'time': 23.43, 'pitch': 0.9, 'roll': -9.03}
{'lipoC2': 7.67, 'temp': 26.81, 'lipoC3S3': 12.01, 'rot1': 0, 'rot0': 1, 'rot3': 0, 'rot2': 0, 'state': 'normal', 'yaw': -3.32, 'datetime': '2018-10-12 17:23:16.328976', 'mgs': 0, 'depth': -1.132, 'time': 23.52, 'pitch': 0.57, 'roll': -9.2}
{'lipoC2': 7.68, 'temp': 26.81, 'lipoC3S3': 12.01, 'rot1': 0, 'rot0': 1, 'rot3': 0, 'rot2': 0, 'state': 'normal', 'yaw': -3.56, 'datetime': '2018-10-12 17:23:16.425012', 'mgs': 0, 'depth': -1.056, 'time': 23.62, 'pitch': 0.59, 'roll': -9.8}
{'lipoC2': 7.68, 'temp': 26.81, 'lipoC3S3': 12.01, 'rot1': 0, 'rot0': 1, 'rot3': 0, 'rot2': 0, 'state': 'normal', 'yaw': -4.07, 'datetime': '2018-10-12 17:23:16.524179', 'mgs': 0, 'depth': -1.056, 'time': 23.72, 'pitch': 1.13, 'roll': -9.35}
{'lipoC2': 7.67, 'temp': 26.81, 'lipoC3S3': 12.01, 'rot1': 0, 'rot0': 1, 'rot3': 0, 'rot2': 0, 'state': 'normal', 'yaw': -5.36, 'datetime': '2018-10-12 17:23:16.622618', 'mgs': 0, 'depth': -1.056, 'time': 23.82, 'pitch': 1.09, 'roll': -9.59}
{'lipoC2': 7.68, 'temp': 26.81, 'lipoC3S3': 12.01, 'rot1': 0, 'rot0': 1, 'rot3': 0, 'rot2': 0, 'state': 'normal', 'yaw': -7.03, 'datetime': '2018-10-12 17:23:16.720907', 'mgs': 0, 'depth': -0.98, 'time': 23.92, 'pitch': 0.58, 'roll': -9.73}
{'lipoC2': 7.67, 'temp': 26.81, 'lipoC3S3': 12.01, 'rot1': 0, 'rot0': 1, 'rot3': 0, 'rot2': 0, 'state': 'normal', 'yaw': -7.95, 'datetime': '2018-10-12 17:23:16.818042', 'mgs': 0, 'depth': -1.056, 'time': 24.01, 'pitch': 0.51, 'roll': -9.23}
{'lipoC2': 7.67, 'temp': 26.81, 'lipoC3S3': 12.01, 'rot1': 0, 'rot0': 1, 'rot3': 0, 'rot2': 0, 'state': 'normal', 'yaw': -8.52, 'datetime': '2018-10-12 17:23:16.915211', 'mgs': 0, 'depth': -0.98, 'time': 24.11, 'pitch': 0.81, 'roll': -9.42}
{'lipoC2': 7.68, 'temp': 26.81, 'lipoC3S3': 12.01, 'rot1': 0, 'rot0': 1, 'rot3': 0, 'rot2': 0, 'state': 'normal', 'yaw': -8.52, 'datetime': '2018-10-12 17:23:17.013705', 'mgs': 0, 'depth': -0.98, 'time': 24.21, 'pitch': 0.15, 'roll': -9.44}
{'lipoC2': 7.68, 'temp': 26.81, 'lipoC3S3': 12.01, 'rot1': 0, 'rot0': 1, 'rot3': 0, 'rot2': 0, 'state': 'normal', 'yaw': -8.5, 'datetime': '2018-10-12 17:23:17.112059', 'mgs': 0, 'depth': -1.056, 'time': 24.31, 'pitch': 0.53, 'roll': -9.31}
{'lipoC2': 7.67, 'temp': 26.81, 'lipoC3S3': 12.01, 'rot1': 0, 'rot0': 1, 'rot3': 0, 'rot2': 0, 'state': 'normal', 'yaw': -8.47, 'datetime': '2018-10-12 17:23:17.209221', 'mgs': 0, 'depth': -1.056, 'time': 24.41, 'pitch': 0.37, 'roll': -9.44}
{'lipoC2': 7.67, 'temp': 26.81, 'lipoC3S3': 12.01, 'rot1': 0, 'rot0': 1, 'rot3': 0, 'rot2': 0, 'state': 'normal', 'yaw': -8.83, 'datetime': '2018-10-12 17:23:17.306796', 'mgs': 0, 'depth': -1.056, 'time': 24.5, 'pitch': 0.43, 'roll': -9.24}
{'lipoC2': 7.67, 'temp': 26.81, 'lipoC3S3': 12.01, 'rot1': 0, 'rot0': 1, 'rot3': 0, 'rot2': 0, 'state': 'normal', 'yaw': -9.18, 'datetime': '2018-10-12 17:23:17.404756', 'mgs': 0, 'depth': -1.056, 'time': 24.6, 'pitch': 0.7, 'roll': -9.22}
{'lipoC2': 7.68, 'temp': 26.81, 'lipoC3S3': 12.01, 'rot1': 0, 'rot0': 1, 'rot3': 0, 'rot2': 0, 'state': 'normal', 'yaw': -9.64, 'datetime': '2018-10-12 17:23:17.502384', 'mgs': 0, 'depth': -1.056, 'time': 24.7, 'pitch': 0.13, 'roll': -8.77}
{'lipoC2': 7.67, 'temp': 26.81, 'lipoC3S3': 12.01, 'rot1': 0, 'rot0': 1, 'rot3': 0, 'rot2': 0, 'state': 'normal', 'yaw': -10.1, 'datetime': '2018-10-12 17:23:17.599469', 'mgs': 0, 'depth': -0.98, 'time': 24.8, 'pitch': -0.21, 'roll': -8.71}
{'lipoC2': 7.68, 'temp': 26.81, 'lipoC3S3': 12.01, 'rot1': 0, 'rot0': 1, 'rot3': 0, 'rot2': 0, 'state': 'normal', 'yaw': -10.13, 'datetime': '2018-10-12 17:23:17.696528', 'mgs': 0, 'depth': -1.056, 'time': 24.89, 'pitch': -0.58, 'roll': -9.1}
{'lipoC2': 7.67, 'temp': 26.81, 'lipoC3S3': 12.01, 'rot1': 0, 'rot0': 1, 'rot3': 0, 'rot2': 0, 'state': 'normal', 'yaw': -9.89, 'datetime': '2018-10-12 17:23:17.793646', 'mgs': 0, 'depth': -1.056, 'time': 24.99, 'pitch': -0.48, 'roll': -8.52}
{'lipoC2': 7.68, 'temp': 26.81, 'lipoC3S3': 12.01, 'rot1': 0, 'rot0': 1, 'rot3': 0, 'rot2': 0, 'state': 'normal', 'yaw': -9.37, 'datetime': '2018-10-12 17:23:17.890788', 'mgs': 0, 'depth': -1.056, 'time': 25.09, 'pitch': -0.41, 'roll': -7.91}
{'lipoC2': 7.68, 'temp': 26.81, 'lipoC3S3': 12.01, 'rot1': 0, 'rot0': 1, 'rot3': 0, 'rot2': 0, 'state': 'normal', 'yaw': -8.62, 'datetime': '2018-10-12 17:23:17.987956', 'mgs': 0, 'depth': -1.056, 'time': 25.18, 'pitch': -0.41, 'roll': -7.89}
{'lipoC2': 7.68, 'temp': 26.81, 'lipoC3S3': 12.01, 'rot1': 0, 'rot0': 1, 'rot3': 0, 'rot2': 0, 'state': 'normal', 'yaw': -7.85, 'datetime': '2018-10-12 17:23:18.085021', 'mgs': 0, 'depth': -1.132, 'time': 25.28, 'pitch': -0.45, 'roll': -7.25}
{'lipoC2': 7.68, 'temp': 26.81, 'lipoC3S3': 12.01, 'rot1': 0, 'rot0': 1, 'rot3': 0, 'rot2': 0, 'state': 'normal', 'yaw': -7.44, 'datetime': '2018-10-12 17:23:18.182179', 'mgs': 0, 'depth': -1.056, 'time': 25.38, 'pitch': -0.49, 'roll': -6.68}
