{'lipoC2': 7.85, 'temp': 26.44, 'lipoC3S3': 12.12, 'rot1': 0, 'rot0': 0, 'rot3': 0, 'rot2': 0, 'state': 'normal', 'yaw': 0.0, 'datetime': '2018-10-12 16:30:20.566156', 'mgs': 0, 'depth': -0.903, 'time': 1.26, 'pitch': 1.16, 'roll': -9.61}
{'lipoC2': 7.85, 'temp': 26.44, 'lipoC3S3': 12.1, 'rot1': 0, 'rot0': 0, 'rot3': 0, 'rot2': 0, 'state': 'normal', 'yaw': 0.52, 'datetime': '2018-10-12 16:30:20.583839', 'mgs': 0, 'depth': -0.98, 'time': 1.36, 'pitch': 1.26, 'roll': -9.54}
{'lipoC2': 7.85, 'temp': 26.44, 'lipoC3S3': 12.1, 'rot1': 0, 'rot0': 0, 'rot3': 0, 'rot2': 0, 'state': 'normal', 'yaw': 0.56, 'datetime': '2018-10-12 16:30:20.601557', 'mgs': 0, 'depth': -0.903, 'time': 1.45, 'pitch': 0.96, 'roll': -9.37}
{'lipoC2': 7.85, 'temp': 26.44, 'lipoC3S3': 12.12, 'rot1': 0, 'rot0': 0, 'rot3': 0, 'rot2': 0, 'state': 'normal', 'yaw': 0.45, 'datetime': '2018-10-12 16:30:20.619435', 'mgs': 0, 'depth': -0.903, 'time': 1.55, 'pitch': 0.99, 'roll': -9.43}
{'lipoC2': 7.85, 'temp': 26.44, 'lipoC3S3': 12.12, 'rot1': 0, 'rot0': 0, 'rot3': 0, 'rot2': 0, 'state': 'normal', 'yaw': 0.1, 'datetime': '2018-10-12 16:30:20.632962', 'mgs': 0, 'depth': -0.98, 'time': 1.65, 'pitch': 0.96, 'roll': -9.39}
{'lipoC2': 7.85, 'temp': 26.5, 'lipoC3S3': 12.1, 'rot1': 0, 'rot0': 0, 'rot3': 0, 'rot2': 0, 'state': 'normal', 'yaw': -0.27, 'datetime': '2018-10-12 16:30:20.641138', 'mgs': 0, 'depth': -0.98, 'time': 1.75, 'pitch': 1.12, 'roll': -9.43}
{'lipoC2': 7.85, 'temp': 26.5, 'lipoC3S3': 12.12, 'rot1': 0, 'rot0': 0, 'rot3': 0, 'rot2': 0, 'state': 'normal', 'yaw': -0.28, 'datetime': '2018-10-12 16:30:20.648675', 'mgs': 0, 'depth': -0.98, 'time': 1.85, 'pitch': 0.94, 'roll': -9.39}
{'lipoC2': 7.85, 'temp': 26.5, 'lipoC3S3': 12.12, 'rot1': 0, 'rot0': 0, 'rot3': 0, 'rot2': 0, 'state': 'normal', 'yaw': -0.29, 'datetime': '2018-10-12 16:30:20.656237', 'mgs': 0, 'depth': -0.903, 'time': 1.94, 'pitch': 0.96, 'roll': -9.46}
{'lipoC2': 7.84, 'temp': 26.5, 'lipoC3S3': 12.12, 'rot1': 0, 'rot0': 0, 'rot3': 0, 'rot2': 0, 'state': 'normal', 'yaw': -0.26, 'datetime': '2018-10-12 16:30:20.663808', 'mgs': 0, 'depth': -0.98, 'time': 2.04, 'pitch': 0.79, 'roll': -9.51}
{'lipoC2': 7.84, 'temp': 26.5, 'lipoC3S3': 12.12, 'rot1': 0, 'rot0': 0, 'rot3': 0, 'rot2': 0, 'state': 'normal', 'yaw': -0.42, 'datetime': '2018-10-12 16:30:20.671390', 'mgs': 0, 'depth': -0.827, 'time': 2.14, 'pitch': 1.01, 'roll': -9.68}
{'lipoC2': 7.85, 'temp': 26.5, 'lipoC3S3': 12.12, 'rot1': 0, 'rot0': 0, 'rot3': 0, 'rot2': 0, 'state': 'normal', 'yaw': -0.98, 'datetime': '2018-10-12 16:30:20.678974', 'mgs': 0, 'depth': -0.903, 'time': 2.23, 'pitch': 0.81, 'roll': -9.71}
{'lipoC2': 7.84, 'temp': 26.5, 'lipoC3S3': 12.1, 'rot1': 0, 'rot0': 0, 'rot3': 0, 'rot2': 0, 'state': 'normal', 'yaw': -1.21, 'datetime': '2018-10-12 16:30:20.686587', 'mgs': 0, 'depth': -0.903, 'time': 2.33, 'pitch': 0.86, 'roll': -9.59}
{'lipoC2': 7.85, 'temp': 26.44, 'lipoC3S3': 12.12, 'rot1': 0, 'rot0': 0, 'rot3': 0, 'rot2': 0, 'state': 'normal', 'yaw': -0.98, 'datetime': '2018-10-12 16:30:20.737094', 'mgs': 0, 'depth': -0.827, 'time': 2.43, 'pitch': 1.08, 'roll': -9.95}
{'lipoC2': 7.85, 'temp': 26.44, 'lipoC3S3': 12.12, 'rot1': 0, 'rot0': 0, 'rot3': 0, 'rot2': 0, 'state': 'normal', 'yaw': -0.5, 'datetime': '2018-10-12 16:30:20.834466', 'mgs': 0, 'depth': -0.98, 'time': 2.53, 'pitch': 1.44, 'roll': -9.9}
{'lipoC2': 7.85, 'temp': 26.44, 'lipoC3S3': 12.12, 'rot1': 0, 'rot0': 0, 'rot3': 0, 'rot2': 0, 'state': 'normal', 'yaw': -0.13, 'datetime': '2018-10-12 16:30:20.931551', 'mgs': 0, 'depth': -0.903, 'time': 2.62, 'pitch': 1.19, 'roll': -9.49}
{'lipoC2': 7.85, 'temp': 26.5, 'lipoC3S3': 12.12, 'rot1': 0, 'rot0': 0, 'rot3': 0, 'rot2': 0, 'state': 'normal', 'yaw': -0.35, 'datetime': '2018-10-12 16:30:21.028655', 'mgs': 0, 'depth': -0.903, 'time': 2.72, 'pitch': 1.0, 'roll': -9.4}
{'lipoC2': 7.85, 'temp': 26.5, 'lipoC3S3': 12.12, 'rot1': 0, 'rot0': 0, 'rot3': 0, 'rot2': 0, 'state': 'normal', 'yaw': -0.58, 'datetime': '2018-10-12 16:30:21.126192', 'mgs': 0, 'depth': -0.903, 'time': 2.82, 'pitch': 1.02, 'roll': -9.33}
{'lipoC2': 7.85, 'temp': 26.5, 'lipoC3S3': 12.12, 'rot1': 0, 'rot0': 0, 'rot3': 0, 'rot2': 0, 'state': 'normal', 'yaw': -0.79, 'datetime': '2018-10-12 16:30:21.224547', 'mgs': 0, 'depth': -0.903, 'time': 2.92, 'pitch': 1.02, 'roll': -9.37}
{'lipoC2': 7.85, 'temp': 26.5, 'lipoC3S3': 12.12, 'rot1': 0, 'rot0': 0, 'rot3': 0, 'rot2': 0, 'state': 'normal', 'yaw': -0.99, 'datetime': '2018-10-12 16:30:21.322949', 'mgs': 0, 'depth': -0.903, 'time': 3.02, 'pitch': 0.97, 'roll': -9.19}
{'lipoC2': 7.85, 'temp': 26.5, 'lipoC3S3': 12.1, 'rot1': 0, 'rot0': 0, 'rot3': 0, 'rot2': 0, 'state': 'normal', 'yaw': -1.44, 'datetime': '2018-10-12 16:30:21.423031', 'mgs': 0, 'depth': -0.903, 'time': 3.11, 'pitch': 0.81, 'roll': -9.27}
{'lipoC2': 7.85, 'temp': 26.44, 'lipoC3S3': 12.12, 'rot1': 0, 'rot0': 0, 'rot3': 0, 'rot2': 0, 'state': 'normal', 'yaw': -2.11, 'datetime': '2018-10-12 16:30:21.520085', 'mgs': 0, 'depth': -0.903, 'time': 3.21, 'pitch': 0.75, 'roll': -9.15}
{'lipoC2': 7.85, 'temp': 26.44, 'lipoC3S3': 12.12, 'rot1': 0, 'rot0': 0, 'rot3': 0, 'rot2': 0, 'state': 'normal', 'yaw': -2.57, 'datetime': '2018-10-12 16:30:21.618617', 'mgs': 0, 'depth': -0.903, 'time': 3.31, 'pitch': 0.7, 'roll': -9.28}
{'lipoC2': 7.85, 'temp': 26.5, 'lipoC3S3': 12.12, 'rot1': 0, 'rot0': 0, 'rot3': 0, 'rot2': 0, 'state': 'normal', 'yaw': -2.54, 'datetime': '2018-10-12 16:30:21.716589', 'mgs': 0, 'depth': -0.903, 'time': 3.41, 'pitch': 0.76, 'roll': -9.39}
{'lipoC2': 7.85, 'temp': 26.5, 'lipoC3S3': 12.1, 'rot1': 0, 'rot0': 0, 'rot3': 0, 'rot2': 0, 'state': 'normal', 'yaw': -2.09, 'datetime': '2018-10-12 16:30:21.813760', 'mgs': 0, 'depth': -0.903, 'time': 3.5, 'pitch': 0.88, 'roll': -9.42}
{'lipoC2': 7.85, 'temp': 26.5, 'lipoC3S3': 12.12, 'rot1': 0, 'rot0': 0, 'rot3': 0, 'rot2': 0, 'state': 'normal', 'yaw': -1.37, 'datetime': '2018-10-12 16:30:21.910704', 'mgs': 0, 'depth': -0.903, 'time': 3.6, 'pitch': 1.13, 'roll': -9.31}
{'lipoC2': 7.84, 'temp': 26.44, 'lipoC3S3': 12.1, 'rot1': 0, 'rot0': 0, 'rot3': 0, 'rot2': 0, 'state': 'normal', 'yaw': -0.75, 'datetime': '2018-10-12 16:30:22.009268', 'mgs': 0, 'depth': -0.903, 'time': 3.7, 'pitch': 1.27, 'roll': -9.16}
{'lipoC2': 7.85, 'temp': 26.44, 'lipoC3S3': 12.12, 'rot1': 0, 'rot0': 0, 'rot3': 0, 'rot2': 0, 'state': 'normal', 'yaw': -0.26, 'datetime': '2018-10-12 16:30:22.106771', 'mgs': 0, 'depth': -0.98, 'time': 3.8, 'pitch': 1.27, 'roll': -9.28}
{'lipoC2': 7.85, 'temp': 26.44, 'lipoC3S3': 12.12, 'rot1': 0, 'rot0': 0, 'rot3': 0, 'rot2': 0, 'state': 'normal', 'yaw': -0.03, 'datetime': '2018-10-12 16:30:22.203921', 'mgs': 0, 'depth': -0.98, 'time': 3.89, 'pitch': 1.45, 'roll': -9.1}
{'lipoC2': 7.85, 'temp': 26.44, 'lipoC3S3': 12.12, 'rot1': 0, 'rot0': 0, 'rot3': 0, 'rot2': 0, 'state': 'normal', 'yaw': -0.46, 'datetime': '2018-10-12 16:30:22.301194', 'mgs': 0, 'depth': -0.903, 'time': 3.99, 'pitch': 1.35, 'roll': -9.45}
{'lipoC2': 7.85, 'temp': 26.44, 'lipoC3S3': 12.12, 'rot1': 0, 'rot0': 0, 'rot3': 0, 'rot2': 0, 'state': 'normal', 'yaw': -1.18, 'datetime': '2018-10-12 16:30:22.398247', 'mgs': 0, 'depth': -0.903, 'time': 4.09, 'pitch': 1.0, 'roll': -9.71}
{'lipoC2': 7.84, 'temp': 26.44, 'lipoC3S3': 12.1, 'rot1': 0, 'rot0': 0, 'rot3': 0, 'rot2': 0, 'state': 'normal', 'yaw': -1.75, 'datetime': '2018-10-12 16:30:22.495451', 'mgs': 0, 'depth': -0.903, 'time': 4.19, 'pitch': 0.96, 'roll': -9.67}
{'lipoC2': 7.84, 'temp': 26.44, 'lipoC3S3': 12.1, 'rot1': 0, 'rot0': 0, 'rot3': 0, 'rot2': 0, 'state': 'normal', 'yaw': -2.05, 'datetime': '2018-10-12 16:30:22.592522', 'mgs': 0, 'depth': -0.827, 'time': 4.28, 'pitch': 0.7, 'roll': -9.8}
{'lipoC2': 7.85, 'temp': 26.5, 'lipoC3S3': 12.12, 'rot1': 0, 'rot0': 0, 'rot3': 0, 'rot2': 0, 'state': 'normal', 'yaw': -2.12, 'datetime': '2018-10-12 16:30:22.689619', 'mgs': 0, 'depth': -0.98, 'time': 4.38, 'pitch': 0.81, 'roll': -9.41}
{'lipoC2': 7.84, 'temp': 26.5, 'lipoC3S3': 12.1, 'rot1': 0, 'rot0': 0, 'rot3': 0, 'rot2': 0, 'state': 'normal', 'yaw': -2.22, 'datetime': '2018-10-12 16:30:22.786740', 'mgs': 0, 'depth': -0.903, 'time': 4.48, 'pitch': 0.29, 'roll': -10.27}
{'lipoC2': 7.85, 'temp': 26.5, 'lipoC3S3': 12.12, 'rot1': 0, 'rot0': 0, 'rot3': 0, 'rot2': 0, 'state': 'normal', 'yaw': -2.72, 'datetime': '2018-10-12 16:30:22.884170', 'mgs': 0, 'depth': -0.98, 'time': 4.57, 'pitch': 0.88, 'roll': -9.13}
{'lipoC2': 7.85, 'temp': 26.44, 'lipoC3S3': 12.12, 'rot1': 0, 'rot0': 0, 'rot3': 0, 'rot2': 0, 'state': 'normal', 'yaw': -3.16, 'datetime': '2018-10-12 16:30:22.982238', 'mgs': 0, 'depth': -0.903, 'time': 4.67, 'pitch': 0.55, 'roll': -9.67}
{'lipoC2': 7.85, 'temp': 26.44, 'lipoC3S3': 12.12, 'rot1': 0, 'rot0': 0, 'rot3': 0, 'rot2': 0, 'state': 'normal', 'yaw': -3.33, 'datetime': '2018-10-12 16:30:23.080733', 'mgs': 0, 'depth': -0.903, 'time': 4.77, 'pitch': 0.29, 'roll': -9.66}
{'lipoC2': 7.84, 'temp': 26.5, 'lipoC3S3': 12.12, 'rot1': 0, 'rot0': 0, 'rot3': 0, 'rot2': 0, 'state': 'normal', 'yaw': -3.06, 'datetime': '2018-10-12 16:30:23.178356', 'mgs': 0, 'depth': -0.827, 'time': 4.87, 'pitch': -0.08, 'roll': -10.95}
{'lipoC2': 7.85, 'temp': 26.5, 'lipoC3S3': 12.12, 'rot1': 0, 'rot0': 0, 'rot3': 0, 'rot2': 0, 'state': 'normal', 'yaw': -3.25, 'datetime': '2018-10-12 16:30:23.275652', 'mgs': 0, 'depth': -0.903, 'time': 4.97, 'pitch': 0.08, 'roll': -9.31}
{'lipoC2': 7.85, 'temp': 26.5, 'lipoC3S3': 12.12, 'rot1': 0, 'rot0': 0, 'rot3': 0, 'rot2': 0, 'state': 'normal', 'yaw': -3.09, 'datetime': '2018-10-12 16:30:23.373370', 'mgs': 0, 'depth': -0.903, 'time': 5.06, 'pitch': 0.24, 'roll': -9.3}
{'lipoC2': 7.85, 'temp': 26.5, 'lipoC3S3': 12.12, 'rot1': 0, 'rot0': 0, 'rot3': 0, 'rot2': 0, 'state': 'normal', 'yaw': -3.35, 'datetime': '2018-10-12 16:30:23.471664', 'mgs': 0, 'depth': -0.827, 'time': 5.16, 'pitch': 1.21, 'roll': -9.89}
{'lipoC2': 7.84, 'temp': 26.5, 'lipoC3S3': 12.12, 'rot1': 0, 'rot0': 0, 'rot3': 0, 'rot2': 0, 'state': 'normal', 'yaw': -3.19, 'datetime': '2018-10-12 16:30:23.575138', 'mgs': 0, 'depth': -0.903, 'time': 5.26, 'pitch': 0.87, 'roll': -9.87}
{'lipoC2': 7.84, 'temp': 26.44, 'lipoC3S3': 12.1, 'rot1': 0, 'rot0': 0, 'rot3': 0, 'rot2': 0, 'state': 'normal', 'yaw': -3.33, 'datetime': '2018-10-12 16:30:23.672146', 'mgs': 0, 'depth': -0.903, 'time': 5.36, 'pitch': 0.45, 'roll': -8.81}
{'lipoC2': 7.84, 'temp': 26.44, 'lipoC3S3': 12.1, 'rot1': 0, 'rot0': 0, 'rot3': 0, 'rot2': 0, 'state': 'normal', 'yaw': -3.92, 'datetime': '2018-10-12 16:30:23.769204', 'mgs': 0, 'depth': -0.903, 'time': 5.46, 'pitch': 0.47, 'roll': -8.64}
{'lipoC2': 7.84, 'temp': 26.44, 'lipoC3S3': 12.1, 'rot1': 0, 'rot0': 0, 'rot3': 0, 'rot2': 0, 'state': 'normal', 'yaw': -4.51, 'datetime': '2018-10-12 16:30:23.867340', 'mgs': 0, 'depth': -0.903, 'time': 5.55, 'pitch': 0.39, 'roll': -8.48}
{'lipoC2': 7.84, 'temp': 26.44, 'lipoC3S3': 12.12, 'rot1': 0, 'rot0': 0, 'rot3': 0, 'rot2': 0, 'state': 'normal', 'yaw': -5.21, 'datetime': '2018-10-12 16:30:23.964463', 'mgs': 0, 'depth': -0.903, 'time': 5.65, 'pitch': 0.31, 'roll': -8.45}
{'lipoC2': 7.85, 'temp': 26.44, 'lipoC3S3': 12.12, 'rot1': 0, 'rot0': 0, 'rot3': 0, 'rot2': 0, 'state': 'normal', 'yaw': -5.73, 'datetime': '2018-10-12 16:30:24.061652', 'mgs': 0, 'depth': -0.903, 'time': 5.75, 'pitch': 0.38, 'roll': -8.42}
{'lipoC2': 7.85, 'temp': 26.5, 'lipoC3S3': 12.12, 'rot1': 0, 'rot0': 0, 'rot3': 0, 'rot2': 0, 'state': 'normal', 'yaw': -6.14, 'datetime': '2018-10-12 16:30:24.158853', 'mgs': 0, 'depth': -0.903, 'time': 5.85, 'pitch': 0.29, 'roll': -8.46}
{'lipoC2': 7.84, 'temp': 26.5, 'lipoC3S3': 12.1, 'rot1': 0, 'rot0': 0, 'rot3': 0, 'rot2': 0, 'state': 'normal', 'yaw': -6.37, 'datetime': '2018-10-12 16:30:24.256046', 'mgs': 0, 'depth': -0.903, 'time': 5.94, 'pitch': 0.29, 'roll': -8.5}
{'lipoC2': 7.85, 'temp': 26.5, 'lipoC3S3': 12.1, 'rot1': 0, 'rot0': 0, 'rot3': 0, 'rot2': 0, 'state': 'normal', 'yaw': -6.66, 'datetime': '2018-10-12 16:30:24.353140', 'mgs': 0, 'depth': -0.903, 'time': 6.04, 'pitch': 0.44, 'roll': -8.51}
{'lipoC2': 7.85, 'temp': 26.44, 'lipoC3S3': 12.1, 'rot1': 0, 'rot0': 0, 'rot3': 0, 'rot2': 0, 'state': 'normal', 'yaw': -6.67, 'datetime': '2018-10-12 16:30:24.450225', 'mgs': 0, 'depth': -0.827, 'time': 6.14, 'pitch': 0.81, 'roll': -10.06}
{'lipoC2': 7.85, 'temp': 26.44, 'lipoC3S3': 12.12, 'rot1': 0, 'rot0': 0, 'rot3': 0, 'rot2': 0, 'state': 'normal', 'yaw': -6.49, 'datetime': '2018-10-12 16:30:24.547450', 'mgs': 0, 'depth': -1.056, 'time': 6.24, 'pitch': 0.89, 'roll': -8.34}
{'lipoC2': 7.84, 'temp': 26.5, 'lipoC3S3': 12.12, 'rot1': 0, 'rot0': 0, 'rot3': 0, 'rot2': 0, 'state': 'normal', 'yaw': -6.21, 'datetime': '2018-10-12 16:30:24.644590', 'mgs': 0, 'depth': -0.903, 'time': 6.33, 'pitch': 0.81, 'roll': -9.35}
{'lipoC2': 7.85, 'temp': 26.5, 'lipoC3S3': 12.12, 'rot1': 0, 'rot0': 0, 'rot3': 0, 'rot2': 0, 'state': 'normal', 'yaw': -5.95, 'datetime': '2018-10-12 16:30:24.742060', 'mgs': 0, 'depth': -0.827, 'time': 6.43, 'pitch': 0.61, 'roll': -9.16}
{'lipoC2': 7.84, 'temp': 26.5, 'lipoC3S3': 12.12, 'rot1': 0, 'rot0': 0, 'rot3': 0, 'rot2': 0, 'state': 'normal', 'yaw': -5.58, 'datetime': '2018-10-12 16:30:24.840120', 'mgs': 0, 'depth': -0.903, 'time': 6.53, 'pitch': 0.81, 'roll': -9.14}
{'lipoC2': 7.84, 'temp': 26.5, 'lipoC3S3': 12.1, 'rot1': 0, 'rot0': 0, 'rot3': 0, 'rot2': 0, 'state': 'normal', 'yaw': -5.26, 'datetime': '2018-10-12 16:30:24.933528', 'mgs': 0, 'depth': -0.903, 'time': 6.63, 'pitch': 0.92, 'roll': -8.84}
{'lipoC2': 7.85, 'temp': 26.5, 'lipoC3S3': 12.12, 'rot1': 0, 'rot0': 0, 'rot3': 0, 'rot2': 0, 'state': 'normal', 'yaw': -5.28, 'datetime': '2018-10-12 16:30:25.031427', 'mgs': 0, 'depth': -0.903, 'time': 6.72, 'pitch': 0.5, 'roll': -8.96}
{'lipoC2': 7.84, 'temp': 26.44, 'lipoC3S3': 12.1, 'rot1': 0, 'rot0': 0, 'rot3': 0, 'rot2': 0, 'state': 'normal', 'yaw': -5.53, 'datetime': '2018-10-12 16:30:25.128436', 'mgs': 0, 'depth': -0.827, 'time': 6.82, 'pitch': 0.08, 'roll': -8.95}
{'lipoC2': 7.85, 'temp': 26.44, 'lipoC3S3': 12.12, 'rot1': 0, 'rot0': 0, 'rot3': 0, 'rot2': 0, 'state': 'normal', 'yaw': -5.8, 'datetime': '2018-10-12 16:30:25.226218', 'mgs': 0, 'depth': -0.903, 'time': 6.92, 'pitch': 0.03, 'roll': -8.95}
{'lipoC2': 7.85, 'temp': 26.44, 'lipoC3S3': 12.12, 'rot1': 0, 'rot0': 0, 'rot3': 0, 'rot2': 0, 'state': 'normal', 'yaw': -6.22, 'datetime': '2018-10-12 16:30:25.324468', 'mgs': 0, 'depth': -0.903, 'time': 7.02, 'pitch': 0.18, 'roll': -9.16}
{'lipoC2': 7.85, 'temp': 26.5, 'lipoC3S3': 12.12, 'rot1': 0, 'rot0': 0, 'rot3': 0, 'rot2': 0, 'state': 'normal', 'yaw': -6.81, 'datetime': '2018-10-12 16:30:25.421820', 'mgs': 0, 'depth': -0.98, 'time': 7.11, 'pitch': 0.23, 'roll': -9.56}
{'lipoC2': 7.84, 'temp': 26.5, 'lipoC3S3': 12.12, 'rot1': 0, 'rot0': 0, 'rot3': 0, 'rot2': 0, 'state': 'normal', 'yaw': -7.31, 'datetime': '2018-10-12 16:30:25.518783', 'mgs': 0, 'depth': -0.903, 'time': 7.21, 'pitch': 0.22, 'roll': -9.66}
{'lipoC2': 7.84, 'temp': 26.44, 'lipoC3S3': 12.1, 'rot1': 0, 'rot0': 0, 'rot3': 0, 'rot2': 0, 'state': 'normal', 'yaw': -7.86, 'datetime': '2018-10-12 16:30:25.616620', 'mgs': 0, 'depth': -0.903, 'time': 7.31, 'pitch': 0.06, 'roll': -9.33}
{'lipoC2': 7.85, 'temp': 26.44, 'lipoC3S3': 12.1, 'rot1': 0, 'rot0': 0, 'rot3': 0, 'rot2': 0, 'state': 'normal', 'yaw': -8.53, 'datetime': '2018-10-12 16:30:25.714936', 'mgs': 0, 'depth': -0.98, 'time': 7.41, 'pitch': -0.22, 'roll': -9.19}
{'lipoC2': 7.84, 'temp': 26.44, 'lipoC3S3': 12.12, 'rot1': 0, 'rot0': 0, 'rot3': 0, 'rot2': 0, 'state': 'normal', 'yaw': -8.98, 'datetime': '2018-10-12 16:30:25.812149', 'mgs': 0, 'depth': -0.98, 'time': 7.51, 'pitch': -0.26, 'roll': -9.3}
{'lipoC2': 7.85, 'temp': 26.5, 'lipoC3S3': 12.12, 'rot1': 0, 'rot0': 0, 'rot3': 0, 'rot2': 0, 'state': 'normal', 'yaw': -9.27, 'datetime': '2018-10-12 16:30:25.909196', 'mgs': 0, 'depth': -0.903, 'time': 7.6, 'pitch': -0.23, 'roll': -9.56}
{'lipoC2': 7.85, 'temp': 26.5, 'lipoC3S3': 12.1, 'rot1': 0, 'rot0': 0, 'rot3': 0, 'rot2': 0, 'state': 'normal', 'yaw': -9.19, 'datetime': '2018-10-12 16:30:26.006453', 'mgs': 0, 'depth': -0.903, 'time': 7.7, 'pitch': -0.01, 'roll': -9.93}
{'lipoC2': 7.85, 'temp': 26.5, 'lipoC3S3': 12.12, 'rot1': 0, 'rot0': 0, 'rot3': 0, 'rot2': 0, 'state': 'normal', 'yaw': -8.69, 'datetime': '2018-10-12 16:30:26.103751', 'mgs': 0, 'depth': -0.98, 'time': 7.8, 'pitch': 0.13, 'roll': -9.84}
{'lipoC2': 7.85, 'temp': 26.5, 'lipoC3S3': 12.12, 'rot1': 0, 'rot0': 0, 'rot3': 0, 'rot2': 0, 'state': 'normal', 'yaw': -8.42, 'datetime': '2018-10-12 16:30:26.200566', 'mgs': 0, 'depth': -0.98, 'time': 7.89, 'pitch': 0.3, 'roll': -10.38}
{'lipoC2': 7.85, 'temp': 26.5, 'lipoC3S3': 12.12, 'rot1': 0, 'rot0': 0, 'rot3': 0, 'rot2': 0, 'state': 'normal', 'yaw': -8.17, 'datetime': '2018-10-12 16:30:26.298045', 'mgs': 0, 'depth': -0.98, 'time': 7.99, 'pitch': 0.2, 'roll': -9.69}
{'lipoC2': 7.85, 'temp': 26.44, 'lipoC3S3': 12.1, 'rot1': 0, 'rot0': 0, 'rot3': 0, 'rot2': 0, 'state': 'normal', 'yaw': -7.91, 'datetime': '2018-10-12 16:30:26.395179', 'mgs': 0, 'depth': -0.98, 'time': 8.09, 'pitch': 0.46, 'roll': -9.86}
{'lipoC2': 7.85, 'temp': 26.44, 'lipoC3S3': 12.12, 'rot1': 0, 'rot0': 0, 'rot3': 0, 'rot2': 0, 'state': 'normal', 'yaw': -7.66, 'datetime': '2018-10-12 16:30:26.492251', 'mgs': 0, 'depth': -0.98, 'time': 8.19, 'pitch': 0.49, 'roll': -9.85}
{'lipoC2': 7.85, 'temp': 26.5, 'lipoC3S3': 12.12, 'rot1': 0, 'rot0': 0, 'rot3': 0, 'rot2': 0, 'state': 'normal', 'yaw': -7.49, 'datetime': '2018-10-12 16:30:26.589693', 'mgs': 0, 'depth': -0.98, 'time': 8.28, 'pitch': 0.23, 'roll': -9.77}
{'lipoC2': 7.85, 'temp': 26.5, 'lipoC3S3': 12.12, 'rot1': 0, 'rot0': 0, 'rot3': 0, 'rot2': 0, 'state': 'normal', 'yaw': -7.48, 'datetime': '2018-10-12 16:30:26.687789', 'mgs': 0, 'depth': -0.903, 'time': 8.38, 'pitch': 0.22, 'roll': -9.79}
{'lipoC2': 7.85, 'temp': 26.5, 'lipoC3S3': 12.12, 'rot1': 0, 'rot0': 0, 'rot3': 0, 'rot2': 0, 'state': 'normal', 'yaw': -7.16, 'datetime': '2018-10-12 16:30:26.786180', 'mgs': 0, 'depth': -0.903, 'time': 8.48, 'pitch': 0.47, 'roll': -10.15}
{'lipoC2': 7.85, 'temp': 26.5, 'lipoC3S3': 12.1, 'rot1': 0, 'rot0': 0, 'rot3': 0, 'rot2': 0, 'state': 'normal', 'yaw': -6.55, 'datetime': '2018-10-12 16:30:26.883465', 'mgs': 0, 'depth': -0.903, 'time': 8.58, 'pitch': 0.32, 'roll': -10.1}
{'lipoC2': 7.85, 'temp': 26.5, 'lipoC3S3': 12.12, 'rot1': 0, 'rot0': 0, 'rot3': 0, 'rot2': 0, 'state': 'normal', 'yaw': -5.79, 'datetime': '2018-10-12 16:30:26.980432', 'mgs': 0, 'depth': -0.903, 'time': 8.68, 'pitch': -0.29, 'roll': -10.24}
{'lipoC2': 7.84, 'temp': 26.5, 'lipoC3S3': 12.12, 'rot1': 0, 'rot0': 0, 'rot3': 0, 'rot2': 0, 'state': 'normal', 'yaw': -4.93, 'datetime': '2018-10-12 16:30:27.078716', 'mgs': 0, 'depth': -0.903, 'time': 8.77, 'pitch': -0.67, 'roll': -10.65}
{'lipoC2': 7.84, 'temp': 26.5, 'lipoC3S3': 12.12, 'rot1': 0, 'rot0': 0, 'rot3': 0, 'rot2': 0, 'state': 'normal', 'yaw': -3.97, 'datetime': '2018-10-12 16:30:27.177171', 'mgs': 0, 'depth': -0.903, 'time': 8.87, 'pitch': -1.0, 'roll': -11.35}
{'lipoC2': 7.84, 'temp': 26.44, 'lipoC3S3': 12.1, 'rot1': 0, 'rot0': 0, 'rot3': 0, 'rot2': 0, 'state': 'normal', 'yaw': -3.31, 'datetime': '2018-10-12 16:30:27.274511', 'mgs': 0, 'depth': -0.827, 'time': 8.97, 'pitch': -1.25, 'roll': -12.11}
{'lipoC2': 7.84, 'temp': 26.44, 'lipoC3S3': 12.1, 'rot1': 0, 'rot0': 0, 'rot3': 0, 'rot2': 0, 'state': 'normal', 'yaw': -3.08, 'datetime': '2018-10-12 16:30:27.371679', 'mgs': 0, 'depth': -0.827, 'time': 9.07, 'pitch': -0.63, 'roll': -12.21}
{'lipoC2': 7.85, 'temp': 26.44, 'lipoC3S3': 12.12, 'rot1': 0, 'rot0': 0, 'rot3': 0, 'rot2': 0, 'state': 'normal', 'yaw': -3.14, 'datetime': '2018-10-12 16:30:27.469655', 'mgs': 0, 'depth': -0.827, 'time': 9.16, 'pitch': -0.45, 'roll': -12.44}
{'lipoC2': 7.85, 'temp': 26.44, 'lipoC3S3': 12.12, 'rot1': 0, 'rot0': 0, 'rot3': 0, 'rot2': 0, 'state': 'normal', 'yaw': -3.02, 'datetime': '2018-10-12 16:30:27.568321', 'mgs': 0, 'depth': -0.903, 'time': 9.26, 'pitch': -0.11, 'roll': -12.21}
{'lipoC2': 7.85, 'temp': 26.44, 'lipoC3S3': 12.12, 'rot1': 0, 'rot0': 0, 'rot3': 0, 'rot2': 0, 'state': 'normal', 'yaw': -2.67, 'datetime': '2018-10-12 16:30:27.665181', 'mgs': 0, 'depth': -0.98, 'time': 9.36, 'pitch': 0.03, 'roll': -11.69}
{'lipoC2': 7.85, 'temp': 26.5, 'lipoC3S3': 12.12, 'rot1': 0, 'rot0': 0, 'rot3': 0, 'rot2': 0, 'state': 'normal', 'yaw': -2.45, 'datetime': '2018-10-12 16:30:27.762251', 'mgs': 0, 'depth': -0.827, 'time': 9.46, 'pitch': 0.63, 'roll': -11.13}
{'lipoC2': 7.84, 'temp': 26.5, 'lipoC3S3': 12.1, 'rot1': 0, 'rot0': 0, 'rot3': 0, 'rot2': 0, 'state': 'normal', 'yaw': -2.37, 'datetime': '2018-10-12 16:30:27.859409', 'mgs': 0, 'depth': -0.827, 'time': 9.56, 'pitch': 1.21, 'roll': -11.18}
{'lipoC2': 7.84, 'temp': 26.5, 'lipoC3S3': 12.1, 'rot1': 0, 'rot0': 0, 'rot3': 0, 'rot2': 0, 'state': 'normal', 'yaw': -2.41, 'datetime': '2018-10-12 16:30:27.956551', 'mgs': 0, 'depth': -0.827, 'time': 9.65, 'pitch': 1.34, 'roll': -11.14}
{'lipoC2': 7.85, 'temp': 26.44, 'lipoC3S3': 12.1, 'rot1': 0, 'rot0': 0, 'rot3': 0, 'rot2': 0, 'state': 'normal', 'yaw': -2.46, 'datetime': '2018-10-12 16:30:28.058512', 'mgs': 0, 'depth': -0.903, 'time': 9.75, 'pitch': 1.23, 'roll': -11.07}
{'lipoC2': 7.85, 'temp': 26.44, 'lipoC3S3': 12.12, 'rot1': 0, 'rot0': 0, 'rot3': 0, 'rot2': 0, 'state': 'normal', 'yaw': -2.51, 'datetime': '2018-10-12 16:30:28.155916', 'mgs': 0, 'depth': -0.98, 'time': 9.85, 'pitch': 1.15, 'roll': -10.87}
{'lipoC2': 7.85, 'temp': 26.44, 'lipoC3S3': 12.12, 'rot1': 0, 'rot0': 0, 'rot3': 0, 'rot2': 0, 'state': 'normal', 'yaw': -2.33, 'datetime': '2018-10-12 16:30:28.253637', 'mgs': 0, 'depth': -0.903, 'time': 9.94, 'pitch': 1.28, 'roll': -10.93}
{'lipoC2': 7.85, 'temp': 26.44, 'lipoC3S3': 12.1, 'rot1': 0, 'rot0': 0, 'rot3': 0, 'rot2': 0, 'state': 'normal', 'yaw': -1.99, 'datetime': '2018-10-12 16:30:28.350126', 'mgs': 0, 'depth': -0.903, 'time': 10.04, 'pitch': 1.72, 'roll': -10.31}
{'lipoC2': 7.85, 'temp': 26.44, 'lipoC3S3': 12.1, 'rot1': 0, 'rot0': 0, 'rot3': 0, 'rot2': 0, 'state': 'normal', 'yaw': -1.7, 'datetime': '2018-10-12 16:30:28.447173', 'mgs': 0, 'depth': -0.827, 'time': 10.14, 'pitch': 2.02, 'roll': -9.79}
{'lipoC2': 7.85, 'temp': 26.5, 'lipoC3S3': 12.12, 'rot1': 0, 'rot0': 0, 'rot3': 0, 'rot2': 0, 'state': 'normal', 'yaw': -1.7, 'datetime': '2018-10-12 16:30:28.545697', 'mgs': 0, 'depth': -0.903, 'time': 10.24, 'pitch': 2.09, 'roll': -9.83}
{'lipoC2': 7.85, 'temp': 26.5, 'lipoC3S3': 12.12, 'rot1': 0, 'rot0': 0, 'rot3': 0, 'rot2': 0, 'state': 'normal', 'yaw': -1.81, 'datetime': '2018-10-12 16:30:28.644068', 'mgs': 0, 'depth': -0.903, 'time': 10.34, 'pitch': 2.04, 'roll': -10.17}
{'lipoC2': 7.84, 'temp': 26.5, 'lipoC3S3': 12.1, 'rot1': 0, 'rot0': 0, 'rot3': 0, 'rot2': 0, 'state': 'normal', 'yaw': -1.69, 'datetime': '2018-10-12 16:30:28.741236', 'mgs': 0, 'depth': -0.827, 'time': 10.43, 'pitch': 2.04, 'roll': -9.97}
{'lipoC2': 7.85, 'temp': 26.5, 'lipoC3S3': 12.12, 'rot1': 0, 'rot0': 0, 'rot3': 0, 'rot2': 0, 'state': 'normal', 'yaw': -1.67, 'datetime': '2018-10-12 16:30:28.838267', 'mgs': 0, 'depth': -0.903, 'time': 10.53, 'pitch': 2.04, 'roll': -11.08}
{'lipoC2': 7.85, 'temp': 26.5, 'lipoC3S3': 12.12, 'rot1': 0, 'rot0': 0, 'rot3': 0, 'rot2': 0, 'state': 'normal', 'yaw': -1.63, 'datetime': '2018-10-12 16:30:28.936647', 'mgs': 0, 'depth': -0.903, 'time': 10.63, 'pitch': 1.55, 'roll': -10.22}
{'lipoC2': 7.84, 'temp': 26.44, 'lipoC3S3': 12.12, 'rot1': 0, 'rot0': 0, 'rot3': 0, 'rot2': 0, 'state': 'normal', 'yaw': -1.41, 'datetime': '2018-10-12 16:30:29.034962', 'mgs': 0, 'depth': -0.903, 'time': 10.73, 'pitch': 1.66, 'roll': -10.18}
{'lipoC2': 7.84, 'temp': 26.44, 'lipoC3S3': 12.12, 'rot1': 0, 'rot0': 0, 'rot3': 0, 'rot2': 0, 'state': 'normal', 'yaw': -1.09, 'datetime': '2018-10-12 16:30:29.132338', 'mgs': 0, 'depth': -0.827, 'time': 10.82, 'pitch': 1.86, 'roll': -9.51}
{'lipoC2': 7.85, 'temp': 26.44, 'lipoC3S3': 12.12, 'rot1': 0, 'rot0': 0, 'rot3': 0, 'rot2': 0, 'state': 'normal', 'yaw': -0.55, 'datetime': '2018-10-12 16:30:29.229180', 'mgs': 0, 'depth': -0.903, 'time': 10.92, 'pitch': 1.77, 'roll': -9.02}
{'lipoC2': 7.85, 'temp': 26.44, 'lipoC3S3': 12.12, 'rot1': 0, 'rot0': 0, 'rot3': 0, 'rot2': 0, 'state': 'normal', 'yaw': -0.11, 'datetime': '2018-10-12 16:30:29.327633', 'mgs': 0, 'depth': -0.751, 'time': 11.02, 'pitch': 1.23, 'roll': -8.7}
{'lipoC2': 7.84, 'temp': 26.44, 'lipoC3S3': 12.12, 'rot1': 0, 'rot0': 0, 'rot3': 0, 'rot2': 0, 'state': 'normal', 'yaw': 0.38, 'datetime': '2018-10-12 16:30:29.424810', 'mgs': 0, 'depth': -0.674, 'time': 11.12, 'pitch': 0.99, 'roll': -8.77}
{'lipoC2': 7.85, 'temp': 26.44, 'lipoC3S3': 12.12, 'rot1': 0, 'rot0': 0, 'rot3': 0, 'rot2': 0, 'state': 'normal', 'yaw': 0.59, 'datetime': '2018-10-12 16:30:29.521912', 'mgs': 0, 'depth': -0.674, 'time': 11.21, 'pitch': 0.86, 'roll': -9.12}
{'lipoC2': 7.85, 'temp': 26.44, 'lipoC3S3': 12.12, 'rot1': 0, 'rot0': 0, 'rot3': 0, 'rot2': 0, 'state': 'normal', 'yaw': 0.33, 'datetime': '2018-10-12 16:30:29.619024', 'mgs': 0, 'depth': -0.674, 'time': 11.31, 'pitch': 0.77, 'roll': -9.53}
{'lipoC2': 7.85, 'temp': 26.44, 'lipoC3S3': 12.12, 'rot1': 0, 'rot0': 0, 'rot3': 0, 'rot2': 0, 'state': 'normal', 'yaw': -0.23, 'datetime': '2018-10-12 16:30:29.716170', 'mgs': 0, 'depth': -0.522, 'time': 11.41, 'pitch': 1.0, 'roll': -10.15}
{'lipoC2': 7.84, 'temp': 26.44, 'lipoC3S3': 12.12, 'rot1': 0, 'rot0': 0, 'rot3': 0, 'rot2': 0, 'state': 'normal', 'yaw': -0.62, 'datetime': '2018-10-12 16:30:29.813165', 'mgs': 0, 'depth': -0.522, 'time': 11.51, 'pitch': 1.37, 'roll': -10.06}
{'lipoC2': 7.85, 'temp': 26.44, 'lipoC3S3': 12.12, 'rot1': 0, 'rot0': 0, 'rot3': 0, 'rot2': 0, 'state': 'normal', 'yaw': -0.96, 'datetime': '2018-10-12 16:30:29.910280', 'mgs': 0, 'depth': -0.522, 'time': 11.6, 'pitch': 1.34, 'roll': -9.63}
{'lipoC2': 7.85, 'temp': 26.5, 'lipoC3S3': 12.1, 'rot1': 0, 'rot0': 0, 'rot3': 0, 'rot2': 0, 'state': 'normal', 'yaw': -1.27, 'datetime': '2018-10-12 16:30:30.002362', 'mgs': 0, 'depth': -0.369, 'time': 11.7, 'pitch': 1.02, 'roll': -9.2}
{'lipoC2': 7.84, 'temp': 26.5, 'lipoC3S3': 12.12, 'rot1': 0, 'rot0': 0, 'rot3': 0, 'rot2': 0, 'state': 'normal', 'yaw': -1.37, 'datetime': '2018-10-12 16:30:30.099563', 'mgs': 0, 'depth': -0.293, 'time': 11.8, 'pitch': 0.64, 'roll': -8.9}
{'lipoC2': 7.85, 'temp': 26.44, 'lipoC3S3': 12.12, 'rot1': 0, 'rot0': 0, 'rot3': 0, 'rot2': 0, 'state': 'normal', 'yaw': -1.0, 'datetime': '2018-10-12 16:30:30.201539', 'mgs': 0, 'depth': -0.217, 'time': 11.9, 'pitch': 0.46, 'roll': -8.66}
{'lipoC2': 7.85, 'temp': 26.44, 'lipoC3S3': 12.1, 'rot1': 0, 'rot0': 0, 'rot3': 0, 'rot2': 0, 'state': 'normal', 'yaw': -0.89, 'datetime': '2018-10-12 16:30:30.299716', 'mgs': 0, 'depth': -0.217, 'time': 11.99, 'pitch': -0.04, 'roll': -8.69}
{'lipoC2': 7.85, 'temp': 26.44, 'lipoC3S3': 12.1, 'rot1': 0, 'rot0': 0, 'rot3': 0, 'rot2': 0, 'state': 'normal', 'yaw': -1.49, 'datetime': '2018-10-12 16:30:30.398074', 'mgs': 0, 'depth': -0.293, 'time': 12.09, 'pitch': -0.41, 'roll': -9.62}
{'lipoC2': 7.85, 'temp': 26.5, 'lipoC3S3': 12.12, 'rot1': 0, 'rot0': 0, 'rot3': 0, 'rot2': 0, 'state': 'normal', 'yaw': -2.3, 'datetime': '2018-10-12 16:30:30.495057', 'mgs': 0, 'depth': -0.217, 'time': 12.19, 'pitch': -0.8, 'roll': -10.67}
{'lipoC2': 7.85, 'temp': 26.5, 'lipoC3S3': 12.1, 'rot1': 0, 'rot0': 0, 'rot3': 0, 'rot2': 0, 'state': 'normal', 'yaw': -3.04, 'datetime': '2018-10-12 16:30:30.592398', 'mgs': 0, 'depth': -0.217, 'time': 12.28, 'pitch': -1.18, 'roll': -10.87}
{'lipoC2': 7.85, 'temp': 26.5, 'lipoC3S3': 12.1, 'rot1': 0, 'rot0': 0, 'rot3': 0, 'rot2': 0, 'state': 'normal', 'yaw': -3.87, 'datetime': '2018-10-12 16:30:30.690071', 'mgs': 0, 'depth': -0.217, 'time': 12.38, 'pitch': -1.15, 'roll': -10.47}
{'lipoC2': 7.84, 'temp': 26.5, 'lipoC3S3': 12.12, 'rot1': 0, 'rot0': 0, 'rot3': 0, 'rot2': 0, 'state': 'normal', 'yaw': -5.17, 'datetime': '2018-10-12 16:30:30.788425', 'mgs': 0, 'depth': -0.369, 'time': 12.48, 'pitch': -1.03, 'roll': -10.21}
{'lipoC2': 7.84, 'temp': 26.5, 'lipoC3S3': 12.1, 'rot1': 0, 'rot0': 0, 'rot3': 0, 'rot2': 0, 'state': 'normal', 'yaw': -6.33, 'datetime': '2018-10-12 16:30:30.885622', 'mgs': 0, 'depth': -0.369, 'time': 12.58, 'pitch': -1.11, 'roll': -10.26}
{'lipoC2': 7.85, 'temp': 26.5, 'lipoC3S3': 12.12, 'rot1': 0, 'rot0': 0, 'rot3': 0, 'rot2': 0, 'state': 'normal', 'yaw': -7.07, 'datetime': '2018-10-12 16:30:30.982696', 'mgs': 0, 'depth': -0.369, 'time': 12.68, 'pitch': -0.98, 'roll': -10.7}
{'lipoC2': 7.84, 'temp': 26.5, 'lipoC3S3': 12.12, 'rot1': 0, 'rot0': 0, 'rot3': 0, 'rot2': 0, 'state': 'normal', 'yaw': -7.37, 'datetime': '2018-10-12 16:30:31.080733', 'mgs': 0, 'depth': -0.369, 'time': 12.77, 'pitch': -0.83, 'roll': -10.94}
{'lipoC2': 7.84, 'temp': 26.5, 'lipoC3S3': 12.12, 'rot1': 0, 'rot0': 0, 'rot3': 0, 'rot2': 0, 'state': 'normal', 'yaw': -7.14, 'datetime': '2018-10-12 16:30:31.177700', 'mgs': 0, 'depth': -0.369, 'time': 12.87, 'pitch': -0.94, 'roll': -10.79}
{'lipoC2': 7.84, 'temp': 26.5, 'lipoC3S3': 12.12, 'rot1': 0, 'rot0': 0, 'rot3': 0, 'rot2': 0, 'state': 'normal', 'yaw': -6.64, 'datetime': '2018-10-12 16:30:31.274943', 'mgs': 0, 'depth': -0.446, 'time': 12.97, 'pitch': -0.89, 'roll': -10.72}
{'lipoC2': 7.84, 'temp': 26.5, 'lipoC3S3': 12.1, 'rot1': 0, 'rot0': 0, 'rot3': 0, 'rot2': 0, 'state': 'normal', 'yaw': -6.13, 'datetime': '2018-10-12 16:30:31.371956', 'mgs': 0, 'depth': -0.446, 'time': 13.07, 'pitch': -0.7, 'roll': -10.65}
{'lipoC2': 7.85, 'temp': 26.5, 'lipoC3S3': 12.1, 'rot1': 0, 'rot0': 0, 'rot3': 0, 'rot2': 0, 'state': 'normal', 'yaw': -5.84, 'datetime': '2018-10-12 16:30:31.469167', 'mgs': 0, 'depth': -0.522, 'time': 13.16, 'pitch': -0.44, 'roll': -10.53}
{'lipoC2': 7.85, 'temp': 26.5, 'lipoC3S3': 12.1, 'rot1': 0, 'rot0': 0, 'rot3': 0, 'rot2': 0, 'state': 'normal', 'yaw': -5.63, 'datetime': '2018-10-12 16:30:31.561234', 'mgs': 0, 'depth': -0.674, 'time': 13.26, 'pitch': -0.16, 'roll': -10.48}
{'lipoC2': 7.84, 'temp': 26.5, 'lipoC3S3': 12.12, 'rot1': 0, 'rot0': 0, 'rot3': 0, 'rot2': 0, 'state': 'normal', 'yaw': -5.49, 'datetime': '2018-10-12 16:30:31.658499', 'mgs': 0, 'depth': -0.827, 'time': 13.36, 'pitch': 0.05, 'roll': -10.24}
{'lipoC2': 7.85, 'temp': 26.5, 'lipoC3S3': 12.12, 'rot1': 0, 'rot0': 0, 'rot3': 0, 'rot2': 0, 'state': 'normal', 'yaw': -5.19, 'datetime': '2018-10-12 16:30:31.755477', 'mgs': 0, 'depth': -0.903, 'time': 13.45, 'pitch': 0.17, 'roll': -10.1}
{'lipoC2': 7.84, 'temp': 26.5, 'lipoC3S3': 12.1, 'rot1': 0, 'rot0': 0, 'rot3': 0, 'rot2': 0, 'state': 'normal', 'yaw': -4.8, 'datetime': '2018-10-12 16:30:31.852779', 'mgs': 0, 'depth': -0.674, 'time': 13.55, 'pitch': 0.31, 'roll': -10.29}
{'lipoC2': 7.85, 'temp': 26.44, 'lipoC3S3': 12.12, 'rot1': 0, 'rot0': 0, 'rot3': 0, 'rot2': 0, 'state': 'normal', 'yaw': -4.53, 'datetime': '2018-10-12 16:30:31.949827', 'mgs': 0, 'depth': -0.598, 'time': 13.65, 'pitch': 0.29, 'roll': -10.29}
{'lipoC2': 7.84, 'temp': 26.44, 'lipoC3S3': 12.12, 'rot1': 0, 'rot0': 0, 'rot3': 0, 'rot2': 0, 'state': 'normal', 'yaw': -4.55, 'datetime': '2018-10-12 16:30:32.047581', 'mgs': 0, 'depth': -0.522, 'time': 13.75, 'pitch': 0.19, 'roll': -10.01}
{'lipoC2': 7.84, 'temp': 26.5, 'lipoC3S3': 12.12, 'rot1': 0, 'rot0': 0, 'rot3': 0, 'rot2': 0, 'state': 'normal', 'yaw': -5.0, 'datetime': '2018-10-12 16:30:32.146159', 'mgs': 0, 'depth': -0.598, 'time': 13.85, 'pitch': -0.08, 'roll': -9.81}
{'lipoC2': 7.85, 'temp': 26.5, 'lipoC3S3': 12.12, 'rot1': 0, 'rot0': 0, 'rot3': 0, 'rot2': 0, 'state': 'normal', 'yaw': -5.69, 'datetime': '2018-10-12 16:30:32.243296', 'mgs': 0, 'depth': -0.751, 'time': 13.94, 'pitch': -0.17, 'roll': -9.75}
{'lipoC2': 7.85, 'temp': 26.5, 'lipoC3S3': 12.12, 'rot1': 0, 'rot0': 0, 'rot3': 0, 'rot2': 0, 'state': 'normal', 'yaw': -6.45, 'datetime': '2018-10-12 16:30:32.340291', 'mgs': 0, 'depth': -0.674, 'time': 14.04, 'pitch': 0.28, 'roll': -9.85}
{'lipoC2': 7.85, 'temp': 26.56, 'lipoC3S3': 12.1, 'rot1': 0, 'rot0': 0, 'rot3': 0, 'rot2': 0, 'state': 'normal', 'yaw': -6.96, 'datetime': '2018-10-12 16:30:32.438125', 'mgs': 0, 'depth': -0.827, 'time': 14.14, 'pitch': 0.8, 'roll': -10.03}
{'lipoC2': 7.85, 'temp': 26.56, 'lipoC3S3': 12.12, 'rot1': 0, 'rot0': 0, 'rot3': 0, 'rot2': 0, 'state': 'normal', 'yaw': -7.11, 'datetime': '2018-10-12 16:30:32.536480', 'mgs': 0, 'depth': -0.903, 'time': 14.24, 'pitch': 1.37, 'roll': -10.24}
{'lipoC2': 7.85, 'temp': 26.5, 'lipoC3S3': 12.12, 'rot1': 0, 'rot0': 0, 'rot3': 0, 'rot2': 0, 'state': 'normal', 'yaw': -6.79, 'datetime': '2018-10-12 16:30:32.634053', 'mgs': 0, 'depth': -0.827, 'time': 14.33, 'pitch': 1.24, 'roll': -10.24}
{'lipoC2': 7.84, 'temp': 26.5, 'lipoC3S3': 12.1, 'rot1': 0, 'rot0': 0, 'rot3': 0, 'rot2': 0, 'state': 'normal', 'yaw': -6.46, 'datetime': '2018-10-12 16:30:32.731112', 'mgs': 0, 'depth': -0.674, 'time': 14.43, 'pitch': 1.1, 'roll': -10.35}
{'lipoC2': 7.84, 'temp': 26.5, 'lipoC3S3': 12.1, 'rot1': 0, 'rot0': 0, 'rot3': 0, 'rot2': 0, 'state': 'normal', 'yaw': -6.27, 'datetime': '2018-10-12 16:30:32.828785', 'mgs': 0, 'depth': -0.674, 'time': 14.53, 'pitch': 0.78, 'roll': -10.47}
{'lipoC2': 7.84, 'temp': 26.5, 'lipoC3S3': 12.1, 'rot1': 0, 'rot0': 0, 'rot3': 0, 'rot2': 0, 'state': 'normal', 'yaw': -6.26, 'datetime': '2018-10-12 16:30:32.925995', 'mgs': 0, 'depth': -0.674, 'time': 14.63, 'pitch': -0.06, 'roll': -10.35}
{'lipoC2': 7.85, 'temp': 26.5, 'lipoC3S3': 12.1, 'rot1': 0, 'rot0': 0, 'rot3': 0, 'rot2': 0, 'state': 'normal', 'yaw': -6.48, 'datetime': '2018-10-12 16:30:33.023065', 'mgs': 0, 'depth': -0.751, 'time': 14.72, 'pitch': -1.35, 'roll': -10.15}
{'lipoC2': 7.84, 'temp': 26.5, 'lipoC3S3': 12.12, 'rot1': 0, 'rot0': 0, 'rot3': 0, 'rot2': 0, 'state': 'normal', 'yaw': -6.77, 'datetime': '2018-10-12 16:30:33.120069', 'mgs': 0, 'depth': -0.827, 'time': 14.82, 'pitch': -1.4, 'roll': -9.96}
{'lipoC2': 7.84, 'temp': 26.5, 'lipoC3S3': 12.12, 'rot1': 0, 'rot0': 0, 'rot3': 0, 'rot2': 0, 'state': 'normal', 'yaw': -6.98, 'datetime': '2018-10-12 16:30:33.217290', 'mgs': 0, 'depth': -0.751, 'time': 14.92, 'pitch': -1.06, 'roll': -10.02}
{'lipoC2': 7.85, 'temp': 26.5, 'lipoC3S3': 12.12, 'rot1': 0, 'rot0': 0, 'rot3': 0, 'rot2': 0, 'state': 'normal', 'yaw': -7.02, 'datetime': '2018-10-12 16:30:33.314308', 'mgs': 0, 'depth': -0.827, 'time': 15.02, 'pitch': -0.83, 'roll': -9.87}
{'lipoC2': 7.85, 'temp': 26.44, 'lipoC3S3': 12.12, 'rot1': 0, 'rot0': 0, 'rot3': 0, 'rot2': 0, 'state': 'normal', 'yaw': -7.0, 'datetime': '2018-10-12 16:30:33.411545', 'mgs': 0, 'depth': -0.751, 'time': 15.11, 'pitch': -1.23, 'roll': -9.4}
{'lipoC2': 7.85, 'temp': 26.44, 'lipoC3S3': 12.12, 'rot1': 0, 'rot0': 0, 'rot3': 0, 'rot2': 0, 'state': 'normal', 'yaw': -7.1, 'datetime': '2018-10-12 16:30:33.508798', 'mgs': 0, 'depth': -0.674, 'time': 15.21, 'pitch': -1.46, 'roll': -9.03}
{'lipoC2': 7.84, 'temp': 26.44, 'lipoC3S3': 12.1, 'rot1': 0, 'rot0': 0, 'rot3': 0, 'rot2': 0, 'state': 'normal', 'yaw': -7.67, 'datetime': '2018-10-12 16:30:33.606134', 'mgs': 0, 'depth': -0.674, 'time': 15.31, 'pitch': -1.56, 'roll': -8.46}
{'lipoC2': 7.84, 'temp': 26.44, 'lipoC3S3': 12.1, 'rot1': 0, 'rot0': 0, 'rot3': 0, 'rot2': 0, 'state': 'normal', 'yaw': -8.21, 'datetime': '2018-10-12 16:30:33.703108', 'mgs': 0, 'depth': -0.674, 'time': 15.4, 'pitch': -1.74, 'roll': -7.78}
{'lipoC2': 7.84, 'temp': 26.44, 'lipoC3S3': 12.1, 'rot1': 0, 'rot0': 0, 'rot3': 0, 'rot2': 0, 'state': 'normal', 'yaw': -8.5, 'datetime': '2018-10-12 16:30:33.800676', 'mgs': 0, 'depth': -0.598, 'time': 15.5, 'pitch': -1.79, 'roll': -7.51}
{'lipoC2': 7.84, 'temp': 26.56, 'lipoC3S3': 12.12, 'rot1': 0, 'rot0': 0, 'rot3': 0, 'rot2': 0, 'state': 'normal', 'yaw': -8.39, 'datetime': '2018-10-12 16:30:33.898960', 'mgs': 0, 'depth': -0.522, 'time': 15.6, 'pitch': -1.75, 'roll': -7.84}
{'lipoC2': 7.85, 'temp': 26.56, 'lipoC3S3': 12.12, 'rot1': 0, 'rot0': 0, 'rot3': 0, 'rot2': 0, 'state': 'normal', 'yaw': -7.79, 'datetime': '2018-10-12 16:30:33.997510', 'mgs': 0, 'depth': -0.522, 'time': 15.7, 'pitch': -1.36, 'roll': -8.7}
{'lipoC2': 7.85, 'temp': 26.56, 'lipoC3S3': 12.12, 'rot1': 0, 'rot0': 0, 'rot3': 0, 'rot2': 0, 'state': 'normal', 'yaw': -7.06, 'datetime': '2018-10-12 16:30:34.094465', 'mgs': 0, 'depth': -0.522, 'time': 15.8, 'pitch': -1.2, 'roll': -9.05}
{'lipoC2': 7.84, 'temp': 26.56, 'lipoC3S3': 12.1, 'rot1': 0, 'rot0': 0, 'rot3': 0, 'rot2': 0, 'state': 'normal', 'yaw': -6.21, 'datetime': '2018-10-12 16:30:34.191682', 'mgs': 0, 'depth': -0.522, 'time': 15.89, 'pitch': -1.17, 'roll': -8.89}
{'lipoC2': 7.84, 'temp': 26.56, 'lipoC3S3': 12.12, 'rot1': 0, 'rot0': 0, 'rot3': 0, 'rot2': 0, 'state': 'normal', 'yaw': -5.49, 'datetime': '2018-10-12 16:30:34.294931', 'mgs': 0, 'depth': -0.598, 'time': 15.99, 'pitch': -1.16, 'roll': -8.63}
{'lipoC2': 7.85, 'temp': 26.5, 'lipoC3S3': 12.1, 'rot1': 0, 'rot0': 0, 'rot3': 0, 'rot2': 0, 'state': 'normal', 'yaw': -4.72, 'datetime': '2018-10-12 16:30:34.393358', 'mgs': 0, 'depth': -0.598, 'time': 16.09, 'pitch': -1.56, 'roll': -8.66}
{'lipoC2': 7.85, 'temp': 26.5, 'lipoC3S3': 12.1, 'rot1': 0, 'rot0': 0, 'rot3': 0, 'rot2': 0, 'state': 'normal', 'yaw': -4.12, 'datetime': '2018-10-12 16:30:34.490996', 'mgs': 0, 'depth': -0.598, 'time': 16.19, 'pitch': -2.33, 'roll': -8.76}
{'lipoC2': 7.85, 'temp': 26.44, 'lipoC3S3': 12.12, 'rot1': 0, 'rot0': 0, 'rot3': 0, 'rot2': 0, 'state': 'normal', 'yaw': -3.72, 'datetime': '2018-10-12 16:30:34.587950', 'mgs': 0, 'depth': -0.522, 'time': 16.28, 'pitch': -2.61, 'roll': -8.69}
{'lipoC2': 7.84, 'temp': 26.44, 'lipoC3S3': 12.12, 'rot1': 0, 'rot0': 0, 'rot3': 0, 'rot2': 0, 'state': 'normal', 'yaw': -3.44, 'datetime': '2018-10-12 16:30:34.685816', 'mgs': 0, 'depth': -0.446, 'time': 16.38, 'pitch': -3.21, 'roll': -8.16}
{'lipoC2': 7.85, 'temp': 26.5, 'lipoC3S3': 12.1, 'rot1': 0, 'rot0': 0, 'rot3': 0, 'rot2': 0, 'state': 'normal', 'yaw': -3.3, 'datetime': '2018-10-12 16:30:34.783163', 'mgs': 0, 'depth': -0.446, 'time': 16.48, 'pitch': -3.74, 'roll': -7.08}
{'lipoC2': 7.84, 'temp': 26.5, 'lipoC3S3': 12.1, 'rot1': 0, 'rot0': 0, 'rot3': 0, 'rot2': 0, 'state': 'normal', 'yaw': -3.47, 'datetime': '2018-10-12 16:30:34.880269', 'mgs': 0, 'depth': -0.369, 'time': 16.58, 'pitch': -3.33, 'roll': -6.29}
{'lipoC2': 7.84, 'temp': 26.5, 'lipoC3S3': 12.1, 'rot1': 0, 'rot0': 0, 'rot3': 0, 'rot2': 0, 'state': 'normal', 'yaw': -3.22, 'datetime': '2018-10-12 16:30:34.977334', 'mgs': 0, 'depth': -0.446, 'time': 16.67, 'pitch': -2.18, 'roll': -6.37}
{'lipoC2': 7.85, 'temp': 26.5, 'lipoC3S3': 12.12, 'rot1': 0, 'rot0': 0, 'rot3': 0, 'rot2': 0, 'state': 'normal', 'yaw': -2.34, 'datetime': '2018-10-12 16:30:35.074663', 'mgs': 0, 'depth': -0.522, 'time': 16.77, 'pitch': -1.24, 'roll': -7.72}
{'lipoC2': 7.85, 'temp': 26.5, 'lipoC3S3': 12.12, 'rot1': 0, 'rot0': 0, 'rot3': 0, 'rot2': 0, 'state': 'normal', 'yaw': -1.39, 'datetime': '2018-10-12 16:30:35.171574', 'mgs': 0, 'depth': -0.674, 'time': 16.87, 'pitch': -1.06, 'roll': -9.4}
{'lipoC2': 7.84, 'temp': 26.44, 'lipoC3S3': 12.12, 'rot1': 0, 'rot0': 0, 'rot3': 0, 'rot2': 0, 'state': 'normal', 'yaw': -0.57, 'datetime': '2018-10-12 16:30:35.268639', 'mgs': 0, 'depth': -0.598, 'time': 16.97, 'pitch': -1.68, 'roll': -9.34}
{'lipoC2': 7.84, 'temp': 26.44, 'lipoC3S3': 12.1, 'rot1': 0, 'rot0': 0, 'rot3': 0, 'rot2': 0, 'state': 'normal', 'yaw': -0.17, 'datetime': '2018-10-12 16:30:35.365962', 'mgs': 0, 'depth': -0.674, 'time': 17.06, 'pitch': -2.76, 'roll': -7.41}
{'lipoC2': 7.84, 'temp': 26.44, 'lipoC3S3': 12.1, 'rot1': 0, 'rot0': 0, 'rot3': 0, 'rot2': 0, 'state': 'normal', 'yaw': -0.29, 'datetime': '2018-10-12 16:30:35.462810', 'mgs': 0, 'depth': -0.751, 'time': 17.16, 'pitch': -4.43, 'roll': -5.37}
{'lipoC2': 7.85, 'temp': 26.5, 'lipoC3S3': 12.1, 'rot1': 0, 'rot0': 0, 'rot3': 0, 'rot2': 0, 'state': 'normal', 'yaw': -1.06, 'datetime': '2018-10-12 16:30:35.559920', 'mgs': 0, 'depth': -0.751, 'time': 17.26, 'pitch': -5.52, 'roll': -5.2}
{'lipoC2': 7.84, 'temp': 26.5, 'lipoC3S3': 12.12, 'rot1': 0, 'rot0': 0, 'rot3': 0, 'rot2': 0, 'state': 'normal', 'yaw': -2.62, 'datetime': '2018-10-12 16:30:35.658251', 'mgs': 0, 'depth': -0.827, 'time': 17.36, 'pitch': -5.58, 'roll': -5.9}
{'lipoC2': 7.85, 'temp': 26.5, 'lipoC3S3': 12.12, 'rot1': 0, 'rot0': 0, 'rot3': 0, 'rot2': 0, 'state': 'normal', 'yaw': -5.03, 'datetime': '2018-10-12 16:30:35.756348', 'mgs': 0, 'depth': -0.98, 'time': 17.45, 'pitch': -5.53, 'roll': -6.66}
{'lipoC2': 7.85, 'temp': 26.5, 'lipoC3S3': 12.1, 'rot1': 0, 'rot0': 0, 'rot3': 0, 'rot2': 0, 'state': 'normal', 'yaw': -9.13, 'datetime': '2018-10-12 16:30:35.854553', 'mgs': 0, 'depth': -0.98, 'time': 17.55, 'pitch': -7.8, 'roll': -8.79}
{'lipoC2': 7.84, 'temp': 26.5, 'lipoC3S3': 12.1, 'rot1': 0, 'rot0': 0, 'rot3': 0, 'rot2': 0, 'state': 'normal', 'yaw': -12.64, 'datetime': '2018-10-12 16:30:35.951762', 'mgs': 0, 'depth': -0.903, 'time': 17.65, 'pitch': -9.69, 'roll': -9.83}
{'lipoC2': 7.85, 'temp': 26.44, 'lipoC3S3': 12.12, 'rot1': 0, 'rot0': 0, 'rot3': 0, 'rot2': 0, 'state': 'normal', 'yaw': -14.24, 'datetime': '2018-10-12 16:30:36.048786', 'mgs': 0, 'depth': -0.98, 'time': 17.75, 'pitch': -10.51, 'roll': -8.47}
{'lipoC2': 7.84, 'temp': 26.44, 'lipoC3S3': 12.12, 'rot1': 0, 'rot0': 0, 'rot3': 0, 'rot2': 0, 'state': 'normal', 'yaw': -14.72, 'datetime': '2018-10-12 16:30:36.147175', 'mgs': 0, 'depth': -0.827, 'time': 17.85, 'pitch': -10.85, 'roll': -6.43}
{'lipoC2': 7.85, 'temp': 26.5, 'lipoC3S3': 12.12, 'rot1': 0, 'rot0': 0, 'rot3': 0, 'rot2': 0, 'state': 'normal', 'yaw': -14.59, 'datetime': '2018-10-12 16:30:36.244571', 'mgs': 0, 'depth': -0.903, 'time': 17.94, 'pitch': -10.57, 'roll': -5.58}
{'lipoC2': 7.85, 'temp': 26.5, 'lipoC3S3': 12.12, 'rot1': 0, 'rot0': 0, 'rot3': 0, 'rot2': 0, 'state': 'normal', 'yaw': -13.6, 'datetime': '2018-10-12 16:30:36.341607', 'mgs': 0, 'depth': -0.903, 'time': 18.04, 'pitch': -9.66, 'roll': -6.76}
{'lipoC2': 7.84, 'temp': 26.5, 'lipoC3S3': 12.1, 'rot1': 0, 'rot0': 0, 'rot3': 0, 'rot2': 0, 'state': 'normal', 'yaw': -12.2, 'datetime': '2018-10-12 16:30:36.438945', 'mgs': 0, 'depth': -0.98, 'time': 18.14, 'pitch': -8.13, 'roll': -7.64}
{'lipoC2': 7.85, 'temp': 26.44, 'lipoC3S3': 12.1, 'rot1': 0, 'rot0': 0, 'rot3': 0, 'rot2': 0, 'state': 'normal', 'yaw': -11.39, 'datetime': '2018-10-12 16:30:36.536087', 'mgs': 0, 'depth': -0.98, 'time': 18.24, 'pitch': -6.67, 'roll': -7.54}
{'lipoC2': 7.84, 'temp': 26.44, 'lipoC3S3': 12.1, 'rot1': 0, 'rot0': 0, 'rot3': 0, 'rot2': 0, 'state': 'normal', 'yaw': -10.07, 'datetime': '2018-10-12 16:30:36.633335', 'mgs': 0, 'depth': -0.903, 'time': 18.33, 'pitch': -5.87, 'roll': -6.55}
{'lipoC2': 7.85, 'temp': 26.44, 'lipoC3S3': 12.12, 'rot1': 0, 'rot0': 0, 'rot3': 0, 'rot2': 0, 'state': 'normal', 'yaw': -7.77, 'datetime': '2018-10-12 16:30:36.730245', 'mgs': 0, 'depth': -0.903, 'time': 18.43, 'pitch': -5.23, 'roll': -5.42}
{'lipoC2': 7.84, 'temp': 26.44, 'lipoC3S3': 12.12, 'rot1': 0, 'rot0': 0, 'rot3': 0, 'rot2': 0, 'state': 'normal', 'yaw': -5.81, 'datetime': '2018-10-12 16:30:36.827522', 'mgs': 0, 'depth': -0.98, 'time': 18.53, 'pitch': -5.68, 'roll': -5.21}
{'lipoC2': 7.84, 'temp': 26.44, 'lipoC3S3': 12.1, 'rot1': 0, 'rot0': 0, 'rot3': 0, 'rot2': 0, 'state': 'normal', 'yaw': -4.52, 'datetime': '2018-10-12 16:30:36.924689', 'mgs': 0, 'depth': -0.903, 'time': 18.62, 'pitch': -7.72, 'roll': -5.28}
{'lipoC2': 7.84, 'temp': 26.5, 'lipoC3S3': 12.12, 'rot1': 0, 'rot0': 0, 'rot3': 0, 'rot2': 0, 'state': 'normal', 'yaw': -3.89, 'datetime': '2018-10-12 16:30:37.016785', 'mgs': 0, 'depth': -0.98, 'time': 18.72, 'pitch': -9.07, 'roll': -5.1}
{'lipoC2': 7.85, 'temp': 26.5, 'lipoC3S3': 12.1, 'rot1': 0, 'rot0': 0, 'rot3': 0, 'rot2': 0, 'state': 'normal', 'yaw': -3.65, 'datetime': '2018-10-12 16:30:37.113995', 'mgs': 0, 'depth': -0.903, 'time': 18.82, 'pitch': -8.13, 'roll': -4.53}
{'lipoC2': 7.85, 'temp': 26.5, 'lipoC3S3': 12.1, 'rot1': 0, 'rot0': 0, 'rot3': 0, 'rot2': 0, 'state': 'normal', 'yaw': -3.88, 'datetime': '2018-10-12 16:30:37.211108', 'mgs': 0, 'depth': -0.827, 'time': 18.92, 'pitch': -6.8, 'roll': -4.6}
{'lipoC2': 7.85, 'temp': 26.5, 'lipoC3S3': 12.12, 'rot1': 0, 'rot0': 0, 'rot3': 0, 'rot2': 0, 'state': 'normal', 'yaw': -4.69, 'datetime': '2018-10-12 16:30:37.308214', 'mgs': 0, 'depth': -0.827, 'time': 19.01, 'pitch': -6.06, 'roll': -4.94}
{'lipoC2': 7.84, 'temp': 26.5, 'lipoC3S3': 12.1, 'rot1': 0, 'rot0': 0, 'rot3': 0, 'rot2': 0, 'state': 'normal', 'yaw': -5.51, 'datetime': '2018-10-12 16:30:37.405449', 'mgs': 0, 'depth': -0.903, 'time': 19.11, 'pitch': -5.48, 'roll': -4.22}
{'lipoC2': 7.85, 'temp': 26.5, 'lipoC3S3': 12.1, 'rot1': 0, 'rot0': 0, 'rot3': 0, 'rot2': 0, 'state': 'normal', 'yaw': -5.65, 'datetime': '2018-10-12 16:30:37.503881', 'mgs': 0, 'depth': -0.903, 'time': 19.21, 'pitch': -4.5, 'roll': -3.83}
{'lipoC2': 7.85, 'temp': 26.5, 'lipoC3S3': 12.12, 'rot1': 0, 'rot0': 0, 'rot3': 0, 'rot2': 0, 'state': 'normal', 'yaw': -4.95, 'datetime': '2018-10-12 16:30:37.602286', 'mgs': 0, 'depth': -0.827, 'time': 19.31, 'pitch': -2.57, 'roll': -4.81}
{'lipoC2': 7.85, 'temp': 26.5, 'lipoC3S3': 12.1, 'rot1': 0, 'rot0': 0, 'rot3': 0, 'rot2': 0, 'state': 'normal', 'yaw': -3.76, 'datetime': '2018-10-12 16:30:37.699290', 'mgs': 0, 'depth': -0.751, 'time': 19.41, 'pitch': -0.92, 'roll': -5.84}
{'lipoC2': 7.84, 'temp': 26.5, 'lipoC3S3': 12.12, 'rot1': 0, 'rot0': 0, 'rot3': 0, 'rot2': 0, 'state': 'normal', 'yaw': -2.88, 'datetime': '2018-10-12 16:30:37.796442', 'mgs': 0, 'depth': -0.674, 'time': 19.5, 'pitch': -0.81, 'roll': -5.36}
{'lipoC2': 7.84, 'temp': 26.5, 'lipoC3S3': 12.1, 'rot1': 0, 'rot0': 0, 'rot3': 0, 'rot2': 0, 'state': 'normal', 'yaw': -2.71, 'datetime': '2018-10-12 16:30:37.894818', 'mgs': 0, 'depth': -0.751, 'time': 19.6, 'pitch': -0.7, 'roll': -4.64}
{'lipoC2': 7.84, 'temp': 26.5, 'lipoC3S3': 12.1, 'rot1': 0, 'rot0': 0, 'rot3': 0, 'rot2': 0, 'state': 'normal', 'yaw': -3.26, 'datetime': '2018-10-12 16:30:37.992998', 'mgs': 0, 'depth': -0.674, 'time': 19.7, 'pitch': -0.26, 'roll': -3.9}
{'lipoC2': 7.84, 'temp': 26.5, 'lipoC3S3': 12.1, 'rot1': 0, 'rot0': 0, 'rot3': 0, 'rot2': 0, 'state': 'normal', 'yaw': -4.24, 'datetime': '2018-10-12 16:30:38.090289', 'mgs': 0, 'depth': -0.598, 'time': 19.8, 'pitch': 0.11, 'roll': -2.83}
{'lipoC2': 7.84, 'temp': 26.5, 'lipoC3S3': 12.1, 'rot1': 0, 'rot0': 0, 'rot3': 0, 'rot2': 0, 'state': 'normal', 'yaw': -4.94, 'datetime': '2018-10-12 16:30:38.187120', 'mgs': 0, 'depth': -0.522, 'time': 19.89, 'pitch': 0.46, 'roll': -2.28}
{'lipoC2': 7.85, 'temp': 26.5, 'lipoC3S3': 12.1, 'rot1': 0, 'rot0': 0, 'rot3': 0, 'rot2': 0, 'state': 'normal', 'yaw': -5.11, 'datetime': '2018-10-12 16:30:38.284305', 'mgs': 0, 'depth': -0.446, 'time': 19.99, 'pitch': 1.02, 'roll': -2.55}
{'lipoC2': 7.84, 'temp': 26.5, 'lipoC3S3': 12.12, 'rot1': 0, 'rot0': 0, 'rot3': 0, 'rot2': 0, 'state': 'normal', 'yaw': -4.43, 'datetime': '2018-10-12 16:30:38.381443', 'mgs': 0, 'depth': -0.446, 'time': 20.09, 'pitch': 1.85, 'roll': -3.06}
{'lipoC2': 7.84, 'temp': 26.38, 'lipoC3S3': 12.1, 'rot1': 0, 'rot0': 0, 'rot3': 0, 'rot2': 0, 'state': 'normal', 'yaw': -3.2, 'datetime': '2018-10-12 16:30:38.478446', 'mgs': 0, 'depth': -0.446, 'time': 20.18, 'pitch': 2.48, 'roll': -3.37}
{'lipoC2': 7.84, 'temp': 26.38, 'lipoC3S3': 12.1, 'rot1': 0, 'rot0': 0, 'rot3': 0, 'rot2': 0, 'state': 'normal', 'yaw': -1.96, 'datetime': '2018-10-12 16:30:38.575529', 'mgs': 0, 'depth': -0.369, 'time': 20.28, 'pitch': 2.54, 'roll': -3.47}
{'lipoC2': 7.84, 'temp': 26.5, 'lipoC3S3': 12.1, 'rot1': 0, 'rot0': 0, 'rot3': 0, 'rot2': 0, 'state': 'normal', 'yaw': -0.91, 'datetime': '2018-10-12 16:30:38.672656', 'mgs': 0, 'depth': -0.369, 'time': 20.38, 'pitch': 2.18, 'roll': -3.55}
{'lipoC2': 7.84, 'temp': 26.5, 'lipoC3S3': 12.12, 'rot1': 0, 'rot0': 0, 'rot3': 0, 'rot2': 0, 'state': 'normal', 'yaw': -0.58, 'datetime': '2018-10-12 16:30:38.769728', 'mgs': 0, 'depth': -0.369, 'time': 20.48, 'pitch': 1.58, 'roll': -3.86}
{'lipoC2': 7.84, 'temp': 26.5, 'lipoC3S3': 12.12, 'rot1': 0, 'rot0': 0, 'rot3': 0, 'rot2': 0, 'state': 'normal', 'yaw': -1.08, 'datetime': '2018-10-12 16:30:38.866951', 'mgs': 0, 'depth': -0.369, 'time': 20.57, 'pitch': 0.94, 'roll': -4.01}
{'lipoC2': 7.85, 'temp': 26.5, 'lipoC3S3': 12.12, 'rot1': 0, 'rot0': 0, 'rot3': 0, 'rot2': 0, 'state': 'normal', 'yaw': -2.16, 'datetime': '2018-10-12 16:30:38.969314', 'mgs': 0, 'depth': -0.293, 'time': 20.67, 'pitch': 1.19, 'roll': -3.17}
{'lipoC2': 7.85, 'temp': 26.5, 'lipoC3S3': 12.12, 'rot1': 0, 'rot0': 0, 'rot3': 0, 'rot2': 0, 'state': 'normal', 'yaw': -2.78, 'datetime': '2018-10-12 16:30:39.066077', 'mgs': 0, 'depth': -0.293, 'time': 20.77, 'pitch': 1.84, 'roll': -1.92}
{'lipoC2': 7.84, 'temp': 26.5, 'lipoC3S3': 12.1, 'rot1': 0, 'rot0': 0, 'rot3': 0, 'rot2': 0, 'state': 'normal', 'yaw': -2.99, 'datetime': '2018-10-12 16:30:39.163227', 'mgs': 0, 'depth': -0.217, 'time': 20.87, 'pitch': 2.1, 'roll': -1.48}
{'lipoC2': 7.85, 'temp': 26.5, 'lipoC3S3': 12.1, 'rot1': 0, 'rot0': 0, 'rot3': 0, 'rot2': 0, 'state': 'normal', 'yaw': -3.03, 'datetime': '2018-10-12 16:30:39.260042', 'mgs': 0, 'depth': -0.217, 'time': 20.96, 'pitch': 1.63, 'roll': -2.81}
{'lipoC2': 7.84, 'temp': 26.5, 'lipoC3S3': 12.12, 'rot1': 0, 'rot0': 0, 'rot3': 0, 'rot2': 0, 'state': 'normal', 'yaw': -3.24, 'datetime': '2018-10-12 16:30:39.354419', 'mgs': 0, 'depth': -0.14, 'time': 21.06, 'pitch': 0.8, 'roll': -4.79}
{'lipoC2': 7.85, 'temp': 26.44, 'lipoC3S3': 12.12, 'rot1': 0, 'rot0': 0, 'rot3': 0, 'rot2': 0, 'state': 'normal', 'yaw': -3.39, 'datetime': '2018-10-12 16:30:39.451491', 'mgs': 0, 'depth': -0.14, 'time': 21.16, 'pitch': 0.72, 'roll': -6.06}
{'lipoC2': 7.84, 'temp': 26.44, 'lipoC3S3': 12.12, 'rot1': 0, 'rot0': 0, 'rot3': 0, 'rot2': 0, 'state': 'normal', 'yaw': -3.42, 'datetime': '2018-10-12 16:30:39.548860', 'mgs': 0, 'depth': -0.217, 'time': 21.26, 'pitch': 1.56, 'roll': -6.35}
{'lipoC2': 7.85, 'temp': 26.38, 'lipoC3S3': 12.1, 'rot1': 0, 'rot0': 0, 'rot3': 0, 'rot2': 0, 'state': 'normal', 'yaw': -3.42, 'datetime': '2018-10-12 16:30:39.647479', 'mgs': 0, 'depth': -0.217, 'time': 21.35, 'pitch': 2.45, 'roll': -5.78}
{'lipoC2': 7.84, 'temp': 26.38, 'lipoC3S3': 12.12, 'rot1': 0, 'rot0': 0, 'rot3': 0, 'rot2': 0, 'state': 'normal', 'yaw': -3.34, 'datetime': '2018-10-12 16:30:39.744315', 'mgs': 0, 'depth': -0.217, 'time': 21.45, 'pitch': 3.68, 'roll': -4.14}
{'lipoC2': 7.84, 'temp': 26.38, 'lipoC3S3': 12.1, 'rot1': 0, 'rot0': 0, 'rot3': 0, 'rot2': 0, 'state': 'normal', 'yaw': -2.94, 'datetime': '2018-10-12 16:30:39.841368', 'mgs': 0, 'depth': -0.217, 'time': 21.55, 'pitch': 4.5, 'roll': -2.53}
{'lipoC2': 7.84, 'temp': 26.44, 'lipoC3S3': 12.12, 'rot1': 0, 'rot0': 0, 'rot3': 0, 'rot2': 0, 'state': 'normal', 'yaw': -2.67, 'datetime': '2018-10-12 16:30:39.939097', 'mgs': 0, 'depth': -0.217, 'time': 21.65, 'pitch': 4.43, 'roll': -1.75}
{'lipoC2': 7.84, 'temp': 26.44, 'lipoC3S3': 12.12, 'rot1': 0, 'rot0': 0, 'rot3': 0, 'rot2': 0, 'state': 'normal', 'yaw': -2.73, 'datetime': '2018-10-12 16:30:40.041398', 'mgs': 0, 'depth': -0.217, 'time': 21.74, 'pitch': 3.83, 'roll': -1.74}
{'lipoC2': 7.84, 'temp': 26.5, 'lipoC3S3': 12.1, 'rot1': 0, 'rot0': 0, 'rot3': 0, 'rot2': 0, 'state': 'normal', 'yaw': -3.23, 'datetime': '2018-10-12 16:30:40.138275', 'mgs': 0, 'depth': -0.217, 'time': 21.84, 'pitch': 3.43, 'roll': -2.5}
{'lipoC2': 7.85, 'temp': 26.5, 'lipoC3S3': 12.1, 'rot1': 0, 'rot0': 0, 'rot3': 0, 'rot2': 0, 'state': 'normal', 'yaw': -4.29, 'datetime': '2018-10-12 16:30:40.235288', 'mgs': 0, 'depth': -0.217, 'time': 21.94, 'pitch': 3.48, 'roll': -3.26}
{'lipoC2': 7.85, 'temp': 26.5, 'lipoC3S3': 12.1, 'rot1': 0, 'rot0': 0, 'rot3': 0, 'rot2': 0, 'state': 'normal', 'yaw': -5.2, 'datetime': '2018-10-12 16:30:40.332479', 'mgs': 0, 'depth': -0.293, 'time': 22.04, 'pitch': 3.96, 'roll': -3.59}
{'lipoC2': 7.84, 'temp': 26.5, 'lipoC3S3': 12.12, 'rot1': 0, 'rot0': 0, 'rot3': 0, 'rot2': 0, 'state': 'normal', 'yaw': -5.9, 'datetime': '2018-10-12 16:30:40.429504', 'mgs': 0, 'depth': -0.293, 'time': 22.13, 'pitch': 4.85, 'roll': -3.45}
{'lipoC2': 7.84, 'temp': 26.5, 'lipoC3S3': 12.12, 'rot1': 0, 'rot0': 0, 'rot3': 0, 'rot2': 0, 'state': 'normal', 'yaw': -6.3, 'datetime': '2018-10-12 16:30:40.526983', 'mgs': 0, 'depth': -0.293, 'time': 22.23, 'pitch': 5.59, 'roll': -3.08}
{'lipoC2': 7.84, 'temp': 26.5, 'lipoC3S3': 12.12, 'rot1': 0, 'rot0': 0, 'rot3': 0, 'rot2': 0, 'state': 'normal', 'yaw': -6.15, 'datetime': '2018-10-12 16:30:40.623739', 'mgs': 0, 'depth': -0.293, 'time': 22.33, 'pitch': 5.61, 'roll': -2.85}
{'lipoC2': 7.84, 'temp': 26.5, 'lipoC3S3': 12.12, 'rot1': 0, 'rot0': 0, 'rot3': 0, 'rot2': 0, 'state': 'normal', 'yaw': -5.67, 'datetime': '2018-10-12 16:30:40.720707', 'mgs': 0, 'depth': -0.369, 'time': 22.42, 'pitch': 5.08, 'roll': -3.05}
{'lipoC2': 7.85, 'temp': 26.5, 'lipoC3S3': 12.1, 'rot1': 0, 'rot0': 0, 'rot3': 0, 'rot2': 0, 'state': 'normal', 'yaw': -5.25, 'datetime': '2018-10-12 16:30:40.817848', 'mgs': 0, 'depth': -0.293, 'time': 22.52, 'pitch': 3.07, 'roll': -3.27}
{'lipoC2': 7.85, 'temp': 26.5, 'lipoC3S3': 12.1, 'rot1': 0, 'rot0': 0, 'rot3': 0, 'rot2': 0, 'state': 'normal', 'yaw': -4.95, 'datetime': '2018-10-12 16:30:40.915799', 'mgs': 0, 'depth': -0.293, 'time': 22.62, 'pitch': 0.82, 'roll': -3.48}
{'lipoC2': 7.85, 'temp': 26.5, 'lipoC3S3': 12.12, 'rot1': 0, 'rot0': 0, 'rot3': 0, 'rot2': 0, 'state': 'normal', 'yaw': -4.5, 'datetime': '2018-10-12 16:30:41.014161', 'mgs': 0, 'depth': -0.293, 'time': 22.72, 'pitch': -1.18, 'roll': -3.91}
{'lipoC2': 7.84, 'temp': 26.5, 'lipoC3S3': 12.1, 'rot1': 0, 'rot0': 0, 'rot3': 0, 'rot2': 0, 'state': 'normal', 'yaw': -3.86, 'datetime': '2018-10-12 16:30:41.112783', 'mgs': 0, 'depth': -0.217, 'time': 22.82, 'pitch': -2.09, 'roll': -3.75}
{'lipoC2': 7.85, 'temp': 26.5, 'lipoC3S3': 12.1, 'rot1': 0, 'rot0': 0, 'rot3': 0, 'rot2': 0, 'state': 'normal', 'yaw': -3.44, 'datetime': '2018-10-12 16:30:41.209672', 'mgs': 0, 'depth': -0.217, 'time': 22.91, 'pitch': -1.92, 'roll': -2.84}
{'lipoC2': 7.84, 'temp': 26.5, 'lipoC3S3': 12.12, 'rot1': 0, 'rot0': 0, 'rot3': 0, 'rot2': 0, 'state': 'normal', 'yaw': -3.15, 'datetime': '2018-10-12 16:30:41.306775', 'mgs': 0, 'depth': -0.217, 'time': 23.01, 'pitch': -0.85, 'roll': -2.12}
{'lipoC2': 7.85, 'temp': 26.5, 'lipoC3S3': 12.1, 'rot1': 0, 'rot0': 0, 'rot3': 0, 'rot2': 0, 'state': 'normal', 'yaw': -3.32, 'datetime': '2018-10-12 16:30:41.405045', 'mgs': 0, 'depth': -0.217, 'time': 23.11, 'pitch': 0.91, 'roll': -1.75}
{'lipoC2': 7.84, 'temp': 26.5, 'lipoC3S3': 12.12, 'rot1': 0, 'rot0': 0, 'rot3': 0, 'rot2': 0, 'state': 'normal', 'yaw': -3.81, 'datetime': '2018-10-12 16:30:41.502717', 'mgs': 0, 'depth': -0.293, 'time': 23.21, 'pitch': 2.6, 'roll': -1.57}
{'lipoC2': 7.84, 'temp': 26.44, 'lipoC3S3': 12.12, 'rot1': 0, 'rot0': 0, 'rot3': 0, 'rot2': 0, 'state': 'normal', 'yaw': -4.03, 'datetime': '2018-10-12 16:30:41.599917', 'mgs': 0, 'depth': -0.293, 'time': 23.31, 'pitch': 3.64, 'roll': -1.83}
{'lipoC2': 7.84, 'temp': 26.44, 'lipoC3S3': 12.12, 'rot1': 0, 'rot0': 0, 'rot3': 0, 'rot2': 0, 'state': 'normal', 'yaw': -4.06, 'datetime': '2018-10-12 16:30:41.697169', 'mgs': 0, 'depth': -0.293, 'time': 23.4, 'pitch': 3.7, 'roll': -2.43}
{'lipoC2': 7.85, 'temp': 26.44, 'lipoC3S3': 12.1, 'rot1': 0, 'rot0': 0, 'rot3': 0, 'rot2': 0, 'state': 'normal', 'yaw': -3.93, 'datetime': '2018-10-12 16:30:41.789336', 'mgs': 0, 'depth': -0.293, 'time': 23.5, 'pitch': 3.72, 'roll': -2.63}
{'lipoC2': 7.84, 'temp': 26.5, 'lipoC3S3': 12.12, 'rot1': 0, 'rot0': 0, 'rot3': 0, 'rot2': 0, 'state': 'normal', 'yaw': -3.34, 'datetime': '2018-10-12 16:30:41.891505', 'mgs': 0, 'depth': -0.293, 'time': 23.6, 'pitch': 4.55, 'roll': -2.12}
{'lipoC2': 7.85, 'temp': 26.5, 'lipoC3S3': 12.1, 'rot1': 0, 'rot0': 0, 'rot3': 0, 'rot2': 0, 'state': 'normal', 'yaw': -2.27, 'datetime': '2018-10-12 16:30:41.988477', 'mgs': 0, 'depth': -0.369, 'time': 23.69, 'pitch': 6.02, 'roll': -1.48}
{'lipoC2': 7.85, 'temp': 26.5, 'lipoC3S3': 12.1, 'rot1': 0, 'rot0': 0, 'rot3': 0, 'rot2': 0, 'state': 'normal', 'yaw': -1.59, 'datetime': '2018-10-12 16:30:42.085612', 'mgs': 0, 'depth': -0.446, 'time': 23.79, 'pitch': 7.16, 'roll': -1.38}
{'lipoC2': 7.84, 'temp': 26.5, 'lipoC3S3': 12.1, 'rot1': 0, 'rot0': 0, 'rot3': 0, 'rot2': 0, 'state': 'normal', 'yaw': -1.19, 'datetime': '2018-10-12 16:30:42.182691', 'mgs': 0, 'depth': -0.446, 'time': 23.89, 'pitch': 7.81, 'roll': -1.51}
{'lipoC2': 7.84, 'temp': 26.5, 'lipoC3S3': 12.12, 'rot1': 0, 'rot0': 0, 'rot3': 0, 'rot2': 0, 'state': 'normal', 'yaw': -0.68, 'datetime': '2018-10-12 16:30:42.279891', 'mgs': 0, 'depth': -0.522, 'time': 23.99, 'pitch': 8.4, 'roll': -1.62}
{'lipoC2': 7.84, 'temp': 26.5, 'lipoC3S3': 12.12, 'rot1': 0, 'rot0': 0, 'rot3': 0, 'rot2': 0, 'state': 'normal', 'yaw': -0.07, 'datetime': '2018-10-12 16:30:42.376846', 'mgs': 0, 'depth': -0.522, 'time': 24.08, 'pitch': 8.75, 'roll': -1.67}
{'lipoC2': 7.85, 'temp': 26.5, 'lipoC3S3': 12.1, 'rot1': 0, 'rot0': 0, 'rot3': 0, 'rot2': 0, 'state': 'normal', 'yaw': 0.55, 'datetime': '2018-10-12 16:30:42.473888', 'mgs': 0, 'depth': -0.522, 'time': 24.18, 'pitch': 8.32, 'roll': -1.76}
{'lipoC2': 7.85, 'temp': 26.5, 'lipoC3S3': 12.12, 'rot1': 0, 'rot0': 0, 'rot3': 0, 'rot2': 0, 'state': 'normal', 'yaw': 0.8, 'datetime': '2018-10-12 16:30:42.566205', 'mgs': 0, 'depth': -0.598, 'time': 24.28, 'pitch': 7.67, 'roll': -2.1}
{'lipoC2': 7.85, 'temp': 26.5, 'lipoC3S3': 12.1, 'rot1': 0, 'rot0': 0, 'rot3': 0, 'rot2': 0, 'state': 'normal', 'yaw': 0.99, 'datetime': '2018-10-12 16:30:42.663876', 'mgs': 0, 'depth': -0.674, 'time': 24.38, 'pitch': 7.83, 'roll': -2.53}
{'lipoC2': 7.84, 'temp': 26.5, 'lipoC3S3': 12.1, 'rot1': 0, 'rot0': 0, 'rot3': 0, 'rot2': 0, 'state': 'normal', 'yaw': 1.02, 'datetime': '2018-10-12 16:30:42.762107', 'mgs': 0, 'depth': -0.598, 'time': 24.47, 'pitch': 8.43, 'roll': -3.27}
{'lipoC2': 7.84, 'temp': 26.5, 'lipoC3S3': 12.1, 'rot1': 0, 'rot0': 0, 'rot3': 0, 'rot2': 0, 'state': 'normal', 'yaw': 0.66, 'datetime': '2018-10-12 16:30:42.859671', 'mgs': 0, 'depth': -0.751, 'time': 24.57, 'pitch': 8.59, 'roll': -3.85}
{'lipoC2': 7.84, 'temp': 26.5, 'lipoC3S3': 12.12, 'rot1': 0, 'rot0': 0, 'rot3': 0, 'rot2': 0, 'state': 'normal', 'yaw': 0.13, 'datetime': '2018-10-12 16:30:42.956746', 'mgs': 0, 'depth': -0.827, 'time': 24.67, 'pitch': 7.82, 'roll': -3.22}
{'lipoC2': 7.84, 'temp': 26.5, 'lipoC3S3': 12.12, 'rot1': 0, 'rot0': 0, 'rot3': 0, 'rot2': 0, 'state': 'normal', 'yaw': -0.23, 'datetime': '2018-10-12 16:30:43.054172', 'mgs': 0, 'depth': -0.751, 'time': 24.76, 'pitch': 7.25, 'roll': -1.69}
{'lipoC2': 7.84, 'temp': 26.5, 'lipoC3S3': 12.1, 'rot1': 0, 'rot0': 0, 'rot3': 0, 'rot2': 0, 'state': 'normal', 'yaw': -0.41, 'datetime': '2018-10-12 16:30:43.153019', 'mgs': 0, 'depth': -0.751, 'time': 24.86, 'pitch': 7.19, 'roll': -0.53}
{'lipoC2': 7.84, 'temp': 26.5, 'lipoC3S3': 12.1, 'rot1': 0, 'rot0': 0, 'rot3': 0, 'rot2': 0, 'state': 'normal', 'yaw': -0.17, 'datetime': '2018-10-12 16:30:43.250154', 'mgs': 0, 'depth': -0.674, 'time': 24.96, 'pitch': 7.46, 'roll': -0.79}
{'lipoC2': 7.85, 'temp': 26.5, 'lipoC3S3': 12.12, 'rot1': 0, 'rot0': 0, 'rot3': 0, 'rot2': 0, 'state': 'normal', 'yaw': 0.15, 'datetime': '2018-10-12 16:30:43.347212', 'mgs': 0, 'depth': -0.674, 'time': 25.06, 'pitch': 7.03, 'roll': -1.53}
{'lipoC2': 7.85, 'temp': 26.5, 'lipoC3S3': 12.12, 'rot1': 0, 'rot0': 0, 'rot3': 0, 'rot2': 0, 'state': 'normal', 'yaw': 0.51, 'datetime': '2018-10-12 16:30:43.444950', 'mgs': 0, 'depth': -0.751, 'time': 25.16, 'pitch': 6.18, 'roll': -2.03}
{'lipoC2': 7.84, 'temp': 26.5, 'lipoC3S3': 12.1, 'rot1': 0, 'rot0': 0, 'rot3': 0, 'rot2': 0, 'state': 'normal', 'yaw': 0.89, 'datetime': '2018-10-12 16:30:43.541847', 'mgs': 0, 'depth': -0.598, 'time': 25.25, 'pitch': 4.58, 'roll': -2.34}
{'lipoC2': 7.84, 'temp': 26.5, 'lipoC3S3': 12.12, 'rot1': 0, 'rot0': 0, 'rot3': 0, 'rot2': 0, 'state': 'normal', 'yaw': 1.14, 'datetime': '2018-10-12 16:30:43.643896', 'mgs': 0, 'depth': -0.674, 'time': 25.35, 'pitch': 2.87, 'roll': -2.29}
{'lipoC2': 7.84, 'temp': 26.5, 'lipoC3S3': 12.1, 'rot1': 0, 'rot0': 0, 'rot3': 0, 'rot2': 0, 'state': 'normal', 'yaw': 1.04, 'datetime': '2018-10-12 16:30:43.740860', 'mgs': 0, 'depth': -0.751, 'time': 25.45, 'pitch': 1.9, 'roll': -2.01}
