{'lipoC2': 7.88, 'temp': 24.31, 'lipoC3S3': 11.89, 'rot1': 0, 'rot0': 0, 'rot3': 0, 'rot2': 0, 'state': 'normal', 'yaw': 0.0, 'datetime': '2018-10-12 13:39:48.033929', 'mgs': 0, 'depth': 1.538, 'time': 1.26, 'pitch': -1.61, 'roll': -7.86}
{'lipoC2': 7.88, 'temp': 24.31, 'lipoC3S3': 11.89, 'rot1': 0, 'rot0': 0, 'rot3': 0, 'rot2': 0, 'state': 'normal', 'yaw': 0.09, 'datetime': '2018-10-12 13:39:48.051001', 'mgs': 0, 'depth': 1.691, 'time': 1.36, 'pitch': -1.49, 'roll': -7.86}
{'lipoC2': 7.87, 'temp': 24.31, 'lipoC3S3': 11.89, 'rot1': 0, 'rot0': 0, 'rot3': 0, 'rot2': 0, 'state': 'normal', 'yaw': 0.2, 'datetime': '2018-10-12 13:39:48.072481', 'mgs': 0, 'depth': 1.614, 'time': 1.46, 'pitch': -1.48, 'roll': -8.02}
{'lipoC2': 7.88, 'temp': 24.31, 'lipoC3S3': 11.9, 'rot1': 0, 'rot0': 0, 'rot3': 0, 'rot2': 0, 'state': 'normal', 'yaw': 0.31, 'datetime': '2018-10-12 13:39:48.081895', 'mgs': 0, 'depth': 1.614, 'time': 1.55, 'pitch': -1.58, 'roll': -8.19}
{'lipoC2': 7.88, 'temp': 24.31, 'lipoC3S3': 11.89, 'rot1': 0, 'rot0': 0, 'rot3': 0, 'rot2': 0, 'state': 'normal', 'yaw': 0.36, 'datetime': '2018-10-12 13:39:48.089581', 'mgs': 0, 'depth': 1.614, 'time': 1.65, 'pitch': -1.73, 'roll': -8.19}
{'lipoC2': 7.88, 'temp': 24.31, 'lipoC3S3': 11.89, 'rot1': 0, 'rot0': 0, 'rot3': 0, 'rot2': 0, 'state': 'normal', 'yaw': 0.4, 'datetime': '2018-10-12 13:39:48.097300', 'mgs': 0, 'depth': 1.614, 'time': 1.75, 'pitch': -1.95, 'roll': -7.98}
{'lipoC2': 7.88, 'temp': 24.31, 'lipoC3S3': 11.89, 'rot1': 0, 'rot0': 0, 'rot3': 0, 'rot2': 0, 'state': 'normal', 'yaw': 0.43, 'datetime': '2018-10-12 13:39:48.105015', 'mgs': 0, 'depth': 1.691, 'time': 1.85, 'pitch': -2.16, 'roll': -7.78}
{'lipoC2': 7.88, 'temp': 24.31, 'lipoC3S3': 11.89, 'rot1': 0, 'rot0': 0, 'rot3': 0, 'rot2': 0, 'state': 'normal', 'yaw': 0.57, 'datetime': '2018-10-12 13:39:48.112729', 'mgs': 0, 'depth': 1.614, 'time': 1.94, 'pitch': -2.27, 'roll': -7.76}
{'lipoC2': 7.87, 'temp': 24.31, 'lipoC3S3': 11.89, 'rot1': 0, 'rot0': 0, 'rot3': 0, 'rot2': 0, 'state': 'normal', 'yaw': 0.85, 'datetime': '2018-10-12 13:39:48.120450', 'mgs': 0, 'depth': 1.691, 'time': 2.04, 'pitch': -2.21, 'roll': -7.92}
{'lipoC2': 7.87, 'temp': 24.31, 'lipoC3S3': 11.89, 'rot1': 0, 'rot0': 0, 'rot3': 0, 'rot2': 0, 'state': 'normal', 'yaw': 1.11, 'datetime': '2018-10-12 13:39:48.128142', 'mgs': 0, 'depth': 1.691, 'time': 2.14, 'pitch': -2.13, 'roll': -8.13}
{'lipoC2': 7.88, 'temp': 24.31, 'lipoC3S3': 11.89, 'rot1': 0, 'rot0': 0, 'rot3': 0, 'rot2': 0, 'state': 'normal', 'yaw': 1.16, 'datetime': '2018-10-12 13:39:48.135884', 'mgs': 0, 'depth': 1.691, 'time': 2.23, 'pitch': -2.14, 'roll': -8.27}
{'lipoC2': 7.88, 'temp': 24.31, 'lipoC3S3': 11.89, 'rot1': 0, 'rot0': 0, 'rot3': 0, 'rot2': 0, 'state': 'normal', 'yaw': 1.1, 'datetime': '2018-10-12 13:39:48.175728', 'mgs': 0, 'depth': 1.691, 'time': 2.33, 'pitch': -2.22, 'roll': -8.43}
{'lipoC2': 7.87, 'temp': 24.31, 'lipoC3S3': 11.89, 'rot1': 0, 'rot0': 0, 'rot3': 0, 'rot2': 0, 'state': 'normal', 'yaw': 1.02, 'datetime': '2018-10-12 13:39:48.272783', 'mgs': 0, 'depth': 1.691, 'time': 2.43, 'pitch': -2.26, 'roll': -8.69}
{'lipoC2': 7.88, 'temp': 24.31, 'lipoC3S3': 11.9, 'rot1': 0, 'rot0': 0, 'rot3': 0, 'rot2': 0, 'state': 'normal', 'yaw': 1.01, 'datetime': '2018-10-12 13:39:48.369766', 'mgs': 0, 'depth': 1.691, 'time': 2.53, 'pitch': -2.24, 'roll': -8.92}
{'lipoC2': 7.88, 'temp': 24.31, 'lipoC3S3': 11.9, 'rot1': 0, 'rot0': 0, 'rot3': 0, 'rot2': 0, 'state': 'normal', 'yaw': 1.0, 'datetime': '2018-10-12 13:39:48.467029', 'mgs': 0, 'depth': 1.691, 'time': 2.62, 'pitch': -2.21, 'roll': -8.99}
{'lipoC2': 7.88, 'temp': 24.31, 'lipoC3S3': 11.89, 'rot1': 0, 'rot0': 0, 'rot3': 0, 'rot2': 0, 'state': 'normal', 'yaw': 0.87, 'datetime': '2018-10-12 13:39:48.564042', 'mgs': 0, 'depth': 1.691, 'time': 2.72, 'pitch': -2.18, 'roll': -8.94}
{'lipoC2': 7.88, 'temp': 24.31, 'lipoC3S3': 11.89, 'rot1': 0, 'rot0': 0, 'rot3': 0, 'rot2': 0, 'state': 'normal', 'yaw': 0.67, 'datetime': '2018-10-12 13:39:48.661077', 'mgs': 0, 'depth': 1.691, 'time': 2.82, 'pitch': -2.17, 'roll': -8.91}
{'lipoC2': 7.88, 'temp': 24.31, 'lipoC3S3': 11.89, 'rot1': 0, 'rot0': 0, 'rot3': 0, 'rot2': 0, 'state': 'normal', 'yaw': 0.51, 'datetime': '2018-10-12 13:39:48.759115', 'mgs': 0, 'depth': 1.767, 'time': 2.91, 'pitch': -2.21, 'roll': -8.91}
{'lipoC2': 7.88, 'temp': 24.31, 'lipoC3S3': 11.9, 'rot1': 0, 'rot0': 0, 'rot3': 0, 'rot2': 0, 'state': 'normal', 'yaw': 0.36, 'datetime': '2018-10-12 13:39:48.863039', 'mgs': 0, 'depth': 1.691, 'time': 3.01, 'pitch': -2.26, 'roll': -8.88}
{'lipoC2': 7.88, 'temp': 24.31, 'lipoC3S3': 11.89, 'rot1': 0, 'rot0': 0, 'rot3': 0, 'rot2': 0, 'state': 'normal', 'yaw': 0.29, 'datetime': '2018-10-12 13:39:48.959888', 'mgs': 0, 'depth': 1.691, 'time': 3.11, 'pitch': -2.27, 'roll': -8.83}
{'lipoC2': 7.88, 'temp': 24.31, 'lipoC3S3': 11.89, 'rot1': 0, 'rot0': 0, 'rot3': 0, 'rot2': 0, 'state': 'normal', 'yaw': 0.3, 'datetime': '2018-10-12 13:39:49.056862', 'mgs': 0, 'depth': 1.767, 'time': 3.21, 'pitch': -2.26, 'roll': -8.85}
{'lipoC2': 7.88, 'temp': 24.31, 'lipoC3S3': 11.9, 'rot1': 0, 'rot0': 0, 'rot3': 0, 'rot2': 0, 'state': 'normal', 'yaw': 0.27, 'datetime': '2018-10-12 13:39:49.154985', 'mgs': 0, 'depth': 1.767, 'time': 3.31, 'pitch': -2.31, 'roll': -8.82}
{'lipoC2': 7.88, 'temp': 24.31, 'lipoC3S3': 11.89, 'rot1': 0, 'rot0': 0, 'rot3': 0, 'rot2': 0, 'state': 'normal', 'yaw': 0.13, 'datetime': '2018-10-12 13:39:49.253276', 'mgs': 0, 'depth': 1.767, 'time': 3.4, 'pitch': -2.4, 'roll': -8.38}
{'lipoC2': 7.87, 'temp': 24.31, 'lipoC3S3': 11.89, 'rot1': 0, 'rot0': 0, 'rot3': 0, 'rot2': 0, 'state': 'normal', 'yaw': -0.03, 'datetime': '2018-10-12 13:39:49.350455', 'mgs': 0, 'depth': 1.767, 'time': 3.5, 'pitch': -2.46, 'roll': -7.85}
{'lipoC2': 7.88, 'temp': 24.31, 'lipoC3S3': 11.89, 'rot1': 0, 'rot0': 0, 'rot3': 0, 'rot2': 0, 'state': 'normal', 'yaw': -0.1, 'datetime': '2018-10-12 13:39:49.447365', 'mgs': 0, 'depth': 1.767, 'time': 3.6, 'pitch': -2.41, 'roll': -7.8}
{'lipoC2': 7.88, 'temp': 24.31, 'lipoC3S3': 11.9, 'rot1': 0, 'rot0': 0, 'rot3': 0, 'rot2': 0, 'state': 'normal', 'yaw': -0.1, 'datetime': '2018-10-12 13:39:49.544379', 'mgs': 0, 'depth': 1.767, 'time': 3.7, 'pitch': -2.35, 'roll': -8.23}
{'lipoC2': 7.88, 'temp': 24.31, 'lipoC3S3': 11.89, 'rot1': 0, 'rot0': 0, 'rot3': 0, 'rot2': 0, 'state': 'normal', 'yaw': -0.1, 'datetime': '2018-10-12 13:39:49.641393', 'mgs': 0, 'depth': 1.767, 'time': 3.79, 'pitch': -2.33, 'roll': -8.72}
{'lipoC2': 7.88, 'temp': 24.31, 'lipoC3S3': 11.89, 'rot1': 0, 'rot0': 0, 'rot3': 0, 'rot2': 0, 'state': 'normal', 'yaw': -0.07, 'datetime': '2018-10-12 13:39:49.738393', 'mgs': 0, 'depth': 1.767, 'time': 3.89, 'pitch': -2.42, 'roll': -8.93}
{'lipoC2': 7.88, 'temp': 24.31, 'lipoC3S3': 11.89, 'rot1': 0, 'rot0': 0, 'rot3': 0, 'rot2': 0, 'state': 'normal', 'yaw': -0.05, 'datetime': '2018-10-12 13:39:49.835622', 'mgs': 0, 'depth': 1.691, 'time': 3.99, 'pitch': -2.55, 'roll': -9.02}
{'lipoC2': 7.88, 'temp': 24.31, 'lipoC3S3': 11.89, 'rot1': 0, 'rot0': 0, 'rot3': 0, 'rot2': 0, 'state': 'normal', 'yaw': 0.0, 'datetime': '2018-10-12 13:39:49.932517', 'mgs': 0, 'depth': 1.843, 'time': 4.08, 'pitch': -2.72, 'roll': -9.17}
{'lipoC2': 7.88, 'temp': 24.31, 'lipoC3S3': 11.89, 'rot1': 0, 'rot0': 0, 'rot3': 0, 'rot2': 0, 'state': 'normal', 'yaw': 0.15, 'datetime': '2018-10-12 13:39:50.029433', 'mgs': 0, 'depth': 1.767, 'time': 4.18, 'pitch': -2.86, 'roll': -9.27}
{'lipoC2': 7.88, 'temp': 24.31, 'lipoC3S3': 11.89, 'rot1': 0, 'rot0': 0, 'rot3': 0, 'rot2': 0, 'state': 'normal', 'yaw': 0.29, 'datetime': '2018-10-12 13:39:50.126666', 'mgs': 0, 'depth': 1.767, 'time': 4.28, 'pitch': -2.97, 'roll': -9.25}
{'lipoC2': 7.88, 'temp': 24.31, 'lipoC3S3': 11.89, 'rot1': 0, 'rot0': 0, 'rot3': 0, 'rot2': 0, 'state': 'normal', 'yaw': 0.43, 'datetime': '2018-10-12 13:39:50.223769', 'mgs': 0, 'depth': 1.767, 'time': 4.38, 'pitch': -3.13, 'roll': -9.12}
{'lipoC2': 7.88, 'temp': 24.31, 'lipoC3S3': 11.89, 'rot1': 0, 'rot0': 0, 'rot3': 0, 'rot2': 0, 'state': 'normal', 'yaw': 0.55, 'datetime': '2018-10-12 13:39:50.321023', 'mgs': 0, 'depth': 1.767, 'time': 4.47, 'pitch': -3.27, 'roll': -9.07}
{'lipoC2': 7.88, 'temp': 24.31, 'lipoC3S3': 11.9, 'rot1': 0, 'rot0': 0, 'rot3': 0, 'rot2': 0, 'state': 'normal', 'yaw': 0.65, 'datetime': '2018-10-12 13:39:50.417995', 'mgs': 0, 'depth': 1.767, 'time': 4.57, 'pitch': -3.37, 'roll': -9.15}
{'lipoC2': 7.88, 'temp': 24.31, 'lipoC3S3': 11.89, 'rot1': 0, 'rot0': 0, 'rot3': 0, 'rot2': 0, 'state': 'normal', 'yaw': 0.71, 'datetime': '2018-10-12 13:39:50.516372', 'mgs': 0, 'depth': 1.843, 'time': 4.67, 'pitch': -3.41, 'roll': -9.2}
{'lipoC2': 7.88, 'temp': 24.31, 'lipoC3S3': 11.89, 'rot1': 0, 'rot0': 0, 'rot3': 0, 'rot2': 0, 'state': 'normal', 'yaw': 0.71, 'datetime': '2018-10-12 13:39:50.614639', 'mgs': 0, 'depth': 1.767, 'time': 4.77, 'pitch': -3.41, 'roll': -9.09}
{'lipoC2': 7.88, 'temp': 24.31, 'lipoC3S3': 11.89, 'rot1': 0, 'rot0': 0, 'rot3': 0, 'rot2': 0, 'state': 'normal', 'yaw': 0.71, 'datetime': '2018-10-12 13:39:50.711723', 'mgs': 0, 'depth': 1.767, 'time': 4.86, 'pitch': -3.41, 'roll': -8.96}
{'lipoC2': 7.87, 'temp': 24.31, 'lipoC3S3': 11.89, 'rot1': 0, 'rot0': 0, 'rot3': 0, 'rot2': 0, 'state': 'normal', 'yaw': 0.69, 'datetime': '2018-10-12 13:39:50.808719', 'mgs': 0, 'depth': 1.767, 'time': 4.96, 'pitch': -3.35, 'roll': -8.93}
{'lipoC2': 7.88, 'temp': 24.31, 'lipoC3S3': 11.89, 'rot1': 0, 'rot0': 0, 'rot3': 0, 'rot2': 0, 'state': 'normal', 'yaw': 0.59, 'datetime': '2018-10-12 13:39:50.906968', 'mgs': 0, 'depth': 1.767, 'time': 5.06, 'pitch': -3.28, 'roll': -9.0}
{'lipoC2': 7.88, 'temp': 24.25, 'lipoC3S3': 11.89, 'rot1': 0, 'rot0': 0, 'rot3': 0, 'rot2': 0, 'state': 'normal', 'yaw': 0.45, 'datetime': '2018-10-12 13:39:51.005428', 'mgs': 0, 'depth': 1.767, 'time': 5.16, 'pitch': -3.16, 'roll': -9.08}
{'lipoC2': 7.88, 'temp': 24.25, 'lipoC3S3': 11.89, 'rot1': 0, 'rot0': 0, 'rot3': 0, 'rot2': 0, 'state': 'normal', 'yaw': 0.37, 'datetime': '2018-10-12 13:39:51.102506', 'mgs': 0, 'depth': 1.767, 'time': 5.26, 'pitch': -2.99, 'roll': -9.09}
{'lipoC2': 7.88, 'temp': 24.31, 'lipoC3S3': 11.9, 'rot1': 0, 'rot0': 0, 'rot3': 0, 'rot2': 0, 'state': 'normal', 'yaw': 0.35, 'datetime': '2018-10-12 13:39:51.199439', 'mgs': 0, 'depth': 1.767, 'time': 5.35, 'pitch': -2.75, 'roll': -9.07}
{'lipoC2': 7.88, 'temp': 24.31, 'lipoC3S3': 11.89, 'rot1': 0, 'rot0': 0, 'rot3': 0, 'rot2': 0, 'state': 'normal', 'yaw': 0.43, 'datetime': '2018-10-12 13:39:51.296708', 'mgs': 0, 'depth': 1.767, 'time': 5.45, 'pitch': -2.49, 'roll': -9.03}
{'lipoC2': 7.88, 'temp': 24.31, 'lipoC3S3': 11.89, 'rot1': 0, 'rot0': 0, 'rot3': 0, 'rot2': 0, 'state': 'normal', 'yaw': 0.55, 'datetime': '2018-10-12 13:39:51.393545', 'mgs': 0, 'depth': 1.691, 'time': 5.55, 'pitch': -2.27, 'roll': -8.97}
{'lipoC2': 7.88, 'temp': 24.31, 'lipoC3S3': 11.9, 'rot1': 0, 'rot0': 0, 'rot3': 0, 'rot2': 0, 'state': 'normal', 'yaw': 0.7, 'datetime': '2018-10-12 13:39:51.485729', 'mgs': 0, 'depth': 1.691, 'time': 5.64, 'pitch': -2.18, 'roll': -8.93}
{'lipoC2': 7.88, 'temp': 24.31, 'lipoC3S3': 11.89, 'rot1': 0, 'rot0': 0, 'rot3': 0, 'rot2': 0, 'state': 'normal', 'yaw': 0.84, 'datetime': '2018-10-12 13:39:51.582721', 'mgs': 0, 'depth': 1.691, 'time': 5.74, 'pitch': -2.2, 'roll': -8.89}
{'lipoC2': 7.88, 'temp': 24.25, 'lipoC3S3': 11.9, 'rot1': 0, 'rot0': 0, 'rot3': 0, 'rot2': 0, 'state': 'normal', 'yaw': 1.0, 'datetime': '2018-10-12 13:39:51.679760', 'mgs': 0, 'depth': 1.691, 'time': 5.84, 'pitch': -2.32, 'roll': -8.85}
{'lipoC2': 7.88, 'temp': 24.25, 'lipoC3S3': 11.89, 'rot1': 0, 'rot0': 0, 'rot3': 0, 'rot2': 0, 'state': 'normal', 'yaw': 1.23, 'datetime': '2018-10-12 13:39:51.776774', 'mgs': 0, 'depth': 1.767, 'time': 5.94, 'pitch': -2.48, 'roll': -8.88}
{'lipoC2': 7.88, 'temp': 24.25, 'lipoC3S3': 11.89, 'rot1': 0, 'rot0': 0, 'rot3': 0, 'rot2': 0, 'state': 'normal', 'yaw': 1.42, 'datetime': '2018-10-12 13:39:51.873804', 'mgs': 0, 'depth': 1.767, 'time': 6.03, 'pitch': -2.66, 'roll': -8.98}
{'lipoC2': 7.88, 'temp': 24.31, 'lipoC3S3': 11.9, 'rot1': 0, 'rot0': 0, 'rot3': 0, 'rot2': 0, 'state': 'normal', 'yaw': 1.63, 'datetime': '2018-10-12 13:39:51.970846', 'mgs': 0, 'depth': 1.691, 'time': 6.13, 'pitch': -2.89, 'roll': -9.1}
{'lipoC2': 7.88, 'temp': 24.31, 'lipoC3S3': 11.89, 'rot1': 0, 'rot0': 0, 'rot3': 0, 'rot2': 0, 'state': 'normal', 'yaw': 1.81, 'datetime': '2018-10-12 13:39:52.067850', 'mgs': 0, 'depth': 1.691, 'time': 6.23, 'pitch': -3.12, 'roll': -9.18}
{'lipoC2': 7.88, 'temp': 24.31, 'lipoC3S3': 11.89, 'rot1': 0, 'rot0': 0, 'rot3': 0, 'rot2': 0, 'state': 'normal', 'yaw': 1.99, 'datetime': '2018-10-12 13:39:52.165804', 'mgs': 0, 'depth': 1.691, 'time': 6.32, 'pitch': -3.32, 'roll': -9.19}
{'lipoC2': 7.87, 'temp': 24.31, 'lipoC3S3': 11.89, 'rot1': 0, 'rot0': 0, 'rot3': 0, 'rot2': 0, 'state': 'normal', 'yaw': 2.16, 'datetime': '2018-10-12 13:39:52.264118', 'mgs': 0, 'depth': 1.767, 'time': 6.42, 'pitch': -3.53, 'roll': -9.19}
{'lipoC2': 7.88, 'temp': 24.31, 'lipoC3S3': 11.89, 'rot1': 0, 'rot0': 0, 'rot3': 0, 'rot2': 0, 'state': 'normal', 'yaw': 2.29, 'datetime': '2018-10-12 13:39:52.361993', 'mgs': 0, 'depth': 1.691, 'time': 6.52, 'pitch': -3.78, 'roll': -9.15}
{'lipoC2': 7.88, 'temp': 24.31, 'lipoC3S3': 11.89, 'rot1': 0, 'rot0': 0, 'rot3': 0, 'rot2': 0, 'state': 'normal', 'yaw': 2.33, 'datetime': '2018-10-12 13:39:52.459050', 'mgs': 0, 'depth': 1.691, 'time': 6.62, 'pitch': -4.02, 'roll': -9.04}
{'lipoC2': 7.88, 'temp': 24.31, 'lipoC3S3': 11.9, 'rot1': 0, 'rot0': 0, 'rot3': 0, 'rot2': 0, 'state': 'normal', 'yaw': 2.36, 'datetime': '2018-10-12 13:39:52.556458', 'mgs': 0, 'depth': 1.691, 'time': 6.72, 'pitch': -4.19, 'roll': -8.91}
{'lipoC2': 7.87, 'temp': 24.31, 'lipoC3S3': 11.89, 'rot1': 0, 'rot0': 0, 'rot3': 0, 'rot2': 0, 'state': 'normal', 'yaw': 2.36, 'datetime': '2018-10-12 13:39:52.654776', 'mgs': 1, 'depth': 1.767, 'time': 6.81, 'pitch': -4.25, 'roll': -8.81}
{'lipoC2': 7.88, 'temp': 24.31, 'lipoC3S3': 11.89, 'rot1': 0, 'rot0': 0, 'rot3': 0, 'rot2': 0, 'state': 'normal', 'yaw': 0.0, 'datetime': '2018-10-12 13:39:54.174202', 'mgs': 0, 'depth': 1.691, 'time': 1.26, 'pitch': -3.55, 'roll': -8.84}
{'lipoC2': 7.88, 'temp': 24.31, 'lipoC3S3': 11.89, 'rot1': 0, 'rot0': 0, 'rot3': 0, 'rot2': 0, 'state': 'normal', 'yaw': 0.16, 'datetime': '2018-10-12 13:39:54.199904', 'mgs': 0, 'depth': 1.767, 'time': 1.36, 'pitch': -3.68, 'roll': -8.99}
{'lipoC2': 7.87, 'temp': 24.31, 'lipoC3S3': 11.89, 'rot1': 0, 'rot0': 0, 'rot3': 0, 'rot2': 0, 'state': 'normal', 'yaw': 0.29, 'datetime': '2018-10-12 13:39:54.216965', 'mgs': 0, 'depth': 1.767, 'time': 1.46, 'pitch': -3.85, 'roll': -9.38}
{'lipoC2': 7.88, 'temp': 24.31, 'lipoC3S3': 11.83, 'rot1': 0, 'rot0': 0, 'rot3': 0, 'rot2': 0, 'state': 'normal', 'yaw': 0.38, 'datetime': '2018-10-12 13:39:54.308979', 'mgs': 0, 'depth': 1.691, 'time': 1.55, 'pitch': -4.02, 'roll': -9.76}
{'lipoC2': 7.9, 'temp': 24.31, 'lipoC3S3': 11.73, 'rot1': 0, 'rot0': 0, 'rot3': 1, 'rot2': 0, 'state': 'normal', 'yaw': 0.44, 'datetime': '2018-10-12 13:39:54.406941', 'mgs': 0, 'depth': 2.072, 'time': 1.65, 'pitch': -4.25, 'roll': -9.69}
{'lipoC2': 7.9, 'temp': 24.31, 'lipoC3S3': 11.75, 'rot1': 1, 'rot0': 1, 'rot3': 1, 'rot2': 1, 'state': 'normal', 'yaw': 0.59, 'datetime': '2018-10-12 13:39:54.503764', 'mgs': 0, 'depth': 2.148, 'time': 1.75, 'pitch': -4.48, 'roll': -8.81}
{'lipoC2': 7.88, 'temp': 24.31, 'lipoC3S3': 11.76, 'rot1': 2, 'rot0': 2, 'rot3': 2, 'rot2': 2, 'state': 'normal', 'yaw': 0.75, 'datetime': '2018-10-12 13:39:54.600456', 'mgs': 0, 'depth': 1.691, 'time': 1.84, 'pitch': -4.57, 'roll': -7.9}
{'lipoC2': 7.88, 'temp': 24.31, 'lipoC3S3': 11.75, 'rot1': 3, 'rot0': 3, 'rot3': 3, 'rot2': 2, 'state': 'normal', 'yaw': 0.78, 'datetime': '2018-10-12 13:39:54.698406', 'mgs': 0, 'depth': 0.928, 'time': 1.94, 'pitch': -4.64, 'roll': -6.89}
{'lipoC2': 7.88, 'temp': 24.31, 'lipoC3S3': 11.77, 'rot1': 4, 'rot0': 4, 'rot3': 3, 'rot2': 3, 'state': 'normal', 'yaw': 0.8, 'datetime': '2018-10-12 13:39:54.795060', 'mgs': 0, 'depth': 2.835, 'time': 2.04, 'pitch': -4.66, 'roll': -5.13}
{'lipoC2': 7.87, 'temp': 24.31, 'lipoC3S3': 11.75, 'rot1': 5, 'rot0': 6, 'rot3': 4, 'rot2': 4, 'state': 'normal', 'yaw': 0.92, 'datetime': '2018-10-12 13:39:54.891769', 'mgs': 0, 'depth': 2.377, 'time': 2.14, 'pitch': -4.65, 'roll': -3.12}
{'lipoC2': 7.9, 'temp': 24.25, 'lipoC3S3': 11.76, 'rot1': 6, 'rot0': 7, 'rot3': 4, 'rot2': 4, 'state': 'normal', 'yaw': 1.05, 'datetime': '2018-10-12 13:39:54.988490', 'mgs': 0, 'depth': 2.072, 'time': 2.23, 'pitch': -4.66, 'roll': -1.36}
{'lipoC2': 7.9, 'temp': 24.25, 'lipoC3S3': 11.76, 'rot1': 8, 'rot0': 8, 'rot3': 5, 'rot2': 5, 'state': 'normal', 'yaw': 1.21, 'datetime': '2018-10-12 13:39:55.085119', 'mgs': 0, 'depth': 1.843, 'time': 2.33, 'pitch': -4.75, 'roll': 0.28}
{'lipoC2': 7.88, 'temp': 24.31, 'lipoC3S3': 11.61, 'rot1': 9, 'rot0': 9, 'rot3': 5, 'rot2': 6, 'state': 'normal', 'yaw': 1.41, 'datetime': '2018-10-12 13:39:55.181765', 'mgs': 0, 'depth': 1.843, 'time': 2.43, 'pitch': -4.83, 'roll': 1.47}
{'lipoC2': 7.88, 'temp': 24.31, 'lipoC3S3': 11.71, 'rot1': 9, 'rot0': 10, 'rot3': 6, 'rot2': 6, 'state': 'normal', 'yaw': 1.59, 'datetime': '2018-10-12 13:39:55.278643', 'mgs': 0, 'depth': 1.92, 'time': 2.52, 'pitch': -4.84, 'roll': 2.11}
{'lipoC2': 7.88, 'temp': 24.31, 'lipoC3S3': 11.69, 'rot1': 10, 'rot0': 11, 'rot3': 6, 'rot2': 7, 'state': 'normal', 'yaw': 1.59, 'datetime': '2018-10-12 13:39:55.375696', 'mgs': 0, 'depth': 1.843, 'time': 2.62, 'pitch': -4.78, 'roll': 2.31}
{'lipoC2': 7.88, 'temp': 24.31, 'lipoC3S3': 11.76, 'rot1': 11, 'rot0': 12, 'rot3': 7, 'rot2': 8, 'state': 'normal', 'yaw': 1.34, 'datetime': '2018-10-12 13:39:55.472677', 'mgs': 0, 'depth': 2.682, 'time': 2.72, 'pitch': -4.66, 'roll': 2.15}
{'lipoC2': 7.88, 'temp': 24.31, 'lipoC3S3': 11.71, 'rot1': 12, 'rot0': 13, 'rot3': 7, 'rot2': 8, 'state': 'normal', 'yaw': 0.96, 'datetime': '2018-10-12 13:39:55.571035', 'mgs': 0, 'depth': 1.843, 'time': 2.82, 'pitch': -4.54, 'roll': 1.84}
{'lipoC2': 7.88, 'temp': 24.31, 'lipoC3S3': 11.8, 'rot1': 13, 'rot0': 15, 'rot3': 8, 'rot2': 9, 'state': 'normal', 'yaw': 0.41, 'datetime': '2018-10-12 13:39:55.669256', 'mgs': 0, 'depth': 2.072, 'time': 2.91, 'pitch': -4.41, 'roll': 1.38}
{'lipoC2': 7.88, 'temp': 24.31, 'lipoC3S3': 11.76, 'rot1': 14, 'rot0': 16, 'rot3': 8, 'rot2': 10, 'state': 'normal', 'yaw': -0.31, 'datetime': '2018-10-12 13:39:55.767639', 'mgs': 0, 'depth': 1.462, 'time': 3.01, 'pitch': -4.3, 'roll': 0.85}
{'lipoC2': 7.88, 'temp': 24.31, 'lipoC3S3': 11.69, 'rot1': 15, 'rot0': 17, 'rot3': 9, 'rot2': 10, 'state': 'normal', 'yaw': -1.14, 'datetime': '2018-10-12 13:39:55.864276', 'mgs': 0, 'depth': 1.843, 'time': 3.11, 'pitch': -4.28, 'roll': 0.33}
{'lipoC2': 7.88, 'temp': 24.31, 'lipoC3S3': 11.63, 'rot1': 16, 'rot0': 19, 'rot3': 10, 'rot2': 11, 'state': 'normal', 'yaw': -1.77, 'datetime': '2018-10-12 13:39:55.962290', 'mgs': 0, 'depth': 1.843, 'time': 3.21, 'pitch': -4.3, 'roll': 0.06}
{'lipoC2': 7.88, 'temp': 24.31, 'lipoC3S3': 11.63, 'rot1': 17, 'rot0': 20, 'rot3': 10, 'rot2': 12, 'state': 'normal', 'yaw': -2.22, 'datetime': '2018-10-12 13:39:56.061725', 'mgs': 0, 'depth': 1.843, 'time': 3.31, 'pitch': -4.42, 'roll': -0.01}
{'lipoC2': 7.9, 'temp': 24.31, 'lipoC3S3': 11.77, 'rot1': 18, 'rot0': 21, 'rot3': 11, 'rot2': 12, 'state': 'normal', 'yaw': -2.45, 'datetime': '2018-10-12 13:39:56.159709', 'mgs': 0, 'depth': 1.92, 'time': 3.4, 'pitch': -4.59, 'roll': 0.01}
{'lipoC2': 7.87, 'temp': 24.31, 'lipoC3S3': 11.77, 'rot1': 19, 'rot0': 22, 'rot3': 11, 'rot2': 13, 'state': 'normal', 'yaw': -2.3, 'datetime': '2018-10-12 13:39:56.257083', 'mgs': 0, 'depth': 1.843, 'time': 3.5, 'pitch': -4.68, 'roll': -0.09}
{'lipoC2': 7.88, 'temp': 24.31, 'lipoC3S3': 11.8, 'rot1': 20, 'rot0': 23, 'rot3': 12, 'rot2': 14, 'state': 'normal', 'yaw': -1.82, 'datetime': '2018-10-12 13:39:56.354535', 'mgs': 0, 'depth': 1.996, 'time': 3.6, 'pitch': -4.69, 'roll': -0.38}
{'lipoC2': 7.88, 'temp': 24.31, 'lipoC3S3': 11.76, 'rot1': 21, 'rot0': 24, 'rot3': 12, 'rot2': 14, 'state': 'normal', 'yaw': -1.15, 'datetime': '2018-10-12 13:39:56.452813', 'mgs': 0, 'depth': 1.92, 'time': 3.7, 'pitch': -4.7, 'roll': -0.75}
{'lipoC2': 7.88, 'temp': 24.31, 'lipoC3S3': 11.77, 'rot1': 23, 'rot0': 24, 'rot3': 13, 'rot2': 15, 'state': 'normal', 'yaw': -0.17, 'datetime': '2018-10-12 13:39:56.551517', 'mgs': 0, 'depth': 2.225, 'time': 3.8, 'pitch': -4.69, 'roll': -1.23}
{'lipoC2': 7.87, 'temp': 24.31, 'lipoC3S3': 11.72, 'rot1': 24, 'rot0': 25, 'rot3': 13, 'rot2': 16, 'state': 'normal', 'yaw': 1.01, 'datetime': '2018-10-12 13:39:56.648879', 'mgs': 0, 'depth': 1.843, 'time': 3.89, 'pitch': -4.66, 'roll': -1.73}
{'lipoC2': 7.88, 'temp': 24.31, 'lipoC3S3': 11.8, 'rot1': 25, 'rot0': 26, 'rot3': 14, 'rot2': 16, 'state': 'normal', 'yaw': 2.29, 'datetime': '2018-10-12 13:39:56.746339', 'mgs': 0, 'depth': 2.072, 'time': 3.99, 'pitch': -4.62, 'roll': -2.22}
{'lipoC2': 7.88, 'temp': 24.31, 'lipoC3S3': 11.79, 'rot1': 25, 'rot0': 27, 'rot3': 15, 'rot2': 17, 'state': 'normal', 'yaw': 3.13, 'datetime': '2018-10-12 13:39:56.843981', 'mgs': 0, 'depth': 1.996, 'time': 4.09, 'pitch': -4.61, 'roll': -2.58}
{'lipoC2': 7.9, 'temp': 24.31, 'lipoC3S3': 11.75, 'rot1': 26, 'rot0': 28, 'rot3': 15, 'rot2': 18, 'state': 'normal', 'yaw': 3.68, 'datetime': '2018-10-12 13:39:56.943220', 'mgs': 0, 'depth': 2.454, 'time': 4.19, 'pitch': -4.68, 'roll': -2.82}
{'lipoC2': 7.88, 'temp': 24.31, 'lipoC3S3': 11.69, 'rot1': 27, 'rot0': 29, 'rot3': 16, 'rot2': 18, 'state': 'normal', 'yaw': 3.88, 'datetime': '2018-10-12 13:39:57.044953', 'mgs': 0, 'depth': 1.843, 'time': 4.28, 'pitch': -4.75, 'roll': -2.93}
{'lipoC2': 7.87, 'temp': 24.31, 'lipoC3S3': 11.81, 'rot1': 28, 'rot0': 30, 'rot3': 16, 'rot2': 19, 'state': 'normal', 'yaw': 3.81, 'datetime': '2018-10-12 13:39:57.142303', 'mgs': 0, 'depth': 2.072, 'time': 4.38, 'pitch': -4.84, 'roll': -2.98}
{'lipoC2': 7.88, 'temp': 24.31, 'lipoC3S3': 11.75, 'rot1': 29, 'rot0': 32, 'rot3': 17, 'rot2': 20, 'state': 'normal', 'yaw': 3.57, 'datetime': '2018-10-12 13:39:57.238557', 'mgs': 0, 'depth': 1.691, 'time': 4.48, 'pitch': -4.93, 'roll': -3.03}
{'lipoC2': 7.9, 'temp': 24.31, 'lipoC3S3': 11.75, 'rot1': 30, 'rot0': 33, 'rot3': 17, 'rot2': 20, 'state': 'normal', 'yaw': 3.18, 'datetime': '2018-10-12 13:39:57.332758', 'mgs': 0, 'depth': 1.843, 'time': 4.58, 'pitch': -5.05, 'roll': -3.11}
{'lipoC2': 7.88, 'temp': 24.31, 'lipoC3S3': 11.75, 'rot1': 30, 'rot0': 34, 'rot3': 18, 'rot2': 21, 'state': 'normal', 'yaw': 2.61, 'datetime': '2018-10-12 13:39:57.434485', 'mgs': 0, 'depth': 1.767, 'time': 4.68, 'pitch': -5.23, 'roll': -3.2}
{'lipoC2': 7.88, 'temp': 24.31, 'lipoC3S3': 11.8, 'rot1': 31, 'rot0': 35, 'rot3': 18, 'rot2': 22, 'state': 'normal', 'yaw': 1.9, 'datetime': '2018-10-12 13:39:57.531906', 'mgs': 0, 'depth': 2.072, 'time': 4.77, 'pitch': -5.48, 'roll': -3.32}
{'lipoC2': 7.9, 'temp': 24.31, 'lipoC3S3': 11.76, 'rot1': 32, 'rot0': 36, 'rot3': 19, 'rot2': 22, 'state': 'normal', 'yaw': 1.17, 'datetime': '2018-10-12 13:39:57.630194', 'mgs': 0, 'depth': 1.92, 'time': 4.87, 'pitch': -5.76, 'roll': -3.43}
{'lipoC2': 7.88, 'temp': 24.31, 'lipoC3S3': 11.76, 'rot1': 33, 'rot0': 37, 'rot3': 19, 'rot2': 23, 'state': 'normal', 'yaw': 0.25, 'datetime': '2018-10-12 13:39:57.728831', 'mgs': 0, 'depth': 1.614, 'time': 4.97, 'pitch': -6.07, 'roll': -3.51}
{'lipoC2': 7.88, 'temp': 24.31, 'lipoC3S3': 11.75, 'rot1': 34, 'rot0': 38, 'rot3': 20, 'rot2': 24, 'state': 'normal', 'yaw': -0.72, 'datetime': '2018-10-12 13:39:57.827597', 'mgs': 0, 'depth': 2.148, 'time': 5.07, 'pitch': -6.34, 'roll': -3.5}
{'lipoC2': 7.88, 'temp': 24.25, 'lipoC3S3': 11.69, 'rot1': 35, 'rot0': 39, 'rot3': 20, 'rot2': 24, 'state': 'normal', 'yaw': -1.73, 'datetime': '2018-10-12 13:39:57.924998', 'mgs': 0, 'depth': 1.843, 'time': 5.17, 'pitch': -6.58, 'roll': -3.39}
{'lipoC2': 7.87, 'temp': 24.25, 'lipoC3S3': 11.79, 'rot1': 36, 'rot0': 40, 'rot3': 21, 'rot2': 25, 'state': 'normal', 'yaw': -2.55, 'datetime': '2018-10-12 13:39:58.022400', 'mgs': 0, 'depth': 2.072, 'time': 5.26, 'pitch': -6.78, 'roll': -3.2}
{'lipoC2': 7.88, 'temp': 24.25, 'lipoC3S3': 11.73, 'rot1': 37, 'rot0': 41, 'rot3': 21, 'rot2': 26, 'state': 'normal', 'yaw': -3.11, 'datetime': '2018-10-12 13:39:58.120690', 'mgs': 0, 'depth': 2.225, 'time': 5.36, 'pitch': -6.95, 'roll': -2.94}
{'lipoC2': 7.87, 'temp': 24.25, 'lipoC3S3': 11.75, 'rot1': 38, 'rot0': 42, 'rot3': 22, 'rot2': 26, 'state': 'normal', 'yaw': -3.63, 'datetime': '2018-10-12 13:39:58.219339', 'mgs': 0, 'depth': 2.53, 'time': 5.46, 'pitch': -7.15, 'roll': -2.61}
{'lipoC2': 7.88, 'temp': 24.25, 'lipoC3S3': 11.87, 'rot1': 38, 'rot0': 43, 'rot3': 22, 'rot2': 27, 'state': 'normal', 'yaw': -3.84, 'datetime': '2018-10-12 13:39:58.318095', 'mgs': 0, 'depth': 1.92, 'time': 5.56, 'pitch': -7.35, 'roll': -2.5}
{'lipoC2': 7.88, 'temp': 24.25, 'lipoC3S3': 11.87, 'rot1': 38, 'rot0': 43, 'rot3': 22, 'rot2': 27, 'state': 'normal', 'yaw': -3.95, 'datetime': '2018-10-12 13:39:58.415355', 'mgs': 0, 'depth': 1.92, 'time': 5.66, 'pitch': -7.57, 'roll': -3.11}
{'lipoC2': 7.88, 'temp': 24.25, 'lipoC3S3': 11.81, 'rot1': 38, 'rot0': 43, 'rot3': 22, 'rot2': 27, 'state': 'normal', 'yaw': -4.13, 'datetime': '2018-10-12 13:39:58.513004', 'mgs': 0, 'depth': 2.072, 'time': 5.75, 'pitch': -7.88, 'roll': -4.23}
{'lipoC2': 7.88, 'temp': 24.31, 'lipoC3S3': 11.75, 'rot1': 39, 'rot0': 43, 'rot3': 22, 'rot2': 28, 'state': 'normal', 'yaw': -4.31, 'datetime': '2018-10-12 13:39:58.608383', 'mgs': 0, 'depth': 2.988, 'time': 5.85, 'pitch': -8.07, 'roll': -5.43}
{'lipoC2': 7.88, 'temp': 24.31, 'lipoC3S3': 11.75, 'rot1': 40, 'rot0': 44, 'rot3': 23, 'rot2': 29, 'state': 'normal', 'yaw': -4.36, 'datetime': '2018-10-12 13:39:58.710014', 'mgs': 0, 'depth': 2.911, 'time': 5.95, 'pitch': -8.02, 'roll': -6.12}
{'lipoC2': 7.9, 'temp': 24.31, 'lipoC3S3': 11.77, 'rot1': 41, 'rot0': 45, 'rot3': 23, 'rot2': 29, 'state': 'normal', 'yaw': -4.15, 'datetime': '2018-10-12 13:39:58.807665', 'mgs': 0, 'depth': 2.606, 'time': 6.05, 'pitch': -7.72, 'roll': -5.85}
{'lipoC2': 7.88, 'temp': 24.31, 'lipoC3S3': 11.65, 'rot1': 43, 'rot0': 46, 'rot3': 23, 'rot2': 29, 'state': 'normal', 'yaw': -3.74, 'datetime': '2018-10-12 13:39:58.904934', 'mgs': 0, 'depth': 2.072, 'time': 6.15, 'pitch': -7.32, 'roll': -5.03}
{'lipoC2': 7.87, 'temp': 24.31, 'lipoC3S3': 11.72, 'rot1': 45, 'rot0': 48, 'rot3': 23, 'rot2': 29, 'state': 'normal', 'yaw': -3.24, 'datetime': '2018-10-12 13:39:59.002505', 'mgs': 0, 'depth': 2.072, 'time': 6.24, 'pitch': -6.88, 'roll': -4.19}
{'lipoC2': 7.87, 'temp': 24.31, 'lipoC3S3': 11.73, 'rot1': 46, 'rot0': 49, 'rot3': 23, 'rot2': 29, 'state': 'normal', 'yaw': -2.56, 'datetime': '2018-10-12 13:39:59.097347', 'mgs': 0, 'depth': 2.454, 'time': 6.34, 'pitch': -6.42, 'roll': -3.3}
{'lipoC2': 7.88, 'temp': 24.31, 'lipoC3S3': 11.72, 'rot1': 47, 'rot0': 50, 'rot3': 23, 'rot2': 30, 'state': 'normal', 'yaw': -1.81, 'datetime': '2018-10-12 13:39:59.197302', 'mgs': 0, 'depth': 3.217, 'time': 6.44, 'pitch': -5.99, 'roll': -2.62}
{'lipoC2': 7.88, 'temp': 24.31, 'lipoC3S3': 11.58, 'rot1': 49, 'rot0': 51, 'rot3': 24, 'rot2': 30, 'state': 'normal', 'yaw': -1.02, 'datetime': '2018-10-12 13:39:59.294771', 'mgs': 0, 'depth': 2.454, 'time': 6.54, 'pitch': -5.6, 'roll': -2.0}
{'lipoC2': 7.88, 'temp': 24.31, 'lipoC3S3': 11.63, 'rot1': 50, 'rot0': 52, 'rot3': 24, 'rot2': 31, 'state': 'normal', 'yaw': -0.28, 'datetime': '2018-10-12 13:39:59.392393', 'mgs': 0, 'depth': 2.454, 'time': 6.64, 'pitch': -5.27, 'roll': -1.39}
{'lipoC2': 7.88, 'temp': 24.31, 'lipoC3S3': 11.75, 'rot1': 51, 'rot0': 54, 'rot3': 25, 'rot2': 31, 'state': 'normal', 'yaw': 0.55, 'datetime': '2018-10-12 13:39:59.489813', 'mgs': 0, 'depth': 1.843, 'time': 6.73, 'pitch': -4.9, 'roll': -0.57}
{'lipoC2': 7.91, 'temp': 24.31, 'lipoC3S3': 11.69, 'rot1': 53, 'rot0': 55, 'rot3': 25, 'rot2': 32, 'state': 'normal', 'yaw': 1.2, 'datetime': '2018-10-12 13:39:59.587126', 'mgs': 0, 'depth': 3.751, 'time': 6.83, 'pitch': -4.61, 'roll': 0.48}
{'lipoC2': 7.88, 'temp': 24.31, 'lipoC3S3': 11.6, 'rot1': 54, 'rot0': 57, 'rot3': 25, 'rot2': 32, 'state': 'normal', 'yaw': 1.6, 'datetime': '2018-10-12 13:39:59.683582', 'mgs': 0, 'depth': 2.682, 'time': 6.93, 'pitch': -4.37, 'roll': 1.62}
{'lipoC2': 7.88, 'temp': 24.31, 'lipoC3S3': 11.58, 'rot1': 55, 'rot0': 58, 'rot3': 25, 'rot2': 32, 'state': 'normal', 'yaw': 1.73, 'datetime': '2018-10-12 13:39:59.783220', 'mgs': 0, 'depth': 2.682, 'time': 7.03, 'pitch': -4.24, 'roll': 2.71}
{'lipoC2': 7.88, 'temp': 24.31, 'lipoC3S3': 11.68, 'rot1': 57, 'rot0': 60, 'rot3': 25, 'rot2': 32, 'state': 'normal', 'yaw': 1.44, 'datetime': '2018-10-12 13:39:59.881964', 'mgs': 0, 'depth': 2.759, 'time': 7.13, 'pitch': -4.19, 'roll': 3.85}
{'lipoC2': 7.88, 'temp': 24.31, 'lipoC3S3': 11.58, 'rot1': 58, 'rot0': 61, 'rot3': 25, 'rot2': 32, 'state': 'normal', 'yaw': 0.65, 'datetime': '2018-10-12 13:39:59.975881', 'mgs': 0, 'depth': 2.911, 'time': 7.22, 'pitch': -4.18, 'roll': 4.82}
{'lipoC2': 7.88, 'temp': 24.5, 'lipoC3S3': 11.67, 'rot1': 59, 'rot0': 63, 'rot3': 26, 'rot2': 33, 'state': 'normal', 'yaw': -0.41, 'datetime': '2018-10-12 13:40:00.073173', 'mgs': 0, 'depth': 2.988, 'time': 7.32, 'pitch': -4.21, 'roll': 5.47}
{'lipoC2': 7.88, 'temp': 24.5, 'lipoC3S3': 11.73, 'rot1': 60, 'rot0': 64, 'rot3': 26, 'rot2': 33, 'state': 'normal', 'yaw': -1.43, 'datetime': '2018-10-12 13:40:00.170605', 'mgs': 0, 'depth': 4.895, 'time': 7.42, 'pitch': -4.22, 'roll': 5.91}
{'lipoC2': 7.88, 'temp': 24.75, 'lipoC3S3': 11.72, 'rot1': 62, 'rot0': 66, 'rot3': 26, 'rot2': 34, 'state': 'normal', 'yaw': -2.21, 'datetime': '2018-10-12 13:40:00.272755', 'mgs': 0, 'depth': 3.751, 'time': 7.52, 'pitch': -4.25, 'roll': 6.22}
{'lipoC2': 7.87, 'temp': 24.75, 'lipoC3S3': 11.76, 'rot1': 63, 'rot0': 67, 'rot3': 27, 'rot2': 34, 'state': 'normal', 'yaw': -2.96, 'datetime': '2018-10-12 13:40:00.367806', 'mgs': 0, 'depth': 3.979, 'time': 7.62, 'pitch': -4.3, 'roll': 6.6}
{'lipoC2': 7.87, 'temp': 24.75, 'lipoC3S3': 11.77, 'rot1': 64, 'rot0': 69, 'rot3': 27, 'rot2': 34, 'state': 'normal', 'yaw': -3.34, 'datetime': '2018-10-12 13:40:00.466413', 'mgs': 0, 'depth': 4.056, 'time': 7.72, 'pitch': -4.36, 'roll': 6.82}
{'lipoC2': 7.88, 'temp': 24.31, 'lipoC3S3': 11.77, 'rot1': 66, 'rot0': 70, 'rot3': 27, 'rot2': 34, 'state': 'normal', 'yaw': -3.38, 'datetime': '2018-10-12 13:40:00.563916', 'mgs': 0, 'depth': 3.369, 'time': 7.81, 'pitch': -4.5, 'roll': 6.84}
{'lipoC2': 7.87, 'temp': 24.31, 'lipoC3S3': 11.68, 'rot1': 67, 'rot0': 71, 'rot3': 27, 'rot2': 34, 'state': 'normal', 'yaw': -3.18, 'datetime': '2018-10-12 13:40:00.661525', 'mgs': 0, 'depth': 2.988, 'time': 7.91, 'pitch': -4.69, 'roll': 6.71}
{'lipoC2': 7.88, 'temp': 24.31, 'lipoC3S3': 11.79, 'rot1': 69, 'rot0': 72, 'rot3': 27, 'rot2': 34, 'state': 'normal', 'yaw': -2.84, 'datetime': '2018-10-12 13:40:00.759803', 'mgs': 0, 'depth': 2.988, 'time': 8.01, 'pitch': -4.88, 'roll': 6.54}
{'lipoC2': 7.88, 'temp': 24.31, 'lipoC3S3': 11.79, 'rot1': 70, 'rot0': 73, 'rot3': 27, 'rot2': 34, 'state': 'normal', 'yaw': -2.27, 'datetime': '2018-10-12 13:40:00.858489', 'mgs': 0, 'depth': 2.988, 'time': 8.11, 'pitch': -5.11, 'roll': 6.24}
{'lipoC2': 7.87, 'temp': 24.31, 'lipoC3S3': 11.77, 'rot1': 72, 'rot0': 75, 'rot3': 27, 'rot2': 34, 'state': 'normal', 'yaw': -1.54, 'datetime': '2018-10-12 13:40:00.955893', 'mgs': 0, 'depth': 3.293, 'time': 8.21, 'pitch': -5.33, 'roll': 5.82}
{'lipoC2': 7.88, 'temp': 24.25, 'lipoC3S3': 11.76, 'rot1': 73, 'rot0': 76, 'rot3': 27, 'rot2': 34, 'state': 'normal', 'yaw': -0.7, 'datetime': '2018-10-12 13:40:01.053384', 'mgs': 0, 'depth': 3.217, 'time': 8.3, 'pitch': -5.55, 'roll': 5.3}
{'lipoC2': 7.88, 'temp': 24.25, 'lipoC3S3': 11.56, 'rot1': 75, 'rot0': 77, 'rot3': 27, 'rot2': 34, 'state': 'normal', 'yaw': 0.24, 'datetime': '2018-10-12 13:40:01.150967', 'mgs': 0, 'depth': 2.759, 'time': 8.4, 'pitch': -5.75, 'roll': 4.7}
{'lipoC2': 7.88, 'temp': 24.31, 'lipoC3S3': 11.72, 'rot1': 76, 'rot0': 79, 'rot3': 27, 'rot2': 34, 'state': 'normal', 'yaw': 1.15, 'datetime': '2018-10-12 13:40:01.248366', 'mgs': 0, 'depth': 2.759, 'time': 8.5, 'pitch': -5.93, 'roll': 4.11}
{'lipoC2': 7.88, 'temp': 24.31, 'lipoC3S3': 11.75, 'rot1': 78, 'rot0': 80, 'rot3': 27, 'rot2': 34, 'state': 'normal', 'yaw': 1.98, 'datetime': '2018-10-12 13:40:01.345739', 'mgs': 0, 'depth': 1.691, 'time': 8.6, 'pitch': -6.11, 'roll': 3.56}
{'lipoC2': 7.9, 'temp': 24.31, 'lipoC3S3': 11.6, 'rot1': 79, 'rot0': 82, 'rot3': 28, 'rot2': 34, 'state': 'normal', 'yaw': 2.6, 'datetime': '2018-10-12 13:40:01.443153', 'mgs': 0, 'depth': 3.293, 'time': 8.69, 'pitch': -6.29, 'roll': 3.13}
{'lipoC2': 7.9, 'temp': 24.38, 'lipoC3S3': 11.61, 'rot1': 81, 'rot0': 83, 'rot3': 28, 'rot2': 34, 'state': 'normal', 'yaw': 3.02, 'datetime': '2018-10-12 13:40:01.540872', 'mgs': 0, 'depth': 2.759, 'time': 8.79, 'pitch': -6.35, 'roll': 2.66}
{'lipoC2': 7.88, 'temp': 24.38, 'lipoC3S3': 11.77, 'rot1': 81, 'rot0': 84, 'rot3': 28, 'rot2': 35, 'state': 'normal', 'yaw': 3.05, 'datetime': '2018-10-12 13:40:05.596089', 'mgs': 0, 'depth': 2.682, 'time': 8.89, 'pitch': -6.37, 'roll': 2.04}
{'lipoC2': 7.88, 'temp': 24.31, 'lipoC3S3': 11.79, 'rot1': 81, 'rot0': 84, 'rot3': 28, 'rot2': 36, 'state': 'normal', 'yaw': 2.92, 'datetime': '2018-10-12 13:40:05.614424', 'mgs': 0, 'depth': 2.988, 'time': 8.99, 'pitch': -6.46, 'roll': 0.9}
{'lipoC2': 7.88, 'temp': 24.31, 'lipoC3S3': 11.75, 'rot1': 81, 'rot0': 84, 'rot3': 28, 'rot2': 36, 'state': 'normal', 'yaw': 2.74, 'datetime': '2018-10-12 13:40:05.642721', 'mgs': 0, 'depth': 2.606, 'time': 9.08, 'pitch': -6.59, 'roll': -0.6}
{'lipoC2': 7.88, 'temp': 24.31, 'lipoC3S3': 11.76, 'rot1': 81, 'rot0': 84, 'rot3': 29, 'rot2': 37, 'state': 'normal', 'yaw': 2.51, 'datetime': '2018-10-12 13:40:05.650718', 'mgs': 0, 'depth': 2.454, 'time': 9.18, 'pitch': -6.71, 'roll': -2.08}
{'lipoC2': 7.88, 'temp': 24.31, 'lipoC3S3': 11.76, 'rot1': 81, 'rot0': 84, 'rot3': 29, 'rot2': 38, 'state': 'normal', 'yaw': 2.24, 'datetime': '2018-10-12 13:40:05.670046', 'mgs': 0, 'depth': 2.53, 'time': 9.28, 'pitch': -6.86, 'roll': -3.69}
{'lipoC2': 7.88, 'temp': 24.31, 'lipoC3S3': 11.75, 'rot1': 81, 'rot0': 84, 'rot3': 30, 'rot2': 38, 'state': 'normal', 'yaw': 1.95, 'datetime': '2018-10-12 13:40:05.677998', 'mgs': 0, 'depth': 2.53, 'time': 9.38, 'pitch': -6.96, 'roll': -5.12}
{'lipoC2': 7.87, 'temp': 24.31, 'lipoC3S3': 11.79, 'rot1': 81, 'rot0': 84, 'rot3': 30, 'rot2': 39, 'state': 'normal', 'yaw': 1.62, 'datetime': '2018-10-12 13:40:05.697397', 'mgs': 0, 'depth': 2.301, 'time': 9.48, 'pitch': -7.05, 'roll': -6.28}
{'lipoC2': 7.88, 'temp': 24.31, 'lipoC3S3': 11.81, 'rot1': 81, 'rot0': 84, 'rot3': 31, 'rot2': 40, 'state': 'normal', 'yaw': 1.28, 'datetime': '2018-10-12 13:40:05.705358', 'mgs': 0, 'depth': 2.072, 'time': 9.57, 'pitch': -7.1, 'roll': -7.16}
{'lipoC2': 7.88, 'temp': 24.31, 'lipoC3S3': 11.8, 'rot1': 81, 'rot0': 84, 'rot3': 31, 'rot2': 40, 'state': 'normal', 'yaw': 0.94, 'datetime': '2018-10-12 13:40:05.724728', 'mgs': 0, 'depth': 2.53, 'time': 9.67, 'pitch': -7.14, 'roll': -7.71}
{'lipoC2': 7.87, 'temp': 24.31, 'lipoC3S3': 11.81, 'rot1': 81, 'rot0': 84, 'rot3': 31, 'rot2': 41, 'state': 'normal', 'yaw': 0.54, 'datetime': '2018-10-12 13:40:05.732711', 'mgs': 0, 'depth': 2.377, 'time': 9.77, 'pitch': -7.2, 'roll': -8.09}
{'lipoC2': 7.88, 'temp': 24.31, 'lipoC3S3': 11.8, 'rot1': 81, 'rot0': 84, 'rot3': 32, 'rot2': 41, 'state': 'normal', 'yaw': 0.12, 'datetime': '2018-10-12 13:40:05.752090', 'mgs': 0, 'depth': 2.377, 'time': 9.87, 'pitch': -7.25, 'roll': -8.25}
{'lipoC2': 7.88, 'temp': 24.31, 'lipoC3S3': 11.8, 'rot1': 81, 'rot0': 84, 'rot3': 32, 'rot2': 42, 'state': 'normal', 'yaw': -0.3, 'datetime': '2018-10-12 13:40:05.760003', 'mgs': 0, 'depth': 2.301, 'time': 9.97, 'pitch': -7.29, 'roll': -8.23}
{'lipoC2': 7.88, 'temp': 24.31, 'lipoC3S3': 11.77, 'rot1': 81, 'rot0': 84, 'rot3': 33, 'rot2': 43, 'state': 'normal', 'yaw': -0.7, 'datetime': '2018-10-12 13:40:05.779416', 'mgs': 0, 'depth': 2.072, 'time': 10.07, 'pitch': -7.35, 'roll': -8.05}
{'lipoC2': 7.87, 'temp': 24.31, 'lipoC3S3': 11.8, 'rot1': 81, 'rot0': 84, 'rot3': 33, 'rot2': 43, 'state': 'normal', 'yaw': -1.03, 'datetime': '2018-10-12 13:40:05.787383', 'mgs': 0, 'depth': 2.072, 'time': 10.16, 'pitch': -7.39, 'roll': -7.78}
{'lipoC2': 7.88, 'temp': 24.31, 'lipoC3S3': 11.8, 'rot1': 81, 'rot0': 84, 'rot3': 34, 'rot2': 44, 'state': 'normal', 'yaw': -1.36, 'datetime': '2018-10-12 13:40:05.806775', 'mgs': 0, 'depth': 1.996, 'time': 10.26, 'pitch': -7.43, 'roll': -7.33}
{'lipoC2': 7.88, 'temp': 24.31, 'lipoC3S3': 11.81, 'rot1': 81, 'rot0': 84, 'rot3': 34, 'rot2': 44, 'state': 'normal', 'yaw': -1.7, 'datetime': '2018-10-12 13:40:05.814718', 'mgs': 0, 'depth': 2.301, 'time': 10.36, 'pitch': -7.51, 'roll': -6.71}
{'lipoC2': 7.88, 'temp': 24.31, 'lipoC3S3': 11.75, 'rot1': 81, 'rot0': 84, 'rot3': 35, 'rot2': 45, 'state': 'normal', 'yaw': -1.99, 'datetime': '2018-10-12 13:40:05.834089', 'mgs': 0, 'depth': 2.148, 'time': 10.46, 'pitch': -7.62, 'roll': -6.0}
{'lipoC2': 7.88, 'temp': 24.31, 'lipoC3S3': 11.77, 'rot1': 81, 'rot0': 84, 'rot3': 35, 'rot2': 46, 'state': 'normal', 'yaw': -2.25, 'datetime': '2018-10-12 13:40:05.842265', 'mgs': 0, 'depth': 2.148, 'time': 10.56, 'pitch': -7.71, 'roll': -5.28}
{'lipoC2': 7.88, 'temp': 24.31, 'lipoC3S3': 11.79, 'rot1': 81, 'rot0': 84, 'rot3': 35, 'rot2': 46, 'state': 'normal', 'yaw': -2.51, 'datetime': '2018-10-12 13:40:05.861698', 'mgs': 0, 'depth': 1.92, 'time': 10.65, 'pitch': -7.83, 'roll': -4.49}
{'lipoC2': 7.88, 'temp': 24.31, 'lipoC3S3': 11.81, 'rot1': 81, 'rot0': 84, 'rot3': 36, 'rot2': 47, 'state': 'normal', 'yaw': -2.73, 'datetime': '2018-10-12 13:40:05.869630', 'mgs': 0, 'depth': 1.996, 'time': 10.75, 'pitch': -7.91, 'roll': -3.75}
{'lipoC2': 7.88, 'temp': 24.31, 'lipoC3S3': 11.81, 'rot1': 81, 'rot0': 84, 'rot3': 37, 'rot2': 48, 'state': 'normal', 'yaw': -2.86, 'datetime': '2018-10-12 13:40:05.888969', 'mgs': 0, 'depth': 2.148, 'time': 10.85, 'pitch': -7.89, 'roll': -3.2}
{'lipoC2': 7.88, 'temp': 24.31, 'lipoC3S3': 11.81, 'rot1': 81, 'rot0': 84, 'rot3': 37, 'rot2': 48, 'state': 'normal', 'yaw': -2.92, 'datetime': '2018-10-12 13:40:05.896915', 'mgs': 0, 'depth': 2.225, 'time': 10.95, 'pitch': -7.74, 'roll': -2.94}
{'lipoC2': 7.88, 'temp': 24.31, 'lipoC3S3': 11.77, 'rot1': 81, 'rot0': 84, 'rot3': 37, 'rot2': 49, 'state': 'normal', 'yaw': -2.93, 'datetime': '2018-10-12 13:40:05.916242', 'mgs': 0, 'depth': 1.996, 'time': 11.04, 'pitch': -7.54, 'roll': -2.96}
{'lipoC2': 7.87, 'temp': 24.31, 'lipoC3S3': 11.81, 'rot1': 81, 'rot0': 84, 'rot3': 38, 'rot2': 49, 'state': 'normal', 'yaw': -2.86, 'datetime': '2018-10-12 13:40:05.923969', 'mgs': 0, 'depth': 1.92, 'time': 11.14, 'pitch': -7.41, 'roll': -3.21}
{'lipoC2': 7.87, 'temp': 24.31, 'lipoC3S3': 11.81, 'rot1': 81, 'rot0': 84, 'rot3': 38, 'rot2': 50, 'state': 'normal', 'yaw': -2.82, 'datetime': '2018-10-12 13:40:05.942948', 'mgs': 0, 'depth': 2.225, 'time': 11.24, 'pitch': -7.46, 'roll': -3.58}
{'lipoC2': 7.88, 'temp': 24.31, 'lipoC3S3': 11.81, 'rot1': 81, 'rot0': 84, 'rot3': 39, 'rot2': 51, 'state': 'normal', 'yaw': -2.8, 'datetime': '2018-10-12 13:40:05.950474', 'mgs': 0, 'depth': 2.148, 'time': 11.34, 'pitch': -7.64, 'roll': -3.9}
{'lipoC2': 7.87, 'temp': 24.38, 'lipoC3S3': 11.81, 'rot1': 81, 'rot0': 84, 'rot3': 40, 'rot2': 51, 'state': 'normal', 'yaw': -2.73, 'datetime': '2018-10-12 13:40:05.969372', 'mgs': 0, 'depth': 2.301, 'time': 11.44, 'pitch': -7.93, 'roll': -4.18}
{'lipoC2': 7.87, 'temp': 24.38, 'lipoC3S3': 11.83, 'rot1': 81, 'rot0': 84, 'rot3': 40, 'rot2': 52, 'state': 'normal', 'yaw': -2.59, 'datetime': '2018-10-12 13:40:05.976908', 'mgs': 0, 'depth': 2.225, 'time': 11.53, 'pitch': -8.29, 'roll': -4.37}
{'lipoC2': 7.87, 'temp': 24.31, 'lipoC3S3': 11.76, 'rot1': 81, 'rot0': 84, 'rot3': 40, 'rot2': 53, 'state': 'normal', 'yaw': -2.45, 'datetime': '2018-10-12 13:40:05.995806', 'mgs': 0, 'depth': 2.148, 'time': 11.63, 'pitch': -8.72, 'roll': -4.54}
{'lipoC2': 7.87, 'temp': 24.31, 'lipoC3S3': 11.79, 'rot1': 81, 'rot0': 84, 'rot3': 41, 'rot2': 53, 'state': 'normal', 'yaw': -2.29, 'datetime': '2018-10-12 13:40:06.003328', 'mgs': 0, 'depth': 1.996, 'time': 11.73, 'pitch': -9.18, 'roll': -4.81}
{'lipoC2': 7.87, 'temp': 24.31, 'lipoC3S3': 11.83, 'rot1': 81, 'rot0': 84, 'rot3': 41, 'rot2': 54, 'state': 'normal', 'yaw': -2.14, 'datetime': '2018-10-12 13:40:06.022240', 'mgs': 0, 'depth': 1.996, 'time': 11.83, 'pitch': -9.57, 'roll': -5.16}
{'lipoC2': 7.87, 'temp': 24.38, 'lipoC3S3': 11.81, 'rot1': 81, 'rot0': 84, 'rot3': 42, 'rot2': 55, 'state': 'normal', 'yaw': -1.96, 'datetime': '2018-10-12 13:40:06.029784', 'mgs': 0, 'depth': 1.996, 'time': 11.93, 'pitch': -9.97, 'roll': -5.67}
{'lipoC2': 7.87, 'temp': 24.38, 'lipoC3S3': 11.8, 'rot1': 81, 'rot0': 84, 'rot3': 43, 'rot2': 55, 'state': 'normal', 'yaw': -1.75, 'datetime': '2018-10-12 13:40:06.048704', 'mgs': 0, 'depth': 1.92, 'time': 12.03, 'pitch': -10.35, 'roll': -6.2}
{'lipoC2': 7.87, 'temp': 24.31, 'lipoC3S3': 11.83, 'rot1': 81, 'rot0': 84, 'rot3': 43, 'rot2': 56, 'state': 'normal', 'yaw': -1.54, 'datetime': '2018-10-12 13:40:06.056239', 'mgs': 0, 'depth': 2.148, 'time': 12.12, 'pitch': -10.71, 'roll': -6.68}
{'lipoC2': 7.87, 'temp': 24.31, 'lipoC3S3': 11.77, 'rot1': 81, 'rot0': 84, 'rot3': 43, 'rot2': 56, 'state': 'normal', 'yaw': -1.37, 'datetime': '2018-10-12 13:40:06.075350', 'mgs': 0, 'depth': 1.996, 'time': 12.22, 'pitch': -11.07, 'roll': -7.03}
{'lipoC2': 7.88, 'temp': 24.31, 'lipoC3S3': 11.79, 'rot1': 81, 'rot0': 84, 'rot3': 44, 'rot2': 57, 'state': 'normal', 'yaw': -1.23, 'datetime': '2018-10-12 13:40:06.082884', 'mgs': 0, 'depth': 1.92, 'time': 12.32, 'pitch': -11.35, 'roll': -7.23}
{'lipoC2': 7.88, 'temp': 24.38, 'lipoC3S3': 11.77, 'rot1': 81, 'rot0': 84, 'rot3': 44, 'rot2': 58, 'state': 'normal', 'yaw': -1.07, 'datetime': '2018-10-12 13:40:06.101822', 'mgs': 0, 'depth': 1.92, 'time': 12.42, 'pitch': -11.59, 'roll': -7.4}
{'lipoC2': 7.88, 'temp': 24.38, 'lipoC3S3': 11.81, 'rot1': 81, 'rot0': 84, 'rot3': 45, 'rot2': 58, 'state': 'normal', 'yaw': -0.92, 'datetime': '2018-10-12 13:40:06.109308', 'mgs': 0, 'depth': 2.225, 'time': 12.52, 'pitch': -11.81, 'roll': -7.49}
{'lipoC2': 7.88, 'temp': 24.31, 'lipoC3S3': 11.77, 'rot1': 81, 'rot0': 84, 'rot3': 45, 'rot2': 59, 'state': 'normal', 'yaw': -0.75, 'datetime': '2018-10-12 13:40:06.128222', 'mgs': 0, 'depth': 2.072, 'time': 12.61, 'pitch': -12.02, 'roll': -7.53}
{'lipoC2': 7.88, 'temp': 24.31, 'lipoC3S3': 11.8, 'rot1': 81, 'rot0': 84, 'rot3': 46, 'rot2': 60, 'state': 'normal', 'yaw': -0.56, 'datetime': '2018-10-12 13:40:06.135815', 'mgs': 0, 'depth': 1.92, 'time': 12.71, 'pitch': -12.19, 'roll': -7.45}
{'lipoC2': 7.88, 'temp': 24.31, 'lipoC3S3': 11.83, 'rot1': 81, 'rot0': 84, 'rot3': 46, 'rot2': 60, 'state': 'normal', 'yaw': -0.42, 'datetime': '2018-10-12 13:40:06.154775', 'mgs': 0, 'depth': 1.843, 'time': 12.81, 'pitch': -12.27, 'roll': -7.26}
{'lipoC2': 7.88, 'temp': 24.31, 'lipoC3S3': 11.63, 'rot1': 81, 'rot0': 84, 'rot3': 47, 'rot2': 61, 'state': 'normal', 'yaw': -0.26, 'datetime': '2018-10-12 13:40:06.162322', 'mgs': 0, 'depth': 2.377, 'time': 12.91, 'pitch': -12.26, 'roll': -7.01}
{'lipoC2': 7.88, 'temp': 24.31, 'lipoC3S3': 11.76, 'rot1': 82, 'rot0': 85, 'rot3': 47, 'rot2': 61, 'state': 'normal', 'yaw': 0.05, 'datetime': '2018-10-12 13:40:06.181247', 'mgs': 0, 'depth': 2.072, 'time': 13.0, 'pitch': -12.14, 'roll': -6.86}
{'lipoC2': 7.88, 'temp': 24.31, 'lipoC3S3': 11.76, 'rot1': 83, 'rot0': 86, 'rot3': 48, 'rot2': 62, 'state': 'normal', 'yaw': 0.89, 'datetime': '2018-10-12 13:40:06.188732', 'mgs': 0, 'depth': 1.843, 'time': 13.1, 'pitch': -11.75, 'roll': -6.83}
{'lipoC2': 7.88, 'temp': 24.31, 'lipoC3S3': 11.76, 'rot1': 83, 'rot0': 86, 'rot3': 48, 'rot2': 63, 'state': 'normal', 'yaw': 2.43, 'datetime': '2018-10-12 13:40:06.207615', 'mgs': 0, 'depth': 2.148, 'time': 13.2, 'pitch': -11.25, 'roll': -6.94}
{'lipoC2': 7.88, 'temp': 24.31, 'lipoC3S3': 11.79, 'rot1': 84, 'rot0': 87, 'rot3': 49, 'rot2': 63, 'state': 'normal', 'yaw': 4.48, 'datetime': '2018-10-12 13:40:06.215159', 'mgs': 0, 'depth': 2.225, 'time': 13.3, 'pitch': -10.71, 'roll': -7.13}
{'lipoC2': 7.88, 'temp': 24.31, 'lipoC3S3': 11.76, 'rot1': 85, 'rot0': 88, 'rot3': 50, 'rot2': 64, 'state': 'normal', 'yaw': 6.99, 'datetime': '2018-10-12 13:40:06.234104', 'mgs': 0, 'depth': 2.682, 'time': 13.4, 'pitch': -10.18, 'roll': -7.39}
{'lipoC2': 7.88, 'temp': 24.31, 'lipoC3S3': 11.73, 'rot1': 86, 'rot0': 89, 'rot3': 50, 'rot2': 65, 'state': 'normal', 'yaw': 9.59, 'datetime': '2018-10-12 13:40:06.241693', 'mgs': 0, 'depth': 1.92, 'time': 13.49, 'pitch': -9.72, 'roll': -7.72}
{'lipoC2': 7.87, 'temp': 24.31, 'lipoC3S3': 11.79, 'rot1': 87, 'rot0': 90, 'rot3': 51, 'rot2': 66, 'state': 'normal', 'yaw': 12.84, 'datetime': '2018-10-12 13:40:06.336936', 'mgs': 0, 'depth': 1.92, 'time': 13.59, 'pitch': -9.29, 'roll': -8.26}
{'lipoC2': 7.88, 'temp': 24.31, 'lipoC3S3': 11.77, 'rot1': 88, 'rot0': 90, 'rot3': 51, 'rot2': 66, 'state': 'normal', 'yaw': 16.41, 'datetime': '2018-10-12 13:40:06.435634', 'mgs': 0, 'depth': 1.843, 'time': 13.69, 'pitch': -8.89, 'roll': -9.02}
{'lipoC2': 7.88, 'temp': 24.31, 'lipoC3S3': 11.77, 'rot1': 88, 'rot0': 91, 'rot3': 52, 'rot2': 67, 'state': 'normal', 'yaw': 20.24, 'datetime': '2018-10-12 13:40:06.533061', 'mgs': 0, 'depth': 1.691, 'time': 13.79, 'pitch': -8.41, 'roll': -9.89}
{'lipoC2': 7.88, 'temp': 24.38, 'lipoC3S3': 11.79, 'rot1': 89, 'rot0': 92, 'rot3': 52, 'rot2': 68, 'state': 'normal', 'yaw': 24.31, 'datetime': '2018-10-12 13:40:06.630553', 'mgs': 0, 'depth': 2.072, 'time': 13.89, 'pitch': -7.8, 'roll': -10.67}
{'lipoC2': 7.88, 'temp': 24.38, 'lipoC3S3': 11.77, 'rot1': 90, 'rot0': 93, 'rot3': 53, 'rot2': 68, 'state': 'normal', 'yaw': 28.12, 'datetime': '2018-10-12 13:40:06.728737', 'mgs': 0, 'depth': 1.92, 'time': 13.98, 'pitch': -7.19, 'roll': -11.19}
{'lipoC2': 7.88, 'temp': 24.31, 'lipoC3S3': 11.76, 'rot1': 91, 'rot0': 94, 'rot3': 53, 'rot2': 69, 'state': 'normal', 'yaw': 32.49, 'datetime': '2018-10-12 13:40:06.827451', 'mgs': 0, 'depth': 2.148, 'time': 14.08, 'pitch': -6.48, 'roll': -11.49}
{'lipoC2': 7.88, 'temp': 24.31, 'lipoC3S3': 11.76, 'rot1': 92, 'rot0': 95, 'rot3': 54, 'rot2': 70, 'state': 'normal', 'yaw': 36.96, 'datetime': '2018-10-12 13:40:06.926191', 'mgs': 0, 'depth': 2.301, 'time': 14.18, 'pitch': -5.77, 'roll': -11.59}
{'lipoC2': 7.87, 'temp': 24.31, 'lipoC3S3': 11.68, 'rot1': 93, 'rot0': 96, 'rot3': 54, 'rot2': 70, 'state': 'normal', 'yaw': 41.52, 'datetime': '2018-10-12 13:40:07.023592', 'mgs': 0, 'depth': 1.767, 'time': 14.28, 'pitch': -5.09, 'roll': -11.66}
{'lipoC2': 7.88, 'temp': 24.31, 'lipoC3S3': 11.8, 'rot1': 94, 'rot0': 96, 'rot3': 55, 'rot2': 71, 'state': 'normal', 'yaw': 46.13, 'datetime': '2018-10-12 13:40:07.125210', 'mgs': 0, 'depth': 1.996, 'time': 14.38, 'pitch': -4.47, 'roll': -11.79}
{'lipoC2': 7.88, 'temp': 24.31, 'lipoC3S3': 11.76, 'rot1': 94, 'rot0': 97, 'rot3': 55, 'rot2': 72, 'state': 'normal', 'yaw': 50.32, 'datetime': '2018-10-12 13:40:07.225052', 'mgs': 0, 'depth': 2.53, 'time': 14.48, 'pitch': -3.94, 'roll': -11.96}
{'lipoC2': 7.88, 'temp': 24.38, 'lipoC3S3': 11.75, 'rot1': 95, 'rot0': 98, 'rot3': 56, 'rot2': 72, 'state': 'normal', 'yaw': 55.04, 'datetime': '2018-10-12 13:40:07.323611', 'mgs': 0, 'depth': 1.614, 'time': 14.57, 'pitch': -3.39, 'roll': -12.14}
{'lipoC2': 7.88, 'temp': 24.38, 'lipoC3S3': 11.76, 'rot1': 96, 'rot0': 99, 'rot3': 56, 'rot2': 73, 'state': 'normal', 'yaw': 59.81, 'datetime': '2018-10-12 13:40:07.421026', 'mgs': 0, 'depth': 1.843, 'time': 14.67, 'pitch': -2.82, 'roll': -12.26}
{'lipoC2': 7.88, 'temp': 24.38, 'lipoC3S3': 11.8, 'rot1': 97, 'rot0': 100, 'rot3': 57, 'rot2': 74, 'state': 'normal', 'yaw': 64.63, 'datetime': '2018-10-12 13:40:07.518628', 'mgs': 0, 'depth': 2.148, 'time': 14.77, 'pitch': -2.22, 'roll': -12.27}
{'lipoC2': 7.88, 'temp': 24.31, 'lipoC3S3': 11.79, 'rot1': 98, 'rot0': 101, 'rot3': 57, 'rot2': 74, 'state': 'normal', 'yaw': 69.03, 'datetime': '2018-10-12 13:40:07.616155', 'mgs': 0, 'depth': 2.148, 'time': 14.87, 'pitch': -1.63, 'roll': -12.22}
{'lipoC2': 7.88, 'temp': 24.31, 'lipoC3S3': 11.79, 'rot1': 99, 'rot0': 101, 'rot3': 58, 'rot2': 75, 'state': 'normal', 'yaw': 74.01, 'datetime': '2018-10-12 13:40:07.713790', 'mgs': 0, 'depth': 1.996, 'time': 14.97, 'pitch': -0.95, 'roll': -12.11}
{'lipoC2': 7.88, 'temp': 24.38, 'lipoC3S3': 11.76, 'rot1': 99, 'rot0': 102, 'rot3': 58, 'rot2': 76, 'state': 'normal', 'yaw': 79.05, 'datetime': '2018-10-12 13:40:07.811488', 'mgs': 0, 'depth': 1.233, 'time': 15.06, 'pitch': -0.23, 'roll': -11.93}
{'lipoC2': 7.86, 'temp': 24.38, 'lipoC3S3': 11.76, 'rot1': 100, 'rot0': 103, 'rot3': 59, 'rot2': 76, 'state': 'normal', 'yaw': 84.13, 'datetime': '2018-10-12 13:40:07.908988', 'mgs': 0, 'depth': 1.996, 'time': 15.16, 'pitch': 0.56, 'roll': -11.67}
{'lipoC2': 7.88, 'temp': 24.38, 'lipoC3S3': 11.75, 'rot1': 101, 'rot0': 104, 'rot3': 59, 'rot2': 77, 'state': 'normal', 'yaw': 88.73, 'datetime': '2018-10-12 13:40:08.006712', 'mgs': 0, 'depth': 2.53, 'time': 15.26, 'pitch': 1.32, 'roll': -11.36}
{'lipoC2': 7.88, 'temp': 24.38, 'lipoC3S3': 11.73, 'rot1': 102, 'rot0': 104, 'rot3': 60, 'rot2': 78, 'state': 'normal', 'yaw': 93.85, 'datetime': '2018-10-12 13:40:08.099349', 'mgs': 0, 'depth': 2.301, 'time': 15.35, 'pitch': 2.25, 'roll': -10.95}
{'lipoC2': 7.88, 'temp': 24.38, 'lipoC3S3': 11.75, 'rot1': 103, 'rot0': 105, 'rot3': 60, 'rot2': 78, 'state': 'normal', 'yaw': 99.01, 'datetime': '2018-10-12 13:40:08.196951', 'mgs': 0, 'depth': 1.385, 'time': 15.45, 'pitch': 3.17, 'roll': -10.51}
{'lipoC2': 7.88, 'temp': 24.31, 'lipoC3S3': 11.75, 'rot1': 103, 'rot0': 106, 'rot3': 61, 'rot2': 79, 'state': 'normal', 'yaw': 104.24, 'datetime': '2018-10-12 13:40:08.294578', 'mgs': 0, 'depth': 1.843, 'time': 15.55, 'pitch': 4.04, 'roll': -10.11}
{'lipoC2': 7.88, 'temp': 24.31, 'lipoC3S3': 11.79, 'rot1': 104, 'rot0': 107, 'rot3': 61, 'rot2': 80, 'state': 'normal', 'yaw': 109.5, 'datetime': '2018-10-12 13:40:08.392693', 'mgs': 0, 'depth': 2.072, 'time': 15.65, 'pitch': 4.89, 'roll': -9.7}
{'lipoC2': 7.88, 'temp': 24.31, 'lipoC3S3': 11.79, 'rot1': 105, 'rot0': 108, 'rot3': 62, 'rot2': 80, 'state': 'normal', 'yaw': 114.28, 'datetime': '2018-10-12 13:40:08.491632', 'mgs': 0, 'depth': 2.072, 'time': 15.75, 'pitch': 5.65, 'roll': -9.27}
{'lipoC2': 7.88, 'temp': 24.31, 'lipoC3S3': 11.76, 'rot1': 106, 'rot0': 108, 'rot3': 62, 'rot2': 81, 'state': 'normal', 'yaw': 119.6, 'datetime': '2018-10-12 13:40:08.590531', 'mgs': 0, 'depth': 1.843, 'time': 15.85, 'pitch': 6.48, 'roll': -8.63}
{'lipoC2': 7.88, 'temp': 24.31, 'lipoC3S3': 11.75, 'rot1': 107, 'rot0': 109, 'rot3': 63, 'rot2': 82, 'state': 'normal', 'yaw': 125.01, 'datetime': '2018-10-12 13:40:08.689420', 'mgs': 0, 'depth': 2.606, 'time': 15.95, 'pitch': 7.19, 'roll': -7.74}
{'lipoC2': 7.88, 'temp': 24.31, 'lipoC3S3': 11.85, 'rot1': 107, 'rot0': 110, 'rot3': 63, 'rot2': 82, 'state': 'normal', 'yaw': 130.36, 'datetime': '2018-10-12 13:40:08.787077', 'mgs': 0, 'depth': 1.843, 'time': 16.05, 'pitch': 7.75, 'roll': -6.7}
{'lipoC2': 7.88, 'temp': 24.31, 'lipoC3S3': 11.85, 'rot1': 107, 'rot0': 110, 'rot3': 63, 'rot2': 82, 'state': 'normal', 'yaw': 135.23, 'datetime': '2018-10-12 13:40:08.884626', 'mgs': 0, 'depth': 1.843, 'time': 16.14, 'pitch': 8.0, 'roll': -5.83}
{'lipoC2': 7.87, 'temp': 24.31, 'lipoC3S3': 11.79, 'rot1': 107, 'rot0': 110, 'rot3': 63, 'rot2': 82, 'state': 'normal', 'yaw': 139.24, 'datetime': '2018-10-12 13:40:08.983064', 'mgs': 0, 'depth': 1.843, 'time': 16.24, 'pitch': 7.97, 'roll': -5.29}
{'lipoC2': 7.9, 'temp': 24.31, 'lipoC3S3': 11.58, 'rot1': 108, 'rot0': 110, 'rot3': 63, 'rot2': 82, 'state': 'normal', 'yaw': 143.43, 'datetime': '2018-10-12 13:40:09.081953', 'mgs': 0, 'depth': 1.92, 'time': 16.34, 'pitch': 7.87, 'roll': -5.12}
{'lipoC2': 7.88, 'temp': 24.31, 'lipoC3S3': 11.71, 'rot1': 109, 'rot0': 112, 'rot3': 64, 'rot2': 83, 'state': 'normal', 'yaw': 147.46, 'datetime': '2018-10-12 13:40:09.180886', 'mgs': 0, 'depth': 3.064, 'time': 16.44, 'pitch': 7.92, 'roll': -4.6}
{'lipoC2': 7.88, 'temp': 24.31, 'lipoC3S3': 11.68, 'rot1': 110, 'rot0': 113, 'rot3': 64, 'rot2': 83, 'state': 'normal', 'yaw': 151.18, 'datetime': '2018-10-12 13:40:09.283987', 'mgs': 0, 'depth': 1.92, 'time': 16.54, 'pitch': 8.0, 'roll': -3.5}
{'lipoC2': 7.88, 'temp': 24.31, 'lipoC3S3': 11.61, 'rot1': 112, 'rot0': 114, 'rot3': 64, 'rot2': 83, 'state': 'normal', 'yaw': 153.09, 'datetime': '2018-10-12 13:40:09.379409', 'mgs': 0, 'depth': 1.996, 'time': 16.63, 'pitch': 7.07, 'roll': -2.64}
{'lipoC2': 7.88, 'temp': 24.31, 'lipoC3S3': 11.63, 'rot1': 113, 'rot0': 115, 'rot3': 64, 'rot2': 83, 'state': 'normal', 'yaw': 153.81, 'datetime': '2018-10-12 13:40:09.482205', 'mgs': 0, 'depth': 2.072, 'time': 16.73, 'pitch': 5.6, 'roll': -2.38}
{'lipoC2': 7.88, 'temp': 24.31, 'lipoC3S3': 11.64, 'rot1': 115, 'rot0': 116, 'rot3': 64, 'rot2': 83, 'state': 'normal', 'yaw': 154.73, 'datetime': '2018-10-12 13:40:09.581149', 'mgs': 0, 'depth': 2.988, 'time': 16.83, 'pitch': 4.69, 'roll': -1.99}
{'lipoC2': 7.88, 'temp': 24.31, 'lipoC3S3': 11.73, 'rot1': 116, 'rot0': 118, 'rot3': 64, 'rot2': 84, 'state': 'normal', 'yaw': 156.24, 'datetime': '2018-10-12 13:40:09.680061', 'mgs': 0, 'depth': 2.225, 'time': 16.93, 'pitch': 4.29, 'roll': -1.39}
{'lipoC2': 7.88, 'temp': 24.31, 'lipoC3S3': 11.73, 'rot1': 118, 'rot0': 119, 'rot3': 65, 'rot2': 85, 'state': 'normal', 'yaw': 158.06, 'datetime': '2018-10-12 13:40:09.785889', 'mgs': 0, 'depth': 3.522, 'time': 17.03, 'pitch': 4.38, 'roll': -0.67}
{'lipoC2': 7.88, 'temp': 24.31, 'lipoC3S3': 11.77, 'rot1': 119, 'rot0': 120, 'rot3': 65, 'rot2': 85, 'state': 'normal', 'yaw': 160.07, 'datetime': '2018-10-12 13:40:09.867033', 'mgs': 0, 'depth': 2.072, 'time': 17.13, 'pitch': 4.83, 'roll': 0.18}
{'lipoC2': 7.87, 'temp': 24.31, 'lipoC3S3': 11.77, 'rot1': 121, 'rot0': 121, 'rot3': 65, 'rot2': 85, 'state': 'normal', 'yaw': 162.17, 'datetime': '2018-10-12 13:40:09.964612', 'mgs': 0, 'depth': 3.217, 'time': 17.22, 'pitch': 5.51, 'roll': 1.25}
{'lipoC2': 7.88, 'temp': 24.31, 'lipoC3S3': 11.73, 'rot1': 122, 'rot0': 123, 'rot3': 65, 'rot2': 85, 'state': 'normal', 'yaw': 164.11, 'datetime': '2018-10-12 13:40:10.062220', 'mgs': 0, 'depth': 3.217, 'time': 17.32, 'pitch': 6.25, 'roll': 2.33}
{'lipoC2': 7.88, 'temp': 24.31, 'lipoC3S3': 11.64, 'rot1': 124, 'rot0': 124, 'rot3': 65, 'rot2': 85, 'state': 'normal', 'yaw': 166.33, 'datetime': '2018-10-12 13:40:10.159845', 'mgs': 0, 'depth': 2.835, 'time': 17.42, 'pitch': 7.15, 'roll': 3.57}
{'lipoC2': 7.88, 'temp': 24.25, 'lipoC3S3': 11.75, 'rot1': 125, 'rot0': 125, 'rot3': 65, 'rot2': 85, 'state': 'normal', 'yaw': 168.56, 'datetime': '2018-10-12 13:40:10.257500', 'mgs': 0, 'depth': 2.911, 'time': 17.52, 'pitch': 8.13, 'roll': 4.81}
{'lipoC2': 7.9, 'temp': 24.25, 'lipoC3S3': 11.65, 'rot1': 126, 'rot0': 126, 'rot3': 65, 'rot2': 85, 'state': 'normal', 'yaw': 170.76, 'datetime': '2018-10-12 13:40:10.355152', 'mgs': 0, 'depth': 2.301, 'time': 17.61, 'pitch': 9.12, 'roll': 6.02}
{'lipoC2': 7.88, 'temp': 24.25, 'lipoC3S3': 11.52, 'rot1': 128, 'rot0': 128, 'rot3': 65, 'rot2': 85, 'state': 'normal', 'yaw': 172.73, 'datetime': '2018-10-12 13:40:10.452746', 'mgs': 0, 'depth': 2.454, 'time': 17.71, 'pitch': 10.01, 'roll': 7.07}
{'lipoC2': 7.88, 'temp': 24.25, 'lipoC3S3': 11.56, 'rot1': 130, 'rot0': 129, 'rot3': 66, 'rot2': 86, 'state': 'normal', 'yaw': 174.88, 'datetime': '2018-10-12 13:40:10.558597', 'mgs': 0, 'depth': 2.454, 'time': 17.81, 'pitch': 10.94, 'roll': 8.1}
{'lipoC2': 7.88, 'temp': 24.25, 'lipoC3S3': 11.58, 'rot1': 131, 'rot0': 130, 'rot3': 66, 'rot2': 86, 'state': 'normal', 'yaw': 177.06, 'datetime': '2018-10-12 13:40:10.656180', 'mgs': 0, 'depth': 2.53, 'time': 17.91, 'pitch': 11.77, 'roll': 9.0}
{'lipoC2': 7.9, 'temp': 24.19, 'lipoC3S3': 11.58, 'rot1': 132, 'rot0': 131, 'rot3': 67, 'rot2': 87, 'state': 'normal', 'yaw': 179.17, 'datetime': '2018-10-12 13:40:10.754183', 'mgs': 0, 'depth': 3.064, 'time': 18.01, 'pitch': 12.38, 'roll': 9.8}
{'lipoC2': 7.87, 'temp': 24.19, 'lipoC3S3': 11.69, 'rot1': 134, 'rot0': 132, 'rot3': 67, 'rot2': 87, 'state': 'normal', 'yaw': -178.99, 'datetime': '2018-10-12 13:40:10.853819', 'mgs': 0, 'depth': 2.606, 'time': 18.1, 'pitch': 12.73, 'roll': 10.43}
{'lipoC2': 7.9, 'temp': 24.31, 'lipoC3S3': 11.58, 'rot1': 135, 'rot0': 134, 'rot3': 68, 'rot2': 88, 'state': 'normal', 'yaw': -177.26, 'datetime': '2018-10-12 13:40:10.952623', 'mgs': 0, 'depth': 3.064, 'time': 18.2, 'pitch': 12.85, 'roll': 11.03}
{'lipoC2': 7.87, 'temp': 24.31, 'lipoC3S3': 11.75, 'rot1': 137, 'rot0': 135, 'rot3': 68, 'rot2': 88, 'state': 'normal', 'yaw': -175.88, 'datetime': '2018-10-12 13:40:11.051547', 'mgs': 0, 'depth': 2.148, 'time': 18.3, 'pitch': 12.76, 'roll': 11.48}
{'lipoC2': 7.88, 'temp': 24.31, 'lipoC3S3': 11.75, 'rot1': 138, 'rot0': 136, 'rot3': 68, 'rot2': 88, 'state': 'normal', 'yaw': -174.78, 'datetime': '2018-10-12 13:40:11.150112', 'mgs': 0, 'depth': 4.208, 'time': 18.4, 'pitch': 12.5, 'roll': 11.83}
{'lipoC2': 7.88, 'temp': 24.0, 'lipoC3S3': 11.73, 'rot1': 139, 'rot0': 138, 'rot3': 68, 'rot2': 88, 'state': 'normal', 'yaw': -174.13, 'datetime': '2018-10-12 13:40:11.248255', 'mgs': 0, 'depth': 3.827, 'time': 18.5, 'pitch': 12.16, 'roll': 11.98}
{'lipoC2': 7.88, 'temp': 24.0, 'lipoC3S3': 11.73, 'rot1': 141, 'rot0': 139, 'rot3': 68, 'rot2': 88, 'state': 'normal', 'yaw': -173.98, 'datetime': '2018-10-12 13:40:11.345663', 'mgs': 0, 'depth': 3.293, 'time': 18.6, 'pitch': 11.81, 'roll': 11.99}
{'lipoC2': 7.88, 'temp': 24.69, 'lipoC3S3': 11.75, 'rot1': 142, 'rot0': 141, 'rot3': 68, 'rot2': 88, 'state': 'normal', 'yaw': -174.19, 'datetime': '2018-10-12 13:40:11.444465', 'mgs': 0, 'depth': 2.606, 'time': 18.7, 'pitch': 11.45, 'roll': 11.94}
{'lipoC2': 7.88, 'temp': 24.69, 'lipoC3S3': 11.63, 'rot1': 143, 'rot0': 143, 'rot3': 68, 'rot2': 88, 'state': 'normal', 'yaw': -174.75, 'datetime': '2018-10-12 13:40:11.543455', 'mgs': 0, 'depth': 2.988, 'time': 18.8, 'pitch': 10.97, 'roll': 11.83}
{'lipoC2': 7.87, 'temp': 24.69, 'lipoC3S3': 11.73, 'rot1': 144, 'rot0': 144, 'rot3': 68, 'rot2': 88, 'state': 'normal', 'yaw': -175.47, 'datetime': '2018-10-12 13:40:11.642418', 'mgs': 0, 'depth': 2.072, 'time': 18.89, 'pitch': 10.39, 'roll': 11.71}
{'lipoC2': 7.87, 'temp': 24.38, 'lipoC3S3': 11.75, 'rot1': 145, 'rot0': 146, 'rot3': 68, 'rot2': 88, 'state': 'normal', 'yaw': -176.37, 'datetime': '2018-10-12 13:40:11.741245', 'mgs': 0, 'depth': 3.369, 'time': 18.99, 'pitch': 9.71, 'roll': 11.56}
{'lipoC2': 7.88, 'temp': 24.38, 'lipoC3S3': 11.73, 'rot1': 147, 'rot0': 147, 'rot3': 68, 'rot2': 88, 'state': 'normal', 'yaw': -177.46, 'datetime': '2018-10-12 13:40:11.838780', 'mgs': 0, 'depth': 2.682, 'time': 19.09, 'pitch': 9.06, 'roll': 11.37}
{'lipoC2': 7.87, 'temp': 24.31, 'lipoC3S3': 11.72, 'rot1': 148, 'rot0': 149, 'rot3': 68, 'rot2': 88, 'state': 'normal', 'yaw': -178.7, 'datetime': '2018-10-12 13:40:11.936711', 'mgs': 0, 'depth': 2.682, 'time': 19.19, 'pitch': 8.43, 'roll': 11.11}
{'lipoC2': 7.88, 'temp': 24.31, 'lipoC3S3': 11.68, 'rot1': 149, 'rot0': 150, 'rot3': 68, 'rot2': 89, 'state': 'normal', 'yaw': -179.8, 'datetime': '2018-10-12 13:40:12.035427', 'mgs': 0, 'depth': 2.682, 'time': 19.29, 'pitch': 7.91, 'roll': 10.77}
{'lipoC2': 7.88, 'temp': 24.63, 'lipoC3S3': 11.69, 'rot1': 150, 'rot0': 152, 'rot3': 69, 'rot2': 89, 'state': 'normal', 'yaw': 178.99, 'datetime': '2018-10-12 13:40:12.134214', 'mgs': 0, 'depth': 3.217, 'time': 19.39, 'pitch': 7.37, 'roll': 10.3}
{'lipoC2': 7.87, 'temp': 24.63, 'lipoC3S3': 11.71, 'rot1': 151, 'rot0': 153, 'rot3': 69, 'rot2': 90, 'state': 'normal', 'yaw': 177.72, 'datetime': '2018-10-12 13:40:12.232077', 'mgs': 0, 'depth': 3.293, 'time': 19.49, 'pitch': 6.92, 'roll': 9.81}
{'lipoC2': 7.88, 'temp': 24.63, 'lipoC3S3': 11.73, 'rot1': 152, 'rot0': 155, 'rot3': 69, 'rot2': 90, 'state': 'normal', 'yaw': 176.43, 'datetime': '2018-10-12 13:40:12.329841', 'mgs': 0, 'depth': 3.217, 'time': 19.58, 'pitch': 6.56, 'roll': 9.42}
