{'lipoC2': 8.16, 'temp': 25.75, 'lipoC3S3': 0.0, 'state': 'normal', 'rot1': 0, 'rot0': 0, 'rot3': 0, 'rot2': 0, 'depth': -0.14, 'yaw': 0.0, 'datetime': '2018-10-26 09:54:20.314459', 'mgs': 0, 'flw2': 0.0, 'flw1': 0.0, 'flw0': 0.0, 'time': 1.26, 'pitch': -23.88, 'roll': 46.02}
{'lipoC2': 8.17, 'temp': 25.75, 'lipoC3S3': 0.0, 'state': 'normal', 'rot1': 0, 'rot0': 130, 'rot3': 0, 'rot2': 0, 'depth': -0.14, 'yaw': 0.0, 'datetime': '2018-10-26 09:54:23.841275', 'mgs': 0, 'flw2': 0.0, 'flw1': 0.0, 'flw0': 0.0, 'time': 1.36, 'pitch': -23.88, 'roll': 46.02}
{'lipoC2': 8.16, 'temp': 25.69, 'lipoC3S3': 0.0, 'state': 'normal', 'rot1': 0, 'rot0': 265, 'rot3': 0, 'rot2': 0, 'depth': -0.14, 'yaw': -0.0, 'datetime': '2018-10-26 09:54:23.876715', 'mgs': 0, 'flw2': 0.0, 'flw1': 0.0, 'flw0': 0.0, 'time': 1.47, 'pitch': -23.89, 'roll': 46.02}
{'lipoC2': 8.17, 'temp': 25.69, 'lipoC3S3': 0.0, 'state': 'normal', 'rot1': 0, 'rot0': 395, 'rot3': 0, 'rot2': 0, 'depth': -0.14, 'yaw': -0.02, 'datetime': '2018-10-26 09:54:23.912242', 'mgs': 0, 'flw2': 0.0, 'flw1': 0.0, 'flw0': 0.0, 'time': 1.57, 'pitch': -23.89, 'roll': 46.02}
{'lipoC2': 8.16, 'temp': 25.69, 'lipoC3S3': 0.0, 'state': 'normal', 'rot1': 0, 'rot0': 474, 'rot3': 0, 'rot2': 0, 'depth': -0.14, 'yaw': 0.0, 'datetime': '2018-10-26 09:54:23.947614', 'mgs': 0, 'flw2': 0.0, 'flw1': 0.0, 'flw0': 0.0, 'time': 1.67, 'pitch': -23.88, 'roll': 46.01}
{'lipoC2': 8.17, 'temp': 25.75, 'lipoC3S3': 0.0, 'state': 'normal', 'rot1': 0, 'rot0': 516, 'rot3': 0, 'rot2': 0, 'depth': -0.064, 'yaw': -0.03, 'datetime': '2018-10-26 09:54:23.978821', 'mgs': 0, 'flw2': 0.0, 'flw1': 0.0, 'flw0': 0.0, 'time': 1.77, 'pitch': -23.89, 'roll': 46.03}
{'lipoC2': 8.17, 'temp': 25.75, 'lipoC3S3': 0.0, 'state': 'normal', 'rot1': 0, 'rot0': 516, 'rot3': 0, 'rot2': 0, 'depth': -0.14, 'yaw': -0.01, 'datetime': '2018-10-26 09:54:23.999730', 'mgs': 0, 'flw2': 0.0, 'flw1': 0.0, 'flw0': 0.0, 'time': 1.88, 'pitch': -23.88, 'roll': 46.02}
{'lipoC2': 8.17, 'temp': 25.69, 'lipoC3S3': 0.0, 'state': 'normal', 'rot1': 0, 'rot0': 516, 'rot3': 0, 'rot2': 0, 'depth': -0.217, 'yaw': -0.01, 'datetime': '2018-10-26 09:54:24.020573', 'mgs': 0, 'flw2': 0.0, 'flw1': 0.0, 'flw0': 0.0, 'time': 1.98, 'pitch': -23.88, 'roll': 46.02}
{'lipoC2': 8.16, 'temp': 25.69, 'lipoC3S3': 0.0, 'state': 'normal', 'rot1': 0, 'rot0': 516, 'rot3': 0, 'rot2': 0, 'depth': -0.14, 'yaw': -0.01, 'datetime': '2018-10-26 09:54:24.041388', 'mgs': 0, 'flw2': 0.0, 'flw1': 0.0, 'flw0': 0.0, 'time': 2.08, 'pitch': -23.88, 'roll': 46.02}
{'lipoC2': 8.16, 'temp': 25.69, 'lipoC3S3': 0.0, 'state': 'normal', 'rot1': 0, 'rot0': 516, 'rot3': 0, 'rot2': 0, 'depth': -0.14, 'yaw': -0.01, 'datetime': '2018-10-26 09:54:24.062180', 'mgs': 0, 'flw2': 0.0, 'flw1': 0.0, 'flw0': 0.0, 'time': 2.19, 'pitch': -23.88, 'roll': 46.02}
{'lipoC2': 8.17, 'temp': 25.69, 'lipoC3S3': 0.0, 'state': 'normal', 'rot1': 0, 'rot0': 516, 'rot3': 0, 'rot2': 0, 'depth': -0.064, 'yaw': -0.01, 'datetime': '2018-10-26 09:54:24.083033', 'mgs': 0, 'flw2': 0.0, 'flw1': 0.0, 'flw0': 0.0, 'time': 2.29, 'pitch': -23.88, 'roll': 46.02}
{'lipoC2': 8.16, 'temp': 25.69, 'lipoC3S3': 0.0, 'state': 'normal', 'rot1': 0, 'rot0': 516, 'rot3': 0, 'rot2': 0, 'depth': -0.14, 'yaw': -0.01, 'datetime': '2018-10-26 09:54:24.106530', 'mgs': 0, 'flw2': 0.0, 'flw1': 0.0, 'flw0': 0.0, 'time': 2.39, 'pitch': -23.88, 'roll': 46.02}
{'lipoC2': 8.17, 'temp': 25.69, 'lipoC3S3': 0.0, 'state': 'normal', 'rot1': 0, 'rot0': 516, 'rot3': 0, 'rot2': 0, 'depth': -0.14, 'yaw': -0.01, 'datetime': '2018-10-26 09:54:24.130555', 'mgs': 0, 'flw2': 0.0, 'flw1': 0.0, 'flw0': 0.0, 'time': 2.5, 'pitch': -23.88, 'roll': 46.02}
{'lipoC2': 8.16, 'temp': 25.69, 'lipoC3S3': 0.0, 'state': 'normal', 'rot1': 0, 'rot0': 516, 'rot3': 0, 'rot2': 0, 'depth': -0.14, 'yaw': -0.01, 'datetime': '2018-10-26 09:54:24.154448', 'mgs': 0, 'flw2': 0.0, 'flw1': 0.0, 'flw0': 0.0, 'time': 2.6, 'pitch': -23.88, 'roll': 46.02}
{'lipoC2': 8.17, 'temp': 25.75, 'lipoC3S3': 0.0, 'state': 'normal', 'rot1': 0, 'rot0': 516, 'rot3': 0, 'rot2': 0, 'depth': -0.064, 'yaw': -0.01, 'datetime': '2018-10-26 09:54:24.178491', 'mgs': 0, 'flw2': 0.0, 'flw1': 0.0, 'flw0': 0.0, 'time': 2.7, 'pitch': -23.88, 'roll': 46.02}
{'lipoC2': 8.16, 'temp': 25.75, 'lipoC3S3': 0.0, 'state': 'normal', 'rot1': 0, 'rot0': 516, 'rot3': 0, 'rot2': 0, 'depth': -0.14, 'yaw': -0.01, 'datetime': '2018-10-26 09:54:24.202753', 'mgs': 0, 'flw2': 0.0, 'flw1': 0.0, 'flw0': 0.0, 'time': 2.8, 'pitch': -23.88, 'roll': 46.02}
{'lipoC2': 8.16, 'temp': 25.75, 'lipoC3S3': 0.0, 'state': 'normal', 'rot1': 0, 'rot0': 516, 'rot3': 0, 'rot2': 0, 'depth': -0.14, 'yaw': -0.01, 'datetime': '2018-10-26 09:54:24.223547', 'mgs': 0, 'flw2': 0.0, 'flw1': 0.0, 'flw0': 0.0, 'time': 2.91, 'pitch': -23.88, 'roll': 46.02}
{'lipoC2': 8.17, 'temp': 25.69, 'lipoC3S3': 0.0, 'state': 'normal', 'rot1': 0, 'rot0': 516, 'rot3': 0, 'rot2': 0, 'depth': -0.14, 'yaw': -0.01, 'datetime': '2018-10-26 09:54:24.244311', 'mgs': 0, 'flw2': 0.0, 'flw1': 0.0, 'flw0': 0.0, 'time': 3.01, 'pitch': -23.88, 'roll': 46.02}
{'lipoC2': 8.17, 'temp': 25.69, 'lipoC3S3': 0.0, 'state': 'normal', 'rot1': 0, 'rot0': 516, 'rot3': 0, 'rot2': 0, 'depth': -0.14, 'yaw': -0.01, 'datetime': '2018-10-26 09:54:24.268037', 'mgs': 0, 'flw2': 0.0, 'flw1': 0.0, 'flw0': 0.0, 'time': 3.11, 'pitch': -23.88, 'roll': 46.02}
{'lipoC2': 8.17, 'temp': 25.75, 'lipoC3S3': 0.0, 'state': 'normal', 'rot1': 0, 'rot0': 516, 'rot3': 0, 'rot2': 0, 'depth': -0.064, 'yaw': -0.01, 'datetime': '2018-10-26 09:54:24.291992', 'mgs': 0, 'flw2': 0.0, 'flw1': 0.0, 'flw0': 0.0, 'time': 3.22, 'pitch': -23.88, 'roll': 46.02}
{'lipoC2': 8.16, 'temp': 25.75, 'lipoC3S3': 0.0, 'state': 'normal', 'rot1': 0, 'rot0': 516, 'rot3': 0, 'rot2': 0, 'depth': -0.14, 'yaw': -0.01, 'datetime': '2018-10-26 09:54:24.316534', 'mgs': 0, 'flw2': 0.0, 'flw1': 0.0, 'flw0': 0.0, 'time': 3.32, 'pitch': -23.88, 'roll': 46.02}
{'lipoC2': 8.17, 'temp': 25.69, 'lipoC3S3': 0.0, 'state': 'normal', 'rot1': 0, 'rot0': 516, 'rot3': 0, 'rot2': 0, 'depth': -0.14, 'yaw': -0.01, 'datetime': '2018-10-26 09:54:24.340419', 'mgs': 0, 'flw2': 0.0, 'flw1': 0.0, 'flw0': 0.0, 'time': 3.42, 'pitch': -23.88, 'roll': 46.02}
{'lipoC2': 8.16, 'temp': 25.69, 'lipoC3S3': 0.0, 'state': 'normal', 'rot1': 0, 'rot0': 516, 'rot3': 0, 'rot2': 0, 'depth': -0.14, 'yaw': -0.01, 'datetime': '2018-10-26 09:54:24.364395', 'mgs': 0, 'flw2': 0.0, 'flw1': 0.0, 'flw0': 0.0, 'time': 3.53, 'pitch': -23.88, 'roll': 46.02}
{'lipoC2': 8.16, 'temp': 25.69, 'lipoC3S3': 0.0, 'state': 'normal', 'rot1': 0, 'rot0': 516, 'rot3': 0, 'rot2': 0, 'depth': -0.14, 'yaw': -0.01, 'datetime': '2018-10-26 09:54:24.388301', 'mgs': 0, 'flw2': 0.0, 'flw1': 0.0, 'flw0': 0.0, 'time': 3.63, 'pitch': -23.88, 'roll': 46.02}
{'lipoC2': 8.16, 'temp': 25.75, 'lipoC3S3': 0.0, 'state': 'normal', 'rot1': 0, 'rot0': 516, 'rot3': 0, 'rot2': 0, 'depth': -0.14, 'yaw': -0.01, 'datetime': '2018-10-26 09:54:24.411906', 'mgs': 0, 'flw2': 0.0, 'flw1': 0.0, 'flw0': 0.0, 'time': 3.73, 'pitch': -23.88, 'roll': 46.02}
{'lipoC2': 8.16, 'temp': 25.75, 'lipoC3S3': 0.0, 'state': 'normal', 'rot1': 0, 'rot0': 516, 'rot3': 0, 'rot2': 0, 'depth': -0.14, 'yaw': -0.01, 'datetime': '2018-10-26 09:54:24.435878', 'mgs': 0, 'flw2': 0.0, 'flw1': 0.0, 'flw0': 0.0, 'time': 3.84, 'pitch': -23.88, 'roll': 46.02}
{'lipoC2': 8.17, 'temp': 25.69, 'lipoC3S3': 0.0, 'state': 'normal', 'rot1': 0, 'rot0': 516, 'rot3': 0, 'rot2': 0, 'depth': -0.064, 'yaw': -0.01, 'datetime': '2018-10-26 09:54:24.459850', 'mgs': 0, 'flw2': 0.0, 'flw1': 0.0, 'flw0': 0.0, 'time': 3.94, 'pitch': -23.88, 'roll': 46.02}
{'lipoC2': 8.16, 'temp': 25.69, 'lipoC3S3': 0.0, 'state': 'normal', 'rot1': 0, 'rot0': 516, 'rot3': 0, 'rot2': 0, 'depth': -0.14, 'yaw': -0.01, 'datetime': '2018-10-26 09:54:24.483718', 'mgs': 0, 'flw2': 0.0, 'flw1': 0.0, 'flw0': 0.0, 'time': 4.04, 'pitch': -23.88, 'roll': 46.02}
{'lipoC2': 8.16, 'temp': 25.75, 'lipoC3S3': 0.0, 'state': 'normal', 'rot1': 0, 'rot0': 516, 'rot3': 0, 'rot2': 0, 'depth': -0.217, 'yaw': -0.01, 'datetime': '2018-10-26 09:54:24.508330', 'mgs': 0, 'flw2': 0.0, 'flw1': 0.0, 'flw0': 0.0, 'time': 4.14, 'pitch': -23.88, 'roll': 46.02}
{'lipoC2': 8.16, 'temp': 25.75, 'lipoC3S3': 0.0, 'state': 'normal', 'rot1': 0, 'rot0': 516, 'rot3': 0, 'rot2': 0, 'depth': -0.14, 'yaw': -0.01, 'datetime': '2018-10-26 09:54:24.529344', 'mgs': 0, 'flw2': 0.0, 'flw1': 0.0, 'flw0': 0.0, 'time': 4.25, 'pitch': -23.88, 'roll': 46.02}
{'lipoC2': 8.16, 'temp': 25.75, 'lipoC3S3': 0.0, 'state': 'normal', 'rot1': 0, 'rot0': 516, 'rot3': 0, 'rot2': 0, 'depth': -0.14, 'yaw': -0.01, 'datetime': '2018-10-26 09:54:24.553267', 'mgs': 0, 'flw2': 0.0, 'flw1': 0.0, 'flw0': 0.0, 'time': 4.35, 'pitch': -23.88, 'roll': 46.02}
{'lipoC2': 8.16, 'temp': 25.75, 'lipoC3S3': 0.0, 'state': 'normal', 'rot1': 0, 'rot0': 516, 'rot3': 0, 'rot2': 0, 'depth': -0.14, 'yaw': -0.01, 'datetime': '2018-10-26 09:54:24.577225', 'mgs': 0, 'flw2': 0.0, 'flw1': 0.0, 'flw0': 0.0, 'time': 4.45, 'pitch': -23.88, 'roll': 46.02}
{'lipoC2': 8.16, 'temp': 25.75, 'lipoC3S3': 0.0, 'state': 'normal', 'rot1': 0, 'rot0': 516, 'rot3': 0, 'rot2': 0, 'depth': -0.14, 'yaw': -0.02, 'datetime': '2018-10-26 09:54:24.601137', 'mgs': 0, 'flw2': 0.0, 'flw1': 0.0, 'flw0': 0.0, 'time': 4.56, 'pitch': -23.89, 'roll': 46.02}
{'lipoC2': 8.16, 'temp': 25.69, 'lipoC3S3': 0.0, 'state': 'normal', 'rot1': 0, 'rot0': 516, 'rot3': 0, 'rot2': 0, 'depth': -0.14, 'yaw': -0.02, 'datetime': '2018-10-26 09:54:24.625582', 'mgs': 0, 'flw2': 0.0, 'flw1': 0.0, 'flw0': 0.0, 'time': 4.66, 'pitch': -23.89, 'roll': 46.02}
{'lipoC2': 8.17, 'temp': 25.69, 'lipoC3S3': 0.0, 'state': 'normal', 'rot1': 0, 'rot0': 516, 'rot3': 0, 'rot2': 0, 'depth': -0.217, 'yaw': -0.02, 'datetime': '2018-10-26 09:54:24.649457', 'mgs': 0, 'flw2': 0.0, 'flw1': 0.0, 'flw0': 0.0, 'time': 4.76, 'pitch': -23.89, 'roll': 46.02}
{'lipoC2': 8.16, 'temp': 25.69, 'lipoC3S3': 0.0, 'state': 'normal', 'rot1': 0, 'rot0': 516, 'rot3': 0, 'rot2': 0, 'depth': -0.14, 'yaw': -0.02, 'datetime': '2018-10-26 09:54:24.673568', 'mgs': 0, 'flw2': 0.0, 'flw1': 0.0, 'flw0': 0.0, 'time': 4.87, 'pitch': -23.89, 'roll': 46.02}
{'lipoC2': 8.16, 'temp': 25.69, 'lipoC3S3': 0.0, 'state': 'normal', 'rot1': 0, 'rot0': 516, 'rot3': 0, 'rot2': 0, 'depth': -0.14, 'yaw': -0.02, 'datetime': '2018-10-26 09:54:24.697440', 'mgs': 0, 'flw2': 0.0, 'flw1': 0.0, 'flw0': 0.0, 'time': 4.97, 'pitch': -23.89, 'roll': 46.02}
{'lipoC2': 8.16, 'temp': 25.69, 'lipoC3S3': 0.0, 'state': 'normal', 'rot1': 0, 'rot0': 516, 'rot3': 0, 'rot2': 0, 'depth': -0.14, 'yaw': -0.02, 'datetime': '2018-10-26 09:54:24.719978', 'mgs': 0, 'flw2': 0.0, 'flw1': 0.0, 'flw0': 0.0, 'time': 5.07, 'pitch': -23.89, 'roll': 46.02}
{'lipoC2': 8.16, 'temp': 25.69, 'lipoC3S3': 0.0, 'state': 'normal', 'rot1': 0, 'rot0': 516, 'rot3': 0, 'rot2': 0, 'depth': -0.14, 'yaw': -0.03, 'datetime': '2018-10-26 09:54:24.740751', 'mgs': 0, 'flw2': 0.0, 'flw1': 0.0, 'flw0': 0.0, 'time': 5.18, 'pitch': -23.88, 'roll': 46.02}
{'lipoC2': 8.17, 'temp': 25.69, 'lipoC3S3': 0.0, 'state': 'normal', 'rot1': 0, 'rot0': 516, 'rot3': 0, 'rot2': 0, 'depth': -0.064, 'yaw': -0.03, 'datetime': '2018-10-26 09:54:24.761604', 'mgs': 0, 'flw2': 0.0, 'flw1': 0.0, 'flw0': 0.0, 'time': 5.28, 'pitch': -23.88, 'roll': 46.02}
{'lipoC2': 8.16, 'temp': 25.69, 'lipoC3S3': 0.0, 'state': 'normal', 'rot1': 0, 'rot0': 516, 'rot3': 0, 'rot2': 0, 'depth': -0.14, 'yaw': -0.03, 'datetime': '2018-10-26 09:54:24.787942', 'mgs': 0, 'flw2': 0.0, 'flw1': 0.0, 'flw0': 0.0, 'time': 5.38, 'pitch': -23.88, 'roll': 46.02}
{'lipoC2': 8.17, 'temp': 25.69, 'lipoC3S3': 0.0, 'state': 'normal', 'rot1': 0, 'rot0': 516, 'rot3': 0, 'rot2': 0, 'depth': -0.14, 'yaw': -0.01, 'datetime': '2018-10-26 09:54:24.810732', 'mgs': 0, 'flw2': 0.0, 'flw1': 0.0, 'flw0': 0.0, 'time': 5.48, 'pitch': -23.88, 'roll': 46.02}
{'lipoC2': 8.16, 'temp': 25.75, 'lipoC3S3': 0.0, 'state': 'normal', 'rot1': 0, 'rot0': 516, 'rot3': 0, 'rot2': 0, 'depth': -0.14, 'yaw': -0.01, 'datetime': '2018-10-26 09:54:24.835064', 'mgs': 0, 'flw2': 0.0, 'flw1': 0.0, 'flw0': 0.0, 'time': 5.59, 'pitch': -23.88, 'roll': 46.02}
{'lipoC2': 8.17, 'temp': 25.75, 'lipoC3S3': 0.0, 'state': 'normal', 'rot1': 0, 'rot0': 516, 'rot3': 0, 'rot2': 0, 'depth': -0.064, 'yaw': -0.02, 'datetime': '2018-10-26 09:54:24.859021', 'mgs': 0, 'flw2': 0.0, 'flw1': 0.0, 'flw0': 0.0, 'time': 5.69, 'pitch': -23.88, 'roll': 46.02}
{'lipoC2': 8.16, 'temp': 25.75, 'lipoC3S3': 0.0, 'state': 'normal', 'rot1': 0, 'rot0': 516, 'rot3': 0, 'rot2': 0, 'depth': -0.14, 'yaw': -0.02, 'datetime': '2018-10-26 09:54:24.882982', 'mgs': 0, 'flw2': 0.0, 'flw1': 0.0, 'flw0': 0.0, 'time': 5.79, 'pitch': -23.88, 'roll': 46.02}
{'lipoC2': 8.17, 'temp': 25.69, 'lipoC3S3': 0.0, 'state': 'normal', 'rot1': 0, 'rot0': 516, 'rot3': 0, 'rot2': 0, 'depth': -0.217, 'yaw': -0.02, 'datetime': '2018-10-26 09:54:24.906956', 'mgs': 0, 'flw2': 0.0, 'flw1': 0.0, 'flw0': 0.0, 'time': 5.9, 'pitch': -23.88, 'roll': 46.02}
{'lipoC2': 8.16, 'temp': 25.69, 'lipoC3S3': 0.0, 'state': 'normal', 'rot1': 0, 'rot0': 516, 'rot3': 0, 'rot2': 0, 'depth': -0.14, 'yaw': -0.02, 'datetime': '2018-10-26 09:54:24.930995', 'mgs': 0, 'flw2': 0.0, 'flw1': 0.0, 'flw0': 0.0, 'time': 6.0, 'pitch': -23.88, 'roll': 46.02}
{'lipoC2': 8.17, 'temp': 25.75, 'lipoC3S3': 0.0, 'state': 'normal', 'rot1': 0, 'rot0': 516, 'rot3': 0, 'rot2': 0, 'depth': -0.064, 'yaw': -0.03, 'datetime': '2018-10-26 09:54:24.951771', 'mgs': 0, 'flw2': 0.0, 'flw1': 0.0, 'flw0': 0.0, 'time': 6.1, 'pitch': -23.87, 'roll': 46.03}
{'lipoC2': 8.16, 'temp': 25.75, 'lipoC3S3': 0.0, 'state': 'normal', 'rot1': 0, 'rot0': 516, 'rot3': 0, 'rot2': 0, 'depth': -0.14, 'yaw': -0.02, 'datetime': '2018-10-26 09:54:24.972524', 'mgs': 0, 'flw2': 0.0, 'flw1': 0.0, 'flw0': 0.0, 'time': 6.2, 'pitch': -23.87, 'roll': 46.02}
{'lipoC2': 8.16, 'temp': 25.69, 'lipoC3S3': 0.0, 'state': 'normal', 'rot1': 0, 'rot0': 516, 'rot3': 0, 'rot2': 0, 'depth': -0.217, 'yaw': -0.04, 'datetime': '2018-10-26 09:54:24.996251', 'mgs': 0, 'flw2': 0.0, 'flw1': 0.0, 'flw0': 0.0, 'time': 6.31, 'pitch': -23.87, 'roll': 46.03}
{'lipoC2': 8.16, 'temp': 25.69, 'lipoC3S3': 0.0, 'state': 'normal', 'rot1': 0, 'rot0': 516, 'rot3': 0, 'rot2': 0, 'depth': -0.14, 'yaw': -0.03, 'datetime': '2018-10-26 09:54:25.018563', 'mgs': 0, 'flw2': 0.0, 'flw1': 0.0, 'flw0': 0.0, 'time': 6.41, 'pitch': -23.87, 'roll': 46.03}
{'lipoC2': 8.17, 'temp': 25.69, 'lipoC3S3': 0.0, 'state': 'normal', 'rot1': 0, 'rot0': 516, 'rot3': 0, 'rot2': 0, 'depth': -0.14, 'yaw': -0.02, 'datetime': '2018-10-26 09:54:25.039360', 'mgs': 0, 'flw2': 0.0, 'flw1': 0.0, 'flw0': 0.0, 'time': 6.51, 'pitch': -23.87, 'roll': 46.02}
{'lipoC2': 8.16, 'temp': 25.69, 'lipoC3S3': 0.0, 'state': 'normal', 'rot1': 0, 'rot0': 516, 'rot3': 0, 'rot2': 0, 'depth': -0.14, 'yaw': -0.02, 'datetime': '2018-10-26 09:54:25.060123', 'mgs': 0, 'flw2': 0.0, 'flw1': 0.0, 'flw0': 0.0, 'time': 6.62, 'pitch': -23.87, 'roll': 46.02}
{'lipoC2': 8.16, 'temp': 25.69, 'lipoC3S3': 0.0, 'state': 'normal', 'rot1': 0, 'rot0': 516, 'rot3': 0, 'rot2': 0, 'depth': -0.14, 'yaw': -0.03, 'datetime': '2018-10-26 09:54:25.080922', 'mgs': 0, 'flw2': 0.0, 'flw1': 0.0, 'flw0': 0.0, 'time': 6.72, 'pitch': -23.87, 'roll': 46.03}
{'lipoC2': 8.16, 'temp': 25.69, 'lipoC3S3': 0.0, 'state': 'normal', 'rot1': 0, 'rot0': 516, 'rot3': 0, 'rot2': 0, 'depth': -0.14, 'yaw': -0.03, 'datetime': '2018-10-26 09:54:25.104594', 'mgs': 0, 'flw2': 0.0, 'flw1': 0.0, 'flw0': 0.0, 'time': 6.82, 'pitch': -23.87, 'roll': 46.03}
{'lipoC2': 8.16, 'temp': 25.69, 'lipoC3S3': 0.0, 'state': 'normal', 'rot1': 0, 'rot0': 516, 'rot3': 0, 'rot2': 0, 'depth': -0.14, 'yaw': -0.03, 'datetime': '2018-10-26 09:54:25.129492', 'mgs': 0, 'flw2': 0.0, 'flw1': 0.0, 'flw0': 0.0, 'time': 6.93, 'pitch': -23.87, 'roll': 46.03}
{'lipoC2': 8.17, 'temp': 25.69, 'lipoC3S3': 0.0, 'state': 'normal', 'rot1': 0, 'rot0': 516, 'rot3': 0, 'rot2': 0, 'depth': -0.064, 'yaw': -0.03, 'datetime': '2018-10-26 09:54:25.150427', 'mgs': 0, 'flw2': 0.0, 'flw1': 0.0, 'flw0': 0.0, 'time': 7.03, 'pitch': -23.86, 'roll': 46.03}
{'lipoC2': 8.16, 'temp': 25.69, 'lipoC3S3': 0.0, 'state': 'normal', 'rot1': 0, 'rot0': 516, 'rot3': 0, 'rot2': 0, 'depth': -0.14, 'yaw': -0.03, 'datetime': '2018-10-26 09:54:25.171231', 'mgs': 0, 'flw2': 0.0, 'flw1': 0.0, 'flw0': 0.0, 'time': 7.13, 'pitch': -23.86, 'roll': 46.03}
{'lipoC2': 8.16, 'temp': 25.69, 'lipoC3S3': 0.0, 'state': 'normal', 'rot1': 0, 'rot0': 516, 'rot3': 0, 'rot2': 0, 'depth': -0.14, 'yaw': -0.03, 'datetime': '2018-10-26 09:54:25.192009', 'mgs': 0, 'flw2': 0.0, 'flw1': 0.0, 'flw0': 0.0, 'time': 7.24, 'pitch': -23.86, 'roll': 46.03}
{'lipoC2': 8.16, 'temp': 25.75, 'lipoC3S3': 0.0, 'state': 'normal', 'rot1': 0, 'rot0': 516, 'rot3': 0, 'rot2': 0, 'depth': -0.14, 'yaw': -0.04, 'datetime': '2018-10-26 09:54:25.215853', 'mgs': 0, 'flw2': 0.0, 'flw1': 0.0, 'flw0': 0.0, 'time': 7.34, 'pitch': -23.87, 'roll': 46.03}
{'lipoC2': 8.16, 'temp': 25.75, 'lipoC3S3': 0.0, 'state': 'normal', 'rot1': 0, 'rot0': 516, 'rot3': 0, 'rot2': 0, 'depth': -0.14, 'yaw': -0.04, 'datetime': '2018-10-26 09:54:25.239206', 'mgs': 0, 'flw2': 0.0, 'flw1': 0.0, 'flw0': 0.0, 'time': 7.44, 'pitch': -23.87, 'roll': 46.03}
{'lipoC2': 8.17, 'temp': 25.69, 'lipoC3S3': 0.0, 'state': 'normal', 'rot1': 0, 'rot0': 516, 'rot3': 0, 'rot2': 0, 'depth': -0.14, 'yaw': -0.05, 'datetime': '2018-10-26 09:54:25.260024', 'mgs': 0, 'flw2': 0.0, 'flw1': 0.0, 'flw0': 0.0, 'time': 7.54, 'pitch': -23.87, 'roll': 46.04}
{'lipoC2': 8.17, 'temp': 25.69, 'lipoC3S3': 0.0, 'state': 'normal', 'rot1': 0, 'rot0': 516, 'rot3': 0, 'rot2': 0, 'depth': -0.064, 'yaw': -0.03, 'datetime': '2018-10-26 09:54:25.280778', 'mgs': 0, 'flw2': 0.0, 'flw1': 0.0, 'flw0': 0.0, 'time': 7.65, 'pitch': -23.87, 'roll': 46.02}
{'lipoC2': 8.16, 'temp': 25.69, 'lipoC3S3': 0.0, 'state': 'normal', 'rot1': 0, 'rot0': 516, 'rot3': 0, 'rot2': 0, 'depth': -0.14, 'yaw': -0.05, 'datetime': '2018-10-26 09:54:25.301532', 'mgs': 0, 'flw2': 0.0, 'flw1': 0.0, 'flw0': 0.0, 'time': 7.75, 'pitch': -23.87, 'roll': 46.04}
{'lipoC2': 8.16, 'temp': 25.75, 'lipoC3S3': 0.0, 'state': 'normal', 'rot1': 0, 'rot0': 516, 'rot3': 0, 'rot2': 0, 'depth': -0.14, 'yaw': -0.05, 'datetime': '2018-10-26 09:54:25.322621', 'mgs': 0, 'flw2': 0.0, 'flw1': 0.0, 'flw0': 0.0, 'time': 7.85, 'pitch': -23.87, 'roll': 46.04}
{'lipoC2': 8.16, 'temp': 25.75, 'lipoC3S3': 0.0, 'state': 'normal', 'rot1': 0, 'rot0': 516, 'rot3': 0, 'rot2': 0, 'depth': -0.14, 'yaw': -0.05, 'datetime': '2018-10-26 09:54:25.345607', 'mgs': 0, 'flw2': 0.0, 'flw1': 0.0, 'flw0': 0.0, 'time': 7.96, 'pitch': -23.87, 'roll': 46.04}
{'lipoC2': 8.16, 'temp': 25.75, 'lipoC3S3': 0.0, 'state': 'normal', 'rot1': 0, 'rot0': 516, 'rot3': 0, 'rot2': 0, 'depth': -0.14, 'yaw': -0.05, 'datetime': '2018-10-26 09:54:25.369531', 'mgs': 0, 'flw2': 0.0, 'flw1': 0.0, 'flw0': 0.0, 'time': 8.06, 'pitch': -23.87, 'roll': 46.04}
{'lipoC2': 8.17, 'temp': 25.75, 'lipoC3S3': 0.0, 'state': 'normal', 'rot1': 0, 'rot0': 516, 'rot3': 0, 'rot2': 0, 'depth': -0.14, 'yaw': -0.05, 'datetime': '2018-10-26 09:54:25.393359', 'mgs': 0, 'flw2': 0.0, 'flw1': 0.0, 'flw0': 0.0, 'time': 8.16, 'pitch': -23.87, 'roll': 46.04}
{'lipoC2': 8.16, 'temp': 25.75, 'lipoC3S3': 0.0, 'state': 'normal', 'rot1': 0, 'rot0': 516, 'rot3': 0, 'rot2': 0, 'depth': -0.14, 'yaw': -0.05, 'datetime': '2018-10-26 09:54:25.417134', 'mgs': 0, 'flw2': 0.0, 'flw1': 0.0, 'flw0': 0.0, 'time': 8.27, 'pitch': -23.87, 'roll': 46.04}
{'lipoC2': 8.16, 'temp': 25.75, 'lipoC3S3': 0.0, 'state': 'normal', 'rot1': 0, 'rot0': 516, 'rot3': 0, 'rot2': 0, 'depth': -0.14, 'yaw': -0.05, 'datetime': '2018-10-26 09:54:25.441955', 'mgs': 0, 'flw2': 0.0, 'flw1': 0.0, 'flw0': 0.0, 'time': 8.37, 'pitch': -23.87, 'roll': 46.04}
{'lipoC2': 8.17, 'temp': 25.75, 'lipoC3S3': 0.0, 'state': 'normal', 'rot1': 0, 'rot0': 516, 'rot3': 0, 'rot2': 0, 'depth': -0.14, 'yaw': -0.05, 'datetime': '2018-10-26 09:54:25.465780', 'mgs': 0, 'flw2': 0.0, 'flw1': 0.0, 'flw0': 0.0, 'time': 8.47, 'pitch': -23.87, 'roll': 46.04}
{'lipoC2': 8.16, 'temp': 25.75, 'lipoC3S3': 0.0, 'state': 'normal', 'rot1': 0, 'rot0': 516, 'rot3': 0, 'rot2': 0, 'depth': -0.14, 'yaw': -0.05, 'datetime': '2018-10-26 09:54:25.489810', 'mgs': 0, 'flw2': 0.0, 'flw1': 0.0, 'flw0': 0.0, 'time': 8.57, 'pitch': -23.87, 'roll': 46.04}
{'lipoC2': 8.17, 'temp': 25.75, 'lipoC3S3': 0.0, 'state': 'normal', 'rot1': 0, 'rot0': 516, 'rot3': 0, 'rot2': 0, 'depth': -0.064, 'yaw': -0.05, 'datetime': '2018-10-26 09:54:25.513894', 'mgs': 0, 'flw2': 0.0, 'flw1': 0.0, 'flw0': 0.0, 'time': 8.68, 'pitch': -23.87, 'roll': 46.04}
{'lipoC2': 8.17, 'temp': 25.69, 'lipoC3S3': 0.0, 'state': 'normal', 'rot1': 0, 'rot0': 516, 'rot3': 0, 'rot2': 0, 'depth': -0.064, 'yaw': -0.05, 'datetime': '2018-10-26 09:54:25.537626', 'mgs': 0, 'flw2': 0.0, 'flw1': 0.0, 'flw0': 0.0, 'time': 8.78, 'pitch': -23.87, 'roll': 46.04}
{'lipoC2': 8.17, 'temp': 25.69, 'lipoC3S3': 0.0, 'state': 'normal', 'rot1': 0, 'rot0': 516, 'rot3': 0, 'rot2': 0, 'depth': -0.14, 'yaw': -0.05, 'datetime': '2018-10-26 09:54:25.558498', 'mgs': 0, 'flw2': 0.0, 'flw1': 0.0, 'flw0': 0.0, 'time': 8.89, 'pitch': -23.87, 'roll': 46.04}
{'lipoC2': 8.17, 'temp': 25.69, 'lipoC3S3': 0.0, 'state': 'normal', 'rot1': 0, 'rot0': 0, 'rot3': 0, 'rot2': 0, 'depth': -0.064, 'yaw': 0.0, 'datetime': '2018-10-26 09:54:25.582206', 'mgs': 0, 'flw2': 0.0, 'flw1': 0.0, 'flw0': 0.0, 'time': 1.26, 'pitch': -23.88, 'roll': 46.07}
{'lipoC2': 8.16, 'temp': 25.69, 'lipoC3S3': 0.0, 'state': 'normal', 'rot1': 0, 'rot0': 127, 'rot3': 0, 'rot2': 0, 'depth': -0.14, 'yaw': -0.03, 'datetime': '2018-10-26 09:54:25.606275', 'mgs': 0, 'flw2': 0.0, 'flw1': 0.0, 'flw0': 0.0, 'time': 1.36, 'pitch': -23.89, 'roll': 46.09}
{'lipoC2': 8.16, 'temp': 25.69, 'lipoC3S3': 0.0, 'state': 'normal', 'rot1': 0, 'rot0': 261, 'rot3': 0, 'rot2': 0, 'depth': -0.14, 'yaw': -0.0, 'datetime': '2018-10-26 09:54:25.630564', 'mgs': 0, 'flw2': 0.0, 'flw1': 0.0, 'flw0': 0.0, 'time': 1.47, 'pitch': -23.88, 'roll': 46.08}
{'lipoC2': 8.17, 'temp': 25.69, 'lipoC3S3': 0.0, 'state': 'normal', 'rot1': 0, 'rot0': 356, 'rot3': 0, 'rot2': 0, 'depth': -0.14, 'yaw': -0.02, 'datetime': '2018-10-26 09:54:25.654985', 'mgs': 0, 'flw2': 0.0, 'flw1': 0.0, 'flw0': 0.0, 'time': 1.57, 'pitch': -23.89, 'roll': 46.08}
{'lipoC2': 8.16, 'temp': 25.69, 'lipoC3S3': 0.0, 'state': 'normal', 'rot1': 0, 'rot0': 424, 'rot3': 0, 'rot2': 0, 'depth': -0.14, 'yaw': -0.05, 'datetime': '2018-10-26 09:54:25.679102', 'mgs': 0, 'flw2': 0.0, 'flw1': 0.0, 'flw0': 0.0, 'time': 1.67, 'pitch': -23.91, 'roll': 46.08}
{'lipoC2': 8.16, 'temp': 25.75, 'lipoC3S3': 0.0, 'state': 'normal', 'rot1': 0, 'rot0': 424, 'rot3': 0, 'rot2': 0, 'depth': -0.14, 'yaw': -0.0, 'datetime': '2018-10-26 09:54:25.703163', 'mgs': 0, 'flw2': 0.0, 'flw1': 0.0, 'flw0': 0.0, 'time': 1.77, 'pitch': -23.89, 'roll': 46.07}
{'lipoC2': 8.17, 'temp': 25.75, 'lipoC3S3': 0.0, 'state': 'normal', 'rot1': 0, 'rot0': 424, 'rot3': 0, 'rot2': 0, 'depth': -0.064, 'yaw': -0.1, 'datetime': '2018-10-26 09:54:25.727269', 'mgs': 0, 'flw2': 0.0, 'flw1': 0.0, 'flw0': 0.0, 'time': 1.88, 'pitch': -23.91, 'roll': 46.08}
{'lipoC2': 8.16, 'temp': 25.75, 'lipoC3S3': 0.0, 'state': 'normal', 'rot1': 0, 'rot0': 424, 'rot3': 0, 'rot2': 0, 'depth': -0.14, 'yaw': 0.01, 'datetime': '2018-10-26 09:54:25.751002', 'mgs': 0, 'flw2': 0.0, 'flw1': 0.0, 'flw0': 0.0, 'time': 1.98, 'pitch': -23.88, 'roll': 46.07}
{'lipoC2': 8.16, 'temp': 25.75, 'lipoC3S3': 0.0, 'state': 'normal', 'rot1': 0, 'rot0': 424, 'rot3': 0, 'rot2': 0, 'depth': -0.064, 'yaw': -0.12, 'datetime': '2018-10-26 09:54:25.775055', 'mgs': 0, 'flw2': 0.0, 'flw1': 0.0, 'flw0': 0.0, 'time': 2.08, 'pitch': -23.91, 'roll': 46.07}
{'lipoC2': 8.16, 'temp': 25.75, 'lipoC3S3': 0.0, 'state': 'normal', 'rot1': 0, 'rot0': 424, 'rot3': 0, 'rot2': 0, 'depth': -0.14, 'yaw': -0.04, 'datetime': '2018-10-26 09:54:25.799149', 'mgs': 0, 'flw2': 0.0, 'flw1': 0.0, 'flw0': 0.0, 'time': 2.19, 'pitch': -23.92, 'roll': 46.07}
{'lipoC2': 8.16, 'temp': 25.75, 'lipoC3S3': 0.0, 'state': 'normal', 'rot1': 0, 'rot0': 424, 'rot3': 0, 'rot2': 0, 'depth': -0.14, 'yaw': -0.05, 'datetime': '2018-10-26 09:54:25.823097', 'mgs': 0, 'flw2': 0.0, 'flw1': 0.0, 'flw0': 0.0, 'time': 2.29, 'pitch': -23.92, 'roll': 46.07}
{'lipoC2': 8.16, 'temp': 25.75, 'lipoC3S3': 0.0, 'state': 'normal', 'rot1': 0, 'rot0': 424, 'rot3': 0, 'rot2': 0, 'depth': -0.14, 'yaw': -0.1, 'datetime': '2018-10-26 09:54:25.846165', 'mgs': 0, 'flw2': 0.0, 'flw1': 0.0, 'flw0': 0.0, 'time': 2.39, 'pitch': -23.94, 'roll': 46.1}
{'lipoC2': 8.16, 'temp': 25.75, 'lipoC3S3': 0.0, 'state': 'normal', 'rot1': 0, 'rot0': 424, 'rot3': 0, 'rot2': 0, 'depth': -0.217, 'yaw': -0.05, 'datetime': '2018-10-26 09:54:25.867239', 'mgs': 0, 'flw2': 0.0, 'flw1': 0.0, 'flw0': 0.0, 'time': 2.5, 'pitch': -23.92, 'roll': 46.08}
{'lipoC2': 8.16, 'temp': 25.75, 'lipoC3S3': 0.0, 'state': 'normal', 'rot1': 0, 'rot0': 424, 'rot3': 0, 'rot2': 0, 'depth': -0.14, 'yaw': -0.13, 'datetime': '2018-10-26 09:54:25.888282', 'mgs': 0, 'flw2': 0.0, 'flw1': 0.0, 'flw0': 0.0, 'time': 2.6, 'pitch': -23.95, 'roll': 46.09}
{'lipoC2': 8.16, 'temp': 25.69, 'lipoC3S3': 0.0, 'state': 'normal', 'rot1': 0, 'rot0': 424, 'rot3': 0, 'rot2': 0, 'depth': -0.14, 'yaw': -0.07, 'datetime': '2018-10-26 09:54:25.909178', 'mgs': 0, 'flw2': 0.0, 'flw1': 0.0, 'flw0': 0.0, 'time': 2.7, 'pitch': -23.92, 'roll': 46.07}
{'lipoC2': 8.16, 'temp': 25.69, 'lipoC3S3': 0.0, 'state': 'normal', 'rot1': 0, 'rot0': 424, 'rot3': 0, 'rot2': 0, 'depth': -0.14, 'yaw': -0.15, 'datetime': '2018-10-26 09:54:25.930118', 'mgs': 0, 'flw2': 0.0, 'flw1': 0.0, 'flw0': 0.0, 'time': 2.81, 'pitch': -23.95, 'roll': 46.1}
{'lipoC2': 8.17, 'temp': 25.75, 'lipoC3S3': 0.0, 'state': 'normal', 'rot1': 0, 'rot0': 424, 'rot3': 0, 'rot2': 0, 'depth': -0.217, 'yaw': -0.1, 'datetime': '2018-10-26 09:54:25.952843', 'mgs': 0, 'flw2': 0.0, 'flw1': 0.0, 'flw0': 0.0, 'time': 2.91, 'pitch': -23.94, 'roll': 46.1}
{'lipoC2': 8.17, 'temp': 25.75, 'lipoC3S3': 0.0, 'state': 'normal', 'rot1': 0, 'rot0': 424, 'rot3': 0, 'rot2': 0, 'depth': -0.14, 'yaw': -0.13, 'datetime': '2018-10-26 09:54:25.973793', 'mgs': 0, 'flw2': 0.0, 'flw1': 0.0, 'flw0': 0.0, 'time': 3.01, 'pitch': -23.94, 'roll': 46.08}
{'lipoC2': 8.16, 'temp': 25.75, 'lipoC3S3': 0.0, 'state': 'normal', 'rot1': 0, 'rot0': 424, 'rot3': 0, 'rot2': 0, 'depth': -0.14, 'yaw': -0.13, 'datetime': '2018-10-26 09:54:25.997580', 'mgs': 0, 'flw2': 0.0, 'flw1': 0.0, 'flw0': 0.0, 'time': 3.12, 'pitch': -23.93, 'roll': 46.09}
{'lipoC2': 8.17, 'temp': 25.75, 'lipoC3S3': 0.0, 'state': 'normal', 'rot1': 0, 'rot0': 424, 'rot3': 0, 'rot2': 0, 'depth': -0.14, 'yaw': -0.14, 'datetime': '2018-10-26 09:54:26.021565', 'mgs': 0, 'flw2': 0.0, 'flw1': 0.0, 'flw0': 0.0, 'time': 3.22, 'pitch': -23.94, 'roll': 46.09}
{'lipoC2': 8.16, 'temp': 25.75, 'lipoC3S3': 0.0, 'state': 'normal', 'rot1': 0, 'rot0': 424, 'rot3': 0, 'rot2': 0, 'depth': -0.14, 'yaw': -0.15, 'datetime': '2018-10-26 09:54:26.045288', 'mgs': 0, 'flw2': 0.0, 'flw1': 0.0, 'flw0': 0.0, 'time': 3.32, 'pitch': -23.95, 'roll': 46.09}
{'lipoC2': 8.16, 'temp': 25.75, 'lipoC3S3': 0.0, 'state': 'normal', 'rot1': 0, 'rot0': 424, 'rot3': 0, 'rot2': 0, 'depth': -0.14, 'yaw': -0.16, 'datetime': '2018-10-26 09:54:26.067414', 'mgs': 0, 'flw2': 0.0, 'flw1': 0.0, 'flw0': 0.0, 'time': 3.42, 'pitch': -23.95, 'roll': 46.1}
{'lipoC2': 8.17, 'temp': 25.75, 'lipoC3S3': 0.0, 'state': 'normal', 'rot1': 0, 'rot0': 424, 'rot3': 0, 'rot2': 0, 'depth': 0.165, 'yaw': -0.18, 'datetime': '2018-10-26 09:54:26.088285', 'mgs': 0, 'flw2': 3.56, 'flw1': 2.99, 'flw0': 3.8, 'time': 3.53, 'pitch': -23.96, 'roll': 46.1}
{'lipoC2': 8.16, 'temp': 25.75, 'lipoC3S3': 0.0, 'state': 'normal', 'rot1': 0, 'rot0': 425, 'rot3': 0, 'rot2': 0, 'depth': -0.217, 'yaw': -0.17, 'datetime': '2018-10-26 09:54:26.109227', 'mgs': 0, 'flw2': 1.55, 'flw1': 1.9, 'flw0': 1.48, 'time': 3.63, 'pitch': -23.94, 'roll': 46.12}
{'lipoC2': 8.16, 'temp': 25.69, 'lipoC3S3': 0.0, 'state': 'normal', 'rot1': 0, 'rot0': 425, 'rot3': 0, 'rot2': 0, 'depth': -0.14, 'yaw': -0.25, 'datetime': '2018-10-26 09:54:26.130148', 'mgs': 0, 'flw2': 1.32, 'flw1': 1.85, 'flw0': 1.32, 'time': 3.73, 'pitch': -23.96, 'roll': 46.13}
{'lipoC2': 8.17, 'temp': 25.69, 'lipoC3S3': 0.0, 'state': 'normal', 'rot1': 0, 'rot0': 425, 'rot3': 0, 'rot2': 0, 'depth': -0.14, 'yaw': -0.09, 'datetime': '2018-10-26 09:54:26.154461', 'mgs': 0, 'flw2': 1.34, 'flw1': 1.7, 'flw0': 1.25, 'time': 3.84, 'pitch': -23.95, 'roll': 46.1}
{'lipoC2': 8.17, 'temp': 25.69, 'lipoC3S3': 0.0, 'state': 'normal', 'rot1': 0, 'rot0': 425, 'rot3': 0, 'rot2': 0, 'depth': -0.064, 'yaw': -0.23, 'datetime': '2018-10-26 09:54:26.175525', 'mgs': 0, 'flw2': 1.27, 'flw1': 1.67, 'flw0': 1.29, 'time': 3.94, 'pitch': -23.95, 'roll': 46.13}
{'lipoC2': 8.17, 'temp': 25.69, 'lipoC3S3': 0.0, 'state': 'normal', 'rot1': 0, 'rot0': 425, 'rot3': 0, 'rot2': 0, 'depth': -0.14, 'yaw': -0.23, 'datetime': '2018-10-26 09:54:26.196471', 'mgs': 0, 'flw2': 1.32, 'flw1': 1.82, 'flw0': 1.32, 'time': 4.04, 'pitch': -23.96, 'roll': 46.17}
{'lipoC2': 8.16, 'temp': 25.69, 'lipoC3S3': 0.0, 'state': 'normal', 'rot1': 0, 'rot0': 425, 'rot3': 0, 'rot2': 0, 'depth': -0.217, 'yaw': -0.19, 'datetime': '2018-10-26 09:54:26.217024', 'mgs': 0, 'flw2': 1.25, 'flw1': 1.64, 'flw0': 1.21, 'time': 4.15, 'pitch': -23.95, 'roll': 46.13}
{'lipoC2': 8.17, 'temp': 25.69, 'lipoC3S3': 0.0, 'state': 'normal', 'rot1': 0, 'rot0': 425, 'rot3': 0, 'rot2': 0, 'depth': -0.14, 'yaw': -0.2, 'datetime': '2018-10-26 09:54:26.237403', 'mgs': 0, 'flw2': 1.25, 'flw1': 1.7, 'flw0': 1.23, 'time': 4.25, 'pitch': -23.96, 'roll': 46.17}
{'lipoC2': 8.17, 'temp': 25.69, 'lipoC3S3': 0.0, 'state': 'normal', 'rot1': 0, 'rot0': 425, 'rot3': 0, 'rot2': 0, 'depth': -0.14, 'yaw': -0.26, 'datetime': '2018-10-26 09:54:26.257798', 'mgs': 0, 'flw2': 1.23, 'flw1': 1.7, 'flw0': 1.2, 'time': 4.35, 'pitch': -23.97, 'roll': 46.16}
{'lipoC2': 8.16, 'temp': 25.69, 'lipoC3S3': 0.0, 'state': 'normal', 'rot1': 0, 'rot0': 425, 'rot3': 0, 'rot2': 0, 'depth': -0.217, 'yaw': -0.23, 'datetime': '2018-10-26 09:54:26.278241', 'mgs': 0, 'flw2': 1.32, 'flw1': 1.79, 'flw0': 1.2, 'time': 4.46, 'pitch': -23.94, 'roll': 46.15}
{'lipoC2': 8.16, 'temp': 25.69, 'lipoC3S3': 0.0, 'state': 'normal', 'rot1': 0, 'rot0': 425, 'rot3': 0, 'rot2': 0, 'depth': -0.064, 'yaw': -0.24, 'datetime': '2018-10-26 09:54:26.300936', 'mgs': 0, 'flw2': 1.35, 'flw1': 1.85, 'flw0': 1.17, 'time': 4.56, 'pitch': -23.97, 'roll': 46.16}
{'lipoC2': 8.16, 'temp': 25.69, 'lipoC3S3': 0.0, 'state': 'normal', 'rot1': 0, 'rot0': 425, 'rot3': 0, 'rot2': 0, 'depth': -0.14, 'yaw': -0.25, 'datetime': '2018-10-26 09:54:26.321272', 'mgs': 0, 'flw2': 1.28, 'flw1': 1.67, 'flw0': 1.18, 'time': 4.66, 'pitch': -23.97, 'roll': 46.18}
{'lipoC2': 8.16, 'temp': 25.69, 'lipoC3S3': 0.0, 'state': 'normal', 'rot1': 0, 'rot0': 425, 'rot3': 0, 'rot2': 0, 'depth': -0.14, 'yaw': -0.25, 'datetime': '2018-10-26 09:54:26.341624', 'mgs': 0, 'flw2': 1.28, 'flw1': 1.82, 'flw0': 1.25, 'time': 4.77, 'pitch': -23.96, 'roll': 46.17}
{'lipoC2': 8.16, 'temp': 25.69, 'lipoC3S3': 0.0, 'state': 'normal', 'rot1': 0, 'rot0': 425, 'rot3': 0, 'rot2': 0, 'depth': -0.064, 'yaw': -0.23, 'datetime': '2018-10-26 09:54:26.362153', 'mgs': 0, 'flw2': 1.32, 'flw1': 1.7, 'flw0': 1.2, 'time': 4.87, 'pitch': -23.95, 'roll': 46.17}
{'lipoC2': 8.16, 'temp': 25.69, 'lipoC3S3': 0.0, 'state': 'normal', 'rot1': 0, 'rot0': 425, 'rot3': 0, 'rot2': 0, 'depth': -0.217, 'yaw': -0.33, 'datetime': '2018-10-26 09:54:26.382554', 'mgs': 0, 'flw2': 1.28, 'flw1': 1.76, 'flw0': 1.22, 'time': 4.97, 'pitch': -23.98, 'roll': 46.22}
{'lipoC2': 8.17, 'temp': 25.69, 'lipoC3S3': 0.0, 'state': 'normal', 'rot1': 0, 'rot0': 425, 'rot3': 0, 'rot2': 0, 'depth': -0.064, 'yaw': -0.21, 'datetime': '2018-10-26 09:54:26.402980', 'mgs': 0, 'flw2': 1.31, 'flw1': 1.82, 'flw0': 1.22, 'time': 5.08, 'pitch': -23.96, 'roll': 46.18}
{'lipoC2': 8.16, 'temp': 25.69, 'lipoC3S3': 0.0, 'state': 'normal', 'rot1': 0, 'rot0': 425, 'rot3': 0, 'rot2': 0, 'depth': -0.14, 'yaw': -0.3, 'datetime': '2018-10-26 09:54:26.423353', 'mgs': 0, 'flw2': 1.27, 'flw1': 1.64, 'flw0': 1.18, 'time': 5.18, 'pitch': -23.96, 'roll': 46.19}
{'lipoC2': 8.17, 'temp': 25.69, 'lipoC3S3': 0.0, 'state': 'normal', 'rot1': 0, 'rot0': 425, 'rot3': 0, 'rot2': 0, 'depth': -0.14, 'yaw': -0.31, 'datetime': '2018-10-26 09:54:26.443691', 'mgs': 0, 'flw2': 1.32, 'flw1': 1.76, 'flw0': 1.22, 'time': 5.28, 'pitch': -24.0, 'roll': 46.22}
{'lipoC2': 8.17, 'temp': 25.69, 'lipoC3S3': 0.0, 'state': 'normal', 'rot1': 0, 'rot0': 425, 'rot3': 0, 'rot2': 0, 'depth': -0.14, 'yaw': -0.27, 'datetime': '2018-10-26 09:54:26.465754', 'mgs': 0, 'flw2': 1.29, 'flw1': 1.88, 'flw0': 1.18, 'time': 5.39, 'pitch': -23.99, 'roll': 46.19}
{'lipoC2': 8.16, 'temp': 25.69, 'lipoC3S3': 0.0, 'state': 'normal', 'rot1': 0, 'rot0': 425, 'rot3': 0, 'rot2': 0, 'depth': -0.14, 'yaw': -0.28, 'datetime': '2018-10-26 09:54:26.486530', 'mgs': 0, 'flw2': 1.25, 'flw1': 1.67, 'flw0': 1.18, 'time': 5.49, 'pitch': -23.97, 'roll': 46.19}
{'lipoC2': 8.16, 'temp': 25.69, 'lipoC3S3': 0.0, 'state': 'normal', 'rot1': 0, 'rot0': 425, 'rot3': 0, 'rot2': 0, 'depth': -0.064, 'yaw': -0.37, 'datetime': '2018-10-26 09:54:26.507188', 'mgs': 0, 'flw2': 1.33, 'flw1': 1.79, 'flw0': 1.22, 'time': 5.59, 'pitch': -24.0, 'roll': 46.23}
{'lipoC2': 8.16, 'temp': 25.69, 'lipoC3S3': 0.0, 'state': 'normal', 'rot1': 0, 'rot0': 425, 'rot3': 0, 'rot2': 0, 'depth': -0.14, 'yaw': -0.28, 'datetime': '2018-10-26 09:54:26.527810', 'mgs': 0, 'flw2': 1.25, 'flw1': 1.67, 'flw0': 1.2, 'time': 5.7, 'pitch': -23.99, 'roll': 46.19}
{'lipoC2': 8.17, 'temp': 25.69, 'lipoC3S3': 0.0, 'state': 'normal', 'rot1': 0, 'rot0': 425, 'rot3': 0, 'rot2': 0, 'depth': 0.012, 'yaw': -0.35, 'datetime': '2018-10-26 09:54:26.548304', 'mgs': 0, 'flw2': 1.34, 'flw1': 1.73, 'flw0': 1.16, 'time': 5.8, 'pitch': -23.99, 'roll': 46.21}
{'lipoC2': 8.16, 'temp': 25.69, 'lipoC3S3': 0.0, 'state': 'normal', 'rot1': 0, 'rot0': 425, 'rot3': 0, 'rot2': 0, 'depth': -0.14, 'yaw': -0.38, 'datetime': '2018-10-26 09:54:26.570680', 'mgs': 0, 'flw2': 1.26, 'flw1': 1.73, 'flw0': 1.22, 'time': 5.9, 'pitch': -23.99, 'roll': 46.23}
{'lipoC2': 8.16, 'temp': 25.69, 'lipoC3S3': 0.0, 'state': 'normal', 'rot1': 0, 'rot0': 425, 'rot3': 0, 'rot2': 0, 'depth': -0.14, 'yaw': -0.36, 'datetime': '2018-10-26 09:54:26.591483', 'mgs': 0, 'flw2': 1.23, 'flw1': 1.67, 'flw0': 1.21, 'time': 6.01, 'pitch': -24.01, 'roll': 46.22}
{'lipoC2': 8.16, 'temp': 25.69, 'lipoC3S3': 0.0, 'state': 'normal', 'rot1': 0, 'rot0': 425, 'rot3': 0, 'rot2': 0, 'depth': -0.14, 'yaw': -0.3, 'datetime': '2018-10-26 09:54:26.612111', 'mgs': 0, 'flw2': 1.29, 'flw1': 1.73, 'flw0': 1.22, 'time': 6.11, 'pitch': -24.0, 'roll': 46.21}
{'lipoC2': 8.16, 'temp': 25.69, 'lipoC3S3': 0.0, 'state': 'normal', 'rot1': 0, 'rot0': 425, 'rot3': 0, 'rot2': 0, 'depth': -0.064, 'yaw': -0.41, 'datetime': '2018-10-26 09:54:26.632695', 'mgs': 0, 'flw2': 1.34, 'flw1': 1.82, 'flw0': 1.16, 'time': 6.21, 'pitch': -24.01, 'roll': 46.26}
{'lipoC2': 8.16, 'temp': 25.69, 'lipoC3S3': 0.0, 'state': 'normal', 'rot1': 0, 'rot0': 425, 'rot3': 0, 'rot2': 0, 'depth': -0.14, 'yaw': -0.34, 'datetime': '2018-10-26 09:54:26.681388', 'mgs': 0, 'flw2': 1.28, 'flw1': 1.67, 'flw0': 1.21, 'time': 6.32, 'pitch': -23.99, 'roll': 46.23}
{'lipoC2': 8.16, 'temp': 25.69, 'lipoC3S3': 0.0, 'state': 'normal', 'rot1': 0, 'rot0': 425, 'rot3': 0, 'rot2': 0, 'depth': -0.14, 'yaw': -0.37, 'datetime': '2018-10-26 09:54:26.785391', 'mgs': 0, 'flw2': 1.27, 'flw1': 1.79, 'flw0': 1.21, 'time': 6.42, 'pitch': -24.0, 'roll': 46.21}
{'lipoC2': 8.16, 'temp': 25.69, 'lipoC3S3': 0.0, 'state': 'normal', 'rot1': 0, 'rot0': 425, 'rot3': 0, 'rot2': 0, 'depth': -0.14, 'yaw': -0.33, 'datetime': '2018-10-26 09:54:26.894651', 'mgs': 0, 'flw2': 1.27, 'flw1': 1.73, 'flw0': 1.21, 'time': 6.52, 'pitch': -24.01, 'roll': 46.24}
{'lipoC2': 8.17, 'temp': 25.75, 'lipoC3S3': 0.0, 'state': 'normal', 'rot1': 0, 'rot0': 425, 'rot3': 0, 'rot2': 0, 'depth': 0.012, 'yaw': -0.45, 'datetime': '2018-10-26 09:54:26.997392', 'mgs': 0, 'flw2': 1.29, 'flw1': 1.79, 'flw0': 1.16, 'time': 6.63, 'pitch': -24.03, 'roll': 46.25}
{'lipoC2': 8.16, 'temp': 25.75, 'lipoC3S3': 0.0, 'state': 'normal', 'rot1': 0, 'rot0': 425, 'rot3': 0, 'rot2': 0, 'depth': -0.14, 'yaw': -0.28, 'datetime': '2018-10-26 09:54:27.100000', 'mgs': 0, 'flw2': 1.31, 'flw1': 1.76, 'flw0': 1.21, 'time': 6.73, 'pitch': -23.98, 'roll': 46.21}
{'lipoC2': 8.16, 'temp': 25.69, 'lipoC3S3': 0.0, 'state': 'normal', 'rot1': 0, 'rot0': 425, 'rot3': 0, 'rot2': 0, 'depth': -0.14, 'yaw': -0.46, 'datetime': '2018-10-26 09:54:27.202718', 'mgs': 0, 'flw2': 1.32, 'flw1': 1.73, 'flw0': 1.17, 'time': 6.83, 'pitch': -24.04, 'roll': 46.27}
{'lipoC2': 8.16, 'temp': 25.69, 'lipoC3S3': 0.0, 'state': 'normal', 'rot1': 0, 'rot0': 425, 'rot3': 0, 'rot2': 0, 'depth': -0.14, 'yaw': -0.36, 'datetime': '2018-10-26 09:54:27.305688', 'mgs': 0, 'flw2': 1.26, 'flw1': 1.7, 'flw0': 1.21, 'time': 6.93, 'pitch': -24.01, 'roll': 46.27}
{'lipoC2': 8.16, 'temp': 25.69, 'lipoC3S3': 0.0, 'state': 'normal', 'rot1': 0, 'rot0': 425, 'rot3': 0, 'rot2': 0, 'depth': -0.14, 'yaw': -0.4, 'datetime': '2018-10-26 09:54:27.408346', 'mgs': 0, 'flw2': 1.27, 'flw1': 1.82, 'flw0': 1.22, 'time': 7.04, 'pitch': -24.01, 'roll': 46.2}
{'lipoC2': 8.16, 'temp': 25.69, 'lipoC3S3': 0.0, 'state': 'normal', 'rot1': 0, 'rot0': 425, 'rot3': 0, 'rot2': 0, 'depth': -0.064, 'yaw': -0.4, 'datetime': '2018-10-26 09:54:27.512263', 'mgs': 0, 'flw2': 1.33, 'flw1': 1.82, 'flw0': 1.17, 'time': 7.14, 'pitch': -24.01, 'roll': 46.25}
{'lipoC2': 8.16, 'temp': 25.69, 'lipoC3S3': 0.0, 'state': 'normal', 'rot1': 0, 'rot0': 425, 'rot3': 0, 'rot2': 0, 'depth': -0.14, 'yaw': -0.42, 'datetime': '2018-10-26 09:54:27.615040', 'mgs': 0, 'flw2': 1.27, 'flw1': 1.76, 'flw0': 1.21, 'time': 7.24, 'pitch': -24.03, 'roll': 46.2}
{'lipoC2': 8.16, 'temp': 25.69, 'lipoC3S3': 0.0, 'state': 'normal', 'rot1': 0, 'rot0': 425, 'rot3': 0, 'rot2': 0, 'depth': -0.14, 'yaw': -0.36, 'datetime': '2018-10-26 09:54:27.724597', 'mgs': 0, 'flw2': 1.32, 'flw1': 1.79, 'flw0': 1.2, 'time': 7.35, 'pitch': -24.0, 'roll': 46.19}
{'lipoC2': 8.16, 'temp': 25.69, 'lipoC3S3': 0.0, 'state': 'normal', 'rot1': 0, 'rot0': 425, 'rot3': 0, 'rot2': 0, 'depth': -0.14, 'yaw': -0.47, 'datetime': '2018-10-26 09:54:27.817972', 'mgs': 0, 'flw2': 1.23, 'flw1': 1.73, 'flw0': 1.22, 'time': 7.45, 'pitch': -24.02, 'roll': 46.23}
{'lipoC2': 8.16, 'temp': 25.69, 'lipoC3S3': 0.0, 'state': 'normal', 'rot1': 0, 'rot0': 425, 'rot3': 0, 'rot2': 0, 'depth': -0.14, 'yaw': -0.41, 'datetime': '2018-10-26 09:54:27.921730', 'mgs': 0, 'flw2': 1.29, 'flw1': 1.7, 'flw0': 1.22, 'time': 7.55, 'pitch': -24.02, 'roll': 46.22}
{'lipoC2': 8.17, 'temp': 25.69, 'lipoC3S3': 0.0, 'state': 'normal', 'rot1': 0, 'rot0': 425, 'rot3': 0, 'rot2': 0, 'depth': -0.14, 'yaw': -0.41, 'datetime': '2018-10-26 09:54:28.024987', 'mgs': 0, 'flw2': 1.32, 'flw1': 1.76, 'flw0': 1.21, 'time': 7.66, 'pitch': -24.0, 'roll': 46.21}
{'lipoC2': 8.17, 'temp': 25.75, 'lipoC3S3': 0.0, 'state': 'normal', 'rot1': 0, 'rot0': 425, 'rot3': 0, 'rot2': 0, 'depth': -0.14, 'yaw': -0.49, 'datetime': '2018-10-26 09:54:28.127520', 'mgs': 0, 'flw2': 1.33, 'flw1': 1.76, 'flw0': 1.16, 'time': 7.76, 'pitch': -24.03, 'roll': 46.23}
{'lipoC2': 8.16, 'temp': 25.75, 'lipoC3S3': 0.0, 'state': 'normal', 'rot1': 0, 'rot0': 425, 'rot3': 0, 'rot2': 0, 'depth': -0.14, 'yaw': -0.45, 'datetime': '2018-10-26 09:54:28.231298', 'mgs': 0, 'flw2': 1.28, 'flw1': 1.76, 'flw0': 1.22, 'time': 7.86, 'pitch': -24.02, 'roll': 46.24}
{'lipoC2': 8.16, 'temp': 25.75, 'lipoC3S3': 0.0, 'state': 'normal', 'rot1': 0, 'rot0': 425, 'rot3': 0, 'rot2': 0, 'depth': -0.14, 'yaw': -0.45, 'datetime': '2018-10-26 09:54:28.335016', 'mgs': 0, 'flw2': 1.26, 'flw1': 1.79, 'flw0': 1.2, 'time': 7.97, 'pitch': -23.99, 'roll': 46.22}
{'lipoC2': 8.16, 'temp': 25.75, 'lipoC3S3': 0.0, 'state': 'normal', 'rot1': 0, 'rot0': 425, 'rot3': 0, 'rot2': 0, 'depth': -0.14, 'yaw': -0.49, 'datetime': '2018-10-26 09:54:28.437637', 'mgs': 0, 'flw2': 1.27, 'flw1': 1.64, 'flw0': 1.18, 'time': 8.07, 'pitch': -24.0, 'roll': 46.23}
{'lipoC2': 8.16, 'temp': 25.75, 'lipoC3S3': 0.0, 'state': 'normal', 'rot1': 0, 'rot0': 425, 'rot3': 0, 'rot2': 0, 'depth': -0.14, 'yaw': -0.54, 'datetime': '2018-10-26 09:54:28.540334', 'mgs': 0, 'flw2': 1.31, 'flw1': 1.85, 'flw0': 1.23, 'time': 8.17, 'pitch': -24.02, 'roll': 46.23}
{'lipoC2': 8.16, 'temp': 25.69, 'lipoC3S3': 0.0, 'state': 'normal', 'rot1': 0, 'rot0': 425, 'rot3': 0, 'rot2': 0, 'depth': -0.064, 'yaw': -0.43, 'datetime': '2018-10-26 09:54:28.644556', 'mgs': 0, 'flw2': 1.33, 'flw1': 1.79, 'flw0': 1.16, 'time': 8.28, 'pitch': -24.01, 'roll': 46.21}
{'lipoC2': 8.16, 'temp': 25.69, 'lipoC3S3': 0.0, 'state': 'normal', 'rot1': 0, 'rot0': 425, 'rot3': 0, 'rot2': 0, 'depth': -0.14, 'yaw': -0.5, 'datetime': '2018-10-26 09:54:28.753425', 'mgs': 0, 'flw2': 1.21, 'flw1': 1.73, 'flw0': 1.22, 'time': 8.38, 'pitch': -24.02, 'roll': 46.21}
{'lipoC2': 8.16, 'temp': 25.69, 'lipoC3S3': 0.0, 'state': 'normal', 'rot1': 0, 'rot0': 425, 'rot3': 0, 'rot2': 0, 'depth': -0.14, 'yaw': -0.55, 'datetime': '2018-10-26 09:54:28.855722', 'mgs': 0, 'flw2': 1.32, 'flw1': 1.76, 'flw0': 1.22, 'time': 8.48, 'pitch': -24.02, 'roll': 46.26}
{'lipoC2': 8.16, 'temp': 25.75, 'lipoC3S3': 0.0, 'state': 'normal', 'rot1': 0, 'rot0': 425, 'rot3': 0, 'rot2': 0, 'depth': -0.14, 'yaw': -0.5, 'datetime': '2018-10-26 09:54:28.952430', 'mgs': 0, 'flw2': 1.23, 'flw1': 1.67, 'flw0': 1.21, 'time': 8.59, 'pitch': -24.01, 'roll': 46.21}
{'lipoC2': 8.16, 'temp': 25.75, 'lipoC3S3': 0.0, 'state': 'normal', 'rot1': 0, 'rot0': 425, 'rot3': 0, 'rot2': 0, 'depth': -0.14, 'yaw': -0.55, 'datetime': '2018-10-26 09:54:29.055066', 'mgs': 0, 'flw2': 1.29, 'flw1': 1.79, 'flw0': 1.23, 'time': 8.69, 'pitch': -24.02, 'roll': 46.25}
{'lipoC2': 8.17, 'temp': 25.75, 'lipoC3S3': 0.0, 'state': 'normal', 'rot1': 0, 'rot0': 425, 'rot3': 0, 'rot2': 0, 'depth': -0.14, 'yaw': -0.59, 'datetime': '2018-10-26 09:54:29.157745', 'mgs': 0, 'flw2': 1.22, 'flw1': 1.7, 'flw0': 1.2, 'time': 8.79, 'pitch': -24.01, 'roll': 46.22}
{'lipoC2': 8.17, 'temp': 25.75, 'lipoC3S3': 0.0, 'state': 'normal', 'rot1': 0, 'rot0': 425, 'rot3': 0, 'rot2': 0, 'depth': -0.14, 'yaw': -0.5, 'datetime': '2018-10-26 09:54:29.272173', 'mgs': 0, 'flw2': 1.28, 'flw1': 1.85, 'flw0': 1.23, 'time': 8.89, 'pitch': -23.98, 'roll': 46.2}
{'lipoC2': 8.16, 'temp': 25.69, 'lipoC3S3': 0.0, 'state': 'normal', 'rot1': 0, 'rot0': 425, 'rot3': 0, 'rot2': 0, 'depth': -0.14, 'yaw': -0.59, 'datetime': '2018-10-26 09:54:29.367242', 'mgs': 0, 'flw2': 1.32, 'flw1': 1.64, 'flw0': 1.18, 'time': 9.0, 'pitch': -24.0, 'roll': 46.23}
{'lipoC2': 8.16, 'temp': 25.69, 'lipoC3S3': 0.0, 'state': 'normal', 'rot1': 0, 'rot0': 425, 'rot3': 0, 'rot2': 0, 'depth': -0.14, 'yaw': -0.57, 'datetime': '2018-10-26 09:54:29.462295', 'mgs': 0, 'flw2': 1.32, 'flw1': 1.79, 'flw0': 1.22, 'time': 9.1, 'pitch': -24.0, 'roll': 46.25}
{'lipoC2': 8.16, 'temp': 25.69, 'lipoC3S3': 0.0, 'state': 'normal', 'rot1': 0, 'rot0': 425, 'rot3': 0, 'rot2': 0, 'depth': -0.064, 'yaw': -0.59, 'datetime': '2018-10-26 09:54:29.565127', 'mgs': 0, 'flw2': 1.33, 'flw1': 1.82, 'flw0': 1.16, 'time': 9.2, 'pitch': -23.99, 'roll': 46.22}
{'lipoC2': 8.17, 'temp': 25.69, 'lipoC3S3': 0.0, 'state': 'normal', 'rot1': 0, 'rot0': 425, 'rot3': 0, 'rot2': 0, 'depth': -0.064, 'yaw': -0.57, 'datetime': '2018-10-26 09:54:29.667809', 'mgs': 0, 'flw2': 1.26, 'flw1': 1.76, 'flw0': 1.21, 'time': 9.31, 'pitch': -24.0, 'roll': 46.24}
{'lipoC2': 8.17, 'temp': 25.69, 'lipoC3S3': 0.0, 'state': 'normal', 'rot1': 0, 'rot0': 425, 'rot3': 0, 'rot2': 0, 'depth': 0.012, 'yaw': -0.61, 'datetime': '2018-10-26 09:54:29.771278', 'mgs': 0, 'flw2': 1.34, 'flw1': 1.76, 'flw0': 1.17, 'time': 9.41, 'pitch': -24.02, 'roll': 46.24}
{'lipoC2': 8.17, 'temp': 25.69, 'lipoC3S3': 0.0, 'state': 'normal', 'rot1': 0, 'rot0': 425, 'rot3': 0, 'rot2': 0, 'depth': -0.14, 'yaw': -0.53, 'datetime': '2018-10-26 09:54:29.875095', 'mgs': 0, 'flw2': 1.28, 'flw1': 1.7, 'flw0': 1.2, 'time': 9.51, 'pitch': -23.98, 'roll': 46.19}
{'lipoC2': 8.16, 'temp': 25.69, 'lipoC3S3': 0.0, 'state': 'normal', 'rot1': 0, 'rot0': 425, 'rot3': 0, 'rot2': 0, 'depth': -0.14, 'yaw': -0.62, 'datetime': '2018-10-26 09:54:29.977778', 'mgs': 0, 'flw2': 1.31, 'flw1': 1.85, 'flw0': 1.18, 'time': 9.61, 'pitch': -23.99, 'roll': 46.2}
{'lipoC2': 8.16, 'temp': 25.69, 'lipoC3S3': 0.0, 'state': 'normal', 'rot1': 0, 'rot0': 425, 'rot3': 0, 'rot2': 0, 'depth': -0.14, 'yaw': -0.62, 'datetime': '2018-10-26 09:54:30.087039', 'mgs': 0, 'flw2': 1.27, 'flw1': 1.82, 'flw0': 1.17, 'time': 9.72, 'pitch': -24.01, 'roll': 46.24}
{'lipoC2': 8.16, 'temp': 25.69, 'lipoC3S3': 0.0, 'state': 'normal', 'rot1': 0, 'rot0': 425, 'rot3': 0, 'rot2': 0, 'depth': 0.089, 'yaw': -0.58, 'datetime': '2018-10-26 09:54:30.190964', 'mgs': 0, 'flw2': 1.32, 'flw1': 1.76, 'flw0': 1.15, 'time': 9.82, 'pitch': -24.0, 'roll': 46.2}
{'lipoC2': 8.17, 'temp': 25.69, 'lipoC3S3': 0.0, 'state': 'normal', 'rot1': 0, 'rot0': 425, 'rot3': 0, 'rot2': 0, 'depth': -0.14, 'yaw': -0.59, 'datetime': '2018-10-26 09:54:30.293569', 'mgs': 0, 'flw2': 1.29, 'flw1': 1.76, 'flw0': 1.2, 'time': 9.93, 'pitch': -24.01, 'roll': 46.2}
{'lipoC2': 8.16, 'temp': 25.75, 'lipoC3S3': 0.0, 'state': 'normal', 'rot1': 0, 'rot0': 425, 'rot3': 0, 'rot2': 0, 'depth': -0.064, 'yaw': -0.69, 'datetime': '2018-10-26 09:54:30.396308', 'mgs': 0, 'flw2': 1.33, 'flw1': 1.76, 'flw0': 1.2, 'time': 10.03, 'pitch': -24.03, 'roll': 46.25}
{'lipoC2': 8.16, 'temp': 25.75, 'lipoC3S3': 0.0, 'state': 'normal', 'rot1': 0, 'rot0': 425, 'rot3': 0, 'rot2': 0, 'depth': -0.14, 'yaw': -0.57, 'datetime': '2018-10-26 09:54:30.500278', 'mgs': 0, 'flw2': 1.26, 'flw1': 1.67, 'flw0': 1.17, 'time': 10.13, 'pitch': -24.01, 'roll': 46.2}
{'lipoC2': 8.17, 'temp': 25.69, 'lipoC3S3': 0.0, 'state': 'normal', 'rot1': 0, 'rot0': 425, 'rot3': 0, 'rot2': 0, 'depth': -0.14, 'yaw': -0.69, 'datetime': '2018-10-26 09:54:30.603843', 'mgs': 0, 'flw2': 1.28, 'flw1': 1.82, 'flw0': 1.2, 'time': 10.23, 'pitch': -24.01, 'roll': 46.24}
{'lipoC2': 8.16, 'temp': 25.69, 'lipoC3S3': 0.0, 'state': 'normal', 'rot1': 0, 'rot0': 425, 'rot3': 0, 'rot2': 0, 'depth': -0.14, 'yaw': -0.64, 'datetime': '2018-10-26 09:54:30.706465', 'mgs': 0, 'flw2': 1.27, 'flw1': 1.67, 'flw0': 1.17, 'time': 10.34, 'pitch': -24.0, 'roll': 46.23}
{'lipoC2': 8.16, 'temp': 25.69, 'lipoC3S3': 0.0, 'state': 'normal', 'rot1': 0, 'rot0': 425, 'rot3': 0, 'rot2': 0, 'depth': -0.217, 'yaw': -0.65, 'datetime': '2018-10-26 09:54:30.810971', 'mgs': 0, 'flw2': 1.31, 'flw1': 1.73, 'flw0': 1.23, 'time': 10.44, 'pitch': -24.03, 'roll': 46.22}
{'lipoC2': 8.16, 'temp': 25.69, 'lipoC3S3': 0.0, 'state': 'normal', 'rot1': 0, 'rot0': 425, 'rot3': 0, 'rot2': 0, 'depth': -0.14, 'yaw': -0.6, 'datetime': '2018-10-26 09:54:30.912126', 'mgs': 0, 'flw2': 1.26, 'flw1': 1.7, 'flw0': 1.17, 'time': 10.54, 'pitch': -24.0, 'roll': 46.23}
{'lipoC2': 8.16, 'temp': 25.69, 'lipoC3S3': 0.0, 'state': 'normal', 'rot1': 0, 'rot0': 425, 'rot3': 0, 'rot2': 0, 'depth': -0.217, 'yaw': -0.76, 'datetime': '2018-10-26 09:54:31.015038', 'mgs': 0, 'flw2': 1.23, 'flw1': 1.67, 'flw0': 1.21, 'time': 10.65, 'pitch': -24.03, 'roll': 46.26}
{'lipoC2': 8.16, 'temp': 25.75, 'lipoC3S3': 0.0, 'state': 'normal', 'rot1': 0, 'rot0': 425, 'rot3': 0, 'rot2': 0, 'depth': -0.14, 'yaw': -0.59, 'datetime': '2018-10-26 09:54:31.117969', 'mgs': 0, 'flw2': 1.32, 'flw1': 1.76, 'flw0': 1.22, 'time': 10.75, 'pitch': -24.01, 'roll': 46.23}
{'lipoC2': 8.16, 'temp': 25.75, 'lipoC3S3': 0.0, 'state': 'normal', 'rot1': 0, 'rot0': 425, 'rot3': 0, 'rot2': 0, 'depth': -0.14, 'yaw': -0.69, 'datetime': '2018-10-26 09:54:31.220405', 'mgs': 0, 'flw2': 1.26, 'flw1': 1.7, 'flw0': 1.21, 'time': 10.85, 'pitch': -24.04, 'roll': 46.26}
{'lipoC2': 8.16, 'temp': 25.75, 'lipoC3S3': 0.0, 'state': 'normal', 'rot1': 0, 'rot0': 425, 'rot3': 0, 'rot2': 0, 'depth': -0.14, 'yaw': -0.68, 'datetime': '2018-10-26 09:54:31.323059', 'mgs': 0, 'flw2': 1.27, 'flw1': 1.76, 'flw0': 1.21, 'time': 10.95, 'pitch': -24.03, 'roll': 46.3}
{'lipoC2': 8.16, 'temp': 25.75, 'lipoC3S3': 0.0, 'state': 'normal', 'rot1': 0, 'rot0': 425, 'rot3': 0, 'rot2': 0, 'depth': -0.217, 'yaw': -0.72, 'datetime': '2018-10-26 09:54:31.426075', 'mgs': 0, 'flw2': 1.29, 'flw1': 1.85, 'flw0': 1.18, 'time': 11.06, 'pitch': -24.05, 'roll': 46.27}
{'lipoC2': 8.16, 'temp': 25.69, 'lipoC3S3': 0.0, 'state': 'normal', 'rot1': 0, 'rot0': 425, 'rot3': 0, 'rot2': 0, 'depth': -0.14, 'yaw': -0.61, 'datetime': '2018-10-26 09:54:31.528725', 'mgs': 0, 'flw2': 1.28, 'flw1': 1.7, 'flw0': 1.2, 'time': 11.16, 'pitch': -24.03, 'roll': 46.26}
{'lipoC2': 8.17, 'temp': 25.69, 'lipoC3S3': 0.0, 'state': 'normal', 'rot1': 0, 'rot0': 425, 'rot3': 0, 'rot2': 0, 'depth': -0.064, 'yaw': -0.75, 'datetime': '2018-10-26 09:54:31.631837', 'mgs': 0, 'flw2': 1.27, 'flw1': 1.73, 'flw0': 1.21, 'time': 11.27, 'pitch': -24.07, 'roll': 46.3}
{'lipoC2': 8.16, 'temp': 25.69, 'lipoC3S3': 0.0, 'state': 'normal', 'rot1': 0, 'rot0': 425, 'rot3': 0, 'rot2': 0, 'depth': -0.14, 'yaw': -0.63, 'datetime': '2018-10-26 09:54:31.735871', 'mgs': 0, 'flw2': 1.26, 'flw1': 1.73, 'flw0': 1.22, 'time': 11.37, 'pitch': -24.04, 'roll': 46.25}
{'lipoC2': 8.16, 'temp': 25.69, 'lipoC3S3': 0.0, 'state': 'normal', 'rot1': 0, 'rot0': 425, 'rot3': 0, 'rot2': 0, 'depth': -0.14, 'yaw': -0.72, 'datetime': '2018-10-26 09:54:31.838514', 'mgs': 0, 'flw2': 1.26, 'flw1': 1.82, 'flw0': 1.18, 'time': 11.47, 'pitch': -24.04, 'roll': 46.26}
{'lipoC2': 8.16, 'temp': 25.69, 'lipoC3S3': 0.0, 'state': 'normal', 'rot1': 0, 'rot0': 425, 'rot3': 0, 'rot2': 0, 'depth': -0.217, 'yaw': -0.72, 'datetime': '2018-10-26 09:54:31.941208', 'mgs': 0, 'flw2': 1.27, 'flw1': 1.73, 'flw0': 1.2, 'time': 11.57, 'pitch': -24.06, 'roll': 46.31}
{'lipoC2': 8.16, 'temp': 25.75, 'lipoC3S3': 0.0, 'state': 'normal', 'rot1': 0, 'rot0': 425, 'rot3': 0, 'rot2': 0, 'depth': -0.14, 'yaw': -0.72, 'datetime': '2018-10-26 09:54:32.045222', 'mgs': 0, 'flw2': 1.31, 'flw1': 1.73, 'flw0': 1.21, 'time': 11.68, 'pitch': -24.06, 'roll': 46.28}
{'lipoC2': 8.16, 'temp': 25.75, 'lipoC3S3': 0.0, 'state': 'normal', 'rot1': 0, 'rot0': 425, 'rot3': 0, 'rot2': 0, 'depth': -0.064, 'yaw': -0.71, 'datetime': '2018-10-26 09:54:32.147972', 'mgs': 0, 'flw2': 1.33, 'flw1': 1.79, 'flw0': 1.16, 'time': 11.78, 'pitch': -24.05, 'roll': 46.27}
{'lipoC2': 8.17, 'temp': 25.69, 'lipoC3S3': 0.0, 'state': 'normal', 'rot1': 0, 'rot0': 425, 'rot3': 0, 'rot2': 0, 'depth': -0.14, 'yaw': -0.77, 'datetime': '2018-10-26 09:54:32.250678', 'mgs': 0, 'flw2': 1.27, 'flw1': 1.7, 'flw0': 1.22, 'time': 11.88, 'pitch': -24.09, 'roll': 46.33}
{'lipoC2': 8.17, 'temp': 25.69, 'lipoC3S3': 0.0, 'state': 'normal', 'rot1': 0, 'rot0': 425, 'rot3': 0, 'rot2': 0, 'depth': -0.14, 'yaw': -0.74, 'datetime': '2018-10-26 09:54:32.354890', 'mgs': 0, 'flw2': 1.26, 'flw1': 1.76, 'flw0': 1.22, 'time': 11.99, 'pitch': -24.07, 'roll': 46.3}
{'lipoC2': 8.16, 'temp': 25.69, 'lipoC3S3': 0.0, 'state': 'normal', 'rot1': 0, 'rot0': 425, 'rot3': 0, 'rot2': 0, 'depth': -0.064, 'yaw': -0.75, 'datetime': '2018-10-26 09:54:32.458394', 'mgs': 0, 'flw2': 1.31, 'flw1': 1.79, 'flw0': 1.17, 'time': 12.09, 'pitch': -24.06, 'roll': 46.29}
{'lipoC2': 8.17, 'temp': 25.75, 'lipoC3S3': 0.0, 'state': 'normal', 'rot1': 0, 'rot0': 425, 'rot3': 0, 'rot2': 0, 'depth': -0.217, 'yaw': -0.81, 'datetime': '2018-10-26 09:54:32.561074', 'mgs': 0, 'flw2': 1.28, 'flw1': 1.7, 'flw0': 1.22, 'time': 12.19, 'pitch': -24.07, 'roll': 46.31}
{'lipoC2': 8.16, 'temp': 25.75, 'lipoC3S3': 0.0, 'state': 'normal', 'rot1': 0, 'rot0': 425, 'rot3': 0, 'rot2': 0, 'depth': -0.14, 'yaw': -0.76, 'datetime': '2018-10-26 09:54:32.663688', 'mgs': 0, 'flw2': 1.29, 'flw1': 1.82, 'flw0': 1.2, 'time': 12.3, 'pitch': -24.08, 'roll': 46.31}
{'lipoC2': 8.17, 'temp': 25.75, 'lipoC3S3': 0.0, 'state': 'normal', 'rot1': 0, 'rot0': 425, 'rot3': 0, 'rot2': 0, 'depth': -0.14, 'yaw': -0.77, 'datetime': '2018-10-26 09:54:32.766405', 'mgs': 0, 'flw2': 1.23, 'flw1': 1.7, 'flw0': 1.18, 'time': 12.4, 'pitch': -24.07, 'roll': 46.29}
{'lipoC2': 8.17, 'temp': 25.75, 'lipoC3S3': 0.0, 'state': 'normal', 'rot1': 0, 'rot0': 425, 'rot3': 0, 'rot2': 0, 'depth': -0.217, 'yaw': -0.81, 'datetime': '2018-10-26 09:54:32.869356', 'mgs': 0, 'flw2': 1.23, 'flw1': 1.73, 'flw0': 1.22, 'time': 12.5, 'pitch': -24.09, 'roll': 46.33}
{'lipoC2': 8.16, 'temp': 25.69, 'lipoC3S3': 0.0, 'state': 'normal', 'rot1': 0, 'rot0': 425, 'rot3': 0, 'rot2': 0, 'depth': -0.064, 'yaw': -0.81, 'datetime': '2018-10-26 09:54:32.972068', 'mgs': 0, 'flw2': 1.34, 'flw1': 1.79, 'flw0': 1.17, 'time': 12.61, 'pitch': -24.1, 'roll': 46.33}
{'lipoC2': 8.16, 'temp': 25.69, 'lipoC3S3': 0.0, 'state': 'normal', 'rot1': 0, 'rot0': 425, 'rot3': 0, 'rot2': 0, 'depth': -0.217, 'yaw': -0.74, 'datetime': '2018-10-26 09:54:33.075050', 'mgs': 0, 'flw2': 1.33, 'flw1': 1.73, 'flw0': 1.16, 'time': 12.71, 'pitch': -24.07, 'roll': 46.3}
{'lipoC2': 8.16, 'temp': 25.69, 'lipoC3S3': 0.0, 'state': 'normal', 'rot1': 0, 'rot0': 425, 'rot3': 0, 'rot2': 0, 'depth': -0.217, 'yaw': -0.82, 'datetime': '2018-10-26 09:54:33.178985', 'mgs': 0, 'flw2': 1.27, 'flw1': 1.64, 'flw0': 1.17, 'time': 12.81, 'pitch': -24.08, 'roll': 46.32}
{'lipoC2': 8.16, 'temp': 25.75, 'lipoC3S3': 0.0, 'state': 'normal', 'rot1': 0, 'rot0': 425, 'rot3': 0, 'rot2': 0, 'depth': -0.14, 'yaw': -0.85, 'datetime': '2018-10-26 09:54:33.281775', 'mgs': 0, 'flw2': 1.25, 'flw1': 1.79, 'flw0': 1.22, 'time': 12.92, 'pitch': -24.1, 'roll': 46.32}
{'lipoC2': 8.17, 'temp': 25.75, 'lipoC3S3': 0.0, 'state': 'normal', 'rot1': 0, 'rot0': 425, 'rot3': 0, 'rot2': 0, 'depth': -0.14, 'yaw': -0.75, 'datetime': '2018-10-26 09:54:33.384424', 'mgs': 0, 'flw2': 1.31, 'flw1': 1.7, 'flw0': 1.17, 'time': 13.02, 'pitch': -24.09, 'roll': 46.28}
{'lipoC2': 8.17, 'temp': 25.75, 'lipoC3S3': 0.0, 'state': 'normal', 'rot1': 0, 'rot0': 425, 'rot3': 0, 'rot2': 0, 'depth': -0.14, 'yaw': -0.82, 'datetime': '2018-10-26 09:54:33.488415', 'mgs': 0, 'flw2': 1.27, 'flw1': 1.67, 'flw0': 1.18, 'time': 13.12, 'pitch': -24.09, 'roll': 46.31}
{'lipoC2': 8.17, 'temp': 25.75, 'lipoC3S3': 0.0, 'state': 'normal', 'rot1': 0, 'rot0': 425, 'rot3': 0, 'rot2': 0, 'depth': -0.217, 'yaw': -0.89, 'datetime': '2018-10-26 09:54:33.591738', 'mgs': 0, 'flw2': 1.28, 'flw1': 1.73, 'flw0': 1.2, 'time': 13.23, 'pitch': -24.1, 'roll': 46.35}
{'lipoC2': 8.17, 'temp': 25.75, 'lipoC3S3': 0.0, 'state': 'normal', 'rot1': 0, 'rot0': 425, 'rot3': 0, 'rot2': 0, 'depth': -0.14, 'yaw': -0.77, 'datetime': '2018-10-26 09:54:33.694118', 'mgs': 0, 'flw2': 1.32, 'flw1': 1.82, 'flw0': 1.21, 'time': 13.33, 'pitch': -24.08, 'roll': 46.31}
{'lipoC2': 8.17, 'temp': 25.69, 'lipoC3S3': 0.0, 'state': 'normal', 'rot1': 0, 'rot0': 425, 'rot3': 0, 'rot2': 0, 'depth': -0.14, 'yaw': -0.91, 'datetime': '2018-10-26 09:54:33.798099', 'mgs': 0, 'flw2': 1.22, 'flw1': 1.67, 'flw0': 1.17, 'time': 13.43, 'pitch': -24.11, 'roll': 46.36}
{'lipoC2': 8.17, 'temp': 25.69, 'lipoC3S3': 0.0, 'state': 'normal', 'rot1': 0, 'rot0': 425, 'rot3': 0, 'rot2': 0, 'depth': -0.064, 'yaw': -0.83, 'datetime': '2018-10-26 09:54:33.901638', 'mgs': 0, 'flw2': 1.28, 'flw1': 1.79, 'flw0': 1.2, 'time': 13.54, 'pitch': -24.1, 'roll': 46.35}
{'lipoC2': 8.16, 'temp': 25.75, 'lipoC3S3': 0.0, 'state': 'normal', 'rot1': 0, 'rot0': 425, 'rot3': 0, 'rot2': 0, 'depth': -0.14, 'yaw': -0.87, 'datetime': '2018-10-26 09:54:34.004318', 'mgs': 0, 'flw2': 1.35, 'flw1': 1.7, 'flw0': 1.16, 'time': 13.64, 'pitch': -24.09, 'roll': 46.32}
{'lipoC2': 8.16, 'temp': 25.75, 'lipoC3S3': 0.0, 'state': 'normal', 'rot1': 0, 'rot0': 425, 'rot3': 0, 'rot2': 0, 'depth': -0.14, 'yaw': -0.83, 'datetime': '2018-10-26 09:54:34.107722', 'mgs': 0, 'flw2': 1.34, 'flw1': 1.79, 'flw0': 1.2, 'time': 13.74, 'pitch': -24.08, 'roll': 46.36}
{'lipoC2': 8.16, 'temp': 25.75, 'lipoC3S3': 0.0, 'state': 'normal', 'rot1': 0, 'rot0': 425, 'rot3': 0, 'rot2': 0, 'depth': -0.14, 'yaw': -0.94, 'datetime': '2018-10-26 09:54:34.211714', 'mgs': 0, 'flw2': 1.28, 'flw1': 1.82, 'flw0': 1.15, 'time': 13.85, 'pitch': -24.1, 'roll': 46.36}
{'lipoC2': 8.16, 'temp': 25.75, 'lipoC3S3': 0.0, 'state': 'normal', 'rot1': 0, 'rot0': 425, 'rot3': 0, 'rot2': 0, 'depth': -0.14, 'yaw': -0.81, 'datetime': '2018-10-26 09:54:34.314351', 'mgs': 0, 'flw2': 1.23, 'flw1': 1.7, 'flw0': 1.18, 'time': 13.95, 'pitch': -24.05, 'roll': 46.34}
{'lipoC2': 8.16, 'temp': 25.75, 'lipoC3S3': 0.0, 'state': 'normal', 'rot1': 0, 'rot0': 425, 'rot3': 0, 'rot2': 0, 'depth': -0.14, 'yaw': -0.93, 'datetime': '2018-10-26 09:54:34.417119', 'mgs': 0, 'flw2': 1.32, 'flw1': 1.82, 'flw0': 1.21, 'time': 14.05, 'pitch': -24.07, 'roll': 46.34}
{'lipoC2': 8.17, 'temp': 25.75, 'lipoC3S3': 0.0, 'state': 'normal', 'rot1': 0, 'rot0': 425, 'rot3': 0, 'rot2': 0, 'depth': -0.14, 'yaw': -0.89, 'datetime': '2018-10-26 09:54:34.519798', 'mgs': 0, 'flw2': 1.27, 'flw1': 1.7, 'flw0': 1.18, 'time': 14.15, 'pitch': -24.07, 'roll': 46.38}
{'lipoC2': 8.16, 'temp': 25.75, 'lipoC3S3': 0.0, 'state': 'normal', 'rot1': 0, 'rot0': 425, 'rot3': 0, 'rot2': 0, 'depth': -0.14, 'yaw': -0.9, 'datetime': '2018-10-26 09:54:34.622391', 'mgs': 0, 'flw2': 1.29, 'flw1': 1.82, 'flw0': 1.2, 'time': 14.26, 'pitch': -24.04, 'roll': 46.29}
{'lipoC2': 8.16, 'temp': 25.69, 'lipoC3S3': 0.0, 'state': 'normal', 'rot1': 0, 'rot0': 425, 'rot3': 0, 'rot2': 0, 'depth': -0.14, 'yaw': -0.93, 'datetime': '2018-10-26 09:54:34.725162', 'mgs': 0, 'flw2': 1.25, 'flw1': 1.73, 'flw0': 1.18, 'time': 14.36, 'pitch': -24.05, 'roll': 46.32}
{'lipoC2': 8.16, 'temp': 25.69, 'lipoC3S3': 0.0, 'state': 'normal', 'rot1': 0, 'rot0': 425, 'rot3': 0, 'rot2': 0, 'depth': -0.14, 'yaw': -0.94, 'datetime': '2018-10-26 09:54:34.827844', 'mgs': 0, 'flw2': 1.33, 'flw1': 1.76, 'flw0': 1.22, 'time': 14.46, 'pitch': -24.06, 'roll': 46.3}
{'lipoC2': 8.16, 'temp': 25.75, 'lipoC3S3': 0.0, 'state': 'normal', 'rot1': 0, 'rot0': 425, 'rot3': 0, 'rot2': 0, 'depth': -0.14, 'yaw': -0.85, 'datetime': '2018-10-26 09:54:34.930561', 'mgs': 0, 'flw2': 1.22, 'flw1': 1.67, 'flw0': 1.18, 'time': 14.57, 'pitch': -24.06, 'roll': 46.29}
{'lipoC2': 8.16, 'temp': 25.75, 'lipoC3S3': 0.0, 'state': 'normal', 'rot1': 0, 'rot0': 425, 'rot3': 0, 'rot2': 0, 'depth': -0.217, 'yaw': -0.97, 'datetime': '2018-10-26 09:54:35.033209', 'mgs': 0, 'flw2': 1.28, 'flw1': 1.79, 'flw0': 1.21, 'time': 14.67, 'pitch': -24.07, 'roll': 46.29}
{'lipoC2': 8.17, 'temp': 25.75, 'lipoC3S3': 0.0, 'state': 'normal', 'rot1': 0, 'rot0': 425, 'rot3': 0, 'rot2': 0, 'depth': -0.14, 'yaw': -0.91, 'datetime': '2018-10-26 09:54:35.135947', 'mgs': 0, 'flw2': 1.27, 'flw1': 1.67, 'flw0': 1.18, 'time': 14.77, 'pitch': -24.06, 'roll': 46.31}
{'lipoC2': 8.16, 'temp': 25.75, 'lipoC3S3': 0.0, 'state': 'normal', 'rot1': 0, 'rot0': 425, 'rot3': 0, 'rot2': 0, 'depth': -0.14, 'yaw': -0.99, 'datetime': '2018-10-26 09:54:35.238682', 'mgs': 0, 'flw2': 1.28, 'flw1': 1.79, 'flw0': 1.22, 'time': 14.88, 'pitch': -24.1, 'roll': 46.3}
{'lipoC2': 8.16, 'temp': 25.75, 'lipoC3S3': 0.0, 'state': 'normal', 'rot1': 0, 'rot0': 425, 'rot3': 0, 'rot2': 0, 'depth': -0.14, 'yaw': -0.87, 'datetime': '2018-10-26 09:54:35.342183', 'mgs': 0, 'flw2': 1.22, 'flw1': 1.76, 'flw0': 1.21, 'time': 14.98, 'pitch': -24.05, 'roll': 46.29}
{'lipoC2': 8.17, 'temp': 25.75, 'lipoC3S3': 0.0, 'state': 'normal', 'rot1': 0, 'rot0': 425, 'rot3': 0, 'rot2': 0, 'depth': -0.14, 'yaw': -1.08, 'datetime': '2018-10-26 09:54:35.445514', 'mgs': 0, 'flw2': 1.31, 'flw1': 1.64, 'flw0': 1.2, 'time': 15.08, 'pitch': -24.09, 'roll': 46.35}
{'lipoC2': 8.17, 'temp': 25.75, 'lipoC3S3': 0.0, 'state': 'normal', 'rot1': 0, 'rot0': 425, 'rot3': 0, 'rot2': 0, 'depth': -0.14, 'yaw': -0.95, 'datetime': '2018-10-26 09:54:35.548347', 'mgs': 0, 'flw2': 1.28, 'flw1': 1.79, 'flw0': 1.21, 'time': 15.19, 'pitch': -24.07, 'roll': 46.3}
{'lipoC2': 8.16, 'temp': 25.69, 'lipoC3S3': 0.0, 'state': 'normal', 'rot1': 0, 'rot0': 425, 'rot3': 0, 'rot2': 0, 'depth': -0.14, 'yaw': -0.98, 'datetime': '2018-10-26 09:54:35.651511', 'mgs': 0, 'flw2': 1.25, 'flw1': 1.7, 'flw0': 1.21, 'time': 15.29, 'pitch': -24.09, 'roll': 46.29}
