{'lipoC2': 7.76, 'temp': 23.56, 'lipoC3S3': 11.71, 'rot1': 0, 'rot0': 0, 'rot3': 0, 'rot2': 0, 'state': 'normal', 'yaw': 0.0, 'datetime': '2018-10-12 14:09:43.711408', 'mgs': 0, 'depth': 1.843, 'time': 1.26, 'pitch': -2.12, 'roll': -8.29}
{'lipoC2': 7.76, 'temp': 23.56, 'lipoC3S3': 11.71, 'rot1': 0, 'rot0': 0, 'rot3': 0, 'rot2': 0, 'state': 'normal', 'yaw': -0.3, 'datetime': '2018-10-12 14:09:43.728995', 'mgs': 0, 'depth': 1.843, 'time': 1.36, 'pitch': -1.53, 'roll': -7.96}
{'lipoC2': 7.77, 'temp': 23.56, 'lipoC3S3': 11.69, 'rot1': 0, 'rot0': 0, 'rot3': 0, 'rot2': 0, 'state': 'normal', 'yaw': -0.46, 'datetime': '2018-10-12 14:09:43.746623', 'mgs': 0, 'depth': 1.843, 'time': 1.45, 'pitch': -0.87, 'roll': -7.87}
{'lipoC2': 7.77, 'temp': 23.56, 'lipoC3S3': 11.71, 'rot1': 0, 'rot0': 0, 'rot3': 0, 'rot2': 0, 'state': 'normal', 'yaw': -0.52, 'datetime': '2018-10-12 14:09:43.761940', 'mgs': 0, 'depth': 1.843, 'time': 1.55, 'pitch': -0.18, 'roll': -8.09}
{'lipoC2': 7.77, 'temp': 23.56, 'lipoC3S3': 11.71, 'rot1': 0, 'rot0': 0, 'rot3': 0, 'rot2': 0, 'state': 'normal', 'yaw': -0.6, 'datetime': '2018-10-12 14:09:43.769748', 'mgs': 0, 'depth': 1.843, 'time': 1.65, 'pitch': 0.49, 'roll': -8.27}
{'lipoC2': 7.77, 'temp': 23.56, 'lipoC3S3': 11.71, 'rot1': 0, 'rot0': 0, 'rot3': 0, 'rot2': 0, 'state': 'normal', 'yaw': -0.72, 'datetime': '2018-10-12 14:09:43.777426', 'mgs': 0, 'depth': 1.843, 'time': 1.75, 'pitch': 0.89, 'roll': -8.31}
{'lipoC2': 7.77, 'temp': 23.56, 'lipoC3S3': 11.71, 'rot1': 0, 'rot0': 0, 'rot3': 0, 'rot2': 0, 'state': 'normal', 'yaw': -0.86, 'datetime': '2018-10-12 14:09:43.784965', 'mgs': 0, 'depth': 1.843, 'time': 1.85, 'pitch': 0.93, 'roll': -8.22}
{'lipoC2': 7.76, 'temp': 23.56, 'lipoC3S3': 11.69, 'rot1': 0, 'rot0': 0, 'rot3': 0, 'rot2': 0, 'state': 'normal', 'yaw': -1.01, 'datetime': '2018-10-12 14:09:43.792629', 'mgs': 0, 'depth': 1.843, 'time': 1.94, 'pitch': 0.69, 'roll': -8.1}
{'lipoC2': 7.76, 'temp': 23.56, 'lipoC3S3': 11.71, 'rot1': 0, 'rot0': 0, 'rot3': 0, 'rot2': 0, 'state': 'normal', 'yaw': -1.12, 'datetime': '2018-10-12 14:09:43.800101', 'mgs': 0, 'depth': 1.92, 'time': 2.04, 'pitch': 0.27, 'roll': -8.1}
{'lipoC2': 7.77, 'temp': 23.56, 'lipoC3S3': 11.71, 'rot1': 0, 'rot0': 0, 'rot3': 0, 'rot2': 0, 'state': 'normal', 'yaw': -1.11, 'datetime': '2018-10-12 14:09:43.807768', 'mgs': 0, 'depth': 1.996, 'time': 2.14, 'pitch': -0.11, 'roll': -8.53}
{'lipoC2': 7.76, 'temp': 23.56, 'lipoC3S3': 11.71, 'rot1': 0, 'rot0': 0, 'rot3': 0, 'rot2': 0, 'state': 'normal', 'yaw': -1.05, 'datetime': '2018-10-12 14:09:43.815233', 'mgs': 0, 'depth': 1.92, 'time': 2.23, 'pitch': -0.35, 'roll': -9.02}
{'lipoC2': 7.76, 'temp': 23.56, 'lipoC3S3': 11.71, 'rot1': 0, 'rot0': 0, 'rot3': 0, 'rot2': 0, 'state': 'normal', 'yaw': -0.94, 'datetime': '2018-10-12 14:09:43.822896', 'mgs': 0, 'depth': 2.072, 'time': 2.33, 'pitch': -0.57, 'roll': -9.35}
{'lipoC2': 7.76, 'temp': 23.56, 'lipoC3S3': 11.71, 'rot1': 0, 'rot0': 0, 'rot3': 0, 'rot2': 0, 'state': 'normal', 'yaw': -0.91, 'datetime': '2018-10-12 14:09:43.830375', 'mgs': 0, 'depth': 1.996, 'time': 2.43, 'pitch': -0.81, 'roll': -9.48}
{'lipoC2': 7.77, 'temp': 23.56, 'lipoC3S3': 11.69, 'rot1': 0, 'rot0': 0, 'rot3': 0, 'rot2': 0, 'state': 'normal', 'yaw': -0.91, 'datetime': '2018-10-12 14:09:43.838022', 'mgs': 0, 'depth': 1.996, 'time': 2.53, 'pitch': -1.07, 'roll': -9.84}
{'lipoC2': 7.76, 'temp': 23.56, 'lipoC3S3': 11.71, 'rot1': 0, 'rot0': 0, 'rot3': 0, 'rot2': 0, 'state': 'normal', 'yaw': -0.89, 'datetime': '2018-10-12 14:09:43.863318', 'mgs': 0, 'depth': 2.072, 'time': 2.62, 'pitch': -1.28, 'roll': -10.27}
{'lipoC2': 7.77, 'temp': 23.56, 'lipoC3S3': 11.71, 'rot1': 0, 'rot0': 0, 'rot3': 0, 'rot2': 0, 'state': 'normal', 'yaw': -0.98, 'datetime': '2018-10-12 14:09:43.960390', 'mgs': 0, 'depth': 2.072, 'time': 2.72, 'pitch': -1.56, 'roll': -10.55}
{'lipoC2': 7.76, 'temp': 23.56, 'lipoC3S3': 11.71, 'rot1': 0, 'rot0': 0, 'rot3': 0, 'rot2': 0, 'state': 'normal', 'yaw': -1.16, 'datetime': '2018-10-12 14:09:44.057390', 'mgs': 0, 'depth': 2.072, 'time': 2.82, 'pitch': -1.79, 'roll': -10.63}
{'lipoC2': 7.77, 'temp': 23.56, 'lipoC3S3': 11.71, 'rot1': 0, 'rot0': 0, 'rot3': 0, 'rot2': 0, 'state': 'normal', 'yaw': -1.33, 'datetime': '2018-10-12 14:09:44.155851', 'mgs': 0, 'depth': 2.072, 'time': 2.91, 'pitch': -1.83, 'roll': -10.69}
{'lipoC2': 7.77, 'temp': 23.56, 'lipoC3S3': 11.71, 'rot1': 0, 'rot0': 0, 'rot3': 0, 'rot2': 0, 'state': 'normal', 'yaw': -1.54, 'datetime': '2018-10-12 14:09:44.254208', 'mgs': 0, 'depth': 1.996, 'time': 3.01, 'pitch': -1.71, 'roll': -10.82}
{'lipoC2': 7.76, 'temp': 23.56, 'lipoC3S3': 11.71, 'rot1': 0, 'rot0': 0, 'rot3': 0, 'rot2': 0, 'state': 'normal', 'yaw': -1.77, 'datetime': '2018-10-12 14:09:44.351192', 'mgs': 0, 'depth': 2.072, 'time': 3.11, 'pitch': -1.45, 'roll': -10.73}
{'lipoC2': 7.77, 'temp': 23.5, 'lipoC3S3': 11.71, 'rot1': 0, 'rot0': 0, 'rot3': 0, 'rot2': 0, 'state': 'normal', 'yaw': -2.07, 'datetime': '2018-10-12 14:09:44.448252', 'mgs': 0, 'depth': 1.996, 'time': 3.21, 'pitch': -1.16, 'roll': -10.54}
{'lipoC2': 7.76, 'temp': 23.5, 'lipoC3S3': 11.71, 'rot1': 0, 'rot0': 0, 'rot3': 0, 'rot2': 0, 'state': 'normal', 'yaw': -2.27, 'datetime': '2018-10-12 14:09:44.549434', 'mgs': 0, 'depth': 1.996, 'time': 3.31, 'pitch': -0.87, 'roll': -10.31}
{'lipoC2': 7.77, 'temp': 23.56, 'lipoC3S3': 11.71, 'rot1': 0, 'rot0': 0, 'rot3': 0, 'rot2': 0, 'state': 'normal', 'yaw': -2.43, 'datetime': '2018-10-12 14:09:44.647795', 'mgs': 0, 'depth': 1.996, 'time': 3.4, 'pitch': -0.53, 'roll': -10.03}
{'lipoC2': 7.77, 'temp': 23.56, 'lipoC3S3': 11.71, 'rot1': 0, 'rot0': 0, 'rot3': 0, 'rot2': 0, 'state': 'normal', 'yaw': -2.55, 'datetime': '2018-10-12 14:09:44.744915', 'mgs': 0, 'depth': 1.996, 'time': 3.5, 'pitch': -0.2, 'roll': -9.91}
{'lipoC2': 7.76, 'temp': 23.56, 'lipoC3S3': 11.71, 'rot1': 0, 'rot0': 0, 'rot3': 0, 'rot2': 0, 'state': 'normal', 'yaw': -2.61, 'datetime': '2018-10-12 14:09:44.842057', 'mgs': 0, 'depth': 1.92, 'time': 3.6, 'pitch': 0.19, 'roll': -9.87}
{'lipoC2': 7.77, 'temp': 23.63, 'lipoC3S3': 11.71, 'rot1': 0, 'rot0': 0, 'rot3': 0, 'rot2': 0, 'state': 'normal', 'yaw': -2.6, 'datetime': '2018-10-12 14:09:44.940144', 'mgs': 0, 'depth': 1.92, 'time': 3.7, 'pitch': 0.57, 'roll': -9.73}
{'lipoC2': 7.76, 'temp': 23.63, 'lipoC3S3': 11.71, 'rot1': 0, 'rot0': 0, 'rot3': 0, 'rot2': 0, 'state': 'normal', 'yaw': -2.52, 'datetime': '2018-10-12 14:09:45.037112', 'mgs': 0, 'depth': 1.92, 'time': 3.79, 'pitch': 1.02, 'roll': -9.71}
{'lipoC2': 7.77, 'temp': 23.56, 'lipoC3S3': 11.71, 'rot1': 0, 'rot0': 0, 'rot3': 0, 'rot2': 0, 'state': 'normal', 'yaw': -2.36, 'datetime': '2018-10-12 14:09:45.134215', 'mgs': 0, 'depth': 1.843, 'time': 3.89, 'pitch': 1.44, 'roll': -9.71}
{'lipoC2': 7.76, 'temp': 23.56, 'lipoC3S3': 11.71, 'rot1': 0, 'rot0': 0, 'rot3': 0, 'rot2': 0, 'state': 'normal', 'yaw': -2.17, 'datetime': '2018-10-12 14:09:45.231394', 'mgs': 0, 'depth': 1.843, 'time': 3.99, 'pitch': 1.69, 'roll': -9.7}
{'lipoC2': 7.77, 'temp': 23.56, 'lipoC3S3': 11.71, 'rot1': 0, 'rot0': 0, 'rot3': 0, 'rot2': 0, 'state': 'normal', 'yaw': -1.96, 'datetime': '2018-10-12 14:09:45.328424', 'mgs': 0, 'depth': 1.92, 'time': 4.09, 'pitch': 1.81, 'roll': -9.62}
{'lipoC2': 7.77, 'temp': 23.5, 'lipoC3S3': 11.71, 'rot1': 0, 'rot0': 0, 'rot3': 0, 'rot2': 0, 'state': 'normal', 'yaw': -1.71, 'datetime': '2018-10-12 14:09:45.425509', 'mgs': 0, 'depth': 1.843, 'time': 4.18, 'pitch': 1.82, 'roll': -9.48}
{'lipoC2': 7.77, 'temp': 23.5, 'lipoC3S3': 11.71, 'rot1': 0, 'rot0': 0, 'rot3': 0, 'rot2': 0, 'state': 'normal', 'yaw': -1.55, 'datetime': '2018-10-12 14:09:45.522449', 'mgs': 0, 'depth': 1.92, 'time': 4.28, 'pitch': 1.65, 'roll': -9.28}
{'lipoC2': 7.77, 'temp': 23.56, 'lipoC3S3': 11.71, 'rot1': 0, 'rot0': 0, 'rot3': 0, 'rot2': 0, 'state': 'normal', 'yaw': -1.31, 'datetime': '2018-10-12 14:09:45.619565', 'mgs': 0, 'depth': 1.843, 'time': 4.38, 'pitch': 1.4, 'roll': -9.03}
{'lipoC2': 7.76, 'temp': 23.56, 'lipoC3S3': 11.71, 'rot1': 0, 'rot0': 0, 'rot3': 0, 'rot2': 0, 'state': 'normal', 'yaw': -1.14, 'datetime': '2018-10-12 14:09:45.716612', 'mgs': 0, 'depth': 1.843, 'time': 4.47, 'pitch': 0.91, 'roll': -8.97}
{'lipoC2': 7.76, 'temp': 23.56, 'lipoC3S3': 11.71, 'rot1': 0, 'rot0': 0, 'rot3': 0, 'rot2': 0, 'state': 'normal', 'yaw': -1.05, 'datetime': '2018-10-12 14:09:45.813584', 'mgs': 0, 'depth': 1.843, 'time': 4.57, 'pitch': 0.27, 'roll': -9.19}
{'lipoC2': 7.77, 'temp': 23.5, 'lipoC3S3': 11.71, 'rot1': 0, 'rot0': 0, 'rot3': 0, 'rot2': 0, 'state': 'normal', 'yaw': -0.95, 'datetime': '2018-10-12 14:09:45.911997', 'mgs': 0, 'depth': 1.843, 'time': 4.67, 'pitch': -0.29, 'roll': -9.53}
{'lipoC2': 7.76, 'temp': 23.5, 'lipoC3S3': 11.71, 'rot1': 0, 'rot0': 0, 'rot3': 0, 'rot2': 0, 'state': 'normal', 'yaw': -0.82, 'datetime': '2018-10-12 14:09:46.010287', 'mgs': 0, 'depth': 1.843, 'time': 4.77, 'pitch': -0.84, 'roll': -9.9}
{'lipoC2': 7.77, 'temp': 23.56, 'lipoC3S3': 11.71, 'rot1': 0, 'rot0': 0, 'rot3': 0, 'rot2': 0, 'state': 'normal', 'yaw': -0.57, 'datetime': '2018-10-12 14:09:46.107289', 'mgs': 0, 'depth': 1.843, 'time': 4.87, 'pitch': -1.22, 'roll': -10.16}
{'lipoC2': 7.76, 'temp': 23.56, 'lipoC3S3': 11.71, 'rot1': 0, 'rot0': 0, 'rot3': 0, 'rot2': 0, 'state': 'normal', 'yaw': -0.28, 'datetime': '2018-10-12 14:09:46.204336', 'mgs': 0, 'depth': 1.843, 'time': 4.96, 'pitch': -1.46, 'roll': -10.35}
{'lipoC2': 7.76, 'temp': 23.56, 'lipoC3S3': 11.71, 'rot1': 0, 'rot0': 0, 'rot3': 0, 'rot2': 0, 'state': 'normal', 'yaw': -0.04, 'datetime': '2018-10-12 14:09:46.302350', 'mgs': 0, 'depth': 1.843, 'time': 5.06, 'pitch': -1.55, 'roll': -10.47}
{'lipoC2': 7.76, 'temp': 23.56, 'lipoC3S3': 11.71, 'rot1': 0, 'rot0': 0, 'rot3': 0, 'rot2': 0, 'state': 'normal', 'yaw': 0.03, 'datetime': '2018-10-12 14:09:46.400915', 'mgs': 0, 'depth': 1.92, 'time': 5.16, 'pitch': -1.51, 'roll': -10.61}
{'lipoC2': 7.76, 'temp': 23.56, 'lipoC3S3': 11.72, 'rot1': 0, 'rot0': 0, 'rot3': 0, 'rot2': 0, 'state': 'normal', 'yaw': -0.09, 'datetime': '2018-10-12 14:09:46.497786', 'mgs': 0, 'depth': 1.92, 'time': 5.26, 'pitch': -1.34, 'roll': -10.79}
{'lipoC2': 7.76, 'temp': 23.5, 'lipoC3S3': 11.71, 'rot1': 0, 'rot0': 0, 'rot3': 0, 'rot2': 0, 'state': 'normal', 'yaw': -0.4, 'datetime': '2018-10-12 14:09:46.594758', 'mgs': 0, 'depth': 1.843, 'time': 5.35, 'pitch': -1.01, 'roll': -11.11}
{'lipoC2': 7.76, 'temp': 23.5, 'lipoC3S3': 11.71, 'rot1': 0, 'rot0': 0, 'rot3': 0, 'rot2': 0, 'state': 'normal', 'yaw': -0.68, 'datetime': '2018-10-12 14:09:46.691876', 'mgs': 0, 'depth': 1.92, 'time': 5.45, 'pitch': -0.65, 'roll': -11.37}
{'lipoC2': 7.77, 'temp': 23.5, 'lipoC3S3': 11.71, 'rot1': 0, 'rot0': 0, 'rot3': 0, 'rot2': 0, 'state': 'normal', 'yaw': -0.91, 'datetime': '2018-10-12 14:09:46.788974', 'mgs': 0, 'depth': 1.843, 'time': 5.55, 'pitch': -0.27, 'roll': -11.26}
{'lipoC2': 7.76, 'temp': 23.56, 'lipoC3S3': 11.71, 'rot1': 0, 'rot0': 0, 'rot3': 0, 'rot2': 0, 'state': 'normal', 'yaw': -1.07, 'datetime': '2018-10-12 14:09:46.885966', 'mgs': 0, 'depth': 1.843, 'time': 5.64, 'pitch': 0.01, 'roll': -10.87}
{'lipoC2': 7.76, 'temp': 23.56, 'lipoC3S3': 11.71, 'rot1': 0, 'rot0': 0, 'rot3': 0, 'rot2': 0, 'state': 'normal', 'yaw': -1.26, 'datetime': '2018-10-12 14:09:46.983920', 'mgs': 0, 'depth': 1.92, 'time': 5.74, 'pitch': 0.16, 'roll': -10.55}
{'lipoC2': 7.77, 'temp': 23.56, 'lipoC3S3': 11.72, 'rot1': 0, 'rot0': 0, 'rot3': 0, 'rot2': 0, 'state': 'normal', 'yaw': -1.39, 'datetime': '2018-10-12 14:09:47.079881', 'mgs': 0, 'depth': 1.92, 'time': 5.84, 'pitch': 0.24, 'roll': -10.08}
{'lipoC2': 7.76, 'temp': 23.56, 'lipoC3S3': 11.71, 'rot1': 0, 'rot0': 0, 'rot3': 0, 'rot2': 0, 'state': 'normal', 'yaw': -1.4, 'datetime': '2018-10-12 14:09:47.176931', 'mgs': 0, 'depth': 1.843, 'time': 5.94, 'pitch': 0.28, 'roll': -9.53}
{'lipoC2': 7.77, 'temp': 23.56, 'lipoC3S3': 11.71, 'rot1': 0, 'rot0': 0, 'rot3': 0, 'rot2': 0, 'state': 'normal', 'yaw': -1.42, 'datetime': '2018-10-12 14:09:47.274533', 'mgs': 0, 'depth': 1.92, 'time': 6.03, 'pitch': 0.19, 'roll': -9.37}
{'lipoC2': 7.76, 'temp': 23.56, 'lipoC3S3': 11.71, 'rot1': 0, 'rot0': 0, 'rot3': 0, 'rot2': 0, 'state': 'normal', 'yaw': -1.23, 'datetime': '2018-10-12 14:09:47.371514', 'mgs': 0, 'depth': 1.92, 'time': 6.13, 'pitch': 0.12, 'roll': -9.43}
{'lipoC2': 7.77, 'temp': 23.56, 'lipoC3S3': 11.71, 'rot1': 0, 'rot0': 0, 'rot3': 0, 'rot2': 0, 'state': 'normal', 'yaw': -1.01, 'datetime': '2018-10-12 14:09:47.468726', 'mgs': 0, 'depth': 1.843, 'time': 6.23, 'pitch': -0.13, 'roll': -9.36}
{'lipoC2': 7.77, 'temp': 23.5, 'lipoC3S3': 11.71, 'rot1': 0, 'rot0': 0, 'rot3': 0, 'rot2': 0, 'state': 'normal', 'yaw': -0.73, 'datetime': '2018-10-12 14:09:47.565871', 'mgs': 0, 'depth': 1.843, 'time': 6.33, 'pitch': -0.46, 'roll': -9.23}
{'lipoC2': 7.77, 'temp': 23.5, 'lipoC3S3': 11.71, 'rot1': 0, 'rot0': 0, 'rot3': 0, 'rot2': 0, 'state': 'normal', 'yaw': -0.49, 'datetime': '2018-10-12 14:09:47.664168', 'mgs': 0, 'depth': 1.92, 'time': 6.42, 'pitch': -0.85, 'roll': -9.18}
{'lipoC2': 7.77, 'temp': 23.5, 'lipoC3S3': 11.71, 'rot1': 0, 'rot0': 0, 'rot3': 0, 'rot2': 0, 'state': 'normal', 'yaw': -0.22, 'datetime': '2018-10-12 14:09:47.761727', 'mgs': 0, 'depth': 1.843, 'time': 6.52, 'pitch': -1.29, 'roll': -9.19}
{'lipoC2': 7.76, 'temp': 23.5, 'lipoC3S3': 11.71, 'rot1': 0, 'rot0': 0, 'rot3': 0, 'rot2': 0, 'state': 'normal', 'yaw': 0.04, 'datetime': '2018-10-12 14:09:47.858915', 'mgs': 0, 'depth': 1.843, 'time': 6.62, 'pitch': -1.74, 'roll': -9.21}
{'lipoC2': 7.76, 'temp': 23.5, 'lipoC3S3': 11.72, 'rot1': 0, 'rot0': 0, 'rot3': 0, 'rot2': 0, 'state': 'normal', 'yaw': 0.27, 'datetime': '2018-10-12 14:09:47.956121', 'mgs': 0, 'depth': 1.843, 'time': 6.72, 'pitch': -2.11, 'roll': -9.2}
{'lipoC2': 7.76, 'temp': 23.56, 'lipoC3S3': 11.71, 'rot1': 0, 'rot0': 0, 'rot3': 0, 'rot2': 0, 'state': 'normal', 'yaw': 0.5, 'datetime': '2018-10-12 14:09:48.054404', 'mgs': 0, 'depth': 1.843, 'time': 6.81, 'pitch': -2.42, 'roll': -9.26}
{'lipoC2': 7.76, 'temp': 23.56, 'lipoC3S3': 11.71, 'rot1': 0, 'rot0': 0, 'rot3': 0, 'rot2': 0, 'state': 'normal', 'yaw': 0.74, 'datetime': '2018-10-12 14:09:48.152137', 'mgs': 0, 'depth': 1.843, 'time': 6.91, 'pitch': -2.56, 'roll': -9.48}
{'lipoC2': 7.76, 'temp': 23.56, 'lipoC3S3': 11.71, 'rot1': 0, 'rot0': 0, 'rot3': 0, 'rot2': 0, 'state': 'normal', 'yaw': 1.02, 'datetime': '2018-10-12 14:09:48.249168', 'mgs': 0, 'depth': 1.767, 'time': 7.01, 'pitch': -2.54, 'roll': -9.59}
{'lipoC2': 7.77, 'temp': 23.56, 'lipoC3S3': 11.71, 'rot1': 0, 'rot0': 0, 'rot3': 0, 'rot2': 0, 'state': 'normal', 'yaw': 1.15, 'datetime': '2018-10-12 14:09:48.346547', 'mgs': 0, 'depth': 1.843, 'time': 7.11, 'pitch': -2.54, 'roll': -9.66}
{'lipoC2': 7.76, 'temp': 23.56, 'lipoC3S3': 11.71, 'rot1': 0, 'rot0': 0, 'rot3': 0, 'rot2': 0, 'state': 'normal', 'yaw': 1.28, 'datetime': '2018-10-12 14:09:48.443990', 'mgs': 0, 'depth': 1.767, 'time': 7.2, 'pitch': -2.53, 'roll': -9.51}
{'lipoC2': 7.77, 'temp': 23.5, 'lipoC3S3': 11.72, 'rot1': 0, 'rot0': 0, 'rot3': 0, 'rot2': 0, 'state': 'normal', 'yaw': 1.36, 'datetime': '2018-10-12 14:09:48.540978', 'mgs': 0, 'depth': 1.767, 'time': 7.3, 'pitch': -2.49, 'roll': -9.37}
{'lipoC2': 7.76, 'temp': 23.5, 'lipoC3S3': 11.71, 'rot1': 0, 'rot0': 0, 'rot3': 0, 'rot2': 0, 'state': 'normal', 'yaw': 1.34, 'datetime': '2018-10-12 14:09:48.638007', 'mgs': 0, 'depth': 1.767, 'time': 7.4, 'pitch': -2.32, 'roll': -9.66}
{'lipoC2': 7.76, 'temp': 23.5, 'lipoC3S3': 11.71, 'rot1': 0, 'rot0': 0, 'rot3': 0, 'rot2': 0, 'state': 'normal', 'yaw': 1.35, 'datetime': '2018-10-12 14:09:48.735157', 'mgs': 0, 'depth': 1.767, 'time': 7.5, 'pitch': -2.02, 'roll': -10.07}
{'lipoC2': 7.77, 'temp': 23.56, 'lipoC3S3': 11.72, 'rot1': 0, 'rot0': 0, 'rot3': 0, 'rot2': 0, 'state': 'normal', 'yaw': 1.28, 'datetime': '2018-10-12 14:09:48.832041', 'mgs': 0, 'depth': 1.767, 'time': 7.59, 'pitch': -1.64, 'roll': -10.46}
{'lipoC2': 7.76, 'temp': 23.56, 'lipoC3S3': 11.72, 'rot1': 0, 'rot0': 0, 'rot3': 0, 'rot2': 0, 'state': 'normal', 'yaw': 1.06, 'datetime': '2018-10-12 14:09:48.929036', 'mgs': 0, 'depth': 1.767, 'time': 7.69, 'pitch': -1.24, 'roll': -10.81}
{'lipoC2': 7.77, 'temp': 23.56, 'lipoC3S3': 11.72, 'rot1': 0, 'rot0': 0, 'rot3': 0, 'rot2': 0, 'state': 'normal', 'yaw': 0.82, 'datetime': '2018-10-12 14:09:49.026156', 'mgs': 0, 'depth': 1.691, 'time': 7.79, 'pitch': -0.85, 'roll': -11.2}
{'lipoC2': 7.76, 'temp': 23.56, 'lipoC3S3': 11.71, 'rot1': 0, 'rot0': 0, 'rot3': 0, 'rot2': 0, 'state': 'normal', 'yaw': 0.57, 'datetime': '2018-10-12 14:09:49.123109', 'mgs': 0, 'depth': 1.767, 'time': 7.88, 'pitch': -0.48, 'roll': -11.88}
{'lipoC2': 7.76, 'temp': 23.56, 'lipoC3S3': 11.72, 'rot1': 0, 'rot0': 0, 'rot3': 0, 'rot2': 0, 'state': 'normal', 'yaw': 0.3, 'datetime': '2018-10-12 14:09:49.220378', 'mgs': 0, 'depth': 1.691, 'time': 7.98, 'pitch': -0.32, 'roll': -12.4}
{'lipoC2': 7.76, 'temp': 23.63, 'lipoC3S3': 11.71, 'rot1': 0, 'rot0': 0, 'rot3': 0, 'rot2': 0, 'state': 'normal', 'yaw': 0.13, 'datetime': '2018-10-12 14:09:49.323058', 'mgs': 0, 'depth': 1.767, 'time': 8.08, 'pitch': -0.3, 'roll': -12.54}
{'lipoC2': 7.76, 'temp': 23.63, 'lipoC3S3': 11.71, 'rot1': 0, 'rot0': 0, 'rot3': 0, 'rot2': 0, 'state': 'normal', 'yaw': -0.07, 'datetime': '2018-10-12 14:09:49.421511', 'mgs': 0, 'depth': 1.767, 'time': 8.18, 'pitch': -0.4, 'roll': -12.2}
{'lipoC2': 7.77, 'temp': 23.56, 'lipoC3S3': 11.71, 'rot1': 0, 'rot0': 0, 'rot3': 0, 'rot2': 0, 'state': 'normal', 'yaw': -0.21, 'datetime': '2018-10-12 14:09:49.519138', 'mgs': 0, 'depth': 1.691, 'time': 8.27, 'pitch': -0.52, 'roll': -11.75}
{'lipoC2': 7.77, 'temp': 23.56, 'lipoC3S3': 11.71, 'rot1': 0, 'rot0': 0, 'rot3': 0, 'rot2': 0, 'state': 'normal', 'yaw': -0.07, 'datetime': '2018-10-12 14:09:49.616040', 'mgs': 0, 'depth': 1.767, 'time': 8.37, 'pitch': -0.39, 'roll': -11.76}
{'lipoC2': 7.76, 'temp': 23.56, 'lipoC3S3': 11.71, 'rot1': 0, 'rot0': 0, 'rot3': 0, 'rot2': 0, 'state': 'normal', 'yaw': 0.08, 'datetime': '2018-10-12 14:09:49.713732', 'mgs': 0, 'depth': 1.767, 'time': 8.47, 'pitch': -0.22, 'roll': -11.8}
{'lipoC2': 7.76, 'temp': 23.56, 'lipoC3S3': 11.71, 'rot1': 0, 'rot0': 0, 'rot3': 0, 'rot2': 0, 'state': 'normal', 'yaw': 0.16, 'datetime': '2018-10-12 14:09:49.812154', 'mgs': 0, 'depth': 1.767, 'time': 8.57, 'pitch': -0.18, 'roll': -11.62}
{'lipoC2': 7.76, 'temp': 23.56, 'lipoC3S3': 11.72, 'rot1': 0, 'rot0': 0, 'rot3': 0, 'rot2': 0, 'state': 'normal', 'yaw': 0.13, 'datetime': '2018-10-12 14:09:49.909292', 'mgs': 0, 'depth': 1.767, 'time': 8.67, 'pitch': -0.08, 'roll': -11.5}
{'lipoC2': 7.76, 'temp': 23.56, 'lipoC3S3': 11.71, 'rot1': 0, 'rot0': 0, 'rot3': 0, 'rot2': 0, 'state': 'normal', 'yaw': 0.02, 'datetime': '2018-10-12 14:09:50.006278', 'mgs': 0, 'depth': 1.691, 'time': 8.76, 'pitch': 0.15, 'roll': -11.53}
{'lipoC2': 7.77, 'temp': 23.56, 'lipoC3S3': 11.72, 'rot1': 0, 'rot0': 0, 'rot3': 0, 'rot2': 0, 'state': 'normal', 'yaw': -0.11, 'datetime': '2018-10-12 14:09:50.104216', 'mgs': 0, 'depth': 1.767, 'time': 8.86, 'pitch': 0.46, 'roll': -11.54}
{'lipoC2': 7.77, 'temp': 23.56, 'lipoC3S3': 11.71, 'rot1': 0, 'rot0': 0, 'rot3': 0, 'rot2': 0, 'state': 'normal', 'yaw': -0.33, 'datetime': '2018-10-12 14:09:50.201102', 'mgs': 0, 'depth': 1.767, 'time': 8.96, 'pitch': 0.67, 'roll': -11.51}
{'lipoC2': 7.77, 'temp': 23.56, 'lipoC3S3': 11.71, 'rot1': 0, 'rot0': 0, 'rot3': 0, 'rot2': 0, 'state': 'normal', 'yaw': -0.46, 'datetime': '2018-10-12 14:09:50.298087', 'mgs': 0, 'depth': 1.691, 'time': 9.06, 'pitch': 0.81, 'roll': -11.46}
{'lipoC2': 7.76, 'temp': 23.56, 'lipoC3S3': 11.71, 'rot1': 0, 'rot0': 0, 'rot3': 0, 'rot2': 0, 'state': 'normal', 'yaw': -0.49, 'datetime': '2018-10-12 14:09:50.395208', 'mgs': 0, 'depth': 1.767, 'time': 9.15, 'pitch': 0.91, 'roll': -11.43}
{'lipoC2': 7.76, 'temp': 23.56, 'lipoC3S3': 11.71, 'rot1': 0, 'rot0': 0, 'rot3': 0, 'rot2': 0, 'state': 'normal', 'yaw': -0.52, 'datetime': '2018-10-12 14:09:50.492973', 'mgs': 0, 'depth': 1.767, 'time': 9.25, 'pitch': 0.93, 'roll': -11.48}
{'lipoC2': 7.76, 'temp': 23.56, 'lipoC3S3': 11.72, 'rot1': 0, 'rot0': 0, 'rot3': 0, 'rot2': 0, 'state': 'normal', 'yaw': -0.51, 'datetime': '2018-10-12 14:09:50.589240', 'mgs': 0, 'depth': 1.767, 'time': 9.35, 'pitch': 0.98, 'roll': -11.9}
{'lipoC2': 7.76, 'temp': 23.56, 'lipoC3S3': 11.72, 'rot1': 0, 'rot0': 0, 'rot3': 0, 'rot2': 0, 'state': 'normal', 'yaw': -0.42, 'datetime': '2018-10-12 14:09:50.686227', 'mgs': 0, 'depth': 1.843, 'time': 9.44, 'pitch': 1.12, 'roll': -12.24}
{'lipoC2': 7.77, 'temp': 23.56, 'lipoC3S3': 11.71, 'rot1': 0, 'rot0': 0, 'rot3': 0, 'rot2': 0, 'state': 'normal', 'yaw': -0.41, 'datetime': '2018-10-12 14:09:50.783327', 'mgs': 0, 'depth': 1.767, 'time': 9.54, 'pitch': 1.14, 'roll': -12.44}
{'lipoC2': 7.77, 'temp': 23.56, 'lipoC3S3': 11.71, 'rot1': 0, 'rot0': 0, 'rot3': 0, 'rot2': 0, 'state': 'normal', 'yaw': -0.41, 'datetime': '2018-10-12 14:09:50.880443', 'mgs': 0, 'depth': 1.843, 'time': 9.64, 'pitch': 1.14, 'roll': -12.94}
{'lipoC2': 7.77, 'temp': 23.56, 'lipoC3S3': 11.71, 'rot1': 0, 'rot0': 0, 'rot3': 0, 'rot2': 0, 'state': 'normal', 'yaw': -0.33, 'datetime': '2018-10-12 14:09:50.977285', 'mgs': 0, 'depth': 1.843, 'time': 9.74, 'pitch': 1.13, 'roll': -13.24}
{'lipoC2': 7.76, 'temp': 23.56, 'lipoC3S3': 11.71, 'rot1': 0, 'rot0': 0, 'rot3': 0, 'rot2': 0, 'state': 'normal', 'yaw': -0.31, 'datetime': '2018-10-12 14:09:51.075804', 'mgs': 0, 'depth': 1.843, 'time': 9.83, 'pitch': 0.9, 'roll': -13.44}
{'lipoC2': 7.76, 'temp': 23.56, 'lipoC3S3': 11.72, 'rot1': 0, 'rot0': 0, 'rot3': 0, 'rot2': 0, 'state': 'normal', 'yaw': -0.38, 'datetime': '2018-10-12 14:09:51.174041', 'mgs': 0, 'depth': 1.843, 'time': 9.93, 'pitch': 0.44, 'roll': -13.76}
{'lipoC2': 7.77, 'temp': 23.56, 'lipoC3S3': 11.72, 'rot1': 0, 'rot0': 0, 'rot3': 0, 'rot2': 0, 'state': 'normal', 'yaw': -0.47, 'datetime': '2018-10-12 14:09:51.271083', 'mgs': 0, 'depth': 1.767, 'time': 10.03, 'pitch': -0.06, 'roll': -14.28}
{'lipoC2': 7.76, 'temp': 23.56, 'lipoC3S3': 11.72, 'rot1': 0, 'rot0': 0, 'rot3': 0, 'rot2': 0, 'state': 'normal', 'yaw': -0.59, 'datetime': '2018-10-12 14:09:51.368027', 'mgs': 0, 'depth': 1.843, 'time': 10.13, 'pitch': -0.57, 'roll': -14.72}
{'lipoC2': 7.77, 'temp': 23.56, 'lipoC3S3': 11.71, 'rot1': 0, 'rot0': 0, 'rot3': 0, 'rot2': 0, 'state': 'normal', 'yaw': -0.65, 'datetime': '2018-10-12 14:09:51.466143', 'mgs': 0, 'depth': 1.767, 'time': 10.23, 'pitch': -0.87, 'roll': -14.89}
{'lipoC2': 7.76, 'temp': 23.56, 'lipoC3S3': 11.71, 'rot1': 0, 'rot0': 0, 'rot3': 0, 'rot2': 0, 'state': 'normal', 'yaw': -0.64, 'datetime': '2018-10-12 14:09:51.564583', 'mgs': 0, 'depth': 1.843, 'time': 10.32, 'pitch': -1.01, 'roll': -14.81}
{'lipoC2': 7.76, 'temp': 23.56, 'lipoC3S3': 11.71, 'rot1': 0, 'rot0': 0, 'rot3': 0, 'rot2': 0, 'state': 'normal', 'yaw': -0.63, 'datetime': '2018-10-12 14:09:51.661653', 'mgs': 0, 'depth': 1.843, 'time': 10.42, 'pitch': -0.99, 'roll': -14.74}
{'lipoC2': 7.76, 'temp': 23.56, 'lipoC3S3': 11.71, 'rot1': 0, 'rot0': 0, 'rot3': 0, 'rot2': 0, 'state': 'normal', 'yaw': -0.67, 'datetime': '2018-10-12 14:09:51.758938', 'mgs': 0, 'depth': 1.843, 'time': 10.52, 'pitch': -0.87, 'roll': -14.81}
{'lipoC2': 7.77, 'temp': 23.56, 'lipoC3S3': 11.72, 'rot1': 0, 'rot0': 0, 'rot3': 0, 'rot2': 0, 'state': 'normal', 'yaw': -0.72, 'datetime': '2018-10-12 14:09:51.851586', 'mgs': 0, 'depth': 1.843, 'time': 10.61, 'pitch': -0.7, 'roll': -14.77}
{'lipoC2': 7.76, 'temp': 23.56, 'lipoC3S3': 11.72, 'rot1': 0, 'rot0': 0, 'rot3': 0, 'rot2': 0, 'state': 'normal', 'yaw': -0.85, 'datetime': '2018-10-12 14:09:51.948490', 'mgs': 0, 'depth': 1.843, 'time': 10.71, 'pitch': -0.57, 'roll': -14.6}
{'lipoC2': 7.77, 'temp': 23.56, 'lipoC3S3': 11.71, 'rot1': 0, 'rot0': 0, 'rot3': 0, 'rot2': 0, 'state': 'normal', 'yaw': -1.1, 'datetime': '2018-10-12 14:09:52.045518', 'mgs': 0, 'depth': 1.843, 'time': 10.81, 'pitch': -0.52, 'roll': -14.41}
{'lipoC2': 7.77, 'temp': 23.5, 'lipoC3S3': 11.71, 'rot1': 0, 'rot0': 0, 'rot3': 0, 'rot2': 0, 'state': 'normal', 'yaw': -1.37, 'datetime': '2018-10-12 14:09:52.142675', 'mgs': 0, 'depth': 1.843, 'time': 10.91, 'pitch': -0.44, 'roll': -14.27}
{'lipoC2': 7.76, 'temp': 23.5, 'lipoC3S3': 11.72, 'rot1': 0, 'rot0': 0, 'rot3': 0, 'rot2': 0, 'state': 'normal', 'yaw': -1.72, 'datetime': '2018-10-12 14:09:52.239803', 'mgs': 0, 'depth': 1.843, 'time': 11.0, 'pitch': -0.32, 'roll': -14.06}
{'lipoC2': 7.76, 'temp': 23.5, 'lipoC3S3': 11.72, 'rot1': 0, 'rot0': 0, 'rot3': 0, 'rot2': 0, 'state': 'normal', 'yaw': -2.06, 'datetime': '2018-10-12 14:09:52.336825', 'mgs': 0, 'depth': 1.843, 'time': 11.1, 'pitch': -0.24, 'roll': -13.95}
{'lipoC2': 7.76, 'temp': 23.56, 'lipoC3S3': 11.72, 'rot1': 0, 'rot0': 0, 'rot3': 0, 'rot2': 0, 'state': 'normal', 'yaw': -2.42, 'datetime': '2018-10-12 14:09:52.438820', 'mgs': 0, 'depth': 1.843, 'time': 11.2, 'pitch': -0.26, 'roll': -13.95}
{'lipoC2': 7.76, 'temp': 23.56, 'lipoC3S3': 11.72, 'rot1': 0, 'rot0': 0, 'rot3': 0, 'rot2': 0, 'state': 'normal', 'yaw': -2.78, 'datetime': '2018-10-12 14:09:52.535797', 'mgs': 0, 'depth': 1.843, 'time': 11.3, 'pitch': -0.33, 'roll': -13.81}
{'lipoC2': 7.76, 'temp': 23.56, 'lipoC3S3': 11.72, 'rot1': 0, 'rot0': 0, 'rot3': 0, 'rot2': 0, 'state': 'normal', 'yaw': -3.17, 'datetime': '2018-10-12 14:09:52.632781', 'mgs': 0, 'depth': 1.767, 'time': 11.39, 'pitch': -0.33, 'roll': -13.46}
{'lipoC2': 7.76, 'temp': 23.56, 'lipoC3S3': 11.72, 'rot1': 0, 'rot0': 0, 'rot3': 0, 'rot2': 0, 'state': 'normal', 'yaw': -3.45, 'datetime': '2018-10-12 14:09:52.729746', 'mgs': 0, 'depth': 1.843, 'time': 11.49, 'pitch': -0.22, 'roll': -13.02}
{'lipoC2': 7.77, 'temp': 23.56, 'lipoC3S3': 11.72, 'rot1': 0, 'rot0': 0, 'rot3': 0, 'rot2': 0, 'state': 'normal', 'yaw': -3.53, 'datetime': '2018-10-12 14:09:52.828118', 'mgs': 0, 'depth': 1.767, 'time': 11.59, 'pitch': -0.09, 'roll': -12.69}
{'lipoC2': 7.77, 'temp': 23.56, 'lipoC3S3': 11.72, 'rot1': 0, 'rot0': 0, 'rot3': 0, 'rot2': 0, 'state': 'normal', 'yaw': -3.56, 'datetime': '2018-10-12 14:09:52.926401', 'mgs': 0, 'depth': 1.691, 'time': 11.69, 'pitch': -0.07, 'roll': -12.43}
{'lipoC2': 7.77, 'temp': 23.56, 'lipoC3S3': 11.72, 'rot1': 0, 'rot0': 0, 'rot3': 0, 'rot2': 0, 'state': 'normal', 'yaw': -3.63, 'datetime': '2018-10-12 14:09:53.023499', 'mgs': 0, 'depth': 1.843, 'time': 11.78, 'pitch': -0.21, 'roll': -12.02}
{'lipoC2': 7.76, 'temp': 23.56, 'lipoC3S3': 11.72, 'rot1': 0, 'rot0': 0, 'rot3': 0, 'rot2': 0, 'state': 'normal', 'yaw': -3.68, 'datetime': '2018-10-12 14:09:53.120501', 'mgs': 0, 'depth': 1.767, 'time': 11.88, 'pitch': -0.47, 'roll': -11.51}
{'lipoC2': 7.77, 'temp': 23.56, 'lipoC3S3': 11.72, 'rot1': 0, 'rot0': 0, 'rot3': 0, 'rot2': 0, 'state': 'normal', 'yaw': -3.68, 'datetime': '2018-10-12 14:09:53.218756', 'mgs': 0, 'depth': 1.691, 'time': 11.98, 'pitch': -0.75, 'roll': -11.36}
{'lipoC2': 7.76, 'temp': 23.56, 'lipoC3S3': 11.71, 'rot1': 0, 'rot0': 0, 'rot3': 0, 'rot2': 0, 'state': 'normal', 'yaw': -3.64, 'datetime': '2018-10-12 14:09:53.317088', 'mgs': 0, 'depth': 1.767, 'time': 12.08, 'pitch': -1.03, 'roll': -11.37}
{'lipoC2': 7.76, 'temp': 23.56, 'lipoC3S3': 11.71, 'rot1': 0, 'rot0': 0, 'rot3': 0, 'rot2': 0, 'state': 'normal', 'yaw': -3.6, 'datetime': '2018-10-12 14:09:53.414241', 'mgs': 0, 'depth': 1.843, 'time': 12.18, 'pitch': -1.24, 'roll': -11.38}
{'lipoC2': 7.77, 'temp': 23.56, 'lipoC3S3': 11.71, 'rot1': 0, 'rot0': 0, 'rot3': 0, 'rot2': 0, 'state': 'normal', 'yaw': -3.56, 'datetime': '2018-10-12 14:09:53.511170', 'mgs': 0, 'depth': 1.767, 'time': 12.27, 'pitch': -1.42, 'roll': -11.41}
{'lipoC2': 7.77, 'temp': 23.5, 'lipoC3S3': 11.72, 'rot1': 0, 'rot0': 0, 'rot3': 0, 'rot2': 0, 'state': 'normal', 'yaw': -3.54, 'datetime': '2018-10-12 14:09:53.609456', 'mgs': 0, 'depth': 1.767, 'time': 12.37, 'pitch': -1.56, 'roll': -11.52}
{'lipoC2': 7.76, 'temp': 23.5, 'lipoC3S3': 11.71, 'rot1': 0, 'rot0': 0, 'rot3': 0, 'rot2': 0, 'state': 'normal', 'yaw': -3.52, 'datetime': '2018-10-12 14:09:53.707731', 'mgs': 0, 'depth': 1.767, 'time': 12.47, 'pitch': -1.64, 'roll': -11.62}
{'lipoC2': 7.77, 'temp': 23.5, 'lipoC3S3': 11.71, 'rot1': 0, 'rot0': 0, 'rot3': 0, 'rot2': 0, 'state': 'normal', 'yaw': -3.42, 'datetime': '2018-10-12 14:09:53.804883', 'mgs': 0, 'depth': 1.843, 'time': 12.57, 'pitch': -1.64, 'roll': -11.6}
{'lipoC2': 7.76, 'temp': 23.5, 'lipoC3S3': 11.72, 'rot1': 0, 'rot0': 0, 'rot3': 0, 'rot2': 0, 'state': 'normal', 'yaw': -3.35, 'datetime': '2018-10-12 14:09:53.902071', 'mgs': 0, 'depth': 1.843, 'time': 12.66, 'pitch': -1.65, 'roll': -11.5}
{'lipoC2': 7.76, 'temp': 23.5, 'lipoC3S3': 11.71, 'rot1': 0, 'rot0': 0, 'rot3': 0, 'rot2': 0, 'state': 'normal', 'yaw': -3.34, 'datetime': '2018-10-12 14:09:53.995310', 'mgs': 0, 'depth': 1.843, 'time': 12.76, 'pitch': -1.75, 'roll': -11.54}
{'lipoC2': 7.77, 'temp': 23.63, 'lipoC3S3': 11.72, 'rot1': 0, 'rot0': 0, 'rot3': 0, 'rot2': 0, 'state': 'normal', 'yaw': -3.29, 'datetime': '2018-10-12 14:09:54.092401', 'mgs': 0, 'depth': 1.843, 'time': 12.86, 'pitch': -1.87, 'roll': -11.54}
{'lipoC2': 7.76, 'temp': 23.63, 'lipoC3S3': 11.72, 'rot1': 0, 'rot0': 0, 'rot3': 0, 'rot2': 0, 'state': 'normal', 'yaw': -3.15, 'datetime': '2018-10-12 14:09:54.189483', 'mgs': 0, 'depth': 1.767, 'time': 12.96, 'pitch': -1.95, 'roll': -11.36}
{'lipoC2': 7.76, 'temp': 23.63, 'lipoC3S3': 11.72, 'rot1': 0, 'rot0': 0, 'rot3': 0, 'rot2': 0, 'state': 'normal', 'yaw': -3.05, 'datetime': '2018-10-12 14:09:54.286823', 'mgs': 0, 'depth': 1.767, 'time': 13.05, 'pitch': -2.01, 'roll': -11.28}
{'lipoC2': 7.77, 'temp': 23.56, 'lipoC3S3': 11.72, 'rot1': 0, 'rot0': 0, 'rot3': 0, 'rot2': 0, 'state': 'normal', 'yaw': -3.02, 'datetime': '2018-10-12 14:09:54.383811', 'mgs': 0, 'depth': 1.767, 'time': 13.15, 'pitch': -2.03, 'roll': -11.31}
{'lipoC2': 7.77, 'temp': 23.56, 'lipoC3S3': 11.72, 'rot1': 0, 'rot0': 0, 'rot3': 0, 'rot2': 0, 'state': 'normal', 'yaw': -2.98, 'datetime': '2018-10-12 14:09:54.480831', 'mgs': 0, 'depth': 1.843, 'time': 13.25, 'pitch': -2.0, 'roll': -11.41}
{'lipoC2': 7.77, 'temp': 23.5, 'lipoC3S3': 11.72, 'rot1': 0, 'rot0': 0, 'rot3': 0, 'rot2': 0, 'state': 'normal', 'yaw': -2.91, 'datetime': '2018-10-12 14:09:54.577974', 'mgs': 0, 'depth': 1.767, 'time': 13.34, 'pitch': -1.87, 'roll': -11.64}
{'lipoC2': 7.77, 'temp': 23.5, 'lipoC3S3': 11.72, 'rot1': 0, 'rot0': 0, 'rot3': 0, 'rot2': 0, 'state': 'normal', 'yaw': -2.93, 'datetime': '2018-10-12 14:09:54.676346', 'mgs': 0, 'depth': 1.767, 'time': 13.44, 'pitch': -1.71, 'roll': -11.88}
{'lipoC2': 7.76, 'temp': 23.5, 'lipoC3S3': 11.71, 'rot1': 0, 'rot0': 0, 'rot3': 0, 'rot2': 0, 'state': 'normal', 'yaw': -2.97, 'datetime': '2018-10-12 14:09:54.774117', 'mgs': 0, 'depth': 1.843, 'time': 13.54, 'pitch': -1.54, 'roll': -12.13}
{'lipoC2': 7.76, 'temp': 23.56, 'lipoC3S3': 11.72, 'rot1': 0, 'rot0': 0, 'rot3': 0, 'rot2': 0, 'state': 'normal', 'yaw': -3.01, 'datetime': '2018-10-12 14:09:54.871180', 'mgs': 0, 'depth': 1.843, 'time': 13.64, 'pitch': -1.38, 'roll': -12.24}
{'lipoC2': 7.76, 'temp': 23.56, 'lipoC3S3': 11.72, 'rot1': 0, 'rot0': 0, 'rot3': 0, 'rot2': 0, 'state': 'normal', 'yaw': -3.04, 'datetime': '2018-10-12 14:09:54.973118', 'mgs': 0, 'depth': 1.843, 'time': 13.73, 'pitch': -1.25, 'roll': -12.28}
{'lipoC2': 7.76, 'temp': 23.56, 'lipoC3S3': 11.72, 'rot1': 0, 'rot0': 0, 'rot3': 0, 'rot2': 0, 'state': 'normal', 'yaw': -3.06, 'datetime': '2018-10-12 14:09:55.071442', 'mgs': 0, 'depth': 1.843, 'time': 13.83, 'pitch': -1.14, 'roll': -12.3}
{'lipoC2': 7.76, 'temp': 23.56, 'lipoC3S3': 11.72, 'rot1': 0, 'rot0': 0, 'rot3': 0, 'rot2': 0, 'state': 'normal', 'yaw': -3.11, 'datetime': '2018-10-12 14:09:55.169815', 'mgs': 0, 'depth': 1.843, 'time': 13.93, 'pitch': -1.06, 'roll': -12.32}
{'lipoC2': 7.76, 'temp': 23.56, 'lipoC3S3': 11.72, 'rot1': 0, 'rot0': 0, 'rot3': 0, 'rot2': 0, 'state': 'normal', 'yaw': -3.18, 'datetime': '2018-10-12 14:09:55.266794', 'mgs': 0, 'depth': 1.767, 'time': 14.03, 'pitch': -0.93, 'roll': -12.2}
{'lipoC2': 7.76, 'temp': 23.5, 'lipoC3S3': 11.72, 'rot1': 0, 'rot0': 0, 'rot3': 0, 'rot2': 0, 'state': 'normal', 'yaw': -3.23, 'datetime': '2018-10-12 14:09:55.364117', 'mgs': 0, 'depth': 1.767, 'time': 14.13, 'pitch': -0.7, 'roll': -12.07}
{'lipoC2': 7.76, 'temp': 23.5, 'lipoC3S3': 11.72, 'rot1': 0, 'rot0': 0, 'rot3': 0, 'rot2': 0, 'state': 'normal', 'yaw': -3.28, 'datetime': '2018-10-12 14:09:55.462188', 'mgs': 0, 'depth': 1.767, 'time': 14.23, 'pitch': -0.48, 'roll': -12.06}
{'lipoC2': 7.76, 'temp': 23.56, 'lipoC3S3': 11.72, 'rot1': 0, 'rot0': 0, 'rot3': 0, 'rot2': 0, 'state': 'normal', 'yaw': -3.33, 'datetime': '2018-10-12 14:09:55.559035', 'mgs': 0, 'depth': 1.767, 'time': 14.32, 'pitch': -0.26, 'roll': -12.12}
{'lipoC2': 7.77, 'temp': 23.56, 'lipoC3S3': 11.72, 'rot1': 0, 'rot0': 0, 'rot3': 0, 'rot2': 0, 'state': 'normal', 'yaw': -3.36, 'datetime': '2018-10-12 14:09:55.656133', 'mgs': 0, 'depth': 1.767, 'time': 14.42, 'pitch': -0.05, 'roll': -12.21}
{'lipoC2': 7.76, 'temp': 23.56, 'lipoC3S3': 11.72, 'rot1': 0, 'rot0': 0, 'rot3': 0, 'rot2': 0, 'state': 'normal', 'yaw': -3.33, 'datetime': '2018-10-12 14:09:55.753429', 'mgs': 0, 'depth': 1.843, 'time': 14.52, 'pitch': 0.11, 'roll': -12.29}
{'lipoC2': 7.76, 'temp': 23.56, 'lipoC3S3': 11.72, 'rot1': 0, 'rot0': 0, 'rot3': 0, 'rot2': 0, 'state': 'normal', 'yaw': -3.32, 'datetime': '2018-10-12 14:09:55.851898', 'mgs': 0, 'depth': 1.843, 'time': 14.61, 'pitch': 0.15, 'roll': -12.36}
{'lipoC2': 7.77, 'temp': 23.56, 'lipoC3S3': 11.72, 'rot1': 0, 'rot0': 0, 'rot3': 0, 'rot2': 0, 'state': 'normal', 'yaw': -3.32, 'datetime': '2018-10-12 14:09:55.949176', 'mgs': 0, 'depth': 1.843, 'time': 14.71, 'pitch': 0.16, 'roll': -12.37}
{'lipoC2': 7.76, 'temp': 23.63, 'lipoC3S3': 11.72, 'rot1': 0, 'rot0': 0, 'rot3': 0, 'rot2': 0, 'state': 'normal', 'yaw': -3.24, 'datetime': '2018-10-12 14:09:56.045856', 'mgs': 0, 'depth': 1.767, 'time': 14.81, 'pitch': 0.18, 'roll': -12.34}
{'lipoC2': 7.77, 'temp': 23.63, 'lipoC3S3': 11.71, 'rot1': 0, 'rot0': 0, 'rot3': 0, 'rot2': 0, 'state': 'normal', 'yaw': -3.12, 'datetime': '2018-10-12 14:09:56.143058', 'mgs': 0, 'depth': 1.767, 'time': 14.91, 'pitch': 0.28, 'roll': -12.22}
{'lipoC2': 7.77, 'temp': 23.63, 'lipoC3S3': 11.71, 'rot1': 0, 'rot0': 0, 'rot3': 0, 'rot2': 0, 'state': 'normal', 'yaw': -3.0, 'datetime': '2018-10-12 14:09:56.239932', 'mgs': 0, 'depth': 1.843, 'time': 15.0, 'pitch': 0.46, 'roll': -12.1}
{'lipoC2': 7.77, 'temp': 23.56, 'lipoC3S3': 11.71, 'rot1': 0, 'rot0': 0, 'rot3': 0, 'rot2': 0, 'state': 'normal', 'yaw': -2.92, 'datetime': '2018-10-12 14:09:56.336963', 'mgs': 0, 'depth': 1.843, 'time': 15.1, 'pitch': 0.66, 'roll': -12.02}
{'lipoC2': 7.76, 'temp': 23.56, 'lipoC3S3': 11.72, 'rot1': 0, 'rot0': 0, 'rot3': 0, 'rot2': 0, 'state': 'normal', 'yaw': -2.86, 'datetime': '2018-10-12 14:09:56.435119', 'mgs': 0, 'depth': 1.843, 'time': 15.2, 'pitch': 0.87, 'roll': -12.02}
{'lipoC2': 7.76, 'temp': 23.56, 'lipoC3S3': 11.72, 'rot1': 0, 'rot0': 0, 'rot3': 0, 'rot2': 0, 'state': 'normal', 'yaw': -2.84, 'datetime': '2018-10-12 14:09:56.533412', 'mgs': 0, 'depth': 1.843, 'time': 15.3, 'pitch': 1.11, 'roll': -12.02}
{'lipoC2': 7.76, 'temp': 23.56, 'lipoC3S3': 11.72, 'rot1': 0, 'rot0': 0, 'rot3': 0, 'rot2': 0, 'state': 'normal', 'yaw': -2.87, 'datetime': '2018-10-12 14:09:56.631116', 'mgs': 0, 'depth': 1.843, 'time': 15.4, 'pitch': 1.26, 'roll': -12.02}
{'lipoC2': 7.77, 'temp': 23.56, 'lipoC3S3': 11.72, 'rot1': 0, 'rot0': 0, 'rot3': 0, 'rot2': 0, 'state': 'normal', 'yaw': -2.88, 'datetime': '2018-10-12 14:09:56.728156', 'mgs': 0, 'depth': 1.843, 'time': 15.49, 'pitch': 1.3, 'roll': -12.0}
{'lipoC2': 7.76, 'temp': 23.56, 'lipoC3S3': 11.72, 'rot1': 0, 'rot0': 0, 'rot3': 0, 'rot2': 0, 'state': 'normal', 'yaw': -2.84, 'datetime': '2018-10-12 14:09:56.825833', 'mgs': 0, 'depth': 1.843, 'time': 15.59, 'pitch': 1.27, 'roll': -12.08}
{'lipoC2': 7.77, 'temp': 23.56, 'lipoC3S3': 11.71, 'rot1': 0, 'rot0': 0, 'rot3': 0, 'rot2': 0, 'state': 'normal', 'yaw': -2.72, 'datetime': '2018-10-12 14:09:56.924894', 'mgs': 0, 'depth': 1.767, 'time': 15.69, 'pitch': 1.18, 'roll': -12.2}
{'lipoC2': 7.76, 'temp': 23.56, 'lipoC3S3': 11.72, 'rot1': 0, 'rot0': 0, 'rot3': 0, 'rot2': 0, 'state': 'normal', 'yaw': -2.64, 'datetime': '2018-10-12 14:09:57.022028', 'mgs': 0, 'depth': 1.767, 'time': 15.79, 'pitch': 1.02, 'roll': -12.2}
{'lipoC2': 7.76, 'temp': 23.56, 'lipoC3S3': 11.72, 'rot1': 0, 'rot0': 0, 'rot3': 0, 'rot2': 0, 'state': 'normal', 'yaw': -2.59, 'datetime': '2018-10-12 14:09:57.118920', 'mgs': 0, 'depth': 1.767, 'time': 15.88, 'pitch': 0.84, 'roll': -12.16}
{'lipoC2': 7.77, 'temp': 23.56, 'lipoC3S3': 11.72, 'rot1': 0, 'rot0': 0, 'rot3': 0, 'rot2': 0, 'state': 'normal', 'yaw': -2.48, 'datetime': '2018-10-12 14:09:57.216652', 'mgs': 0, 'depth': 1.767, 'time': 15.98, 'pitch': 0.72, 'roll': -12.16}
{'lipoC2': 7.76, 'temp': 23.56, 'lipoC3S3': 11.71, 'rot1': 0, 'rot0': 0, 'rot3': 0, 'rot2': 0, 'state': 'normal', 'yaw': -2.32, 'datetime': '2018-10-12 14:09:57.314297', 'mgs': 0, 'depth': 1.843, 'time': 16.08, 'pitch': 0.6, 'roll': -12.16}
{'lipoC2': 7.77, 'temp': 23.56, 'lipoC3S3': 11.72, 'rot1': 0, 'rot0': 0, 'rot3': 0, 'rot2': 0, 'state': 'normal', 'yaw': -2.18, 'datetime': '2018-10-12 14:09:57.411397', 'mgs': 0, 'depth': 1.767, 'time': 16.18, 'pitch': 0.45, 'roll': -12.17}
{'lipoC2': 7.76, 'temp': 23.56, 'lipoC3S3': 11.72, 'rot1': 0, 'rot0': 0, 'rot3': 0, 'rot2': 0, 'state': 'normal', 'yaw': -2.01, 'datetime': '2018-10-12 14:09:57.508462', 'mgs': 0, 'depth': 1.843, 'time': 16.27, 'pitch': 0.29, 'roll': -12.25}
{'lipoC2': 7.76, 'temp': 23.56, 'lipoC3S3': 11.72, 'rot1': 0, 'rot0': 0, 'rot3': 0, 'rot2': 0, 'state': 'normal', 'yaw': -1.82, 'datetime': '2018-10-12 14:09:57.605435', 'mgs': 0, 'depth': 1.843, 'time': 16.37, 'pitch': 0.15, 'roll': -12.26}
{'lipoC2': 7.77, 'temp': 23.56, 'lipoC3S3': 11.72, 'rot1': 0, 'rot0': 0, 'rot3': 0, 'rot2': 0, 'state': 'normal', 'yaw': -1.63, 'datetime': '2018-10-12 14:09:57.702568', 'mgs': 0, 'depth': 1.767, 'time': 16.47, 'pitch': -0.01, 'roll': -12.26}
{'lipoC2': 7.77, 'temp': 23.56, 'lipoC3S3': 11.72, 'rot1': 0, 'rot0': 0, 'rot3': 0, 'rot2': 0, 'state': 'normal', 'yaw': -1.5, 'datetime': '2018-10-12 14:09:57.799418', 'mgs': 0, 'depth': 1.843, 'time': 16.57, 'pitch': -0.14, 'roll': -12.3}
{'lipoC2': 7.76, 'temp': 23.56, 'lipoC3S3': 11.72, 'rot1': 0, 'rot0': 0, 'rot3': 0, 'rot2': 0, 'state': 'normal', 'yaw': -1.38, 'datetime': '2018-10-12 14:09:57.896530', 'mgs': 0, 'depth': 1.843, 'time': 16.66, 'pitch': -0.18, 'roll': -12.31}
{'lipoC2': 7.76, 'temp': 23.63, 'lipoC3S3': 11.71, 'rot1': 0, 'rot0': 0, 'rot3': 0, 'rot2': 0, 'state': 'normal', 'yaw': -1.24, 'datetime': '2018-10-12 14:09:57.993590', 'mgs': 0, 'depth': 1.92, 'time': 16.76, 'pitch': -0.14, 'roll': -12.29}
{'lipoC2': 7.77, 'temp': 23.63, 'lipoC3S3': 11.72, 'rot1': 0, 'rot0': 0, 'rot3': 0, 'rot2': 0, 'state': 'normal', 'yaw': -1.16, 'datetime': '2018-10-12 14:09:58.090500', 'mgs': 0, 'depth': 1.843, 'time': 16.86, 'pitch': -0.14, 'roll': -12.25}
{'lipoC2': 7.77, 'temp': 23.63, 'lipoC3S3': 11.72, 'rot1': 0, 'rot0': 0, 'rot3': 0, 'rot2': 0, 'state': 'normal', 'yaw': -1.16, 'datetime': '2018-10-12 14:09:58.188341', 'mgs': 0, 'depth': 1.843, 'time': 16.95, 'pitch': -0.17, 'roll': -12.19}
{'lipoC2': 7.76, 'temp': 23.5, 'lipoC3S3': 11.72, 'rot1': 0, 'rot0': 0, 'rot3': 0, 'rot2': 0, 'state': 'normal', 'yaw': -1.1, 'datetime': '2018-10-12 14:09:58.281909', 'mgs': 0, 'depth': 1.843, 'time': 17.05, 'pitch': -0.22, 'roll': -12.19}
{'lipoC2': 7.76, 'temp': 23.5, 'lipoC3S3': 11.72, 'rot1': 0, 'rot0': 0, 'rot3': 0, 'rot2': 0, 'state': 'normal', 'yaw': -0.99, 'datetime': '2018-10-12 14:09:58.379299', 'mgs': 0, 'depth': 1.843, 'time': 17.15, 'pitch': -0.28, 'roll': -12.24}
{'lipoC2': 7.76, 'temp': 23.56, 'lipoC3S3': 11.72, 'rot1': 0, 'rot0': 0, 'rot3': 0, 'rot2': 0, 'state': 'normal', 'yaw': -0.87, 'datetime': '2018-10-12 14:09:58.476149', 'mgs': 0, 'depth': 1.843, 'time': 17.25, 'pitch': -0.36, 'roll': -12.17}
{'lipoC2': 7.76, 'temp': 23.56, 'lipoC3S3': 11.72, 'rot1': 0, 'rot0': 0, 'rot3': 0, 'rot2': 0, 'state': 'normal', 'yaw': -0.77, 'datetime': '2018-10-12 14:09:58.573853', 'mgs': 0, 'depth': 1.767, 'time': 17.34, 'pitch': -0.46, 'roll': -12.07}
{'lipoC2': 7.76, 'temp': 23.56, 'lipoC3S3': 11.72, 'rot1': 0, 'rot0': 0, 'rot3': 0, 'rot2': 0, 'state': 'normal', 'yaw': -0.73, 'datetime': '2018-10-12 14:09:58.672211', 'mgs': 0, 'depth': 1.843, 'time': 17.44, 'pitch': -0.62, 'roll': -12.09}
{'lipoC2': 7.76, 'temp': 23.56, 'lipoC3S3': 11.72, 'rot1': 0, 'rot0': 0, 'rot3': 0, 'rot2': 0, 'state': 'normal', 'yaw': -0.69, 'datetime': '2018-10-12 14:09:58.769227', 'mgs': 0, 'depth': 1.843, 'time': 17.54, 'pitch': -0.78, 'roll': -12.2}
{'lipoC2': 7.76, 'temp': 23.56, 'lipoC3S3': 11.72, 'rot1': 0, 'rot0': 0, 'rot3': 0, 'rot2': 0, 'state': 'normal', 'yaw': -0.67, 'datetime': '2018-10-12 14:09:58.866246', 'mgs': 0, 'depth': 1.92, 'time': 17.64, 'pitch': -0.91, 'roll': -12.2}
{'lipoC2': 7.76, 'temp': 23.56, 'lipoC3S3': 11.72, 'rot1': 0, 'rot0': 0, 'rot3': 0, 'rot2': 0, 'state': 'normal', 'yaw': -0.59, 'datetime': '2018-10-12 14:09:58.964277', 'mgs': 0, 'depth': 1.92, 'time': 17.74, 'pitch': -0.94, 'roll': -12.13}
{'lipoC2': 7.76, 'temp': 23.56, 'lipoC3S3': 11.72, 'rot1': 0, 'rot0': 0, 'rot3': 0, 'rot2': 0, 'state': 'normal', 'yaw': -0.51, 'datetime': '2018-10-12 14:09:59.062573', 'mgs': 0, 'depth': 1.843, 'time': 17.83, 'pitch': -0.94, 'roll': -12.1}
{'lipoC2': 7.76, 'temp': 23.56, 'lipoC3S3': 11.72, 'rot1': 0, 'rot0': 0, 'rot3': 0, 'rot2': 0, 'state': 'normal', 'yaw': -0.51, 'datetime': '2018-10-12 14:09:59.164529', 'mgs': 0, 'depth': 1.843, 'time': 17.93, 'pitch': -0.91, 'roll': -12.01}
{'lipoC2': 7.76, 'temp': 23.56, 'lipoC3S3': 11.72, 'rot1': 0, 'rot0': 0, 'rot3': 0, 'rot2': 0, 'state': 'normal', 'yaw': -0.53, 'datetime': '2018-10-12 14:09:59.261696', 'mgs': 0, 'depth': 1.767, 'time': 18.03, 'pitch': -0.84, 'roll': -11.79}
{'lipoC2': 7.76, 'temp': 23.56, 'lipoC3S3': 11.72, 'rot1': 0, 'rot0': 0, 'rot3': 0, 'rot2': 0, 'state': 'normal', 'yaw': -0.55, 'datetime': '2018-10-12 14:09:59.358528', 'mgs': 0, 'depth': 1.843, 'time': 18.13, 'pitch': -0.72, 'roll': -11.64}
{'lipoC2': 7.77, 'temp': 23.5, 'lipoC3S3': 11.72, 'rot1': 0, 'rot0': 0, 'rot3': 0, 'rot2': 0, 'state': 'normal', 'yaw': -0.51, 'datetime': '2018-10-12 14:09:59.455621', 'mgs': 0, 'depth': 1.843, 'time': 18.22, 'pitch': -0.56, 'roll': -11.54}
{'lipoC2': 7.77, 'temp': 23.5, 'lipoC3S3': 11.72, 'rot1': 0, 'rot0': 0, 'rot3': 0, 'rot2': 0, 'state': 'normal', 'yaw': -0.42, 'datetime': '2018-10-12 14:09:59.552608', 'mgs': 0, 'depth': 1.843, 'time': 18.32, 'pitch': -0.49, 'roll': -11.33}
{'lipoC2': 7.77, 'temp': 23.56, 'lipoC3S3': 11.72, 'rot1': 0, 'rot0': 0, 'rot3': 0, 'rot2': 0, 'state': 'normal', 'yaw': -0.4, 'datetime': '2018-10-12 14:09:59.649602', 'mgs': 0, 'depth': 1.843, 'time': 18.42, 'pitch': -0.55, 'roll': -11.3}
{'lipoC2': 7.76, 'temp': 23.56, 'lipoC3S3': 11.73, 'rot1': 0, 'rot0': 0, 'rot3': 0, 'rot2': 0, 'state': 'normal', 'yaw': -0.33, 'datetime': '2018-10-12 14:09:59.741862', 'mgs': 0, 'depth': 1.843, 'time': 18.51, 'pitch': -0.72, 'roll': -11.47}
{'lipoC2': 7.76, 'temp': 23.56, 'lipoC3S3': 11.72, 'rot1': 0, 'rot0': 0, 'rot3': 0, 'rot2': 0, 'state': 'normal', 'yaw': -0.19, 'datetime': '2018-10-12 14:09:59.843880', 'mgs': 0, 'depth': 1.843, 'time': 18.61, 'pitch': -0.87, 'roll': -11.82}
{'lipoC2': 7.76, 'temp': 23.56, 'lipoC3S3': 11.72, 'rot1': 0, 'rot0': 0, 'rot3': 0, 'rot2': 0, 'state': 'normal', 'yaw': -0.31, 'datetime': '2018-10-12 14:09:59.941583', 'mgs': 0, 'depth': 1.767, 'time': 18.71, 'pitch': -1.24, 'roll': -11.8}
{'lipoC2': 7.76, 'temp': 23.56, 'lipoC3S3': 11.72, 'rot1': 0, 'rot0': 0, 'rot3': 0, 'rot2': 0, 'state': 'normal', 'yaw': -0.67, 'datetime': '2018-10-12 14:10:00.039859', 'mgs': 0, 'depth': 1.843, 'time': 18.81, 'pitch': -1.88, 'roll': -11.32}
{'lipoC2': 7.76, 'temp': 23.5, 'lipoC3S3': 11.72, 'rot1': 0, 'rot0': 0, 'rot3': 0, 'rot2': 0, 'state': 'normal', 'yaw': -0.91, 'datetime': '2018-10-12 14:10:00.136804', 'mgs': 0, 'depth': 1.92, 'time': 18.91, 'pitch': -2.4, 'roll': -11.14}
{'lipoC2': 7.76, 'temp': 23.5, 'lipoC3S3': 11.72, 'rot1': 0, 'rot0': 0, 'rot3': 0, 'rot2': 0, 'state': 'normal', 'yaw': -0.74, 'datetime': '2018-10-12 14:10:00.233823', 'mgs': 0, 'depth': 1.92, 'time': 19.0, 'pitch': -2.49, 'roll': -11.52}
{'lipoC2': 7.76, 'temp': 23.5, 'lipoC3S3': 11.72, 'rot1': 0, 'rot0': 0, 'rot3': 0, 'rot2': 0, 'state': 'normal', 'yaw': -0.39, 'datetime': '2018-10-12 14:10:00.331800', 'mgs': 0, 'depth': 1.92, 'time': 19.1, 'pitch': -2.32, 'roll': -11.87}
{'lipoC2': 7.77, 'temp': 23.5, 'lipoC3S3': 11.71, 'rot1': 0, 'rot0': 0, 'rot3': 0, 'rot2': 0, 'state': 'normal', 'yaw': -0.18, 'datetime': '2018-10-12 14:10:00.430003', 'mgs': 0, 'depth': 1.843, 'time': 19.2, 'pitch': -2.26, 'roll': -12.06}
{'lipoC2': 7.76, 'temp': 23.5, 'lipoC3S3': 11.72, 'rot1': 0, 'rot0': 0, 'rot3': 0, 'rot2': 0, 'state': 'normal', 'yaw': -0.17, 'datetime': '2018-10-12 14:10:00.527179', 'mgs': 0, 'depth': 1.843, 'time': 19.3, 'pitch': -2.28, 'roll': -12.2}
{'lipoC2': 7.76, 'temp': 23.56, 'lipoC3S3': 11.72, 'rot1': 0, 'rot0': 0, 'rot3': 0, 'rot2': 0, 'state': 'normal', 'yaw': -0.17, 'datetime': '2018-10-12 14:10:00.624154', 'mgs': 0, 'depth': 1.843, 'time': 19.39, 'pitch': -2.3, 'roll': -12.48}
{'lipoC2': 7.76, 'temp': 23.56, 'lipoC3S3': 11.72, 'rot1': 0, 'rot0': 0, 'rot3': 0, 'rot2': 0, 'state': 'normal', 'yaw': -0.18, 'datetime': '2018-10-12 14:10:00.722304', 'mgs': 0, 'depth': 1.843, 'time': 19.49, 'pitch': -2.25, 'roll': -12.7}
{'lipoC2': 7.76, 'temp': 23.56, 'lipoC3S3': 11.72, 'rot1': 0, 'rot0': 0, 'rot3': 0, 'rot2': 0, 'state': 'normal', 'yaw': -0.21, 'datetime': '2018-10-12 14:10:00.819271', 'mgs': 0, 'depth': 1.92, 'time': 19.59, 'pitch': -2.11, 'roll': -12.74}
{'lipoC2': 7.76, 'temp': 23.56, 'lipoC3S3': 11.72, 'rot1': 0, 'rot0': 0, 'rot3': 0, 'rot2': 0, 'state': 'normal', 'yaw': -0.28, 'datetime': '2018-10-12 14:10:00.916333', 'mgs': 0, 'depth': 1.92, 'time': 19.68, 'pitch': -1.83, 'roll': -12.78}
{'lipoC2': 7.76, 'temp': 23.56, 'lipoC3S3': 11.72, 'rot1': 0, 'rot0': 0, 'rot3': 0, 'rot2': 0, 'state': 'normal', 'yaw': -0.38, 'datetime': '2018-10-12 14:10:01.013783', 'mgs': 0, 'depth': 1.92, 'time': 19.78, 'pitch': -1.39, 'roll': -12.98}
{'lipoC2': 7.76, 'temp': 23.5, 'lipoC3S3': 11.72, 'rot1': 0, 'rot0': 0, 'rot3': 0, 'rot2': 0, 'state': 'normal', 'yaw': -0.55, 'datetime': '2018-10-12 14:10:01.110509', 'mgs': 0, 'depth': 1.843, 'time': 19.88, 'pitch': -0.89, 'roll': -13.24}
{'lipoC2': 7.76, 'temp': 23.5, 'lipoC3S3': 11.72, 'rot1': 0, 'rot0': 0, 'rot3': 0, 'rot2': 0, 'state': 'normal', 'yaw': -0.82, 'datetime': '2018-10-12 14:10:01.207452', 'mgs': 0, 'depth': 1.843, 'time': 19.98, 'pitch': -0.32, 'roll': -13.39}
{'lipoC2': 7.76, 'temp': 23.5, 'lipoC3S3': 11.72, 'rot1': 0, 'rot0': 0, 'rot3': 0, 'rot2': 0, 'state': 'normal', 'yaw': -1.18, 'datetime': '2018-10-12 14:10:01.304406', 'mgs': 0, 'depth': 1.843, 'time': 20.07, 'pitch': 0.15, 'roll': -13.34}
{'lipoC2': 7.77, 'temp': 23.5, 'lipoC3S3': 11.72, 'rot1': 0, 'rot0': 0, 'rot3': 0, 'rot2': 0, 'state': 'normal', 'yaw': -1.48, 'datetime': '2018-10-12 14:10:01.402025', 'mgs': 0, 'depth': 1.843, 'time': 20.17, 'pitch': 0.51, 'roll': -13.21}
{'lipoC2': 7.76, 'temp': 23.5, 'lipoC3S3': 11.72, 'rot1': 0, 'rot0': 0, 'rot3': 0, 'rot2': 0, 'state': 'normal', 'yaw': -1.76, 'datetime': '2018-10-12 14:10:01.498572', 'mgs': 0, 'depth': 1.92, 'time': 20.27, 'pitch': 0.85, 'roll': -13.22}
{'lipoC2': 7.76, 'temp': 23.56, 'lipoC3S3': 11.72, 'rot1': 0, 'rot0': 0, 'rot3': 0, 'rot2': 0, 'state': 'normal', 'yaw': -1.94, 'datetime': '2018-10-12 14:10:01.590749', 'mgs': 0, 'depth': 1.843, 'time': 20.36, 'pitch': 1.12, 'roll': -13.33}
{'lipoC2': 7.76, 'temp': 23.56, 'lipoC3S3': 11.72, 'rot1': 0, 'rot0': 0, 'rot3': 0, 'rot2': 0, 'state': 'normal', 'yaw': -1.98, 'datetime': '2018-10-12 14:10:01.693988', 'mgs': 0, 'depth': 1.767, 'time': 20.46, 'pitch': 1.33, 'roll': -13.3}
{'lipoC2': 7.76, 'temp': 23.56, 'lipoC3S3': 11.72, 'rot1': 0, 'rot0': 0, 'rot3': 0, 'rot2': 0, 'state': 'normal', 'yaw': -1.91, 'datetime': '2018-10-12 14:10:01.792259', 'mgs': 0, 'depth': 1.843, 'time': 20.56, 'pitch': 1.58, 'roll': -13.15}
{'lipoC2': 7.77, 'temp': 23.5, 'lipoC3S3': 11.72, 'rot1': 0, 'rot0': 0, 'rot3': 0, 'rot2': 0, 'state': 'normal', 'yaw': -1.81, 'datetime': '2018-10-12 14:10:01.889405', 'mgs': 0, 'depth': 1.767, 'time': 20.66, 'pitch': 1.74, 'roll': -13.1}
{'lipoC2': 7.77, 'temp': 23.5, 'lipoC3S3': 11.72, 'rot1': 0, 'rot0': 0, 'rot3': 0, 'rot2': 0, 'state': 'normal', 'yaw': -1.72, 'datetime': '2018-10-12 14:10:01.986331', 'mgs': 0, 'depth': 1.767, 'time': 20.76, 'pitch': 1.73, 'roll': -13.21}
{'lipoC2': 7.76, 'temp': 23.56, 'lipoC3S3': 11.72, 'rot1': 0, 'rot0': 0, 'rot3': 0, 'rot2': 0, 'state': 'normal', 'yaw': -1.6, 'datetime': '2018-10-12 14:10:02.084631', 'mgs': 0, 'depth': 1.843, 'time': 20.85, 'pitch': 1.55, 'roll': -13.2}
{'lipoC2': 7.76, 'temp': 23.56, 'lipoC3S3': 11.72, 'rot1': 0, 'rot0': 0, 'rot3': 0, 'rot2': 0, 'state': 'normal', 'yaw': -1.3, 'datetime': '2018-10-12 14:10:02.184269', 'mgs': 0, 'depth': 1.767, 'time': 20.95, 'pitch': 1.26, 'roll': -12.96}
{'lipoC2': 7.76, 'temp': 23.56, 'lipoC3S3': 11.72, 'rot1': 0, 'rot0': 0, 'rot3': 0, 'rot2': 0, 'state': 'normal', 'yaw': -0.96, 'datetime': '2018-10-12 14:10:02.280044', 'mgs': 1, 'depth': 1.767, 'time': 21.05, 'pitch': 0.87, 'roll': -12.61}
{'lipoC2': 7.76, 'temp': 23.5, 'lipoC3S3': 11.72, 'rot1': 0, 'rot0': 0, 'rot3': 0, 'rot2': 0, 'state': 'normal', 'yaw': 0.0, 'datetime': '2018-10-12 14:10:03.802065', 'mgs': 0, 'depth': 1.691, 'time': 1.26, 'pitch': 0.61, 'roll': -12.94}
{'lipoC2': 7.77, 'temp': 23.5, 'lipoC3S3': 11.72, 'rot1': 0, 'rot0': 0, 'rot3': 0, 'rot2': 0, 'state': 'normal', 'yaw': -0.16, 'datetime': '2018-10-12 14:10:03.831187', 'mgs': 0, 'depth': 1.691, 'time': 1.36, 'pitch': 0.31, 'roll': -12.85}
{'lipoC2': 7.76, 'temp': 23.5, 'lipoC3S3': 11.72, 'rot1': 0, 'rot0': 0, 'rot3': 0, 'rot2': 0, 'state': 'normal', 'yaw': -0.45, 'datetime': '2018-10-12 14:10:03.849163', 'mgs': 0, 'depth': 1.767, 'time': 1.46, 'pitch': -0.12, 'roll': -12.98}
{'lipoC2': 7.76, 'temp': 23.5, 'lipoC3S3': 11.72, 'rot1': 0, 'rot0': 0, 'rot3': 0, 'rot2': 0, 'state': 'normal', 'yaw': -0.56, 'datetime': '2018-10-12 14:10:03.929896', 'mgs': 0, 'depth': 1.691, 'time': 1.55, 'pitch': -0.37, 'roll': -13.14}
{'lipoC2': 7.76, 'temp': 23.5, 'lipoC3S3': 11.72, 'rot1': 0, 'rot0': 0, 'rot3': 0, 'rot2': 0, 'state': 'normal', 'yaw': -0.51, 'datetime': '2018-10-12 14:10:04.027692', 'mgs': 0, 'depth': 1.767, 'time': 1.65, 'pitch': -0.4, 'roll': -13.32}
{'lipoC2': 7.76, 'temp': 23.56, 'lipoC3S3': 11.72, 'rot1': 0, 'rot0': 0, 'rot3': 0, 'rot2': 0, 'state': 'normal', 'yaw': -0.47, 'datetime': '2018-10-12 14:10:04.124276', 'mgs': 0, 'depth': 1.691, 'time': 1.75, 'pitch': -0.32, 'roll': -13.62}
{'lipoC2': 7.76, 'temp': 23.56, 'lipoC3S3': 11.72, 'rot1': 0, 'rot0': 0, 'rot3': 0, 'rot2': 0, 'state': 'normal', 'yaw': -0.54, 'datetime': '2018-10-12 14:10:04.220991', 'mgs': 0, 'depth': 1.767, 'time': 1.85, 'pitch': -0.34, 'roll': -13.84}
{'lipoC2': 7.77, 'temp': 23.56, 'lipoC3S3': 11.72, 'rot1': 0, 'rot0': 0, 'rot3': 0, 'rot2': 0, 'state': 'normal', 'yaw': -0.7, 'datetime': '2018-10-12 14:10:04.317577', 'mgs': 0, 'depth': 1.767, 'time': 1.94, 'pitch': -0.41, 'roll': -13.79}
{'lipoC2': 7.76, 'temp': 23.56, 'lipoC3S3': 11.72, 'rot1': 0, 'rot0': 0, 'rot3': 0, 'rot2': 0, 'state': 'normal', 'yaw': -0.85, 'datetime': '2018-10-12 14:10:04.414447', 'mgs': 0, 'depth': 1.767, 'time': 2.04, 'pitch': -0.49, 'roll': -13.61}
{'lipoC2': 7.77, 'temp': 23.56, 'lipoC3S3': 11.72, 'rot1': 0, 'rot0': 0, 'rot3': 0, 'rot2': 0, 'state': 'normal', 'yaw': -0.96, 'datetime': '2018-10-12 14:10:04.510994', 'mgs': 0, 'depth': 1.843, 'time': 2.13, 'pitch': -0.56, 'roll': -13.62}
{'lipoC2': 7.77, 'temp': 23.5, 'lipoC3S3': 11.72, 'rot1': 0, 'rot0': 0, 'rot3': 0, 'rot2': 0, 'state': 'normal', 'yaw': -1.08, 'datetime': '2018-10-12 14:10:04.607584', 'mgs': 0, 'depth': 1.767, 'time': 2.23, 'pitch': -0.61, 'roll': -13.74}
{'lipoC2': 7.76, 'temp': 23.5, 'lipoC3S3': 11.72, 'rot1': 0, 'rot0': 0, 'rot3': 0, 'rot2': 0, 'state': 'normal', 'yaw': -1.18, 'datetime': '2018-10-12 14:10:04.704256', 'mgs': 0, 'depth': 1.767, 'time': 2.33, 'pitch': -0.65, 'roll': -13.76}
{'lipoC2': 7.76, 'temp': 23.5, 'lipoC3S3': 11.72, 'rot1': 0, 'rot0': 0, 'rot3': 0, 'rot2': 0, 'state': 'normal', 'yaw': -1.21, 'datetime': '2018-10-12 14:10:04.801150', 'mgs': 0, 'depth': 1.767, 'time': 2.42, 'pitch': -0.67, 'roll': -13.79}
{'lipoC2': 7.76, 'temp': 23.5, 'lipoC3S3': 11.72, 'rot1': 0, 'rot0': 0, 'rot3': 0, 'rot2': 0, 'state': 'normal', 'yaw': -1.18, 'datetime': '2018-10-12 14:10:04.897779', 'mgs': 0, 'depth': 1.767, 'time': 2.52, 'pitch': -0.67, 'roll': -13.89}
{'lipoC2': 7.76, 'temp': 23.5, 'lipoC3S3': 11.73, 'rot1': 0, 'rot0': 0, 'rot3': 0, 'rot2': 0, 'state': 'normal', 'yaw': -1.03, 'datetime': '2018-10-12 14:10:04.994299', 'mgs': 0, 'depth': 1.843, 'time': 2.62, 'pitch': -0.5, 'roll': -13.97}
{'lipoC2': 7.77, 'temp': 23.56, 'lipoC3S3': 11.72, 'rot1': 0, 'rot0': 0, 'rot3': 0, 'rot2': 0, 'state': 'normal', 'yaw': -0.92, 'datetime': '2018-10-12 14:10:05.091602', 'mgs': 0, 'depth': 1.767, 'time': 2.72, 'pitch': -0.36, 'roll': -14.03}
{'lipoC2': 7.76, 'temp': 23.56, 'lipoC3S3': 11.73, 'rot1': 0, 'rot0': 0, 'rot3': 0, 'rot2': 0, 'state': 'normal', 'yaw': -0.72, 'datetime': '2018-10-12 14:10:05.189501', 'mgs': 0, 'depth': 1.843, 'time': 2.81, 'pitch': -0.15, 'roll': -14.04}
{'lipoC2': 7.76, 'temp': 23.56, 'lipoC3S3': 11.73, 'rot1': 0, 'rot0': 0, 'rot3': 0, 'rot2': 0, 'state': 'normal', 'yaw': -0.58, 'datetime': '2018-10-12 14:10:05.286567', 'mgs': 0, 'depth': 1.767, 'time': 2.91, 'pitch': -0.07, 'roll': -14.04}
{'lipoC2': 7.77, 'temp': 23.56, 'lipoC3S3': 11.72, 'rot1': 0, 'rot0': 0, 'rot3': 0, 'rot2': 0, 'state': 'normal', 'yaw': -0.56, 'datetime': '2018-10-12 14:10:05.383191', 'mgs': 0, 'depth': 1.843, 'time': 3.01, 'pitch': -0.07, 'roll': -14.03}
{'lipoC2': 7.76, 'temp': 23.56, 'lipoC3S3': 11.72, 'rot1': 0, 'rot0': 0, 'rot3': 0, 'rot2': 0, 'state': 'normal', 'yaw': -0.56, 'datetime': '2018-10-12 14:10:05.481141', 'mgs': 0, 'depth': 1.843, 'time': 3.11, 'pitch': -0.07, 'roll': -13.94}
{'lipoC2': 7.76, 'temp': 23.5, 'lipoC3S3': 11.72, 'rot1': 0, 'rot0': 0, 'rot3': 0, 'rot2': 0, 'state': 'normal', 'yaw': -0.56, 'datetime': '2018-10-12 14:10:05.579151', 'mgs': 0, 'depth': 1.843, 'time': 3.2, 'pitch': -0.07, 'roll': -13.88}
{'lipoC2': 7.76, 'temp': 23.5, 'lipoC3S3': 11.72, 'rot1': 0, 'rot0': 0, 'rot3': 0, 'rot2': 0, 'state': 'normal', 'yaw': -0.56, 'datetime': '2018-10-12 14:10:05.675701', 'mgs': 0, 'depth': 1.767, 'time': 3.3, 'pitch': -0.07, 'roll': -13.94}
{'lipoC2': 7.76, 'temp': 23.56, 'lipoC3S3': 11.72, 'rot1': 0, 'rot0': 0, 'rot3': 0, 'rot2': 0, 'state': 'normal', 'yaw': -0.56, 'datetime': '2018-10-12 14:10:05.772669', 'mgs': 0, 'depth': 1.843, 'time': 3.4, 'pitch': -0.07, 'roll': -14.09}
{'lipoC2': 7.76, 'temp': 23.56, 'lipoC3S3': 11.73, 'rot1': 0, 'rot0': 0, 'rot3': 0, 'rot2': 0, 'state': 'normal', 'yaw': -0.56, 'datetime': '2018-10-12 14:10:05.870819', 'mgs': 0, 'depth': 1.843, 'time': 3.49, 'pitch': -0.07, 'roll': -14.12}
{'lipoC2': 7.76, 'temp': 23.56, 'lipoC3S3': 11.73, 'rot1': 0, 'rot0': 0, 'rot3': 0, 'rot2': 0, 'state': 'normal', 'yaw': -0.53, 'datetime': '2018-10-12 14:10:05.967249', 'mgs': 0, 'depth': 1.843, 'time': 3.59, 'pitch': 0.02, 'roll': -14.0}
{'lipoC2': 7.76, 'temp': 23.5, 'lipoC3S3': 11.72, 'rot1': 0, 'rot0': 0, 'rot3': 0, 'rot2': 0, 'state': 'normal', 'yaw': -0.54, 'datetime': '2018-10-12 14:10:06.063998', 'mgs': 0, 'depth': 1.767, 'time': 3.69, 'pitch': 0.05, 'roll': -13.91}
{'lipoC2': 7.77, 'temp': 23.5, 'lipoC3S3': 11.72, 'rot1': 0, 'rot0': 0, 'rot3': 0, 'rot2': 0, 'state': 'normal', 'yaw': -0.54, 'datetime': '2018-10-12 14:10:06.161934', 'mgs': 0, 'depth': 1.767, 'time': 3.79, 'pitch': 0.08, 'roll': -13.91}
{'lipoC2': 7.76, 'temp': 23.5, 'lipoC3S3': 11.72, 'rot1': 0, 'rot0': 0, 'rot3': 0, 'rot2': 0, 'state': 'normal', 'yaw': -0.5, 'datetime': '2018-10-12 14:10:06.258565', 'mgs': 0, 'depth': 1.843, 'time': 3.88, 'pitch': 0.23, 'roll': -13.91}
{'lipoC2': 7.76, 'temp': 23.5, 'lipoC3S3': 11.72, 'rot1': 0, 'rot0': 0, 'rot3': 0, 'rot2': 0, 'state': 'normal', 'yaw': -0.37, 'datetime': '2018-10-12 14:10:06.355225', 'mgs': 0, 'depth': 1.843, 'time': 3.98, 'pitch': 0.43, 'roll': -13.91}
{'lipoC2': 7.77, 'temp': 23.5, 'lipoC3S3': 11.72, 'rot1': 0, 'rot0': 0, 'rot3': 0, 'rot2': 0, 'state': 'normal', 'yaw': -0.27, 'datetime': '2018-10-12 14:10:06.452894', 'mgs': 0, 'depth': 1.767, 'time': 4.08, 'pitch': 0.54, 'roll': -13.91}
{'lipoC2': 7.77, 'temp': 23.5, 'lipoC3S3': 11.72, 'rot1': 0, 'rot0': 0, 'rot3': 0, 'rot2': 0, 'state': 'normal', 'yaw': -0.23, 'datetime': '2018-10-12 14:10:06.549538', 'mgs': 0, 'depth': 1.843, 'time': 4.18, 'pitch': 0.49, 'roll': -13.92}
{'lipoC2': 7.76, 'temp': 23.5, 'lipoC3S3': 11.72, 'rot1': 0, 'rot0': 0, 'rot3': 0, 'rot2': 0, 'state': 'normal', 'yaw': -0.29, 'datetime': '2018-10-12 14:10:06.646302', 'mgs': 0, 'depth': 1.843, 'time': 4.27, 'pitch': 0.28, 'roll': -13.99}
{'lipoC2': 7.76, 'temp': 23.56, 'lipoC3S3': 11.73, 'rot1': 0, 'rot0': 0, 'rot3': 0, 'rot2': 0, 'state': 'normal', 'yaw': -0.34, 'datetime': '2018-10-12 14:10:06.744349', 'mgs': 0, 'depth': 1.843, 'time': 4.37, 'pitch': 0.11, 'roll': -14.06}
{'lipoC2': 7.76, 'temp': 23.56, 'lipoC3S3': 11.73, 'rot1': 0, 'rot0': 0, 'rot3': 0, 'rot2': 0, 'state': 'normal', 'yaw': -0.32, 'datetime': '2018-10-12 14:10:06.841807', 'mgs': 0, 'depth': 1.767, 'time': 4.47, 'pitch': 0.04, 'roll': -14.03}
{'lipoC2': 7.76, 'temp': 23.56, 'lipoC3S3': 11.72, 'rot1': 0, 'rot0': 0, 'rot3': 0, 'rot2': 0, 'state': 'normal', 'yaw': -0.25, 'datetime': '2018-10-12 14:10:06.938445', 'mgs': 0, 'depth': 1.843, 'time': 4.56, 'pitch': 0.06, 'roll': -13.87}
{'lipoC2': 7.76, 'temp': 23.5, 'lipoC3S3': 11.72, 'rot1': 0, 'rot0': 0, 'rot3': 0, 'rot2': 0, 'state': 'normal', 'yaw': -0.23, 'datetime': '2018-10-12 14:10:07.035071', 'mgs': 0, 'depth': 1.843, 'time': 4.66, 'pitch': 0.06, 'roll': -13.7}
{'lipoC2': 7.76, 'temp': 23.5, 'lipoC3S3': 11.73, 'rot1': 0, 'rot0': 0, 'rot3': 0, 'rot2': 0, 'state': 'normal', 'yaw': -0.15, 'datetime': '2018-10-12 14:10:07.133064', 'mgs': 0, 'depth': 1.767, 'time': 4.76, 'pitch': 0.08, 'roll': -13.56}
{'lipoC2': 7.77, 'temp': 23.5, 'lipoC3S3': 11.72, 'rot1': 0, 'rot0': 0, 'rot3': 0, 'rot2': 0, 'state': 'normal', 'yaw': -0.06, 'datetime': '2018-10-12 14:10:07.230493', 'mgs': 0, 'depth': 1.767, 'time': 4.86, 'pitch': 0.17, 'roll': -13.41}
{'lipoC2': 7.76, 'temp': 23.5, 'lipoC3S3': 11.73, 'rot1': 0, 'rot0': 0, 'rot3': 0, 'rot2': 0, 'state': 'normal', 'yaw': 0.05, 'datetime': '2018-10-12 14:10:07.327113', 'mgs': 0, 'depth': 1.843, 'time': 4.95, 'pitch': 0.22, 'roll': -13.27}
{'lipoC2': 7.76, 'temp': 23.5, 'lipoC3S3': 11.72, 'rot1': 0, 'rot0': 0, 'rot3': 0, 'rot2': 0, 'state': 'normal', 'yaw': 0.15, 'datetime': '2018-10-12 14:10:07.424805', 'mgs': 0, 'depth': 1.767, 'time': 5.05, 'pitch': 0.24, 'roll': -13.15}
{'lipoC2': 7.76, 'temp': 23.5, 'lipoC3S3': 11.72, 'rot1': 0, 'rot0': 0, 'rot3': 0, 'rot2': 0, 'state': 'normal', 'yaw': 0.26, 'datetime': '2018-10-12 14:10:07.522172', 'mgs': 0, 'depth': 1.767, 'time': 5.15, 'pitch': 0.2, 'roll': -13.12}
{'lipoC2': 7.76, 'temp': 23.5, 'lipoC3S3': 11.72, 'rot1': 0, 'rot0': 0, 'rot3': 0, 'rot2': 0, 'state': 'normal', 'yaw': 0.39, 'datetime': '2018-10-12 14:10:07.618903', 'mgs': 0, 'depth': 1.767, 'time': 5.24, 'pitch': 0.11, 'roll': -13.12}
{'lipoC2': 7.76, 'temp': 23.56, 'lipoC3S3': 11.72, 'rot1': 0, 'rot0': 0, 'rot3': 0, 'rot2': 0, 'state': 'normal', 'yaw': 0.55, 'datetime': '2018-10-12 14:10:07.715698', 'mgs': 0, 'depth': 1.767, 'time': 5.34, 'pitch': 0.05, 'roll': -13.12}
{'lipoC2': 7.76, 'temp': 23.56, 'lipoC3S3': 11.72, 'rot1': 0, 'rot0': 0, 'rot3': 0, 'rot2': 0, 'state': 'normal', 'yaw': 0.76, 'datetime': '2018-10-12 14:10:07.812367', 'mgs': 0, 'depth': 1.767, 'time': 5.44, 'pitch': 0.0, 'roll': -13.12}
