{'lipoC2': 7.82, 'temp': 27.31, 'lipoC3S3': 12.01, 'rot1': 0, 'rot0': 0, 'rot3': 0, 'rot2': 0, 'state': 'normal', 'yaw': 0.0, 'datetime': '2018-10-12 16:37:08.601188', 'mgs': 0, 'depth': -0.751, 'time': 1.26, 'pitch': -5.22, 'roll': -0.74}
{'lipoC2': 7.82, 'temp': 27.31, 'lipoC3S3': 12.01, 'rot1': 0, 'rot0': 0, 'rot3': 0, 'rot2': 0, 'state': 'normal', 'yaw': 0.2, 'datetime': '2018-10-12 16:37:08.617837', 'mgs': 0, 'depth': -0.751, 'time': 1.36, 'pitch': -5.22, 'roll': -0.67}
{'lipoC2': 7.82, 'temp': 27.31, 'lipoC3S3': 12.01, 'rot1': 0, 'rot0': 0, 'rot3': 0, 'rot2': 0, 'state': 'normal', 'yaw': 0.28, 'datetime': '2018-10-12 16:37:08.634494', 'mgs': 0, 'depth': -0.674, 'time': 1.46, 'pitch': -5.05, 'roll': -0.4}
{'lipoC2': 7.82, 'temp': 27.31, 'lipoC3S3': 12.01, 'rot1': 0, 'rot0': 0, 'rot3': 0, 'rot2': 0, 'state': 'normal', 'yaw': 0.23, 'datetime': '2018-10-12 16:37:08.645451', 'mgs': 0, 'depth': -0.751, 'time': 1.55, 'pitch': -5.02, 'roll': 0.05}
{'lipoC2': 7.82, 'temp': 27.31, 'lipoC3S3': 12.01, 'rot1': 0, 'rot0': 0, 'rot3': 0, 'rot2': 0, 'state': 'normal', 'yaw': -0.04, 'datetime': '2018-10-12 16:37:08.652752', 'mgs': 0, 'depth': -0.674, 'time': 1.65, 'pitch': -4.99, 'roll': 0.41}
{'lipoC2': 7.82, 'temp': 27.25, 'lipoC3S3': 12.01, 'rot1': 0, 'rot0': 0, 'rot3': 0, 'rot2': 0, 'state': 'normal', 'yaw': -0.51, 'datetime': '2018-10-12 16:37:08.742600', 'mgs': 0, 'depth': -0.751, 'time': 1.75, 'pitch': -4.96, 'roll': 0.67}
{'lipoC2': 7.81, 'temp': 27.25, 'lipoC3S3': 12.0, 'rot1': 0, 'rot0': 0, 'rot3': 0, 'rot2': 0, 'state': 'normal', 'yaw': -0.99, 'datetime': '2018-10-12 16:37:08.839697', 'mgs': 0, 'depth': -0.674, 'time': 1.85, 'pitch': -4.85, 'roll': 0.92}
{'lipoC2': 7.82, 'temp': 27.25, 'lipoC3S3': 12.0, 'rot1': 0, 'rot0': 0, 'rot3': 0, 'rot2': 0, 'state': 'normal', 'yaw': -1.47, 'datetime': '2018-10-12 16:37:08.936879', 'mgs': 0, 'depth': -0.674, 'time': 1.94, 'pitch': -4.77, 'roll': 0.76}
{'lipoC2': 7.82, 'temp': 27.25, 'lipoC3S3': 12.0, 'rot1': 0, 'rot0': 0, 'rot3': 0, 'rot2': 0, 'state': 'normal', 'yaw': -1.75, 'datetime': '2018-10-12 16:37:09.033968', 'mgs': 0, 'depth': -0.674, 'time': 2.04, 'pitch': -4.92, 'roll': 0.42}
{'lipoC2': 7.81, 'temp': 27.25, 'lipoC3S3': 12.01, 'rot1': 0, 'rot0': 0, 'rot3': 0, 'rot2': 0, 'state': 'normal', 'yaw': -1.86, 'datetime': '2018-10-12 16:37:09.131051', 'mgs': 0, 'depth': -0.598, 'time': 2.14, 'pitch': -5.11, 'roll': 0.28}
{'lipoC2': 7.82, 'temp': 27.31, 'lipoC3S3': 12.01, 'rot1': 0, 'rot0': 0, 'rot3': 0, 'rot2': 0, 'state': 'normal', 'yaw': -2.02, 'datetime': '2018-10-12 16:37:09.228144', 'mgs': 0, 'depth': -0.674, 'time': 2.24, 'pitch': -5.26, 'roll': 0.26}
{'lipoC2': 7.82, 'temp': 27.31, 'lipoC3S3': 12.01, 'rot1': 0, 'rot0': 0, 'rot3': 0, 'rot2': 0, 'state': 'normal', 'yaw': -2.24, 'datetime': '2018-10-12 16:37:09.325213', 'mgs': 0, 'depth': -0.674, 'time': 2.33, 'pitch': -5.5, 'roll': 0.26}
{'lipoC2': 7.82, 'temp': 27.25, 'lipoC3S3': 12.01, 'rot1': 0, 'rot0': 0, 'rot3': 0, 'rot2': 0, 'state': 'normal', 'yaw': -2.39, 'datetime': '2018-10-12 16:37:09.426077', 'mgs': 0, 'depth': -0.751, 'time': 2.43, 'pitch': -5.94, 'roll': 0.21}
{'lipoC2': 7.82, 'temp': 27.25, 'lipoC3S3': 12.01, 'rot1': 0, 'rot0': 0, 'rot3': 0, 'rot2': 0, 'state': 'normal', 'yaw': -2.43, 'datetime': '2018-10-12 16:37:09.524188', 'mgs': 0, 'depth': -0.674, 'time': 2.53, 'pitch': -6.41, 'roll': 0.21}
{'lipoC2': 7.82, 'temp': 27.25, 'lipoC3S3': 12.01, 'rot1': 0, 'rot0': 0, 'rot3': 0, 'rot2': 0, 'state': 'normal', 'yaw': -2.45, 'datetime': '2018-10-12 16:37:09.621287', 'mgs': 0, 'depth': -0.674, 'time': 2.63, 'pitch': -6.53, 'roll': 0.17}
{'lipoC2': 7.82, 'temp': 27.31, 'lipoC3S3': 12.01, 'rot1': 0, 'rot0': 0, 'rot3': 0, 'rot2': 0, 'state': 'normal', 'yaw': -2.61, 'datetime': '2018-10-12 16:37:09.718463', 'mgs': 0, 'depth': -0.751, 'time': 2.72, 'pitch': -6.27, 'roll': 0.11}
{'lipoC2': 7.82, 'temp': 27.31, 'lipoC3S3': 12.01, 'rot1': 0, 'rot0': 0, 'rot3': 0, 'rot2': 0, 'state': 'normal', 'yaw': -2.85, 'datetime': '2018-10-12 16:37:09.815786', 'mgs': 0, 'depth': -0.674, 'time': 2.82, 'pitch': -5.76, 'roll': 0.12}
{'lipoC2': 7.82, 'temp': 27.25, 'lipoC3S3': 12.0, 'rot1': 0, 'rot0': 0, 'rot3': 0, 'rot2': 0, 'state': 'normal', 'yaw': -3.0, 'datetime': '2018-10-12 16:37:09.913323', 'mgs': 0, 'depth': -0.674, 'time': 2.92, 'pitch': -5.0, 'roll': 0.12}
{'lipoC2': 7.82, 'temp': 27.25, 'lipoC3S3': 12.01, 'rot1': 0, 'rot0': 0, 'rot3': 0, 'rot2': 0, 'state': 'normal', 'yaw': -3.23, 'datetime': '2018-10-12 16:37:10.011772', 'mgs': 0, 'depth': -0.674, 'time': 3.02, 'pitch': -4.09, 'roll': -0.15}
{'lipoC2': 7.82, 'temp': 27.25, 'lipoC3S3': 12.0, 'rot1': 0, 'rot0': 0, 'rot3': 0, 'rot2': 0, 'state': 'normal', 'yaw': -3.62, 'datetime': '2018-10-12 16:37:10.109079', 'mgs': 0, 'depth': -0.751, 'time': 3.11, 'pitch': -3.32, 'roll': -0.68}
{'lipoC2': 7.82, 'temp': 27.31, 'lipoC3S3': 12.01, 'rot1': 0, 'rot0': 0, 'rot3': 0, 'rot2': 0, 'state': 'normal', 'yaw': -4.02, 'datetime': '2018-10-12 16:37:10.206220', 'mgs': 0, 'depth': -0.751, 'time': 3.21, 'pitch': -2.72, 'roll': -1.12}
{'lipoC2': 7.82, 'temp': 27.31, 'lipoC3S3': 12.01, 'rot1': 0, 'rot0': 0, 'rot3': 0, 'rot2': 0, 'state': 'normal', 'yaw': -4.3, 'datetime': '2018-10-12 16:37:10.303816', 'mgs': 0, 'depth': -0.751, 'time': 3.31, 'pitch': -2.39, 'roll': -1.01}
{'lipoC2': 7.82, 'temp': 27.31, 'lipoC3S3': 12.01, 'rot1': 0, 'rot0': 0, 'rot3': 0, 'rot2': 0, 'state': 'normal', 'yaw': -4.44, 'datetime': '2018-10-12 16:37:10.402249', 'mgs': 0, 'depth': -0.827, 'time': 3.41, 'pitch': -2.48, 'roll': -0.22}
{'lipoC2': 7.82, 'temp': 27.31, 'lipoC3S3': 12.0, 'rot1': 0, 'rot0': 0, 'rot3': 0, 'rot2': 0, 'state': 'normal', 'yaw': -4.31, 'datetime': '2018-10-12 16:37:10.499627', 'mgs': 0, 'depth': -0.751, 'time': 3.5, 'pitch': -2.92, 'roll': 0.48}
{'lipoC2': 7.82, 'temp': 27.31, 'lipoC3S3': 12.0, 'rot1': 0, 'rot0': 0, 'rot3': 0, 'rot2': 0, 'state': 'normal', 'yaw': -4.2, 'datetime': '2018-10-12 16:37:10.596597', 'mgs': 0, 'depth': -0.674, 'time': 3.6, 'pitch': -3.6, 'roll': 0.73}
{'lipoC2': 7.82, 'temp': 27.31, 'lipoC3S3': 12.01, 'rot1': 0, 'rot0': 0, 'rot3': 0, 'rot2': 0, 'state': 'normal', 'yaw': -4.27, 'datetime': '2018-10-12 16:37:10.694250', 'mgs': 0, 'depth': -0.751, 'time': 3.7, 'pitch': -4.14, 'roll': 0.73}
{'lipoC2': 7.82, 'temp': 27.31, 'lipoC3S3': 12.01, 'rot1': 0, 'rot0': 0, 'rot3': 0, 'rot2': 0, 'state': 'normal', 'yaw': -4.31, 'datetime': '2018-10-12 16:37:10.791357', 'mgs': 0, 'depth': -0.674, 'time': 3.8, 'pitch': -4.42, 'roll': 0.59}
{'lipoC2': 7.82, 'temp': 27.31, 'lipoC3S3': 12.01, 'rot1': 0, 'rot0': 0, 'rot3': 0, 'rot2': 0, 'state': 'normal', 'yaw': -4.31, 'datetime': '2018-10-12 16:37:10.888444', 'mgs': 0, 'depth': -0.751, 'time': 3.89, 'pitch': -4.53, 'roll': 0.3}
{'lipoC2': 7.82, 'temp': 27.31, 'lipoC3S3': 12.01, 'rot1': 0, 'rot0': 0, 'rot3': 0, 'rot2': 0, 'state': 'normal', 'yaw': -4.23, 'datetime': '2018-10-12 16:37:10.985588', 'mgs': 0, 'depth': -0.674, 'time': 3.99, 'pitch': -4.54, 'roll': 0.12}
{'lipoC2': 7.82, 'temp': 27.31, 'lipoC3S3': 12.01, 'rot1': 0, 'rot0': 0, 'rot3': 0, 'rot2': 0, 'state': 'normal', 'yaw': -3.98, 'datetime': '2018-10-12 16:37:11.082596', 'mgs': 0, 'depth': -0.674, 'time': 4.09, 'pitch': -4.43, 'roll': 0.06}
{'lipoC2': 7.82, 'temp': 27.31, 'lipoC3S3': 12.01, 'rot1': 0, 'rot0': 0, 'rot3': 0, 'rot2': 0, 'state': 'normal', 'yaw': -3.5, 'datetime': '2018-10-12 16:37:11.179846', 'mgs': 0, 'depth': -0.751, 'time': 4.18, 'pitch': -4.22, 'roll': -0.04}
{'lipoC2': 7.82, 'temp': 27.31, 'lipoC3S3': 12.01, 'rot1': 0, 'rot0': 0, 'rot3': 0, 'rot2': 0, 'state': 'normal', 'yaw': -2.7, 'datetime': '2018-10-12 16:37:11.276810', 'mgs': 0, 'depth': -0.674, 'time': 4.28, 'pitch': -3.96, 'roll': -0.23}
{'lipoC2': 7.82, 'temp': 27.31, 'lipoC3S3': 12.01, 'rot1': 0, 'rot0': 0, 'rot3': 0, 'rot2': 0, 'state': 'normal', 'yaw': -1.8, 'datetime': '2018-10-12 16:37:11.374059', 'mgs': 0, 'depth': -0.751, 'time': 4.38, 'pitch': -3.77, 'roll': -0.39}
{'lipoC2': 7.81, 'temp': 27.31, 'lipoC3S3': 12.0, 'rot1': 0, 'rot0': 0, 'rot3': 0, 'rot2': 0, 'state': 'normal', 'yaw': -0.84, 'datetime': '2018-10-12 16:37:11.471200', 'mgs': 0, 'depth': -0.674, 'time': 4.48, 'pitch': -3.48, 'roll': -0.47}
{'lipoC2': 7.82, 'temp': 27.31, 'lipoC3S3': 12.0, 'rot1': 0, 'rot0': 0, 'rot3': 0, 'rot2': 0, 'state': 'normal', 'yaw': -0.03, 'datetime': '2018-10-12 16:37:11.568218', 'mgs': 0, 'depth': -0.674, 'time': 4.57, 'pitch': -3.02, 'roll': -0.47}
{'lipoC2': 7.82, 'temp': 27.31, 'lipoC3S3': 12.0, 'rot1': 0, 'rot0': 0, 'rot3': 0, 'rot2': 0, 'state': 'normal', 'yaw': 0.66, 'datetime': '2018-10-12 16:37:11.666282', 'mgs': 0, 'depth': -0.751, 'time': 4.67, 'pitch': -2.49, 'roll': -0.46}
{'lipoC2': 7.82, 'temp': 27.31, 'lipoC3S3': 12.0, 'rot1': 0, 'rot0': 0, 'rot3': 0, 'rot2': 0, 'state': 'normal', 'yaw': 1.38, 'datetime': '2018-10-12 16:37:11.764653', 'mgs': 0, 'depth': -0.674, 'time': 4.77, 'pitch': -1.88, 'roll': -0.31}
{'lipoC2': 7.82, 'temp': 27.31, 'lipoC3S3': 12.01, 'rot1': 0, 'rot0': 0, 'rot3': 0, 'rot2': 0, 'state': 'normal', 'yaw': 2.05, 'datetime': '2018-10-12 16:37:11.861678', 'mgs': 0, 'depth': -0.751, 'time': 4.87, 'pitch': -1.76, 'roll': -0.14}
{'lipoC2': 7.82, 'temp': 27.31, 'lipoC3S3': 12.01, 'rot1': 0, 'rot0': 0, 'rot3': 0, 'rot2': 0, 'state': 'normal', 'yaw': 2.61, 'datetime': '2018-10-12 16:37:11.958911', 'mgs': 0, 'depth': -0.751, 'time': 4.96, 'pitch': -2.19, 'roll': 0.11}
{'lipoC2': 7.82, 'temp': 27.31, 'lipoC3S3': 12.0, 'rot1': 0, 'rot0': 0, 'rot3': 0, 'rot2': 0, 'state': 'normal', 'yaw': 3.0, 'datetime': '2018-10-12 16:37:12.056651', 'mgs': 0, 'depth': -0.674, 'time': 5.06, 'pitch': -2.82, 'roll': 0.31}
{'lipoC2': 7.82, 'temp': 27.31, 'lipoC3S3': 12.01, 'rot1': 0, 'rot0': 0, 'rot3': 0, 'rot2': 0, 'state': 'normal', 'yaw': 3.35, 'datetime': '2018-10-12 16:37:12.155039', 'mgs': 0, 'depth': -0.751, 'time': 5.16, 'pitch': -3.32, 'roll': 0.44}
{'lipoC2': 7.82, 'temp': 27.31, 'lipoC3S3': 12.01, 'rot1': 0, 'rot0': 0, 'rot3': 0, 'rot2': 0, 'state': 'normal', 'yaw': 3.7, 'datetime': '2018-10-12 16:37:12.252143', 'mgs': 0, 'depth': -0.751, 'time': 5.26, 'pitch': -3.39, 'roll': 0.46}
{'lipoC2': 7.81, 'temp': 27.31, 'lipoC3S3': 12.0, 'rot1': 0, 'rot0': 0, 'rot3': 0, 'rot2': 0, 'state': 'normal', 'yaw': 4.07, 'datetime': '2018-10-12 16:37:12.349321', 'mgs': 0, 'depth': -0.674, 'time': 5.36, 'pitch': -3.17, 'roll': 0.39}
{'lipoC2': 7.82, 'temp': 27.31, 'lipoC3S3': 12.01, 'rot1': 0, 'rot0': 0, 'rot3': 0, 'rot2': 0, 'state': 'normal', 'yaw': 4.42, 'datetime': '2018-10-12 16:37:12.447517', 'mgs': 0, 'depth': -0.751, 'time': 5.45, 'pitch': -2.82, 'roll': 0.25}
{'lipoC2': 7.81, 'temp': 27.31, 'lipoC3S3': 12.0, 'rot1': 0, 'rot0': 0, 'rot3': 0, 'rot2': 0, 'state': 'normal', 'yaw': 4.63, 'datetime': '2018-10-12 16:37:12.545736', 'mgs': 0, 'depth': -0.674, 'time': 5.55, 'pitch': -2.65, 'roll': 0.14}
{'lipoC2': 7.82, 'temp': 27.25, 'lipoC3S3': 12.01, 'rot1': 0, 'rot0': 0, 'rot3': 0, 'rot2': 0, 'state': 'normal', 'yaw': 4.53, 'datetime': '2018-10-12 16:37:12.642837', 'mgs': 0, 'depth': -0.751, 'time': 5.65, 'pitch': -2.62, 'roll': 0.47}
{'lipoC2': 7.82, 'temp': 27.25, 'lipoC3S3': 12.01, 'rot1': 0, 'rot0': 0, 'rot3': 0, 'rot2': 0, 'state': 'normal', 'yaw': 4.16, 'datetime': '2018-10-12 16:37:12.740016', 'mgs': 0, 'depth': -0.674, 'time': 5.75, 'pitch': -2.53, 'roll': 0.99}
{'lipoC2': 7.82, 'temp': 27.31, 'lipoC3S3': 12.0, 'rot1': 0, 'rot0': 0, 'rot3': 0, 'rot2': 0, 'state': 'normal', 'yaw': 3.75, 'datetime': '2018-10-12 16:37:12.837272', 'mgs': 0, 'depth': -0.674, 'time': 5.84, 'pitch': -2.3, 'roll': 1.14}
{'lipoC2': 7.82, 'temp': 27.31, 'lipoC3S3': 12.01, 'rot1': 0, 'rot0': 0, 'rot3': 0, 'rot2': 0, 'state': 'normal', 'yaw': 3.44, 'datetime': '2018-10-12 16:37:12.934197', 'mgs': 0, 'depth': -0.751, 'time': 5.94, 'pitch': -1.87, 'roll': 0.82}
{'lipoC2': 7.82, 'temp': 27.31, 'lipoC3S3': 12.01, 'rot1': 0, 'rot0': 0, 'rot3': 0, 'rot2': 0, 'state': 'normal', 'yaw': 3.24, 'datetime': '2018-10-12 16:37:13.031347', 'mgs': 0, 'depth': -0.751, 'time': 6.04, 'pitch': -1.39, 'roll': 0.55}
{'lipoC2': 7.82, 'temp': 27.31, 'lipoC3S3': 12.01, 'rot1': 0, 'rot0': 0, 'rot3': 0, 'rot2': 0, 'state': 'normal', 'yaw': 3.01, 'datetime': '2018-10-12 16:37:13.128559', 'mgs': 0, 'depth': -0.674, 'time': 6.14, 'pitch': -1.04, 'roll': 0.63}
{'lipoC2': 7.82, 'temp': 27.31, 'lipoC3S3': 12.01, 'rot1': 0, 'rot0': 0, 'rot3': 0, 'rot2': 0, 'state': 'normal', 'yaw': 2.61, 'datetime': '2018-10-12 16:37:13.225740', 'mgs': 0, 'depth': -0.751, 'time': 6.23, 'pitch': -0.97, 'roll': 0.88}
{'lipoC2': 7.82, 'temp': 27.31, 'lipoC3S3': 12.01, 'rot1': 0, 'rot0': 0, 'rot3': 0, 'rot2': 0, 'state': 'normal', 'yaw': 2.13, 'datetime': '2018-10-12 16:37:13.322811', 'mgs': 0, 'depth': -0.674, 'time': 6.33, 'pitch': -1.39, 'roll': 1.09}
{'lipoC2': 7.82, 'temp': 27.31, 'lipoC3S3': 12.01, 'rot1': 0, 'rot0': 0, 'rot3': 0, 'rot2': 0, 'state': 'normal', 'yaw': 1.73, 'datetime': '2018-10-12 16:37:13.419941', 'mgs': 0, 'depth': -0.827, 'time': 6.43, 'pitch': -2.26, 'roll': 1.1}
{'lipoC2': 7.82, 'temp': 27.31, 'lipoC3S3': 12.01, 'rot1': 0, 'rot0': 0, 'rot3': 0, 'rot2': 0, 'state': 'normal', 'yaw': 1.35, 'datetime': '2018-10-12 16:37:13.518351', 'mgs': 0, 'depth': -0.751, 'time': 6.53, 'pitch': -3.21, 'roll': 1.1}
{'lipoC2': 7.82, 'temp': 27.31, 'lipoC3S3': 12.01, 'rot1': 0, 'rot0': 0, 'rot3': 0, 'rot2': 0, 'state': 'normal', 'yaw': 0.91, 'datetime': '2018-10-12 16:37:13.616489', 'mgs': 0, 'depth': -0.751, 'time': 6.62, 'pitch': -3.76, 'roll': 1.15}
{'lipoC2': 7.82, 'temp': 27.31, 'lipoC3S3': 12.01, 'rot1': 0, 'rot0': 0, 'rot3': 0, 'rot2': 0, 'state': 'normal', 'yaw': 0.46, 'datetime': '2018-10-12 16:37:13.713375', 'mgs': 0, 'depth': -0.751, 'time': 6.72, 'pitch': -3.37, 'roll': 1.2}
{'lipoC2': 7.81, 'temp': 27.31, 'lipoC3S3': 12.01, 'rot1': 0, 'rot0': 0, 'rot3': 0, 'rot2': 0, 'state': 'normal', 'yaw': 0.08, 'datetime': '2018-10-12 16:37:13.810560', 'mgs': 0, 'depth': -0.674, 'time': 6.82, 'pitch': -2.44, 'roll': 1.12}
{'lipoC2': 7.82, 'temp': 27.31, 'lipoC3S3': 12.01, 'rot1': 0, 'rot0': 0, 'rot3': 0, 'rot2': 0, 'state': 'normal', 'yaw': -0.31, 'datetime': '2018-10-12 16:37:13.908944', 'mgs': 0, 'depth': -0.674, 'time': 6.92, 'pitch': -1.55, 'roll': 1.02}
{'lipoC2': 7.82, 'temp': 27.31, 'lipoC3S3': 12.01, 'rot1': 0, 'rot0': 0, 'rot3': 0, 'rot2': 0, 'state': 'normal', 'yaw': -0.73, 'datetime': '2018-10-12 16:37:14.006619', 'mgs': 0, 'depth': -0.827, 'time': 7.01, 'pitch': -0.62, 'roll': 0.95}
{'lipoC2': 7.82, 'temp': 27.25, 'lipoC3S3': 12.01, 'rot1': 0, 'rot0': 0, 'rot3': 0, 'rot2': 0, 'state': 'normal', 'yaw': -1.05, 'datetime': '2018-10-12 16:37:14.103703', 'mgs': 0, 'depth': -0.827, 'time': 7.11, 'pitch': 0.18, 'roll': 0.7}
{'lipoC2': 7.82, 'temp': 27.25, 'lipoC3S3': 12.0, 'rot1': 0, 'rot0': 0, 'rot3': 0, 'rot2': 0, 'state': 'normal', 'yaw': -1.27, 'datetime': '2018-10-12 16:37:14.201110', 'mgs': 0, 'depth': -0.827, 'time': 7.21, 'pitch': 0.96, 'roll': 0.24}
{'lipoC2': 7.82, 'temp': 27.31, 'lipoC3S3': 12.01, 'rot1': 0, 'rot0': 0, 'rot3': 0, 'rot2': 0, 'state': 'normal', 'yaw': -1.42, 'datetime': '2018-10-12 16:37:14.298357', 'mgs': 0, 'depth': -0.827, 'time': 7.31, 'pitch': 1.61, 'roll': -0.35}
{'lipoC2': 7.82, 'temp': 27.31, 'lipoC3S3': 12.0, 'rot1': 0, 'rot0': 0, 'rot3': 0, 'rot2': 0, 'state': 'normal', 'yaw': -1.55, 'datetime': '2018-10-12 16:37:14.391015', 'mgs': 0, 'depth': -0.903, 'time': 7.4, 'pitch': 2.03, 'roll': -0.95}
{'lipoC2': 7.82, 'temp': 27.31, 'lipoC3S3': 12.0, 'rot1': 0, 'rot0': 0, 'rot3': 0, 'rot2': 0, 'state': 'normal', 'yaw': -1.56, 'datetime': '2018-10-12 16:37:14.491625', 'mgs': 0, 'depth': -0.903, 'time': 7.5, 'pitch': 2.43, 'roll': -1.02}
{'lipoC2': 7.82, 'temp': 27.31, 'lipoC3S3': 12.01, 'rot1': 0, 'rot0': 0, 'rot3': 0, 'rot2': 0, 'state': 'normal', 'yaw': -1.39, 'datetime': '2018-10-12 16:37:14.589576', 'mgs': 0, 'depth': -0.98, 'time': 7.6, 'pitch': 2.71, 'roll': -0.88}
{'lipoC2': 7.82, 'temp': 27.31, 'lipoC3S3': 12.01, 'rot1': 0, 'rot0': 0, 'rot3': 0, 'rot2': 0, 'state': 'normal', 'yaw': -1.15, 'datetime': '2018-10-12 16:37:14.686580', 'mgs': 0, 'depth': -0.98, 'time': 7.7, 'pitch': 2.65, 'roll': -1.02}
{'lipoC2': 7.82, 'temp': 27.31, 'lipoC3S3': 12.0, 'rot1': 0, 'rot0': 0, 'rot3': 0, 'rot2': 0, 'state': 'normal', 'yaw': -1.37, 'datetime': '2018-10-12 16:37:14.783678', 'mgs': 0, 'depth': -0.98, 'time': 7.79, 'pitch': 2.43, 'roll': -1.28}
{'lipoC2': 7.82, 'temp': 27.31, 'lipoC3S3': 12.01, 'rot1': 0, 'rot0': 0, 'rot3': 0, 'rot2': 0, 'state': 'normal', 'yaw': -1.88, 'datetime': '2018-10-12 16:37:14.880783', 'mgs': 0, 'depth': -0.98, 'time': 7.89, 'pitch': 2.42, 'roll': -1.3}
{'lipoC2': 7.82, 'temp': 27.31, 'lipoC3S3': 12.01, 'rot1': 0, 'rot0': 0, 'rot3': 0, 'rot2': 0, 'state': 'normal', 'yaw': -2.46, 'datetime': '2018-10-12 16:37:14.977935', 'mgs': 0, 'depth': -0.98, 'time': 7.99, 'pitch': 2.28, 'roll': -1.01}
{'lipoC2': 7.82, 'temp': 27.31, 'lipoC3S3': 12.01, 'rot1': 0, 'rot0': 0, 'rot3': 0, 'rot2': 0, 'state': 'normal', 'yaw': -2.98, 'datetime': '2018-10-12 16:37:15.075009', 'mgs': 0, 'depth': -0.98, 'time': 8.08, 'pitch': 1.94, 'roll': -0.68}
{'lipoC2': 7.82, 'temp': 27.31, 'lipoC3S3': 12.01, 'rot1': 0, 'rot0': 0, 'rot3': 0, 'rot2': 0, 'state': 'normal', 'yaw': -3.36, 'datetime': '2018-10-12 16:37:15.172697', 'mgs': 0, 'depth': -0.98, 'time': 8.18, 'pitch': 1.84, 'roll': -0.86}
{'lipoC2': 7.82, 'temp': 27.31, 'lipoC3S3': 12.01, 'rot1': 0, 'rot0': 0, 'rot3': 0, 'rot2': 0, 'state': 'normal', 'yaw': -3.73, 'datetime': '2018-10-12 16:37:15.271167', 'mgs': 0, 'depth': -0.827, 'time': 8.28, 'pitch': 2.05, 'roll': -1.01}
{'lipoC2': 7.82, 'temp': 27.31, 'lipoC3S3': 12.01, 'rot1': 0, 'rot0': 0, 'rot3': 0, 'rot2': 0, 'state': 'normal', 'yaw': -4.01, 'datetime': '2018-10-12 16:37:15.368554', 'mgs': 0, 'depth': -0.903, 'time': 8.38, 'pitch': 2.26, 'roll': -0.88}
{'lipoC2': 7.82, 'temp': 27.31, 'lipoC3S3': 12.0, 'rot1': 0, 'rot0': 0, 'rot3': 0, 'rot2': 0, 'state': 'normal', 'yaw': -4.17, 'datetime': '2018-10-12 16:37:15.465691', 'mgs': 0, 'depth': -0.903, 'time': 8.48, 'pitch': 2.18, 'roll': -0.85}
{'lipoC2': 7.82, 'temp': 27.31, 'lipoC3S3': 12.01, 'rot1': 0, 'rot0': 0, 'rot3': 0, 'rot2': 0, 'state': 'normal', 'yaw': -4.23, 'datetime': '2018-10-12 16:37:15.563508', 'mgs': 0, 'depth': -0.903, 'time': 8.57, 'pitch': 1.98, 'roll': -0.86}
{'lipoC2': 7.82, 'temp': 27.31, 'lipoC3S3': 12.01, 'rot1': 0, 'rot0': 0, 'rot3': 0, 'rot2': 0, 'state': 'normal', 'yaw': -4.52, 'datetime': '2018-10-12 16:37:15.661774', 'mgs': 0, 'depth': -0.903, 'time': 8.67, 'pitch': 1.98, 'roll': -0.74}
{'lipoC2': 7.82, 'temp': 27.31, 'lipoC3S3': 12.01, 'rot1': 0, 'rot0': 0, 'rot3': 0, 'rot2': 0, 'state': 'normal', 'yaw': -5.48, 'datetime': '2018-10-12 16:37:15.759165', 'mgs': 0, 'depth': -0.903, 'time': 8.77, 'pitch': 2.6, 'roll': -0.45}
{'lipoC2': 7.82, 'temp': 27.31, 'lipoC3S3': 12.01, 'rot1': 0, 'rot0': 0, 'rot3': 0, 'rot2': 0, 'state': 'normal', 'yaw': -7.08, 'datetime': '2018-10-12 16:37:15.856490', 'mgs': 0, 'depth': -0.903, 'time': 8.86, 'pitch': 3.76, 'roll': -0.19}
{'lipoC2': 7.82, 'temp': 27.31, 'lipoC3S3': 12.0, 'rot1': 0, 'rot0': 0, 'rot3': 0, 'rot2': 0, 'state': 'normal', 'yaw': -8.94, 'datetime': '2018-10-12 16:37:15.953825', 'mgs': 0, 'depth': -0.903, 'time': 8.96, 'pitch': 4.7, 'roll': -0.32}
{'lipoC2': 7.82, 'temp': 27.31, 'lipoC3S3': 12.01, 'rot1': 0, 'rot0': 0, 'rot3': 0, 'rot2': 0, 'state': 'normal', 'yaw': -11.17, 'datetime': '2018-10-12 16:37:16.050920', 'mgs': 0, 'depth': -1.056, 'time': 9.06, 'pitch': 5.21, 'roll': -0.84}
{'lipoC2': 7.82, 'temp': 27.31, 'lipoC3S3': 12.0, 'rot1': 0, 'rot0': 0, 'rot3': 0, 'rot2': 0, 'state': 'normal', 'yaw': -12.93, 'datetime': '2018-10-12 16:37:16.148092', 'mgs': 0, 'depth': -0.98, 'time': 9.16, 'pitch': 4.87, 'roll': -1.23}
{'lipoC2': 7.82, 'temp': 27.31, 'lipoC3S3': 12.0, 'rot1': 0, 'rot0': 0, 'rot3': 0, 'rot2': 0, 'state': 'normal', 'yaw': -14.1, 'datetime': '2018-10-12 16:37:16.245231', 'mgs': 0, 'depth': -0.98, 'time': 9.25, 'pitch': 3.38, 'roll': -1.09}
{'lipoC2': 7.82, 'temp': 27.31, 'lipoC3S3': 12.01, 'rot1': 0, 'rot0': 0, 'rot3': 0, 'rot2': 0, 'state': 'normal', 'yaw': -14.66, 'datetime': '2018-10-12 16:37:16.342137', 'mgs': 0, 'depth': -0.903, 'time': 9.35, 'pitch': 1.71, 'roll': -0.44}
{'lipoC2': 7.82, 'temp': 27.31, 'lipoC3S3': 12.0, 'rot1': 0, 'rot0': 0, 'rot3': 0, 'rot2': 0, 'state': 'normal', 'yaw': -14.69, 'datetime': '2018-10-12 16:37:16.439432', 'mgs': 0, 'depth': -0.903, 'time': 9.45, 'pitch': 0.31, 'roll': 0.33}
{'lipoC2': 7.82, 'temp': 27.31, 'lipoC3S3': 12.01, 'rot1': 0, 'rot0': 0, 'rot3': 0, 'rot2': 0, 'state': 'normal', 'yaw': -14.07, 'datetime': '2018-10-12 16:37:16.536364', 'mgs': 0, 'depth': -0.827, 'time': 9.55, 'pitch': -0.93, 'roll': 0.53}
{'lipoC2': 7.82, 'temp': 27.31, 'lipoC3S3': 12.01, 'rot1': 0, 'rot0': 0, 'rot3': 0, 'rot2': 0, 'state': 'normal', 'yaw': -13.07, 'datetime': '2018-10-12 16:37:16.633521', 'mgs': 0, 'depth': -0.751, 'time': 9.64, 'pitch': -1.28, 'roll': 0.17}
{'lipoC2': 7.82, 'temp': 27.31, 'lipoC3S3': 12.0, 'rot1': 0, 'rot0': 0, 'rot3': 0, 'rot2': 0, 'state': 'normal', 'yaw': -11.43, 'datetime': '2018-10-12 16:37:16.730098', 'mgs': 0, 'depth': -0.751, 'time': 9.74, 'pitch': -0.45, 'roll': -0.44}
{'lipoC2': 7.82, 'temp': 27.31, 'lipoC3S3': 12.01, 'rot1': 0, 'rot0': 0, 'rot3': 0, 'rot2': 0, 'state': 'normal', 'yaw': -9.28, 'datetime': '2018-10-12 16:37:16.827865', 'mgs': 0, 'depth': -0.751, 'time': 9.84, 'pitch': 0.63, 'roll': -0.99}
{'lipoC2': 7.82, 'temp': 27.31, 'lipoC3S3': 12.0, 'rot1': 0, 'rot0': 0, 'rot3': 0, 'rot2': 0, 'state': 'normal', 'yaw': -6.61, 'datetime': '2018-10-12 16:37:16.926482', 'mgs': 0, 'depth': -0.827, 'time': 9.94, 'pitch': 1.63, 'roll': -1.3}
{'lipoC2': 7.82, 'temp': 27.31, 'lipoC3S3': 12.0, 'rot1': 0, 'rot0': 0, 'rot3': 0, 'rot2': 0, 'state': 'normal', 'yaw': -3.29, 'datetime': '2018-10-12 16:37:17.024197', 'mgs': 0, 'depth': -0.827, 'time': 10.03, 'pitch': 2.73, 'roll': -1.03}
{'lipoC2': 7.82, 'temp': 27.31, 'lipoC3S3': 12.01, 'rot1': 0, 'rot0': 0, 'rot3': 0, 'rot2': 0, 'state': 'normal', 'yaw': -0.2, 'datetime': '2018-10-12 16:37:17.121146', 'mgs': 0, 'depth': -0.903, 'time': 10.13, 'pitch': 3.23, 'roll': -0.31}
{'lipoC2': 7.81, 'temp': 27.31, 'lipoC3S3': 12.0, 'rot1': 0, 'rot0': 0, 'rot3': 0, 'rot2': 0, 'state': 'normal', 'yaw': 1.79, 'datetime': '2018-10-12 16:37:17.218325', 'mgs': 0, 'depth': -0.827, 'time': 10.23, 'pitch': 3.28, 'roll': 0.19}
{'lipoC2': 7.82, 'temp': 27.31, 'lipoC3S3': 12.01, 'rot1': 0, 'rot0': 0, 'rot3': 0, 'rot2': 0, 'state': 'normal', 'yaw': 2.33, 'datetime': '2018-10-12 16:37:17.316272', 'mgs': 0, 'depth': -0.827, 'time': 10.33, 'pitch': 3.13, 'roll': 0.35}
{'lipoC2': 7.81, 'temp': 27.31, 'lipoC3S3': 12.01, 'rot1': 0, 'rot0': 0, 'rot3': 0, 'rot2': 0, 'state': 'normal', 'yaw': 1.7, 'datetime': '2018-10-12 16:37:17.414775', 'mgs': 0, 'depth': -0.751, 'time': 10.43, 'pitch': 2.82, 'roll': 0.3}
{'lipoC2': 7.82, 'temp': 27.31, 'lipoC3S3': 12.01, 'rot1': 0, 'rot0': 0, 'rot3': 0, 'rot2': 0, 'state': 'normal', 'yaw': 0.48, 'datetime': '2018-10-12 16:37:17.511718', 'mgs': 0, 'depth': -0.751, 'time': 10.52, 'pitch': 2.68, 'roll': 0.34}
{'lipoC2': 7.81, 'temp': 27.31, 'lipoC3S3': 12.01, 'rot1': 0, 'rot0': 0, 'rot3': 0, 'rot2': 0, 'state': 'normal', 'yaw': -0.58, 'datetime': '2018-10-12 16:37:17.607341', 'mgs': 0, 'depth': -0.827, 'time': 10.62, 'pitch': 2.55, 'roll': 0.41}
{'lipoC2': 7.82, 'temp': 27.31, 'lipoC3S3': 12.01, 'rot1': 0, 'rot0': 0, 'rot3': 0, 'rot2': 0, 'state': 'normal', 'yaw': -1.44, 'datetime': '2018-10-12 16:37:17.708758', 'mgs': 0, 'depth': -0.827, 'time': 10.72, 'pitch': 2.35, 'roll': 0.38}
{'lipoC2': 7.82, 'temp': 27.31, 'lipoC3S3': 12.01, 'rot1': 0, 'rot0': 0, 'rot3': 0, 'rot2': 0, 'state': 'normal', 'yaw': -2.72, 'datetime': '2018-10-12 16:37:17.798154', 'mgs': 0, 'depth': -0.674, 'time': 10.81, 'pitch': 1.84, 'roll': 0.58}
{'lipoC2': 7.81, 'temp': 27.31, 'lipoC3S3': 12.0, 'rot1': 0, 'rot0': 0, 'rot3': 0, 'rot2': 0, 'state': 'normal', 'yaw': -4.17, 'datetime': '2018-10-12 16:37:17.895215', 'mgs': 0, 'depth': -0.674, 'time': 10.91, 'pitch': 1.61, 'roll': 1.33}
{'lipoC2': 7.82, 'temp': 27.31, 'lipoC3S3': 12.01, 'rot1': 0, 'rot0': 0, 'rot3': 0, 'rot2': 0, 'state': 'normal', 'yaw': -5.27, 'datetime': '2018-10-12 16:37:17.992544', 'mgs': 0, 'depth': -0.674, 'time': 11.01, 'pitch': 1.84, 'roll': 2.06}
{'lipoC2': 7.82, 'temp': 27.31, 'lipoC3S3': 12.01, 'rot1': 0, 'rot0': 0, 'rot3': 0, 'rot2': 0, 'state': 'normal', 'yaw': -6.34, 'datetime': '2018-10-12 16:37:18.089592', 'mgs': 0, 'depth': -0.751, 'time': 11.11, 'pitch': 2.21, 'roll': 2.03}
{'lipoC2': 7.82, 'temp': 27.31, 'lipoC3S3': 12.01, 'rot1': 0, 'rot0': 0, 'rot3': 0, 'rot2': 0, 'state': 'normal', 'yaw': -7.0, 'datetime': '2018-10-12 16:37:18.186746', 'mgs': 0, 'depth': -0.674, 'time': 11.2, 'pitch': 2.53, 'roll': 1.32}
{'lipoC2': 7.82, 'temp': 27.31, 'lipoC3S3': 12.01, 'rot1': 0, 'rot0': 0, 'rot3': 0, 'rot2': 0, 'state': 'normal', 'yaw': -7.01, 'datetime': '2018-10-12 16:37:18.283824', 'mgs': 0, 'depth': -0.674, 'time': 11.3, 'pitch': 2.87, 'roll': 0.45}
{'lipoC2': 7.82, 'temp': 27.25, 'lipoC3S3': 12.01, 'rot1': 0, 'rot0': 0, 'rot3': 0, 'rot2': 0, 'state': 'normal', 'yaw': -6.6, 'datetime': '2018-10-12 16:37:18.385723', 'mgs': 0, 'depth': -0.751, 'time': 11.4, 'pitch': 2.95, 'roll': -0.26}
{'lipoC2': 7.82, 'temp': 27.25, 'lipoC3S3': 12.0, 'rot1': 0, 'rot0': 0, 'rot3': 0, 'rot2': 0, 'state': 'normal', 'yaw': -6.13, 'datetime': '2018-10-12 16:37:18.483195', 'mgs': 0, 'depth': -0.751, 'time': 11.49, 'pitch': 2.46, 'roll': -0.33}
{'lipoC2': 7.82, 'temp': 27.25, 'lipoC3S3': 12.0, 'rot1': 0, 'rot0': 0, 'rot3': 0, 'rot2': 0, 'state': 'normal', 'yaw': -5.4, 'datetime': '2018-10-12 16:37:18.580319', 'mgs': 0, 'depth': -0.827, 'time': 11.59, 'pitch': 1.75, 'roll': -0.0}
{'lipoC2': 7.82, 'temp': 27.31, 'lipoC3S3': 12.01, 'rot1': 0, 'rot0': 0, 'rot3': 0, 'rot2': 0, 'state': 'normal', 'yaw': -4.89, 'datetime': '2018-10-12 16:37:18.678919', 'mgs': 0, 'depth': -0.674, 'time': 11.69, 'pitch': 0.75, 'roll': 0.09}
{'lipoC2': 7.82, 'temp': 27.31, 'lipoC3S3': 12.01, 'rot1': 0, 'rot0': 0, 'rot3': 0, 'rot2': 0, 'state': 'normal', 'yaw': -4.46, 'datetime': '2018-10-12 16:37:18.777447', 'mgs': 0, 'depth': -0.827, 'time': 11.79, 'pitch': -0.57, 'roll': 0.28}
{'lipoC2': 7.82, 'temp': 27.31, 'lipoC3S3': 12.01, 'rot1': 0, 'rot0': 0, 'rot3': 0, 'rot2': 0, 'state': 'normal', 'yaw': -3.91, 'datetime': '2018-10-12 16:37:18.874517', 'mgs': 0, 'depth': -0.751, 'time': 11.89, 'pitch': -1.51, 'roll': 0.84}
{'lipoC2': 7.82, 'temp': 27.31, 'lipoC3S3': 12.01, 'rot1': 0, 'rot0': 0, 'rot3': 0, 'rot2': 0, 'state': 'normal', 'yaw': -3.25, 'datetime': '2018-10-12 16:37:18.971569', 'mgs': 0, 'depth': -0.674, 'time': 11.98, 'pitch': -1.82, 'roll': 1.33}
{'lipoC2': 7.82, 'temp': 27.31, 'lipoC3S3': 12.0, 'rot1': 0, 'rot0': 0, 'rot3': 0, 'rot2': 0, 'state': 'normal', 'yaw': -2.74, 'datetime': '2018-10-12 16:37:19.069624', 'mgs': 0, 'depth': -0.674, 'time': 12.08, 'pitch': -1.63, 'roll': 1.11}
{'lipoC2': 7.82, 'temp': 27.31, 'lipoC3S3': 12.01, 'rot1': 0, 'rot0': 0, 'rot3': 0, 'rot2': 0, 'state': 'normal', 'yaw': -2.69, 'datetime': '2018-10-12 16:37:19.168006', 'mgs': 0, 'depth': -0.674, 'time': 12.18, 'pitch': -0.94, 'roll': 0.19}
{'lipoC2': 7.81, 'temp': 27.31, 'lipoC3S3': 12.0, 'rot1': 0, 'rot0': 0, 'rot3': 0, 'rot2': 0, 'state': 'normal', 'yaw': -2.98, 'datetime': '2018-10-12 16:37:19.265845', 'mgs': 0, 'depth': -0.674, 'time': 12.28, 'pitch': 0.14, 'roll': -0.34}
{'lipoC2': 7.81, 'temp': 27.31, 'lipoC3S3': 12.0, 'rot1': 0, 'rot0': 0, 'rot3': 0, 'rot2': 0, 'state': 'normal', 'yaw': -3.25, 'datetime': '2018-10-12 16:37:19.362929', 'mgs': 0, 'depth': -0.751, 'time': 12.38, 'pitch': 1.46, 'roll': 0.01}
{'lipoC2': 7.82, 'temp': 27.31, 'lipoC3S3': 12.01, 'rot1': 0, 'rot0': 0, 'rot3': 0, 'rot2': 0, 'state': 'normal', 'yaw': -3.3, 'datetime': '2018-10-12 16:37:19.460560', 'mgs': 0, 'depth': -0.751, 'time': 12.47, 'pitch': 2.46, 'roll': 0.3}
{'lipoC2': 7.82, 'temp': 27.31, 'lipoC3S3': 12.01, 'rot1': 0, 'rot0': 0, 'rot3': 0, 'rot2': 0, 'state': 'normal', 'yaw': -3.26, 'datetime': '2018-10-12 16:37:19.557651', 'mgs': 0, 'depth': -0.751, 'time': 12.57, 'pitch': 3.03, 'roll': 0.55}
{'lipoC2': 7.82, 'temp': 27.38, 'lipoC3S3': 12.01, 'rot1': 0, 'rot0': 0, 'rot3': 0, 'rot2': 0, 'state': 'normal', 'yaw': -3.05, 'datetime': '2018-10-12 16:37:19.655493', 'mgs': 0, 'depth': -0.827, 'time': 12.67, 'pitch': 2.89, 'roll': 0.69}
{'lipoC2': 7.82, 'temp': 27.38, 'lipoC3S3': 12.0, 'rot1': 0, 'rot0': 0, 'rot3': 0, 'rot2': 0, 'state': 'normal', 'yaw': -2.83, 'datetime': '2018-10-12 16:37:19.752050', 'mgs': 0, 'depth': -0.751, 'time': 12.77, 'pitch': 2.2, 'roll': 0.65}
{'lipoC2': 7.82, 'temp': 27.31, 'lipoC3S3': 12.01, 'rot1': 0, 'rot0': 0, 'rot3': 0, 'rot2': 0, 'state': 'normal', 'yaw': -2.59, 'datetime': '2018-10-12 16:37:19.848967', 'mgs': 0, 'depth': -0.674, 'time': 12.86, 'pitch': 1.1, 'roll': 0.51}
{'lipoC2': 7.82, 'temp': 27.31, 'lipoC3S3': 12.01, 'rot1': 0, 'rot0': 0, 'rot3': 0, 'rot2': 0, 'state': 'normal', 'yaw': -2.36, 'datetime': '2018-10-12 16:37:19.946161', 'mgs': 0, 'depth': -0.674, 'time': 12.96, 'pitch': 0.04, 'roll': 0.75}
{'lipoC2': 7.82, 'temp': 27.31, 'lipoC3S3': 12.01, 'rot1': 0, 'rot0': 0, 'rot3': 0, 'rot2': 0, 'state': 'normal', 'yaw': -2.27, 'datetime': '2018-10-12 16:37:20.043197', 'mgs': 0, 'depth': -0.751, 'time': 13.06, 'pitch': -0.56, 'roll': 1.06}
{'lipoC2': 7.82, 'temp': 27.31, 'lipoC3S3': 12.01, 'rot1': 0, 'rot0': 0, 'rot3': 0, 'rot2': 0, 'state': 'normal', 'yaw': -2.26, 'datetime': '2018-10-12 16:37:20.140291', 'mgs': 0, 'depth': -0.598, 'time': 13.15, 'pitch': -0.41, 'roll': 1.34}
{'lipoC2': 7.82, 'temp': 27.31, 'lipoC3S3': 12.01, 'rot1': 0, 'rot0': 0, 'rot3': 0, 'rot2': 0, 'state': 'normal', 'yaw': -2.08, 'datetime': '2018-10-12 16:37:20.237311', 'mgs': 0, 'depth': -0.674, 'time': 13.25, 'pitch': 0.08, 'roll': 1.61}
{'lipoC2': 7.82, 'temp': 27.31, 'lipoC3S3': 12.01, 'rot1': 0, 'rot0': 0, 'rot3': 0, 'rot2': 0, 'state': 'normal', 'yaw': -2.01, 'datetime': '2018-10-12 16:37:20.334637', 'mgs': 0, 'depth': -0.674, 'time': 13.35, 'pitch': 0.43, 'roll': 1.72}
{'lipoC2': 7.81, 'temp': 27.31, 'lipoC3S3': 12.0, 'rot1': 0, 'rot0': 0, 'rot3': 0, 'rot2': 0, 'state': 'normal', 'yaw': -2.25, 'datetime': '2018-10-12 16:37:20.432312', 'mgs': 0, 'depth': -0.751, 'time': 13.45, 'pitch': 0.62, 'roll': 1.31}
{'lipoC2': 7.82, 'temp': 27.31, 'lipoC3S3': 12.01, 'rot1': 0, 'rot0': 0, 'rot3': 0, 'rot2': 0, 'state': 'normal', 'yaw': -2.84, 'datetime': '2018-10-12 16:37:20.530854', 'mgs': 0, 'depth': -0.751, 'time': 13.55, 'pitch': 0.59, 'roll': 0.23}
{'lipoC2': 7.82, 'temp': 27.31, 'lipoC3S3': 12.0, 'rot1': 0, 'rot0': 0, 'rot3': 0, 'rot2': 0, 'state': 'normal', 'yaw': -3.61, 'datetime': '2018-10-12 16:37:20.627863', 'mgs': 0, 'depth': -0.751, 'time': 13.64, 'pitch': 0.48, 'roll': -0.77}
{'lipoC2': 7.81, 'temp': 27.31, 'lipoC3S3': 12.0, 'rot1': 0, 'rot0': 0, 'rot3': 0, 'rot2': 0, 'state': 'normal', 'yaw': -4.5, 'datetime': '2018-10-12 16:37:20.725001', 'mgs': 0, 'depth': -0.674, 'time': 13.74, 'pitch': 0.23, 'roll': -1.18}
{'lipoC2': 7.82, 'temp': 27.38, 'lipoC3S3': 12.0, 'rot1': 0, 'rot0': 0, 'rot3': 0, 'rot2': 0, 'state': 'normal', 'yaw': -5.12, 'datetime': '2018-10-12 16:37:20.822838', 'mgs': 0, 'depth': -0.674, 'time': 13.84, 'pitch': -0.2, 'roll': -0.89}
{'lipoC2': 7.82, 'temp': 27.38, 'lipoC3S3': 12.01, 'rot1': 0, 'rot0': 0, 'rot3': 0, 'rot2': 0, 'state': 'normal', 'yaw': -5.56, 'datetime': '2018-10-12 16:37:20.921281', 'mgs': 0, 'depth': -0.598, 'time': 13.94, 'pitch': -0.89, 'roll': 0.06}
{'lipoC2': 7.82, 'temp': 27.38, 'lipoC3S3': 12.01, 'rot1': 0, 'rot0': 0, 'rot3': 0, 'rot2': 0, 'state': 'normal', 'yaw': -5.7, 'datetime': '2018-10-12 16:37:21.018327', 'mgs': 0, 'depth': -0.598, 'time': 14.03, 'pitch': -1.39, 'roll': 1.37}
{'lipoC2': 7.81, 'temp': 27.31, 'lipoC3S3': 12.01, 'rot1': 0, 'rot0': 0, 'rot3': 0, 'rot2': 0, 'state': 'normal', 'yaw': -5.56, 'datetime': '2018-10-12 16:37:21.115519', 'mgs': 0, 'depth': -0.598, 'time': 14.13, 'pitch': -1.52, 'roll': 2.31}
{'lipoC2': 7.81, 'temp': 27.31, 'lipoC3S3': 12.01, 'rot1': 0, 'rot0': 0, 'rot3': 0, 'rot2': 0, 'state': 'normal', 'yaw': -5.36, 'datetime': '2018-10-12 16:37:21.212840', 'mgs': 0, 'depth': -0.522, 'time': 14.23, 'pitch': -1.22, 'roll': 2.28}
{'lipoC2': 7.81, 'temp': 27.31, 'lipoC3S3': 12.0, 'rot1': 0, 'rot0': 0, 'rot3': 0, 'rot2': 0, 'state': 'normal', 'yaw': -5.13, 'datetime': '2018-10-12 16:37:21.309946', 'mgs': 0, 'depth': -0.598, 'time': 14.32, 'pitch': -0.63, 'roll': 1.31}
{'lipoC2': 7.82, 'temp': 27.31, 'lipoC3S3': 12.01, 'rot1': 0, 'rot0': 0, 'rot3': 0, 'rot2': 0, 'state': 'normal', 'yaw': -4.88, 'datetime': '2018-10-12 16:37:21.406992', 'mgs': 0, 'depth': -0.751, 'time': 14.42, 'pitch': -0.21, 'roll': -0.3}
{'lipoC2': 7.81, 'temp': 27.31, 'lipoC3S3': 12.01, 'rot1': 0, 'rot0': 0, 'rot3': 0, 'rot2': 0, 'state': 'normal', 'yaw': -4.5, 'datetime': '2018-10-12 16:37:21.504264', 'mgs': 0, 'depth': -0.674, 'time': 14.52, 'pitch': -0.29, 'roll': -1.7}
{'lipoC2': 7.82, 'temp': 27.31, 'lipoC3S3': 12.01, 'rot1': 0, 'rot0': 0, 'rot3': 0, 'rot2': 0, 'state': 'normal', 'yaw': -4.03, 'datetime': '2018-10-12 16:37:21.601338', 'mgs': 0, 'depth': -0.674, 'time': 14.62, 'pitch': -0.75, 'roll': -2.09}
{'lipoC2': 7.82, 'temp': 27.31, 'lipoC3S3': 12.01, 'rot1': 0, 'rot0': 0, 'rot3': 0, 'rot2': 0, 'state': 'normal', 'yaw': -3.58, 'datetime': '2018-10-12 16:37:21.698567', 'mgs': 0, 'depth': -0.751, 'time': 14.71, 'pitch': -1.57, 'roll': -1.77}
{'lipoC2': 7.81, 'temp': 27.31, 'lipoC3S3': 12.0, 'rot1': 0, 'rot0': 0, 'rot3': 0, 'rot2': 0, 'state': 'normal', 'yaw': -3.34, 'datetime': '2018-10-12 16:37:21.795551', 'mgs': 0, 'depth': -0.598, 'time': 14.81, 'pitch': -2.46, 'roll': -1.32}
{'lipoC2': 7.82, 'temp': 27.31, 'lipoC3S3': 12.01, 'rot1': 0, 'rot0': 0, 'rot3': 0, 'rot2': 0, 'state': 'normal', 'yaw': -3.27, 'datetime': '2018-10-12 16:37:21.892829', 'mgs': 0, 'depth': -0.598, 'time': 14.91, 'pitch': -3.14, 'roll': -1.04}
{'lipoC2': 7.82, 'temp': 27.31, 'lipoC3S3': 12.01, 'rot1': 0, 'rot0': 0, 'rot3': 0, 'rot2': 0, 'state': 'normal', 'yaw': -3.26, 'datetime': '2018-10-12 16:37:21.989758', 'mgs': 0, 'depth': -0.598, 'time': 15.01, 'pitch': -3.81, 'roll': -1.15}
{'lipoC2': 7.82, 'temp': 27.31, 'lipoC3S3': 12.0, 'rot1': 0, 'rot0': 0, 'rot3': 0, 'rot2': 0, 'state': 'normal', 'yaw': -3.26, 'datetime': '2018-10-12 16:37:22.086926', 'mgs': 0, 'depth': -0.598, 'time': 15.1, 'pitch': -4.4, 'roll': -1.68}
{'lipoC2': 7.82, 'temp': 27.31, 'lipoC3S3': 12.01, 'rot1': 0, 'rot0': 0, 'rot3': 0, 'rot2': 0, 'state': 'normal', 'yaw': -3.4, 'datetime': '2018-10-12 16:37:22.185010', 'mgs': 0, 'depth': -0.598, 'time': 15.2, 'pitch': -4.71, 'roll': -2.1}
{'lipoC2': 7.82, 'temp': 27.31, 'lipoC3S3': 12.0, 'rot1': 0, 'rot0': 0, 'rot3': 0, 'rot2': 0, 'state': 'normal', 'yaw': -3.66, 'datetime': '2018-10-12 16:37:22.283486', 'mgs': 0, 'depth': -0.598, 'time': 15.3, 'pitch': -5.0, 'roll': -2.39}
{'lipoC2': 7.81, 'temp': 27.31, 'lipoC3S3': 12.01, 'rot1': 0, 'rot0': 0, 'rot3': 0, 'rot2': 0, 'state': 'normal', 'yaw': -3.82, 'datetime': '2018-10-12 16:37:22.380664', 'mgs': 0, 'depth': -0.598, 'time': 15.4, 'pitch': -5.05, 'roll': -2.54}
{'lipoC2': 7.82, 'temp': 27.31, 'lipoC3S3': 12.01, 'rot1': 0, 'rot0': 0, 'rot3': 0, 'rot2': 0, 'state': 'normal', 'yaw': -3.95, 'datetime': '2018-10-12 16:37:22.477773', 'mgs': 0, 'depth': -0.598, 'time': 15.49, 'pitch': -4.91, 'roll': -2.86}
{'lipoC2': 7.82, 'temp': 27.25, 'lipoC3S3': 12.01, 'rot1': 0, 'rot0': 0, 'rot3': 0, 'rot2': 0, 'state': 'normal', 'yaw': -4.08, 'datetime': '2018-10-12 16:37:22.575569', 'mgs': 0, 'depth': -0.598, 'time': 15.59, 'pitch': -4.63, 'roll': -3.37}
{'lipoC2': 7.81, 'temp': 27.25, 'lipoC3S3': 12.0, 'rot1': 0, 'rot0': 0, 'rot3': 0, 'rot2': 0, 'state': 'normal', 'yaw': -4.12, 'datetime': '2018-10-12 16:37:22.674041', 'mgs': 0, 'depth': -0.598, 'time': 15.69, 'pitch': -4.11, 'roll': -4.05}
{'lipoC2': 7.82, 'temp': 27.31, 'lipoC3S3': 12.01, 'rot1': 0, 'rot0': 0, 'rot3': 0, 'rot2': 0, 'state': 'normal', 'yaw': -4.13, 'datetime': '2018-10-12 16:37:22.771092', 'mgs': 0, 'depth': -0.598, 'time': 15.79, 'pitch': -3.38, 'roll': -4.6}
{'lipoC2': 7.82, 'temp': 27.31, 'lipoC3S3': 12.01, 'rot1': 0, 'rot0': 0, 'rot3': 0, 'rot2': 0, 'state': 'normal', 'yaw': -4.07, 'datetime': '2018-10-12 16:37:22.868196', 'mgs': 0, 'depth': -0.674, 'time': 15.88, 'pitch': -2.44, 'roll': -4.63}
{'lipoC2': 7.82, 'temp': 27.31, 'lipoC3S3': 12.01, 'rot1': 0, 'rot0': 0, 'rot3': 0, 'rot2': 0, 'state': 'normal', 'yaw': -3.96, 'datetime': '2018-10-12 16:37:22.966066', 'mgs': 0, 'depth': -0.751, 'time': 15.98, 'pitch': -1.67, 'roll': -4.34}
{'lipoC2': 7.82, 'temp': 27.31, 'lipoC3S3': 12.0, 'rot1': 0, 'rot0': 0, 'rot3': 0, 'rot2': 0, 'state': 'normal', 'yaw': -3.76, 'datetime': '2018-10-12 16:37:23.063855', 'mgs': 0, 'depth': -0.751, 'time': 16.08, 'pitch': -1.23, 'roll': -3.87}
{'lipoC2': 7.82, 'temp': 27.31, 'lipoC3S3': 12.0, 'rot1': 0, 'rot0': 0, 'rot3': 0, 'rot2': 0, 'state': 'normal', 'yaw': -3.52, 'datetime': '2018-10-12 16:37:23.160220', 'mgs': 0, 'depth': -0.751, 'time': 16.18, 'pitch': -1.49, 'roll': -3.43}
{'lipoC2': 7.81, 'temp': 27.38, 'lipoC3S3': 12.01, 'rot1': 0, 'rot0': 0, 'rot3': 0, 'rot2': 0, 'state': 'normal', 'yaw': -3.36, 'datetime': '2018-10-12 16:37:23.257250', 'mgs': 0, 'depth': -0.598, 'time': 16.27, 'pitch': -2.1, 'roll': -3.07}
{'lipoC2': 7.81, 'temp': 27.38, 'lipoC3S3': 12.0, 'rot1': 0, 'rot0': 0, 'rot3': 0, 'rot2': 0, 'state': 'normal', 'yaw': -3.25, 'datetime': '2018-10-12 16:37:23.354564', 'mgs': 0, 'depth': -0.598, 'time': 16.37, 'pitch': -2.86, 'roll': -2.76}
{'lipoC2': 7.82, 'temp': 27.38, 'lipoC3S3': 12.01, 'rot1': 0, 'rot0': 0, 'rot3': 0, 'rot2': 0, 'state': 'normal', 'yaw': -3.22, 'datetime': '2018-10-12 16:37:23.451578', 'mgs': 0, 'depth': -0.674, 'time': 16.47, 'pitch': -3.58, 'roll': -2.82}
{'lipoC2': 7.82, 'temp': 27.31, 'lipoC3S3': 12.01, 'rot1': 0, 'rot0': 0, 'rot3': 0, 'rot2': 0, 'state': 'normal', 'yaw': -3.14, 'datetime': '2018-10-12 16:37:23.548749', 'mgs': 0, 'depth': -0.522, 'time': 16.57, 'pitch': -4.24, 'roll': -3.19}
{'lipoC2': 7.81, 'temp': 27.31, 'lipoC3S3': 12.0, 'rot1': 0, 'rot0': 0, 'rot3': 0, 'rot2': 0, 'state': 'normal', 'yaw': -3.03, 'datetime': '2018-10-12 16:37:23.645846', 'mgs': 0, 'depth': -0.522, 'time': 16.66, 'pitch': -4.58, 'roll': -3.54}
{'lipoC2': 7.81, 'temp': 27.31, 'lipoC3S3': 12.01, 'rot1': 0, 'rot0': 0, 'rot3': 0, 'rot2': 0, 'state': 'normal', 'yaw': -2.84, 'datetime': '2018-10-12 16:37:23.742871', 'mgs': 0, 'depth': -0.598, 'time': 16.76, 'pitch': -4.58, 'roll': -3.8}
{'lipoC2': 7.82, 'temp': 27.31, 'lipoC3S3': 12.01, 'rot1': 0, 'rot0': 0, 'rot3': 0, 'rot2': 0, 'state': 'normal', 'yaw': -2.68, 'datetime': '2018-10-12 16:37:23.839970', 'mgs': 0, 'depth': -0.598, 'time': 16.86, 'pitch': -3.98, 'roll': -3.74}
{'lipoC2': 7.82, 'temp': 27.31, 'lipoC3S3': 12.01, 'rot1': 0, 'rot0': 0, 'rot3': 0, 'rot2': 0, 'state': 'normal', 'yaw': -2.37, 'datetime': '2018-10-12 16:37:23.938347', 'mgs': 0, 'depth': -0.674, 'time': 16.95, 'pitch': -3.13, 'roll': -3.22}
{'lipoC2': 7.82, 'temp': 27.38, 'lipoC3S3': 12.01, 'rot1': 0, 'rot0': 0, 'rot3': 0, 'rot2': 0, 'state': 'normal', 'yaw': -1.78, 'datetime': '2018-10-12 16:37:24.036163', 'mgs': 0, 'depth': -0.674, 'time': 17.05, 'pitch': -2.19, 'roll': -2.85}
{'lipoC2': 7.82, 'temp': 27.38, 'lipoC3S3': 12.01, 'rot1': 0, 'rot0': 0, 'rot3': 0, 'rot2': 0, 'state': 'normal', 'yaw': -1.26, 'datetime': '2018-10-12 16:37:24.130074', 'mgs': 0, 'depth': -0.598, 'time': 17.15, 'pitch': -1.42, 'roll': -2.91}
{'lipoC2': 7.82, 'temp': 27.31, 'lipoC3S3': 12.01, 'rot1': 0, 'rot0': 0, 'rot3': 0, 'rot2': 0, 'state': 'normal', 'yaw': -0.99, 'datetime': '2018-10-12 16:37:24.229642', 'mgs': 0, 'depth': -0.674, 'time': 17.25, 'pitch': -0.67, 'roll': -3.46}
{'lipoC2': 7.82, 'temp': 27.31, 'lipoC3S3': 12.01, 'rot1': 0, 'rot0': 0, 'rot3': 0, 'rot2': 0, 'state': 'normal', 'yaw': -0.99, 'datetime': '2018-10-12 16:37:24.328813', 'mgs': 0, 'depth': -0.674, 'time': 17.35, 'pitch': -0.06, 'roll': -4.34}
{'lipoC2': 7.82, 'temp': 27.31, 'lipoC3S3': 12.01, 'rot1': 0, 'rot0': 0, 'rot3': 0, 'rot2': 0, 'state': 'normal', 'yaw': -1.15, 'datetime': '2018-10-12 16:37:24.427130', 'mgs': 0, 'depth': -0.751, 'time': 17.44, 'pitch': 0.32, 'roll': -5.3}
{'lipoC2': 7.82, 'temp': 27.31, 'lipoC3S3': 12.01, 'rot1': 0, 'rot0': 0, 'rot3': 0, 'rot2': 0, 'state': 'normal', 'yaw': -1.53, 'datetime': '2018-10-12 16:37:24.524115', 'mgs': 0, 'depth': -0.751, 'time': 17.54, 'pitch': 0.01, 'roll': -5.54}
{'lipoC2': 7.82, 'temp': 27.31, 'lipoC3S3': 12.01, 'rot1': 0, 'rot0': 0, 'rot3': 0, 'rot2': 0, 'state': 'normal', 'yaw': -2.16, 'datetime': '2018-10-12 16:37:24.621250', 'mgs': 0, 'depth': -0.674, 'time': 17.64, 'pitch': -0.66, 'roll': -5.05}
{'lipoC2': 7.82, 'temp': 27.31, 'lipoC3S3': 12.01, 'rot1': 0, 'rot0': 0, 'rot3': 0, 'rot2': 0, 'state': 'normal', 'yaw': -2.8, 'datetime': '2018-10-12 16:37:24.718309', 'mgs': 0, 'depth': -0.674, 'time': 17.74, 'pitch': -1.26, 'roll': -4.21}
{'lipoC2': 7.82, 'temp': 27.31, 'lipoC3S3': 12.01, 'rot1': 0, 'rot0': 0, 'rot3': 0, 'rot2': 0, 'state': 'normal', 'yaw': -3.44, 'datetime': '2018-10-12 16:37:24.815613', 'mgs': 0, 'depth': -0.751, 'time': 17.83, 'pitch': -1.58, 'roll': -3.2}
{'lipoC2': 7.82, 'temp': 27.31, 'lipoC3S3': 12.0, 'rot1': 0, 'rot0': 0, 'rot3': 0, 'rot2': 0, 'state': 'normal', 'yaw': -4.07, 'datetime': '2018-10-12 16:37:24.912545', 'mgs': 0, 'depth': -0.598, 'time': 17.93, 'pitch': -1.44, 'roll': -2.46}
{'lipoC2': 7.82, 'temp': 27.31, 'lipoC3S3': 12.01, 'rot1': 0, 'rot0': 0, 'rot3': 0, 'rot2': 0, 'state': 'normal', 'yaw': -4.59, 'datetime': '2018-10-12 16:37:25.009741', 'mgs': 0, 'depth': -0.598, 'time': 18.03, 'pitch': -1.0, 'roll': -2.15}
{'lipoC2': 7.82, 'temp': 27.31, 'lipoC3S3': 12.0, 'rot1': 0, 'rot0': 0, 'rot3': 0, 'rot2': 0, 'state': 'normal', 'yaw': -4.97, 'datetime': '2018-10-12 16:37:25.106986', 'mgs': 0, 'depth': -0.598, 'time': 18.13, 'pitch': -0.51, 'roll': -2.27}
{'lipoC2': 7.82, 'temp': 27.31, 'lipoC3S3': 12.01, 'rot1': 0, 'rot0': 0, 'rot3': 0, 'rot2': 0, 'state': 'normal', 'yaw': -5.12, 'datetime': '2018-10-12 16:37:25.204021', 'mgs': 0, 'depth': -0.674, 'time': 18.22, 'pitch': -0.18, 'roll': -2.62}
{'lipoC2': 7.82, 'temp': 27.31, 'lipoC3S3': 12.01, 'rot1': 0, 'rot0': 0, 'rot3': 0, 'rot2': 0, 'state': 'normal', 'yaw': -5.14, 'datetime': '2018-10-12 16:37:25.301150', 'mgs': 0, 'depth': -0.674, 'time': 18.32, 'pitch': 0.14, 'roll': -2.91}
{'lipoC2': 7.81, 'temp': 27.31, 'lipoC3S3': 12.01, 'rot1': 0, 'rot0': 0, 'rot3': 0, 'rot2': 0, 'state': 'normal', 'yaw': -5.05, 'datetime': '2018-10-12 16:37:25.398177', 'mgs': 0, 'depth': -0.674, 'time': 18.42, 'pitch': 0.49, 'roll': -3.09}
{'lipoC2': 7.82, 'temp': 27.38, 'lipoC3S3': 12.01, 'rot1': 0, 'rot0': 0, 'rot3': 0, 'rot2': 0, 'state': 'normal', 'yaw': -4.82, 'datetime': '2018-10-12 16:37:25.495299', 'mgs': 0, 'depth': -0.674, 'time': 18.51, 'pitch': 0.73, 'roll': -3.25}
{'lipoC2': 7.82, 'temp': 27.38, 'lipoC3S3': 12.0, 'rot1': 0, 'rot0': 0, 'rot3': 0, 'rot2': 0, 'state': 'normal', 'yaw': -4.58, 'datetime': '2018-10-12 16:37:25.592432', 'mgs': 0, 'depth': -0.674, 'time': 18.61, 'pitch': 0.61, 'roll': -3.45}
{'lipoC2': 7.82, 'temp': 27.31, 'lipoC3S3': 12.01, 'rot1': 0, 'rot0': 0, 'rot3': 0, 'rot2': 0, 'state': 'normal', 'yaw': -4.41, 'datetime': '2018-10-12 16:37:25.690806', 'mgs': 0, 'depth': -0.751, 'time': 18.71, 'pitch': 0.25, 'roll': -3.58}
{'lipoC2': 7.82, 'temp': 27.31, 'lipoC3S3': 12.01, 'rot1': 0, 'rot0': 0, 'rot3': 0, 'rot2': 0, 'state': 'normal', 'yaw': -4.36, 'datetime': '2018-10-12 16:37:25.787564', 'mgs': 0, 'depth': -0.598, 'time': 18.81, 'pitch': -0.2, 'roll': -3.46}
{'lipoC2': 7.82, 'temp': 27.38, 'lipoC3S3': 12.0, 'rot1': 0, 'rot0': 0, 'rot3': 0, 'rot2': 0, 'state': 'normal', 'yaw': -4.44, 'datetime': '2018-10-12 16:37:25.881617', 'mgs': 0, 'depth': -0.598, 'time': 18.91, 'pitch': -0.31, 'roll': -2.87}
{'lipoC2': 7.82, 'temp': 27.38, 'lipoC3S3': 12.0, 'rot1': 0, 'rot0': 0, 'rot3': 0, 'rot2': 0, 'state': 'normal', 'yaw': -4.42, 'datetime': '2018-10-12 16:37:25.982052', 'mgs': 0, 'depth': -0.674, 'time': 19.0, 'pitch': -0.06, 'roll': -2.12}
{'lipoC2': 7.82, 'temp': 27.38, 'lipoC3S3': 12.0, 'rot1': 0, 'rot0': 0, 'rot3': 0, 'rot2': 0, 'state': 'normal', 'yaw': -4.32, 'datetime': '2018-10-12 16:37:26.081474', 'mgs': 0, 'depth': -0.598, 'time': 19.1, 'pitch': 0.53, 'roll': -1.69}
{'lipoC2': 7.81, 'temp': 27.25, 'lipoC3S3': 12.0, 'rot1': 0, 'rot0': 0, 'rot3': 0, 'rot2': 0, 'state': 'normal', 'yaw': -4.16, 'datetime': '2018-10-12 16:37:26.179815', 'mgs': 0, 'depth': -0.598, 'time': 19.2, 'pitch': 1.47, 'roll': -1.62}
{'lipoC2': 7.82, 'temp': 27.25, 'lipoC3S3': 12.01, 'rot1': 0, 'rot0': 0, 'rot3': 0, 'rot2': 0, 'state': 'normal', 'yaw': -3.93, 'datetime': '2018-10-12 16:37:26.276914', 'mgs': 0, 'depth': -0.674, 'time': 19.3, 'pitch': 2.21, 'roll': -2.17}
{'lipoC2': 7.82, 'temp': 27.31, 'lipoC3S3': 12.01, 'rot1': 0, 'rot0': 0, 'rot3': 0, 'rot2': 0, 'state': 'normal', 'yaw': -3.65, 'datetime': '2018-10-12 16:37:26.374171', 'mgs': 0, 'depth': -0.674, 'time': 19.39, 'pitch': 2.57, 'roll': -3.01}
{'lipoC2': 7.82, 'temp': 27.31, 'lipoC3S3': 12.01, 'rot1': 0, 'rot0': 0, 'rot3': 0, 'rot2': 0, 'state': 'normal', 'yaw': -3.19, 'datetime': '2018-10-12 16:37:26.472229', 'mgs': 0, 'depth': -0.751, 'time': 19.49, 'pitch': 2.67, 'roll': -3.73}
{'lipoC2': 7.82, 'temp': 27.31, 'lipoC3S3': 12.01, 'rot1': 0, 'rot0': 0, 'rot3': 0, 'rot2': 0, 'state': 'normal', 'yaw': -2.52, 'datetime': '2018-10-12 16:37:26.568948', 'mgs': 0, 'depth': -0.751, 'time': 19.59, 'pitch': 2.54, 'roll': -4.45}
{'lipoC2': 7.82, 'temp': 27.31, 'lipoC3S3': 12.01, 'rot1': 0, 'rot0': 0, 'rot3': 0, 'rot2': 0, 'state': 'normal', 'yaw': -1.77, 'datetime': '2018-10-12 16:37:26.666248', 'mgs': 0, 'depth': -0.674, 'time': 19.69, 'pitch': 2.45, 'roll': -4.72}
{'lipoC2': 7.82, 'temp': 27.31, 'lipoC3S3': 12.01, 'rot1': 0, 'rot0': 0, 'rot3': 0, 'rot2': 0, 'state': 'normal', 'yaw': -1.12, 'datetime': '2018-10-12 16:37:26.763126', 'mgs': 0, 'depth': -0.751, 'time': 19.78, 'pitch': 2.55, 'roll': -4.53}
{'lipoC2': 7.82, 'temp': 27.38, 'lipoC3S3': 12.01, 'rot1': 0, 'rot0': 0, 'rot3': 0, 'rot2': 0, 'state': 'normal', 'yaw': -0.72, 'datetime': '2018-10-12 16:37:26.860296', 'mgs': 0, 'depth': -0.674, 'time': 19.88, 'pitch': 2.7, 'roll': -4.17}
{'lipoC2': 7.82, 'temp': 27.38, 'lipoC3S3': 12.0, 'rot1': 0, 'rot0': 0, 'rot3': 0, 'rot2': 0, 'state': 'normal', 'yaw': -0.49, 'datetime': '2018-10-12 16:37:26.957427', 'mgs': 0, 'depth': -0.598, 'time': 19.98, 'pitch': 2.61, 'roll': -3.86}
{'lipoC2': 7.82, 'temp': 27.38, 'lipoC3S3': 12.0, 'rot1': 0, 'rot0': 0, 'rot3': 0, 'rot2': 0, 'state': 'normal', 'yaw': -0.4, 'datetime': '2018-10-12 16:37:27.054460', 'mgs': 0, 'depth': -0.598, 'time': 20.08, 'pitch': 2.17, 'roll': -3.86}
{'lipoC2': 7.82, 'temp': 27.31, 'lipoC3S3': 12.01, 'rot1': 0, 'rot0': 0, 'rot3': 0, 'rot2': 0, 'state': 'normal', 'yaw': -0.38, 'datetime': '2018-10-12 16:37:27.151622', 'mgs': 0, 'depth': -0.674, 'time': 20.17, 'pitch': 1.55, 'roll': -4.04}
{'lipoC2': 7.82, 'temp': 27.31, 'lipoC3S3': 12.0, 'rot1': 0, 'rot0': 0, 'rot3': 0, 'rot2': 0, 'state': 'normal', 'yaw': -0.57, 'datetime': '2018-10-12 16:37:27.248711', 'mgs': 0, 'depth': -0.598, 'time': 20.27, 'pitch': 0.94, 'roll': -4.33}
{'lipoC2': 7.82, 'temp': 27.31, 'lipoC3S3': 12.01, 'rot1': 0, 'rot0': 0, 'rot3': 0, 'rot2': 0, 'state': 'normal', 'yaw': -0.99, 'datetime': '2018-10-12 16:37:27.345672', 'mgs': 0, 'depth': -0.598, 'time': 20.37, 'pitch': 0.88, 'roll': -4.63}
{'lipoC2': 7.82, 'temp': 27.31, 'lipoC3S3': 12.01, 'rot1': 0, 'rot0': 0, 'rot3': 0, 'rot2': 0, 'state': 'normal', 'yaw': -1.44, 'datetime': '2018-10-12 16:37:27.444054', 'mgs': 0, 'depth': -0.674, 'time': 20.46, 'pitch': 1.45, 'roll': -4.61}
{'lipoC2': 7.82, 'temp': 27.31, 'lipoC3S3': 12.0, 'rot1': 0, 'rot0': 0, 'rot3': 0, 'rot2': 0, 'state': 'normal', 'yaw': -1.76, 'datetime': '2018-10-12 16:37:27.542370', 'mgs': 0, 'depth': -0.598, 'time': 20.56, 'pitch': 2.47, 'roll': -4.19}
{'lipoC2': 7.81, 'temp': 27.31, 'lipoC3S3': 12.01, 'rot1': 0, 'rot0': 0, 'rot3': 0, 'rot2': 0, 'state': 'normal', 'yaw': -1.72, 'datetime': '2018-10-12 16:37:27.639438', 'mgs': 0, 'depth': -0.598, 'time': 20.66, 'pitch': 3.53, 'roll': -3.51}
{'lipoC2': 7.82, 'temp': 27.31, 'lipoC3S3': 12.01, 'rot1': 0, 'rot0': 0, 'rot3': 0, 'rot2': 0, 'state': 'normal', 'yaw': -1.34, 'datetime': '2018-10-12 16:37:27.736477', 'mgs': 0, 'depth': -0.674, 'time': 20.76, 'pitch': 4.09, 'roll': -3.21}
{'lipoC2': 7.81, 'temp': 27.31, 'lipoC3S3': 12.01, 'rot1': 0, 'rot0': 0, 'rot3': 0, 'rot2': 0, 'state': 'normal', 'yaw': -0.71, 'datetime': '2018-10-12 16:37:27.834656', 'mgs': 0, 'depth': -0.598, 'time': 20.85, 'pitch': 4.1, 'roll': -3.28}
{'lipoC2': 7.81, 'temp': 27.31, 'lipoC3S3': 12.0, 'rot1': 0, 'rot0': 0, 'rot3': 0, 'rot2': 0, 'state': 'normal', 'yaw': 0.04, 'datetime': '2018-10-12 16:37:27.932819', 'mgs': 0, 'depth': -0.598, 'time': 20.95, 'pitch': 3.72, 'roll': -3.53}
{'lipoC2': 7.82, 'temp': 27.31, 'lipoC3S3': 12.01, 'rot1': 0, 'rot0': 0, 'rot3': 0, 'rot2': 0, 'state': 'normal', 'yaw': 0.67, 'datetime': '2018-10-12 16:37:28.029888', 'mgs': 0, 'depth': -0.674, 'time': 21.05, 'pitch': 3.41, 'roll': -3.66}
{'lipoC2': 7.82, 'temp': 27.38, 'lipoC3S3': 12.0, 'rot1': 0, 'rot0': 0, 'rot3': 0, 'rot2': 0, 'state': 'normal', 'yaw': 1.31, 'datetime': '2018-10-12 16:37:28.127058', 'mgs': 0, 'depth': -0.674, 'time': 21.15, 'pitch': 3.36, 'roll': -3.02}
{'lipoC2': 7.82, 'temp': 27.38, 'lipoC3S3': 12.01, 'rot1': 0, 'rot0': 0, 'rot3': 0, 'rot2': 0, 'state': 'normal', 'yaw': 1.89, 'datetime': '2018-10-12 16:37:28.225097', 'mgs': 0, 'depth': -0.598, 'time': 21.25, 'pitch': 3.27, 'roll': -1.48}
{'lipoC2': 7.82, 'temp': 27.38, 'lipoC3S3': 12.0, 'rot1': 0, 'rot0': 0, 'rot3': 0, 'rot2': 0, 'state': 'normal', 'yaw': 2.36, 'datetime': '2018-10-12 16:37:28.322256', 'mgs': 0, 'depth': -0.674, 'time': 21.34, 'pitch': 3.06, 'roll': -0.39}
{'lipoC2': 7.82, 'temp': 27.38, 'lipoC3S3': 12.01, 'rot1': 0, 'rot0': 0, 'rot3': 0, 'rot2': 0, 'state': 'normal', 'yaw': 2.48, 'datetime': '2018-10-12 16:37:28.419479', 'mgs': 0, 'depth': -0.751, 'time': 21.44, 'pitch': 2.62, 'roll': -0.41}
{'lipoC2': 7.82, 'temp': 27.38, 'lipoC3S3': 12.0, 'rot1': 0, 'rot0': 0, 'rot3': 0, 'rot2': 0, 'state': 'normal', 'yaw': 2.25, 'datetime': '2018-10-12 16:37:28.516315', 'mgs': 0, 'depth': -0.674, 'time': 21.54, 'pitch': 2.13, 'roll': -1.77}
{'lipoC2': 7.82, 'temp': 27.38, 'lipoC3S3': 12.0, 'rot1': 0, 'rot0': 0, 'rot3': 0, 'rot2': 0, 'state': 'normal', 'yaw': 1.91, 'datetime': '2018-10-12 16:37:28.608843', 'mgs': 0, 'depth': -0.674, 'time': 21.64, 'pitch': 1.75, 'roll': -3.57}
{'lipoC2': 7.82, 'temp': 27.38, 'lipoC3S3': 12.0, 'rot1': 0, 'rot0': 0, 'rot3': 0, 'rot2': 0, 'state': 'normal', 'yaw': 1.7, 'datetime': '2018-10-12 16:37:28.705926', 'mgs': 0, 'depth': -0.751, 'time': 21.73, 'pitch': 1.78, 'roll': -4.53}
{'lipoC2': 7.81, 'temp': 27.31, 'lipoC3S3': 12.0, 'rot1': 0, 'rot0': 0, 'rot3': 0, 'rot2': 0, 'state': 'normal', 'yaw': 1.79, 'datetime': '2018-10-12 16:37:28.806274', 'mgs': 0, 'depth': -0.674, 'time': 21.83, 'pitch': 2.22, 'roll': -4.2}
{'lipoC2': 7.82, 'temp': 27.31, 'lipoC3S3': 12.01, 'rot1': 0, 'rot0': 0, 'rot3': 0, 'rot2': 0, 'state': 'normal', 'yaw': 2.12, 'datetime': '2018-10-12 16:37:28.904772', 'mgs': 0, 'depth': -0.751, 'time': 21.93, 'pitch': 2.73, 'roll': -2.64}
{'lipoC2': 7.81, 'temp': 27.31, 'lipoC3S3': 12.0, 'rot1': 0, 'rot0': 0, 'rot3': 0, 'rot2': 0, 'state': 'normal', 'yaw': 2.66, 'datetime': '2018-10-12 16:37:29.001906', 'mgs': 0, 'depth': -0.674, 'time': 22.02, 'pitch': 2.92, 'roll': -0.37}
{'lipoC2': 7.81, 'temp': 27.31, 'lipoC3S3': 12.0, 'rot1': 0, 'rot0': 0, 'rot3': 0, 'rot2': 0, 'state': 'normal', 'yaw': 3.13, 'datetime': '2018-10-12 16:37:29.099017', 'mgs': 0, 'depth': -0.674, 'time': 22.12, 'pitch': 2.48, 'roll': 0.99}
{'lipoC2': 7.82, 'temp': 27.31, 'lipoC3S3': 12.01, 'rot1': 0, 'rot0': 0, 'rot3': 0, 'rot2': 0, 'state': 'normal', 'yaw': 3.42, 'datetime': '2018-10-12 16:37:29.196968', 'mgs': 0, 'depth': -0.674, 'time': 22.22, 'pitch': 1.95, 'roll': 1.2}
{'lipoC2': 7.82, 'temp': 27.31, 'lipoC3S3': 12.01, 'rot1': 0, 'rot0': 0, 'rot3': 0, 'rot2': 0, 'state': 'normal', 'yaw': 3.63, 'datetime': '2018-10-12 16:37:29.295321', 'mgs': 0, 'depth': -0.674, 'time': 22.32, 'pitch': 1.6, 'roll': 0.52}
{'lipoC2': 7.82, 'temp': 27.31, 'lipoC3S3': 12.01, 'rot1': 0, 'rot0': 0, 'rot3': 0, 'rot2': 0, 'state': 'normal', 'yaw': 3.8, 'datetime': '2018-10-12 16:37:29.393649', 'mgs': 0, 'depth': -0.674, 'time': 22.42, 'pitch': 1.83, 'roll': -1.01}
{'lipoC2': 7.82, 'temp': 27.31, 'lipoC3S3': 12.01, 'rot1': 0, 'rot0': 0, 'rot3': 0, 'rot2': 0, 'state': 'normal', 'yaw': 3.95, 'datetime': '2018-10-12 16:37:29.490605', 'mgs': 0, 'depth': -0.674, 'time': 22.51, 'pitch': 2.9, 'roll': -2.59}
{'lipoC2': 7.82, 'temp': 27.31, 'lipoC3S3': 12.0, 'rot1': 0, 'rot0': 0, 'rot3': 0, 'rot2': 0, 'state': 'normal', 'yaw': 4.1, 'datetime': '2018-10-12 16:37:29.588050', 'mgs': 0, 'depth': -0.674, 'time': 22.61, 'pitch': 4.37, 'roll': -2.87}
{'lipoC2': 7.82, 'temp': 27.31, 'lipoC3S3': 12.01, 'rot1': 0, 'rot0': 0, 'rot3': 0, 'rot2': 0, 'state': 'normal', 'yaw': 4.36, 'datetime': '2018-10-12 16:37:29.686372', 'mgs': 0, 'depth': -0.751, 'time': 22.71, 'pitch': 5.42, 'roll': -2.33}
{'lipoC2': 7.82, 'temp': 27.38, 'lipoC3S3': 12.01, 'rot1': 0, 'rot0': 0, 'rot3': 0, 'rot2': 0, 'state': 'normal', 'yaw': 4.89, 'datetime': '2018-10-12 16:37:29.783696', 'mgs': 0, 'depth': -0.674, 'time': 22.81, 'pitch': 5.62, 'roll': -1.03}
{'lipoC2': 7.82, 'temp': 27.38, 'lipoC3S3': 12.0, 'rot1': 0, 'rot0': 0, 'rot3': 0, 'rot2': 0, 'state': 'normal', 'yaw': 5.57, 'datetime': '2018-10-12 16:37:29.880901', 'mgs': 0, 'depth': -0.751, 'time': 22.9, 'pitch': 4.65, 'roll': -0.2}
{'lipoC2': 7.82, 'temp': 27.38, 'lipoC3S3': 12.01, 'rot1': 0, 'rot0': 0, 'rot3': 0, 'rot2': 0, 'state': 'normal', 'yaw': 6.09, 'datetime': '2018-10-12 16:37:29.978517', 'mgs': 0, 'depth': -0.674, 'time': 23.0, 'pitch': 3.35, 'roll': -0.44}
{'lipoC2': 7.82, 'temp': 27.31, 'lipoC3S3': 12.0, 'rot1': 0, 'rot0': 0, 'rot3': 0, 'rot2': 0, 'state': 'normal', 'yaw': 6.49, 'datetime': '2018-10-12 16:37:30.075596', 'mgs': 0, 'depth': -0.598, 'time': 23.1, 'pitch': 2.17, 'roll': -1.44}
{'lipoC2': 7.82, 'temp': 27.31, 'lipoC3S3': 12.01, 'rot1': 0, 'rot0': 0, 'rot3': 0, 'rot2': 0, 'state': 'normal', 'yaw': 6.66, 'datetime': '2018-10-12 16:37:30.172739', 'mgs': 0, 'depth': -0.674, 'time': 23.2, 'pitch': 1.63, 'roll': -3.18}
{'lipoC2': 7.82, 'temp': 27.38, 'lipoC3S3': 12.01, 'rot1': 0, 'rot0': 0, 'rot3': 0, 'rot2': 0, 'state': 'normal', 'yaw': 6.77, 'datetime': '2018-10-12 16:37:30.269836', 'mgs': 0, 'depth': -0.674, 'time': 23.29, 'pitch': 1.68, 'roll': -4.69}
{'lipoC2': 7.82, 'temp': 27.38, 'lipoC3S3': 12.01, 'rot1': 0, 'rot0': 0, 'rot3': 0, 'rot2': 0, 'state': 'normal', 'yaw': 6.82, 'datetime': '2018-10-12 16:37:30.366915', 'mgs': 0, 'depth': -0.751, 'time': 23.39, 'pitch': 2.19, 'roll': -5.25}
{'lipoC2': 7.82, 'temp': 27.38, 'lipoC3S3': 12.01, 'rot1': 0, 'rot0': 0, 'rot3': 0, 'rot2': 0, 'state': 'normal', 'yaw': 6.99, 'datetime': '2018-10-12 16:37:30.464098', 'mgs': 0, 'depth': -0.674, 'time': 23.49, 'pitch': 2.95, 'roll': -4.64}
{'lipoC2': 7.82, 'temp': 27.31, 'lipoC3S3': 12.01, 'rot1': 0, 'rot0': 0, 'rot3': 0, 'rot2': 0, 'state': 'normal', 'yaw': 7.39, 'datetime': '2018-10-12 16:37:30.561178', 'mgs': 0, 'depth': -0.751, 'time': 23.58, 'pitch': 3.59, 'roll': -3.24}
{'lipoC2': 7.82, 'temp': 27.31, 'lipoC3S3': 12.01, 'rot1': 0, 'rot0': 0, 'rot3': 0, 'rot2': 0, 'state': 'normal', 'yaw': 7.79, 'datetime': '2018-10-12 16:37:30.658237', 'mgs': 0, 'depth': -0.751, 'time': 23.68, 'pitch': 4.14, 'roll': -2.22}
{'lipoC2': 7.81, 'temp': 27.31, 'lipoC3S3': 12.01, 'rot1': 0, 'rot0': 0, 'rot3': 0, 'rot2': 0, 'state': 'normal', 'yaw': 7.9, 'datetime': '2018-10-12 16:37:30.755463', 'mgs': 0, 'depth': -0.598, 'time': 23.78, 'pitch': 4.74, 'roll': -2.02}
{'lipoC2': 7.82, 'temp': 27.31, 'lipoC3S3': 12.01, 'rot1': 0, 'rot0': 0, 'rot3': 0, 'rot2': 0, 'state': 'normal', 'yaw': 7.74, 'datetime': '2018-10-12 16:37:30.852668', 'mgs': 0, 'depth': -0.598, 'time': 23.88, 'pitch': 5.08, 'roll': -2.76}
{'lipoC2': 7.82, 'temp': 27.31, 'lipoC3S3': 12.01, 'rot1': 0, 'rot0': 0, 'rot3': 0, 'rot2': 0, 'state': 'normal', 'yaw': 7.54, 'datetime': '2018-10-12 16:37:30.950184', 'mgs': 0, 'depth': -0.598, 'time': 23.97, 'pitch': 5.27, 'roll': -3.89}
{'lipoC2': 7.81, 'temp': 27.31, 'lipoC3S3': 12.01, 'rot1': 0, 'rot0': 0, 'rot3': 0, 'rot2': 0, 'state': 'normal', 'yaw': 7.35, 'datetime': '2018-10-12 16:37:31.048615', 'mgs': 0, 'depth': -0.598, 'time': 24.07, 'pitch': 5.05, 'roll': -4.9}
{'lipoC2': 7.82, 'temp': 27.31, 'lipoC3S3': 12.01, 'rot1': 0, 'rot0': 0, 'rot3': 0, 'rot2': 0, 'state': 'normal', 'yaw': 7.53, 'datetime': '2018-10-12 16:37:31.146031', 'mgs': 0, 'depth': -0.598, 'time': 24.17, 'pitch': 4.35, 'roll': -4.91}
{'lipoC2': 7.82, 'temp': 27.31, 'lipoC3S3': 12.01, 'rot1': 0, 'rot0': 0, 'rot3': 0, 'rot2': 0, 'state': 'normal', 'yaw': 8.16, 'datetime': '2018-10-12 16:37:31.243095', 'mgs': 0, 'depth': -0.674, 'time': 24.27, 'pitch': 3.32, 'roll': -3.99}
{'lipoC2': 7.82, 'temp': 27.31, 'lipoC3S3': 12.01, 'rot1': 0, 'rot0': 0, 'rot3': 0, 'rot2': 0, 'state': 'normal', 'yaw': 8.68, 'datetime': '2018-10-12 16:37:31.339782', 'mgs': 0, 'depth': -0.598, 'time': 24.37, 'pitch': 1.96, 'roll': -3.49}
{'lipoC2': 7.81, 'temp': 27.31, 'lipoC3S3': 12.01, 'rot1': 0, 'rot0': 0, 'rot3': 0, 'rot2': 0, 'state': 'normal', 'yaw': 9.21, 'datetime': '2018-10-12 16:37:31.439251', 'mgs': 0, 'depth': -0.598, 'time': 24.46, 'pitch': 0.13, 'roll': -3.35}
{'lipoC2': 7.82, 'temp': 27.31, 'lipoC3S3': 12.01, 'rot1': 0, 'rot0': 0, 'rot3': 0, 'rot2': 0, 'state': 'normal', 'yaw': 9.55, 'datetime': '2018-10-12 16:37:31.536308', 'mgs': 0, 'depth': -0.598, 'time': 24.56, 'pitch': -1.75, 'roll': -2.98}
{'lipoC2': 7.82, 'temp': 27.31, 'lipoC3S3': 12.01, 'rot1': 0, 'rot0': 0, 'rot3': 0, 'rot2': 0, 'state': 'normal', 'yaw': 9.75, 'datetime': '2018-10-12 16:37:31.633417', 'mgs': 0, 'depth': -0.598, 'time': 24.66, 'pitch': -3.25, 'roll': -2.43}
{'lipoC2': 7.82, 'temp': 27.31, 'lipoC3S3': 12.01, 'rot1': 0, 'rot0': 0, 'rot3': 0, 'rot2': 0, 'state': 'normal', 'yaw': 9.81, 'datetime': '2018-10-12 16:37:31.730847', 'mgs': 0, 'depth': -0.522, 'time': 24.76, 'pitch': -4.05, 'roll': -2.04}
{'lipoC2': 7.82, 'temp': 27.31, 'lipoC3S3': 12.01, 'rot1': 0, 'rot0': 0, 'rot3': 0, 'rot2': 0, 'state': 'normal', 'yaw': 9.85, 'datetime': '2018-10-12 16:37:31.823832', 'mgs': 0, 'depth': -0.522, 'time': 24.85, 'pitch': -4.12, 'roll': -2.11}
{'lipoC2': 7.82, 'temp': 27.31, 'lipoC3S3': 12.01, 'rot1': 0, 'rot0': 0, 'rot3': 0, 'rot2': 0, 'state': 'normal', 'yaw': 9.94, 'datetime': '2018-10-12 16:37:31.920491', 'mgs': 0, 'depth': -0.522, 'time': 24.95, 'pitch': -3.4, 'roll': -2.31}
{'lipoC2': 7.81, 'temp': 27.31, 'lipoC3S3': 12.01, 'rot1': 0, 'rot0': 0, 'rot3': 0, 'rot2': 0, 'state': 'normal', 'yaw': 10.1, 'datetime': '2018-10-12 16:37:32.020933', 'mgs': 0, 'depth': -0.598, 'time': 25.05, 'pitch': -1.99, 'roll': -2.21}
{'lipoC2': 7.82, 'temp': 27.31, 'lipoC3S3': 12.01, 'rot1': 0, 'rot0': 0, 'rot3': 0, 'rot2': 0, 'state': 'normal', 'yaw': 10.38, 'datetime': '2018-10-12 16:37:32.119347', 'mgs': 0, 'depth': -0.522, 'time': 25.15, 'pitch': -0.64, 'roll': -2.2}
{'lipoC2': 7.81, 'temp': 27.31, 'lipoC3S3': 12.01, 'rot1': 0, 'rot0': 0, 'rot3': 0, 'rot2': 0, 'state': 'normal', 'yaw': 10.75, 'datetime': '2018-10-12 16:37:32.216433', 'mgs': 0, 'depth': -0.598, 'time': 25.24, 'pitch': 0.72, 'roll': -2.92}
{'lipoC2': 7.82, 'temp': 27.31, 'lipoC3S3': 12.01, 'rot1': 0, 'rot0': 0, 'rot3': 0, 'rot2': 0, 'state': 'normal', 'yaw': 11.2, 'datetime': '2018-10-12 16:37:32.313663', 'mgs': 0, 'depth': -0.674, 'time': 25.34, 'pitch': 1.64, 'roll': -4.3}
{'lipoC2': 7.82, 'temp': 27.31, 'lipoC3S3': 12.01, 'rot1': 0, 'rot0': 0, 'rot3': 0, 'rot2': 0, 'state': 'normal', 'yaw': 11.58, 'datetime': '2018-10-12 16:37:32.410763', 'mgs': 0, 'depth': -0.598, 'time': 25.44, 'pitch': 1.91, 'roll': -5.67}
