{'lipoC2': 7.8, 'temp': 23.69, 'lipoC3S3': 11.9, 'rot1': 0, 'rot0': 0, 'rot3': 0, 'rot2': 0, 'state': 'normal', 'yaw': 0.0, 'datetime': '2018-10-12 13:59:16.630708', 'mgs': 0, 'depth': 1.233, 'time': 1.26, 'pitch': 3.41, 'roll': -6.35}
{'lipoC2': 7.81, 'temp': 23.69, 'lipoC3S3': 11.89, 'rot1': 0, 'rot0': 0, 'rot3': 0, 'rot2': 0, 'state': 'normal', 'yaw': -14.25, 'datetime': '2018-10-12 13:59:16.648329', 'mgs': 0, 'depth': 1.233, 'time': 1.36, 'pitch': 4.55, 'roll': -9.64}
{'lipoC2': 7.8, 'temp': 23.69, 'lipoC3S3': 11.89, 'rot1': 0, 'rot0': 0, 'rot3': 0, 'rot2': 0, 'state': 'normal', 'yaw': -26.48, 'datetime': '2018-10-12 13:59:16.666034', 'mgs': 0, 'depth': 1.233, 'time': 1.46, 'pitch': 4.05, 'roll': -11.86}
{'lipoC2': 7.8, 'temp': 23.63, 'lipoC3S3': 11.89, 'rot1': 0, 'rot0': 0, 'rot3': 0, 'rot2': 0, 'state': 'normal', 'yaw': -36.53, 'datetime': '2018-10-12 13:59:16.683832', 'mgs': 0, 'depth': 1.309, 'time': 1.55, 'pitch': 2.68, 'roll': -12.41}
{'lipoC2': 7.8, 'temp': 23.63, 'lipoC3S3': 11.88, 'rot1': 0, 'rot0': 0, 'rot3': 0, 'rot2': 0, 'state': 'normal', 'yaw': -44.1, 'datetime': '2018-10-12 13:59:16.695442', 'mgs': 0, 'depth': 1.309, 'time': 1.65, 'pitch': 1.48, 'roll': -12.22}
{'lipoC2': 7.8, 'temp': 23.69, 'lipoC3S3': 11.89, 'rot1': 0, 'rot0': 0, 'rot3': 0, 'rot2': 0, 'state': 'normal', 'yaw': -50.72, 'datetime': '2018-10-12 13:59:16.703146', 'mgs': 0, 'depth': 1.233, 'time': 1.75, 'pitch': 1.15, 'roll': -13.42}
{'lipoC2': 7.81, 'temp': 23.69, 'lipoC3S3': 11.89, 'rot1': 0, 'rot0': 0, 'rot3': 0, 'rot2': 0, 'state': 'normal', 'yaw': -55.45, 'datetime': '2018-10-12 13:59:16.710844', 'mgs': 0, 'depth': 1.233, 'time': 1.85, 'pitch': 1.89, 'roll': -15.34}
{'lipoC2': 7.8, 'temp': 23.69, 'lipoC3S3': 11.89, 'rot1': 0, 'rot0': 0, 'rot3': 0, 'rot2': 0, 'state': 'normal', 'yaw': -58.74, 'datetime': '2018-10-12 13:59:16.718502', 'mgs': 0, 'depth': 1.233, 'time': 1.94, 'pitch': 3.51, 'roll': -16.35}
{'lipoC2': 7.8, 'temp': 23.69, 'lipoC3S3': 11.89, 'rot1': 0, 'rot0': 0, 'rot3': 0, 'rot2': 0, 'state': 'normal', 'yaw': -62.25, 'datetime': '2018-10-12 13:59:16.726175', 'mgs': 0, 'depth': 1.309, 'time': 2.04, 'pitch': 5.82, 'roll': -16.68}
{'lipoC2': 7.8, 'temp': 23.69, 'lipoC3S3': 11.89, 'rot1': 0, 'rot0': 0, 'rot3': 0, 'rot2': 0, 'state': 'normal', 'yaw': -66.44, 'datetime': '2018-10-12 13:59:16.733869', 'mgs': 0, 'depth': 1.233, 'time': 2.14, 'pitch': 8.21, 'roll': -15.99}
{'lipoC2': 7.8, 'temp': 23.69, 'lipoC3S3': 11.89, 'rot1': 0, 'rot0': 0, 'rot3': 0, 'rot2': 0, 'state': 'normal', 'yaw': -71.13, 'datetime': '2018-10-12 13:59:16.741561', 'mgs': 0, 'depth': 1.233, 'time': 2.24, 'pitch': 9.42, 'roll': -15.2}
{'lipoC2': 7.8, 'temp': 23.69, 'lipoC3S3': 11.89, 'rot1': 0, 'rot0': 0, 'rot3': 0, 'rot2': 0, 'state': 'normal', 'yaw': -75.92, 'datetime': '2018-10-12 13:59:16.749181', 'mgs': 0, 'depth': 1.233, 'time': 2.33, 'pitch': 9.16, 'roll': -15.54}
{'lipoC2': 7.8, 'temp': 23.69, 'lipoC3S3': 11.89, 'rot1': 0, 'rot0': 0, 'rot3': 0, 'rot2': 0, 'state': 'normal', 'yaw': -80.91, 'datetime': '2018-10-12 13:59:16.756833', 'mgs': 0, 'depth': 1.309, 'time': 2.43, 'pitch': 8.68, 'roll': -15.92}
{'lipoC2': 7.8, 'temp': 23.69, 'lipoC3S3': 11.89, 'rot1': 0, 'rot0': 0, 'rot3': 0, 'rot2': 0, 'state': 'normal', 'yaw': -84.55, 'datetime': '2018-10-12 13:59:16.764514', 'mgs': 0, 'depth': 1.309, 'time': 2.53, 'pitch': 8.66, 'roll': -15.72}
{'lipoC2': 7.8, 'temp': 23.69, 'lipoC3S3': 11.89, 'rot1': 0, 'rot0': 0, 'rot3': 0, 'rot2': 0, 'state': 'normal', 'yaw': -86.37, 'datetime': '2018-10-12 13:59:16.772198', 'mgs': 0, 'depth': 1.233, 'time': 2.63, 'pitch': 8.73, 'roll': -15.53}
{'lipoC2': 7.8, 'temp': 23.69, 'lipoC3S3': 11.89, 'rot1': 0, 'rot0': 0, 'rot3': 0, 'rot2': 0, 'state': 'normal', 'yaw': -87.64, 'datetime': '2018-10-12 13:59:16.779827', 'mgs': 0, 'depth': 1.385, 'time': 2.72, 'pitch': 9.06, 'roll': -14.42}
{'lipoC2': 7.8, 'temp': 23.69, 'lipoC3S3': 11.89, 'rot1': 0, 'rot0': 0, 'rot3': 0, 'rot2': 0, 'state': 'normal', 'yaw': -87.86, 'datetime': '2018-10-12 13:59:16.787485', 'mgs': 0, 'depth': 1.309, 'time': 2.82, 'pitch': 9.49, 'roll': -13.69}
{'lipoC2': 7.8, 'temp': 23.69, 'lipoC3S3': 11.89, 'rot1': 0, 'rot0': 0, 'rot3': 0, 'rot2': 0, 'state': 'normal', 'yaw': -87.03, 'datetime': '2018-10-12 13:59:16.795155', 'mgs': 0, 'depth': 1.233, 'time': 2.92, 'pitch': 9.17, 'roll': -13.48}
{'lipoC2': 7.8, 'temp': 23.69, 'lipoC3S3': 11.89, 'rot1': 0, 'rot0': 0, 'rot3': 0, 'rot2': 0, 'state': 'normal', 'yaw': -86.04, 'datetime': '2018-10-12 13:59:16.803664', 'mgs': 0, 'depth': 1.309, 'time': 3.02, 'pitch': 10.92, 'roll': -13.01}
{'lipoC2': 7.81, 'temp': 23.69, 'lipoC3S3': 11.89, 'rot1': 0, 'rot0': 0, 'rot3': 0, 'rot2': 0, 'state': 'normal', 'yaw': -84.92, 'datetime': '2018-10-12 13:59:16.811423', 'mgs': 0, 'depth': 1.233, 'time': 3.11, 'pitch': 12.98, 'roll': -11.87}
{'lipoC2': 7.81, 'temp': 23.69, 'lipoC3S3': 11.88, 'rot1': 0, 'rot0': 0, 'rot3': 0, 'rot2': 0, 'state': 'normal', 'yaw': -84.49, 'datetime': '2018-10-12 13:59:16.819105', 'mgs': 0, 'depth': 1.233, 'time': 3.21, 'pitch': 14.26, 'roll': -10.83}
{'lipoC2': 7.8, 'temp': 23.69, 'lipoC3S3': 11.89, 'rot1': 0, 'rot0': 0, 'rot3': 0, 'rot2': 0, 'state': 'normal', 'yaw': -84.56, 'datetime': '2018-10-12 13:59:16.826811', 'mgs': 0, 'depth': 1.309, 'time': 3.31, 'pitch': 14.59, 'roll': -9.51}
{'lipoC2': 7.8, 'temp': 23.69, 'lipoC3S3': 11.89, 'rot1': 0, 'rot0': 0, 'rot3': 0, 'rot2': 0, 'state': 'normal', 'yaw': -84.72, 'datetime': '2018-10-12 13:59:16.834530', 'mgs': 0, 'depth': 1.309, 'time': 3.41, 'pitch': 14.0, 'roll': -8.5}
{'lipoC2': 7.8, 'temp': 23.69, 'lipoC3S3': 11.89, 'rot1': 0, 'rot0': 0, 'rot3': 0, 'rot2': 0, 'state': 'normal', 'yaw': -83.73, 'datetime': '2018-10-12 13:59:16.842241', 'mgs': 0, 'depth': 1.233, 'time': 3.51, 'pitch': 12.73, 'roll': -8.07}
{'lipoC2': 7.8, 'temp': 23.69, 'lipoC3S3': 11.89, 'rot1': 0, 'rot0': 0, 'rot3': 0, 'rot2': 0, 'state': 'normal', 'yaw': -81.57, 'datetime': '2018-10-12 13:59:16.849890', 'mgs': 0, 'depth': 1.233, 'time': 3.6, 'pitch': 11.16, 'roll': -7.81}
{'lipoC2': 7.8, 'temp': 23.69, 'lipoC3S3': 11.89, 'rot1': 0, 'rot0': 0, 'rot3': 0, 'rot2': 0, 'state': 'normal', 'yaw': -79.03, 'datetime': '2018-10-12 13:59:16.857574', 'mgs': 0, 'depth': 1.157, 'time': 3.7, 'pitch': 9.77, 'roll': -7.19}
{'lipoC2': 7.81, 'temp': 23.69, 'lipoC3S3': 11.89, 'rot1': 0, 'rot0': 0, 'rot3': 0, 'rot2': 0, 'state': 'normal', 'yaw': -75.89, 'datetime': '2018-10-12 13:59:16.865269', 'mgs': 0, 'depth': 1.233, 'time': 3.8, 'pitch': 8.6, 'roll': -7.04}
{'lipoC2': 7.8, 'temp': 23.63, 'lipoC3S3': 11.89, 'rot1': 0, 'rot0': 0, 'rot3': 0, 'rot2': 0, 'state': 'normal', 'yaw': -72.24, 'datetime': '2018-10-12 13:59:16.872992', 'mgs': 0, 'depth': 1.309, 'time': 3.89, 'pitch': 7.53, 'roll': -7.25}
{'lipoC2': 7.8, 'temp': 23.63, 'lipoC3S3': 11.89, 'rot1': 0, 'rot0': 0, 'rot3': 0, 'rot2': 0, 'state': 'normal', 'yaw': -69.1, 'datetime': '2018-10-12 13:59:16.880689', 'mgs': 0, 'depth': 1.233, 'time': 3.99, 'pitch': 6.86, 'roll': -6.86}
{'lipoC2': 7.8, 'temp': 23.63, 'lipoC3S3': 11.89, 'rot1': 0, 'rot0': 0, 'rot3': 0, 'rot2': 0, 'state': 'normal', 'yaw': -66.25, 'datetime': '2018-10-12 13:59:16.888306', 'mgs': 0, 'depth': 1.309, 'time': 4.09, 'pitch': 6.27, 'roll': -6.36}
{'lipoC2': 7.8, 'temp': 23.69, 'lipoC3S3': 11.89, 'rot1': 0, 'rot0': 0, 'rot3': 0, 'rot2': 0, 'state': 'normal', 'yaw': -62.92, 'datetime': '2018-10-12 13:59:16.895979', 'mgs': 0, 'depth': 1.157, 'time': 4.19, 'pitch': 5.22, 'roll': -5.1}
{'lipoC2': 7.8, 'temp': 23.69, 'lipoC3S3': 11.89, 'rot1': 0, 'rot0': 0, 'rot3': 0, 'rot2': 0, 'state': 'normal', 'yaw': -58.78, 'datetime': '2018-10-12 13:59:16.903670', 'mgs': 0, 'depth': 1.157, 'time': 4.28, 'pitch': 3.54, 'roll': -3.61}
{'lipoC2': 7.8, 'temp': 23.63, 'lipoC3S3': 11.89, 'rot1': 0, 'rot0': 0, 'rot3': 0, 'rot2': 0, 'state': 'normal', 'yaw': -54.05, 'datetime': '2018-10-12 13:59:16.911352', 'mgs': 0, 'depth': 1.157, 'time': 4.38, 'pitch': 2.6, 'roll': -2.76}
{'lipoC2': 7.8, 'temp': 23.63, 'lipoC3S3': 11.89, 'rot1': 0, 'rot0': 0, 'rot3': 0, 'rot2': 0, 'state': 'normal', 'yaw': -49.55, 'datetime': '2018-10-12 13:59:16.919018', 'mgs': 0, 'depth': 1.233, 'time': 4.48, 'pitch': 2.34, 'roll': -3.26}
{'lipoC2': 7.8, 'temp': 23.63, 'lipoC3S3': 11.89, 'rot1': 0, 'rot0': 0, 'rot3': 0, 'rot2': 0, 'state': 'normal', 'yaw': -43.94, 'datetime': '2018-10-12 13:59:16.926716', 'mgs': 0, 'depth': 1.233, 'time': 4.57, 'pitch': 2.11, 'roll': -4.01}
{'lipoC2': 7.8, 'temp': 23.63, 'lipoC3S3': 11.89, 'rot1': 0, 'rot0': 0, 'rot3': 0, 'rot2': 0, 'state': 'normal', 'yaw': -37.98, 'datetime': '2018-10-12 13:59:16.934710', 'mgs': 0, 'depth': 1.157, 'time': 4.67, 'pitch': 1.02, 'roll': -3.65}
{'lipoC2': 7.8, 'temp': 23.63, 'lipoC3S3': 11.89, 'rot1': 0, 'rot0': 0, 'rot3': 0, 'rot2': 0, 'state': 'normal', 'yaw': -32.57, 'datetime': '2018-10-12 13:59:16.942417', 'mgs': 0, 'depth': 1.233, 'time': 4.77, 'pitch': -0.63, 'roll': -2.48}
{'lipoC2': 7.8, 'temp': 23.69, 'lipoC3S3': 11.89, 'rot1': 0, 'rot0': 0, 'rot3': 0, 'rot2': 0, 'state': 'normal', 'yaw': -26.98, 'datetime': '2018-10-12 13:59:16.950076', 'mgs': 0, 'depth': 1.157, 'time': 4.87, 'pitch': -2.32, 'roll': -0.6}
{'lipoC2': 7.8, 'temp': 23.69, 'lipoC3S3': 11.89, 'rot1': 0, 'rot0': 0, 'rot3': 0, 'rot2': 0, 'state': 'normal', 'yaw': -21.67, 'datetime': '2018-10-12 13:59:16.957772', 'mgs': 0, 'depth': 1.233, 'time': 4.97, 'pitch': -3.48, 'roll': 0.76}
{'lipoC2': 7.8, 'temp': 23.69, 'lipoC3S3': 11.89, 'rot1': 0, 'rot0': 0, 'rot3': 0, 'rot2': 0, 'state': 'normal', 'yaw': -17.04, 'datetime': '2018-10-12 13:59:16.965461', 'mgs': 0, 'depth': 1.157, 'time': 5.06, 'pitch': -4.21, 'roll': 0.24}
{'lipoC2': 7.8, 'temp': 23.69, 'lipoC3S3': 11.89, 'rot1': 0, 'rot0': 0, 'rot3': 0, 'rot2': 0, 'state': 'normal', 'yaw': -12.94, 'datetime': '2018-10-12 13:59:16.973144', 'mgs': 0, 'depth': 1.233, 'time': 5.16, 'pitch': -4.37, 'roll': -0.82}
{'lipoC2': 7.8, 'temp': 23.69, 'lipoC3S3': 11.89, 'rot1': 0, 'rot0': 0, 'rot3': 0, 'rot2': 0, 'state': 'normal', 'yaw': -7.55, 'datetime': '2018-10-12 13:59:16.980815', 'mgs': 0, 'depth': 1.233, 'time': 5.26, 'pitch': -4.5, 'roll': -2.23}
{'lipoC2': 7.8, 'temp': 23.63, 'lipoC3S3': 11.89, 'rot1': 0, 'rot0': 0, 'rot3': 0, 'rot2': 0, 'state': 'normal', 'yaw': -1.38, 'datetime': '2018-10-12 13:59:16.988484', 'mgs': 0, 'depth': 1.233, 'time': 5.36, 'pitch': -4.88, 'roll': -3.58}
{'lipoC2': 7.8, 'temp': 23.63, 'lipoC3S3': 11.89, 'rot1': 0, 'rot0': 0, 'rot3': 0, 'rot2': 0, 'state': 'normal', 'yaw': 5.06, 'datetime': '2018-10-12 13:59:16.996172', 'mgs': 0, 'depth': 1.233, 'time': 5.45, 'pitch': -4.81, 'roll': -4.99}
{'lipoC2': 7.81, 'temp': 23.63, 'lipoC3S3': 11.89, 'rot1': 0, 'rot0': 0, 'rot3': 0, 'rot2': 0, 'state': 'normal', 'yaw': 10.78, 'datetime': '2018-10-12 13:59:17.003856', 'mgs': 0, 'depth': 1.309, 'time': 5.55, 'pitch': -4.44, 'roll': -6.09}
{'lipoC2': 7.8, 'temp': 23.69, 'lipoC3S3': 11.89, 'rot1': 0, 'rot0': 0, 'rot3': 0, 'rot2': 0, 'state': 'normal', 'yaw': 17.13, 'datetime': '2018-10-12 13:59:17.011542', 'mgs': 0, 'depth': 1.462, 'time': 5.65, 'pitch': -4.19, 'roll': -6.87}
{'lipoC2': 7.8, 'temp': 23.69, 'lipoC3S3': 11.88, 'rot1': 0, 'rot0': 0, 'rot3': 0, 'rot2': 0, 'state': 'normal', 'yaw': 23.6, 'datetime': '2018-10-12 13:59:17.019198', 'mgs': 0, 'depth': 1.462, 'time': 5.75, 'pitch': -4.01, 'roll': -7.27}
{'lipoC2': 7.8, 'temp': 23.63, 'lipoC3S3': 11.89, 'rot1': 0, 'rot0': 0, 'rot3': 0, 'rot2': 0, 'state': 'normal', 'yaw': 29.18, 'datetime': '2018-10-12 13:59:17.026894', 'mgs': 0, 'depth': 1.614, 'time': 5.84, 'pitch': -3.52, 'roll': -7.13}
{'lipoC2': 7.8, 'temp': 23.63, 'lipoC3S3': 11.89, 'rot1': 0, 'rot0': 0, 'rot3': 0, 'rot2': 0, 'state': 'normal', 'yaw': 34.8, 'datetime': '2018-10-12 13:59:17.034585', 'mgs': 0, 'depth': 1.691, 'time': 5.94, 'pitch': -2.75, 'roll': -6.41}
{'lipoC2': 7.81, 'temp': 23.63, 'lipoC3S3': 11.89, 'rot1': 0, 'rot0': 0, 'rot3': 0, 'rot2': 0, 'state': 'normal', 'yaw': 39.78, 'datetime': '2018-10-12 13:59:17.042270', 'mgs': 0, 'depth': 1.92, 'time': 6.04, 'pitch': -2.52, 'roll': -6.3}
{'lipoC2': 7.8, 'temp': 23.63, 'lipoC3S3': 11.88, 'rot1': 0, 'rot0': 0, 'rot3': 0, 'rot2': 0, 'state': 'normal', 'yaw': 44.33, 'datetime': '2018-10-12 13:59:17.049912', 'mgs': 0, 'depth': 1.996, 'time': 6.14, 'pitch': -2.18, 'roll': -7.04}
{'lipoC2': 7.8, 'temp': 23.63, 'lipoC3S3': 11.89, 'rot1': 0, 'rot0': 0, 'rot3': 0, 'rot2': 0, 'state': 'normal', 'yaw': 48.08, 'datetime': '2018-10-12 13:59:17.057619', 'mgs': 0, 'depth': 1.996, 'time': 6.23, 'pitch': -1.91, 'roll': -7.44}
{'lipoC2': 7.8, 'temp': 23.69, 'lipoC3S3': 11.89, 'rot1': 0, 'rot0': 0, 'rot3': 0, 'rot2': 0, 'state': 'normal', 'yaw': 51.86, 'datetime': '2018-10-12 13:59:17.065565', 'mgs': 0, 'depth': 1.996, 'time': 6.33, 'pitch': -1.48, 'roll': -7.44}
{'lipoC2': 7.8, 'temp': 23.69, 'lipoC3S3': 11.89, 'rot1': 0, 'rot0': 0, 'rot3': 0, 'rot2': 0, 'state': 'normal', 'yaw': 55.13, 'datetime': '2018-10-12 13:59:17.073243', 'mgs': 0, 'depth': 2.148, 'time': 6.43, 'pitch': -1.27, 'roll': -7.23}
{'lipoC2': 7.8, 'temp': 23.69, 'lipoC3S3': 11.89, 'rot1': 0, 'rot0': 0, 'rot3': 0, 'rot2': 0, 'state': 'normal', 'yaw': 57.68, 'datetime': '2018-10-12 13:59:17.080897', 'mgs': 0, 'depth': 2.148, 'time': 6.53, 'pitch': -1.35, 'roll': -7.13}
{'lipoC2': 7.8, 'temp': 23.69, 'lipoC3S3': 11.89, 'rot1': 0, 'rot0': 0, 'rot3': 0, 'rot2': 0, 'state': 'normal', 'yaw': 60.18, 'datetime': '2018-10-12 13:59:17.088507', 'mgs': 0, 'depth': 2.148, 'time': 6.62, 'pitch': -1.44, 'roll': -7.05}
{'lipoC2': 7.8, 'temp': 23.69, 'lipoC3S3': 11.89, 'rot1': 0, 'rot0': 0, 'rot3': 0, 'rot2': 0, 'state': 'normal', 'yaw': 62.32, 'datetime': '2018-10-12 13:59:17.096183', 'mgs': 0, 'depth': 2.225, 'time': 6.72, 'pitch': -1.65, 'roll': -6.35}
{'lipoC2': 7.8, 'temp': 23.63, 'lipoC3S3': 11.89, 'rot1': 0, 'rot0': 0, 'rot3': 0, 'rot2': 0, 'state': 'normal', 'yaw': 63.78, 'datetime': '2018-10-12 13:59:17.103845', 'mgs': 0, 'depth': 2.225, 'time': 6.82, 'pitch': -2.32, 'roll': -6.45}
{'lipoC2': 7.81, 'temp': 23.63, 'lipoC3S3': 11.88, 'rot1': 0, 'rot0': 0, 'rot3': 0, 'rot2': 0, 'state': 'normal', 'yaw': 65.16, 'datetime': '2018-10-12 13:59:17.111514', 'mgs': 0, 'depth': 2.225, 'time': 6.92, 'pitch': -2.61, 'roll': -7.56}
{'lipoC2': 7.81, 'temp': 23.63, 'lipoC3S3': 11.89, 'rot1': 0, 'rot0': 0, 'rot3': 0, 'rot2': 0, 'state': 'normal', 'yaw': 66.68, 'datetime': '2018-10-12 13:59:17.119157', 'mgs': 0, 'depth': 2.301, 'time': 7.01, 'pitch': -2.5, 'roll': -8.79}
{'lipoC2': 7.8, 'temp': 23.63, 'lipoC3S3': 11.89, 'rot1': 0, 'rot0': 0, 'rot3': 0, 'rot2': 0, 'state': 'normal', 'yaw': 67.83, 'datetime': '2018-10-12 13:59:17.126817', 'mgs': 0, 'depth': 2.225, 'time': 7.11, 'pitch': -2.32, 'roll': -9.22}
{'lipoC2': 7.8, 'temp': 23.63, 'lipoC3S3': 11.89, 'rot1': 0, 'rot0': 0, 'rot3': 0, 'rot2': 0, 'state': 'normal', 'yaw': 68.59, 'datetime': '2018-10-12 13:59:17.134470', 'mgs': 0, 'depth': 2.301, 'time': 7.21, 'pitch': -2.11, 'roll': -8.81}
{'lipoC2': 7.8, 'temp': 23.69, 'lipoC3S3': 11.89, 'rot1': 0, 'rot0': 0, 'rot3': 0, 'rot2': 0, 'state': 'normal', 'yaw': 68.93, 'datetime': '2018-10-12 13:59:17.142157', 'mgs': 0, 'depth': 2.225, 'time': 7.31, 'pitch': -1.9, 'roll': -8.31}
{'lipoC2': 7.8, 'temp': 23.69, 'lipoC3S3': 11.89, 'rot1': 0, 'rot0': 0, 'rot3': 0, 'rot2': 0, 'state': 'normal', 'yaw': 69.13, 'datetime': '2018-10-12 13:59:17.149784', 'mgs': 0, 'depth': 2.225, 'time': 7.4, 'pitch': -1.45, 'roll': -8.15}
{'lipoC2': 7.8, 'temp': 23.69, 'lipoC3S3': 11.89, 'rot1': 0, 'rot0': 0, 'rot3': 0, 'rot2': 0, 'state': 'normal', 'yaw': 69.13, 'datetime': '2018-10-12 13:59:17.157467', 'mgs': 0, 'depth': 2.225, 'time': 7.5, 'pitch': -0.81, 'roll': -8.04}
{'lipoC2': 7.8, 'temp': 23.63, 'lipoC3S3': 11.89, 'rot1': 0, 'rot0': 0, 'rot3': 0, 'rot2': 0, 'state': 'normal', 'yaw': 68.72, 'datetime': '2018-10-12 13:59:17.165256', 'mgs': 0, 'depth': 2.301, 'time': 7.6, 'pitch': -0.36, 'roll': -7.87}
{'lipoC2': 7.8, 'temp': 23.63, 'lipoC3S3': 11.89, 'rot1': 0, 'rot0': 0, 'rot3': 0, 'rot2': 0, 'state': 'normal', 'yaw': 68.07, 'datetime': '2018-10-12 13:59:17.172928', 'mgs': 0, 'depth': 2.225, 'time': 7.7, 'pitch': 0.09, 'roll': -7.37}
{'lipoC2': 7.8, 'temp': 23.63, 'lipoC3S3': 11.89, 'rot1': 0, 'rot0': 0, 'rot3': 0, 'rot2': 0, 'state': 'normal', 'yaw': 67.32, 'datetime': '2018-10-12 13:59:17.180605', 'mgs': 0, 'depth': 2.148, 'time': 7.79, 'pitch': 0.47, 'roll': -6.97}
{'lipoC2': 7.8, 'temp': 23.63, 'lipoC3S3': 11.89, 'rot1': 0, 'rot0': 0, 'rot3': 0, 'rot2': 0, 'state': 'normal', 'yaw': 66.72, 'datetime': '2018-10-12 13:59:17.188284', 'mgs': 0, 'depth': 2.225, 'time': 7.89, 'pitch': 0.65, 'roll': -7.49}
{'lipoC2': 7.8, 'temp': 23.63, 'lipoC3S3': 11.89, 'rot1': 0, 'rot0': 0, 'rot3': 0, 'rot2': 0, 'state': 'normal', 'yaw': 66.33, 'datetime': '2018-10-12 13:59:17.196254', 'mgs': 0, 'depth': 2.148, 'time': 7.99, 'pitch': 0.83, 'roll': -7.78}
{'lipoC2': 7.8, 'temp': 23.69, 'lipoC3S3': 11.89, 'rot1': 0, 'rot0': 0, 'rot3': 0, 'rot2': 0, 'state': 'normal', 'yaw': 66.11, 'datetime': '2018-10-12 13:59:17.203973', 'mgs': 0, 'depth': 2.072, 'time': 8.08, 'pitch': 0.92, 'roll': -7.39}
{'lipoC2': 7.8, 'temp': 23.69, 'lipoC3S3': 11.89, 'rot1': 0, 'rot0': 0, 'rot3': 0, 'rot2': 0, 'state': 'normal', 'yaw': 66.1, 'datetime': '2018-10-12 13:59:17.211673', 'mgs': 0, 'depth': 2.225, 'time': 8.18, 'pitch': 1.01, 'roll': -6.99}
{'lipoC2': 7.81, 'temp': 23.69, 'lipoC3S3': 11.89, 'rot1': 0, 'rot0': 0, 'rot3': 0, 'rot2': 0, 'state': 'normal', 'yaw': 66.39, 'datetime': '2018-10-12 13:59:17.219328', 'mgs': 0, 'depth': 2.072, 'time': 8.28, 'pitch': 1.17, 'roll': -6.74}
{'lipoC2': 7.8, 'temp': 23.69, 'lipoC3S3': 11.9, 'rot1': 0, 'rot0': 0, 'rot3': 0, 'rot2': 0, 'state': 'normal', 'yaw': 66.71, 'datetime': '2018-10-12 13:59:17.227009', 'mgs': 0, 'depth': 2.225, 'time': 8.38, 'pitch': 1.36, 'roll': -6.48}
{'lipoC2': 7.8, 'temp': 23.69, 'lipoC3S3': 11.89, 'rot1': 0, 'rot0': 0, 'rot3': 0, 'rot2': 0, 'state': 'normal', 'yaw': 67.07, 'datetime': '2018-10-12 13:59:17.234702', 'mgs': 0, 'depth': 2.225, 'time': 8.47, 'pitch': 1.6, 'roll': -6.07}
{'lipoC2': 7.8, 'temp': 23.63, 'lipoC3S3': 11.89, 'rot1': 0, 'rot0': 0, 'rot3': 0, 'rot2': 0, 'state': 'normal', 'yaw': 67.31, 'datetime': '2018-10-12 13:59:17.242381', 'mgs': 0, 'depth': 2.148, 'time': 8.57, 'pitch': 1.87, 'roll': -5.71}
{'lipoC2': 7.8, 'temp': 23.63, 'lipoC3S3': 11.89, 'rot1': 0, 'rot0': 0, 'rot3': 0, 'rot2': 0, 'state': 'normal', 'yaw': 67.18, 'datetime': '2018-10-12 13:59:17.250039', 'mgs': 0, 'depth': 2.148, 'time': 8.67, 'pitch': 1.91, 'roll': -5.86}
{'lipoC2': 7.8, 'temp': 23.69, 'lipoC3S3': 11.89, 'rot1': 0, 'rot0': 0, 'rot3': 0, 'rot2': 0, 'state': 'normal', 'yaw': 66.85, 'datetime': '2018-10-12 13:59:17.257729', 'mgs': 0, 'depth': 2.148, 'time': 8.77, 'pitch': 1.67, 'roll': -6.97}
{'lipoC2': 7.8, 'temp': 23.69, 'lipoC3S3': 11.88, 'rot1': 0, 'rot0': 0, 'rot3': 0, 'rot2': 0, 'state': 'normal', 'yaw': 66.48, 'datetime': '2018-10-12 13:59:17.265425', 'mgs': 0, 'depth': 2.148, 'time': 8.86, 'pitch': 1.11, 'roll': -8.67}
{'lipoC2': 7.8, 'temp': 23.69, 'lipoC3S3': 11.89, 'rot1': 0, 'rot0': 0, 'rot3': 0, 'rot2': 0, 'state': 'normal', 'yaw': 66.01, 'datetime': '2018-10-12 13:59:17.273098', 'mgs': 0, 'depth': 2.148, 'time': 8.96, 'pitch': 0.3, 'roll': -9.96}
{'lipoC2': 7.8, 'temp': 23.69, 'lipoC3S3': 11.89, 'rot1': 0, 'rot0': 0, 'rot3': 0, 'rot2': 0, 'state': 'normal', 'yaw': 65.42, 'datetime': '2018-10-12 13:59:17.280768', 'mgs': 0, 'depth': 2.148, 'time': 9.06, 'pitch': -0.78, 'roll': -10.3}
{'lipoC2': 7.8, 'temp': 23.69, 'lipoC3S3': 11.89, 'rot1': 0, 'rot0': 0, 'rot3': 0, 'rot2': 0, 'state': 'normal', 'yaw': 64.8, 'datetime': '2018-10-12 13:59:17.288411', 'mgs': 0, 'depth': 2.225, 'time': 9.16, 'pitch': -1.7, 'roll': -9.42}
{'lipoC2': 7.8, 'temp': 23.63, 'lipoC3S3': 11.89, 'rot1': 0, 'rot0': 0, 'rot3': 0, 'rot2': 0, 'state': 'normal', 'yaw': 64.06, 'datetime': '2018-10-12 13:59:17.296581', 'mgs': 0, 'depth': 2.225, 'time': 9.25, 'pitch': -2.45, 'roll': -8.57}
{'lipoC2': 7.8, 'temp': 23.63, 'lipoC3S3': 11.89, 'rot1': 0, 'rot0': 0, 'rot3': 0, 'rot2': 0, 'state': 'normal', 'yaw': 63.56, 'datetime': '2018-10-12 13:59:17.304423', 'mgs': 0, 'depth': 2.225, 'time': 9.35, 'pitch': -2.69, 'roll': -8.25}
{'lipoC2': 7.8, 'temp': 23.63, 'lipoC3S3': 11.89, 'rot1': 0, 'rot0': 0, 'rot3': 0, 'rot2': 0, 'state': 'normal', 'yaw': 63.25, 'datetime': '2018-10-12 13:59:17.312132', 'mgs': 0, 'depth': 2.301, 'time': 9.45, 'pitch': -2.43, 'roll': -8.43}
{'lipoC2': 7.8, 'temp': 23.63, 'lipoC3S3': 11.89, 'rot1': 0, 'rot0': 0, 'rot3': 0, 'rot2': 0, 'state': 'normal', 'yaw': 62.93, 'datetime': '2018-10-12 13:59:17.319769', 'mgs': 0, 'depth': 2.377, 'time': 9.55, 'pitch': -1.91, 'roll': -9.09}
{'lipoC2': 7.8, 'temp': 23.63, 'lipoC3S3': 11.89, 'rot1': 0, 'rot0': 0, 'rot3': 0, 'rot2': 0, 'state': 'normal', 'yaw': 62.55, 'datetime': '2018-10-12 13:59:17.327722', 'mgs': 0, 'depth': 2.301, 'time': 9.64, 'pitch': -1.36, 'roll': -9.56}
{'lipoC2': 7.8, 'temp': 23.69, 'lipoC3S3': 11.89, 'rot1': 0, 'rot0': 0, 'rot3': 0, 'rot2': 0, 'state': 'normal', 'yaw': 62.15, 'datetime': '2018-10-12 13:59:17.335415', 'mgs': 0, 'depth': 2.377, 'time': 9.74, 'pitch': -0.57, 'roll': -9.55}
{'lipoC2': 7.81, 'temp': 23.69, 'lipoC3S3': 11.89, 'rot1': 0, 'rot0': 0, 'rot3': 0, 'rot2': 0, 'state': 'normal', 'yaw': 61.94, 'datetime': '2018-10-12 13:59:17.343102', 'mgs': 0, 'depth': 2.377, 'time': 9.84, 'pitch': 0.46, 'roll': -9.18}
{'lipoC2': 7.8, 'temp': 23.69, 'lipoC3S3': 11.89, 'rot1': 0, 'rot0': 0, 'rot3': 0, 'rot2': 0, 'state': 'normal', 'yaw': 61.86, 'datetime': '2018-10-12 13:59:17.350782', 'mgs': 0, 'depth': 2.377, 'time': 9.93, 'pitch': 1.46, 'roll': -8.94}
{'lipoC2': 7.81, 'temp': 23.69, 'lipoC3S3': 11.89, 'rot1': 0, 'rot0': 0, 'rot3': 0, 'rot2': 0, 'state': 'normal', 'yaw': 61.94, 'datetime': '2018-10-12 13:59:17.358410', 'mgs': 0, 'depth': 2.377, 'time': 10.03, 'pitch': 2.55, 'roll': -8.89}
{'lipoC2': 7.8, 'temp': 23.69, 'lipoC3S3': 11.89, 'rot1': 0, 'rot0': 0, 'rot3': 0, 'rot2': 0, 'state': 'normal', 'yaw': 62.01, 'datetime': '2018-10-12 13:59:17.366094', 'mgs': 0, 'depth': 2.454, 'time': 10.13, 'pitch': 3.35, 'roll': -8.89}
{'lipoC2': 7.8, 'temp': 23.69, 'lipoC3S3': 11.88, 'rot1': 0, 'rot0': 0, 'rot3': 0, 'rot2': 0, 'state': 'normal', 'yaw': 62.01, 'datetime': '2018-10-12 13:59:17.373766', 'mgs': 0, 'depth': 2.377, 'time': 10.23, 'pitch': 3.66, 'roll': -8.75}
{'lipoC2': 7.8, 'temp': 23.69, 'lipoC3S3': 11.89, 'rot1': 0, 'rot0': 0, 'rot3': 0, 'rot2': 0, 'state': 'normal', 'yaw': 62.0, 'datetime': '2018-10-12 13:59:17.381433', 'mgs': 0, 'depth': 2.454, 'time': 10.33, 'pitch': 3.59, 'roll': -8.58}
{'lipoC2': 7.8, 'temp': 23.69, 'lipoC3S3': 11.88, 'rot1': 0, 'rot0': 0, 'rot3': 0, 'rot2': 0, 'state': 'normal', 'yaw': 61.96, 'datetime': '2018-10-12 13:59:17.389061', 'mgs': 0, 'depth': 2.377, 'time': 10.42, 'pitch': 3.31, 'roll': -8.56}
{'lipoC2': 7.8, 'temp': 23.69, 'lipoC3S3': 11.89, 'rot1': 0, 'rot0': 0, 'rot3': 0, 'rot2': 0, 'state': 'normal', 'yaw': 61.86, 'datetime': '2018-10-12 13:59:17.396747', 'mgs': 0, 'depth': 2.454, 'time': 10.52, 'pitch': 2.92, 'roll': -8.33}
{'lipoC2': 7.8, 'temp': 23.69, 'lipoC3S3': 11.89, 'rot1': 0, 'rot0': 0, 'rot3': 0, 'rot2': 0, 'state': 'normal', 'yaw': 61.62, 'datetime': '2018-10-12 13:59:17.404453', 'mgs': 0, 'depth': 2.454, 'time': 10.62, 'pitch': 2.29, 'roll': -7.85}
{'lipoC2': 7.8, 'temp': 23.69, 'lipoC3S3': 11.89, 'rot1': 0, 'rot0': 0, 'rot3': 0, 'rot2': 0, 'state': 'normal', 'yaw': 61.32, 'datetime': '2018-10-12 13:59:17.412146', 'mgs': 0, 'depth': 2.454, 'time': 10.72, 'pitch': 1.45, 'roll': -7.3}
{'lipoC2': 7.8, 'temp': 23.69, 'lipoC3S3': 11.89, 'rot1': 0, 'rot0': 0, 'rot3': 0, 'rot2': 0, 'state': 'normal', 'yaw': 60.91, 'datetime': '2018-10-12 13:59:17.419787', 'mgs': 0, 'depth': 2.53, 'time': 10.81, 'pitch': 0.22, 'roll': -6.93}
{'lipoC2': 7.8, 'temp': 23.69, 'lipoC3S3': 11.89, 'rot1': 0, 'rot0': 0, 'rot3': 0, 'rot2': 0, 'state': 'normal', 'yaw': 60.65, 'datetime': '2018-10-12 13:59:17.427564', 'mgs': 0, 'depth': 2.53, 'time': 10.91, 'pitch': -1.14, 'roll': -6.77}
{'lipoC2': 7.8, 'temp': 23.69, 'lipoC3S3': 11.88, 'rot1': 0, 'rot0': 0, 'rot3': 0, 'rot2': 0, 'state': 'normal', 'yaw': 60.63, 'datetime': '2018-10-12 13:59:17.435250', 'mgs': 0, 'depth': 2.53, 'time': 11.01, 'pitch': -2.27, 'roll': -6.63}
{'lipoC2': 7.8, 'temp': 23.69, 'lipoC3S3': 11.89, 'rot1': 0, 'rot0': 0, 'rot3': 0, 'rot2': 0, 'state': 'normal', 'yaw': 60.75, 'datetime': '2018-10-12 13:59:17.442915', 'mgs': 0, 'depth': 2.606, 'time': 11.1, 'pitch': -3.27, 'roll': -6.49}
{'lipoC2': 7.8, 'temp': 23.69, 'lipoC3S3': 11.89, 'rot1': 0, 'rot0': 0, 'rot3': 0, 'rot2': 0, 'state': 'normal', 'yaw': 60.96, 'datetime': '2018-10-12 13:59:17.450605', 'mgs': 0, 'depth': 2.606, 'time': 11.2, 'pitch': -3.84, 'roll': -6.3}
{'lipoC2': 7.81, 'temp': 23.69, 'lipoC3S3': 11.89, 'rot1': 0, 'rot0': 0, 'rot3': 0, 'rot2': 0, 'state': 'normal', 'yaw': 61.09, 'datetime': '2018-10-12 13:59:17.458549', 'mgs': 0, 'depth': 2.606, 'time': 11.3, 'pitch': -4.04, 'roll': -6.32}
{'lipoC2': 7.8, 'temp': 23.69, 'lipoC3S3': 11.89, 'rot1': 0, 'rot0': 0, 'rot3': 0, 'rot2': 0, 'state': 'normal', 'yaw': 61.1, 'datetime': '2018-10-12 13:59:17.466330', 'mgs': 0, 'depth': 2.682, 'time': 11.4, 'pitch': -4.09, 'roll': -6.73}
{'lipoC2': 7.8, 'temp': 23.69, 'lipoC3S3': 11.89, 'rot1': 0, 'rot0': 0, 'rot3': 0, 'rot2': 0, 'state': 'normal', 'yaw': 61.06, 'datetime': '2018-10-12 13:59:17.474077', 'mgs': 0, 'depth': 2.606, 'time': 11.49, 'pitch': -4.09, 'roll': -7.11}
{'lipoC2': 7.8, 'temp': 23.69, 'lipoC3S3': 11.89, 'rot1': 0, 'rot0': 0, 'rot3': 0, 'rot2': 0, 'state': 'normal', 'yaw': 61.05, 'datetime': '2018-10-12 13:59:17.481782', 'mgs': 0, 'depth': 2.606, 'time': 11.59, 'pitch': -3.98, 'roll': -7.26}
{'lipoC2': 7.8, 'temp': 23.69, 'lipoC3S3': 11.89, 'rot1': 0, 'rot0': 0, 'rot3': 0, 'rot2': 0, 'state': 'normal', 'yaw': 61.03, 'datetime': '2018-10-12 13:59:17.489435', 'mgs': 0, 'depth': 2.606, 'time': 11.69, 'pitch': -3.85, 'roll': -7.32}
{'lipoC2': 7.8, 'temp': 23.69, 'lipoC3S3': 11.89, 'rot1': 0, 'rot0': 0, 'rot3': 0, 'rot2': 0, 'state': 'normal', 'yaw': 60.9, 'datetime': '2018-10-12 13:59:17.497093', 'mgs': 0, 'depth': 2.606, 'time': 11.79, 'pitch': -3.67, 'roll': -7.51}
{'lipoC2': 7.8, 'temp': 23.69, 'lipoC3S3': 11.89, 'rot1': 0, 'rot0': 0, 'rot3': 0, 'rot2': 0, 'state': 'normal', 'yaw': 60.6, 'datetime': '2018-10-12 13:59:17.504787', 'mgs': 0, 'depth': 2.682, 'time': 11.88, 'pitch': -3.4, 'roll': -8.03}
{'lipoC2': 7.8, 'temp': 23.69, 'lipoC3S3': 11.89, 'rot1': 0, 'rot0': 0, 'rot3': 0, 'rot2': 0, 'state': 'normal', 'yaw': 60.15, 'datetime': '2018-10-12 13:59:17.512485', 'mgs': 0, 'depth': 2.606, 'time': 11.98, 'pitch': -2.99, 'roll': -8.7}
{'lipoC2': 7.8, 'temp': 23.69, 'lipoC3S3': 11.89, 'rot1': 0, 'rot0': 0, 'rot3': 0, 'rot2': 0, 'state': 'normal', 'yaw': 59.59, 'datetime': '2018-10-12 13:59:17.520140', 'mgs': 0, 'depth': 2.53, 'time': 12.08, 'pitch': -2.6, 'roll': -9.15}
{'lipoC2': 7.8, 'temp': 23.69, 'lipoC3S3': 11.88, 'rot1': 0, 'rot0': 0, 'rot3': 0, 'rot2': 0, 'state': 'normal', 'yaw': 58.83, 'datetime': '2018-10-12 13:59:17.527818', 'mgs': 0, 'depth': 2.454, 'time': 12.18, 'pitch': -2.27, 'roll': -9.17}
{'lipoC2': 7.8, 'temp': 23.69, 'lipoC3S3': 11.89, 'rot1': 0, 'rot0': 0, 'rot3': 0, 'rot2': 0, 'state': 'normal', 'yaw': 58.1, 'datetime': '2018-10-12 13:59:17.535516', 'mgs': 0, 'depth': 2.454, 'time': 12.27, 'pitch': -2.01, 'roll': -8.73}
{'lipoC2': 7.8, 'temp': 23.63, 'lipoC3S3': 11.89, 'rot1': 0, 'rot0': 0, 'rot3': 0, 'rot2': 0, 'state': 'normal', 'yaw': 57.69, 'datetime': '2018-10-12 13:59:17.543175', 'mgs': 0, 'depth': 2.377, 'time': 12.37, 'pitch': -1.63, 'roll': -8.45}
{'lipoC2': 7.8, 'temp': 23.63, 'lipoC3S3': 11.89, 'rot1': 0, 'rot0': 0, 'rot3': 0, 'rot2': 0, 'state': 'normal', 'yaw': 57.53, 'datetime': '2018-10-12 13:59:17.550847', 'mgs': 0, 'depth': 2.454, 'time': 12.47, 'pitch': -0.97, 'roll': -8.72}
{'lipoC2': 7.8, 'temp': 23.63, 'lipoC3S3': 11.89, 'rot1': 0, 'rot0': 0, 'rot3': 0, 'rot2': 0, 'state': 'normal', 'yaw': 57.49, 'datetime': '2018-10-12 13:59:17.558622', 'mgs': 0, 'depth': 2.377, 'time': 12.56, 'pitch': -0.21, 'roll': -9.33}
{'lipoC2': 7.8, 'temp': 23.69, 'lipoC3S3': 11.89, 'rot1': 0, 'rot0': 0, 'rot3': 0, 'rot2': 0, 'state': 'normal', 'yaw': 57.48, 'datetime': '2018-10-12 13:59:17.566324', 'mgs': 0, 'depth': 2.454, 'time': 12.66, 'pitch': 0.42, 'roll': -9.44}
{'lipoC2': 7.8, 'temp': 23.69, 'lipoC3S3': 11.89, 'rot1': 0, 'rot0': 0, 'rot3': 0, 'rot2': 0, 'state': 'normal', 'yaw': 57.63, 'datetime': '2018-10-12 13:59:17.574002', 'mgs': 0, 'depth': 2.377, 'time': 12.76, 'pitch': 0.72, 'roll': -8.57}
{'lipoC2': 7.8, 'temp': 23.69, 'lipoC3S3': 11.88, 'rot1': 0, 'rot0': 0, 'rot3': 0, 'rot2': 0, 'state': 'normal', 'yaw': 58.06, 'datetime': '2018-10-12 13:59:17.581673', 'mgs': 0, 'depth': 2.301, 'time': 12.86, 'pitch': 0.84, 'roll': -7.07}
{'lipoC2': 7.8, 'temp': 23.69, 'lipoC3S3': 11.89, 'rot1': 0, 'rot0': 0, 'rot3': 0, 'rot2': 0, 'state': 'normal', 'yaw': 58.59, 'datetime': '2018-10-12 13:59:17.589611', 'mgs': 0, 'depth': 2.301, 'time': 12.95, 'pitch': 0.65, 'roll': -5.88}
{'lipoC2': 7.8, 'temp': 23.69, 'lipoC3S3': 11.89, 'rot1': 0, 'rot0': 0, 'rot3': 0, 'rot2': 0, 'state': 'normal', 'yaw': 59.0, 'datetime': '2018-10-12 13:59:17.597284', 'mgs': 0, 'depth': 2.377, 'time': 13.05, 'pitch': 0.21, 'roll': -5.29}
{'lipoC2': 7.8, 'temp': 23.69, 'lipoC3S3': 11.88, 'rot1': 0, 'rot0': 0, 'rot3': 0, 'rot2': 0, 'state': 'normal', 'yaw': 59.41, 'datetime': '2018-10-12 13:59:17.605068', 'mgs': 0, 'depth': 2.301, 'time': 13.15, 'pitch': -0.44, 'roll': -4.8}
{'lipoC2': 7.8, 'temp': 23.69, 'lipoC3S3': 11.89, 'rot1': 0, 'rot0': 0, 'rot3': 0, 'rot2': 0, 'state': 'normal', 'yaw': 59.85, 'datetime': '2018-10-12 13:59:17.612783', 'mgs': 0, 'depth': 2.377, 'time': 13.24, 'pitch': -0.97, 'roll': -4.24}
{'lipoC2': 7.8, 'temp': 23.69, 'lipoC3S3': 11.89, 'rot1': 0, 'rot0': 0, 'rot3': 0, 'rot2': 0, 'state': 'normal', 'yaw': 60.32, 'datetime': '2018-10-12 13:59:17.620465', 'mgs': 0, 'depth': 2.301, 'time': 13.34, 'pitch': -1.19, 'roll': -4.01}
{'lipoC2': 7.8, 'temp': 23.69, 'lipoC3S3': 11.88, 'rot1': 0, 'rot0': 0, 'rot3': 0, 'rot2': 0, 'state': 'normal', 'yaw': 60.84, 'datetime': '2018-10-12 13:59:17.628088', 'mgs': 0, 'depth': 2.301, 'time': 13.44, 'pitch': -1.26, 'roll': -4.16}
{'lipoC2': 7.8, 'temp': 23.69, 'lipoC3S3': 11.89, 'rot1': 0, 'rot0': 0, 'rot3': 0, 'rot2': 0, 'state': 'normal', 'yaw': 61.24, 'datetime': '2018-10-12 13:59:17.635754', 'mgs': 0, 'depth': 2.377, 'time': 13.54, 'pitch': -1.38, 'roll': -4.22}
{'lipoC2': 7.8, 'temp': 23.69, 'lipoC3S3': 11.89, 'rot1': 0, 'rot0': 0, 'rot3': 0, 'rot2': 0, 'state': 'normal', 'yaw': 61.63, 'datetime': '2018-10-12 13:59:17.643425', 'mgs': 0, 'depth': 2.225, 'time': 13.64, 'pitch': -1.57, 'roll': -4.13}
{'lipoC2': 7.8, 'temp': 23.69, 'lipoC3S3': 11.89, 'rot1': 0, 'rot0': 0, 'rot3': 0, 'rot2': 0, 'state': 'normal', 'yaw': 61.74, 'datetime': '2018-10-12 13:59:17.651088', 'mgs': 0, 'depth': 2.301, 'time': 13.73, 'pitch': -1.97, 'roll': -4.02}
{'lipoC2': 7.8, 'temp': 23.69, 'lipoC3S3': 11.89, 'rot1': 0, 'rot0': 0, 'rot3': 0, 'rot2': 0, 'state': 'normal', 'yaw': 61.72, 'datetime': '2018-10-12 13:59:17.658729', 'mgs': 0, 'depth': 2.301, 'time': 13.83, 'pitch': -2.54, 'roll': -4.39}
{'lipoC2': 7.8, 'temp': 23.69, 'lipoC3S3': 11.89, 'rot1': 0, 'rot0': 0, 'rot3': 0, 'rot2': 0, 'state': 'normal', 'yaw': 61.75, 'datetime': '2018-10-12 13:59:17.666413', 'mgs': 0, 'depth': 2.301, 'time': 13.93, 'pitch': -2.95, 'roll': -4.82}
{'lipoC2': 7.8, 'temp': 23.69, 'lipoC3S3': 11.89, 'rot1': 0, 'rot0': 0, 'rot3': 0, 'rot2': 0, 'state': 'normal', 'yaw': 61.76, 'datetime': '2018-10-12 13:59:17.674104', 'mgs': 0, 'depth': 2.301, 'time': 14.03, 'pitch': -3.14, 'roll': -5.09}
{'lipoC2': 7.8, 'temp': 23.63, 'lipoC3S3': 11.89, 'rot1': 0, 'rot0': 0, 'rot3': 0, 'rot2': 0, 'state': 'normal', 'yaw': 61.8, 'datetime': '2018-10-12 13:59:17.681779', 'mgs': 0, 'depth': 2.301, 'time': 14.13, 'pitch': -3.08, 'roll': -4.96}
{'lipoC2': 7.8, 'temp': 23.63, 'lipoC3S3': 11.88, 'rot1': 0, 'rot0': 0, 'rot3': 0, 'rot2': 0, 'state': 'normal', 'yaw': 61.8, 'datetime': '2018-10-12 13:59:17.689538', 'mgs': 0, 'depth': 2.225, 'time': 14.22, 'pitch': -2.82, 'roll': -4.8}
{'lipoC2': 7.8, 'temp': 23.69, 'lipoC3S3': 11.89, 'rot1': 0, 'rot0': 0, 'rot3': 0, 'rot2': 0, 'state': 'normal', 'yaw': 61.77, 'datetime': '2018-10-12 13:59:17.697210', 'mgs': 0, 'depth': 2.301, 'time': 14.32, 'pitch': -2.43, 'roll': -4.79}
{'lipoC2': 7.81, 'temp': 23.69, 'lipoC3S3': 11.89, 'rot1': 0, 'rot0': 0, 'rot3': 0, 'rot2': 0, 'state': 'normal', 'yaw': 61.79, 'datetime': '2018-10-12 13:59:17.704869', 'mgs': 0, 'depth': 2.301, 'time': 14.42, 'pitch': -1.94, 'roll': -4.79}
{'lipoC2': 7.8, 'temp': 23.69, 'lipoC3S3': 11.89, 'rot1': 0, 'rot0': 0, 'rot3': 0, 'rot2': 0, 'state': 'normal', 'yaw': 61.87, 'datetime': '2018-10-12 13:59:17.712555', 'mgs': 0, 'depth': 2.301, 'time': 14.51, 'pitch': -1.29, 'roll': -4.65}
{'lipoC2': 7.8, 'temp': 23.69, 'lipoC3S3': 11.89, 'rot1': 0, 'rot0': 0, 'rot3': 0, 'rot2': 0, 'state': 'normal', 'yaw': 62.03, 'datetime': '2018-10-12 13:59:17.720525', 'mgs': 0, 'depth': 2.301, 'time': 14.61, 'pitch': -0.66, 'roll': -4.61}
{'lipoC2': 7.8, 'temp': 23.69, 'lipoC3S3': 11.89, 'rot1': 0, 'rot0': 0, 'rot3': 0, 'rot2': 0, 'state': 'normal', 'yaw': 62.04, 'datetime': '2018-10-12 13:59:17.728199', 'mgs': 0, 'depth': 2.301, 'time': 14.71, 'pitch': -0.23, 'roll': -4.91}
{'lipoC2': 7.8, 'temp': 23.69, 'lipoC3S3': 11.89, 'rot1': 0, 'rot0': 0, 'rot3': 0, 'rot2': 0, 'state': 'normal', 'yaw': 61.92, 'datetime': '2018-10-12 13:59:17.735851', 'mgs': 0, 'depth': 2.225, 'time': 14.81, 'pitch': -0.1, 'roll': -5.25}
{'lipoC2': 7.8, 'temp': 23.69, 'lipoC3S3': 11.89, 'rot1': 0, 'rot0': 0, 'rot3': 0, 'rot2': 0, 'state': 'normal', 'yaw': 61.71, 'datetime': '2018-10-12 13:59:17.743520', 'mgs': 0, 'depth': 2.301, 'time': 14.9, 'pitch': -0.18, 'roll': -5.6}
{'lipoC2': 7.8, 'temp': 23.69, 'lipoC3S3': 11.89, 'rot1': 0, 'rot0': 0, 'rot3': 0, 'rot2': 0, 'state': 'normal', 'yaw': 61.52, 'datetime': '2018-10-12 13:59:17.751192', 'mgs': 0, 'depth': 2.301, 'time': 15.0, 'pitch': -0.36, 'roll': -6.21}
{'lipoC2': 7.8, 'temp': 23.63, 'lipoC3S3': 11.89, 'rot1': 0, 'rot0': 0, 'rot3': 0, 'rot2': 0, 'state': 'normal', 'yaw': 61.54, 'datetime': '2018-10-12 13:59:17.758823', 'mgs': 0, 'depth': 2.301, 'time': 15.1, 'pitch': -0.35, 'roll': -6.72}
{'lipoC2': 7.8, 'temp': 23.63, 'lipoC3S3': 11.88, 'rot1': 0, 'rot0': 0, 'rot3': 0, 'rot2': 0, 'state': 'normal', 'yaw': 61.82, 'datetime': '2018-10-12 13:59:17.766481', 'mgs': 0, 'depth': 2.377, 'time': 15.2, 'pitch': -0.12, 'roll': -7.11}
{'lipoC2': 7.8, 'temp': 23.69, 'lipoC3S3': 11.89, 'rot1': 0, 'rot0': 0, 'rot3': 0, 'rot2': 0, 'state': 'normal', 'yaw': 62.27, 'datetime': '2018-10-12 13:59:17.774145', 'mgs': 0, 'depth': 2.377, 'time': 15.29, 'pitch': 0.23, 'roll': -7.17}
{'lipoC2': 7.8, 'temp': 23.69, 'lipoC3S3': 11.89, 'rot1': 0, 'rot0': 0, 'rot3': 0, 'rot2': 0, 'state': 'normal', 'yaw': 62.65, 'datetime': '2018-10-12 13:59:17.781825', 'mgs': 0, 'depth': 2.377, 'time': 15.39, 'pitch': 0.36, 'roll': -7.17}
{'lipoC2': 7.8, 'temp': 23.69, 'lipoC3S3': 11.89, 'rot1': 0, 'rot0': 0, 'rot3': 0, 'rot2': 0, 'state': 'normal', 'yaw': 62.89, 'datetime': '2018-10-12 13:59:17.789474', 'mgs': 0, 'depth': 2.377, 'time': 15.49, 'pitch': 0.27, 'roll': -7.18}
{'lipoC2': 7.8, 'temp': 23.69, 'lipoC3S3': 11.89, 'rot1': 0, 'rot0': 0, 'rot3': 0, 'rot2': 0, 'state': 'normal', 'yaw': 63.09, 'datetime': '2018-10-12 13:59:17.797138', 'mgs': 0, 'depth': 2.454, 'time': 15.59, 'pitch': 0.03, 'roll': -7.13}
{'lipoC2': 7.8, 'temp': 23.69, 'lipoC3S3': 11.89, 'rot1': 0, 'rot0': 0, 'rot3': 0, 'rot2': 0, 'state': 'normal', 'yaw': 63.21, 'datetime': '2018-10-12 13:59:17.804809', 'mgs': 0, 'depth': 2.53, 'time': 15.68, 'pitch': -0.25, 'roll': -7.0}
{'lipoC2': 7.81, 'temp': 23.69, 'lipoC3S3': 11.89, 'rot1': 0, 'rot0': 0, 'rot3': 0, 'rot2': 0, 'state': 'normal', 'yaw': 63.32, 'datetime': '2018-10-12 13:59:17.812472', 'mgs': 0, 'depth': 2.454, 'time': 15.78, 'pitch': -0.48, 'roll': -6.86}
{'lipoC2': 7.8, 'temp': 23.69, 'lipoC3S3': 11.88, 'rot1': 0, 'rot0': 0, 'rot3': 0, 'rot2': 0, 'state': 'normal', 'yaw': 63.43, 'datetime': '2018-10-12 13:59:17.820219', 'mgs': 0, 'depth': 2.454, 'time': 15.88, 'pitch': -0.64, 'roll': -6.88}
{'lipoC2': 7.8, 'temp': 23.69, 'lipoC3S3': 11.89, 'rot1': 0, 'rot0': 0, 'rot3': 0, 'rot2': 0, 'state': 'normal', 'yaw': 63.56, 'datetime': '2018-10-12 13:59:17.827899', 'mgs': 0, 'depth': 2.454, 'time': 15.98, 'pitch': -0.79, 'roll': -7.21}
{'lipoC2': 7.8, 'temp': 23.69, 'lipoC3S3': 11.89, 'rot1': 0, 'rot0': 0, 'rot3': 0, 'rot2': 0, 'state': 'normal', 'yaw': 63.7, 'datetime': '2018-10-12 13:59:17.835579', 'mgs': 0, 'depth': 2.377, 'time': 16.07, 'pitch': -0.89, 'roll': -7.63}
{'lipoC2': 7.81, 'temp': 23.69, 'lipoC3S3': 11.89, 'rot1': 0, 'rot0': 0, 'rot3': 0, 'rot2': 0, 'state': 'normal', 'yaw': 63.83, 'datetime': '2018-10-12 13:59:17.843259', 'mgs': 0, 'depth': 2.377, 'time': 16.17, 'pitch': -0.91, 'roll': -7.93}
{'lipoC2': 7.8, 'temp': 23.63, 'lipoC3S3': 11.89, 'rot1': 0, 'rot0': 0, 'rot3': 0, 'rot2': 0, 'state': 'normal', 'yaw': 64.11, 'datetime': '2018-10-12 13:59:17.851291', 'mgs': 0, 'depth': 2.454, 'time': 16.27, 'pitch': -0.82, 'roll': -8.06}
{'lipoC2': 7.8, 'temp': 23.63, 'lipoC3S3': 11.88, 'rot1': 0, 'rot0': 0, 'rot3': 0, 'rot2': 0, 'state': 'normal', 'yaw': 64.57, 'datetime': '2018-10-12 13:59:17.858925', 'mgs': 0, 'depth': 2.377, 'time': 16.36, 'pitch': -0.54, 'roll': -8.07}
{'lipoC2': 7.8, 'temp': 23.63, 'lipoC3S3': 11.89, 'rot1': 0, 'rot0': 0, 'rot3': 0, 'rot2': 0, 'state': 'normal', 'yaw': 65.03, 'datetime': '2018-10-12 13:59:17.866592', 'mgs': 0, 'depth': 2.377, 'time': 16.46, 'pitch': -0.31, 'roll': -8.0}
{'lipoC2': 7.81, 'temp': 23.69, 'lipoC3S3': 11.89, 'rot1': 0, 'rot0': 0, 'rot3': 0, 'rot2': 0, 'state': 'normal', 'yaw': 65.62, 'datetime': '2018-10-12 13:59:17.874268', 'mgs': 0, 'depth': 2.377, 'time': 16.56, 'pitch': -0.17, 'roll': -7.61}
{'lipoC2': 7.8, 'temp': 23.69, 'lipoC3S3': 11.89, 'rot1': 0, 'rot0': 0, 'rot3': 0, 'rot2': 0, 'state': 'normal', 'yaw': 65.99, 'datetime': '2018-10-12 13:59:17.881924', 'mgs': 0, 'depth': 2.225, 'time': 16.66, 'pitch': -0.48, 'roll': -6.97}
{'lipoC2': 7.8, 'temp': 23.63, 'lipoC3S3': 11.89, 'rot1': 0, 'rot0': 0, 'rot3': 0, 'rot2': 0, 'state': 'normal', 'yaw': 66.07, 'datetime': '2018-10-12 13:59:17.889550', 'mgs': 0, 'depth': 2.301, 'time': 16.75, 'pitch': -1.15, 'roll': -6.21}
{'lipoC2': 7.8, 'temp': 23.63, 'lipoC3S3': 11.89, 'rot1': 0, 'rot0': 0, 'rot3': 0, 'rot2': 0, 'state': 'normal', 'yaw': 66.21, 'datetime': '2018-10-12 13:59:17.897211', 'mgs': 0, 'depth': 2.301, 'time': 16.85, 'pitch': -1.86, 'roll': -5.64}
{'lipoC2': 7.8, 'temp': 23.63, 'lipoC3S3': 11.89, 'rot1': 0, 'rot0': 0, 'rot3': 0, 'rot2': 0, 'state': 'normal', 'yaw': 66.2, 'datetime': '2018-10-12 13:59:17.904882', 'mgs': 0, 'depth': 2.301, 'time': 16.95, 'pitch': -2.53, 'roll': -5.53}
{'lipoC2': 7.8, 'temp': 23.69, 'lipoC3S3': 11.89, 'rot1': 0, 'rot0': 0, 'rot3': 0, 'rot2': 0, 'state': 'normal', 'yaw': 66.1, 'datetime': '2018-10-12 13:59:17.912543', 'mgs': 0, 'depth': 2.301, 'time': 17.05, 'pitch': -3.01, 'roll': -5.87}
{'lipoC2': 7.81, 'temp': 23.69, 'lipoC3S3': 11.88, 'rot1': 0, 'rot0': 0, 'rot3': 0, 'rot2': 0, 'state': 'normal', 'yaw': 65.95, 'datetime': '2018-10-12 13:59:17.920169', 'mgs': 0, 'depth': 2.301, 'time': 17.14, 'pitch': -3.23, 'roll': -6.43}
{'lipoC2': 7.8, 'temp': 23.69, 'lipoC3S3': 11.89, 'rot1': 0, 'rot0': 0, 'rot3': 0, 'rot2': 0, 'state': 'normal', 'yaw': 65.76, 'datetime': '2018-10-12 13:59:17.927872', 'mgs': 0, 'depth': 2.377, 'time': 17.24, 'pitch': -3.14, 'roll': -7.0}
{'lipoC2': 7.8, 'temp': 23.69, 'lipoC3S3': 11.89, 'rot1': 0, 'rot0': 0, 'rot3': 0, 'rot2': 0, 'state': 'normal', 'yaw': 65.65, 'datetime': '2018-10-12 13:59:17.935535', 'mgs': 0, 'depth': 2.377, 'time': 17.34, 'pitch': -2.68, 'roll': -7.15}
{'lipoC2': 7.8, 'temp': 23.69, 'lipoC3S3': 11.89, 'rot1': 0, 'rot0': 0, 'rot3': 0, 'rot2': 0, 'state': 'normal', 'yaw': 65.57, 'datetime': '2018-10-12 13:59:17.943193', 'mgs': 0, 'depth': 2.377, 'time': 17.44, 'pitch': -1.96, 'roll': -6.85}
{'lipoC2': 7.8, 'temp': 23.63, 'lipoC3S3': 11.89, 'rot1': 0, 'rot0': 0, 'rot3': 0, 'rot2': 0, 'state': 'normal', 'yaw': 65.46, 'datetime': '2018-10-12 13:59:17.950969', 'mgs': 0, 'depth': 2.301, 'time': 17.53, 'pitch': -1.3, 'roll': -6.58}
{'lipoC2': 7.81, 'temp': 23.63, 'lipoC3S3': 11.89, 'rot1': 0, 'rot0': 0, 'rot3': 0, 'rot2': 0, 'state': 'normal', 'yaw': 65.26, 'datetime': '2018-10-12 13:59:17.958605', 'mgs': 0, 'depth': 2.301, 'time': 17.63, 'pitch': -0.76, 'roll': -6.39}
{'lipoC2': 7.8, 'temp': 23.69, 'lipoC3S3': 11.89, 'rot1': 0, 'rot0': 0, 'rot3': 0, 'rot2': 0, 'state': 'normal', 'yaw': 65.03, 'datetime': '2018-10-12 13:59:17.966266', 'mgs': 0, 'depth': 2.225, 'time': 17.73, 'pitch': -0.41, 'roll': -6.19}
{'lipoC2': 7.8, 'temp': 23.69, 'lipoC3S3': 11.89, 'rot1': 0, 'rot0': 0, 'rot3': 0, 'rot2': 0, 'state': 'normal', 'yaw': 64.76, 'datetime': '2018-10-12 13:59:17.973945', 'mgs': 0, 'depth': 2.301, 'time': 17.83, 'pitch': -0.27, 'roll': -6.03}
{'lipoC2': 7.8, 'temp': 23.69, 'lipoC3S3': 11.89, 'rot1': 0, 'rot0': 0, 'rot3': 0, 'rot2': 0, 'state': 'normal', 'yaw': 64.35, 'datetime': '2018-10-12 13:59:17.981915', 'mgs': 0, 'depth': 2.301, 'time': 17.92, 'pitch': -0.16, 'roll': -5.88}
{'lipoC2': 7.8, 'temp': 23.69, 'lipoC3S3': 11.89, 'rot1': 0, 'rot0': 0, 'rot3': 0, 'rot2': 0, 'state': 'normal', 'yaw': 63.85, 'datetime': '2018-10-12 13:59:17.989575', 'mgs': 0, 'depth': 2.225, 'time': 18.02, 'pitch': -0.0, 'roll': -5.98}
{'lipoC2': 7.8, 'temp': 23.69, 'lipoC3S3': 11.89, 'rot1': 0, 'rot0': 0, 'rot3': 0, 'rot2': 0, 'state': 'normal', 'yaw': 63.54, 'datetime': '2018-10-12 13:59:17.997255', 'mgs': 0, 'depth': 2.225, 'time': 18.12, 'pitch': 0.27, 'roll': -6.52}
{'lipoC2': 7.8, 'temp': 23.63, 'lipoC3S3': 11.89, 'rot1': 0, 'rot0': 0, 'rot3': 0, 'rot2': 0, 'state': 'normal', 'yaw': 63.52, 'datetime': '2018-10-12 13:59:18.004944', 'mgs': 0, 'depth': 2.225, 'time': 18.21, 'pitch': 0.74, 'roll': -7.08}
{'lipoC2': 7.8, 'temp': 23.63, 'lipoC3S3': 11.89, 'rot1': 0, 'rot0': 0, 'rot3': 0, 'rot2': 0, 'state': 'normal', 'yaw': 63.62, 'datetime': '2018-10-12 13:59:18.012657', 'mgs': 0, 'depth': 2.148, 'time': 18.31, 'pitch': 1.19, 'roll': -7.21}
{'lipoC2': 7.8, 'temp': 23.63, 'lipoC3S3': 11.89, 'rot1': 0, 'rot0': 0, 'rot3': 0, 'rot2': 0, 'state': 'normal', 'yaw': 63.56, 'datetime': '2018-10-12 13:59:18.020368', 'mgs': 0, 'depth': 2.225, 'time': 18.41, 'pitch': 1.33, 'roll': -6.8}
{'lipoC2': 7.8, 'temp': 23.63, 'lipoC3S3': 11.89, 'rot1': 0, 'rot0': 0, 'rot3': 0, 'rot2': 0, 'state': 'normal', 'yaw': 63.38, 'datetime': '2018-10-12 13:59:18.028011', 'mgs': 0, 'depth': 2.225, 'time': 18.51, 'pitch': 1.24, 'roll': -6.7}
{'lipoC2': 7.8, 'temp': 23.63, 'lipoC3S3': 11.89, 'rot1': 0, 'rot0': 0, 'rot3': 0, 'rot2': 0, 'state': 'normal', 'yaw': 63.23, 'datetime': '2018-10-12 13:59:18.035688', 'mgs': 0, 'depth': 2.225, 'time': 18.6, 'pitch': 0.95, 'roll': -7.21}
{'lipoC2': 7.8, 'temp': 23.63, 'lipoC3S3': 11.89, 'rot1': 0, 'rot0': 0, 'rot3': 0, 'rot2': 0, 'state': 'normal', 'yaw': 63.44, 'datetime': '2018-10-12 13:59:18.043380', 'mgs': 0, 'depth': 2.225, 'time': 18.7, 'pitch': 0.58, 'roll': -7.56}
{'lipoC2': 7.8, 'temp': 23.63, 'lipoC3S3': 11.89, 'rot1': 0, 'rot0': 0, 'rot3': 0, 'rot2': 0, 'state': 'normal', 'yaw': 63.82, 'datetime': '2018-10-12 13:59:18.051057', 'mgs': 0, 'depth': 2.225, 'time': 18.8, 'pitch': 0.14, 'roll': -7.44}
{'lipoC2': 7.8, 'temp': 23.63, 'lipoC3S3': 11.89, 'rot1': 0, 'rot0': 0, 'rot3': 0, 'rot2': 0, 'state': 'normal', 'yaw': 64.12, 'datetime': '2018-10-12 13:59:18.058726', 'mgs': 0, 'depth': 2.148, 'time': 18.9, 'pitch': -0.54, 'roll': -6.99}
{'lipoC2': 7.81, 'temp': 23.63, 'lipoC3S3': 11.89, 'rot1': 0, 'rot0': 0, 'rot3': 0, 'rot2': 0, 'state': 'normal', 'yaw': 64.27, 'datetime': '2018-10-12 13:59:18.066418', 'mgs': 0, 'depth': 2.225, 'time': 19.0, 'pitch': -1.27, 'roll': -6.78}
{'lipoC2': 7.8, 'temp': 23.63, 'lipoC3S3': 11.89, 'rot1': 0, 'rot0': 0, 'rot3': 0, 'rot2': 0, 'state': 'normal', 'yaw': 64.62, 'datetime': '2018-10-12 13:59:18.074097', 'mgs': 0, 'depth': 2.225, 'time': 19.09, 'pitch': -1.65, 'roll': -6.84}
{'lipoC2': 7.8, 'temp': 23.63, 'lipoC3S3': 11.88, 'rot1': 0, 'rot0': 0, 'rot3': 0, 'rot2': 0, 'state': 'normal', 'yaw': 65.0, 'datetime': '2018-10-12 13:59:18.081894', 'mgs': 0, 'depth': 2.225, 'time': 19.19, 'pitch': -1.72, 'roll': -7.0}
{'lipoC2': 7.8, 'temp': 23.63, 'lipoC3S3': 11.89, 'rot1': 0, 'rot0': 0, 'rot3': 0, 'rot2': 0, 'state': 'normal', 'yaw': 65.22, 'datetime': '2018-10-12 13:59:18.089544', 'mgs': 0, 'depth': 2.148, 'time': 19.29, 'pitch': -1.86, 'roll': -7.37}
{'lipoC2': 7.8, 'temp': 23.63, 'lipoC3S3': 11.88, 'rot1': 0, 'rot0': 0, 'rot3': 0, 'rot2': 0, 'state': 'normal', 'yaw': 65.33, 'datetime': '2018-10-12 13:59:18.097220', 'mgs': 0, 'depth': 2.225, 'time': 19.39, 'pitch': -2.16, 'roll': -7.86}
{'lipoC2': 7.8, 'temp': 23.69, 'lipoC3S3': 11.89, 'rot1': 0, 'rot0': 0, 'rot3': 0, 'rot2': 0, 'state': 'normal', 'yaw': 65.37, 'datetime': '2018-10-12 13:59:18.104935', 'mgs': 0, 'depth': 2.148, 'time': 19.48, 'pitch': -2.68, 'roll': -8.29}
{'lipoC2': 7.81, 'temp': 23.69, 'lipoC3S3': 11.89, 'rot1': 0, 'rot0': 0, 'rot3': 0, 'rot2': 0, 'state': 'normal', 'yaw': 65.3, 'datetime': '2018-10-12 13:59:18.112887', 'mgs': 0, 'depth': 2.225, 'time': 19.58, 'pitch': -3.24, 'roll': -8.55}
{'lipoC2': 7.8, 'temp': 23.69, 'lipoC3S3': 11.89, 'rot1': 0, 'rot0': 0, 'rot3': 0, 'rot2': 0, 'state': 'normal', 'yaw': 65.1, 'datetime': '2018-10-12 13:59:18.120550', 'mgs': 0, 'depth': 2.225, 'time': 19.68, 'pitch': -3.85, 'roll': -8.66}
{'lipoC2': 7.8, 'temp': 23.69, 'lipoC3S3': 11.89, 'rot1': 0, 'rot0': 0, 'rot3': 0, 'rot2': 0, 'state': 'normal', 'yaw': 64.87, 'datetime': '2018-10-12 13:59:18.128208', 'mgs': 0, 'depth': 2.148, 'time': 19.77, 'pitch': -4.25, 'roll': -8.46}
{'lipoC2': 7.8, 'temp': 23.69, 'lipoC3S3': 11.89, 'rot1': 0, 'rot0': 0, 'rot3': 0, 'rot2': 0, 'state': 'normal', 'yaw': 64.82, 'datetime': '2018-10-12 13:59:18.135863', 'mgs': 0, 'depth': 2.225, 'time': 19.87, 'pitch': -4.29, 'roll': -8.19}
{'lipoC2': 7.8, 'temp': 23.63, 'lipoC3S3': 11.89, 'rot1': 0, 'rot0': 0, 'rot3': 0, 'rot2': 0, 'state': 'normal', 'yaw': 65.11, 'datetime': '2018-10-12 13:59:18.143527', 'mgs': 0, 'depth': 2.225, 'time': 19.97, 'pitch': -3.84, 'roll': -7.76}
{'lipoC2': 7.8, 'temp': 23.63, 'lipoC3S3': 11.89, 'rot1': 0, 'rot0': 0, 'rot3': 0, 'rot2': 0, 'state': 'normal', 'yaw': 65.22, 'datetime': '2018-10-12 13:59:18.151194', 'mgs': 0, 'depth': 2.148, 'time': 20.07, 'pitch': -3.34, 'roll': -7.56}
{'lipoC2': 7.8, 'temp': 23.63, 'lipoC3S3': 11.89, 'rot1': 0, 'rot0': 0, 'rot3': 0, 'rot2': 0, 'state': 'normal', 'yaw': 65.0, 'datetime': '2018-10-12 13:59:18.158851', 'mgs': 0, 'depth': 2.225, 'time': 20.16, 'pitch': -3.11, 'roll': -7.56}
{'lipoC2': 7.8, 'temp': 23.63, 'lipoC3S3': 11.89, 'rot1': 0, 'rot0': 0, 'rot3': 0, 'rot2': 0, 'state': 'normal', 'yaw': 64.53, 'datetime': '2018-10-12 13:59:18.166534', 'mgs': 0, 'depth': 2.225, 'time': 20.26, 'pitch': -3.03, 'roll': -7.76}
{'lipoC2': 7.8, 'temp': 23.63, 'lipoC3S3': 11.88, 'rot1': 0, 'rot0': 0, 'rot3': 0, 'rot2': 0, 'state': 'normal', 'yaw': 64.15, 'datetime': '2018-10-12 13:59:18.174216', 'mgs': 0, 'depth': 2.225, 'time': 20.36, 'pitch': -2.91, 'roll': -7.95}
{'lipoC2': 7.8, 'temp': 23.63, 'lipoC3S3': 11.89, 'rot1': 0, 'rot0': 0, 'rot3': 0, 'rot2': 0, 'state': 'normal', 'yaw': 63.9, 'datetime': '2018-10-12 13:59:18.181895', 'mgs': 0, 'depth': 2.225, 'time': 20.46, 'pitch': -2.69, 'roll': -8.07}
{'lipoC2': 7.8, 'temp': 23.63, 'lipoC3S3': 11.88, 'rot1': 0, 'rot0': 0, 'rot3': 0, 'rot2': 0, 'state': 'normal', 'yaw': 63.68, 'datetime': '2018-10-12 13:59:18.189534', 'mgs': 0, 'depth': 2.225, 'time': 20.55, 'pitch': -2.59, 'roll': -8.27}
{'lipoC2': 7.81, 'temp': 23.63, 'lipoC3S3': 11.89, 'rot1': 0, 'rot0': 0, 'rot3': 0, 'rot2': 0, 'state': 'normal', 'yaw': 63.46, 'datetime': '2018-10-12 13:59:18.197223', 'mgs': 0, 'depth': 2.225, 'time': 20.65, 'pitch': -2.59, 'roll': -8.76}
{'lipoC2': 7.8, 'temp': 23.63, 'lipoC3S3': 11.89, 'rot1': 0, 'rot0': 0, 'rot3': 0, 'rot2': 0, 'state': 'normal', 'yaw': 63.2, 'datetime': '2018-10-12 13:59:18.204890', 'mgs': 0, 'depth': 2.225, 'time': 20.75, 'pitch': -2.76, 'roll': -9.22}
{'lipoC2': 7.8, 'temp': 23.69, 'lipoC3S3': 11.89, 'rot1': 0, 'rot0': 0, 'rot3': 0, 'rot2': 0, 'state': 'normal', 'yaw': 62.77, 'datetime': '2018-10-12 13:59:18.212671', 'mgs': 0, 'depth': 2.225, 'time': 20.85, 'pitch': -3.11, 'roll': -9.29}
{'lipoC2': 7.8, 'temp': 23.69, 'lipoC3S3': 11.89, 'rot1': 0, 'rot0': 0, 'rot3': 0, 'rot2': 0, 'state': 'normal', 'yaw': 62.44, 'datetime': '2018-10-12 13:59:18.220359', 'mgs': 0, 'depth': 2.301, 'time': 20.94, 'pitch': -3.42, 'roll': -9.13}
{'lipoC2': 7.8, 'temp': 23.69, 'lipoC3S3': 11.89, 'rot1': 0, 'rot0': 0, 'rot3': 0, 'rot2': 0, 'state': 'normal', 'yaw': 62.36, 'datetime': '2018-10-12 13:59:18.227994', 'mgs': 0, 'depth': 2.225, 'time': 21.04, 'pitch': -3.48, 'roll': -8.98}
{'lipoC2': 7.8, 'temp': 23.63, 'lipoC3S3': 11.89, 'rot1': 0, 'rot0': 0, 'rot3': 0, 'rot2': 0, 'state': 'normal', 'yaw': 62.31, 'datetime': '2018-10-12 13:59:18.235648', 'mgs': 0, 'depth': 2.225, 'time': 21.14, 'pitch': -3.46, 'roll': -9.15}
{'lipoC2': 7.8, 'temp': 23.63, 'lipoC3S3': 11.89, 'rot1': 0, 'rot0': 0, 'rot3': 0, 'rot2': 0, 'state': 'normal', 'yaw': 62.19, 'datetime': '2018-10-12 13:59:18.243585', 'mgs': 0, 'depth': 2.148, 'time': 21.24, 'pitch': -3.48, 'roll': -9.46}
{'lipoC2': 7.81, 'temp': 23.63, 'lipoC3S3': 11.89, 'rot1': 0, 'rot0': 0, 'rot3': 0, 'rot2': 0, 'state': 'normal', 'yaw': 62.03, 'datetime': '2018-10-12 13:59:18.251258', 'mgs': 0, 'depth': 2.225, 'time': 21.33, 'pitch': -3.58, 'roll': -9.7}
{'lipoC2': 7.8, 'temp': 23.63, 'lipoC3S3': 11.89, 'rot1': 0, 'rot0': 0, 'rot3': 0, 'rot2': 0, 'state': 'normal', 'yaw': 61.95, 'datetime': '2018-10-12 13:59:18.258893', 'mgs': 0, 'depth': 2.225, 'time': 21.43, 'pitch': -3.61, 'roll': -9.56}
{'lipoC2': 7.8, 'temp': 23.63, 'lipoC3S3': 11.89, 'rot1': 0, 'rot0': 0, 'rot3': 0, 'rot2': 0, 'state': 'normal', 'yaw': 61.98, 'datetime': '2018-10-12 13:59:18.266547', 'mgs': 0, 'depth': 2.225, 'time': 21.53, 'pitch': -3.55, 'roll': -9.28}
{'lipoC2': 7.8, 'temp': 23.69, 'lipoC3S3': 11.89, 'rot1': 0, 'rot0': 0, 'rot3': 0, 'rot2': 0, 'state': 'normal', 'yaw': 62.1, 'datetime': '2018-10-12 13:59:18.274226', 'mgs': 0, 'depth': 2.148, 'time': 21.62, 'pitch': -3.34, 'roll': -9.18}
{'lipoC2': 7.8, 'temp': 23.69, 'lipoC3S3': 11.89, 'rot1': 0, 'rot0': 0, 'rot3': 0, 'rot2': 0, 'state': 'normal', 'yaw': 62.12, 'datetime': '2018-10-12 13:59:18.281900', 'mgs': 0, 'depth': 2.148, 'time': 21.72, 'pitch': -3.15, 'roll': -9.35}
{'lipoC2': 7.8, 'temp': 23.69, 'lipoC3S3': 11.89, 'rot1': 0, 'rot0': 0, 'rot3': 0, 'rot2': 0, 'state': 'normal', 'yaw': 62.09, 'datetime': '2018-10-12 13:59:18.289519', 'mgs': 0, 'depth': 2.225, 'time': 21.82, 'pitch': -2.98, 'roll': -9.42}
{'lipoC2': 7.81, 'temp': 23.69, 'lipoC3S3': 11.89, 'rot1': 0, 'rot0': 0, 'rot3': 0, 'rot2': 0, 'state': 'normal', 'yaw': 62.05, 'datetime': '2018-10-12 13:59:18.297194', 'mgs': 0, 'depth': 2.148, 'time': 21.92, 'pitch': -2.79, 'roll': -9.25}
{'lipoC2': 7.8, 'temp': 23.69, 'lipoC3S3': 11.89, 'rot1': 0, 'rot0': 0, 'rot3': 0, 'rot2': 0, 'state': 'normal', 'yaw': 62.0, 'datetime': '2018-10-12 13:59:18.304870', 'mgs': 0, 'depth': 2.225, 'time': 22.02, 'pitch': -2.47, 'roll': -9.17}
{'lipoC2': 7.8, 'temp': 23.63, 'lipoC3S3': 11.89, 'rot1': 0, 'rot0': 0, 'rot3': 0, 'rot2': 0, 'state': 'normal', 'yaw': 61.95, 'datetime': '2018-10-12 13:59:18.312542', 'mgs': 0, 'depth': 2.225, 'time': 22.11, 'pitch': -1.96, 'roll': -9.46}
{'lipoC2': 7.8, 'temp': 23.63, 'lipoC3S3': 11.89, 'rot1': 0, 'rot0': 0, 'rot3': 0, 'rot2': 0, 'state': 'normal', 'yaw': 61.97, 'datetime': '2018-10-12 13:59:18.320178', 'mgs': 0, 'depth': 2.225, 'time': 22.21, 'pitch': -1.3, 'roll': -9.82}
{'lipoC2': 7.81, 'temp': 23.63, 'lipoC3S3': 11.89, 'rot1': 0, 'rot0': 0, 'rot3': 0, 'rot2': 0, 'state': 'normal', 'yaw': 61.98, 'datetime': '2018-10-12 13:59:18.327833', 'mgs': 0, 'depth': 2.148, 'time': 22.31, 'pitch': -0.74, 'roll': -9.74}
{'lipoC2': 7.8, 'temp': 23.63, 'lipoC3S3': 11.89, 'rot1': 0, 'rot0': 0, 'rot3': 0, 'rot2': 0, 'state': 'normal', 'yaw': 61.9, 'datetime': '2018-10-12 13:59:18.335504', 'mgs': 0, 'depth': 2.148, 'time': 22.41, 'pitch': -0.4, 'roll': -9.17}
{'lipoC2': 7.8, 'temp': 23.63, 'lipoC3S3': 11.89, 'rot1': 0, 'rot0': 0, 'rot3': 0, 'rot2': 0, 'state': 'normal', 'yaw': 61.65, 'datetime': '2018-10-12 13:59:18.343280', 'mgs': 0, 'depth': 2.072, 'time': 22.5, 'pitch': -0.49, 'roll': -8.79}
{'lipoC2': 7.8, 'temp': 23.69, 'lipoC3S3': 11.88, 'rot1': 0, 'rot0': 0, 'rot3': 0, 'rot2': 0, 'state': 'normal', 'yaw': 61.34, 'datetime': '2018-10-12 13:59:18.350971', 'mgs': 0, 'depth': 2.148, 'time': 22.6, 'pitch': -0.9, 'roll': -8.97}
{'lipoC2': 7.8, 'temp': 23.69, 'lipoC3S3': 11.89, 'rot1': 0, 'rot0': 0, 'rot3': 0, 'rot2': 0, 'state': 'normal', 'yaw': 61.14, 'datetime': '2018-10-12 13:59:18.358620', 'mgs': 0, 'depth': 2.148, 'time': 22.7, 'pitch': -1.45, 'roll': -9.31}
{'lipoC2': 7.8, 'temp': 23.63, 'lipoC3S3': 11.88, 'rot1': 0, 'rot0': 0, 'rot3': 0, 'rot2': 0, 'state': 'normal', 'yaw': 61.2, 'datetime': '2018-10-12 13:59:18.366306', 'mgs': 0, 'depth': 2.148, 'time': 22.8, 'pitch': -1.9, 'roll': -9.33}
{'lipoC2': 7.8, 'temp': 23.63, 'lipoC3S3': 11.89, 'rot1': 0, 'rot0': 0, 'rot3': 0, 'rot2': 0, 'state': 'normal', 'yaw': 61.37, 'datetime': '2018-10-12 13:59:18.374290', 'mgs': 0, 'depth': 2.225, 'time': 22.89, 'pitch': -2.23, 'roll': -9.14}
{'lipoC2': 7.8, 'temp': 23.63, 'lipoC3S3': 11.89, 'rot1': 0, 'rot0': 0, 'rot3': 0, 'rot2': 0, 'state': 'normal', 'yaw': 61.54, 'datetime': '2018-10-12 13:59:18.381985', 'mgs': 0, 'depth': 2.225, 'time': 22.99, 'pitch': -2.37, 'roll': -9.25}
{'lipoC2': 7.8, 'temp': 23.69, 'lipoC3S3': 11.89, 'rot1': 0, 'rot0': 0, 'rot3': 0, 'rot2': 0, 'state': 'normal', 'yaw': 61.82, 'datetime': '2018-10-12 13:59:18.389635', 'mgs': 0, 'depth': 2.148, 'time': 23.09, 'pitch': -2.31, 'roll': -9.62}
{'lipoC2': 7.8, 'temp': 23.69, 'lipoC3S3': 11.89, 'rot1': 0, 'rot0': 0, 'rot3': 0, 'rot2': 0, 'state': 'normal', 'yaw': 62.31, 'datetime': '2018-10-12 13:59:18.397308', 'mgs': 0, 'depth': 2.225, 'time': 23.18, 'pitch': -2.07, 'roll': -9.67}
{'lipoC2': 7.8, 'temp': 23.63, 'lipoC3S3': 11.89, 'rot1': 0, 'rot0': 0, 'rot3': 0, 'rot2': 0, 'state': 'normal', 'yaw': 62.82, 'datetime': '2018-10-12 13:59:18.404991', 'mgs': 0, 'depth': 2.225, 'time': 23.28, 'pitch': -1.81, 'roll': -9.3}
{'lipoC2': 7.8, 'temp': 23.63, 'lipoC3S3': 11.89, 'rot1': 0, 'rot0': 0, 'rot3': 0, 'rot2': 0, 'state': 'normal', 'yaw': 63.2, 'datetime': '2018-10-12 13:59:18.412668', 'mgs': 0, 'depth': 2.225, 'time': 23.38, 'pitch': -1.61, 'roll': -8.77}
{'lipoC2': 7.8, 'temp': 23.63, 'lipoC3S3': 11.89, 'rot1': 0, 'rot0': 0, 'rot3': 0, 'rot2': 0, 'state': 'normal', 'yaw': 63.36, 'datetime': '2018-10-12 13:59:18.420333', 'mgs': 1, 'depth': 2.148, 'time': 23.48, 'pitch': -1.51, 'roll': -8.64}
{'lipoC2': 7.8, 'temp': 23.63, 'lipoC3S3': 11.89, 'rot1': 0, 'rot0': 0, 'rot3': 0, 'rot2': 0, 'state': 'normal', 'yaw': 63.51, 'datetime': '2018-10-12 13:59:19.939972', 'mgs': 1, 'depth': 2.225, 'time': 23.57, 'pitch': -1.32, 'roll': -8.75}
{'lipoC2': 7.8, 'temp': 23.63, 'lipoC3S3': 11.89, 'rot1': 0, 'rot0': 0, 'rot3': 0, 'rot2': 0, 'state': 'normal', 'yaw': 63.57, 'datetime': '2018-10-12 13:59:19.966200', 'mgs': 1, 'depth': 2.148, 'time': 23.67, 'pitch': -0.99, 'roll': -8.96}
{'lipoC2': 7.8, 'temp': 23.69, 'lipoC3S3': 11.89, 'rot1': 0, 'rot0': 0, 'rot3': 0, 'rot2': 0, 'state': 'normal', 'yaw': 63.76, 'datetime': '2018-10-12 13:59:19.983749', 'mgs': 1, 'depth': 2.148, 'time': 23.77, 'pitch': -0.42, 'roll': -8.85}
{'lipoC2': 7.8, 'temp': 23.69, 'lipoC3S3': 11.89, 'rot1': 0, 'rot0': 0, 'rot3': 0, 'rot2': 0, 'state': 'normal', 'yaw': 64.09, 'datetime': '2018-10-12 13:59:20.000190', 'mgs': 1, 'depth': 2.072, 'time': 23.87, 'pitch': 0.43, 'roll': -8.66}
{'lipoC2': 7.8, 'temp': 23.69, 'lipoC3S3': 11.88, 'rot1': 0, 'rot0': 0, 'rot3': 0, 'rot2': 0, 'state': 'normal', 'yaw': 64.34, 'datetime': '2018-10-12 13:59:20.013697', 'mgs': 1, 'depth': 2.148, 'time': 23.96, 'pitch': 1.22, 'roll': -8.5}
{'lipoC2': 7.8, 'temp': 23.69, 'lipoC3S3': 11.89, 'rot1': 0, 'rot0': 0, 'rot3': 0, 'rot2': 0, 'state': 'normal', 'yaw': 64.43, 'datetime': '2018-10-12 13:59:20.021448', 'mgs': 0, 'depth': 2.148, 'time': 24.06, 'pitch': 1.75, 'roll': -8.4}
{'lipoC2': 7.8, 'temp': 23.69, 'lipoC3S3': 11.89, 'rot1': 0, 'rot0': 0, 'rot3': 0, 'rot2': 0, 'state': 'normal', 'yaw': 64.31, 'datetime': '2018-10-12 13:59:20.034933', 'mgs': 0, 'depth': 2.072, 'time': 24.16, 'pitch': 1.75, 'roll': -8.34}
{'lipoC2': 7.8, 'temp': 23.63, 'lipoC3S3': 11.89, 'rot1': 0, 'rot0': 0, 'rot3': 0, 'rot2': 0, 'state': 'normal', 'yaw': 64.41, 'datetime': '2018-10-12 13:59:20.048668', 'mgs': 0, 'depth': 2.148, 'time': 24.26, 'pitch': 1.51, 'roll': -8.26}
{'lipoC2': 7.8, 'temp': 23.63, 'lipoC3S3': 11.89, 'rot1': 0, 'rot0': 0, 'rot3': 0, 'rot2': 0, 'state': 'normal', 'yaw': 64.76, 'datetime': '2018-10-12 13:59:20.056438', 'mgs': 0, 'depth': 2.072, 'time': 24.35, 'pitch': 1.21, 'roll': -8.39}
{'lipoC2': 7.8, 'temp': 23.63, 'lipoC3S3': 11.89, 'rot1': 0, 'rot0': 0, 'rot3': 0, 'rot2': 0, 'state': 'normal', 'yaw': 65.3, 'datetime': '2018-10-12 13:59:20.069872', 'mgs': 0, 'depth': 2.148, 'time': 24.45, 'pitch': 0.64, 'roll': -8.35}
{'lipoC2': 7.8, 'temp': 23.63, 'lipoC3S3': 11.89, 'rot1': 0, 'rot0': 0, 'rot3': 0, 'rot2': 0, 'state': 'normal', 'yaw': 65.48, 'datetime': '2018-10-12 13:59:20.083682', 'mgs': 0, 'depth': 2.072, 'time': 24.55, 'pitch': -0.5, 'roll': -8.31}
{'lipoC2': 7.8, 'temp': 23.63, 'lipoC3S3': 11.89, 'rot1': 0, 'rot0': 0, 'rot3': 0, 'rot2': 0, 'state': 'normal', 'yaw': 65.29, 'datetime': '2018-10-12 13:59:20.091368', 'mgs': 0, 'depth': 2.072, 'time': 24.65, 'pitch': -1.9, 'roll': -8.47}
{'lipoC2': 7.8, 'temp': 23.69, 'lipoC3S3': 11.89, 'rot1': 0, 'rot0': 0, 'rot3': 0, 'rot2': 0, 'state': 'normal', 'yaw': 65.41, 'datetime': '2018-10-12 13:59:20.104828', 'mgs': 0, 'depth': 2.148, 'time': 24.74, 'pitch': -3.17, 'roll': -8.87}
{'lipoC2': 7.8, 'temp': 23.69, 'lipoC3S3': 11.89, 'rot1': 0, 'rot0': 0, 'rot3': 0, 'rot2': 0, 'state': 'normal', 'yaw': 66.07, 'datetime': '2018-10-12 13:59:20.118278', 'mgs': 0, 'depth': 2.148, 'time': 24.84, 'pitch': -3.72, 'roll': -9.19}
{'lipoC2': 7.8, 'temp': 23.69, 'lipoC3S3': 11.89, 'rot1': 0, 'rot0': 0, 'rot3': 0, 'rot2': 0, 'state': 'normal', 'yaw': 66.84, 'datetime': '2018-10-12 13:59:20.125963', 'mgs': 0, 'depth': 2.148, 'time': 24.94, 'pitch': -3.84, 'roll': -9.03}
{'lipoC2': 7.8, 'temp': 23.69, 'lipoC3S3': 11.89, 'rot1': 0, 'rot0': 0, 'rot3': 0, 'rot2': 0, 'state': 'normal', 'yaw': 67.31, 'datetime': '2018-10-12 13:59:20.139418', 'mgs': 0, 'depth': 2.148, 'time': 25.03, 'pitch': -3.86, 'roll': -8.7}
{'lipoC2': 7.8, 'temp': 23.69, 'lipoC3S3': 11.89, 'rot1': 0, 'rot0': 0, 'rot3': 0, 'rot2': 0, 'state': 'normal', 'yaw': 67.18, 'datetime': '2018-10-12 13:59:20.152923', 'mgs': 0, 'depth': 2.225, 'time': 25.13, 'pitch': -3.85, 'roll': -8.51}
{'lipoC2': 7.8, 'temp': 23.63, 'lipoC3S3': 11.89, 'rot1': 0, 'rot0': 0, 'rot3': 0, 'rot2': 0, 'state': 'normal', 'yaw': 66.97, 'datetime': '2018-10-12 13:59:20.160629', 'mgs': 0, 'depth': 2.225, 'time': 25.23, 'pitch': -3.61, 'roll': -8.5}
{'lipoC2': 7.8, 'temp': 23.63, 'lipoC3S3': 11.89, 'rot1': 0, 'rot0': 0, 'rot3': 0, 'rot2': 0, 'state': 'normal', 'yaw': 66.89, 'datetime': '2018-10-12 13:59:20.174187', 'mgs': 0, 'depth': 2.148, 'time': 25.33, 'pitch': -3.14, 'roll': -8.59}
{'lipoC2': 7.8, 'temp': 23.63, 'lipoC3S3': 11.89, 'rot1': 0, 'rot0': 0, 'rot3': 0, 'rot2': 0, 'state': 'normal', 'yaw': 66.77, 'datetime': '2018-10-12 13:59:20.187685', 'mgs': 0, 'depth': 2.148, 'time': 25.42, 'pitch': -2.7, 'roll': -8.53}
