{'lipoC2': 7.78, 'temp': 29.88, 'lipoC3S3': 12.18, 'rot1': 0, 'rot0': 0, 'rot3': 0, 'rot2': 0, 'state': 'normal', 'yaw': 0.0, 'datetime': '2018-10-12 21:01:23.437581', 'mgs': 0, 'depth': -0.827, 'time': 1.26, 'pitch': 3.56, 'roll': 1.07}
{'lipoC2': 7.78, 'temp': 29.88, 'lipoC3S3': 12.18, 'rot1': 0, 'rot0': 0, 'rot3': 0, 'rot2': 0, 'state': 'normal', 'yaw': -0.0, 'datetime': '2018-10-12 21:01:23.454319', 'mgs': 0, 'depth': -0.903, 'time': 1.36, 'pitch': 3.25, 'roll': 1.08}
{'lipoC2': 7.78, 'temp': 29.94, 'lipoC3S3': 12.18, 'rot1': 0, 'rot0': 0, 'rot3': 0, 'rot2': 0, 'state': 'normal', 'yaw': -0.0, 'datetime': '2018-10-12 21:01:23.471012', 'mgs': 0, 'depth': -0.827, 'time': 1.46, 'pitch': 3.02, 'roll': 1.08}
{'lipoC2': 7.78, 'temp': 29.94, 'lipoC3S3': 12.18, 'rot1': 0, 'rot0': 0, 'rot3': 0, 'rot2': 0, 'state': 'normal', 'yaw': -0.0, 'datetime': '2018-10-12 21:01:23.487597', 'mgs': 0, 'depth': -0.827, 'time': 1.55, 'pitch': 2.82, 'roll': 1.07}
{'lipoC2': 7.78, 'temp': 29.94, 'lipoC3S3': 12.18, 'rot1': 0, 'rot0': 0, 'rot3': 0, 'rot2': 0, 'state': 'normal', 'yaw': 0.0, 'datetime': '2018-10-12 21:01:23.494897', 'mgs': 0, 'depth': -0.827, 'time': 1.65, 'pitch': 2.68, 'roll': 1.07}
{'lipoC2': 7.78, 'temp': 29.88, 'lipoC3S3': 12.18, 'rot1': 0, 'rot0': 0, 'rot3': 0, 'rot2': 0, 'state': 'normal', 'yaw': 0.0, 'datetime': '2018-10-12 21:01:23.502132', 'mgs': 0, 'depth': -0.827, 'time': 1.75, 'pitch': 2.54, 'roll': 1.07}
{'lipoC2': 7.78, 'temp': 29.88, 'lipoC3S3': 12.18, 'rot1': 0, 'rot0': 0, 'rot3': 0, 'rot2': 0, 'state': 'normal', 'yaw': -0.0, 'datetime': '2018-10-12 21:01:23.585929', 'mgs': 0, 'depth': -0.827, 'time': 1.85, 'pitch': 2.42, 'roll': 1.07}
{'lipoC2': 7.78, 'temp': 29.94, 'lipoC3S3': 12.18, 'rot1': 0, 'rot0': 0, 'rot3': 0, 'rot2': 0, 'state': 'normal', 'yaw': -0.0, 'datetime': '2018-10-12 21:01:23.683046', 'mgs': 0, 'depth': -0.751, 'time': 1.95, 'pitch': 2.33, 'roll': 1.07}
{'lipoC2': 7.78, 'temp': 29.94, 'lipoC3S3': 12.18, 'rot1': 0, 'rot0': 0, 'rot3': 0, 'rot2': 0, 'state': 'normal', 'yaw': -0.0, 'datetime': '2018-10-12 21:01:23.781128', 'mgs': 0, 'depth': -0.827, 'time': 2.04, 'pitch': 2.25, 'roll': 1.07}
{'lipoC2': 7.78, 'temp': 29.94, 'lipoC3S3': 12.18, 'rot1': 0, 'rot0': 0, 'rot3': 0, 'rot2': 0, 'state': 'normal', 'yaw': -0.0, 'datetime': '2018-10-12 21:01:23.879510', 'mgs': 0, 'depth': -0.827, 'time': 2.14, 'pitch': 2.17, 'roll': 1.07}
{'lipoC2': 7.78, 'temp': 29.88, 'lipoC3S3': 12.18, 'rot1': 0, 'rot0': 0, 'rot3': 0, 'rot2': 0, 'state': 'normal', 'yaw': -0.0, 'datetime': '2018-10-12 21:01:23.976626', 'mgs': 0, 'depth': -0.827, 'time': 2.24, 'pitch': 2.1, 'roll': 1.07}
{'lipoC2': 7.78, 'temp': 29.88, 'lipoC3S3': 12.18, 'rot1': 0, 'rot0': 0, 'rot3': 0, 'rot2': 0, 'state': 'normal', 'yaw': -0.0, 'datetime': '2018-10-12 21:01:24.073765', 'mgs': 0, 'depth': -0.827, 'time': 2.34, 'pitch': 2.04, 'roll': 1.07}
{'lipoC2': 7.78, 'temp': 29.88, 'lipoC3S3': 12.19, 'rot1': 0, 'rot0': 0, 'rot3': 0, 'rot2': 0, 'state': 'normal', 'yaw': -0.0, 'datetime': '2018-10-12 21:01:24.171875', 'mgs': 0, 'depth': -0.827, 'time': 2.43, 'pitch': 1.99, 'roll': 1.08}
{'lipoC2': 7.78, 'temp': 29.88, 'lipoC3S3': 12.18, 'rot1': 0, 'rot0': 0, 'rot3': 0, 'rot2': 0, 'state': 'normal', 'yaw': -0.01, 'datetime': '2018-10-12 21:01:24.275255', 'mgs': 0, 'depth': -0.827, 'time': 2.53, 'pitch': 1.95, 'roll': 1.08}
{'lipoC2': 7.78, 'temp': 29.88, 'lipoC3S3': 12.18, 'rot1': 0, 'rot0': 0, 'rot3': 0, 'rot2': 0, 'state': 'normal', 'yaw': -0.01, 'datetime': '2018-10-12 21:01:24.372511', 'mgs': 0, 'depth': -0.827, 'time': 2.63, 'pitch': 1.9, 'roll': 1.08}
{'lipoC2': 7.78, 'temp': 29.88, 'lipoC3S3': 12.18, 'rot1': 0, 'rot0': 0, 'rot3': 0, 'rot2': 0, 'state': 'normal', 'yaw': -0.0, 'datetime': '2018-10-12 21:01:24.469453', 'mgs': 0, 'depth': -0.827, 'time': 2.73, 'pitch': 1.86, 'roll': 1.08}
{'lipoC2': 7.78, 'temp': 29.88, 'lipoC3S3': 12.18, 'rot1': 0, 'rot0': 0, 'rot3': 0, 'rot2': 0, 'state': 'normal', 'yaw': -0.0, 'datetime': '2018-10-12 21:01:24.567286', 'mgs': 0, 'depth': -0.827, 'time': 2.83, 'pitch': 1.83, 'roll': 1.08}
{'lipoC2': 7.78, 'temp': 29.94, 'lipoC3S3': 12.18, 'rot1': 0, 'rot0': 0, 'rot3': 0, 'rot2': 0, 'state': 'normal', 'yaw': 0.0, 'datetime': '2018-10-12 21:01:24.665035', 'mgs': 0, 'depth': -0.827, 'time': 2.92, 'pitch': 1.79, 'roll': 1.08}
{'lipoC2': 7.78, 'temp': 29.94, 'lipoC3S3': 12.21, 'rot1': 0, 'rot0': 0, 'rot3': 0, 'rot2': 0, 'state': 'normal', 'yaw': 0.0, 'datetime': '2018-10-12 21:01:24.761934', 'mgs': 0, 'depth': -0.827, 'time': 3.02, 'pitch': 1.76, 'roll': 1.07}
{'lipoC2': 7.78, 'temp': 29.94, 'lipoC3S3': 12.18, 'rot1': 0, 'rot0': 0, 'rot3': 0, 'rot2': 0, 'state': 'normal', 'yaw': 0.0, 'datetime': '2018-10-12 21:01:24.858640', 'mgs': 0, 'depth': -0.827, 'time': 3.12, 'pitch': 1.73, 'roll': 1.08}
{'lipoC2': 7.78, 'temp': 29.88, 'lipoC3S3': 12.18, 'rot1': 0, 'rot0': 0, 'rot3': 0, 'rot2': 0, 'state': 'normal', 'yaw': 0.0, 'datetime': '2018-10-12 21:01:24.956996', 'mgs': 0, 'depth': -0.827, 'time': 3.21, 'pitch': 1.7, 'roll': 1.08}
{'lipoC2': 7.78, 'temp': 29.88, 'lipoC3S3': 12.18, 'rot1': 0, 'rot0': 0, 'rot3': 0, 'rot2': 0, 'state': 'normal', 'yaw': 0.0, 'datetime': '2018-10-12 21:01:25.055453', 'mgs': 0, 'depth': -0.827, 'time': 3.31, 'pitch': 1.7, 'roll': 1.08}
{'lipoC2': 7.78, 'temp': 29.88, 'lipoC3S3': 12.18, 'rot1': 0, 'rot0': 0, 'rot3': 0, 'rot2': 0, 'state': 'normal', 'yaw': 0.0, 'datetime': '2018-10-12 21:01:25.152492', 'mgs': 0, 'depth': -0.827, 'time': 3.41, 'pitch': 1.7, 'roll': 1.08}
{'lipoC2': 7.78, 'temp': 29.88, 'lipoC3S3': 12.18, 'rot1': 2, 'rot0': 0, 'rot3': 0, 'rot2': 0, 'state': 'normal', 'yaw': -0.0, 'datetime': '2018-10-12 21:01:25.249758', 'mgs': 0, 'depth': -0.827, 'time': 3.51, 'pitch': 1.67, 'roll': 1.07}
{'lipoC2': 7.78, 'temp': 29.88, 'lipoC3S3': 12.19, 'rot1': 2, 'rot0': 0, 'rot3': 0, 'rot2': 0, 'state': 'normal', 'yaw': -0.0, 'datetime': '2018-10-12 21:01:25.348030', 'mgs': 0, 'depth': -0.827, 'time': 3.61, 'pitch': 1.65, 'roll': 1.08}
{'lipoC2': 7.78, 'temp': 29.88, 'lipoC3S3': 12.18, 'rot1': 2, 'rot0': 0, 'rot3': 0, 'rot2': 0, 'state': 'normal', 'yaw': -0.0, 'datetime': '2018-10-12 21:01:25.446463', 'mgs': 0, 'depth': -0.827, 'time': 3.7, 'pitch': 1.63, 'roll': 1.06}
{'lipoC2': 7.78, 'temp': 29.88, 'lipoC3S3': 12.18, 'rot1': 2, 'rot0': 0, 'rot3': 0, 'rot2': 0, 'state': 'normal', 'yaw': -0.0, 'datetime': '2018-10-12 21:01:25.543941', 'mgs': 0, 'depth': -0.827, 'time': 3.8, 'pitch': 1.62, 'roll': 1.07}
{'lipoC2': 7.78, 'temp': 29.88, 'lipoC3S3': 12.19, 'rot1': 2, 'rot0': 0, 'rot3': 0, 'rot2': 0, 'state': 'normal', 'yaw': -0.01, 'datetime': '2018-10-12 21:01:25.640996', 'mgs': 0, 'depth': -0.751, 'time': 3.9, 'pitch': 1.62, 'roll': 1.09}
{'lipoC2': 7.78, 'temp': 29.88, 'lipoC3S3': 12.18, 'rot1': 3, 'rot0': 0, 'rot3': 0, 'rot2': 0, 'state': 'normal', 'yaw': -0.0, 'datetime': '2018-10-12 21:01:25.739069', 'mgs': 0, 'depth': -0.827, 'time': 4.0, 'pitch': 1.62, 'roll': 1.09}
{'lipoC2': 7.78, 'temp': 29.88, 'lipoC3S3': 12.18, 'rot1': 3, 'rot0': 0, 'rot3': 0, 'rot2': 0, 'state': 'normal', 'yaw': -0.0, 'datetime': '2018-10-12 21:01:25.837492', 'mgs': 0, 'depth': -0.827, 'time': 4.1, 'pitch': 1.62, 'roll': 1.09}
{'lipoC2': 7.78, 'temp': 29.94, 'lipoC3S3': 12.18, 'rot1': 3, 'rot0': 0, 'rot3': 0, 'rot2': 0, 'state': 'normal', 'yaw': -0.0, 'datetime': '2018-10-12 21:01:25.934849', 'mgs': 0, 'depth': -0.827, 'time': 4.19, 'pitch': 1.62, 'roll': 1.09}
{'lipoC2': 7.78, 'temp': 29.94, 'lipoC3S3': 12.18, 'rot1': 3, 'rot0': 0, 'rot3': 0, 'rot2': 0, 'state': 'normal', 'yaw': -0.0, 'datetime': '2018-10-12 21:01:26.027625', 'mgs': 0, 'depth': -0.827, 'time': 4.29, 'pitch': 1.61, 'roll': 1.09}
{'lipoC2': 7.78, 'temp': 29.94, 'lipoC3S3': 12.18, 'rot1': 3, 'rot0': 0, 'rot3': 0, 'rot2': 0, 'state': 'normal', 'yaw': -0.0, 'datetime': '2018-10-12 21:01:26.125587', 'mgs': 0, 'depth': -0.903, 'time': 4.39, 'pitch': 1.62, 'roll': 1.09}
{'lipoC2': 7.78, 'temp': 29.94, 'lipoC3S3': 12.18, 'rot1': 3, 'rot0': 0, 'rot3': 0, 'rot2': 0, 'state': 'normal', 'yaw': -0.0, 'datetime': '2018-10-12 21:01:26.224052', 'mgs': 0, 'depth': -0.827, 'time': 4.49, 'pitch': 1.6, 'roll': 1.1}
{'lipoC2': 7.78, 'temp': 29.94, 'lipoC3S3': 12.18, 'rot1': 3, 'rot0': 0, 'rot3': 0, 'rot2': 0, 'state': 'normal', 'yaw': -0.0, 'datetime': '2018-10-12 21:01:26.322471', 'mgs': 0, 'depth': -0.751, 'time': 4.59, 'pitch': 1.6, 'roll': 1.1}
{'lipoC2': 7.78, 'temp': 29.88, 'lipoC3S3': 12.19, 'rot1': 3, 'rot0': 0, 'rot3': 0, 'rot2': 0, 'state': 'normal', 'yaw': -0.0, 'datetime': '2018-10-12 21:01:26.419567', 'mgs': 0, 'depth': -0.827, 'time': 4.68, 'pitch': 1.59, 'roll': 1.1}
{'lipoC2': 7.78, 'temp': 29.88, 'lipoC3S3': 12.18, 'rot1': 3, 'rot0': 0, 'rot3': 0, 'rot2': 0, 'state': 'normal', 'yaw': -0.0, 'datetime': '2018-10-12 21:01:26.516800', 'mgs': 0, 'depth': -0.751, 'time': 4.78, 'pitch': 1.58, 'roll': 1.1}
{'lipoC2': 7.78, 'temp': 29.94, 'lipoC3S3': 12.18, 'rot1': 3, 'rot0': 0, 'rot3': 0, 'rot2': 0, 'state': 'normal', 'yaw': -0.0, 'datetime': '2018-10-12 21:01:26.614803', 'mgs': 0, 'depth': -0.903, 'time': 4.88, 'pitch': 1.56, 'roll': 1.09}
{'lipoC2': 7.78, 'temp': 29.94, 'lipoC3S3': 12.18, 'rot1': 3, 'rot0': 0, 'rot3': 0, 'rot2': 0, 'state': 'normal', 'yaw': -0.0, 'datetime': '2018-10-12 21:01:26.711918', 'mgs': 0, 'depth': -0.903, 'time': 4.98, 'pitch': 1.55, 'roll': 1.1}
{'lipoC2': 7.78, 'temp': 29.94, 'lipoC3S3': 12.18, 'rot1': 3, 'rot0': 0, 'rot3': 0, 'rot2': 0, 'state': 'normal', 'yaw': -0.0, 'datetime': '2018-10-12 21:01:26.808953', 'mgs': 0, 'depth': -0.827, 'time': 5.07, 'pitch': 1.53, 'roll': 1.08}
{'lipoC2': 7.78, 'temp': 29.88, 'lipoC3S3': 12.18, 'rot1': 3, 'rot0': 0, 'rot3': 0, 'rot2': 0, 'state': 'normal', 'yaw': -0.0, 'datetime': '2018-10-12 21:01:26.907006', 'mgs': 0, 'depth': -0.827, 'time': 5.17, 'pitch': 1.5, 'roll': 1.09}
{'lipoC2': 7.78, 'temp': 29.88, 'lipoC3S3': 12.18, 'rot1': 3, 'rot0': 0, 'rot3': 0, 'rot2': 0, 'state': 'normal', 'yaw': -0.0, 'datetime': '2018-10-12 21:01:27.005358', 'mgs': 0, 'depth': -0.827, 'time': 5.27, 'pitch': 1.48, 'roll': 1.08}
{'lipoC2': 7.78, 'temp': 29.88, 'lipoC3S3': 12.18, 'rot1': 3, 'rot0': 0, 'rot3': 0, 'rot2': 0, 'state': 'normal', 'yaw': -0.0, 'datetime': '2018-10-12 21:01:27.102936', 'mgs': 0, 'depth': -0.827, 'time': 5.37, 'pitch': 1.46, 'roll': 1.09}
{'lipoC2': 7.78, 'temp': 29.88, 'lipoC3S3': 12.18, 'rot1': 3, 'rot0': 0, 'rot3': 0, 'rot2': 0, 'state': 'normal', 'yaw': -0.0, 'datetime': '2018-10-12 21:01:27.200058', 'mgs': 0, 'depth': -0.827, 'time': 5.47, 'pitch': 1.43, 'roll': 1.08}
{'lipoC2': 7.78, 'temp': 29.88, 'lipoC3S3': 12.18, 'rot1': 3, 'rot0': 0, 'rot3': 0, 'rot2': 0, 'state': 'normal', 'yaw': -0.0, 'datetime': '2018-10-12 21:01:27.297753', 'mgs': 1, 'depth': -0.751, 'time': 5.56, 'pitch': 1.42, 'roll': 1.08}
{'lipoC2': 7.78, 'temp': 29.94, 'lipoC3S3': 12.18, 'rot1': 0, 'rot0': 0, 'rot3': 0, 'rot2': 0, 'state': 'normal', 'yaw': 0.0, 'datetime': '2018-10-12 21:01:30.820153', 'mgs': 0, 'depth': -0.827, 'time': 1.26, 'pitch': 1.4, 'roll': 1.09}
{'lipoC2': 7.78, 'temp': 29.94, 'lipoC3S3': 12.18, 'rot1': 0, 'rot0': 0, 'rot3': 0, 'rot2': 0, 'state': 'normal', 'yaw': 0.0, 'datetime': '2018-10-12 21:01:30.845748', 'mgs': 0, 'depth': -0.903, 'time': 1.36, 'pitch': 1.4, 'roll': 1.06}
{'lipoC2': 7.78, 'temp': 29.94, 'lipoC3S3': 12.18, 'rot1': 0, 'rot0': 0, 'rot3': 0, 'rot2': 0, 'state': 'normal', 'yaw': -0.0, 'datetime': '2018-10-12 21:01:30.862463', 'mgs': 0, 'depth': -0.827, 'time': 1.46, 'pitch': 1.39, 'roll': 1.08}
{'lipoC2': 7.77, 'temp': 29.88, 'lipoC3S3': 12.18, 'rot1': 0, 'rot0': 0, 'rot3': 0, 'rot2': 0, 'state': 'normal', 'yaw': 0.0, 'datetime': '2018-10-12 21:01:30.886195', 'mgs': 0, 'depth': -0.827, 'time': 1.55, 'pitch': 1.39, 'roll': 1.07}
{'lipoC2': 7.78, 'temp': 29.88, 'lipoC3S3': 12.18, 'rot1': 0, 'rot0': 0, 'rot3': 0, 'rot2': 0, 'state': 'normal', 'yaw': 0.0, 'datetime': '2018-10-12 21:01:30.909828', 'mgs': 0, 'depth': -0.827, 'time': 1.65, 'pitch': 1.39, 'roll': 1.05}
{'lipoC2': 7.78, 'temp': 29.88, 'lipoC3S3': 12.18, 'rot1': 0, 'rot0': 0, 'rot3': 0, 'rot2': 0, 'state': 'normal', 'yaw': -0.0, 'datetime': '2018-10-12 21:01:30.926641', 'mgs': 0, 'depth': -0.827, 'time': 1.75, 'pitch': 1.39, 'roll': 1.09}
{'lipoC2': 7.78, 'temp': 29.88, 'lipoC3S3': 12.18, 'rot1': 0, 'rot0': 0, 'rot3': 0, 'rot2': 0, 'state': 'normal', 'yaw': 0.0, 'datetime': '2018-10-12 21:01:30.950201', 'mgs': 0, 'depth': -0.751, 'time': 1.85, 'pitch': 1.38, 'roll': 1.05}
{'lipoC2': 7.78, 'temp': 29.88, 'lipoC3S3': 12.18, 'rot1': 0, 'rot0': 0, 'rot3': 0, 'rot2': 0, 'state': 'normal', 'yaw': -0.0, 'datetime': '2018-10-12 21:01:30.964377', 'mgs': 0, 'depth': -0.827, 'time': 1.94, 'pitch': 1.38, 'roll': 1.1}
{'lipoC2': 7.78, 'temp': 29.88, 'lipoC3S3': 12.18, 'rot1': 0, 'rot0': 0, 'rot3': 0, 'rot2': 0, 'state': 'normal', 'yaw': 0.0, 'datetime': '2018-10-12 21:01:30.971610', 'mgs': 0, 'depth': -0.827, 'time': 2.04, 'pitch': 1.38, 'roll': 1.06}
{'lipoC2': 7.78, 'temp': 29.88, 'lipoC3S3': 12.18, 'rot1': 0, 'rot0': 0, 'rot3': 0, 'rot2': 0, 'state': 'normal', 'yaw': 0.0, 'datetime': '2018-10-12 21:01:30.984725', 'mgs': 0, 'depth': -0.751, 'time': 2.14, 'pitch': 1.37, 'roll': 1.12}
{'lipoC2': 7.78, 'temp': 29.94, 'lipoC3S3': 12.19, 'rot1': 0, 'rot0': 0, 'rot3': 0, 'rot2': 0, 'state': 'normal', 'yaw': 0.0, 'datetime': '2018-10-12 21:01:30.997736', 'mgs': 0, 'depth': -0.827, 'time': 2.23, 'pitch': 1.36, 'roll': 1.07}
{'lipoC2': 7.78, 'temp': 29.94, 'lipoC3S3': 12.18, 'rot1': 0, 'rot0': 0, 'rot3': 0, 'rot2': 0, 'state': 'normal', 'yaw': 0.0, 'datetime': '2018-10-12 21:01:31.005009', 'mgs': 0, 'depth': -0.827, 'time': 2.33, 'pitch': 1.35, 'roll': 1.13}
{'lipoC2': 7.78, 'temp': 29.94, 'lipoC3S3': 12.19, 'rot1': 0, 'rot0': 0, 'rot3': 0, 'rot2': 0, 'state': 'normal', 'yaw': 0.0, 'datetime': '2018-10-12 21:01:31.018036', 'mgs': 0, 'depth': -0.827, 'time': 2.43, 'pitch': 1.33, 'roll': 1.1}
{'lipoC2': 7.78, 'temp': 29.94, 'lipoC3S3': 12.18, 'rot1': 0, 'rot0': 0, 'rot3': 0, 'rot2': 0, 'state': 'normal', 'yaw': 0.0, 'datetime': '2018-10-12 21:01:31.031006', 'mgs': 0, 'depth': -0.903, 'time': 2.53, 'pitch': 1.33, 'roll': 1.14}
{'lipoC2': 7.78, 'temp': 29.94, 'lipoC3S3': 12.18, 'rot1': 0, 'rot0': 0, 'rot3': 0, 'rot2': 0, 'state': 'normal', 'yaw': 0.0, 'datetime': '2018-10-12 21:01:31.038276', 'mgs': 0, 'depth': -0.827, 'time': 2.63, 'pitch': 1.31, 'roll': 1.1}
{'lipoC2': 7.77, 'temp': 29.94, 'lipoC3S3': 12.18, 'rot1': 0, 'rot0': 0, 'rot3': 0, 'rot2': 0, 'state': 'normal', 'yaw': 0.0, 'datetime': '2018-10-12 21:01:31.051294', 'mgs': 0, 'depth': -0.827, 'time': 2.72, 'pitch': 1.3, 'roll': 1.15}
{'lipoC2': 7.78, 'temp': 29.94, 'lipoC3S3': 12.18, 'rot1': 0, 'rot0': 0, 'rot3': 0, 'rot2': 0, 'state': 'normal', 'yaw': 0.0, 'datetime': '2018-10-12 21:01:31.064257', 'mgs': 0, 'depth': -0.827, 'time': 2.82, 'pitch': 1.29, 'roll': 1.11}
{'lipoC2': 7.78, 'temp': 29.94, 'lipoC3S3': 12.18, 'rot1': 0, 'rot0': 0, 'rot3': 0, 'rot2': 0, 'state': 'normal', 'yaw': 0.0, 'datetime': '2018-10-12 21:01:31.071502', 'mgs': 0, 'depth': -0.751, 'time': 2.92, 'pitch': 1.29, 'roll': 1.15}
{'lipoC2': 7.78, 'temp': 29.94, 'lipoC3S3': 12.18, 'rot1': 0, 'rot0': 0, 'rot3': 0, 'rot2': 0, 'state': 'normal', 'yaw': 0.0, 'datetime': '2018-10-12 21:01:31.084566', 'mgs': 0, 'depth': -0.827, 'time': 3.01, 'pitch': 1.28, 'roll': 1.13}
{'lipoC2': 7.78, 'temp': 29.94, 'lipoC3S3': 12.18, 'rot1': 0, 'rot0': 0, 'rot3': 0, 'rot2': 0, 'state': 'normal', 'yaw': 0.0, 'datetime': '2018-10-12 21:01:31.097592', 'mgs': 0, 'depth': -0.751, 'time': 3.11, 'pitch': 1.27, 'roll': 1.16}
{'lipoC2': 7.77, 'temp': 29.88, 'lipoC3S3': 12.19, 'rot1': 0, 'rot0': 0, 'rot3': 0, 'rot2': 0, 'state': 'normal', 'yaw': 0.0, 'datetime': '2018-10-12 21:01:31.104917', 'mgs': 0, 'depth': -0.751, 'time': 3.21, 'pitch': 1.26, 'roll': 1.14}
{'lipoC2': 7.78, 'temp': 29.88, 'lipoC3S3': 12.19, 'rot1': 0, 'rot0': 0, 'rot3': 0, 'rot2': 0, 'state': 'normal', 'yaw': 0.0, 'datetime': '2018-10-12 21:01:31.117973', 'mgs': 0, 'depth': -0.827, 'time': 3.31, 'pitch': 1.26, 'roll': 1.15}
{'lipoC2': 7.77, 'temp': 29.88, 'lipoC3S3': 12.19, 'rot1': 0, 'rot0': 0, 'rot3': 0, 'rot2': 0, 'state': 'normal', 'yaw': 0.0, 'datetime': '2018-10-12 21:01:31.130929', 'mgs': 0, 'depth': -0.827, 'time': 3.4, 'pitch': 1.25, 'roll': 1.16}
{'lipoC2': 7.78, 'temp': 29.88, 'lipoC3S3': 12.18, 'rot1': 0, 'rot0': 0, 'rot3': 0, 'rot2': 0, 'state': 'normal', 'yaw': 0.0, 'datetime': '2018-10-12 21:01:31.138225', 'mgs': 0, 'depth': -0.827, 'time': 3.5, 'pitch': 1.24, 'roll': 1.16}
{'lipoC2': 7.78, 'temp': 29.88, 'lipoC3S3': 12.02, 'rot1': 5, 'rot0': 2, 'rot3': 0, 'rot2': 0, 'state': 'normal', 'yaw': 0.0, 'datetime': '2018-10-12 21:01:31.151347', 'mgs': 0, 'depth': -0.751, 'time': 3.6, 'pitch': 1.24, 'roll': 1.16}
{'lipoC2': 7.78, 'temp': 29.94, 'lipoC3S3': 12.18, 'rot1': 13, 'rot0': 4, 'rot3': 0, 'rot2': 0, 'state': 'normal', 'yaw': 0.0, 'datetime': '2018-10-12 21:01:31.164424', 'mgs': 0, 'depth': -0.751, 'time': 3.7, 'pitch': 1.24, 'roll': 1.14}
{'lipoC2': 7.78, 'temp': 29.94, 'lipoC3S3': 12.17, 'rot1': 22, 'rot0': 5, 'rot3': 0, 'rot2': 0, 'state': 'normal', 'yaw': 0.0, 'datetime': '2018-10-12 21:01:31.191058', 'mgs': 0, 'depth': -0.751, 'time': 3.79, 'pitch': 1.24, 'roll': 1.17}
{'lipoC2': 7.78, 'temp': 29.81, 'lipoC3S3': 12.17, 'rot1': 30, 'rot0': 7, 'rot3': 0, 'rot2': 0, 'state': 'normal', 'yaw': 0.0, 'datetime': '2018-10-12 21:01:31.288034', 'mgs': 0, 'depth': -1.285, 'time': 3.89, 'pitch': 1.24, 'roll': 1.14}
{'lipoC2': 7.78, 'temp': 29.81, 'lipoC3S3': 12.17, 'rot1': 39, 'rot0': 9, 'rot3': 0, 'rot2': 0, 'state': 'normal', 'yaw': 0.0, 'datetime': '2018-10-12 21:01:31.385828', 'mgs': 0, 'depth': -0.751, 'time': 3.99, 'pitch': 1.24, 'roll': 1.17}
{'lipoC2': 7.78, 'temp': 29.81, 'lipoC3S3': 12.17, 'rot1': 48, 'rot0': 11, 'rot3': 0, 'rot2': 0, 'state': 'normal', 'yaw': 0.0, 'datetime': '2018-10-12 21:01:31.484251', 'mgs': 0, 'depth': -0.827, 'time': 4.09, 'pitch': 1.24, 'roll': 1.12}
{'lipoC2': 7.77, 'temp': 29.88, 'lipoC3S3': 12.1, 'rot1': 57, 'rot0': 12, 'rot3': 0, 'rot2': 0, 'state': 'normal', 'yaw': 0.0, 'datetime': '2018-10-12 21:01:31.581343', 'mgs': 0, 'depth': -0.827, 'time': 4.18, 'pitch': 1.23, 'roll': 1.17}
{'lipoC2': 7.77, 'temp': 29.88, 'lipoC3S3': 12.17, 'rot1': 66, 'rot0': 14, 'rot3': 0, 'rot2': 0, 'state': 'normal', 'yaw': 0.0, 'datetime': '2018-10-12 21:01:31.679050', 'mgs': 0, 'depth': -0.751, 'time': 4.28, 'pitch': 1.22, 'roll': 1.15}
{'lipoC2': 7.78, 'temp': 29.88, 'lipoC3S3': 12.08, 'rot1': 75, 'rot0': 16, 'rot3': 0, 'rot2': 0, 'state': 'normal', 'yaw': 0.0, 'datetime': '2018-10-12 21:01:31.777020', 'mgs': 0, 'depth': -0.827, 'time': 4.38, 'pitch': 1.21, 'roll': 1.15}
{'lipoC2': 7.78, 'temp': 29.88, 'lipoC3S3': 12.17, 'rot1': 84, 'rot0': 18, 'rot3': 0, 'rot2': 0, 'state': 'normal', 'yaw': 0.0, 'datetime': '2018-10-12 21:01:31.874839', 'mgs': 0, 'depth': -0.751, 'time': 4.48, 'pitch': 1.21, 'roll': 1.13}
{'lipoC2': 7.79, 'temp': 29.88, 'lipoC3S3': 12.14, 'rot1': 93, 'rot0': 20, 'rot3': 0, 'rot2': 0, 'state': 'normal', 'yaw': 0.01, 'datetime': '2018-10-12 21:01:31.971263', 'mgs': 0, 'depth': -1.514, 'time': 4.57, 'pitch': 1.2, 'roll': 1.15}
{'lipoC2': 7.77, 'temp': 29.88, 'lipoC3S3': 12.08, 'rot1': 102, 'rot0': 21, 'rot3': 0, 'rot2': 0, 'state': 'normal', 'yaw': 0.0, 'datetime': '2018-10-12 21:01:32.068709', 'mgs': 0, 'depth': -0.827, 'time': 4.67, 'pitch': 1.2, 'roll': 1.14}
{'lipoC2': 7.78, 'temp': 29.88, 'lipoC3S3': 12.09, 'rot1': 111, 'rot0': 23, 'rot3': 0, 'rot2': 0, 'state': 'normal', 'yaw': 0.0, 'datetime': '2018-10-12 21:01:32.167282', 'mgs': 0, 'depth': -0.827, 'time': 4.77, 'pitch': 1.19, 'roll': 1.18}
{'lipoC2': 7.78, 'temp': 29.88, 'lipoC3S3': 12.08, 'rot1': 120, 'rot0': 25, 'rot3': 0, 'rot2': 0, 'state': 'normal', 'yaw': 0.0, 'datetime': '2018-10-12 21:01:32.265736', 'mgs': 0, 'depth': -0.827, 'time': 4.87, 'pitch': 1.19, 'roll': 1.15}
{'lipoC2': 7.78, 'temp': 29.88, 'lipoC3S3': 12.17, 'rot1': 129, 'rot0': 27, 'rot3': 0, 'rot2': 0, 'state': 'normal', 'yaw': -0.01, 'datetime': '2018-10-12 21:01:32.362916', 'mgs': 0, 'depth': -0.751, 'time': 4.97, 'pitch': 1.19, 'roll': 1.19}
{'lipoC2': 7.78, 'temp': 29.88, 'lipoC3S3': 12.16, 'rot1': 139, 'rot0': 28, 'rot3': 0, 'rot2': 0, 'state': 'normal', 'yaw': 0.0, 'datetime': '2018-10-12 21:01:32.460195', 'mgs': 0, 'depth': -0.217, 'time': 5.06, 'pitch': 1.18, 'roll': 1.19}
{'lipoC2': 7.78, 'temp': 29.94, 'lipoC3S3': 12.14, 'rot1': 148, 'rot0': 30, 'rot3': 0, 'rot2': 0, 'state': 'normal', 'yaw': -0.01, 'datetime': '2018-10-12 21:01:32.558451', 'mgs': 0, 'depth': -0.827, 'time': 5.16, 'pitch': 1.18, 'roll': 1.17}
{'lipoC2': 7.79, 'temp': 29.94, 'lipoC3S3': 12.14, 'rot1': 157, 'rot0': 32, 'rot3': 0, 'rot2': 0, 'state': 'normal', 'yaw': -0.02, 'datetime': '2018-10-12 21:01:32.656898', 'mgs': 0, 'depth': -0.751, 'time': 5.26, 'pitch': 1.18, 'roll': 1.17}
{'lipoC2': 7.78, 'temp': 29.88, 'lipoC3S3': 12.18, 'rot1': 166, 'rot0': 34, 'rot3': 0, 'rot2': 0, 'state': 'normal', 'yaw': -0.0, 'datetime': '2018-10-12 21:01:32.755153', 'mgs': 0, 'depth': -0.827, 'time': 5.36, 'pitch': 1.16, 'roll': 1.11}
{'lipoC2': 7.78, 'temp': 29.88, 'lipoC3S3': 12.16, 'rot1': 171, 'rot0': 35, 'rot3': 0, 'rot2': 0, 'state': 'normal', 'yaw': 0.03, 'datetime': '2018-10-12 21:01:32.852363', 'mgs': 0, 'depth': -0.674, 'time': 5.45, 'pitch': 1.06, 'roll': 0.95}
{'lipoC2': 7.78, 'temp': 29.88, 'lipoC3S3': 12.16, 'rot1': 175, 'rot0': 37, 'rot3': 0, 'rot2': 0, 'state': 'normal', 'yaw': 0.2, 'datetime': '2018-10-12 21:01:32.949854', 'mgs': 0, 'depth': -0.98, 'time': 5.55, 'pitch': 0.95, 'roll': 1.0}
{'lipoC2': 7.78, 'temp': 29.88, 'lipoC3S3': 12.16, 'rot1': 178, 'rot0': 39, 'rot3': 0, 'rot2': 0, 'state': 'normal', 'yaw': 0.39, 'datetime': '2018-10-12 21:01:33.048376', 'mgs': 0, 'depth': -1.056, 'time': 5.65, 'pitch': 0.8, 'roll': 1.07}
{'lipoC2': 7.78, 'temp': 29.88, 'lipoC3S3': 12.16, 'rot1': 182, 'rot0': 41, 'rot3': 0, 'rot2': 0, 'state': 'normal', 'yaw': 0.89, 'datetime': '2018-10-12 21:01:33.145599', 'mgs': 0, 'depth': -0.827, 'time': 5.75, 'pitch': 0.84, 'roll': 1.09}
{'lipoC2': 7.78, 'temp': 29.88, 'lipoC3S3': 12.16, 'rot1': 185, 'rot0': 42, 'rot3': 0, 'rot2': 0, 'state': 'normal', 'yaw': 1.51, 'datetime': '2018-10-12 21:01:33.242762', 'mgs': 0, 'depth': -0.827, 'time': 5.85, 'pitch': 0.79, 'roll': 1.03}
{'lipoC2': 7.78, 'temp': 29.88, 'lipoC3S3': 12.17, 'rot1': 188, 'rot0': 44, 'rot3': 0, 'rot2': 0, 'state': 'normal', 'yaw': 2.0, 'datetime': '2018-10-12 21:01:33.340209', 'mgs': 0, 'depth': -0.827, 'time': 5.94, 'pitch': 0.63, 'roll': 1.09}
{'lipoC2': 7.78, 'temp': 29.88, 'lipoC3S3': 12.16, 'rot1': 192, 'rot0': 46, 'rot3': 0, 'rot2': 0, 'state': 'normal', 'yaw': 2.68, 'datetime': '2018-10-12 21:01:33.437442', 'mgs': 0, 'depth': -0.369, 'time': 6.04, 'pitch': 0.55, 'roll': 1.1}
{'lipoC2': 7.78, 'temp': 29.94, 'lipoC3S3': 12.12, 'rot1': 196, 'rot0': 48, 'rot3': 0, 'rot2': 0, 'state': 'normal', 'yaw': 3.48, 'datetime': '2018-10-12 21:01:33.534648', 'mgs': 0, 'depth': -0.751, 'time': 6.14, 'pitch': 0.52, 'roll': 1.02}
{'lipoC2': 7.78, 'temp': 29.94, 'lipoC3S3': 12.17, 'rot1': 199, 'rot0': 49, 'rot3': 0, 'rot2': 0, 'state': 'normal', 'yaw': 4.29, 'datetime': '2018-10-12 21:01:33.631842', 'mgs': 0, 'depth': -0.827, 'time': 6.24, 'pitch': 0.5, 'roll': 1.05}
{'lipoC2': 7.78, 'temp': 29.94, 'lipoC3S3': 12.16, 'rot1': 202, 'rot0': 51, 'rot3': 0, 'rot2': 0, 'state': 'normal', 'yaw': 4.97, 'datetime': '2018-10-12 21:01:33.729105', 'mgs': 0, 'depth': -0.598, 'time': 6.33, 'pitch': 0.51, 'roll': 1.06}
{'lipoC2': 7.78, 'temp': 29.94, 'lipoC3S3': 12.13, 'rot1': 205, 'rot0': 53, 'rot3': 0, 'rot2': 0, 'state': 'normal', 'yaw': 5.7, 'datetime': '2018-10-12 21:01:33.826260', 'mgs': 0, 'depth': -0.827, 'time': 6.43, 'pitch': 0.44, 'roll': 1.05}
{'lipoC2': 7.78, 'temp': 29.94, 'lipoC3S3': 12.17, 'rot1': 208, 'rot0': 54, 'rot3': 0, 'rot2': 0, 'state': 'normal', 'yaw': 5.93, 'datetime': '2018-10-12 21:01:33.923517', 'mgs': 0, 'depth': -0.751, 'time': 6.53, 'pitch': 0.53, 'roll': 1.01}
{'lipoC2': 7.78, 'temp': 29.94, 'lipoC3S3': 12.17, 'rot1': 213, 'rot0': 56, 'rot3': 0, 'rot2': 0, 'state': 'normal', 'yaw': 5.91, 'datetime': '2018-10-12 21:01:34.021518', 'mgs': 0, 'depth': -0.827, 'time': 6.63, 'pitch': 0.53, 'roll': 1.13}
{'lipoC2': 7.78, 'temp': 29.94, 'lipoC3S3': 12.12, 'rot1': 220, 'rot0': 58, 'rot3': 0, 'rot2': 0, 'state': 'normal', 'yaw': 5.85, 'datetime': '2018-10-12 21:01:34.120018', 'mgs': 0, 'depth': -0.827, 'time': 6.72, 'pitch': 0.66, 'roll': 1.04}
{'lipoC2': 7.78, 'temp': 29.94, 'lipoC3S3': 12.17, 'rot1': 226, 'rot0': 60, 'rot3': 0, 'rot2': 0, 'state': 'normal', 'yaw': 5.82, 'datetime': '2018-10-12 21:01:34.217847', 'mgs': 0, 'depth': -0.064, 'time': 6.82, 'pitch': 0.66, 'roll': 1.08}
{'lipoC2': 7.77, 'temp': 29.94, 'lipoC3S3': 12.14, 'rot1': 233, 'rot0': 62, 'rot3': 0, 'rot2': 0, 'state': 'normal', 'yaw': 5.7, 'datetime': '2018-10-12 21:01:34.315071', 'mgs': 0, 'depth': -0.827, 'time': 6.92, 'pitch': 0.71, 'roll': 1.14}
{'lipoC2': 7.78, 'temp': 29.94, 'lipoC3S3': 12.21, 'rot1': 242, 'rot0': 63, 'rot3': 0, 'rot2': 0, 'state': 'normal', 'yaw': 5.44, 'datetime': '2018-10-12 21:01:34.412374', 'mgs': 0, 'depth': -0.827, 'time': 7.02, 'pitch': 0.81, 'roll': 1.27}
{'lipoC2': 7.78, 'temp': 29.88, 'lipoC3S3': 12.17, 'rot1': 253, 'rot0': 65, 'rot3': 0, 'rot2': 0, 'state': 'normal', 'yaw': 5.23, 'datetime': '2018-10-12 21:01:34.510905', 'mgs': 0, 'depth': -0.827, 'time': 7.11, 'pitch': 0.9, 'roll': 1.41}
{'lipoC2': 7.79, 'temp': 29.88, 'lipoC3S3': 12.16, 'rot1': 265, 'rot0': 67, 'rot3': 0, 'rot2': 0, 'state': 'normal', 'yaw': 5.2, 'datetime': '2018-10-12 21:01:34.608832', 'mgs': 0, 'depth': -0.903, 'time': 7.21, 'pitch': 0.9, 'roll': 1.34}
{'lipoC2': 7.78, 'temp': 29.94, 'lipoC3S3': 12.16, 'rot1': 276, 'rot0': 69, 'rot3': 0, 'rot2': 0, 'state': 'normal', 'yaw': 4.87, 'datetime': '2018-10-12 21:01:34.706068', 'mgs': 0, 'depth': -0.827, 'time': 7.31, 'pitch': 0.97, 'roll': 1.53}
{'lipoC2': 7.78, 'temp': 29.94, 'lipoC3S3': 12.16, 'rot1': 285, 'rot0': 71, 'rot3': 0, 'rot2': 0, 'state': 'normal', 'yaw': 4.02, 'datetime': '2018-10-12 21:01:34.803280', 'mgs': 0, 'depth': -0.751, 'time': 7.41, 'pitch': 1.05, 'roll': 1.62}
{'lipoC2': 7.78, 'temp': 29.94, 'lipoC3S3': 12.17, 'rot1': 296, 'rot0': 73, 'rot3': 0, 'rot2': 0, 'state': 'normal', 'yaw': 3.14, 'datetime': '2018-10-12 21:01:34.901903', 'mgs': 0, 'depth': -0.827, 'time': 7.51, 'pitch': 1.08, 'roll': 1.39}
{'lipoC2': 7.78, 'temp': 29.94, 'lipoC3S3': 12.16, 'rot1': 308, 'rot0': 74, 'rot3': 0, 'rot2': 0, 'state': 'normal', 'yaw': 2.16, 'datetime': '2018-10-12 21:01:34.999925', 'mgs': 0, 'depth': -1.056, 'time': 7.61, 'pitch': 1.16, 'roll': 1.34}
{'lipoC2': 7.78, 'temp': 29.94, 'lipoC3S3': 12.17, 'rot1': 319, 'rot0': 76, 'rot3': 0, 'rot2': 0, 'state': 'normal', 'yaw': 1.16, 'datetime': '2018-10-12 21:01:35.097178', 'mgs': 0, 'depth': -0.827, 'time': 7.7, 'pitch': 1.3, 'roll': 1.35}
{'lipoC2': 7.78, 'temp': 29.94, 'lipoC3S3': 12.17, 'rot1': 330, 'rot0': 78, 'rot3': 0, 'rot2': 0, 'state': 'normal', 'yaw': -0.16, 'datetime': '2018-10-12 21:01:35.194445', 'mgs': 0, 'depth': -0.751, 'time': 7.8, 'pitch': 1.28, 'roll': 1.11}
{'lipoC2': 7.79, 'temp': 29.94, 'lipoC3S3': 12.16, 'rot1': 341, 'rot0': 80, 'rot3': 0, 'rot2': 0, 'state': 'normal', 'yaw': -1.23, 'datetime': '2018-10-12 21:01:35.291588', 'mgs': 0, 'depth': -1.514, 'time': 7.9, 'pitch': 1.34, 'roll': 1.09}
{'lipoC2': 7.78, 'temp': 29.94, 'lipoC3S3': 12.21, 'rot1': 352, 'rot0': 81, 'rot3': 0, 'rot2': 0, 'state': 'normal', 'yaw': -2.24, 'datetime': '2018-10-12 21:01:35.388802', 'mgs': 0, 'depth': -0.903, 'time': 7.99, 'pitch': 1.55, 'roll': 1.25}
{'lipoC2': 7.78, 'temp': 29.94, 'lipoC3S3': 12.16, 'rot1': 364, 'rot0': 83, 'rot3': 0, 'rot2': 0, 'state': 'normal', 'yaw': -3.32, 'datetime': '2018-10-12 21:01:35.486040', 'mgs': 0, 'depth': -0.903, 'time': 8.09, 'pitch': 1.58, 'roll': 1.03}
{'lipoC2': 7.78, 'temp': 29.94, 'lipoC3S3': 12.16, 'rot1': 375, 'rot0': 84, 'rot3': 0, 'rot2': 0, 'state': 'normal', 'yaw': -4.08, 'datetime': '2018-10-12 21:01:35.583475', 'mgs': 0, 'depth': -0.14, 'time': 8.19, 'pitch': 1.52, 'roll': 0.85}
{'lipoC2': 7.78, 'temp': 29.88, 'lipoC3S3': 12.12, 'rot1': 389, 'rot0': 85, 'rot3': 0, 'rot2': 0, 'state': 'normal', 'yaw': -4.12, 'datetime': '2018-10-12 21:01:35.680697', 'mgs': 0, 'depth': -0.827, 'time': 8.29, 'pitch': 1.56, 'roll': 0.93}
{'lipoC2': 7.78, 'temp': 29.88, 'lipoC3S3': 12.17, 'rot1': 400, 'rot0': 86, 'rot3': 0, 'rot2': 0, 'state': 'normal', 'yaw': -4.11, 'datetime': '2018-10-12 21:01:35.777919', 'mgs': 0, 'depth': -0.751, 'time': 8.38, 'pitch': 1.48, 'roll': 0.8}
{'lipoC2': 7.78, 'temp': 29.88, 'lipoC3S3': 12.17, 'rot1': 411, 'rot0': 88, 'rot3': 0, 'rot2': 0, 'state': 'normal', 'yaw': -4.11, 'datetime': '2018-10-12 21:01:35.875155', 'mgs': 0, 'depth': -0.064, 'time': 8.48, 'pitch': 1.47, 'roll': 0.79}
{'lipoC2': 7.78, 'temp': 29.94, 'lipoC3S3': 12.16, 'rot1': 422, 'rot0': 89, 'rot3': 0, 'rot2': 0, 'state': 'normal', 'yaw': -4.1, 'datetime': '2018-10-12 21:01:35.973692', 'mgs': 0, 'depth': -0.446, 'time': 8.58, 'pitch': 1.47, 'roll': 0.79}
{'lipoC2': 7.78, 'temp': 29.94, 'lipoC3S3': 12.16, 'rot1': 433, 'rot0': 90, 'rot3': 0, 'rot2': 0, 'state': 'normal', 'yaw': -4.1, 'datetime': '2018-10-12 21:01:36.072182', 'mgs': 0, 'depth': -0.064, 'time': 8.68, 'pitch': 1.46, 'roll': 0.77}
{'lipoC2': 7.78, 'temp': 29.94, 'lipoC3S3': 12.12, 'rot1': 443, 'rot0': 91, 'rot3': 0, 'rot2': 0, 'state': 'normal', 'yaw': -4.08, 'datetime': '2018-10-12 21:01:36.169367', 'mgs': 0, 'depth': -0.751, 'time': 8.77, 'pitch': 1.45, 'roll': 0.77}
{'lipoC2': 7.78, 'temp': 29.94, 'lipoC3S3': 12.17, 'rot1': 453, 'rot0': 92, 'rot3': 0, 'rot2': 0, 'state': 'normal', 'yaw': -4.07, 'datetime': '2018-10-12 21:01:36.266667', 'mgs': 0, 'depth': -0.827, 'time': 8.87, 'pitch': 1.44, 'roll': 0.77}
{'lipoC2': 7.78, 'temp': 29.88, 'lipoC3S3': 12.16, 'rot1': 463, 'rot0': 93, 'rot3': 0, 'rot2': 0, 'state': 'normal', 'yaw': -4.02, 'datetime': '2018-10-12 21:01:36.364881', 'mgs': 0, 'depth': -0.369, 'time': 8.97, 'pitch': 1.43, 'roll': 0.76}
{'lipoC2': 7.78, 'temp': 29.88, 'lipoC3S3': 12.16, 'rot1': 471, 'rot0': 95, 'rot3': 0, 'rot2': 0, 'state': 'normal', 'yaw': -3.91, 'datetime': '2018-10-12 21:01:36.463322', 'mgs': 0, 'depth': -0.369, 'time': 9.07, 'pitch': 1.39, 'roll': 0.75}
{'lipoC2': 7.78, 'temp': 29.88, 'lipoC3S3': 12.16, 'rot1': 476, 'rot0': 96, 'rot3': 0, 'rot2': 0, 'state': 'normal', 'yaw': -3.65, 'datetime': '2018-10-12 21:01:36.560574', 'mgs': 0, 'depth': -0.827, 'time': 9.17, 'pitch': 1.29, 'roll': 0.78}
{'lipoC2': 7.77, 'temp': 29.94, 'lipoC3S3': 12.16, 'rot1': 479, 'rot0': 97, 'rot3': 0, 'rot2': 0, 'state': 'normal', 'yaw': -3.22, 'datetime': '2018-10-12 21:01:36.657812', 'mgs': 0, 'depth': -0.903, 'time': 9.27, 'pitch': 1.18, 'roll': 0.86}
{'lipoC2': 7.78, 'temp': 29.94, 'lipoC3S3': 12.16, 'rot1': 483, 'rot0': 98, 'rot3': 0, 'rot2': 0, 'state': 'normal', 'yaw': -2.38, 'datetime': '2018-10-12 21:01:36.755738', 'mgs': 0, 'depth': -1.056, 'time': 9.36, 'pitch': 1.11, 'roll': 0.88}
{'lipoC2': 7.77, 'temp': 29.88, 'lipoC3S3': 12.13, 'rot1': 486, 'rot0': 99, 'rot3': 0, 'rot2': 0, 'state': 'normal', 'yaw': -1.11, 'datetime': '2018-10-12 21:01:36.854091', 'mgs': 0, 'depth': -0.751, 'time': 9.46, 'pitch': 1.05, 'roll': 0.84}
{'lipoC2': 7.78, 'temp': 29.88, 'lipoC3S3': 12.16, 'rot1': 488, 'rot0': 101, 'rot3': 0, 'rot2': 0, 'state': 'normal', 'yaw': -0.74, 'datetime': '2018-10-12 21:01:36.951368', 'mgs': 0, 'depth': -0.827, 'time': 9.56, 'pitch': 1.1, 'roll': 0.72}
{'lipoC2': 7.78, 'temp': 29.88, 'lipoC3S3': 12.16, 'rot1': 491, 'rot0': 102, 'rot3': 0, 'rot2': 0, 'state': 'normal', 'yaw': -0.73, 'datetime': '2018-10-12 21:01:37.048697', 'mgs': 0, 'depth': -0.369, 'time': 9.66, 'pitch': 1.09, 'roll': 0.82}
{'lipoC2': 7.78, 'temp': 29.88, 'lipoC3S3': 12.18, 'rot1': 493, 'rot0': 103, 'rot3': 0, 'rot2': 0, 'state': 'normal', 'yaw': -0.75, 'datetime': '2018-10-12 21:01:37.146595', 'mgs': 0, 'depth': -0.827, 'time': 9.75, 'pitch': 1.08, 'roll': 0.75}
{'lipoC2': 7.78, 'temp': 29.88, 'lipoC3S3': 12.14, 'rot1': 496, 'rot0': 104, 'rot3': 0, 'rot2': 0, 'state': 'normal', 'yaw': -0.76, 'datetime': '2018-10-12 21:01:37.245150', 'mgs': 0, 'depth': -0.827, 'time': 9.85, 'pitch': 1.08, 'roll': 0.79}
{'lipoC2': 7.78, 'temp': 29.94, 'lipoC3S3': 12.16, 'rot1': 499, 'rot0': 106, 'rot3': 0, 'rot2': 0, 'state': 'normal', 'yaw': -0.76, 'datetime': '2018-10-12 21:01:37.343346', 'mgs': 0, 'depth': -0.827, 'time': 9.95, 'pitch': 1.09, 'roll': 0.77}
{'lipoC2': 7.77, 'temp': 29.94, 'lipoC3S3': 12.16, 'rot1': 501, 'rot0': 108, 'rot3': 0, 'rot2': 0, 'state': 'normal', 'yaw': -0.76, 'datetime': '2018-10-12 21:01:37.440666', 'mgs': 0, 'depth': -0.217, 'time': 10.05, 'pitch': 1.09, 'roll': 0.77}
{'lipoC2': 7.79, 'temp': 29.94, 'lipoC3S3': 12.13, 'rot1': 503, 'rot0': 110, 'rot3': 0, 'rot2': 0, 'state': 'normal', 'yaw': -0.76, 'datetime': '2018-10-12 21:01:37.537997', 'mgs': 0, 'depth': -0.827, 'time': 10.15, 'pitch': 1.08, 'roll': 0.75}
{'lipoC2': 7.78, 'temp': 29.94, 'lipoC3S3': 12.14, 'rot1': 506, 'rot0': 111, 'rot3': 0, 'rot2': 0, 'state': 'normal', 'yaw': -0.76, 'datetime': '2018-10-12 21:01:37.635526', 'mgs': 0, 'depth': -0.827, 'time': 10.24, 'pitch': 1.08, 'roll': 0.76}
{'lipoC2': 7.78, 'temp': 29.94, 'lipoC3S3': 12.14, 'rot1': 509, 'rot0': 113, 'rot3': 0, 'rot2': 0, 'state': 'normal', 'yaw': -0.76, 'datetime': '2018-10-12 21:01:37.732868', 'mgs': 0, 'depth': -0.751, 'time': 10.34, 'pitch': 1.09, 'roll': 0.77}
{'lipoC2': 7.78, 'temp': 29.94, 'lipoC3S3': 12.16, 'rot1': 511, 'rot0': 115, 'rot3': 0, 'rot2': 0, 'state': 'normal', 'yaw': -0.77, 'datetime': '2018-10-12 21:01:37.830173', 'mgs': 0, 'depth': -0.827, 'time': 10.44, 'pitch': 1.07, 'roll': 0.77}
{'lipoC2': 7.77, 'temp': 29.94, 'lipoC3S3': 12.09, 'rot1': 514, 'rot0': 117, 'rot3': 0, 'rot2': 0, 'state': 'normal', 'yaw': -0.77, 'datetime': '2018-10-12 21:01:37.928033', 'mgs': 0, 'depth': -0.827, 'time': 10.53, 'pitch': 1.07, 'roll': 0.79}
{'lipoC2': 7.78, 'temp': 29.94, 'lipoC3S3': 12.14, 'rot1': 519, 'rot0': 118, 'rot3': 0, 'rot2': 0, 'state': 'normal', 'yaw': -0.79, 'datetime': '2018-10-12 21:01:38.026652', 'mgs': 0, 'depth': -0.827, 'time': 10.64, 'pitch': 1.08, 'roll': 0.85}
{'lipoC2': 7.78, 'temp': 29.88, 'lipoC3S3': 12.14, 'rot1': 523, 'rot0': 120, 'rot3': 0, 'rot2': 0, 'state': 'normal', 'yaw': -0.81, 'datetime': '2018-10-12 21:01:38.125312', 'mgs': 0, 'depth': -0.446, 'time': 10.73, 'pitch': 1.08, 'roll': 0.82}
{'lipoC2': 7.78, 'temp': 29.88, 'lipoC3S3': 12.14, 'rot1': 528, 'rot0': 122, 'rot3': 0, 'rot2': 0, 'state': 'normal', 'yaw': -0.83, 'datetime': '2018-10-12 21:01:38.223447', 'mgs': 0, 'depth': -0.827, 'time': 10.83, 'pitch': 1.1, 'roll': 0.91}
{'lipoC2': 7.78, 'temp': 29.94, 'lipoC3S3': 12.16, 'rot1': 535, 'rot0': 124, 'rot3': 0, 'rot2': 0, 'state': 'normal', 'yaw': -0.83, 'datetime': '2018-10-12 21:01:38.320742', 'mgs': 0, 'depth': -0.751, 'time': 10.93, 'pitch': 1.1, 'roll': 0.85}
{'lipoC2': 7.78, 'temp': 29.94, 'lipoC3S3': 12.08, 'rot1': 541, 'rot0': 125, 'rot3': 0, 'rot2': 0, 'state': 'normal', 'yaw': -0.82, 'datetime': '2018-10-12 21:01:38.418620', 'mgs': 0, 'depth': -0.827, 'time': 11.03, 'pitch': 1.11, 'roll': 0.89}
{'lipoC2': 7.79, 'temp': 29.94, 'lipoC3S3': 12.13, 'rot1': 548, 'rot0': 127, 'rot3': 0, 'rot2': 0, 'state': 'normal', 'yaw': -0.83, 'datetime': '2018-10-12 21:01:38.517206', 'mgs': 0, 'depth': -0.827, 'time': 11.13, 'pitch': 1.1, 'roll': 0.9}
{'lipoC2': 7.79, 'temp': 29.88, 'lipoC3S3': 12.14, 'rot1': 555, 'rot0': 129, 'rot3': 0, 'rot2': 0, 'state': 'normal', 'yaw': -0.83, 'datetime': '2018-10-12 21:01:38.615832', 'mgs': 0, 'depth': -0.98, 'time': 11.23, 'pitch': 1.1, 'roll': 0.9}
{'lipoC2': 7.77, 'temp': 29.88, 'lipoC3S3': 12.09, 'rot1': 562, 'rot0': 131, 'rot3': 0, 'rot2': 0, 'state': 'normal', 'yaw': -0.83, 'datetime': '2018-10-12 21:01:38.713126', 'mgs': 0, 'depth': -0.751, 'time': 11.32, 'pitch': 1.1, 'roll': 0.92}
{'lipoC2': 7.77, 'temp': 29.94, 'lipoC3S3': 12.16, 'rot1': 568, 'rot0': 133, 'rot3': 0, 'rot2': 0, 'state': 'normal', 'yaw': -0.82, 'datetime': '2018-10-12 21:01:38.810371', 'mgs': 0, 'depth': -0.827, 'time': 11.42, 'pitch': 1.09, 'roll': 0.92}
{'lipoC2': 7.78, 'temp': 29.94, 'lipoC3S3': 12.16, 'rot1': 575, 'rot0': 135, 'rot3': 0, 'rot2': 0, 'state': 'normal', 'yaw': -0.83, 'datetime': '2018-10-12 21:01:38.908945', 'mgs': 0, 'depth': -0.751, 'time': 11.52, 'pitch': 1.09, 'roll': 0.95}
{'lipoC2': 7.78, 'temp': 29.94, 'lipoC3S3': 12.18, 'rot1': 581, 'rot0': 136, 'rot3': 0, 'rot2': 0, 'state': 'normal', 'yaw': -0.83, 'datetime': '2018-10-12 21:01:39.007526', 'mgs': 0, 'depth': -0.827, 'time': 11.62, 'pitch': 1.09, 'roll': 0.9}
{'lipoC2': 7.77, 'temp': 29.94, 'lipoC3S3': 12.1, 'rot1': 589, 'rot0': 138, 'rot3': 0, 'rot2': 0, 'state': 'normal', 'yaw': -0.8, 'datetime': '2018-10-12 21:01:39.105213', 'mgs': 0, 'depth': -0.827, 'time': 11.71, 'pitch': 1.09, 'roll': 0.95}
{'lipoC2': 7.77, 'temp': 29.94, 'lipoC3S3': 12.16, 'rot1': 595, 'rot0': 140, 'rot3': 0, 'rot2': 0, 'state': 'normal', 'yaw': -0.8, 'datetime': '2018-10-12 21:01:39.202496', 'mgs': 0, 'depth': -0.751, 'time': 11.81, 'pitch': 1.09, 'roll': 0.88}
{'lipoC2': 7.78, 'temp': 29.94, 'lipoC3S3': 12.14, 'rot1': 603, 'rot0': 142, 'rot3': 0, 'rot2': 0, 'state': 'normal', 'yaw': -0.8, 'datetime': '2018-10-12 21:01:39.300251', 'mgs': 0, 'depth': -0.827, 'time': 11.91, 'pitch': 1.09, 'roll': 0.91}
{'lipoC2': 7.78, 'temp': 29.94, 'lipoC3S3': 12.12, 'rot1': 610, 'rot0': 144, 'rot3': 0, 'rot2': 0, 'state': 'normal', 'yaw': -0.8, 'datetime': '2018-10-12 21:01:39.398739', 'mgs': 0, 'depth': -0.827, 'time': 12.01, 'pitch': 1.09, 'roll': 0.89}
{'lipoC2': 7.78, 'temp': 29.94, 'lipoC3S3': 12.06, 'rot1': 619, 'rot0': 145, 'rot3': 0, 'rot2': 0, 'state': 'normal', 'yaw': -0.8, 'datetime': '2018-10-12 21:01:39.497371', 'mgs': 0, 'depth': -0.827, 'time': 12.11, 'pitch': 1.09, 'roll': 0.92}
{'lipoC2': 7.78, 'temp': 29.94, 'lipoC3S3': 12.16, 'rot1': 625, 'rot0': 147, 'rot3': 0, 'rot2': 0, 'state': 'normal', 'yaw': -0.8, 'datetime': '2018-10-12 21:01:39.594700', 'mgs': 0, 'depth': -0.827, 'time': 12.2, 'pitch': 1.09, 'roll': 0.91}
{'lipoC2': 7.78, 'temp': 29.94, 'lipoC3S3': 12.16, 'rot1': 634, 'rot0': 149, 'rot3': 0, 'rot2': 0, 'state': 'normal', 'yaw': -0.8, 'datetime': '2018-10-12 21:01:39.692019', 'mgs': 0, 'depth': -0.751, 'time': 12.3, 'pitch': 1.09, 'roll': 0.93}
{'lipoC2': 7.78, 'temp': 29.94, 'lipoC3S3': 12.16, 'rot1': 641, 'rot0': 151, 'rot3': 0, 'rot2': 0, 'state': 'normal', 'yaw': -0.8, 'datetime': '2018-10-12 21:01:39.790287', 'mgs': 0, 'depth': 0.089, 'time': 12.4, 'pitch': 1.09, 'roll': 0.93}
{'lipoC2': 7.78, 'temp': 29.94, 'lipoC3S3': 12.17, 'rot1': 649, 'rot0': 153, 'rot3': 0, 'rot2': 0, 'state': 'normal', 'yaw': -0.8, 'datetime': '2018-10-12 21:01:39.887621', 'mgs': 0, 'depth': -0.827, 'time': 12.5, 'pitch': 1.09, 'roll': 0.93}
{'lipoC2': 7.78, 'temp': 29.94, 'lipoC3S3': 12.18, 'rot1': 656, 'rot0': 154, 'rot3': 0, 'rot2': 0, 'state': 'normal', 'yaw': -0.8, 'datetime': '2018-10-12 21:01:39.984925', 'mgs': 0, 'depth': -0.827, 'time': 12.6, 'pitch': 1.09, 'roll': 0.91}
{'lipoC2': 7.78, 'temp': 29.94, 'lipoC3S3': 12.16, 'rot1': 664, 'rot0': 156, 'rot3': 0, 'rot2': 0, 'state': 'normal', 'yaw': -0.8, 'datetime': '2018-10-12 21:01:40.082252', 'mgs': 0, 'depth': -0.751, 'time': 12.69, 'pitch': 1.09, 'roll': 0.92}
{'lipoC2': 7.78, 'temp': 29.94, 'lipoC3S3': 12.14, 'rot1': 673, 'rot0': 158, 'rot3': 0, 'rot2': 0, 'state': 'normal', 'yaw': -0.8, 'datetime': '2018-10-12 21:01:40.180833', 'mgs': 0, 'depth': -0.827, 'time': 12.79, 'pitch': 1.08, 'roll': 0.93}
{'lipoC2': 7.78, 'temp': 29.94, 'lipoC3S3': 12.16, 'rot1': 681, 'rot0': 160, 'rot3': 0, 'rot2': 0, 'state': 'normal', 'yaw': -0.8, 'datetime': '2018-10-12 21:01:40.279448', 'mgs': 0, 'depth': -0.827, 'time': 12.89, 'pitch': 1.08, 'roll': 0.94}
{'lipoC2': 7.78, 'temp': 29.94, 'lipoC3S3': 12.16, 'rot1': 690, 'rot0': 161, 'rot3': 0, 'rot2': 0, 'state': 'normal', 'yaw': -0.8, 'datetime': '2018-10-12 21:01:40.377876', 'mgs': 0, 'depth': -0.751, 'time': 12.99, 'pitch': 1.08, 'roll': 0.95}
{'lipoC2': 7.77, 'temp': 29.94, 'lipoC3S3': 12.16, 'rot1': 697, 'rot0': 163, 'rot3': 0, 'rot2': 0, 'state': 'normal', 'yaw': -0.8, 'datetime': '2018-10-12 21:01:40.475141', 'mgs': 0, 'depth': 0.394, 'time': 13.09, 'pitch': 1.08, 'roll': 0.93}
{'lipoC2': 7.77, 'temp': 29.94, 'lipoC3S3': 12.14, 'rot1': 706, 'rot0': 165, 'rot3': 0, 'rot2': 0, 'state': 'normal', 'yaw': -0.81, 'datetime': '2018-10-12 21:01:40.572624', 'mgs': 0, 'depth': -0.293, 'time': 13.18, 'pitch': 1.08, 'roll': 0.94}
{'lipoC2': 7.78, 'temp': 29.94, 'lipoC3S3': 12.16, 'rot1': 714, 'rot0': 167, 'rot3': 0, 'rot2': 0, 'state': 'normal', 'yaw': -0.8, 'datetime': '2018-10-12 21:01:40.671283', 'mgs': 0, 'depth': -0.98, 'time': 13.28, 'pitch': 1.09, 'roll': 0.9}
{'lipoC2': 7.78, 'temp': 29.94, 'lipoC3S3': 12.16, 'rot1': 723, 'rot0': 168, 'rot3': 0, 'rot2': 0, 'state': 'normal', 'yaw': -0.8, 'datetime': '2018-10-12 21:01:40.769916', 'mgs': 0, 'depth': -0.827, 'time': 13.38, 'pitch': 1.08, 'roll': 0.93}
{'lipoC2': 7.78, 'temp': 29.94, 'lipoC3S3': 12.14, 'rot1': 732, 'rot0': 170, 'rot3': 0, 'rot2': 0, 'state': 'normal', 'yaw': -0.81, 'datetime': '2018-10-12 21:01:40.867229', 'mgs': 0, 'depth': -0.064, 'time': 13.48, 'pitch': 1.08, 'roll': 0.91}
{'lipoC2': 7.79, 'temp': 29.94, 'lipoC3S3': 12.13, 'rot1': 741, 'rot0': 172, 'rot3': 0, 'rot2': 0, 'state': 'normal', 'yaw': -0.8, 'datetime': '2018-10-12 21:01:40.964632', 'mgs': 0, 'depth': -0.827, 'time': 13.58, 'pitch': 1.08, 'roll': 0.93}
{'lipoC2': 7.78, 'temp': 29.94, 'lipoC3S3': 12.14, 'rot1': 750, 'rot0': 174, 'rot3': 0, 'rot2': 0, 'state': 'normal', 'yaw': -0.79, 'datetime': '2018-10-12 21:01:41.062828', 'mgs': 0, 'depth': -0.827, 'time': 13.67, 'pitch': 1.08, 'roll': 0.91}
{'lipoC2': 7.78, 'temp': 29.94, 'lipoC3S3': 12.12, 'rot1': 759, 'rot0': 175, 'rot3': 0, 'rot2': 0, 'state': 'normal', 'yaw': -0.79, 'datetime': '2018-10-12 21:01:41.161468', 'mgs': 0, 'depth': -0.827, 'time': 13.77, 'pitch': 1.07, 'roll': 0.93}
{'lipoC2': 7.78, 'temp': 29.94, 'lipoC3S3': 12.16, 'rot1': 768, 'rot0': 177, 'rot3': 0, 'rot2': 0, 'state': 'normal', 'yaw': -0.8, 'datetime': '2018-10-12 21:01:41.258726', 'mgs': 0, 'depth': -0.827, 'time': 13.87, 'pitch': 1.07, 'roll': 0.91}
{'lipoC2': 7.78, 'temp': 29.94, 'lipoC3S3': 12.16, 'rot1': 777, 'rot0': 179, 'rot3': 0, 'rot2': 0, 'state': 'normal', 'yaw': -0.79, 'datetime': '2018-10-12 21:01:41.356101', 'mgs': 0, 'depth': -0.98, 'time': 13.97, 'pitch': 1.07, 'roll': 0.91}
{'lipoC2': 7.78, 'temp': 29.88, 'lipoC3S3': 12.17, 'rot1': 786, 'rot0': 181, 'rot3': 0, 'rot2': 0, 'state': 'normal', 'yaw': -0.8, 'datetime': '2018-10-12 21:01:41.453958', 'mgs': 0, 'depth': -0.827, 'time': 14.06, 'pitch': 1.07, 'roll': 0.9}
{'lipoC2': 7.78, 'temp': 29.88, 'lipoC3S3': 12.12, 'rot1': 795, 'rot0': 182, 'rot3': 0, 'rot2': 0, 'state': 'normal', 'yaw': -0.79, 'datetime': '2018-10-12 21:01:41.552590', 'mgs': 0, 'depth': -0.751, 'time': 14.16, 'pitch': 1.07, 'roll': 0.89}
{'lipoC2': 7.78, 'temp': 29.88, 'lipoC3S3': 12.08, 'rot1': 804, 'rot0': 184, 'rot3': 0, 'rot2': 0, 'state': 'normal', 'yaw': -0.79, 'datetime': '2018-10-12 21:01:41.651124', 'mgs': 0, 'depth': -0.827, 'time': 14.26, 'pitch': 1.06, 'roll': 0.89}
{'lipoC2': 7.78, 'temp': 29.88, 'lipoC3S3': 12.14, 'rot1': 813, 'rot0': 186, 'rot3': 0, 'rot2': 0, 'state': 'normal', 'yaw': -0.8, 'datetime': '2018-10-12 21:01:41.748449', 'mgs': 0, 'depth': -0.827, 'time': 14.36, 'pitch': 1.06, 'roll': 0.89}
{'lipoC2': 7.78, 'temp': 29.88, 'lipoC3S3': 12.16, 'rot1': 822, 'rot0': 188, 'rot3': 0, 'rot2': 0, 'state': 'normal', 'yaw': -0.8, 'datetime': '2018-10-12 21:01:41.845749', 'mgs': 0, 'depth': -0.751, 'time': 14.46, 'pitch': 1.06, 'roll': 0.89}
{'lipoC2': 7.78, 'temp': 29.94, 'lipoC3S3': 12.14, 'rot1': 832, 'rot0': 189, 'rot3': 0, 'rot2': 0, 'state': 'normal', 'yaw': -0.8, 'datetime': '2018-10-12 21:01:41.944114', 'mgs': 0, 'depth': 0.165, 'time': 14.56, 'pitch': 1.06, 'roll': 0.88}
{'lipoC2': 7.78, 'temp': 29.94, 'lipoC3S3': 12.14, 'rot1': 841, 'rot0': 191, 'rot3': 0, 'rot2': 0, 'state': 'normal', 'yaw': -0.8, 'datetime': '2018-10-12 21:01:42.041353', 'mgs': 0, 'depth': -0.751, 'time': 14.65, 'pitch': 1.06, 'roll': 0.89}
{'lipoC2': 7.78, 'temp': 29.94, 'lipoC3S3': 12.16, 'rot1': 850, 'rot0': 193, 'rot3': 0, 'rot2': 0, 'state': 'normal', 'yaw': -0.8, 'datetime': '2018-10-12 21:01:42.138728', 'mgs': 0, 'depth': -0.903, 'time': 14.75, 'pitch': 1.06, 'roll': 0.89}
{'lipoC2': 7.77, 'temp': 29.94, 'lipoC3S3': 12.16, 'rot1': 860, 'rot0': 195, 'rot3': 0, 'rot2': 0, 'state': 'normal', 'yaw': -0.8, 'datetime': '2018-10-12 21:01:42.236067', 'mgs': 0, 'depth': -0.827, 'time': 14.85, 'pitch': 1.06, 'roll': 0.9}
{'lipoC2': 7.78, 'temp': 29.94, 'lipoC3S3': 12.06, 'rot1': 869, 'rot0': 196, 'rot3': 0, 'rot2': 0, 'state': 'normal', 'yaw': -0.8, 'datetime': '2018-10-12 21:01:42.334928', 'mgs': 0, 'depth': -0.827, 'time': 14.95, 'pitch': 1.06, 'roll': 0.87}
{'lipoC2': 7.78, 'temp': 29.94, 'lipoC3S3': 12.13, 'rot1': 879, 'rot0': 198, 'rot3': 0, 'rot2': 0, 'state': 'normal', 'yaw': -0.8, 'datetime': '2018-10-12 21:01:42.436620', 'mgs': 0, 'depth': -0.827, 'time': 15.05, 'pitch': 1.06, 'roll': 0.88}
{'lipoC2': 7.78, 'temp': 29.94, 'lipoC3S3': 12.14, 'rot1': 888, 'rot0': 200, 'rot3': 0, 'rot2': 0, 'state': 'normal', 'yaw': -0.8, 'datetime': '2018-10-12 21:01:42.535596', 'mgs': 0, 'depth': -0.598, 'time': 15.14, 'pitch': 1.06, 'roll': 0.87}
{'lipoC2': 7.77, 'temp': 29.94, 'lipoC3S3': 12.06, 'rot1': 898, 'rot0': 202, 'rot3': 0, 'rot2': 0, 'state': 'normal', 'yaw': -0.8, 'datetime': '2018-10-12 21:01:42.632944', 'mgs': 0, 'depth': -0.903, 'time': 15.24, 'pitch': 1.06, 'roll': 0.89}
{'lipoC2': 7.79, 'temp': 29.88, 'lipoC3S3': 12.14, 'rot1': 908, 'rot0': 204, 'rot3': 0, 'rot2': 0, 'state': 'normal', 'yaw': -0.8, 'datetime': '2018-10-12 21:01:42.730814', 'mgs': 0, 'depth': -1.056, 'time': 15.34, 'pitch': 1.06, 'roll': 0.89}
{'lipoC2': 7.78, 'temp': 29.88, 'lipoC3S3': 12.14, 'rot1': 918, 'rot0': 205, 'rot3': 0, 'rot2': 0, 'state': 'normal', 'yaw': -0.82, 'datetime': '2018-10-12 21:01:42.829291', 'mgs': 0, 'depth': -0.446, 'time': 15.44, 'pitch': 1.06, 'roll': 0.89}
{'lipoC2': 7.78, 'temp': 29.94, 'lipoC3S3': 12.14, 'rot1': 928, 'rot0': 207, 'rot3': 0, 'rot2': 0, 'state': 'normal', 'yaw': -0.81, 'datetime': '2018-10-12 21:01:42.927623', 'mgs': 0, 'depth': 0.165, 'time': 15.54, 'pitch': 1.06, 'roll': 0.89}
{'lipoC2': 7.78, 'temp': 29.94, 'lipoC3S3': 12.05, 'rot1': 938, 'rot0': 209, 'rot3': 0, 'rot2': 0, 'state': 'normal', 'yaw': -0.81, 'datetime': '2018-10-12 21:01:43.025079', 'mgs': 0, 'depth': -0.827, 'time': 15.63, 'pitch': 1.06, 'roll': 0.89}
{'lipoC2': 7.78, 'temp': 29.94, 'lipoC3S3': 12.18, 'rot1': 947, 'rot0': 211, 'rot3': 0, 'rot2': 0, 'state': 'normal', 'yaw': -0.83, 'datetime': '2018-10-12 21:01:43.122387', 'mgs': 0, 'depth': -0.903, 'time': 15.73, 'pitch': 1.06, 'roll': 0.89}
{'lipoC2': 7.78, 'temp': 29.94, 'lipoC3S3': 12.14, 'rot1': 957, 'rot0': 213, 'rot3': 0, 'rot2': 0, 'state': 'normal', 'yaw': -0.81, 'datetime': '2018-10-12 21:01:43.220752', 'mgs': 0, 'depth': -0.827, 'time': 15.83, 'pitch': 1.06, 'roll': 0.89}
{'lipoC2': 7.78, 'temp': 29.94, 'lipoC3S3': 12.16, 'rot1': 967, 'rot0': 214, 'rot3': 0, 'rot2': 0, 'state': 'normal', 'yaw': -0.81, 'datetime': '2018-10-12 21:01:43.319338', 'mgs': 0, 'depth': -0.827, 'time': 15.93, 'pitch': 1.06, 'roll': 0.89}
{'lipoC2': 7.77, 'temp': 29.94, 'lipoC3S3': 12.14, 'rot1': 978, 'rot0': 216, 'rot3': 0, 'rot2': 0, 'state': 'normal', 'yaw': -0.8, 'datetime': '2018-10-12 21:01:43.417324', 'mgs': 0, 'depth': 0.089, 'time': 16.03, 'pitch': 1.06, 'roll': 0.89}
{'lipoC2': 7.77, 'temp': 29.94, 'lipoC3S3': 12.06, 'rot1': 988, 'rot0': 218, 'rot3': 0, 'rot2': 0, 'state': 'normal', 'yaw': -0.8, 'datetime': '2018-10-12 21:01:43.514779', 'mgs': 0, 'depth': -0.903, 'time': 16.12, 'pitch': 1.06, 'roll': 0.89}
{'lipoC2': 7.79, 'temp': 29.94, 'lipoC3S3': 12.13, 'rot1': 998, 'rot0': 220, 'rot3': 0, 'rot2': 0, 'state': 'normal', 'yaw': -0.78, 'datetime': '2018-10-12 21:01:43.612300', 'mgs': 0, 'depth': -0.827, 'time': 16.22, 'pitch': 1.06, 'roll': 0.89}
{'lipoC2': 7.79, 'temp': 29.88, 'lipoC3S3': 12.14, 'rot1': 1009, 'rot0': 221, 'rot3': 0, 'rot2': 0, 'state': 'normal', 'yaw': -0.79, 'datetime': '2018-10-12 21:01:43.710982', 'mgs': 0, 'depth': -0.751, 'time': 16.32, 'pitch': 1.06, 'roll': 0.89}
{'lipoC2': 7.78, 'temp': 29.88, 'lipoC3S3': 12.14, 'rot1': 1019, 'rot0': 223, 'rot3': 0, 'rot2': 0, 'state': 'normal', 'yaw': -0.77, 'datetime': '2018-10-12 21:01:43.809659', 'mgs': 0, 'depth': -0.827, 'time': 16.42, 'pitch': 1.06, 'roll': 0.89}
{'lipoC2': 7.78, 'temp': 29.88, 'lipoC3S3': 12.14, 'rot1': 1029, 'rot0': 225, 'rot3': 0, 'rot2': 0, 'state': 'normal', 'yaw': -0.77, 'datetime': '2018-10-12 21:01:43.907411', 'mgs': 0, 'depth': -0.827, 'time': 16.52, 'pitch': 1.06, 'roll': 0.89}
{'lipoC2': 7.78, 'temp': 29.88, 'lipoC3S3': 12.14, 'rot1': 1040, 'rot0': 227, 'rot3': 0, 'rot2': 0, 'state': 'normal', 'yaw': -0.78, 'datetime': '2018-10-12 21:01:44.004861', 'mgs': 0, 'depth': -0.903, 'time': 16.61, 'pitch': 1.06, 'roll': 0.89}
{'lipoC2': 7.77, 'temp': 29.88, 'lipoC3S3': 12.1, 'rot1': 1050, 'rot0': 228, 'rot3': 0, 'rot2': 0, 'state': 'normal', 'yaw': -0.76, 'datetime': '2018-10-12 21:01:44.102894', 'mgs': 0, 'depth': -0.827, 'time': 16.71, 'pitch': 1.06, 'roll': 0.89}
{'lipoC2': 7.78, 'temp': 29.94, 'lipoC3S3': 12.18, 'rot1': 1061, 'rot0': 230, 'rot3': 0, 'rot2': 0, 'state': 'normal', 'yaw': -0.76, 'datetime': '2018-10-12 21:01:44.200420', 'mgs': 0, 'depth': -0.827, 'time': 16.81, 'pitch': 1.06, 'roll': 0.89}
{'lipoC2': 7.78, 'temp': 29.94, 'lipoC3S3': 12.14, 'rot1': 1071, 'rot0': 232, 'rot3': 0, 'rot2': 0, 'state': 'normal', 'yaw': -0.76, 'datetime': '2018-10-12 21:01:44.297628', 'mgs': 0, 'depth': -0.827, 'time': 16.91, 'pitch': 1.06, 'roll': 0.89}
{'lipoC2': 7.78, 'temp': 29.94, 'lipoC3S3': 12.16, 'rot1': 1082, 'rot0': 234, 'rot3': 0, 'rot2': 0, 'state': 'normal', 'yaw': -0.76, 'datetime': '2018-10-12 21:01:44.395133', 'mgs': 0, 'depth': -0.674, 'time': 17.0, 'pitch': 1.06, 'roll': 0.89}
{'lipoC2': 7.78, 'temp': 29.94, 'lipoC3S3': 12.14, 'rot1': 1093, 'rot0': 235, 'rot3': 0, 'rot2': 0, 'state': 'normal', 'yaw': -0.76, 'datetime': '2018-10-12 21:01:44.493370', 'mgs': 0, 'depth': -0.369, 'time': 17.1, 'pitch': 1.06, 'roll': 0.89}
{'lipoC2': 7.78, 'temp': 29.94, 'lipoC3S3': 12.14, 'rot1': 1103, 'rot0': 237, 'rot3': 0, 'rot2': 0, 'state': 'normal', 'yaw': -0.76, 'datetime': '2018-10-12 21:01:44.592076', 'mgs': 0, 'depth': -0.674, 'time': 17.2, 'pitch': 1.06, 'roll': 0.89}
{'lipoC2': 7.78, 'temp': 29.94, 'lipoC3S3': 12.16, 'rot1': 1114, 'rot0': 239, 'rot3': 0, 'rot2': 0, 'state': 'normal', 'yaw': -0.76, 'datetime': '2018-10-12 21:01:44.690714', 'mgs': 0, 'depth': -0.827, 'time': 17.3, 'pitch': 1.06, 'roll': 0.89}
{'lipoC2': 7.78, 'temp': 29.94, 'lipoC3S3': 12.14, 'rot1': 1124, 'rot0': 241, 'rot3': 0, 'rot2': 0, 'state': 'normal', 'yaw': -0.76, 'datetime': '2018-10-12 21:01:44.788130', 'mgs': 0, 'depth': -0.751, 'time': 17.4, 'pitch': 1.06, 'roll': 0.89}
{'lipoC2': 7.78, 'temp': 29.88, 'lipoC3S3': 12.14, 'rot1': 1134, 'rot0': 243, 'rot3': 0, 'rot2': 0, 'state': 'normal', 'yaw': -0.76, 'datetime': '2018-10-12 21:01:44.885549', 'mgs': 0, 'depth': 0.012, 'time': 17.5, 'pitch': 1.06, 'roll': 0.89}
{'lipoC2': 7.79, 'temp': 29.88, 'lipoC3S3': 12.13, 'rot1': 1145, 'rot0': 244, 'rot3': 0, 'rot2': 0, 'state': 'normal', 'yaw': -0.76, 'datetime': '2018-10-12 21:01:44.983867', 'mgs': 0, 'depth': -0.903, 'time': 17.59, 'pitch': 1.06, 'roll': 0.89}
{'lipoC2': 7.78, 'temp': 29.94, 'lipoC3S3': 12.14, 'rot1': 1156, 'rot0': 246, 'rot3': 0, 'rot2': 0, 'state': 'normal', 'yaw': -0.76, 'datetime': '2018-10-12 21:01:45.082737', 'mgs': 0, 'depth': -0.903, 'time': 17.69, 'pitch': 1.06, 'roll': 0.89}
{'lipoC2': 7.78, 'temp': 29.94, 'lipoC3S3': 12.16, 'rot1': 1166, 'rot0': 248, 'rot3': 0, 'rot2': 0, 'state': 'normal', 'yaw': -0.76, 'datetime': '2018-10-12 21:01:45.181394', 'mgs': 0, 'depth': -0.827, 'time': 17.79, 'pitch': 1.06, 'roll': 0.89}
{'lipoC2': 7.78, 'temp': 29.94, 'lipoC3S3': 12.14, 'rot1': 1176, 'rot0': 250, 'rot3': 0, 'rot2': 0, 'state': 'normal', 'yaw': -0.76, 'datetime': '2018-10-12 21:01:45.278843', 'mgs': 0, 'depth': -0.751, 'time': 17.89, 'pitch': 1.06, 'roll': 0.9}
{'lipoC2': 7.78, 'temp': 29.94, 'lipoC3S3': 12.14, 'rot1': 1186, 'rot0': 251, 'rot3': 0, 'rot2': 0, 'state': 'normal', 'yaw': -0.76, 'datetime': '2018-10-12 21:01:45.376181', 'mgs': 0, 'depth': 0.317, 'time': 17.99, 'pitch': 1.06, 'roll': 0.9}
{'lipoC2': 7.78, 'temp': 29.94, 'lipoC3S3': 12.14, 'rot1': 1197, 'rot0': 253, 'rot3': 0, 'rot2': 0, 'state': 'normal', 'yaw': -0.76, 'datetime': '2018-10-12 21:01:45.474681', 'mgs': 0, 'depth': -0.064, 'time': 18.08, 'pitch': 1.06, 'roll': 0.9}
{'lipoC2': 7.78, 'temp': 29.94, 'lipoC3S3': 12.17, 'rot1': 1203, 'rot0': 254, 'rot3': 0, 'rot2': 0, 'state': 'normal', 'yaw': -0.78, 'datetime': '2018-10-12 21:01:45.572661', 'mgs': 0, 'depth': -0.903, 'time': 18.18, 'pitch': 1.06, 'roll': 0.9}
{'lipoC2': 7.78, 'temp': 29.94, 'lipoC3S3': 12.17, 'rot1': 1204, 'rot0': 254, 'rot3': 0, 'rot2': 0, 'state': 'normal', 'yaw': -0.78, 'datetime': '2018-10-12 21:01:45.671688', 'mgs': 0, 'depth': -0.827, 'time': 18.28, 'pitch': 1.06, 'roll': 0.89}
{'lipoC2': 7.78, 'temp': 29.94, 'lipoC3S3': 12.08, 'rot1': 1204, 'rot0': 254, 'rot3': 0, 'rot2': 0, 'state': 'normal', 'yaw': -0.78, 'datetime': '2018-10-12 21:01:45.769076', 'mgs': 0, 'depth': -0.903, 'time': 18.38, 'pitch': 1.06, 'roll': 0.89}
{'lipoC2': 7.78, 'temp': 29.94, 'lipoC3S3': 12.02, 'rot1': 1211, 'rot0': 260, 'rot3': 0, 'rot2': 1, 'state': 'normal', 'yaw': -0.78, 'datetime': '2018-10-12 21:01:45.866480', 'mgs': 0, 'depth': -0.827, 'time': 18.48, 'pitch': 1.05, 'roll': 0.88}
{'lipoC2': 7.78, 'temp': 29.94, 'lipoC3S3': 11.96, 'rot1': 1222, 'rot0': 263, 'rot3': 1, 'rot2': 2, 'state': 'normal', 'yaw': -0.78, 'datetime': '2018-10-12 21:01:45.965326', 'mgs': 0, 'depth': -0.827, 'time': 18.58, 'pitch': 1.05, 'roll': 0.88}
{'lipoC2': 7.78, 'temp': 29.94, 'lipoC3S3': 12.02, 'rot1': 1233, 'rot0': 266, 'rot3': 2, 'rot2': 3, 'state': 'normal', 'yaw': -0.78, 'datetime': '2018-10-12 21:01:46.062744', 'mgs': 0, 'depth': -0.827, 'time': 18.67, 'pitch': 1.05, 'roll': 0.88}
{'lipoC2': 7.77, 'temp': 29.94, 'lipoC3S3': 12.08, 'rot1': 1246, 'rot0': 269, 'rot3': 2, 'rot2': 4, 'state': 'normal', 'yaw': -0.77, 'datetime': '2018-10-12 21:01:46.160066', 'mgs': 0, 'depth': -0.827, 'time': 18.77, 'pitch': 1.05, 'roll': 0.9}
{'lipoC2': 7.78, 'temp': 29.94, 'lipoC3S3': 12.14, 'rot1': 1259, 'rot0': 273, 'rot3': 3, 'rot2': 5, 'state': 'normal', 'yaw': -0.78, 'datetime': '2018-10-12 21:01:46.257544', 'mgs': 0, 'depth': -0.751, 'time': 18.87, 'pitch': 1.04, 'roll': 0.89}
{'lipoC2': 7.77, 'temp': 29.94, 'lipoC3S3': 12.09, 'rot1': 1272, 'rot0': 276, 'rot3': 4, 'rot2': 6, 'state': 'normal', 'yaw': -0.79, 'datetime': '2018-10-12 21:01:46.356320', 'mgs': 0, 'depth': -0.827, 'time': 18.97, 'pitch': 1.04, 'roll': 0.9}
{'lipoC2': 7.78, 'temp': 29.94, 'lipoC3S3': 12.04, 'rot1': 1284, 'rot0': 279, 'rot3': 4, 'rot2': 6, 'state': 'normal', 'yaw': -0.8, 'datetime': '2018-10-12 21:01:46.453850', 'mgs': 0, 'depth': -0.827, 'time': 19.07, 'pitch': 1.03, 'roll': 0.88}
{'lipoC2': 7.78, 'temp': 29.94, 'lipoC3S3': 12.12, 'rot1': 1297, 'rot0': 282, 'rot3': 5, 'rot2': 7, 'state': 'normal', 'yaw': -0.79, 'datetime': '2018-10-12 21:01:46.551200', 'mgs': 0, 'depth': -0.827, 'time': 19.16, 'pitch': 1.03, 'roll': 0.88}
{'lipoC2': 7.78, 'temp': 29.94, 'lipoC3S3': 12.17, 'rot1': 1311, 'rot0': 284, 'rot3': 6, 'rot2': 8, 'state': 'normal', 'yaw': -0.78, 'datetime': '2018-10-12 21:01:46.648678', 'mgs': 0, 'depth': -0.446, 'time': 19.26, 'pitch': 1.01, 'roll': 0.88}
{'lipoC2': 7.78, 'temp': 29.94, 'lipoC3S3': 12.14, 'rot1': 1324, 'rot0': 287, 'rot3': 6, 'rot2': 9, 'state': 'normal', 'yaw': -0.78, 'datetime': '2018-10-12 21:01:46.747228', 'mgs': 0, 'depth': -0.751, 'time': 19.36, 'pitch': 1.02, 'roll': 0.91}
{'lipoC2': 7.78, 'temp': 29.94, 'lipoC3S3': 12.05, 'rot1': 1338, 'rot0': 290, 'rot3': 7, 'rot2': 10, 'state': 'normal', 'yaw': -0.78, 'datetime': '2018-10-12 21:01:46.846181', 'mgs': 0, 'depth': -0.903, 'time': 19.46, 'pitch': 0.99, 'roll': 0.89}
{'lipoC2': 7.78, 'temp': 29.94, 'lipoC3S3': 12.09, 'rot1': 1351, 'rot0': 293, 'rot3': 8, 'rot2': 11, 'state': 'normal', 'yaw': -0.78, 'datetime': '2018-10-12 21:01:46.944990', 'mgs': 0, 'depth': 0.394, 'time': 19.56, 'pitch': 0.99, 'roll': 0.89}
{'lipoC2': 7.79, 'temp': 29.94, 'lipoC3S3': 12.06, 'rot1': 1365, 'rot0': 296, 'rot3': 8, 'rot2': 12, 'state': 'normal', 'yaw': -0.78, 'datetime': '2018-10-12 21:01:47.043226', 'mgs': 0, 'depth': -0.522, 'time': 19.66, 'pitch': 1.0, 'roll': 0.87}
{'lipoC2': 7.8, 'temp': 29.94, 'lipoC3S3': 12.05, 'rot1': 1378, 'rot0': 299, 'rot3': 9, 'rot2': 13, 'state': 'normal', 'yaw': -0.77, 'datetime': '2018-10-12 21:01:47.141401', 'mgs': 0, 'depth': -0.14, 'time': 19.75, 'pitch': 0.99, 'roll': 0.91}
{'lipoC2': 7.78, 'temp': 29.94, 'lipoC3S3': 12.1, 'rot1': 1392, 'rot0': 302, 'rot3': 10, 'rot2': 14, 'state': 'normal', 'yaw': -0.78, 'datetime': '2018-10-12 21:01:47.239071', 'mgs': 0, 'depth': -0.522, 'time': 19.85, 'pitch': 1.0, 'roll': 0.91}
{'lipoC2': 7.79, 'temp': 29.88, 'lipoC3S3': 12.05, 'rot1': 1405, 'rot0': 305, 'rot3': 11, 'rot2': 15, 'state': 'normal', 'yaw': -0.77, 'datetime': '2018-10-12 21:01:47.338129', 'mgs': 0, 'depth': -0.598, 'time': 19.95, 'pitch': 1.01, 'roll': 0.9}
{'lipoC2': 7.77, 'temp': 29.88, 'lipoC3S3': 12.08, 'rot1': 1419, 'rot0': 308, 'rot3': 11, 'rot2': 16, 'state': 'normal', 'yaw': -0.78, 'datetime': '2018-10-12 21:01:47.437230', 'mgs': 0, 'depth': -0.751, 'time': 20.05, 'pitch': 1.0, 'roll': 0.92}
{'lipoC2': 7.79, 'temp': 29.88, 'lipoC3S3': 12.1, 'rot1': 1432, 'rot0': 311, 'rot3': 12, 'rot2': 17, 'state': 'normal', 'yaw': -0.78, 'datetime': '2018-10-12 21:01:47.536305', 'mgs': 0, 'depth': 0.546, 'time': 20.15, 'pitch': 1.0, 'roll': 0.91}
{'lipoC2': 7.77, 'temp': 29.88, 'lipoC3S3': 12.05, 'rot1': 1446, 'rot0': 314, 'rot3': 13, 'rot2': 18, 'state': 'normal', 'yaw': -0.8, 'datetime': '2018-10-12 21:01:47.635349', 'mgs': 0, 'depth': -0.903, 'time': 20.25, 'pitch': 1.0, 'roll': 0.9}
{'lipoC2': 7.79, 'temp': 29.88, 'lipoC3S3': 12.05, 'rot1': 1460, 'rot0': 317, 'rot3': 14, 'rot2': 18, 'state': 'normal', 'yaw': -0.79, 'datetime': '2018-10-12 21:01:47.733092', 'mgs': 0, 'depth': -0.14, 'time': 20.34, 'pitch': 1.0, 'roll': 0.87}
{'lipoC2': 7.78, 'temp': 29.94, 'lipoC3S3': 12.1, 'rot1': 1474, 'rot0': 320, 'rot3': 14, 'rot2': 19, 'state': 'normal', 'yaw': -0.78, 'datetime': '2018-10-12 21:01:47.830906', 'mgs': 0, 'depth': -0.446, 'time': 20.44, 'pitch': 1.0, 'roll': 0.86}
{'lipoC2': 7.78, 'temp': 29.94, 'lipoC3S3': 12.1, 'rot1': 1488, 'rot0': 323, 'rot3': 15, 'rot2': 20, 'state': 'normal', 'yaw': -0.78, 'datetime': '2018-10-12 21:01:47.929467', 'mgs': 0, 'depth': -0.446, 'time': 20.54, 'pitch': 1.0, 'roll': 0.87}
{'lipoC2': 7.79, 'temp': 29.94, 'lipoC3S3': 12.05, 'rot1': 1502, 'rot0': 326, 'rot3': 16, 'rot2': 21, 'state': 'normal', 'yaw': -0.79, 'datetime': '2018-10-12 21:01:48.028557', 'mgs': 0, 'depth': -0.14, 'time': 20.64, 'pitch': 0.99, 'roll': 0.83}
{'lipoC2': 7.77, 'temp': 29.94, 'lipoC3S3': 12.05, 'rot1': 1516, 'rot0': 329, 'rot3': 16, 'rot2': 22, 'state': 'normal', 'yaw': -0.79, 'datetime': '2018-10-12 21:01:48.127813', 'mgs': 0, 'depth': -0.827, 'time': 20.74, 'pitch': 0.97, 'roll': 0.82}
{'lipoC2': 7.78, 'temp': 29.94, 'lipoC3S3': 12.1, 'rot1': 1531, 'rot0': 332, 'rot3': 17, 'rot2': 23, 'state': 'normal', 'yaw': -0.79, 'datetime': '2018-10-12 21:01:48.226838', 'mgs': 0, 'depth': -0.369, 'time': 20.84, 'pitch': 0.97, 'roll': 0.83}
{'lipoC2': 7.78, 'temp': 29.94, 'lipoC3S3': 12.04, 'rot1': 1545, 'rot0': 335, 'rot3': 18, 'rot2': 24, 'state': 'normal', 'yaw': -0.79, 'datetime': '2018-10-12 21:01:48.324829', 'mgs': 0, 'depth': -0.827, 'time': 20.94, 'pitch': 0.96, 'roll': 0.82}
