{'lipoC2': 7.94, 'temp': 26.88, 'lipoC3S3': 12.02, 'rot1': 0, 'rot0': 0, 'rot3': 0, 'rot2': 0, 'state': 'normal', 'yaw': 0.0, 'datetime': '2018-10-12 13:27:02.690656', 'mgs': 0, 'depth': 1.538, 'time': 1.26, 'pitch': -4.8, 'roll': -5.17}
{'lipoC2': 7.94, 'temp': 26.88, 'lipoC3S3': 12.04, 'rot1': 0, 'rot0': 0, 'rot3': 0, 'rot2': 0, 'state': 'normal', 'yaw': 0.08, 'datetime': '2018-10-12 13:27:02.707619', 'mgs': 0, 'depth': 1.538, 'time': 1.36, 'pitch': -4.8, 'roll': -4.28}
{'lipoC2': 7.94, 'temp': 26.88, 'lipoC3S3': 12.04, 'rot1': 0, 'rot0': 0, 'rot3': 0, 'rot2': 0, 'state': 'normal', 'yaw': 0.1, 'datetime': '2018-10-12 13:27:02.724606', 'mgs': 0, 'depth': 1.538, 'time': 1.45, 'pitch': -4.99, 'roll': -3.6}
{'lipoC2': 7.93, 'temp': 26.94, 'lipoC3S3': 12.04, 'rot1': 0, 'rot0': 0, 'rot3': 0, 'rot2': 0, 'state': 'normal', 'yaw': 0.55, 'datetime': '2018-10-12 13:27:02.741652', 'mgs': 0, 'depth': 1.538, 'time': 1.55, 'pitch': -4.95, 'roll': -3.67}
{'lipoC2': 7.94, 'temp': 26.94, 'lipoC3S3': 12.04, 'rot1': 0, 'rot0': 0, 'rot3': 0, 'rot2': 0, 'state': 'normal', 'yaw': 1.33, 'datetime': '2018-10-12 13:27:02.758769', 'mgs': 0, 'depth': 1.538, 'time': 1.65, 'pitch': -4.7, 'roll': -3.93}
{'lipoC2': 7.94, 'temp': 26.88, 'lipoC3S3': 12.02, 'rot1': 0, 'rot0': 0, 'rot3': 0, 'rot2': 0, 'state': 'normal', 'yaw': 2.1, 'datetime': '2018-10-12 13:27:02.768050', 'mgs': 0, 'depth': 1.538, 'time': 1.75, 'pitch': -4.52, 'roll': -4.32}
{'lipoC2': 7.94, 'temp': 26.88, 'lipoC3S3': 12.04, 'rot1': 0, 'rot0': 0, 'rot3': 0, 'rot2': 0, 'state': 'normal', 'yaw': 2.35, 'datetime': '2018-10-12 13:27:02.775434', 'mgs': 0, 'depth': 1.538, 'time': 1.84, 'pitch': -4.73, 'roll': -4.63}
{'lipoC2': 7.94, 'temp': 26.88, 'lipoC3S3': 12.04, 'rot1': 0, 'rot0': 0, 'rot3': 0, 'rot2': 0, 'state': 'normal', 'yaw': 2.18, 'datetime': '2018-10-12 13:27:02.782782', 'mgs': 0, 'depth': 1.614, 'time': 1.94, 'pitch': -5.23, 'roll': -4.71}
{'lipoC2': 7.94, 'temp': 26.88, 'lipoC3S3': 12.04, 'rot1': 0, 'rot0': 0, 'rot3': 0, 'rot2': 0, 'state': 'normal', 'yaw': 2.02, 'datetime': '2018-10-12 13:27:02.790116', 'mgs': 0, 'depth': 1.538, 'time': 2.04, 'pitch': -5.69, 'roll': -4.61}
{'lipoC2': 7.93, 'temp': 26.88, 'lipoC3S3': 12.04, 'rot1': 0, 'rot0': 0, 'rot3': 0, 'rot2': 0, 'state': 'normal', 'yaw': 2.06, 'datetime': '2018-10-12 13:27:02.848013', 'mgs': 0, 'depth': 1.691, 'time': 2.14, 'pitch': -6.11, 'roll': -4.51}
{'lipoC2': 7.93, 'temp': 26.88, 'lipoC3S3': 12.04, 'rot1': 0, 'rot0': 0, 'rot3': 0, 'rot2': 0, 'state': 'normal', 'yaw': 2.33, 'datetime': '2018-10-12 13:27:02.945120', 'mgs': 0, 'depth': 1.691, 'time': 2.23, 'pitch': -6.42, 'roll': -4.51}
{'lipoC2': 7.93, 'temp': 26.88, 'lipoC3S3': 12.04, 'rot1': 0, 'rot0': 0, 'rot3': 0, 'rot2': 0, 'state': 'normal', 'yaw': 2.64, 'datetime': '2018-10-12 13:27:03.042140', 'mgs': 0, 'depth': 1.691, 'time': 2.33, 'pitch': -6.74, 'roll': -4.4}
{'lipoC2': 7.94, 'temp': 26.88, 'lipoC3S3': 12.04, 'rot1': 0, 'rot0': 0, 'rot3': 0, 'rot2': 0, 'state': 'normal', 'yaw': 2.89, 'datetime': '2018-10-12 13:27:03.140293', 'mgs': 0, 'depth': 1.614, 'time': 2.43, 'pitch': -7.12, 'roll': -4.54}
{'lipoC2': 7.94, 'temp': 26.88, 'lipoC3S3': 12.04, 'rot1': 0, 'rot0': 0, 'rot3': 0, 'rot2': 0, 'state': 'normal', 'yaw': 3.11, 'datetime': '2018-10-12 13:27:03.238184', 'mgs': 0, 'depth': 1.614, 'time': 2.53, 'pitch': -7.58, 'roll': -4.69}
{'lipoC2': 7.94, 'temp': 26.88, 'lipoC3S3': 12.04, 'rot1': 0, 'rot0': 0, 'rot3': 0, 'rot2': 0, 'state': 'normal', 'yaw': 3.4, 'datetime': '2018-10-12 13:27:03.335232', 'mgs': 0, 'depth': 1.691, 'time': 2.63, 'pitch': -7.84, 'roll': -4.94}
{'lipoC2': 7.94, 'temp': 26.88, 'lipoC3S3': 12.04, 'rot1': 0, 'rot0': 0, 'rot3': 0, 'rot2': 0, 'state': 'normal', 'yaw': 3.63, 'datetime': '2018-10-12 13:27:03.432260', 'mgs': 0, 'depth': 1.538, 'time': 2.72, 'pitch': -7.89, 'roll': -5.37}
{'lipoC2': 7.94, 'temp': 26.88, 'lipoC3S3': 12.04, 'rot1': 0, 'rot0': 0, 'rot3': 0, 'rot2': 0, 'state': 'normal', 'yaw': 3.68, 'datetime': '2018-10-12 13:27:03.534626', 'mgs': 0, 'depth': 1.538, 'time': 2.82, 'pitch': -7.89, 'roll': -5.72}
{'lipoC2': 7.94, 'temp': 26.81, 'lipoC3S3': 12.04, 'rot1': 0, 'rot0': 0, 'rot3': 0, 'rot2': 0, 'state': 'normal', 'yaw': 3.58, 'datetime': '2018-10-12 13:27:03.632470', 'mgs': 0, 'depth': 1.538, 'time': 2.92, 'pitch': -7.86, 'roll': -5.77}
{'lipoC2': 7.93, 'temp': 26.81, 'lipoC3S3': 12.04, 'rot1': 0, 'rot0': 0, 'rot3': 0, 'rot2': 0, 'state': 'normal', 'yaw': 3.52, 'datetime': '2018-10-12 13:27:03.729594', 'mgs': 0, 'depth': 1.538, 'time': 3.01, 'pitch': -7.68, 'roll': -5.55}
{'lipoC2': 7.93, 'temp': 26.81, 'lipoC3S3': 12.04, 'rot1': 0, 'rot0': 0, 'rot3': 0, 'rot2': 0, 'state': 'normal', 'yaw': 3.49, 'datetime': '2018-10-12 13:27:03.827222', 'mgs': 0, 'depth': 1.614, 'time': 3.11, 'pitch': -7.38, 'roll': -5.27}
{'lipoC2': 7.94, 'temp': 26.88, 'lipoC3S3': 12.04, 'rot1': 0, 'rot0': 0, 'rot3': 0, 'rot2': 0, 'state': 'normal', 'yaw': 3.43, 'datetime': '2018-10-12 13:27:03.924349', 'mgs': 0, 'depth': 1.538, 'time': 3.21, 'pitch': -7.04, 'roll': -4.92}
{'lipoC2': 7.94, 'temp': 26.88, 'lipoC3S3': 12.04, 'rot1': 0, 'rot0': 0, 'rot3': 0, 'rot2': 0, 'state': 'normal', 'yaw': 3.28, 'datetime': '2018-10-12 13:27:04.021366', 'mgs': 0, 'depth': 1.538, 'time': 3.31, 'pitch': -6.77, 'roll': -4.65}
{'lipoC2': 7.94, 'temp': 26.88, 'lipoC3S3': 12.02, 'rot1': 0, 'rot0': 0, 'rot3': 0, 'rot2': 0, 'state': 'normal', 'yaw': 3.17, 'datetime': '2018-10-12 13:27:04.118464', 'mgs': 0, 'depth': 1.538, 'time': 3.4, 'pitch': -6.6, 'roll': -4.35}
{'lipoC2': 7.93, 'temp': 26.88, 'lipoC3S3': 12.04, 'rot1': 0, 'rot0': 0, 'rot3': 0, 'rot2': 0, 'state': 'normal', 'yaw': 3.15, 'datetime': '2018-10-12 13:27:04.216814', 'mgs': 0, 'depth': 1.538, 'time': 3.5, 'pitch': -6.57, 'roll': -4.09}
{'lipoC2': 7.94, 'temp': 26.88, 'lipoC3S3': 12.04, 'rot1': 0, 'rot0': 0, 'rot3': 0, 'rot2': 0, 'state': 'normal', 'yaw': 3.16, 'datetime': '2018-10-12 13:27:04.315206', 'mgs': 0, 'depth': 1.538, 'time': 3.6, 'pitch': -6.68, 'roll': -3.94}
{'lipoC2': 7.94, 'temp': 26.81, 'lipoC3S3': 12.04, 'rot1': 0, 'rot0': 0, 'rot3': 0, 'rot2': 0, 'state': 'normal', 'yaw': 3.17, 'datetime': '2018-10-12 13:27:04.412182', 'mgs': 0, 'depth': 1.538, 'time': 3.7, 'pitch': -6.92, 'roll': -3.86}
{'lipoC2': 7.94, 'temp': 26.81, 'lipoC3S3': 12.04, 'rot1': 0, 'rot0': 0, 'rot3': 0, 'rot2': 0, 'state': 'normal', 'yaw': 3.19, 'datetime': '2018-10-12 13:27:04.509169', 'mgs': 0, 'depth': 1.462, 'time': 3.79, 'pitch': -7.21, 'roll': -3.76}
{'lipoC2': 7.94, 'temp': 26.88, 'lipoC3S3': 12.04, 'rot1': 0, 'rot0': 0, 'rot3': 0, 'rot2': 0, 'state': 'normal', 'yaw': 3.23, 'datetime': '2018-10-12 13:27:04.607421', 'mgs': 0, 'depth': 1.538, 'time': 3.89, 'pitch': -7.48, 'roll': -3.77}
{'lipoC2': 7.94, 'temp': 26.88, 'lipoC3S3': 12.04, 'rot1': 0, 'rot0': 0, 'rot3': 0, 'rot2': 0, 'state': 'normal', 'yaw': 3.31, 'datetime': '2018-10-12 13:27:04.705720', 'mgs': 0, 'depth': 1.538, 'time': 3.99, 'pitch': -7.69, 'roll': -3.86}
{'lipoC2': 7.94, 'temp': 26.88, 'lipoC3S3': 12.04, 'rot1': 0, 'rot0': 0, 'rot3': 0, 'rot2': 0, 'state': 'normal', 'yaw': 3.45, 'datetime': '2018-10-12 13:27:04.802879', 'mgs': 0, 'depth': 1.538, 'time': 4.09, 'pitch': -7.79, 'roll': -3.89}
{'lipoC2': 7.94, 'temp': 26.88, 'lipoC3S3': 12.04, 'rot1': 0, 'rot0': 0, 'rot3': 0, 'rot2': 0, 'state': 'normal', 'yaw': 3.62, 'datetime': '2018-10-12 13:27:04.899801', 'mgs': 0, 'depth': 1.462, 'time': 4.19, 'pitch': -7.79, 'roll': -3.94}
{'lipoC2': 7.94, 'temp': 26.88, 'lipoC3S3': 12.02, 'rot1': 0, 'rot0': 0, 'rot3': 0, 'rot2': 0, 'state': 'normal', 'yaw': 3.73, 'datetime': '2018-10-12 13:27:04.998116', 'mgs': 0, 'depth': 1.538, 'time': 4.28, 'pitch': -7.68, 'roll': -4.03}
{'lipoC2': 7.94, 'temp': 26.81, 'lipoC3S3': 12.04, 'rot1': 0, 'rot0': 0, 'rot3': 0, 'rot2': 0, 'state': 'normal', 'yaw': 3.77, 'datetime': '2018-10-12 13:27:05.095276', 'mgs': 0, 'depth': 1.538, 'time': 4.38, 'pitch': -7.5, 'roll': -4.14}
{'lipoC2': 7.94, 'temp': 26.81, 'lipoC3S3': 12.04, 'rot1': 0, 'rot0': 0, 'rot3': 0, 'rot2': 0, 'state': 'normal', 'yaw': 3.76, 'datetime': '2018-10-12 13:27:05.192332', 'mgs': 0, 'depth': 1.538, 'time': 4.48, 'pitch': -7.32, 'roll': -4.16}
{'lipoC2': 7.94, 'temp': 26.81, 'lipoC3S3': 12.04, 'rot1': 0, 'rot0': 0, 'rot3': 0, 'rot2': 0, 'state': 'normal', 'yaw': 3.75, 'datetime': '2018-10-12 13:27:05.289537', 'mgs': 0, 'depth': 1.538, 'time': 4.58, 'pitch': -7.16, 'roll': -4.05}
{'lipoC2': 7.94, 'temp': 26.81, 'lipoC3S3': 12.04, 'rot1': 0, 'rot0': 0, 'rot3': 0, 'rot2': 0, 'state': 'normal', 'yaw': 3.74, 'datetime': '2018-10-12 13:27:05.386613', 'mgs': 0, 'depth': 1.614, 'time': 4.67, 'pitch': -7.01, 'roll': -3.89}
{'lipoC2': 7.94, 'temp': 26.81, 'lipoC3S3': 12.04, 'rot1': 0, 'rot0': 0, 'rot3': 0, 'rot2': 0, 'state': 'normal', 'yaw': 3.8, 'datetime': '2018-10-12 13:27:05.483607', 'mgs': 0, 'depth': 1.538, 'time': 4.77, 'pitch': -6.83, 'roll': -3.99}
{'lipoC2': 7.94, 'temp': 26.88, 'lipoC3S3': 12.04, 'rot1': 0, 'rot0': 0, 'rot3': 0, 'rot2': 0, 'state': 'normal', 'yaw': 3.98, 'datetime': '2018-10-12 13:27:05.580683', 'mgs': 0, 'depth': 1.538, 'time': 4.87, 'pitch': -6.56, 'roll': -4.35}
{'lipoC2': 7.94, 'temp': 26.88, 'lipoC3S3': 12.04, 'rot1': 0, 'rot0': 0, 'rot3': 0, 'rot2': 0, 'state': 'normal', 'yaw': 4.06, 'datetime': '2018-10-12 13:27:05.677692', 'mgs': 0, 'depth': 1.614, 'time': 4.97, 'pitch': -6.33, 'roll': -4.58}
{'lipoC2': 7.94, 'temp': 26.88, 'lipoC3S3': 12.04, 'rot1': 0, 'rot0': 0, 'rot3': 0, 'rot2': 0, 'state': 'normal', 'yaw': 3.96, 'datetime': '2018-10-12 13:27:05.774807', 'mgs': 0, 'depth': 1.614, 'time': 5.06, 'pitch': -6.19, 'roll': -4.77}
{'lipoC2': 7.94, 'temp': 26.81, 'lipoC3S3': 12.04, 'rot1': 0, 'rot0': 0, 'rot3': 0, 'rot2': 0, 'state': 'normal', 'yaw': 3.73, 'datetime': '2018-10-12 13:27:05.871874', 'mgs': 0, 'depth': 1.462, 'time': 5.16, 'pitch': -6.2, 'roll': -5.09}
{'lipoC2': 7.93, 'temp': 26.81, 'lipoC3S3': 12.04, 'rot1': 0, 'rot0': 0, 'rot3': 0, 'rot2': 0, 'state': 'normal', 'yaw': 3.65, 'datetime': '2018-10-12 13:27:05.970029', 'mgs': 0, 'depth': 1.614, 'time': 5.26, 'pitch': -6.21, 'roll': -5.48}
{'lipoC2': 7.94, 'temp': 26.81, 'lipoC3S3': 12.04, 'rot1': 0, 'rot0': 0, 'rot3': 0, 'rot2': 0, 'state': 'normal', 'yaw': 3.73, 'datetime': '2018-10-12 13:27:06.068332', 'mgs': 0, 'depth': 1.614, 'time': 5.36, 'pitch': -6.19, 'roll': -5.87}
{'lipoC2': 7.94, 'temp': 26.81, 'lipoC3S3': 12.04, 'rot1': 0, 'rot0': 0, 'rot3': 0, 'rot2': 0, 'state': 'normal', 'yaw': 3.86, 'datetime': '2018-10-12 13:27:06.160658', 'mgs': 0, 'depth': 1.614, 'time': 5.45, 'pitch': -6.18, 'roll': -6.13}
{'lipoC2': 7.94, 'temp': 26.81, 'lipoC3S3': 12.02, 'rot1': 0, 'rot0': 0, 'rot3': 0, 'rot2': 0, 'state': 'normal', 'yaw': 3.81, 'datetime': '2018-10-12 13:27:06.257655', 'mgs': 0, 'depth': 1.538, 'time': 5.55, 'pitch': -6.27, 'roll': -6.19}
{'lipoC2': 7.94, 'temp': 26.81, 'lipoC3S3': 12.04, 'rot1': 0, 'rot0': 0, 'rot3': 0, 'rot2': 0, 'state': 'normal', 'yaw': 3.57, 'datetime': '2018-10-12 13:27:06.355964', 'mgs': 1, 'depth': 1.614, 'time': 5.65, 'pitch': -6.52, 'roll': -6.12}
{'lipoC2': 7.94, 'temp': 26.88, 'lipoC3S3': 12.04, 'rot1': 0, 'rot0': 0, 'rot3': 0, 'rot2': 0, 'state': 'normal', 'yaw': 0.0, 'datetime': '2018-10-12 13:27:07.875363', 'mgs': 0, 'depth': 1.538, 'time': 1.26, 'pitch': -3.18, 'roll': -5.9}
{'lipoC2': 7.94, 'temp': 26.88, 'lipoC3S3': 12.04, 'rot1': 0, 'rot0': 0, 'rot3': 0, 'rot2': 0, 'state': 'normal', 'yaw': -0.16, 'datetime': '2018-10-12 13:27:07.901223', 'mgs': 0, 'depth': 1.538, 'time': 1.36, 'pitch': -2.77, 'roll': -5.81}
{'lipoC2': 7.94, 'temp': 26.88, 'lipoC3S3': 12.05, 'rot1': 0, 'rot0': 0, 'rot3': 0, 'rot2': 0, 'state': 'normal', 'yaw': -0.32, 'datetime': '2018-10-12 13:27:07.918299', 'mgs': 0, 'depth': 1.538, 'time': 1.45, 'pitch': -2.43, 'roll': -5.66}
{'lipoC2': 7.94, 'temp': 26.81, 'lipoC3S3': 11.97, 'rot1': 0, 'rot0': 0, 'rot3': 0, 'rot2': 0, 'state': 'normal', 'yaw': -0.46, 'datetime': '2018-10-12 13:27:08.009447', 'mgs': 0, 'depth': 1.538, 'time': 1.55, 'pitch': -2.09, 'roll': -5.43}
{'lipoC2': 7.93, 'temp': 26.81, 'lipoC3S3': 11.79, 'rot1': 0, 'rot0': 0, 'rot3': 1, 'rot2': 1, 'state': 'normal', 'yaw': -0.58, 'datetime': '2018-10-12 13:27:08.106128', 'mgs': 0, 'depth': 1.538, 'time': 1.65, 'pitch': -1.93, 'roll': -5.04}
{'lipoC2': 7.93, 'temp': 26.81, 'lipoC3S3': 11.84, 'rot1': 1, 'rot0': 1, 'rot3': 1, 'rot2': 1, 'state': 'normal', 'yaw': -0.73, 'datetime': '2018-10-12 13:27:08.202751', 'mgs': 0, 'depth': 1.538, 'time': 1.74, 'pitch': -1.84, 'roll': -4.09}
{'lipoC2': 7.94, 'temp': 26.81, 'lipoC3S3': 11.87, 'rot1': 2, 'rot0': 2, 'rot3': 2, 'rot2': 2, 'state': 'normal', 'yaw': -0.82, 'datetime': '2018-10-12 13:27:08.299433', 'mgs': 0, 'depth': 1.538, 'time': 1.84, 'pitch': -1.92, 'roll': -3.27}
{'lipoC2': 7.94, 'temp': 26.81, 'lipoC3S3': 11.88, 'rot1': 3, 'rot0': 3, 'rot3': 2, 'rot2': 3, 'state': 'normal', 'yaw': -0.96, 'datetime': '2018-10-12 13:27:08.396048', 'mgs': 0, 'depth': 1.614, 'time': 1.94, 'pitch': -2.17, 'roll': -2.19}
{'lipoC2': 7.94, 'temp': 26.81, 'lipoC3S3': 11.8, 'rot1': 4, 'rot0': 5, 'rot3': 3, 'rot2': 3, 'state': 'normal', 'yaw': -1.09, 'datetime': '2018-10-12 13:27:08.492874', 'mgs': 0, 'depth': 1.538, 'time': 2.04, 'pitch': -2.39, 'roll': -0.84}
{'lipoC2': 7.94, 'temp': 26.81, 'lipoC3S3': 11.81, 'rot1': 6, 'rot0': 6, 'rot3': 3, 'rot2': 4, 'state': 'normal', 'yaw': -1.26, 'datetime': '2018-10-12 13:27:08.589521', 'mgs': 0, 'depth': 1.462, 'time': 2.13, 'pitch': -2.54, 'roll': 0.66}
{'lipoC2': 7.94, 'temp': 26.81, 'lipoC3S3': 11.88, 'rot1': 7, 'rot0': 7, 'rot3': 4, 'rot2': 5, 'state': 'normal', 'yaw': -1.39, 'datetime': '2018-10-12 13:27:08.686223', 'mgs': 0, 'depth': 1.538, 'time': 2.23, 'pitch': -2.55, 'roll': 1.78}
{'lipoC2': 7.94, 'temp': 26.81, 'lipoC3S3': 11.93, 'rot1': 8, 'rot0': 7, 'rot3': 5, 'rot2': 5, 'state': 'normal', 'yaw': -1.14, 'datetime': '2018-10-12 13:27:08.783097', 'mgs': 0, 'depth': 1.92, 'time': 2.33, 'pitch': -2.46, 'roll': 2.15}
{'lipoC2': 7.94, 'temp': 26.81, 'lipoC3S3': 11.92, 'rot1': 9, 'rot0': 8, 'rot3': 5, 'rot2': 6, 'state': 'normal', 'yaw': -0.43, 'datetime': '2018-10-12 13:27:08.879778', 'mgs': 0, 'depth': 1.92, 'time': 2.42, 'pitch': -2.26, 'roll': 1.99}
{'lipoC2': 7.95, 'temp': 26.81, 'lipoC3S3': 11.9, 'rot1': 10, 'rot0': 9, 'rot3': 6, 'rot2': 7, 'state': 'normal', 'yaw': 0.59, 'datetime': '2018-10-12 13:27:08.991295', 'mgs': 0, 'depth': 1.614, 'time': 2.52, 'pitch': -2.05, 'roll': 1.58}
{'lipoC2': 7.94, 'temp': 26.81, 'lipoC3S3': 11.87, 'rot1': 11, 'rot0': 10, 'rot3': 6, 'rot2': 7, 'state': 'normal', 'yaw': 1.46, 'datetime': '2018-10-12 13:27:09.073582', 'mgs': 0, 'depth': 1.538, 'time': 2.62, 'pitch': -1.87, 'roll': 1.48}
{'lipoC2': 7.94, 'temp': 26.81, 'lipoC3S3': 11.96, 'rot1': 12, 'rot0': 11, 'rot3': 7, 'rot2': 8, 'state': 'normal', 'yaw': 2.33, 'datetime': '2018-10-12 13:27:09.174878', 'mgs': 0, 'depth': 1.767, 'time': 2.71, 'pitch': -1.66, 'roll': 1.73}
{'lipoC2': 7.94, 'temp': 26.81, 'lipoC3S3': 11.89, 'rot1': 13, 'rot0': 12, 'rot3': 8, 'rot2': 9, 'state': 'normal', 'yaw': 3.09, 'datetime': '2018-10-12 13:27:09.273033', 'mgs': 0, 'depth': 1.538, 'time': 2.81, 'pitch': -1.5, 'roll': 2.13}
{'lipoC2': 7.94, 'temp': 26.81, 'lipoC3S3': 11.96, 'rot1': 14, 'rot0': 14, 'rot3': 8, 'rot2': 10, 'state': 'normal', 'yaw': 3.28, 'datetime': '2018-10-12 13:27:09.366111', 'mgs': 0, 'depth': 2.072, 'time': 2.91, 'pitch': -1.46, 'roll': 2.3}
{'lipoC2': 7.94, 'temp': 26.81, 'lipoC3S3': 11.94, 'rot1': 14, 'rot0': 15, 'rot3': 9, 'rot2': 10, 'state': 'normal', 'yaw': 2.91, 'datetime': '2018-10-12 13:27:09.465062', 'mgs': 0, 'depth': 1.767, 'time': 3.01, 'pitch': -1.5, 'roll': 2.15}
{'lipoC2': 7.95, 'temp': 26.81, 'lipoC3S3': 11.9, 'rot1': 15, 'rot0': 16, 'rot3': 9, 'rot2': 11, 'state': 'normal', 'yaw': 2.04, 'datetime': '2018-10-12 13:27:09.563009', 'mgs': 0, 'depth': 2.225, 'time': 3.11, 'pitch': -1.61, 'roll': 1.78}
{'lipoC2': 7.94, 'temp': 26.75, 'lipoC3S3': 11.87, 'rot1': 15, 'rot0': 17, 'rot3': 10, 'rot2': 12, 'state': 'normal', 'yaw': 0.76, 'datetime': '2018-10-12 13:27:09.659745', 'mgs': 0, 'depth': 1.538, 'time': 3.2, 'pitch': -1.73, 'roll': 1.36}
{'lipoC2': 7.94, 'temp': 26.75, 'lipoC3S3': 11.97, 'rot1': 16, 'rot0': 18, 'rot3': 10, 'rot2': 12, 'state': 'normal', 'yaw': -0.84, 'datetime': '2018-10-12 13:27:09.762850', 'mgs': 0, 'depth': 1.843, 'time': 3.3, 'pitch': -1.85, 'roll': 0.99}
{'lipoC2': 7.94, 'temp': 26.75, 'lipoC3S3': 11.94, 'rot1': 17, 'rot0': 19, 'rot3': 11, 'rot2': 13, 'state': 'normal', 'yaw': -2.4, 'datetime': '2018-10-12 13:27:09.855543', 'mgs': 0, 'depth': 1.614, 'time': 3.4, 'pitch': -1.96, 'roll': 0.77}
{'lipoC2': 7.93, 'temp': 26.75, 'lipoC3S3': 11.94, 'rot1': 18, 'rot0': 20, 'rot3': 11, 'rot2': 14, 'state': 'normal', 'yaw': -3.98, 'datetime': '2018-10-12 13:27:09.954905', 'mgs': 0, 'depth': 1.92, 'time': 3.49, 'pitch': -2.05, 'roll': 0.85}
{'lipoC2': 7.94, 'temp': 26.75, 'lipoC3S3': 11.88, 'rot1': 19, 'rot0': 22, 'rot3': 12, 'rot2': 14, 'state': 'normal', 'yaw': -5.24, 'datetime': '2018-10-12 13:27:10.053095', 'mgs': 0, 'depth': 2.606, 'time': 3.59, 'pitch': -2.1, 'roll': 1.23}
{'lipoC2': 7.94, 'temp': 26.81, 'lipoC3S3': 11.92, 'rot1': 20, 'rot0': 23, 'rot3': 13, 'rot2': 15, 'state': 'normal', 'yaw': -6.25, 'datetime': '2018-10-12 13:27:10.147161', 'mgs': 0, 'depth': 1.614, 'time': 3.69, 'pitch': -2.18, 'roll': 1.63}
{'lipoC2': 7.94, 'temp': 26.81, 'lipoC3S3': 11.93, 'rot1': 21, 'rot0': 23, 'rot3': 13, 'rot2': 16, 'state': 'normal', 'yaw': -6.71, 'datetime': '2018-10-12 13:27:10.244957', 'mgs': 0, 'depth': 1.538, 'time': 3.79, 'pitch': -2.26, 'roll': 1.7}
{'lipoC2': 7.94, 'temp': 26.75, 'lipoC3S3': 11.96, 'rot1': 22, 'rot0': 24, 'rot3': 14, 'rot2': 17, 'state': 'normal', 'yaw': -6.76, 'datetime': '2018-10-12 13:27:10.343253', 'mgs': 0, 'depth': 1.691, 'time': 3.89, 'pitch': -2.33, 'roll': 1.43}
{'lipoC2': 7.94, 'temp': 26.75, 'lipoC3S3': 11.97, 'rot1': 24, 'rot0': 25, 'rot3': 14, 'rot2': 17, 'state': 'normal', 'yaw': -6.41, 'datetime': '2018-10-12 13:27:10.439554', 'mgs': 0, 'depth': 1.92, 'time': 3.98, 'pitch': -2.34, 'roll': 0.92}
{'lipoC2': 7.94, 'temp': 26.75, 'lipoC3S3': 11.94, 'rot1': 25, 'rot0': 25, 'rot3': 15, 'rot2': 18, 'state': 'normal', 'yaw': -5.71, 'datetime': '2018-10-12 13:27:10.541813', 'mgs': 0, 'depth': 2.225, 'time': 4.08, 'pitch': -2.26, 'roll': 0.3}
{'lipoC2': 7.94, 'temp': 26.81, 'lipoC3S3': 11.9, 'rot1': 26, 'rot0': 26, 'rot3': 16, 'rot2': 19, 'state': 'normal', 'yaw': -4.86, 'datetime': '2018-10-12 13:27:10.634939', 'mgs': 0, 'depth': 1.385, 'time': 4.18, 'pitch': -2.13, 'roll': -0.19}
{'lipoC2': 7.94, 'temp': 26.81, 'lipoC3S3': 11.87, 'rot1': 27, 'rot0': 27, 'rot3': 16, 'rot2': 20, 'state': 'normal', 'yaw': -3.69, 'datetime': '2018-10-12 13:27:10.733974', 'mgs': 0, 'depth': 1.691, 'time': 4.28, 'pitch': -1.96, 'roll': -0.54}
{'lipoC2': 7.93, 'temp': 26.75, 'lipoC3S3': 11.94, 'rot1': 28, 'rot0': 27, 'rot3': 17, 'rot2': 20, 'state': 'normal', 'yaw': -2.32, 'datetime': '2018-10-12 13:27:10.834591', 'mgs': 0, 'depth': 1.92, 'time': 4.37, 'pitch': -1.8, 'roll': -0.67}
{'lipoC2': 7.93, 'temp': 26.75, 'lipoC3S3': 11.88, 'rot1': 29, 'rot0': 28, 'rot3': 17, 'rot2': 21, 'state': 'normal', 'yaw': -0.8, 'datetime': '2018-10-12 13:27:10.933263', 'mgs': 0, 'depth': 1.614, 'time': 4.47, 'pitch': -1.74, 'roll': -0.63}
{'lipoC2': 7.94, 'temp': 26.75, 'lipoC3S3': 11.8, 'rot1': 30, 'rot0': 29, 'rot3': 18, 'rot2': 22, 'state': 'normal', 'yaw': 0.64, 'datetime': '2018-10-12 13:27:11.031264', 'mgs': 0, 'depth': 1.614, 'time': 4.57, 'pitch': -1.71, 'roll': -0.5}
{'lipoC2': 7.94, 'temp': 26.75, 'lipoC3S3': 11.79, 'rot1': 31, 'rot0': 30, 'rot3': 19, 'rot2': 23, 'state': 'normal', 'yaw': 2.02, 'datetime': '2018-10-12 13:27:11.129754', 'mgs': 0, 'depth': 1.538, 'time': 4.67, 'pitch': -1.7, 'roll': -0.19}
{'lipoC2': 7.94, 'temp': 26.75, 'lipoC3S3': 11.94, 'rot1': 32, 'rot0': 31, 'rot3': 19, 'rot2': 23, 'state': 'normal', 'yaw': 3.04, 'datetime': '2018-10-12 13:27:11.227122', 'mgs': 0, 'depth': 1.614, 'time': 4.77, 'pitch': -1.69, 'roll': 0.16}
{'lipoC2': 7.94, 'temp': 26.81, 'lipoC3S3': 11.96, 'rot1': 33, 'rot0': 32, 'rot3': 20, 'rot2': 24, 'state': 'normal', 'yaw': 3.7, 'datetime': '2018-10-12 13:27:11.324586', 'mgs': 0, 'depth': 1.92, 'time': 4.86, 'pitch': -1.68, 'roll': 0.39}
{'lipoC2': 7.94, 'temp': 26.81, 'lipoC3S3': 11.85, 'rot1': 34, 'rot0': 33, 'rot3': 20, 'rot2': 25, 'state': 'normal', 'yaw': 3.81, 'datetime': '2018-10-12 13:27:11.422643', 'mgs': 0, 'depth': 1.538, 'time': 4.96, 'pitch': -1.68, 'roll': 0.3}
{'lipoC2': 7.95, 'temp': 26.81, 'lipoC3S3': 11.9, 'rot1': 34, 'rot0': 34, 'rot3': 21, 'rot2': 25, 'state': 'normal', 'yaw': 3.49, 'datetime': '2018-10-12 13:27:11.521415', 'mgs': 0, 'depth': 1.614, 'time': 5.06, 'pitch': -1.74, 'roll': -0.07}
{'lipoC2': 7.94, 'temp': 26.75, 'lipoC3S3': 11.96, 'rot1': 35, 'rot0': 35, 'rot3': 22, 'rot2': 26, 'state': 'normal', 'yaw': 2.77, 'datetime': '2018-10-12 13:27:11.619466', 'mgs': 0, 'depth': 1.92, 'time': 5.16, 'pitch': -1.89, 'roll': -0.5}
{'lipoC2': 7.94, 'temp': 26.75, 'lipoC3S3': 11.96, 'rot1': 36, 'rot0': 37, 'rot3': 22, 'rot2': 27, 'state': 'normal', 'yaw': 1.75, 'datetime': '2018-10-12 13:27:11.716845', 'mgs': 0, 'depth': 2.072, 'time': 5.26, 'pitch': -2.1, 'roll': -0.85}
{'lipoC2': 7.94, 'temp': 26.75, 'lipoC3S3': 11.88, 'rot1': 36, 'rot0': 38, 'rot3': 23, 'rot2': 28, 'state': 'normal', 'yaw': 0.46, 'datetime': '2018-10-12 13:27:11.814358', 'mgs': 0, 'depth': 1.614, 'time': 5.35, 'pitch': -2.35, 'roll': -1.01}
{'lipoC2': 7.93, 'temp': 26.75, 'lipoC3S3': 11.92, 'rot1': 37, 'rot0': 39, 'rot3': 23, 'rot2': 28, 'state': 'normal', 'yaw': -0.91, 'datetime': '2018-10-12 13:27:11.911713', 'mgs': 0, 'depth': 1.614, 'time': 5.45, 'pitch': -2.64, 'roll': -0.95}
{'lipoC2': 7.94, 'temp': 26.75, 'lipoC3S3': 11.92, 'rot1': 38, 'rot0': 40, 'rot3': 24, 'rot2': 29, 'state': 'normal', 'yaw': -2.32, 'datetime': '2018-10-12 13:27:12.009042', 'mgs': 0, 'depth': 1.92, 'time': 5.55, 'pitch': -2.93, 'roll': -0.53}
{'lipoC2': 7.94, 'temp': 26.75, 'lipoC3S3': 11.87, 'rot1': 39, 'rot0': 41, 'rot3': 25, 'rot2': 30, 'state': 'normal', 'yaw': -3.48, 'datetime': '2018-10-12 13:27:12.106481', 'mgs': 0, 'depth': 2.454, 'time': 5.65, 'pitch': -3.18, 'roll': 0.06}
{'lipoC2': 7.94, 'temp': 26.75, 'lipoC3S3': 11.89, 'rot1': 40, 'rot0': 42, 'rot3': 25, 'rot2': 31, 'state': 'normal', 'yaw': -4.3, 'datetime': '2018-10-12 13:27:12.204101', 'mgs': 0, 'depth': 2.148, 'time': 5.74, 'pitch': -3.36, 'roll': 0.45}
{'lipoC2': 7.94, 'temp': 26.75, 'lipoC3S3': 12.0, 'rot1': 41, 'rot0': 42, 'rot3': 25, 'rot2': 31, 'state': 'normal', 'yaw': -4.73, 'datetime': '2018-10-12 13:27:12.298858', 'mgs': 0, 'depth': 1.691, 'time': 5.84, 'pitch': -3.47, 'roll': 0.42}
{'lipoC2': 7.94, 'temp': 26.75, 'lipoC3S3': 12.01, 'rot1': 41, 'rot0': 42, 'rot3': 25, 'rot2': 31, 'state': 'normal', 'yaw': -4.96, 'datetime': '2018-10-12 13:27:12.398784', 'mgs': 0, 'depth': 1.614, 'time': 5.94, 'pitch': -3.53, 'roll': -0.51}
{'lipoC2': 7.94, 'temp': 26.75, 'lipoC3S3': 11.96, 'rot1': 41, 'rot0': 42, 'rot3': 25, 'rot2': 31, 'state': 'normal', 'yaw': -5.21, 'datetime': '2018-10-12 13:27:12.496347', 'mgs': 0, 'depth': 1.996, 'time': 6.04, 'pitch': -3.64, 'roll': -1.91}
{'lipoC2': 7.95, 'temp': 26.75, 'lipoC3S3': 11.93, 'rot1': 41, 'rot0': 43, 'rot3': 25, 'rot2': 32, 'state': 'normal', 'yaw': -5.41, 'datetime': '2018-10-12 13:27:12.593979', 'mgs': 0, 'depth': 1.92, 'time': 6.13, 'pitch': -3.67, 'roll': -3.35}
{'lipoC2': 7.94, 'temp': 26.75, 'lipoC3S3': 11.88, 'rot1': 42, 'rot0': 43, 'rot3': 26, 'rot2': 32, 'state': 'normal', 'yaw': -5.42, 'datetime': '2018-10-12 13:27:12.691312', 'mgs': 0, 'depth': 2.377, 'time': 6.23, 'pitch': -3.36, 'roll': -4.49}
{'lipoC2': 7.94, 'temp': 26.75, 'lipoC3S3': 11.84, 'rot1': 43, 'rot0': 44, 'rot3': 26, 'rot2': 33, 'state': 'normal', 'yaw': -5.02, 'datetime': '2018-10-12 13:27:12.788708', 'mgs': 0, 'depth': 1.767, 'time': 6.33, 'pitch': -2.73, 'roll': -4.96}
{'lipoC2': 7.94, 'temp': 26.75, 'lipoC3S3': 11.92, 'rot1': 44, 'rot0': 45, 'rot3': 27, 'rot2': 33, 'state': 'normal', 'yaw': -4.31, 'datetime': '2018-10-12 13:27:12.886075', 'mgs': 0, 'depth': 1.767, 'time': 6.43, 'pitch': -1.98, 'roll': -5.03}
{'lipoC2': 7.95, 'temp': 26.75, 'lipoC3S3': 11.89, 'rot1': 46, 'rot0': 46, 'rot3': 27, 'rot2': 34, 'state': 'normal', 'yaw': -3.4, 'datetime': '2018-10-12 13:27:12.984910', 'mgs': 0, 'depth': 1.767, 'time': 6.53, 'pitch': -1.26, 'roll': -5.06}
{'lipoC2': 7.94, 'temp': 26.69, 'lipoC3S3': 11.88, 'rot1': 47, 'rot0': 46, 'rot3': 28, 'rot2': 35, 'state': 'normal', 'yaw': -2.16, 'datetime': '2018-10-12 13:27:13.083624', 'mgs': 0, 'depth': 1.996, 'time': 6.63, 'pitch': -0.52, 'roll': -5.09}
{'lipoC2': 7.94, 'temp': 26.69, 'lipoC3S3': 11.92, 'rot1': 48, 'rot0': 47, 'rot3': 28, 'rot2': 35, 'state': 'normal', 'yaw': -0.78, 'datetime': '2018-10-12 13:27:13.181241', 'mgs': 0, 'depth': 1.92, 'time': 6.72, 'pitch': 0.15, 'roll': -5.21}
{'lipoC2': 7.94, 'temp': 26.81, 'lipoC3S3': 11.93, 'rot1': 49, 'rot0': 48, 'rot3': 29, 'rot2': 36, 'state': 'normal', 'yaw': 0.65, 'datetime': '2018-10-12 13:27:13.278547', 'mgs': 0, 'depth': 1.996, 'time': 6.82, 'pitch': 0.68, 'roll': -5.24}
{'lipoC2': 7.94, 'temp': 26.81, 'lipoC3S3': 11.93, 'rot1': 50, 'rot0': 48, 'rot3': 29, 'rot2': 37, 'state': 'normal', 'yaw': 2.14, 'datetime': '2018-10-12 13:27:13.376312', 'mgs': 0, 'depth': 2.072, 'time': 6.92, 'pitch': 1.12, 'roll': -5.09}
{'lipoC2': 7.94, 'temp': 26.81, 'lipoC3S3': 11.84, 'rot1': 51, 'rot0': 49, 'rot3': 30, 'rot2': 37, 'state': 'normal', 'yaw': 3.46, 'datetime': '2018-10-12 13:27:13.474948', 'mgs': 0, 'depth': 2.072, 'time': 7.02, 'pitch': 1.48, 'roll': -4.74}
{'lipoC2': 7.94, 'temp': 26.75, 'lipoC3S3': 11.83, 'rot1': 52, 'rot0': 50, 'rot3': 30, 'rot2': 38, 'state': 'normal', 'yaw': 4.28, 'datetime': '2018-10-12 13:27:13.573648', 'mgs': 0, 'depth': 2.225, 'time': 7.11, 'pitch': 1.72, 'roll': -4.18}
{'lipoC2': 7.94, 'temp': 26.75, 'lipoC3S3': 11.96, 'rot1': 52, 'rot0': 51, 'rot3': 31, 'rot2': 38, 'state': 'normal', 'yaw': 4.44, 'datetime': '2018-10-12 13:27:13.671201', 'mgs': 0, 'depth': 2.377, 'time': 7.21, 'pitch': 1.76, 'roll': -3.58}
{'lipoC2': 7.94, 'temp': 26.63, 'lipoC3S3': 11.93, 'rot1': 53, 'rot0': 52, 'rot3': 31, 'rot2': 39, 'state': 'normal', 'yaw': 4.08, 'datetime': '2018-10-12 13:27:13.768423', 'mgs': 0, 'depth': 2.759, 'time': 7.31, 'pitch': 1.66, 'roll': -3.05}
{'lipoC2': 7.94, 'temp': 26.63, 'lipoC3S3': 11.83, 'rot1': 54, 'rot0': 54, 'rot3': 32, 'rot2': 40, 'state': 'normal', 'yaw': 3.39, 'datetime': '2018-10-12 13:27:13.866524', 'mgs': 0, 'depth': 2.454, 'time': 7.41, 'pitch': 1.44, 'roll': -2.66}
{'lipoC2': 7.94, 'temp': 26.63, 'lipoC3S3': 11.93, 'rot1': 54, 'rot0': 55, 'rot3': 32, 'rot2': 40, 'state': 'normal', 'yaw': 2.32, 'datetime': '2018-10-12 13:27:13.964004', 'mgs': 0, 'depth': 2.606, 'time': 7.51, 'pitch': 1.06, 'roll': -2.28}
{'lipoC2': 7.94, 'temp': 27.5, 'lipoC3S3': 11.94, 'rot1': 55, 'rot0': 56, 'rot3': 33, 'rot2': 41, 'state': 'normal', 'yaw': 1.0, 'datetime': '2018-10-12 13:27:14.061429', 'mgs': 0, 'depth': 3.064, 'time': 7.6, 'pitch': 0.52, 'roll': -1.94}
{'lipoC2': 7.94, 'temp': 27.5, 'lipoC3S3': 11.93, 'rot1': 56, 'rot0': 57, 'rot3': 33, 'rot2': 41, 'state': 'normal', 'yaw': -0.51, 'datetime': '2018-10-12 13:27:14.158867', 'mgs': 0, 'depth': 3.217, 'time': 7.7, 'pitch': -0.09, 'roll': -1.61}
{'lipoC2': 7.94, 'temp': 26.44, 'lipoC3S3': 11.89, 'rot1': 56, 'rot0': 58, 'rot3': 34, 'rot2': 42, 'state': 'normal', 'yaw': -2.0, 'datetime': '2018-10-12 13:27:14.256236', 'mgs': 0, 'depth': 2.911, 'time': 7.8, 'pitch': -0.69, 'roll': -1.32}
{'lipoC2': 7.94, 'temp': 26.44, 'lipoC3S3': 11.96, 'rot1': 57, 'rot0': 59, 'rot3': 34, 'rot2': 42, 'state': 'normal', 'yaw': -3.76, 'datetime': '2018-10-12 13:27:14.353542', 'mgs': 0, 'depth': 2.988, 'time': 7.9, 'pitch': -1.36, 'roll': -0.95}
{'lipoC2': 7.94, 'temp': 26.44, 'lipoC3S3': 11.97, 'rot1': 58, 'rot0': 60, 'rot3': 34, 'rot2': 42, 'state': 'normal', 'yaw': -5.02, 'datetime': '2018-10-12 13:27:14.450978', 'mgs': 0, 'depth': 3.064, 'time': 7.99, 'pitch': -1.93, 'roll': -0.61}
{'lipoC2': 7.94, 'temp': 26.75, 'lipoC3S3': 11.97, 'rot1': 59, 'rot0': 60, 'rot3': 34, 'rot2': 42, 'state': 'normal', 'yaw': -5.64, 'datetime': '2018-10-12 13:27:14.548407', 'mgs': 0, 'depth': 3.445, 'time': 8.09, 'pitch': -2.37, 'roll': -0.32}
{'lipoC2': 7.94, 'temp': 26.75, 'lipoC3S3': 11.96, 'rot1': 60, 'rot0': 61, 'rot3': 34, 'rot2': 42, 'state': 'normal', 'yaw': -5.73, 'datetime': '2018-10-12 13:27:14.645787', 'mgs': 0, 'depth': 3.14, 'time': 8.19, 'pitch': -2.62, 'roll': -0.1}
{'lipoC2': 7.94, 'temp': 26.75, 'lipoC3S3': 11.92, 'rot1': 61, 'rot0': 62, 'rot3': 34, 'rot2': 42, 'state': 'normal', 'yaw': -5.4, 'datetime': '2018-10-12 13:27:14.743315', 'mgs': 0, 'depth': 3.217, 'time': 8.29, 'pitch': -2.76, 'roll': 0.1}
{'lipoC2': 7.94, 'temp': 26.75, 'lipoC3S3': 11.98, 'rot1': 63, 'rot0': 62, 'rot3': 34, 'rot2': 42, 'state': 'normal', 'yaw': -4.66, 'datetime': '2018-10-12 13:27:14.840868', 'mgs': 0, 'depth': 3.293, 'time': 8.38, 'pitch': -2.74, 'roll': 0.3}
{'lipoC2': 7.94, 'temp': 26.75, 'lipoC3S3': 11.92, 'rot1': 64, 'rot0': 63, 'rot3': 34, 'rot2': 42, 'state': 'normal', 'yaw': -3.71, 'datetime': '2018-10-12 13:27:14.938652', 'mgs': 0, 'depth': 3.369, 'time': 8.48, 'pitch': -2.58, 'roll': 0.46}
{'lipoC2': 7.94, 'temp': 26.75, 'lipoC3S3': 11.97, 'rot1': 65, 'rot0': 63, 'rot3': 34, 'rot2': 42, 'state': 'normal', 'yaw': -2.38, 'datetime': '2018-10-12 13:27:15.037346', 'mgs': 0, 'depth': 3.293, 'time': 8.58, 'pitch': -2.28, 'roll': 0.62}
{'lipoC2': 7.93, 'temp': 26.75, 'lipoC3S3': 11.97, 'rot1': 66, 'rot0': 64, 'rot3': 34, 'rot2': 42, 'state': 'normal', 'yaw': -0.81, 'datetime': '2018-10-12 13:27:15.136011', 'mgs': 0, 'depth': 3.903, 'time': 8.68, 'pitch': -1.88, 'roll': 0.74}
{'lipoC2': 7.94, 'temp': 26.75, 'lipoC3S3': 11.79, 'rot1': 67, 'rot0': 65, 'rot3': 34, 'rot2': 42, 'state': 'normal', 'yaw': 0.94, 'datetime': '2018-10-12 13:27:15.233495', 'mgs': 0, 'depth': 3.445, 'time': 8.78, 'pitch': -1.42, 'roll': 0.79}
{'lipoC2': 7.94, 'temp': 26.75, 'lipoC3S3': 11.93, 'rot1': 68, 'rot0': 66, 'rot3': 34, 'rot2': 42, 'state': 'normal', 'yaw': 2.47, 'datetime': '2018-10-12 13:27:15.330901', 'mgs': 0, 'depth': 3.445, 'time': 8.88, 'pitch': -0.98, 'roll': 0.94}
{'lipoC2': 7.94, 'temp': 26.75, 'lipoC3S3': 11.9, 'rot1': 69, 'rot0': 67, 'rot3': 34, 'rot2': 42, 'state': 'normal', 'yaw': 3.52, 'datetime': '2018-10-12 13:27:15.428915', 'mgs': 0, 'depth': 4.208, 'time': 8.97, 'pitch': -0.62, 'roll': 1.27}
{'lipoC2': 7.93, 'temp': 26.75, 'lipoC3S3': 11.93, 'rot1': 70, 'rot0': 68, 'rot3': 35, 'rot2': 43, 'state': 'normal', 'yaw': 4.38, 'datetime': '2018-10-12 13:27:15.527611', 'mgs': 0, 'depth': 4.208, 'time': 9.07, 'pitch': -0.34, 'roll': 1.83}
{'lipoC2': 7.94, 'temp': 26.75, 'lipoC3S3': 11.88, 'rot1': 71, 'rot0': 69, 'rot3': 35, 'rot2': 43, 'state': 'normal', 'yaw': 4.71, 'datetime': '2018-10-12 13:27:15.625813', 'mgs': 0, 'depth': 3.445, 'time': 9.17, 'pitch': -0.19, 'roll': 2.47}
{'lipoC2': 7.93, 'temp': 26.69, 'lipoC3S3': 11.94, 'rot1': 71, 'rot0': 71, 'rot3': 36, 'rot2': 44, 'state': 'normal', 'yaw': 4.46, 'datetime': '2018-10-12 13:27:15.723199', 'mgs': 0, 'depth': 3.522, 'time': 9.27, 'pitch': -0.15, 'roll': 3.09}
{'lipoC2': 7.93, 'temp': 26.69, 'lipoC3S3': 11.94, 'rot1': 72, 'rot0': 72, 'rot3': 36, 'rot2': 45, 'state': 'normal', 'yaw': 3.73, 'datetime': '2018-10-12 13:27:15.820726', 'mgs': 0, 'depth': 3.903, 'time': 9.36, 'pitch': -0.15, 'roll': 3.69}
{'lipoC2': 7.93, 'temp': 26.75, 'lipoC3S3': 11.92, 'rot1': 73, 'rot0': 73, 'rot3': 37, 'rot2': 45, 'state': 'normal', 'yaw': 2.73, 'datetime': '2018-10-12 13:27:15.917945', 'mgs': 0, 'depth': 4.208, 'time': 9.46, 'pitch': -0.21, 'roll': 4.2}
{'lipoC2': 7.93, 'temp': 26.75, 'lipoC3S3': 11.84, 'rot1': 73, 'rot0': 74, 'rot3': 37, 'rot2': 46, 'state': 'normal', 'yaw': 1.33, 'datetime': '2018-10-12 13:27:16.015322', 'mgs': 0, 'depth': 3.522, 'time': 9.56, 'pitch': -0.3, 'roll': 4.75}
{'lipoC2': 7.94, 'temp': 26.75, 'lipoC3S3': 11.94, 'rot1': 74, 'rot0': 75, 'rot3': 37, 'rot2': 46, 'state': 'normal', 'yaw': -0.33, 'datetime': '2018-10-12 13:27:16.112777', 'mgs': 0, 'depth': 3.445, 'time': 9.66, 'pitch': -0.39, 'roll': 5.33}
{'lipoC2': 7.94, 'temp': 26.69, 'lipoC3S3': 11.94, 'rot1': 75, 'rot0': 76, 'rot3': 38, 'rot2': 47, 'state': 'normal', 'yaw': -2.02, 'datetime': '2018-10-12 13:27:16.210390', 'mgs': 0, 'depth': 3.369, 'time': 9.75, 'pitch': -0.51, 'roll': 5.85}
{'lipoC2': 7.94, 'temp': 26.69, 'lipoC3S3': 11.94, 'rot1': 75, 'rot0': 77, 'rot3': 38, 'rot2': 47, 'state': 'normal', 'yaw': -4.05, 'datetime': '2018-10-12 13:27:16.307806', 'mgs': 0, 'depth': 3.751, 'time': 9.85, 'pitch': -0.69, 'roll': 6.43}
{'lipoC2': 7.94, 'temp': 26.69, 'lipoC3S3': 11.93, 'rot1': 76, 'rot0': 78, 'rot3': 39, 'rot2': 48, 'state': 'normal', 'yaw': -6.18, 'datetime': '2018-10-12 13:27:16.405387', 'mgs': 0, 'depth': 3.751, 'time': 9.95, 'pitch': -0.92, 'roll': 6.94}
{'lipoC2': 7.94, 'temp': 26.69, 'lipoC3S3': 11.88, 'rot1': 77, 'rot0': 79, 'rot3': 39, 'rot2': 48, 'state': 'normal', 'yaw': -7.71, 'datetime': '2018-10-12 13:27:16.502655', 'mgs': 0, 'depth': 3.293, 'time': 10.05, 'pitch': -1.14, 'roll': 7.29}
{'lipoC2': 7.94, 'temp': 26.69, 'lipoC3S3': 11.88, 'rot1': 78, 'rot0': 79, 'rot3': 39, 'rot2': 49, 'state': 'normal', 'yaw': -8.47, 'datetime': '2018-10-12 13:27:16.600336', 'mgs': 0, 'depth': 3.293, 'time': 10.14, 'pitch': -1.34, 'roll': 7.49}
{'lipoC2': 7.94, 'temp': 26.69, 'lipoC3S3': 11.92, 'rot1': 80, 'rot0': 80, 'rot3': 39, 'rot2': 49, 'state': 'normal', 'yaw': -8.76, 'datetime': '2018-10-12 13:27:16.697703', 'mgs': 0, 'depth': 3.217, 'time': 10.24, 'pitch': -1.54, 'roll': 7.48}
{'lipoC2': 7.94, 'temp': 26.69, 'lipoC3S3': 11.97, 'rot1': 81, 'rot0': 81, 'rot3': 39, 'rot2': 49, 'state': 'normal', 'yaw': -8.6, 'datetime': '2018-10-12 13:27:16.795106', 'mgs': 0, 'depth': 3.14, 'time': 10.34, 'pitch': -1.74, 'roll': 7.23}
{'lipoC2': 7.94, 'temp': 26.69, 'lipoC3S3': 11.96, 'rot1': 82, 'rot0': 81, 'rot3': 39, 'rot2': 49, 'state': 'normal', 'yaw': -8.04, 'datetime': '2018-10-12 13:27:16.892492', 'mgs': 0, 'depth': 3.522, 'time': 10.44, 'pitch': -1.87, 'roll': 6.84}
{'lipoC2': 7.93, 'temp': 26.69, 'lipoC3S3': 11.97, 'rot1': 83, 'rot0': 82, 'rot3': 39, 'rot2': 49, 'state': 'normal', 'yaw': -7.28, 'datetime': '2018-10-12 13:27:16.991081', 'mgs': 0, 'depth': 3.369, 'time': 10.54, 'pitch': -1.93, 'roll': 6.38}
{'lipoC2': 7.94, 'temp': 26.69, 'lipoC3S3': 11.93, 'rot1': 83, 'rot0': 82, 'rot3': 40, 'rot2': 49, 'state': 'normal', 'yaw': -6.13, 'datetime': '2018-10-12 13:27:21.046637', 'mgs': 0, 'depth': 3.369, 'time': 10.64, 'pitch': -1.93, 'roll': 5.73}
{'lipoC2': 7.94, 'temp': 26.69, 'lipoC3S3': 11.96, 'rot1': 83, 'rot0': 82, 'rot3': 40, 'rot2': 50, 'state': 'normal', 'yaw': -5.08, 'datetime': '2018-10-12 13:27:21.070514', 'mgs': 0, 'depth': 3.217, 'time': 10.73, 'pitch': -1.91, 'roll': 4.72}
{'lipoC2': 7.94, 'temp': 26.69, 'lipoC3S3': 11.94, 'rot1': 83, 'rot0': 82, 'rot3': 41, 'rot2': 50, 'state': 'normal', 'yaw': -4.23, 'datetime': '2018-10-12 13:27:21.110690', 'mgs': 0, 'depth': 2.988, 'time': 10.83, 'pitch': -1.87, 'roll': 3.47}
{'lipoC2': 7.94, 'temp': 26.69, 'lipoC3S3': 11.92, 'rot1': 83, 'rot0': 82, 'rot3': 41, 'rot2': 51, 'state': 'normal', 'yaw': -3.59, 'datetime': '2018-10-12 13:27:21.125174', 'mgs': 0, 'depth': 2.759, 'time': 10.93, 'pitch': -1.82, 'roll': 2.09}
{'lipoC2': 7.94, 'temp': 26.69, 'lipoC3S3': 11.92, 'rot1': 83, 'rot0': 82, 'rot3': 42, 'rot2': 52, 'state': 'normal', 'yaw': -3.14, 'datetime': '2018-10-12 13:27:21.144533', 'mgs': 0, 'depth': 2.606, 'time': 11.03, 'pitch': -1.83, 'roll': 0.85}
{'lipoC2': 7.94, 'temp': 26.69, 'lipoC3S3': 11.9, 'rot1': 83, 'rot0': 82, 'rot3': 42, 'rot2': 52, 'state': 'normal', 'yaw': -2.75, 'datetime': '2018-10-12 13:27:21.152450', 'mgs': 0, 'depth': 2.454, 'time': 11.13, 'pitch': -1.83, 'roll': -0.44}
{'lipoC2': 7.94, 'temp': 26.69, 'lipoC3S3': 11.96, 'rot1': 83, 'rot0': 82, 'rot3': 43, 'rot2': 53, 'state': 'normal', 'yaw': -2.41, 'datetime': '2018-10-12 13:27:21.171803', 'mgs': 0, 'depth': 2.606, 'time': 11.22, 'pitch': -1.82, 'roll': -1.61}
{'lipoC2': 7.94, 'temp': 26.69, 'lipoC3S3': 11.9, 'rot1': 83, 'rot0': 82, 'rot3': 43, 'rot2': 54, 'state': 'normal', 'yaw': -2.13, 'datetime': '2018-10-12 13:27:21.179692', 'mgs': 0, 'depth': 2.377, 'time': 11.32, 'pitch': -1.81, 'roll': -2.66}
{'lipoC2': 7.94, 'temp': 26.69, 'lipoC3S3': 11.93, 'rot1': 83, 'rot0': 82, 'rot3': 44, 'rot2': 54, 'state': 'normal', 'yaw': -1.88, 'datetime': '2018-10-12 13:27:21.199019', 'mgs': 0, 'depth': 2.225, 'time': 11.42, 'pitch': -1.79, 'roll': -3.54}
{'lipoC2': 7.94, 'temp': 26.69, 'lipoC3S3': 11.96, 'rot1': 83, 'rot0': 82, 'rot3': 44, 'rot2': 55, 'state': 'normal', 'yaw': -1.69, 'datetime': '2018-10-12 13:27:21.206945', 'mgs': 0, 'depth': 1.996, 'time': 11.52, 'pitch': -1.76, 'roll': -4.18}
{'lipoC2': 7.94, 'temp': 26.69, 'lipoC3S3': 11.96, 'rot1': 83, 'rot0': 82, 'rot3': 45, 'rot2': 56, 'state': 'normal', 'yaw': -1.53, 'datetime': '2018-10-12 13:27:21.226306', 'mgs': 0, 'depth': 2.225, 'time': 11.61, 'pitch': -1.74, 'roll': -4.7}
{'lipoC2': 7.94, 'temp': 26.81, 'lipoC3S3': 11.9, 'rot1': 83, 'rot0': 82, 'rot3': 45, 'rot2': 56, 'state': 'normal', 'yaw': -1.42, 'datetime': '2018-10-12 13:27:21.234467', 'mgs': 0, 'depth': 1.996, 'time': 11.71, 'pitch': -1.73, 'roll': -4.99}
{'lipoC2': 7.93, 'temp': 26.81, 'lipoC3S3': 11.96, 'rot1': 83, 'rot0': 82, 'rot3': 46, 'rot2': 57, 'state': 'normal', 'yaw': -1.37, 'datetime': '2018-10-12 13:27:21.253863', 'mgs': 0, 'depth': 2.072, 'time': 11.81, 'pitch': -1.72, 'roll': -5.05}
{'lipoC2': 7.94, 'temp': 26.69, 'lipoC3S3': 11.94, 'rot1': 83, 'rot0': 82, 'rot3': 46, 'rot2': 58, 'state': 'normal', 'yaw': -1.36, 'datetime': '2018-10-12 13:27:21.261786', 'mgs': 0, 'depth': 1.92, 'time': 11.91, 'pitch': -1.72, 'roll': -4.9}
{'lipoC2': 7.94, 'temp': 26.69, 'lipoC3S3': 11.92, 'rot1': 83, 'rot0': 82, 'rot3': 47, 'rot2': 58, 'state': 'normal', 'yaw': -1.37, 'datetime': '2018-10-12 13:27:21.281150', 'mgs': 0, 'depth': 1.614, 'time': 12.01, 'pitch': -1.73, 'roll': -4.56}
{'lipoC2': 7.94, 'temp': 26.69, 'lipoC3S3': 11.96, 'rot1': 83, 'rot0': 82, 'rot3': 47, 'rot2': 59, 'state': 'normal', 'yaw': -1.37, 'datetime': '2018-10-12 13:27:21.289014', 'mgs': 0, 'depth': 1.614, 'time': 12.1, 'pitch': -1.75, 'roll': -4.08}
{'lipoC2': 7.94, 'temp': 26.69, 'lipoC3S3': 11.96, 'rot1': 83, 'rot0': 82, 'rot3': 48, 'rot2': 60, 'state': 'normal', 'yaw': -1.36, 'datetime': '2018-10-12 13:27:21.308340', 'mgs': 0, 'depth': 1.538, 'time': 12.2, 'pitch': -1.78, 'roll': -3.58}
{'lipoC2': 7.94, 'temp': 26.69, 'lipoC3S3': 11.97, 'rot1': 83, 'rot0': 82, 'rot3': 48, 'rot2': 60, 'state': 'normal', 'yaw': -1.37, 'datetime': '2018-10-12 13:27:21.316310', 'mgs': 0, 'depth': 1.691, 'time': 12.3, 'pitch': -1.73, 'roll': -3.04}
{'lipoC2': 7.94, 'temp': 26.69, 'lipoC3S3': 11.98, 'rot1': 83, 'rot0': 82, 'rot3': 49, 'rot2': 61, 'state': 'normal', 'yaw': -1.37, 'datetime': '2018-10-12 13:27:21.335700', 'mgs': 0, 'depth': 1.691, 'time': 12.4, 'pitch': -1.64, 'roll': -2.67}
{'lipoC2': 7.94, 'temp': 26.69, 'lipoC3S3': 11.93, 'rot1': 83, 'rot0': 82, 'rot3': 49, 'rot2': 62, 'state': 'normal', 'yaw': -1.38, 'datetime': '2018-10-12 13:27:21.343603', 'mgs': 0, 'depth': 1.385, 'time': 12.49, 'pitch': -1.55, 'roll': -2.48}
{'lipoC2': 7.94, 'temp': 26.69, 'lipoC3S3': 11.93, 'rot1': 83, 'rot0': 82, 'rot3': 50, 'rot2': 62, 'state': 'normal', 'yaw': -1.38, 'datetime': '2018-10-12 13:27:21.362933', 'mgs': 0, 'depth': 1.614, 'time': 12.59, 'pitch': -1.53, 'roll': -2.43}
{'lipoC2': 7.94, 'temp': 26.75, 'lipoC3S3': 11.96, 'rot1': 83, 'rot0': 82, 'rot3': 51, 'rot2': 63, 'state': 'normal', 'yaw': -1.35, 'datetime': '2018-10-12 13:27:21.370843', 'mgs': 0, 'depth': 1.614, 'time': 12.69, 'pitch': -1.51, 'roll': -2.43}
{'lipoC2': 7.94, 'temp': 26.75, 'lipoC3S3': 11.93, 'rot1': 83, 'rot0': 82, 'rot3': 51, 'rot2': 64, 'state': 'normal', 'yaw': -1.27, 'datetime': '2018-10-12 13:27:21.390143', 'mgs': 0, 'depth': 1.462, 'time': 12.79, 'pitch': -1.4, 'roll': -2.43}
{'lipoC2': 7.94, 'temp': 26.69, 'lipoC3S3': 11.97, 'rot1': 83, 'rot0': 82, 'rot3': 52, 'rot2': 65, 'state': 'normal', 'yaw': -1.15, 'datetime': '2018-10-12 13:27:21.398075', 'mgs': 0, 'depth': 1.385, 'time': 12.89, 'pitch': -1.24, 'roll': -2.44}
{'lipoC2': 7.93, 'temp': 26.69, 'lipoC3S3': 11.96, 'rot1': 83, 'rot0': 82, 'rot3': 52, 'rot2': 65, 'state': 'normal', 'yaw': -1.04, 'datetime': '2018-10-12 13:27:21.417151', 'mgs': 0, 'depth': 1.767, 'time': 12.98, 'pitch': -1.08, 'roll': -2.43}
{'lipoC2': 7.94, 'temp': 26.69, 'lipoC3S3': 11.96, 'rot1': 83, 'rot0': 82, 'rot3': 53, 'rot2': 66, 'state': 'normal', 'yaw': -0.96, 'datetime': '2018-10-12 13:27:21.424655', 'mgs': 0, 'depth': 1.691, 'time': 13.08, 'pitch': -0.95, 'roll': -2.47}
{'lipoC2': 7.93, 'temp': 26.69, 'lipoC3S3': 11.97, 'rot1': 83, 'rot0': 82, 'rot3': 53, 'rot2': 67, 'state': 'normal', 'yaw': -0.9, 'datetime': '2018-10-12 13:27:21.443573', 'mgs': 0, 'depth': 1.767, 'time': 13.18, 'pitch': -0.89, 'roll': -2.57}
{'lipoC2': 7.94, 'temp': 26.69, 'lipoC3S3': 11.93, 'rot1': 83, 'rot0': 82, 'rot3': 54, 'rot2': 68, 'state': 'normal', 'yaw': -0.88, 'datetime': '2018-10-12 13:27:21.451080', 'mgs': 0, 'depth': 1.462, 'time': 13.28, 'pitch': -0.89, 'roll': -2.67}
{'lipoC2': 7.94, 'temp': 26.69, 'lipoC3S3': 11.96, 'rot1': 83, 'rot0': 82, 'rot3': 55, 'rot2': 68, 'state': 'normal', 'yaw': -0.88, 'datetime': '2018-10-12 13:27:21.470115', 'mgs': 0, 'depth': 1.538, 'time': 13.38, 'pitch': -0.91, 'roll': -2.74}
{'lipoC2': 7.93, 'temp': 26.69, 'lipoC3S3': 11.96, 'rot1': 83, 'rot0': 82, 'rot3': 55, 'rot2': 69, 'state': 'normal', 'yaw': -0.88, 'datetime': '2018-10-12 13:27:21.477691', 'mgs': 0, 'depth': 1.767, 'time': 13.47, 'pitch': -1.02, 'roll': -2.74}
{'lipoC2': 7.94, 'temp': 26.69, 'lipoC3S3': 11.94, 'rot1': 83, 'rot0': 82, 'rot3': 56, 'rot2': 70, 'state': 'normal', 'yaw': -0.86, 'datetime': '2018-10-12 13:27:21.496644', 'mgs': 0, 'depth': 1.538, 'time': 13.57, 'pitch': -1.16, 'roll': -2.66}
{'lipoC2': 7.93, 'temp': 26.69, 'lipoC3S3': 11.97, 'rot1': 83, 'rot0': 82, 'rot3': 56, 'rot2': 71, 'state': 'normal', 'yaw': -0.86, 'datetime': '2018-10-12 13:27:21.504148', 'mgs': 0, 'depth': 1.309, 'time': 13.67, 'pitch': -1.31, 'roll': -2.43}
{'lipoC2': 7.94, 'temp': 26.69, 'lipoC3S3': 11.96, 'rot1': 83, 'rot0': 82, 'rot3': 57, 'rot2': 71, 'state': 'normal', 'yaw': -0.86, 'datetime': '2018-10-12 13:27:21.523112', 'mgs': 0, 'depth': 1.691, 'time': 13.77, 'pitch': -1.45, 'roll': -2.14}
{'lipoC2': 7.94, 'temp': 26.63, 'lipoC3S3': 11.96, 'rot1': 83, 'rot0': 82, 'rot3': 57, 'rot2': 72, 'state': 'normal', 'yaw': -0.86, 'datetime': '2018-10-12 13:27:21.530616', 'mgs': 0, 'depth': 1.767, 'time': 13.86, 'pitch': -1.56, 'roll': -1.91}
{'lipoC2': 7.94, 'temp': 26.63, 'lipoC3S3': 11.96, 'rot1': 83, 'rot0': 82, 'rot3': 58, 'rot2': 73, 'state': 'normal', 'yaw': -0.85, 'datetime': '2018-10-12 13:27:21.549487', 'mgs': 0, 'depth': 1.843, 'time': 13.96, 'pitch': -1.64, 'roll': -1.8}
{'lipoC2': 7.94, 'temp': 26.69, 'lipoC3S3': 11.97, 'rot1': 83, 'rot0': 82, 'rot3': 58, 'rot2': 73, 'state': 'normal', 'yaw': -0.85, 'datetime': '2018-10-12 13:27:21.556991', 'mgs': 0, 'depth': 1.843, 'time': 14.06, 'pitch': -1.7, 'roll': -1.8}
{'lipoC2': 7.94, 'temp': 26.69, 'lipoC3S3': 11.96, 'rot1': 83, 'rot0': 82, 'rot3': 59, 'rot2': 74, 'state': 'normal', 'yaw': -0.85, 'datetime': '2018-10-12 13:27:21.575945', 'mgs': 0, 'depth': 1.843, 'time': 14.16, 'pitch': -1.7, 'roll': -1.81}
{'lipoC2': 7.94, 'temp': 26.69, 'lipoC3S3': 11.97, 'rot1': 83, 'rot0': 82, 'rot3': 59, 'rot2': 75, 'state': 'normal', 'yaw': -0.85, 'datetime': '2018-10-12 13:27:21.583469', 'mgs': 0, 'depth': 1.691, 'time': 14.26, 'pitch': -1.7, 'roll': -1.81}
{'lipoC2': 7.94, 'temp': 26.69, 'lipoC3S3': 11.96, 'rot1': 83, 'rot0': 82, 'rot3': 60, 'rot2': 75, 'state': 'normal', 'yaw': -0.85, 'datetime': '2018-10-12 13:27:21.602428', 'mgs': 0, 'depth': 1.538, 'time': 14.35, 'pitch': -1.68, 'roll': -1.8}
{'lipoC2': 7.94, 'temp': 26.69, 'lipoC3S3': 11.96, 'rot1': 83, 'rot0': 82, 'rot3': 61, 'rot2': 76, 'state': 'normal', 'yaw': -0.85, 'datetime': '2018-10-12 13:27:21.609903', 'mgs': 0, 'depth': 1.843, 'time': 14.45, 'pitch': -1.56, 'roll': -1.81}
{'lipoC2': 7.94, 'temp': 26.69, 'lipoC3S3': 11.94, 'rot1': 83, 'rot0': 82, 'rot3': 61, 'rot2': 77, 'state': 'normal', 'yaw': -0.86, 'datetime': '2018-10-12 13:27:21.628816', 'mgs': 0, 'depth': 1.767, 'time': 14.55, 'pitch': -1.4, 'roll': -1.8}
{'lipoC2': 7.94, 'temp': 26.69, 'lipoC3S3': 12.0, 'rot1': 83, 'rot0': 82, 'rot3': 61, 'rot2': 77, 'state': 'normal', 'yaw': -0.9, 'datetime': '2018-10-12 13:27:21.636336', 'mgs': 0, 'depth': 1.538, 'time': 14.65, 'pitch': -1.24, 'roll': -1.8}
{'lipoC2': 7.94, 'temp': 26.69, 'lipoC3S3': 11.92, 'rot1': 84, 'rot0': 83, 'rot3': 62, 'rot2': 78, 'state': 'normal', 'yaw': -1.06, 'datetime': '2018-10-12 13:27:21.655245', 'mgs': 0, 'depth': 1.462, 'time': 14.75, 'pitch': -1.13, 'roll': -1.85}
{'lipoC2': 7.95, 'temp': 26.63, 'lipoC3S3': 11.9, 'rot1': 85, 'rot0': 83, 'rot3': 63, 'rot2': 79, 'state': 'normal', 'yaw': -1.87, 'datetime': '2018-10-12 13:27:21.662739', 'mgs': 0, 'depth': 1.538, 'time': 14.85, 'pitch': -1.19, 'roll': -1.81}
{'lipoC2': 7.94, 'temp': 26.63, 'lipoC3S3': 11.93, 'rot1': 86, 'rot0': 84, 'rot3': 63, 'rot2': 79, 'state': 'normal', 'yaw': -3.32, 'datetime': '2018-10-12 13:27:21.681832', 'mgs': 0, 'depth': 1.462, 'time': 14.94, 'pitch': -1.43, 'roll': -1.62}
{'lipoC2': 7.94, 'temp': 26.63, 'lipoC3S3': 11.96, 'rot1': 86, 'rot0': 85, 'rot3': 64, 'rot2': 80, 'state': 'normal', 'yaw': -5.3, 'datetime': '2018-10-12 13:27:21.689274', 'mgs': 0, 'depth': 1.538, 'time': 15.04, 'pitch': -1.76, 'roll': -1.45}
{'lipoC2': 7.94, 'temp': 26.63, 'lipoC3S3': 11.93, 'rot1': 87, 'rot0': 86, 'rot3': 64, 'rot2': 81, 'state': 'normal', 'yaw': -7.74, 'datetime': '2018-10-12 13:27:21.708197', 'mgs': 0, 'depth': 1.843, 'time': 15.14, 'pitch': -2.06, 'roll': -1.38}
{'lipoC2': 7.94, 'temp': 26.63, 'lipoC3S3': 11.88, 'rot1': 88, 'rot0': 87, 'rot3': 65, 'rot2': 82, 'state': 'normal', 'yaw': -10.26, 'datetime': '2018-10-12 13:27:21.715738', 'mgs': 0, 'depth': 2.225, 'time': 15.24, 'pitch': -2.27, 'roll': -1.4}
{'lipoC2': 7.94, 'temp': 26.63, 'lipoC3S3': 11.88, 'rot1': 89, 'rot0': 87, 'rot3': 65, 'rot2': 82, 'state': 'normal', 'yaw': -13.44, 'datetime': '2018-10-12 13:27:21.780997', 'mgs': 0, 'depth': 1.767, 'time': 15.34, 'pitch': -2.38, 'roll': -1.46}
{'lipoC2': 7.93, 'temp': 26.63, 'lipoC3S3': 11.94, 'rot1': 90, 'rot0': 88, 'rot3': 66, 'rot2': 83, 'state': 'normal', 'yaw': -16.95, 'datetime': '2018-10-12 13:27:21.878645', 'mgs': 0, 'depth': 1.767, 'time': 15.43, 'pitch': -2.43, 'roll': -1.5}
{'lipoC2': 7.94, 'temp': 26.63, 'lipoC3S3': 11.89, 'rot1': 90, 'rot0': 89, 'rot3': 66, 'rot2': 84, 'state': 'normal', 'yaw': -20.7, 'datetime': '2018-10-12 13:27:21.976081', 'mgs': 0, 'depth': 1.767, 'time': 15.53, 'pitch': -2.37, 'roll': -1.48}
{'lipoC2': 7.94, 'temp': 26.63, 'lipoC3S3': 11.9, 'rot1': 91, 'rot0': 90, 'rot3': 67, 'rot2': 84, 'state': 'normal', 'yaw': -24.65, 'datetime': '2018-10-12 13:27:22.073578', 'mgs': 0, 'depth': 1.538, 'time': 15.63, 'pitch': -2.29, 'roll': -1.4}
{'lipoC2': 7.94, 'temp': 26.63, 'lipoC3S3': 11.89, 'rot1': 92, 'rot0': 91, 'rot3': 68, 'rot2': 85, 'state': 'normal', 'yaw': -28.39, 'datetime': '2018-10-12 13:27:22.171019', 'mgs': 0, 'depth': 1.538, 'time': 15.73, 'pitch': -2.25, 'roll': -1.28}
{'lipoC2': 7.93, 'temp': 26.63, 'lipoC3S3': 11.94, 'rot1': 93, 'rot0': 92, 'rot3': 68, 'rot2': 86, 'state': 'normal', 'yaw': -32.71, 'datetime': '2018-10-12 13:27:22.268416', 'mgs': 0, 'depth': 1.843, 'time': 15.82, 'pitch': -2.19, 'roll': -1.22}
{'lipoC2': 7.94, 'temp': 26.63, 'lipoC3S3': 11.93, 'rot1': 94, 'rot0': 92, 'rot3': 69, 'rot2': 86, 'state': 'normal', 'yaw': -37.17, 'datetime': '2018-10-12 13:27:22.365861', 'mgs': 0, 'depth': 1.767, 'time': 15.92, 'pitch': -2.09, 'roll': -1.21}
{'lipoC2': 7.94, 'temp': 26.63, 'lipoC3S3': 11.88, 'rot1': 95, 'rot0': 93, 'rot3': 69, 'rot2': 87, 'state': 'normal', 'yaw': -41.31, 'datetime': '2018-10-12 13:27:22.463419', 'mgs': 0, 'depth': 1.462, 'time': 16.02, 'pitch': -1.96, 'roll': -1.22}
{'lipoC2': 7.95, 'temp': 26.63, 'lipoC3S3': 11.9, 'rot1': 95, 'rot0': 94, 'rot3': 70, 'rot2': 88, 'state': 'normal', 'yaw': -46.01, 'datetime': '2018-10-12 13:27:22.561487', 'mgs': 0, 'depth': 1.462, 'time': 16.12, 'pitch': -1.83, 'roll': -1.22}
{'lipoC2': 7.94, 'temp': 26.63, 'lipoC3S3': 11.9, 'rot1': 96, 'rot0': 95, 'rot3': 70, 'rot2': 88, 'state': 'normal', 'yaw': -50.84, 'datetime': '2018-10-12 13:27:22.658755', 'mgs': 0, 'depth': 1.538, 'time': 16.22, 'pitch': -1.72, 'roll': -1.21}
{'lipoC2': 7.94, 'temp': 26.63, 'lipoC3S3': 11.93, 'rot1': 97, 'rot0': 96, 'rot3': 71, 'rot2': 89, 'state': 'normal', 'yaw': -55.76, 'datetime': '2018-10-12 13:27:22.759495', 'mgs': 0, 'depth': 1.767, 'time': 16.31, 'pitch': -1.65, 'roll': -1.13}
{'lipoC2': 7.94, 'temp': 26.63, 'lipoC3S3': 11.89, 'rot1': 98, 'rot0': 96, 'rot3': 71, 'rot2': 90, 'state': 'normal', 'yaw': -60.25, 'datetime': '2018-10-12 13:27:22.858430', 'mgs': 0, 'depth': 2.301, 'time': 16.41, 'pitch': -1.57, 'roll': -1.03}
{'lipoC2': 7.94, 'temp': 26.63, 'lipoC3S3': 11.89, 'rot1': 99, 'rot0': 97, 'rot3': 72, 'rot2': 91, 'state': 'normal', 'yaw': -65.27, 'datetime': '2018-10-12 13:27:22.955857', 'mgs': 0, 'depth': 1.538, 'time': 16.51, 'pitch': -1.46, 'roll': -0.91}
{'lipoC2': 7.94, 'temp': 26.63, 'lipoC3S3': 11.89, 'rot1': 100, 'rot0': 98, 'rot3': 73, 'rot2': 91, 'state': 'normal', 'yaw': -70.37, 'datetime': '2018-10-12 13:27:23.053444', 'mgs': 0, 'depth': 1.462, 'time': 16.6, 'pitch': -1.36, 'roll': -0.87}
{'lipoC2': 7.94, 'temp': 26.63, 'lipoC3S3': 11.94, 'rot1': 101, 'rot0': 99, 'rot3': 73, 'rot2': 92, 'state': 'normal', 'yaw': -75.52, 'datetime': '2018-10-12 13:27:23.150975', 'mgs': 0, 'depth': 1.538, 'time': 16.7, 'pitch': -1.22, 'roll': -0.89}
{'lipoC2': 7.94, 'temp': 26.63, 'lipoC3S3': 11.88, 'rot1': 101, 'rot0': 100, 'rot3': 74, 'rot2': 93, 'state': 'normal', 'yaw': -80.16, 'datetime': '2018-10-12 13:27:23.249998', 'mgs': 0, 'depth': 1.996, 'time': 16.8, 'pitch': -1.09, 'roll': -0.92}
{'lipoC2': 7.94, 'temp': 26.63, 'lipoC3S3': 11.93, 'rot1': 102, 'rot0': 101, 'rot3': 74, 'rot2': 93, 'state': 'normal', 'yaw': -85.39, 'datetime': '2018-10-12 13:27:23.348990', 'mgs': 0, 'depth': 1.767, 'time': 16.9, 'pitch': -1.0, 'roll': -0.99}
{'lipoC2': 7.94, 'temp': 26.63, 'lipoC3S3': 11.88, 'rot1': 103, 'rot0': 102, 'rot3': 75, 'rot2': 94, 'state': 'normal', 'yaw': -90.72, 'datetime': '2018-10-12 13:27:23.455858', 'mgs': 0, 'depth': 2.225, 'time': 17.0, 'pitch': -0.94, 'roll': -1.09}
{'lipoC2': 7.93, 'temp': 26.63, 'lipoC3S3': 11.89, 'rot1': 104, 'rot0': 102, 'rot3': 76, 'rot2': 95, 'state': 'normal', 'yaw': -96.17, 'datetime': '2018-10-12 13:27:23.539971', 'mgs': 0, 'depth': 2.148, 'time': 17.1, 'pitch': -0.91, 'roll': -1.19}
{'lipoC2': 7.94, 'temp': 26.63, 'lipoC3S3': 11.88, 'rot1': 105, 'rot0': 103, 'rot3': 76, 'rot2': 96, 'state': 'normal', 'yaw': -101.69, 'datetime': '2018-10-12 13:27:23.645740', 'mgs': 0, 'depth': 1.996, 'time': 17.19, 'pitch': -0.88, 'roll': -1.25}
{'lipoC2': 7.94, 'temp': 26.63, 'lipoC3S3': 11.89, 'rot1': 106, 'rot0': 104, 'rot3': 77, 'rot2': 96, 'state': 'normal', 'yaw': -106.7, 'datetime': '2018-10-12 13:27:23.736211', 'mgs': 0, 'depth': 1.462, 'time': 17.29, 'pitch': -0.87, 'roll': -1.25}
{'lipoC2': 7.94, 'temp': 26.63, 'lipoC3S3': 11.94, 'rot1': 106, 'rot0': 105, 'rot3': 78, 'rot2': 97, 'state': 'normal', 'yaw': -112.27, 'datetime': '2018-10-12 13:27:23.834682', 'mgs': 0, 'depth': 1.767, 'time': 17.39, 'pitch': -0.91, 'roll': -1.2}
{'lipoC2': 7.94, 'temp': 26.56, 'lipoC3S3': 11.89, 'rot1': 107, 'rot0': 106, 'rot3': 78, 'rot2': 98, 'state': 'normal', 'yaw': -117.89, 'datetime': '2018-10-12 13:27:23.935143', 'mgs': 0, 'depth': 1.538, 'time': 17.49, 'pitch': -1.01, 'roll': -1.13}
{'lipoC2': 7.95, 'temp': 26.56, 'lipoC3S3': 11.89, 'rot1': 108, 'rot0': 107, 'rot3': 79, 'rot2': 99, 'state': 'normal', 'yaw': -123.54, 'datetime': '2018-10-12 13:27:24.033221', 'mgs': 0, 'depth': 1.538, 'time': 17.59, 'pitch': -1.14, 'roll': -1.04}
{'lipoC2': 7.94, 'temp': 26.56, 'lipoC3S3': 11.89, 'rot1': 109, 'rot0': 107, 'rot3': 79, 'rot2': 99, 'state': 'normal', 'yaw': -129.24, 'datetime': '2018-10-12 13:27:24.129074', 'mgs': 0, 'depth': 1.691, 'time': 17.69, 'pitch': -1.29, 'roll': -0.98}
{'lipoC2': 7.94, 'temp': 26.63, 'lipoC3S3': 11.93, 'rot1': 110, 'rot0': 108, 'rot3': 80, 'rot2': 100, 'state': 'normal', 'yaw': -134.98, 'datetime': '2018-10-12 13:27:24.242281', 'mgs': 0, 'depth': 1.385, 'time': 17.78, 'pitch': -1.45, 'roll': -1.02}
{'lipoC2': 7.94, 'temp': 26.63, 'lipoC3S3': 11.93, 'rot1': 111, 'rot0': 109, 'rot3': 80, 'rot2': 101, 'state': 'normal', 'yaw': -140.18, 'datetime': '2018-10-12 13:27:24.324760', 'mgs': 0, 'depth': 1.767, 'time': 17.88, 'pitch': -1.57, 'roll': -1.15}
{'lipoC2': 7.93, 'temp': 26.63, 'lipoC3S3': 11.93, 'rot1': 111, 'rot0': 110, 'rot3': 81, 'rot2': 101, 'state': 'normal', 'yaw': -145.95, 'datetime': '2018-10-12 13:27:24.422551', 'mgs': 0, 'depth': 1.462, 'time': 17.98, 'pitch': -1.63, 'roll': -1.37}
{'lipoC2': 7.93, 'temp': 26.63, 'lipoC3S3': 11.88, 'rot1': 112, 'rot0': 111, 'rot3': 81, 'rot2': 102, 'state': 'normal', 'yaw': -151.69, 'datetime': '2018-10-12 13:27:24.520400', 'mgs': 0, 'depth': 1.538, 'time': 18.08, 'pitch': -1.58, 'roll': -1.58}
{'lipoC2': 7.94, 'temp': 26.63, 'lipoC3S3': 11.89, 'rot1': 113, 'rot0': 112, 'rot3': 82, 'rot2': 103, 'state': 'normal', 'yaw': -157.37, 'datetime': '2018-10-12 13:27:24.618160', 'mgs': 0, 'depth': 1.538, 'time': 18.18, 'pitch': -1.48, 'roll': -1.78}
{'lipoC2': 7.94, 'temp': 26.63, 'lipoC3S3': 11.89, 'rot1': 114, 'rot0': 112, 'rot3': 83, 'rot2': 103, 'state': 'normal', 'yaw': -162.48, 'datetime': '2018-10-12 13:27:24.715950', 'mgs': 0, 'depth': 1.92, 'time': 18.27, 'pitch': -1.37, 'roll': -1.92}
{'lipoC2': 7.94, 'temp': 26.63, 'lipoC3S3': 11.93, 'rot1': 115, 'rot0': 113, 'rot3': 83, 'rot2': 104, 'state': 'normal', 'yaw': -168.17, 'datetime': '2018-10-12 13:27:24.813761', 'mgs': 0, 'depth': 1.538, 'time': 18.37, 'pitch': -1.32, 'roll': -2.01}
{'lipoC2': 7.94, 'temp': 26.63, 'lipoC3S3': 11.93, 'rot1': 116, 'rot0': 114, 'rot3': 84, 'rot2': 105, 'state': 'normal', 'yaw': -173.89, 'datetime': '2018-10-12 13:27:24.911558', 'mgs': 0, 'depth': 1.767, 'time': 18.47, 'pitch': -1.33, 'roll': -2.04}
{'lipoC2': 7.94, 'temp': 26.63, 'lipoC3S3': 11.93, 'rot1': 116, 'rot0': 115, 'rot3': 84, 'rot2': 105, 'state': 'normal', 'yaw': -179.67, 'datetime': '2018-10-12 13:27:25.014900', 'mgs': 0, 'depth': 1.08, 'time': 18.57, 'pitch': -1.42, 'roll': -2.05}
{'lipoC2': 7.94, 'temp': 26.56, 'lipoC3S3': 11.89, 'rot1': 117, 'rot0': 116, 'rot3': 85, 'rot2': 106, 'state': 'normal', 'yaw': 175.1, 'datetime': '2018-10-12 13:27:25.112820', 'mgs': 0, 'depth': 1.538, 'time': 18.67, 'pitch': -1.52, 'roll': -2.1}
{'lipoC2': 7.93, 'temp': 26.56, 'lipoC3S3': 11.88, 'rot1': 118, 'rot0': 116, 'rot3': 85, 'rot2': 107, 'state': 'normal', 'yaw': 169.25, 'datetime': '2018-10-12 13:27:25.210484', 'mgs': 0, 'depth': 1.538, 'time': 18.76, 'pitch': -1.62, 'roll': -2.27}
{'lipoC2': 7.94, 'temp': 26.56, 'lipoC3S3': 11.88, 'rot1': 119, 'rot0': 117, 'rot3': 86, 'rot2': 107, 'state': 'normal', 'yaw': 163.38, 'datetime': '2018-10-12 13:27:25.308173', 'mgs': 0, 'depth': 1.92, 'time': 18.86, 'pitch': -1.64, 'roll': -2.51}
{'lipoC2': 7.94, 'temp': 26.56, 'lipoC3S3': 11.88, 'rot1': 120, 'rot0': 118, 'rot3': 87, 'rot2': 108, 'state': 'normal', 'yaw': 157.48, 'datetime': '2018-10-12 13:27:25.406097', 'mgs': 0, 'depth': 2.225, 'time': 18.96, 'pitch': -1.64, 'roll': -2.72}
{'lipoC2': 7.94, 'temp': 26.56, 'lipoC3S3': 11.89, 'rot1': 121, 'rot0': 119, 'rot3': 87, 'rot2': 109, 'state': 'normal', 'yaw': 152.12, 'datetime': '2018-10-12 13:27:25.504394', 'mgs': 0, 'depth': 1.843, 'time': 19.06, 'pitch': -1.63, 'roll': -2.82}
{'lipoC2': 7.94, 'temp': 26.63, 'lipoC3S3': 11.87, 'rot1': 121, 'rot0': 120, 'rot3': 88, 'rot2': 110, 'state': 'normal', 'yaw': 146.11, 'datetime': '2018-10-12 13:27:25.603652', 'mgs': 0, 'depth': 1.385, 'time': 19.16, 'pitch': -1.63, 'roll': -2.78}
{'lipoC2': 7.94, 'temp': 26.63, 'lipoC3S3': 11.93, 'rot1': 122, 'rot0': 121, 'rot3': 88, 'rot2': 110, 'state': 'normal', 'yaw': 140.06, 'datetime': '2018-10-12 13:27:25.702764', 'mgs': 0, 'depth': 2.454, 'time': 19.26, 'pitch': -1.65, 'roll': -2.64}
{'lipoC2': 7.94, 'temp': 26.63, 'lipoC3S3': 11.93, 'rot1': 123, 'rot0': 122, 'rot3': 89, 'rot2': 111, 'state': 'normal', 'yaw': 134.04, 'datetime': '2018-10-12 13:27:25.801572', 'mgs': 0, 'depth': 1.767, 'time': 19.35, 'pitch': -1.63, 'roll': -2.48}
{'lipoC2': 7.94, 'temp': 26.63, 'lipoC3S3': 11.93, 'rot1': 124, 'rot0': 122, 'rot3': 89, 'rot2': 112, 'state': 'normal', 'yaw': 128.05, 'datetime': '2018-10-12 13:27:25.899170', 'mgs': 0, 'depth': 1.767, 'time': 19.45, 'pitch': -1.66, 'roll': -2.37}
{'lipoC2': 7.94, 'temp': 26.63, 'lipoC3S3': 11.98, 'rot1': 124, 'rot0': 123, 'rot3': 90, 'rot2': 112, 'state': 'normal', 'yaw': 122.09, 'datetime': '2018-10-12 13:27:25.996921', 'mgs': 0, 'depth': 1.462, 'time': 19.55, 'pitch': -1.69, 'roll': -2.32}
{'lipoC2': 7.93, 'temp': 26.63, 'lipoC3S3': 11.98, 'rot1': 124, 'rot0': 123, 'rot3': 90, 'rot2': 112, 'state': 'normal', 'yaw': 117.14, 'datetime': '2018-10-12 13:27:26.095398', 'mgs': 0, 'depth': 1.538, 'time': 19.65, 'pitch': -1.55, 'roll': -2.45}
{'lipoC2': 7.93, 'temp': 26.63, 'lipoC3S3': 11.93, 'rot1': 124, 'rot0': 123, 'rot3': 90, 'rot2': 112, 'state': 'normal', 'yaw': 112.09, 'datetime': '2018-10-12 13:27:26.193969', 'mgs': 0, 'depth': 1.996, 'time': 19.75, 'pitch': -1.29, 'roll': -2.74}
{'lipoC2': 7.94, 'temp': 26.63, 'lipoC3S3': 11.89, 'rot1': 125, 'rot0': 123, 'rot3': 91, 'rot2': 113, 'state': 'normal', 'yaw': 107.44, 'datetime': '2018-10-12 13:27:26.293086', 'mgs': 0, 'depth': 1.538, 'time': 19.85, 'pitch': -0.93, 'roll': -3.3}
{'lipoC2': 7.94, 'temp': 26.69, 'lipoC3S3': 11.92, 'rot1': 126, 'rot0': 124, 'rot3': 91, 'rot2': 113, 'state': 'normal', 'yaw': 103.39, 'datetime': '2018-10-12 13:27:26.391009', 'mgs': 0, 'depth': 1.767, 'time': 19.94, 'pitch': -0.54, 'roll': -3.61}
{'lipoC2': 7.94, 'temp': 26.69, 'lipoC3S3': 11.92, 'rot1': 127, 'rot0': 124, 'rot3': 92, 'rot2': 114, 'state': 'normal', 'yaw': 100.09, 'datetime': '2018-10-12 13:27:26.488659', 'mgs': 0, 'depth': 1.843, 'time': 20.04, 'pitch': -0.12, 'roll': -3.55}
{'lipoC2': 7.94, 'temp': 26.63, 'lipoC3S3': 11.92, 'rot1': 128, 'rot0': 125, 'rot3': 92, 'rot2': 115, 'state': 'normal', 'yaw': 97.45, 'datetime': '2018-10-12 13:27:26.586290', 'mgs': 0, 'depth': 1.996, 'time': 20.14, 'pitch': 0.19, 'roll': -3.32}
{'lipoC2': 7.94, 'temp': 26.63, 'lipoC3S3': 11.89, 'rot1': 129, 'rot0': 126, 'rot3': 93, 'rot2': 115, 'state': 'normal', 'yaw': 95.59, 'datetime': '2018-10-12 13:27:26.684107', 'mgs': 0, 'depth': 1.767, 'time': 20.24, 'pitch': 0.33, 'roll': -3.13}
{'lipoC2': 7.94, 'temp': 26.63, 'lipoC3S3': 11.85, 'rot1': 130, 'rot0': 126, 'rot3': 95, 'rot2': 116, 'state': 'normal', 'yaw': 93.99, 'datetime': '2018-10-12 13:27:26.781999', 'mgs': 0, 'depth': 1.767, 'time': 20.34, 'pitch': 0.38, 'roll': -2.94}
{'lipoC2': 7.94, 'temp': 26.63, 'lipoC3S3': 11.84, 'rot1': 131, 'rot0': 127, 'rot3': 95, 'rot2': 116, 'state': 'normal', 'yaw': 92.84, 'datetime': '2018-10-12 13:27:26.876972', 'mgs': 0, 'depth': 1.767, 'time': 20.43, 'pitch': 0.34, 'roll': -2.72}
{'lipoC2': 7.94, 'temp': 26.63, 'lipoC3S3': 11.84, 'rot1': 132, 'rot0': 127, 'rot3': 96, 'rot2': 117, 'state': 'normal', 'yaw': 92.12, 'datetime': '2018-10-12 13:27:26.977181', 'mgs': 0, 'depth': 1.843, 'time': 20.53, 'pitch': 0.28, 'roll': -2.44}
{'lipoC2': 7.94, 'temp': 26.63, 'lipoC3S3': 11.81, 'rot1': 133, 'rot0': 128, 'rot3': 96, 'rot2': 118, 'state': 'normal', 'yaw': 91.78, 'datetime': '2018-10-12 13:27:27.074906', 'mgs': 0, 'depth': 1.843, 'time': 20.63, 'pitch': 0.24, 'roll': -2.07}
