{'lipoC2': 7.9, 'temp': 24.38, 'lipoC3S3': 11.93, 'rot1': 0, 'rot0': 0, 'rot3': 0, 'rot2': 0, 'state': 'normal', 'yaw': 0.0, 'datetime': '2018-10-12 13:37:12.548649', 'mgs': 0, 'depth': 1.767, 'time': 1.26, 'pitch': -0.14, 'roll': -3.96}
{'lipoC2': 7.9, 'temp': 24.38, 'lipoC3S3': 11.93, 'rot1': 0, 'rot0': 0, 'rot3': 0, 'rot2': 0, 'state': 'normal', 'yaw': 0.17, 'datetime': '2018-10-12 13:37:12.565268', 'mgs': 0, 'depth': 1.691, 'time': 1.36, 'pitch': -0.54, 'roll': -4.14}
{'lipoC2': 7.9, 'temp': 24.38, 'lipoC3S3': 11.93, 'rot1': 0, 'rot0': 0, 'rot3': 0, 'rot2': 0, 'state': 'normal', 'yaw': 0.24, 'datetime': '2018-10-12 13:37:12.581919', 'mgs': 0, 'depth': 1.767, 'time': 1.45, 'pitch': -1.21, 'roll': -3.99}
{'lipoC2': 7.9, 'temp': 24.44, 'lipoC3S3': 11.93, 'rot1': 0, 'rot0': 0, 'rot3': 0, 'rot2': 0, 'state': 'normal', 'yaw': 0.33, 'datetime': '2018-10-12 13:37:12.598493', 'mgs': 0, 'depth': 1.767, 'time': 1.55, 'pitch': -2.0, 'roll': -3.68}
{'lipoC2': 7.9, 'temp': 24.44, 'lipoC3S3': 11.93, 'rot1': 0, 'rot0': 0, 'rot3': 0, 'rot2': 0, 'state': 'normal', 'yaw': 0.39, 'datetime': '2018-10-12 13:37:12.617551', 'mgs': 0, 'depth': 1.767, 'time': 1.65, 'pitch': -2.75, 'roll': -3.5}
{'lipoC2': 7.9, 'temp': 24.38, 'lipoC3S3': 11.92, 'rot1': 0, 'rot0': 0, 'rot3': 0, 'rot2': 0, 'state': 'normal', 'yaw': 0.56, 'datetime': '2018-10-12 13:37:12.635335', 'mgs': 0, 'depth': 1.767, 'time': 1.75, 'pitch': -3.46, 'roll': -3.82}
{'lipoC2': 7.9, 'temp': 24.38, 'lipoC3S3': 11.92, 'rot1': 0, 'rot0': 0, 'rot3': 0, 'rot2': 0, 'state': 'normal', 'yaw': 0.87, 'datetime': '2018-10-12 13:37:12.652426', 'mgs': 0, 'depth': 1.767, 'time': 1.84, 'pitch': -3.91, 'roll': -4.19}
{'lipoC2': 7.9, 'temp': 24.44, 'lipoC3S3': 11.92, 'rot1': 0, 'rot0': 0, 'rot3': 0, 'rot2': 0, 'state': 'normal', 'yaw': 1.15, 'datetime': '2018-10-12 13:37:12.659690', 'mgs': 0, 'depth': 1.767, 'time': 1.94, 'pitch': -4.27, 'roll': -4.47}
{'lipoC2': 7.9, 'temp': 24.44, 'lipoC3S3': 11.93, 'rot1': 0, 'rot0': 0, 'rot3': 0, 'rot2': 0, 'state': 'normal', 'yaw': 1.39, 'datetime': '2018-10-12 13:37:12.666980', 'mgs': 0, 'depth': 1.767, 'time': 2.04, 'pitch': -4.45, 'roll': -4.51}
{'lipoC2': 7.9, 'temp': 24.44, 'lipoC3S3': 11.93, 'rot1': 0, 'rot0': 0, 'rot3': 0, 'rot2': 0, 'state': 'normal', 'yaw': 1.53, 'datetime': '2018-10-12 13:37:12.674562', 'mgs': 0, 'depth': 1.843, 'time': 2.14, 'pitch': -4.49, 'roll': -4.42}
{'lipoC2': 7.9, 'temp': 24.44, 'lipoC3S3': 11.92, 'rot1': 0, 'rot0': 0, 'rot3': 0, 'rot2': 0, 'state': 'normal', 'yaw': 1.61, 'datetime': '2018-10-12 13:37:12.718493', 'mgs': 0, 'depth': 1.92, 'time': 2.23, 'pitch': -4.43, 'roll': -4.46}
{'lipoC2': 7.88, 'temp': 24.44, 'lipoC3S3': 11.92, 'rot1': 0, 'rot0': 0, 'rot3': 0, 'rot2': 0, 'state': 'normal', 'yaw': 1.61, 'datetime': '2018-10-12 13:37:12.815514', 'mgs': 0, 'depth': 1.92, 'time': 2.33, 'pitch': -4.19, 'roll': -4.61}
{'lipoC2': 7.88, 'temp': 24.38, 'lipoC3S3': 11.92, 'rot1': 0, 'rot0': 0, 'rot3': 0, 'rot2': 0, 'state': 'normal', 'yaw': 1.62, 'datetime': '2018-10-12 13:37:12.912562', 'mgs': 0, 'depth': 1.843, 'time': 2.43, 'pitch': -3.79, 'roll': -5.0}
{'lipoC2': 7.9, 'temp': 24.38, 'lipoC3S3': 11.92, 'rot1': 0, 'rot0': 0, 'rot3': 0, 'rot2': 0, 'state': 'normal', 'yaw': 1.79, 'datetime': '2018-10-12 13:37:13.009574', 'mgs': 0, 'depth': 1.92, 'time': 2.53, 'pitch': -3.26, 'roll': -5.61}
{'lipoC2': 7.9, 'temp': 24.38, 'lipoC3S3': 11.92, 'rot1': 0, 'rot0': 0, 'rot3': 0, 'rot2': 0, 'state': 'normal', 'yaw': 2.15, 'datetime': '2018-10-12 13:37:13.106617', 'mgs': 0, 'depth': 1.843, 'time': 2.62, 'pitch': -2.51, 'roll': -6.14}
{'lipoC2': 7.9, 'temp': 24.44, 'lipoC3S3': 11.93, 'rot1': 0, 'rot0': 0, 'rot3': 0, 'rot2': 0, 'state': 'normal', 'yaw': 2.42, 'datetime': '2018-10-12 13:37:13.203658', 'mgs': 0, 'depth': 1.92, 'time': 2.72, 'pitch': -1.8, 'roll': -6.27}
{'lipoC2': 7.9, 'temp': 24.44, 'lipoC3S3': 11.93, 'rot1': 0, 'rot0': 0, 'rot3': 0, 'rot2': 0, 'state': 'normal', 'yaw': 2.47, 'datetime': '2018-10-12 13:37:13.301501', 'mgs': 0, 'depth': 1.843, 'time': 2.82, 'pitch': -1.42, 'roll': -6.42}
{'lipoC2': 7.9, 'temp': 24.44, 'lipoC3S3': 11.93, 'rot1': 0, 'rot0': 0, 'rot3': 0, 'rot2': 0, 'state': 'normal', 'yaw': 2.38, 'datetime': '2018-10-12 13:37:13.404870', 'mgs': 0, 'depth': 1.92, 'time': 2.92, 'pitch': -1.34, 'roll': -6.85}
{'lipoC2': 7.9, 'temp': 24.44, 'lipoC3S3': 11.92, 'rot1': 0, 'rot0': 0, 'rot3': 0, 'rot2': 0, 'state': 'normal', 'yaw': 2.34, 'datetime': '2018-10-12 13:37:13.502031', 'mgs': 0, 'depth': 1.767, 'time': 3.01, 'pitch': -1.49, 'roll': -7.46}
{'lipoC2': 7.9, 'temp': 24.44, 'lipoC3S3': 11.92, 'rot1': 0, 'rot0': 0, 'rot3': 0, 'rot2': 0, 'state': 'normal', 'yaw': 2.38, 'datetime': '2018-10-12 13:37:13.598953', 'mgs': 0, 'depth': 1.843, 'time': 3.11, 'pitch': -1.7, 'roll': -8.37}
{'lipoC2': 7.9, 'temp': 24.44, 'lipoC3S3': 11.92, 'rot1': 0, 'rot0': 0, 'rot3': 0, 'rot2': 0, 'state': 'normal', 'yaw': 2.42, 'datetime': '2018-10-12 13:37:13.697002', 'mgs': 0, 'depth': 1.843, 'time': 3.21, 'pitch': -1.95, 'roll': -8.62}
{'lipoC2': 7.9, 'temp': 24.44, 'lipoC3S3': 11.93, 'rot1': 0, 'rot0': 0, 'rot3': 0, 'rot2': 0, 'state': 'normal', 'yaw': 2.59, 'datetime': '2018-10-12 13:37:13.795184', 'mgs': 0, 'depth': 1.92, 'time': 3.31, 'pitch': -2.27, 'roll': -8.02}
{'lipoC2': 7.9, 'temp': 24.44, 'lipoC3S3': 11.93, 'rot1': 0, 'rot0': 0, 'rot3': 0, 'rot2': 0, 'state': 'normal', 'yaw': 2.88, 'datetime': '2018-10-12 13:37:13.892202', 'mgs': 0, 'depth': 1.843, 'time': 3.4, 'pitch': -2.52, 'roll': -7.22}
{'lipoC2': 7.9, 'temp': 24.44, 'lipoC3S3': 11.92, 'rot1': 0, 'rot0': 0, 'rot3': 0, 'rot2': 0, 'state': 'normal', 'yaw': 3.11, 'datetime': '2018-10-12 13:37:13.989265', 'mgs': 0, 'depth': 1.843, 'time': 3.5, 'pitch': -2.78, 'roll': -7.13}
{'lipoC2': 7.9, 'temp': 24.44, 'lipoC3S3': 11.92, 'rot1': 0, 'rot0': 0, 'rot3': 0, 'rot2': 0, 'state': 'normal', 'yaw': 3.24, 'datetime': '2018-10-12 13:37:14.086915', 'mgs': 0, 'depth': 1.92, 'time': 3.6, 'pitch': -3.0, 'roll': -7.64}
{'lipoC2': 7.9, 'temp': 24.44, 'lipoC3S3': 11.92, 'rot1': 0, 'rot0': 0, 'rot3': 0, 'rot2': 0, 'state': 'normal', 'yaw': 3.26, 'datetime': '2018-10-12 13:37:14.183960', 'mgs': 0, 'depth': 1.92, 'time': 3.7, 'pitch': -3.13, 'roll': -8.23}
{'lipoC2': 7.9, 'temp': 24.44, 'lipoC3S3': 11.93, 'rot1': 0, 'rot0': 0, 'rot3': 0, 'rot2': 0, 'state': 'normal', 'yaw': 3.25, 'datetime': '2018-10-12 13:37:14.280990', 'mgs': 0, 'depth': 1.92, 'time': 3.79, 'pitch': -3.06, 'roll': -8.28}
{'lipoC2': 7.9, 'temp': 24.44, 'lipoC3S3': 11.92, 'rot1': 0, 'rot0': 0, 'rot3': 0, 'rot2': 0, 'state': 'normal', 'yaw': 3.27, 'datetime': '2018-10-12 13:37:14.378219', 'mgs': 0, 'depth': 1.843, 'time': 3.89, 'pitch': -2.87, 'roll': -8.06}
{'lipoC2': 7.9, 'temp': 24.44, 'lipoC3S3': 11.93, 'rot1': 0, 'rot0': 0, 'rot3': 0, 'rot2': 0, 'state': 'normal', 'yaw': 3.4, 'datetime': '2018-10-12 13:37:14.475281', 'mgs': 0, 'depth': 1.843, 'time': 3.99, 'pitch': -2.64, 'roll': -7.99}
{'lipoC2': 7.9, 'temp': 24.44, 'lipoC3S3': 11.92, 'rot1': 0, 'rot0': 0, 'rot3': 0, 'rot2': 0, 'state': 'normal', 'yaw': 3.51, 'datetime': '2018-10-12 13:37:14.572288', 'mgs': 0, 'depth': 1.92, 'time': 4.09, 'pitch': -2.5, 'roll': -8.16}
{'lipoC2': 7.9, 'temp': 24.44, 'lipoC3S3': 11.92, 'rot1': 0, 'rot0': 0, 'rot3': 0, 'rot2': 0, 'state': 'normal', 'yaw': 3.48, 'datetime': '2018-10-12 13:37:14.669382', 'mgs': 0, 'depth': 1.92, 'time': 4.18, 'pitch': -2.47, 'roll': -8.09}
{'lipoC2': 7.9, 'temp': 24.44, 'lipoC3S3': 11.92, 'rot1': 0, 'rot0': 0, 'rot3': 0, 'rot2': 0, 'state': 'normal', 'yaw': 3.35, 'datetime': '2018-10-12 13:37:14.766398', 'mgs': 0, 'depth': 1.843, 'time': 4.28, 'pitch': -2.5, 'roll': -7.8}
{'lipoC2': 7.9, 'temp': 24.44, 'lipoC3S3': 11.93, 'rot1': 0, 'rot0': 0, 'rot3': 0, 'rot2': 0, 'state': 'normal', 'yaw': 3.22, 'datetime': '2018-10-12 13:37:14.862652', 'mgs': 0, 'depth': 1.843, 'time': 4.38, 'pitch': -2.47, 'roll': -7.5}
{'lipoC2': 7.9, 'temp': 24.44, 'lipoC3S3': 11.92, 'rot1': 0, 'rot0': 0, 'rot3': 0, 'rot2': 0, 'state': 'normal', 'yaw': 3.29, 'datetime': '2018-10-12 13:37:14.960615', 'mgs': 0, 'depth': 1.843, 'time': 4.47, 'pitch': -2.24, 'roll': -7.47}
{'lipoC2': 7.9, 'temp': 24.44, 'lipoC3S3': 11.93, 'rot1': 0, 'rot0': 0, 'rot3': 0, 'rot2': 0, 'state': 'normal', 'yaw': 3.43, 'datetime': '2018-10-12 13:37:15.059010', 'mgs': 0, 'depth': 1.843, 'time': 4.57, 'pitch': -1.95, 'roll': -7.42}
{'lipoC2': 7.9, 'temp': 24.44, 'lipoC3S3': 11.92, 'rot1': 0, 'rot0': 0, 'rot3': 0, 'rot2': 0, 'state': 'normal', 'yaw': 3.53, 'datetime': '2018-10-12 13:37:15.157651', 'mgs': 0, 'depth': 1.767, 'time': 4.67, 'pitch': -1.74, 'roll': -7.43}
{'lipoC2': 7.9, 'temp': 24.44, 'lipoC3S3': 11.92, 'rot1': 0, 'rot0': 0, 'rot3': 0, 'rot2': 0, 'state': 'normal', 'yaw': 3.48, 'datetime': '2018-10-12 13:37:15.254677', 'mgs': 0, 'depth': 1.767, 'time': 4.77, 'pitch': -1.76, 'roll': -7.39}
{'lipoC2': 7.9, 'temp': 24.44, 'lipoC3S3': 11.92, 'rot1': 0, 'rot0': 0, 'rot3': 0, 'rot2': 0, 'state': 'normal', 'yaw': 3.46, 'datetime': '2018-10-12 13:37:15.351552', 'mgs': 0, 'depth': 1.843, 'time': 4.86, 'pitch': -1.9, 'roll': -7.33}
{'lipoC2': 7.9, 'temp': 24.44, 'lipoC3S3': 11.93, 'rot1': 0, 'rot0': 0, 'rot3': 0, 'rot2': 0, 'state': 'normal', 'yaw': 3.54, 'datetime': '2018-10-12 13:37:15.449659', 'mgs': 0, 'depth': 1.767, 'time': 4.96, 'pitch': -2.01, 'roll': -7.26}
{'lipoC2': 7.9, 'temp': 24.44, 'lipoC3S3': 11.92, 'rot1': 0, 'rot0': 0, 'rot3': 0, 'rot2': 0, 'state': 'normal', 'yaw': 3.72, 'datetime': '2018-10-12 13:37:15.548032', 'mgs': 0, 'depth': 1.767, 'time': 5.06, 'pitch': -2.04, 'roll': -7.0}
{'lipoC2': 7.9, 'temp': 24.44, 'lipoC3S3': 11.92, 'rot1': 0, 'rot0': 0, 'rot3': 0, 'rot2': 0, 'state': 'normal', 'yaw': 3.79, 'datetime': '2018-10-12 13:37:15.645080', 'mgs': 0, 'depth': 1.767, 'time': 5.16, 'pitch': -2.12, 'roll': -6.96}
{'lipoC2': 7.88, 'temp': 24.44, 'lipoC3S3': 11.92, 'rot1': 0, 'rot0': 0, 'rot3': 0, 'rot2': 0, 'state': 'normal', 'yaw': 3.82, 'datetime': '2018-10-12 13:37:15.742165', 'mgs': 0, 'depth': 1.767, 'time': 5.26, 'pitch': -2.29, 'roll': -7.35}
{'lipoC2': 7.9, 'temp': 24.44, 'lipoC3S3': 11.93, 'rot1': 0, 'rot0': 0, 'rot3': 0, 'rot2': 0, 'state': 'normal', 'yaw': 3.85, 'datetime': '2018-10-12 13:37:15.839344', 'mgs': 0, 'depth': 1.691, 'time': 5.35, 'pitch': -2.47, 'roll': -7.82}
{'lipoC2': 7.9, 'temp': 24.44, 'lipoC3S3': 11.93, 'rot1': 0, 'rot0': 0, 'rot3': 0, 'rot2': 0, 'state': 'normal', 'yaw': 3.99, 'datetime': '2018-10-12 13:37:15.935080', 'mgs': 0, 'depth': 1.767, 'time': 5.45, 'pitch': -2.56, 'roll': -8.03}
{'lipoC2': 7.9, 'temp': 24.44, 'lipoC3S3': 11.93, 'rot1': 0, 'rot0': 0, 'rot3': 0, 'rot2': 0, 'state': 'normal', 'yaw': 4.18, 'datetime': '2018-10-12 13:37:16.033609', 'mgs': 0, 'depth': 1.767, 'time': 5.55, 'pitch': -2.58, 'roll': -7.83}
{'lipoC2': 7.9, 'temp': 24.44, 'lipoC3S3': 11.93, 'rot1': 0, 'rot0': 0, 'rot3': 0, 'rot2': 0, 'state': 'normal', 'yaw': 4.27, 'datetime': '2018-10-12 13:37:16.130979', 'mgs': 0, 'depth': 1.614, 'time': 5.64, 'pitch': -2.63, 'roll': -7.63}
{'lipoC2': 7.9, 'temp': 24.44, 'lipoC3S3': 11.93, 'rot1': 0, 'rot0': 0, 'rot3': 0, 'rot2': 0, 'state': 'normal', 'yaw': 4.29, 'datetime': '2018-10-12 13:37:16.227980', 'mgs': 0, 'depth': 1.691, 'time': 5.74, 'pitch': -2.75, 'roll': -7.53}
{'lipoC2': 7.88, 'temp': 24.44, 'lipoC3S3': 11.92, 'rot1': 0, 'rot0': 0, 'rot3': 0, 'rot2': 0, 'state': 'normal', 'yaw': 4.31, 'datetime': '2018-10-12 13:37:16.324992', 'mgs': 0, 'depth': 1.691, 'time': 5.84, 'pitch': -2.88, 'roll': -7.5}
{'lipoC2': 7.9, 'temp': 24.44, 'lipoC3S3': 11.93, 'rot1': 0, 'rot0': 0, 'rot3': 0, 'rot2': 0, 'state': 'normal', 'yaw': 4.31, 'datetime': '2018-10-12 13:37:16.422106', 'mgs': 0, 'depth': 1.767, 'time': 5.94, 'pitch': -2.9, 'roll': -7.38}
{'lipoC2': 7.9, 'temp': 24.44, 'lipoC3S3': 11.93, 'rot1': 0, 'rot0': 0, 'rot3': 0, 'rot2': 0, 'state': 'normal', 'yaw': 4.31, 'datetime': '2018-10-12 13:37:16.519164', 'mgs': 0, 'depth': 1.691, 'time': 6.03, 'pitch': -2.85, 'roll': -7.09}
{'lipoC2': 7.88, 'temp': 24.44, 'lipoC3S3': 11.92, 'rot1': 0, 'rot0': 0, 'rot3': 0, 'rot2': 0, 'state': 'normal', 'yaw': 4.21, 'datetime': '2018-10-12 13:37:16.616193', 'mgs': 0, 'depth': 1.767, 'time': 6.13, 'pitch': -2.79, 'roll': -6.73}
{'lipoC2': 7.9, 'temp': 24.44, 'lipoC3S3': 11.92, 'rot1': 0, 'rot0': 0, 'rot3': 0, 'rot2': 0, 'state': 'normal', 'yaw': 4.09, 'datetime': '2018-10-12 13:37:16.713519', 'mgs': 0, 'depth': 1.691, 'time': 6.23, 'pitch': -2.71, 'roll': -6.48}
{'lipoC2': 7.9, 'temp': 24.44, 'lipoC3S3': 11.92, 'rot1': 0, 'rot0': 0, 'rot3': 0, 'rot2': 0, 'state': 'normal', 'yaw': 4.06, 'datetime': '2018-10-12 13:37:16.811870', 'mgs': 0, 'depth': 1.691, 'time': 6.33, 'pitch': -2.56, 'roll': -6.36}
{'lipoC2': 7.9, 'temp': 24.44, 'lipoC3S3': 11.92, 'rot1': 0, 'rot0': 0, 'rot3': 0, 'rot2': 0, 'state': 'normal', 'yaw': 4.17, 'datetime': '2018-10-12 13:37:16.910078', 'mgs': 0, 'depth': 1.691, 'time': 6.43, 'pitch': -2.33, 'roll': -6.29}
{'lipoC2': 7.9, 'temp': 24.44, 'lipoC3S3': 11.93, 'rot1': 0, 'rot0': 0, 'rot3': 0, 'rot2': 0, 'state': 'normal', 'yaw': 4.33, 'datetime': '2018-10-12 13:37:17.007107', 'mgs': 0, 'depth': 1.614, 'time': 6.52, 'pitch': -2.04, 'roll': -6.17}
{'lipoC2': 7.9, 'temp': 24.44, 'lipoC3S3': 11.93, 'rot1': 0, 'rot0': 0, 'rot3': 0, 'rot2': 0, 'state': 'normal', 'yaw': 4.45, 'datetime': '2018-10-12 13:37:17.104162', 'mgs': 0, 'depth': 1.614, 'time': 6.62, 'pitch': -1.8, 'roll': -6.08}
{'lipoC2': 7.9, 'temp': 24.44, 'lipoC3S3': 11.93, 'rot1': 0, 'rot0': 0, 'rot3': 0, 'rot2': 0, 'state': 'normal', 'yaw': 4.45, 'datetime': '2018-10-12 13:37:17.202431', 'mgs': 0, 'depth': 1.614, 'time': 6.72, 'pitch': -1.64, 'roll': -6.1}
{'lipoC2': 7.9, 'temp': 24.44, 'lipoC3S3': 11.92, 'rot1': 0, 'rot0': 0, 'rot3': 0, 'rot2': 0, 'state': 'normal', 'yaw': 4.44, 'datetime': '2018-10-12 13:37:17.299270', 'mgs': 0, 'depth': 1.614, 'time': 6.82, 'pitch': -1.51, 'roll': -6.12}
{'lipoC2': 7.9, 'temp': 24.44, 'lipoC3S3': 11.93, 'rot1': 0, 'rot0': 0, 'rot3': 0, 'rot2': 0, 'state': 'normal', 'yaw': 4.46, 'datetime': '2018-10-12 13:37:17.397791', 'mgs': 0, 'depth': 1.614, 'time': 6.91, 'pitch': -1.45, 'roll': -6.02}
{'lipoC2': 7.9, 'temp': 24.44, 'lipoC3S3': 11.93, 'rot1': 0, 'rot0': 0, 'rot3': 0, 'rot2': 0, 'state': 'normal', 'yaw': 4.53, 'datetime': '2018-10-12 13:37:17.494750', 'mgs': 0, 'depth': 1.538, 'time': 7.01, 'pitch': -1.42, 'roll': -5.94}
{'lipoC2': 7.88, 'temp': 24.44, 'lipoC3S3': 11.92, 'rot1': 0, 'rot0': 0, 'rot3': 0, 'rot2': 0, 'state': 'normal', 'yaw': 4.61, 'datetime': '2018-10-12 13:37:17.591863', 'mgs': 1, 'depth': 1.614, 'time': 7.11, 'pitch': -1.52, 'roll': -6.08}
{'lipoC2': 7.9, 'temp': 24.44, 'lipoC3S3': 11.92, 'rot1': 0, 'rot0': 0, 'rot3': 0, 'rot2': 0, 'state': 'normal', 'yaw': 0.0, 'datetime': '2018-10-12 13:37:19.111307', 'mgs': 0, 'depth': 1.691, 'time': 1.26, 'pitch': -2.36, 'roll': -6.43}
{'lipoC2': 7.88, 'temp': 24.44, 'lipoC3S3': 11.92, 'rot1': 0, 'rot0': 0, 'rot3': 0, 'rot2': 0, 'state': 'normal', 'yaw': 0.13, 'datetime': '2018-10-12 13:37:19.141737', 'mgs': 0, 'depth': 1.691, 'time': 1.36, 'pitch': -2.18, 'roll': -6.75}
{'lipoC2': 7.9, 'temp': 24.44, 'lipoC3S3': 11.93, 'rot1': 0, 'rot0': 0, 'rot3': 0, 'rot2': 0, 'state': 'normal', 'yaw': 0.3, 'datetime': '2018-10-12 13:37:19.158685', 'mgs': 0, 'depth': 1.767, 'time': 1.45, 'pitch': -2.03, 'roll': -6.84}
{'lipoC2': 7.9, 'temp': 24.38, 'lipoC3S3': 11.85, 'rot1': 0, 'rot0': 0, 'rot3': 0, 'rot2': 0, 'state': 'normal', 'yaw': 0.46, 'datetime': '2018-10-12 13:37:19.246087', 'mgs': 0, 'depth': 1.996, 'time': 1.55, 'pitch': -1.99, 'roll': -6.84}
{'lipoC2': 7.9, 'temp': 24.38, 'lipoC3S3': 11.84, 'rot1': 0, 'rot0': 0, 'rot3': 0, 'rot2': 1, 'state': 'normal', 'yaw': 0.59, 'datetime': '2018-10-12 13:37:19.344059', 'mgs': 0, 'depth': 2.072, 'time': 1.65, 'pitch': -2.17, 'roll': -6.93}
{'lipoC2': 7.9, 'temp': 24.44, 'lipoC3S3': 11.84, 'rot1': 1, 'rot0': 1, 'rot3': 1, 'rot2': 1, 'state': 'normal', 'yaw': 0.64, 'datetime': '2018-10-12 13:37:19.440724', 'mgs': 0, 'depth': 1.996, 'time': 1.75, 'pitch': -2.58, 'roll': -6.68}
{'lipoC2': 7.9, 'temp': 24.44, 'lipoC3S3': 11.84, 'rot1': 2, 'rot0': 2, 'rot3': 1, 'rot2': 2, 'state': 'normal', 'yaw': 0.69, 'datetime': '2018-10-12 13:37:19.537301', 'mgs': 0, 'depth': 1.996, 'time': 1.84, 'pitch': -3.06, 'roll': -6.17}
{'lipoC2': 7.9, 'temp': 24.5, 'lipoC3S3': 11.83, 'rot1': 3, 'rot0': 3, 'rot3': 2, 'rot2': 2, 'state': 'normal', 'yaw': 0.73, 'datetime': '2018-10-12 13:37:19.634031', 'mgs': 0, 'depth': 2.072, 'time': 1.94, 'pitch': -3.43, 'roll': -5.59}
{'lipoC2': 7.9, 'temp': 24.5, 'lipoC3S3': 11.84, 'rot1': 4, 'rot0': 4, 'rot3': 2, 'rot2': 3, 'state': 'normal', 'yaw': 0.74, 'datetime': '2018-10-12 13:37:19.730975', 'mgs': 0, 'depth': 1.996, 'time': 2.04, 'pitch': -3.66, 'roll': -4.32}
{'lipoC2': 7.9, 'temp': 24.5, 'lipoC3S3': 11.84, 'rot1': 5, 'rot0': 5, 'rot3': 3, 'rot2': 4, 'state': 'normal', 'yaw': 0.76, 'datetime': '2018-10-12 13:37:19.827554', 'mgs': 0, 'depth': 1.996, 'time': 2.13, 'pitch': -3.68, 'roll': -2.68}
{'lipoC2': 7.88, 'temp': 24.44, 'lipoC3S3': 11.84, 'rot1': 6, 'rot0': 6, 'rot3': 3, 'rot2': 4, 'state': 'normal', 'yaw': 0.83, 'datetime': '2018-10-12 13:37:19.924338', 'mgs': 0, 'depth': 2.072, 'time': 2.23, 'pitch': -3.55, 'roll': -1.26}
{'lipoC2': 7.9, 'temp': 24.44, 'lipoC3S3': 11.83, 'rot1': 8, 'rot0': 7, 'rot3': 4, 'rot2': 5, 'state': 'normal', 'yaw': 0.96, 'datetime': '2018-10-12 13:37:20.020964', 'mgs': 0, 'depth': 2.072, 'time': 2.33, 'pitch': -3.43, 'roll': -0.15}
{'lipoC2': 7.91, 'temp': 24.44, 'lipoC3S3': 11.8, 'rot1': 9, 'rot0': 9, 'rot3': 4, 'rot2': 6, 'state': 'normal', 'yaw': 1.03, 'datetime': '2018-10-12 13:37:20.118238', 'mgs': 0, 'depth': 1.843, 'time': 2.42, 'pitch': -3.43, 'roll': 0.36}
{'lipoC2': 7.9, 'temp': 24.44, 'lipoC3S3': 11.81, 'rot1': 10, 'rot0': 10, 'rot3': 5, 'rot2': 6, 'state': 'normal', 'yaw': 1.03, 'datetime': '2018-10-12 13:37:20.216613', 'mgs': 0, 'depth': 2.454, 'time': 2.52, 'pitch': -3.6, 'roll': 0.72}
{'lipoC2': 7.9, 'temp': 24.44, 'lipoC3S3': 11.85, 'rot1': 10, 'rot0': 11, 'rot3': 5, 'rot2': 7, 'state': 'normal', 'yaw': 0.81, 'datetime': '2018-10-12 13:37:20.313612', 'mgs': 0, 'depth': 1.996, 'time': 2.62, 'pitch': -3.91, 'roll': 0.96}
{'lipoC2': 7.9, 'temp': 24.44, 'lipoC3S3': 11.77, 'rot1': 11, 'rot0': 12, 'rot3': 6, 'rot2': 7, 'state': 'normal', 'yaw': 0.3, 'datetime': '2018-10-12 13:37:20.410648', 'mgs': 0, 'depth': 1.767, 'time': 2.72, 'pitch': -4.31, 'roll': 1.08}
{'lipoC2': 7.9, 'temp': 24.44, 'lipoC3S3': 11.76, 'rot1': 12, 'rot0': 14, 'rot3': 6, 'rot2': 8, 'state': 'normal', 'yaw': -0.34, 'datetime': '2018-10-12 13:37:20.508655', 'mgs': 0, 'depth': 2.53, 'time': 2.82, 'pitch': -4.65, 'roll': 1.13}
{'lipoC2': 7.9, 'temp': 24.44, 'lipoC3S3': 11.72, 'rot1': 13, 'rot0': 15, 'rot3': 7, 'rot2': 9, 'state': 'normal', 'yaw': -1.01, 'datetime': '2018-10-12 13:37:20.606900', 'mgs': 0, 'depth': 1.843, 'time': 2.91, 'pitch': -4.88, 'roll': 1.27}
{'lipoC2': 7.88, 'temp': 24.44, 'lipoC3S3': 11.84, 'rot1': 14, 'rot0': 16, 'rot3': 7, 'rot2': 9, 'state': 'normal', 'yaw': -1.47, 'datetime': '2018-10-12 13:37:20.705105', 'mgs': 0, 'depth': 1.92, 'time': 3.01, 'pitch': -4.86, 'roll': 1.46}
{'lipoC2': 7.91, 'temp': 24.44, 'lipoC3S3': 11.83, 'rot1': 15, 'rot0': 17, 'rot3': 8, 'rot2': 10, 'state': 'normal', 'yaw': -1.75, 'datetime': '2018-10-12 13:37:20.801715', 'mgs': 0, 'depth': 1.843, 'time': 3.11, 'pitch': -4.62, 'roll': 1.56}
{'lipoC2': 7.9, 'temp': 24.38, 'lipoC3S3': 11.79, 'rot1': 17, 'rot0': 17, 'rot3': 8, 'rot2': 11, 'state': 'normal', 'yaw': -1.64, 'datetime': '2018-10-12 13:37:20.899527', 'mgs': 0, 'depth': 2.759, 'time': 3.21, 'pitch': -4.24, 'roll': 1.38}
{'lipoC2': 7.91, 'temp': 24.38, 'lipoC3S3': 11.8, 'rot1': 18, 'rot0': 18, 'rot3': 9, 'rot2': 11, 'state': 'normal', 'yaw': -1.12, 'datetime': '2018-10-12 13:37:20.998189', 'mgs': 0, 'depth': 2.225, 'time': 3.31, 'pitch': -3.72, 'roll': 0.88}
{'lipoC2': 7.9, 'temp': 24.44, 'lipoC3S3': 11.84, 'rot1': 19, 'rot0': 19, 'rot3': 9, 'rot2': 12, 'state': 'normal', 'yaw': -0.34, 'datetime': '2018-10-12 13:37:21.095335', 'mgs': 0, 'depth': 2.072, 'time': 3.4, 'pitch': -3.25, 'roll': 0.21}
{'lipoC2': 7.9, 'temp': 24.44, 'lipoC3S3': 11.79, 'rot1': 20, 'rot0': 20, 'rot3': 10, 'rot2': 13, 'state': 'normal', 'yaw': 0.56, 'datetime': '2018-10-12 13:37:21.192836', 'mgs': 0, 'depth': 2.072, 'time': 3.5, 'pitch': -2.86, 'roll': -0.4}
{'lipoC2': 7.91, 'temp': 24.44, 'lipoC3S3': 11.79, 'rot1': 21, 'rot0': 21, 'rot3': 11, 'rot2': 14, 'state': 'normal', 'yaw': 1.46, 'datetime': '2018-10-12 13:37:21.290514', 'mgs': 0, 'depth': 1.843, 'time': 3.6, 'pitch': -2.62, 'roll': -0.74}
{'lipoC2': 7.9, 'temp': 24.44, 'lipoC3S3': 11.8, 'rot1': 22, 'rot0': 22, 'rot3': 11, 'rot2': 14, 'state': 'normal', 'yaw': 2.51, 'datetime': '2018-10-12 13:37:21.387811', 'mgs': 0, 'depth': 1.843, 'time': 3.69, 'pitch': -2.49, 'roll': -0.83}
{'lipoC2': 7.9, 'temp': 24.44, 'lipoC3S3': 11.83, 'rot1': 23, 'rot0': 23, 'rot3': 12, 'rot2': 15, 'state': 'normal', 'yaw': 3.13, 'datetime': '2018-10-12 13:37:21.485239', 'mgs': 0, 'depth': 2.072, 'time': 3.79, 'pitch': -2.56, 'roll': -0.82}
{'lipoC2': 7.88, 'temp': 24.44, 'lipoC3S3': 11.81, 'rot1': 24, 'rot0': 24, 'rot3': 12, 'rot2': 15, 'state': 'normal', 'yaw': 3.25, 'datetime': '2018-10-12 13:37:21.582752', 'mgs': 0, 'depth': 2.377, 'time': 3.89, 'pitch': -2.77, 'roll': -0.87}
{'lipoC2': 7.9, 'temp': 24.44, 'lipoC3S3': 11.73, 'rot1': 25, 'rot0': 25, 'rot3': 13, 'rot2': 16, 'state': 'normal', 'yaw': 3.06, 'datetime': '2018-10-12 13:37:21.680186', 'mgs': 0, 'depth': 1.767, 'time': 3.99, 'pitch': -2.99, 'roll': -1.07}
{'lipoC2': 7.9, 'temp': 24.44, 'lipoC3S3': 11.83, 'rot1': 25, 'rot0': 26, 'rot3': 13, 'rot2': 17, 'state': 'normal', 'yaw': 2.59, 'datetime': '2018-10-12 13:37:21.777540', 'mgs': 0, 'depth': 2.148, 'time': 4.09, 'pitch': -3.25, 'roll': -1.46}
{'lipoC2': 7.9, 'temp': 24.44, 'lipoC3S3': 11.81, 'rot1': 26, 'rot0': 28, 'rot3': 14, 'rot2': 17, 'state': 'normal', 'yaw': 1.95, 'datetime': '2018-10-12 13:37:21.874966', 'mgs': 0, 'depth': 1.843, 'time': 4.18, 'pitch': -3.49, 'roll': -1.89}
{'lipoC2': 7.9, 'temp': 24.44, 'lipoC3S3': 11.79, 'rot1': 27, 'rot0': 29, 'rot3': 14, 'rot2': 18, 'state': 'normal', 'yaw': 1.19, 'datetime': '2018-10-12 13:37:21.972501', 'mgs': 0, 'depth': 2.53, 'time': 4.28, 'pitch': -3.69, 'roll': -2.26}
{'lipoC2': 7.9, 'temp': 24.44, 'lipoC3S3': 11.77, 'rot1': 28, 'rot0': 30, 'rot3': 15, 'rot2': 19, 'state': 'normal', 'yaw': 0.44, 'datetime': '2018-10-12 13:37:22.071208', 'mgs': 0, 'depth': 2.835, 'time': 4.38, 'pitch': -3.88, 'roll': -2.45}
{'lipoC2': 7.9, 'temp': 24.44, 'lipoC3S3': 11.8, 'rot1': 29, 'rot0': 31, 'rot3': 15, 'rot2': 19, 'state': 'normal', 'yaw': -0.45, 'datetime': '2018-10-12 13:37:22.169845', 'mgs': 0, 'depth': 2.454, 'time': 4.48, 'pitch': -4.12, 'roll': -2.44}
{'lipoC2': 7.9, 'temp': 24.44, 'lipoC3S3': 11.83, 'rot1': 29, 'rot0': 32, 'rot3': 16, 'rot2': 20, 'state': 'normal', 'yaw': -1.39, 'datetime': '2018-10-12 13:37:22.267838', 'mgs': 0, 'depth': 2.072, 'time': 4.58, 'pitch': -4.45, 'roll': -2.26}
{'lipoC2': 7.9, 'temp': 24.44, 'lipoC3S3': 11.79, 'rot1': 30, 'rot0': 33, 'rot3': 16, 'rot2': 21, 'state': 'normal', 'yaw': -2.15, 'datetime': '2018-10-12 13:37:22.365378', 'mgs': 0, 'depth': 1.691, 'time': 4.67, 'pitch': -4.78, 'roll': -1.99}
{'lipoC2': 7.9, 'temp': 24.44, 'lipoC3S3': 11.83, 'rot1': 32, 'rot0': 35, 'rot3': 17, 'rot2': 21, 'state': 'normal', 'yaw': -2.7, 'datetime': '2018-10-12 13:37:22.463067', 'mgs': 0, 'depth': 2.072, 'time': 4.77, 'pitch': -5.1, 'roll': -1.7}
{'lipoC2': 7.9, 'temp': 24.44, 'lipoC3S3': 11.84, 'rot1': 33, 'rot0': 36, 'rot3': 17, 'rot2': 22, 'state': 'normal', 'yaw': -3.03, 'datetime': '2018-10-12 13:37:22.561877', 'mgs': 0, 'depth': 2.072, 'time': 4.87, 'pitch': -5.39, 'roll': -1.49}
{'lipoC2': 7.9, 'temp': 24.44, 'lipoC3S3': 11.84, 'rot1': 34, 'rot0': 37, 'rot3': 18, 'rot2': 23, 'state': 'normal', 'yaw': -3.07, 'datetime': '2018-10-12 13:37:22.660447', 'mgs': 0, 'depth': 2.148, 'time': 4.97, 'pitch': -5.62, 'roll': -1.47}
{'lipoC2': 7.9, 'temp': 24.44, 'lipoC3S3': 11.81, 'rot1': 35, 'rot0': 37, 'rot3': 18, 'rot2': 23, 'state': 'normal', 'yaw': -2.73, 'datetime': '2018-10-12 13:37:22.758503', 'mgs': 0, 'depth': 1.92, 'time': 5.07, 'pitch': -5.7, 'roll': -1.64}
{'lipoC2': 7.9, 'temp': 24.44, 'lipoC3S3': 11.83, 'rot1': 36, 'rot0': 38, 'rot3': 19, 'rot2': 24, 'state': 'normal', 'yaw': -2.12, 'datetime': '2018-10-12 13:37:22.855783', 'mgs': 0, 'depth': 2.148, 'time': 5.16, 'pitch': -5.68, 'roll': -1.88}
{'lipoC2': 7.9, 'temp': 24.44, 'lipoC3S3': 11.76, 'rot1': 37, 'rot0': 39, 'rot3': 19, 'rot2': 25, 'state': 'normal', 'yaw': -1.36, 'datetime': '2018-10-12 13:37:22.953812', 'mgs': 0, 'depth': 1.92, 'time': 5.26, 'pitch': -5.59, 'roll': -2.05}
{'lipoC2': 7.9, 'temp': 24.44, 'lipoC3S3': 11.69, 'rot1': 38, 'rot0': 40, 'rot3': 20, 'rot2': 25, 'state': 'normal', 'yaw': -0.29, 'datetime': '2018-10-12 13:37:23.052648', 'mgs': 0, 'depth': 1.92, 'time': 5.36, 'pitch': -5.47, 'roll': -2.16}
{'lipoC2': 7.9, 'temp': 24.44, 'lipoC3S3': 11.8, 'rot1': 39, 'rot0': 41, 'rot3': 21, 'rot2': 26, 'state': 'normal', 'yaw': 0.87, 'datetime': '2018-10-12 13:37:23.150373', 'mgs': 0, 'depth': 1.92, 'time': 5.46, 'pitch': -5.43, 'roll': -2.15}
{'lipoC2': 7.9, 'temp': 24.44, 'lipoC3S3': 11.9, 'rot1': 40, 'rot0': 41, 'rot3': 21, 'rot2': 27, 'state': 'normal', 'yaw': 1.86, 'datetime': '2018-10-12 13:37:23.246186', 'mgs': 0, 'depth': 1.996, 'time': 5.56, 'pitch': -5.53, 'roll': -1.97}
{'lipoC2': 7.9, 'temp': 24.44, 'lipoC3S3': 11.89, 'rot1': 40, 'rot0': 41, 'rot3': 21, 'rot2': 27, 'state': 'normal', 'yaw': 2.65, 'datetime': '2018-10-12 13:37:23.345058', 'mgs': 0, 'depth': 1.92, 'time': 5.65, 'pitch': -5.78, 'roll': -2.36}
{'lipoC2': 7.9, 'temp': 24.44, 'lipoC3S3': 11.79, 'rot1': 40, 'rot0': 41, 'rot3': 21, 'rot2': 28, 'state': 'normal', 'yaw': 3.2, 'datetime': '2018-10-12 13:37:23.442758', 'mgs': 0, 'depth': 2.148, 'time': 5.75, 'pitch': -6.11, 'roll': -3.19}
{'lipoC2': 7.9, 'temp': 24.44, 'lipoC3S3': 11.71, 'rot1': 40, 'rot0': 42, 'rot3': 22, 'rot2': 28, 'state': 'normal', 'yaw': 3.73, 'datetime': '2018-10-12 13:37:23.540028', 'mgs': 0, 'depth': 1.843, 'time': 5.85, 'pitch': -6.37, 'roll': -4.53}
{'lipoC2': 7.9, 'temp': 24.44, 'lipoC3S3': 11.83, 'rot1': 41, 'rot0': 43, 'rot3': 22, 'rot2': 29, 'state': 'normal', 'yaw': 3.87, 'datetime': '2018-10-12 13:37:23.637442', 'mgs': 0, 'depth': 2.225, 'time': 5.95, 'pitch': -6.43, 'roll': -5.55}
{'lipoC2': 7.88, 'temp': 24.44, 'lipoC3S3': 11.83, 'rot1': 42, 'rot0': 44, 'rot3': 23, 'rot2': 29, 'state': 'normal', 'yaw': 3.61, 'datetime': '2018-10-12 13:37:23.735156', 'mgs': 0, 'depth': 2.225, 'time': 6.04, 'pitch': -6.31, 'roll': -5.97}
{'lipoC2': 7.9, 'temp': 24.44, 'lipoC3S3': 11.81, 'rot1': 43, 'rot0': 45, 'rot3': 23, 'rot2': 30, 'state': 'normal', 'yaw': 3.02, 'datetime': '2018-10-12 13:37:23.832516', 'mgs': 0, 'depth': 2.835, 'time': 6.14, 'pitch': -6.12, 'roll': -6.08}
{'lipoC2': 7.91, 'temp': 24.44, 'lipoC3S3': 11.76, 'rot1': 43, 'rot0': 46, 'rot3': 24, 'rot2': 31, 'state': 'normal', 'yaw': 2.17, 'datetime': '2018-10-12 13:37:23.930082', 'mgs': 0, 'depth': 2.148, 'time': 6.24, 'pitch': -5.95, 'roll': -6.0}
{'lipoC2': 7.88, 'temp': 24.44, 'lipoC3S3': 11.77, 'rot1': 44, 'rot0': 47, 'rot3': 24, 'rot2': 31, 'state': 'normal', 'yaw': 1.13, 'datetime': '2018-10-12 13:37:24.027435', 'mgs': 0, 'depth': 2.301, 'time': 6.34, 'pitch': -5.87, 'roll': -5.89}
{'lipoC2': 7.9, 'temp': 24.44, 'lipoC3S3': 11.81, 'rot1': 45, 'rot0': 48, 'rot3': 25, 'rot2': 32, 'state': 'normal', 'yaw': 0.12, 'datetime': '2018-10-12 13:37:24.125780', 'mgs': 0, 'depth': 2.53, 'time': 6.43, 'pitch': -5.9, 'roll': -5.79}
{'lipoC2': 7.9, 'temp': 24.44, 'lipoC3S3': 11.81, 'rot1': 46, 'rot0': 49, 'rot3': 25, 'rot2': 32, 'state': 'normal', 'yaw': -1.12, 'datetime': '2018-10-12 13:37:24.224565', 'mgs': 0, 'depth': 2.682, 'time': 6.53, 'pitch': -5.98, 'roll': -5.6}
{'lipoC2': 7.9, 'temp': 24.44, 'lipoC3S3': 11.8, 'rot1': 47, 'rot0': 51, 'rot3': 26, 'rot2': 33, 'state': 'normal', 'yaw': -2.46, 'datetime': '2018-10-12 13:37:24.322856', 'mgs': 0, 'depth': 3.369, 'time': 6.63, 'pitch': -6.06, 'roll': -5.26}
{'lipoC2': 7.9, 'temp': 24.44, 'lipoC3S3': 11.72, 'rot1': 48, 'rot0': 51, 'rot3': 26, 'rot2': 33, 'state': 'normal', 'yaw': -3.9, 'datetime': '2018-10-12 13:37:24.420346', 'mgs': 0, 'depth': 2.606, 'time': 6.73, 'pitch': -6.19, 'roll': -4.71}
{'lipoC2': 7.9, 'temp': 24.38, 'lipoC3S3': 11.83, 'rot1': 49, 'rot0': 52, 'rot3': 27, 'rot2': 34, 'state': 'normal', 'yaw': -5.0, 'datetime': '2018-10-12 13:37:24.517693', 'mgs': 0, 'depth': 2.682, 'time': 6.83, 'pitch': -6.27, 'roll': -4.1}
{'lipoC2': 7.9, 'temp': 24.38, 'lipoC3S3': 11.83, 'rot1': 50, 'rot0': 53, 'rot3': 27, 'rot2': 35, 'state': 'normal', 'yaw': -5.61, 'datetime': '2018-10-12 13:37:24.616236', 'mgs': 0, 'depth': 2.988, 'time': 6.93, 'pitch': -6.31, 'roll': -3.57}
{'lipoC2': 7.88, 'temp': 24.38, 'lipoC3S3': 11.81, 'rot1': 51, 'rot0': 54, 'rot3': 28, 'rot2': 35, 'state': 'normal', 'yaw': -5.95, 'datetime': '2018-10-12 13:37:24.714949', 'mgs': 0, 'depth': 2.911, 'time': 7.03, 'pitch': -6.3, 'roll': -3.04}
{'lipoC2': 7.88, 'temp': 24.13, 'lipoC3S3': 11.77, 'rot1': 52, 'rot0': 55, 'rot3': 28, 'rot2': 36, 'state': 'normal', 'yaw': -6.01, 'datetime': '2018-10-12 13:37:24.813836', 'mgs': 0, 'depth': 2.988, 'time': 7.12, 'pitch': -6.24, 'roll': -2.59}
{'lipoC2': 7.9, 'temp': 24.13, 'lipoC3S3': 11.83, 'rot1': 53, 'rot0': 56, 'rot3': 28, 'rot2': 36, 'state': 'normal', 'yaw': -5.81, 'datetime': '2018-10-12 13:37:24.911126', 'mgs': 0, 'depth': 3.369, 'time': 7.22, 'pitch': -6.1, 'roll': -2.26}
{'lipoC2': 7.9, 'temp': 24.81, 'lipoC3S3': 11.8, 'rot1': 54, 'rot0': 56, 'rot3': 29, 'rot2': 37, 'state': 'normal', 'yaw': -5.47, 'datetime': '2018-10-12 13:37:25.008624', 'mgs': 0, 'depth': 3.293, 'time': 7.32, 'pitch': -5.89, 'roll': -2.03}
{'lipoC2': 7.91, 'temp': 24.81, 'lipoC3S3': 11.76, 'rot1': 56, 'rot0': 57, 'rot3': 29, 'rot2': 37, 'state': 'normal', 'yaw': -5.02, 'datetime': '2018-10-12 13:37:25.107101', 'mgs': 0, 'depth': 3.598, 'time': 7.42, 'pitch': -5.68, 'roll': -1.94}
{'lipoC2': 7.9, 'temp': 23.94, 'lipoC3S3': 11.85, 'rot1': 57, 'rot0': 58, 'rot3': 30, 'rot2': 38, 'state': 'normal', 'yaw': -4.4, 'datetime': '2018-10-12 13:37:25.205888', 'mgs': 0, 'depth': 3.827, 'time': 7.52, 'pitch': -5.42, 'roll': -1.99}
{'lipoC2': 7.88, 'temp': 23.94, 'lipoC3S3': 11.79, 'rot1': 58, 'rot0': 59, 'rot3': 30, 'rot2': 38, 'state': 'normal', 'yaw': -3.63, 'datetime': '2018-10-12 13:37:25.303218', 'mgs': 0, 'depth': 3.369, 'time': 7.61, 'pitch': -5.15, 'roll': -2.0}
{'lipoC2': 7.9, 'temp': 23.94, 'lipoC3S3': 11.87, 'rot1': 59, 'rot0': 59, 'rot3': 30, 'rot2': 38, 'state': 'normal', 'yaw': -2.72, 'datetime': '2018-10-12 13:37:25.400582', 'mgs': 0, 'depth': 3.445, 'time': 7.71, 'pitch': -4.89, 'roll': -1.93}
{'lipoC2': 7.88, 'temp': 24.5, 'lipoC3S3': 11.83, 'rot1': 60, 'rot0': 60, 'rot3': 30, 'rot2': 38, 'state': 'normal', 'yaw': -1.84, 'datetime': '2018-10-12 13:37:25.498174', 'mgs': 0, 'depth': 3.522, 'time': 7.81, 'pitch': -4.69, 'roll': -1.84}
{'lipoC2': 7.88, 'temp': 24.5, 'lipoC3S3': 11.83, 'rot1': 61, 'rot0': 61, 'rot3': 30, 'rot2': 38, 'state': 'normal', 'yaw': -0.83, 'datetime': '2018-10-12 13:37:25.595733', 'mgs': 0, 'depth': 4.208, 'time': 7.91, 'pitch': -4.47, 'roll': -1.83}
{'lipoC2': 7.9, 'temp': 24.44, 'lipoC3S3': 11.77, 'rot1': 62, 'rot0': 62, 'rot3': 31, 'rot2': 39, 'state': 'normal', 'yaw': 0.21, 'datetime': '2018-10-12 13:37:25.693224', 'mgs': 0, 'depth': 3.674, 'time': 8.0, 'pitch': -4.28, 'roll': -1.91}
{'lipoC2': 7.9, 'temp': 24.44, 'lipoC3S3': 11.83, 'rot1': 63, 'rot0': 63, 'rot3': 31, 'rot2': 39, 'state': 'normal', 'yaw': 1.23, 'datetime': '2018-10-12 13:37:25.790568', 'mgs': 0, 'depth': 3.598, 'time': 8.1, 'pitch': -4.12, 'roll': -1.99}
{'lipoC2': 7.9, 'temp': 24.44, 'lipoC3S3': 11.85, 'rot1': 64, 'rot0': 64, 'rot3': 31, 'rot2': 39, 'state': 'normal', 'yaw': 2.13, 'datetime': '2018-10-12 13:37:25.888010', 'mgs': 0, 'depth': 3.751, 'time': 8.2, 'pitch': -4.04, 'roll': -1.98}
{'lipoC2': 7.9, 'temp': 24.44, 'lipoC3S3': 11.84, 'rot1': 65, 'rot0': 65, 'rot3': 31, 'rot2': 39, 'state': 'normal', 'yaw': 2.73, 'datetime': '2018-10-12 13:37:25.985272', 'mgs': 0, 'depth': 4.208, 'time': 8.3, 'pitch': -4.03, 'roll': -1.8}
{'lipoC2': 7.9, 'temp': 24.44, 'lipoC3S3': 11.76, 'rot1': 66, 'rot0': 66, 'rot3': 31, 'rot2': 39, 'state': 'normal', 'yaw': 2.83, 'datetime': '2018-10-12 13:37:26.082866', 'mgs': 0, 'depth': 3.827, 'time': 8.39, 'pitch': -4.14, 'roll': -1.48}
{'lipoC2': 7.9, 'temp': 24.38, 'lipoC3S3': 11.85, 'rot1': 67, 'rot0': 67, 'rot3': 31, 'rot2': 39, 'state': 'normal', 'yaw': 2.56, 'datetime': '2018-10-12 13:37:26.180203', 'mgs': 0, 'depth': 3.903, 'time': 8.49, 'pitch': -4.35, 'roll': -1.08}
{'lipoC2': 7.9, 'temp': 24.38, 'lipoC3S3': 11.8, 'rot1': 67, 'rot0': 68, 'rot3': 31, 'rot2': 39, 'state': 'normal', 'yaw': 2.05, 'datetime': '2018-10-12 13:37:26.279114', 'mgs': 0, 'depth': 3.903, 'time': 8.59, 'pitch': -4.62, 'roll': -0.68}
{'lipoC2': 7.9, 'temp': 24.38, 'lipoC3S3': 11.76, 'rot1': 68, 'rot0': 69, 'rot3': 31, 'rot2': 39, 'state': 'normal', 'yaw': 1.26, 'datetime': '2018-10-12 13:37:26.377905', 'mgs': 0, 'depth': 3.979, 'time': 8.69, 'pitch': -4.96, 'roll': -0.26}
{'lipoC2': 7.9, 'temp': 24.44, 'lipoC3S3': 11.77, 'rot1': 69, 'rot0': 71, 'rot3': 31, 'rot2': 39, 'state': 'normal', 'yaw': 0.25, 'datetime': '2018-10-12 13:37:26.476314', 'mgs': 0, 'depth': 3.979, 'time': 8.79, 'pitch': -5.33, 'roll': 0.12}
{'lipoC2': 7.9, 'temp': 24.44, 'lipoC3S3': 11.85, 'rot1': 70, 'rot0': 72, 'rot3': 31, 'rot2': 39, 'state': 'normal', 'yaw': -0.92, 'datetime': '2018-10-12 13:37:26.573919', 'mgs': 0, 'depth': 4.056, 'time': 8.89, 'pitch': -5.72, 'roll': 0.45}
{'lipoC2': 7.9, 'temp': 24.56, 'lipoC3S3': 11.84, 'rot1': 71, 'rot0': 73, 'rot3': 31, 'rot2': 39, 'state': 'normal', 'yaw': -2.23, 'datetime': '2018-10-12 13:37:26.671218', 'mgs': 0, 'depth': 4.666, 'time': 8.98, 'pitch': -6.11, 'roll': 0.76}
{'lipoC2': 7.9, 'temp': 24.56, 'lipoC3S3': 11.85, 'rot1': 72, 'rot0': 74, 'rot3': 31, 'rot2': 39, 'state': 'normal', 'yaw': -3.47, 'datetime': '2018-10-12 13:37:26.769958', 'mgs': 0, 'depth': 4.514, 'time': 9.08, 'pitch': -6.43, 'roll': 1.04}
{'lipoC2': 7.9, 'temp': 24.56, 'lipoC3S3': 11.85, 'rot1': 73, 'rot0': 75, 'rot3': 31, 'rot2': 39, 'state': 'normal', 'yaw': -4.45, 'datetime': '2018-10-12 13:37:26.868601', 'mgs': 0, 'depth': 3.979, 'time': 9.18, 'pitch': -6.69, 'roll': 1.22}
{'lipoC2': 7.9, 'temp': 24.44, 'lipoC3S3': 11.84, 'rot1': 74, 'rot0': 75, 'rot3': 31, 'rot2': 39, 'state': 'normal', 'yaw': -4.89, 'datetime': '2018-10-12 13:37:26.967217', 'mgs': 0, 'depth': 4.742, 'time': 9.28, 'pitch': -6.86, 'roll': 1.27}
{'lipoC2': 7.9, 'temp': 24.44, 'lipoC3S3': 11.84, 'rot1': 75, 'rot0': 76, 'rot3': 31, 'rot2': 39, 'state': 'normal', 'yaw': -4.91, 'datetime': '2018-10-12 13:37:27.064572', 'mgs': 0, 'depth': 4.056, 'time': 9.38, 'pitch': -6.92, 'roll': 1.16}
{'lipoC2': 7.9, 'temp': 24.44, 'lipoC3S3': 11.85, 'rot1': 76, 'rot0': 77, 'rot3': 31, 'rot2': 39, 'state': 'normal', 'yaw': -4.63, 'datetime': '2018-10-12 13:37:27.162073', 'mgs': 0, 'depth': 4.056, 'time': 9.48, 'pitch': -6.92, 'roll': 0.96}
{'lipoC2': 7.9, 'temp': 24.44, 'lipoC3S3': 11.8, 'rot1': 77, 'rot0': 78, 'rot3': 31, 'rot2': 39, 'state': 'normal', 'yaw': -4.21, 'datetime': '2018-10-12 13:37:27.260956', 'mgs': 0, 'depth': 4.056, 'time': 9.57, 'pitch': -6.82, 'roll': 0.76}
{'lipoC2': 7.88, 'temp': 24.44, 'lipoC3S3': 11.75, 'rot1': 79, 'rot0': 79, 'rot3': 31, 'rot2': 39, 'state': 'normal', 'yaw': -3.58, 'datetime': '2018-10-12 13:37:27.359589', 'mgs': 0, 'depth': 4.132, 'time': 9.67, 'pitch': -6.61, 'roll': 0.55}
{'lipoC2': 7.9, 'temp': 24.44, 'lipoC3S3': 11.85, 'rot1': 80, 'rot0': 79, 'rot3': 31, 'rot2': 39, 'state': 'normal', 'yaw': -2.8, 'datetime': '2018-10-12 13:37:27.456951', 'mgs': 0, 'depth': 3.979, 'time': 9.77, 'pitch': -6.35, 'roll': 0.36}
{'lipoC2': 7.88, 'temp': 24.44, 'lipoC3S3': 11.85, 'rot1': 81, 'rot0': 80, 'rot3': 31, 'rot2': 39, 'state': 'normal', 'yaw': -1.89, 'datetime': '2018-10-12 13:37:27.554421', 'mgs': 0, 'depth': 3.827, 'time': 9.87, 'pitch': -6.06, 'roll': 0.25}
{'lipoC2': 7.9, 'temp': 24.44, 'lipoC3S3': 11.84, 'rot1': 82, 'rot0': 81, 'rot3': 31, 'rot2': 39, 'state': 'normal', 'yaw': -0.95, 'datetime': '2018-10-12 13:37:27.652145', 'mgs': 0, 'depth': 3.674, 'time': 9.97, 'pitch': -5.79, 'roll': 0.16}
{'lipoC2': 7.9, 'temp': 24.44, 'lipoC3S3': 11.79, 'rot1': 83, 'rot0': 81, 'rot3': 31, 'rot2': 39, 'state': 'normal', 'yaw': 0.2, 'datetime': '2018-10-12 13:37:31.706450', 'mgs': 0, 'depth': 3.979, 'time': 10.06, 'pitch': -5.49, 'roll': 0.11}
{'lipoC2': 7.9, 'temp': 24.44, 'lipoC3S3': 11.85, 'rot1': 83, 'rot0': 81, 'rot3': 31, 'rot2': 39, 'state': 'normal', 'yaw': 1.19, 'datetime': '2018-10-12 13:37:31.724393', 'mgs': 0, 'depth': 3.903, 'time': 10.16, 'pitch': -5.29, 'roll': -0.19}
{'lipoC2': 7.9, 'temp': 24.5, 'lipoC3S3': 11.84, 'rot1': 83, 'rot0': 81, 'rot3': 32, 'rot2': 40, 'state': 'normal', 'yaw': 1.97, 'datetime': '2018-10-12 13:37:31.756178', 'mgs': 0, 'depth': 4.208, 'time': 10.26, 'pitch': -5.25, 'roll': -0.67}
{'lipoC2': 7.9, 'temp': 24.5, 'lipoC3S3': 11.81, 'rot1': 83, 'rot0': 81, 'rot3': 33, 'rot2': 41, 'state': 'normal', 'yaw': 2.54, 'datetime': '2018-10-12 13:37:31.773120', 'mgs': 0, 'depth': 3.827, 'time': 10.35, 'pitch': -5.27, 'roll': -1.24}
{'lipoC2': 7.9, 'temp': 24.44, 'lipoC3S3': 11.84, 'rot1': 83, 'rot0': 81, 'rot3': 33, 'rot2': 41, 'state': 'normal', 'yaw': 3.04, 'datetime': '2018-10-12 13:37:31.792334', 'mgs': 0, 'depth': 3.751, 'time': 10.45, 'pitch': -5.38, 'roll': -1.94}
{'lipoC2': 7.9, 'temp': 24.44, 'lipoC3S3': 11.85, 'rot1': 83, 'rot0': 81, 'rot3': 33, 'rot2': 42, 'state': 'normal', 'yaw': 3.42, 'datetime': '2018-10-12 13:37:31.800076', 'mgs': 0, 'depth': 3.979, 'time': 10.55, 'pitch': -5.54, 'roll': -2.66}
{'lipoC2': 7.9, 'temp': 24.44, 'lipoC3S3': 11.85, 'rot1': 83, 'rot0': 81, 'rot3': 34, 'rot2': 42, 'state': 'normal', 'yaw': 3.74, 'datetime': '2018-10-12 13:37:31.819172', 'mgs': 0, 'depth': 3.751, 'time': 10.65, 'pitch': -5.76, 'roll': -3.37}
{'lipoC2': 7.9, 'temp': 24.5, 'lipoC3S3': 11.84, 'rot1': 83, 'rot0': 81, 'rot3': 34, 'rot2': 43, 'state': 'normal', 'yaw': 3.98, 'datetime': '2018-10-12 13:37:31.826946', 'mgs': 0, 'depth': 3.674, 'time': 10.75, 'pitch': -6.0, 'roll': -3.97}
{'lipoC2': 7.9, 'temp': 24.5, 'lipoC3S3': 11.84, 'rot1': 83, 'rot0': 81, 'rot3': 35, 'rot2': 44, 'state': 'normal', 'yaw': 4.22, 'datetime': '2018-10-12 13:37:31.846029', 'mgs': 0, 'depth': 3.674, 'time': 10.85, 'pitch': -6.31, 'roll': -4.57}
{'lipoC2': 7.9, 'temp': 24.38, 'lipoC3S3': 11.8, 'rot1': 83, 'rot0': 81, 'rot3': 35, 'rot2': 44, 'state': 'normal', 'yaw': 4.4, 'datetime': '2018-10-12 13:37:31.853792', 'mgs': 0, 'depth': 3.445, 'time': 10.94, 'pitch': -6.61, 'roll': -5.09}
{'lipoC2': 7.88, 'temp': 24.38, 'lipoC3S3': 11.84, 'rot1': 83, 'rot0': 81, 'rot3': 36, 'rot2': 45, 'state': 'normal', 'yaw': 4.58, 'datetime': '2018-10-12 13:37:31.872892', 'mgs': 0, 'depth': 3.217, 'time': 11.04, 'pitch': -6.89, 'roll': -5.56}
{'lipoC2': 7.9, 'temp': 24.38, 'lipoC3S3': 11.8, 'rot1': 83, 'rot0': 81, 'rot3': 36, 'rot2': 46, 'state': 'normal', 'yaw': 4.73, 'datetime': '2018-10-12 13:37:31.880631', 'mgs': 0, 'depth': 3.217, 'time': 11.14, 'pitch': -7.13, 'roll': -5.94}
{'lipoC2': 7.9, 'temp': 24.44, 'lipoC3S3': 11.84, 'rot1': 83, 'rot0': 81, 'rot3': 36, 'rot2': 46, 'state': 'normal', 'yaw': 4.85, 'datetime': '2018-10-12 13:37:31.899686', 'mgs': 0, 'depth': 3.14, 'time': 11.24, 'pitch': -7.38, 'roll': -6.34}
{'lipoC2': 7.9, 'temp': 24.44, 'lipoC3S3': 11.84, 'rot1': 83, 'rot0': 81, 'rot3': 37, 'rot2': 47, 'state': 'normal', 'yaw': 4.96, 'datetime': '2018-10-12 13:37:31.907471', 'mgs': 0, 'depth': 3.14, 'time': 11.34, 'pitch': -7.58, 'roll': -6.71}
{'lipoC2': 7.88, 'temp': 24.5, 'lipoC3S3': 11.84, 'rot1': 83, 'rot0': 81, 'rot3': 37, 'rot2': 47, 'state': 'normal', 'yaw': 5.08, 'datetime': '2018-10-12 13:37:31.926553', 'mgs': 0, 'depth': 3.14, 'time': 11.44, 'pitch': -7.73, 'roll': -6.98}
{'lipoC2': 7.9, 'temp': 24.5, 'lipoC3S3': 11.8, 'rot1': 83, 'rot0': 81, 'rot3': 38, 'rot2': 48, 'state': 'normal', 'yaw': 5.18, 'datetime': '2018-10-12 13:37:31.934300', 'mgs': 0, 'depth': 2.835, 'time': 11.53, 'pitch': -7.86, 'roll': -7.15}
{'lipoC2': 7.9, 'temp': 24.5, 'lipoC3S3': 11.85, 'rot1': 83, 'rot0': 81, 'rot3': 38, 'rot2': 49, 'state': 'normal', 'yaw': 5.25, 'datetime': '2018-10-12 13:37:31.953394', 'mgs': 0, 'depth': 2.911, 'time': 11.63, 'pitch': -7.97, 'roll': -7.18}
{'lipoC2': 7.9, 'temp': 24.5, 'lipoC3S3': 11.87, 'rot1': 83, 'rot0': 81, 'rot3': 38, 'rot2': 49, 'state': 'normal', 'yaw': 5.29, 'datetime': '2018-10-12 13:37:31.961155', 'mgs': 0, 'depth': 2.835, 'time': 11.73, 'pitch': -8.08, 'roll': -7.13}
{'lipoC2': 7.9, 'temp': 24.5, 'lipoC3S3': 11.85, 'rot1': 83, 'rot0': 81, 'rot3': 39, 'rot2': 50, 'state': 'normal', 'yaw': 5.31, 'datetime': '2018-10-12 13:37:31.980254', 'mgs': 0, 'depth': 2.454, 'time': 11.83, 'pitch': -8.2, 'roll': -6.99}
{'lipoC2': 7.91, 'temp': 24.44, 'lipoC3S3': 11.85, 'rot1': 83, 'rot0': 81, 'rot3': 40, 'rot2': 50, 'state': 'normal', 'yaw': 5.31, 'datetime': '2018-10-12 13:37:31.987989', 'mgs': 0, 'depth': 2.454, 'time': 11.93, 'pitch': -8.25, 'roll': -6.82}
{'lipoC2': 7.9, 'temp': 24.44, 'lipoC3S3': 11.8, 'rot1': 83, 'rot0': 81, 'rot3': 40, 'rot2': 51, 'state': 'normal', 'yaw': 5.31, 'datetime': '2018-10-12 13:37:32.007387', 'mgs': 0, 'depth': 2.454, 'time': 12.02, 'pitch': -8.26, 'roll': -6.67}
{'lipoC2': 7.9, 'temp': 24.5, 'lipoC3S3': 11.83, 'rot1': 83, 'rot0': 81, 'rot3': 40, 'rot2': 52, 'state': 'normal', 'yaw': 5.24, 'datetime': '2018-10-12 13:37:32.015177', 'mgs': 0, 'depth': 2.225, 'time': 12.12, 'pitch': -8.26, 'roll': -6.54}
{'lipoC2': 7.9, 'temp': 24.5, 'lipoC3S3': 11.85, 'rot1': 83, 'rot0': 81, 'rot3': 41, 'rot2': 52, 'state': 'normal', 'yaw': 5.12, 'datetime': '2018-10-12 13:37:32.034261', 'mgs': 0, 'depth': 2.377, 'time': 12.22, 'pitch': -8.26, 'roll': -6.32}
{'lipoC2': 7.9, 'temp': 24.5, 'lipoC3S3': 11.84, 'rot1': 83, 'rot0': 81, 'rot3': 41, 'rot2': 53, 'state': 'normal', 'yaw': 4.98, 'datetime': '2018-10-12 13:37:32.041895', 'mgs': 0, 'depth': 2.148, 'time': 12.31, 'pitch': -8.21, 'roll': -6.04}
{'lipoC2': 7.9, 'temp': 24.44, 'lipoC3S3': 11.81, 'rot1': 83, 'rot0': 81, 'rot3': 42, 'rot2': 54, 'state': 'normal', 'yaw': 4.83, 'datetime': '2018-10-12 13:37:32.060744', 'mgs': 0, 'depth': 1.92, 'time': 12.41, 'pitch': -8.21, 'roll': -5.77}
{'lipoC2': 7.9, 'temp': 24.44, 'lipoC3S3': 11.85, 'rot1': 83, 'rot0': 81, 'rot3': 42, 'rot2': 54, 'state': 'normal', 'yaw': 4.7, 'datetime': '2018-10-12 13:37:32.068057', 'mgs': 0, 'depth': 1.767, 'time': 12.51, 'pitch': -8.15, 'roll': -5.63}
{'lipoC2': 7.9, 'temp': 24.44, 'lipoC3S3': 11.85, 'rot1': 83, 'rot0': 81, 'rot3': 43, 'rot2': 55, 'state': 'normal', 'yaw': 4.63, 'datetime': '2018-10-12 13:37:32.086689', 'mgs': 0, 'depth': 2.072, 'time': 12.61, 'pitch': -7.98, 'roll': -5.65}
{'lipoC2': 7.9, 'temp': 24.44, 'lipoC3S3': 11.83, 'rot1': 83, 'rot0': 81, 'rot3': 43, 'rot2': 55, 'state': 'normal', 'yaw': 4.61, 'datetime': '2018-10-12 13:37:32.094102', 'mgs': 0, 'depth': 1.92, 'time': 12.7, 'pitch': -7.81, 'roll': -5.85}
{'lipoC2': 7.9, 'temp': 24.44, 'lipoC3S3': 11.87, 'rot1': 83, 'rot0': 81, 'rot3': 44, 'rot2': 56, 'state': 'normal', 'yaw': 4.59, 'datetime': '2018-10-12 13:37:32.112781', 'mgs': 0, 'depth': 1.767, 'time': 12.8, 'pitch': -7.8, 'roll': -6.13}
{'lipoC2': 7.9, 'temp': 24.44, 'lipoC3S3': 11.85, 'rot1': 83, 'rot0': 81, 'rot3': 44, 'rot2': 57, 'state': 'normal', 'yaw': 4.54, 'datetime': '2018-10-12 13:37:32.120075', 'mgs': 0, 'depth': 1.691, 'time': 12.9, 'pitch': -7.84, 'roll': -6.45}
{'lipoC2': 7.9, 'temp': 24.44, 'lipoC3S3': 11.85, 'rot1': 83, 'rot0': 81, 'rot3': 45, 'rot2': 57, 'state': 'normal', 'yaw': 4.5, 'datetime': '2018-10-12 13:37:32.138764', 'mgs': 0, 'depth': 1.691, 'time': 13.0, 'pitch': -7.86, 'roll': -6.72}
{'lipoC2': 7.9, 'temp': 24.44, 'lipoC3S3': 11.83, 'rot1': 83, 'rot0': 81, 'rot3': 45, 'rot2': 58, 'state': 'normal', 'yaw': 4.48, 'datetime': '2018-10-12 13:37:32.146139', 'mgs': 0, 'depth': 1.538, 'time': 13.1, 'pitch': -7.82, 'roll': -6.99}
{'lipoC2': 7.9, 'temp': 24.44, 'lipoC3S3': 11.85, 'rot1': 83, 'rot0': 81, 'rot3': 46, 'rot2': 59, 'state': 'normal', 'yaw': 4.46, 'datetime': '2018-10-12 13:37:32.164823', 'mgs': 0, 'depth': 1.691, 'time': 13.2, 'pitch': -7.64, 'roll': -7.26}
{'lipoC2': 7.9, 'temp': 24.44, 'lipoC3S3': 11.81, 'rot1': 83, 'rot0': 81, 'rot3': 46, 'rot2': 59, 'state': 'normal', 'yaw': 4.44, 'datetime': '2018-10-12 13:37:32.172156', 'mgs': 0, 'depth': 1.767, 'time': 13.3, 'pitch': -7.46, 'roll': -7.5}
{'lipoC2': 7.9, 'temp': 24.5, 'lipoC3S3': 11.81, 'rot1': 83, 'rot0': 81, 'rot3': 47, 'rot2': 60, 'state': 'normal', 'yaw': 4.43, 'datetime': '2018-10-12 13:37:32.190826', 'mgs': 0, 'depth': 1.843, 'time': 13.39, 'pitch': -7.38, 'roll': -7.76}
{'lipoC2': 7.9, 'temp': 24.5, 'lipoC3S3': 11.84, 'rot1': 83, 'rot0': 81, 'rot3': 47, 'rot2': 61, 'state': 'normal', 'yaw': 4.44, 'datetime': '2018-10-12 13:37:32.198122', 'mgs': 0, 'depth': 1.92, 'time': 13.49, 'pitch': -7.45, 'roll': -7.89}
{'lipoC2': 7.88, 'temp': 24.44, 'lipoC3S3': 11.85, 'rot1': 83, 'rot0': 81, 'rot3': 48, 'rot2': 61, 'state': 'normal', 'yaw': 4.47, 'datetime': '2018-10-12 13:37:32.217079', 'mgs': 0, 'depth': 1.462, 'time': 13.59, 'pitch': -7.68, 'roll': -7.86}
{'lipoC2': 7.9, 'temp': 24.44, 'lipoC3S3': 11.84, 'rot1': 83, 'rot0': 81, 'rot3': 48, 'rot2': 62, 'state': 'normal', 'yaw': 4.51, 'datetime': '2018-10-12 13:37:32.224453', 'mgs': 0, 'depth': 1.996, 'time': 13.69, 'pitch': -7.98, 'roll': -7.7}
{'lipoC2': 7.9, 'temp': 24.44, 'lipoC3S3': 11.85, 'rot1': 83, 'rot0': 81, 'rot3': 48, 'rot2': 63, 'state': 'normal', 'yaw': 4.55, 'datetime': '2018-10-12 13:37:32.243168', 'mgs': 0, 'depth': 1.691, 'time': 13.79, 'pitch': -8.27, 'roll': -7.49}
{'lipoC2': 7.9, 'temp': 24.44, 'lipoC3S3': 11.84, 'rot1': 83, 'rot0': 81, 'rot3': 49, 'rot2': 63, 'state': 'normal', 'yaw': 4.58, 'datetime': '2018-10-12 13:37:32.250578', 'mgs': 0, 'depth': 1.767, 'time': 13.89, 'pitch': -8.51, 'roll': -7.3}
{'lipoC2': 7.9, 'temp': 24.44, 'lipoC3S3': 11.83, 'rot1': 83, 'rot0': 81, 'rot3': 49, 'rot2': 64, 'state': 'normal', 'yaw': 4.59, 'datetime': '2018-10-12 13:37:32.269256', 'mgs': 0, 'depth': 1.767, 'time': 13.98, 'pitch': -8.62, 'roll': -7.19}
{'lipoC2': 7.9, 'temp': 24.44, 'lipoC3S3': 11.67, 'rot1': 83, 'rot0': 81, 'rot3': 50, 'rot2': 64, 'state': 'normal', 'yaw': 4.6, 'datetime': '2018-10-12 13:37:32.276569', 'mgs': 0, 'depth': 2.225, 'time': 14.08, 'pitch': -8.63, 'roll': -7.17}
{'lipoC2': 7.9, 'temp': 24.44, 'lipoC3S3': 11.79, 'rot1': 83, 'rot0': 82, 'rot3': 50, 'rot2': 65, 'state': 'normal', 'yaw': 4.77, 'datetime': '2018-10-12 13:37:32.295252', 'mgs': 0, 'depth': 2.53, 'time': 14.18, 'pitch': -8.53, 'roll': -7.16}
{'lipoC2': 7.9, 'temp': 24.44, 'lipoC3S3': 11.8, 'rot1': 84, 'rot0': 83, 'rot3': 51, 'rot2': 66, 'state': 'normal', 'yaw': 5.51, 'datetime': '2018-10-12 13:37:32.302686', 'mgs': 0, 'depth': 2.53, 'time': 14.28, 'pitch': -8.26, 'roll': -7.07}
{'lipoC2': 7.9, 'temp': 24.38, 'lipoC3S3': 11.81, 'rot1': 85, 'rot0': 84, 'rot3': 51, 'rot2': 67, 'state': 'normal', 'yaw': 6.91, 'datetime': '2018-10-12 13:37:32.321372', 'mgs': 0, 'depth': 1.843, 'time': 14.38, 'pitch': -7.88, 'roll': -6.84}
{'lipoC2': 7.9, 'temp': 24.38, 'lipoC3S3': 11.87, 'rot1': 86, 'rot0': 85, 'rot3': 52, 'rot2': 67, 'state': 'normal', 'yaw': 8.8, 'datetime': '2018-10-12 13:37:32.328663', 'mgs': 0, 'depth': 1.843, 'time': 14.47, 'pitch': -7.51, 'roll': -6.59}
{'lipoC2': 7.9, 'temp': 24.31, 'lipoC3S3': 11.83, 'rot1': 86, 'rot0': 85, 'rot3': 52, 'rot2': 68, 'state': 'normal', 'yaw': 11.12, 'datetime': '2018-10-12 13:37:32.347372', 'mgs': 0, 'depth': 1.996, 'time': 14.57, 'pitch': -7.16, 'roll': -6.44}
{'lipoC2': 7.9, 'temp': 24.31, 'lipoC3S3': 11.83, 'rot1': 87, 'rot0': 86, 'rot3': 53, 'rot2': 69, 'state': 'normal', 'yaw': 13.52, 'datetime': '2018-10-12 13:37:32.354762', 'mgs': 0, 'depth': 1.996, 'time': 14.67, 'pitch': -6.8, 'roll': -6.45}
{'lipoC2': 7.9, 'temp': 24.31, 'lipoC3S3': 11.79, 'rot1': 88, 'rot0': 87, 'rot3': 53, 'rot2': 69, 'state': 'normal', 'yaw': 16.5, 'datetime': '2018-10-12 13:37:32.442467', 'mgs': 0, 'depth': 2.225, 'time': 14.77, 'pitch': -6.41, 'roll': -6.61}
{'lipoC2': 7.9, 'temp': 24.44, 'lipoC3S3': 11.71, 'rot1': 89, 'rot0': 88, 'rot3': 53, 'rot2': 70, 'state': 'normal', 'yaw': 19.8, 'datetime': '2018-10-12 13:37:32.539892', 'mgs': 0, 'depth': 1.767, 'time': 14.86, 'pitch': -6.02, 'roll': -6.9}
{'lipoC2': 7.9, 'temp': 24.44, 'lipoC3S3': 11.84, 'rot1': 89, 'rot0': 89, 'rot3': 54, 'rot2': 71, 'state': 'normal', 'yaw': 23.41, 'datetime': '2018-10-12 13:37:32.637359', 'mgs': 0, 'depth': 2.225, 'time': 14.96, 'pitch': -5.65, 'roll': -7.3}
{'lipoC2': 7.9, 'temp': 24.44, 'lipoC3S3': 11.84, 'rot1': 90, 'rot0': 90, 'rot3': 55, 'rot2': 71, 'state': 'normal', 'yaw': 26.84, 'datetime': '2018-10-12 13:37:32.736024', 'mgs': 0, 'depth': 2.072, 'time': 15.06, 'pitch': -5.33, 'roll': -7.77}
{'lipoC2': 7.9, 'temp': 24.44, 'lipoC3S3': 11.83, 'rot1': 91, 'rot0': 90, 'rot3': 55, 'rot2': 72, 'state': 'normal', 'yaw': 30.77, 'datetime': '2018-10-12 13:37:32.834764', 'mgs': 0, 'depth': 1.767, 'time': 15.16, 'pitch': -4.94, 'roll': -8.35}
{'lipoC2': 7.9, 'temp': 24.44, 'lipoC3S3': 11.81, 'rot1': 92, 'rot0': 91, 'rot3': 56, 'rot2': 72, 'state': 'normal', 'yaw': 34.85, 'datetime': '2018-10-12 13:37:32.933070', 'mgs': 0, 'depth': 2.072, 'time': 15.26, 'pitch': -4.51, 'roll': -8.93}
{'lipoC2': 7.88, 'temp': 24.44, 'lipoC3S3': 11.79, 'rot1': 93, 'rot0': 92, 'rot3': 56, 'rot2': 73, 'state': 'normal', 'yaw': 39.03, 'datetime': '2018-10-12 13:37:33.030554', 'mgs': 0, 'depth': 1.843, 'time': 15.35, 'pitch': -4.03, 'roll': -9.49}
{'lipoC2': 7.9, 'temp': 24.44, 'lipoC3S3': 11.76, 'rot1': 94, 'rot0': 93, 'rot3': 56, 'rot2': 74, 'state': 'normal', 'yaw': 43.29, 'datetime': '2018-10-12 13:37:33.127946', 'mgs': 0, 'depth': 1.843, 'time': 15.45, 'pitch': -3.49, 'roll': -9.98}
{'lipoC2': 7.9, 'temp': 24.44, 'lipoC3S3': 11.83, 'rot1': 94, 'rot0': 94, 'rot3': 57, 'rot2': 74, 'state': 'normal', 'yaw': 47.18, 'datetime': '2018-10-12 13:37:33.226535', 'mgs': 0, 'depth': 1.767, 'time': 15.55, 'pitch': -2.93, 'roll': -10.33}
{'lipoC2': 7.9, 'temp': 24.44, 'lipoC3S3': 11.71, 'rot1': 95, 'rot0': 95, 'rot3': 57, 'rot2': 75, 'state': 'normal', 'yaw': 51.52, 'datetime': '2018-10-12 13:37:33.328733', 'mgs': 0, 'depth': 1.843, 'time': 15.65, 'pitch': -2.27, 'roll': -10.63}
{'lipoC2': 7.9, 'temp': 24.44, 'lipoC3S3': 11.73, 'rot1': 96, 'rot0': 95, 'rot3': 58, 'rot2': 76, 'state': 'normal', 'yaw': 55.89, 'datetime': '2018-10-12 13:37:33.428812', 'mgs': 0, 'depth': 1.767, 'time': 15.75, 'pitch': -1.53, 'roll': -10.91}
{'lipoC2': 7.9, 'temp': 24.44, 'lipoC3S3': 11.83, 'rot1': 97, 'rot0': 96, 'rot3': 58, 'rot2': 76, 'state': 'normal', 'yaw': 60.29, 'datetime': '2018-10-12 13:37:33.526241', 'mgs': 0, 'depth': 1.996, 'time': 15.85, 'pitch': -0.78, 'roll': -11.21}
{'lipoC2': 7.9, 'temp': 24.44, 'lipoC3S3': 11.79, 'rot1': 98, 'rot0': 97, 'rot3': 59, 'rot2': 77, 'state': 'normal', 'yaw': 64.72, 'datetime': '2018-10-12 13:37:33.623877', 'mgs': 0, 'depth': 1.767, 'time': 15.94, 'pitch': -0.04, 'roll': -11.54}
{'lipoC2': 7.9, 'temp': 24.44, 'lipoC3S3': 11.77, 'rot1': 98, 'rot0': 98, 'rot3': 59, 'rot2': 78, 'state': 'normal', 'yaw': 68.81, 'datetime': '2018-10-12 13:37:33.722329', 'mgs': 0, 'depth': 1.767, 'time': 16.04, 'pitch': 0.61, 'roll': -11.83}
{'lipoC2': 7.9, 'temp': 24.44, 'lipoC3S3': 11.81, 'rot1': 99, 'rot0': 99, 'rot3': 60, 'rot2': 78, 'state': 'normal', 'yaw': 73.46, 'datetime': '2018-10-12 13:37:33.821166', 'mgs': 0, 'depth': 1.92, 'time': 16.14, 'pitch': 1.3, 'roll': -12.07}
{'lipoC2': 7.91, 'temp': 24.44, 'lipoC3S3': 11.79, 'rot1': 100, 'rot0': 100, 'rot3': 60, 'rot2': 79, 'state': 'normal', 'yaw': 78.17, 'datetime': '2018-10-12 13:37:33.918818', 'mgs': 0, 'depth': 1.385, 'time': 16.24, 'pitch': 2.0, 'roll': -12.15}
{'lipoC2': 7.9, 'temp': 24.44, 'lipoC3S3': 11.79, 'rot1': 101, 'rot0': 100, 'rot3': 61, 'rot2': 80, 'state': 'normal', 'yaw': 82.93, 'datetime': '2018-10-12 13:37:34.016427', 'mgs': 0, 'depth': 1.767, 'time': 16.34, 'pitch': 2.77, 'roll': -11.99}
{'lipoC2': 7.9, 'temp': 24.44, 'lipoC3S3': 11.79, 'rot1': 102, 'rot0': 101, 'rot3': 61, 'rot2': 80, 'state': 'normal', 'yaw': 87.74, 'datetime': '2018-10-12 13:37:34.113356', 'mgs': 0, 'depth': 1.767, 'time': 16.43, 'pitch': 3.66, 'roll': -11.67}
{'lipoC2': 7.9, 'temp': 24.44, 'lipoC3S3': 11.79, 'rot1': 102, 'rot0': 102, 'rot3': 62, 'rot2': 81, 'state': 'normal', 'yaw': 92.13, 'datetime': '2018-10-12 13:37:34.211731', 'mgs': 0, 'depth': 1.843, 'time': 16.53, 'pitch': 4.54, 'roll': -11.27}
{'lipoC2': 7.9, 'temp': 24.44, 'lipoC3S3': 11.79, 'rot1': 103, 'rot0': 104, 'rot3': 62, 'rot2': 81, 'state': 'normal', 'yaw': 97.07, 'datetime': '2018-10-12 13:37:34.309340', 'mgs': 0, 'depth': 1.691, 'time': 16.63, 'pitch': 5.5, 'roll': -10.83}
{'lipoC2': 7.9, 'temp': 24.44, 'lipoC3S3': 11.71, 'rot1': 104, 'rot0': 104, 'rot3': 63, 'rot2': 82, 'state': 'normal', 'yaw': 102.09, 'datetime': '2018-10-12 13:37:34.407039', 'mgs': 0, 'depth': 1.767, 'time': 16.73, 'pitch': 6.38, 'roll': -10.4}
{'lipoC2': 7.9, 'temp': 24.44, 'lipoC3S3': 11.79, 'rot1': 105, 'rot0': 105, 'rot3': 63, 'rot2': 83, 'state': 'normal', 'yaw': 107.19, 'datetime': '2018-10-12 13:37:34.504770', 'mgs': 0, 'depth': 1.767, 'time': 16.83, 'pitch': 7.19, 'roll': -9.95}
{'lipoC2': 7.9, 'temp': 24.44, 'lipoC3S3': 11.79, 'rot1': 106, 'rot0': 106, 'rot3': 64, 'rot2': 83, 'state': 'normal', 'yaw': 111.85, 'datetime': '2018-10-12 13:37:34.602522', 'mgs': 0, 'depth': 1.691, 'time': 16.92, 'pitch': 7.87, 'roll': -9.47}
{'lipoC2': 7.88, 'temp': 24.38, 'lipoC3S3': 11.88, 'rot1': 106, 'rot0': 106, 'rot3': 64, 'rot2': 84, 'state': 'normal', 'yaw': 117.04, 'datetime': '2018-10-12 13:37:34.700444', 'mgs': 0, 'depth': 1.767, 'time': 17.02, 'pitch': 8.5, 'roll': -8.83}
{'lipoC2': 7.88, 'temp': 24.38, 'lipoC3S3': 11.89, 'rot1': 106, 'rot0': 106, 'rot3': 64, 'rot2': 84, 'state': 'normal', 'yaw': 121.75, 'datetime': '2018-10-12 13:37:34.797604', 'mgs': 0, 'depth': 1.767, 'time': 17.12, 'pitch': 8.87, 'roll': -8.32}
{'lipoC2': 7.9, 'temp': 24.44, 'lipoC3S3': 11.77, 'rot1': 106, 'rot0': 106, 'rot3': 64, 'rot2': 84, 'state': 'normal', 'yaw': 125.93, 'datetime': '2018-10-12 13:37:34.895775', 'mgs': 0, 'depth': 1.996, 'time': 17.22, 'pitch': 9.09, 'roll': -8.02}
{'lipoC2': 7.9, 'temp': 24.44, 'lipoC3S3': 11.8, 'rot1': 107, 'rot0': 107, 'rot3': 64, 'rot2': 85, 'state': 'normal', 'yaw': 129.38, 'datetime': '2018-10-12 13:37:34.990514', 'mgs': 0, 'depth': 2.072, 'time': 17.32, 'pitch': 9.3, 'roll': -8.04}
{'lipoC2': 7.9, 'temp': 24.44, 'lipoC3S3': 11.76, 'rot1': 108, 'rot0': 107, 'rot3': 65, 'rot2': 86, 'state': 'normal', 'yaw': 133.06, 'datetime': '2018-10-12 13:37:35.089405', 'mgs': 0, 'depth': 1.92, 'time': 17.42, 'pitch': 9.65, 'roll': -7.85}
{'lipoC2': 7.9, 'temp': 24.44, 'lipoC3S3': 11.75, 'rot1': 109, 'rot0': 108, 'rot3': 65, 'rot2': 86, 'state': 'normal', 'yaw': 136.72, 'datetime': '2018-10-12 13:37:35.188420', 'mgs': 0, 'depth': 2.454, 'time': 17.51, 'pitch': 10.19, 'roll': -7.29}
{'lipoC2': 7.9, 'temp': 24.44, 'lipoC3S3': 11.8, 'rot1': 110, 'rot0': 109, 'rot3': 66, 'rot2': 87, 'state': 'normal', 'yaw': 140.24, 'datetime': '2018-10-12 13:37:35.286249', 'mgs': 0, 'depth': 2.225, 'time': 17.61, 'pitch': 10.77, 'roll': -6.65}
{'lipoC2': 7.9, 'temp': 24.44, 'lipoC3S3': 11.8, 'rot1': 111, 'rot0': 110, 'rot3': 66, 'rot2': 87, 'state': 'normal', 'yaw': 143.73, 'datetime': '2018-10-12 13:37:35.383855', 'mgs': 0, 'depth': 2.301, 'time': 17.71, 'pitch': 11.31, 'roll': -6.0}
{'lipoC2': 7.9, 'temp': 24.44, 'lipoC3S3': 11.75, 'rot1': 112, 'rot0': 111, 'rot3': 67, 'rot2': 88, 'state': 'normal', 'yaw': 146.8, 'datetime': '2018-10-12 13:37:35.481893', 'mgs': 0, 'depth': 2.072, 'time': 17.81, 'pitch': 11.78, 'roll': -5.38}
{'lipoC2': 7.9, 'temp': 24.44, 'lipoC3S3': 11.75, 'rot1': 113, 'rot0': 111, 'rot3': 68, 'rot2': 88, 'state': 'normal', 'yaw': 150.09, 'datetime': '2018-10-12 13:37:35.580835', 'mgs': 0, 'depth': 2.148, 'time': 17.91, 'pitch': 12.21, 'roll': -4.6}
{'lipoC2': 7.9, 'temp': 24.38, 'lipoC3S3': 11.79, 'rot1': 114, 'rot0': 112, 'rot3': 68, 'rot2': 89, 'state': 'normal', 'yaw': 153.34, 'datetime': '2018-10-12 13:37:35.679735', 'mgs': 0, 'depth': 2.911, 'time': 18.01, 'pitch': 12.54, 'roll': -3.67}
{'lipoC2': 7.9, 'temp': 24.38, 'lipoC3S3': 11.81, 'rot1': 115, 'rot0': 113, 'rot3': 68, 'rot2': 90, 'state': 'normal', 'yaw': 156.56, 'datetime': '2018-10-12 13:37:35.778457', 'mgs': 0, 'depth': 2.53, 'time': 18.1, 'pitch': 12.72, 'roll': -2.64}
{'lipoC2': 7.9, 'temp': 24.5, 'lipoC3S3': 11.8, 'rot1': 116, 'rot0': 114, 'rot3': 69, 'rot2': 90, 'state': 'normal', 'yaw': 159.67, 'datetime': '2018-10-12 13:37:35.876589', 'mgs': 0, 'depth': 2.606, 'time': 18.2, 'pitch': 12.83, 'roll': -1.54}
{'lipoC2': 7.91, 'temp': 24.5, 'lipoC3S3': 11.8, 'rot1': 117, 'rot0': 114, 'rot3': 69, 'rot2': 91, 'state': 'normal', 'yaw': 162.75, 'datetime': '2018-10-12 13:37:35.973750', 'mgs': 0, 'depth': 3.14, 'time': 18.3, 'pitch': 12.8, 'roll': -0.36}
{'lipoC2': 7.9, 'temp': 24.5, 'lipoC3S3': 11.8, 'rot1': 119, 'rot0': 115, 'rot3': 70, 'rot2': 91, 'state': 'normal', 'yaw': 165.49, 'datetime': '2018-10-12 13:37:36.072352', 'mgs': 0, 'depth': 3.217, 'time': 18.4, 'pitch': 12.7, 'roll': 0.74}
{'lipoC2': 7.9, 'temp': 24.44, 'lipoC3S3': 11.83, 'rot1': 120, 'rot0': 116, 'rot3': 70, 'rot2': 92, 'state': 'normal', 'yaw': 168.46, 'datetime': '2018-10-12 13:37:36.171348', 'mgs': 0, 'depth': 2.454, 'time': 18.5, 'pitch': 12.52, 'roll': 1.9}
{'lipoC2': 7.9, 'temp': 24.44, 'lipoC3S3': 11.75, 'rot1': 121, 'rot0': 117, 'rot3': 71, 'rot2': 92, 'state': 'normal', 'yaw': 171.36, 'datetime': '2018-10-12 13:37:36.269463', 'mgs': 0, 'depth': 2.835, 'time': 18.59, 'pitch': 12.31, 'roll': 2.88}
{'lipoC2': 7.91, 'temp': 24.44, 'lipoC3S3': 11.75, 'rot1': 122, 'rot0': 118, 'rot3': 71, 'rot2': 93, 'state': 'normal', 'yaw': 174.17, 'datetime': '2018-10-12 13:37:36.367120', 'mgs': 0, 'depth': 2.682, 'time': 18.69, 'pitch': 12.07, 'roll': 3.67}
{'lipoC2': 7.9, 'temp': 24.44, 'lipoC3S3': 11.67, 'rot1': 123, 'rot0': 119, 'rot3': 72, 'rot2': 93, 'state': 'normal', 'yaw': 176.95, 'datetime': '2018-10-12 13:37:36.464752', 'mgs': 0, 'depth': 2.682, 'time': 18.79, 'pitch': 11.86, 'roll': 4.27}
{'lipoC2': 7.9, 'temp': 24.44, 'lipoC3S3': 11.69, 'rot1': 124, 'rot0': 120, 'rot3': 72, 'rot2': 94, 'state': 'normal', 'yaw': 179.43, 'datetime': '2018-10-12 13:37:36.562341', 'mgs': 0, 'depth': 2.759, 'time': 18.89, 'pitch': 11.67, 'roll': 4.7}
{'lipoC2': 7.9, 'temp': 24.5, 'lipoC3S3': 11.69, 'rot1': 125, 'rot0': 120, 'rot3': 73, 'rot2': 95, 'state': 'normal', 'yaw': -177.85, 'datetime': '2018-10-12 13:37:36.660066', 'mgs': 0, 'depth': 2.759, 'time': 18.99, 'pitch': 11.44, 'roll': 5.07}
{'lipoC2': 7.9, 'temp': 24.5, 'lipoC3S3': 11.69, 'rot1': 126, 'rot0': 121, 'rot3': 73, 'rot2': 95, 'state': 'normal', 'yaw': -175.21, 'datetime': '2018-10-12 13:37:36.757828', 'mgs': 0, 'depth': 2.911, 'time': 19.08, 'pitch': 11.21, 'roll': 5.29}
{'lipoC2': 7.88, 'temp': 24.38, 'lipoC3S3': 11.75, 'rot1': 127, 'rot0': 122, 'rot3': 74, 'rot2': 96, 'state': 'normal', 'yaw': -173.15, 'datetime': '2018-10-12 13:37:36.855561', 'mgs': 0, 'depth': 2.988, 'time': 19.18, 'pitch': 11.04, 'roll': 5.31}
{'lipoC2': 7.9, 'temp': 24.38, 'lipoC3S3': 11.75, 'rot1': 128, 'rot0': 123, 'rot3': 74, 'rot2': 96, 'state': 'normal', 'yaw': -171.82, 'datetime': '2018-10-12 13:37:36.953433', 'mgs': 0, 'depth': 3.217, 'time': 19.28, 'pitch': 10.9, 'roll': 5.19}
{'lipoC2': 7.9, 'temp': 24.38, 'lipoC3S3': 11.75, 'rot1': 128, 'rot0': 125, 'rot3': 75, 'rot2': 97, 'state': 'normal', 'yaw': -170.82, 'datetime': '2018-10-12 13:37:37.051153', 'mgs': 0, 'depth': 3.369, 'time': 19.38, 'pitch': 10.72, 'roll': 4.95}
