{'lipoC2': 7.75, 'temp': 23.69, 'lipoC3S3': 11.69, 'rot1': 0, 'rot0': 0, 'rot3': 0, 'rot2': 0, 'state': 'normal', 'yaw': 0.0, 'datetime': '2018-10-12 14:15:05.911382', 'mgs': 0, 'depth': 1.614, 'time': 1.26, 'pitch': -4.73, 'roll': -37.7}
{'lipoC2': 7.75, 'temp': 23.69, 'lipoC3S3': 11.68, 'rot1': 0, 'rot0': 0, 'rot3': 0, 'rot2': 0, 'state': 'normal', 'yaw': 0.24, 'datetime': '2018-10-12 14:15:05.928479', 'mgs': 0, 'depth': 1.614, 'time': 1.36, 'pitch': -5.01, 'roll': -37.49}
{'lipoC2': 7.75, 'temp': 23.69, 'lipoC3S3': 11.69, 'rot1': 0, 'rot0': 0, 'rot3': 0, 'rot2': 0, 'state': 'normal', 'yaw': 0.41, 'datetime': '2018-10-12 14:15:05.945586', 'mgs': 0, 'depth': 1.614, 'time': 1.45, 'pitch': -5.23, 'roll': -37.17}
{'lipoC2': 7.73, 'temp': 23.69, 'lipoC3S3': 11.68, 'rot1': 0, 'rot0': 0, 'rot3': 0, 'rot2': 0, 'state': 'normal', 'yaw': 0.45, 'datetime': '2018-10-12 14:15:05.962739', 'mgs': 0, 'depth': 1.691, 'time': 1.55, 'pitch': -5.37, 'roll': -36.9}
{'lipoC2': 7.75, 'temp': 23.69, 'lipoC3S3': 11.69, 'rot1': 0, 'rot0': 0, 'rot3': 0, 'rot2': 0, 'state': 'normal', 'yaw': 0.37, 'datetime': '2018-10-12 14:15:05.979832', 'mgs': 0, 'depth': 1.614, 'time': 1.65, 'pitch': -5.44, 'roll': -36.62}
{'lipoC2': 7.75, 'temp': 23.69, 'lipoC3S3': 11.68, 'rot1': 0, 'rot0': 0, 'rot3': 0, 'rot2': 0, 'state': 'normal', 'yaw': 0.18, 'datetime': '2018-10-12 14:15:05.997001', 'mgs': 0, 'depth': 1.691, 'time': 1.75, 'pitch': -5.48, 'roll': -36.31}
{'lipoC2': 7.75, 'temp': 23.69, 'lipoC3S3': 11.69, 'rot1': 0, 'rot0': 0, 'rot3': 0, 'rot2': 0, 'state': 'normal', 'yaw': -0.14, 'datetime': '2018-10-12 14:15:06.015714', 'mgs': 0, 'depth': 1.614, 'time': 1.85, 'pitch': -5.47, 'roll': -36.0}
{'lipoC2': 7.75, 'temp': 23.69, 'lipoC3S3': 11.68, 'rot1': 0, 'rot0': 0, 'rot3': 0, 'rot2': 0, 'state': 'normal', 'yaw': -0.49, 'datetime': '2018-10-12 14:15:06.112090', 'mgs': 0, 'depth': 1.691, 'time': 1.94, 'pitch': -5.42, 'roll': -35.89}
{'lipoC2': 7.75, 'temp': 23.69, 'lipoC3S3': 11.69, 'rot1': 0, 'rot0': 0, 'rot3': 0, 'rot2': 0, 'state': 'normal', 'yaw': -0.93, 'datetime': '2018-10-12 14:15:06.210409', 'mgs': 0, 'depth': 1.614, 'time': 2.04, 'pitch': -5.4, 'roll': -35.85}
{'lipoC2': 7.75, 'temp': 23.69, 'lipoC3S3': 11.69, 'rot1': 0, 'rot0': 0, 'rot3': 0, 'rot2': 0, 'state': 'normal', 'yaw': -1.37, 'datetime': '2018-10-12 14:15:06.307957', 'mgs': 0, 'depth': 1.614, 'time': 2.14, 'pitch': -5.43, 'roll': -35.58}
{'lipoC2': 7.75, 'temp': 23.69, 'lipoC3S3': 11.68, 'rot1': 0, 'rot0': 0, 'rot3': 0, 'rot2': 0, 'state': 'normal', 'yaw': -1.75, 'datetime': '2018-10-12 14:15:06.404976', 'mgs': 0, 'depth': 1.691, 'time': 2.23, 'pitch': -5.48, 'roll': -35.07}
{'lipoC2': 7.75, 'temp': 23.69, 'lipoC3S3': 11.68, 'rot1': 0, 'rot0': 0, 'rot3': 0, 'rot2': 0, 'state': 'normal', 'yaw': -2.01, 'datetime': '2018-10-12 14:15:06.502847', 'mgs': 0, 'depth': 1.691, 'time': 2.33, 'pitch': -5.48, 'roll': -34.61}
{'lipoC2': 7.75, 'temp': 23.63, 'lipoC3S3': 11.68, 'rot1': 0, 'rot0': 0, 'rot3': 0, 'rot2': 0, 'state': 'normal', 'yaw': -2.23, 'datetime': '2018-10-12 14:15:06.600836', 'mgs': 0, 'depth': 1.691, 'time': 2.43, 'pitch': -5.45, 'roll': -34.1}
{'lipoC2': 7.75, 'temp': 23.63, 'lipoC3S3': 11.68, 'rot1': 0, 'rot0': 0, 'rot3': 0, 'rot2': 0, 'state': 'normal', 'yaw': -2.36, 'datetime': '2018-10-12 14:15:06.697835', 'mgs': 0, 'depth': 1.767, 'time': 2.53, 'pitch': -5.32, 'roll': -33.31}
{'lipoC2': 7.75, 'temp': 23.63, 'lipoC3S3': 11.68, 'rot1': 0, 'rot0': 0, 'rot3': 0, 'rot2': 0, 'state': 'normal', 'yaw': -2.4, 'datetime': '2018-10-12 14:15:06.800291', 'mgs': 0, 'depth': 1.767, 'time': 2.63, 'pitch': -5.04, 'roll': -32.04}
{'lipoC2': 7.75, 'temp': 23.69, 'lipoC3S3': 11.68, 'rot1': 0, 'rot0': 0, 'rot3': 0, 'rot2': 0, 'state': 'normal', 'yaw': -2.3, 'datetime': '2018-10-12 14:15:06.897191', 'mgs': 0, 'depth': 1.843, 'time': 2.72, 'pitch': -4.63, 'roll': -30.69}
{'lipoC2': 7.75, 'temp': 23.69, 'lipoC3S3': 11.69, 'rot1': 0, 'rot0': 0, 'rot3': 0, 'rot2': 0, 'state': 'normal', 'yaw': -2.09, 'datetime': '2018-10-12 14:15:06.994281', 'mgs': 0, 'depth': 1.843, 'time': 2.82, 'pitch': -4.08, 'roll': -29.18}
{'lipoC2': 7.73, 'temp': 23.69, 'lipoC3S3': 11.68, 'rot1': 0, 'rot0': 0, 'rot3': 0, 'rot2': 0, 'state': 'normal', 'yaw': -1.75, 'datetime': '2018-10-12 14:15:07.091498', 'mgs': 0, 'depth': 1.843, 'time': 2.92, 'pitch': -3.53, 'roll': -27.84}
{'lipoC2': 7.75, 'temp': 23.69, 'lipoC3S3': 11.68, 'rot1': 0, 'rot0': 0, 'rot3': 0, 'rot2': 0, 'state': 'normal', 'yaw': -1.38, 'datetime': '2018-10-12 14:15:07.188495', 'mgs': 0, 'depth': 1.843, 'time': 3.01, 'pitch': -3.19, 'roll': -26.84}
{'lipoC2': 7.75, 'temp': 23.69, 'lipoC3S3': 11.68, 'rot1': 0, 'rot0': 0, 'rot3': 0, 'rot2': 0, 'state': 'normal', 'yaw': -0.95, 'datetime': '2018-10-12 14:15:07.285442', 'mgs': 0, 'depth': 1.92, 'time': 3.11, 'pitch': -3.1, 'roll': -25.9}
{'lipoC2': 7.75, 'temp': 23.69, 'lipoC3S3': 11.68, 'rot1': 0, 'rot0': 0, 'rot3': 0, 'rot2': 0, 'state': 'normal', 'yaw': -0.54, 'datetime': '2018-10-12 14:15:07.382483', 'mgs': 0, 'depth': 1.996, 'time': 3.21, 'pitch': -3.28, 'roll': -24.98}
{'lipoC2': 7.75, 'temp': 23.69, 'lipoC3S3': 11.68, 'rot1': 0, 'rot0': 0, 'rot3': 0, 'rot2': 0, 'state': 'normal', 'yaw': -0.15, 'datetime': '2018-10-12 14:15:07.480395', 'mgs': 0, 'depth': 1.996, 'time': 3.31, 'pitch': -3.54, 'roll': -23.78}
{'lipoC2': 7.75, 'temp': 23.75, 'lipoC3S3': 11.68, 'rot1': 0, 'rot0': 0, 'rot3': 0, 'rot2': 0, 'state': 'normal', 'yaw': 0.27, 'datetime': '2018-10-12 14:15:07.578917', 'mgs': 0, 'depth': 1.996, 'time': 3.4, 'pitch': -3.91, 'roll': -22.62}
{'lipoC2': 7.75, 'temp': 23.75, 'lipoC3S3': 11.68, 'rot1': 0, 'rot0': 0, 'rot3': 0, 'rot2': 0, 'state': 'normal', 'yaw': 0.68, 'datetime': '2018-10-12 14:15:07.676530', 'mgs': 0, 'depth': 1.996, 'time': 3.5, 'pitch': -4.26, 'roll': -22.56}
{'lipoC2': 7.75, 'temp': 23.75, 'lipoC3S3': 11.68, 'rot1': 0, 'rot0': 0, 'rot3': 0, 'rot2': 0, 'state': 'normal', 'yaw': 1.08, 'datetime': '2018-10-12 14:15:07.773567', 'mgs': 0, 'depth': 1.996, 'time': 3.6, 'pitch': -4.55, 'roll': -23.03}
{'lipoC2': 7.75, 'temp': 23.69, 'lipoC3S3': 11.68, 'rot1': 0, 'rot0': 0, 'rot3': 0, 'rot2': 0, 'state': 'normal', 'yaw': 1.43, 'datetime': '2018-10-12 14:15:07.871242', 'mgs': 0, 'depth': 1.996, 'time': 3.7, 'pitch': -4.83, 'roll': -23.13}
{'lipoC2': 7.75, 'temp': 23.69, 'lipoC3S3': 11.68, 'rot1': 0, 'rot0': 0, 'rot3': 0, 'rot2': 0, 'state': 'normal', 'yaw': 1.8, 'datetime': '2018-10-12 14:15:07.969404', 'mgs': 0, 'depth': 2.148, 'time': 3.8, 'pitch': -5.14, 'roll': -22.71}
{'lipoC2': 7.75, 'temp': 23.69, 'lipoC3S3': 11.68, 'rot1': 0, 'rot0': 0, 'rot3': 0, 'rot2': 0, 'state': 'normal', 'yaw': 2.17, 'datetime': '2018-10-12 14:15:08.067287', 'mgs': 0, 'depth': 2.148, 'time': 3.89, 'pitch': -5.46, 'roll': -22.0}
{'lipoC2': 7.75, 'temp': 23.69, 'lipoC3S3': 11.68, 'rot1': 0, 'rot0': 0, 'rot3': 0, 'rot2': 0, 'state': 'normal', 'yaw': 2.54, 'datetime': '2018-10-12 14:15:08.164312', 'mgs': 0, 'depth': 2.148, 'time': 3.99, 'pitch': -5.76, 'roll': -21.26}
{'lipoC2': 7.75, 'temp': 23.69, 'lipoC3S3': 11.69, 'rot1': 0, 'rot0': 0, 'rot3': 0, 'rot2': 0, 'state': 'normal', 'yaw': 2.86, 'datetime': '2018-10-12 14:15:08.262052', 'mgs': 0, 'depth': 2.148, 'time': 4.09, 'pitch': -5.98, 'roll': -20.64}
{'lipoC2': 7.75, 'temp': 23.69, 'lipoC3S3': 11.68, 'rot1': 0, 'rot0': 0, 'rot3': 0, 'rot2': 0, 'state': 'normal', 'yaw': 3.18, 'datetime': '2018-10-12 14:15:08.359839', 'mgs': 0, 'depth': 2.148, 'time': 4.19, 'pitch': -6.12, 'roll': -19.88}
{'lipoC2': 7.75, 'temp': 23.69, 'lipoC3S3': 11.69, 'rot1': 0, 'rot0': 0, 'rot3': 0, 'rot2': 0, 'state': 'normal', 'yaw': 3.45, 'datetime': '2018-10-12 14:15:08.456927', 'mgs': 0, 'depth': 2.225, 'time': 4.28, 'pitch': -6.12, 'roll': -18.95}
{'lipoC2': 7.75, 'temp': 23.69, 'lipoC3S3': 11.68, 'rot1': 0, 'rot0': 0, 'rot3': 0, 'rot2': 0, 'state': 'normal', 'yaw': 3.66, 'datetime': '2018-10-12 14:15:08.554041', 'mgs': 0, 'depth': 2.301, 'time': 4.38, 'pitch': -6.02, 'roll': -17.87}
{'lipoC2': 7.75, 'temp': 23.69, 'lipoC3S3': 11.68, 'rot1': 0, 'rot0': 0, 'rot3': 0, 'rot2': 0, 'state': 'normal', 'yaw': 3.8, 'datetime': '2018-10-12 14:15:08.651161', 'mgs': 0, 'depth': 2.301, 'time': 4.48, 'pitch': -5.83, 'roll': -16.93}
{'lipoC2': 7.75, 'temp': 23.69, 'lipoC3S3': 11.69, 'rot1': 0, 'rot0': 0, 'rot3': 0, 'rot2': 0, 'state': 'normal', 'yaw': 3.92, 'datetime': '2018-10-12 14:15:08.748116', 'mgs': 0, 'depth': 2.377, 'time': 4.58, 'pitch': -5.59, 'roll': -16.1}
{'lipoC2': 7.75, 'temp': 23.63, 'lipoC3S3': 11.68, 'rot1': 0, 'rot0': 0, 'rot3': 0, 'rot2': 0, 'state': 'normal', 'yaw': 4.02, 'datetime': '2018-10-12 14:15:08.845205', 'mgs': 0, 'depth': 2.377, 'time': 4.67, 'pitch': -5.34, 'roll': -15.58}
{'lipoC2': 7.75, 'temp': 23.63, 'lipoC3S3': 11.68, 'rot1': 0, 'rot0': 0, 'rot3': 0, 'rot2': 0, 'state': 'normal', 'yaw': 4.07, 'datetime': '2018-10-12 14:15:08.942244', 'mgs': 0, 'depth': 2.454, 'time': 4.77, 'pitch': -5.12, 'roll': -15.33}
{'lipoC2': 7.73, 'temp': 23.69, 'lipoC3S3': 11.68, 'rot1': 0, 'rot0': 0, 'rot3': 0, 'rot2': 0, 'state': 'normal', 'yaw': 4.03, 'datetime': '2018-10-12 14:15:09.039530', 'mgs': 0, 'depth': 2.454, 'time': 4.87, 'pitch': -4.89, 'roll': -15.28}
{'lipoC2': 7.75, 'temp': 23.69, 'lipoC3S3': 11.69, 'rot1': 0, 'rot0': 0, 'rot3': 0, 'rot2': 0, 'state': 'normal', 'yaw': 3.95, 'datetime': '2018-10-12 14:15:09.136343', 'mgs': 0, 'depth': 2.454, 'time': 4.96, 'pitch': -4.68, 'roll': -15.49}
{'lipoC2': 7.75, 'temp': 23.69, 'lipoC3S3': 11.68, 'rot1': 0, 'rot0': 0, 'rot3': 0, 'rot2': 0, 'state': 'normal', 'yaw': 3.81, 'datetime': '2018-10-12 14:15:09.234190', 'mgs': 1, 'depth': 2.377, 'time': 5.06, 'pitch': -4.54, 'roll': -15.9}
{'lipoC2': 7.75, 'temp': 23.69, 'lipoC3S3': 11.68, 'rot1': 0, 'rot0': 0, 'rot3': 0, 'rot2': 0, 'state': 'normal', 'yaw': 0.0, 'datetime': '2018-10-12 14:15:10.753927', 'mgs': 0, 'depth': 2.682, 'time': 1.26, 'pitch': -5.4, 'roll': -18.07}
{'lipoC2': 7.75, 'temp': 23.69, 'lipoC3S3': 11.68, 'rot1': 0, 'rot0': 0, 'rot3': 0, 'rot2': 0, 'state': 'normal', 'yaw': -0.16, 'datetime': '2018-10-12 14:15:10.779677', 'mgs': 0, 'depth': 2.606, 'time': 1.36, 'pitch': -5.67, 'roll': -17.87}
{'lipoC2': 7.75, 'temp': 23.69, 'lipoC3S3': 11.68, 'rot1': 0, 'rot0': 0, 'rot3': 0, 'rot2': 0, 'state': 'normal', 'yaw': -0.34, 'datetime': '2018-10-12 14:15:10.796787', 'mgs': 0, 'depth': 2.682, 'time': 1.45, 'pitch': -5.91, 'roll': -17.6}
{'lipoC2': 7.75, 'temp': 23.69, 'lipoC3S3': 11.65, 'rot1': 0, 'rot0': 0, 'rot3': 0, 'rot2': 0, 'state': 'normal', 'yaw': -0.51, 'datetime': '2018-10-12 14:15:10.885312', 'mgs': 0, 'depth': 3.064, 'time': 1.55, 'pitch': -6.08, 'roll': -17.3}
{'lipoC2': 7.75, 'temp': 23.69, 'lipoC3S3': 11.64, 'rot1': 0, 'rot0': 0, 'rot3': 0, 'rot2': 0, 'state': 'normal', 'yaw': -0.72, 'datetime': '2018-10-12 14:15:10.984553', 'mgs': 0, 'depth': 2.682, 'time': 1.65, 'pitch': -6.25, 'roll': -16.91}
{'lipoC2': 7.75, 'temp': 23.63, 'lipoC3S3': 11.63, 'rot1': 1, 'rot0': 1, 'rot3': 1, 'rot2': 1, 'state': 'normal', 'yaw': -0.95, 'datetime': '2018-10-12 14:15:11.081234', 'mgs': 0, 'depth': 2.759, 'time': 1.75, 'pitch': -6.41, 'roll': -16.2}
{'lipoC2': 7.75, 'temp': 23.63, 'lipoC3S3': 11.64, 'rot1': 1, 'rot0': 2, 'rot3': 1, 'rot2': 1, 'state': 'normal', 'yaw': -1.15, 'datetime': '2018-10-12 14:15:11.177943', 'mgs': 0, 'depth': 2.911, 'time': 1.84, 'pitch': -6.56, 'roll': -15.17}
{'lipoC2': 7.75, 'temp': 23.63, 'lipoC3S3': 11.64, 'rot1': 2, 'rot0': 2, 'rot3': 2, 'rot2': 2, 'state': 'normal', 'yaw': -1.3, 'datetime': '2018-10-12 14:15:11.276080', 'mgs': 0, 'depth': 2.759, 'time': 1.94, 'pitch': -6.65, 'roll': -14.11}
{'lipoC2': 7.75, 'temp': 23.69, 'lipoC3S3': 11.64, 'rot1': 3, 'rot0': 3, 'rot3': 2, 'rot2': 2, 'state': 'normal', 'yaw': -1.28, 'datetime': '2018-10-12 14:15:11.373538', 'mgs': 0, 'depth': 2.759, 'time': 2.04, 'pitch': -6.65, 'roll': -12.95}
{'lipoC2': 7.75, 'temp': 23.69, 'lipoC3S3': 11.63, 'rot1': 4, 'rot0': 3, 'rot3': 3, 'rot2': 3, 'state': 'normal', 'yaw': -1.07, 'datetime': '2018-10-12 14:15:11.470203', 'mgs': 0, 'depth': 3.064, 'time': 2.13, 'pitch': -6.52, 'roll': -11.8}
{'lipoC2': 7.75, 'temp': 23.88, 'lipoC3S3': 11.63, 'rot1': 5, 'rot0': 4, 'rot3': 3, 'rot2': 3, 'state': 'normal', 'yaw': -0.75, 'datetime': '2018-10-12 14:15:11.567712', 'mgs': 0, 'depth': 3.445, 'time': 2.23, 'pitch': -6.27, 'roll': -10.78}
{'lipoC2': 7.75, 'temp': 23.88, 'lipoC3S3': 11.59, 'rot1': 6, 'rot0': 4, 'rot3': 4, 'rot2': 4, 'state': 'normal', 'yaw': -0.27, 'datetime': '2018-10-12 14:15:11.665095', 'mgs': 0, 'depth': 2.835, 'time': 2.33, 'pitch': -5.94, 'roll': -9.74}
{'lipoC2': 7.75, 'temp': 23.75, 'lipoC3S3': 11.6, 'rot1': 6, 'rot0': 5, 'rot3': 4, 'rot2': 4, 'state': 'normal', 'yaw': 0.37, 'datetime': '2018-10-12 14:15:11.761704', 'mgs': 0, 'depth': 2.759, 'time': 2.43, 'pitch': -5.58, 'roll': -8.95}
{'lipoC2': 7.73, 'temp': 23.75, 'lipoC3S3': 11.52, 'rot1': 7, 'rot0': 6, 'rot3': 4, 'rot2': 5, 'state': 'normal', 'yaw': 1.05, 'datetime': '2018-10-12 14:15:11.858530', 'mgs': 0, 'depth': 2.682, 'time': 2.52, 'pitch': -5.28, 'roll': -8.5}
{'lipoC2': 7.75, 'temp': 23.75, 'lipoC3S3': 11.6, 'rot1': 8, 'rot0': 6, 'rot3': 5, 'rot2': 5, 'state': 'normal', 'yaw': 1.76, 'datetime': '2018-10-12 14:15:11.955310', 'mgs': 0, 'depth': 2.682, 'time': 2.62, 'pitch': -5.02, 'roll': -8.22}
{'lipoC2': 7.75, 'temp': 23.69, 'lipoC3S3': 11.63, 'rot1': 9, 'rot0': 7, 'rot3': 5, 'rot2': 6, 'state': 'normal', 'yaw': 2.39, 'datetime': '2018-10-12 14:15:12.052194', 'mgs': 0, 'depth': 2.682, 'time': 2.72, 'pitch': -4.8, 'roll': -8.11}
{'lipoC2': 7.75, 'temp': 23.69, 'lipoC3S3': 11.58, 'rot1': 9, 'rot0': 8, 'rot3': 6, 'rot2': 6, 'state': 'normal', 'yaw': 2.88, 'datetime': '2018-10-12 14:15:12.148982', 'mgs': 0, 'depth': 2.606, 'time': 2.81, 'pitch': -4.59, 'roll': -8.13}
{'lipoC2': 7.75, 'temp': 23.69, 'lipoC3S3': 11.59, 'rot1': 10, 'rot0': 9, 'rot3': 6, 'rot2': 7, 'state': 'normal', 'yaw': 3.25, 'datetime': '2018-10-12 14:15:12.245848', 'mgs': 0, 'depth': 2.606, 'time': 2.91, 'pitch': -4.38, 'roll': -8.31}
{'lipoC2': 7.75, 'temp': 23.69, 'lipoC3S3': 11.55, 'rot1': 10, 'rot0': 10, 'rot3': 7, 'rot2': 7, 'state': 'normal', 'yaw': 3.41, 'datetime': '2018-10-12 14:15:12.342857', 'mgs': 0, 'depth': 2.53, 'time': 3.01, 'pitch': -4.34, 'roll': -8.61}
{'lipoC2': 7.75, 'temp': 23.69, 'lipoC3S3': 11.63, 'rot1': 11, 'rot0': 10, 'rot3': 7, 'rot2': 8, 'state': 'normal', 'yaw': 3.35, 'datetime': '2018-10-12 14:15:12.440463', 'mgs': 0, 'depth': 2.454, 'time': 3.11, 'pitch': -4.68, 'roll': -8.99}
{'lipoC2': 7.75, 'temp': 23.69, 'lipoC3S3': 11.63, 'rot1': 12, 'rot0': 11, 'rot3': 8, 'rot2': 8, 'state': 'normal', 'yaw': 3.13, 'datetime': '2018-10-12 14:15:12.538816', 'mgs': 0, 'depth': 2.454, 'time': 3.2, 'pitch': -5.05, 'roll': -9.37}
{'lipoC2': 7.75, 'temp': 23.69, 'lipoC3S3': 11.65, 'rot1': 12, 'rot0': 12, 'rot3': 8, 'rot2': 9, 'state': 'normal', 'yaw': 2.74, 'datetime': '2018-10-12 14:15:12.637268', 'mgs': 0, 'depth': 2.377, 'time': 3.3, 'pitch': -5.29, 'roll': -9.81}
{'lipoC2': 7.73, 'temp': 23.69, 'lipoC3S3': 11.65, 'rot1': 13, 'rot0': 13, 'rot3': 8, 'rot2': 9, 'state': 'normal', 'yaw': 2.23, 'datetime': '2018-10-12 14:15:12.734211', 'mgs': 0, 'depth': 2.835, 'time': 3.4, 'pitch': -5.45, 'roll': -10.33}
{'lipoC2': 7.75, 'temp': 23.69, 'lipoC3S3': 11.67, 'rot1': 13, 'rot0': 14, 'rot3': 8, 'rot2': 9, 'state': 'normal', 'yaw': 1.59, 'datetime': '2018-10-12 14:15:12.831278', 'mgs': 0, 'depth': 2.301, 'time': 3.5, 'pitch': -5.57, 'roll': -10.89}
{'lipoC2': 7.75, 'temp': 23.69, 'lipoC3S3': 11.65, 'rot1': 14, 'rot0': 15, 'rot3': 8, 'rot2': 9, 'state': 'normal', 'yaw': 0.91, 'datetime': '2018-10-12 14:15:12.929620', 'mgs': 0, 'depth': 2.225, 'time': 3.6, 'pitch': -5.7, 'roll': -11.42}
{'lipoC2': 7.75, 'temp': 23.69, 'lipoC3S3': 11.59, 'rot1': 14, 'rot0': 16, 'rot3': 8, 'rot2': 9, 'state': 'normal', 'yaw': 0.06, 'datetime': '2018-10-12 14:15:13.027951', 'mgs': 0, 'depth': 2.225, 'time': 3.69, 'pitch': -5.88, 'roll': -11.97}
{'lipoC2': 7.75, 'temp': 23.69, 'lipoC3S3': 11.65, 'rot1': 15, 'rot0': 16, 'rot3': 8, 'rot2': 9, 'state': 'normal', 'yaw': -0.76, 'datetime': '2018-10-12 14:15:13.124932', 'mgs': 0, 'depth': 2.377, 'time': 3.79, 'pitch': -6.05, 'roll': -12.43}
{'lipoC2': 7.75, 'temp': 23.69, 'lipoC3S3': 11.65, 'rot1': 16, 'rot0': 16, 'rot3': 8, 'rot2': 9, 'state': 'normal', 'yaw': -1.34, 'datetime': '2018-10-12 14:15:13.222083', 'mgs': 0, 'depth': 2.225, 'time': 3.89, 'pitch': -6.15, 'roll': -12.84}
{'lipoC2': 7.75, 'temp': 23.69, 'lipoC3S3': 11.68, 'rot1': 17, 'rot0': 16, 'rot3': 8, 'rot2': 9, 'state': 'normal', 'yaw': -1.51, 'datetime': '2018-10-12 14:15:13.320357', 'mgs': 0, 'depth': 2.377, 'time': 3.99, 'pitch': -6.03, 'roll': -13.3}
{'lipoC2': 7.75, 'temp': 23.69, 'lipoC3S3': 11.68, 'rot1': 17, 'rot0': 16, 'rot3': 8, 'rot2': 9, 'state': 'normal', 'yaw': -1.49, 'datetime': '2018-10-12 14:15:13.417317', 'mgs': 0, 'depth': 2.225, 'time': 4.08, 'pitch': -5.71, 'roll': -13.99}
{'lipoC2': 7.75, 'temp': 23.63, 'lipoC3S3': 11.68, 'rot1': 17, 'rot0': 16, 'rot3': 8, 'rot2': 9, 'state': 'normal', 'yaw': -1.51, 'datetime': '2018-10-12 14:15:13.514434', 'mgs': 0, 'depth': 2.148, 'time': 4.18, 'pitch': -5.32, 'roll': -14.95}
{'lipoC2': 7.75, 'temp': 23.63, 'lipoC3S3': 11.68, 'rot1': 17, 'rot0': 16, 'rot3': 8, 'rot2': 9, 'state': 'normal', 'yaw': -1.53, 'datetime': '2018-10-12 14:15:13.611921', 'mgs': 0, 'depth': 2.148, 'time': 4.28, 'pitch': -4.98, 'roll': -15.89}
{'lipoC2': 7.75, 'temp': 23.69, 'lipoC3S3': 11.68, 'rot1': 17, 'rot0': 16, 'rot3': 8, 'rot2': 9, 'state': 'normal', 'yaw': -1.55, 'datetime': '2018-10-12 14:15:13.708659', 'mgs': 0, 'depth': 2.148, 'time': 4.38, 'pitch': -4.7, 'roll': -16.83}
{'lipoC2': 7.75, 'temp': 23.69, 'lipoC3S3': 11.68, 'rot1': 17, 'rot0': 16, 'rot3': 8, 'rot2': 9, 'state': 'normal', 'yaw': -1.6, 'datetime': '2018-10-12 14:15:13.805692', 'mgs': 0, 'depth': 2.148, 'time': 4.47, 'pitch': -4.53, 'roll': -17.58}
{'lipoC2': 7.75, 'temp': 23.69, 'lipoC3S3': 11.68, 'rot1': 17, 'rot0': 16, 'rot3': 8, 'rot2': 9, 'state': 'normal', 'yaw': -1.63, 'datetime': '2018-10-12 14:15:13.902915', 'mgs': 0, 'depth': 2.148, 'time': 4.57, 'pitch': -4.43, 'roll': -18.05}
{'lipoC2': 7.75, 'temp': 23.69, 'lipoC3S3': 11.68, 'rot1': 17, 'rot0': 16, 'rot3': 8, 'rot2': 9, 'state': 'normal', 'yaw': -1.66, 'datetime': '2018-10-12 14:15:13.999972', 'mgs': 0, 'depth': 2.148, 'time': 4.67, 'pitch': -4.33, 'roll': -18.36}
{'lipoC2': 7.73, 'temp': 23.69, 'lipoC3S3': 11.68, 'rot1': 17, 'rot0': 16, 'rot3': 8, 'rot2': 9, 'state': 'normal', 'yaw': -1.67, 'datetime': '2018-10-12 14:15:14.096973', 'mgs': 0, 'depth': 2.225, 'time': 4.76, 'pitch': -4.33, 'roll': -18.53}
{'lipoC2': 7.75, 'temp': 23.69, 'lipoC3S3': 11.68, 'rot1': 17, 'rot0': 16, 'rot3': 8, 'rot2': 9, 'state': 'normal', 'yaw': -1.65, 'datetime': '2018-10-12 14:15:14.193970', 'mgs': 0, 'depth': 2.301, 'time': 4.86, 'pitch': -4.39, 'roll': -18.62}
{'lipoC2': 7.75, 'temp': 23.69, 'lipoC3S3': 11.68, 'rot1': 17, 'rot0': 16, 'rot3': 8, 'rot2': 9, 'state': 'normal', 'yaw': -1.66, 'datetime': '2018-10-12 14:15:14.292396', 'mgs': 0, 'depth': 2.225, 'time': 4.96, 'pitch': -4.55, 'roll': -18.66}
{'lipoC2': 7.75, 'temp': 23.69, 'lipoC3S3': 11.68, 'rot1': 17, 'rot0': 16, 'rot3': 8, 'rot2': 9, 'state': 'normal', 'yaw': -1.68, 'datetime': '2018-10-12 14:15:14.390778', 'mgs': 0, 'depth': 2.225, 'time': 5.06, 'pitch': -4.77, 'roll': -18.66}
{'lipoC2': 7.75, 'temp': 23.69, 'lipoC3S3': 11.68, 'rot1': 17, 'rot0': 16, 'rot3': 8, 'rot2': 9, 'state': 'normal', 'yaw': -1.71, 'datetime': '2018-10-12 14:15:14.487690', 'mgs': 0, 'depth': 2.301, 'time': 5.16, 'pitch': -4.95, 'roll': -18.65}
{'lipoC2': 7.75, 'temp': 23.69, 'lipoC3S3': 11.68, 'rot1': 17, 'rot0': 16, 'rot3': 8, 'rot2': 9, 'state': 'normal', 'yaw': -1.73, 'datetime': '2018-10-12 14:15:14.584684', 'mgs': 0, 'depth': 2.377, 'time': 5.25, 'pitch': -5.1, 'roll': -18.52}
{'lipoC2': 7.75, 'temp': 23.75, 'lipoC3S3': 11.68, 'rot1': 17, 'rot0': 16, 'rot3': 8, 'rot2': 9, 'state': 'normal', 'yaw': -1.75, 'datetime': '2018-10-12 14:15:14.683148', 'mgs': 0, 'depth': 2.377, 'time': 5.35, 'pitch': -5.24, 'roll': -18.3}
{'lipoC2': 7.73, 'temp': 23.75, 'lipoC3S3': 11.68, 'rot1': 17, 'rot0': 16, 'rot3': 8, 'rot2': 9, 'state': 'normal', 'yaw': -1.77, 'datetime': '2018-10-12 14:15:14.781405', 'mgs': 0, 'depth': 2.454, 'time': 5.45, 'pitch': -5.44, 'roll': -17.94}
{'lipoC2': 7.75, 'temp': 23.75, 'lipoC3S3': 11.68, 'rot1': 17, 'rot0': 16, 'rot3': 8, 'rot2': 9, 'state': 'normal', 'yaw': -1.77, 'datetime': '2018-10-12 14:15:14.878473', 'mgs': 0, 'depth': 2.454, 'time': 5.55, 'pitch': -5.71, 'roll': -17.53}
{'lipoC2': 7.75, 'temp': 23.69, 'lipoC3S3': 11.68, 'rot1': 17, 'rot0': 16, 'rot3': 8, 'rot2': 9, 'state': 'normal', 'yaw': -1.77, 'datetime': '2018-10-12 14:15:14.975625', 'mgs': 0, 'depth': 2.454, 'time': 5.64, 'pitch': -5.99, 'roll': -17.12}
{'lipoC2': 7.75, 'temp': 23.69, 'lipoC3S3': 11.68, 'rot1': 17, 'rot0': 16, 'rot3': 8, 'rot2': 9, 'state': 'normal', 'yaw': -1.79, 'datetime': '2018-10-12 14:15:15.074662', 'mgs': 0, 'depth': 2.53, 'time': 5.74, 'pitch': -6.23, 'roll': -16.79}
{'lipoC2': 7.75, 'temp': 23.69, 'lipoC3S3': 11.68, 'rot1': 17, 'rot0': 16, 'rot3': 8, 'rot2': 9, 'state': 'normal', 'yaw': -1.82, 'datetime': '2018-10-12 14:15:15.171564', 'mgs': 0, 'depth': 2.53, 'time': 5.84, 'pitch': -6.44, 'roll': -16.49}
{'lipoC2': 7.75, 'temp': 23.69, 'lipoC3S3': 11.68, 'rot1': 17, 'rot0': 16, 'rot3': 8, 'rot2': 9, 'state': 'normal', 'yaw': -1.88, 'datetime': '2018-10-12 14:15:15.268573', 'mgs': 0, 'depth': 2.606, 'time': 5.94, 'pitch': -6.54, 'roll': -16.27}
{'lipoC2': 7.75, 'temp': 23.69, 'lipoC3S3': 11.68, 'rot1': 17, 'rot0': 16, 'rot3': 8, 'rot2': 9, 'state': 'normal', 'yaw': -1.97, 'datetime': '2018-10-12 14:15:15.365820', 'mgs': 0, 'depth': 2.606, 'time': 6.03, 'pitch': -6.56, 'roll': -16.19}
{'lipoC2': 7.75, 'temp': 23.69, 'lipoC3S3': 11.68, 'rot1': 17, 'rot0': 16, 'rot3': 8, 'rot2': 9, 'state': 'normal', 'yaw': -2.05, 'datetime': '2018-10-12 14:15:15.464277', 'mgs': 0, 'depth': 2.606, 'time': 6.13, 'pitch': -6.51, 'roll': -16.2}
{'lipoC2': 7.75, 'temp': 23.69, 'lipoC3S3': 11.68, 'rot1': 17, 'rot0': 16, 'rot3': 8, 'rot2': 9, 'state': 'normal', 'yaw': -2.17, 'datetime': '2018-10-12 14:15:15.561317', 'mgs': 0, 'depth': 2.682, 'time': 6.23, 'pitch': -6.4, 'roll': -16.37}
{'lipoC2': 7.75, 'temp': 23.63, 'lipoC3S3': 11.68, 'rot1': 17, 'rot0': 16, 'rot3': 8, 'rot2': 9, 'state': 'normal', 'yaw': -2.29, 'datetime': '2018-10-12 14:15:15.658349', 'mgs': 0, 'depth': 2.759, 'time': 6.33, 'pitch': -6.27, 'roll': -16.63}
{'lipoC2': 7.75, 'temp': 23.63, 'lipoC3S3': 11.68, 'rot1': 17, 'rot0': 16, 'rot3': 8, 'rot2': 9, 'state': 'normal', 'yaw': -2.42, 'datetime': '2018-10-12 14:15:15.755598', 'mgs': 0, 'depth': 2.682, 'time': 6.42, 'pitch': -6.14, 'roll': -16.87}
{'lipoC2': 7.73, 'temp': 23.63, 'lipoC3S3': 11.68, 'rot1': 17, 'rot0': 16, 'rot3': 8, 'rot2': 9, 'state': 'normal', 'yaw': -2.54, 'datetime': '2018-10-12 14:15:15.852624', 'mgs': 0, 'depth': 2.682, 'time': 6.52, 'pitch': -6.01, 'roll': -17.1}
{'lipoC2': 7.75, 'temp': 23.69, 'lipoC3S3': 11.68, 'rot1': 17, 'rot0': 16, 'rot3': 8, 'rot2': 9, 'state': 'normal', 'yaw': -2.68, 'datetime': '2018-10-12 14:15:15.949650', 'mgs': 0, 'depth': 2.682, 'time': 6.62, 'pitch': -5.86, 'roll': -17.29}
{'lipoC2': 7.75, 'temp': 23.69, 'lipoC3S3': 11.69, 'rot1': 17, 'rot0': 16, 'rot3': 8, 'rot2': 9, 'state': 'normal', 'yaw': -2.81, 'datetime': '2018-10-12 14:15:16.047290', 'mgs': 0, 'depth': 2.759, 'time': 6.72, 'pitch': -5.71, 'roll': -17.44}
{'lipoC2': 7.75, 'temp': 23.75, 'lipoC3S3': 11.68, 'rot1': 17, 'rot0': 16, 'rot3': 8, 'rot2': 9, 'state': 'normal', 'yaw': -2.98, 'datetime': '2018-10-12 14:15:16.145691', 'mgs': 0, 'depth': 2.759, 'time': 6.81, 'pitch': -5.54, 'roll': -17.67}
{'lipoC2': 7.75, 'temp': 23.75, 'lipoC3S3': 11.68, 'rot1': 17, 'rot0': 16, 'rot3': 8, 'rot2': 9, 'state': 'normal', 'yaw': -3.15, 'datetime': '2018-10-12 14:15:16.243899', 'mgs': 0, 'depth': 2.759, 'time': 6.91, 'pitch': -5.38, 'roll': -18.02}
{'lipoC2': 7.75, 'temp': 23.75, 'lipoC3S3': 11.69, 'rot1': 17, 'rot0': 16, 'rot3': 8, 'rot2': 9, 'state': 'normal', 'yaw': -3.31, 'datetime': '2018-10-12 14:15:16.340909', 'mgs': 0, 'depth': 2.759, 'time': 7.01, 'pitch': -5.25, 'roll': -18.48}
{'lipoC2': 7.75, 'temp': 23.69, 'lipoC3S3': 11.68, 'rot1': 17, 'rot0': 16, 'rot3': 8, 'rot2': 9, 'state': 'normal', 'yaw': -3.46, 'datetime': '2018-10-12 14:15:16.438160', 'mgs': 0, 'depth': 2.759, 'time': 7.11, 'pitch': -5.17, 'roll': -18.93}
{'lipoC2': 7.73, 'temp': 23.69, 'lipoC3S3': 11.68, 'rot1': 17, 'rot0': 16, 'rot3': 8, 'rot2': 9, 'state': 'normal', 'yaw': -3.57, 'datetime': '2018-10-12 14:15:16.536462', 'mgs': 0, 'depth': 2.835, 'time': 7.2, 'pitch': -5.17, 'roll': -19.26}
{'lipoC2': 7.75, 'temp': 23.5, 'lipoC3S3': 11.69, 'rot1': 17, 'rot0': 16, 'rot3': 8, 'rot2': 9, 'state': 'normal', 'yaw': -3.68, 'datetime': '2018-10-12 14:15:16.634687', 'mgs': 0, 'depth': 2.759, 'time': 7.3, 'pitch': -5.21, 'roll': -19.43}
{'lipoC2': 7.75, 'temp': 23.5, 'lipoC3S3': 11.69, 'rot1': 17, 'rot0': 16, 'rot3': 8, 'rot2': 9, 'state': 'normal', 'yaw': -3.79, 'datetime': '2018-10-12 14:15:16.731883', 'mgs': 0, 'depth': 2.759, 'time': 7.4, 'pitch': -5.27, 'roll': -19.4}
{'lipoC2': 7.75, 'temp': 23.5, 'lipoC3S3': 11.68, 'rot1': 17, 'rot0': 16, 'rot3': 8, 'rot2': 9, 'state': 'normal', 'yaw': -3.88, 'datetime': '2018-10-12 14:15:16.828773', 'mgs': 0, 'depth': 2.835, 'time': 7.5, 'pitch': -5.39, 'roll': -19.24}
{'lipoC2': 7.75, 'temp': 23.81, 'lipoC3S3': 11.68, 'rot1': 17, 'rot0': 16, 'rot3': 8, 'rot2': 9, 'state': 'normal', 'yaw': -3.98, 'datetime': '2018-10-12 14:15:16.927140', 'mgs': 0, 'depth': 2.835, 'time': 7.6, 'pitch': -5.52, 'roll': -19.08}
{'lipoC2': 7.75, 'temp': 23.81, 'lipoC3S3': 11.68, 'rot1': 17, 'rot0': 16, 'rot3': 8, 'rot2': 9, 'state': 'normal', 'yaw': -4.06, 'datetime': '2018-10-12 14:15:17.024398', 'mgs': 0, 'depth': 2.835, 'time': 7.69, 'pitch': -5.69, 'roll': -18.95}
{'lipoC2': 7.75, 'temp': 23.69, 'lipoC3S3': 11.68, 'rot1': 17, 'rot0': 16, 'rot3': 8, 'rot2': 9, 'state': 'normal', 'yaw': -4.14, 'datetime': '2018-10-12 14:15:17.121232', 'mgs': 0, 'depth': 2.835, 'time': 7.79, 'pitch': -5.86, 'roll': -18.85}
{'lipoC2': 7.75, 'temp': 23.69, 'lipoC3S3': 11.68, 'rot1': 17, 'rot0': 16, 'rot3': 8, 'rot2': 9, 'state': 'normal', 'yaw': -4.21, 'datetime': '2018-10-12 14:15:17.218726', 'mgs': 0, 'depth': 2.911, 'time': 7.89, 'pitch': -6.02, 'roll': -18.75}
{'lipoC2': 7.73, 'temp': 23.69, 'lipoC3S3': 11.68, 'rot1': 17, 'rot0': 16, 'rot3': 8, 'rot2': 9, 'state': 'normal', 'yaw': -4.28, 'datetime': '2018-10-12 14:15:17.315609', 'mgs': 0, 'depth': 2.911, 'time': 7.99, 'pitch': -6.18, 'roll': -18.57}
{'lipoC2': 7.75, 'temp': 23.69, 'lipoC3S3': 11.69, 'rot1': 17, 'rot0': 16, 'rot3': 8, 'rot2': 9, 'state': 'normal', 'yaw': -4.36, 'datetime': '2018-10-12 14:15:17.412680', 'mgs': 0, 'depth': 2.911, 'time': 8.08, 'pitch': -6.32, 'roll': -18.3}
{'lipoC2': 7.75, 'temp': 23.69, 'lipoC3S3': 11.68, 'rot1': 17, 'rot0': 16, 'rot3': 8, 'rot2': 9, 'state': 'normal', 'yaw': -4.44, 'datetime': '2018-10-12 14:15:17.509794', 'mgs': 0, 'depth': 2.835, 'time': 8.18, 'pitch': -6.43, 'roll': -18.03}
{'lipoC2': 7.75, 'temp': 23.69, 'lipoC3S3': 11.68, 'rot1': 17, 'rot0': 16, 'rot3': 8, 'rot2': 9, 'state': 'normal', 'yaw': -4.54, 'datetime': '2018-10-12 14:15:17.606901', 'mgs': 0, 'depth': 2.911, 'time': 8.28, 'pitch': -6.48, 'roll': -17.83}
{'lipoC2': 7.75, 'temp': 23.69, 'lipoC3S3': 11.68, 'rot1': 17, 'rot0': 16, 'rot3': 8, 'rot2': 9, 'state': 'normal', 'yaw': -4.65, 'datetime': '2018-10-12 14:15:17.703815', 'mgs': 0, 'depth': 2.835, 'time': 8.38, 'pitch': -6.52, 'roll': -17.73}
{'lipoC2': 7.75, 'temp': 23.69, 'lipoC3S3': 11.69, 'rot1': 17, 'rot0': 16, 'rot3': 8, 'rot2': 9, 'state': 'normal', 'yaw': -4.76, 'datetime': '2018-10-12 14:15:17.800780', 'mgs': 0, 'depth': 2.911, 'time': 8.47, 'pitch': -6.56, 'roll': -17.71}
{'lipoC2': 7.75, 'temp': 23.5, 'lipoC3S3': 11.68, 'rot1': 17, 'rot0': 16, 'rot3': 8, 'rot2': 9, 'state': 'normal', 'yaw': -4.86, 'datetime': '2018-10-12 14:15:17.899146', 'mgs': 0, 'depth': 2.911, 'time': 8.57, 'pitch': -6.59, 'roll': -17.71}
{'lipoC2': 7.75, 'temp': 23.5, 'lipoC3S3': 11.68, 'rot1': 17, 'rot0': 16, 'rot3': 8, 'rot2': 9, 'state': 'normal', 'yaw': -4.99, 'datetime': '2018-10-12 14:15:17.997469', 'mgs': 0, 'depth': 2.988, 'time': 8.67, 'pitch': -6.52, 'roll': -17.7}
{'lipoC2': 7.75, 'temp': 23.69, 'lipoC3S3': 11.68, 'rot1': 17, 'rot0': 16, 'rot3': 8, 'rot2': 9, 'state': 'normal', 'yaw': -5.13, 'datetime': '2018-10-12 14:15:18.094774', 'mgs': 0, 'depth': 2.911, 'time': 8.77, 'pitch': -6.43, 'roll': -17.68}
{'lipoC2': 7.75, 'temp': 23.69, 'lipoC3S3': 11.68, 'rot1': 17, 'rot0': 16, 'rot3': 8, 'rot2': 9, 'state': 'normal', 'yaw': -5.26, 'datetime': '2018-10-12 14:15:18.191654', 'mgs': 0, 'depth': 2.911, 'time': 8.86, 'pitch': -6.33, 'roll': -17.66}
{'lipoC2': 7.75, 'temp': 23.69, 'lipoC3S3': 11.68, 'rot1': 17, 'rot0': 16, 'rot3': 8, 'rot2': 9, 'state': 'normal', 'yaw': -5.38, 'datetime': '2018-10-12 14:15:18.289968', 'mgs': 0, 'depth': 2.835, 'time': 8.96, 'pitch': -6.25, 'roll': -17.69}
{'lipoC2': 7.75, 'temp': 23.69, 'lipoC3S3': 11.68, 'rot1': 17, 'rot0': 16, 'rot3': 8, 'rot2': 9, 'state': 'normal', 'yaw': -5.52, 'datetime': '2018-10-12 14:15:18.388183', 'mgs': 0, 'depth': 2.835, 'time': 9.06, 'pitch': -6.2, 'roll': -17.84}
{'lipoC2': 7.73, 'temp': 23.69, 'lipoC3S3': 11.68, 'rot1': 17, 'rot0': 16, 'rot3': 8, 'rot2': 9, 'state': 'normal', 'yaw': -5.67, 'datetime': '2018-10-12 14:15:18.485300', 'mgs': 0, 'depth': 2.911, 'time': 9.16, 'pitch': -6.15, 'roll': -18.05}
{'lipoC2': 7.75, 'temp': 23.63, 'lipoC3S3': 11.68, 'rot1': 17, 'rot0': 16, 'rot3': 8, 'rot2': 9, 'state': 'normal', 'yaw': -5.81, 'datetime': '2018-10-12 14:15:18.582382', 'mgs': 0, 'depth': 2.835, 'time': 9.25, 'pitch': -6.1, 'roll': -18.22}
{'lipoC2': 7.75, 'temp': 23.63, 'lipoC3S3': 11.68, 'rot1': 17, 'rot0': 16, 'rot3': 8, 'rot2': 9, 'state': 'normal', 'yaw': -5.94, 'datetime': '2018-10-12 14:15:18.680640', 'mgs': 0, 'depth': 2.911, 'time': 9.35, 'pitch': -6.06, 'roll': -18.33}
{'lipoC2': 7.75, 'temp': 23.69, 'lipoC3S3': 11.68, 'rot1': 17, 'rot0': 16, 'rot3': 8, 'rot2': 9, 'state': 'normal', 'yaw': -6.07, 'datetime': '2018-10-12 14:15:18.779007', 'mgs': 0, 'depth': 2.835, 'time': 9.45, 'pitch': -6.07, 'roll': -18.38}
{'lipoC2': 7.75, 'temp': 23.69, 'lipoC3S3': 11.68, 'rot1': 17, 'rot0': 16, 'rot3': 8, 'rot2': 9, 'state': 'normal', 'yaw': -6.18, 'datetime': '2018-10-12 14:15:18.876063', 'mgs': 0, 'depth': 2.835, 'time': 9.55, 'pitch': -6.1, 'roll': -18.36}
{'lipoC2': 7.75, 'temp': 23.69, 'lipoC3S3': 11.63, 'rot1': 17, 'rot0': 17, 'rot3': 8, 'rot2': 9, 'state': 'normal', 'yaw': -6.29, 'datetime': '2018-10-12 14:15:18.973074', 'mgs': 0, 'depth': 3.14, 'time': 9.65, 'pitch': -6.15, 'roll': -18.32}
{'lipoC2': 7.75, 'temp': 23.75, 'lipoC3S3': 11.64, 'rot1': 18, 'rot0': 17, 'rot3': 9, 'rot2': 9, 'state': 'normal', 'yaw': -6.26, 'datetime': '2018-10-12 14:15:19.070284', 'mgs': 0, 'depth': 2.759, 'time': 9.74, 'pitch': -6.23, 'roll': -17.93}
{'lipoC2': 7.75, 'temp': 23.75, 'lipoC3S3': 11.56, 'rot1': 19, 'rot0': 18, 'rot3': 9, 'rot2': 10, 'state': 'normal', 'yaw': -6.03, 'datetime': '2018-10-12 14:15:19.167454', 'mgs': 0, 'depth': 2.835, 'time': 9.84, 'pitch': -6.33, 'roll': -17.09}
{'lipoC2': 7.75, 'temp': 23.69, 'lipoC3S3': 11.63, 'rot1': 20, 'rot0': 18, 'rot3': 10, 'rot2': 10, 'state': 'normal', 'yaw': -5.64, 'datetime': '2018-10-12 14:15:19.264918', 'mgs': 0, 'depth': 2.988, 'time': 9.94, 'pitch': -6.33, 'roll': -16.03}
{'lipoC2': 7.75, 'temp': 23.69, 'lipoC3S3': 11.61, 'rot1': 21, 'rot0': 19, 'rot3': 10, 'rot2': 11, 'state': 'normal', 'yaw': -5.18, 'datetime': '2018-10-12 14:15:19.362535', 'mgs': 0, 'depth': 3.445, 'time': 10.03, 'pitch': -6.29, 'roll': -15.01}
{'lipoC2': 7.75, 'temp': 23.69, 'lipoC3S3': 11.59, 'rot1': 21, 'rot0': 19, 'rot3': 11, 'rot2': 11, 'state': 'normal', 'yaw': -4.56, 'datetime': '2018-10-12 14:15:19.460067', 'mgs': 0, 'depth': 2.835, 'time': 10.13, 'pitch': -6.23, 'roll': -13.87}
{'lipoC2': 7.75, 'temp': 23.69, 'lipoC3S3': 11.64, 'rot1': 22, 'rot0': 20, 'rot3': 11, 'rot2': 12, 'state': 'normal', 'yaw': -3.84, 'datetime': '2018-10-12 14:15:19.557582', 'mgs': 0, 'depth': 3.064, 'time': 10.23, 'pitch': -6.19, 'roll': -12.78}
{'lipoC2': 7.75, 'temp': 23.69, 'lipoC3S3': 11.59, 'rot1': 23, 'rot0': 20, 'rot3': 11, 'rot2': 12, 'state': 'normal', 'yaw': -3.07, 'datetime': '2018-10-12 14:15:19.654930', 'mgs': 0, 'depth': 2.759, 'time': 10.33, 'pitch': -6.17, 'roll': -11.72}
{'lipoC2': 7.75, 'temp': 23.69, 'lipoC3S3': 11.63, 'rot1': 24, 'rot0': 21, 'rot3': 12, 'rot2': 13, 'state': 'normal', 'yaw': -2.31, 'datetime': '2018-10-12 14:15:19.753838', 'mgs': 0, 'depth': 2.988, 'time': 10.43, 'pitch': -6.17, 'roll': -10.81}
{'lipoC2': 7.75, 'temp': 23.69, 'lipoC3S3': 11.63, 'rot1': 25, 'rot0': 21, 'rot3': 12, 'rot2': 13, 'state': 'normal', 'yaw': -1.42, 'datetime': '2018-10-12 14:15:19.852451', 'mgs': 0, 'depth': 2.911, 'time': 10.52, 'pitch': -6.13, 'roll': -9.94}
{'lipoC2': 7.75, 'temp': 23.69, 'lipoC3S3': 11.63, 'rot1': 25, 'rot0': 22, 'rot3': 13, 'rot2': 14, 'state': 'normal', 'yaw': -0.48, 'datetime': '2018-10-12 14:15:19.951387', 'mgs': 0, 'depth': 3.14, 'time': 10.62, 'pitch': -5.99, 'roll': -9.32}
{'lipoC2': 7.73, 'temp': 23.69, 'lipoC3S3': 11.51, 'rot1': 26, 'rot0': 23, 'rot3': 13, 'rot2': 14, 'state': 'normal', 'yaw': 0.5, 'datetime': '2018-10-12 14:15:20.048666', 'mgs': 0, 'depth': 2.759, 'time': 10.72, 'pitch': -5.84, 'roll': -9.01}
{'lipoC2': 7.75, 'temp': 23.69, 'lipoC3S3': 11.63, 'rot1': 27, 'rot0': 23, 'rot3': 14, 'rot2': 15, 'state': 'normal', 'yaw': 1.42, 'datetime': '2018-10-12 14:15:20.145963', 'mgs': 0, 'depth': 2.911, 'time': 10.82, 'pitch': -5.65, 'roll': -8.9}
{'lipoC2': 7.75, 'temp': 23.69, 'lipoC3S3': 11.56, 'rot1': 28, 'rot0': 24, 'rot3': 14, 'rot2': 15, 'state': 'normal', 'yaw': 2.14, 'datetime': '2018-10-12 14:15:20.244459', 'mgs': 0, 'depth': 2.911, 'time': 10.92, 'pitch': -5.53, 'roll': -8.95}
{'lipoC2': 7.75, 'temp': 23.69, 'lipoC3S3': 11.58, 'rot1': 28, 'rot0': 25, 'rot3': 15, 'rot2': 16, 'state': 'normal', 'yaw': 2.77, 'datetime': '2018-10-12 14:15:20.343112', 'mgs': 0, 'depth': 2.835, 'time': 11.02, 'pitch': -5.31, 'roll': -9.13}
{'lipoC2': 7.75, 'temp': 23.69, 'lipoC3S3': 11.61, 'rot1': 29, 'rot0': 26, 'rot3': 15, 'rot2': 17, 'state': 'normal', 'yaw': 3.18, 'datetime': '2018-10-12 14:15:20.441930', 'mgs': 0, 'depth': 2.606, 'time': 11.11, 'pitch': -5.09, 'roll': -9.46}
{'lipoC2': 7.75, 'temp': 23.69, 'lipoC3S3': 11.58, 'rot1': 30, 'rot0': 27, 'rot3': 16, 'rot2': 17, 'state': 'normal', 'yaw': 3.38, 'datetime': '2018-10-12 14:15:20.539417', 'mgs': 0, 'depth': 2.377, 'time': 11.21, 'pitch': -5.0, 'roll': -9.91}
{'lipoC2': 7.75, 'temp': 23.69, 'lipoC3S3': 11.64, 'rot1': 30, 'rot0': 27, 'rot3': 16, 'rot2': 18, 'state': 'normal', 'yaw': 3.38, 'datetime': '2018-10-12 14:15:20.636891', 'mgs': 0, 'depth': 2.072, 'time': 11.31, 'pitch': -4.99, 'roll': -10.42}
{'lipoC2': 7.75, 'temp': 23.69, 'lipoC3S3': 11.63, 'rot1': 31, 'rot0': 28, 'rot3': 17, 'rot2': 18, 'state': 'normal', 'yaw': 3.24, 'datetime': '2018-10-12 14:15:20.735386', 'mgs': 0, 'depth': 2.454, 'time': 11.41, 'pitch': -5.01, 'roll': -10.89}
{'lipoC2': 7.73, 'temp': 23.69, 'lipoC3S3': 11.65, 'rot1': 31, 'rot0': 29, 'rot3': 17, 'rot2': 18, 'state': 'normal', 'yaw': 2.92, 'datetime': '2018-10-12 14:15:20.833497', 'mgs': 0, 'depth': 2.301, 'time': 11.51, 'pitch': -5.08, 'roll': -11.42}
{'lipoC2': 7.75, 'temp': 23.69, 'lipoC3S3': 11.67, 'rot1': 32, 'rot0': 29, 'rot3': 17, 'rot2': 18, 'state': 'normal', 'yaw': 2.42, 'datetime': '2018-10-12 14:15:20.931121', 'mgs': 0, 'depth': 2.148, 'time': 11.6, 'pitch': -5.1, 'roll': -12.03}
{'lipoC2': 7.75, 'temp': 23.75, 'lipoC3S3': 11.67, 'rot1': 32, 'rot0': 29, 'rot3': 17, 'rot2': 18, 'state': 'normal', 'yaw': 2.03, 'datetime': '2018-10-12 14:15:21.028541', 'mgs': 0, 'depth': 2.148, 'time': 11.7, 'pitch': -4.96, 'roll': -12.89}
{'lipoC2': 7.75, 'temp': 23.75, 'lipoC3S3': 11.68, 'rot1': 33, 'rot0': 29, 'rot3': 17, 'rot2': 18, 'state': 'normal', 'yaw': 1.85, 'datetime': '2018-10-12 14:15:21.126238', 'mgs': 0, 'depth': 2.148, 'time': 11.8, 'pitch': -4.77, 'roll': -13.91}
{'lipoC2': 7.73, 'temp': 23.75, 'lipoC3S3': 11.67, 'rot1': 33, 'rot0': 29, 'rot3': 17, 'rot2': 18, 'state': 'normal', 'yaw': 1.74, 'datetime': '2018-10-12 14:15:21.223572', 'mgs': 0, 'depth': 1.996, 'time': 11.9, 'pitch': -4.61, 'roll': -15.26}
{'lipoC2': 7.75, 'temp': 23.75, 'lipoC3S3': 11.67, 'rot1': 33, 'rot0': 29, 'rot3': 17, 'rot2': 18, 'state': 'normal', 'yaw': 1.69, 'datetime': '2018-10-12 14:15:21.320949', 'mgs': 0, 'depth': 2.072, 'time': 11.99, 'pitch': -4.53, 'roll': -16.72}
{'lipoC2': 7.75, 'temp': 23.75, 'lipoC3S3': 11.68, 'rot1': 33, 'rot0': 29, 'rot3': 17, 'rot2': 18, 'state': 'normal', 'yaw': 1.66, 'datetime': '2018-10-12 14:15:21.418419', 'mgs': 0, 'depth': 1.996, 'time': 12.09, 'pitch': -4.43, 'roll': -18.07}
{'lipoC2': 7.75, 'temp': 23.69, 'lipoC3S3': 11.68, 'rot1': 33, 'rot0': 29, 'rot3': 17, 'rot2': 18, 'state': 'normal', 'yaw': 1.61, 'datetime': '2018-10-12 14:15:21.515900', 'mgs': 0, 'depth': 1.996, 'time': 12.19, 'pitch': -4.3, 'roll': -19.07}
{'lipoC2': 7.75, 'temp': 23.69, 'lipoC3S3': 11.68, 'rot1': 33, 'rot0': 29, 'rot3': 17, 'rot2': 18, 'state': 'normal', 'yaw': 1.54, 'datetime': '2018-10-12 14:15:21.613237', 'mgs': 0, 'depth': 1.996, 'time': 12.29, 'pitch': -4.1, 'roll': -19.84}
{'lipoC2': 7.75, 'temp': 23.75, 'lipoC3S3': 11.68, 'rot1': 33, 'rot0': 29, 'rot3': 17, 'rot2': 18, 'state': 'normal', 'yaw': 1.49, 'datetime': '2018-10-12 14:15:21.710668', 'mgs': 0, 'depth': 1.996, 'time': 12.39, 'pitch': -3.94, 'roll': -20.31}
{'lipoC2': 7.75, 'temp': 23.75, 'lipoC3S3': 11.68, 'rot1': 33, 'rot0': 29, 'rot3': 17, 'rot2': 18, 'state': 'normal', 'yaw': 1.48, 'datetime': '2018-10-12 14:15:21.808399', 'mgs': 0, 'depth': 2.072, 'time': 12.48, 'pitch': -3.91, 'roll': -20.59}
{'lipoC2': 7.75, 'temp': 23.75, 'lipoC3S3': 11.68, 'rot1': 33, 'rot0': 29, 'rot3': 17, 'rot2': 18, 'state': 'normal', 'yaw': 1.49, 'datetime': '2018-10-12 14:15:21.907057', 'mgs': 0, 'depth': 1.996, 'time': 12.58, 'pitch': -3.96, 'roll': -20.79}
{'lipoC2': 7.75, 'temp': 23.69, 'lipoC3S3': 11.68, 'rot1': 33, 'rot0': 29, 'rot3': 17, 'rot2': 18, 'state': 'normal', 'yaw': 1.53, 'datetime': '2018-10-12 14:15:22.005854', 'mgs': 0, 'depth': 2.072, 'time': 12.68, 'pitch': -4.06, 'roll': -21.09}
{'lipoC2': 7.75, 'temp': 23.69, 'lipoC3S3': 11.68, 'rot1': 33, 'rot0': 29, 'rot3': 17, 'rot2': 18, 'state': 'normal', 'yaw': 1.54, 'datetime': '2018-10-12 14:15:22.104419', 'mgs': 0, 'depth': 2.148, 'time': 12.78, 'pitch': -4.09, 'roll': -21.41}
{'lipoC2': 7.75, 'temp': 23.69, 'lipoC3S3': 11.67, 'rot1': 33, 'rot0': 29, 'rot3': 17, 'rot2': 18, 'state': 'normal', 'yaw': 1.54, 'datetime': '2018-10-12 14:15:22.201963', 'mgs': 0, 'depth': 2.148, 'time': 12.88, 'pitch': -4.09, 'roll': -21.58}
{'lipoC2': 7.75, 'temp': 23.69, 'lipoC3S3': 11.68, 'rot1': 33, 'rot0': 29, 'rot3': 17, 'rot2': 18, 'state': 'normal', 'yaw': 1.56, 'datetime': '2018-10-12 14:15:22.299208', 'mgs': 0, 'depth': 2.225, 'time': 12.97, 'pitch': -4.13, 'roll': -21.41}
{'lipoC2': 7.73, 'temp': 23.69, 'lipoC3S3': 11.68, 'rot1': 33, 'rot0': 29, 'rot3': 17, 'rot2': 18, 'state': 'normal', 'yaw': 1.6, 'datetime': '2018-10-12 14:15:22.397990', 'mgs': 0, 'depth': 2.225, 'time': 13.07, 'pitch': -4.27, 'roll': -20.9}
{'lipoC2': 7.75, 'temp': 23.63, 'lipoC3S3': 11.68, 'rot1': 33, 'rot0': 29, 'rot3': 17, 'rot2': 18, 'state': 'normal', 'yaw': 1.67, 'datetime': '2018-10-12 14:15:22.496659', 'mgs': 0, 'depth': 2.301, 'time': 13.17, 'pitch': -4.48, 'roll': -20.07}
{'lipoC2': 7.75, 'temp': 23.63, 'lipoC3S3': 11.68, 'rot1': 33, 'rot0': 29, 'rot3': 17, 'rot2': 18, 'state': 'normal', 'yaw': 1.74, 'datetime': '2018-10-12 14:15:22.594732', 'mgs': 0, 'depth': 2.301, 'time': 13.27, 'pitch': -4.69, 'roll': -19.14}
{'lipoC2': 7.75, 'temp': 23.75, 'lipoC3S3': 11.68, 'rot1': 33, 'rot0': 29, 'rot3': 17, 'rot2': 18, 'state': 'normal', 'yaw': 1.79, 'datetime': '2018-10-12 14:15:22.691940', 'mgs': 0, 'depth': 2.377, 'time': 13.37, 'pitch': -4.83, 'roll': -18.3}
{'lipoC2': 7.73, 'temp': 23.75, 'lipoC3S3': 11.68, 'rot1': 33, 'rot0': 29, 'rot3': 17, 'rot2': 18, 'state': 'normal', 'yaw': 1.83, 'datetime': '2018-10-12 14:15:22.789799', 'mgs': 0, 'depth': 2.454, 'time': 13.47, 'pitch': -4.92, 'roll': -17.67}
{'lipoC2': 7.73, 'temp': 23.75, 'lipoC3S3': 11.68, 'rot1': 33, 'rot0': 29, 'rot3': 17, 'rot2': 18, 'state': 'normal', 'yaw': 1.84, 'datetime': '2018-10-12 14:15:22.888636', 'mgs': 0, 'depth': 2.53, 'time': 13.56, 'pitch': -4.99, 'roll': -17.11}
{'lipoC2': 7.75, 'temp': 23.69, 'lipoC3S3': 11.68, 'rot1': 33, 'rot0': 29, 'rot3': 17, 'rot2': 18, 'state': 'normal', 'yaw': 1.86, 'datetime': '2018-10-12 14:15:22.986710', 'mgs': 0, 'depth': 2.53, 'time': 13.66, 'pitch': -5.06, 'roll': -16.64}
{'lipoC2': 7.75, 'temp': 23.69, 'lipoC3S3': 11.68, 'rot1': 33, 'rot0': 29, 'rot3': 17, 'rot2': 18, 'state': 'normal', 'yaw': 1.87, 'datetime': '2018-10-12 14:15:23.084019', 'mgs': 0, 'depth': 2.53, 'time': 13.76, 'pitch': -5.08, 'roll': -16.21}
{'lipoC2': 7.75, 'temp': 23.75, 'lipoC3S3': 11.68, 'rot1': 33, 'rot0': 29, 'rot3': 17, 'rot2': 18, 'state': 'normal', 'yaw': 1.87, 'datetime': '2018-10-12 14:15:23.181561', 'mgs': 0, 'depth': 2.606, 'time': 13.86, 'pitch': -5.08, 'roll': -15.85}
{'lipoC2': 7.73, 'temp': 23.75, 'lipoC3S3': 11.68, 'rot1': 33, 'rot0': 29, 'rot3': 17, 'rot2': 18, 'state': 'normal', 'yaw': 1.88, 'datetime': '2018-10-12 14:15:23.278900', 'mgs': 0, 'depth': 2.682, 'time': 13.95, 'pitch': -5.08, 'roll': -15.64}
{'lipoC2': 7.75, 'temp': 23.75, 'lipoC3S3': 11.68, 'rot1': 33, 'rot0': 29, 'rot3': 17, 'rot2': 18, 'state': 'normal', 'yaw': 1.87, 'datetime': '2018-10-12 14:15:23.377686', 'mgs': 0, 'depth': 2.606, 'time': 14.05, 'pitch': -5.08, 'roll': -15.6}
{'lipoC2': 7.75, 'temp': 23.69, 'lipoC3S3': 11.63, 'rot1': 33, 'rot0': 30, 'rot3': 17, 'rot2': 18, 'state': 'normal', 'yaw': 1.87, 'datetime': '2018-10-12 14:15:23.475051', 'mgs': 0, 'depth': 2.682, 'time': 14.15, 'pitch': -5.08, 'roll': -15.77}
{'lipoC2': 7.75, 'temp': 23.69, 'lipoC3S3': 11.63, 'rot1': 33, 'rot0': 30, 'rot3': 17, 'rot2': 19, 'state': 'normal', 'yaw': 1.79, 'datetime': '2018-10-12 14:15:23.572325', 'mgs': 0, 'depth': 3.14, 'time': 14.25, 'pitch': -5.1, 'roll': -15.88}
{'lipoC2': 7.75, 'temp': 23.69, 'lipoC3S3': 11.58, 'rot1': 34, 'rot0': 31, 'rot3': 18, 'rot2': 19, 'state': 'normal', 'yaw': 1.54, 'datetime': '2018-10-12 14:15:23.669561', 'mgs': 0, 'depth': 2.682, 'time': 14.35, 'pitch': -5.19, 'roll': -15.7}
{'lipoC2': 7.75, 'temp': 23.69, 'lipoC3S3': 11.64, 'rot1': 34, 'rot0': 32, 'rot3': 18, 'rot2': 20, 'state': 'normal', 'yaw': 1.06, 'datetime': '2018-10-12 14:15:23.767041', 'mgs': 0, 'depth': 3.064, 'time': 14.44, 'pitch': -5.33, 'roll': -15.25}
{'lipoC2': 7.75, 'temp': 23.69, 'lipoC3S3': 11.58, 'rot1': 35, 'rot0': 33, 'rot3': 19, 'rot2': 20, 'state': 'normal', 'yaw': 0.38, 'datetime': '2018-10-12 14:15:23.864407', 'mgs': 0, 'depth': 3.14, 'time': 14.54, 'pitch': -5.51, 'roll': -14.65}
{'lipoC2': 7.75, 'temp': 23.69, 'lipoC3S3': 11.64, 'rot1': 36, 'rot0': 33, 'rot3': 19, 'rot2': 21, 'state': 'normal', 'yaw': -0.35, 'datetime': '2018-10-12 14:15:23.962628', 'mgs': 0, 'depth': 2.835, 'time': 14.64, 'pitch': -5.78, 'roll': -14.04}
{'lipoC2': 7.75, 'temp': 23.69, 'lipoC3S3': 11.63, 'rot1': 36, 'rot0': 34, 'rot3': 19, 'rot2': 21, 'state': 'normal', 'yaw': -1.25, 'datetime': '2018-10-12 14:15:24.061528', 'mgs': 0, 'depth': 2.682, 'time': 14.74, 'pitch': -6.17, 'roll': -13.36}
{'lipoC2': 7.75, 'temp': 23.75, 'lipoC3S3': 11.64, 'rot1': 37, 'rot0': 35, 'rot3': 20, 'rot2': 22, 'state': 'normal', 'yaw': -2.25, 'datetime': '2018-10-12 14:15:24.160013', 'mgs': 0, 'depth': 2.759, 'time': 14.84, 'pitch': -6.56, 'roll': -12.66}
{'lipoC2': 7.75, 'temp': 23.75, 'lipoC3S3': 11.64, 'rot1': 38, 'rot0': 35, 'rot3': 20, 'rot2': 22, 'state': 'normal', 'yaw': -3.1, 'datetime': '2018-10-12 14:15:24.257936', 'mgs': 0, 'depth': 2.988, 'time': 14.94, 'pitch': -6.82, 'roll': -12.01}
{'lipoC2': 7.75, 'temp': 23.75, 'lipoC3S3': 11.56, 'rot1': 38, 'rot0': 36, 'rot3': 21, 'rot2': 23, 'state': 'normal', 'yaw': -3.69, 'datetime': '2018-10-12 14:15:24.355333', 'mgs': 0, 'depth': 3.217, 'time': 15.03, 'pitch': -6.82, 'roll': -11.49}
{'lipoC2': 7.75, 'temp': 23.75, 'lipoC3S3': 11.63, 'rot1': 39, 'rot0': 36, 'rot3': 21, 'rot2': 23, 'state': 'normal', 'yaw': -4.01, 'datetime': '2018-10-12 14:15:24.453334', 'mgs': 0, 'depth': 2.988, 'time': 15.13, 'pitch': -6.75, 'roll': -11.16}
{'lipoC2': 7.75, 'temp': 23.75, 'lipoC3S3': 11.63, 'rot1': 40, 'rot0': 37, 'rot3': 22, 'rot2': 24, 'state': 'normal', 'yaw': -4.15, 'datetime': '2018-10-12 14:15:24.551970', 'mgs': 0, 'depth': 3.064, 'time': 15.23, 'pitch': -6.67, 'roll': -10.97}
{'lipoC2': 7.75, 'temp': 23.69, 'lipoC3S3': 11.58, 'rot1': 41, 'rot0': 38, 'rot3': 22, 'rot2': 24, 'state': 'normal', 'yaw': -4.06, 'datetime': '2018-10-12 14:15:24.650794', 'mgs': 0, 'depth': 2.988, 'time': 15.33, 'pitch': -6.56, 'roll': -10.97}
{'lipoC2': 7.75, 'temp': 23.69, 'lipoC3S3': 11.58, 'rot1': 41, 'rot0': 38, 'rot3': 23, 'rot2': 25, 'state': 'normal', 'yaw': -3.75, 'datetime': '2018-10-12 14:15:24.748204', 'mgs': 0, 'depth': 2.606, 'time': 15.43, 'pitch': -6.47, 'roll': -11.0}
{'lipoC2': 7.75, 'temp': 23.69, 'lipoC3S3': 11.61, 'rot1': 42, 'rot0': 39, 'rot3': 23, 'rot2': 25, 'state': 'normal', 'yaw': -3.32, 'datetime': '2018-10-12 14:15:24.845779', 'mgs': 0, 'depth': 2.911, 'time': 15.52, 'pitch': -6.38, 'roll': -10.99}
{'lipoC2': 7.75, 'temp': 23.69, 'lipoC3S3': 11.54, 'rot1': 43, 'rot0': 39, 'rot3': 24, 'rot2': 26, 'state': 'normal', 'yaw': -2.84, 'datetime': '2018-10-12 14:15:24.943989', 'mgs': 0, 'depth': 2.682, 'time': 15.62, 'pitch': -6.27, 'roll': -10.94}
{'lipoC2': 7.75, 'temp': 23.69, 'lipoC3S3': 11.68, 'rot1': 44, 'rot0': 39, 'rot3': 24, 'rot2': 26, 'state': 'normal', 'yaw': -2.07, 'datetime': '2018-10-12 14:15:25.042488', 'mgs': 0, 'depth': 2.759, 'time': 15.72, 'pitch': -6.01, 'roll': -11.07}
{'lipoC2': 7.75, 'temp': 23.75, 'lipoC3S3': 11.68, 'rot1': 44, 'rot0': 39, 'rot3': 24, 'rot2': 26, 'state': 'normal', 'yaw': -1.1, 'datetime': '2018-10-12 14:15:25.139662', 'mgs': 0, 'depth': 2.454, 'time': 15.82, 'pitch': -5.61, 'roll': -11.63}
{'lipoC2': 7.75, 'temp': 23.75, 'lipoC3S3': 11.67, 'rot1': 44, 'rot0': 39, 'rot3': 24, 'rot2': 26, 'state': 'normal', 'yaw': -0.18, 'datetime': '2018-10-12 14:15:25.237117', 'mgs': 0, 'depth': 2.53, 'time': 15.91, 'pitch': -5.2, 'roll': -12.7}
{'lipoC2': 7.75, 'temp': 23.69, 'lipoC3S3': 11.67, 'rot1': 44, 'rot0': 39, 'rot3': 24, 'rot2': 26, 'state': 'normal', 'yaw': 0.58, 'datetime': '2018-10-12 14:15:25.334782', 'mgs': 0, 'depth': 2.454, 'time': 16.01, 'pitch': -4.82, 'roll': -13.95}
{'lipoC2': 7.75, 'temp': 23.69, 'lipoC3S3': 11.67, 'rot1': 44, 'rot0': 39, 'rot3': 24, 'rot2': 26, 'state': 'normal', 'yaw': 1.36, 'datetime': '2018-10-12 14:15:25.432198', 'mgs': 0, 'depth': 2.454, 'time': 16.11, 'pitch': -4.39, 'roll': -15.42}
{'lipoC2': 7.75, 'temp': 23.69, 'lipoC3S3': 11.67, 'rot1': 44, 'rot0': 39, 'rot3': 24, 'rot2': 26, 'state': 'normal', 'yaw': 2.07, 'datetime': '2018-10-12 14:15:25.529744', 'mgs': 0, 'depth': 2.377, 'time': 16.21, 'pitch': -3.98, 'roll': -16.76}
{'lipoC2': 7.75, 'temp': 23.69, 'lipoC3S3': 11.68, 'rot1': 44, 'rot0': 39, 'rot3': 24, 'rot2': 26, 'state': 'normal', 'yaw': 2.73, 'datetime': '2018-10-12 14:15:25.627091', 'mgs': 0, 'depth': 2.377, 'time': 16.31, 'pitch': -3.64, 'roll': -17.87}
{'lipoC2': 7.75, 'temp': 23.69, 'lipoC3S3': 11.68, 'rot1': 44, 'rot0': 39, 'rot3': 24, 'rot2': 26, 'state': 'normal', 'yaw': 3.3, 'datetime': '2018-10-12 14:15:25.724481', 'mgs': 0, 'depth': 2.301, 'time': 16.4, 'pitch': -3.44, 'roll': -18.71}
{'lipoC2': 7.75, 'temp': 23.69, 'lipoC3S3': 11.68, 'rot1': 44, 'rot0': 39, 'rot3': 24, 'rot2': 26, 'state': 'normal', 'yaw': 3.92, 'datetime': '2018-10-12 14:15:25.821988', 'mgs': 0, 'depth': 2.225, 'time': 16.5, 'pitch': -3.31, 'roll': -19.57}
{'lipoC2': 7.75, 'temp': 23.69, 'lipoC3S3': 11.68, 'rot1': 44, 'rot0': 39, 'rot3': 24, 'rot2': 26, 'state': 'normal', 'yaw': 4.55, 'datetime': '2018-10-12 14:15:25.919261', 'mgs': 0, 'depth': 2.301, 'time': 16.6, 'pitch': -3.25, 'roll': -20.45}
{'lipoC2': 7.75, 'temp': 23.69, 'lipoC3S3': 11.67, 'rot1': 44, 'rot0': 39, 'rot3': 24, 'rot2': 26, 'state': 'normal', 'yaw': 5.17, 'datetime': '2018-10-12 14:15:26.016993', 'mgs': 0, 'depth': 2.225, 'time': 16.7, 'pitch': -3.21, 'roll': -21.32}
{'lipoC2': 7.75, 'temp': 23.69, 'lipoC3S3': 11.68, 'rot1': 44, 'rot0': 39, 'rot3': 24, 'rot2': 26, 'state': 'normal', 'yaw': 5.73, 'datetime': '2018-10-12 14:15:26.115807', 'mgs': 0, 'depth': 2.301, 'time': 16.79, 'pitch': -3.2, 'roll': -22.0}
{'lipoC2': 7.75, 'temp': 23.69, 'lipoC3S3': 11.68, 'rot1': 44, 'rot0': 39, 'rot3': 24, 'rot2': 26, 'state': 'normal', 'yaw': 6.33, 'datetime': '2018-10-12 14:15:26.214451', 'mgs': 0, 'depth': 2.301, 'time': 16.89, 'pitch': -3.19, 'roll': -22.45}
{'lipoC2': 7.75, 'temp': 23.69, 'lipoC3S3': 11.68, 'rot1': 44, 'rot0': 39, 'rot3': 24, 'rot2': 26, 'state': 'normal', 'yaw': 6.9, 'datetime': '2018-10-12 14:15:26.312495', 'mgs': 0, 'depth': 2.225, 'time': 16.99, 'pitch': -3.19, 'roll': -22.49}
{'lipoC2': 7.75, 'temp': 23.69, 'lipoC3S3': 11.67, 'rot1': 44, 'rot0': 39, 'rot3': 24, 'rot2': 26, 'state': 'normal', 'yaw': 7.44, 'datetime': '2018-10-12 14:15:26.409906', 'mgs': 0, 'depth': 2.301, 'time': 17.09, 'pitch': -3.2, 'roll': -22.19}
{'lipoC2': 7.75, 'temp': 23.69, 'lipoC3S3': 11.68, 'rot1': 44, 'rot0': 39, 'rot3': 24, 'rot2': 26, 'state': 'normal', 'yaw': 7.99, 'datetime': '2018-10-12 14:15:26.507645', 'mgs': 0, 'depth': 2.377, 'time': 17.19, 'pitch': -3.23, 'roll': -21.68}
{'lipoC2': 7.75, 'temp': 23.75, 'lipoC3S3': 11.68, 'rot1': 44, 'rot0': 39, 'rot3': 24, 'rot2': 26, 'state': 'normal', 'yaw': 8.49, 'datetime': '2018-10-12 14:15:26.606263', 'mgs': 0, 'depth': 2.377, 'time': 17.29, 'pitch': -3.26, 'roll': -21.18}
{'lipoC2': 7.75, 'temp': 23.75, 'lipoC3S3': 11.67, 'rot1': 44, 'rot0': 39, 'rot3': 24, 'rot2': 26, 'state': 'normal', 'yaw': 9.03, 'datetime': '2018-10-12 14:15:26.705097', 'mgs': 0, 'depth': 2.454, 'time': 17.38, 'pitch': -3.31, 'roll': -20.64}
{'lipoC2': 7.75, 'temp': 23.69, 'lipoC3S3': 11.65, 'rot1': 45, 'rot0': 40, 'rot3': 24, 'rot2': 26, 'state': 'normal', 'yaw': 9.45, 'datetime': '2018-10-12 14:15:26.803064', 'mgs': 0, 'depth': 2.454, 'time': 17.48, 'pitch': -3.35, 'roll': -19.93}
{'lipoC2': 7.73, 'temp': 23.69, 'lipoC3S3': 11.67, 'rot1': 45, 'rot0': 41, 'rot3': 24, 'rot2': 26, 'state': 'normal', 'yaw': 9.67, 'datetime': '2018-10-12 14:15:26.898668', 'mgs': 0, 'depth': 2.53, 'time': 17.58, 'pitch': -3.4, 'roll': -18.89}
{'lipoC2': 7.75, 'temp': 23.69, 'lipoC3S3': 11.68, 'rot1': 45, 'rot0': 41, 'rot3': 24, 'rot2': 26, 'state': 'normal', 'yaw': 9.79, 'datetime': '2018-10-12 14:15:26.998274', 'mgs': 0, 'depth': 2.454, 'time': 17.68, 'pitch': -3.38, 'roll': -17.98}
{'lipoC2': 7.73, 'temp': 23.69, 'lipoC3S3': 11.58, 'rot1': 45, 'rot0': 41, 'rot3': 24, 'rot2': 26, 'state': 'normal', 'yaw': 9.93, 'datetime': '2018-10-12 14:15:27.097241', 'mgs': 0, 'depth': 2.606, 'time': 17.78, 'pitch': -3.33, 'roll': -17.17}
{'lipoC2': 7.75, 'temp': 23.69, 'lipoC3S3': 11.54, 'rot1': 46, 'rot0': 41, 'rot3': 25, 'rot2': 27, 'state': 'normal', 'yaw': 10.04, 'datetime': '2018-10-12 14:15:27.195596', 'mgs': 0, 'depth': 2.53, 'time': 17.88, 'pitch': -3.13, 'roll': -16.82}
{'lipoC2': 7.75, 'temp': 23.63, 'lipoC3S3': 11.59, 'rot1': 48, 'rot0': 43, 'rot3': 25, 'rot2': 27, 'state': 'normal', 'yaw': 9.81, 'datetime': '2018-10-12 14:15:27.292936', 'mgs': 0, 'depth': 2.911, 'time': 17.97, 'pitch': -2.82, 'roll': -16.13}
{'lipoC2': 7.75, 'temp': 23.63, 'lipoC3S3': 11.61, 'rot1': 48, 'rot0': 44, 'rot3': 26, 'rot2': 28, 'state': 'normal', 'yaw': 9.35, 'datetime': '2018-10-12 14:15:27.390405', 'mgs': 0, 'depth': 2.988, 'time': 18.07, 'pitch': -2.55, 'roll': -14.96}
{'lipoC2': 7.75, 'temp': 23.63, 'lipoC3S3': 11.68, 'rot1': 49, 'rot0': 44, 'rot3': 26, 'rot2': 28, 'state': 'normal', 'yaw': 9.22, 'datetime': '2018-10-12 14:15:27.487859', 'mgs': 0, 'depth': 2.759, 'time': 18.17, 'pitch': -2.37, 'roll': -14.08}
{'lipoC2': 7.75, 'temp': 23.69, 'lipoC3S3': 11.67, 'rot1': 50, 'rot0': 44, 'rot3': 26, 'rot2': 28, 'state': 'normal', 'yaw': 9.21, 'datetime': '2018-10-12 14:15:27.585234', 'mgs': 0, 'depth': 2.759, 'time': 18.27, 'pitch': -2.11, 'roll': -13.5}
{'lipoC2': 7.75, 'temp': 23.69, 'lipoC3S3': 11.68, 'rot1': 50, 'rot0': 44, 'rot3': 26, 'rot2': 28, 'state': 'normal', 'yaw': 9.19, 'datetime': '2018-10-12 14:15:27.682704', 'mgs': 0, 'depth': 2.835, 'time': 18.36, 'pitch': -1.91, 'roll': -13.41}
{'lipoC2': 7.75, 'temp': 23.63, 'lipoC3S3': 11.67, 'rot1': 50, 'rot0': 44, 'rot3': 26, 'rot2': 28, 'state': 'normal', 'yaw': 9.2, 'datetime': '2018-10-12 14:15:27.780041', 'mgs': 0, 'depth': 2.911, 'time': 18.46, 'pitch': -1.8, 'roll': -13.65}
{'lipoC2': 7.75, 'temp': 23.63, 'lipoC3S3': 11.67, 'rot1': 50, 'rot0': 44, 'rot3': 26, 'rot2': 28, 'state': 'normal', 'yaw': 9.24, 'datetime': '2018-10-12 14:15:27.877617', 'mgs': 0, 'depth': 2.835, 'time': 18.56, 'pitch': -1.76, 'roll': -14.18}
{'lipoC2': 7.75, 'temp': 23.63, 'lipoC3S3': 11.68, 'rot1': 50, 'rot0': 44, 'rot3': 26, 'rot2': 28, 'state': 'normal', 'yaw': 9.27, 'datetime': '2018-10-12 14:15:27.974978', 'mgs': 0, 'depth': 2.911, 'time': 18.66, 'pitch': -1.75, 'roll': -14.88}
{'lipoC2': 7.75, 'temp': 24.44, 'lipoC3S3': 11.68, 'rot1': 50, 'rot0': 44, 'rot3': 26, 'rot2': 28, 'state': 'normal', 'yaw': 9.3, 'datetime': '2018-10-12 14:15:28.072408', 'mgs': 0, 'depth': 2.835, 'time': 18.75, 'pitch': -1.77, 'roll': -15.79}
{'lipoC2': 7.75, 'temp': 24.44, 'lipoC3S3': 11.68, 'rot1': 50, 'rot0': 44, 'rot3': 26, 'rot2': 28, 'state': 'normal', 'yaw': 9.35, 'datetime': '2018-10-12 14:15:28.170650', 'mgs': 0, 'depth': 2.911, 'time': 18.85, 'pitch': -1.84, 'roll': -16.82}
{'lipoC2': 7.75, 'temp': 23.69, 'lipoC3S3': 11.68, 'rot1': 50, 'rot0': 44, 'rot3': 26, 'rot2': 28, 'state': 'normal', 'yaw': 9.41, 'datetime': '2018-10-12 14:15:28.269247', 'mgs': 0, 'depth': 2.911, 'time': 18.95, 'pitch': -1.97, 'roll': -18.13}
{'lipoC2': 7.75, 'temp': 23.69, 'lipoC3S3': 11.68, 'rot1': 50, 'rot0': 44, 'rot3': 26, 'rot2': 28, 'state': 'normal', 'yaw': 9.5, 'datetime': '2018-10-12 14:15:28.367991', 'mgs': 0, 'depth': 2.911, 'time': 19.05, 'pitch': -2.15, 'roll': -19.48}
{'lipoC2': 7.75, 'temp': 23.75, 'lipoC3S3': 11.67, 'rot1': 50, 'rot0': 44, 'rot3': 26, 'rot2': 28, 'state': 'normal', 'yaw': 9.65, 'datetime': '2018-10-12 14:15:28.465406', 'mgs': 0, 'depth': 2.835, 'time': 19.15, 'pitch': -2.35, 'roll': -20.69}
{'lipoC2': 7.73, 'temp': 23.75, 'lipoC3S3': 11.67, 'rot1': 50, 'rot0': 44, 'rot3': 26, 'rot2': 28, 'state': 'normal', 'yaw': 9.82, 'datetime': '2018-10-12 14:15:28.561276', 'mgs': 0, 'depth': 2.911, 'time': 19.25, 'pitch': -2.56, 'roll': -21.69}
{'lipoC2': 7.75, 'temp': 23.75, 'lipoC3S3': 11.67, 'rot1': 50, 'rot0': 44, 'rot3': 26, 'rot2': 28, 'state': 'normal', 'yaw': 9.98, 'datetime': '2018-10-12 14:15:28.661250', 'mgs': 0, 'depth': 2.835, 'time': 19.34, 'pitch': -2.74, 'roll': -22.44}
{'lipoC2': 7.75, 'temp': 23.75, 'lipoC3S3': 11.68, 'rot1': 50, 'rot0': 44, 'rot3': 26, 'rot2': 28, 'state': 'normal', 'yaw': 10.14, 'datetime': '2018-10-12 14:15:28.759738', 'mgs': 0, 'depth': 2.911, 'time': 19.44, 'pitch': -2.89, 'roll': -23.19}
{'lipoC2': 7.75, 'temp': 23.75, 'lipoC3S3': 11.68, 'rot1': 50, 'rot0': 44, 'rot3': 26, 'rot2': 28, 'state': 'normal', 'yaw': 10.28, 'datetime': '2018-10-12 14:15:28.858488', 'mgs': 0, 'depth': 2.911, 'time': 19.54, 'pitch': -2.99, 'roll': -23.83}
{'lipoC2': 7.75, 'temp': 24.19, 'lipoC3S3': 11.68, 'rot1': 50, 'rot0': 44, 'rot3': 26, 'rot2': 28, 'state': 'normal', 'yaw': 10.42, 'datetime': '2018-10-12 14:15:28.955998', 'mgs': 0, 'depth': 2.911, 'time': 19.64, 'pitch': -3.06, 'roll': -24.29}
{'lipoC2': 7.75, 'temp': 24.19, 'lipoC3S3': 11.68, 'rot1': 50, 'rot0': 44, 'rot3': 26, 'rot2': 28, 'state': 'normal', 'yaw': 10.56, 'datetime': '2018-10-12 14:15:29.053287', 'mgs': 0, 'depth': 2.911, 'time': 19.74, 'pitch': -3.09, 'roll': -24.41}
{'lipoC2': 7.75, 'temp': 24.19, 'lipoC3S3': 11.68, 'rot1': 50, 'rot0': 44, 'rot3': 26, 'rot2': 28, 'state': 'normal', 'yaw': 10.66, 'datetime': '2018-10-12 14:15:29.151870', 'mgs': 0, 'depth': 2.988, 'time': 19.83, 'pitch': -3.06, 'roll': -24.22}
{'lipoC2': 7.75, 'temp': 23.69, 'lipoC3S3': 11.68, 'rot1': 50, 'rot0': 44, 'rot3': 26, 'rot2': 28, 'state': 'normal', 'yaw': 10.79, 'datetime': '2018-10-12 14:15:29.249786', 'mgs': 0, 'depth': 2.988, 'time': 19.93, 'pitch': -3.01, 'roll': -23.73}
{'lipoC2': 7.75, 'temp': 23.69, 'lipoC3S3': 11.67, 'rot1': 50, 'rot0': 44, 'rot3': 26, 'rot2': 28, 'state': 'normal', 'yaw': 10.9, 'datetime': '2018-10-12 14:15:29.347219', 'mgs': 0, 'depth': 2.911, 'time': 20.03, 'pitch': -2.95, 'roll': -23.1}
{'lipoC2': 7.75, 'temp': 23.69, 'lipoC3S3': 11.68, 'rot1': 50, 'rot0': 44, 'rot3': 26, 'rot2': 28, 'state': 'normal', 'yaw': 10.99, 'datetime': '2018-10-12 14:15:29.444757', 'mgs': 0, 'depth': 2.988, 'time': 20.13, 'pitch': -2.81, 'roll': -22.45}
{'lipoC2': 7.75, 'temp': 23.69, 'lipoC3S3': 11.67, 'rot1': 50, 'rot0': 44, 'rot3': 26, 'rot2': 28, 'state': 'normal', 'yaw': 11.06, 'datetime': '2018-10-12 14:15:29.542387', 'mgs': 0, 'depth': 2.988, 'time': 20.23, 'pitch': -2.69, 'roll': -21.89}
{'lipoC2': 7.75, 'temp': 23.69, 'lipoC3S3': 11.68, 'rot1': 50, 'rot0': 44, 'rot3': 26, 'rot2': 28, 'state': 'normal', 'yaw': 11.14, 'datetime': '2018-10-12 14:15:29.639827', 'mgs': 0, 'depth': 2.988, 'time': 20.32, 'pitch': -2.55, 'roll': -21.32}
{'lipoC2': 7.75, 'temp': 23.69, 'lipoC3S3': 11.67, 'rot1': 50, 'rot0': 44, 'rot3': 26, 'rot2': 28, 'state': 'normal', 'yaw': 11.23, 'datetime': '2018-10-12 14:15:29.737312', 'mgs': 0, 'depth': 3.064, 'time': 20.42, 'pitch': -2.4, 'roll': -20.72}
{'lipoC2': 7.75, 'temp': 23.69, 'lipoC3S3': 11.67, 'rot1': 50, 'rot0': 44, 'rot3': 26, 'rot2': 28, 'state': 'normal', 'yaw': 11.33, 'datetime': '2018-10-12 14:15:29.834642', 'mgs': 0, 'depth': 2.988, 'time': 20.52, 'pitch': -2.25, 'roll': -20.11}
{'lipoC2': 7.75, 'temp': 23.75, 'lipoC3S3': 11.67, 'rot1': 50, 'rot0': 44, 'rot3': 26, 'rot2': 28, 'state': 'normal', 'yaw': 11.41, 'datetime': '2018-10-12 14:15:29.932575', 'mgs': 0, 'depth': 2.988, 'time': 20.61, 'pitch': -2.11, 'roll': -19.56}
{'lipoC2': 7.75, 'temp': 23.75, 'lipoC3S3': 11.67, 'rot1': 50, 'rot0': 44, 'rot3': 26, 'rot2': 28, 'state': 'normal', 'yaw': 11.51, 'datetime': '2018-10-12 14:15:30.025578', 'mgs': 0, 'depth': 2.988, 'time': 20.71, 'pitch': -1.99, 'roll': -19.02}
{'lipoC2': 7.73, 'temp': 23.75, 'lipoC3S3': 11.68, 'rot1': 50, 'rot0': 44, 'rot3': 26, 'rot2': 28, 'state': 'normal', 'yaw': 11.62, 'datetime': '2018-10-12 14:15:30.124508', 'mgs': 0, 'depth': 3.14, 'time': 20.81, 'pitch': -1.94, 'roll': -18.66}
{'lipoC2': 7.73, 'temp': 23.75, 'lipoC3S3': 11.68, 'rot1': 50, 'rot0': 44, 'rot3': 26, 'rot2': 28, 'state': 'normal', 'yaw': 11.75, 'datetime': '2018-10-12 14:15:30.224592', 'mgs': 0, 'depth': 3.14, 'time': 20.91, 'pitch': -1.9, 'roll': -18.52}
{'lipoC2': 7.75, 'temp': 23.75, 'lipoC3S3': 11.68, 'rot1': 50, 'rot0': 44, 'rot3': 26, 'rot2': 28, 'state': 'normal', 'yaw': 11.87, 'datetime': '2018-10-12 14:15:30.323288', 'mgs': 0, 'depth': 2.988, 'time': 21.01, 'pitch': -1.86, 'roll': -18.58}
{'lipoC2': 7.75, 'temp': 23.75, 'lipoC3S3': 11.68, 'rot1': 50, 'rot0': 44, 'rot3': 26, 'rot2': 28, 'state': 'normal', 'yaw': 12.0, 'datetime': '2018-10-12 14:15:30.422137', 'mgs': 0, 'depth': 3.064, 'time': 21.1, 'pitch': -1.81, 'roll': -18.83}
{'lipoC2': 7.75, 'temp': 23.75, 'lipoC3S3': 11.68, 'rot1': 50, 'rot0': 44, 'rot3': 26, 'rot2': 28, 'state': 'normal', 'yaw': 12.14, 'datetime': '2018-10-12 14:15:30.520652', 'mgs': 0, 'depth': 3.064, 'time': 21.2, 'pitch': -1.8, 'roll': -19.19}
