{'lipoC2': 7.92, 'temp': 25.06, 'lipoC3S3': 11.97, 'rot1': 0, 'rot0': 0, 'rot3': 0, 'rot2': 0, 'state': 'normal', 'yaw': 0.0, 'datetime': '2018-10-12 13:31:33.048166', 'mgs': 0, 'depth': 1.538, 'time': 1.26, 'pitch': -1.88, 'roll': -10.16}
{'lipoC2': 7.92, 'temp': 25.06, 'lipoC3S3': 11.97, 'rot1': 0, 'rot0': 0, 'rot3': 0, 'rot2': 0, 'state': 'normal', 'yaw': 0.12, 'datetime': '2018-10-12 13:31:33.064838', 'mgs': 0, 'depth': 1.614, 'time': 1.36, 'pitch': -2.5, 'roll': -9.85}
{'lipoC2': 7.92, 'temp': 25.06, 'lipoC3S3': 11.97, 'rot1': 0, 'rot0': 0, 'rot3': 0, 'rot2': 0, 'state': 'normal', 'yaw': 0.53, 'datetime': '2018-10-12 13:31:33.081494', 'mgs': 0, 'depth': 1.614, 'time': 1.45, 'pitch': -3.1, 'roll': -9.26}
{'lipoC2': 7.93, 'temp': 25.06, 'lipoC3S3': 11.97, 'rot1': 0, 'rot0': 0, 'rot3': 0, 'rot2': 0, 'state': 'normal', 'yaw': 1.23, 'datetime': '2018-10-12 13:31:33.098131', 'mgs': 0, 'depth': 1.614, 'time': 1.55, 'pitch': -3.51, 'roll': -8.82}
{'lipoC2': 7.92, 'temp': 25.06, 'lipoC3S3': 11.97, 'rot1': 0, 'rot0': 0, 'rot3': 0, 'rot2': 0, 'state': 'normal', 'yaw': 2.26, 'datetime': '2018-10-12 13:31:33.113242', 'mgs': 0, 'depth': 1.614, 'time': 1.65, 'pitch': -3.87, 'roll': -8.86}
{'lipoC2': 7.92, 'temp': 25.06, 'lipoC3S3': 11.97, 'rot1': 0, 'rot0': 0, 'rot3': 0, 'rot2': 0, 'state': 'normal', 'yaw': 3.19, 'datetime': '2018-10-12 13:31:33.120432', 'mgs': 0, 'depth': 1.614, 'time': 1.75, 'pitch': -4.39, 'roll': -9.39}
{'lipoC2': 7.92, 'temp': 25.06, 'lipoC3S3': 11.97, 'rot1': 0, 'rot0': 0, 'rot3': 0, 'rot2': 0, 'state': 'normal', 'yaw': 4.04, 'datetime': '2018-10-12 13:31:33.127585', 'mgs': 0, 'depth': 1.614, 'time': 1.84, 'pitch': -4.98, 'roll': -10.07}
{'lipoC2': 7.92, 'temp': 25.06, 'lipoC3S3': 11.98, 'rot1': 0, 'rot0': 0, 'rot3': 0, 'rot2': 0, 'state': 'normal', 'yaw': 4.81, 'datetime': '2018-10-12 13:31:33.134743', 'mgs': 0, 'depth': 1.614, 'time': 1.94, 'pitch': -5.43, 'roll': -10.53}
{'lipoC2': 7.92, 'temp': 25.06, 'lipoC3S3': 11.97, 'rot1': 0, 'rot0': 0, 'rot3': 0, 'rot2': 0, 'state': 'normal', 'yaw': 5.55, 'datetime': '2018-10-12 13:31:33.141934', 'mgs': 0, 'depth': 1.691, 'time': 2.04, 'pitch': -5.81, 'roll': -10.63}
{'lipoC2': 7.92, 'temp': 25.06, 'lipoC3S3': 11.97, 'rot1': 0, 'rot0': 0, 'rot3': 0, 'rot2': 0, 'state': 'normal', 'yaw': 6.08, 'datetime': '2018-10-12 13:31:33.168020', 'mgs': 0, 'depth': 1.614, 'time': 2.14, 'pitch': -6.06, 'roll': -10.02}
{'lipoC2': 7.93, 'temp': 25.13, 'lipoC3S3': 11.97, 'rot1': 0, 'rot0': 0, 'rot3': 0, 'rot2': 0, 'state': 'normal', 'yaw': 6.01, 'datetime': '2018-10-12 13:31:33.265077', 'mgs': 0, 'depth': 1.614, 'time': 2.23, 'pitch': -6.47, 'roll': -9.34}
{'lipoC2': 7.93, 'temp': 25.13, 'lipoC3S3': 11.97, 'rot1': 0, 'rot0': 0, 'rot3': 0, 'rot2': 0, 'state': 'normal', 'yaw': 5.79, 'datetime': '2018-10-12 13:31:33.362085', 'mgs': 0, 'depth': 1.691, 'time': 2.33, 'pitch': -6.79, 'roll': -9.33}
{'lipoC2': 7.92, 'temp': 25.06, 'lipoC3S3': 11.98, 'rot1': 0, 'rot0': 0, 'rot3': 0, 'rot2': 0, 'state': 'normal', 'yaw': 6.0, 'datetime': '2018-10-12 13:31:33.459123', 'mgs': 0, 'depth': 1.691, 'time': 2.43, 'pitch': -6.62, 'roll': -9.97}
{'lipoC2': 7.92, 'temp': 25.06, 'lipoC3S3': 11.97, 'rot1': 0, 'rot0': 0, 'rot3': 0, 'rot2': 0, 'state': 'normal', 'yaw': 6.59, 'datetime': '2018-10-12 13:31:33.556923', 'mgs': 0, 'depth': 1.614, 'time': 2.53, 'pitch': -6.14, 'roll': -10.48}
{'lipoC2': 7.92, 'temp': 25.06, 'lipoC3S3': 11.98, 'rot1': 0, 'rot0': 0, 'rot3': 0, 'rot2': 0, 'state': 'normal', 'yaw': 7.22, 'datetime': '2018-10-12 13:31:33.655253', 'mgs': 0, 'depth': 1.614, 'time': 2.62, 'pitch': -5.8, 'roll': -10.54}
{'lipoC2': 7.92, 'temp': 25.06, 'lipoC3S3': 11.98, 'rot1': 0, 'rot0': 0, 'rot3': 0, 'rot2': 0, 'state': 'normal', 'yaw': 7.35, 'datetime': '2018-10-12 13:31:33.753381', 'mgs': 0, 'depth': 1.614, 'time': 2.72, 'pitch': -6.04, 'roll': -10.34}
{'lipoC2': 7.92, 'temp': 25.06, 'lipoC3S3': 11.97, 'rot1': 0, 'rot0': 0, 'rot3': 0, 'rot2': 0, 'state': 'normal', 'yaw': 7.15, 'datetime': '2018-10-12 13:31:33.850985', 'mgs': 0, 'depth': 1.691, 'time': 2.82, 'pitch': -6.63, 'roll': -10.29}
{'lipoC2': 7.92, 'temp': 25.06, 'lipoC3S3': 11.97, 'rot1': 0, 'rot0': 0, 'rot3': 0, 'rot2': 0, 'state': 'normal', 'yaw': 7.12, 'datetime': '2018-10-12 13:31:33.948263', 'mgs': 0, 'depth': 1.691, 'time': 2.92, 'pitch': -6.99, 'roll': -10.41}
{'lipoC2': 7.92, 'temp': 25.06, 'lipoC3S3': 11.97, 'rot1': 0, 'rot0': 0, 'rot3': 0, 'rot2': 0, 'state': 'normal', 'yaw': 7.15, 'datetime': '2018-10-12 13:31:34.046624', 'mgs': 0, 'depth': 1.691, 'time': 3.01, 'pitch': -7.11, 'roll': -10.4}
{'lipoC2': 7.92, 'temp': 25.06, 'lipoC3S3': 11.97, 'rot1': 0, 'rot0': 0, 'rot3': 0, 'rot2': 0, 'state': 'normal', 'yaw': 7.09, 'datetime': '2018-10-12 13:31:34.144841', 'mgs': 0, 'depth': 1.691, 'time': 3.11, 'pitch': -7.15, 'roll': -10.44}
{'lipoC2': 7.92, 'temp': 25.06, 'lipoC3S3': 11.97, 'rot1': 0, 'rot0': 0, 'rot3': 0, 'rot2': 0, 'state': 'normal', 'yaw': 6.87, 'datetime': '2018-10-12 13:31:34.241854', 'mgs': 0, 'depth': 1.691, 'time': 3.21, 'pitch': -7.18, 'roll': -10.67}
{'lipoC2': 7.92, 'temp': 25.06, 'lipoC3S3': 11.97, 'rot1': 0, 'rot0': 0, 'rot3': 0, 'rot2': 0, 'state': 'normal', 'yaw': 6.64, 'datetime': '2018-10-12 13:31:34.339104', 'mgs': 0, 'depth': 1.614, 'time': 3.31, 'pitch': -7.11, 'roll': -10.91}
{'lipoC2': 7.92, 'temp': 25.0, 'lipoC3S3': 11.98, 'rot1': 0, 'rot0': 0, 'rot3': 0, 'rot2': 0, 'state': 'normal', 'yaw': 6.68, 'datetime': '2018-10-12 13:31:34.437408', 'mgs': 0, 'depth': 1.691, 'time': 3.4, 'pitch': -6.92, 'roll': -11.01}
{'lipoC2': 7.92, 'temp': 25.0, 'lipoC3S3': 11.97, 'rot1': 0, 'rot0': 0, 'rot3': 0, 'rot2': 0, 'state': 'normal', 'yaw': 6.72, 'datetime': '2018-10-12 13:31:34.534475', 'mgs': 0, 'depth': 1.691, 'time': 3.5, 'pitch': -6.9, 'roll': -10.58}
{'lipoC2': 7.92, 'temp': 25.0, 'lipoC3S3': 11.98, 'rot1': 0, 'rot0': 0, 'rot3': 0, 'rot2': 0, 'state': 'normal', 'yaw': 6.72, 'datetime': '2018-10-12 13:31:34.631464', 'mgs': 0, 'depth': 1.691, 'time': 3.6, 'pitch': -6.97, 'roll': -9.4}
{'lipoC2': 7.92, 'temp': 25.06, 'lipoC3S3': 11.97, 'rot1': 0, 'rot0': 0, 'rot3': 0, 'rot2': 0, 'state': 'normal', 'yaw': 6.8, 'datetime': '2018-10-12 13:31:34.728690', 'mgs': 0, 'depth': 1.691, 'time': 3.7, 'pitch': -6.94, 'roll': -8.08}
{'lipoC2': 7.92, 'temp': 25.06, 'lipoC3S3': 11.98, 'rot1': 0, 'rot0': 0, 'rot3': 0, 'rot2': 0, 'state': 'normal', 'yaw': 6.82, 'datetime': '2018-10-12 13:31:34.825716', 'mgs': 0, 'depth': 1.767, 'time': 3.79, 'pitch': -6.78, 'roll': -6.91}
{'lipoC2': 7.92, 'temp': 25.06, 'lipoC3S3': 11.97, 'rot1': 0, 'rot0': 0, 'rot3': 0, 'rot2': 0, 'state': 'normal', 'yaw': 6.75, 'datetime': '2018-10-12 13:31:34.922753', 'mgs': 0, 'depth': 1.767, 'time': 3.89, 'pitch': -6.58, 'roll': -6.19}
{'lipoC2': 7.92, 'temp': 25.06, 'lipoC3S3': 11.97, 'rot1': 0, 'rot0': 0, 'rot3': 0, 'rot2': 0, 'state': 'normal', 'yaw': 6.64, 'datetime': '2018-10-12 13:31:35.020084', 'mgs': 0, 'depth': 1.767, 'time': 3.99, 'pitch': -6.38, 'roll': -5.62}
{'lipoC2': 7.92, 'temp': 25.06, 'lipoC3S3': 11.97, 'rot1': 0, 'rot0': 0, 'rot3': 0, 'rot2': 0, 'state': 'normal', 'yaw': 6.47, 'datetime': '2018-10-12 13:31:35.117037', 'mgs': 0, 'depth': 1.767, 'time': 4.09, 'pitch': -6.23, 'roll': -5.32}
{'lipoC2': 7.92, 'temp': 25.06, 'lipoC3S3': 11.97, 'rot1': 0, 'rot0': 0, 'rot3': 0, 'rot2': 0, 'state': 'normal', 'yaw': 6.34, 'datetime': '2018-10-12 13:31:35.214069', 'mgs': 0, 'depth': 1.767, 'time': 4.18, 'pitch': -6.23, 'roll': -5.32}
{'lipoC2': 7.92, 'temp': 25.06, 'lipoC3S3': 11.97, 'rot1': 0, 'rot0': 0, 'rot3': 0, 'rot2': 0, 'state': 'normal', 'yaw': 6.35, 'datetime': '2018-10-12 13:31:35.311125', 'mgs': 0, 'depth': 1.691, 'time': 4.28, 'pitch': -6.35, 'roll': -5.69}
{'lipoC2': 7.92, 'temp': 25.06, 'lipoC3S3': 11.97, 'rot1': 0, 'rot0': 0, 'rot3': 0, 'rot2': 0, 'state': 'normal', 'yaw': 6.26, 'datetime': '2018-10-12 13:31:35.409394', 'mgs': 0, 'depth': 1.691, 'time': 4.38, 'pitch': -6.62, 'roll': -6.26}
{'lipoC2': 7.92, 'temp': 25.06, 'lipoC3S3': 11.97, 'rot1': 0, 'rot0': 0, 'rot3': 0, 'rot2': 0, 'state': 'normal', 'yaw': 6.01, 'datetime': '2018-10-12 13:31:35.507717', 'mgs': 0, 'depth': 1.767, 'time': 4.48, 'pitch': -6.92, 'roll': -6.92}
{'lipoC2': 7.92, 'temp': 25.06, 'lipoC3S3': 11.97, 'rot1': 0, 'rot0': 0, 'rot3': 0, 'rot2': 0, 'state': 'normal', 'yaw': 5.79, 'datetime': '2018-10-12 13:31:35.604755', 'mgs': 0, 'depth': 1.691, 'time': 4.57, 'pitch': -7.06, 'roll': -7.33}
{'lipoC2': 7.92, 'temp': 25.06, 'lipoC3S3': 11.98, 'rot1': 0, 'rot0': 0, 'rot3': 0, 'rot2': 0, 'state': 'normal', 'yaw': 5.83, 'datetime': '2018-10-12 13:31:35.701803', 'mgs': 0, 'depth': 1.767, 'time': 4.67, 'pitch': -6.84, 'roll': -7.14}
{'lipoC2': 7.93, 'temp': 25.06, 'lipoC3S3': 11.97, 'rot1': 0, 'rot0': 0, 'rot3': 0, 'rot2': 0, 'state': 'normal', 'yaw': 5.94, 'datetime': '2018-10-12 13:31:35.800110', 'mgs': 0, 'depth': 1.691, 'time': 4.77, 'pitch': -6.44, 'roll': -6.7}
{'lipoC2': 7.92, 'temp': 25.13, 'lipoC3S3': 11.97, 'rot1': 0, 'rot0': 0, 'rot3': 0, 'rot2': 0, 'state': 'normal', 'yaw': 5.89, 'datetime': '2018-10-12 13:31:35.898045', 'mgs': 0, 'depth': 1.691, 'time': 4.87, 'pitch': -5.98, 'roll': -6.19}
{'lipoC2': 7.93, 'temp': 25.13, 'lipoC3S3': 11.97, 'rot1': 0, 'rot0': 0, 'rot3': 0, 'rot2': 0, 'state': 'normal', 'yaw': 5.93, 'datetime': '2018-10-12 13:31:35.995153', 'mgs': 0, 'depth': 1.767, 'time': 4.97, 'pitch': -5.43, 'roll': -5.85}
{'lipoC2': 7.92, 'temp': 25.13, 'lipoC3S3': 11.97, 'rot1': 0, 'rot0': 0, 'rot3': 0, 'rot2': 0, 'state': 'normal', 'yaw': 6.18, 'datetime': '2018-10-12 13:31:36.092296', 'mgs': 0, 'depth': 1.691, 'time': 5.06, 'pitch': -4.84, 'roll': -5.5}
{'lipoC2': 7.92, 'temp': 25.06, 'lipoC3S3': 11.97, 'rot1': 0, 'rot0': 0, 'rot3': 0, 'rot2': 0, 'state': 'normal', 'yaw': 6.42, 'datetime': '2018-10-12 13:31:36.190579', 'mgs': 0, 'depth': 1.691, 'time': 5.16, 'pitch': -4.4, 'roll': -5.04}
{'lipoC2': 7.92, 'temp': 25.06, 'lipoC3S3': 11.97, 'rot1': 0, 'rot0': 0, 'rot3': 0, 'rot2': 0, 'state': 'normal', 'yaw': 6.29, 'datetime': '2018-10-12 13:31:36.287960', 'mgs': 0, 'depth': 1.691, 'time': 5.26, 'pitch': -4.23, 'roll': -4.7}
{'lipoC2': 7.92, 'temp': 25.06, 'lipoC3S3': 11.97, 'rot1': 0, 'rot0': 0, 'rot3': 0, 'rot2': 0, 'state': 'normal', 'yaw': 5.92, 'datetime': '2018-10-12 13:31:36.384971', 'mgs': 0, 'depth': 1.691, 'time': 5.36, 'pitch': -4.27, 'roll': -4.63}
{'lipoC2': 7.92, 'temp': 25.06, 'lipoC3S3': 11.98, 'rot1': 0, 'rot0': 0, 'rot3': 0, 'rot2': 0, 'state': 'normal', 'yaw': 5.75, 'datetime': '2018-10-12 13:31:36.482166', 'mgs': 0, 'depth': 1.614, 'time': 5.45, 'pitch': -4.32, 'roll': -4.76}
{'lipoC2': 7.92, 'temp': 25.06, 'lipoC3S3': 11.97, 'rot1': 0, 'rot0': 0, 'rot3': 0, 'rot2': 0, 'state': 'normal', 'yaw': 5.94, 'datetime': '2018-10-12 13:31:36.579162', 'mgs': 0, 'depth': 1.614, 'time': 5.55, 'pitch': -4.3, 'roll': -5.08}
{'lipoC2': 7.92, 'temp': 25.0, 'lipoC3S3': 11.97, 'rot1': 0, 'rot0': 0, 'rot3': 0, 'rot2': 0, 'state': 'normal', 'yaw': 6.24, 'datetime': '2018-10-12 13:31:36.676231', 'mgs': 0, 'depth': 1.614, 'time': 5.65, 'pitch': -4.44, 'roll': -5.46}
{'lipoC2': 7.92, 'temp': 25.0, 'lipoC3S3': 11.97, 'rot1': 0, 'rot0': 0, 'rot3': 0, 'rot2': 0, 'state': 'normal', 'yaw': 6.41, 'datetime': '2018-10-12 13:31:36.773443', 'mgs': 0, 'depth': 1.691, 'time': 5.74, 'pitch': -4.9, 'roll': -5.62}
{'lipoC2': 7.92, 'temp': 25.06, 'lipoC3S3': 11.98, 'rot1': 0, 'rot0': 0, 'rot3': 0, 'rot2': 0, 'state': 'normal', 'yaw': 6.54, 'datetime': '2018-10-12 13:31:36.870512', 'mgs': 0, 'depth': 1.691, 'time': 5.84, 'pitch': -5.52, 'roll': -5.69}
{'lipoC2': 7.92, 'temp': 25.06, 'lipoC3S3': 11.97, 'rot1': 0, 'rot0': 0, 'rot3': 0, 'rot2': 0, 'state': 'normal', 'yaw': 6.76, 'datetime': '2018-10-12 13:31:36.967494', 'mgs': 0, 'depth': 1.691, 'time': 5.94, 'pitch': -6.25, 'roll': -5.76}
{'lipoC2': 7.92, 'temp': 25.06, 'lipoC3S3': 11.97, 'rot1': 0, 'rot0': 0, 'rot3': 0, 'rot2': 0, 'state': 'normal', 'yaw': 7.05, 'datetime': '2018-10-12 13:31:37.064513', 'mgs': 0, 'depth': 1.691, 'time': 6.03, 'pitch': -6.92, 'roll': -5.77}
{'lipoC2': 7.92, 'temp': 25.06, 'lipoC3S3': 11.97, 'rot1': 0, 'rot0': 0, 'rot3': 0, 'rot2': 0, 'state': 'normal', 'yaw': 7.3, 'datetime': '2018-10-12 13:31:37.162812', 'mgs': 0, 'depth': 1.691, 'time': 6.13, 'pitch': -7.45, 'roll': -5.64}
{'lipoC2': 7.92, 'temp': 25.06, 'lipoC3S3': 11.97, 'rot1': 0, 'rot0': 0, 'rot3': 0, 'rot2': 0, 'state': 'normal', 'yaw': 7.51, 'datetime': '2018-10-12 13:31:37.261154', 'mgs': 0, 'depth': 1.767, 'time': 6.23, 'pitch': -7.94, 'roll': -5.4}
{'lipoC2': 7.92, 'temp': 25.06, 'lipoC3S3': 11.97, 'rot1': 0, 'rot0': 0, 'rot3': 0, 'rot2': 0, 'state': 'normal', 'yaw': 7.65, 'datetime': '2018-10-12 13:31:37.358176', 'mgs': 0, 'depth': 1.767, 'time': 6.33, 'pitch': -8.32, 'roll': -5.21}
{'lipoC2': 7.92, 'temp': 25.06, 'lipoC3S3': 11.97, 'rot1': 0, 'rot0': 0, 'rot3': 0, 'rot2': 0, 'state': 'normal', 'yaw': 7.84, 'datetime': '2018-10-12 13:31:37.455176', 'mgs': 0, 'depth': 1.691, 'time': 6.43, 'pitch': -8.48, 'roll': -5.19}
{'lipoC2': 7.92, 'temp': 25.06, 'lipoC3S3': 11.97, 'rot1': 0, 'rot0': 0, 'rot3': 0, 'rot2': 0, 'state': 'normal', 'yaw': 8.04, 'datetime': '2018-10-12 13:31:37.553504', 'mgs': 0, 'depth': 1.691, 'time': 6.52, 'pitch': -8.44, 'roll': -5.33}
{'lipoC2': 7.92, 'temp': 25.06, 'lipoC3S3': 11.97, 'rot1': 0, 'rot0': 0, 'rot3': 0, 'rot2': 0, 'state': 'normal', 'yaw': 8.12, 'datetime': '2018-10-12 13:31:37.651734', 'mgs': 0, 'depth': 1.767, 'time': 6.62, 'pitch': -8.29, 'roll': -5.61}
{'lipoC2': 7.92, 'temp': 25.06, 'lipoC3S3': 11.97, 'rot1': 0, 'rot0': 0, 'rot3': 0, 'rot2': 0, 'state': 'normal', 'yaw': 8.05, 'datetime': '2018-10-12 13:31:37.752145', 'mgs': 0, 'depth': 1.691, 'time': 6.72, 'pitch': -8.05, 'roll': -5.89}
{'lipoC2': 7.92, 'temp': 25.06, 'lipoC3S3': 11.97, 'rot1': 0, 'rot0': 0, 'rot3': 0, 'rot2': 0, 'state': 'normal', 'yaw': 7.94, 'datetime': '2018-10-12 13:31:37.845801', 'mgs': 0, 'depth': 1.691, 'time': 6.82, 'pitch': -7.67, 'roll': -6.01}
{'lipoC2': 7.92, 'temp': 25.06, 'lipoC3S3': 11.98, 'rot1': 0, 'rot0': 0, 'rot3': 0, 'rot2': 0, 'state': 'normal', 'yaw': 7.92, 'datetime': '2018-10-12 13:31:37.944125', 'mgs': 0, 'depth': 1.691, 'time': 6.92, 'pitch': -7.18, 'roll': -5.97}
{'lipoC2': 7.92, 'temp': 25.06, 'lipoC3S3': 11.97, 'rot1': 0, 'rot0': 0, 'rot3': 0, 'rot2': 0, 'state': 'normal', 'yaw': 8.02, 'datetime': '2018-10-12 13:31:38.041540', 'mgs': 0, 'depth': 1.691, 'time': 7.01, 'pitch': -6.58, 'roll': -5.87}
{'lipoC2': 7.92, 'temp': 25.0, 'lipoC3S3': 11.97, 'rot1': 0, 'rot0': 0, 'rot3': 0, 'rot2': 0, 'state': 'normal', 'yaw': 8.05, 'datetime': '2018-10-12 13:31:38.141031', 'mgs': 0, 'depth': 1.614, 'time': 7.11, 'pitch': -6.13, 'roll': -5.85}
{'lipoC2': 7.92, 'temp': 25.0, 'lipoC3S3': 11.97, 'rot1': 0, 'rot0': 0, 'rot3': 0, 'rot2': 0, 'state': 'normal', 'yaw': 8.03, 'datetime': '2018-10-12 13:31:38.240164', 'mgs': 0, 'depth': 1.691, 'time': 7.21, 'pitch': -5.91, 'roll': -5.78}
{'lipoC2': 7.92, 'temp': 25.06, 'lipoC3S3': 11.97, 'rot1': 0, 'rot0': 0, 'rot3': 0, 'rot2': 0, 'state': 'normal', 'yaw': 8.02, 'datetime': '2018-10-12 13:31:38.337050', 'mgs': 0, 'depth': 1.691, 'time': 7.3, 'pitch': -5.85, 'roll': -5.64}
{'lipoC2': 7.92, 'temp': 25.06, 'lipoC3S3': 11.97, 'rot1': 0, 'rot0': 0, 'rot3': 0, 'rot2': 0, 'state': 'normal', 'yaw': 8.03, 'datetime': '2018-10-12 13:31:38.434942', 'mgs': 0, 'depth': 1.691, 'time': 7.4, 'pitch': -5.85, 'roll': -5.58}
{'lipoC2': 7.92, 'temp': 25.06, 'lipoC3S3': 11.98, 'rot1': 0, 'rot0': 0, 'rot3': 0, 'rot2': 0, 'state': 'normal', 'yaw': 8.12, 'datetime': '2018-10-12 13:31:38.531248', 'mgs': 0, 'depth': 1.614, 'time': 7.5, 'pitch': -5.89, 'roll': -5.73}
{'lipoC2': 7.92, 'temp': 25.06, 'lipoC3S3': 11.97, 'rot1': 0, 'rot0': 0, 'rot3': 0, 'rot2': 0, 'state': 'normal', 'yaw': 8.23, 'datetime': '2018-10-12 13:31:38.628211', 'mgs': 0, 'depth': 1.614, 'time': 7.6, 'pitch': -6.03, 'roll': -6.07}
{'lipoC2': 7.92, 'temp': 25.06, 'lipoC3S3': 11.97, 'rot1': 0, 'rot0': 0, 'rot3': 0, 'rot2': 0, 'state': 'normal', 'yaw': 8.38, 'datetime': '2018-10-12 13:31:38.725167', 'mgs': 0, 'depth': 1.691, 'time': 7.69, 'pitch': -6.24, 'roll': -6.38}
{'lipoC2': 7.92, 'temp': 25.06, 'lipoC3S3': 11.97, 'rot1': 0, 'rot0': 0, 'rot3': 0, 'rot2': 0, 'state': 'normal', 'yaw': 8.65, 'datetime': '2018-10-12 13:31:38.822273', 'mgs': 0, 'depth': 1.691, 'time': 7.79, 'pitch': -6.42, 'roll': -6.62}
{'lipoC2': 7.92, 'temp': 25.06, 'lipoC3S3': 11.98, 'rot1': 0, 'rot0': 0, 'rot3': 0, 'rot2': 0, 'state': 'normal', 'yaw': 8.93, 'datetime': '2018-10-12 13:31:38.918109', 'mgs': 0, 'depth': 1.614, 'time': 7.89, 'pitch': -6.57, 'roll': -6.91}
{'lipoC2': 7.92, 'temp': 25.06, 'lipoC3S3': 11.97, 'rot1': 0, 'rot0': 0, 'rot3': 0, 'rot2': 0, 'state': 'normal', 'yaw': 9.27, 'datetime': '2018-10-12 13:31:39.014030', 'mgs': 0, 'depth': 1.691, 'time': 7.99, 'pitch': -6.72, 'roll': -7.35}
{'lipoC2': 7.92, 'temp': 25.06, 'lipoC3S3': 11.98, 'rot1': 0, 'rot0': 0, 'rot3': 0, 'rot2': 0, 'state': 'normal', 'yaw': 9.6, 'datetime': '2018-10-12 13:31:39.111018', 'mgs': 0, 'depth': 1.691, 'time': 8.08, 'pitch': -6.94, 'roll': -7.72}
{'lipoC2': 7.92, 'temp': 25.06, 'lipoC3S3': 11.97, 'rot1': 0, 'rot0': 0, 'rot3': 0, 'rot2': 0, 'state': 'normal', 'yaw': 9.83, 'datetime': '2018-10-12 13:31:39.208087', 'mgs': 0, 'depth': 1.691, 'time': 8.18, 'pitch': -7.33, 'roll': -7.85}
{'lipoC2': 7.92, 'temp': 25.0, 'lipoC3S3': 11.98, 'rot1': 0, 'rot0': 0, 'rot3': 0, 'rot2': 0, 'state': 'normal', 'yaw': 9.9, 'datetime': '2018-10-12 13:31:39.306402', 'mgs': 0, 'depth': 1.691, 'time': 8.28, 'pitch': -7.79, 'roll': -7.89}
{'lipoC2': 7.93, 'temp': 25.0, 'lipoC3S3': 11.97, 'rot1': 0, 'rot0': 0, 'rot3': 0, 'rot2': 0, 'state': 'normal', 'yaw': 10.03, 'datetime': '2018-10-12 13:31:39.404702', 'mgs': 0, 'depth': 1.767, 'time': 8.38, 'pitch': -8.3, 'roll': -8.12}
{'lipoC2': 7.92, 'temp': 25.0, 'lipoC3S3': 11.97, 'rot1': 0, 'rot0': 0, 'rot3': 0, 'rot2': 0, 'state': 'normal', 'yaw': 10.29, 'datetime': '2018-10-12 13:31:39.501742', 'mgs': 0, 'depth': 1.767, 'time': 8.48, 'pitch': -8.65, 'roll': -8.44}
{'lipoC2': 7.92, 'temp': 25.06, 'lipoC3S3': 11.98, 'rot1': 0, 'rot0': 0, 'rot3': 0, 'rot2': 0, 'state': 'normal', 'yaw': 10.53, 'datetime': '2018-10-12 13:31:39.598727', 'mgs': 0, 'depth': 1.843, 'time': 8.57, 'pitch': -8.91, 'roll': -8.6}
{'lipoC2': 7.92, 'temp': 25.06, 'lipoC3S3': 11.97, 'rot1': 0, 'rot0': 0, 'rot3': 0, 'rot2': 0, 'state': 'normal', 'yaw': 10.59, 'datetime': '2018-10-12 13:31:39.697642', 'mgs': 0, 'depth': 1.767, 'time': 8.67, 'pitch': -9.11, 'roll': -8.61}
{'lipoC2': 7.92, 'temp': 25.06, 'lipoC3S3': 11.97, 'rot1': 0, 'rot0': 0, 'rot3': 0, 'rot2': 0, 'state': 'normal', 'yaw': 10.53, 'datetime': '2018-10-12 13:31:39.799245', 'mgs': 0, 'depth': 1.843, 'time': 8.77, 'pitch': -9.24, 'roll': -8.63}
{'lipoC2': 7.92, 'temp': 25.06, 'lipoC3S3': 11.97, 'rot1': 0, 'rot0': 0, 'rot3': 0, 'rot2': 0, 'state': 'normal', 'yaw': 10.47, 'datetime': '2018-10-12 13:31:39.897336', 'mgs': 0, 'depth': 1.843, 'time': 8.87, 'pitch': -9.2, 'roll': -8.81}
{'lipoC2': 7.92, 'temp': 25.06, 'lipoC3S3': 11.97, 'rot1': 0, 'rot0': 0, 'rot3': 0, 'rot2': 0, 'state': 'normal', 'yaw': 10.44, 'datetime': '2018-10-12 13:31:39.994576', 'mgs': 0, 'depth': 1.843, 'time': 8.96, 'pitch': -9.01, 'roll': -9.09}
{'lipoC2': 7.92, 'temp': 25.06, 'lipoC3S3': 11.97, 'rot1': 0, 'rot0': 0, 'rot3': 0, 'rot2': 0, 'state': 'normal', 'yaw': 10.4, 'datetime': '2018-10-12 13:31:40.091474', 'mgs': 0, 'depth': 1.767, 'time': 9.06, 'pitch': -8.79, 'roll': -9.38}
{'lipoC2': 7.92, 'temp': 25.06, 'lipoC3S3': 11.97, 'rot1': 0, 'rot0': 0, 'rot3': 0, 'rot2': 0, 'state': 'normal', 'yaw': 10.26, 'datetime': '2018-10-12 13:31:40.188485', 'mgs': 0, 'depth': 1.767, 'time': 9.16, 'pitch': -8.53, 'roll': -9.64}
{'lipoC2': 7.92, 'temp': 25.0, 'lipoC3S3': 11.97, 'rot1': 0, 'rot0': 0, 'rot3': 0, 'rot2': 0, 'state': 'normal', 'yaw': 10.07, 'datetime': '2018-10-12 13:31:40.285518', 'mgs': 0, 'depth': 1.767, 'time': 9.26, 'pitch': -8.26, 'roll': -9.74}
{'lipoC2': 7.92, 'temp': 25.0, 'lipoC3S3': 11.98, 'rot1': 0, 'rot0': 0, 'rot3': 0, 'rot2': 0, 'state': 'normal', 'yaw': 9.9, 'datetime': '2018-10-12 13:31:40.382507', 'mgs': 0, 'depth': 1.767, 'time': 9.35, 'pitch': -8.01, 'roll': -9.71}
{'lipoC2': 7.92, 'temp': 25.0, 'lipoC3S3': 11.97, 'rot1': 0, 'rot0': 0, 'rot3': 0, 'rot2': 0, 'state': 'normal', 'yaw': 9.72, 'datetime': '2018-10-12 13:31:40.479617', 'mgs': 0, 'depth': 1.767, 'time': 9.45, 'pitch': -7.76, 'roll': -9.7}
{'lipoC2': 7.92, 'temp': 25.0, 'lipoC3S3': 11.98, 'rot1': 0, 'rot0': 0, 'rot3': 0, 'rot2': 0, 'state': 'normal', 'yaw': 9.56, 'datetime': '2018-10-12 13:31:40.576474', 'mgs': 0, 'depth': 1.691, 'time': 9.55, 'pitch': -7.6, 'roll': -9.8}
{'lipoC2': 7.92, 'temp': 25.0, 'lipoC3S3': 11.97, 'rot1': 0, 'rot0': 0, 'rot3': 0, 'rot2': 0, 'state': 'normal', 'yaw': 9.45, 'datetime': '2018-10-12 13:31:40.674731', 'mgs': 0, 'depth': 1.767, 'time': 9.65, 'pitch': -7.57, 'roll': -9.84}
{'lipoC2': 7.93, 'temp': 25.0, 'lipoC3S3': 11.97, 'rot1': 0, 'rot0': 0, 'rot3': 0, 'rot2': 0, 'state': 'normal', 'yaw': 9.37, 'datetime': '2018-10-12 13:31:40.772881', 'mgs': 0, 'depth': 1.767, 'time': 9.74, 'pitch': -7.63, 'roll': -9.75}
{'lipoC2': 7.93, 'temp': 25.0, 'lipoC3S3': 11.97, 'rot1': 0, 'rot0': 0, 'rot3': 0, 'rot2': 0, 'state': 'normal', 'yaw': 9.37, 'datetime': '2018-10-12 13:31:40.870891', 'mgs': 0, 'depth': 1.767, 'time': 9.84, 'pitch': -7.76, 'roll': -9.59}
{'lipoC2': 7.92, 'temp': 25.06, 'lipoC3S3': 11.97, 'rot1': 0, 'rot0': 0, 'rot3': 0, 'rot2': 0, 'state': 'normal', 'yaw': 9.39, 'datetime': '2018-10-12 13:31:40.968374', 'mgs': 0, 'depth': 1.691, 'time': 9.94, 'pitch': -7.89, 'roll': -9.59}
{'lipoC2': 7.92, 'temp': 25.06, 'lipoC3S3': 11.97, 'rot1': 0, 'rot0': 0, 'rot3': 0, 'rot2': 0, 'state': 'normal', 'yaw': 9.32, 'datetime': '2018-10-12 13:31:41.065479', 'mgs': 0, 'depth': 1.767, 'time': 10.04, 'pitch': -8.01, 'roll': -9.72}
{'lipoC2': 7.92, 'temp': 25.06, 'lipoC3S3': 11.97, 'rot1': 0, 'rot0': 0, 'rot3': 0, 'rot2': 0, 'state': 'normal', 'yaw': 9.22, 'datetime': '2018-10-12 13:31:41.163578', 'mgs': 0, 'depth': 1.767, 'time': 10.13, 'pitch': -8.16, 'roll': -9.98}
{'lipoC2': 7.92, 'temp': 25.0, 'lipoC3S3': 11.97, 'rot1': 0, 'rot0': 0, 'rot3': 0, 'rot2': 0, 'state': 'normal', 'yaw': 9.12, 'datetime': '2018-10-12 13:31:41.261602', 'mgs': 0, 'depth': 1.767, 'time': 10.23, 'pitch': -8.36, 'roll': -10.27}
{'lipoC2': 7.92, 'temp': 25.0, 'lipoC3S3': 11.97, 'rot1': 0, 'rot0': 0, 'rot3': 0, 'rot2': 0, 'state': 'normal', 'yaw': 9.04, 'datetime': '2018-10-12 13:31:41.358612', 'mgs': 0, 'depth': 1.691, 'time': 10.33, 'pitch': -8.61, 'roll': -10.37}
{'lipoC2': 7.92, 'temp': 25.06, 'lipoC3S3': 11.97, 'rot1': 0, 'rot0': 0, 'rot3': 0, 'rot2': 0, 'state': 'normal', 'yaw': 9.0, 'datetime': '2018-10-12 13:31:41.456220', 'mgs': 0, 'depth': 1.767, 'time': 10.43, 'pitch': -8.85, 'roll': -10.28}
{'lipoC2': 7.92, 'temp': 25.06, 'lipoC3S3': 11.97, 'rot1': 0, 'rot0': 0, 'rot3': 0, 'rot2': 0, 'state': 'normal', 'yaw': 8.96, 'datetime': '2018-10-12 13:31:41.554455', 'mgs': 0, 'depth': 1.767, 'time': 10.52, 'pitch': -9.06, 'roll': -10.12}
{'lipoC2': 7.92, 'temp': 25.06, 'lipoC3S3': 11.97, 'rot1': 0, 'rot0': 0, 'rot3': 0, 'rot2': 0, 'state': 'normal', 'yaw': 8.91, 'datetime': '2018-10-12 13:31:41.652887', 'mgs': 0, 'depth': 1.691, 'time': 10.62, 'pitch': -9.13, 'roll': -10.02}
{'lipoC2': 7.92, 'temp': 25.0, 'lipoC3S3': 11.97, 'rot1': 0, 'rot0': 0, 'rot3': 0, 'rot2': 0, 'state': 'normal', 'yaw': 8.9, 'datetime': '2018-10-12 13:31:41.749881', 'mgs': 0, 'depth': 1.767, 'time': 10.72, 'pitch': -9.02, 'roll': -10.01}
{'lipoC2': 7.92, 'temp': 25.0, 'lipoC3S3': 11.98, 'rot1': 0, 'rot0': 0, 'rot3': 0, 'rot2': 0, 'state': 'normal', 'yaw': 8.86, 'datetime': '2018-10-12 13:31:41.846900', 'mgs': 0, 'depth': 1.691, 'time': 10.82, 'pitch': -8.82, 'roll': -10.0}
{'lipoC2': 7.92, 'temp': 25.06, 'lipoC3S3': 11.97, 'rot1': 0, 'rot0': 0, 'rot3': 0, 'rot2': 0, 'state': 'normal', 'yaw': 8.77, 'datetime': '2018-10-12 13:31:41.944001', 'mgs': 0, 'depth': 1.691, 'time': 10.91, 'pitch': -8.58, 'roll': -9.94}
{'lipoC2': 7.92, 'temp': 25.06, 'lipoC3S3': 11.97, 'rot1': 0, 'rot0': 0, 'rot3': 0, 'rot2': 0, 'state': 'normal', 'yaw': 8.67, 'datetime': '2018-10-12 13:31:42.041164', 'mgs': 0, 'depth': 1.691, 'time': 11.01, 'pitch': -8.4, 'roll': -9.92}
{'lipoC2': 7.93, 'temp': 25.06, 'lipoC3S3': 11.97, 'rot1': 0, 'rot0': 0, 'rot3': 0, 'rot2': 0, 'state': 'normal', 'yaw': 8.64, 'datetime': '2018-10-12 13:31:42.137920', 'mgs': 0, 'depth': 1.691, 'time': 11.11, 'pitch': -8.24, 'roll': -10.01}
{'lipoC2': 7.92, 'temp': 25.0, 'lipoC3S3': 11.97, 'rot1': 0, 'rot0': 0, 'rot3': 0, 'rot2': 0, 'state': 'normal', 'yaw': 8.65, 'datetime': '2018-10-12 13:31:42.235002', 'mgs': 0, 'depth': 1.691, 'time': 11.21, 'pitch': -8.13, 'roll': -10.14}
{'lipoC2': 7.92, 'temp': 25.0, 'lipoC3S3': 11.97, 'rot1': 0, 'rot0': 0, 'rot3': 0, 'rot2': 0, 'state': 'normal', 'yaw': 8.68, 'datetime': '2018-10-12 13:31:42.332007', 'mgs': 0, 'depth': 1.691, 'time': 11.3, 'pitch': -8.07, 'roll': -10.26}
{'lipoC2': 7.92, 'temp': 25.0, 'lipoC3S3': 11.97, 'rot1': 0, 'rot0': 0, 'rot3': 0, 'rot2': 0, 'state': 'normal', 'yaw': 8.68, 'datetime': '2018-10-12 13:31:42.429069', 'mgs': 0, 'depth': 1.767, 'time': 11.4, 'pitch': -8.07, 'roll': -10.3}
{'lipoC2': 7.92, 'temp': 25.0, 'lipoC3S3': 11.98, 'rot1': 0, 'rot0': 0, 'rot3': 0, 'rot2': 0, 'state': 'normal', 'yaw': 8.68, 'datetime': '2018-10-12 13:31:42.527286', 'mgs': 0, 'depth': 1.691, 'time': 11.5, 'pitch': -8.06, 'roll': -10.3}
{'lipoC2': 7.92, 'temp': 25.0, 'lipoC3S3': 11.98, 'rot1': 0, 'rot0': 0, 'rot3': 0, 'rot2': 0, 'state': 'normal', 'yaw': 8.79, 'datetime': '2018-10-12 13:31:42.625760', 'mgs': 0, 'depth': 1.691, 'time': 11.6, 'pitch': -7.94, 'roll': -10.32}
{'lipoC2': 7.92, 'temp': 25.06, 'lipoC3S3': 11.98, 'rot1': 0, 'rot0': 0, 'rot3': 0, 'rot2': 0, 'state': 'normal', 'yaw': 8.96, 'datetime': '2018-10-12 13:31:42.719114', 'mgs': 0, 'depth': 1.691, 'time': 11.7, 'pitch': -7.81, 'roll': -10.35}
{'lipoC2': 7.92, 'temp': 25.06, 'lipoC3S3': 11.97, 'rot1': 0, 'rot0': 0, 'rot3': 0, 'rot2': 0, 'state': 'normal', 'yaw': 9.14, 'datetime': '2018-10-12 13:31:42.816141', 'mgs': 0, 'depth': 1.691, 'time': 11.79, 'pitch': -7.76, 'roll': -10.45}
{'lipoC2': 7.92, 'temp': 25.0, 'lipoC3S3': 11.97, 'rot1': 0, 'rot0': 0, 'rot3': 0, 'rot2': 0, 'state': 'normal', 'yaw': 9.3, 'datetime': '2018-10-12 13:31:42.913884', 'mgs': 0, 'depth': 1.691, 'time': 11.89, 'pitch': -7.82, 'roll': -10.47}
{'lipoC2': 7.92, 'temp': 25.0, 'lipoC3S3': 11.98, 'rot1': 0, 'rot0': 0, 'rot3': 0, 'rot2': 0, 'state': 'normal', 'yaw': 9.5, 'datetime': '2018-10-12 13:31:43.012301', 'mgs': 0, 'depth': 1.691, 'time': 11.99, 'pitch': -8.01, 'roll': -10.51}
{'lipoC2': 7.92, 'temp': 25.0, 'lipoC3S3': 11.98, 'rot1': 0, 'rot0': 0, 'rot3': 0, 'rot2': 0, 'state': 'normal', 'yaw': 9.69, 'datetime': '2018-10-12 13:31:43.109225', 'mgs': 0, 'depth': 1.691, 'time': 12.09, 'pitch': -8.31, 'roll': -10.63}
{'lipoC2': 7.92, 'temp': 25.0, 'lipoC3S3': 11.98, 'rot1': 0, 'rot0': 0, 'rot3': 0, 'rot2': 0, 'state': 'normal', 'yaw': 9.86, 'datetime': '2018-10-12 13:31:43.206349', 'mgs': 0, 'depth': 1.691, 'time': 12.18, 'pitch': -8.7, 'roll': -10.92}
{'lipoC2': 7.92, 'temp': 25.0, 'lipoC3S3': 11.97, 'rot1': 0, 'rot0': 0, 'rot3': 0, 'rot2': 0, 'state': 'normal', 'yaw': 10.03, 'datetime': '2018-10-12 13:31:43.304309', 'mgs': 0, 'depth': 1.767, 'time': 12.28, 'pitch': -9.07, 'roll': -11.17}
{'lipoC2': 7.92, 'temp': 25.13, 'lipoC3S3': 11.97, 'rot1': 0, 'rot0': 0, 'rot3': 0, 'rot2': 0, 'state': 'normal', 'yaw': 10.23, 'datetime': '2018-10-12 13:31:43.402638', 'mgs': 0, 'depth': 1.767, 'time': 12.38, 'pitch': -9.46, 'roll': -11.39}
{'lipoC2': 7.92, 'temp': 25.13, 'lipoC3S3': 11.98, 'rot1': 0, 'rot0': 0, 'rot3': 0, 'rot2': 0, 'state': 'normal', 'yaw': 10.38, 'datetime': '2018-10-12 13:31:43.499678', 'mgs': 0, 'depth': 1.691, 'time': 12.48, 'pitch': -9.79, 'roll': -11.58}
{'lipoC2': 7.92, 'temp': 25.13, 'lipoC3S3': 11.97, 'rot1': 0, 'rot0': 0, 'rot3': 0, 'rot2': 0, 'state': 'normal', 'yaw': 10.53, 'datetime': '2018-10-12 13:31:43.596716', 'mgs': 0, 'depth': 1.767, 'time': 12.57, 'pitch': -9.97, 'roll': -11.79}
{'lipoC2': 7.92, 'temp': 25.0, 'lipoC3S3': 11.97, 'rot1': 0, 'rot0': 0, 'rot3': 0, 'rot2': 0, 'state': 'normal', 'yaw': 10.68, 'datetime': '2018-10-12 13:31:43.693712', 'mgs': 0, 'depth': 1.691, 'time': 12.67, 'pitch': -10.0, 'roll': -11.88}
{'lipoC2': 7.92, 'temp': 25.0, 'lipoC3S3': 11.97, 'rot1': 0, 'rot0': 0, 'rot3': 0, 'rot2': 0, 'state': 'normal', 'yaw': 10.86, 'datetime': '2018-10-12 13:31:43.790824', 'mgs': 0, 'depth': 1.767, 'time': 12.77, 'pitch': -9.97, 'roll': -11.91}
{'lipoC2': 7.92, 'temp': 25.06, 'lipoC3S3': 11.97, 'rot1': 0, 'rot0': 0, 'rot3': 0, 'rot2': 0, 'state': 'normal', 'yaw': 10.99, 'datetime': '2018-10-12 13:31:43.887812', 'mgs': 0, 'depth': 1.767, 'time': 12.86, 'pitch': -9.94, 'roll': -11.94}
{'lipoC2': 7.92, 'temp': 25.06, 'lipoC3S3': 11.98, 'rot1': 0, 'rot0': 0, 'rot3': 0, 'rot2': 0, 'state': 'normal', 'yaw': 11.07, 'datetime': '2018-10-12 13:31:43.985108', 'mgs': 0, 'depth': 1.691, 'time': 12.96, 'pitch': -9.92, 'roll': -12.06}
{'lipoC2': 7.92, 'temp': 25.06, 'lipoC3S3': 11.97, 'rot1': 0, 'rot0': 0, 'rot3': 0, 'rot2': 0, 'state': 'normal', 'yaw': 11.12, 'datetime': '2018-10-12 13:31:44.082093', 'mgs': 0, 'depth': 1.767, 'time': 13.06, 'pitch': -9.91, 'roll': -12.3}
{'lipoC2': 7.92, 'temp': 25.06, 'lipoC3S3': 11.97, 'rot1': 0, 'rot0': 0, 'rot3': 0, 'rot2': 0, 'state': 'normal', 'yaw': 11.13, 'datetime': '2018-10-12 13:31:44.179117', 'mgs': 0, 'depth': 1.767, 'time': 13.16, 'pitch': -9.91, 'roll': -12.57}
{'lipoC2': 7.92, 'temp': 25.06, 'lipoC3S3': 11.97, 'rot1': 0, 'rot0': 0, 'rot3': 0, 'rot2': 0, 'state': 'normal', 'yaw': 11.06, 'datetime': '2018-10-12 13:31:44.276558', 'mgs': 0, 'depth': 1.767, 'time': 13.25, 'pitch': -9.92, 'roll': -12.75}
{'lipoC2': 7.92, 'temp': 25.06, 'lipoC3S3': 11.97, 'rot1': 0, 'rot0': 0, 'rot3': 0, 'rot2': 0, 'state': 'normal', 'yaw': 10.95, 'datetime': '2018-10-12 13:31:44.374994', 'mgs': 0, 'depth': 1.843, 'time': 13.35, 'pitch': -9.95, 'roll': -12.84}
{'lipoC2': 7.92, 'temp': 25.06, 'lipoC3S3': 11.97, 'rot1': 0, 'rot0': 0, 'rot3': 0, 'rot2': 0, 'state': 'normal', 'yaw': 10.78, 'datetime': '2018-10-12 13:31:44.473303', 'mgs': 0, 'depth': 1.767, 'time': 13.45, 'pitch': -9.95, 'roll': -12.92}
{'lipoC2': 7.92, 'temp': 25.06, 'lipoC3S3': 11.97, 'rot1': 0, 'rot0': 0, 'rot3': 0, 'rot2': 0, 'state': 'normal', 'yaw': 10.62, 'datetime': '2018-10-12 13:31:44.570444', 'mgs': 0, 'depth': 1.767, 'time': 13.55, 'pitch': -9.88, 'roll': -12.96}
{'lipoC2': 7.92, 'temp': 25.06, 'lipoC3S3': 11.97, 'rot1': 0, 'rot0': 0, 'rot3': 0, 'rot2': 0, 'state': 'normal', 'yaw': 10.46, 'datetime': '2018-10-12 13:31:44.667386', 'mgs': 0, 'depth': 1.767, 'time': 13.65, 'pitch': -9.78, 'roll': -12.94}
{'lipoC2': 7.92, 'temp': 25.06, 'lipoC3S3': 11.97, 'rot1': 0, 'rot0': 0, 'rot3': 0, 'rot2': 0, 'state': 'normal', 'yaw': 10.29, 'datetime': '2018-10-12 13:31:44.765746', 'mgs': 0, 'depth': 1.767, 'time': 13.74, 'pitch': -9.69, 'roll': -12.91}
{'lipoC2': 7.92, 'temp': 25.06, 'lipoC3S3': 11.97, 'rot1': 0, 'rot0': 0, 'rot3': 0, 'rot2': 0, 'state': 'normal', 'yaw': 10.06, 'datetime': '2018-10-12 13:31:44.863979', 'mgs': 0, 'depth': 1.843, 'time': 13.84, 'pitch': -9.62, 'roll': -12.93}
{'lipoC2': 7.92, 'temp': 25.06, 'lipoC3S3': 11.98, 'rot1': 0, 'rot0': 0, 'rot3': 0, 'rot2': 0, 'state': 'normal', 'yaw': 9.8, 'datetime': '2018-10-12 13:31:44.962055', 'mgs': 0, 'depth': 1.767, 'time': 13.94, 'pitch': -9.57, 'roll': -13.05}
{'lipoC2': 7.92, 'temp': 25.06, 'lipoC3S3': 11.98, 'rot1': 0, 'rot0': 0, 'rot3': 0, 'rot2': 0, 'state': 'normal', 'yaw': 9.56, 'datetime': '2018-10-12 13:31:45.058124', 'mgs': 0, 'depth': 1.767, 'time': 14.04, 'pitch': -9.53, 'roll': -13.17}
{'lipoC2': 7.92, 'temp': 25.06, 'lipoC3S3': 11.97, 'rot1': 0, 'rot0': 0, 'rot3': 0, 'rot2': 0, 'state': 'normal', 'yaw': 9.39, 'datetime': '2018-10-12 13:31:45.156513', 'mgs': 0, 'depth': 1.767, 'time': 14.14, 'pitch': -9.52, 'roll': -13.24}
{'lipoC2': 7.92, 'temp': 25.06, 'lipoC3S3': 11.97, 'rot1': 0, 'rot0': 0, 'rot3': 0, 'rot2': 0, 'state': 'normal', 'yaw': 9.19, 'datetime': '2018-10-12 13:31:45.254840', 'mgs': 0, 'depth': 1.767, 'time': 14.23, 'pitch': -9.56, 'roll': -13.23}
{'lipoC2': 7.92, 'temp': 25.06, 'lipoC3S3': 11.97, 'rot1': 0, 'rot0': 0, 'rot3': 0, 'rot2': 0, 'state': 'normal', 'yaw': 8.94, 'datetime': '2018-10-12 13:31:45.351942', 'mgs': 0, 'depth': 1.767, 'time': 14.33, 'pitch': -9.62, 'roll': -13.19}
{'lipoC2': 7.92, 'temp': 25.06, 'lipoC3S3': 11.98, 'rot1': 0, 'rot0': 0, 'rot3': 0, 'rot2': 0, 'state': 'normal', 'yaw': 8.75, 'datetime': '2018-10-12 13:31:45.448890', 'mgs': 0, 'depth': 1.767, 'time': 14.43, 'pitch': -9.66, 'roll': -13.16}
{'lipoC2': 7.93, 'temp': 25.06, 'lipoC3S3': 11.97, 'rot1': 0, 'rot0': 0, 'rot3': 0, 'rot2': 0, 'state': 'normal', 'yaw': 8.66, 'datetime': '2018-10-12 13:31:45.547275', 'mgs': 0, 'depth': 1.767, 'time': 14.53, 'pitch': -9.69, 'roll': -13.15}
{'lipoC2': 7.92, 'temp': 25.06, 'lipoC3S3': 11.97, 'rot1': 0, 'rot0': 0, 'rot3': 0, 'rot2': 0, 'state': 'normal', 'yaw': 8.57, 'datetime': '2018-10-12 13:31:45.645582', 'mgs': 0, 'depth': 1.767, 'time': 14.63, 'pitch': -9.7, 'roll': -13.13}
{'lipoC2': 7.92, 'temp': 25.06, 'lipoC3S3': 11.97, 'rot1': 0, 'rot0': 0, 'rot3': 0, 'rot2': 0, 'state': 'normal', 'yaw': 8.43, 'datetime': '2018-10-12 13:31:45.742660', 'mgs': 0, 'depth': 1.767, 'time': 14.72, 'pitch': -9.74, 'roll': -13.11}
{'lipoC2': 7.92, 'temp': 25.06, 'lipoC3S3': 11.97, 'rot1': 0, 'rot0': 0, 'rot3': 0, 'rot2': 0, 'state': 'normal', 'yaw': 8.26, 'datetime': '2018-10-12 13:31:45.839601', 'mgs': 0, 'depth': 1.767, 'time': 14.82, 'pitch': -9.78, 'roll': -13.08}
{'lipoC2': 7.92, 'temp': 25.06, 'lipoC3S3': 11.98, 'rot1': 0, 'rot0': 0, 'rot3': 0, 'rot2': 0, 'state': 'normal', 'yaw': 8.18, 'datetime': '2018-10-12 13:31:45.936717', 'mgs': 0, 'depth': 1.767, 'time': 14.92, 'pitch': -9.76, 'roll': -13.12}
{'lipoC2': 7.92, 'temp': 25.06, 'lipoC3S3': 11.97, 'rot1': 0, 'rot0': 0, 'rot3': 0, 'rot2': 0, 'state': 'normal', 'yaw': 8.15, 'datetime': '2018-10-12 13:31:46.033684', 'mgs': 0, 'depth': 1.767, 'time': 15.01, 'pitch': -9.64, 'roll': -13.26}
{'lipoC2': 7.92, 'temp': 25.06, 'lipoC3S3': 11.97, 'rot1': 0, 'rot0': 0, 'rot3': 0, 'rot2': 0, 'state': 'normal', 'yaw': 8.12, 'datetime': '2018-10-12 13:31:46.130792', 'mgs': 0, 'depth': 1.767, 'time': 15.11, 'pitch': -9.53, 'roll': -13.37}
{'lipoC2': 7.92, 'temp': 25.06, 'lipoC3S3': 11.97, 'rot1': 0, 'rot0': 0, 'rot3': 0, 'rot2': 0, 'state': 'normal', 'yaw': 8.12, 'datetime': '2018-10-12 13:31:46.228906', 'mgs': 0, 'depth': 1.767, 'time': 15.21, 'pitch': -9.5, 'roll': -13.36}
{'lipoC2': 7.92, 'temp': 25.0, 'lipoC3S3': 11.97, 'rot1': 0, 'rot0': 0, 'rot3': 0, 'rot2': 0, 'state': 'normal', 'yaw': 8.14, 'datetime': '2018-10-12 13:31:46.327323', 'mgs': 0, 'depth': 1.767, 'time': 15.31, 'pitch': -9.48, 'roll': -13.19}
{'lipoC2': 7.92, 'temp': 25.0, 'lipoC3S3': 11.97, 'rot1': 0, 'rot0': 0, 'rot3': 0, 'rot2': 0, 'state': 'normal', 'yaw': 8.29, 'datetime': '2018-10-12 13:31:46.425069', 'mgs': 0, 'depth': 1.767, 'time': 15.41, 'pitch': -9.45, 'roll': -12.98}
{'lipoC2': 7.92, 'temp': 25.0, 'lipoC3S3': 11.97, 'rot1': 0, 'rot0': 0, 'rot3': 0, 'rot2': 0, 'state': 'normal', 'yaw': 8.52, 'datetime': '2018-10-12 13:31:46.522224', 'mgs': 0, 'depth': 1.767, 'time': 15.5, 'pitch': -9.49, 'roll': -12.9}
{'lipoC2': 7.92, 'temp': 25.0, 'lipoC3S3': 11.97, 'rot1': 0, 'rot0': 0, 'rot3': 0, 'rot2': 0, 'state': 'normal', 'yaw': 8.74, 'datetime': '2018-10-12 13:31:46.619776', 'mgs': 0, 'depth': 1.767, 'time': 15.6, 'pitch': -9.56, 'roll': -12.94}
{'lipoC2': 7.92, 'temp': 25.0, 'lipoC3S3': 11.97, 'rot1': 0, 'rot0': 0, 'rot3': 0, 'rot2': 0, 'state': 'normal', 'yaw': 9.01, 'datetime': '2018-10-12 13:31:46.718154', 'mgs': 0, 'depth': 1.767, 'time': 15.7, 'pitch': -9.66, 'roll': -13.02}
{'lipoC2': 7.92, 'temp': 25.0, 'lipoC3S3': 11.97, 'rot1': 0, 'rot0': 0, 'rot3': 0, 'rot2': 0, 'state': 'normal', 'yaw': 9.31, 'datetime': '2018-10-12 13:31:46.815183', 'mgs': 0, 'depth': 1.691, 'time': 15.8, 'pitch': -9.79, 'roll': -13.08}
{'lipoC2': 7.92, 'temp': 25.0, 'lipoC3S3': 11.98, 'rot1': 0, 'rot0': 0, 'rot3': 0, 'rot2': 0, 'state': 'normal', 'yaw': 9.6, 'datetime': '2018-10-12 13:31:46.912154', 'mgs': 0, 'depth': 1.691, 'time': 15.89, 'pitch': -9.99, 'roll': -13.18}
{'lipoC2': 7.92, 'temp': 25.0, 'lipoC3S3': 11.97, 'rot1': 0, 'rot0': 0, 'rot3': 0, 'rot2': 0, 'state': 'normal', 'yaw': 9.9, 'datetime': '2018-10-12 13:31:47.010132', 'mgs': 0, 'depth': 1.767, 'time': 15.99, 'pitch': -10.21, 'roll': -13.34}
{'lipoC2': 7.92, 'temp': 25.0, 'lipoC3S3': 11.97, 'rot1': 0, 'rot0': 0, 'rot3': 0, 'rot2': 0, 'state': 'normal', 'yaw': 10.33, 'datetime': '2018-10-12 13:31:47.108435', 'mgs': 0, 'depth': 1.691, 'time': 16.09, 'pitch': -10.47, 'roll': -13.55}
{'lipoC2': 7.92, 'temp': 25.0, 'lipoC3S3': 11.97, 'rot1': 0, 'rot0': 0, 'rot3': 0, 'rot2': 0, 'state': 'normal', 'yaw': 10.84, 'datetime': '2018-10-12 13:31:47.205506', 'mgs': 0, 'depth': 1.691, 'time': 16.19, 'pitch': -10.73, 'roll': -13.7}
{'lipoC2': 7.92, 'temp': 25.0, 'lipoC3S3': 11.97, 'rot1': 0, 'rot0': 0, 'rot3': 0, 'rot2': 0, 'state': 'normal', 'yaw': 11.3, 'datetime': '2018-10-12 13:31:47.302526', 'mgs': 0, 'depth': 1.767, 'time': 16.28, 'pitch': -11.06, 'roll': -13.77}
{'lipoC2': 7.92, 'temp': 25.0, 'lipoC3S3': 11.97, 'rot1': 0, 'rot0': 0, 'rot3': 0, 'rot2': 0, 'state': 'normal', 'yaw': 11.66, 'datetime': '2018-10-12 13:31:47.399575', 'mgs': 0, 'depth': 1.767, 'time': 16.38, 'pitch': -11.39, 'roll': -13.83}
{'lipoC2': 7.92, 'temp': 25.0, 'lipoC3S3': 11.97, 'rot1': 0, 'rot0': 0, 'rot3': 0, 'rot2': 0, 'state': 'normal', 'yaw': 12.07, 'datetime': '2018-10-12 13:31:47.496616', 'mgs': 0, 'depth': 1.767, 'time': 16.48, 'pitch': -11.67, 'roll': -13.98}
{'lipoC2': 7.92, 'temp': 25.0, 'lipoC3S3': 11.98, 'rot1': 0, 'rot0': 0, 'rot3': 0, 'rot2': 0, 'state': 'normal', 'yaw': 12.56, 'datetime': '2018-10-12 13:31:47.593628', 'mgs': 0, 'depth': 1.767, 'time': 16.58, 'pitch': -11.74, 'roll': -14.26}
{'lipoC2': 7.92, 'temp': 25.0, 'lipoC3S3': 11.98, 'rot1': 0, 'rot0': 0, 'rot3': 0, 'rot2': 0, 'state': 'normal', 'yaw': 12.99, 'datetime': '2018-10-12 13:31:47.690875', 'mgs': 0, 'depth': 1.767, 'time': 16.67, 'pitch': -11.67, 'roll': -14.54}
{'lipoC2': 7.93, 'temp': 25.06, 'lipoC3S3': 11.97, 'rot1': 0, 'rot0': 0, 'rot3': 0, 'rot2': 0, 'state': 'normal', 'yaw': 13.33, 'datetime': '2018-10-12 13:31:47.787860', 'mgs': 0, 'depth': 1.767, 'time': 16.77, 'pitch': -11.59, 'roll': -14.81}
{'lipoC2': 7.92, 'temp': 25.06, 'lipoC3S3': 11.97, 'rot1': 0, 'rot0': 0, 'rot3': 0, 'rot2': 0, 'state': 'normal', 'yaw': 13.58, 'datetime': '2018-10-12 13:31:47.884929', 'mgs': 0, 'depth': 1.767, 'time': 16.87, 'pitch': -11.56, 'roll': -15.0}
{'lipoC2': 7.92, 'temp': 25.06, 'lipoC3S3': 11.97, 'rot1': 0, 'rot0': 0, 'rot3': 0, 'rot2': 0, 'state': 'normal', 'yaw': 13.84, 'datetime': '2018-10-12 13:31:47.982510', 'mgs': 0, 'depth': 1.767, 'time': 16.96, 'pitch': -11.49, 'roll': -15.19}
{'lipoC2': 7.92, 'temp': 25.06, 'lipoC3S3': 11.97, 'rot1': 0, 'rot0': 0, 'rot3': 0, 'rot2': 0, 'state': 'normal', 'yaw': 14.12, 'datetime': '2018-10-12 13:31:48.080781', 'mgs': 0, 'depth': 1.767, 'time': 17.06, 'pitch': -11.41, 'roll': -15.44}
{'lipoC2': 7.92, 'temp': 25.06, 'lipoC3S3': 11.97, 'rot1': 0, 'rot0': 0, 'rot3': 0, 'rot2': 0, 'state': 'normal', 'yaw': 14.4, 'datetime': '2018-10-12 13:31:48.178987', 'mgs': 0, 'depth': 1.767, 'time': 17.16, 'pitch': -11.27, 'roll': -15.74}
{'lipoC2': 7.93, 'temp': 25.0, 'lipoC3S3': 11.97, 'rot1': 0, 'rot0': 0, 'rot3': 0, 'rot2': 0, 'state': 'normal', 'yaw': 14.6, 'datetime': '2018-10-12 13:31:48.276046', 'mgs': 0, 'depth': 1.767, 'time': 17.26, 'pitch': -11.12, 'roll': -15.93}
{'lipoC2': 7.92, 'temp': 25.0, 'lipoC3S3': 11.97, 'rot1': 0, 'rot0': 0, 'rot3': 0, 'rot2': 0, 'state': 'normal', 'yaw': 14.7, 'datetime': '2018-10-12 13:31:48.373046', 'mgs': 0, 'depth': 1.767, 'time': 17.35, 'pitch': -10.96, 'roll': -15.98}
{'lipoC2': 7.92, 'temp': 25.0, 'lipoC3S3': 11.97, 'rot1': 0, 'rot0': 0, 'rot3': 0, 'rot2': 0, 'state': 'normal', 'yaw': 14.75, 'datetime': '2018-10-12 13:31:48.471420', 'mgs': 0, 'depth': 1.767, 'time': 17.45, 'pitch': -10.79, 'roll': -16.03}
{'lipoC2': 7.92, 'temp': 25.0, 'lipoC3S3': 11.97, 'rot1': 0, 'rot0': 0, 'rot3': 0, 'rot2': 0, 'state': 'normal', 'yaw': 14.8, 'datetime': '2018-10-12 13:31:48.569739', 'mgs': 0, 'depth': 1.691, 'time': 17.55, 'pitch': -10.62, 'roll': -16.15}
{'lipoC2': 7.92, 'temp': 25.0, 'lipoC3S3': 11.97, 'rot1': 0, 'rot0': 0, 'rot3': 0, 'rot2': 0, 'state': 'normal', 'yaw': 14.88, 'datetime': '2018-10-12 13:31:48.666760', 'mgs': 0, 'depth': 1.767, 'time': 17.65, 'pitch': -10.52, 'roll': -16.15}
{'lipoC2': 7.92, 'temp': 25.06, 'lipoC3S3': 11.97, 'rot1': 0, 'rot0': 0, 'rot3': 0, 'rot2': 0, 'state': 'normal', 'yaw': 14.95, 'datetime': '2018-10-12 13:31:48.763788', 'mgs': 0, 'depth': 1.691, 'time': 17.75, 'pitch': -10.5, 'roll': -15.94}
{'lipoC2': 7.92, 'temp': 25.06, 'lipoC3S3': 11.97, 'rot1': 0, 'rot0': 0, 'rot3': 0, 'rot2': 0, 'state': 'normal', 'yaw': 15.09, 'datetime': '2018-10-12 13:31:48.862127', 'mgs': 0, 'depth': 1.767, 'time': 17.84, 'pitch': -10.51, 'roll': -15.77}
{'lipoC2': 7.92, 'temp': 25.0, 'lipoC3S3': 11.97, 'rot1': 0, 'rot0': 0, 'rot3': 0, 'rot2': 0, 'state': 'normal', 'yaw': 15.14, 'datetime': '2018-10-12 13:31:48.959905', 'mgs': 0, 'depth': 1.767, 'time': 17.94, 'pitch': -10.66, 'roll': -15.82}
{'lipoC2': 7.92, 'temp': 25.0, 'lipoC3S3': 11.98, 'rot1': 0, 'rot0': 0, 'rot3': 0, 'rot2': 0, 'state': 'normal', 'yaw': 15.17, 'datetime': '2018-10-12 13:31:49.056964', 'mgs': 0, 'depth': 1.767, 'time': 18.04, 'pitch': -10.91, 'roll': -16.08}
{'lipoC2': 7.92, 'temp': 25.0, 'lipoC3S3': 11.98, 'rot1': 0, 'rot0': 0, 'rot3': 0, 'rot2': 0, 'state': 'normal', 'yaw': 15.24, 'datetime': '2018-10-12 13:31:49.154223', 'mgs': 0, 'depth': 1.767, 'time': 18.14, 'pitch': -11.18, 'roll': -16.46}
{'lipoC2': 7.92, 'temp': 25.06, 'lipoC3S3': 11.97, 'rot1': 0, 'rot0': 0, 'rot3': 0, 'rot2': 0, 'state': 'normal', 'yaw': 15.35, 'datetime': '2018-10-12 13:31:49.251314', 'mgs': 0, 'depth': 1.767, 'time': 18.23, 'pitch': -11.49, 'roll': -16.87}
{'lipoC2': 7.92, 'temp': 25.06, 'lipoC3S3': 11.98, 'rot1': 0, 'rot0': 0, 'rot3': 0, 'rot2': 0, 'state': 'normal', 'yaw': 15.57, 'datetime': '2018-10-12 13:31:49.348314', 'mgs': 0, 'depth': 1.767, 'time': 18.33, 'pitch': -11.72, 'roll': -17.14}
{'lipoC2': 7.92, 'temp': 25.0, 'lipoC3S3': 11.97, 'rot1': 0, 'rot0': 0, 'rot3': 0, 'rot2': 0, 'state': 'normal', 'yaw': 15.88, 'datetime': '2018-10-12 13:31:49.445308', 'mgs': 0, 'depth': 1.843, 'time': 18.43, 'pitch': -11.86, 'roll': -17.21}
{'lipoC2': 7.92, 'temp': 25.0, 'lipoC3S3': 11.97, 'rot1': 0, 'rot0': 0, 'rot3': 0, 'rot2': 0, 'state': 'normal', 'yaw': 16.16, 'datetime': '2018-10-12 13:31:49.542416', 'mgs': 0, 'depth': 1.843, 'time': 18.53, 'pitch': -11.96, 'roll': -17.28}
{'lipoC2': 7.92, 'temp': 25.0, 'lipoC3S3': 11.98, 'rot1': 0, 'rot0': 0, 'rot3': 0, 'rot2': 0, 'state': 'normal', 'yaw': 16.27, 'datetime': '2018-10-12 13:31:49.639408', 'mgs': 0, 'depth': 1.767, 'time': 18.62, 'pitch': -12.12, 'roll': -17.59}
{'lipoC2': 7.92, 'temp': 25.06, 'lipoC3S3': 11.97, 'rot1': 0, 'rot0': 0, 'rot3': 0, 'rot2': 0, 'state': 'normal', 'yaw': 16.35, 'datetime': '2018-10-12 13:31:49.736410', 'mgs': 0, 'depth': 1.767, 'time': 18.72, 'pitch': -12.12, 'roll': -18.06}
{'lipoC2': 7.92, 'temp': 25.06, 'lipoC3S3': 11.97, 'rot1': 0, 'rot0': 0, 'rot3': 0, 'rot2': 0, 'state': 'normal', 'yaw': 16.53, 'datetime': '2018-10-12 13:31:49.834857', 'mgs': 0, 'depth': 1.767, 'time': 18.82, 'pitch': -11.87, 'roll': -18.42}
{'lipoC2': 7.92, 'temp': 25.06, 'lipoC3S3': 11.97, 'rot1': 0, 'rot0': 0, 'rot3': 0, 'rot2': 0, 'state': 'normal', 'yaw': 16.77, 'datetime': '2018-10-12 13:31:49.933225', 'mgs': 0, 'depth': 1.843, 'time': 18.92, 'pitch': -11.45, 'roll': -18.61}
{'lipoC2': 7.92, 'temp': 25.06, 'lipoC3S3': 11.97, 'rot1': 0, 'rot0': 0, 'rot3': 0, 'rot2': 0, 'state': 'normal', 'yaw': 16.9, 'datetime': '2018-10-12 13:31:50.030841', 'mgs': 0, 'depth': 1.843, 'time': 19.01, 'pitch': -11.09, 'roll': -18.65}
{'lipoC2': 7.92, 'temp': 25.06, 'lipoC3S3': 11.97, 'rot1': 0, 'rot0': 0, 'rot3': 0, 'rot2': 0, 'state': 'normal', 'yaw': 16.92, 'datetime': '2018-10-12 13:31:50.127796', 'mgs': 0, 'depth': 1.767, 'time': 19.11, 'pitch': -10.87, 'roll': -18.74}
{'lipoC2': 7.92, 'temp': 25.06, 'lipoC3S3': 11.97, 'rot1': 0, 'rot0': 0, 'rot3': 0, 'rot2': 0, 'state': 'normal', 'yaw': 16.88, 'datetime': '2018-10-12 13:31:50.225614', 'mgs': 0, 'depth': 1.767, 'time': 19.21, 'pitch': -10.75, 'roll': -18.79}
{'lipoC2': 7.92, 'temp': 25.06, 'lipoC3S3': 11.97, 'rot1': 0, 'rot0': 0, 'rot3': 0, 'rot2': 0, 'state': 'normal', 'yaw': 16.92, 'datetime': '2018-10-12 13:31:50.323961', 'mgs': 0, 'depth': 1.767, 'time': 19.31, 'pitch': -10.59, 'roll': -18.8}
{'lipoC2': 7.92, 'temp': 25.06, 'lipoC3S3': 11.97, 'rot1': 0, 'rot0': 0, 'rot3': 0, 'rot2': 0, 'state': 'normal', 'yaw': 17.0, 'datetime': '2018-10-12 13:31:50.421359', 'mgs': 0, 'depth': 1.767, 'time': 19.41, 'pitch': -10.45, 'roll': -18.82}
{'lipoC2': 7.92, 'temp': 25.06, 'lipoC3S3': 11.97, 'rot1': 0, 'rot0': 0, 'rot3': 0, 'rot2': 0, 'state': 'normal', 'yaw': 17.11, 'datetime': '2018-10-12 13:31:50.518376', 'mgs': 0, 'depth': 1.767, 'time': 19.5, 'pitch': -10.41, 'roll': -18.83}
{'lipoC2': 7.93, 'temp': 25.06, 'lipoC3S3': 11.97, 'rot1': 0, 'rot0': 0, 'rot3': 0, 'rot2': 0, 'state': 'normal', 'yaw': 17.23, 'datetime': '2018-10-12 13:31:50.616310', 'mgs': 0, 'depth': 1.767, 'time': 19.6, 'pitch': -10.47, 'roll': -18.84}
{'lipoC2': 7.92, 'temp': 25.06, 'lipoC3S3': 11.97, 'rot1': 0, 'rot0': 0, 'rot3': 0, 'rot2': 0, 'state': 'normal', 'yaw': 17.47, 'datetime': '2018-10-12 13:31:50.714671', 'mgs': 0, 'depth': 1.767, 'time': 19.7, 'pitch': -10.54, 'roll': -18.89}
{'lipoC2': 7.92, 'temp': 25.06, 'lipoC3S3': 11.97, 'rot1': 0, 'rot0': 0, 'rot3': 0, 'rot2': 0, 'state': 'normal', 'yaw': 17.81, 'datetime': '2018-10-12 13:31:50.811673', 'mgs': 0, 'depth': 1.767, 'time': 19.8, 'pitch': -10.66, 'roll': -18.96}
{'lipoC2': 7.92, 'temp': 25.06, 'lipoC3S3': 11.97, 'rot1': 0, 'rot0': 0, 'rot3': 0, 'rot2': 0, 'state': 'normal', 'yaw': 18.16, 'datetime': '2018-10-12 13:31:50.908735', 'mgs': 0, 'depth': 1.767, 'time': 19.89, 'pitch': -10.88, 'roll': -18.96}
{'lipoC2': 7.92, 'temp': 25.06, 'lipoC3S3': 11.97, 'rot1': 0, 'rot0': 0, 'rot3': 0, 'rot2': 0, 'state': 'normal', 'yaw': 18.44, 'datetime': '2018-10-12 13:31:51.005834', 'mgs': 0, 'depth': 1.767, 'time': 19.99, 'pitch': -11.21, 'roll': -18.88}
{'lipoC2': 7.92, 'temp': 25.06, 'lipoC3S3': 11.97, 'rot1': 0, 'rot0': 0, 'rot3': 0, 'rot2': 0, 'state': 'normal', 'yaw': 18.72, 'datetime': '2018-10-12 13:31:51.102894', 'mgs': 0, 'depth': 1.767, 'time': 20.09, 'pitch': -11.65, 'roll': -18.79}
{'lipoC2': 7.92, 'temp': 25.0, 'lipoC3S3': 11.98, 'rot1': 0, 'rot0': 0, 'rot3': 0, 'rot2': 0, 'state': 'normal', 'yaw': 19.02, 'datetime': '2018-10-12 13:31:51.199843', 'mgs': 0, 'depth': 1.691, 'time': 20.18, 'pitch': -12.04, 'roll': -18.77}
{'lipoC2': 7.92, 'temp': 25.0, 'lipoC3S3': 11.97, 'rot1': 0, 'rot0': 0, 'rot3': 0, 'rot2': 0, 'state': 'normal', 'yaw': 19.31, 'datetime': '2018-10-12 13:31:51.297074', 'mgs': 0, 'depth': 1.691, 'time': 20.28, 'pitch': -12.32, 'roll': -18.83}
{'lipoC2': 7.92, 'temp': 25.0, 'lipoC3S3': 11.97, 'rot1': 0, 'rot0': 0, 'rot3': 0, 'rot2': 0, 'state': 'normal', 'yaw': 19.58, 'datetime': '2018-10-12 13:31:51.394137', 'mgs': 0, 'depth': 1.767, 'time': 20.38, 'pitch': -12.53, 'roll': -18.9}
{'lipoC2': 7.92, 'temp': 25.0, 'lipoC3S3': 11.98, 'rot1': 0, 'rot0': 0, 'rot3': 0, 'rot2': 0, 'state': 'normal', 'yaw': 19.81, 'datetime': '2018-10-12 13:31:51.491200', 'mgs': 0, 'depth': 1.767, 'time': 20.48, 'pitch': -12.59, 'roll': -18.95}
{'lipoC2': 7.92, 'temp': 25.0, 'lipoC3S3': 11.97, 'rot1': 0, 'rot0': 0, 'rot3': 0, 'rot2': 0, 'state': 'normal', 'yaw': 20.03, 'datetime': '2018-10-12 13:31:51.588638', 'mgs': 0, 'depth': 1.691, 'time': 20.57, 'pitch': -12.49, 'roll': -18.9}
{'lipoC2': 7.92, 'temp': 25.0, 'lipoC3S3': 11.98, 'rot1': 0, 'rot0': 0, 'rot3': 0, 'rot2': 0, 'state': 'normal', 'yaw': 20.21, 'datetime': '2018-10-12 13:31:51.686954', 'mgs': 0, 'depth': 1.691, 'time': 20.67, 'pitch': -12.3, 'roll': -18.95}
{'lipoC2': 7.92, 'temp': 25.0, 'lipoC3S3': 11.98, 'rot1': 0, 'rot0': 0, 'rot3': 0, 'rot2': 0, 'state': 'normal', 'yaw': 20.36, 'datetime': '2018-10-12 13:31:51.785313', 'mgs': 0, 'depth': 1.614, 'time': 20.77, 'pitch': -12.08, 'roll': -19.09}
{'lipoC2': 7.92, 'temp': 25.0, 'lipoC3S3': 11.97, 'rot1': 0, 'rot0': 0, 'rot3': 0, 'rot2': 0, 'state': 'normal', 'yaw': 20.47, 'datetime': '2018-10-12 13:31:51.882362', 'mgs': 0, 'depth': 1.614, 'time': 20.87, 'pitch': -11.98, 'roll': -19.13}
{'lipoC2': 7.92, 'temp': 25.0, 'lipoC3S3': 11.98, 'rot1': 0, 'rot0': 0, 'rot3': 0, 'rot2': 0, 'state': 'normal', 'yaw': 20.53, 'datetime': '2018-10-12 13:31:51.979394', 'mgs': 0, 'depth': 1.614, 'time': 20.97, 'pitch': -12.02, 'roll': -19.15}
{'lipoC2': 7.92, 'temp': 25.0, 'lipoC3S3': 11.97, 'rot1': 0, 'rot0': 0, 'rot3': 0, 'rot2': 0, 'state': 'normal', 'yaw': 20.59, 'datetime': '2018-10-12 13:31:52.077697', 'mgs': 0, 'depth': 1.691, 'time': 21.06, 'pitch': -12.17, 'roll': -19.31}
{'lipoC2': 7.92, 'temp': 25.0, 'lipoC3S3': 11.97, 'rot1': 0, 'rot0': 0, 'rot3': 0, 'rot2': 0, 'state': 'normal', 'yaw': 20.65, 'datetime': '2018-10-12 13:31:52.176027', 'mgs': 0, 'depth': 1.691, 'time': 21.16, 'pitch': -12.34, 'roll': -19.6}
{'lipoC2': 7.92, 'temp': 25.0, 'lipoC3S3': 11.97, 'rot1': 0, 'rot0': 0, 'rot3': 0, 'rot2': 0, 'state': 'normal', 'yaw': 20.7, 'datetime': '2018-10-12 13:31:52.273105', 'mgs': 0, 'depth': 1.614, 'time': 21.26, 'pitch': -12.38, 'roll': -19.84}
{'lipoC2': 7.92, 'temp': 25.0, 'lipoC3S3': 11.97, 'rot1': 0, 'rot0': 0, 'rot3': 0, 'rot2': 0, 'state': 'normal', 'yaw': 20.81, 'datetime': '2018-10-12 13:31:52.370102', 'mgs': 0, 'depth': 1.614, 'time': 21.36, 'pitch': -12.24, 'roll': -19.71}
{'lipoC2': 7.92, 'temp': 25.0, 'lipoC3S3': 11.98, 'rot1': 0, 'rot0': 0, 'rot3': 0, 'rot2': 0, 'state': 'normal', 'yaw': 20.85, 'datetime': '2018-10-12 13:31:52.468385', 'mgs': 0, 'depth': 1.614, 'time': 21.45, 'pitch': -12.02, 'roll': -19.34}
{'lipoC2': 7.92, 'temp': 25.0, 'lipoC3S3': 11.98, 'rot1': 0, 'rot0': 0, 'rot3': 0, 'rot2': 0, 'state': 'normal', 'yaw': 20.73, 'datetime': '2018-10-12 13:31:52.566113', 'mgs': 0, 'depth': 1.614, 'time': 21.55, 'pitch': -11.81, 'roll': -18.96}
{'lipoC2': 7.92, 'temp': 25.0, 'lipoC3S3': 11.98, 'rot1': 0, 'rot0': 0, 'rot3': 0, 'rot2': 0, 'state': 'normal', 'yaw': 20.49, 'datetime': '2018-10-12 13:31:52.663098', 'mgs': 0, 'depth': 1.614, 'time': 21.65, 'pitch': -11.66, 'roll': -19.06}
{'lipoC2': 7.92, 'temp': 25.0, 'lipoC3S3': 11.97, 'rot1': 0, 'rot0': 0, 'rot3': 0, 'rot2': 0, 'state': 'normal', 'yaw': 20.39, 'datetime': '2018-10-12 13:31:52.760192', 'mgs': 0, 'depth': 1.691, 'time': 21.75, 'pitch': -11.44, 'roll': -19.56}
{'lipoC2': 7.92, 'temp': 25.06, 'lipoC3S3': 11.97, 'rot1': 0, 'rot0': 0, 'rot3': 0, 'rot2': 0, 'state': 'normal', 'yaw': 20.37, 'datetime': '2018-10-12 13:31:52.857232', 'mgs': 0, 'depth': 1.614, 'time': 21.84, 'pitch': -11.22, 'roll': -20.08}
{'lipoC2': 7.92, 'temp': 25.06, 'lipoC3S3': 11.97, 'rot1': 0, 'rot0': 0, 'rot3': 0, 'rot2': 0, 'state': 'normal', 'yaw': 20.44, 'datetime': '2018-10-12 13:31:52.954229', 'mgs': 0, 'depth': 1.691, 'time': 21.94, 'pitch': -11.05, 'roll': -20.27}
{'lipoC2': 7.92, 'temp': 25.06, 'lipoC3S3': 11.97, 'rot1': 0, 'rot0': 0, 'rot3': 0, 'rot2': 0, 'state': 'normal', 'yaw': 20.47, 'datetime': '2018-10-12 13:31:53.051586', 'mgs': 0, 'depth': 1.691, 'time': 22.04, 'pitch': -10.94, 'roll': -20.14}
{'lipoC2': 7.92, 'temp': 25.0, 'lipoC3S3': 11.97, 'rot1': 0, 'rot0': 0, 'rot3': 0, 'rot2': 0, 'state': 'normal', 'yaw': 20.44, 'datetime': '2018-10-12 13:31:53.149628', 'mgs': 0, 'depth': 1.767, 'time': 22.14, 'pitch': -10.85, 'roll': -20.03}
{'lipoC2': 7.92, 'temp': 25.0, 'lipoC3S3': 11.97, 'rot1': 0, 'rot0': 0, 'rot3': 0, 'rot2': 0, 'state': 'normal', 'yaw': 20.41, 'datetime': '2018-10-12 13:31:53.246606', 'mgs': 0, 'depth': 1.614, 'time': 22.23, 'pitch': -10.73, 'roll': -20.11}
{'lipoC2': 7.92, 'temp': 25.0, 'lipoC3S3': 11.98, 'rot1': 0, 'rot0': 0, 'rot3': 0, 'rot2': 0, 'state': 'normal', 'yaw': 20.55, 'datetime': '2018-10-12 13:31:53.343658', 'mgs': 0, 'depth': 1.691, 'time': 22.33, 'pitch': -10.48, 'roll': -20.44}
{'lipoC2': 7.92, 'temp': 25.0, 'lipoC3S3': 11.97, 'rot1': 0, 'rot0': 0, 'rot3': 0, 'rot2': 0, 'state': 'normal', 'yaw': 20.79, 'datetime': '2018-10-12 13:31:53.441255', 'mgs': 0, 'depth': 1.691, 'time': 22.43, 'pitch': -10.21, 'roll': -20.85}
{'lipoC2': 7.92, 'temp': 25.0, 'lipoC3S3': 11.97, 'rot1': 0, 'rot0': 0, 'rot3': 0, 'rot2': 0, 'state': 'normal', 'yaw': 21.03, 'datetime': '2018-10-12 13:31:53.539574', 'mgs': 0, 'depth': 1.767, 'time': 22.53, 'pitch': -10.1, 'roll': -21.23}
{'lipoC2': 7.92, 'temp': 25.0, 'lipoC3S3': 11.97, 'rot1': 0, 'rot0': 0, 'rot3': 0, 'rot2': 0, 'state': 'normal', 'yaw': 21.18, 'datetime': '2018-10-12 13:31:53.637935', 'mgs': 0, 'depth': 1.691, 'time': 22.63, 'pitch': -10.38, 'roll': -21.38}
{'lipoC2': 7.92, 'temp': 25.0, 'lipoC3S3': 11.97, 'rot1': 0, 'rot0': 0, 'rot3': 0, 'rot2': 0, 'state': 'normal', 'yaw': 21.43, 'datetime': '2018-10-12 13:31:53.734953', 'mgs': 0, 'depth': 1.767, 'time': 22.72, 'pitch': -10.81, 'roll': -21.35}
{'lipoC2': 7.92, 'temp': 25.0, 'lipoC3S3': 11.97, 'rot1': 0, 'rot0': 0, 'rot3': 0, 'rot2': 0, 'state': 'normal', 'yaw': 21.8, 'datetime': '2018-10-12 13:31:53.832031', 'mgs': 0, 'depth': 1.691, 'time': 22.82, 'pitch': -11.28, 'roll': -21.5}
{'lipoC2': 7.92, 'temp': 25.0, 'lipoC3S3': 11.97, 'rot1': 0, 'rot0': 0, 'rot3': 0, 'rot2': 0, 'state': 'normal', 'yaw': 22.23, 'datetime': '2018-10-12 13:31:53.930424', 'mgs': 0, 'depth': 1.691, 'time': 22.92, 'pitch': -11.64, 'roll': -21.86}
{'lipoC2': 7.92, 'temp': 25.0, 'lipoC3S3': 11.97, 'rot1': 0, 'rot0': 0, 'rot3': 0, 'rot2': 0, 'state': 'normal', 'yaw': 22.72, 'datetime': '2018-10-12 13:31:54.028011', 'mgs': 0, 'depth': 1.691, 'time': 23.02, 'pitch': -12.02, 'roll': -22.25}
{'lipoC2': 7.92, 'temp': 25.06, 'lipoC3S3': 11.98, 'rot1': 0, 'rot0': 0, 'rot3': 0, 'rot2': 0, 'state': 'normal', 'yaw': 23.12, 'datetime': '2018-10-12 13:31:54.125000', 'mgs': 0, 'depth': 1.767, 'time': 23.11, 'pitch': -12.45, 'roll': -22.42}
{'lipoC2': 7.92, 'temp': 25.06, 'lipoC3S3': 11.97, 'rot1': 0, 'rot0': 0, 'rot3': 0, 'rot2': 0, 'state': 'normal', 'yaw': 23.43, 'datetime': '2018-10-12 13:31:54.222355', 'mgs': 0, 'depth': 1.767, 'time': 23.21, 'pitch': -12.78, 'roll': -22.43}
{'lipoC2': 7.92, 'temp': 25.0, 'lipoC3S3': 11.98, 'rot1': 0, 'rot0': 0, 'rot3': 0, 'rot2': 0, 'state': 'normal', 'yaw': 23.69, 'datetime': '2018-10-12 13:31:54.320729', 'mgs': 0, 'depth': 1.691, 'time': 23.31, 'pitch': -13.1, 'roll': -22.46}
{'lipoC2': 7.92, 'temp': 25.0, 'lipoC3S3': 11.97, 'rot1': 0, 'rot0': 0, 'rot3': 0, 'rot2': 0, 'state': 'normal', 'yaw': 23.88, 'datetime': '2018-10-12 13:31:54.418343', 'mgs': 0, 'depth': 1.767, 'time': 23.41, 'pitch': -13.37, 'roll': -22.63}
{'lipoC2': 7.92, 'temp': 25.0, 'lipoC3S3': 11.97, 'rot1': 0, 'rot0': 0, 'rot3': 0, 'rot2': 0, 'state': 'normal', 'yaw': 23.99, 'datetime': '2018-10-12 13:31:54.515384', 'mgs': 0, 'depth': 1.843, 'time': 23.5, 'pitch': -13.61, 'roll': -22.81}
{'lipoC2': 7.92, 'temp': 25.0, 'lipoC3S3': 11.97, 'rot1': 0, 'rot0': 0, 'rot3': 0, 'rot2': 0, 'state': 'normal', 'yaw': 23.96, 'datetime': '2018-10-12 13:31:54.612638', 'mgs': 0, 'depth': 1.767, 'time': 23.6, 'pitch': -13.85, 'roll': -22.83}
{'lipoC2': 7.92, 'temp': 25.0, 'lipoC3S3': 11.98, 'rot1': 0, 'rot0': 0, 'rot3': 0, 'rot2': 0, 'state': 'normal', 'yaw': 23.77, 'datetime': '2018-10-12 13:31:54.709772', 'mgs': 0, 'depth': 1.843, 'time': 23.7, 'pitch': -14.1, 'roll': -22.68}
{'lipoC2': 7.92, 'temp': 25.0, 'lipoC3S3': 11.97, 'rot1': 0, 'rot0': 0, 'rot3': 0, 'rot2': 0, 'state': 'normal', 'yaw': 23.47, 'datetime': '2018-10-12 13:31:54.806930', 'mgs': 0, 'depth': 1.767, 'time': 23.8, 'pitch': -14.19, 'roll': -22.56}
{'lipoC2': 7.92, 'temp': 25.0, 'lipoC3S3': 11.97, 'rot1': 0, 'rot0': 0, 'rot3': 0, 'rot2': 0, 'state': 'normal', 'yaw': 23.13, 'datetime': '2018-10-12 13:31:54.903904', 'mgs': 0, 'depth': 1.843, 'time': 23.89, 'pitch': -14.06, 'roll': -22.48}
{'lipoC2': 7.92, 'temp': 25.0, 'lipoC3S3': 11.97, 'rot1': 0, 'rot0': 0, 'rot3': 0, 'rot2': 0, 'state': 'normal', 'yaw': 22.77, 'datetime': '2018-10-12 13:31:55.001063', 'mgs': 0, 'depth': 1.767, 'time': 23.99, 'pitch': -13.85, 'roll': -22.39}
{'lipoC2': 7.92, 'temp': 24.94, 'lipoC3S3': 11.97, 'rot1': 0, 'rot0': 0, 'rot3': 0, 'rot2': 0, 'state': 'normal', 'yaw': 22.27, 'datetime': '2018-10-12 13:31:55.097993', 'mgs': 0, 'depth': 1.767, 'time': 24.09, 'pitch': -13.68, 'roll': -22.28}
{'lipoC2': 7.92, 'temp': 24.94, 'lipoC3S3': 11.98, 'rot1': 0, 'rot0': 0, 'rot3': 0, 'rot2': 0, 'state': 'normal', 'yaw': 21.73, 'datetime': '2018-10-12 13:31:55.195056', 'mgs': 0, 'depth': 1.767, 'time': 24.18, 'pitch': -13.54, 'roll': -22.13}
{'lipoC2': 7.92, 'temp': 24.94, 'lipoC3S3': 11.97, 'rot1': 0, 'rot0': 0, 'rot3': 0, 'rot2': 0, 'state': 'normal', 'yaw': 21.27, 'datetime': '2018-10-12 13:31:55.293624', 'mgs': 0, 'depth': 1.767, 'time': 24.28, 'pitch': -13.36, 'roll': -21.95}
{'lipoC2': 7.92, 'temp': 24.94, 'lipoC3S3': 11.97, 'rot1': 0, 'rot0': 0, 'rot3': 0, 'rot2': 0, 'state': 'normal', 'yaw': 20.81, 'datetime': '2018-10-12 13:31:55.391909', 'mgs': 0, 'depth': 1.767, 'time': 24.38, 'pitch': -13.07, 'roll': -21.78}
{'lipoC2': 7.92, 'temp': 25.0, 'lipoC3S3': 11.97, 'rot1': 0, 'rot0': 0, 'rot3': 0, 'rot2': 0, 'state': 'normal', 'yaw': 20.39, 'datetime': '2018-10-12 13:31:55.489121', 'mgs': 0, 'depth': 1.691, 'time': 24.48, 'pitch': -12.74, 'roll': -21.68}
{'lipoC2': 7.92, 'temp': 25.0, 'lipoC3S3': 11.97, 'rot1': 0, 'rot0': 0, 'rot3': 0, 'rot2': 0, 'state': 'normal', 'yaw': 20.01, 'datetime': '2018-10-12 13:31:55.586105', 'mgs': 0, 'depth': 1.691, 'time': 24.58, 'pitch': -12.48, 'roll': -21.6}
{'lipoC2': 7.92, 'temp': 25.0, 'lipoC3S3': 11.97, 'rot1': 0, 'rot0': 0, 'rot3': 0, 'rot2': 0, 'state': 'normal', 'yaw': 19.71, 'datetime': '2018-10-12 13:31:55.684321', 'mgs': 0, 'depth': 1.691, 'time': 24.67, 'pitch': -12.36, 'roll': -21.54}
{'lipoC2': 7.92, 'temp': 25.0, 'lipoC3S3': 11.97, 'rot1': 0, 'rot0': 0, 'rot3': 0, 'rot2': 0, 'state': 'normal', 'yaw': 19.52, 'datetime': '2018-10-12 13:31:55.782648', 'mgs': 0, 'depth': 1.691, 'time': 24.77, 'pitch': -12.28, 'roll': -21.55}
{'lipoC2': 7.92, 'temp': 25.0, 'lipoC3S3': 11.97, 'rot1': 0, 'rot0': 0, 'rot3': 0, 'rot2': 0, 'state': 'normal', 'yaw': 19.49, 'datetime': '2018-10-12 13:31:55.880920', 'mgs': 0, 'depth': 1.691, 'time': 24.87, 'pitch': -12.23, 'roll': -21.73}
{'lipoC2': 7.92, 'temp': 25.0, 'lipoC3S3': 11.97, 'rot1': 0, 'rot0': 0, 'rot3': 0, 'rot2': 0, 'state': 'normal', 'yaw': 19.51, 'datetime': '2018-10-12 13:31:55.977445', 'mgs': 0, 'depth': 1.691, 'time': 24.97, 'pitch': -12.29, 'roll': -21.93}
{'lipoC2': 7.92, 'temp': 25.0, 'lipoC3S3': 11.97, 'rot1': 0, 'rot0': 0, 'rot3': 0, 'rot2': 0, 'state': 'normal', 'yaw': 19.6, 'datetime': '2018-10-12 13:31:56.075351', 'mgs': 0, 'depth': 1.767, 'time': 25.07, 'pitch': -12.5, 'roll': -21.98}
{'lipoC2': 7.92, 'temp': 25.0, 'lipoC3S3': 11.98, 'rot1': 0, 'rot0': 0, 'rot3': 0, 'rot2': 0, 'state': 'normal', 'yaw': 19.72, 'datetime': '2018-10-12 13:31:56.173696', 'mgs': 0, 'depth': 1.767, 'time': 25.16, 'pitch': -12.8, 'roll': -21.92}
{'lipoC2': 7.92, 'temp': 25.0, 'lipoC3S3': 11.97, 'rot1': 0, 'rot0': 0, 'rot3': 0, 'rot2': 0, 'state': 'normal', 'yaw': 19.84, 'datetime': '2018-10-12 13:31:56.270764', 'mgs': 0, 'depth': 1.691, 'time': 25.26, 'pitch': -13.05, 'roll': -21.89}
{'lipoC2': 7.92, 'temp': 25.0, 'lipoC3S3': 11.97, 'rot1': 0, 'rot0': 0, 'rot3': 0, 'rot2': 0, 'state': 'normal', 'yaw': 20.08, 'datetime': '2018-10-12 13:31:56.367743', 'mgs': 0, 'depth': 1.691, 'time': 25.36, 'pitch': -13.19, 'roll': -21.95}
