{'lipoC2': 7.56, 'temp': 27.44, 'lipoC3S3': 11.75, 'rot1': 0, 'rot0': 0, 'rot3': 0, 'rot2': 0, 'state': 'normal', 'yaw': 0.0, 'datetime': '2018-10-12 18:23:41.362482', 'mgs': 0, 'depth': -0.522, 'time': 1.26, 'pitch': -4.8, 'roll': -9.03}
{'lipoC2': 7.56, 'temp': 27.44, 'lipoC3S3': 11.75, 'rot1': 0, 'rot0': 0, 'rot3': 0, 'rot2': 0, 'state': 'normal', 'yaw': 0.25, 'datetime': '2018-10-12 18:23:41.379191', 'mgs': 0, 'depth': -0.522, 'time': 1.36, 'pitch': -4.87, 'roll': -9.3}
{'lipoC2': 7.56, 'temp': 27.44, 'lipoC3S3': 11.75, 'rot1': 0, 'rot0': 0, 'rot3': 0, 'rot2': 0, 'state': 'normal', 'yaw': 0.55, 'datetime': '2018-10-12 18:23:41.395910', 'mgs': 0, 'depth': -0.598, 'time': 1.46, 'pitch': -4.34, 'roll': -8.69}
{'lipoC2': 7.56, 'temp': 27.38, 'lipoC3S3': 11.75, 'rot1': 0, 'rot0': 0, 'rot3': 0, 'rot2': 0, 'state': 'normal', 'yaw': 1.11, 'datetime': '2018-10-12 18:23:41.412626', 'mgs': 0, 'depth': -0.522, 'time': 1.55, 'pitch': -3.5, 'roll': -7.58}
{'lipoC2': 7.56, 'temp': 27.38, 'lipoC3S3': 11.75, 'rot1': 0, 'rot0': 0, 'rot3': 0, 'rot2': 0, 'state': 'normal', 'yaw': 1.84, 'datetime': '2018-10-12 18:23:41.429370', 'mgs': 0, 'depth': -0.598, 'time': 1.65, 'pitch': -2.7, 'roll': -6.56}
{'lipoC2': 7.56, 'temp': 27.44, 'lipoC3S3': 11.76, 'rot1': 0, 'rot0': 0, 'rot3': 0, 'rot2': 0, 'state': 'normal', 'yaw': 2.89, 'datetime': '2018-10-12 18:23:41.446103', 'mgs': 0, 'depth': -0.598, 'time': 1.75, 'pitch': -2.32, 'roll': -5.26}
{'lipoC2': 7.56, 'temp': 27.44, 'lipoC3S3': 11.75, 'rot1': 0, 'rot0': 0, 'rot3': 0, 'rot2': 0, 'state': 'normal', 'yaw': 4.24, 'datetime': '2018-10-12 18:23:41.454703', 'mgs': 0, 'depth': -0.598, 'time': 1.85, 'pitch': -2.46, 'roll': -4.12}
{'lipoC2': 7.55, 'temp': 27.38, 'lipoC3S3': 11.75, 'rot1': 0, 'rot0': 0, 'rot3': 0, 'rot2': 0, 'state': 'normal', 'yaw': 5.62, 'datetime': '2018-10-12 18:23:41.461993', 'mgs': 0, 'depth': -0.598, 'time': 1.94, 'pitch': -2.51, 'roll': -3.52}
{'lipoC2': 7.55, 'temp': 27.38, 'lipoC3S3': 11.76, 'rot1': 0, 'rot0': 0, 'rot3': 0, 'rot2': 0, 'state': 'normal', 'yaw': 7.15, 'datetime': '2018-10-12 18:23:41.533107', 'mgs': 0, 'depth': -0.522, 'time': 2.04, 'pitch': -2.31, 'roll': -3.21}
{'lipoC2': 7.55, 'temp': 27.38, 'lipoC3S3': 11.75, 'rot1': 0, 'rot0': 0, 'rot3': 0, 'rot2': 0, 'state': 'normal', 'yaw': 8.65, 'datetime': '2018-10-12 18:23:41.630217', 'mgs': 0, 'depth': -0.522, 'time': 2.14, 'pitch': -1.95, 'roll': -3.26}
{'lipoC2': 7.56, 'temp': 27.38, 'lipoC3S3': 11.75, 'rot1': 0, 'rot0': 0, 'rot3': 0, 'rot2': 0, 'state': 'normal', 'yaw': 10.06, 'datetime': '2018-10-12 18:23:41.727274', 'mgs': 0, 'depth': -0.598, 'time': 2.23, 'pitch': -1.65, 'roll': -3.56}
{'lipoC2': 7.55, 'temp': 27.38, 'lipoC3S3': 11.75, 'rot1': 0, 'rot0': 0, 'rot3': 0, 'rot2': 0, 'state': 'normal', 'yaw': 11.16, 'datetime': '2018-10-12 18:23:41.824420', 'mgs': 0, 'depth': -0.598, 'time': 2.33, 'pitch': -1.6, 'roll': -3.91}
{'lipoC2': 7.56, 'temp': 27.44, 'lipoC3S3': 11.76, 'rot1': 0, 'rot0': 0, 'rot3': 0, 'rot2': 0, 'state': 'normal', 'yaw': 12.12, 'datetime': '2018-10-12 18:23:41.921510', 'mgs': 0, 'depth': -0.598, 'time': 2.43, 'pitch': -1.54, 'roll': -4.17}
{'lipoC2': 7.56, 'temp': 27.44, 'lipoC3S3': 11.76, 'rot1': 0, 'rot0': 0, 'rot3': 0, 'rot2': 0, 'state': 'normal', 'yaw': 12.73, 'datetime': '2018-10-12 18:23:42.018632', 'mgs': 0, 'depth': -0.598, 'time': 2.53, 'pitch': -0.97, 'roll': -4.27}
{'lipoC2': 7.56, 'temp': 27.44, 'lipoC3S3': 11.75, 'rot1': 0, 'rot0': 0, 'rot3': 0, 'rot2': 0, 'state': 'normal', 'yaw': 13.06, 'datetime': '2018-10-12 18:23:42.115787', 'mgs': 0, 'depth': -0.522, 'time': 2.62, 'pitch': -0.07, 'roll': -4.13}
{'lipoC2': 7.56, 'temp': 27.38, 'lipoC3S3': 11.75, 'rot1': 0, 'rot0': 0, 'rot3': 0, 'rot2': 0, 'state': 'normal', 'yaw': 13.3, 'datetime': '2018-10-12 18:23:42.216292', 'mgs': 0, 'depth': -0.598, 'time': 2.72, 'pitch': 0.73, 'roll': -3.8}
{'lipoC2': 7.56, 'temp': 27.38, 'lipoC3S3': 11.75, 'rot1': 0, 'rot0': 0, 'rot3': 0, 'rot2': 0, 'state': 'normal', 'yaw': 13.42, 'datetime': '2018-10-12 18:23:42.314941', 'mgs': 0, 'depth': -0.522, 'time': 2.82, 'pitch': 1.07, 'roll': -3.51}
{'lipoC2': 7.56, 'temp': 27.38, 'lipoC3S3': 11.75, 'rot1': 0, 'rot0': 0, 'rot3': 0, 'rot2': 0, 'state': 'normal', 'yaw': 13.43, 'datetime': '2018-10-12 18:23:42.412808', 'mgs': 0, 'depth': -0.598, 'time': 2.92, 'pitch': 0.73, 'roll': -3.56}
{'lipoC2': 7.56, 'temp': 27.38, 'lipoC3S3': 11.75, 'rot1': 0, 'rot0': 0, 'rot3': 0, 'rot2': 0, 'state': 'normal', 'yaw': 13.38, 'datetime': '2018-10-12 18:23:42.511189', 'mgs': 0, 'depth': -0.522, 'time': 3.02, 'pitch': -0.29, 'roll': -4.05}
{'lipoC2': 7.55, 'temp': 27.38, 'lipoC3S3': 11.75, 'rot1': 0, 'rot0': 0, 'rot3': 0, 'rot2': 0, 'state': 'normal', 'yaw': 13.31, 'datetime': '2018-10-12 18:23:42.608399', 'mgs': 0, 'depth': -0.522, 'time': 3.11, 'pitch': -1.61, 'roll': -4.64}
{'lipoC2': 7.56, 'temp': 27.44, 'lipoC3S3': 11.75, 'rot1': 0, 'rot0': 0, 'rot3': 0, 'rot2': 0, 'state': 'normal', 'yaw': 13.12, 'datetime': '2018-10-12 18:23:42.705645', 'mgs': 0, 'depth': -0.598, 'time': 3.21, 'pitch': -2.02, 'roll': -4.85}
{'lipoC2': 7.56, 'temp': 27.44, 'lipoC3S3': 11.75, 'rot1': 0, 'rot0': 0, 'rot3': 0, 'rot2': 0, 'state': 'normal', 'yaw': 12.75, 'datetime': '2018-10-12 18:23:42.803166', 'mgs': 0, 'depth': -0.522, 'time': 3.31, 'pitch': -1.37, 'roll': -4.55}
{'lipoC2': 7.56, 'temp': 27.44, 'lipoC3S3': 11.75, 'rot1': 0, 'rot0': 0, 'rot3': 0, 'rot2': 0, 'state': 'normal', 'yaw': 12.33, 'datetime': '2018-10-12 18:23:42.901642', 'mgs': 0, 'depth': -0.522, 'time': 3.4, 'pitch': -0.55, 'roll': -3.89}
{'lipoC2': 7.55, 'temp': 27.44, 'lipoC3S3': 11.75, 'rot1': 0, 'rot0': 0, 'rot3': 0, 'rot2': 0, 'state': 'normal', 'yaw': 11.96, 'datetime': '2018-10-12 18:23:42.998848', 'mgs': 0, 'depth': -0.446, 'time': 3.5, 'pitch': -0.29, 'roll': -3.31}
{'lipoC2': 7.55, 'temp': 27.44, 'lipoC3S3': 11.75, 'rot1': 0, 'rot0': 0, 'rot3': 0, 'rot2': 0, 'state': 'normal', 'yaw': 11.64, 'datetime': '2018-10-12 18:23:43.095832', 'mgs': 0, 'depth': -0.522, 'time': 3.6, 'pitch': -0.6, 'roll': -3.23}
{'lipoC2': 7.55, 'temp': 27.44, 'lipoC3S3': 11.76, 'rot1': 0, 'rot0': 0, 'rot3': 0, 'rot2': 0, 'state': 'normal', 'yaw': 11.39, 'datetime': '2018-10-12 18:23:43.193662', 'mgs': 0, 'depth': -0.446, 'time': 3.7, 'pitch': -1.17, 'roll': -3.61}
{'lipoC2': 7.55, 'temp': 27.44, 'lipoC3S3': 11.75, 'rot1': 0, 'rot0': 0, 'rot3': 0, 'rot2': 0, 'state': 'normal', 'yaw': 10.9, 'datetime': '2018-10-12 18:23:43.290727', 'mgs': 0, 'depth': -0.446, 'time': 3.8, 'pitch': -1.16, 'roll': -4.16}
{'lipoC2': 7.55, 'temp': 27.44, 'lipoC3S3': 11.75, 'rot1': 0, 'rot0': 0, 'rot3': 0, 'rot2': 0, 'state': 'normal', 'yaw': 10.15, 'datetime': '2018-10-12 18:23:43.387830', 'mgs': 0, 'depth': -0.522, 'time': 3.89, 'pitch': -0.59, 'roll': -4.72}
{'lipoC2': 7.56, 'temp': 27.44, 'lipoC3S3': 11.75, 'rot1': 0, 'rot0': 0, 'rot3': 0, 'rot2': 0, 'state': 'normal', 'yaw': 9.48, 'datetime': '2018-10-12 18:23:43.485016', 'mgs': 0, 'depth': -0.522, 'time': 3.99, 'pitch': -0.3, 'roll': -4.94}
{'lipoC2': 7.56, 'temp': 27.44, 'lipoC3S3': 11.75, 'rot1': 0, 'rot0': 0, 'rot3': 0, 'rot2': 0, 'state': 'normal', 'yaw': 9.1, 'datetime': '2018-10-12 18:23:43.582129', 'mgs': 0, 'depth': -0.369, 'time': 4.09, 'pitch': -0.33, 'roll': -4.63}
{'lipoC2': 7.56, 'temp': 27.38, 'lipoC3S3': 11.75, 'rot1': 0, 'rot0': 0, 'rot3': 0, 'rot2': 0, 'state': 'normal', 'yaw': 8.88, 'datetime': '2018-10-12 18:23:43.679515', 'mgs': 0, 'depth': -0.446, 'time': 4.18, 'pitch': -0.4, 'roll': -3.81}
{'lipoC2': 7.55, 'temp': 27.38, 'lipoC3S3': 11.76, 'rot1': 0, 'rot0': 0, 'rot3': 0, 'rot2': 0, 'state': 'normal', 'yaw': 8.84, 'datetime': '2018-10-12 18:23:43.776537', 'mgs': 0, 'depth': -0.446, 'time': 4.28, 'pitch': -0.34, 'roll': -2.92}
{'lipoC2': 7.56, 'temp': 27.44, 'lipoC3S3': 11.75, 'rot1': 0, 'rot0': 0, 'rot3': 0, 'rot2': 0, 'state': 'normal', 'yaw': 9.02, 'datetime': '2018-10-12 18:23:43.873479', 'mgs': 0, 'depth': -0.446, 'time': 4.38, 'pitch': -0.2, 'roll': -2.63}
{'lipoC2': 7.56, 'temp': 27.44, 'lipoC3S3': 11.75, 'rot1': 0, 'rot0': 0, 'rot3': 0, 'rot2': 0, 'state': 'normal', 'yaw': 9.34, 'datetime': '2018-10-12 18:23:43.970599', 'mgs': 0, 'depth': -0.522, 'time': 4.47, 'pitch': 0.14, 'roll': -3.36}
{'lipoC2': 7.55, 'temp': 27.44, 'lipoC3S3': 11.76, 'rot1': 0, 'rot0': 0, 'rot3': 0, 'rot2': 0, 'state': 'normal', 'yaw': 9.54, 'datetime': '2018-10-12 18:23:44.074143', 'mgs': 0, 'depth': -0.446, 'time': 4.57, 'pitch': 0.73, 'roll': -4.86}
{'lipoC2': 7.55, 'temp': 27.38, 'lipoC3S3': 11.76, 'rot1': 0, 'rot0': 0, 'rot3': 0, 'rot2': 0, 'state': 'normal', 'yaw': 9.67, 'datetime': '2018-10-12 18:23:44.161079', 'mgs': 0, 'depth': -0.522, 'time': 4.67, 'pitch': 1.39, 'roll': -6.42}
{'lipoC2': 7.56, 'temp': 27.38, 'lipoC3S3': 11.75, 'rot1': 0, 'rot0': 0, 'rot3': 0, 'rot2': 0, 'state': 'normal', 'yaw': 9.79, 'datetime': '2018-10-12 18:23:44.259584', 'mgs': 0, 'depth': -0.446, 'time': 4.77, 'pitch': 2.16, 'roll': -7.53}
{'lipoC2': 7.55, 'temp': 27.38, 'lipoC3S3': 11.75, 'rot1': 0, 'rot0': 0, 'rot3': 0, 'rot2': 0, 'state': 'normal', 'yaw': 10.07, 'datetime': '2018-10-12 18:23:44.356737', 'mgs': 0, 'depth': -0.598, 'time': 4.87, 'pitch': 2.63, 'roll': -7.61}
{'lipoC2': 7.56, 'temp': 27.38, 'lipoC3S3': 11.75, 'rot1': 0, 'rot0': 0, 'rot3': 0, 'rot2': 0, 'state': 'normal', 'yaw': 10.49, 'datetime': '2018-10-12 18:23:44.453900', 'mgs': 0, 'depth': -0.598, 'time': 4.96, 'pitch': 2.65, 'roll': -6.68}
{'lipoC2': 7.56, 'temp': 27.38, 'lipoC3S3': 11.75, 'rot1': 0, 'rot0': 0, 'rot3': 0, 'rot2': 0, 'state': 'normal', 'yaw': 10.94, 'datetime': '2018-10-12 18:23:44.551731', 'mgs': 0, 'depth': -0.522, 'time': 5.06, 'pitch': 2.46, 'roll': -5.59}
{'lipoC2': 7.56, 'temp': 27.38, 'lipoC3S3': 11.76, 'rot1': 0, 'rot0': 0, 'rot3': 0, 'rot2': 0, 'state': 'normal', 'yaw': 11.53, 'datetime': '2018-10-12 18:23:44.650111', 'mgs': 0, 'depth': -0.522, 'time': 5.16, 'pitch': 2.23, 'roll': -4.7}
{'lipoC2': 7.56, 'temp': 27.38, 'lipoC3S3': 11.76, 'rot1': 0, 'rot0': 0, 'rot3': 0, 'rot2': 0, 'state': 'normal', 'yaw': 12.18, 'datetime': '2018-10-12 18:23:44.747188', 'mgs': 0, 'depth': -0.522, 'time': 5.26, 'pitch': 2.07, 'roll': -4.35}
{'lipoC2': 7.56, 'temp': 27.38, 'lipoC3S3': 11.75, 'rot1': 0, 'rot0': 0, 'rot3': 0, 'rot2': 0, 'state': 'normal', 'yaw': 12.87, 'datetime': '2018-10-12 18:23:44.844279', 'mgs': 0, 'depth': -0.522, 'time': 5.36, 'pitch': 1.79, 'roll': -4.39}
{'lipoC2': 7.56, 'temp': 27.38, 'lipoC3S3': 11.76, 'rot1': 0, 'rot0': 0, 'rot3': 0, 'rot2': 0, 'state': 'normal', 'yaw': 13.53, 'datetime': '2018-10-12 18:23:44.947914', 'mgs': 0, 'depth': -0.522, 'time': 5.45, 'pitch': 1.33, 'roll': -4.66}
{'lipoC2': 7.56, 'temp': 27.38, 'lipoC3S3': 11.76, 'rot1': 0, 'rot0': 0, 'rot3': 0, 'rot2': 0, 'state': 'normal', 'yaw': 14.32, 'datetime': '2018-10-12 18:23:45.042201', 'mgs': 0, 'depth': -0.522, 'time': 5.55, 'pitch': 0.6, 'roll': -5.12}
{'lipoC2': 7.55, 'temp': 27.38, 'lipoC3S3': 11.75, 'rot1': 0, 'rot0': 0, 'rot3': 0, 'rot2': 0, 'state': 'normal', 'yaw': 15.11, 'datetime': '2018-10-12 18:23:45.139718', 'mgs': 0, 'depth': -0.598, 'time': 5.65, 'pitch': -0.2, 'roll': -5.66}
{'lipoC2': 7.56, 'temp': 27.38, 'lipoC3S3': 11.75, 'rot1': 0, 'rot0': 0, 'rot3': 0, 'rot2': 0, 'state': 'normal', 'yaw': 15.84, 'datetime': '2018-10-12 18:23:45.236399', 'mgs': 0, 'depth': -0.522, 'time': 5.74, 'pitch': -0.74, 'roll': -6.22}
{'lipoC2': 7.56, 'temp': 27.38, 'lipoC3S3': 11.75, 'rot1': 0, 'rot0': 0, 'rot3': 0, 'rot2': 0, 'state': 'normal', 'yaw': 16.58, 'datetime': '2018-10-12 18:23:45.333457', 'mgs': 0, 'depth': -0.598, 'time': 5.84, 'pitch': -0.96, 'roll': -6.63}
{'lipoC2': 7.56, 'temp': 27.38, 'lipoC3S3': 11.75, 'rot1': 0, 'rot0': 0, 'rot3': 0, 'rot2': 0, 'state': 'normal', 'yaw': 17.55, 'datetime': '2018-10-12 18:23:45.430683', 'mgs': 0, 'depth': -0.522, 'time': 5.94, 'pitch': -0.72, 'roll': -6.57}
{'lipoC2': 7.56, 'temp': 27.38, 'lipoC3S3': 11.75, 'rot1': 0, 'rot0': 0, 'rot3': 0, 'rot2': 0, 'state': 'normal', 'yaw': 18.63, 'datetime': '2018-10-12 18:23:45.527788', 'mgs': 0, 'depth': -0.522, 'time': 6.04, 'pitch': -0.28, 'roll': -5.68}
{'lipoC2': 7.56, 'temp': 27.44, 'lipoC3S3': 11.75, 'rot1': 0, 'rot0': 0, 'rot3': 0, 'rot2': 0, 'state': 'normal', 'yaw': 19.65, 'datetime': '2018-10-12 18:23:45.624872', 'mgs': 0, 'depth': -0.598, 'time': 6.13, 'pitch': -0.07, 'roll': -4.03}
{'lipoC2': 7.56, 'temp': 27.44, 'lipoC3S3': 11.76, 'rot1': 0, 'rot0': 0, 'rot3': 0, 'rot2': 0, 'state': 'normal', 'yaw': 20.77, 'datetime': '2018-10-12 18:23:45.722057', 'mgs': 0, 'depth': -0.522, 'time': 6.23, 'pitch': -0.5, 'roll': -2.09}
{'lipoC2': 7.56, 'temp': 27.44, 'lipoC3S3': 11.76, 'rot1': 0, 'rot0': 0, 'rot3': 0, 'rot2': 0, 'state': 'normal', 'yaw': 21.85, 'datetime': '2018-10-12 18:23:45.819110', 'mgs': 0, 'depth': -0.446, 'time': 6.33, 'pitch': -0.98, 'roll': -1.47}
{'lipoC2': 7.55, 'temp': 27.44, 'lipoC3S3': 11.75, 'rot1': 0, 'rot0': 0, 'rot3': 0, 'rot2': 0, 'state': 'normal', 'yaw': 22.78, 'datetime': '2018-10-12 18:23:45.917212', 'mgs': 0, 'depth': -0.522, 'time': 6.43, 'pitch': -1.13, 'roll': -2.19}
{'lipoC2': 7.56, 'temp': 27.44, 'lipoC3S3': 11.75, 'rot1': 0, 'rot0': 0, 'rot3': 0, 'rot2': 0, 'state': 'normal', 'yaw': 23.83, 'datetime': '2018-10-12 18:23:46.015672', 'mgs': 0, 'depth': -0.369, 'time': 6.52, 'pitch': -1.08, 'roll': -3.83}
{'lipoC2': 7.55, 'temp': 27.38, 'lipoC3S3': 11.75, 'rot1': 0, 'rot0': 0, 'rot3': 0, 'rot2': 0, 'state': 'normal', 'yaw': 24.88, 'datetime': '2018-10-12 18:23:46.112703', 'mgs': 0, 'depth': -0.369, 'time': 6.62, 'pitch': -1.06, 'roll': -5.37}
{'lipoC2': 7.56, 'temp': 27.38, 'lipoC3S3': 11.75, 'rot1': 0, 'rot0': 0, 'rot3': 0, 'rot2': 0, 'state': 'normal', 'yaw': 25.93, 'datetime': '2018-10-12 18:23:46.209869', 'mgs': 0, 'depth': -0.522, 'time': 6.72, 'pitch': -1.13, 'roll': -6.09}
{'lipoC2': 7.56, 'temp': 27.38, 'lipoC3S3': 11.76, 'rot1': 0, 'rot0': 0, 'rot3': 0, 'rot2': 0, 'state': 'normal', 'yaw': 26.87, 'datetime': '2018-10-12 18:23:46.307776', 'mgs': 0, 'depth': -0.369, 'time': 6.82, 'pitch': -1.3, 'roll': -5.76}
{'lipoC2': 7.56, 'temp': 27.38, 'lipoC3S3': 11.76, 'rot1': 0, 'rot0': 0, 'rot3': 0, 'rot2': 0, 'state': 'normal', 'yaw': 27.88, 'datetime': '2018-10-12 18:23:46.406172', 'mgs': 0, 'depth': -0.446, 'time': 6.92, 'pitch': -1.39, 'roll': -4.6}
{'lipoC2': 7.55, 'temp': 27.38, 'lipoC3S3': 11.75, 'rot1': 0, 'rot0': 0, 'rot3': 0, 'rot2': 0, 'state': 'normal', 'yaw': 28.82, 'datetime': '2018-10-12 18:23:46.503331', 'mgs': 0, 'depth': -0.522, 'time': 7.01, 'pitch': -1.07, 'roll': -3.79}
{'lipoC2': 7.55, 'temp': 27.38, 'lipoC3S3': 11.75, 'rot1': 0, 'rot0': 0, 'rot3': 0, 'rot2': 0, 'state': 'normal', 'yaw': 29.73, 'datetime': '2018-10-12 18:23:46.603178', 'mgs': 0, 'depth': -0.446, 'time': 7.11, 'pitch': -0.58, 'roll': -3.75}
{'lipoC2': 7.55, 'temp': 27.38, 'lipoC3S3': 11.75, 'rot1': 0, 'rot0': 0, 'rot3': 0, 'rot2': 0, 'state': 'normal', 'yaw': 30.55, 'datetime': '2018-10-12 18:23:46.698205', 'mgs': 0, 'depth': -0.522, 'time': 7.21, 'pitch': -0.05, 'roll': -4.37}
{'lipoC2': 7.55, 'temp': 27.38, 'lipoC3S3': 11.75, 'rot1': 0, 'rot0': 0, 'rot3': 0, 'rot2': 0, 'state': 'normal', 'yaw': 31.44, 'datetime': '2018-10-12 18:23:46.795331', 'mgs': 0, 'depth': -0.522, 'time': 7.3, 'pitch': 0.86, 'roll': -5.61}
{'lipoC2': 7.55, 'temp': 27.38, 'lipoC3S3': 11.75, 'rot1': 0, 'rot0': 0, 'rot3': 0, 'rot2': 0, 'state': 'normal', 'yaw': 32.19, 'datetime': '2018-10-12 18:23:46.892335', 'mgs': 0, 'depth': -0.522, 'time': 7.4, 'pitch': 1.72, 'roll': -6.74}
{'lipoC2': 7.55, 'temp': 27.38, 'lipoC3S3': 11.75, 'rot1': 0, 'rot0': 0, 'rot3': 0, 'rot2': 0, 'state': 'normal', 'yaw': 32.7, 'datetime': '2018-10-12 18:23:46.989678', 'mgs': 0, 'depth': -0.522, 'time': 7.5, 'pitch': 2.23, 'roll': -7.11}
{'lipoC2': 7.55, 'temp': 27.44, 'lipoC3S3': 11.75, 'rot1': 0, 'rot0': 0, 'rot3': 0, 'rot2': 0, 'state': 'normal', 'yaw': 33.12, 'datetime': '2018-10-12 18:23:47.086746', 'mgs': 0, 'depth': -0.446, 'time': 7.6, 'pitch': 2.45, 'roll': -6.64}
{'lipoC2': 7.56, 'temp': 27.44, 'lipoC3S3': 11.75, 'rot1': 0, 'rot0': 0, 'rot3': 0, 'rot2': 0, 'state': 'normal', 'yaw': 33.6, 'datetime': '2018-10-12 18:23:47.183735', 'mgs': 0, 'depth': -0.522, 'time': 7.69, 'pitch': 2.67, 'roll': -5.53}
{'lipoC2': 7.56, 'temp': 27.38, 'lipoC3S3': 11.75, 'rot1': 0, 'rot0': 0, 'rot3': 0, 'rot2': 0, 'state': 'normal', 'yaw': 34.09, 'datetime': '2018-10-12 18:23:47.280951', 'mgs': 0, 'depth': -0.522, 'time': 7.79, 'pitch': 2.75, 'roll': -4.1}
{'lipoC2': 7.56, 'temp': 27.38, 'lipoC3S3': 11.75, 'rot1': 0, 'rot0': 0, 'rot3': 0, 'rot2': 0, 'state': 'normal', 'yaw': 34.48, 'datetime': '2018-10-12 18:23:47.378040', 'mgs': 0, 'depth': -0.446, 'time': 7.89, 'pitch': 2.71, 'roll': -3.13}
{'lipoC2': 7.56, 'temp': 27.38, 'lipoC3S3': 11.75, 'rot1': 0, 'rot0': 0, 'rot3': 0, 'rot2': 0, 'state': 'normal', 'yaw': 34.78, 'datetime': '2018-10-12 18:23:47.475370', 'mgs': 0, 'depth': -0.522, 'time': 7.99, 'pitch': 2.43, 'roll': -2.82}
{'lipoC2': 7.56, 'temp': 27.38, 'lipoC3S3': 11.75, 'rot1': 0, 'rot0': 0, 'rot3': 0, 'rot2': 0, 'state': 'normal', 'yaw': 34.94, 'datetime': '2018-10-12 18:23:47.572283', 'mgs': 0, 'depth': -0.522, 'time': 8.08, 'pitch': 1.87, 'roll': -3.34}
{'lipoC2': 7.55, 'temp': 27.38, 'lipoC3S3': 11.75, 'rot1': 0, 'rot0': 0, 'rot3': 0, 'rot2': 0, 'state': 'normal', 'yaw': 34.86, 'datetime': '2018-10-12 18:23:47.670488', 'mgs': 0, 'depth': -0.674, 'time': 8.18, 'pitch': 1.6, 'roll': -4.24}
{'lipoC2': 7.56, 'temp': 27.44, 'lipoC3S3': 11.75, 'rot1': 0, 'rot0': 0, 'rot3': 0, 'rot2': 0, 'state': 'normal', 'yaw': 34.38, 'datetime': '2018-10-12 18:23:47.768841', 'mgs': 0, 'depth': -0.674, 'time': 8.28, 'pitch': 1.99, 'roll': -5.47}
{'lipoC2': 7.55, 'temp': 27.44, 'lipoC3S3': 11.75, 'rot1': 0, 'rot0': 0, 'rot3': 0, 'rot2': 0, 'state': 'normal', 'yaw': 33.65, 'datetime': '2018-10-12 18:23:47.865716', 'mgs': 0, 'depth': -0.598, 'time': 8.38, 'pitch': 2.49, 'roll': -6.66}
{'lipoC2': 7.56, 'temp': 27.44, 'lipoC3S3': 11.76, 'rot1': 0, 'rot0': 0, 'rot3': 0, 'rot2': 0, 'state': 'normal', 'yaw': 32.87, 'datetime': '2018-10-12 18:23:47.963050', 'mgs': 0, 'depth': -0.674, 'time': 8.47, 'pitch': 2.38, 'roll': -7.31}
{'lipoC2': 7.56, 'temp': 27.44, 'lipoC3S3': 11.75, 'rot1': 0, 'rot0': 0, 'rot3': 0, 'rot2': 0, 'state': 'normal', 'yaw': 32.14, 'datetime': '2018-10-12 18:23:48.061011', 'mgs': 0, 'depth': -0.674, 'time': 8.57, 'pitch': 1.64, 'roll': -6.9}
{'lipoC2': 7.55, 'temp': 27.44, 'lipoC3S3': 11.75, 'rot1': 0, 'rot0': 0, 'rot3': 0, 'rot2': 0, 'state': 'normal', 'yaw': 31.58, 'datetime': '2018-10-12 18:23:48.159623', 'mgs': 0, 'depth': -0.674, 'time': 8.67, 'pitch': 0.95, 'roll': -5.94}
{'lipoC2': 7.56, 'temp': 27.44, 'lipoC3S3': 11.75, 'rot1': 0, 'rot0': 0, 'rot3': 0, 'rot2': 0, 'state': 'normal', 'yaw': 31.36, 'datetime': '2018-10-12 18:23:48.256484', 'mgs': 0, 'depth': -0.751, 'time': 8.77, 'pitch': 1.32, 'roll': -5.58}
{'lipoC2': 7.56, 'temp': 27.44, 'lipoC3S3': 11.75, 'rot1': 0, 'rot0': 0, 'rot3': 0, 'rot2': 0, 'state': 'normal', 'yaw': 31.07, 'datetime': '2018-10-12 18:23:48.353620', 'mgs': 0, 'depth': -0.751, 'time': 8.86, 'pitch': 1.31, 'roll': -5.66}
{'lipoC2': 7.56, 'temp': 27.44, 'lipoC3S3': 11.76, 'rot1': 0, 'rot0': 0, 'rot3': 0, 'rot2': 0, 'state': 'normal', 'yaw': 30.23, 'datetime': '2018-10-12 18:23:48.451323', 'mgs': 0, 'depth': -0.674, 'time': 8.96, 'pitch': 0.8, 'roll': -5.82}
{'lipoC2': 7.56, 'temp': 27.44, 'lipoC3S3': 11.76, 'rot1': 0, 'rot0': 0, 'rot3': 0, 'rot2': 0, 'state': 'normal', 'yaw': 28.91, 'datetime': '2018-10-12 18:23:48.548444', 'mgs': 0, 'depth': -0.674, 'time': 9.06, 'pitch': 0.61, 'roll': -5.99}
{'lipoC2': 7.55, 'temp': 27.44, 'lipoC3S3': 11.75, 'rot1': 0, 'rot0': 0, 'rot3': 0, 'rot2': 0, 'state': 'normal', 'yaw': 27.53, 'datetime': '2018-10-12 18:23:48.645466', 'mgs': 0, 'depth': -0.751, 'time': 9.16, 'pitch': 0.64, 'roll': -5.96}
{'lipoC2': 7.56, 'temp': 27.44, 'lipoC3S3': 11.75, 'rot1': 0, 'rot0': 0, 'rot3': 0, 'rot2': 0, 'state': 'normal', 'yaw': 26.5, 'datetime': '2018-10-12 18:23:48.742843', 'mgs': 0, 'depth': -0.674, 'time': 9.25, 'pitch': 1.04, 'roll': -5.85}
{'lipoC2': 7.56, 'temp': 27.44, 'lipoC3S3': 11.75, 'rot1': 0, 'rot0': 0, 'rot3': 0, 'rot2': 0, 'state': 'normal', 'yaw': 25.65, 'datetime': '2018-10-12 18:23:48.839931', 'mgs': 0, 'depth': -0.751, 'time': 9.35, 'pitch': 1.99, 'roll': -5.7}
{'lipoC2': 7.55, 'temp': 27.44, 'lipoC3S3': 11.75, 'rot1': 0, 'rot0': 0, 'rot3': 0, 'rot2': 0, 'state': 'normal', 'yaw': 25.04, 'datetime': '2018-10-12 18:23:48.937079', 'mgs': 0, 'depth': -0.598, 'time': 9.45, 'pitch': 2.81, 'roll': -5.47}
{'lipoC2': 7.55, 'temp': 27.38, 'lipoC3S3': 11.75, 'rot1': 0, 'rot0': 0, 'rot3': 0, 'rot2': 0, 'state': 'normal', 'yaw': 24.65, 'datetime': '2018-10-12 18:23:49.034080', 'mgs': 0, 'depth': -0.674, 'time': 9.55, 'pitch': 3.45, 'roll': -5.48}
{'lipoC2': 7.55, 'temp': 27.38, 'lipoC3S3': 11.76, 'rot1': 0, 'rot0': 0, 'rot3': 0, 'rot2': 0, 'state': 'normal', 'yaw': 24.53, 'datetime': '2018-10-12 18:23:49.131285', 'mgs': 0, 'depth': -0.598, 'time': 9.64, 'pitch': 4.2, 'roll': -5.76}
{'lipoC2': 7.56, 'temp': 27.38, 'lipoC3S3': 11.75, 'rot1': 0, 'rot0': 0, 'rot3': 0, 'rot2': 0, 'state': 'normal', 'yaw': 24.18, 'datetime': '2018-10-12 18:23:49.228367', 'mgs': 0, 'depth': -0.598, 'time': 9.74, 'pitch': 5.12, 'roll': -6.0}
{'lipoC2': 7.56, 'temp': 27.38, 'lipoC3S3': 11.75, 'rot1': 0, 'rot0': 0, 'rot3': 0, 'rot2': 0, 'state': 'normal', 'yaw': 23.63, 'datetime': '2018-10-12 18:23:49.325565', 'mgs': 0, 'depth': -0.674, 'time': 9.84, 'pitch': 5.99, 'roll': -6.24}
{'lipoC2': 7.56, 'temp': 27.38, 'lipoC3S3': 11.75, 'rot1': 0, 'rot0': 0, 'rot3': 0, 'rot2': 0, 'state': 'normal', 'yaw': 22.92, 'datetime': '2018-10-12 18:23:49.424493', 'mgs': 0, 'depth': -0.751, 'time': 9.94, 'pitch': 6.69, 'roll': -6.1}
{'lipoC2': 7.56, 'temp': 27.38, 'lipoC3S3': 11.76, 'rot1': 0, 'rot0': 0, 'rot3': 0, 'rot2': 0, 'state': 'normal', 'yaw': 22.12, 'datetime': '2018-10-12 18:23:49.522321', 'mgs': 0, 'depth': -0.751, 'time': 10.03, 'pitch': 7.1, 'roll': -5.52}
{'lipoC2': 7.55, 'temp': 27.38, 'lipoC3S3': 11.75, 'rot1': 0, 'rot0': 0, 'rot3': 0, 'rot2': 0, 'state': 'normal', 'yaw': 21.23, 'datetime': '2018-10-12 18:23:49.619352', 'mgs': 0, 'depth': -0.751, 'time': 10.13, 'pitch': 6.87, 'roll': -4.59}
{'lipoC2': 7.56, 'temp': 27.38, 'lipoC3S3': 11.75, 'rot1': 0, 'rot0': 0, 'rot3': 0, 'rot2': 0, 'state': 'normal', 'yaw': 20.19, 'datetime': '2018-10-12 18:23:49.716338', 'mgs': 0, 'depth': -0.674, 'time': 10.23, 'pitch': 6.23, 'roll': -3.42}
{'lipoC2': 7.56, 'temp': 27.38, 'lipoC3S3': 11.75, 'rot1': 0, 'rot0': 0, 'rot3': 0, 'rot2': 0, 'state': 'normal', 'yaw': 19.33, 'datetime': '2018-10-12 18:23:49.814209', 'mgs': 0, 'depth': -0.522, 'time': 10.33, 'pitch': 5.42, 'roll': -2.08}
{'lipoC2': 7.55, 'temp': 27.44, 'lipoC3S3': 11.75, 'rot1': 0, 'rot0': 0, 'rot3': 0, 'rot2': 0, 'state': 'normal', 'yaw': 18.5, 'datetime': '2018-10-12 18:23:49.912605', 'mgs': 0, 'depth': -0.446, 'time': 10.43, 'pitch': 4.41, 'roll': -0.86}
{'lipoC2': 7.55, 'temp': 27.44, 'lipoC3S3': 11.75, 'rot1': 0, 'rot0': 0, 'rot3': 0, 'rot2': 0, 'state': 'normal', 'yaw': 18.29, 'datetime': '2018-10-12 18:23:50.009747', 'mgs': 0, 'depth': -0.369, 'time': 10.52, 'pitch': 3.5, 'roll': -0.03}
{'lipoC2': 7.56, 'temp': 27.44, 'lipoC3S3': 11.75, 'rot1': 0, 'rot0': 0, 'rot3': 0, 'rot2': 0, 'state': 'normal', 'yaw': 18.61, 'datetime': '2018-10-12 18:23:50.106933', 'mgs': 0, 'depth': -0.446, 'time': 10.62, 'pitch': 2.64, 'roll': 1.06}
{'lipoC2': 7.56, 'temp': 27.44, 'lipoC3S3': 11.75, 'rot1': 0, 'rot0': 0, 'rot3': 0, 'rot2': 0, 'state': 'normal', 'yaw': 19.09, 'datetime': '2018-10-12 18:23:50.204497', 'mgs': 0, 'depth': -0.446, 'time': 10.72, 'pitch': 1.78, 'roll': 2.3}
{'lipoC2': 7.55, 'temp': 27.44, 'lipoC3S3': 11.75, 'rot1': 0, 'rot0': 0, 'rot3': 0, 'rot2': 0, 'state': 'normal', 'yaw': 19.65, 'datetime': '2018-10-12 18:23:50.301722', 'mgs': 0, 'depth': -0.369, 'time': 10.81, 'pitch': 0.67, 'roll': 3.43}
{'lipoC2': 7.55, 'temp': 27.44, 'lipoC3S3': 11.75, 'rot1': 0, 'rot0': 0, 'rot3': 0, 'rot2': 0, 'state': 'normal', 'yaw': 20.18, 'datetime': '2018-10-12 18:23:50.398749', 'mgs': 0, 'depth': -0.369, 'time': 10.91, 'pitch': -0.31, 'roll': 3.84}
{'lipoC2': 7.55, 'temp': 27.44, 'lipoC3S3': 11.75, 'rot1': 0, 'rot0': 0, 'rot3': 0, 'rot2': 0, 'state': 'normal', 'yaw': 20.8, 'datetime': '2018-10-12 18:23:50.495973', 'mgs': 0, 'depth': -0.446, 'time': 11.01, 'pitch': -0.93, 'roll': 3.44}
{'lipoC2': 7.56, 'temp': 27.44, 'lipoC3S3': 11.75, 'rot1': 0, 'rot0': 0, 'rot3': 0, 'rot2': 0, 'state': 'normal', 'yaw': 21.71, 'datetime': '2018-10-12 18:23:50.593047', 'mgs': 0, 'depth': -0.293, 'time': 11.11, 'pitch': -0.79, 'roll': 2.84}
{'lipoC2': 7.55, 'temp': 27.44, 'lipoC3S3': 11.75, 'rot1': 0, 'rot0': 0, 'rot3': 0, 'rot2': 0, 'state': 'normal', 'yaw': 22.89, 'datetime': '2018-10-12 18:23:50.690099', 'mgs': 0, 'depth': -0.293, 'time': 11.2, 'pitch': 0.68, 'roll': 2.99}
{'lipoC2': 7.56, 'temp': 27.44, 'lipoC3S3': 11.75, 'rot1': 0, 'rot0': 0, 'rot3': 0, 'rot2': 0, 'state': 'normal', 'yaw': 24.57, 'datetime': '2018-10-12 18:23:50.787563', 'mgs': 0, 'depth': -0.217, 'time': 11.3, 'pitch': 1.4, 'roll': 3.48}
{'lipoC2': 7.55, 'temp': 27.38, 'lipoC3S3': 11.75, 'rot1': 0, 'rot0': 0, 'rot3': 0, 'rot2': 0, 'state': 'normal', 'yaw': 26.31, 'datetime': '2018-10-12 18:23:50.884457', 'mgs': 0, 'depth': -0.293, 'time': 11.4, 'pitch': 1.15, 'roll': 3.98}
{'lipoC2': 7.56, 'temp': 27.38, 'lipoC3S3': 11.75, 'rot1': 0, 'rot0': 0, 'rot3': 0, 'rot2': 0, 'state': 'normal', 'yaw': 28.0, 'datetime': '2018-10-12 18:23:50.981595', 'mgs': 0, 'depth': -0.293, 'time': 11.5, 'pitch': 0.11, 'roll': 3.98}
{'lipoC2': 7.56, 'temp': 27.38, 'lipoC3S3': 11.75, 'rot1': 0, 'rot0': 0, 'rot3': 0, 'rot2': 0, 'state': 'normal', 'yaw': 29.22, 'datetime': '2018-10-12 18:23:51.078687', 'mgs': 0, 'depth': -0.217, 'time': 11.59, 'pitch': -1.15, 'roll': 3.23}
{'lipoC2': 7.55, 'temp': 27.44, 'lipoC3S3': 11.75, 'rot1': 0, 'rot0': 0, 'rot3': 0, 'rot2': 0, 'state': 'normal', 'yaw': 29.95, 'datetime': '2018-10-12 18:23:51.176928', 'mgs': 0, 'depth': -0.217, 'time': 11.69, 'pitch': -2.08, 'roll': 2.46}
{'lipoC2': 7.56, 'temp': 27.44, 'lipoC3S3': 11.75, 'rot1': 0, 'rot0': 0, 'rot3': 0, 'rot2': 0, 'state': 'normal', 'yaw': 30.41, 'datetime': '2018-10-12 18:23:51.275213', 'mgs': 0, 'depth': -0.293, 'time': 11.79, 'pitch': -2.6, 'roll': 2.0}
{'lipoC2': 7.55, 'temp': 27.44, 'lipoC3S3': 11.75, 'rot1': 0, 'rot0': 0, 'rot3': 0, 'rot2': 0, 'state': 'normal', 'yaw': 30.55, 'datetime': '2018-10-12 18:23:51.372198', 'mgs': 0, 'depth': -0.217, 'time': 11.89, 'pitch': -2.58, 'roll': 1.91}
{'lipoC2': 7.56, 'temp': 27.44, 'lipoC3S3': 11.75, 'rot1': 0, 'rot0': 0, 'rot3': 0, 'rot2': 0, 'state': 'normal', 'yaw': 30.5, 'datetime': '2018-10-12 18:23:51.469403', 'mgs': 0, 'depth': -0.217, 'time': 11.98, 'pitch': -2.46, 'roll': 2.21}
{'lipoC2': 7.55, 'temp': 27.44, 'lipoC3S3': 11.75, 'rot1': 0, 'rot0': 0, 'rot3': 0, 'rot2': 0, 'state': 'normal', 'yaw': 30.34, 'datetime': '2018-10-12 18:23:51.567328', 'mgs': 0, 'depth': -0.14, 'time': 12.08, 'pitch': -2.56, 'roll': 2.51}
{'lipoC2': 7.55, 'temp': 27.44, 'lipoC3S3': 11.75, 'rot1': 0, 'rot0': 0, 'rot3': 0, 'rot2': 0, 'state': 'normal', 'yaw': 30.12, 'datetime': '2018-10-12 18:23:51.665780', 'mgs': 0, 'depth': -0.217, 'time': 12.18, 'pitch': -2.96, 'roll': 2.59}
{'lipoC2': 7.56, 'temp': 27.44, 'lipoC3S3': 11.75, 'rot1': 0, 'rot0': 0, 'rot3': 0, 'rot2': 0, 'state': 'normal', 'yaw': 29.9, 'datetime': '2018-10-12 18:23:51.762833', 'mgs': 0, 'depth': -0.293, 'time': 12.28, 'pitch': -3.47, 'roll': 2.29}
{'lipoC2': 7.55, 'temp': 27.38, 'lipoC3S3': 11.75, 'rot1': 0, 'rot0': 0, 'rot3': 0, 'rot2': 0, 'state': 'normal', 'yaw': 29.63, 'datetime': '2018-10-12 18:23:51.860028', 'mgs': 0, 'depth': -0.217, 'time': 12.38, 'pitch': -3.71, 'roll': 1.69}
{'lipoC2': 7.56, 'temp': 27.38, 'lipoC3S3': 11.75, 'rot1': 0, 'rot0': 0, 'rot3': 0, 'rot2': 0, 'state': 'normal', 'yaw': 29.33, 'datetime': '2018-10-12 18:23:51.957741', 'mgs': 0, 'depth': -0.217, 'time': 12.47, 'pitch': -3.54, 'roll': 0.94}
{'lipoC2': 7.55, 'temp': 27.38, 'lipoC3S3': 11.75, 'rot1': 0, 'rot0': 0, 'rot3': 0, 'rot2': 0, 'state': 'normal', 'yaw': 29.01, 'datetime': '2018-10-12 18:23:52.054897', 'mgs': 0, 'depth': -0.293, 'time': 12.57, 'pitch': -3.05, 'roll': 0.1}
{'lipoC2': 7.56, 'temp': 27.44, 'lipoC3S3': 11.75, 'rot1': 0, 'rot0': 0, 'rot3': 0, 'rot2': 0, 'state': 'normal', 'yaw': 28.88, 'datetime': '2018-10-12 18:23:52.151889', 'mgs': 0, 'depth': -0.369, 'time': 12.67, 'pitch': -2.51, 'roll': -0.45}
{'lipoC2': 7.56, 'temp': 27.44, 'lipoC3S3': 11.76, 'rot1': 0, 'rot0': 0, 'rot3': 0, 'rot2': 0, 'state': 'normal', 'yaw': 28.88, 'datetime': '2018-10-12 18:23:52.249114', 'mgs': 0, 'depth': -0.293, 'time': 12.77, 'pitch': -2.14, 'roll': -0.75}
{'lipoC2': 7.55, 'temp': 27.44, 'lipoC3S3': 11.76, 'rot1': 0, 'rot0': 0, 'rot3': 0, 'rot2': 0, 'state': 'normal', 'yaw': 28.85, 'datetime': '2018-10-12 18:23:52.346472', 'mgs': 0, 'depth': -0.293, 'time': 12.86, 'pitch': -1.92, 'roll': -0.98}
{'lipoC2': 7.55, 'temp': 27.44, 'lipoC3S3': 11.75, 'rot1': 0, 'rot0': 0, 'rot3': 0, 'rot2': 0, 'state': 'normal', 'yaw': 28.65, 'datetime': '2018-10-12 18:23:52.443549', 'mgs': 0, 'depth': -0.293, 'time': 12.96, 'pitch': -1.69, 'roll': -1.14}
{'lipoC2': 7.56, 'temp': 27.44, 'lipoC3S3': 11.75, 'rot1': 0, 'rot0': 0, 'rot3': 0, 'rot2': 0, 'state': 'normal', 'yaw': 28.28, 'datetime': '2018-10-12 18:23:52.540527', 'mgs': 0, 'depth': -0.446, 'time': 13.06, 'pitch': -1.31, 'roll': -1.34}
{'lipoC2': 7.55, 'temp': 27.38, 'lipoC3S3': 11.75, 'rot1': 0, 'rot0': 0, 'rot3': 0, 'rot2': 0, 'state': 'normal', 'yaw': 28.0, 'datetime': '2018-10-12 18:23:52.637874', 'mgs': 0, 'depth': -0.446, 'time': 13.15, 'pitch': -0.8, 'roll': -1.53}
{'lipoC2': 7.56, 'temp': 27.38, 'lipoC3S3': 11.75, 'rot1': 0, 'rot0': 0, 'rot3': 0, 'rot2': 0, 'state': 'normal', 'yaw': 27.85, 'datetime': '2018-10-12 18:23:52.734881', 'mgs': 0, 'depth': -0.446, 'time': 13.25, 'pitch': -0.31, 'roll': -1.7}
{'lipoC2': 7.56, 'temp': 27.44, 'lipoC3S3': 11.75, 'rot1': 0, 'rot0': 0, 'rot3': 0, 'rot2': 0, 'state': 'normal', 'yaw': 27.71, 'datetime': '2018-10-12 18:23:52.831968', 'mgs': 0, 'depth': -0.522, 'time': 13.35, 'pitch': -0.1, 'roll': -1.84}
{'lipoC2': 7.55, 'temp': 27.44, 'lipoC3S3': 11.75, 'rot1': 0, 'rot0': 0, 'rot3': 0, 'rot2': 0, 'state': 'normal', 'yaw': 27.49, 'datetime': '2018-10-12 18:23:52.930107', 'mgs': 0, 'depth': -0.446, 'time': 13.45, 'pitch': -0.18, 'roll': -1.94}
{'lipoC2': 7.56, 'temp': 27.44, 'lipoC3S3': 11.75, 'rot1': 0, 'rot0': 0, 'rot3': 0, 'rot2': 0, 'state': 'normal', 'yaw': 27.16, 'datetime': '2018-10-12 18:23:53.028300', 'mgs': 0, 'depth': -0.446, 'time': 13.54, 'pitch': -0.49, 'roll': -1.93}
{'lipoC2': 7.56, 'temp': 27.44, 'lipoC3S3': 11.75, 'rot1': 0, 'rot0': 0, 'rot3': 0, 'rot2': 0, 'state': 'normal', 'yaw': 26.72, 'datetime': '2018-10-12 18:23:53.125320', 'mgs': 0, 'depth': -0.522, 'time': 13.64, 'pitch': -0.72, 'roll': -2.15}
{'lipoC2': 7.56, 'temp': 27.44, 'lipoC3S3': 11.75, 'rot1': 0, 'rot0': 0, 'rot3': 0, 'rot2': 0, 'state': 'normal', 'yaw': 26.19, 'datetime': '2018-10-12 18:23:53.222493', 'mgs': 0, 'depth': -0.446, 'time': 13.74, 'pitch': -0.74, 'roll': -2.67}
{'lipoC2': 7.56, 'temp': 27.38, 'lipoC3S3': 11.75, 'rot1': 0, 'rot0': 0, 'rot3': 0, 'rot2': 0, 'state': 'normal', 'yaw': 25.71, 'datetime': '2018-10-12 18:23:53.320399', 'mgs': 0, 'depth': -0.446, 'time': 13.84, 'pitch': -0.59, 'roll': -3.2}
{'lipoC2': 7.56, 'temp': 27.38, 'lipoC3S3': 11.75, 'rot1': 0, 'rot0': 0, 'rot3': 0, 'rot2': 0, 'state': 'normal', 'yaw': 25.2, 'datetime': '2018-10-12 18:23:53.419118', 'mgs': 0, 'depth': -0.446, 'time': 13.94, 'pitch': -0.51, 'roll': -3.54}
{'lipoC2': 7.55, 'temp': 27.38, 'lipoC3S3': 11.75, 'rot1': 0, 'rot0': 0, 'rot3': 0, 'rot2': 0, 'state': 'normal', 'yaw': 24.78, 'datetime': '2018-10-12 18:23:53.515949', 'mgs': 0, 'depth': -0.522, 'time': 14.03, 'pitch': -0.6, 'roll': -3.61}
{'lipoC2': 7.56, 'temp': 27.38, 'lipoC3S3': 11.75, 'rot1': 0, 'rot0': 0, 'rot3': 0, 'rot2': 0, 'state': 'normal', 'yaw': 24.47, 'datetime': '2018-10-12 18:23:53.613151', 'mgs': 0, 'depth': -0.446, 'time': 14.13, 'pitch': -0.86, 'roll': -3.6}
{'lipoC2': 7.55, 'temp': 27.38, 'lipoC3S3': 11.76, 'rot1': 0, 'rot0': 0, 'rot3': 0, 'rot2': 0, 'state': 'normal', 'yaw': 24.28, 'datetime': '2018-10-12 18:23:53.710899', 'mgs': 0, 'depth': -0.446, 'time': 14.23, 'pitch': -1.3, 'roll': -3.64}
{'lipoC2': 7.56, 'temp': 27.38, 'lipoC3S3': 11.76, 'rot1': 0, 'rot0': 0, 'rot3': 0, 'rot2': 0, 'state': 'normal', 'yaw': 24.19, 'datetime': '2018-10-12 18:23:53.808196', 'mgs': 0, 'depth': -0.446, 'time': 14.32, 'pitch': -1.87, 'roll': -3.79}
{'lipoC2': 7.56, 'temp': 27.38, 'lipoC3S3': 11.75, 'rot1': 0, 'rot0': 0, 'rot3': 0, 'rot2': 0, 'state': 'normal', 'yaw': 24.23, 'datetime': '2018-10-12 18:23:53.905211', 'mgs': 0, 'depth': -0.446, 'time': 14.42, 'pitch': -2.26, 'roll': -4.15}
{'lipoC2': 7.56, 'temp': 27.38, 'lipoC3S3': 11.75, 'rot1': 0, 'rot0': 0, 'rot3': 0, 'rot2': 0, 'state': 'normal', 'yaw': 24.43, 'datetime': '2018-10-12 18:23:54.002544', 'mgs': 0, 'depth': -0.446, 'time': 14.52, 'pitch': -2.22, 'roll': -4.67}
{'lipoC2': 7.55, 'temp': 27.44, 'lipoC3S3': 11.75, 'rot1': 0, 'rot0': 0, 'rot3': 0, 'rot2': 0, 'state': 'normal', 'yaw': 24.49, 'datetime': '2018-10-12 18:23:54.099672', 'mgs': 0, 'depth': -0.369, 'time': 14.62, 'pitch': -1.85, 'roll': -5.1}
{'lipoC2': 7.55, 'temp': 27.44, 'lipoC3S3': 11.75, 'rot1': 0, 'rot0': 0, 'rot3': 0, 'rot2': 0, 'state': 'normal', 'yaw': 24.23, 'datetime': '2018-10-12 18:23:54.201592', 'mgs': 0, 'depth': -0.369, 'time': 14.71, 'pitch': -1.53, 'roll': -5.36}
{'lipoC2': 7.56, 'temp': 27.38, 'lipoC3S3': 11.75, 'rot1': 0, 'rot0': 0, 'rot3': 0, 'rot2': 0, 'state': 'normal', 'yaw': 23.7, 'datetime': '2018-10-12 18:23:54.298642', 'mgs': 0, 'depth': -0.369, 'time': 14.81, 'pitch': -1.74, 'roll': -5.33}
{'lipoC2': 7.56, 'temp': 27.38, 'lipoC3S3': 11.75, 'rot1': 0, 'rot0': 0, 'rot3': 0, 'rot2': 0, 'state': 'normal', 'yaw': 23.15, 'datetime': '2018-10-12 18:23:54.395666', 'mgs': 0, 'depth': -0.369, 'time': 14.91, 'pitch': -2.17, 'roll': -5.08}
{'lipoC2': 7.55, 'temp': 27.38, 'lipoC3S3': 11.75, 'rot1': 0, 'rot0': 0, 'rot3': 0, 'rot2': 0, 'state': 'normal', 'yaw': 22.45, 'datetime': '2018-10-12 18:23:54.492922', 'mgs': 0, 'depth': -0.293, 'time': 15.01, 'pitch': -2.64, 'roll': -4.45}
{'lipoC2': 7.56, 'temp': 27.44, 'lipoC3S3': 11.75, 'rot1': 0, 'rot0': 0, 'rot3': 0, 'rot2': 0, 'state': 'normal', 'yaw': 21.69, 'datetime': '2018-10-12 18:23:54.590088', 'mgs': 0, 'depth': -0.293, 'time': 15.1, 'pitch': -3.04, 'roll': -3.83}
{'lipoC2': 7.56, 'temp': 27.44, 'lipoC3S3': 11.76, 'rot1': 0, 'rot0': 0, 'rot3': 0, 'rot2': 0, 'state': 'normal', 'yaw': 21.39, 'datetime': '2018-10-12 18:23:54.687944', 'mgs': 0, 'depth': -0.293, 'time': 15.2, 'pitch': -3.03, 'roll': -3.38}
{'lipoC2': 7.56, 'temp': 27.38, 'lipoC3S3': 11.77, 'rot1': 0, 'rot0': 0, 'rot3': 0, 'rot2': 0, 'state': 'normal', 'yaw': 21.26, 'datetime': '2018-10-12 18:23:54.786493', 'mgs': 0, 'depth': -0.369, 'time': 15.3, 'pitch': -2.78, 'roll': -2.84}
{'lipoC2': 7.56, 'temp': 27.38, 'lipoC3S3': 11.75, 'rot1': 0, 'rot0': 0, 'rot3': 0, 'rot2': 0, 'state': 'normal', 'yaw': 21.22, 'datetime': '2018-10-12 18:23:54.883524', 'mgs': 0, 'depth': -0.293, 'time': 15.4, 'pitch': -2.5, 'roll': -2.9}
{'lipoC2': 7.55, 'temp': 27.38, 'lipoC3S3': 11.75, 'rot1': 0, 'rot0': 0, 'rot3': 0, 'rot2': 0, 'state': 'normal', 'yaw': 21.15, 'datetime': '2018-10-12 18:23:54.980635', 'mgs': 0, 'depth': -0.293, 'time': 15.49, 'pitch': -2.48, 'roll': -3.22}
{'lipoC2': 7.56, 'temp': 27.5, 'lipoC3S3': 11.75, 'rot1': 0, 'rot0': 0, 'rot3': 0, 'rot2': 0, 'state': 'normal', 'yaw': 21.1, 'datetime': '2018-10-12 18:23:55.078881', 'mgs': 0, 'depth': -0.369, 'time': 15.59, 'pitch': -2.77, 'roll': -3.66}
{'lipoC2': 7.56, 'temp': 27.5, 'lipoC3S3': 11.75, 'rot1': 0, 'rot0': 0, 'rot3': 0, 'rot2': 0, 'state': 'normal', 'yaw': 21.11, 'datetime': '2018-10-12 18:23:55.176989', 'mgs': 0, 'depth': -0.369, 'time': 15.69, 'pitch': -3.28, 'roll': -4.53}
{'lipoC2': 7.56, 'temp': 27.44, 'lipoC3S3': 11.75, 'rot1': 0, 'rot0': 0, 'rot3': 0, 'rot2': 0, 'state': 'normal', 'yaw': 21.16, 'datetime': '2018-10-12 18:23:55.273878', 'mgs': 0, 'depth': -0.369, 'time': 15.79, 'pitch': -3.84, 'roll': -5.24}
{'lipoC2': 7.56, 'temp': 27.44, 'lipoC3S3': 11.75, 'rot1': 0, 'rot0': 0, 'rot3': 0, 'rot2': 0, 'state': 'normal', 'yaw': 21.27, 'datetime': '2018-10-12 18:23:55.371032', 'mgs': 0, 'depth': -0.369, 'time': 15.89, 'pitch': -4.23, 'roll': -5.48}
{'lipoC2': 7.56, 'temp': 27.44, 'lipoC3S3': 11.75, 'rot1': 0, 'rot0': 0, 'rot3': 0, 'rot2': 0, 'state': 'normal', 'yaw': 21.45, 'datetime': '2018-10-12 18:23:55.468842', 'mgs': 0, 'depth': -0.369, 'time': 15.98, 'pitch': -4.37, 'roll': -5.21}
{'lipoC2': 7.55, 'temp': 27.38, 'lipoC3S3': 11.75, 'rot1': 0, 'rot0': 0, 'rot3': 0, 'rot2': 0, 'state': 'normal', 'yaw': 21.77, 'datetime': '2018-10-12 18:23:55.566007', 'mgs': 0, 'depth': -0.446, 'time': 16.08, 'pitch': -4.19, 'roll': -4.39}
{'lipoC2': 7.55, 'temp': 27.38, 'lipoC3S3': 11.75, 'rot1': 0, 'rot0': 0, 'rot3': 0, 'rot2': 0, 'state': 'normal', 'yaw': 22.29, 'datetime': '2018-10-12 18:23:55.663420', 'mgs': 0, 'depth': -0.446, 'time': 16.18, 'pitch': -3.73, 'roll': -3.46}
{'lipoC2': 7.55, 'temp': 27.38, 'lipoC3S3': 11.75, 'rot1': 0, 'rot0': 0, 'rot3': 0, 'rot2': 0, 'state': 'normal', 'yaw': 22.81, 'datetime': '2018-10-12 18:23:55.760406', 'mgs': 0, 'depth': -0.369, 'time': 16.27, 'pitch': -3.39, 'roll': -2.86}
{'lipoC2': 7.56, 'temp': 27.38, 'lipoC3S3': 11.75, 'rot1': 0, 'rot0': 0, 'rot3': 0, 'rot2': 0, 'state': 'normal', 'yaw': 23.36, 'datetime': '2018-10-12 18:23:55.857299', 'mgs': 0, 'depth': -0.446, 'time': 16.37, 'pitch': -3.23, 'roll': -2.86}
{'lipoC2': 7.56, 'temp': 27.38, 'lipoC3S3': 11.75, 'rot1': 0, 'rot0': 0, 'rot3': 0, 'rot2': 0, 'state': 'normal', 'yaw': 23.69, 'datetime': '2018-10-12 18:23:55.954351', 'mgs': 0, 'depth': -0.293, 'time': 16.47, 'pitch': -3.62, 'roll': -3.19}
{'lipoC2': 7.56, 'temp': 27.38, 'lipoC3S3': 11.75, 'rot1': 0, 'rot0': 0, 'rot3': 0, 'rot2': 0, 'state': 'normal', 'yaw': 23.83, 'datetime': '2018-10-12 18:23:56.049906', 'mgs': 0, 'depth': -0.369, 'time': 16.57, 'pitch': -4.93, 'roll': -3.7}
{'lipoC2': 7.55, 'temp': 27.38, 'lipoC3S3': 11.75, 'rot1': 0, 'rot0': 0, 'rot3': 0, 'rot2': 0, 'state': 'normal', 'yaw': 23.96, 'datetime': '2018-10-12 18:23:56.143784', 'mgs': 0, 'depth': -0.293, 'time': 16.66, 'pitch': -6.66, 'roll': -3.81}
{'lipoC2': 7.55, 'temp': 27.44, 'lipoC3S3': 11.75, 'rot1': 0, 'rot0': 0, 'rot3': 0, 'rot2': 0, 'state': 'normal', 'yaw': 24.33, 'datetime': '2018-10-12 18:23:56.240873', 'mgs': 0, 'depth': -0.293, 'time': 16.76, 'pitch': -8.99, 'roll': -3.69}
{'lipoC2': 7.56, 'temp': 27.44, 'lipoC3S3': 11.75, 'rot1': 0, 'rot0': 0, 'rot3': 0, 'rot2': 0, 'state': 'normal', 'yaw': 25.24, 'datetime': '2018-10-12 18:23:56.338094', 'mgs': 0, 'depth': -0.217, 'time': 16.86, 'pitch': -10.98, 'roll': -3.52}
{'lipoC2': 7.55, 'temp': 27.44, 'lipoC3S3': 11.75, 'rot1': 0, 'rot0': 0, 'rot3': 0, 'rot2': 0, 'state': 'normal', 'yaw': 26.19, 'datetime': '2018-10-12 18:23:56.436101', 'mgs': 0, 'depth': -0.217, 'time': 16.96, 'pitch': -12.05, 'roll': -3.88}
{'lipoC2': 7.56, 'temp': 27.38, 'lipoC3S3': 11.75, 'rot1': 0, 'rot0': 0, 'rot3': 0, 'rot2': 0, 'state': 'normal', 'yaw': 27.13, 'datetime': '2018-10-12 18:23:56.534506', 'mgs': 0, 'depth': -0.217, 'time': 17.05, 'pitch': -11.98, 'roll': -4.59}
{'lipoC2': 7.55, 'temp': 27.38, 'lipoC3S3': 11.75, 'rot1': 0, 'rot0': 0, 'rot3': 0, 'rot2': 0, 'state': 'normal', 'yaw': 27.79, 'datetime': '2018-10-12 18:23:56.631636', 'mgs': 0, 'depth': -0.14, 'time': 17.15, 'pitch': -10.58, 'roll': -5.0}
{'lipoC2': 7.56, 'temp': 27.44, 'lipoC3S3': 11.75, 'rot1': 0, 'rot0': 0, 'rot3': 0, 'rot2': 0, 'state': 'normal', 'yaw': 28.02, 'datetime': '2018-10-12 18:23:56.728632', 'mgs': 0, 'depth': -0.369, 'time': 17.25, 'pitch': -8.43, 'roll': -5.03}
{'lipoC2': 7.56, 'temp': 27.44, 'lipoC3S3': 11.75, 'rot1': 0, 'rot0': 0, 'rot3': 0, 'rot2': 0, 'state': 'normal', 'yaw': 27.89, 'datetime': '2018-10-12 18:23:56.831539', 'mgs': 0, 'depth': -0.369, 'time': 17.35, 'pitch': -6.35, 'roll': -5.17}
{'lipoC2': 7.55, 'temp': 27.44, 'lipoC3S3': 11.75, 'rot1': 0, 'rot0': 0, 'rot3': 0, 'rot2': 0, 'state': 'normal', 'yaw': 27.59, 'datetime': '2018-10-12 18:23:56.930470', 'mgs': 0, 'depth': -0.369, 'time': 17.44, 'pitch': -4.09, 'roll': -5.35}
{'lipoC2': 7.56, 'temp': 27.38, 'lipoC3S3': 11.76, 'rot1': 0, 'rot0': 0, 'rot3': 0, 'rot2': 0, 'state': 'normal', 'yaw': 27.45, 'datetime': '2018-10-12 18:23:57.027052', 'mgs': 0, 'depth': -0.446, 'time': 17.54, 'pitch': -1.95, 'roll': -5.48}
{'lipoC2': 7.56, 'temp': 27.38, 'lipoC3S3': 11.76, 'rot1': 0, 'rot0': 0, 'rot3': 0, 'rot2': 0, 'state': 'normal', 'yaw': 27.37, 'datetime': '2018-10-12 18:23:57.124481', 'mgs': 0, 'depth': -0.446, 'time': 17.64, 'pitch': -0.14, 'roll': -5.27}
{'lipoC2': 7.56, 'temp': 27.44, 'lipoC3S3': 11.75, 'rot1': 0, 'rot0': 0, 'rot3': 0, 'rot2': 0, 'state': 'normal', 'yaw': 27.32, 'datetime': '2018-10-12 18:23:57.222331', 'mgs': 0, 'depth': -0.598, 'time': 17.74, 'pitch': 1.2, 'roll': -4.93}
{'lipoC2': 7.55, 'temp': 27.44, 'lipoC3S3': 11.76, 'rot1': 0, 'rot0': 0, 'rot3': 0, 'rot2': 0, 'state': 'normal', 'yaw': 27.38, 'datetime': '2018-10-12 18:23:57.319108', 'mgs': 0, 'depth': -0.446, 'time': 17.83, 'pitch': 2.61, 'roll': -4.81}
{'lipoC2': 7.56, 'temp': 27.44, 'lipoC3S3': 11.75, 'rot1': 0, 'rot0': 0, 'rot3': 0, 'rot2': 0, 'state': 'normal', 'yaw': 27.37, 'datetime': '2018-10-12 18:23:57.416152', 'mgs': 0, 'depth': -0.522, 'time': 17.93, 'pitch': 3.88, 'roll': -5.0}
{'lipoC2': 7.56, 'temp': 27.44, 'lipoC3S3': 11.75, 'rot1': 0, 'rot0': 0, 'rot3': 0, 'rot2': 0, 'state': 'normal', 'yaw': 27.33, 'datetime': '2018-10-12 18:23:57.513372', 'mgs': 0, 'depth': -0.446, 'time': 18.03, 'pitch': 4.43, 'roll': -5.15}
{'lipoC2': 7.55, 'temp': 27.44, 'lipoC3S3': 11.76, 'rot1': 0, 'rot0': 0, 'rot3': 0, 'rot2': 0, 'state': 'normal', 'yaw': 27.33, 'datetime': '2018-10-12 18:23:57.610300', 'mgs': 0, 'depth': -0.446, 'time': 18.13, 'pitch': 4.35, 'roll': -5.31}
{'lipoC2': 7.56, 'temp': 27.38, 'lipoC3S3': 11.75, 'rot1': 0, 'rot0': 0, 'rot3': 0, 'rot2': 0, 'state': 'normal', 'yaw': 27.37, 'datetime': '2018-10-12 18:23:57.708212', 'mgs': 0, 'depth': -0.446, 'time': 18.22, 'pitch': 3.91, 'roll': -5.73}
{'lipoC2': 7.56, 'temp': 27.38, 'lipoC3S3': 11.75, 'rot1': 0, 'rot0': 0, 'rot3': 0, 'rot2': 0, 'state': 'normal', 'yaw': 27.44, 'datetime': '2018-10-12 18:23:57.804614', 'mgs': 0, 'depth': -0.369, 'time': 18.32, 'pitch': 3.42, 'roll': -6.27}
{'lipoC2': 7.56, 'temp': 27.44, 'lipoC3S3': 11.76, 'rot1': 0, 'rot0': 0, 'rot3': 0, 'rot2': 0, 'state': 'normal', 'yaw': 27.59, 'datetime': '2018-10-12 18:23:57.905862', 'mgs': 0, 'depth': -0.293, 'time': 18.42, 'pitch': 3.07, 'roll': -6.69}
{'lipoC2': 7.56, 'temp': 27.44, 'lipoC3S3': 11.75, 'rot1': 0, 'rot0': 0, 'rot3': 0, 'rot2': 0, 'state': 'normal', 'yaw': 27.79, 'datetime': '2018-10-12 18:23:57.991090', 'mgs': 0, 'depth': -0.293, 'time': 18.51, 'pitch': 2.69, 'roll': -7.04}
{'lipoC2': 7.56, 'temp': 27.44, 'lipoC3S3': 11.76, 'rot1': 0, 'rot0': 0, 'rot3': 0, 'rot2': 0, 'state': 'normal', 'yaw': 28.01, 'datetime': '2018-10-12 18:23:58.088160', 'mgs': 0, 'depth': -0.293, 'time': 18.61, 'pitch': 2.24, 'roll': -7.13}
{'lipoC2': 7.56, 'temp': 27.38, 'lipoC3S3': 11.75, 'rot1': 0, 'rot0': 0, 'rot3': 0, 'rot2': 0, 'state': 'normal', 'yaw': 28.27, 'datetime': '2018-10-12 18:23:58.186391', 'mgs': 0, 'depth': -0.369, 'time': 18.71, 'pitch': 1.8, 'roll': -6.92}
{'lipoC2': 7.56, 'temp': 27.38, 'lipoC3S3': 11.75, 'rot1': 0, 'rot0': 0, 'rot3': 0, 'rot2': 0, 'state': 'normal', 'yaw': 28.62, 'datetime': '2018-10-12 18:23:58.284771', 'mgs': 0, 'depth': -0.293, 'time': 18.81, 'pitch': 1.23, 'roll': -6.59}
{'lipoC2': 7.56, 'temp': 27.38, 'lipoC3S3': 11.76, 'rot1': 0, 'rot0': 0, 'rot3': 0, 'rot2': 0, 'state': 'normal', 'yaw': 28.98, 'datetime': '2018-10-12 18:23:58.381871', 'mgs': 0, 'depth': -0.293, 'time': 18.91, 'pitch': 0.73, 'roll': -6.3}
{'lipoC2': 7.55, 'temp': 27.38, 'lipoC3S3': 11.75, 'rot1': 0, 'rot0': 0, 'rot3': 0, 'rot2': 0, 'state': 'normal', 'yaw': 29.39, 'datetime': '2018-10-12 18:23:58.478976', 'mgs': 0, 'depth': -0.217, 'time': 19.0, 'pitch': 0.5, 'roll': -6.19}
{'lipoC2': 7.56, 'temp': 27.38, 'lipoC3S3': 11.75, 'rot1': 0, 'rot0': 0, 'rot3': 0, 'rot2': 0, 'state': 'normal', 'yaw': 29.76, 'datetime': '2018-10-12 18:23:58.576908', 'mgs': 0, 'depth': -0.293, 'time': 19.1, 'pitch': 0.52, 'roll': -6.35}
{'lipoC2': 7.56, 'temp': 27.38, 'lipoC3S3': 11.76, 'rot1': 0, 'rot0': 0, 'rot3': 0, 'rot2': 0, 'state': 'normal', 'yaw': 30.08, 'datetime': '2018-10-12 18:23:58.678450', 'mgs': 0, 'depth': -0.369, 'time': 19.2, 'pitch': 0.59, 'roll': -6.93}
{'lipoC2': 7.55, 'temp': 27.38, 'lipoC3S3': 11.75, 'rot1': 0, 'rot0': 0, 'rot3': 0, 'rot2': 0, 'state': 'normal', 'yaw': 30.34, 'datetime': '2018-10-12 18:23:58.780473', 'mgs': 0, 'depth': -0.217, 'time': 19.3, 'pitch': 0.51, 'roll': -7.62}
{'lipoC2': 7.55, 'temp': 27.5, 'lipoC3S3': 11.75, 'rot1': 0, 'rot0': 0, 'rot3': 0, 'rot2': 0, 'state': 'normal', 'yaw': 30.63, 'datetime': '2018-10-12 18:23:58.877430', 'mgs': 0, 'depth': -0.217, 'time': 19.39, 'pitch': 0.12, 'roll': -8.16}
{'lipoC2': 7.55, 'temp': 27.5, 'lipoC3S3': 11.75, 'rot1': 0, 'rot0': 0, 'rot3': 0, 'rot2': 0, 'state': 'normal', 'yaw': 30.99, 'datetime': '2018-10-12 18:23:58.975650', 'mgs': 0, 'depth': -0.14, 'time': 19.49, 'pitch': -0.41, 'roll': -8.52}
{'lipoC2': 7.56, 'temp': 27.5, 'lipoC3S3': 11.76, 'rot1': 0, 'rot0': 0, 'rot3': 0, 'rot2': 0, 'state': 'normal', 'yaw': 31.43, 'datetime': '2018-10-12 18:23:59.072647', 'mgs': 0, 'depth': -0.293, 'time': 19.59, 'pitch': -0.93, 'roll': -8.76}
{'lipoC2': 7.56, 'temp': 27.44, 'lipoC3S3': 11.75, 'rot1': 0, 'rot0': 0, 'rot3': 0, 'rot2': 0, 'state': 'normal', 'yaw': 31.8, 'datetime': '2018-10-12 18:23:59.169723', 'mgs': 0, 'depth': -0.293, 'time': 19.69, 'pitch': -1.15, 'roll': -8.79}
{'lipoC2': 7.55, 'temp': 27.44, 'lipoC3S3': 11.75, 'rot1': 0, 'rot0': 0, 'rot3': 0, 'rot2': 0, 'state': 'normal', 'yaw': 32.03, 'datetime': '2018-10-12 18:23:59.266889', 'mgs': 0, 'depth': -0.217, 'time': 19.78, 'pitch': -1.03, 'roll': -8.79}
{'lipoC2': 7.56, 'temp': 27.38, 'lipoC3S3': 11.75, 'rot1': 0, 'rot0': 0, 'rot3': 0, 'rot2': 0, 'state': 'normal', 'yaw': 32.16, 'datetime': '2018-10-12 18:23:59.363953', 'mgs': 0, 'depth': -0.217, 'time': 19.88, 'pitch': -0.76, 'roll': -8.72}
{'lipoC2': 7.55, 'temp': 27.38, 'lipoC3S3': 11.76, 'rot1': 0, 'rot0': 0, 'rot3': 0, 'rot2': 0, 'state': 'normal', 'yaw': 32.29, 'datetime': '2018-10-12 18:23:59.461418', 'mgs': 0, 'depth': -0.217, 'time': 19.98, 'pitch': -0.38, 'roll': -8.61}
{'lipoC2': 7.56, 'temp': 27.38, 'lipoC3S3': 11.76, 'rot1': 0, 'rot0': 0, 'rot3': 0, 'rot2': 0, 'state': 'normal', 'yaw': 32.41, 'datetime': '2018-10-12 18:23:59.558225', 'mgs': 0, 'depth': -0.293, 'time': 20.08, 'pitch': -0.04, 'roll': -8.46}
{'lipoC2': 7.56, 'temp': 27.38, 'lipoC3S3': 11.75, 'rot1': 0, 'rot0': 0, 'rot3': 0, 'rot2': 0, 'state': 'normal', 'yaw': 32.56, 'datetime': '2018-10-12 18:23:59.655331', 'mgs': 0, 'depth': -0.293, 'time': 20.17, 'pitch': 0.3, 'roll': -8.39}
{'lipoC2': 7.55, 'temp': 27.38, 'lipoC3S3': 11.75, 'rot1': 0, 'rot0': 0, 'rot3': 0, 'rot2': 0, 'state': 'normal', 'yaw': 32.83, 'datetime': '2018-10-12 18:23:59.752472', 'mgs': 0, 'depth': -0.293, 'time': 20.27, 'pitch': 0.7, 'roll': -8.31}
{'lipoC2': 7.56, 'temp': 27.31, 'lipoC3S3': 11.75, 'rot1': 0, 'rot0': 0, 'rot3': 0, 'rot2': 0, 'state': 'normal', 'yaw': 33.06, 'datetime': '2018-10-12 18:23:59.849650', 'mgs': 0, 'depth': -0.293, 'time': 20.37, 'pitch': 1.14, 'roll': -8.33}
{'lipoC2': 7.55, 'temp': 27.31, 'lipoC3S3': 11.75, 'rot1': 0, 'rot0': 0, 'rot3': 0, 'rot2': 0, 'state': 'normal', 'yaw': 33.1, 'datetime': '2018-10-12 18:23:59.947692', 'mgs': 0, 'depth': -0.217, 'time': 20.47, 'pitch': 1.46, 'roll': -8.42}
{'lipoC2': 7.55, 'temp': 27.31, 'lipoC3S3': 11.75, 'rot1': 0, 'rot0': 0, 'rot3': 0, 'rot2': 0, 'state': 'normal', 'yaw': 33.05, 'datetime': '2018-10-12 18:24:00.046064', 'mgs': 0, 'depth': -0.293, 'time': 20.56, 'pitch': 1.61, 'roll': -8.53}
{'lipoC2': 7.55, 'temp': 27.5, 'lipoC3S3': 11.76, 'rot1': 0, 'rot0': 0, 'rot3': 0, 'rot2': 0, 'state': 'normal', 'yaw': 33.01, 'datetime': '2018-10-12 18:24:00.143409', 'mgs': 0, 'depth': -0.293, 'time': 20.66, 'pitch': 1.53, 'roll': -8.7}
{'lipoC2': 7.56, 'temp': 27.5, 'lipoC3S3': 11.76, 'rot1': 0, 'rot0': 0, 'rot3': 0, 'rot2': 0, 'state': 'normal', 'yaw': 32.98, 'datetime': '2018-10-12 18:24:00.240224', 'mgs': 0, 'depth': -0.293, 'time': 20.76, 'pitch': 1.28, 'roll': -9.18}
{'lipoC2': 7.56, 'temp': 27.44, 'lipoC3S3': 11.75, 'rot1': 0, 'rot0': 0, 'rot3': 0, 'rot2': 0, 'state': 'normal', 'yaw': 32.95, 'datetime': '2018-10-12 18:24:00.338180', 'mgs': 0, 'depth': -0.369, 'time': 20.86, 'pitch': 0.92, 'roll': -9.98}
{'lipoC2': 7.55, 'temp': 27.44, 'lipoC3S3': 11.75, 'rot1': 0, 'rot0': 0, 'rot3': 0, 'rot2': 0, 'state': 'normal', 'yaw': 32.89, 'datetime': '2018-10-12 18:24:00.436483', 'mgs': 0, 'depth': -0.369, 'time': 20.95, 'pitch': 0.51, 'roll': -11.0}
{'lipoC2': 7.55, 'temp': 27.44, 'lipoC3S3': 11.76, 'rot1': 0, 'rot0': 0, 'rot3': 0, 'rot2': 0, 'state': 'normal', 'yaw': 32.81, 'datetime': '2018-10-12 18:24:00.533634', 'mgs': 0, 'depth': -0.369, 'time': 21.05, 'pitch': 0.23, 'roll': -11.7}
{'lipoC2': 7.56, 'temp': 27.38, 'lipoC3S3': 11.75, 'rot1': 0, 'rot0': 0, 'rot3': 0, 'rot2': 0, 'state': 'normal', 'yaw': 32.76, 'datetime': '2018-10-12 18:24:00.630965', 'mgs': 0, 'depth': -0.369, 'time': 21.15, 'pitch': 0.22, 'roll': -11.71}
{'lipoC2': 7.55, 'temp': 27.38, 'lipoC3S3': 11.75, 'rot1': 0, 'rot0': 0, 'rot3': 0, 'rot2': 0, 'state': 'normal', 'yaw': 32.72, 'datetime': '2018-10-12 18:24:00.728672', 'mgs': 0, 'depth': -0.369, 'time': 21.25, 'pitch': 0.44, 'roll': -11.17}
{'lipoC2': 7.56, 'temp': 27.38, 'lipoC3S3': 11.75, 'rot1': 0, 'rot0': 0, 'rot3': 0, 'rot2': 0, 'state': 'normal', 'yaw': 32.62, 'datetime': '2018-10-12 18:24:00.825723', 'mgs': 0, 'depth': -0.293, 'time': 21.34, 'pitch': 0.8, 'roll': -10.54}
{'lipoC2': 7.56, 'temp': 27.38, 'lipoC3S3': 11.75, 'rot1': 0, 'rot0': 0, 'rot3': 0, 'rot2': 0, 'state': 'normal', 'yaw': 32.55, 'datetime': '2018-10-12 18:24:00.922812', 'mgs': 0, 'depth': -0.293, 'time': 21.44, 'pitch': 1.09, 'roll': -10.39}
{'lipoC2': 7.56, 'temp': 27.38, 'lipoC3S3': 11.76, 'rot1': 0, 'rot0': 0, 'rot3': 0, 'rot2': 0, 'state': 'normal', 'yaw': 32.61, 'datetime': '2018-10-12 18:24:01.020869', 'mgs': 0, 'depth': -0.293, 'time': 21.54, 'pitch': 1.15, 'roll': -10.35}
{'lipoC2': 7.55, 'temp': 27.31, 'lipoC3S3': 11.76, 'rot1': 0, 'rot0': 0, 'rot3': 0, 'rot2': 0, 'state': 'normal', 'yaw': 32.71, 'datetime': '2018-10-12 18:24:01.112474', 'mgs': 0, 'depth': -0.369, 'time': 21.64, 'pitch': 0.86, 'roll': -10.35}
{'lipoC2': 7.55, 'temp': 27.31, 'lipoC3S3': 11.75, 'rot1': 0, 'rot0': 0, 'rot3': 0, 'rot2': 0, 'state': 'normal', 'yaw': 32.76, 'datetime': '2018-10-12 18:24:01.209317', 'mgs': 0, 'depth': -0.446, 'time': 21.73, 'pitch': 0.27, 'roll': -10.07}
{'lipoC2': 7.55, 'temp': 27.38, 'lipoC3S3': 11.75, 'rot1': 0, 'rot0': 0, 'rot3': 0, 'rot2': 0, 'state': 'normal', 'yaw': 32.71, 'datetime': '2018-10-12 18:24:01.311302', 'mgs': 0, 'depth': -0.446, 'time': 21.83, 'pitch': -0.37, 'roll': -9.48}
{'lipoC2': 7.56, 'temp': 27.38, 'lipoC3S3': 11.75, 'rot1': 0, 'rot0': 0, 'rot3': 0, 'rot2': 0, 'state': 'normal', 'yaw': 32.6, 'datetime': '2018-10-12 18:24:01.408368', 'mgs': 0, 'depth': -0.446, 'time': 21.93, 'pitch': -0.68, 'roll': -9.0}
{'lipoC2': 7.55, 'temp': 27.38, 'lipoC3S3': 11.75, 'rot1': 0, 'rot0': 0, 'rot3': 0, 'rot2': 0, 'state': 'normal', 'yaw': 32.37, 'datetime': '2018-10-12 18:24:01.505593', 'mgs': 0, 'depth': -0.369, 'time': 22.02, 'pitch': -0.7, 'roll': -8.86}
{'lipoC2': 7.55, 'temp': 27.44, 'lipoC3S3': 11.75, 'rot1': 0, 'rot0': 0, 'rot3': 0, 'rot2': 0, 'state': 'normal', 'yaw': 32.07, 'datetime': '2018-10-12 18:24:01.602830', 'mgs': 0, 'depth': -0.446, 'time': 22.12, 'pitch': -0.53, 'roll': -9.0}
{'lipoC2': 7.55, 'temp': 27.44, 'lipoC3S3': 11.75, 'rot1': 0, 'rot0': 0, 'rot3': 0, 'rot2': 0, 'state': 'normal', 'yaw': 31.63, 'datetime': '2018-10-12 18:24:01.700645', 'mgs': 0, 'depth': -0.369, 'time': 22.22, 'pitch': -0.33, 'roll': -9.36}
{'lipoC2': 7.56, 'temp': 27.38, 'lipoC3S3': 11.76, 'rot1': 0, 'rot0': 0, 'rot3': 0, 'rot2': 0, 'state': 'normal', 'yaw': 30.98, 'datetime': '2018-10-12 18:24:01.799063', 'mgs': 0, 'depth': -0.369, 'time': 22.32, 'pitch': -0.19, 'roll': -9.54}
{'lipoC2': 7.55, 'temp': 27.38, 'lipoC3S3': 11.75, 'rot1': 0, 'rot0': 0, 'rot3': 0, 'rot2': 0, 'state': 'normal', 'yaw': 30.21, 'datetime': '2018-10-12 18:24:01.896131', 'mgs': 0, 'depth': -0.369, 'time': 22.42, 'pitch': -0.14, 'roll': -8.95}
{'lipoC2': 7.56, 'temp': 27.38, 'lipoC3S3': 11.75, 'rot1': 0, 'rot0': 0, 'rot3': 0, 'rot2': 0, 'state': 'normal', 'yaw': 29.42, 'datetime': '2018-10-12 18:24:01.993316', 'mgs': 0, 'depth': -0.369, 'time': 22.51, 'pitch': -0.06, 'roll': -7.65}
{'lipoC2': 7.56, 'temp': 27.38, 'lipoC3S3': 11.75, 'rot1': 0, 'rot0': 0, 'rot3': 0, 'rot2': 0, 'state': 'normal', 'yaw': 28.8, 'datetime': '2018-10-12 18:24:02.091064', 'mgs': 0, 'depth': -0.369, 'time': 22.61, 'pitch': 0.13, 'roll': -6.36}
{'lipoC2': 7.56, 'temp': 27.38, 'lipoC3S3': 11.75, 'rot1': 0, 'rot0': 0, 'rot3': 0, 'rot2': 0, 'state': 'normal', 'yaw': 28.29, 'datetime': '2018-10-12 18:24:02.189652', 'mgs': 0, 'depth': -0.446, 'time': 22.71, 'pitch': 0.51, 'roll': -5.26}
{'lipoC2': 7.55, 'temp': 27.38, 'lipoC3S3': 11.75, 'rot1': 0, 'rot0': 0, 'rot3': 0, 'rot2': 0, 'state': 'normal', 'yaw': 27.94, 'datetime': '2018-10-12 18:24:02.287949', 'mgs': 0, 'depth': -0.446, 'time': 22.81, 'pitch': 0.97, 'roll': -4.94}
{'lipoC2': 7.56, 'temp': 27.38, 'lipoC3S3': 11.75, 'rot1': 0, 'rot0': 0, 'rot3': 0, 'rot2': 0, 'state': 'normal', 'yaw': 27.77, 'datetime': '2018-10-12 18:24:02.384906', 'mgs': 0, 'depth': -0.369, 'time': 22.91, 'pitch': 1.35, 'roll': -5.16}
{'lipoC2': 7.56, 'temp': 27.38, 'lipoC3S3': 11.76, 'rot1': 0, 'rot0': 0, 'rot3': 0, 'rot2': 0, 'state': 'normal', 'yaw': 27.73, 'datetime': '2018-10-12 18:24:02.482515', 'mgs': 0, 'depth': -0.446, 'time': 23.0, 'pitch': 1.55, 'roll': -5.36}
{'lipoC2': 7.55, 'temp': 27.38, 'lipoC3S3': 11.75, 'rot1': 0, 'rot0': 0, 'rot3': 0, 'rot2': 0, 'state': 'normal', 'yaw': 27.55, 'datetime': '2018-10-12 18:24:02.580162', 'mgs': 0, 'depth': -0.369, 'time': 23.1, 'pitch': 1.56, 'roll': -5.17}
{'lipoC2': 7.56, 'temp': 27.38, 'lipoC3S3': 11.75, 'rot1': 0, 'rot0': 0, 'rot3': 0, 'rot2': 0, 'state': 'normal', 'yaw': 27.23, 'datetime': '2018-10-12 18:24:02.677341', 'mgs': 0, 'depth': -0.369, 'time': 23.2, 'pitch': 1.45, 'roll': -4.48}
{'lipoC2': 7.55, 'temp': 27.38, 'lipoC3S3': 11.75, 'rot1': 0, 'rot0': 0, 'rot3': 0, 'rot2': 0, 'state': 'normal', 'yaw': 26.83, 'datetime': '2018-10-12 18:24:02.774558', 'mgs': 0, 'depth': -0.293, 'time': 23.3, 'pitch': 1.16, 'roll': -3.72}
{'lipoC2': 7.56, 'temp': 27.38, 'lipoC3S3': 11.75, 'rot1': 0, 'rot0': 0, 'rot3': 0, 'rot2': 0, 'state': 'normal', 'yaw': 26.43, 'datetime': '2018-10-12 18:24:02.871580', 'mgs': 0, 'depth': -0.369, 'time': 23.39, 'pitch': 0.7, 'roll': -3.1}
{'lipoC2': 7.56, 'temp': 27.38, 'lipoC3S3': 11.75, 'rot1': 0, 'rot0': 0, 'rot3': 0, 'rot2': 0, 'state': 'normal', 'yaw': 26.02, 'datetime': '2018-10-12 18:24:02.968698', 'mgs': 0, 'depth': -0.369, 'time': 23.49, 'pitch': 0.06, 'roll': -2.67}
{'lipoC2': 7.55, 'temp': 27.38, 'lipoC3S3': 11.76, 'rot1': 0, 'rot0': 0, 'rot3': 0, 'rot2': 0, 'state': 'normal', 'yaw': 25.66, 'datetime': '2018-10-12 18:24:03.066100', 'mgs': 0, 'depth': -0.369, 'time': 23.59, 'pitch': -0.69, 'roll': -2.66}
{'lipoC2': 7.56, 'temp': 27.38, 'lipoC3S3': 11.75, 'rot1': 0, 'rot0': 0, 'rot3': 0, 'rot2': 0, 'state': 'normal', 'yaw': 25.43, 'datetime': '2018-10-12 18:24:03.163400', 'mgs': 0, 'depth': -0.369, 'time': 23.68, 'pitch': -1.36, 'roll': -3.05}
{'lipoC2': 7.56, 'temp': 27.38, 'lipoC3S3': 11.75, 'rot1': 0, 'rot0': 0, 'rot3': 0, 'rot2': 0, 'state': 'normal', 'yaw': 25.23, 'datetime': '2018-10-12 18:24:03.260148', 'mgs': 0, 'depth': -0.369, 'time': 23.78, 'pitch': -2.05, 'roll': -3.71}
{'lipoC2': 7.55, 'temp': 27.38, 'lipoC3S3': 11.76, 'rot1': 0, 'rot0': 0, 'rot3': 0, 'rot2': 0, 'state': 'normal', 'yaw': 25.01, 'datetime': '2018-10-12 18:24:03.357444', 'mgs': 0, 'depth': -0.293, 'time': 23.88, 'pitch': -2.61, 'roll': -4.51}
{'lipoC2': 7.56, 'temp': 27.38, 'lipoC3S3': 11.76, 'rot1': 0, 'rot0': 0, 'rot3': 0, 'rot2': 0, 'state': 'normal', 'yaw': 24.73, 'datetime': '2018-10-12 18:24:03.454366', 'mgs': 0, 'depth': -0.293, 'time': 23.98, 'pitch': -2.95, 'roll': -5.17}
{'lipoC2': 7.56, 'temp': 27.31, 'lipoC3S3': 11.75, 'rot1': 0, 'rot0': 0, 'rot3': 0, 'rot2': 0, 'state': 'normal', 'yaw': 24.47, 'datetime': '2018-10-12 18:24:03.548570', 'mgs': 0, 'depth': -0.293, 'time': 24.08, 'pitch': -2.96, 'roll': -5.59}
{'lipoC2': 7.55, 'temp': 27.31, 'lipoC3S3': 11.75, 'rot1': 0, 'rot0': 0, 'rot3': 0, 'rot2': 0, 'state': 'normal', 'yaw': 24.25, 'datetime': '2018-10-12 18:24:03.646275', 'mgs': 0, 'depth': -0.293, 'time': 24.17, 'pitch': -2.78, 'roll': -5.88}
{'lipoC2': 7.55, 'temp': 27.44, 'lipoC3S3': 11.75, 'rot1': 0, 'rot0': 0, 'rot3': 0, 'rot2': 0, 'state': 'normal', 'yaw': 24.21, 'datetime': '2018-10-12 18:24:03.743645', 'mgs': 0, 'depth': -0.293, 'time': 24.27, 'pitch': -2.58, 'roll': -5.84}
{'lipoC2': 7.56, 'temp': 27.44, 'lipoC3S3': 11.75, 'rot1': 0, 'rot0': 0, 'rot3': 0, 'rot2': 0, 'state': 'normal', 'yaw': 24.25, 'datetime': '2018-10-12 18:24:03.840740', 'mgs': 0, 'depth': -0.293, 'time': 24.37, 'pitch': -2.44, 'roll': -5.62}
{'lipoC2': 7.56, 'temp': 27.44, 'lipoC3S3': 11.75, 'rot1': 0, 'rot0': 0, 'rot3': 0, 'rot2': 0, 'state': 'normal', 'yaw': 24.46, 'datetime': '2018-10-12 18:24:03.939084', 'mgs': 0, 'depth': -0.369, 'time': 24.47, 'pitch': -2.29, 'roll': -5.8}
{'lipoC2': 7.55, 'temp': 27.38, 'lipoC3S3': 11.75, 'rot1': 0, 'rot0': 0, 'rot3': 0, 'rot2': 0, 'state': 'normal', 'yaw': 24.61, 'datetime': '2018-10-12 18:24:04.037460', 'mgs': 0, 'depth': -0.369, 'time': 24.56, 'pitch': -2.21, 'roll': -6.54}
{'lipoC2': 7.56, 'temp': 27.38, 'lipoC3S3': 11.76, 'rot1': 0, 'rot0': 0, 'rot3': 0, 'rot2': 0, 'state': 'normal', 'yaw': 24.59, 'datetime': '2018-10-12 18:24:04.134531', 'mgs': 0, 'depth': -0.369, 'time': 24.66, 'pitch': -2.09, 'roll': -7.45}
{'lipoC2': 7.55, 'temp': 27.38, 'lipoC3S3': 11.75, 'rot1': 0, 'rot0': 0, 'rot3': 0, 'rot2': 0, 'state': 'normal', 'yaw': 24.47, 'datetime': '2018-10-12 18:24:04.231717', 'mgs': 0, 'depth': -0.446, 'time': 24.76, 'pitch': -1.89, 'roll': -8.45}
{'lipoC2': 7.56, 'temp': 27.38, 'lipoC3S3': 11.75, 'rot1': 0, 'rot0': 0, 'rot3': 0, 'rot2': 0, 'state': 'normal', 'yaw': 24.37, 'datetime': '2018-10-12 18:24:04.329949', 'mgs': 0, 'depth': -0.369, 'time': 24.86, 'pitch': -1.69, 'roll': -9.04}
{'lipoC2': 7.55, 'temp': 27.38, 'lipoC3S3': 11.76, 'rot1': 0, 'rot0': 0, 'rot3': 0, 'rot2': 0, 'state': 'normal', 'yaw': 24.4, 'datetime': '2018-10-12 18:24:04.426603', 'mgs': 0, 'depth': -0.446, 'time': 24.95, 'pitch': -1.46, 'roll': -8.97}
{'lipoC2': 7.55, 'temp': 27.38, 'lipoC3S3': 11.76, 'rot1': 0, 'rot0': 0, 'rot3': 0, 'rot2': 0, 'state': 'normal', 'yaw': 24.53, 'datetime': '2018-10-12 18:24:04.523699', 'mgs': 0, 'depth': -0.522, 'time': 25.05, 'pitch': -1.14, 'roll': -8.25}
{'lipoC2': 7.56, 'temp': 27.38, 'lipoC3S3': 11.76, 'rot1': 0, 'rot0': 0, 'rot3': 0, 'rot2': 0, 'state': 'normal', 'yaw': 24.7, 'datetime': '2018-10-12 18:24:04.622426', 'mgs': 0, 'depth': -0.293, 'time': 25.15, 'pitch': -0.73, 'roll': -7.6}
{'lipoC2': 7.55, 'temp': 27.44, 'lipoC3S3': 11.75, 'rot1': 0, 'rot0': 0, 'rot3': 0, 'rot2': 0, 'state': 'normal', 'yaw': 24.88, 'datetime': '2018-10-12 18:24:04.718161', 'mgs': 0, 'depth': -0.369, 'time': 25.25, 'pitch': -0.15, 'roll': -7.13}
{'lipoC2': 7.56, 'temp': 27.44, 'lipoC3S3': 11.75, 'rot1': 0, 'rot0': 0, 'rot3': 0, 'rot2': 0, 'state': 'normal', 'yaw': 25.12, 'datetime': '2018-10-12 18:24:04.815369', 'mgs': 0, 'depth': -0.369, 'time': 25.34, 'pitch': 0.39, 'roll': -6.72}
