{'lipoC2': 8.37, 'temp': 26.38, 'lipoC3S3': 12.7, 'rot1': 0, 'rot0': 1, 'rot3': 1, 'rot2': 1, 'state': 'normal', 'yaw': -4.66, 'datetime': '2018-10-12 18:36:17.871759', 'mgs': 0, 'depth': -0.064, 'time': 135.29, 'pitch': 0.28, 'roll': -3.81}
{'lipoC2': 8.37, 'temp': 26.38, 'lipoC3S3': 12.68, 'rot1': 0, 'rot0': 1, 'rot3': 1, 'rot2': 1, 'state': 'normal', 'yaw': -4.66, 'datetime': '2018-10-12 18:36:17.889586', 'mgs': 0, 'depth': -0.064, 'time': 135.38, 'pitch': 0.28, 'roll': -3.81}
{'lipoC2': 8.37, 'temp': 26.38, 'lipoC3S3': 12.68, 'rot1': 0, 'rot0': 1, 'rot3': 1, 'rot2': 1, 'state': 'normal', 'yaw': -4.66, 'datetime': '2018-10-12 18:36:17.898844', 'mgs': 0, 'depth': -0.064, 'time': 135.48, 'pitch': 0.28, 'roll': -3.81}
{'lipoC2': 8.37, 'temp': 26.38, 'lipoC3S3': 12.7, 'rot1': 0, 'rot0': 1, 'rot3': 1, 'rot2': 1, 'state': 'normal', 'yaw': -4.66, 'datetime': '2018-10-12 18:36:17.906678', 'mgs': 0, 'depth': -0.064, 'time': 135.58, 'pitch': 0.28, 'roll': -3.81}
{'lipoC2': 8.37, 'temp': 26.38, 'lipoC3S3': 12.68, 'rot1': 0, 'rot0': 0, 'rot3': 0, 'rot2': 0, 'state': 'normal', 'yaw': 0.0, 'datetime': '2018-10-12 18:36:17.914621', 'mgs': 0, 'depth': -0.064, 'time': 1.26, 'pitch': 0.28, 'roll': -3.81}
{'lipoC2': 8.37, 'temp': 26.38, 'lipoC3S3': 12.68, 'rot1': 0, 'rot0': 0, 'rot3': 0, 'rot2': 0, 'state': 'normal', 'yaw': 0.0, 'datetime': '2018-10-12 18:36:17.922371', 'mgs': 0, 'depth': -0.14, 'time': 1.36, 'pitch': 0.28, 'roll': -3.81}
{'lipoC2': 8.37, 'temp': 26.44, 'lipoC3S3': 12.68, 'rot1': 0, 'rot0': 0, 'rot3': 0, 'rot2': 0, 'state': 'normal', 'yaw': 0.0, 'datetime': '2018-10-12 18:36:17.930271', 'mgs': 0, 'depth': -0.14, 'time': 1.46, 'pitch': 0.28, 'roll': -3.81}
{'lipoC2': 8.37, 'temp': 26.44, 'lipoC3S3': 12.67, 'rot1': 0, 'rot0': 0, 'rot3': 0, 'rot2': 0, 'state': 'normal', 'yaw': 0.0, 'datetime': '2018-10-12 18:36:17.938083', 'mgs': 0, 'depth': -0.064, 'time': 1.55, 'pitch': 0.28, 'roll': -3.81}
{'lipoC2': 8.37, 'temp': 26.44, 'lipoC3S3': 12.68, 'rot1': 0, 'rot0': 0, 'rot3': 0, 'rot2': 0, 'state': 'normal', 'yaw': 0.0, 'datetime': '2018-10-12 18:36:17.945968', 'mgs': 0, 'depth': -0.14, 'time': 1.65, 'pitch': 0.28, 'roll': -3.81}
{'lipoC2': 8.37, 'temp': 26.38, 'lipoC3S3': 12.68, 'rot1': 0, 'rot0': 0, 'rot3': 0, 'rot2': 0, 'state': 'normal', 'yaw': 0.0, 'datetime': '2018-10-12 18:36:17.953712', 'mgs': 0, 'depth': -0.064, 'time': 1.75, 'pitch': 0.28, 'roll': -3.81}
{'lipoC2': 8.37, 'temp': 26.38, 'lipoC3S3': 12.68, 'rot1': 0, 'rot0': 0, 'rot3': 0, 'rot2': 0, 'state': 'normal', 'yaw': 0.0, 'datetime': '2018-10-12 18:36:17.961525', 'mgs': 0, 'depth': -0.14, 'time': 1.85, 'pitch': 0.28, 'roll': -3.81}
{'lipoC2': 8.37, 'temp': 26.38, 'lipoC3S3': 12.68, 'rot1': 0, 'rot0': 0, 'rot3': 0, 'rot2': 0, 'state': 'normal', 'yaw': 0.0, 'datetime': '2018-10-12 18:36:17.969150', 'mgs': 0, 'depth': -0.14, 'time': 1.95, 'pitch': 0.28, 'roll': -3.81}
{'lipoC2': 8.37, 'temp': 26.38, 'lipoC3S3': 12.68, 'rot1': 0, 'rot0': 0, 'rot3': 0, 'rot2': 0, 'state': 'normal', 'yaw': 0.0, 'datetime': '2018-10-12 18:36:17.977844', 'mgs': 0, 'depth': -0.14, 'time': 2.04, 'pitch': 0.28, 'roll': -3.81}
{'lipoC2': 8.37, 'temp': 26.38, 'lipoC3S3': 12.68, 'rot1': 0, 'rot0': 0, 'rot3': 0, 'rot2': 0, 'state': 'normal', 'yaw': 0.0, 'datetime': '2018-10-12 18:36:17.988467', 'mgs': 0, 'depth': -0.064, 'time': 2.14, 'pitch': 0.28, 'roll': -3.81}
{'lipoC2': 8.37, 'temp': 26.38, 'lipoC3S3': 12.68, 'rot1': 0, 'rot0': 0, 'rot3': 0, 'rot2': 0, 'state': 'normal', 'yaw': 0.0, 'datetime': '2018-10-12 18:36:17.999007', 'mgs': 0, 'depth': -0.14, 'time': 2.24, 'pitch': 0.28, 'roll': -3.81}
{'lipoC2': 8.37, 'temp': 26.38, 'lipoC3S3': 12.68, 'rot1': 0, 'rot0': 0, 'rot3': 0, 'rot2': 0, 'state': 'normal', 'yaw': 0.0, 'datetime': '2018-10-12 18:36:18.007940', 'mgs': 0, 'depth': -0.064, 'time': 2.34, 'pitch': 0.28, 'roll': -3.81}
{'lipoC2': 8.37, 'temp': 26.38, 'lipoC3S3': 12.7, 'rot1': 0, 'rot0': 0, 'rot3': 0, 'rot2': 0, 'state': 'normal', 'yaw': 0.0, 'datetime': '2018-10-12 18:36:18.015921', 'mgs': 0, 'depth': -0.14, 'time': 2.43, 'pitch': 0.28, 'roll': -3.81}
{'lipoC2': 8.37, 'temp': 26.38, 'lipoC3S3': 12.68, 'rot1': 0, 'rot0': 0, 'rot3': 0, 'rot2': 0, 'state': 'normal', 'yaw': 0.0, 'datetime': '2018-10-12 18:36:18.026173', 'mgs': 0, 'depth': -0.064, 'time': 2.53, 'pitch': 0.28, 'roll': -3.81}
{'lipoC2': 8.37, 'temp': 26.38, 'lipoC3S3': 12.68, 'rot1': 0, 'rot0': 0, 'rot3': 0, 'rot2': 0, 'state': 'normal', 'yaw': 0.0, 'datetime': '2018-10-12 18:36:18.036937', 'mgs': 0, 'depth': -0.14, 'time': 2.63, 'pitch': 0.28, 'roll': -3.81}
{'lipoC2': 8.37, 'temp': 26.44, 'lipoC3S3': 12.68, 'rot1': 0, 'rot0': 0, 'rot3': 0, 'rot2': 0, 'state': 'normal', 'yaw': 0.0, 'datetime': '2018-10-12 18:36:18.045773', 'mgs': 0, 'depth': -0.064, 'time': 2.73, 'pitch': 0.28, 'roll': -3.81}
{'lipoC2': 8.37, 'temp': 26.44, 'lipoC3S3': 12.68, 'rot1': 0, 'rot0': 0, 'rot3': 0, 'rot2': 0, 'state': 'normal', 'yaw': 0.0, 'datetime': '2018-10-12 18:36:18.056262', 'mgs': 0, 'depth': -0.064, 'time': 2.83, 'pitch': 0.28, 'roll': -3.81}
{'lipoC2': 8.37, 'temp': 26.38, 'lipoC3S3': 12.68, 'rot1': 0, 'rot0': 0, 'rot3': 0, 'rot2': 0, 'state': 'normal', 'yaw': 0.0, 'datetime': '2018-10-12 18:36:18.066872', 'mgs': 0, 'depth': -0.064, 'time': 2.92, 'pitch': 0.28, 'roll': -3.81}
{'lipoC2': 8.37, 'temp': 26.38, 'lipoC3S3': 12.68, 'rot1': 0, 'rot0': 0, 'rot3': 0, 'rot2': 0, 'state': 'normal', 'yaw': 0.0, 'datetime': '2018-10-12 18:36:18.077986', 'mgs': 0, 'depth': -0.064, 'time': 3.02, 'pitch': 0.28, 'roll': -3.81}
{'lipoC2': 8.37, 'temp': 26.38, 'lipoC3S3': 12.68, 'rot1': 0, 'rot0': 0, 'rot3': 0, 'rot2': 0, 'state': 'normal', 'yaw': 0.0, 'datetime': '2018-10-12 18:36:18.087585', 'mgs': 0, 'depth': -0.14, 'time': 3.12, 'pitch': 0.28, 'roll': -3.81}
{'lipoC2': 8.37, 'temp': 26.38, 'lipoC3S3': 12.68, 'rot1': 0, 'rot0': 0, 'rot3': 0, 'rot2': 0, 'state': 'normal', 'yaw': 0.0, 'datetime': '2018-10-12 18:36:18.095564', 'mgs': 0, 'depth': -0.064, 'time': 3.22, 'pitch': 0.28, 'roll': -3.81}
{'lipoC2': 8.37, 'temp': 26.38, 'lipoC3S3': 12.68, 'rot1': 0, 'rot0': 0, 'rot3': 0, 'rot2': 0, 'state': 'normal', 'yaw': 0.0, 'datetime': '2018-10-12 18:36:18.105705', 'mgs': 0, 'depth': -0.064, 'time': 3.31, 'pitch': 0.28, 'roll': -3.81}
{'lipoC2': 8.37, 'temp': 26.38, 'lipoC3S3': 12.68, 'rot1': 0, 'rot0': 0, 'rot3': 0, 'rot2': 0, 'state': 'normal', 'yaw': 0.0, 'datetime': '2018-10-12 18:36:18.113799', 'mgs': 0, 'depth': -0.14, 'time': 3.41, 'pitch': 0.28, 'roll': -3.81}
{'lipoC2': 8.37, 'temp': 26.38, 'lipoC3S3': 12.68, 'rot1': 0, 'rot0': 0, 'rot3': 0, 'rot2': 0, 'state': 'normal', 'yaw': 0.0, 'datetime': '2018-10-12 18:36:18.121646', 'mgs': 0, 'depth': -0.064, 'time': 3.51, 'pitch': 0.28, 'roll': -3.81}
{'lipoC2': 8.37, 'temp': 26.38, 'lipoC3S3': 12.7, 'rot1': 0, 'rot0': 0, 'rot3': 0, 'rot2': 0, 'state': 'normal', 'yaw': 0.0, 'datetime': '2018-10-12 18:36:18.129436', 'mgs': 0, 'depth': -0.14, 'time': 3.61, 'pitch': 0.28, 'roll': -3.81}
{'lipoC2': 8.37, 'temp': 26.38, 'lipoC3S3': 12.68, 'rot1': 0, 'rot0': 0, 'rot3': 0, 'rot2': 0, 'state': 'normal', 'yaw': 0.0, 'datetime': '2018-10-12 18:36:18.137255', 'mgs': 0, 'depth': -0.064, 'time': 3.7, 'pitch': 0.28, 'roll': -3.81}
{'lipoC2': 8.37, 'temp': 26.38, 'lipoC3S3': 12.68, 'rot1': 0, 'rot0': 0, 'rot3': 0, 'rot2': 0, 'state': 'normal', 'yaw': 0.0, 'datetime': '2018-10-12 18:36:18.145068', 'mgs': 0, 'depth': -0.064, 'time': 3.8, 'pitch': 0.28, 'roll': -3.81}
{'lipoC2': 8.37, 'temp': 26.38, 'lipoC3S3': 12.68, 'rot1': 0, 'rot0': 0, 'rot3': 0, 'rot2': 0, 'state': 'normal', 'yaw': 0.0, 'datetime': '2018-10-12 18:36:18.152845', 'mgs': 0, 'depth': -0.064, 'time': 3.9, 'pitch': 0.28, 'roll': -3.81}
{'lipoC2': 8.37, 'temp': 26.38, 'lipoC3S3': 12.68, 'rot1': 0, 'rot0': 0, 'rot3': 0, 'rot2': 0, 'state': 'normal', 'yaw': 0.0, 'datetime': '2018-10-12 18:36:18.160678', 'mgs': 0, 'depth': -0.14, 'time': 4.0, 'pitch': 0.28, 'roll': -3.81}
{'lipoC2': 8.37, 'temp': 26.38, 'lipoC3S3': 12.7, 'rot1': 0, 'rot0': 0, 'rot3': 0, 'rot2': 0, 'state': 'normal', 'yaw': 0.0, 'datetime': '2018-10-12 18:36:18.168385', 'mgs': 0, 'depth': -0.14, 'time': 4.1, 'pitch': 0.28, 'roll': -3.81}
{'lipoC2': 8.37, 'temp': 26.38, 'lipoC3S3': 12.68, 'rot1': 0, 'rot0': 0, 'rot3': 0, 'rot2': 0, 'state': 'normal', 'yaw': 0.0, 'datetime': '2018-10-12 18:36:18.177539', 'mgs': 0, 'depth': -0.064, 'time': 4.2, 'pitch': 0.28, 'roll': -3.81}
{'lipoC2': 8.37, 'temp': 26.38, 'lipoC3S3': 12.68, 'rot1': 0, 'rot0': 0, 'rot3': 0, 'rot2': 0, 'state': 'normal', 'yaw': 0.0, 'datetime': '2018-10-12 18:36:18.185243', 'mgs': 0, 'depth': -0.14, 'time': 4.29, 'pitch': 0.28, 'roll': -3.81}
{'lipoC2': 8.37, 'temp': 26.38, 'lipoC3S3': 12.68, 'rot1': 0, 'rot0': 0, 'rot3': 0, 'rot2': 0, 'state': 'normal', 'yaw': 0.0, 'datetime': '2018-10-12 18:36:18.192935', 'mgs': 0, 'depth': -0.064, 'time': 4.39, 'pitch': 0.28, 'roll': -3.81}
{'lipoC2': 8.37, 'temp': 26.38, 'lipoC3S3': 12.68, 'rot1': 0, 'rot0': 0, 'rot3': 0, 'rot2': 0, 'state': 'normal', 'yaw': 0.0, 'datetime': '2018-10-12 18:36:18.200933', 'mgs': 0, 'depth': -0.064, 'time': 4.49, 'pitch': 0.28, 'roll': -3.81}
{'lipoC2': 8.37, 'temp': 26.38, 'lipoC3S3': 12.68, 'rot1': 0, 'rot0': 0, 'rot3': 0, 'rot2': 0, 'state': 'normal', 'yaw': 0.0, 'datetime': '2018-10-12 18:36:18.208813', 'mgs': 0, 'depth': -0.14, 'time': 4.59, 'pitch': 0.28, 'roll': -3.81}
{'lipoC2': 8.37, 'temp': 26.44, 'lipoC3S3': 12.68, 'rot1': 0, 'rot0': 0, 'rot3': 0, 'rot2': 0, 'state': 'normal', 'yaw': 0.0, 'datetime': '2018-10-12 18:36:18.216673', 'mgs': 0, 'depth': -0.064, 'time': 4.68, 'pitch': 0.28, 'roll': -3.81}
{'lipoC2': 8.37, 'temp': 26.44, 'lipoC3S3': 12.68, 'rot1': 0, 'rot0': 0, 'rot3': 0, 'rot2': 0, 'state': 'normal', 'yaw': 0.0, 'datetime': '2018-10-12 18:36:18.224507', 'mgs': 0, 'depth': -0.064, 'time': 4.78, 'pitch': 0.28, 'roll': -3.81}
{'lipoC2': 8.37, 'temp': 26.38, 'lipoC3S3': 12.68, 'rot1': 0, 'rot0': 0, 'rot3': 0, 'rot2': 0, 'state': 'normal', 'yaw': 0.0, 'datetime': '2018-10-12 18:36:18.232314', 'mgs': 0, 'depth': -0.14, 'time': 4.88, 'pitch': 0.28, 'roll': -3.81}
{'lipoC2': 8.37, 'temp': 26.38, 'lipoC3S3': 12.68, 'rot1': 0, 'rot0': 0, 'rot3': 0, 'rot2': 0, 'state': 'normal', 'yaw': 0.0, 'datetime': '2018-10-12 18:36:18.240147', 'mgs': 0, 'depth': -0.064, 'time': 4.98, 'pitch': 0.28, 'roll': -3.81}
{'lipoC2': 8.37, 'temp': 26.38, 'lipoC3S3': 12.67, 'rot1': 0, 'rot0': 0, 'rot3': 0, 'rot2': 0, 'state': 'normal', 'yaw': 0.0, 'datetime': '2018-10-12 18:36:18.247895', 'mgs': 0, 'depth': -0.064, 'time': 5.07, 'pitch': 0.28, 'roll': -3.81}
{'lipoC2': 8.37, 'temp': 26.38, 'lipoC3S3': 12.68, 'rot1': 0, 'rot0': 0, 'rot3': 0, 'rot2': 0, 'state': 'normal', 'yaw': 0.0, 'datetime': '2018-10-12 18:36:18.255305', 'mgs': 0, 'depth': -0.064, 'time': 5.17, 'pitch': 0.28, 'roll': -3.81}
{'lipoC2': 8.37, 'temp': 26.38, 'lipoC3S3': 12.68, 'rot1': 0, 'rot0': 0, 'rot3': 0, 'rot2': 0, 'state': 'normal', 'yaw': 0.0, 'datetime': '2018-10-12 18:36:18.262725', 'mgs': 0, 'depth': -0.064, 'time': 5.27, 'pitch': 0.28, 'roll': -3.81}
{'lipoC2': 8.37, 'temp': 26.44, 'lipoC3S3': 12.68, 'rot1': 0, 'rot0': 0, 'rot3': 0, 'rot2': 0, 'state': 'normal', 'yaw': 0.0, 'datetime': '2018-10-12 18:36:18.271509', 'mgs': 0, 'depth': -0.14, 'time': 5.37, 'pitch': 0.28, 'roll': -3.81}
{'lipoC2': 8.37, 'temp': 26.44, 'lipoC3S3': 12.68, 'rot1': 0, 'rot0': 0, 'rot3': 0, 'rot2': 0, 'state': 'normal', 'yaw': 0.0, 'datetime': '2018-10-12 18:36:18.280530', 'mgs': 0, 'depth': 0.012, 'time': 5.47, 'pitch': 0.28, 'roll': -3.81}
{'lipoC2': 8.37, 'temp': 26.44, 'lipoC3S3': 12.68, 'rot1': 0, 'rot0': 0, 'rot3': 0, 'rot2': 0, 'state': 'normal', 'yaw': 0.0, 'datetime': '2018-10-12 18:36:18.288346', 'mgs': 0, 'depth': 0.012, 'time': 5.56, 'pitch': 0.28, 'roll': -3.81}
{'lipoC2': 8.37, 'temp': 26.31, 'lipoC3S3': 12.7, 'rot1': 0, 'rot0': 0, 'rot3': 0, 'rot2': 0, 'state': 'normal', 'yaw': 0.0, 'datetime': '2018-10-12 18:36:18.378392', 'mgs': 0, 'depth': -0.064, 'time': 5.66, 'pitch': 0.28, 'roll': -3.81}
{'lipoC2': 8.37, 'temp': 26.31, 'lipoC3S3': 12.68, 'rot1': 0, 'rot0': 0, 'rot3': 0, 'rot2': 0, 'state': 'normal', 'yaw': 0.0, 'datetime': '2018-10-12 18:36:18.476713', 'mgs': 0, 'depth': -0.14, 'time': 5.76, 'pitch': 0.28, 'roll': -3.81}
{'lipoC2': 8.37, 'temp': 26.38, 'lipoC3S3': 12.68, 'rot1': 0, 'rot0': 0, 'rot3': 0, 'rot2': 0, 'state': 'normal', 'yaw': 0.0, 'datetime': '2018-10-12 18:36:18.574540', 'mgs': 0, 'depth': 0.012, 'time': 5.86, 'pitch': 0.28, 'roll': -3.81}
{'lipoC2': 8.37, 'temp': 26.38, 'lipoC3S3': 12.68, 'rot1': 0, 'rot0': 0, 'rot3': 0, 'rot2': 0, 'state': 'normal', 'yaw': 0.0, 'datetime': '2018-10-12 18:36:18.671547', 'mgs': 0, 'depth': -0.14, 'time': 5.95, 'pitch': 0.28, 'roll': -3.81}
{'lipoC2': 8.37, 'temp': 26.38, 'lipoC3S3': 12.68, 'rot1': 0, 'rot0': 0, 'rot3': 0, 'rot2': 0, 'state': 'normal', 'yaw': 0.0, 'datetime': '2018-10-12 18:36:18.769287', 'mgs': 0, 'depth': -0.14, 'time': 6.05, 'pitch': 0.28, 'roll': -3.81}
{'lipoC2': 8.37, 'temp': 26.38, 'lipoC3S3': 12.68, 'rot1': 0, 'rot0': 0, 'rot3': 0, 'rot2': 0, 'state': 'normal', 'yaw': 0.0, 'datetime': '2018-10-12 18:36:18.867602', 'mgs': 0, 'depth': -0.064, 'time': 6.15, 'pitch': 0.28, 'roll': -3.81}
{'lipoC2': 8.37, 'temp': 26.38, 'lipoC3S3': 12.68, 'rot1': 0, 'rot0': 0, 'rot3': 0, 'rot2': 0, 'state': 'normal', 'yaw': 0.0, 'datetime': '2018-10-12 18:36:18.965868', 'mgs': 0, 'depth': 0.012, 'time': 6.25, 'pitch': 0.28, 'roll': -3.81}
{'lipoC2': 8.37, 'temp': 26.38, 'lipoC3S3': 12.68, 'rot1': 0, 'rot0': 0, 'rot3': 0, 'rot2': 0, 'state': 'normal', 'yaw': 0.0, 'datetime': '2018-10-12 18:36:19.062890', 'mgs': 0, 'depth': -0.064, 'time': 6.35, 'pitch': 0.28, 'roll': -3.81}
{'lipoC2': 8.37, 'temp': 26.38, 'lipoC3S3': 12.68, 'rot1': 0, 'rot0': 0, 'rot3': 0, 'rot2': 0, 'state': 'normal', 'yaw': 0.0, 'datetime': '2018-10-12 18:36:19.160300', 'mgs': 0, 'depth': -0.064, 'time': 6.44, 'pitch': 0.28, 'roll': -3.81}
{'lipoC2': 8.37, 'temp': 26.38, 'lipoC3S3': 12.68, 'rot1': 0, 'rot0': 0, 'rot3': 0, 'rot2': 0, 'state': 'normal', 'yaw': 0.0, 'datetime': '2018-10-12 18:36:19.257926', 'mgs': 0, 'depth': -0.064, 'time': 6.54, 'pitch': 0.28, 'roll': -3.81}
{'lipoC2': 8.37, 'temp': 26.44, 'lipoC3S3': 12.68, 'rot1': 0, 'rot0': 0, 'rot3': 0, 'rot2': 0, 'state': 'normal', 'yaw': 0.0, 'datetime': '2018-10-12 18:36:19.360309', 'mgs': 0, 'depth': -0.064, 'time': 6.64, 'pitch': 0.28, 'roll': -3.81}
{'lipoC2': 8.37, 'temp': 26.44, 'lipoC3S3': 12.68, 'rot1': 0, 'rot0': 0, 'rot3': 0, 'rot2': 0, 'state': 'normal', 'yaw': 0.0, 'datetime': '2018-10-12 18:36:19.457271', 'mgs': 0, 'depth': -0.14, 'time': 6.74, 'pitch': 0.28, 'roll': -3.81}
{'lipoC2': 8.37, 'temp': 26.38, 'lipoC3S3': 12.68, 'rot1': 0, 'rot0': 0, 'rot3': 0, 'rot2': 0, 'state': 'normal', 'yaw': 0.0, 'datetime': '2018-10-12 18:36:19.555611', 'mgs': 0, 'depth': -0.064, 'time': 6.83, 'pitch': 0.28, 'roll': -3.81}
{'lipoC2': 8.37, 'temp': 26.38, 'lipoC3S3': 12.68, 'rot1': 0, 'rot0': 0, 'rot3': 0, 'rot2': 0, 'state': 'normal', 'yaw': 0.0, 'datetime': '2018-10-12 18:36:19.653845', 'mgs': 0, 'depth': -0.14, 'time': 6.93, 'pitch': 0.28, 'roll': -3.81}
{'lipoC2': 8.37, 'temp': 26.44, 'lipoC3S3': 12.68, 'rot1': 0, 'rot0': 0, 'rot3': 0, 'rot2': 0, 'state': 'normal', 'yaw': 0.0, 'datetime': '2018-10-12 18:36:19.752117', 'mgs': 0, 'depth': -0.064, 'time': 7.03, 'pitch': 0.28, 'roll': -3.81}
{'lipoC2': 8.36, 'temp': 26.44, 'lipoC3S3': 12.68, 'rot1': 0, 'rot0': 0, 'rot3': 0, 'rot2': 0, 'state': 'normal', 'yaw': 0.0, 'datetime': '2018-10-12 18:36:19.849107', 'mgs': 0, 'depth': -0.14, 'time': 7.13, 'pitch': 0.28, 'roll': -3.81}
{'lipoC2': 8.37, 'temp': 26.44, 'lipoC3S3': 12.68, 'rot1': 0, 'rot0': 0, 'rot3': 0, 'rot2': 0, 'state': 'normal', 'yaw': 0.0, 'datetime': '2018-10-12 18:36:19.946534', 'mgs': 0, 'depth': -0.064, 'time': 7.23, 'pitch': 0.28, 'roll': -3.81}
{'lipoC2': 8.37, 'temp': 26.38, 'lipoC3S3': 12.68, 'rot1': 0, 'rot0': 0, 'rot3': 0, 'rot2': 0, 'state': 'normal', 'yaw': 0.0, 'datetime': '2018-10-12 18:36:20.044903', 'mgs': 0, 'depth': -0.064, 'time': 7.32, 'pitch': 0.28, 'roll': -3.81}
{'lipoC2': 8.37, 'temp': 26.38, 'lipoC3S3': 12.68, 'rot1': 0, 'rot0': 0, 'rot3': 0, 'rot2': 0, 'state': 'normal', 'yaw': 0.0, 'datetime': '2018-10-12 18:36:20.143473', 'mgs': 0, 'depth': -0.064, 'time': 7.42, 'pitch': 0.28, 'roll': -3.81}
{'lipoC2': 8.37, 'temp': 26.44, 'lipoC3S3': 12.68, 'rot1': 0, 'rot0': 0, 'rot3': 0, 'rot2': 0, 'state': 'normal', 'yaw': 0.0, 'datetime': '2018-10-12 18:36:20.240131', 'mgs': 0, 'depth': -0.064, 'time': 7.52, 'pitch': 0.28, 'roll': -3.81}
{'lipoC2': 8.36, 'temp': 26.44, 'lipoC3S3': 12.68, 'rot1': 0, 'rot0': 0, 'rot3': 0, 'rot2': 0, 'state': 'normal', 'yaw': 0.0, 'datetime': '2018-10-12 18:36:20.337330', 'mgs': 0, 'depth': -0.14, 'time': 7.62, 'pitch': 0.28, 'roll': -3.8}
{'lipoC2': 8.37, 'temp': 26.44, 'lipoC3S3': 12.68, 'rot1': 0, 'rot0': 0, 'rot3': 0, 'rot2': 0, 'state': 'normal', 'yaw': 0.0, 'datetime': '2018-10-12 18:36:20.435651', 'mgs': 0, 'depth': -0.14, 'time': 7.72, 'pitch': 0.28, 'roll': -3.81}
{'lipoC2': 8.37, 'temp': 26.44, 'lipoC3S3': 12.7, 'rot1': 0, 'rot0': 0, 'rot3': 0, 'rot2': 0, 'state': 'normal', 'yaw': 0.0, 'datetime': '2018-10-12 18:36:20.533997', 'mgs': 0, 'depth': -0.064, 'time': 7.81, 'pitch': 0.28, 'roll': -3.81}
{'lipoC2': 8.37, 'temp': 26.44, 'lipoC3S3': 12.68, 'rot1': 0, 'rot0': 0, 'rot3': 0, 'rot2': 0, 'state': 'normal', 'yaw': 0.0, 'datetime': '2018-10-12 18:36:20.630926', 'mgs': 0, 'depth': -0.064, 'time': 7.91, 'pitch': 0.28, 'roll': -3.81}
{'lipoC2': 8.37, 'temp': 26.38, 'lipoC3S3': 12.68, 'rot1': 0, 'rot0': 0, 'rot3': 0, 'rot2': 0, 'state': 'normal', 'yaw': 0.0, 'datetime': '2018-10-12 18:36:20.728017', 'mgs': 0, 'depth': -0.14, 'time': 8.01, 'pitch': 0.28, 'roll': -3.81}
{'lipoC2': 8.37, 'temp': 26.38, 'lipoC3S3': 12.68, 'rot1': 0, 'rot0': 0, 'rot3': 0, 'rot2': 0, 'state': 'normal', 'yaw': 0.0, 'datetime': '2018-10-12 18:36:20.827366', 'mgs': 0, 'depth': -0.14, 'time': 8.11, 'pitch': 0.28, 'roll': -3.81}
{'lipoC2': 8.37, 'temp': 26.38, 'lipoC3S3': 12.68, 'rot1': 0, 'rot0': 0, 'rot3': 0, 'rot2': 0, 'state': 'normal', 'yaw': 0.0, 'datetime': '2018-10-12 18:36:20.924726', 'mgs': 0, 'depth': -0.14, 'time': 8.2, 'pitch': 0.28, 'roll': -3.81}
{'lipoC2': 8.37, 'temp': 26.44, 'lipoC3S3': 12.68, 'rot1': 0, 'rot0': 0, 'rot3': 0, 'rot2': 0, 'state': 'normal', 'yaw': 0.0, 'datetime': '2018-10-12 18:36:21.021710', 'mgs': 0, 'depth': -0.14, 'time': 8.3, 'pitch': 0.28, 'roll': -3.81}
{'lipoC2': 8.37, 'temp': 26.44, 'lipoC3S3': 12.68, 'rot1': 0, 'rot0': 0, 'rot3': 0, 'rot2': 0, 'state': 'normal', 'yaw': 0.0, 'datetime': '2018-10-12 18:36:21.118712', 'mgs': 0, 'depth': -0.14, 'time': 8.4, 'pitch': 0.28, 'roll': -3.81}
{'lipoC2': 8.37, 'temp': 26.44, 'lipoC3S3': 12.68, 'rot1': 0, 'rot0': 0, 'rot3': 0, 'rot2': 0, 'state': 'normal', 'yaw': 0.0, 'datetime': '2018-10-12 18:36:21.216432', 'mgs': 0, 'depth': -0.064, 'time': 8.5, 'pitch': 0.28, 'roll': -3.81}
{'lipoC2': 8.37, 'temp': 26.44, 'lipoC3S3': 12.68, 'rot1': 0, 'rot0': 0, 'rot3': 0, 'rot2': 0, 'state': 'normal', 'yaw': 0.0, 'datetime': '2018-10-12 18:36:21.313417', 'mgs': 0, 'depth': -0.14, 'time': 8.59, 'pitch': 0.28, 'roll': -3.81}
{'lipoC2': 8.37, 'temp': 26.44, 'lipoC3S3': 12.68, 'rot1': 0, 'rot0': 0, 'rot3': 0, 'rot2': 0, 'state': 'normal', 'yaw': 0.0, 'datetime': '2018-10-12 18:36:21.410508', 'mgs': 0, 'depth': -0.064, 'time': 8.69, 'pitch': 0.28, 'roll': -3.81}
{'lipoC2': 8.37, 'temp': 26.44, 'lipoC3S3': 12.68, 'rot1': 0, 'rot0': 0, 'rot3': 0, 'rot2': 0, 'state': 'normal', 'yaw': -0.0, 'datetime': '2018-10-12 18:36:21.508608', 'mgs': 0, 'depth': -0.14, 'time': 8.79, 'pitch': 0.29, 'roll': -3.82}
{'lipoC2': 8.37, 'temp': 26.44, 'lipoC3S3': 12.68, 'rot1': 0, 'rot0': 0, 'rot3': 0, 'rot2': 0, 'state': 'normal', 'yaw': 0.0, 'datetime': '2018-10-12 18:36:21.607126', 'mgs': 0, 'depth': -0.064, 'time': 8.89, 'pitch': 0.27, 'roll': -3.8}
{'lipoC2': 8.37, 'temp': 26.44, 'lipoC3S3': 12.68, 'rot1': 0, 'rot0': 0, 'rot3': 0, 'rot2': 0, 'state': 'normal', 'yaw': 0.0, 'datetime': '2018-10-12 18:36:21.705318', 'mgs': 0, 'depth': -0.064, 'time': 8.99, 'pitch': 0.27, 'roll': -3.81}
{'lipoC2': 8.36, 'temp': 26.44, 'lipoC3S3': 12.68, 'rot1': 0, 'rot0': 0, 'rot3': 0, 'rot2': 0, 'state': 'normal', 'yaw': 0.0, 'datetime': '2018-10-12 18:36:21.802488', 'mgs': 0, 'depth': -0.14, 'time': 9.08, 'pitch': 0.27, 'roll': -3.82}
{'lipoC2': 8.37, 'temp': 26.44, 'lipoC3S3': 12.68, 'rot1': 0, 'rot0': 0, 'rot3': 0, 'rot2': 0, 'state': 'normal', 'yaw': 0.0, 'datetime': '2018-10-12 18:36:21.899496', 'mgs': 0, 'depth': -0.14, 'time': 9.18, 'pitch': 0.27, 'roll': -3.81}
{'lipoC2': 8.37, 'temp': 26.38, 'lipoC3S3': 12.68, 'rot1': 0, 'rot0': 0, 'rot3': 0, 'rot2': 0, 'state': 'normal', 'yaw': 0.0, 'datetime': '2018-10-12 18:36:21.997998', 'mgs': 0, 'depth': -0.14, 'time': 9.28, 'pitch': 0.27, 'roll': -3.81}
{'lipoC2': 8.37, 'temp': 26.38, 'lipoC3S3': 12.68, 'rot1': 0, 'rot0': 0, 'rot3': 0, 'rot2': 0, 'state': 'normal', 'yaw': 0.0, 'datetime': '2018-10-12 18:36:22.096230', 'mgs': 0, 'depth': -0.14, 'time': 9.38, 'pitch': 0.27, 'roll': -3.81}
{'lipoC2': 8.37, 'temp': 26.38, 'lipoC3S3': 12.68, 'rot1': 0, 'rot0': 0, 'rot3': 0, 'rot2': 0, 'state': 'normal', 'yaw': 0.0, 'datetime': '2018-10-12 18:36:22.193231', 'mgs': 0, 'depth': -0.064, 'time': 9.48, 'pitch': 0.27, 'roll': -3.83}
{'lipoC2': 8.37, 'temp': 26.38, 'lipoC3S3': 12.68, 'rot1': 0, 'rot0': 0, 'rot3': 0, 'rot2': 0, 'state': 'normal', 'yaw': 0.0, 'datetime': '2018-10-12 18:36:22.290297', 'mgs': 0, 'depth': -0.064, 'time': 9.57, 'pitch': 0.27, 'roll': -3.81}
{'lipoC2': 8.37, 'temp': 26.38, 'lipoC3S3': 12.68, 'rot1': 0, 'rot0': 0, 'rot3': 0, 'rot2': 0, 'state': 'normal', 'yaw': 0.0, 'datetime': '2018-10-12 18:36:22.388895', 'mgs': 0, 'depth': -0.14, 'time': 9.67, 'pitch': 0.27, 'roll': -3.81}
{'lipoC2': 8.37, 'temp': 26.38, 'lipoC3S3': 12.68, 'rot1': 0, 'rot0': 0, 'rot3': 0, 'rot2': 0, 'state': 'normal', 'yaw': 0.0, 'datetime': '2018-10-12 18:36:22.487837', 'mgs': 0, 'depth': -0.14, 'time': 9.77, 'pitch': 0.27, 'roll': -3.8}
{'lipoC2': 8.37, 'temp': 26.38, 'lipoC3S3': 12.68, 'rot1': 0, 'rot0': 0, 'rot3': 0, 'rot2': 0, 'state': 'normal', 'yaw': 0.0, 'datetime': '2018-10-12 18:36:22.584218', 'mgs': 0, 'depth': -0.064, 'time': 9.87, 'pitch': 0.27, 'roll': -3.81}
{'lipoC2': 8.37, 'temp': 26.44, 'lipoC3S3': 12.68, 'rot1': 0, 'rot0': 0, 'rot3': 0, 'rot2': 0, 'state': 'normal', 'yaw': 0.0, 'datetime': '2018-10-12 18:36:22.681209', 'mgs': 0, 'depth': -0.064, 'time': 9.96, 'pitch': 0.27, 'roll': -3.78}
{'lipoC2': 8.37, 'temp': 26.44, 'lipoC3S3': 12.68, 'rot1': 0, 'rot0': 0, 'rot3': 0, 'rot2': 0, 'state': 'normal', 'yaw': 0.0, 'datetime': '2018-10-12 18:36:22.779578', 'mgs': 0, 'depth': -0.064, 'time': 10.06, 'pitch': 0.27, 'roll': -3.81}
{'lipoC2': 8.37, 'temp': 26.44, 'lipoC3S3': 12.68, 'rot1': 0, 'rot0': 0, 'rot3': 0, 'rot2': 0, 'state': 'normal', 'yaw': -0.01, 'datetime': '2018-10-12 18:36:22.878017', 'mgs': 0, 'depth': -0.064, 'time': 10.16, 'pitch': 0.27, 'roll': -3.81}
{'lipoC2': 8.37, 'temp': 26.38, 'lipoC3S3': 12.67, 'rot1': 0, 'rot0': 0, 'rot3': 0, 'rot2': 0, 'state': 'normal', 'yaw': 0.01, 'datetime': '2018-10-12 18:36:22.975299', 'mgs': 0, 'depth': -0.064, 'time': 10.26, 'pitch': 0.29, 'roll': -3.81}
{'lipoC2': 8.37, 'temp': 26.38, 'lipoC3S3': 12.68, 'rot1': 0, 'rot0': 0, 'rot3': 0, 'rot2': 0, 'state': 'normal', 'yaw': 0.01, 'datetime': '2018-10-12 18:36:23.072454', 'mgs': 0, 'depth': -0.064, 'time': 10.35, 'pitch': 0.29, 'roll': -3.81}
{'lipoC2': 8.37, 'temp': 26.44, 'lipoC3S3': 12.68, 'rot1': 0, 'rot0': 0, 'rot3': 0, 'rot2': 0, 'state': 'normal', 'yaw': 0.03, 'datetime': '2018-10-12 18:36:23.170577', 'mgs': 0, 'depth': -0.064, 'time': 10.45, 'pitch': 0.29, 'roll': -3.81}
{'lipoC2': 8.37, 'temp': 26.44, 'lipoC3S3': 12.68, 'rot1': 0, 'rot0': 0, 'rot3': 0, 'rot2': 0, 'state': 'normal', 'yaw': 0.03, 'datetime': '2018-10-12 18:36:23.267618', 'mgs': 0, 'depth': -0.064, 'time': 10.55, 'pitch': 0.29, 'roll': -3.8}
{'lipoC2': 8.37, 'temp': 26.44, 'lipoC3S3': 12.68, 'rot1': 0, 'rot0': 0, 'rot3': 0, 'rot2': 0, 'state': 'normal', 'yaw': 0.03, 'datetime': '2018-10-12 18:36:23.364755', 'mgs': 0, 'depth': -0.14, 'time': 10.65, 'pitch': 0.29, 'roll': -3.81}
{'lipoC2': 8.37, 'temp': 26.44, 'lipoC3S3': 12.68, 'rot1': 0, 'rot0': 0, 'rot3': 0, 'rot2': 0, 'state': 'normal', 'yaw': 0.03, 'datetime': '2018-10-12 18:36:23.462008', 'mgs': 0, 'depth': -0.064, 'time': 10.74, 'pitch': 0.29, 'roll': -3.81}
{'lipoC2': 8.37, 'temp': 26.44, 'lipoC3S3': 12.68, 'rot1': 0, 'rot0': 0, 'rot3': 0, 'rot2': 0, 'state': 'normal', 'yaw': 0.02, 'datetime': '2018-10-12 18:36:23.560416', 'mgs': 0, 'depth': -0.064, 'time': 10.84, 'pitch': 0.29, 'roll': -3.81}
{'lipoC2': 8.37, 'temp': 26.44, 'lipoC3S3': 12.68, 'rot1': 0, 'rot0': 0, 'rot3': 0, 'rot2': 0, 'state': 'normal', 'yaw': 0.01, 'datetime': '2018-10-12 18:36:23.658771', 'mgs': 0, 'depth': -0.064, 'time': 10.94, 'pitch': 0.29, 'roll': -3.81}
{'lipoC2': 8.37, 'temp': 26.44, 'lipoC3S3': 12.68, 'rot1': 0, 'rot0': 0, 'rot3': 0, 'rot2': 0, 'state': 'normal', 'yaw': 0.01, 'datetime': '2018-10-12 18:36:23.755988', 'mgs': 0, 'depth': -0.064, 'time': 11.04, 'pitch': 0.29, 'roll': -3.8}
{'lipoC2': 8.36, 'temp': 26.44, 'lipoC3S3': 12.68, 'rot1': 0, 'rot0': 0, 'rot3': 0, 'rot2': 0, 'state': 'normal', 'yaw': 0.01, 'datetime': '2018-10-12 18:36:23.853390', 'mgs': 0, 'depth': -0.064, 'time': 11.14, 'pitch': 0.29, 'roll': -3.79}
{'lipoC2': 8.37, 'temp': 26.38, 'lipoC3S3': 12.68, 'rot1': 0, 'rot0': 0, 'rot3': 0, 'rot2': 0, 'state': 'normal', 'yaw': -0.0, 'datetime': '2018-10-12 18:36:23.951519', 'mgs': 0, 'depth': -0.14, 'time': 11.23, 'pitch': 0.29, 'roll': -3.81}
{'lipoC2': 8.37, 'temp': 26.38, 'lipoC3S3': 12.68, 'rot1': 0, 'rot0': 0, 'rot3': 0, 'rot2': 0, 'state': 'normal', 'yaw': -0.0, 'datetime': '2018-10-12 18:36:24.049986', 'mgs': 0, 'depth': -0.064, 'time': 11.33, 'pitch': 0.29, 'roll': -3.79}
{'lipoC2': 8.37, 'temp': 26.38, 'lipoC3S3': 12.67, 'rot1': 0, 'rot0': 0, 'rot3': 0, 'rot2': 0, 'state': 'normal', 'yaw': -0.0, 'datetime': '2018-10-12 18:36:24.147828', 'mgs': 0, 'depth': -0.064, 'time': 11.43, 'pitch': 0.29, 'roll': -3.79}
{'lipoC2': 8.37, 'temp': 26.38, 'lipoC3S3': 12.68, 'rot1': 0, 'rot0': 0, 'rot3': 0, 'rot2': 0, 'state': 'normal', 'yaw': -0.0, 'datetime': '2018-10-12 18:36:24.244808', 'mgs': 0, 'depth': -0.064, 'time': 11.53, 'pitch': 0.29, 'roll': -3.79}
{'lipoC2': 8.37, 'temp': 26.38, 'lipoC3S3': 12.67, 'rot1': 0, 'rot0': 0, 'rot3': 0, 'rot2': 0, 'state': 'normal', 'yaw': -0.0, 'datetime': '2018-10-12 18:36:24.342666', 'mgs': 0, 'depth': -0.064, 'time': 11.63, 'pitch': 0.29, 'roll': -3.79}
{'lipoC2': 8.37, 'temp': 26.44, 'lipoC3S3': 12.68, 'rot1': 0, 'rot0': 0, 'rot3': 0, 'rot2': 0, 'state': 'normal', 'yaw': 0.0, 'datetime': '2018-10-12 18:36:24.441103', 'mgs': 0, 'depth': -0.064, 'time': 11.72, 'pitch': 0.27, 'roll': -3.79}
{'lipoC2': 8.37, 'temp': 26.44, 'lipoC3S3': 12.68, 'rot1': 0, 'rot0': 0, 'rot3': 0, 'rot2': 0, 'state': 'normal', 'yaw': -0.0, 'datetime': '2018-10-12 18:36:24.539144', 'mgs': 0, 'depth': -0.064, 'time': 11.82, 'pitch': 0.28, 'roll': -3.79}
{'lipoC2': 8.37, 'temp': 26.38, 'lipoC3S3': 12.68, 'rot1': 0, 'rot0': 0, 'rot3': 0, 'rot2': 0, 'state': 'normal', 'yaw': -0.0, 'datetime': '2018-10-12 18:36:24.636203', 'mgs': 0, 'depth': -0.064, 'time': 11.92, 'pitch': 0.28, 'roll': -3.79}
{'lipoC2': 8.37, 'temp': 26.38, 'lipoC3S3': 12.68, 'rot1': 0, 'rot0': 0, 'rot3': 0, 'rot2': 0, 'state': 'normal', 'yaw': 0.0, 'datetime': '2018-10-12 18:36:24.733641', 'mgs': 0, 'depth': -0.064, 'time': 12.02, 'pitch': 0.28, 'roll': -3.8}
{'lipoC2': 8.37, 'temp': 26.38, 'lipoC3S3': 12.68, 'rot1': 0, 'rot0': 0, 'rot3': 0, 'rot2': 0, 'state': 'normal', 'yaw': 0.0, 'datetime': '2018-10-12 18:36:24.832081', 'mgs': 0, 'depth': -0.064, 'time': 12.11, 'pitch': 0.27, 'roll': -3.76}
{'lipoC2': 8.37, 'temp': 26.44, 'lipoC3S3': 12.68, 'rot1': 0, 'rot0': 0, 'rot3': 0, 'rot2': 0, 'state': 'normal', 'yaw': 0.03, 'datetime': '2018-10-12 18:36:24.929025', 'mgs': 0, 'depth': -0.064, 'time': 12.21, 'pitch': 0.28, 'roll': -3.73}
{'lipoC2': 8.37, 'temp': 26.44, 'lipoC3S3': 12.68, 'rot1': 0, 'rot0': 0, 'rot3': 0, 'rot2': 0, 'state': 'normal', 'yaw': 0.11, 'datetime': '2018-10-12 18:36:25.026263', 'mgs': 0, 'depth': -0.064, 'time': 12.31, 'pitch': 0.28, 'roll': -3.62}
{'lipoC2': 8.37, 'temp': 26.44, 'lipoC3S3': 12.68, 'rot1': 0, 'rot0': 0, 'rot3': 0, 'rot2': 0, 'state': 'normal', 'yaw': 0.26, 'datetime': '2018-10-12 18:36:25.123542', 'mgs': 0, 'depth': -0.14, 'time': 12.41, 'pitch': 0.23, 'roll': -2.68}
{'lipoC2': 8.36, 'temp': 26.44, 'lipoC3S3': 12.68, 'rot1': 0, 'rot0': 0, 'rot3': 0, 'rot2': 0, 'state': 'normal', 'yaw': 0.34, 'datetime': '2018-10-12 18:36:25.220571', 'mgs': 0, 'depth': -0.064, 'time': 12.51, 'pitch': 0.33, 'roll': -1.34}
{'lipoC2': 8.37, 'temp': 26.44, 'lipoC3S3': 12.68, 'rot1': 0, 'rot0': 0, 'rot3': 0, 'rot2': 0, 'state': 'normal', 'yaw': 0.21, 'datetime': '2018-10-12 18:36:25.317615', 'mgs': 0, 'depth': -0.064, 'time': 12.6, 'pitch': 0.37, 'roll': -0.39}
{'lipoC2': 8.37, 'temp': 26.44, 'lipoC3S3': 12.68, 'rot1': 0, 'rot0': 0, 'rot3': 0, 'rot2': 0, 'state': 'normal', 'yaw': 0.01, 'datetime': '2018-10-12 18:36:25.415314', 'mgs': 0, 'depth': -0.064, 'time': 12.7, 'pitch': 0.25, 'roll': 0.35}
{'lipoC2': 8.37, 'temp': 26.44, 'lipoC3S3': 12.68, 'rot1': 0, 'rot0': 0, 'rot3': 0, 'rot2': 0, 'state': 'normal', 'yaw': 0.05, 'datetime': '2018-10-12 18:36:25.513470', 'mgs': 0, 'depth': -0.064, 'time': 12.8, 'pitch': 0.08, 'roll': 1.45}
{'lipoC2': 8.37, 'temp': 26.44, 'lipoC3S3': 12.68, 'rot1': 0, 'rot0': 0, 'rot3': 0, 'rot2': 0, 'state': 'normal', 'yaw': -0.04, 'datetime': '2018-10-12 18:36:25.611845', 'mgs': 0, 'depth': -0.064, 'time': 12.9, 'pitch': -0.05, 'roll': 2.37}
{'lipoC2': 8.37, 'temp': 26.44, 'lipoC3S3': 12.68, 'rot1': 0, 'rot0': 0, 'rot3': 0, 'rot2': 0, 'state': 'normal', 'yaw': 0.04, 'datetime': '2018-10-12 18:36:25.708816', 'mgs': 0, 'depth': -0.064, 'time': 12.99, 'pitch': -0.61, 'roll': 3.55}
{'lipoC2': 8.37, 'temp': 26.44, 'lipoC3S3': 12.68, 'rot1': 0, 'rot0': 0, 'rot3': 0, 'rot2': 0, 'state': 'normal', 'yaw': 0.07, 'datetime': '2018-10-12 18:36:25.805963', 'mgs': 0, 'depth': -0.064, 'time': 13.09, 'pitch': -0.53, 'roll': 5.03}
{'lipoC2': 8.37, 'temp': 26.44, 'lipoC3S3': 12.68, 'rot1': 0, 'rot0': 0, 'rot3': 0, 'rot2': 0, 'state': 'normal', 'yaw': 0.05, 'datetime': '2018-10-12 18:36:25.904373', 'mgs': 0, 'depth': -0.064, 'time': 13.19, 'pitch': -0.15, 'roll': 6.44}
{'lipoC2': 8.37, 'temp': 26.44, 'lipoC3S3': 12.68, 'rot1': 0, 'rot0': 0, 'rot3': 0, 'rot2': 0, 'state': 'normal', 'yaw': -0.25, 'datetime': '2018-10-12 18:36:26.002639', 'mgs': 0, 'depth': -0.064, 'time': 13.29, 'pitch': -0.09, 'roll': 7.86}
{'lipoC2': 8.37, 'temp': 26.44, 'lipoC3S3': 12.68, 'rot1': 0, 'rot0': 0, 'rot3': 0, 'rot2': 0, 'state': 'normal', 'yaw': -0.2, 'datetime': '2018-10-12 18:36:26.099825', 'mgs': 0, 'depth': -0.064, 'time': 13.39, 'pitch': 1.66, 'roll': 7.8}
{'lipoC2': 8.37, 'temp': 26.44, 'lipoC3S3': 12.67, 'rot1': 0, 'rot0': 0, 'rot3': 0, 'rot2': 0, 'state': 'normal', 'yaw': 0.63, 'datetime': '2018-10-12 18:36:26.196847', 'mgs': 0, 'depth': -0.14, 'time': 13.48, 'pitch': 1.77, 'roll': 6.8}
{'lipoC2': 8.37, 'temp': 26.38, 'lipoC3S3': 12.68, 'rot1': 0, 'rot0': 0, 'rot3': 0, 'rot2': 0, 'state': 'normal', 'yaw': 1.03, 'datetime': '2018-10-12 18:36:26.295222', 'mgs': 0, 'depth': -0.064, 'time': 13.58, 'pitch': 3.44, 'roll': 3.96}
{'lipoC2': 8.37, 'temp': 26.38, 'lipoC3S3': 12.68, 'rot1': 0, 'rot0': 0, 'rot3': 0, 'rot2': 0, 'state': 'normal', 'yaw': 0.02, 'datetime': '2018-10-12 18:36:26.393512', 'mgs': 0, 'depth': -0.064, 'time': 13.68, 'pitch': 5.86, 'roll': 3.13}
{'lipoC2': 8.36, 'temp': 26.38, 'lipoC3S3': 12.68, 'rot1': 0, 'rot0': 0, 'rot3': 0, 'rot2': 0, 'state': 'normal', 'yaw': -0.45, 'datetime': '2018-10-12 18:36:26.491133', 'mgs': 0, 'depth': -0.14, 'time': 13.78, 'pitch': 7.61, 'roll': 2.56}
{'lipoC2': 8.37, 'temp': 26.44, 'lipoC3S3': 12.68, 'rot1': 0, 'rot0': 0, 'rot3': 0, 'rot2': 0, 'state': 'normal', 'yaw': -2.48, 'datetime': '2018-10-12 18:36:26.587995', 'mgs': 0, 'depth': -0.064, 'time': 13.87, 'pitch': 10.98, 'roll': 2.31}
{'lipoC2': 8.36, 'temp': 26.44, 'lipoC3S3': 12.68, 'rot1': 0, 'rot0': 0, 'rot3': 0, 'rot2': 0, 'state': 'normal', 'yaw': -3.93, 'datetime': '2018-10-12 18:36:26.685024', 'mgs': 0, 'depth': -0.14, 'time': 13.97, 'pitch': 15.36, 'roll': 1.56}
{'lipoC2': 8.37, 'temp': 26.38, 'lipoC3S3': 12.68, 'rot1': 0, 'rot0': 0, 'rot3': 0, 'rot2': 0, 'state': 'normal', 'yaw': -3.9, 'datetime': '2018-10-12 18:36:26.782239', 'mgs': 0, 'depth': -0.14, 'time': 14.07, 'pitch': 18.05, 'roll': 0.52}
{'lipoC2': 8.36, 'temp': 26.38, 'lipoC3S3': 12.68, 'rot1': 0, 'rot0': 0, 'rot3': 0, 'rot2': 0, 'state': 'normal', 'yaw': -3.87, 'datetime': '2018-10-12 18:36:26.879628', 'mgs': 0, 'depth': -0.14, 'time': 14.17, 'pitch': 19.06, 'roll': -0.43}
{'lipoC2': 8.37, 'temp': 26.38, 'lipoC3S3': 12.68, 'rot1': 0, 'rot0': 0, 'rot3': 0, 'rot2': 0, 'state': 'normal', 'yaw': -4.33, 'datetime': '2018-10-12 18:36:26.976725', 'mgs': 0, 'depth': 0.012, 'time': 14.26, 'pitch': 20.28, 'roll': -0.79}
{'lipoC2': 8.37, 'temp': 26.44, 'lipoC3S3': 12.68, 'rot1': 0, 'rot0': 0, 'rot3': 0, 'rot2': 0, 'state': 'normal', 'yaw': -4.5, 'datetime': '2018-10-12 18:36:27.074014', 'mgs': 0, 'depth': -0.14, 'time': 14.36, 'pitch': 21.58, 'roll': -2.46}
{'lipoC2': 8.37, 'temp': 26.44, 'lipoC3S3': 12.68, 'rot1': 0, 'rot0': 0, 'rot3': 0, 'rot2': 0, 'state': 'normal', 'yaw': -4.33, 'datetime': '2018-10-12 18:36:27.171113', 'mgs': 0, 'depth': -0.064, 'time': 14.46, 'pitch': 22.8, 'roll': -4.01}
{'lipoC2': 8.37, 'temp': 26.44, 'lipoC3S3': 12.68, 'rot1': 0, 'rot0': 0, 'rot3': 0, 'rot2': 0, 'state': 'normal', 'yaw': -4.41, 'datetime': '2018-10-12 18:36:27.268219', 'mgs': 0, 'depth': -0.064, 'time': 14.56, 'pitch': 23.87, 'roll': -4.64}
{'lipoC2': 8.37, 'temp': 26.44, 'lipoC3S3': 12.68, 'rot1': 0, 'rot0': 0, 'rot3': 0, 'rot2': 0, 'state': 'normal', 'yaw': -4.47, 'datetime': '2018-10-12 18:36:27.366860', 'mgs': 0, 'depth': -0.14, 'time': 14.65, 'pitch': 24.6, 'roll': -4.99}
{'lipoC2': 8.37, 'temp': 26.44, 'lipoC3S3': 12.68, 'rot1': 0, 'rot0': 0, 'rot3': 0, 'rot2': 0, 'state': 'normal', 'yaw': -4.69, 'datetime': '2018-10-12 18:36:27.465196', 'mgs': 0, 'depth': -0.14, 'time': 14.75, 'pitch': 25.17, 'roll': -5.6}
{'lipoC2': 8.37, 'temp': 26.44, 'lipoC3S3': 12.68, 'rot1': 0, 'rot0': 0, 'rot3': 0, 'rot2': 0, 'state': 'normal', 'yaw': -4.87, 'datetime': '2018-10-12 18:36:27.562614', 'mgs': 0, 'depth': -0.064, 'time': 14.85, 'pitch': 25.51, 'roll': -5.62}
{'lipoC2': 8.37, 'temp': 26.44, 'lipoC3S3': 12.68, 'rot1': 0, 'rot0': 0, 'rot3': 0, 'rot2': 0, 'state': 'normal', 'yaw': -4.81, 'datetime': '2018-10-12 18:36:27.659731', 'mgs': 0, 'depth': -0.14, 'time': 14.95, 'pitch': 25.46, 'roll': -4.88}
{'lipoC2': 8.37, 'temp': 26.38, 'lipoC3S3': 12.68, 'rot1': 0, 'rot0': 0, 'rot3': 0, 'rot2': 0, 'state': 'normal', 'yaw': -4.43, 'datetime': '2018-10-12 18:36:27.757862', 'mgs': 0, 'depth': -0.064, 'time': 15.05, 'pitch': 25.16, 'roll': -4.31}
{'lipoC2': 8.37, 'temp': 26.38, 'lipoC3S3': 12.68, 'rot1': 0, 'rot0': 0, 'rot3': 0, 'rot2': 0, 'state': 'normal', 'yaw': -4.12, 'datetime': '2018-10-12 18:36:27.856461', 'mgs': 0, 'depth': -0.14, 'time': 15.14, 'pitch': 24.97, 'roll': -4.14}
{'lipoC2': 8.37, 'temp': 26.38, 'lipoC3S3': 12.68, 'rot1': 0, 'rot0': 0, 'rot3': 0, 'rot2': 0, 'state': 'normal', 'yaw': -3.85, 'datetime': '2018-10-12 18:36:27.954879', 'mgs': 0, 'depth': -0.064, 'time': 15.24, 'pitch': 24.26, 'roll': -4.03}
{'lipoC2': 8.37, 'temp': 26.38, 'lipoC3S3': 12.68, 'rot1': 0, 'rot0': 0, 'rot3': 0, 'rot2': 0, 'state': 'normal', 'yaw': -3.85, 'datetime': '2018-10-12 18:36:28.051980', 'mgs': 0, 'depth': -0.064, 'time': 15.34, 'pitch': 24.34, 'roll': -4.03}
{'lipoC2': 8.37, 'temp': 26.38, 'lipoC3S3': 12.68, 'rot1': 0, 'rot0': 0, 'rot3': 0, 'rot2': 0, 'state': 'normal', 'yaw': -3.84, 'datetime': '2018-10-12 18:36:28.149107', 'mgs': 0, 'depth': -0.064, 'time': 15.44, 'pitch': 24.22, 'roll': -4.03}
{'lipoC2': 8.37, 'temp': 26.44, 'lipoC3S3': 12.68, 'rot1': 0, 'rot0': 0, 'rot3': 0, 'rot2': 0, 'state': 'normal', 'yaw': -3.83, 'datetime': '2018-10-12 18:36:28.247711', 'mgs': 0, 'depth': -0.14, 'time': 15.53, 'pitch': 24.09, 'roll': -4.03}
{'lipoC2': 8.37, 'temp': 26.44, 'lipoC3S3': 12.68, 'rot1': 0, 'rot0': 0, 'rot3': 0, 'rot2': 0, 'state': 'normal', 'yaw': -3.83, 'datetime': '2018-10-12 18:36:28.346417', 'mgs': 0, 'depth': -0.14, 'time': 15.63, 'pitch': 24.08, 'roll': -4.01}
{'lipoC2': 8.37, 'temp': 26.44, 'lipoC3S3': 12.68, 'rot1': 0, 'rot0': 0, 'rot3': 0, 'rot2': 0, 'state': 'normal', 'yaw': -3.83, 'datetime': '2018-10-12 18:36:28.443860', 'mgs': 0, 'depth': -0.14, 'time': 15.73, 'pitch': 24.08, 'roll': -4.01}
{'lipoC2': 8.37, 'temp': 26.38, 'lipoC3S3': 12.68, 'rot1': 0, 'rot0': 0, 'rot3': 0, 'rot2': 0, 'state': 'normal', 'yaw': -3.84, 'datetime': '2018-10-12 18:36:28.540977', 'mgs': 0, 'depth': -0.064, 'time': 15.83, 'pitch': 24.13, 'roll': -4.01}
{'lipoC2': 8.37, 'temp': 26.38, 'lipoC3S3': 12.68, 'rot1': 0, 'rot0': 0, 'rot3': 0, 'rot2': 0, 'state': 'normal', 'yaw': -3.84, 'datetime': '2018-10-12 18:36:28.639283', 'mgs': 0, 'depth': -0.14, 'time': 15.93, 'pitch': 24.13, 'roll': -4.01}
{'lipoC2': 8.37, 'temp': 26.44, 'lipoC3S3': 12.68, 'rot1': 0, 'rot0': 0, 'rot3': 0, 'rot2': 0, 'state': 'normal', 'yaw': -3.83, 'datetime': '2018-10-12 18:36:28.736309', 'mgs': 0, 'depth': -0.064, 'time': 16.02, 'pitch': 24.09, 'roll': -4.01}
{'lipoC2': 8.36, 'temp': 26.44, 'lipoC3S3': 12.68, 'rot1': 0, 'rot0': 0, 'rot3': 0, 'rot2': 0, 'state': 'normal', 'yaw': -3.82, 'datetime': '2018-10-12 18:36:28.833601', 'mgs': 0, 'depth': -0.064, 'time': 16.12, 'pitch': 23.99, 'roll': -4.01}
{'lipoC2': 8.37, 'temp': 26.44, 'lipoC3S3': 12.68, 'rot1': 0, 'rot0': 0, 'rot3': 0, 'rot2': 0, 'state': 'normal', 'yaw': -3.82, 'datetime': '2018-10-12 18:36:28.930800', 'mgs': 0, 'depth': -0.14, 'time': 16.22, 'pitch': 23.96, 'roll': -4.01}
{'lipoC2': 8.36, 'temp': 26.44, 'lipoC3S3': 12.68, 'rot1': 0, 'rot0': 0, 'rot3': 0, 'rot2': 0, 'state': 'normal', 'yaw': -3.82, 'datetime': '2018-10-12 18:36:29.028924', 'mgs': 0, 'depth': -0.14, 'time': 16.32, 'pitch': 23.97, 'roll': -4.01}
{'lipoC2': 8.37, 'temp': 26.44, 'lipoC3S3': 12.68, 'rot1': 0, 'rot0': 0, 'rot3': 0, 'rot2': 0, 'state': 'normal', 'yaw': -3.82, 'datetime': '2018-10-12 18:36:29.126170', 'mgs': 0, 'depth': -0.14, 'time': 16.41, 'pitch': 24.01, 'roll': -4.01}
{'lipoC2': 8.37, 'temp': 26.44, 'lipoC3S3': 12.68, 'rot1': 0, 'rot0': 0, 'rot3': 0, 'rot2': 0, 'state': 'normal', 'yaw': -3.82, 'datetime': '2018-10-12 18:36:29.223405', 'mgs': 0, 'depth': -0.064, 'time': 16.51, 'pitch': 24.05, 'roll': -4.01}
{'lipoC2': 8.37, 'temp': 26.44, 'lipoC3S3': 12.68, 'rot1': 0, 'rot0': 0, 'rot3': 0, 'rot2': 0, 'state': 'normal', 'yaw': -3.82, 'datetime': '2018-10-12 18:36:29.320851', 'mgs': 0, 'depth': -0.14, 'time': 16.61, 'pitch': 24.05, 'roll': -4.01}
{'lipoC2': 8.37, 'temp': 26.44, 'lipoC3S3': 12.68, 'rot1': 0, 'rot0': 0, 'rot3': 0, 'rot2': 0, 'state': 'normal', 'yaw': -3.82, 'datetime': '2018-10-12 18:36:29.419446', 'mgs': 0, 'depth': -0.064, 'time': 16.71, 'pitch': 24.01, 'roll': -4.01}
{'lipoC2': 8.37, 'temp': 26.44, 'lipoC3S3': 12.67, 'rot1': 0, 'rot0': 0, 'rot3': 0, 'rot2': 0, 'state': 'normal', 'yaw': -3.82, 'datetime': '2018-10-12 18:36:29.517720', 'mgs': 0, 'depth': 0.012, 'time': 16.81, 'pitch': 23.98, 'roll': -4.0}
{'lipoC2': 8.37, 'temp': 26.44, 'lipoC3S3': 12.68, 'rot1': 0, 'rot0': 0, 'rot3': 0, 'rot2': 0, 'state': 'normal', 'yaw': -3.83, 'datetime': '2018-10-12 18:36:29.615519', 'mgs': 0, 'depth': -0.064, 'time': 16.91, 'pitch': 24.04, 'roll': -4.01}
{'lipoC2': 8.37, 'temp': 26.44, 'lipoC3S3': 12.68, 'rot1': 0, 'rot0': 0, 'rot3': 0, 'rot2': 0, 'state': 'normal', 'yaw': -3.83, 'datetime': '2018-10-12 18:36:29.712672', 'mgs': 0, 'depth': -0.064, 'time': 17.0, 'pitch': 24.04, 'roll': -4.01}
{'lipoC2': 8.37, 'temp': 26.44, 'lipoC3S3': 12.68, 'rot1': 0, 'rot0': 0, 'rot3': 0, 'rot2': 0, 'state': 'normal', 'yaw': -3.83, 'datetime': '2018-10-12 18:36:29.810647', 'mgs': 0, 'depth': 0.012, 'time': 17.1, 'pitch': 24.04, 'roll': -4.01}
{'lipoC2': 8.37, 'temp': 26.44, 'lipoC3S3': 12.68, 'rot1': 0, 'rot0': 0, 'rot3': 0, 'rot2': 0, 'state': 'normal', 'yaw': -3.83, 'datetime': '2018-10-12 18:36:29.909330', 'mgs': 0, 'depth': -0.064, 'time': 17.2, 'pitch': 24.05, 'roll': -4.01}
{'lipoC2': 8.37, 'temp': 26.44, 'lipoC3S3': 12.68, 'rot1': 0, 'rot0': 0, 'rot3': 0, 'rot2': 0, 'state': 'normal', 'yaw': -3.83, 'datetime': '2018-10-12 18:36:30.007712', 'mgs': 0, 'depth': -0.14, 'time': 17.3, 'pitch': 24.05, 'roll': -4.01}
{'lipoC2': 8.37, 'temp': 26.44, 'lipoC3S3': 12.68, 'rot1': 0, 'rot0': 0, 'rot3': 0, 'rot2': 0, 'state': 'normal', 'yaw': -3.82, 'datetime': '2018-10-12 18:36:30.104739', 'mgs': 0, 'depth': -0.064, 'time': 17.39, 'pitch': 23.96, 'roll': -4.0}
{'lipoC2': 8.37, 'temp': 26.44, 'lipoC3S3': 12.68, 'rot1': 0, 'rot0': 0, 'rot3': 0, 'rot2': 0, 'state': 'normal', 'yaw': -3.83, 'datetime': '2018-10-12 18:36:30.201993', 'mgs': 0, 'depth': -0.064, 'time': 17.49, 'pitch': 24.03, 'roll': -4.0}
{'lipoC2': 8.36, 'temp': 26.44, 'lipoC3S3': 12.68, 'rot1': 0, 'rot0': 0, 'rot3': 0, 'rot2': 0, 'state': 'normal', 'yaw': -3.83, 'datetime': '2018-10-12 18:36:30.300497', 'mgs': 0, 'depth': -0.064, 'time': 17.59, 'pitch': 24.03, 'roll': -4.0}
{'lipoC2': 8.37, 'temp': 26.44, 'lipoC3S3': 12.68, 'rot1': 0, 'rot0': 0, 'rot3': 0, 'rot2': 0, 'state': 'normal', 'yaw': -3.82, 'datetime': '2018-10-12 18:36:30.399152', 'mgs': 0, 'depth': -0.064, 'time': 17.69, 'pitch': 24.0, 'roll': -4.01}
{'lipoC2': 8.37, 'temp': 26.44, 'lipoC3S3': 12.68, 'rot1': 0, 'rot0': 0, 'rot3': 0, 'rot2': 0, 'state': 'normal', 'yaw': -3.82, 'datetime': '2018-10-12 18:36:30.496580', 'mgs': 0, 'depth': -0.064, 'time': 17.79, 'pitch': 23.98, 'roll': -4.0}
{'lipoC2': 8.36, 'temp': 26.44, 'lipoC3S3': 12.68, 'rot1': 0, 'rot0': 0, 'rot3': 0, 'rot2': 0, 'state': 'normal', 'yaw': -3.82, 'datetime': '2018-10-12 18:36:30.593845', 'mgs': 0, 'depth': -0.064, 'time': 17.88, 'pitch': 23.95, 'roll': -4.0}
{'lipoC2': 8.37, 'temp': 26.38, 'lipoC3S3': 12.67, 'rot1': 0, 'rot0': 0, 'rot3': 0, 'rot2': 0, 'state': 'normal', 'yaw': -3.82, 'datetime': '2018-10-12 18:36:30.691930', 'mgs': 0, 'depth': -0.064, 'time': 17.98, 'pitch': 23.96, 'roll': -3.98}
{'lipoC2': 8.37, 'temp': 26.38, 'lipoC3S3': 12.68, 'rot1': 0, 'rot0': 0, 'rot3': 0, 'rot2': 0, 'state': 'normal', 'yaw': -3.82, 'datetime': '2018-10-12 18:36:30.790490', 'mgs': 0, 'depth': -0.064, 'time': 18.08, 'pitch': 23.97, 'roll': -3.98}
{'lipoC2': 8.37, 'temp': 26.38, 'lipoC3S3': 12.68, 'rot1': 0, 'rot0': 0, 'rot3': 0, 'rot2': 0, 'state': 'normal', 'yaw': -3.82, 'datetime': '2018-10-12 18:36:30.888841', 'mgs': 0, 'depth': -0.064, 'time': 18.18, 'pitch': 23.97, 'roll': -3.98}
{'lipoC2': 8.37, 'temp': 26.38, 'lipoC3S3': 12.68, 'rot1': 0, 'rot0': 0, 'rot3': 0, 'rot2': 0, 'state': 'normal', 'yaw': -3.82, 'datetime': '2018-10-12 18:36:30.986264', 'mgs': 0, 'depth': -0.064, 'time': 18.28, 'pitch': 23.97, 'roll': -3.98}
{'lipoC2': 8.37, 'temp': 26.38, 'lipoC3S3': 12.68, 'rot1': 0, 'rot0': 0, 'rot3': 0, 'rot2': 0, 'state': 'normal', 'yaw': -3.82, 'datetime': '2018-10-12 18:36:31.083334', 'mgs': 0, 'depth': -0.14, 'time': 18.37, 'pitch': 23.93, 'roll': -3.98}
{'lipoC2': 8.36, 'temp': 26.38, 'lipoC3S3': 12.68, 'rot1': 0, 'rot0': 0, 'rot3': 0, 'rot2': 0, 'state': 'normal', 'yaw': -3.82, 'datetime': '2018-10-12 18:36:31.181859', 'mgs': 0, 'depth': -0.064, 'time': 18.47, 'pitch': 23.93, 'roll': -3.98}
{'lipoC2': 8.37, 'temp': 26.38, 'lipoC3S3': 12.68, 'rot1': 0, 'rot0': 0, 'rot3': 0, 'rot2': 0, 'state': 'normal', 'yaw': -3.82, 'datetime': '2018-10-12 18:36:31.278977', 'mgs': 0, 'depth': -0.064, 'time': 18.57, 'pitch': 23.93, 'roll': -3.98}
{'lipoC2': 8.37, 'temp': 26.44, 'lipoC3S3': 12.68, 'rot1': 0, 'rot0': 0, 'rot3': 0, 'rot2': 0, 'state': 'normal', 'yaw': -3.82, 'datetime': '2018-10-12 18:36:31.376457', 'mgs': 0, 'depth': -0.064, 'time': 18.67, 'pitch': 23.93, 'roll': -3.98}
{'lipoC2': 8.36, 'temp': 26.44, 'lipoC3S3': 12.68, 'rot1': 0, 'rot0': 0, 'rot3': 0, 'rot2': 0, 'state': 'normal', 'yaw': -3.82, 'datetime': '2018-10-12 18:36:31.473863', 'mgs': 0, 'depth': -0.064, 'time': 18.76, 'pitch': 23.88, 'roll': -3.98}
{'lipoC2': 8.37, 'temp': 26.44, 'lipoC3S3': 12.68, 'rot1': 0, 'rot0': 0, 'rot3': 0, 'rot2': 0, 'state': 'normal', 'yaw': -3.82, 'datetime': '2018-10-12 18:36:31.572348', 'mgs': 0, 'depth': -0.064, 'time': 18.86, 'pitch': 23.89, 'roll': -3.98}
{'lipoC2': 8.37, 'temp': 26.44, 'lipoC3S3': 12.68, 'rot1': 0, 'rot0': 0, 'rot3': 0, 'rot2': 0, 'state': 'normal', 'yaw': -3.82, 'datetime': '2018-10-12 18:36:31.671061', 'mgs': 0, 'depth': -0.14, 'time': 18.96, 'pitch': 23.89, 'roll': -3.98}
{'lipoC2': 8.37, 'temp': 26.44, 'lipoC3S3': 12.68, 'rot1': 0, 'rot0': 0, 'rot3': 0, 'rot2': 0, 'state': 'normal', 'yaw': -3.81, 'datetime': '2018-10-12 18:36:31.768382', 'mgs': 0, 'depth': -0.064, 'time': 19.06, 'pitch': 23.86, 'roll': -3.98}
{'lipoC2': 8.36, 'temp': 26.44, 'lipoC3S3': 12.68, 'rot1': 0, 'rot0': 0, 'rot3': 0, 'rot2': 0, 'state': 'normal', 'yaw': -3.81, 'datetime': '2018-10-12 18:36:31.865582', 'mgs': 0, 'depth': -0.14, 'time': 19.16, 'pitch': 23.86, 'roll': -3.98}
{'lipoC2': 8.36, 'temp': 26.44, 'lipoC3S3': 12.68, 'rot1': 0, 'rot0': 0, 'rot3': 0, 'rot2': 0, 'state': 'normal', 'yaw': -3.81, 'datetime': '2018-10-12 18:36:31.963734', 'mgs': 0, 'depth': -0.064, 'time': 19.25, 'pitch': 23.85, 'roll': -3.98}
{'lipoC2': 8.37, 'temp': 26.44, 'lipoC3S3': 12.68, 'rot1': 0, 'rot0': 0, 'rot3': 0, 'rot2': 0, 'state': 'normal', 'yaw': -3.81, 'datetime': '2018-10-12 18:36:32.062244', 'mgs': 0, 'depth': -0.064, 'time': 19.35, 'pitch': 23.85, 'roll': -3.98}
{'lipoC2': 8.37, 'temp': 26.44, 'lipoC3S3': 12.67, 'rot1': 0, 'rot0': 0, 'rot3': 0, 'rot2': 0, 'state': 'normal', 'yaw': -3.81, 'datetime': '2018-10-12 18:36:32.160702', 'mgs': 0, 'depth': 0.012, 'time': 19.45, 'pitch': 23.85, 'roll': -3.98}
{'lipoC2': 8.37, 'temp': 26.44, 'lipoC3S3': 12.68, 'rot1': 0, 'rot0': 0, 'rot3': 0, 'rot2': 0, 'state': 'normal', 'yaw': -3.81, 'datetime': '2018-10-12 18:36:32.257935', 'mgs': 0, 'depth': -0.064, 'time': 19.55, 'pitch': 23.85, 'roll': -3.98}
{'lipoC2': 8.36, 'temp': 26.38, 'lipoC3S3': 12.68, 'rot1': 0, 'rot0': 0, 'rot3': 0, 'rot2': 0, 'state': 'normal', 'yaw': -3.81, 'datetime': '2018-10-12 18:36:32.355126', 'mgs': 0, 'depth': -0.064, 'time': 19.65, 'pitch': 23.84, 'roll': -3.98}
{'lipoC2': 8.37, 'temp': 26.38, 'lipoC3S3': 12.68, 'rot1': 0, 'rot0': 0, 'rot3': 0, 'rot2': 0, 'state': 'normal', 'yaw': -3.81, 'datetime': '2018-10-12 18:36:32.453529', 'mgs': 0, 'depth': -0.064, 'time': 19.75, 'pitch': 23.79, 'roll': -3.98}
{'lipoC2': 8.36, 'temp': 26.38, 'lipoC3S3': 12.68, 'rot1': 0, 'rot0': 0, 'rot3': 0, 'rot2': 0, 'state': 'normal', 'yaw': -3.8, 'datetime': '2018-10-12 18:36:32.552062', 'mgs': 0, 'depth': -0.064, 'time': 19.84, 'pitch': 23.78, 'roll': -3.98}
{'lipoC2': 8.37, 'temp': 26.44, 'lipoC3S3': 12.68, 'rot1': 0, 'rot0': 0, 'rot3': 0, 'rot2': 0, 'state': 'normal', 'yaw': -3.8, 'datetime': '2018-10-12 18:36:32.650233', 'mgs': 0, 'depth': -0.064, 'time': 19.94, 'pitch': 23.72, 'roll': -3.97}
{'lipoC2': 8.36, 'temp': 26.44, 'lipoC3S3': 12.68, 'rot1': 0, 'rot0': 0, 'rot3': 0, 'rot2': 0, 'state': 'normal', 'yaw': -3.8, 'datetime': '2018-10-12 18:36:32.746802', 'mgs': 0, 'depth': -0.064, 'time': 20.04, 'pitch': 23.7, 'roll': -3.98}
{'lipoC2': 8.37, 'temp': 26.44, 'lipoC3S3': 12.68, 'rot1': 0, 'rot0': 0, 'rot3': 0, 'rot2': 0, 'state': 'normal', 'yaw': -3.8, 'datetime': '2018-10-12 18:36:32.846139', 'mgs': 0, 'depth': -0.14, 'time': 20.14, 'pitch': 23.66, 'roll': -3.97}
{'lipoC2': 8.37, 'temp': 26.44, 'lipoC3S3': 12.68, 'rot1': 0, 'rot0': 0, 'rot3': 0, 'rot2': 0, 'state': 'normal', 'yaw': -3.8, 'datetime': '2018-10-12 18:36:32.943488', 'mgs': 0, 'depth': -0.064, 'time': 20.24, 'pitch': 23.66, 'roll': -3.97}
{'lipoC2': 8.37, 'temp': 26.44, 'lipoC3S3': 12.68, 'rot1': 0, 'rot0': 0, 'rot3': 0, 'rot2': 0, 'state': 'normal', 'yaw': -3.8, 'datetime': '2018-10-12 18:36:33.043217', 'mgs': 0, 'depth': -0.14, 'time': 20.33, 'pitch': 23.66, 'roll': -3.98}
{'lipoC2': 8.37, 'temp': 26.38, 'lipoC3S3': 12.68, 'rot1': 0, 'rot0': 0, 'rot3': 0, 'rot2': 0, 'state': 'normal', 'yaw': -3.8, 'datetime': '2018-10-12 18:36:33.139489', 'mgs': 0, 'depth': -0.064, 'time': 20.43, 'pitch': 23.66, 'roll': -3.98}
{'lipoC2': 8.37, 'temp': 26.38, 'lipoC3S3': 12.68, 'rot1': 0, 'rot0': 0, 'rot3': 0, 'rot2': 0, 'state': 'normal', 'yaw': -3.79, 'datetime': '2018-10-12 18:36:33.237069', 'mgs': 0, 'depth': -0.064, 'time': 20.53, 'pitch': 23.62, 'roll': -3.98}
{'lipoC2': 8.37, 'temp': 26.44, 'lipoC3S3': 12.68, 'rot1': 0, 'rot0': 0, 'rot3': 0, 'rot2': 0, 'state': 'normal', 'yaw': -3.79, 'datetime': '2018-10-12 18:36:33.334103', 'mgs': 0, 'depth': -0.064, 'time': 20.63, 'pitch': 23.6, 'roll': -3.97}
{'lipoC2': 8.37, 'temp': 26.44, 'lipoC3S3': 12.68, 'rot1': 0, 'rot0': 0, 'rot3': 0, 'rot2': 0, 'state': 'normal', 'yaw': -3.79, 'datetime': '2018-10-12 18:36:33.430802', 'mgs': 0, 'depth': -0.064, 'time': 20.72, 'pitch': 23.56, 'roll': -3.98}
{'lipoC2': 8.37, 'temp': 26.44, 'lipoC3S3': 12.68, 'rot1': 0, 'rot0': 0, 'rot3': 0, 'rot2': 0, 'state': 'normal', 'yaw': -3.79, 'datetime': '2018-10-12 18:36:33.528017', 'mgs': 0, 'depth': -0.064, 'time': 20.82, 'pitch': 23.57, 'roll': -4.02}
{'lipoC2': 8.37, 'temp': 26.38, 'lipoC3S3': 12.68, 'rot1': 0, 'rot0': 0, 'rot3': 0, 'rot2': 0, 'state': 'normal', 'yaw': -3.79, 'datetime': '2018-10-12 18:36:33.626364', 'mgs': 0, 'depth': -0.14, 'time': 20.92, 'pitch': 23.49, 'roll': -4.04}
{'lipoC2': 8.37, 'temp': 26.38, 'lipoC3S3': 12.68, 'rot1': 0, 'rot0': 0, 'rot3': 0, 'rot2': 0, 'state': 'normal', 'yaw': -3.79, 'datetime': '2018-10-12 18:36:33.724903', 'mgs': 0, 'depth': -0.14, 'time': 21.02, 'pitch': 23.51, 'roll': -4.04}
{'lipoC2': 8.37, 'temp': 26.44, 'lipoC3S3': 12.68, 'rot1': 0, 'rot0': 0, 'rot3': 0, 'rot2': 0, 'state': 'normal', 'yaw': -3.79, 'datetime': '2018-10-12 18:36:33.823254', 'mgs': 0, 'depth': -0.064, 'time': 21.12, 'pitch': 23.58, 'roll': -4.04}
{'lipoC2': 8.37, 'temp': 26.44, 'lipoC3S3': 12.68, 'rot1': 0, 'rot0': 0, 'rot3': 0, 'rot2': 0, 'state': 'normal', 'yaw': -3.79, 'datetime': '2018-10-12 18:36:33.920460', 'mgs': 0, 'depth': -0.064, 'time': 21.21, 'pitch': 23.58, 'roll': -4.04}
{'lipoC2': 8.37, 'temp': 26.44, 'lipoC3S3': 12.68, 'rot1': 0, 'rot0': 0, 'rot3': 0, 'rot2': 0, 'state': 'normal', 'yaw': -3.79, 'datetime': '2018-10-12 18:36:34.017704', 'mgs': 0, 'depth': -0.064, 'time': 21.31, 'pitch': 23.53, 'roll': -4.0}
{'lipoC2': 8.36, 'temp': 26.44, 'lipoC3S3': 12.68, 'rot1': 0, 'rot0': 0, 'rot3': 0, 'rot2': 0, 'state': 'normal', 'yaw': -3.79, 'datetime': '2018-10-12 18:36:34.116216', 'mgs': 0, 'depth': -0.064, 'time': 21.41, 'pitch': 23.59, 'roll': -3.92}
{'lipoC2': 8.37, 'temp': 26.44, 'lipoC3S3': 12.68, 'rot1': 0, 'rot0': 0, 'rot3': 0, 'rot2': 0, 'state': 'normal', 'yaw': -3.78, 'datetime': '2018-10-12 18:36:34.214763', 'mgs': 0, 'depth': -0.064, 'time': 21.51, 'pitch': 23.45, 'roll': -3.87}
{'lipoC2': 8.37, 'temp': 26.38, 'lipoC3S3': 12.68, 'rot1': 0, 'rot0': 0, 'rot3': 0, 'rot2': 0, 'state': 'normal', 'yaw': -3.79, 'datetime': '2018-10-12 18:36:34.312775', 'mgs': 0, 'depth': -0.064, 'time': 21.61, 'pitch': 23.52, 'roll': -3.92}
{'lipoC2': 8.37, 'temp': 26.38, 'lipoC3S3': 12.67, 'rot1': 0, 'rot0': 0, 'rot3': 0, 'rot2': 0, 'state': 'normal', 'yaw': -3.78, 'datetime': '2018-10-12 18:36:34.410197', 'mgs': 0, 'depth': -0.14, 'time': 21.7, 'pitch': 23.52, 'roll': -3.92}
{'lipoC2': 8.37, 'temp': 26.38, 'lipoC3S3': 12.68, 'rot1': 0, 'rot0': 0, 'rot3': 0, 'rot2': 0, 'state': 'normal', 'yaw': -3.77, 'datetime': '2018-10-12 18:36:34.507763', 'mgs': 0, 'depth': -0.064, 'time': 21.8, 'pitch': 23.25, 'roll': -3.9}
{'lipoC2': 8.37, 'temp': 26.44, 'lipoC3S3': 12.68, 'rot1': 0, 'rot0': 0, 'rot3': 0, 'rot2': 0, 'state': 'normal', 'yaw': -3.77, 'datetime': '2018-10-12 18:36:34.606129', 'mgs': 0, 'depth': -0.064, 'time': 21.9, 'pitch': 23.32, 'roll': -3.9}
{'lipoC2': 8.37, 'temp': 26.44, 'lipoC3S3': 12.68, 'rot1': 0, 'rot0': 0, 'rot3': 0, 'rot2': 0, 'state': 'normal', 'yaw': -3.75, 'datetime': '2018-10-12 18:36:34.704140', 'mgs': 0, 'depth': -0.064, 'time': 22.0, 'pitch': 23.14, 'roll': -3.9}
{'lipoC2': 8.37, 'temp': 26.44, 'lipoC3S3': 12.67, 'rot1': 0, 'rot0': 0, 'rot3': 0, 'rot2': 0, 'state': 'normal', 'yaw': -3.79, 'datetime': '2018-10-12 18:36:34.801247', 'mgs': 0, 'depth': 0.012, 'time': 22.09, 'pitch': 23.52, 'roll': -3.93}
{'lipoC2': 8.37, 'temp': 26.44, 'lipoC3S3': 12.68, 'rot1': 0, 'rot0': 0, 'rot3': 0, 'rot2': 0, 'state': 'normal', 'yaw': -3.79, 'datetime': '2018-10-12 18:36:34.898637', 'mgs': 0, 'depth': -0.14, 'time': 22.19, 'pitch': 23.63, 'roll': -3.94}
{'lipoC2': 8.37, 'temp': 26.44, 'lipoC3S3': 12.68, 'rot1': 0, 'rot0': 0, 'rot3': 0, 'rot2': 0, 'state': 'normal', 'yaw': -3.78, 'datetime': '2018-10-12 18:36:34.996486', 'mgs': 0, 'depth': -0.064, 'time': 22.29, 'pitch': 23.22, 'roll': -3.92}
{'lipoC2': 8.37, 'temp': 26.44, 'lipoC3S3': 12.68, 'rot1': 0, 'rot0': 0, 'rot3': 0, 'rot2': 0, 'state': 'normal', 'yaw': -3.81, 'datetime': '2018-10-12 18:36:35.092945', 'mgs': 0, 'depth': -0.14, 'time': 22.39, 'pitch': 23.51, 'roll': -4.06}
{'lipoC2': 8.37, 'temp': 26.44, 'lipoC3S3': 12.68, 'rot1': 0, 'rot0': 0, 'rot3': 0, 'rot2': 0, 'state': 'normal', 'yaw': -3.8, 'datetime': '2018-10-12 18:36:35.190606', 'mgs': 0, 'depth': -0.064, 'time': 22.48, 'pitch': 23.69, 'roll': -4.0}
{'lipoC2': 8.37, 'temp': 26.44, 'lipoC3S3': 12.68, 'rot1': 0, 'rot0': 0, 'rot3': 0, 'rot2': 0, 'state': 'normal', 'yaw': -3.79, 'datetime': '2018-10-12 18:36:35.287534', 'mgs': 0, 'depth': -0.14, 'time': 22.58, 'pitch': 23.68, 'roll': -4.02}
{'lipoC2': 8.37, 'temp': 26.44, 'lipoC3S3': 12.67, 'rot1': 0, 'rot0': 0, 'rot3': 0, 'rot2': 0, 'state': 'normal', 'yaw': -3.79, 'datetime': '2018-10-12 18:36:35.385440', 'mgs': 0, 'depth': -0.064, 'time': 22.68, 'pitch': 23.71, 'roll': -4.05}
{'lipoC2': 8.37, 'temp': 26.44, 'lipoC3S3': 12.68, 'rot1': 0, 'rot0': 0, 'rot3': 0, 'rot2': 0, 'state': 'normal', 'yaw': -3.78, 'datetime': '2018-10-12 18:36:35.481875', 'mgs': 0, 'depth': -0.14, 'time': 22.78, 'pitch': 23.22, 'roll': -4.01}
{'lipoC2': 8.37, 'temp': 26.44, 'lipoC3S3': 12.68, 'rot1': 0, 'rot0': 0, 'rot3': 0, 'rot2': 0, 'state': 'normal', 'yaw': -3.79, 'datetime': '2018-10-12 18:36:35.579610', 'mgs': 0, 'depth': -0.064, 'time': 22.88, 'pitch': 23.3, 'roll': -3.96}
{'lipoC2': 8.37, 'temp': 26.44, 'lipoC3S3': 12.67, 'rot1': 0, 'rot0': 0, 'rot3': 0, 'rot2': 0, 'state': 'normal', 'yaw': -3.79, 'datetime': '2018-10-12 18:36:35.678573', 'mgs': 0, 'depth': -0.064, 'time': 22.97, 'pitch': 23.31, 'roll': -3.96}
{'lipoC2': 8.37, 'temp': 26.44, 'lipoC3S3': 12.68, 'rot1': 0, 'rot0': 0, 'rot3': 0, 'rot2': 0, 'state': 'normal', 'yaw': -3.79, 'datetime': '2018-10-12 18:36:35.776749', 'mgs': 0, 'depth': -0.064, 'time': 23.07, 'pitch': 23.32, 'roll': -3.94}
{'lipoC2': 8.37, 'temp': 26.44, 'lipoC3S3': 12.68, 'rot1': 0, 'rot0': 0, 'rot3': 0, 'rot2': 0, 'state': 'normal', 'yaw': -3.8, 'datetime': '2018-10-12 18:36:35.874895', 'mgs': 0, 'depth': -0.064, 'time': 23.17, 'pitch': 23.39, 'roll': -3.94}
{'lipoC2': 8.37, 'temp': 26.38, 'lipoC3S3': 12.68, 'rot1': 0, 'rot0': 0, 'rot3': 0, 'rot2': 0, 'state': 'normal', 'yaw': -3.79, 'datetime': '2018-10-12 18:36:35.971314', 'mgs': 0, 'depth': -0.064, 'time': 23.27, 'pitch': 23.33, 'roll': -3.95}
{'lipoC2': 8.37, 'temp': 26.38, 'lipoC3S3': 12.68, 'rot1': 0, 'rot0': 0, 'rot3': 0, 'rot2': 0, 'state': 'normal', 'yaw': -3.79, 'datetime': '2018-10-12 18:36:36.069558', 'mgs': 0, 'depth': -0.064, 'time': 23.36, 'pitch': 23.41, 'roll': -3.92}
{'lipoC2': 8.37, 'temp': 26.38, 'lipoC3S3': 12.68, 'rot1': 0, 'rot0': 0, 'rot3': 0, 'rot2': 0, 'state': 'normal', 'yaw': -3.78, 'datetime': '2018-10-12 18:36:36.168768', 'mgs': 0, 'depth': -0.14, 'time': 23.46, 'pitch': 23.3, 'roll': -3.93}
{'lipoC2': 8.37, 'temp': 26.44, 'lipoC3S3': 12.67, 'rot1': 0, 'rot0': 0, 'rot3': 0, 'rot2': 0, 'state': 'normal', 'yaw': -3.79, 'datetime': '2018-10-12 18:36:36.266518', 'mgs': 0, 'depth': -0.064, 'time': 23.56, 'pitch': 23.33, 'roll': -3.92}
{'lipoC2': 8.37, 'temp': 26.44, 'lipoC3S3': 12.68, 'rot1': 0, 'rot0': 0, 'rot3': 0, 'rot2': 0, 'state': 'normal', 'yaw': -3.79, 'datetime': '2018-10-12 18:36:36.363759', 'mgs': 0, 'depth': -0.064, 'time': 23.66, 'pitch': 23.31, 'roll': -3.92}
{'lipoC2': 8.37, 'temp': 26.44, 'lipoC3S3': 12.68, 'rot1': 0, 'rot0': 0, 'rot3': 0, 'rot2': 0, 'state': 'normal', 'yaw': -3.79, 'datetime': '2018-10-12 18:36:36.461257', 'mgs': 0, 'depth': -0.064, 'time': 23.76, 'pitch': 23.32, 'roll': -3.92}
{'lipoC2': 8.36, 'temp': 26.44, 'lipoC3S3': 12.68, 'rot1': 0, 'rot0': 0, 'rot3': 0, 'rot2': 0, 'state': 'normal', 'yaw': -3.79, 'datetime': '2018-10-12 18:36:36.559518', 'mgs': 0, 'depth': -0.064, 'time': 23.86, 'pitch': 23.32, 'roll': -3.92}
{'lipoC2': 8.37, 'temp': 26.44, 'lipoC3S3': 12.68, 'rot1': 0, 'rot0': 0, 'rot3': 0, 'rot2': 0, 'state': 'normal', 'yaw': -3.79, 'datetime': '2018-10-12 18:36:36.658251', 'mgs': 0, 'depth': -0.064, 'time': 23.95, 'pitch': 23.26, 'roll': -3.92}
{'lipoC2': 8.37, 'temp': 26.44, 'lipoC3S3': 12.68, 'rot1': 0, 'rot0': 0, 'rot3': 0, 'rot2': 0, 'state': 'normal', 'yaw': -3.79, 'datetime': '2018-10-12 18:36:36.755482', 'mgs': 0, 'depth': -0.064, 'time': 24.05, 'pitch': 23.31, 'roll': -3.92}
{'lipoC2': 8.37, 'temp': 26.44, 'lipoC3S3': 12.68, 'rot1': 0, 'rot0': 0, 'rot3': 0, 'rot2': 0, 'state': 'normal', 'yaw': -3.79, 'datetime': '2018-10-12 18:36:36.852679', 'mgs': 0, 'depth': -0.14, 'time': 24.15, 'pitch': 23.31, 'roll': -3.92}
{'lipoC2': 8.37, 'temp': 26.44, 'lipoC3S3': 12.68, 'rot1': 0, 'rot0': 0, 'rot3': 0, 'rot2': 0, 'state': 'normal', 'yaw': -3.79, 'datetime': '2018-10-12 18:36:36.950831', 'mgs': 0, 'depth': -0.064, 'time': 24.25, 'pitch': 23.31, 'roll': -3.92}
{'lipoC2': 8.37, 'temp': 26.44, 'lipoC3S3': 12.68, 'rot1': 0, 'rot0': 0, 'rot3': 0, 'rot2': 0, 'state': 'normal', 'yaw': -3.79, 'datetime': '2018-10-12 18:36:37.049296', 'mgs': 0, 'depth': -0.064, 'time': 24.35, 'pitch': 23.28, 'roll': -3.93}
{'lipoC2': 8.37, 'temp': 26.44, 'lipoC3S3': 12.68, 'rot1': 0, 'rot0': 0, 'rot3': 0, 'rot2': 0, 'state': 'normal', 'yaw': -3.79, 'datetime': '2018-10-12 18:36:37.147889', 'mgs': 0, 'depth': -0.14, 'time': 24.44, 'pitch': 23.28, 'roll': -3.93}
{'lipoC2': 8.36, 'temp': 26.44, 'lipoC3S3': 12.68, 'rot1': 0, 'rot0': 0, 'rot3': 0, 'rot2': 0, 'state': 'normal', 'yaw': -3.79, 'datetime': '2018-10-12 18:36:37.245140', 'mgs': 0, 'depth': -0.064, 'time': 24.54, 'pitch': 23.28, 'roll': -3.93}
{'lipoC2': 8.37, 'temp': 26.44, 'lipoC3S3': 12.68, 'rot1': 0, 'rot0': 0, 'rot3': 0, 'rot2': 0, 'state': 'normal', 'yaw': -3.79, 'datetime': '2018-10-12 18:36:37.342488', 'mgs': 0, 'depth': -0.064, 'time': 24.64, 'pitch': 23.26, 'roll': -3.92}
{'lipoC2': 8.37, 'temp': 26.44, 'lipoC3S3': 12.68, 'rot1': 0, 'rot0': 0, 'rot3': 0, 'rot2': 0, 'state': 'normal', 'yaw': -3.79, 'datetime': '2018-10-12 18:36:37.440206', 'mgs': 0, 'depth': -0.14, 'time': 24.74, 'pitch': 23.26, 'roll': -3.92}
{'lipoC2': 8.36, 'temp': 26.44, 'lipoC3S3': 12.68, 'rot1': 0, 'rot0': 0, 'rot3': 0, 'rot2': 0, 'state': 'normal', 'yaw': -3.79, 'datetime': '2018-10-12 18:36:37.536988', 'mgs': 0, 'depth': -0.064, 'time': 24.83, 'pitch': 23.28, 'roll': -3.93}
{'lipoC2': 8.37, 'temp': 26.44, 'lipoC3S3': 12.68, 'rot1': 0, 'rot0': 0, 'rot3': 0, 'rot2': 0, 'state': 'normal', 'yaw': -3.8, 'datetime': '2018-10-12 18:36:37.634215', 'mgs': 0, 'depth': -0.064, 'time': 24.93, 'pitch': 23.28, 'roll': -3.93}
{'lipoC2': 8.37, 'temp': 26.44, 'lipoC3S3': 12.68, 'rot1': 0, 'rot0': 0, 'rot3': 0, 'rot2': 0, 'state': 'normal', 'yaw': -3.8, 'datetime': '2018-10-12 18:36:37.732356', 'mgs': 0, 'depth': -0.064, 'time': 25.03, 'pitch': 23.29, 'roll': -3.92}
{'lipoC2': 8.37, 'temp': 26.44, 'lipoC3S3': 12.68, 'rot1': 0, 'rot0': 0, 'rot3': 0, 'rot2': 0, 'state': 'normal', 'yaw': -3.8, 'datetime': '2018-10-12 18:36:37.830734', 'mgs': 0, 'depth': -0.064, 'time': 25.13, 'pitch': 23.27, 'roll': -3.93}
