{'lipoC2': 7.76, 'temp': 23.56, 'lipoC3S3': 11.71, 'rot1': 0, 'rot0': 0, 'rot3': 0, 'rot2': 0, 'state': 'normal', 'yaw': 0.0, 'datetime': '2018-10-12 14:11:58.884821', 'mgs': 0, 'depth': 2.072, 'time': 1.26, 'pitch': -0.88, 'roll': -13.36}
{'lipoC2': 7.76, 'temp': 23.56, 'lipoC3S3': 11.71, 'rot1': 0, 'rot0': 0, 'rot3': 0, 'rot2': 0, 'state': 'normal', 'yaw': 0.15, 'datetime': '2018-10-12 14:11:58.901877', 'mgs': 0, 'depth': 2.072, 'time': 1.36, 'pitch': -1.0, 'roll': -13.4}
{'lipoC2': 7.75, 'temp': 23.56, 'lipoC3S3': 11.71, 'rot1': 0, 'rot0': 0, 'rot3': 0, 'rot2': 0, 'state': 'normal', 'yaw': 0.19, 'datetime': '2018-10-12 14:11:58.919007', 'mgs': 0, 'depth': 2.072, 'time': 1.46, 'pitch': -1.04, 'roll': -13.42}
{'lipoC2': 7.76, 'temp': 23.56, 'lipoC3S3': 11.71, 'rot1': 0, 'rot0': 0, 'rot3': 0, 'rot2': 0, 'state': 'normal', 'yaw': 0.2, 'datetime': '2018-10-12 14:11:58.936083', 'mgs': 0, 'depth': 2.072, 'time': 1.55, 'pitch': -1.05, 'roll': -13.34}
{'lipoC2': 7.76, 'temp': 23.56, 'lipoC3S3': 11.71, 'rot1': 0, 'rot0': 0, 'rot3': 0, 'rot2': 0, 'state': 'normal', 'yaw': 0.18, 'datetime': '2018-10-12 14:11:58.952673', 'mgs': 0, 'depth': 1.996, 'time': 1.65, 'pitch': -1.01, 'roll': -13.26}
{'lipoC2': 7.76, 'temp': 23.56, 'lipoC3S3': 11.71, 'rot1': 0, 'rot0': 0, 'rot3': 0, 'rot2': 0, 'state': 'normal', 'yaw': 0.17, 'datetime': '2018-10-12 14:11:58.960031', 'mgs': 0, 'depth': 1.996, 'time': 1.75, 'pitch': -0.96, 'roll': -13.12}
{'lipoC2': 7.76, 'temp': 23.56, 'lipoC3S3': 11.71, 'rot1': 0, 'rot0': 0, 'rot3': 0, 'rot2': 0, 'state': 'normal', 'yaw': 0.09, 'datetime': '2018-10-12 14:11:58.967395', 'mgs': 0, 'depth': 1.996, 'time': 1.85, 'pitch': -0.98, 'roll': -13.04}
{'lipoC2': 7.76, 'temp': 23.56, 'lipoC3S3': 11.71, 'rot1': 0, 'rot0': 0, 'rot3': 0, 'rot2': 0, 'state': 'normal', 'yaw': -0.03, 'datetime': '2018-10-12 14:11:58.974754', 'mgs': 0, 'depth': 2.072, 'time': 1.94, 'pitch': -1.0, 'roll': -12.96}
{'lipoC2': 7.76, 'temp': 23.56, 'lipoC3S3': 11.72, 'rot1': 0, 'rot0': 0, 'rot3': 0, 'rot2': 0, 'state': 'normal', 'yaw': -0.16, 'datetime': '2018-10-12 14:11:58.982175', 'mgs': 0, 'depth': 2.072, 'time': 2.04, 'pitch': -0.92, 'roll': -12.98}
{'lipoC2': 7.75, 'temp': 23.56, 'lipoC3S3': 11.71, 'rot1': 0, 'rot0': 0, 'rot3': 0, 'rot2': 0, 'state': 'normal', 'yaw': -0.31, 'datetime': '2018-10-12 14:11:59.014323', 'mgs': 0, 'depth': 2.072, 'time': 2.14, 'pitch': -0.76, 'roll': -12.98}
{'lipoC2': 7.76, 'temp': 23.5, 'lipoC3S3': 11.72, 'rot1': 0, 'rot0': 0, 'rot3': 0, 'rot2': 0, 'state': 'normal', 'yaw': -0.5, 'datetime': '2018-10-12 14:11:59.111524', 'mgs': 0, 'depth': 2.072, 'time': 2.23, 'pitch': -0.55, 'roll': -13.0}
{'lipoC2': 7.76, 'temp': 23.5, 'lipoC3S3': 11.72, 'rot1': 0, 'rot0': 0, 'rot3': 0, 'rot2': 0, 'state': 'normal', 'yaw': -0.68, 'datetime': '2018-10-12 14:11:59.208537', 'mgs': 0, 'depth': 2.072, 'time': 2.33, 'pitch': -0.35, 'roll': -12.98}
{'lipoC2': 7.76, 'temp': 23.56, 'lipoC3S3': 11.71, 'rot1': 0, 'rot0': 0, 'rot3': 0, 'rot2': 0, 'state': 'normal', 'yaw': -0.82, 'datetime': '2018-10-12 14:11:59.305576', 'mgs': 0, 'depth': 2.072, 'time': 2.43, 'pitch': -0.08, 'roll': -12.93}
{'lipoC2': 7.76, 'temp': 23.56, 'lipoC3S3': 11.71, 'rot1': 0, 'rot0': 0, 'rot3': 0, 'rot2': 0, 'state': 'normal', 'yaw': -0.87, 'datetime': '2018-10-12 14:11:59.402595', 'mgs': 0, 'depth': 2.072, 'time': 2.53, 'pitch': 0.16, 'roll': -12.85}
{'lipoC2': 7.76, 'temp': 23.56, 'lipoC3S3': 11.71, 'rot1': 0, 'rot0': 0, 'rot3': 0, 'rot2': 0, 'state': 'normal', 'yaw': -0.95, 'datetime': '2018-10-12 14:11:59.499611', 'mgs': 0, 'depth': 1.996, 'time': 2.62, 'pitch': 0.29, 'roll': -12.77}
{'lipoC2': 7.76, 'temp': 23.56, 'lipoC3S3': 11.71, 'rot1': 0, 'rot0': 0, 'rot3': 0, 'rot2': 0, 'state': 'normal', 'yaw': -1.04, 'datetime': '2018-10-12 14:11:59.596646', 'mgs': 0, 'depth': 2.072, 'time': 2.72, 'pitch': 0.36, 'roll': -12.71}
{'lipoC2': 7.76, 'temp': 23.56, 'lipoC3S3': 11.71, 'rot1': 0, 'rot0': 0, 'rot3': 0, 'rot2': 0, 'state': 'normal', 'yaw': -1.05, 'datetime': '2018-10-12 14:11:59.698996', 'mgs': 0, 'depth': 2.072, 'time': 2.82, 'pitch': 0.37, 'roll': -12.66}
{'lipoC2': 7.76, 'temp': 23.56, 'lipoC3S3': 11.71, 'rot1': 0, 'rot0': 0, 'rot3': 0, 'rot2': 0, 'state': 'normal', 'yaw': -1.05, 'datetime': '2018-10-12 14:11:59.797303', 'mgs': 0, 'depth': 2.072, 'time': 2.92, 'pitch': 0.37, 'roll': -12.52}
{'lipoC2': 7.76, 'temp': 23.56, 'lipoC3S3': 11.71, 'rot1': 0, 'rot0': 0, 'rot3': 0, 'rot2': 0, 'state': 'normal', 'yaw': -1.05, 'datetime': '2018-10-12 14:11:59.895929', 'mgs': 0, 'depth': 2.072, 'time': 3.01, 'pitch': 0.37, 'roll': -12.47}
{'lipoC2': 7.76, 'temp': 23.56, 'lipoC3S3': 11.71, 'rot1': 0, 'rot0': 0, 'rot3': 0, 'rot2': 0, 'state': 'normal', 'yaw': -1.03, 'datetime': '2018-10-12 14:11:59.992890', 'mgs': 0, 'depth': 1.996, 'time': 3.11, 'pitch': 0.31, 'roll': -12.56}
{'lipoC2': 7.76, 'temp': 23.56, 'lipoC3S3': 11.71, 'rot1': 0, 'rot0': 0, 'rot3': 0, 'rot2': 0, 'state': 'normal', 'yaw': -1.02, 'datetime': '2018-10-12 14:12:00.089753', 'mgs': 0, 'depth': 1.996, 'time': 3.21, 'pitch': 0.25, 'roll': -12.63}
{'lipoC2': 7.76, 'temp': 23.56, 'lipoC3S3': 11.72, 'rot1': 0, 'rot0': 0, 'rot3': 0, 'rot2': 0, 'state': 'normal', 'yaw': -0.97, 'datetime': '2018-10-12 14:12:00.187984', 'mgs': 0, 'depth': 2.072, 'time': 3.31, 'pitch': 0.26, 'roll': -12.72}
{'lipoC2': 7.76, 'temp': 23.56, 'lipoC3S3': 11.71, 'rot1': 0, 'rot0': 0, 'rot3': 0, 'rot2': 0, 'state': 'normal', 'yaw': -0.91, 'datetime': '2018-10-12 14:12:00.286322', 'mgs': 0, 'depth': 2.072, 'time': 3.4, 'pitch': 0.24, 'roll': -12.74}
{'lipoC2': 7.76, 'temp': 23.56, 'lipoC3S3': 11.71, 'rot1': 0, 'rot0': 0, 'rot3': 0, 'rot2': 0, 'state': 'normal', 'yaw': -0.89, 'datetime': '2018-10-12 14:12:00.383404', 'mgs': 0, 'depth': 2.072, 'time': 3.5, 'pitch': 0.13, 'roll': -12.67}
{'lipoC2': 7.76, 'temp': 23.56, 'lipoC3S3': 11.71, 'rot1': 0, 'rot0': 0, 'rot3': 0, 'rot2': 0, 'state': 'normal', 'yaw': -0.85, 'datetime': '2018-10-12 14:12:00.480419', 'mgs': 0, 'depth': 2.072, 'time': 3.6, 'pitch': -0.05, 'roll': -12.47}
{'lipoC2': 7.76, 'temp': 23.56, 'lipoC3S3': 11.71, 'rot1': 0, 'rot0': 0, 'rot3': 0, 'rot2': 0, 'state': 'normal', 'yaw': -0.82, 'datetime': '2018-10-12 14:12:00.578566', 'mgs': 0, 'depth': 2.072, 'time': 3.7, 'pitch': -0.21, 'roll': -12.25}
{'lipoC2': 7.76, 'temp': 23.56, 'lipoC3S3': 11.71, 'rot1': 0, 'rot0': 0, 'rot3': 0, 'rot2': 0, 'state': 'normal', 'yaw': -0.79, 'datetime': '2018-10-12 14:12:00.675837', 'mgs': 0, 'depth': 1.996, 'time': 3.79, 'pitch': -0.33, 'roll': -12.09}
{'lipoC2': 7.76, 'temp': 23.56, 'lipoC3S3': 11.71, 'rot1': 0, 'rot0': 0, 'rot3': 0, 'rot2': 0, 'state': 'normal', 'yaw': -0.78, 'datetime': '2018-10-12 14:12:00.772923', 'mgs': 0, 'depth': 1.996, 'time': 3.89, 'pitch': -0.36, 'roll': -12.01}
{'lipoC2': 7.76, 'temp': 23.56, 'lipoC3S3': 11.71, 'rot1': 0, 'rot0': 0, 'rot3': 0, 'rot2': 0, 'state': 'normal', 'yaw': -0.85, 'datetime': '2018-10-12 14:12:00.870095', 'mgs': 0, 'depth': 2.072, 'time': 3.99, 'pitch': -0.37, 'roll': -12.01}
{'lipoC2': 7.76, 'temp': 23.56, 'lipoC3S3': 11.71, 'rot1': 0, 'rot0': 0, 'rot3': 0, 'rot2': 0, 'state': 'normal', 'yaw': -0.89, 'datetime': '2018-10-12 14:12:00.968370', 'mgs': 0, 'depth': 1.996, 'time': 4.09, 'pitch': -0.3, 'roll': -12.05}
{'lipoC2': 7.76, 'temp': 23.56, 'lipoC3S3': 11.71, 'rot1': 0, 'rot0': 0, 'rot3': 0, 'rot2': 0, 'state': 'normal', 'yaw': -0.92, 'datetime': '2018-10-12 14:12:01.066490', 'mgs': 0, 'depth': 1.996, 'time': 4.19, 'pitch': -0.17, 'roll': -12.14}
{'lipoC2': 7.76, 'temp': 23.56, 'lipoC3S3': 11.72, 'rot1': 0, 'rot0': 0, 'rot3': 0, 'rot2': 0, 'state': 'normal', 'yaw': -0.98, 'datetime': '2018-10-12 14:12:01.163373', 'mgs': 0, 'depth': 2.072, 'time': 4.28, 'pitch': -0.08, 'roll': -12.18}
{'lipoC2': 7.76, 'temp': 23.5, 'lipoC3S3': 11.71, 'rot1': 0, 'rot0': 0, 'rot3': 0, 'rot2': 0, 'state': 'normal', 'yaw': -1.1, 'datetime': '2018-10-12 14:12:01.260694', 'mgs': 0, 'depth': 1.996, 'time': 4.38, 'pitch': -0.06, 'roll': -12.14}
{'lipoC2': 7.76, 'temp': 23.5, 'lipoC3S3': 11.72, 'rot1': 0, 'rot0': 0, 'rot3': 0, 'rot2': 0, 'state': 'normal', 'yaw': -1.18, 'datetime': '2018-10-12 14:12:01.357754', 'mgs': 1, 'depth': 1.996, 'time': 4.48, 'pitch': 0.0, 'roll': -12.03}
{'lipoC2': 7.76, 'temp': 23.56, 'lipoC3S3': 11.71, 'rot1': 0, 'rot0': 0, 'rot3': 0, 'rot2': 0, 'state': 'normal', 'yaw': 0.0, 'datetime': '2018-10-12 14:12:02.877372', 'mgs': 0, 'depth': 2.148, 'time': 1.26, 'pitch': -0.74, 'roll': -12.41}
{'lipoC2': 7.76, 'temp': 23.56, 'lipoC3S3': 11.71, 'rot1': 0, 'rot0': 0, 'rot3': 0, 'rot2': 0, 'state': 'normal', 'yaw': 0.27, 'datetime': '2018-10-12 14:12:02.903722', 'mgs': 0, 'depth': 2.072, 'time': 1.36, 'pitch': -1.17, 'roll': -12.59}
{'lipoC2': 7.75, 'temp': 23.56, 'lipoC3S3': 11.71, 'rot1': 0, 'rot0': 0, 'rot3': 0, 'rot2': 0, 'state': 'normal', 'yaw': 0.46, 'datetime': '2018-10-12 14:12:02.921110', 'mgs': 0, 'depth': 2.148, 'time': 1.45, 'pitch': -1.55, 'roll': -12.78}
{'lipoC2': 7.76, 'temp': 23.63, 'lipoC3S3': 11.71, 'rot1': 0, 'rot0': 0, 'rot3': 0, 'rot2': 0, 'state': 'normal', 'yaw': 0.58, 'datetime': '2018-10-12 14:12:03.006479', 'mgs': 0, 'depth': 2.148, 'time': 1.55, 'pitch': -1.92, 'roll': -12.93}
{'lipoC2': 7.75, 'temp': 23.63, 'lipoC3S3': 11.68, 'rot1': 0, 'rot0': 0, 'rot3': 0, 'rot2': 0, 'state': 'normal', 'yaw': 0.64, 'datetime': '2018-10-12 14:12:03.105876', 'mgs': 0, 'depth': 2.072, 'time': 1.65, 'pitch': -2.18, 'roll': -12.9}
{'lipoC2': 7.76, 'temp': 23.56, 'lipoC3S3': 11.65, 'rot1': 1, 'rot0': 1, 'rot3': 0, 'rot2': 0, 'state': 'normal', 'yaw': 0.67, 'datetime': '2018-10-12 14:12:03.203751', 'mgs': 0, 'depth': 2.072, 'time': 1.74, 'pitch': -2.31, 'roll': -12.67}
{'lipoC2': 7.76, 'temp': 23.56, 'lipoC3S3': 11.67, 'rot1': 2, 'rot0': 1, 'rot3': 0, 'rot2': 0, 'state': 'normal', 'yaw': 0.71, 'datetime': '2018-10-12 14:12:03.301722', 'mgs': 0, 'depth': 2.148, 'time': 1.84, 'pitch': -2.34, 'roll': -12.55}
{'lipoC2': 7.76, 'temp': 23.56, 'lipoC3S3': 11.63, 'rot1': 2, 'rot0': 2, 'rot3': 0, 'rot2': 0, 'state': 'normal', 'yaw': 0.8, 'datetime': '2018-10-12 14:12:03.398337', 'mgs': 0, 'depth': 2.072, 'time': 1.94, 'pitch': -2.27, 'roll': -12.55}
{'lipoC2': 7.76, 'temp': 23.56, 'lipoC3S3': 11.68, 'rot1': 3, 'rot0': 3, 'rot3': 0, 'rot2': 0, 'state': 'normal', 'yaw': 0.94, 'datetime': '2018-10-12 14:12:03.495170', 'mgs': 0, 'depth': 2.072, 'time': 2.04, 'pitch': -2.09, 'roll': -12.26}
{'lipoC2': 7.75, 'temp': 23.56, 'lipoC3S3': 11.59, 'rot1': 4, 'rot0': 4, 'rot3': 0, 'rot2': 0, 'state': 'normal', 'yaw': 1.02, 'datetime': '2018-10-12 14:12:03.592971', 'mgs': 0, 'depth': 2.148, 'time': 2.13, 'pitch': -1.92, 'roll': -11.77}
{'lipoC2': 7.76, 'temp': 23.56, 'lipoC3S3': 11.69, 'rot1': 5, 'rot0': 5, 'rot3': 0, 'rot2': 0, 'state': 'normal', 'yaw': 1.1, 'datetime': '2018-10-12 14:12:03.690640', 'mgs': 0, 'depth': 2.148, 'time': 2.23, 'pitch': -1.68, 'roll': -11.44}
{'lipoC2': 7.75, 'temp': 23.56, 'lipoC3S3': 11.69, 'rot1': 5, 'rot0': 5, 'rot3': 0, 'rot2': 0, 'state': 'normal', 'yaw': 1.03, 'datetime': '2018-10-12 14:12:03.787185', 'mgs': 0, 'depth': 2.148, 'time': 2.33, 'pitch': -1.48, 'roll': -11.38}
{'lipoC2': 7.75, 'temp': 23.56, 'lipoC3S3': 11.68, 'rot1': 6, 'rot0': 6, 'rot3': 0, 'rot2': 0, 'state': 'normal', 'yaw': 0.79, 'datetime': '2018-10-12 14:12:03.884750', 'mgs': 0, 'depth': 2.225, 'time': 2.43, 'pitch': -1.37, 'roll': -10.94}
{'lipoC2': 7.76, 'temp': 23.56, 'lipoC3S3': 11.68, 'rot1': 6, 'rot0': 7, 'rot3': 0, 'rot2': 0, 'state': 'normal', 'yaw': 0.39, 'datetime': '2018-10-12 14:12:03.981418', 'mgs': 0, 'depth': 2.835, 'time': 2.52, 'pitch': -1.34, 'roll': -9.87}
{'lipoC2': 7.75, 'temp': 23.56, 'lipoC3S3': 11.68, 'rot1': 7, 'rot0': 8, 'rot3': 0, 'rot2': 0, 'state': 'normal', 'yaw': -0.0, 'datetime': '2018-10-12 14:12:04.078081', 'mgs': 0, 'depth': 2.53, 'time': 2.62, 'pitch': -1.4, 'roll': -8.29}
{'lipoC2': 7.76, 'temp': 23.56, 'lipoC3S3': 11.68, 'rot1': 8, 'rot0': 8, 'rot3': 0, 'rot2': 0, 'state': 'normal', 'yaw': -0.29, 'datetime': '2018-10-12 14:12:04.175018', 'mgs': 0, 'depth': 2.911, 'time': 2.72, 'pitch': -1.43, 'roll': -6.57}
{'lipoC2': 7.76, 'temp': 23.56, 'lipoC3S3': 11.67, 'rot1': 9, 'rot0': 9, 'rot3': 0, 'rot2': 0, 'state': 'normal', 'yaw': -0.56, 'datetime': '2018-10-12 14:12:04.271672', 'mgs': 0, 'depth': 2.377, 'time': 2.81, 'pitch': -1.49, 'roll': -4.51}
{'lipoC2': 7.76, 'temp': 23.56, 'lipoC3S3': 11.58, 'rot1': 9, 'rot0': 10, 'rot3': 0, 'rot2': 0, 'state': 'normal', 'yaw': -0.8, 'datetime': '2018-10-12 14:12:04.368539', 'mgs': 0, 'depth': 2.377, 'time': 2.91, 'pitch': -1.58, 'roll': -2.45}
{'lipoC2': 7.75, 'temp': 23.56, 'lipoC3S3': 11.68, 'rot1': 10, 'rot0': 11, 'rot3': 0, 'rot2': 0, 'state': 'normal', 'yaw': -0.98, 'datetime': '2018-10-12 14:12:04.465941', 'mgs': 0, 'depth': 2.682, 'time': 3.01, 'pitch': -1.66, 'roll': -0.67}
{'lipoC2': 7.76, 'temp': 23.56, 'lipoC3S3': 11.68, 'rot1': 11, 'rot0': 12, 'rot3': 0, 'rot2': 0, 'state': 'normal', 'yaw': -1.13, 'datetime': '2018-10-12 14:12:04.562745', 'mgs': 0, 'depth': 2.454, 'time': 3.1, 'pitch': -1.69, 'roll': 1.15}
{'lipoC2': 7.76, 'temp': 23.56, 'lipoC3S3': 11.69, 'rot1': 12, 'rot0': 13, 'rot3': 0, 'rot2': 0, 'state': 'normal', 'yaw': -1.22, 'datetime': '2018-10-12 14:12:04.659818', 'mgs': 0, 'depth': 2.454, 'time': 3.2, 'pitch': -1.69, 'roll': 2.74}
{'lipoC2': 7.76, 'temp': 23.56, 'lipoC3S3': 11.68, 'rot1': 13, 'rot0': 13, 'rot3': 0, 'rot2': 0, 'state': 'normal', 'yaw': -1.24, 'datetime': '2018-10-12 14:12:04.757369', 'mgs': 0, 'depth': 1.92, 'time': 3.3, 'pitch': -1.69, 'roll': 3.88}
{'lipoC2': 7.76, 'temp': 23.5, 'lipoC3S3': 11.65, 'rot1': 13, 'rot0': 14, 'rot3': 0, 'rot2': 0, 'state': 'normal', 'yaw': -1.24, 'datetime': '2018-10-12 14:12:04.855535', 'mgs': 0, 'depth': 2.454, 'time': 3.4, 'pitch': -1.69, 'roll': 4.77}
{'lipoC2': 7.76, 'temp': 23.5, 'lipoC3S3': 11.68, 'rot1': 14, 'rot0': 15, 'rot3': 0, 'rot2': 0, 'state': 'normal', 'yaw': -1.09, 'datetime': '2018-10-12 14:12:04.953978', 'mgs': 0, 'depth': 2.53, 'time': 3.49, 'pitch': -1.7, 'roll': 5.21}
{'lipoC2': 7.76, 'temp': 23.5, 'lipoC3S3': 11.69, 'rot1': 15, 'rot0': 15, 'rot3': 0, 'rot2': 0, 'state': 'normal', 'yaw': -0.74, 'datetime': '2018-10-12 14:12:05.051066', 'mgs': 0, 'depth': 2.454, 'time': 3.59, 'pitch': -1.73, 'roll': 5.16}
{'lipoC2': 7.76, 'temp': 23.56, 'lipoC3S3': 11.67, 'rot1': 16, 'rot0': 16, 'rot3': 0, 'rot2': 0, 'state': 'normal', 'yaw': -0.24, 'datetime': '2018-10-12 14:12:05.148154', 'mgs': 0, 'depth': 2.454, 'time': 3.69, 'pitch': -1.8, 'roll': 4.77}
{'lipoC2': 7.76, 'temp': 23.56, 'lipoC3S3': 11.68, 'rot1': 16, 'rot0': 16, 'rot3': 0, 'rot2': 0, 'state': 'normal', 'yaw': 0.18, 'datetime': '2018-10-12 14:12:05.246443', 'mgs': 0, 'depth': 2.454, 'time': 3.79, 'pitch': -1.85, 'roll': 4.27}
{'lipoC2': 7.76, 'temp': 23.56, 'lipoC3S3': 11.68, 'rot1': 17, 'rot0': 17, 'rot3': 0, 'rot2': 0, 'state': 'normal', 'yaw': 0.58, 'datetime': '2018-10-12 14:12:05.344872', 'mgs': 0, 'depth': 3.064, 'time': 3.89, 'pitch': -1.91, 'roll': 3.63}
{'lipoC2': 7.76, 'temp': 23.56, 'lipoC3S3': 11.68, 'rot1': 18, 'rot0': 18, 'rot3': 0, 'rot2': 0, 'state': 'normal', 'yaw': 0.93, 'datetime': '2018-10-12 14:12:05.441814', 'mgs': 0, 'depth': 2.454, 'time': 3.98, 'pitch': -1.93, 'roll': 2.88}
{'lipoC2': 7.76, 'temp': 23.56, 'lipoC3S3': 11.64, 'rot1': 19, 'rot0': 19, 'rot3': 0, 'rot2': 0, 'state': 'normal', 'yaw': 1.24, 'datetime': '2018-10-12 14:12:05.538656', 'mgs': 0, 'depth': 2.377, 'time': 4.08, 'pitch': -1.95, 'roll': 2.01}
{'lipoC2': 7.76, 'temp': 23.63, 'lipoC3S3': 11.68, 'rot1': 20, 'rot0': 20, 'rot3': 0, 'rot2': 0, 'state': 'normal', 'yaw': 1.48, 'datetime': '2018-10-12 14:12:05.637404', 'mgs': 0, 'depth': 2.377, 'time': 4.18, 'pitch': -1.92, 'roll': 1.17}
{'lipoC2': 7.76, 'temp': 23.63, 'lipoC3S3': 11.69, 'rot1': 20, 'rot0': 20, 'rot3': 0, 'rot2': 0, 'state': 'normal', 'yaw': 1.7, 'datetime': '2018-10-12 14:12:05.734280', 'mgs': 0, 'depth': 2.301, 'time': 4.28, 'pitch': -1.91, 'roll': 0.2}
{'lipoC2': 7.76, 'temp': 23.56, 'lipoC3S3': 11.65, 'rot1': 21, 'rot0': 21, 'rot3': 0, 'rot2': 0, 'state': 'normal', 'yaw': 1.76, 'datetime': '2018-10-12 14:12:05.831356', 'mgs': 0, 'depth': 2.301, 'time': 4.37, 'pitch': -1.92, 'roll': -0.83}
{'lipoC2': 7.75, 'temp': 23.56, 'lipoC3S3': 11.68, 'rot1': 21, 'rot0': 22, 'rot3': 0, 'rot2': 0, 'state': 'normal', 'yaw': 1.62, 'datetime': '2018-10-12 14:12:05.928782', 'mgs': 0, 'depth': 2.911, 'time': 4.47, 'pitch': -2.0, 'roll': -1.77}
{'lipoC2': 7.76, 'temp': 23.56, 'lipoC3S3': 11.68, 'rot1': 22, 'rot0': 23, 'rot3': 0, 'rot2': 0, 'state': 'normal', 'yaw': 1.32, 'datetime': '2018-10-12 14:12:06.025585', 'mgs': 0, 'depth': 2.301, 'time': 4.57, 'pitch': -2.11, 'roll': -2.79}
{'lipoC2': 7.76, 'temp': 23.56, 'lipoC3S3': 11.68, 'rot1': 23, 'rot0': 23, 'rot3': 0, 'rot2': 0, 'state': 'normal', 'yaw': 0.87, 'datetime': '2018-10-12 14:12:06.122652', 'mgs': 0, 'depth': 2.225, 'time': 4.67, 'pitch': -2.22, 'roll': -3.7}
{'lipoC2': 7.76, 'temp': 23.56, 'lipoC3S3': 11.68, 'rot1': 23, 'rot0': 24, 'rot3': 0, 'rot2': 0, 'state': 'normal', 'yaw': 0.38, 'datetime': '2018-10-12 14:12:06.219799', 'mgs': 0, 'depth': 2.225, 'time': 4.76, 'pitch': -2.29, 'roll': -4.35}
{'lipoC2': 7.76, 'temp': 23.63, 'lipoC3S3': 11.67, 'rot1': 24, 'rot0': 25, 'rot3': 0, 'rot2': 0, 'state': 'normal', 'yaw': -0.26, 'datetime': '2018-10-12 14:12:06.316739', 'mgs': 0, 'depth': 2.606, 'time': 4.86, 'pitch': -2.34, 'roll': -4.85}
{'lipoC2': 7.75, 'temp': 23.63, 'lipoC3S3': 11.67, 'rot1': 25, 'rot0': 26, 'rot3': 0, 'rot2': 0, 'state': 'normal', 'yaw': -0.83, 'datetime': '2018-10-12 14:12:06.413788', 'mgs': 0, 'depth': 2.377, 'time': 4.96, 'pitch': -2.39, 'roll': -5.07}
{'lipoC2': 7.76, 'temp': 23.63, 'lipoC3S3': 11.65, 'rot1': 25, 'rot0': 27, 'rot3': 0, 'rot2': 0, 'state': 'normal', 'yaw': -1.29, 'datetime': '2018-10-12 14:12:06.511025', 'mgs': 0, 'depth': 2.377, 'time': 5.05, 'pitch': -2.43, 'roll': -5.02}
{'lipoC2': 7.76, 'temp': 23.56, 'lipoC3S3': 11.69, 'rot1': 26, 'rot0': 27, 'rot3': 0, 'rot2': 0, 'state': 'normal', 'yaw': -1.61, 'datetime': '2018-10-12 14:12:06.609237', 'mgs': 0, 'depth': 2.377, 'time': 5.15, 'pitch': -2.46, 'roll': -4.85}
{'lipoC2': 7.76, 'temp': 23.56, 'lipoC3S3': 11.69, 'rot1': 27, 'rot0': 28, 'rot3': 0, 'rot2': 0, 'state': 'normal', 'yaw': -1.76, 'datetime': '2018-10-12 14:12:06.707593', 'mgs': 0, 'depth': 2.377, 'time': 5.25, 'pitch': -2.47, 'roll': -4.64}
{'lipoC2': 7.76, 'temp': 23.56, 'lipoC3S3': 11.68, 'rot1': 28, 'rot0': 28, 'rot3': 0, 'rot2': 0, 'state': 'normal', 'yaw': -1.71, 'datetime': '2018-10-12 14:12:06.804601', 'mgs': 0, 'depth': 2.682, 'time': 5.35, 'pitch': -2.47, 'roll': -4.47}
{'lipoC2': 7.76, 'temp': 23.56, 'lipoC3S3': 11.68, 'rot1': 29, 'rot0': 29, 'rot3': 0, 'rot2': 0, 'state': 'normal', 'yaw': -1.47, 'datetime': '2018-10-12 14:12:06.901669', 'mgs': 0, 'depth': 2.53, 'time': 5.45, 'pitch': -2.42, 'roll': -4.3}
{'lipoC2': 7.76, 'temp': 23.56, 'lipoC3S3': 11.61, 'rot1': 29, 'rot0': 29, 'rot3': 0, 'rot2': 0, 'state': 'normal', 'yaw': -1.15, 'datetime': '2018-10-12 14:12:07.000807', 'mgs': 0, 'depth': 2.53, 'time': 5.54, 'pitch': -2.33, 'roll': -4.06}
{'lipoC2': 7.75, 'temp': 23.56, 'lipoC3S3': 11.68, 'rot1': 30, 'rot0': 30, 'rot3': 0, 'rot2': 0, 'state': 'normal', 'yaw': -0.66, 'datetime': '2018-10-12 14:12:07.098324', 'mgs': 0, 'depth': 2.53, 'time': 5.64, 'pitch': -2.21, 'roll': -3.74}
{'lipoC2': 7.76, 'temp': 23.56, 'lipoC3S3': 11.68, 'rot1': 31, 'rot0': 31, 'rot3': 0, 'rot2': 0, 'state': 'normal', 'yaw': -0.09, 'datetime': '2018-10-12 14:12:07.195214', 'mgs': 0, 'depth': 2.454, 'time': 5.74, 'pitch': -2.1, 'roll': -3.4}
{'lipoC2': 7.76, 'temp': 23.56, 'lipoC3S3': 11.56, 'rot1': 32, 'rot0': 31, 'rot3': 0, 'rot2': 0, 'state': 'normal', 'yaw': 0.43, 'datetime': '2018-10-12 14:12:07.292347', 'mgs': 0, 'depth': 2.53, 'time': 5.84, 'pitch': -2.02, 'roll': -2.99}
{'lipoC2': 7.76, 'temp': 23.56, 'lipoC3S3': 11.68, 'rot1': 33, 'rot0': 32, 'rot3': 0, 'rot2': 0, 'state': 'normal', 'yaw': 0.81, 'datetime': '2018-10-12 14:12:07.390689', 'mgs': 0, 'depth': 2.606, 'time': 5.93, 'pitch': -1.97, 'roll': -2.56}
{'lipoC2': 7.76, 'temp': 23.56, 'lipoC3S3': 11.68, 'rot1': 33, 'rot0': 33, 'rot3': 0, 'rot2': 0, 'state': 'normal', 'yaw': 1.15, 'datetime': '2018-10-12 14:12:07.487720', 'mgs': 0, 'depth': 2.682, 'time': 6.03, 'pitch': -1.96, 'roll': -2.09}
{'lipoC2': 7.75, 'temp': 23.5, 'lipoC3S3': 11.58, 'rot1': 34, 'rot0': 34, 'rot3': 0, 'rot2': 0, 'state': 'normal', 'yaw': 1.4, 'datetime': '2018-10-12 14:12:07.584600', 'mgs': 0, 'depth': 2.682, 'time': 6.13, 'pitch': -1.95, 'roll': -1.65}
{'lipoC2': 7.76, 'temp': 23.5, 'lipoC3S3': 11.63, 'rot1': 35, 'rot0': 35, 'rot3': 0, 'rot2': 0, 'state': 'normal', 'yaw': 1.59, 'datetime': '2018-10-12 14:12:07.681930', 'mgs': 0, 'depth': 2.759, 'time': 6.23, 'pitch': -1.94, 'roll': -1.32}
{'lipoC2': 7.76, 'temp': 23.56, 'lipoC3S3': 11.65, 'rot1': 36, 'rot0': 35, 'rot3': 0, 'rot2': 0, 'state': 'normal', 'yaw': 1.77, 'datetime': '2018-10-12 14:12:07.778795', 'mgs': 0, 'depth': 2.682, 'time': 6.32, 'pitch': -1.95, 'roll': -0.97}
{'lipoC2': 7.76, 'temp': 23.56, 'lipoC3S3': 11.61, 'rot1': 36, 'rot0': 36, 'rot3': 1, 'rot2': 1, 'state': 'normal', 'yaw': 1.77, 'datetime': '2018-10-12 14:12:07.875932', 'mgs': 0, 'depth': 2.759, 'time': 6.42, 'pitch': -1.98, 'roll': -0.68}
{'lipoC2': 7.76, 'temp': 23.56, 'lipoC3S3': 11.64, 'rot1': 37, 'rot0': 37, 'rot3': 1, 'rot2': 1, 'state': 'normal', 'yaw': 1.6, 'datetime': '2018-10-12 14:12:07.973293', 'mgs': 0, 'depth': 2.454, 'time': 6.52, 'pitch': -2.01, 'roll': -0.49}
{'lipoC2': 7.76, 'temp': 23.56, 'lipoC3S3': 11.65, 'rot1': 38, 'rot0': 38, 'rot3': 2, 'rot2': 2, 'state': 'normal', 'yaw': 1.23, 'datetime': '2018-10-12 14:12:08.070197', 'mgs': 0, 'depth': 2.377, 'time': 6.62, 'pitch': -2.01, 'roll': -0.32}
{'lipoC2': 7.75, 'temp': 23.56, 'lipoC3S3': 11.64, 'rot1': 38, 'rot0': 38, 'rot3': 2, 'rot2': 2, 'state': 'normal', 'yaw': 0.7, 'datetime': '2018-10-12 14:12:08.167253', 'mgs': 0, 'depth': 2.682, 'time': 6.71, 'pitch': -2.02, 'roll': -0.13}
{'lipoC2': 7.76, 'temp': 23.56, 'lipoC3S3': 11.61, 'rot1': 39, 'rot0': 39, 'rot3': 3, 'rot2': 3, 'state': 'normal', 'yaw': 0.04, 'datetime': '2018-10-12 14:12:08.264338', 'mgs': 0, 'depth': 2.682, 'time': 6.81, 'pitch': -2.09, 'roll': 0.08}
{'lipoC2': 7.76, 'temp': 23.56, 'lipoC3S3': 11.65, 'rot1': 39, 'rot0': 40, 'rot3': 3, 'rot2': 3, 'state': 'normal', 'yaw': -0.66, 'datetime': '2018-10-12 14:12:08.362589', 'mgs': 0, 'depth': 2.682, 'time': 6.91, 'pitch': -2.2, 'roll': 0.26}
{'lipoC2': 7.76, 'temp': 23.56, 'lipoC3S3': 11.69, 'rot1': 40, 'rot0': 40, 'rot3': 4, 'rot2': 4, 'state': 'normal', 'yaw': -1.39, 'datetime': '2018-10-12 14:12:08.458792', 'mgs': 0, 'depth': 2.682, 'time': 7.01, 'pitch': -2.33, 'roll': 0.5}
{'lipoC2': 7.76, 'temp': 23.56, 'lipoC3S3': 11.71, 'rot1': 40, 'rot0': 40, 'rot3': 4, 'rot2': 4, 'state': 'normal', 'yaw': -2.02, 'datetime': '2018-10-12 14:12:08.557814', 'mgs': 0, 'depth': 2.606, 'time': 7.1, 'pitch': -2.43, 'roll': 0.31}
{'lipoC2': 7.76, 'temp': 23.56, 'lipoC3S3': 11.61, 'rot1': 40, 'rot0': 40, 'rot3': 5, 'rot2': 5, 'state': 'normal', 'yaw': -2.57, 'datetime': '2018-10-12 14:12:08.655001', 'mgs': 0, 'depth': 2.988, 'time': 7.2, 'pitch': -2.51, 'roll': -0.37}
{'lipoC2': 7.77, 'temp': 23.5, 'lipoC3S3': 11.5, 'rot1': 40, 'rot0': 41, 'rot3': 5, 'rot2': 5, 'state': 'normal', 'yaw': -3.02, 'datetime': '2018-10-12 14:12:08.753266', 'mgs': 0, 'depth': 3.522, 'time': 7.3, 'pitch': -2.41, 'roll': -1.44}
{'lipoC2': 7.76, 'temp': 23.5, 'lipoC3S3': 11.5, 'rot1': 42, 'rot0': 42, 'rot3': 6, 'rot2': 6, 'state': 'normal', 'yaw': -3.37, 'datetime': '2018-10-12 14:12:08.851686', 'mgs': 0, 'depth': 2.835, 'time': 7.4, 'pitch': -2.09, 'roll': -2.24}
{'lipoC2': 7.76, 'temp': 23.5, 'lipoC3S3': 11.51, 'rot1': 43, 'rot0': 43, 'rot3': 6, 'rot2': 7, 'state': 'normal', 'yaw': -3.43, 'datetime': '2018-10-12 14:12:08.948796', 'mgs': 0, 'depth': 2.682, 'time': 7.49, 'pitch': -1.69, 'roll': -2.14}
{'lipoC2': 7.76, 'temp': 23.56, 'lipoC3S3': 11.5, 'rot1': 44, 'rot0': 44, 'rot3': 7, 'rot2': 7, 'state': 'normal', 'yaw': -3.21, 'datetime': '2018-10-12 14:12:09.045756', 'mgs': 0, 'depth': 3.751, 'time': 7.59, 'pitch': -1.26, 'roll': -1.47}
{'lipoC2': 7.76, 'temp': 23.56, 'lipoC3S3': 11.42, 'rot1': 46, 'rot0': 45, 'rot3': 7, 'rot2': 8, 'state': 'normal', 'yaw': -2.84, 'datetime': '2018-10-12 14:12:09.144156', 'mgs': 0, 'depth': 2.759, 'time': 7.69, 'pitch': -0.83, 'roll': -0.68}
{'lipoC2': 7.77, 'temp': 23.56, 'lipoC3S3': 11.51, 'rot1': 47, 'rot0': 47, 'rot3': 8, 'rot2': 8, 'state': 'normal', 'yaw': -2.33, 'datetime': '2018-10-12 14:12:09.241100', 'mgs': 0, 'depth': 3.14, 'time': 7.79, 'pitch': -0.38, 'roll': 0.22}
{'lipoC2': 7.76, 'temp': 23.56, 'lipoC3S3': 11.48, 'rot1': 49, 'rot0': 48, 'rot3': 8, 'rot2': 9, 'state': 'normal', 'yaw': -1.75, 'datetime': '2018-10-12 14:12:09.337946', 'mgs': 0, 'depth': 4.056, 'time': 7.88, 'pitch': 0.02, 'roll': 1.1}
{'lipoC2': 7.76, 'temp': 23.56, 'lipoC3S3': 11.5, 'rot1': 51, 'rot0': 49, 'rot3': 9, 'rot2': 10, 'state': 'normal', 'yaw': -1.16, 'datetime': '2018-10-12 14:12:09.435429', 'mgs': 0, 'depth': 3.217, 'time': 7.98, 'pitch': 0.31, 'roll': 1.9}
{'lipoC2': 7.76, 'temp': 23.38, 'lipoC3S3': 11.43, 'rot1': 52, 'rot0': 50, 'rot3': 9, 'rot2': 10, 'state': 'normal', 'yaw': -0.44, 'datetime': '2018-10-12 14:12:09.532750', 'mgs': 0, 'depth': 3.598, 'time': 8.08, 'pitch': 0.6, 'roll': 2.79}
{'lipoC2': 7.76, 'temp': 23.38, 'lipoC3S3': 11.54, 'rot1': 53, 'rot0': 51, 'rot3': 10, 'rot2': 11, 'state': 'normal', 'yaw': 0.29, 'datetime': '2018-10-12 14:12:09.630002', 'mgs': 0, 'depth': 3.293, 'time': 8.18, 'pitch': 0.86, 'roll': 3.7}
{'lipoC2': 7.76, 'temp': 23.69, 'lipoC3S3': 11.47, 'rot1': 55, 'rot0': 53, 'rot3': 10, 'rot2': 12, 'state': 'normal', 'yaw': 0.78, 'datetime': '2018-10-12 14:12:09.727402', 'mgs': 0, 'depth': 4.132, 'time': 8.27, 'pitch': 0.99, 'roll': 4.75}
{'lipoC2': 7.76, 'temp': 23.69, 'lipoC3S3': 11.39, 'rot1': 56, 'rot0': 54, 'rot3': 11, 'rot2': 12, 'state': 'normal', 'yaw': 0.91, 'datetime': '2018-10-12 14:12:09.824788', 'mgs': 0, 'depth': 3.14, 'time': 8.37, 'pitch': 1.02, 'roll': 5.74}
{'lipoC2': 7.76, 'temp': 23.69, 'lipoC3S3': 11.54, 'rot1': 58, 'rot0': 56, 'rot3': 11, 'rot2': 13, 'state': 'normal', 'yaw': 0.83, 'datetime': '2018-10-12 14:12:09.922326', 'mgs': 0, 'depth': 4.514, 'time': 8.47, 'pitch': 0.88, 'roll': 6.8}
{'lipoC2': 7.77, 'temp': 24.0, 'lipoC3S3': 11.56, 'rot1': 59, 'rot0': 57, 'rot3': 12, 'rot2': 13, 'state': 'normal', 'yaw': 0.55, 'datetime': '2018-10-12 14:12:10.019612', 'mgs': 0, 'depth': 3.674, 'time': 8.57, 'pitch': 0.64, 'roll': 7.71}
{'lipoC2': 7.76, 'temp': 24.0, 'lipoC3S3': 11.54, 'rot1': 60, 'rot0': 59, 'rot3': 12, 'rot2': 14, 'state': 'normal', 'yaw': 0.16, 'datetime': '2018-10-12 14:12:10.117861', 'mgs': 0, 'depth': 3.445, 'time': 8.66, 'pitch': 0.4, 'roll': 8.37}
{'lipoC2': 7.76, 'temp': 23.63, 'lipoC3S3': 11.54, 'rot1': 62, 'rot0': 60, 'rot3': 13, 'rot2': 15, 'state': 'normal', 'yaw': -0.32, 'datetime': '2018-10-12 14:12:10.216487', 'mgs': 0, 'depth': 3.598, 'time': 8.76, 'pitch': 0.18, 'roll': 8.86}
{'lipoC2': 7.76, 'temp': 23.63, 'lipoC3S3': 11.54, 'rot1': 63, 'rot0': 62, 'rot3': 13, 'rot2': 15, 'state': 'normal', 'yaw': -0.73, 'datetime': '2018-10-12 14:12:10.315193', 'mgs': 0, 'depth': 3.522, 'time': 8.86, 'pitch': -0.05, 'roll': 9.12}
{'lipoC2': 7.76, 'temp': 23.63, 'lipoC3S3': 11.51, 'rot1': 65, 'rot0': 63, 'rot3': 14, 'rot2': 16, 'state': 'normal', 'yaw': -1.12, 'datetime': '2018-10-12 14:12:10.413017', 'mgs': 0, 'depth': 4.514, 'time': 8.96, 'pitch': -0.24, 'roll': 9.18}
{'lipoC2': 7.76, 'temp': 23.63, 'lipoC3S3': 11.4, 'rot1': 66, 'rot0': 64, 'rot3': 14, 'rot2': 16, 'state': 'normal', 'yaw': -1.53, 'datetime': '2018-10-12 14:12:10.510371', 'mgs': 0, 'depth': 3.369, 'time': 9.06, 'pitch': -0.35, 'roll': 9.05}
{'lipoC2': 7.76, 'temp': 23.63, 'lipoC3S3': 11.54, 'rot1': 68, 'rot0': 65, 'rot3': 15, 'rot2': 17, 'state': 'normal', 'yaw': -1.68, 'datetime': '2018-10-12 14:12:10.608455', 'mgs': 0, 'depth': 3.598, 'time': 9.16, 'pitch': -0.38, 'roll': 8.68}
{'lipoC2': 7.76, 'temp': 23.56, 'lipoC3S3': 11.54, 'rot1': 70, 'rot0': 67, 'rot3': 15, 'rot2': 18, 'state': 'normal', 'yaw': -1.56, 'datetime': '2018-10-12 14:12:10.706994', 'mgs': 0, 'depth': 3.14, 'time': 9.25, 'pitch': -0.43, 'roll': 8.07}
{'lipoC2': 7.76, 'temp': 23.56, 'lipoC3S3': 11.52, 'rot1': 71, 'rot0': 68, 'rot3': 16, 'rot2': 18, 'state': 'normal', 'yaw': -1.25, 'datetime': '2018-10-12 14:12:10.805789', 'mgs': 0, 'depth': 4.285, 'time': 9.35, 'pitch': -0.6, 'roll': 7.33}
{'lipoC2': 7.76, 'temp': 23.56, 'lipoC3S3': 11.46, 'rot1': 72, 'rot0': 69, 'rot3': 16, 'rot2': 19, 'state': 'normal', 'yaw': -0.8, 'datetime': '2018-10-12 14:12:10.903151', 'mgs': 0, 'depth': 3.369, 'time': 9.45, 'pitch': -0.8, 'roll': 6.52}
{'lipoC2': 7.76, 'temp': 23.56, 'lipoC3S3': 11.55, 'rot1': 74, 'rot0': 70, 'rot3': 17, 'rot2': 19, 'state': 'normal', 'yaw': -0.24, 'datetime': '2018-10-12 14:12:11.000658', 'mgs': 0, 'depth': 3.598, 'time': 9.55, 'pitch': -0.94, 'roll': 5.71}
{'lipoC2': 7.73, 'temp': 23.56, 'lipoC3S3': 11.47, 'rot1': 76, 'rot0': 72, 'rot3': 17, 'rot2': 20, 'state': 'normal', 'yaw': 0.38, 'datetime': '2018-10-12 14:12:11.098987', 'mgs': 0, 'depth': 4.59, 'time': 9.65, 'pitch': -0.99, 'roll': 5.02}
{'lipoC2': 7.76, 'temp': 23.63, 'lipoC3S3': 11.3, 'rot1': 78, 'rot0': 73, 'rot3': 18, 'rot2': 21, 'state': 'normal', 'yaw': 0.86, 'datetime': '2018-10-12 14:12:11.197423', 'mgs': 0, 'depth': 3.369, 'time': 9.75, 'pitch': -1.02, 'roll': 4.44}
{'lipoC2': 7.76, 'temp': 23.63, 'lipoC3S3': 11.52, 'rot1': 79, 'rot0': 75, 'rot3': 19, 'rot2': 21, 'state': 'normal', 'yaw': 1.13, 'datetime': '2018-10-12 14:12:11.294750', 'mgs': 0, 'depth': 3.598, 'time': 9.84, 'pitch': -1.04, 'roll': 4.09}
{'lipoC2': 7.77, 'temp': 23.56, 'lipoC3S3': 11.46, 'rot1': 80, 'rot0': 76, 'rot3': 19, 'rot2': 22, 'state': 'normal', 'yaw': 1.2, 'datetime': '2018-10-12 14:12:11.392225', 'mgs': 0, 'depth': 4.208, 'time': 9.94, 'pitch': -1.01, 'roll': 3.87}
{'lipoC2': 7.77, 'temp': 23.56, 'lipoC3S3': 11.38, 'rot1': 81, 'rot0': 78, 'rot3': 19, 'rot2': 22, 'state': 'normal', 'yaw': 0.85, 'datetime': '2018-10-12 14:12:11.489928', 'mgs': 0, 'depth': 3.903, 'time': 10.04, 'pitch': -0.99, 'roll': 3.74}
{'lipoC2': 7.76, 'temp': 23.56, 'lipoC3S3': 11.48, 'rot1': 82, 'rot0': 79, 'rot3': 20, 'rot2': 23, 'state': 'normal', 'yaw': 0.01, 'datetime': '2018-10-12 14:12:11.587310', 'mgs': 0, 'depth': 3.522, 'time': 10.14, 'pitch': -0.98, 'roll': 3.72}
{'lipoC2': 7.78, 'temp': 23.94, 'lipoC3S3': 11.48, 'rot1': 84, 'rot0': 81, 'rot3': 20, 'rot2': 24, 'state': 'normal', 'yaw': -1.24, 'datetime': '2018-10-12 14:12:11.684689', 'mgs': 0, 'depth': 4.819, 'time': 10.23, 'pitch': -1.06, 'roll': 3.75}
{'lipoC2': 7.76, 'temp': 23.94, 'lipoC3S3': 11.52, 'rot1': 84, 'rot0': 82, 'rot3': 21, 'rot2': 24, 'state': 'normal', 'yaw': -2.5, 'datetime': '2018-10-12 14:12:15.738850', 'mgs': 0, 'depth': 3.522, 'time': 10.33, 'pitch': -1.19, 'roll': 3.84}
{'lipoC2': 7.76, 'temp': 23.63, 'lipoC3S3': 11.61, 'rot1': 84, 'rot0': 82, 'rot3': 22, 'rot2': 24, 'state': 'normal', 'yaw': -3.51, 'datetime': '2018-10-12 14:12:15.762446', 'mgs': 0, 'depth': 3.903, 'time': 10.43, 'pitch': -1.41, 'roll': 3.56}
{'lipoC2': 7.76, 'temp': 23.63, 'lipoC3S3': 11.56, 'rot1': 84, 'rot0': 82, 'rot3': 22, 'rot2': 25, 'state': 'normal', 'yaw': -4.53, 'datetime': '2018-10-12 14:12:15.800304', 'mgs': 0, 'depth': 3.598, 'time': 10.53, 'pitch': -1.77, 'roll': 2.84}
{'lipoC2': 7.76, 'temp': 23.63, 'lipoC3S3': 11.6, 'rot1': 84, 'rot0': 82, 'rot3': 22, 'rot2': 26, 'state': 'normal', 'yaw': -5.47, 'datetime': '2018-10-12 14:12:15.818795', 'mgs': 0, 'depth': 3.445, 'time': 10.62, 'pitch': -2.19, 'roll': 1.83}
{'lipoC2': 7.76, 'temp': 23.56, 'lipoC3S3': 11.61, 'rot1': 84, 'rot0': 82, 'rot3': 23, 'rot2': 26, 'state': 'normal', 'yaw': -6.28, 'datetime': '2018-10-12 14:12:15.850831', 'mgs': 0, 'depth': 3.445, 'time': 10.72, 'pitch': -2.61, 'roll': 0.68}
{'lipoC2': 7.75, 'temp': 23.56, 'lipoC3S3': 11.61, 'rot1': 84, 'rot0': 82, 'rot3': 23, 'rot2': 27, 'state': 'normal', 'yaw': -6.93, 'datetime': '2018-10-12 14:12:15.866112', 'mgs': 0, 'depth': 3.445, 'time': 10.82, 'pitch': -2.96, 'roll': -0.38}
{'lipoC2': 7.76, 'temp': 23.63, 'lipoC3S3': 11.61, 'rot1': 84, 'rot0': 82, 'rot3': 24, 'rot2': 27, 'state': 'normal', 'yaw': -7.59, 'datetime': '2018-10-12 14:12:15.885479', 'mgs': 0, 'depth': 3.369, 'time': 10.92, 'pitch': -3.28, 'roll': -1.51}
{'lipoC2': 7.76, 'temp': 23.63, 'lipoC3S3': 11.59, 'rot1': 84, 'rot0': 82, 'rot3': 24, 'rot2': 28, 'state': 'normal', 'yaw': -8.23, 'datetime': '2018-10-12 14:12:15.893441', 'mgs': 0, 'depth': 3.217, 'time': 11.02, 'pitch': -3.48, 'roll': -2.54}
{'lipoC2': 7.76, 'temp': 23.63, 'lipoC3S3': 11.63, 'rot1': 84, 'rot0': 82, 'rot3': 24, 'rot2': 29, 'state': 'normal', 'yaw': -8.89, 'datetime': '2018-10-12 14:12:15.912776', 'mgs': 0, 'depth': 3.14, 'time': 11.11, 'pitch': -3.57, 'roll': -3.43}
{'lipoC2': 7.76, 'temp': 23.56, 'lipoC3S3': 11.63, 'rot1': 84, 'rot0': 82, 'rot3': 25, 'rot2': 29, 'state': 'normal', 'yaw': -9.54, 'datetime': '2018-10-12 14:12:15.921144', 'mgs': 0, 'depth': 3.445, 'time': 11.21, 'pitch': -3.57, 'roll': -4.21}
{'lipoC2': 7.76, 'temp': 23.56, 'lipoC3S3': 11.61, 'rot1': 84, 'rot0': 82, 'rot3': 25, 'rot2': 30, 'state': 'normal', 'yaw': -10.14, 'datetime': '2018-10-12 14:12:15.940522', 'mgs': 0, 'depth': 3.369, 'time': 11.31, 'pitch': -3.51, 'roll': -4.77}
{'lipoC2': 7.76, 'temp': 23.63, 'lipoC3S3': 11.63, 'rot1': 84, 'rot0': 82, 'rot3': 26, 'rot2': 30, 'state': 'normal', 'yaw': -10.82, 'datetime': '2018-10-12 14:12:15.948449', 'mgs': 0, 'depth': 3.293, 'time': 11.41, 'pitch': -3.38, 'roll': -5.22}
{'lipoC2': 7.76, 'temp': 23.63, 'lipoC3S3': 11.63, 'rot1': 84, 'rot0': 82, 'rot3': 26, 'rot2': 31, 'state': 'normal', 'yaw': -11.5, 'datetime': '2018-10-12 14:12:15.967800', 'mgs': 0, 'depth': 3.293, 'time': 11.51, 'pitch': -3.2, 'roll': -5.43}
{'lipoC2': 7.76, 'temp': 23.63, 'lipoC3S3': 11.59, 'rot1': 84, 'rot0': 82, 'rot3': 27, 'rot2': 32, 'state': 'normal', 'yaw': -12.17, 'datetime': '2018-10-12 14:12:15.975751', 'mgs': 0, 'depth': 2.911, 'time': 11.6, 'pitch': -3.02, 'roll': -5.4}
{'lipoC2': 7.76, 'temp': 23.56, 'lipoC3S3': 11.61, 'rot1': 84, 'rot0': 82, 'rot3': 27, 'rot2': 32, 'state': 'normal', 'yaw': -12.75, 'datetime': '2018-10-12 14:12:15.995093', 'mgs': 0, 'depth': 3.064, 'time': 11.7, 'pitch': -2.89, 'roll': -5.16}
{'lipoC2': 7.76, 'temp': 23.56, 'lipoC3S3': 11.61, 'rot1': 84, 'rot0': 82, 'rot3': 27, 'rot2': 33, 'state': 'normal', 'yaw': -13.36, 'datetime': '2018-10-12 14:12:16.003060', 'mgs': 0, 'depth': 3.064, 'time': 11.8, 'pitch': -2.75, 'roll': -4.77}
{'lipoC2': 7.76, 'temp': 23.56, 'lipoC3S3': 11.6, 'rot1': 84, 'rot0': 82, 'rot3': 28, 'rot2': 34, 'state': 'normal', 'yaw': -13.93, 'datetime': '2018-10-12 14:12:16.022412', 'mgs': 0, 'depth': 2.835, 'time': 11.9, 'pitch': -2.61, 'roll': -4.31}
{'lipoC2': 7.76, 'temp': 23.56, 'lipoC3S3': 11.61, 'rot1': 84, 'rot0': 82, 'rot3': 28, 'rot2': 34, 'state': 'normal', 'yaw': -14.48, 'datetime': '2018-10-12 14:12:16.030343', 'mgs': 0, 'depth': 3.064, 'time': 12.0, 'pitch': -2.49, 'roll': -3.83}
{'lipoC2': 7.76, 'temp': 23.56, 'lipoC3S3': 11.58, 'rot1': 84, 'rot0': 82, 'rot3': 29, 'rot2': 35, 'state': 'normal', 'yaw': -14.94, 'datetime': '2018-10-12 14:12:16.049656', 'mgs': 0, 'depth': 2.911, 'time': 12.09, 'pitch': -2.41, 'roll': -3.38}
{'lipoC2': 7.76, 'temp': 23.63, 'lipoC3S3': 11.61, 'rot1': 84, 'rot0': 82, 'rot3': 29, 'rot2': 35, 'state': 'normal', 'yaw': -15.42, 'datetime': '2018-10-12 14:12:16.057598', 'mgs': 0, 'depth': 2.682, 'time': 12.19, 'pitch': -2.4, 'roll': -2.82}
{'lipoC2': 7.75, 'temp': 23.63, 'lipoC3S3': 11.63, 'rot1': 84, 'rot0': 82, 'rot3': 30, 'rot2': 36, 'state': 'normal', 'yaw': -15.87, 'datetime': '2018-10-12 14:12:16.076957', 'mgs': 0, 'depth': 2.988, 'time': 12.29, 'pitch': -2.41, 'roll': -2.21}
{'lipoC2': 7.76, 'temp': 23.56, 'lipoC3S3': 11.6, 'rot1': 84, 'rot0': 82, 'rot3': 30, 'rot2': 37, 'state': 'normal', 'yaw': -16.28, 'datetime': '2018-10-12 14:12:16.084915', 'mgs': 0, 'depth': 2.682, 'time': 12.39, 'pitch': -2.43, 'roll': -1.57}
{'lipoC2': 7.75, 'temp': 23.56, 'lipoC3S3': 11.61, 'rot1': 84, 'rot0': 82, 'rot3': 31, 'rot2': 37, 'state': 'normal', 'yaw': -16.64, 'datetime': '2018-10-12 14:12:16.104295', 'mgs': 0, 'depth': 2.53, 'time': 12.48, 'pitch': -2.44, 'roll': -1.04}
{'lipoC2': 7.76, 'temp': 23.56, 'lipoC3S3': 11.63, 'rot1': 84, 'rot0': 82, 'rot3': 31, 'rot2': 38, 'state': 'normal', 'yaw': -17.06, 'datetime': '2018-10-12 14:12:16.112240', 'mgs': 0, 'depth': 2.835, 'time': 12.58, 'pitch': -2.44, 'roll': -0.59}
{'lipoC2': 7.76, 'temp': 23.63, 'lipoC3S3': 11.58, 'rot1': 84, 'rot0': 82, 'rot3': 32, 'rot2': 38, 'state': 'normal', 'yaw': -17.46, 'datetime': '2018-10-12 14:12:16.131383', 'mgs': 0, 'depth': 2.53, 'time': 12.68, 'pitch': -2.45, 'roll': -0.3}
{'lipoC2': 7.76, 'temp': 23.63, 'lipoC3S3': 11.61, 'rot1': 84, 'rot0': 82, 'rot3': 32, 'rot2': 39, 'state': 'normal', 'yaw': -17.85, 'datetime': '2018-10-12 14:12:16.138900', 'mgs': 0, 'depth': 2.377, 'time': 12.78, 'pitch': -2.43, 'roll': -0.13}
{'lipoC2': 7.76, 'temp': 23.63, 'lipoC3S3': 11.61, 'rot1': 84, 'rot0': 82, 'rot3': 33, 'rot2': 40, 'state': 'normal', 'yaw': -18.22, 'datetime': '2018-10-12 14:12:16.158093', 'mgs': 0, 'depth': 2.377, 'time': 12.88, 'pitch': -2.44, 'roll': -0.02}
{'lipoC2': 7.76, 'temp': 23.63, 'lipoC3S3': 11.6, 'rot1': 84, 'rot0': 82, 'rot3': 33, 'rot2': 40, 'state': 'normal', 'yaw': -18.6, 'datetime': '2018-10-12 14:12:16.165682', 'mgs': 0, 'depth': 2.301, 'time': 12.98, 'pitch': -2.43, 'roll': 0.07}
{'lipoC2': 7.76, 'temp': 23.63, 'lipoC3S3': 11.61, 'rot1': 84, 'rot0': 82, 'rot3': 34, 'rot2': 41, 'state': 'normal', 'yaw': -18.97, 'datetime': '2018-10-12 14:12:16.184614', 'mgs': 0, 'depth': 2.301, 'time': 13.07, 'pitch': -2.49, 'roll': 0.07}
{'lipoC2': 7.76, 'temp': 23.56, 'lipoC3S3': 11.64, 'rot1': 84, 'rot0': 82, 'rot3': 34, 'rot2': 42, 'state': 'normal', 'yaw': -19.33, 'datetime': '2018-10-12 14:12:16.192163', 'mgs': 0, 'depth': 2.454, 'time': 13.17, 'pitch': -2.57, 'roll': -0.06}
{'lipoC2': 7.76, 'temp': 23.56, 'lipoC3S3': 11.59, 'rot1': 84, 'rot0': 82, 'rot3': 35, 'rot2': 42, 'state': 'normal', 'yaw': -19.65, 'datetime': '2018-10-12 14:12:16.211094', 'mgs': 0, 'depth': 2.225, 'time': 13.27, 'pitch': -2.61, 'roll': -0.35}
{'lipoC2': 7.76, 'temp': 23.63, 'lipoC3S3': 11.63, 'rot1': 84, 'rot0': 82, 'rot3': 35, 'rot2': 43, 'state': 'normal', 'yaw': -19.89, 'datetime': '2018-10-12 14:12:16.218608', 'mgs': 0, 'depth': 2.148, 'time': 13.37, 'pitch': -2.59, 'roll': -0.67}
{'lipoC2': 7.76, 'temp': 23.63, 'lipoC3S3': 11.64, 'rot1': 84, 'rot0': 82, 'rot3': 35, 'rot2': 43, 'state': 'normal', 'yaw': -20.14, 'datetime': '2018-10-12 14:12:16.237510', 'mgs': 0, 'depth': 1.996, 'time': 13.47, 'pitch': -2.47, 'roll': -1.03}
{'lipoC2': 7.76, 'temp': 23.63, 'lipoC3S3': 11.67, 'rot1': 84, 'rot0': 82, 'rot3': 36, 'rot2': 44, 'state': 'normal', 'yaw': -20.37, 'datetime': '2018-10-12 14:12:16.245063', 'mgs': 0, 'depth': 1.996, 'time': 13.56, 'pitch': -2.27, 'roll': -1.36}
{'lipoC2': 7.76, 'temp': 23.63, 'lipoC3S3': 11.63, 'rot1': 84, 'rot0': 82, 'rot3': 37, 'rot2': 45, 'state': 'normal', 'yaw': -20.59, 'datetime': '2018-10-12 14:12:16.263993', 'mgs': 0, 'depth': 2.148, 'time': 13.66, 'pitch': -2.1, 'roll': -1.65}
{'lipoC2': 7.76, 'temp': 23.63, 'lipoC3S3': 11.61, 'rot1': 84, 'rot0': 82, 'rot3': 37, 'rot2': 45, 'state': 'normal', 'yaw': -20.84, 'datetime': '2018-10-12 14:12:16.271554', 'mgs': 0, 'depth': 1.996, 'time': 13.76, 'pitch': -2.0, 'roll': -1.96}
{'lipoC2': 7.75, 'temp': 23.63, 'lipoC3S3': 11.64, 'rot1': 84, 'rot0': 82, 'rot3': 37, 'rot2': 46, 'state': 'normal', 'yaw': -21.08, 'datetime': '2018-10-12 14:12:16.290474', 'mgs': 0, 'depth': 1.996, 'time': 13.86, 'pitch': -2.0, 'roll': -2.3}
{'lipoC2': 7.76, 'temp': 23.63, 'lipoC3S3': 11.6, 'rot1': 84, 'rot0': 82, 'rot3': 38, 'rot2': 47, 'state': 'normal', 'yaw': -21.39, 'datetime': '2018-10-12 14:12:16.297983', 'mgs': 0, 'depth': 1.996, 'time': 13.96, 'pitch': -2.02, 'roll': -2.74}
{'lipoC2': 7.76, 'temp': 23.63, 'lipoC3S3': 11.63, 'rot1': 84, 'rot0': 82, 'rot3': 38, 'rot2': 47, 'state': 'normal', 'yaw': -21.69, 'datetime': '2018-10-12 14:12:16.316870', 'mgs': 0, 'depth': 1.92, 'time': 14.05, 'pitch': -2.03, 'roll': -3.19}
{'lipoC2': 7.76, 'temp': 23.63, 'lipoC3S3': 11.64, 'rot1': 84, 'rot0': 82, 'rot3': 39, 'rot2': 48, 'state': 'normal', 'yaw': -21.99, 'datetime': '2018-10-12 14:12:16.324407', 'mgs': 0, 'depth': 2.072, 'time': 14.15, 'pitch': -2.05, 'roll': -3.58}
{'lipoC2': 7.76, 'temp': 23.63, 'lipoC3S3': 11.59, 'rot1': 84, 'rot0': 82, 'rot3': 40, 'rot2': 49, 'state': 'normal', 'yaw': -22.25, 'datetime': '2018-10-12 14:12:16.343305', 'mgs': 0, 'depth': 1.996, 'time': 14.25, 'pitch': -2.07, 'roll': -3.82}
{'lipoC2': 7.76, 'temp': 23.56, 'lipoC3S3': 11.64, 'rot1': 84, 'rot0': 82, 'rot3': 40, 'rot2': 49, 'state': 'normal', 'yaw': -22.55, 'datetime': '2018-10-12 14:12:16.350832', 'mgs': 0, 'depth': 1.92, 'time': 14.35, 'pitch': -2.11, 'roll': -3.93}
{'lipoC2': 7.76, 'temp': 23.56, 'lipoC3S3': 11.61, 'rot1': 85, 'rot0': 82, 'rot3': 40, 'rot2': 50, 'state': 'normal', 'yaw': -22.76, 'datetime': '2018-10-12 14:12:16.370057', 'mgs': 0, 'depth': 2.225, 'time': 14.44, 'pitch': -2.2, 'roll': -3.92}
{'lipoC2': 7.76, 'temp': 23.63, 'lipoC3S3': 11.61, 'rot1': 86, 'rot0': 83, 'rot3': 41, 'rot2': 50, 'state': 'normal', 'yaw': -22.46, 'datetime': '2018-10-12 14:12:16.377629', 'mgs': 0, 'depth': 2.53, 'time': 14.54, 'pitch': -2.18, 'roll': -3.86}
{'lipoC2': 7.75, 'temp': 23.63, 'lipoC3S3': 11.52, 'rot1': 86, 'rot0': 84, 'rot3': 41, 'rot2': 51, 'state': 'normal', 'yaw': -21.75, 'datetime': '2018-10-12 14:12:16.396555', 'mgs': 0, 'depth': 1.92, 'time': 14.64, 'pitch': -2.13, 'roll': -3.71}
{'lipoC2': 7.76, 'temp': 23.63, 'lipoC3S3': 11.63, 'rot1': 87, 'rot0': 85, 'rot3': 42, 'rot2': 52, 'state': 'normal', 'yaw': -20.48, 'datetime': '2018-10-12 14:12:16.404088', 'mgs': 0, 'depth': 2.225, 'time': 14.74, 'pitch': -1.95, 'roll': -3.5}
{'lipoC2': 7.76, 'temp': 23.5, 'lipoC3S3': 11.64, 'rot1': 88, 'rot0': 85, 'rot3': 42, 'rot2': 52, 'state': 'normal', 'yaw': -18.76, 'datetime': '2018-10-12 14:12:16.423138', 'mgs': 0, 'depth': 2.148, 'time': 14.83, 'pitch': -1.7, 'roll': -3.29}
{'lipoC2': 7.76, 'temp': 23.5, 'lipoC3S3': 11.64, 'rot1': 89, 'rot0': 86, 'rot3': 42, 'rot2': 52, 'state': 'normal', 'yaw': -16.69, 'datetime': '2018-10-12 14:12:16.430739', 'mgs': 0, 'depth': 2.53, 'time': 14.93, 'pitch': -1.45, 'roll': -3.15}
{'lipoC2': 7.76, 'temp': 23.56, 'lipoC3S3': 11.6, 'rot1': 90, 'rot0': 87, 'rot3': 42, 'rot2': 52, 'state': 'normal', 'yaw': -14.56, 'datetime': '2018-10-12 14:12:16.472327', 'mgs': 0, 'depth': 2.682, 'time': 15.03, 'pitch': -1.23, 'roll': -3.08}
{'lipoC2': 7.76, 'temp': 23.56, 'lipoC3S3': 11.6, 'rot1': 90, 'rot0': 88, 'rot3': 42, 'rot2': 53, 'state': 'normal', 'yaw': -11.89, 'datetime': '2018-10-12 14:12:16.571005', 'mgs': 0, 'depth': 2.454, 'time': 15.13, 'pitch': -1.04, 'roll': -3.04}
{'lipoC2': 7.76, 'temp': 23.56, 'lipoC3S3': 11.61, 'rot1': 91, 'rot0': 89, 'rot3': 43, 'rot2': 53, 'state': 'normal', 'yaw': -8.95, 'datetime': '2018-10-12 14:12:16.669068', 'mgs': 0, 'depth': 2.301, 'time': 15.23, 'pitch': -0.88, 'roll': -3.0}
{'lipoC2': 7.75, 'temp': 23.56, 'lipoC3S3': 11.58, 'rot1': 92, 'rot0': 89, 'rot3': 43, 'rot2': 54, 'state': 'normal', 'yaw': -5.73, 'datetime': '2018-10-12 14:12:16.766466', 'mgs': 0, 'depth': 2.072, 'time': 15.33, 'pitch': -0.78, 'roll': -3.02}
{'lipoC2': 7.76, 'temp': 23.56, 'lipoC3S3': 11.64, 'rot1': 93, 'rot0': 90, 'rot3': 43, 'rot2': 54, 'state': 'normal', 'yaw': -2.3, 'datetime': '2018-10-12 14:12:16.864161', 'mgs': 0, 'depth': 2.072, 'time': 15.42, 'pitch': -0.65, 'roll': -3.05}
{'lipoC2': 7.77, 'temp': 23.63, 'lipoC3S3': 11.64, 'rot1': 94, 'rot0': 91, 'rot3': 43, 'rot2': 54, 'state': 'normal', 'yaw': 0.96, 'datetime': '2018-10-12 14:12:16.962849', 'mgs': 0, 'depth': 2.072, 'time': 15.52, 'pitch': -0.43, 'roll': -3.08}
{'lipoC2': 7.76, 'temp': 23.63, 'lipoC3S3': 11.64, 'rot1': 95, 'rot0': 92, 'rot3': 43, 'rot2': 54, 'state': 'normal', 'yaw': 4.75, 'datetime': '2018-10-12 14:12:17.061566', 'mgs': 0, 'depth': 2.072, 'time': 15.62, 'pitch': -0.13, 'roll': -3.12}
{'lipoC2': 7.75, 'temp': 23.63, 'lipoC3S3': 11.64, 'rot1': 95, 'rot0': 93, 'rot3': 43, 'rot2': 54, 'state': 'normal', 'yaw': 8.69, 'datetime': '2018-10-12 14:12:17.159225', 'mgs': 0, 'depth': 2.148, 'time': 15.72, 'pitch': 0.13, 'roll': -3.25}
{'lipoC2': 7.76, 'temp': 23.63, 'lipoC3S3': 11.65, 'rot1': 96, 'rot0': 93, 'rot3': 43, 'rot2': 54, 'state': 'normal', 'yaw': 12.79, 'datetime': '2018-10-12 14:12:17.256640', 'mgs': 0, 'depth': 2.148, 'time': 15.82, 'pitch': 0.37, 'roll': -3.47}
{'lipoC2': 7.76, 'temp': 23.63, 'lipoC3S3': 11.58, 'rot1': 97, 'rot0': 94, 'rot3': 43, 'rot2': 54, 'state': 'normal', 'yaw': 16.61, 'datetime': '2018-10-12 14:12:17.358115', 'mgs': 0, 'depth': 2.072, 'time': 15.91, 'pitch': 0.57, 'roll': -3.74}
{'lipoC2': 7.76, 'temp': 23.63, 'lipoC3S3': 11.58, 'rot1': 98, 'rot0': 95, 'rot3': 43, 'rot2': 54, 'state': 'normal', 'yaw': 20.97, 'datetime': '2018-10-12 14:12:17.458752', 'mgs': 0, 'depth': 2.148, 'time': 16.01, 'pitch': 0.79, 'roll': -4.07}
{'lipoC2': 7.76, 'temp': 23.63, 'lipoC3S3': 11.65, 'rot1': 99, 'rot0': 96, 'rot3': 43, 'rot2': 54, 'state': 'normal', 'yaw': 25.49, 'datetime': '2018-10-12 14:12:17.556334', 'mgs': 0, 'depth': 2.148, 'time': 16.11, 'pitch': 1.0, 'roll': -4.39}
{'lipoC2': 7.76, 'temp': 23.63, 'lipoC3S3': 11.64, 'rot1': 99, 'rot0': 97, 'rot3': 43, 'rot2': 54, 'state': 'normal', 'yaw': 30.13, 'datetime': '2018-10-12 14:12:17.653827', 'mgs': 0, 'depth': 2.225, 'time': 16.21, 'pitch': 1.22, 'roll': -4.66}
{'lipoC2': 7.75, 'temp': 23.69, 'lipoC3S3': 11.63, 'rot1': 100, 'rot0': 98, 'rot3': 43, 'rot2': 54, 'state': 'normal', 'yaw': 34.41, 'datetime': '2018-10-12 14:12:17.751375', 'mgs': 0, 'depth': 2.225, 'time': 16.31, 'pitch': 1.43, 'roll': -4.83}
{'lipoC2': 7.76, 'temp': 23.69, 'lipoC3S3': 11.65, 'rot1': 101, 'rot0': 98, 'rot3': 43, 'rot2': 54, 'state': 'normal', 'yaw': 39.25, 'datetime': '2018-10-12 14:12:17.848712', 'mgs': 0, 'depth': 2.225, 'time': 16.4, 'pitch': 1.72, 'roll': -4.95}
{'lipoC2': 7.76, 'temp': 23.63, 'lipoC3S3': 11.65, 'rot1': 102, 'rot0': 99, 'rot3': 43, 'rot2': 54, 'state': 'normal', 'yaw': 44.11, 'datetime': '2018-10-12 14:12:17.946573', 'mgs': 0, 'depth': 2.148, 'time': 16.5, 'pitch': 2.01, 'roll': -4.99}
{'lipoC2': 7.76, 'temp': 23.63, 'lipoC3S3': 11.64, 'rot1': 102, 'rot0': 100, 'rot3': 43, 'rot2': 54, 'state': 'normal', 'yaw': 49.01, 'datetime': '2018-10-12 14:12:18.044077', 'mgs': 0, 'depth': 2.682, 'time': 16.6, 'pitch': 2.3, 'roll': -4.98}
{'lipoC2': 7.76, 'temp': 23.63, 'lipoC3S3': 11.64, 'rot1': 103, 'rot0': 101, 'rot3': 43, 'rot2': 54, 'state': 'normal', 'yaw': 53.46, 'datetime': '2018-10-12 14:12:18.141898', 'mgs': 0, 'depth': 2.988, 'time': 16.7, 'pitch': 2.53, 'roll': -4.95}
{'lipoC2': 7.76, 'temp': 23.63, 'lipoC3S3': 11.54, 'rot1': 104, 'rot0': 102, 'rot3': 44, 'rot2': 54, 'state': 'normal', 'yaw': 58.41, 'datetime': '2018-10-12 14:12:18.239493', 'mgs': 0, 'depth': 2.682, 'time': 16.79, 'pitch': 2.75, 'roll': -4.95}
{'lipoC2': 7.76, 'temp': 23.63, 'lipoC3S3': 11.58, 'rot1': 105, 'rot0': 103, 'rot3': 44, 'rot2': 55, 'state': 'normal', 'yaw': 63.37, 'datetime': '2018-10-12 14:12:18.337097', 'mgs': 0, 'depth': 2.301, 'time': 16.89, 'pitch': 2.93, 'roll': -4.86}
{'lipoC2': 7.76, 'temp': 23.69, 'lipoC3S3': 11.58, 'rot1': 106, 'rot0': 103, 'rot3': 44, 'rot2': 55, 'state': 'normal', 'yaw': 68.31, 'datetime': '2018-10-12 14:12:18.434672', 'mgs': 0, 'depth': 2.454, 'time': 16.99, 'pitch': 3.04, 'roll': -4.63}
{'lipoC2': 7.76, 'temp': 23.69, 'lipoC3S3': 11.64, 'rot1': 107, 'rot0': 104, 'rot3': 44, 'rot2': 55, 'state': 'normal', 'yaw': 73.23, 'datetime': '2018-10-12 14:12:18.532777', 'mgs': 0, 'depth': 2.759, 'time': 17.09, 'pitch': 3.16, 'roll': -4.47}
{'lipoC2': 7.76, 'temp': 23.69, 'lipoC3S3': 11.61, 'rot1': 107, 'rot0': 105, 'rot3': 45, 'rot2': 55, 'state': 'normal', 'yaw': 77.68, 'datetime': '2018-10-12 14:12:18.631950', 'mgs': 0, 'depth': 2.454, 'time': 17.19, 'pitch': 3.25, 'roll': -4.37}
{'lipoC2': 7.75, 'temp': 23.63, 'lipoC3S3': 11.54, 'rot1': 108, 'rot0': 106, 'rot3': 45, 'rot2': 56, 'state': 'normal', 'yaw': 82.63, 'datetime': '2018-10-12 14:12:18.730904', 'mgs': 0, 'depth': 2.53, 'time': 17.29, 'pitch': 3.3, 'roll': -4.19}
{'lipoC2': 7.76, 'temp': 23.63, 'lipoC3S3': 11.56, 'rot1': 109, 'rot0': 107, 'rot3': 45, 'rot2': 56, 'state': 'normal', 'yaw': 87.58, 'datetime': '2018-10-12 14:12:18.829704', 'mgs': 0, 'depth': 2.53, 'time': 17.39, 'pitch': 3.32, 'roll': -3.91}
{'lipoC2': 7.75, 'temp': 23.63, 'lipoC3S3': 11.67, 'rot1': 110, 'rot0': 107, 'rot3': 46, 'rot2': 57, 'state': 'normal', 'yaw': 92.48, 'datetime': '2018-10-12 14:12:18.927038', 'mgs': 0, 'depth': 2.53, 'time': 17.48, 'pitch': 3.32, 'roll': -3.62}
{'lipoC2': 7.76, 'temp': 23.63, 'lipoC3S3': 11.6, 'rot1': 110, 'rot0': 107, 'rot3': 46, 'rot2': 58, 'state': 'normal', 'yaw': 96.92, 'datetime': '2018-10-12 14:12:19.022120', 'mgs': 0, 'depth': 2.53, 'time': 17.58, 'pitch': 3.24, 'roll': -3.54}
{'lipoC2': 7.76, 'temp': 23.63, 'lipoC3S3': 11.63, 'rot1': 110, 'rot0': 107, 'rot3': 47, 'rot2': 58, 'state': 'normal', 'yaw': 100.63, 'datetime': '2018-10-12 14:12:19.121632', 'mgs': 0, 'depth': 2.759, 'time': 17.68, 'pitch': 3.16, 'roll': -3.89}
{'lipoC2': 7.76, 'temp': 23.56, 'lipoC3S3': 11.63, 'rot1': 110, 'rot0': 107, 'rot3': 47, 'rot2': 59, 'state': 'normal', 'yaw': 104.48, 'datetime': '2018-10-12 14:12:19.222321', 'mgs': 0, 'depth': 2.835, 'time': 17.78, 'pitch': 3.07, 'roll': -4.65}
{'lipoC2': 7.75, 'temp': 23.56, 'lipoC3S3': 11.63, 'rot1': 110, 'rot0': 107, 'rot3': 48, 'rot2': 59, 'state': 'normal', 'yaw': 108.06, 'datetime': '2018-10-12 14:12:19.321333', 'mgs': 0, 'depth': 2.682, 'time': 17.88, 'pitch': 2.95, 'roll': -5.52}
{'lipoC2': 7.75, 'temp': 23.56, 'lipoC3S3': 11.63, 'rot1': 110, 'rot0': 107, 'rot3': 48, 'rot2': 60, 'state': 'normal', 'yaw': 111.39, 'datetime': '2018-10-12 14:12:19.419754', 'mgs': 0, 'depth': 2.988, 'time': 17.98, 'pitch': 2.87, 'roll': -6.41}
{'lipoC2': 7.76, 'temp': 23.56, 'lipoC3S3': 11.63, 'rot1': 110, 'rot0': 107, 'rot3': 49, 'rot2': 60, 'state': 'normal', 'yaw': 114.48, 'datetime': '2018-10-12 14:12:19.517346', 'mgs': 0, 'depth': 3.064, 'time': 18.07, 'pitch': 2.82, 'roll': -7.27}
{'lipoC2': 7.76, 'temp': 23.56, 'lipoC3S3': 11.63, 'rot1': 110, 'rot0': 107, 'rot3': 49, 'rot2': 61, 'state': 'normal', 'yaw': 117.39, 'datetime': '2018-10-12 14:12:19.615021', 'mgs': 0, 'depth': 2.988, 'time': 18.17, 'pitch': 2.8, 'roll': -8.07}
{'lipoC2': 7.76, 'temp': 23.63, 'lipoC3S3': 11.63, 'rot1': 110, 'rot0': 107, 'rot3': 49, 'rot2': 62, 'state': 'normal', 'yaw': 119.9, 'datetime': '2018-10-12 14:12:19.713918', 'mgs': 0, 'depth': 3.14, 'time': 18.27, 'pitch': 2.81, 'roll': -8.75}
{'lipoC2': 7.76, 'temp': 23.63, 'lipoC3S3': 11.63, 'rot1': 110, 'rot0': 107, 'rot3': 50, 'rot2': 62, 'state': 'normal', 'yaw': 122.56, 'datetime': '2018-10-12 14:12:19.812530', 'mgs': 0, 'depth': 3.217, 'time': 18.37, 'pitch': 2.85, 'roll': -9.46}
{'lipoC2': 7.76, 'temp': 23.13, 'lipoC3S3': 11.58, 'rot1': 110, 'rot0': 107, 'rot3': 50, 'rot2': 63, 'state': 'normal', 'yaw': 125.09, 'datetime': '2018-10-12 14:12:19.910216', 'mgs': 0, 'depth': 3.064, 'time': 18.47, 'pitch': 2.89, 'roll': -10.05}
{'lipoC2': 7.76, 'temp': 23.13, 'lipoC3S3': 11.59, 'rot1': 110, 'rot0': 107, 'rot3': 51, 'rot2': 63, 'state': 'normal', 'yaw': 127.52, 'datetime': '2018-10-12 14:12:20.007632', 'mgs': 0, 'depth': 2.988, 'time': 18.57, 'pitch': 2.94, 'roll': -10.51}
{'lipoC2': 7.76, 'temp': 23.63, 'lipoC3S3': 11.6, 'rot1': 110, 'rot0': 107, 'rot3': 51, 'rot2': 64, 'state': 'normal', 'yaw': 129.63, 'datetime': '2018-10-12 14:12:20.105282', 'mgs': 0, 'depth': 3.064, 'time': 18.66, 'pitch': 2.99, 'roll': -10.78}
{'lipoC2': 7.76, 'temp': 23.63, 'lipoC3S3': 11.63, 'rot1': 110, 'rot0': 107, 'rot3': 52, 'rot2': 65, 'state': 'normal', 'yaw': 131.82, 'datetime': '2018-10-12 14:12:20.203000', 'mgs': 0, 'depth': 3.217, 'time': 18.76, 'pitch': 3.04, 'roll': -10.9}
{'lipoC2': 7.75, 'temp': 23.63, 'lipoC3S3': 11.64, 'rot1': 110, 'rot0': 107, 'rot3': 52, 'rot2': 65, 'state': 'normal', 'yaw': 133.91, 'datetime': '2018-10-12 14:12:20.300647', 'mgs': 0, 'depth': 3.293, 'time': 18.86, 'pitch': 3.04, 'roll': -10.84}
{'lipoC2': 7.76, 'temp': 23.69, 'lipoC3S3': 11.64, 'rot1': 110, 'rot0': 107, 'rot3': 53, 'rot2': 66, 'state': 'normal', 'yaw': 135.94, 'datetime': '2018-10-12 14:12:20.398169', 'mgs': 0, 'depth': 3.598, 'time': 18.96, 'pitch': 3.03, 'roll': -10.65}
{'lipoC2': 7.76, 'temp': 23.69, 'lipoC3S3': 11.63, 'rot1': 110, 'rot0': 107, 'rot3': 53, 'rot2': 66, 'state': 'normal', 'yaw': 137.67, 'datetime': '2018-10-12 14:12:20.495895', 'mgs': 0, 'depth': 3.674, 'time': 19.05, 'pitch': 3.02, 'roll': -10.36}
{'lipoC2': 7.76, 'temp': 23.63, 'lipoC3S3': 11.63, 'rot1': 110, 'rot0': 107, 'rot3': 53, 'rot2': 67, 'state': 'normal', 'yaw': 139.49, 'datetime': '2018-10-12 14:12:20.593500', 'mgs': 0, 'depth': 3.674, 'time': 19.15, 'pitch': 2.99, 'roll': -9.95}
{'lipoC2': 7.76, 'temp': 23.63, 'lipoC3S3': 11.65, 'rot1': 110, 'rot0': 107, 'rot3': 54, 'rot2': 67, 'state': 'normal', 'yaw': 141.24, 'datetime': '2018-10-12 14:12:20.691219', 'mgs': 0, 'depth': 3.751, 'time': 19.25, 'pitch': 2.99, 'roll': -9.47}
{'lipoC2': 7.76, 'temp': 23.63, 'lipoC3S3': 11.59, 'rot1': 110, 'rot0': 107, 'rot3': 54, 'rot2': 68, 'state': 'normal', 'yaw': 142.91, 'datetime': '2018-10-12 14:12:20.788058', 'mgs': 0, 'depth': 3.522, 'time': 19.35, 'pitch': 3.02, 'roll': -8.98}
{'lipoC2': 7.76, 'temp': 23.75, 'lipoC3S3': 11.63, 'rot1': 110, 'rot0': 107, 'rot3': 55, 'rot2': 68, 'state': 'normal', 'yaw': 144.5, 'datetime': '2018-10-12 14:12:20.886805', 'mgs': 0, 'depth': 3.979, 'time': 19.44, 'pitch': 3.08, 'roll': -8.55}
{'lipoC2': 7.76, 'temp': 23.75, 'lipoC3S3': 11.64, 'rot1': 110, 'rot0': 107, 'rot3': 55, 'rot2': 69, 'state': 'normal', 'yaw': 145.88, 'datetime': '2018-10-12 14:12:20.986138', 'mgs': 0, 'depth': 3.751, 'time': 19.54, 'pitch': 3.14, 'roll': -8.2}
{'lipoC2': 7.76, 'temp': 23.63, 'lipoC3S3': 11.61, 'rot1': 110, 'rot0': 107, 'rot3': 55, 'rot2': 70, 'state': 'normal', 'yaw': 147.35, 'datetime': '2018-10-12 14:12:21.084903', 'mgs': 0, 'depth': 3.827, 'time': 19.64, 'pitch': 3.17, 'roll': -7.85}
{'lipoC2': 7.76, 'temp': 23.63, 'lipoC3S3': 11.63, 'rot1': 110, 'rot0': 107, 'rot3': 56, 'rot2': 70, 'state': 'normal', 'yaw': 148.77, 'datetime': '2018-10-12 14:12:21.183817', 'mgs': 0, 'depth': 4.056, 'time': 19.74, 'pitch': 3.18, 'roll': -7.54}
{'lipoC2': 7.76, 'temp': 23.63, 'lipoC3S3': 11.64, 'rot1': 110, 'rot0': 107, 'rot3': 57, 'rot2': 71, 'state': 'normal', 'yaw': 150.15, 'datetime': '2018-10-12 14:12:21.281790', 'mgs': 0, 'depth': 4.208, 'time': 19.84, 'pitch': 3.17, 'roll': -7.28}
{'lipoC2': 7.76, 'temp': 23.63, 'lipoC3S3': 11.64, 'rot1': 110, 'rot0': 107, 'rot3': 57, 'rot2': 71, 'state': 'normal', 'yaw': 151.49, 'datetime': '2018-10-12 14:12:21.379308', 'mgs': 0, 'depth': 4.208, 'time': 19.94, 'pitch': 3.17, 'roll': -7.04}
{'lipoC2': 7.76, 'temp': 23.63, 'lipoC3S3': 11.65, 'rot1': 110, 'rot0': 107, 'rot3': 57, 'rot2': 72, 'state': 'normal', 'yaw': 152.68, 'datetime': '2018-10-12 14:12:21.477373', 'mgs': 0, 'depth': 4.437, 'time': 20.04, 'pitch': 3.18, 'roll': -6.85}
{'lipoC2': 7.76, 'temp': 23.56, 'lipoC3S3': 11.65, 'rot1': 110, 'rot0': 107, 'rot3': 58, 'rot2': 72, 'state': 'normal', 'yaw': 153.95, 'datetime': '2018-10-12 14:12:21.576238', 'mgs': 0, 'depth': 4.208, 'time': 20.13, 'pitch': 3.18, 'roll': -6.65}
{'lipoC2': 7.76, 'temp': 23.56, 'lipoC3S3': 11.61, 'rot1': 110, 'rot0': 107, 'rot3': 58, 'rot2': 73, 'state': 'normal', 'yaw': 155.17, 'datetime': '2018-10-12 14:12:21.675147', 'mgs': 0, 'depth': 4.285, 'time': 20.23, 'pitch': 3.16, 'roll': -6.49}
{'lipoC2': 7.76, 'temp': 23.56, 'lipoC3S3': 11.6, 'rot1': 110, 'rot0': 107, 'rot3': 59, 'rot2': 73, 'state': 'normal', 'yaw': 156.37, 'datetime': '2018-10-12 14:12:21.774050', 'mgs': 0, 'depth': 4.132, 'time': 20.33, 'pitch': 3.15, 'roll': -6.38}
{'lipoC2': 7.75, 'temp': 23.75, 'lipoC3S3': 11.63, 'rot1': 110, 'rot0': 107, 'rot3': 59, 'rot2': 74, 'state': 'normal', 'yaw': 157.53, 'datetime': '2018-10-12 14:12:21.871731', 'mgs': 0, 'depth': 4.437, 'time': 20.43, 'pitch': 3.13, 'roll': -6.32}
{'lipoC2': 7.76, 'temp': 23.75, 'lipoC3S3': 11.65, 'rot1': 110, 'rot0': 107, 'rot3': 59, 'rot2': 74, 'state': 'normal', 'yaw': 158.67, 'datetime': '2018-10-12 14:12:21.969284', 'mgs': 0, 'depth': 4.514, 'time': 20.53, 'pitch': 3.11, 'roll': -6.26}
{'lipoC2': 7.76, 'temp': 23.56, 'lipoC3S3': 11.65, 'rot1': 110, 'rot0': 107, 'rot3': 60, 'rot2': 75, 'state': 'normal', 'yaw': 159.66, 'datetime': '2018-10-12 14:12:22.067766', 'mgs': 0, 'depth': 4.819, 'time': 20.63, 'pitch': 3.08, 'roll': -6.24}
{'lipoC2': 7.76, 'temp': 23.56, 'lipoC3S3': 11.67, 'rot1': 110, 'rot0': 107, 'rot3': 60, 'rot2': 75, 'state': 'normal', 'yaw': 160.76, 'datetime': '2018-10-12 14:12:22.167088', 'mgs': 0, 'depth': 4.514, 'time': 20.73, 'pitch': 3.02, 'roll': -6.23}
{'lipoC2': 7.76, 'temp': 23.56, 'lipoC3S3': 11.68, 'rot1': 110, 'rot0': 107, 'rot3': 60, 'rot2': 75, 'state': 'normal', 'yaw': 161.84, 'datetime': '2018-10-12 14:12:22.264517', 'mgs': 0, 'depth': 4.59, 'time': 20.82, 'pitch': 2.93, 'roll': -6.11}
{'lipoC2': 7.76, 'temp': 23.63, 'lipoC3S3': 11.63, 'rot1': 110, 'rot0': 107, 'rot3': 60, 'rot2': 75, 'state': 'normal', 'yaw': 162.9, 'datetime': '2018-10-12 14:12:22.362008', 'mgs': 0, 'depth': 5.124, 'time': 20.92, 'pitch': 2.83, 'roll': -5.91}
{'lipoC2': 7.76, 'temp': 23.63, 'lipoC3S3': 11.55, 'rot1': 110, 'rot0': 107, 'rot3': 61, 'rot2': 76, 'state': 'normal', 'yaw': 163.96, 'datetime': '2018-10-12 14:12:22.459940', 'mgs': 0, 'depth': 4.666, 'time': 21.02, 'pitch': 2.81, 'roll': -5.8}
{'lipoC2': 7.75, 'temp': 23.56, 'lipoC3S3': 11.52, 'rot1': 112, 'rot0': 109, 'rot3': 61, 'rot2': 76, 'state': 'normal', 'yaw': 164.97, 'datetime': '2018-10-12 14:12:22.557363', 'mgs': 0, 'depth': 6.039, 'time': 21.12, 'pitch': 2.88, 'roll': -5.27}
{'lipoC2': 7.77, 'temp': 23.56, 'lipoC3S3': 11.55, 'rot1': 113, 'rot0': 110, 'rot3': 61, 'rot2': 77, 'state': 'normal', 'yaw': 166.31, 'datetime': '2018-10-12 14:12:22.655012', 'mgs': 0, 'depth': 5.353, 'time': 21.22, 'pitch': 3.05, 'roll': -3.86}
{'lipoC2': 7.76, 'temp': 23.56, 'lipoC3S3': 11.42, 'rot1': 114, 'rot0': 111, 'rot3': 62, 'rot2': 77, 'state': 'normal', 'yaw': 167.81, 'datetime': '2018-10-12 14:12:22.752616', 'mgs': 0, 'depth': 5.124, 'time': 21.31, 'pitch': 3.19, 'roll': -1.79}
{'lipoC2': 7.76, 'temp': 23.63, 'lipoC3S3': 11.46, 'rot1': 116, 'rot0': 112, 'rot3': 62, 'rot2': 78, 'state': 'normal', 'yaw': 169.27, 'datetime': '2018-10-12 14:12:22.850138', 'mgs': 0, 'depth': 4.666, 'time': 21.41, 'pitch': 3.16, 'roll': -0.48}
{'lipoC2': 7.76, 'temp': 23.63, 'lipoC3S3': 11.52, 'rot1': 117, 'rot0': 113, 'rot3': 63, 'rot2': 78, 'state': 'normal', 'yaw': 170.35, 'datetime': '2018-10-12 14:12:22.947783', 'mgs': 0, 'depth': 5.124, 'time': 21.51, 'pitch': 3.27, 'roll': -0.76}
{'lipoC2': 7.75, 'temp': 23.63, 'lipoC3S3': 11.56, 'rot1': 118, 'rot0': 115, 'rot3': 63, 'rot2': 79, 'state': 'normal', 'yaw': 171.82, 'datetime': '2018-10-12 14:12:23.045466', 'mgs': 0, 'depth': 5.429, 'time': 21.61, 'pitch': 3.78, 'roll': -1.44}
{'lipoC2': 7.76, 'temp': 23.63, 'lipoC3S3': 11.55, 'rot1': 120, 'rot0': 116, 'rot3': 64, 'rot2': 80, 'state': 'normal', 'yaw': 173.25, 'datetime': '2018-10-12 14:12:23.143101', 'mgs': 0, 'depth': 5.048, 'time': 21.7, 'pitch': 3.93, 'roll': -1.78}
{'lipoC2': 7.76, 'temp': 23.63, 'lipoC3S3': 11.54, 'rot1': 121, 'rot0': 117, 'rot3': 64, 'rot2': 80, 'state': 'normal', 'yaw': 174.64, 'datetime': '2018-10-12 14:12:23.240738', 'mgs': 0, 'depth': 5.276, 'time': 21.8, 'pitch': 3.82, 'roll': -1.89}
{'lipoC2': 7.76, 'temp': 23.63, 'lipoC3S3': 11.56, 'rot1': 123, 'rot0': 118, 'rot3': 65, 'rot2': 81, 'state': 'normal', 'yaw': 175.9, 'datetime': '2018-10-12 14:12:23.339727', 'mgs': 0, 'depth': 5.2, 'time': 21.9, 'pitch': 3.55, 'roll': -1.77}
