{'lipoC2': 7.77, 'temp': 23.5, 'lipoC3S3': 11.76, 'rot1': 0, 'rot0': 0, 'rot3': 0, 'rot2': 0, 'state': 'normal', 'yaw': 0.0, 'datetime': '2018-10-12 14:06:50.019824', 'mgs': 0, 'depth': 2.377, 'time': 1.26, 'pitch': -3.51, 'roll': -7.58}
{'lipoC2': 7.77, 'temp': 23.5, 'lipoC3S3': 11.77, 'rot1': 0, 'rot0': 0, 'rot3': 0, 'rot2': 0, 'state': 'normal', 'yaw': 0.6, 'datetime': '2018-10-12 14:06:50.037312', 'mgs': 0, 'depth': 2.301, 'time': 1.36, 'pitch': -4.28, 'roll': -7.79}
{'lipoC2': 7.77, 'temp': 23.44, 'lipoC3S3': 11.77, 'rot1': 0, 'rot0': 0, 'rot3': 0, 'rot2': 0, 'state': 'normal', 'yaw': 1.46, 'datetime': '2018-10-12 14:06:50.055528', 'mgs': 0, 'depth': 2.225, 'time': 1.46, 'pitch': -4.79, 'roll': -8.16}
{'lipoC2': 7.77, 'temp': 23.44, 'lipoC3S3': 11.77, 'rot1': 0, 'rot0': 0, 'rot3': 0, 'rot2': 0, 'state': 'normal', 'yaw': 2.54, 'datetime': '2018-10-12 14:06:50.069456', 'mgs': 0, 'depth': 2.301, 'time': 1.55, 'pitch': -4.93, 'roll': -7.88}
{'lipoC2': 7.77, 'temp': 23.44, 'lipoC3S3': 11.76, 'rot1': 0, 'rot0': 0, 'rot3': 0, 'rot2': 0, 'state': 'normal', 'yaw': 3.22, 'datetime': '2018-10-12 14:06:50.077114', 'mgs': 0, 'depth': 2.301, 'time': 1.65, 'pitch': -4.9, 'roll': -7.61}
{'lipoC2': 7.77, 'temp': 23.5, 'lipoC3S3': 11.77, 'rot1': 0, 'rot0': 0, 'rot3': 0, 'rot2': 0, 'state': 'normal', 'yaw': 3.82, 'datetime': '2018-10-12 14:06:50.084588', 'mgs': 0, 'depth': 2.225, 'time': 1.75, 'pitch': -4.74, 'roll': -7.6}
{'lipoC2': 7.78, 'temp': 23.5, 'lipoC3S3': 11.77, 'rot1': 0, 'rot0': 0, 'rot3': 0, 'rot2': 0, 'state': 'normal', 'yaw': 4.39, 'datetime': '2018-10-12 14:06:50.165254', 'mgs': 0, 'depth': 2.225, 'time': 1.85, 'pitch': -4.41, 'roll': -7.33}
{'lipoC2': 7.77, 'temp': 23.44, 'lipoC3S3': 11.77, 'rot1': 0, 'rot0': 0, 'rot3': 0, 'rot2': 0, 'state': 'normal', 'yaw': 4.86, 'datetime': '2018-10-12 14:06:50.262267', 'mgs': 0, 'depth': 2.072, 'time': 1.94, 'pitch': -3.99, 'roll': -6.8}
{'lipoC2': 7.77, 'temp': 23.44, 'lipoC3S3': 11.77, 'rot1': 0, 'rot0': 0, 'rot3': 0, 'rot2': 0, 'state': 'normal', 'yaw': 5.02, 'datetime': '2018-10-12 14:06:50.359423', 'mgs': 0, 'depth': 2.072, 'time': 2.04, 'pitch': -3.7, 'roll': -6.44}
{'lipoC2': 7.77, 'temp': 23.44, 'lipoC3S3': 11.76, 'rot1': 0, 'rot0': 0, 'rot3': 0, 'rot2': 0, 'state': 'normal', 'yaw': 5.06, 'datetime': '2018-10-12 14:06:50.456479', 'mgs': 0, 'depth': 2.148, 'time': 2.14, 'pitch': -3.4, 'roll': -6.28}
{'lipoC2': 7.78, 'temp': 23.44, 'lipoC3S3': 11.77, 'rot1': 0, 'rot0': 0, 'rot3': 0, 'rot2': 0, 'state': 'normal', 'yaw': 5.07, 'datetime': '2018-10-12 14:06:50.553523', 'mgs': 0, 'depth': 2.072, 'time': 2.24, 'pitch': -2.97, 'roll': -5.98}
{'lipoC2': 7.77, 'temp': 23.44, 'lipoC3S3': 11.77, 'rot1': 0, 'rot0': 0, 'rot3': 0, 'rot2': 0, 'state': 'normal', 'yaw': 5.04, 'datetime': '2018-10-12 14:06:50.650550', 'mgs': 0, 'depth': 2.072, 'time': 2.33, 'pitch': -2.5, 'roll': -5.82}
{'lipoC2': 7.77, 'temp': 23.44, 'lipoC3S3': 11.79, 'rot1': 0, 'rot0': 0, 'rot3': 0, 'rot2': 0, 'state': 'normal', 'yaw': 4.96, 'datetime': '2018-10-12 14:06:50.747596', 'mgs': 0, 'depth': 2.148, 'time': 2.43, 'pitch': -1.97, 'roll': -6.11}
{'lipoC2': 7.77, 'temp': 23.44, 'lipoC3S3': 11.76, 'rot1': 0, 'rot0': 0, 'rot3': 0, 'rot2': 0, 'state': 'normal', 'yaw': 4.87, 'datetime': '2018-10-12 14:06:50.852439', 'mgs': 0, 'depth': 2.072, 'time': 2.53, 'pitch': -1.43, 'roll': -6.58}
{'lipoC2': 7.77, 'temp': 23.44, 'lipoC3S3': 11.77, 'rot1': 0, 'rot0': 0, 'rot3': 0, 'rot2': 0, 'state': 'normal', 'yaw': 4.7, 'datetime': '2018-10-12 14:06:50.949599', 'mgs': 0, 'depth': 2.148, 'time': 2.63, 'pitch': -1.01, 'roll': -6.82}
{'lipoC2': 7.77, 'temp': 23.44, 'lipoC3S3': 11.77, 'rot1': 0, 'rot0': 0, 'rot3': 0, 'rot2': 0, 'state': 'normal', 'yaw': 4.49, 'datetime': '2018-10-12 14:06:51.046531', 'mgs': 0, 'depth': 2.072, 'time': 2.72, 'pitch': -0.55, 'roll': -6.82}
{'lipoC2': 7.78, 'temp': 23.44, 'lipoC3S3': 11.77, 'rot1': 0, 'rot0': 0, 'rot3': 0, 'rot2': 0, 'state': 'normal', 'yaw': 4.28, 'datetime': '2018-10-12 14:06:51.143664', 'mgs': 0, 'depth': 2.072, 'time': 2.82, 'pitch': -0.1, 'roll': -6.61}
{'lipoC2': 7.78, 'temp': 23.5, 'lipoC3S3': 11.77, 'rot1': 0, 'rot0': 0, 'rot3': 0, 'rot2': 0, 'state': 'normal', 'yaw': 4.08, 'datetime': '2018-10-12 14:06:51.240989', 'mgs': 0, 'depth': 2.072, 'time': 2.92, 'pitch': 0.3, 'roll': -6.41}
{'lipoC2': 7.78, 'temp': 23.5, 'lipoC3S3': 11.77, 'rot1': 0, 'rot0': 0, 'rot3': 0, 'rot2': 0, 'state': 'normal', 'yaw': 3.93, 'datetime': '2018-10-12 14:06:51.339348', 'mgs': 0, 'depth': 2.148, 'time': 3.02, 'pitch': 0.6, 'roll': -6.39}
{'lipoC2': 7.77, 'temp': 23.5, 'lipoC3S3': 11.77, 'rot1': 0, 'rot0': 0, 'rot3': 0, 'rot2': 0, 'state': 'normal', 'yaw': 3.7, 'datetime': '2018-10-12 14:06:51.437577', 'mgs': 0, 'depth': 2.072, 'time': 3.11, 'pitch': 0.77, 'roll': -6.54}
{'lipoC2': 7.78, 'temp': 23.44, 'lipoC3S3': 11.76, 'rot1': 0, 'rot0': 0, 'rot3': 0, 'rot2': 0, 'state': 'normal', 'yaw': 3.48, 'datetime': '2018-10-12 14:06:51.534496', 'mgs': 0, 'depth': 2.072, 'time': 3.21, 'pitch': 0.83, 'roll': -6.73}
{'lipoC2': 7.77, 'temp': 23.44, 'lipoC3S3': 11.77, 'rot1': 0, 'rot0': 0, 'rot3': 0, 'rot2': 0, 'state': 'normal', 'yaw': 3.29, 'datetime': '2018-10-12 14:06:51.631594', 'mgs': 0, 'depth': 2.148, 'time': 3.31, 'pitch': 0.8, 'roll': -6.86}
{'lipoC2': 7.77, 'temp': 23.5, 'lipoC3S3': 11.77, 'rot1': 0, 'rot0': 0, 'rot3': 0, 'rot2': 0, 'state': 'normal', 'yaw': 3.19, 'datetime': '2018-10-12 14:06:51.729971', 'mgs': 0, 'depth': 2.225, 'time': 3.4, 'pitch': 0.79, 'roll': -6.95}
{'lipoC2': 7.77, 'temp': 23.5, 'lipoC3S3': 11.77, 'rot1': 0, 'rot0': 0, 'rot3': 0, 'rot2': 0, 'state': 'normal', 'yaw': 3.2, 'datetime': '2018-10-12 14:06:51.827839', 'mgs': 0, 'depth': 2.225, 'time': 3.5, 'pitch': 0.78, 'roll': -7.16}
{'lipoC2': 7.78, 'temp': 23.5, 'lipoC3S3': 11.77, 'rot1': 0, 'rot0': 0, 'rot3': 0, 'rot2': 0, 'state': 'normal', 'yaw': 3.36, 'datetime': '2018-10-12 14:06:51.924864', 'mgs': 0, 'depth': 2.225, 'time': 3.6, 'pitch': 0.78, 'roll': -7.67}
{'lipoC2': 7.78, 'temp': 23.5, 'lipoC3S3': 11.76, 'rot1': 0, 'rot0': 0, 'rot3': 0, 'rot2': 0, 'state': 'normal', 'yaw': 3.59, 'datetime': '2018-10-12 14:06:52.022222', 'mgs': 0, 'depth': 2.225, 'time': 3.7, 'pitch': 0.69, 'roll': -8.59}
{'lipoC2': 7.78, 'temp': 23.5, 'lipoC3S3': 11.76, 'rot1': 0, 'rot0': 0, 'rot3': 0, 'rot2': 0, 'state': 'normal', 'yaw': 4.01, 'datetime': '2018-10-12 14:06:52.119215', 'mgs': 0, 'depth': 2.225, 'time': 3.8, 'pitch': 0.69, 'roll': -9.4}
{'lipoC2': 7.77, 'temp': 23.5, 'lipoC3S3': 11.76, 'rot1': 0, 'rot0': 0, 'rot3': 0, 'rot2': 0, 'state': 'normal', 'yaw': 4.75, 'datetime': '2018-10-12 14:06:52.216256', 'mgs': 0, 'depth': 2.225, 'time': 3.89, 'pitch': 0.78, 'roll': -9.97}
{'lipoC2': 7.77, 'temp': 23.5, 'lipoC3S3': 11.77, 'rot1': 0, 'rot0': 0, 'rot3': 0, 'rot2': 0, 'state': 'normal', 'yaw': 5.59, 'datetime': '2018-10-12 14:06:52.313434', 'mgs': 0, 'depth': 2.225, 'time': 3.99, 'pitch': 0.71, 'roll': -10.7}
{'lipoC2': 7.77, 'temp': 23.5, 'lipoC3S3': 11.76, 'rot1': 0, 'rot0': 0, 'rot3': 0, 'rot2': 0, 'state': 'normal', 'yaw': 6.5, 'datetime': '2018-10-12 14:06:52.410409', 'mgs': 0, 'depth': 2.225, 'time': 4.09, 'pitch': 0.43, 'roll': -11.17}
{'lipoC2': 7.77, 'temp': 23.5, 'lipoC3S3': 11.77, 'rot1': 0, 'rot0': 0, 'rot3': 0, 'rot2': 0, 'state': 'normal', 'yaw': 7.79, 'datetime': '2018-10-12 14:06:52.507354', 'mgs': 0, 'depth': 2.377, 'time': 4.18, 'pitch': -0.11, 'roll': -11.72}
{'lipoC2': 7.78, 'temp': 23.5, 'lipoC3S3': 11.76, 'rot1': 0, 'rot0': 0, 'rot3': 0, 'rot2': 0, 'state': 'normal', 'yaw': 9.25, 'datetime': '2018-10-12 14:06:52.599461', 'mgs': 0, 'depth': 2.377, 'time': 4.28, 'pitch': -1.01, 'roll': -12.14}
{'lipoC2': 7.78, 'temp': 23.5, 'lipoC3S3': 11.77, 'rot1': 0, 'rot0': 0, 'rot3': 0, 'rot2': 0, 'state': 'normal', 'yaw': 10.86, 'datetime': '2018-10-12 14:06:52.696543', 'mgs': 0, 'depth': 2.377, 'time': 4.38, 'pitch': -1.93, 'roll': -12.08}
{'lipoC2': 7.77, 'temp': 23.5, 'lipoC3S3': 11.76, 'rot1': 0, 'rot0': 0, 'rot3': 0, 'rot2': 0, 'state': 'normal', 'yaw': 12.73, 'datetime': '2018-10-12 14:06:52.793611', 'mgs': 0, 'depth': 2.377, 'time': 4.47, 'pitch': -2.93, 'roll': -11.61}
{'lipoC2': 7.77, 'temp': 23.5, 'lipoC3S3': 11.76, 'rot1': 0, 'rot0': 0, 'rot3': 0, 'rot2': 0, 'state': 'normal', 'yaw': 14.43, 'datetime': '2018-10-12 14:06:52.890566', 'mgs': 0, 'depth': 2.377, 'time': 4.57, 'pitch': -3.81, 'roll': -10.98}
{'lipoC2': 7.77, 'temp': 23.44, 'lipoC3S3': 11.77, 'rot1': 0, 'rot0': 0, 'rot3': 0, 'rot2': 0, 'state': 'normal', 'yaw': 15.89, 'datetime': '2018-10-12 14:06:52.988741', 'mgs': 0, 'depth': 2.454, 'time': 4.67, 'pitch': -4.37, 'roll': -10.44}
{'lipoC2': 7.77, 'temp': 23.44, 'lipoC3S3': 11.76, 'rot1': 0, 'rot0': 0, 'rot3': 0, 'rot2': 0, 'state': 'normal', 'yaw': 17.46, 'datetime': '2018-10-12 14:06:53.087132', 'mgs': 0, 'depth': 2.454, 'time': 4.77, 'pitch': -4.78, 'roll': -10.16}
{'lipoC2': 7.78, 'temp': 23.5, 'lipoC3S3': 11.77, 'rot1': 0, 'rot0': 0, 'rot3': 0, 'rot2': 0, 'state': 'normal', 'yaw': 18.85, 'datetime': '2018-10-12 14:06:53.184053', 'mgs': 0, 'depth': 2.454, 'time': 4.87, 'pitch': -5.1, 'roll': -10.54}
{'lipoC2': 7.77, 'temp': 23.5, 'lipoC3S3': 11.77, 'rot1': 0, 'rot0': 0, 'rot3': 0, 'rot2': 0, 'state': 'normal', 'yaw': 20.14, 'datetime': '2018-10-12 14:06:53.281097', 'mgs': 0, 'depth': 2.454, 'time': 4.96, 'pitch': -5.22, 'roll': -11.26}
{'lipoC2': 7.78, 'temp': 23.5, 'lipoC3S3': 11.77, 'rot1': 0, 'rot0': 0, 'rot3': 0, 'rot2': 0, 'state': 'normal', 'yaw': 21.16, 'datetime': '2018-10-12 14:06:53.379201', 'mgs': 0, 'depth': 2.454, 'time': 5.06, 'pitch': -5.16, 'roll': -11.79}
{'lipoC2': 7.77, 'temp': 23.5, 'lipoC3S3': 11.77, 'rot1': 0, 'rot0': 0, 'rot3': 0, 'rot2': 0, 'state': 'normal', 'yaw': 21.85, 'datetime': '2018-10-12 14:06:53.477474', 'mgs': 0, 'depth': 2.454, 'time': 5.16, 'pitch': -5.17, 'roll': -12.09}
{'lipoC2': 7.77, 'temp': 23.5, 'lipoC3S3': 11.76, 'rot1': 0, 'rot0': 0, 'rot3': 0, 'rot2': 0, 'state': 'normal', 'yaw': 22.08, 'datetime': '2018-10-12 14:06:53.574507', 'mgs': 0, 'depth': 2.377, 'time': 5.26, 'pitch': -5.15, 'roll': -12.64}
{'lipoC2': 7.78, 'temp': 23.5, 'lipoC3S3': 11.77, 'rot1': 0, 'rot0': 0, 'rot3': 0, 'rot2': 0, 'state': 'normal', 'yaw': 21.59, 'datetime': '2018-10-12 14:06:53.671545', 'mgs': 0, 'depth': 2.377, 'time': 5.35, 'pitch': -5.29, 'roll': -13.04}
{'lipoC2': 7.77, 'temp': 23.5, 'lipoC3S3': 11.77, 'rot1': 0, 'rot0': 0, 'rot3': 0, 'rot2': 0, 'state': 'normal', 'yaw': 20.95, 'datetime': '2018-10-12 14:06:53.768878', 'mgs': 0, 'depth': 2.377, 'time': 5.45, 'pitch': -5.16, 'roll': -13.08}
{'lipoC2': 7.77, 'temp': 23.5, 'lipoC3S3': 11.77, 'rot1': 0, 'rot0': 0, 'rot3': 0, 'rot2': 0, 'state': 'normal', 'yaw': 20.23, 'datetime': '2018-10-12 14:06:53.865680', 'mgs': 0, 'depth': 2.301, 'time': 5.55, 'pitch': -4.51, 'roll': -12.85}
{'lipoC2': 7.77, 'temp': 23.5, 'lipoC3S3': 11.77, 'rot1': 0, 'rot0': 0, 'rot3': 0, 'rot2': 0, 'state': 'normal', 'yaw': 19.71, 'datetime': '2018-10-12 14:06:53.962612', 'mgs': 0, 'depth': 2.377, 'time': 5.65, 'pitch': -3.35, 'roll': -12.59}
{'lipoC2': 7.77, 'temp': 23.5, 'lipoC3S3': 11.77, 'rot1': 0, 'rot0': 0, 'rot3': 0, 'rot2': 0, 'state': 'normal', 'yaw': 19.31, 'datetime': '2018-10-12 14:06:54.059666', 'mgs': 0, 'depth': 2.301, 'time': 5.74, 'pitch': -2.15, 'roll': -12.3}
{'lipoC2': 7.77, 'temp': 23.5, 'lipoC3S3': 11.77, 'rot1': 0, 'rot0': 0, 'rot3': 0, 'rot2': 0, 'state': 'normal', 'yaw': 18.76, 'datetime': '2018-10-12 14:06:54.156653', 'mgs': 0, 'depth': 2.225, 'time': 5.84, 'pitch': -0.98, 'roll': -11.76}
{'lipoC2': 7.77, 'temp': 23.5, 'lipoC3S3': 11.77, 'rot1': 0, 'rot0': 0, 'rot3': 0, 'rot2': 0, 'state': 'normal', 'yaw': 18.46, 'datetime': '2018-10-12 14:06:54.253711', 'mgs': 0, 'depth': 2.072, 'time': 5.94, 'pitch': 0.21, 'roll': -10.88}
{'lipoC2': 7.77, 'temp': 23.5, 'lipoC3S3': 11.76, 'rot1': 0, 'rot0': 0, 'rot3': 0, 'rot2': 0, 'state': 'normal', 'yaw': 18.21, 'datetime': '2018-10-12 14:06:54.350903', 'mgs': 0, 'depth': 2.148, 'time': 6.03, 'pitch': 1.1, 'roll': -10.31}
{'lipoC2': 7.77, 'temp': 23.44, 'lipoC3S3': 11.77, 'rot1': 0, 'rot0': 0, 'rot3': 0, 'rot2': 0, 'state': 'normal', 'yaw': 17.83, 'datetime': '2018-10-12 14:06:54.447993', 'mgs': 0, 'depth': 2.148, 'time': 6.13, 'pitch': 1.8, 'roll': -10.25}
{'lipoC2': 7.77, 'temp': 23.44, 'lipoC3S3': 11.77, 'rot1': 0, 'rot0': 0, 'rot3': 0, 'rot2': 0, 'state': 'normal', 'yaw': 17.45, 'datetime': '2018-10-12 14:06:54.545117', 'mgs': 0, 'depth': 2.072, 'time': 6.23, 'pitch': 2.15, 'roll': -9.98}
{'lipoC2': 7.77, 'temp': 23.5, 'lipoC3S3': 11.77, 'rot1': 0, 'rot0': 0, 'rot3': 0, 'rot2': 0, 'state': 'normal', 'yaw': 17.28, 'datetime': '2018-10-12 14:06:54.642582', 'mgs': 0, 'depth': 1.996, 'time': 6.33, 'pitch': 2.21, 'roll': -9.3}
{'lipoC2': 7.77, 'temp': 23.5, 'lipoC3S3': 11.77, 'rot1': 0, 'rot0': 0, 'rot3': 0, 'rot2': 0, 'state': 'normal', 'yaw': 17.49, 'datetime': '2018-10-12 14:06:54.740916', 'mgs': 0, 'depth': 1.996, 'time': 6.43, 'pitch': 2.17, 'roll': -8.87}
{'lipoC2': 7.77, 'temp': 23.5, 'lipoC3S3': 11.76, 'rot1': 0, 'rot0': 0, 'rot3': 0, 'rot2': 0, 'state': 'normal', 'yaw': 18.1, 'datetime': '2018-10-12 14:06:54.838090', 'mgs': 0, 'depth': 2.072, 'time': 6.52, 'pitch': 1.99, 'roll': -8.91}
{'lipoC2': 7.77, 'temp': 23.44, 'lipoC3S3': 11.76, 'rot1': 0, 'rot0': 0, 'rot3': 0, 'rot2': 0, 'state': 'normal', 'yaw': 18.67, 'datetime': '2018-10-12 14:06:54.935104', 'mgs': 0, 'depth': 2.072, 'time': 6.62, 'pitch': 1.4, 'roll': -8.91}
{'lipoC2': 7.78, 'temp': 23.44, 'lipoC3S3': 11.77, 'rot1': 0, 'rot0': 0, 'rot3': 0, 'rot2': 0, 'state': 'normal', 'yaw': 18.98, 'datetime': '2018-10-12 14:06:55.032696', 'mgs': 0, 'depth': 1.996, 'time': 6.72, 'pitch': 0.52, 'roll': -8.6}
{'lipoC2': 7.78, 'temp': 23.5, 'lipoC3S3': 11.77, 'rot1': 0, 'rot0': 0, 'rot3': 0, 'rot2': 0, 'state': 'normal', 'yaw': 19.13, 'datetime': '2018-10-12 14:06:55.130956', 'mgs': 0, 'depth': 2.072, 'time': 6.82, 'pitch': -0.58, 'roll': -8.16}
{'lipoC2': 7.77, 'temp': 23.5, 'lipoC3S3': 11.76, 'rot1': 0, 'rot0': 0, 'rot3': 0, 'rot2': 0, 'state': 'normal', 'yaw': 19.35, 'datetime': '2018-10-12 14:06:55.232948', 'mgs': 0, 'depth': 1.996, 'time': 6.91, 'pitch': -1.46, 'roll': -7.89}
{'lipoC2': 7.77, 'temp': 23.5, 'lipoC3S3': 11.77, 'rot1': 0, 'rot0': 0, 'rot3': 0, 'rot2': 0, 'state': 'normal', 'yaw': 19.71, 'datetime': '2018-10-12 14:06:55.330064', 'mgs': 0, 'depth': 2.072, 'time': 7.01, 'pitch': -1.97, 'roll': -7.7}
{'lipoC2': 7.78, 'temp': 23.5, 'lipoC3S3': 11.77, 'rot1': 0, 'rot0': 0, 'rot3': 0, 'rot2': 0, 'state': 'normal', 'yaw': 19.93, 'datetime': '2018-10-12 14:06:55.427913', 'mgs': 0, 'depth': 1.996, 'time': 7.11, 'pitch': -2.28, 'roll': -7.45}
{'lipoC2': 7.77, 'temp': 23.5, 'lipoC3S3': 11.77, 'rot1': 0, 'rot0': 0, 'rot3': 0, 'rot2': 0, 'state': 'normal', 'yaw': 19.78, 'datetime': '2018-10-12 14:06:55.525057', 'mgs': 0, 'depth': 2.072, 'time': 7.2, 'pitch': -2.7, 'roll': -7.3}
{'lipoC2': 7.78, 'temp': 23.44, 'lipoC3S3': 11.76, 'rot1': 0, 'rot0': 0, 'rot3': 0, 'rot2': 0, 'state': 'normal', 'yaw': 19.33, 'datetime': '2018-10-12 14:06:55.622200', 'mgs': 0, 'depth': 1.996, 'time': 7.3, 'pitch': -3.12, 'roll': -7.28}
{'lipoC2': 7.78, 'temp': 23.44, 'lipoC3S3': 11.77, 'rot1': 0, 'rot0': 0, 'rot3': 0, 'rot2': 0, 'state': 'normal', 'yaw': 18.75, 'datetime': '2018-10-12 14:06:55.719196', 'mgs': 0, 'depth': 1.996, 'time': 7.4, 'pitch': -3.47, 'roll': -7.28}
{'lipoC2': 7.77, 'temp': 23.44, 'lipoC3S3': 11.77, 'rot1': 0, 'rot0': 0, 'rot3': 0, 'rot2': 0, 'state': 'normal', 'yaw': 18.09, 'datetime': '2018-10-12 14:06:55.816221', 'mgs': 0, 'depth': 1.996, 'time': 7.5, 'pitch': -3.72, 'roll': -7.4}
{'lipoC2': 7.77, 'temp': 23.44, 'lipoC3S3': 11.77, 'rot1': 0, 'rot0': 0, 'rot3': 0, 'rot2': 0, 'state': 'normal', 'yaw': 17.68, 'datetime': '2018-10-12 14:06:55.913301', 'mgs': 0, 'depth': 1.996, 'time': 7.59, 'pitch': -3.66, 'roll': -7.51}
{'lipoC2': 7.78, 'temp': 23.44, 'lipoC3S3': 11.77, 'rot1': 0, 'rot0': 0, 'rot3': 0, 'rot2': 0, 'state': 'normal', 'yaw': 17.85, 'datetime': '2018-10-12 14:06:56.010357', 'mgs': 0, 'depth': 1.996, 'time': 7.69, 'pitch': -3.07, 'roll': -7.77}
{'lipoC2': 7.78, 'temp': 23.5, 'lipoC3S3': 11.77, 'rot1': 0, 'rot0': 0, 'rot3': 0, 'rot2': 0, 'state': 'normal', 'yaw': 18.14, 'datetime': '2018-10-12 14:06:56.107288', 'mgs': 0, 'depth': 1.92, 'time': 7.79, 'pitch': -2.45, 'roll': -8.17}
{'lipoC2': 7.78, 'temp': 23.5, 'lipoC3S3': 11.77, 'rot1': 0, 'rot0': 0, 'rot3': 0, 'rot2': 0, 'state': 'normal', 'yaw': 18.04, 'datetime': '2018-10-12 14:06:56.204384', 'mgs': 0, 'depth': 1.92, 'time': 7.88, 'pitch': -2.1, 'roll': -8.35}
{'lipoC2': 7.77, 'temp': 23.5, 'lipoC3S3': 11.77, 'rot1': 0, 'rot0': 0, 'rot3': 0, 'rot2': 0, 'state': 'normal', 'yaw': 17.62, 'datetime': '2018-10-12 14:06:56.301519', 'mgs': 0, 'depth': 1.996, 'time': 7.98, 'pitch': -2.04, 'roll': -8.13}
{'lipoC2': 7.78, 'temp': 23.44, 'lipoC3S3': 11.77, 'rot1': 0, 'rot0': 0, 'rot3': 0, 'rot2': 0, 'state': 'normal', 'yaw': 17.21, 'datetime': '2018-10-12 14:06:56.399744', 'mgs': 1, 'depth': 1.996, 'time': 8.08, 'pitch': -2.08, 'roll': -7.88}
{'lipoC2': 7.77, 'temp': 23.5, 'lipoC3S3': 11.77, 'rot1': 0, 'rot0': 0, 'rot3': 0, 'rot2': 0, 'state': 'normal', 'yaw': 0.0, 'datetime': '2018-10-12 14:06:57.920452', 'mgs': 0, 'depth': 2.148, 'time': 1.26, 'pitch': -3.37, 'roll': -9.82}
{'lipoC2': 7.77, 'temp': 23.5, 'lipoC3S3': 11.77, 'rot1': 0, 'rot0': 0, 'rot3': 0, 'rot2': 0, 'state': 'normal', 'yaw': 0.11, 'datetime': '2018-10-12 14:06:57.954293', 'mgs': 0, 'depth': 2.148, 'time': 1.36, 'pitch': -3.68, 'roll': -9.88}
{'lipoC2': 7.77, 'temp': 23.5, 'lipoC3S3': 11.77, 'rot1': 0, 'rot0': 0, 'rot3': 0, 'rot2': 0, 'state': 'normal', 'yaw': 0.06, 'datetime': '2018-10-12 14:06:57.971898', 'mgs': 0, 'depth': 2.072, 'time': 1.45, 'pitch': -3.91, 'roll': -9.87}
{'lipoC2': 7.77, 'temp': 23.5, 'lipoC3S3': 11.77, 'rot1': 0, 'rot0': 0, 'rot3': 0, 'rot2': 0, 'state': 'normal', 'yaw': 0.04, 'datetime': '2018-10-12 14:06:58.052446', 'mgs': 0, 'depth': 2.072, 'time': 1.55, 'pitch': -3.95, 'roll': -9.87}
{'lipoC2': 7.77, 'temp': 23.5, 'lipoC3S3': 11.71, 'rot1': 0, 'rot0': 0, 'rot3': 0, 'rot2': 0, 'state': 'normal', 'yaw': 0.01, 'datetime': '2018-10-12 14:06:58.150485', 'mgs': 0, 'depth': 2.759, 'time': 1.65, 'pitch': -3.8, 'roll': -9.82}
{'lipoC2': 7.78, 'temp': 23.44, 'lipoC3S3': 11.69, 'rot1': 1, 'rot0': 1, 'rot3': 0, 'rot2': 0, 'state': 'normal', 'yaw': -0.17, 'datetime': '2018-10-12 14:06:58.247218', 'mgs': 0, 'depth': 2.377, 'time': 1.75, 'pitch': -3.6, 'roll': -9.24}
{'lipoC2': 7.78, 'temp': 23.44, 'lipoC3S3': 11.64, 'rot1': 2, 'rot0': 2, 'rot3': 0, 'rot2': 0, 'state': 'normal', 'yaw': -0.46, 'datetime': '2018-10-12 14:06:58.343730', 'mgs': 0, 'depth': 2.072, 'time': 1.84, 'pitch': -3.31, 'roll': -8.57}
{'lipoC2': 7.77, 'temp': 23.44, 'lipoC3S3': 11.67, 'rot1': 3, 'rot0': 3, 'rot3': 0, 'rot2': 1, 'state': 'normal', 'yaw': -0.57, 'datetime': '2018-10-12 14:06:58.441614', 'mgs': 0, 'depth': 2.835, 'time': 1.94, 'pitch': -2.85, 'roll': -7.79}
{'lipoC2': 7.77, 'temp': 23.5, 'lipoC3S3': 11.61, 'rot1': 4, 'rot0': 4, 'rot3': 1, 'rot2': 1, 'state': 'normal', 'yaw': -0.56, 'datetime': '2018-10-12 14:06:58.538931', 'mgs': 0, 'depth': 2.072, 'time': 2.04, 'pitch': -2.17, 'roll': -6.14}
{'lipoC2': 7.77, 'temp': 23.5, 'lipoC3S3': 11.71, 'rot1': 5, 'rot0': 5, 'rot3': 1, 'rot2': 2, 'state': 'normal', 'yaw': -0.62, 'datetime': '2018-10-12 14:06:58.635691', 'mgs': 0, 'depth': 2.148, 'time': 2.13, 'pitch': -1.56, 'roll': -4.11}
{'lipoC2': 7.77, 'temp': 23.5, 'lipoC3S3': 11.72, 'rot1': 6, 'rot0': 6, 'rot3': 1, 'rot2': 2, 'state': 'normal', 'yaw': -0.64, 'datetime': '2018-10-12 14:06:58.733507', 'mgs': 0, 'depth': 2.072, 'time': 2.23, 'pitch': -1.08, 'roll': -2.37}
{'lipoC2': 7.77, 'temp': 23.5, 'lipoC3S3': 11.71, 'rot1': 7, 'rot0': 8, 'rot3': 1, 'rot2': 2, 'state': 'normal', 'yaw': -0.66, 'datetime': '2018-10-12 14:06:58.830116', 'mgs': 0, 'depth': 2.225, 'time': 2.33, 'pitch': -0.62, 'roll': -0.73}
{'lipoC2': 7.77, 'temp': 23.44, 'lipoC3S3': 11.71, 'rot1': 8, 'rot0': 9, 'rot3': 1, 'rot2': 2, 'state': 'normal', 'yaw': -0.7, 'datetime': '2018-10-12 14:06:58.926713', 'mgs': 0, 'depth': 3.217, 'time': 2.42, 'pitch': -0.26, 'roll': 0.67}
{'lipoC2': 7.78, 'temp': 23.44, 'lipoC3S3': 11.69, 'rot1': 10, 'rot0': 10, 'rot3': 1, 'rot2': 2, 'state': 'normal', 'yaw': -0.77, 'datetime': '2018-10-12 14:06:59.023873', 'mgs': 0, 'depth': 2.682, 'time': 2.52, 'pitch': -0.01, 'roll': 1.85}
{'lipoC2': 7.77, 'temp': 23.44, 'lipoC3S3': 11.69, 'rot1': 11, 'rot0': 11, 'rot3': 1, 'rot2': 2, 'state': 'normal', 'yaw': -0.87, 'datetime': '2018-10-12 14:06:59.120794', 'mgs': 0, 'depth': 1.691, 'time': 2.62, 'pitch': 0.19, 'roll': 3.14}
{'lipoC2': 7.77, 'temp': 23.5, 'lipoC3S3': 11.71, 'rot1': 12, 'rot0': 12, 'rot3': 1, 'rot2': 2, 'state': 'normal', 'yaw': -0.97, 'datetime': '2018-10-12 14:06:59.213605', 'mgs': 0, 'depth': 2.301, 'time': 2.72, 'pitch': 0.31, 'roll': 4.36}
{'lipoC2': 7.77, 'temp': 23.5, 'lipoC3S3': 11.72, 'rot1': 13, 'rot0': 13, 'rot3': 1, 'rot2': 2, 'state': 'normal', 'yaw': -1.07, 'datetime': '2018-10-12 14:06:59.310024', 'mgs': 0, 'depth': 2.301, 'time': 2.81, 'pitch': 0.31, 'roll': 5.28}
{'lipoC2': 7.77, 'temp': 23.44, 'lipoC3S3': 11.69, 'rot1': 14, 'rot0': 14, 'rot3': 1, 'rot2': 2, 'state': 'normal', 'yaw': -1.18, 'datetime': '2018-10-12 14:06:59.407044', 'mgs': 0, 'depth': 2.835, 'time': 2.91, 'pitch': 0.27, 'roll': 5.95}
{'lipoC2': 7.78, 'temp': 23.44, 'lipoC3S3': 11.65, 'rot1': 15, 'rot0': 15, 'rot3': 1, 'rot2': 2, 'state': 'normal', 'yaw': -1.31, 'datetime': '2018-10-12 14:06:59.504019', 'mgs': 0, 'depth': 2.454, 'time': 3.01, 'pitch': 0.18, 'roll': 6.26}
{'lipoC2': 7.78, 'temp': 23.44, 'lipoC3S3': 11.59, 'rot1': 16, 'rot0': 16, 'rot3': 1, 'rot2': 2, 'state': 'normal', 'yaw': -1.41, 'datetime': '2018-10-12 14:06:59.601378', 'mgs': 0, 'depth': 2.301, 'time': 3.11, 'pitch': 0.01, 'roll': 6.41}
{'lipoC2': 7.77, 'temp': 23.5, 'lipoC3S3': 11.68, 'rot1': 17, 'rot0': 17, 'rot3': 2, 'rot2': 3, 'state': 'normal', 'yaw': -1.35, 'datetime': '2018-10-12 14:06:59.699719', 'mgs': 0, 'depth': 2.606, 'time': 3.2, 'pitch': -0.21, 'roll': 6.43}
{'lipoC2': 7.78, 'temp': 23.5, 'lipoC3S3': 11.63, 'rot1': 18, 'rot0': 18, 'rot3': 2, 'rot2': 4, 'state': 'normal', 'yaw': -1.0, 'datetime': '2018-10-12 14:06:59.798083', 'mgs': 0, 'depth': 2.377, 'time': 3.3, 'pitch': -0.55, 'roll': 6.34}
{'lipoC2': 7.78, 'temp': 23.5, 'lipoC3S3': 11.65, 'rot1': 19, 'rot0': 19, 'rot3': 3, 'rot2': 4, 'state': 'normal', 'yaw': -0.44, 'datetime': '2018-10-12 14:06:59.894985', 'mgs': 0, 'depth': 3.217, 'time': 3.4, 'pitch': -0.89, 'roll': 6.11}
{'lipoC2': 7.78, 'temp': 23.5, 'lipoC3S3': 11.67, 'rot1': 20, 'rot0': 20, 'rot3': 3, 'rot2': 5, 'state': 'normal', 'yaw': 0.1, 'datetime': '2018-10-12 14:06:59.991983', 'mgs': 0, 'depth': 2.606, 'time': 3.5, 'pitch': -1.14, 'roll': 5.86}
{'lipoC2': 7.78, 'temp': 23.5, 'lipoC3S3': 11.61, 'rot1': 21, 'rot0': 21, 'rot3': 4, 'rot2': 5, 'state': 'normal', 'yaw': 0.47, 'datetime': '2018-10-12 14:07:00.090310', 'mgs': 0, 'depth': 2.301, 'time': 3.6, 'pitch': -1.3, 'roll': 5.64}
{'lipoC2': 7.77, 'temp': 23.5, 'lipoC3S3': 11.68, 'rot1': 23, 'rot0': 22, 'rot3': 4, 'rot2': 6, 'state': 'normal', 'yaw': 0.75, 'datetime': '2018-10-12 14:07:00.188470', 'mgs': 0, 'depth': 2.377, 'time': 3.69, 'pitch': -1.42, 'roll': 5.33}
{'lipoC2': 7.77, 'temp': 23.5, 'lipoC3S3': 11.63, 'rot1': 24, 'rot0': 23, 'rot3': 5, 'rot2': 6, 'state': 'normal', 'yaw': 0.94, 'datetime': '2018-10-12 14:07:00.285486', 'mgs': 0, 'depth': 2.301, 'time': 3.79, 'pitch': -1.5, 'roll': 4.84}
{'lipoC2': 7.78, 'temp': 23.5, 'lipoC3S3': 11.68, 'rot1': 25, 'rot0': 24, 'rot3': 5, 'rot2': 7, 'state': 'normal', 'yaw': 1.13, 'datetime': '2018-10-12 14:07:00.382580', 'mgs': 0, 'depth': 2.225, 'time': 3.89, 'pitch': -1.53, 'roll': 4.15}
{'lipoC2': 7.77, 'temp': 23.5, 'lipoC3S3': 11.71, 'rot1': 26, 'rot0': 25, 'rot3': 5, 'rot2': 7, 'state': 'normal', 'yaw': 1.26, 'datetime': '2018-10-12 14:07:00.480878', 'mgs': 0, 'depth': 2.301, 'time': 3.99, 'pitch': -1.49, 'roll': 3.36}
{'lipoC2': 7.77, 'temp': 23.5, 'lipoC3S3': 11.63, 'rot1': 27, 'rot0': 26, 'rot3': 5, 'rot2': 7, 'state': 'normal', 'yaw': 1.17, 'datetime': '2018-10-12 14:07:00.577911', 'mgs': 0, 'depth': 2.225, 'time': 4.08, 'pitch': -1.49, 'roll': 2.37}
{'lipoC2': 7.77, 'temp': 23.5, 'lipoC3S3': 11.69, 'rot1': 27, 'rot0': 27, 'rot3': 5, 'rot2': 7, 'state': 'normal', 'yaw': 0.81, 'datetime': '2018-10-12 14:07:00.674881', 'mgs': 0, 'depth': 2.53, 'time': 4.18, 'pitch': -1.48, 'roll': 1.44}
{'lipoC2': 7.77, 'temp': 23.5, 'lipoC3S3': 11.69, 'rot1': 28, 'rot0': 28, 'rot3': 5, 'rot2': 7, 'state': 'normal', 'yaw': 0.29, 'datetime': '2018-10-12 14:07:00.771937', 'mgs': 0, 'depth': 3.064, 'time': 4.28, 'pitch': -1.54, 'roll': 0.7}
{'lipoC2': 7.77, 'temp': 23.5, 'lipoC3S3': 11.69, 'rot1': 29, 'rot0': 29, 'rot3': 5, 'rot2': 7, 'state': 'normal', 'yaw': -0.26, 'datetime': '2018-10-12 14:07:00.868935', 'mgs': 0, 'depth': 2.301, 'time': 4.37, 'pitch': -1.61, 'roll': 0.14}
{'lipoC2': 7.77, 'temp': 23.5, 'lipoC3S3': 11.69, 'rot1': 30, 'rot0': 30, 'rot3': 5, 'rot2': 7, 'state': 'normal', 'yaw': -0.73, 'datetime': '2018-10-12 14:07:00.965756', 'mgs': 0, 'depth': 2.301, 'time': 4.47, 'pitch': -1.67, 'roll': -0.11}
{'lipoC2': 7.78, 'temp': 23.5, 'lipoC3S3': 11.68, 'rot1': 31, 'rot0': 32, 'rot3': 5, 'rot2': 7, 'state': 'normal', 'yaw': -1.1, 'datetime': '2018-10-12 14:07:01.063139', 'mgs': 0, 'depth': 2.606, 'time': 4.57, 'pitch': -1.69, 'roll': -0.16}
{'lipoC2': 7.77, 'temp': 23.5, 'lipoC3S3': 11.69, 'rot1': 33, 'rot0': 33, 'rot3': 5, 'rot2': 7, 'state': 'normal', 'yaw': -1.47, 'datetime': '2018-10-12 14:07:01.159972', 'mgs': 0, 'depth': 2.301, 'time': 4.67, 'pitch': -1.69, 'roll': -0.15}
{'lipoC2': 7.78, 'temp': 23.5, 'lipoC3S3': 11.69, 'rot1': 34, 'rot0': 34, 'rot3': 5, 'rot2': 7, 'state': 'normal', 'yaw': -1.76, 'datetime': '2018-10-12 14:07:01.257140', 'mgs': 0, 'depth': 2.377, 'time': 4.76, 'pitch': -1.69, 'roll': -0.15}
{'lipoC2': 7.77, 'temp': 23.5, 'lipoC3S3': 11.69, 'rot1': 35, 'rot0': 35, 'rot3': 5, 'rot2': 7, 'state': 'normal', 'yaw': -1.95, 'datetime': '2018-10-12 14:07:01.354384', 'mgs': 0, 'depth': 2.682, 'time': 4.86, 'pitch': -1.6, 'roll': -0.12}
{'lipoC2': 7.77, 'temp': 23.5, 'lipoC3S3': 11.72, 'rot1': 36, 'rot0': 36, 'rot3': 5, 'rot2': 7, 'state': 'normal', 'yaw': -1.84, 'datetime': '2018-10-12 14:07:01.452708', 'mgs': 0, 'depth': 2.377, 'time': 4.96, 'pitch': -1.46, 'roll': -0.12}
{'lipoC2': 7.78, 'temp': 23.5, 'lipoC3S3': 11.65, 'rot1': 37, 'rot0': 36, 'rot3': 5, 'rot2': 7, 'state': 'normal', 'yaw': -1.42, 'datetime': '2018-10-12 14:07:01.551006', 'mgs': 0, 'depth': 3.293, 'time': 5.06, 'pitch': -1.25, 'roll': -0.21}
{'lipoC2': 7.77, 'temp': 23.5, 'lipoC3S3': 11.69, 'rot1': 38, 'rot0': 37, 'rot3': 5, 'rot2': 7, 'state': 'normal', 'yaw': -0.78, 'datetime': '2018-10-12 14:07:01.647991', 'mgs': 0, 'depth': 2.835, 'time': 5.15, 'pitch': -1.07, 'roll': -0.19}
{'lipoC2': 7.77, 'temp': 23.5, 'lipoC3S3': 11.68, 'rot1': 39, 'rot0': 38, 'rot3': 6, 'rot2': 8, 'state': 'normal', 'yaw': -0.04, 'datetime': '2018-10-12 14:07:01.745130', 'mgs': 0, 'depth': 2.454, 'time': 5.25, 'pitch': -0.94, 'roll': 0.03}
{'lipoC2': 7.77, 'temp': 23.5, 'lipoC3S3': 11.67, 'rot1': 40, 'rot0': 39, 'rot3': 6, 'rot2': 8, 'state': 'normal', 'yaw': 0.68, 'datetime': '2018-10-12 14:07:01.843251', 'mgs': 0, 'depth': 3.598, 'time': 5.35, 'pitch': -0.92, 'roll': 0.49}
{'lipoC2': 7.77, 'temp': 23.5, 'lipoC3S3': 11.58, 'rot1': 41, 'rot0': 40, 'rot3': 7, 'rot2': 9, 'state': 'normal', 'yaw': 1.52, 'datetime': '2018-10-12 14:07:01.941514', 'mgs': 0, 'depth': 2.53, 'time': 5.45, 'pitch': -0.94, 'roll': 1.19}
{'lipoC2': 7.77, 'temp': 23.5, 'lipoC3S3': 11.75, 'rot1': 42, 'rot0': 41, 'rot3': 7, 'rot2': 9, 'state': 'normal', 'yaw': 2.16, 'datetime': '2018-10-12 14:07:02.038566', 'mgs': 0, 'depth': 2.682, 'time': 5.54, 'pitch': -1.0, 'roll': 2.07}
{'lipoC2': 7.77, 'temp': 23.5, 'lipoC3S3': 11.76, 'rot1': 42, 'rot0': 41, 'rot3': 7, 'rot2': 9, 'state': 'normal', 'yaw': 2.61, 'datetime': '2018-10-12 14:07:02.135426', 'mgs': 0, 'depth': 2.606, 'time': 5.64, 'pitch': -1.01, 'roll': 2.38}
{'lipoC2': 7.77, 'temp': 23.5, 'lipoC3S3': 11.64, 'rot1': 42, 'rot0': 41, 'rot3': 7, 'rot2': 9, 'state': 'normal', 'yaw': 2.91, 'datetime': '2018-10-12 14:07:02.233818', 'mgs': 0, 'depth': 2.682, 'time': 5.74, 'pitch': -1.04, 'roll': 2.08}
{'lipoC2': 7.78, 'temp': 23.5, 'lipoC3S3': 11.43, 'rot1': 42, 'rot0': 41, 'rot3': 8, 'rot2': 9, 'state': 'normal', 'yaw': 3.16, 'datetime': '2018-10-12 14:07:02.330865', 'mgs': 0, 'depth': 2.988, 'time': 5.84, 'pitch': -0.97, 'roll': 1.13}
{'lipoC2': 7.79, 'temp': 23.5, 'lipoC3S3': 11.52, 'rot1': 44, 'rot0': 43, 'rot3': 8, 'rot2': 10, 'state': 'normal', 'yaw': 2.92, 'datetime': '2018-10-12 14:07:02.428040', 'mgs': 0, 'depth': 3.979, 'time': 5.93, 'pitch': -0.79, 'roll': 0.53}
{'lipoC2': 7.78, 'temp': 23.5, 'lipoC3S3': 11.42, 'rot1': 45, 'rot0': 44, 'rot3': 8, 'rot2': 11, 'state': 'normal', 'yaw': 2.2, 'datetime': '2018-10-12 14:07:02.525424', 'mgs': 0, 'depth': 2.606, 'time': 6.03, 'pitch': -0.62, 'roll': 0.69}
{'lipoC2': 7.77, 'temp': 23.5, 'lipoC3S3': 11.6, 'rot1': 46, 'rot0': 46, 'rot3': 9, 'rot2': 11, 'state': 'normal', 'yaw': 1.06, 'datetime': '2018-10-12 14:07:02.627620', 'mgs': 0, 'depth': 3.445, 'time': 6.13, 'pitch': -0.53, 'roll': 1.37}
{'lipoC2': 7.77, 'temp': 23.5, 'lipoC3S3': 11.52, 'rot1': 47, 'rot0': 48, 'rot3': 9, 'rot2': 12, 'state': 'normal', 'yaw': -0.31, 'datetime': '2018-10-12 14:07:02.724792', 'mgs': 0, 'depth': 2.835, 'time': 6.23, 'pitch': -0.49, 'roll': 2.21}
{'lipoC2': 7.78, 'temp': 23.5, 'lipoC3S3': 11.54, 'rot1': 48, 'rot0': 49, 'rot3': 10, 'rot2': 12, 'state': 'normal', 'yaw': -1.87, 'datetime': '2018-10-12 14:07:02.822352', 'mgs': 0, 'depth': 3.598, 'time': 6.32, 'pitch': -0.45, 'roll': 2.98}
{'lipoC2': 7.77, 'temp': 23.5, 'lipoC3S3': 11.54, 'rot1': 49, 'rot0': 50, 'rot3': 10, 'rot2': 13, 'state': 'normal', 'yaw': -3.37, 'datetime': '2018-10-12 14:07:02.919488', 'mgs': 0, 'depth': 2.988, 'time': 6.42, 'pitch': -0.37, 'roll': 3.51}
{'lipoC2': 7.77, 'temp': 23.5, 'lipoC3S3': 11.6, 'rot1': 51, 'rot0': 52, 'rot3': 11, 'rot2': 14, 'state': 'normal', 'yaw': -4.58, 'datetime': '2018-10-12 14:07:03.016987', 'mgs': 0, 'depth': 3.674, 'time': 6.52, 'pitch': -0.21, 'roll': 3.89}
{'lipoC2': 7.79, 'temp': 23.44, 'lipoC3S3': 11.59, 'rot1': 52, 'rot0': 53, 'rot3': 11, 'rot2': 14, 'state': 'normal', 'yaw': -5.22, 'datetime': '2018-10-12 14:07:03.114423', 'mgs': 0, 'depth': 3.064, 'time': 6.62, 'pitch': -0.01, 'roll': 4.26}
{'lipoC2': 7.77, 'temp': 23.44, 'lipoC3S3': 11.6, 'rot1': 53, 'rot0': 54, 'rot3': 12, 'rot2': 15, 'state': 'normal', 'yaw': -5.4, 'datetime': '2018-10-12 14:07:03.212346', 'mgs': 0, 'depth': 4.285, 'time': 6.72, 'pitch': 0.1, 'roll': 4.68}
{'lipoC2': 7.78, 'temp': 24.13, 'lipoC3S3': 11.6, 'rot1': 55, 'rot0': 55, 'rot3': 12, 'rot2': 15, 'state': 'normal', 'yaw': -5.28, 'datetime': '2018-10-12 14:07:03.307579', 'mgs': 0, 'depth': 2.606, 'time': 6.81, 'pitch': 0.18, 'roll': 5.15}
{'lipoC2': 7.78, 'temp': 24.13, 'lipoC3S3': 11.58, 'rot1': 56, 'rot0': 57, 'rot3': 13, 'rot2': 16, 'state': 'normal', 'yaw': -4.91, 'datetime': '2018-10-12 14:07:03.404872', 'mgs': 0, 'depth': 4.742, 'time': 6.91, 'pitch': 0.35, 'roll': 5.68}
{'lipoC2': 7.78, 'temp': 24.13, 'lipoC3S3': 11.5, 'rot1': 58, 'rot0': 58, 'rot3': 13, 'rot2': 17, 'state': 'normal', 'yaw': -4.34, 'datetime': '2018-10-12 14:07:03.502197', 'mgs': 0, 'depth': 3.369, 'time': 7.01, 'pitch': 0.67, 'roll': 6.17}
{'lipoC2': 7.77, 'temp': 23.5, 'lipoC3S3': 11.61, 'rot1': 60, 'rot0': 59, 'rot3': 14, 'rot2': 17, 'state': 'normal', 'yaw': -3.7, 'datetime': '2018-10-12 14:07:03.599599', 'mgs': 0, 'depth': 3.674, 'time': 7.11, 'pitch': 1.1, 'roll': 6.54}
{'lipoC2': 7.78, 'temp': 23.5, 'lipoC3S3': 11.43, 'rot1': 61, 'rot0': 60, 'rot3': 14, 'rot2': 18, 'state': 'normal', 'yaw': -3.05, 'datetime': '2018-10-12 14:07:03.697921', 'mgs': 0, 'depth': 3.827, 'time': 7.2, 'pitch': 1.49, 'roll': 6.66}
{'lipoC2': 7.79, 'temp': 23.44, 'lipoC3S3': 11.47, 'rot1': 63, 'rot0': 61, 'rot3': 15, 'rot2': 18, 'state': 'normal', 'yaw': -2.28, 'datetime': '2018-10-12 14:07:03.796488', 'mgs': 0, 'depth': 3.903, 'time': 7.3, 'pitch': 1.77, 'roll': 6.59}
{'lipoC2': 7.79, 'temp': 23.44, 'lipoC3S3': 11.46, 'rot1': 64, 'rot0': 63, 'rot3': 15, 'rot2': 19, 'state': 'normal', 'yaw': -1.46, 'datetime': '2018-10-12 14:07:03.895248', 'mgs': 0, 'depth': 3.903, 'time': 7.4, 'pitch': 1.92, 'roll': 6.28}
{'lipoC2': 7.77, 'temp': 23.44, 'lipoC3S3': 11.59, 'rot1': 65, 'rot0': 64, 'rot3': 16, 'rot2': 20, 'state': 'normal', 'yaw': -0.64, 'datetime': '2018-10-12 14:07:03.992663', 'mgs': 0, 'depth': 3.445, 'time': 7.5, 'pitch': 2.01, 'roll': 5.8}
{'lipoC2': 7.77, 'temp': 23.0, 'lipoC3S3': 11.59, 'rot1': 67, 'rot0': 65, 'rot3': 16, 'rot2': 20, 'state': 'normal', 'yaw': 0.18, 'datetime': '2018-10-12 14:07:04.090021', 'mgs': 0, 'depth': 2.759, 'time': 7.6, 'pitch': 2.0, 'roll': 5.25}
{'lipoC2': 7.78, 'temp': 23.0, 'lipoC3S3': 11.52, 'rot1': 68, 'rot0': 67, 'rot3': 17, 'rot2': 21, 'state': 'normal', 'yaw': 0.71, 'datetime': '2018-10-12 14:07:04.188717', 'mgs': 0, 'depth': 4.285, 'time': 7.7, 'pitch': 1.94, 'roll': 4.88}
{'lipoC2': 7.78, 'temp': 23.81, 'lipoC3S3': 11.58, 'rot1': 70, 'rot0': 68, 'rot3': 17, 'rot2': 21, 'state': 'normal', 'yaw': 1.13, 'datetime': '2018-10-12 14:07:04.287512', 'mgs': 0, 'depth': 4.208, 'time': 7.8, 'pitch': 1.84, 'roll': 4.67}
{'lipoC2': 7.77, 'temp': 23.81, 'lipoC3S3': 11.6, 'rot1': 71, 'rot0': 70, 'rot3': 18, 'rot2': 22, 'state': 'normal', 'yaw': 1.43, 'datetime': '2018-10-12 14:07:04.385423', 'mgs': 0, 'depth': 3.522, 'time': 7.89, 'pitch': 1.68, 'roll': 4.68}
{'lipoC2': 7.79, 'temp': 23.81, 'lipoC3S3': 11.58, 'rot1': 72, 'rot0': 71, 'rot3': 18, 'rot2': 22, 'state': 'normal', 'yaw': 1.36, 'datetime': '2018-10-12 14:07:04.487750', 'mgs': 0, 'depth': 4.514, 'time': 7.99, 'pitch': 1.46, 'roll': 4.71}
{'lipoC2': 7.77, 'temp': 23.5, 'lipoC3S3': 11.47, 'rot1': 73, 'rot0': 73, 'rot3': 18, 'rot2': 23, 'state': 'normal', 'yaw': 0.9, 'datetime': '2018-10-12 14:07:04.585048', 'mgs': 0, 'depth': 3.522, 'time': 8.09, 'pitch': 1.16, 'roll': 4.79}
{'lipoC2': 7.77, 'temp': 23.5, 'lipoC3S3': 11.59, 'rot1': 74, 'rot0': 74, 'rot3': 19, 'rot2': 23, 'state': 'normal', 'yaw': 0.13, 'datetime': '2018-10-12 14:07:04.682566', 'mgs': 0, 'depth': 5.124, 'time': 8.19, 'pitch': 0.85, 'roll': 4.9}
{'lipoC2': 7.78, 'temp': 23.44, 'lipoC3S3': 11.32, 'rot1': 76, 'rot0': 76, 'rot3': 19, 'rot2': 24, 'state': 'normal', 'yaw': -0.73, 'datetime': '2018-10-12 14:07:04.779860', 'mgs': 0, 'depth': 4.132, 'time': 8.28, 'pitch': 0.53, 'roll': 5.14}
{'lipoC2': 7.77, 'temp': 23.44, 'lipoC3S3': 11.54, 'rot1': 77, 'rot0': 77, 'rot3': 20, 'rot2': 24, 'state': 'normal', 'yaw': -1.42, 'datetime': '2018-10-12 14:07:04.877179', 'mgs': 0, 'depth': 3.598, 'time': 8.38, 'pitch': 0.26, 'roll': 5.49}
{'lipoC2': 7.77, 'temp': 23.44, 'lipoC3S3': 11.63, 'rot1': 79, 'rot0': 79, 'rot3': 20, 'rot2': 25, 'state': 'normal', 'yaw': -1.85, 'datetime': '2018-10-12 14:07:04.974779', 'mgs': 0, 'depth': 3.751, 'time': 8.48, 'pitch': 0.04, 'roll': 5.84}
{'lipoC2': 7.78, 'temp': 23.5, 'lipoC3S3': 11.58, 'rot1': 80, 'rot0': 80, 'rot3': 21, 'rot2': 25, 'state': 'normal', 'yaw': -1.92, 'datetime': '2018-10-12 14:07:05.072172', 'mgs': 0, 'depth': 4.59, 'time': 8.58, 'pitch': -0.19, 'roll': 6.08}
{'lipoC2': 7.77, 'temp': 23.5, 'lipoC3S3': 11.52, 'rot1': 82, 'rot0': 81, 'rot3': 21, 'rot2': 26, 'state': 'normal', 'yaw': -1.62, 'datetime': '2018-10-12 14:07:05.169545', 'mgs': 0, 'depth': 3.674, 'time': 8.67, 'pitch': -0.41, 'roll': 6.2}
{'lipoC2': 7.77, 'temp': 23.5, 'lipoC3S3': 11.64, 'rot1': 83, 'rot0': 82, 'rot3': 21, 'rot2': 26, 'state': 'normal', 'yaw': -1.07, 'datetime': '2018-10-12 14:07:05.266973', 'mgs': 0, 'depth': 4.666, 'time': 8.77, 'pitch': -0.61, 'roll': 6.42}
{'lipoC2': 7.78, 'temp': 23.5, 'lipoC3S3': 11.64, 'rot1': 84, 'rot0': 83, 'rot3': 21, 'rot2': 26, 'state': 'normal', 'yaw': -0.46, 'datetime': '2018-10-12 14:07:09.322044', 'mgs': 0, 'depth': 3.979, 'time': 8.87, 'pitch': -0.77, 'roll': 6.65}
{'lipoC2': 7.78, 'temp': 23.5, 'lipoC3S3': 11.68, 'rot1': 84, 'rot0': 83, 'rot3': 22, 'rot2': 27, 'state': 'normal', 'yaw': 0.08, 'datetime': '2018-10-12 14:07:09.346527', 'mgs': 0, 'depth': 3.827, 'time': 8.97, 'pitch': -1.02, 'roll': 6.37}
{'lipoC2': 7.78, 'temp': 23.5, 'lipoC3S3': 11.63, 'rot1': 84, 'rot0': 83, 'rot3': 22, 'rot2': 27, 'state': 'normal', 'yaw': 0.47, 'datetime': '2018-10-12 14:07:09.372883', 'mgs': 0, 'depth': 3.827, 'time': 9.07, 'pitch': -1.26, 'roll': 5.63}
{'lipoC2': 7.78, 'temp': 23.5, 'lipoC3S3': 11.67, 'rot1': 84, 'rot0': 83, 'rot3': 22, 'rot2': 28, 'state': 'normal', 'yaw': 0.76, 'datetime': '2018-10-12 14:07:09.383303', 'mgs': 0, 'depth': 3.522, 'time': 9.16, 'pitch': -1.47, 'roll': 4.56}
{'lipoC2': 7.77, 'temp': 23.69, 'lipoC3S3': 11.68, 'rot1': 84, 'rot0': 83, 'rot3': 23, 'rot2': 29, 'state': 'normal', 'yaw': 1.0, 'datetime': '2018-10-12 14:07:09.405128', 'mgs': 0, 'depth': 3.751, 'time': 9.26, 'pitch': -1.64, 'roll': 3.32}
{'lipoC2': 7.78, 'temp': 23.69, 'lipoC3S3': 11.63, 'rot1': 84, 'rot0': 83, 'rot3': 23, 'rot2': 29, 'state': 'normal', 'yaw': 1.19, 'datetime': '2018-10-12 14:07:09.415862', 'mgs': 0, 'depth': 3.522, 'time': 9.36, 'pitch': -1.75, 'roll': 2.12}
{'lipoC2': 7.78, 'temp': 23.56, 'lipoC3S3': 11.63, 'rot1': 84, 'rot0': 83, 'rot3': 24, 'rot2': 30, 'state': 'normal', 'yaw': 1.33, 'datetime': '2018-10-12 14:07:09.438139', 'mgs': 0, 'depth': 3.445, 'time': 9.46, 'pitch': -1.85, 'roll': 0.81}
{'lipoC2': 7.78, 'temp': 23.56, 'lipoC3S3': 11.64, 'rot1': 84, 'rot0': 83, 'rot3': 24, 'rot2': 31, 'state': 'normal', 'yaw': 1.42, 'datetime': '2018-10-12 14:07:09.448939', 'mgs': 0, 'depth': 3.293, 'time': 9.56, 'pitch': -1.91, 'roll': -0.44}
{'lipoC2': 7.77, 'temp': 23.56, 'lipoC3S3': 11.68, 'rot1': 84, 'rot0': 83, 'rot3': 25, 'rot2': 31, 'state': 'normal', 'yaw': 1.43, 'datetime': '2018-10-12 14:07:09.469840', 'mgs': 0, 'depth': 3.217, 'time': 9.66, 'pitch': -1.9, 'roll': -1.6}
{'lipoC2': 7.78, 'temp': 23.5, 'lipoC3S3': 11.67, 'rot1': 84, 'rot0': 83, 'rot3': 25, 'rot2': 32, 'state': 'normal', 'yaw': 1.43, 'datetime': '2018-10-12 14:07:09.478107', 'mgs': 0, 'depth': 3.293, 'time': 9.75, 'pitch': -1.91, 'roll': -2.66}
{'lipoC2': 7.78, 'temp': 23.5, 'lipoC3S3': 11.63, 'rot1': 84, 'rot0': 83, 'rot3': 25, 'rot2': 32, 'state': 'normal', 'yaw': 1.43, 'datetime': '2018-10-12 14:07:09.497546', 'mgs': 0, 'depth': 3.217, 'time': 9.85, 'pitch': -1.89, 'roll': -3.47}
{'lipoC2': 7.77, 'temp': 23.56, 'lipoC3S3': 11.65, 'rot1': 84, 'rot0': 83, 'rot3': 26, 'rot2': 33, 'state': 'normal', 'yaw': 1.42, 'datetime': '2018-10-12 14:07:09.505823', 'mgs': 0, 'depth': 2.988, 'time': 9.95, 'pitch': -1.81, 'roll': -4.2}
{'lipoC2': 7.77, 'temp': 23.56, 'lipoC3S3': 11.68, 'rot1': 84, 'rot0': 83, 'rot3': 26, 'rot2': 34, 'state': 'normal', 'yaw': 1.36, 'datetime': '2018-10-12 14:07:09.525229', 'mgs': 0, 'depth': 3.217, 'time': 10.05, 'pitch': -1.7, 'roll': -4.71}
{'lipoC2': 7.78, 'temp': 23.56, 'lipoC3S3': 11.64, 'rot1': 84, 'rot0': 83, 'rot3': 27, 'rot2': 34, 'state': 'normal', 'yaw': 1.27, 'datetime': '2018-10-12 14:07:09.533501', 'mgs': 0, 'depth': 2.911, 'time': 10.15, 'pitch': -1.56, 'roll': -4.97}
{'lipoC2': 7.77, 'temp': 23.5, 'lipoC3S3': 11.65, 'rot1': 84, 'rot0': 83, 'rot3': 27, 'rot2': 35, 'state': 'normal', 'yaw': 1.19, 'datetime': '2018-10-12 14:07:09.555288', 'mgs': 0, 'depth': 2.759, 'time': 10.24, 'pitch': -1.39, 'roll': -5.02}
{'lipoC2': 7.77, 'temp': 23.5, 'lipoC3S3': 11.69, 'rot1': 84, 'rot0': 83, 'rot3': 27, 'rot2': 35, 'state': 'normal', 'yaw': 1.06, 'datetime': '2018-10-12 14:07:09.566375', 'mgs': 0, 'depth': 2.988, 'time': 10.34, 'pitch': -1.17, 'roll': -4.9}
{'lipoC2': 7.77, 'temp': 23.5, 'lipoC3S3': 11.63, 'rot1': 84, 'rot0': 83, 'rot3': 28, 'rot2': 36, 'state': 'normal', 'yaw': 0.91, 'datetime': '2018-10-12 14:07:09.588215', 'mgs': 0, 'depth': 2.835, 'time': 10.44, 'pitch': -1.01, 'roll': -4.6}
{'lipoC2': 7.77, 'temp': 23.5, 'lipoC3S3': 11.68, 'rot1': 84, 'rot0': 83, 'rot3': 28, 'rot2': 37, 'state': 'normal', 'yaw': 0.77, 'datetime': '2018-10-12 14:07:09.599040', 'mgs': 0, 'depth': 2.606, 'time': 10.54, 'pitch': -0.94, 'roll': -4.13}
{'lipoC2': 7.78, 'temp': 23.5, 'lipoC3S3': 11.68, 'rot1': 84, 'rot0': 83, 'rot3': 29, 'rot2': 37, 'state': 'normal', 'yaw': 0.65, 'datetime': '2018-10-12 14:07:09.620877', 'mgs': 0, 'depth': 2.835, 'time': 10.63, 'pitch': -0.94, 'roll': -3.59}
{'lipoC2': 7.77, 'temp': 23.5, 'lipoC3S3': 11.65, 'rot1': 84, 'rot0': 83, 'rot3': 29, 'rot2': 38, 'state': 'normal', 'yaw': 0.51, 'datetime': '2018-10-12 14:07:09.631705', 'mgs': 0, 'depth': 2.53, 'time': 10.73, 'pitch': -0.95, 'roll': -2.88}
{'lipoC2': 7.77, 'temp': 23.5, 'lipoC3S3': 11.69, 'rot1': 84, 'rot0': 83, 'rot3': 30, 'rot2': 39, 'state': 'normal', 'yaw': 0.35, 'datetime': '2018-10-12 14:07:09.653907', 'mgs': 0, 'depth': 2.454, 'time': 10.83, 'pitch': -0.96, 'roll': -2.16}
{'lipoC2': 7.77, 'temp': 23.56, 'lipoC3S3': 11.68, 'rot1': 84, 'rot0': 83, 'rot3': 30, 'rot2': 39, 'state': 'normal', 'yaw': 0.18, 'datetime': '2018-10-12 14:07:09.663716', 'mgs': 0, 'depth': 2.377, 'time': 10.93, 'pitch': -0.97, 'roll': -1.49}
{'lipoC2': 7.77, 'temp': 23.56, 'lipoC3S3': 11.69, 'rot1': 84, 'rot0': 83, 'rot3': 30, 'rot2': 40, 'state': 'normal', 'yaw': 0.0, 'datetime': '2018-10-12 14:07:09.683319', 'mgs': 0, 'depth': 2.301, 'time': 11.02, 'pitch': -0.96, 'roll': -1.02}
{'lipoC2': 7.77, 'temp': 23.56, 'lipoC3S3': 11.68, 'rot1': 84, 'rot0': 83, 'rot3': 31, 'rot2': 40, 'state': 'normal', 'yaw': -0.22, 'datetime': '2018-10-12 14:07:09.694155', 'mgs': 0, 'depth': 2.606, 'time': 11.12, 'pitch': -0.97, 'roll': -0.69}
{'lipoC2': 7.77, 'temp': 23.5, 'lipoC3S3': 11.64, 'rot1': 84, 'rot0': 83, 'rot3': 31, 'rot2': 41, 'state': 'normal', 'yaw': -0.48, 'datetime': '2018-10-12 14:07:09.714406', 'mgs': 0, 'depth': 2.301, 'time': 11.22, 'pitch': -0.97, 'roll': -0.54}
{'lipoC2': 7.77, 'temp': 23.5, 'lipoC3S3': 11.68, 'rot1': 84, 'rot0': 83, 'rot3': 32, 'rot2': 42, 'state': 'normal', 'yaw': -0.7, 'datetime': '2018-10-12 14:07:09.722415', 'mgs': 0, 'depth': 2.301, 'time': 11.32, 'pitch': -1.03, 'roll': -0.51}
{'lipoC2': 7.77, 'temp': 23.56, 'lipoC3S3': 11.69, 'rot1': 84, 'rot0': 83, 'rot3': 32, 'rot2': 42, 'state': 'normal', 'yaw': -0.87, 'datetime': '2018-10-12 14:07:09.741466', 'mgs': 0, 'depth': 1.996, 'time': 11.42, 'pitch': -1.05, 'roll': -0.51}
{'lipoC2': 7.77, 'temp': 23.56, 'lipoC3S3': 11.69, 'rot1': 84, 'rot0': 83, 'rot3': 33, 'rot2': 43, 'state': 'normal', 'yaw': -0.99, 'datetime': '2018-10-12 14:07:09.750855', 'mgs': 0, 'depth': 2.454, 'time': 11.52, 'pitch': -1.05, 'roll': -0.6}
{'lipoC2': 7.77, 'temp': 23.56, 'lipoC3S3': 11.69, 'rot1': 84, 'rot0': 83, 'rot3': 33, 'rot2': 44, 'state': 'normal', 'yaw': -1.11, 'datetime': '2018-10-12 14:07:09.770124', 'mgs': 0, 'depth': 2.301, 'time': 11.61, 'pitch': -1.07, 'roll': -0.77}
{'lipoC2': 7.77, 'temp': 23.5, 'lipoC3S3': 11.67, 'rot1': 84, 'rot0': 83, 'rot3': 34, 'rot2': 44, 'state': 'normal', 'yaw': -1.27, 'datetime': '2018-10-12 14:07:09.777910', 'mgs': 0, 'depth': 2.148, 'time': 11.71, 'pitch': -1.14, 'roll': -1.06}
{'lipoC2': 7.78, 'temp': 23.5, 'lipoC3S3': 11.69, 'rot1': 84, 'rot0': 83, 'rot3': 34, 'rot2': 45, 'state': 'normal', 'yaw': -1.42, 'datetime': '2018-10-12 14:07:09.796870', 'mgs': 0, 'depth': 2.377, 'time': 11.81, 'pitch': -1.2, 'roll': -1.43}
{'lipoC2': 7.77, 'temp': 23.5, 'lipoC3S3': 11.69, 'rot1': 84, 'rot0': 83, 'rot3': 34, 'rot2': 45, 'state': 'normal', 'yaw': -1.56, 'datetime': '2018-10-12 14:07:09.804827', 'mgs': 0, 'depth': 2.301, 'time': 11.91, 'pitch': -1.2, 'roll': -1.79}
{'lipoC2': 7.77, 'temp': 23.5, 'lipoC3S3': 11.71, 'rot1': 84, 'rot0': 83, 'rot3': 35, 'rot2': 46, 'state': 'normal', 'yaw': -1.69, 'datetime': '2018-10-12 14:07:09.823810', 'mgs': 0, 'depth': 2.301, 'time': 12.01, 'pitch': -1.17, 'roll': -2.16}
{'lipoC2': 7.77, 'temp': 23.5, 'lipoC3S3': 11.69, 'rot1': 84, 'rot0': 83, 'rot3': 35, 'rot2': 47, 'state': 'normal', 'yaw': -1.78, 'datetime': '2018-10-12 14:07:09.831791', 'mgs': 0, 'depth': 1.996, 'time': 12.1, 'pitch': -1.08, 'roll': -2.52}
{'lipoC2': 7.77, 'temp': 23.56, 'lipoC3S3': 11.69, 'rot1': 84, 'rot0': 83, 'rot3': 36, 'rot2': 47, 'state': 'normal', 'yaw': -1.82, 'datetime': '2018-10-12 14:07:09.852932', 'mgs': 0, 'depth': 2.225, 'time': 12.2, 'pitch': -1.07, 'roll': -2.87}
{'lipoC2': 7.77, 'temp': 23.56, 'lipoC3S3': 11.67, 'rot1': 84, 'rot0': 83, 'rot3': 36, 'rot2': 48, 'state': 'normal', 'yaw': -1.88, 'datetime': '2018-10-12 14:07:09.862159', 'mgs': 0, 'depth': 1.996, 'time': 12.3, 'pitch': -1.08, 'roll': -3.25}
{'lipoC2': 7.77, 'temp': 23.5, 'lipoC3S3': 11.69, 'rot1': 84, 'rot0': 83, 'rot3': 37, 'rot2': 49, 'state': 'normal', 'yaw': -1.98, 'datetime': '2018-10-12 14:07:09.881162', 'mgs': 0, 'depth': 2.225, 'time': 12.4, 'pitch': -1.2, 'roll': -3.59}
{'lipoC2': 7.77, 'temp': 23.5, 'lipoC3S3': 11.64, 'rot1': 84, 'rot0': 83, 'rot3': 37, 'rot2': 49, 'state': 'normal', 'yaw': -2.14, 'datetime': '2018-10-12 14:07:09.889131', 'mgs': 0, 'depth': 2.148, 'time': 12.49, 'pitch': -1.37, 'roll': -3.92}
{'lipoC2': 7.77, 'temp': 23.5, 'lipoC3S3': 11.68, 'rot1': 84, 'rot0': 83, 'rot3': 38, 'rot2': 50, 'state': 'normal', 'yaw': -2.28, 'datetime': '2018-10-12 14:07:09.908146', 'mgs': 0, 'depth': 2.072, 'time': 12.59, 'pitch': -1.48, 'roll': -4.11}
{'lipoC2': 7.77, 'temp': 23.56, 'lipoC3S3': 11.68, 'rot1': 84, 'rot0': 83, 'rot3': 38, 'rot2': 51, 'state': 'normal', 'yaw': -2.39, 'datetime': '2018-10-12 14:07:09.916305', 'mgs': 0, 'depth': 2.072, 'time': 12.69, 'pitch': -1.49, 'roll': -4.13}
{'lipoC2': 7.78, 'temp': 23.56, 'lipoC3S3': 11.68, 'rot1': 84, 'rot0': 83, 'rot3': 39, 'rot2': 51, 'state': 'normal', 'yaw': -2.52, 'datetime': '2018-10-12 14:07:09.935305', 'mgs': 0, 'depth': 2.225, 'time': 12.79, 'pitch': -1.5, 'roll': -4.06}
{'lipoC2': 7.77, 'temp': 23.56, 'lipoC3S3': 11.73, 'rot1': 84, 'rot0': 83, 'rot3': 39, 'rot2': 52, 'state': 'normal', 'yaw': -2.66, 'datetime': '2018-10-12 14:07:09.944399', 'mgs': 0, 'depth': 2.072, 'time': 12.89, 'pitch': -1.45, 'roll': -3.86}
{'lipoC2': 7.77, 'temp': 23.56, 'lipoC3S3': 11.67, 'rot1': 84, 'rot0': 83, 'rot3': 39, 'rot2': 52, 'state': 'normal', 'yaw': -2.68, 'datetime': '2018-10-12 14:07:09.963941', 'mgs': 0, 'depth': 2.225, 'time': 12.98, 'pitch': -1.25, 'roll': -3.6}
{'lipoC2': 7.78, 'temp': 23.56, 'lipoC3S3': 11.67, 'rot1': 85, 'rot0': 84, 'rot3': 40, 'rot2': 53, 'state': 'normal', 'yaw': -2.14, 'datetime': '2018-10-12 14:07:09.971939', 'mgs': 0, 'depth': 2.225, 'time': 13.08, 'pitch': -0.9, 'roll': -3.25}
{'lipoC2': 7.77, 'temp': 23.5, 'lipoC3S3': 11.67, 'rot1': 86, 'rot0': 85, 'rot3': 40, 'rot2': 54, 'state': 'normal', 'yaw': -0.98, 'datetime': '2018-10-12 14:07:09.990986', 'mgs': 0, 'depth': 2.301, 'time': 13.18, 'pitch': -0.42, 'roll': -2.71}
{'lipoC2': 7.78, 'temp': 23.5, 'lipoC3S3': 11.68, 'rot1': 86, 'rot0': 86, 'rot3': 41, 'rot2': 54, 'state': 'normal', 'yaw': 0.67, 'datetime': '2018-10-12 14:07:09.998929', 'mgs': 0, 'depth': 2.911, 'time': 13.28, 'pitch': 0.11, 'roll': -2.18}
{'lipoC2': 7.77, 'temp': 23.5, 'lipoC3S3': 11.6, 'rot1': 87, 'rot0': 87, 'rot3': 41, 'rot2': 55, 'state': 'normal', 'yaw': 2.73, 'datetime': '2018-10-12 14:07:10.017924', 'mgs': 0, 'depth': 2.148, 'time': 13.38, 'pitch': 0.63, 'roll': -1.81}
{'lipoC2': 7.77, 'temp': 23.5, 'lipoC3S3': 11.71, 'rot1': 88, 'rot0': 88, 'rot3': 41, 'rot2': 55, 'state': 'normal', 'yaw': 5.18, 'datetime': '2018-10-12 14:07:10.025964', 'mgs': 0, 'depth': 2.072, 'time': 13.47, 'pitch': 1.07, 'roll': -1.59}
{'lipoC2': 7.77, 'temp': 23.5, 'lipoC3S3': 11.68, 'rot1': 89, 'rot0': 88, 'rot3': 42, 'rot2': 55, 'state': 'normal', 'yaw': 7.64, 'datetime': '2018-10-12 14:07:10.055172', 'mgs': 0, 'depth': 2.225, 'time': 13.57, 'pitch': 1.37, 'roll': -1.56}
{'lipoC2': 7.77, 'temp': 23.5, 'lipoC3S3': 11.69, 'rot1': 90, 'rot0': 89, 'rot3': 42, 'rot2': 55, 'state': 'normal', 'yaw': 10.66, 'datetime': '2018-10-12 14:07:10.153872', 'mgs': 0, 'depth': 2.148, 'time': 13.67, 'pitch': 1.69, 'roll': -1.68}
{'lipoC2': 7.78, 'temp': 23.5, 'lipoC3S3': 11.69, 'rot1': 90, 'rot0': 90, 'rot3': 42, 'rot2': 55, 'state': 'normal', 'yaw': 13.93, 'datetime': '2018-10-12 14:07:10.252602', 'mgs': 0, 'depth': 2.072, 'time': 13.77, 'pitch': 2.14, 'roll': -1.91}
{'lipoC2': 7.78, 'temp': 23.5, 'lipoC3S3': 11.71, 'rot1': 91, 'rot0': 91, 'rot3': 42, 'rot2': 55, 'state': 'normal', 'yaw': 17.45, 'datetime': '2018-10-12 14:07:10.349993', 'mgs': 0, 'depth': 2.148, 'time': 13.87, 'pitch': 2.63, 'roll': -2.16}
{'lipoC2': 7.77, 'temp': 23.5, 'lipoC3S3': 11.71, 'rot1': 92, 'rot0': 92, 'rot3': 42, 'rot2': 55, 'state': 'normal', 'yaw': 21.17, 'datetime': '2018-10-12 14:07:10.447413', 'mgs': 0, 'depth': 2.148, 'time': 13.97, 'pitch': 3.1, 'roll': -2.35}
{'lipoC2': 7.77, 'temp': 23.5, 'lipoC3S3': 11.71, 'rot1': 93, 'rot0': 93, 'rot3': 42, 'rot2': 55, 'state': 'normal', 'yaw': 24.64, 'datetime': '2018-10-12 14:07:10.545933', 'mgs': 0, 'depth': 2.301, 'time': 14.06, 'pitch': 3.46, 'roll': -2.44}
{'lipoC2': 7.77, 'temp': 23.5, 'lipoC3S3': 11.68, 'rot1': 94, 'rot0': 94, 'rot3': 42, 'rot2': 55, 'state': 'normal', 'yaw': 28.63, 'datetime': '2018-10-12 14:07:10.644193', 'mgs': 0, 'depth': 2.148, 'time': 14.16, 'pitch': 3.75, 'roll': -2.51}
{'lipoC2': 7.78, 'temp': 23.5, 'lipoC3S3': 11.67, 'rot1': 95, 'rot0': 95, 'rot3': 42, 'rot2': 56, 'state': 'normal', 'yaw': 32.73, 'datetime': '2018-10-12 14:07:10.741586', 'mgs': 0, 'depth': 2.072, 'time': 14.26, 'pitch': 3.9, 'roll': -2.42}
{'lipoC2': 7.78, 'temp': 23.5, 'lipoC3S3': 11.68, 'rot1': 95, 'rot0': 95, 'rot3': 42, 'rot2': 56, 'state': 'normal', 'yaw': 36.92, 'datetime': '2018-10-12 14:07:10.846914', 'mgs': 0, 'depth': 2.225, 'time': 14.36, 'pitch': 3.98, 'roll': -2.18}
{'lipoC2': 7.77, 'temp': 23.5, 'lipoC3S3': 11.61, 'rot1': 96, 'rot0': 96, 'rot3': 42, 'rot2': 56, 'state': 'normal', 'yaw': 40.76, 'datetime': '2018-10-12 14:07:10.944601', 'mgs': 0, 'depth': 2.225, 'time': 14.45, 'pitch': 4.12, 'roll': -1.99}
{'lipoC2': 7.78, 'temp': 23.56, 'lipoC3S3': 11.67, 'rot1': 97, 'rot0': 97, 'rot3': 42, 'rot2': 56, 'state': 'normal', 'yaw': 45.13, 'datetime': '2018-10-12 14:07:11.042017', 'mgs': 0, 'depth': 2.225, 'time': 14.55, 'pitch': 4.18, 'roll': -1.83}
{'lipoC2': 7.78, 'temp': 23.56, 'lipoC3S3': 11.67, 'rot1': 98, 'rot0': 98, 'rot3': 43, 'rot2': 57, 'state': 'normal', 'yaw': 49.61, 'datetime': '2018-10-12 14:07:11.139398', 'mgs': 0, 'depth': 2.835, 'time': 14.65, 'pitch': 4.06, 'roll': -1.65}
{'lipoC2': 7.77, 'temp': 23.56, 'lipoC3S3': 11.56, 'rot1': 99, 'rot0': 99, 'rot3': 43, 'rot2': 57, 'state': 'normal', 'yaw': 54.19, 'datetime': '2018-10-12 14:07:11.236860', 'mgs': 0, 'depth': 2.301, 'time': 14.75, 'pitch': 3.73, 'roll': -1.38}
{'lipoC2': 7.77, 'temp': 23.56, 'lipoC3S3': 11.67, 'rot1': 99, 'rot0': 100, 'rot3': 44, 'rot2': 58, 'state': 'normal', 'yaw': 58.3, 'datetime': '2018-10-12 14:07:11.334348', 'mgs': 0, 'depth': 2.53, 'time': 14.85, 'pitch': 3.27, 'roll': -1.11}
{'lipoC2': 7.77, 'temp': 23.56, 'lipoC3S3': 11.67, 'rot1': 100, 'rot0': 100, 'rot3': 44, 'rot2': 58, 'state': 'normal', 'yaw': 62.84, 'datetime': '2018-10-12 14:07:11.432061', 'mgs': 0, 'depth': 3.14, 'time': 14.94, 'pitch': 2.67, 'roll': -0.72}
{'lipoC2': 7.77, 'temp': 23.56, 'lipoC3S3': 11.61, 'rot1': 101, 'rot0': 101, 'rot3': 44, 'rot2': 59, 'state': 'normal', 'yaw': 67.34, 'datetime': '2018-10-12 14:07:11.529578', 'mgs': 0, 'depth': 2.454, 'time': 15.04, 'pitch': 2.08, 'roll': -0.25}
{'lipoC2': 7.78, 'temp': 23.56, 'lipoC3S3': 11.63, 'rot1': 102, 'rot0': 102, 'rot3': 45, 'rot2': 59, 'state': 'normal', 'yaw': 71.88, 'datetime': '2018-10-12 14:07:11.627217', 'mgs': 0, 'depth': 2.301, 'time': 15.14, 'pitch': 1.57, 'roll': 0.23}
{'lipoC2': 7.78, 'temp': 23.56, 'lipoC3S3': 11.67, 'rot1': 103, 'rot0': 103, 'rot3': 45, 'rot2': 60, 'state': 'normal', 'yaw': 76.03, 'datetime': '2018-10-12 14:07:11.726352', 'mgs': 0, 'depth': 2.454, 'time': 15.24, 'pitch': 1.24, 'roll': 0.55}
{'lipoC2': 7.77, 'temp': 23.5, 'lipoC3S3': 11.68, 'rot1': 104, 'rot0': 103, 'rot3': 46, 'rot2': 60, 'state': 'normal', 'yaw': 80.7, 'datetime': '2018-10-12 14:07:11.825314', 'mgs': 0, 'depth': 2.606, 'time': 15.34, 'pitch': 0.98, 'roll': 0.64}
{'lipoC2': 7.77, 'temp': 23.5, 'lipoC3S3': 11.65, 'rot1': 104, 'rot0': 104, 'rot3': 46, 'rot2': 61, 'state': 'normal', 'yaw': 85.44, 'datetime': '2018-10-12 14:07:11.924054', 'mgs': 0, 'depth': 2.301, 'time': 15.44, 'pitch': 0.81, 'roll': 0.4}
{'lipoC2': 7.77, 'temp': 23.56, 'lipoC3S3': 11.55, 'rot1': 105, 'rot0': 105, 'rot3': 47, 'rot2': 62, 'state': 'normal', 'yaw': 90.2, 'datetime': '2018-10-12 14:07:12.022050', 'mgs': 0, 'depth': 2.301, 'time': 15.53, 'pitch': 0.79, 'roll': -0.05}
{'lipoC2': 7.77, 'temp': 23.56, 'lipoC3S3': 11.68, 'rot1': 106, 'rot0': 106, 'rot3': 47, 'rot2': 62, 'state': 'normal', 'yaw': 94.98, 'datetime': '2018-10-12 14:07:12.119498', 'mgs': 0, 'depth': 2.301, 'time': 15.63, 'pitch': 0.8, 'roll': -0.53}
{'lipoC2': 7.78, 'temp': 23.56, 'lipoC3S3': 11.63, 'rot1': 107, 'rot0': 107, 'rot3': 48, 'rot2': 63, 'state': 'normal', 'yaw': 99.3, 'datetime': '2018-10-12 14:07:12.217551', 'mgs': 0, 'depth': 2.377, 'time': 15.73, 'pitch': 0.79, 'roll': -0.91}
{'lipoC2': 7.78, 'temp': 23.5, 'lipoC3S3': 11.65, 'rot1': 108, 'rot0': 108, 'rot3': 48, 'rot2': 63, 'state': 'normal', 'yaw': 104.15, 'datetime': '2018-10-12 14:07:12.316463', 'mgs': 0, 'depth': 2.911, 'time': 15.83, 'pitch': 0.78, 'roll': -1.19}
{'lipoC2': 7.77, 'temp': 23.5, 'lipoC3S3': 11.65, 'rot1': 108, 'rot0': 108, 'rot3': 48, 'rot2': 64, 'state': 'normal', 'yaw': 109.08, 'datetime': '2018-10-12 14:07:12.415462', 'mgs': 0, 'depth': 2.53, 'time': 15.93, 'pitch': 0.84, 'roll': -1.37}
{'lipoC2': 7.77, 'temp': 23.5, 'lipoC3S3': 11.72, 'rot1': 109, 'rot0': 109, 'rot3': 49, 'rot2': 64, 'state': 'normal', 'yaw': 114.01, 'datetime': '2018-10-12 14:07:12.513923', 'mgs': 0, 'depth': 2.301, 'time': 16.03, 'pitch': 0.96, 'roll': -1.47}
{'lipoC2': 7.77, 'temp': 23.5, 'lipoC3S3': 11.72, 'rot1': 109, 'rot0': 109, 'rot3': 49, 'rot2': 64, 'state': 'normal', 'yaw': 118.49, 'datetime': '2018-10-12 14:07:12.611282', 'mgs': 0, 'depth': 2.301, 'time': 16.12, 'pitch': 1.13, 'roll': -1.73}
{'lipoC2': 7.77, 'temp': 23.5, 'lipoC3S3': 11.61, 'rot1': 109, 'rot0': 109, 'rot3': 49, 'rot2': 64, 'state': 'normal', 'yaw': 122.59, 'datetime': '2018-10-12 14:07:12.708969', 'mgs': 0, 'depth': 2.682, 'time': 16.22, 'pitch': 1.3, 'roll': -2.21}
{'lipoC2': 7.77, 'temp': 23.5, 'lipoC3S3': 11.43, 'rot1': 109, 'rot0': 109, 'rot3': 50, 'rot2': 65, 'state': 'normal', 'yaw': 126.06, 'datetime': '2018-10-12 14:07:12.807922', 'mgs': 0, 'depth': 2.301, 'time': 16.32, 'pitch': 1.56, 'roll': -2.97}
{'lipoC2': 7.78, 'temp': 23.5, 'lipoC3S3': 11.54, 'rot1': 111, 'rot0': 111, 'rot3': 50, 'rot2': 65, 'state': 'normal', 'yaw': 129.74, 'datetime': '2018-10-12 14:07:12.906895', 'mgs': 0, 'depth': 3.064, 'time': 16.42, 'pitch': 2.01, 'roll': -3.44}
{'lipoC2': 7.78, 'temp': 23.5, 'lipoC3S3': 11.58, 'rot1': 112, 'rot0': 112, 'rot3': 51, 'rot2': 66, 'state': 'normal', 'yaw': 133.35, 'datetime': '2018-10-12 14:07:13.004487', 'mgs': 0, 'depth': 2.377, 'time': 16.52, 'pitch': 2.53, 'roll': -2.98}
{'lipoC2': 7.78, 'temp': 23.5, 'lipoC3S3': 11.46, 'rot1': 114, 'rot0': 113, 'rot3': 51, 'rot2': 66, 'state': 'normal', 'yaw': 136.88, 'datetime': '2018-10-12 14:07:13.102152', 'mgs': 0, 'depth': 2.454, 'time': 16.61, 'pitch': 3.01, 'roll': -1.9}
{'lipoC2': 7.77, 'temp': 23.5, 'lipoC3S3': 11.55, 'rot1': 115, 'rot0': 114, 'rot3': 52, 'rot2': 67, 'state': 'normal', 'yaw': 140.35, 'datetime': '2018-10-12 14:07:13.199727', 'mgs': 0, 'depth': 2.606, 'time': 16.71, 'pitch': 3.41, 'roll': -0.52}
{'lipoC2': 7.77, 'temp': 23.5, 'lipoC3S3': 11.6, 'rot1': 116, 'rot0': 115, 'rot3': 52, 'rot2': 68, 'state': 'normal', 'yaw': 143.41, 'datetime': '2018-10-12 14:07:13.297552', 'mgs': 0, 'depth': 2.911, 'time': 16.81, 'pitch': 3.71, 'roll': 0.81}
{'lipoC2': 7.77, 'temp': 23.5, 'lipoC3S3': 11.59, 'rot1': 118, 'rot0': 117, 'rot3': 52, 'rot2': 68, 'state': 'normal', 'yaw': 146.77, 'datetime': '2018-10-12 14:07:13.395119', 'mgs': 0, 'depth': 3.369, 'time': 16.91, 'pitch': 3.98, 'roll': 2.26}
{'lipoC2': 7.77, 'temp': 23.5, 'lipoC3S3': 11.52, 'rot1': 119, 'rot0': 118, 'rot3': 53, 'rot2': 69, 'state': 'normal', 'yaw': 150.1, 'datetime': '2018-10-12 14:07:13.492693', 'mgs': 0, 'depth': 3.522, 'time': 17.0, 'pitch': 4.14, 'roll': 3.62}
{'lipoC2': 7.78, 'temp': 23.5, 'lipoC3S3': 11.52, 'rot1': 121, 'rot0': 119, 'rot3': 53, 'rot2': 70, 'state': 'normal', 'yaw': 153.36, 'datetime': '2018-10-12 14:07:13.590223', 'mgs': 0, 'depth': 3.751, 'time': 17.1, 'pitch': 4.27, 'roll': 4.84}
{'lipoC2': 7.78, 'temp': 23.5, 'lipoC3S3': 11.43, 'rot1': 122, 'rot0': 120, 'rot3': 54, 'rot2': 70, 'state': 'normal', 'yaw': 156.21, 'datetime': '2018-10-12 14:07:13.687949', 'mgs': 0, 'depth': 3.522, 'time': 17.2, 'pitch': 4.28, 'roll': 5.83}
{'lipoC2': 7.78, 'temp': 23.25, 'lipoC3S3': 11.39, 'rot1': 123, 'rot0': 121, 'rot3': 55, 'rot2': 71, 'state': 'normal', 'yaw': 159.27, 'datetime': '2018-10-12 14:07:13.780517', 'mgs': 0, 'depth': 2.988, 'time': 17.3, 'pitch': 4.22, 'roll': 6.81}
{'lipoC2': 7.77, 'temp': 23.25, 'lipoC3S3': 11.47, 'rot1': 125, 'rot0': 123, 'rot3': 55, 'rot2': 71, 'state': 'normal', 'yaw': 162.24, 'datetime': '2018-10-12 14:07:13.878056', 'mgs': 0, 'depth': 3.14, 'time': 17.4, 'pitch': 4.14, 'roll': 7.61}
{'lipoC2': 7.78, 'temp': 23.69, 'lipoC3S3': 11.56, 'rot1': 126, 'rot0': 124, 'rot3': 55, 'rot2': 72, 'state': 'normal', 'yaw': 165.1, 'datetime': '2018-10-12 14:07:13.976526', 'mgs': 0, 'depth': 3.598, 'time': 17.5, 'pitch': 4.07, 'roll': 8.17}
{'lipoC2': 7.77, 'temp': 23.69, 'lipoC3S3': 11.59, 'rot1': 127, 'rot0': 125, 'rot3': 56, 'rot2': 73, 'state': 'normal', 'yaw': 167.58, 'datetime': '2018-10-12 14:07:14.075207', 'mgs': 0, 'depth': 3.522, 'time': 17.59, 'pitch': 4.03, 'roll': 8.48}
{'lipoC2': 7.77, 'temp': 24.0, 'lipoC3S3': 11.47, 'rot1': 129, 'rot0': 126, 'rot3': 56, 'rot2': 73, 'state': 'normal', 'yaw': 170.24, 'datetime': '2018-10-12 14:07:14.174140', 'mgs': 0, 'depth': 3.217, 'time': 17.69, 'pitch': 4.07, 'roll': 8.62}
{'lipoC2': 7.78, 'temp': 24.0, 'lipoC3S3': 11.54, 'rot1': 130, 'rot0': 128, 'rot3': 57, 'rot2': 74, 'state': 'normal', 'yaw': 172.83, 'datetime': '2018-10-12 14:07:14.273049', 'mgs': 0, 'depth': 3.369, 'time': 17.79, 'pitch': 4.18, 'roll': 8.67}
{'lipoC2': 7.77, 'temp': 24.0, 'lipoC3S3': 11.52, 'rot1': 132, 'rot0': 129, 'rot3': 57, 'rot2': 74, 'state': 'normal', 'yaw': 175.34, 'datetime': '2018-10-12 14:07:14.370911', 'mgs': 0, 'depth': 4.132, 'time': 17.89, 'pitch': 4.39, 'roll': 8.62}
{'lipoC2': 7.78, 'temp': 23.5, 'lipoC3S3': 11.58, 'rot1': 134, 'rot0': 130, 'rot3': 58, 'rot2': 75, 'state': 'normal', 'yaw': 177.8, 'datetime': '2018-10-12 14:07:14.468742', 'mgs': 0, 'depth': 3.674, 'time': 17.99, 'pitch': 4.61, 'roll': 8.48}
{'lipoC2': 7.77, 'temp': 23.5, 'lipoC3S3': 11.59, 'rot1': 135, 'rot0': 131, 'rot3': 58, 'rot2': 75, 'state': 'normal', 'yaw': 179.95, 'datetime': '2018-10-12 14:07:14.566600', 'mgs': 0, 'depth': 4.514, 'time': 18.08, 'pitch': 4.77, 'roll': 8.31}
{'lipoC2': 7.78, 'temp': 23.56, 'lipoC3S3': 11.6, 'rot1': 137, 'rot0': 132, 'rot3': 59, 'rot2': 76, 'state': 'normal', 'yaw': -177.71, 'datetime': '2018-10-12 14:07:14.665555', 'mgs': 0, 'depth': 3.369, 'time': 18.18, 'pitch': 4.89, 'roll': 8.09}
{'lipoC2': 7.78, 'temp': 23.56, 'lipoC3S3': 11.39, 'rot1': 138, 'rot0': 133, 'rot3': 59, 'rot2': 77, 'state': 'normal', 'yaw': -175.37, 'datetime': '2018-10-12 14:07:14.764947', 'mgs': 0, 'depth': 3.293, 'time': 18.28, 'pitch': 4.93, 'roll': 7.77}
{'lipoC2': 7.77, 'temp': 23.56, 'lipoC3S3': 11.55, 'rot1': 139, 'rot0': 135, 'rot3': 60, 'rot2': 77, 'state': 'normal', 'yaw': -173.02, 'datetime': '2018-10-12 14:07:14.863733', 'mgs': 0, 'depth': 4.819, 'time': 18.38, 'pitch': 4.93, 'roll': 7.42}
{'lipoC2': 7.78, 'temp': 23.56, 'lipoC3S3': 11.55, 'rot1': 141, 'rot0': 136, 'rot3': 60, 'rot2': 78, 'state': 'normal', 'yaw': -171.23, 'datetime': '2018-10-12 14:07:14.961537', 'mgs': 0, 'depth': 4.59, 'time': 18.48, 'pitch': 4.88, 'roll': 7.13}
