{'lipoC2': 7.93, 'temp': 25.81, 'lipoC3S3': 12.0, 'rot1': 0, 'rot0': 0, 'rot3': 0, 'rot2': 0, 'state': 'normal', 'yaw': 0.0, 'datetime': '2018-10-12 13:28:54.922390', 'mgs': 0, 'depth': 1.843, 'time': 1.26, 'pitch': -1.09, 'roll': -7.02}
{'lipoC2': 7.93, 'temp': 25.81, 'lipoC3S3': 11.98, 'rot1': 0, 'rot0': 0, 'rot3': 0, 'rot2': 0, 'state': 'normal', 'yaw': 0.27, 'datetime': '2018-10-12 13:28:54.939351', 'mgs': 0, 'depth': 1.92, 'time': 1.36, 'pitch': -1.31, 'roll': -7.02}
{'lipoC2': 7.93, 'temp': 25.81, 'lipoC3S3': 12.0, 'rot1': 0, 'rot0': 0, 'rot3': 0, 'rot2': 0, 'state': 'normal', 'yaw': 0.48, 'datetime': '2018-10-12 13:28:54.956271', 'mgs': 0, 'depth': 1.843, 'time': 1.46, 'pitch': -1.46, 'roll': -7.05}
{'lipoC2': 7.93, 'temp': 25.81, 'lipoC3S3': 11.98, 'rot1': 0, 'rot0': 0, 'rot3': 0, 'rot2': 0, 'state': 'normal', 'yaw': 0.66, 'datetime': '2018-10-12 13:28:54.973320', 'mgs': 0, 'depth': 1.843, 'time': 1.55, 'pitch': -1.55, 'roll': -7.14}
{'lipoC2': 7.93, 'temp': 25.81, 'lipoC3S3': 12.0, 'rot1': 0, 'rot0': 0, 'rot3': 0, 'rot2': 0, 'state': 'normal', 'yaw': 0.76, 'datetime': '2018-10-12 13:28:54.990429', 'mgs': 0, 'depth': 1.843, 'time': 1.65, 'pitch': -1.62, 'roll': -7.15}
{'lipoC2': 7.93, 'temp': 25.81, 'lipoC3S3': 12.0, 'rot1': 0, 'rot0': 0, 'rot3': 0, 'rot2': 0, 'state': 'normal', 'yaw': 0.78, 'datetime': '2018-10-12 13:28:54.998644', 'mgs': 0, 'depth': 1.843, 'time': 1.75, 'pitch': -1.71, 'roll': -7.15}
{'lipoC2': 7.93, 'temp': 25.81, 'lipoC3S3': 11.98, 'rot1': 0, 'rot0': 0, 'rot3': 0, 'rot2': 0, 'state': 'normal', 'yaw': 0.79, 'datetime': '2018-10-12 13:28:55.005965', 'mgs': 0, 'depth': 1.767, 'time': 1.85, 'pitch': -1.73, 'roll': -7.16}
{'lipoC2': 7.93, 'temp': 25.81, 'lipoC3S3': 12.0, 'rot1': 0, 'rot0': 0, 'rot3': 0, 'rot2': 0, 'state': 'normal', 'yaw': 0.78, 'datetime': '2018-10-12 13:28:55.013304', 'mgs': 0, 'depth': 1.843, 'time': 1.94, 'pitch': -1.67, 'roll': -7.16}
{'lipoC2': 7.93, 'temp': 25.81, 'lipoC3S3': 12.0, 'rot1': 0, 'rot0': 0, 'rot3': 0, 'rot2': 0, 'state': 'normal', 'yaw': 0.76, 'datetime': '2018-10-12 13:28:55.020665', 'mgs': 0, 'depth': 1.843, 'time': 2.04, 'pitch': -1.51, 'roll': -7.16}
{'lipoC2': 7.93, 'temp': 25.81, 'lipoC3S3': 12.0, 'rot1': 0, 'rot0': 0, 'rot3': 0, 'rot2': 0, 'state': 'normal', 'yaw': 0.72, 'datetime': '2018-10-12 13:28:55.077005', 'mgs': 0, 'depth': 1.92, 'time': 2.14, 'pitch': -1.25, 'roll': -7.19}
{'lipoC2': 7.93, 'temp': 25.81, 'lipoC3S3': 12.0, 'rot1': 0, 'rot0': 0, 'rot3': 0, 'rot2': 0, 'state': 'normal', 'yaw': 0.67, 'datetime': '2018-10-12 13:28:55.174002', 'mgs': 0, 'depth': 1.767, 'time': 2.24, 'pitch': -0.92, 'roll': -7.23}
{'lipoC2': 7.93, 'temp': 25.81, 'lipoC3S3': 12.0, 'rot1': 0, 'rot0': 0, 'rot3': 0, 'rot2': 0, 'state': 'normal', 'yaw': 0.56, 'datetime': '2018-10-12 13:28:55.271166', 'mgs': 0, 'depth': 1.843, 'time': 2.33, 'pitch': -0.6, 'roll': -7.25}
{'lipoC2': 7.93, 'temp': 25.75, 'lipoC3S3': 12.0, 'rot1': 0, 'rot0': 0, 'rot3': 0, 'rot2': 0, 'state': 'normal', 'yaw': 0.42, 'datetime': '2018-10-12 13:28:55.368230', 'mgs': 0, 'depth': 1.843, 'time': 2.43, 'pitch': -0.25, 'roll': -7.3}
{'lipoC2': 7.93, 'temp': 25.75, 'lipoC3S3': 12.0, 'rot1': 0, 'rot0': 0, 'rot3': 0, 'rot2': 0, 'state': 'normal', 'yaw': 0.29, 'datetime': '2018-10-12 13:28:55.465226', 'mgs': 0, 'depth': 1.843, 'time': 2.53, 'pitch': 0.1, 'roll': -7.3}
{'lipoC2': 7.93, 'temp': 25.75, 'lipoC3S3': 11.98, 'rot1': 0, 'rot0': 0, 'rot3': 0, 'rot2': 0, 'state': 'normal', 'yaw': 0.15, 'datetime': '2018-10-12 13:28:55.562471', 'mgs': 0, 'depth': 1.767, 'time': 2.63, 'pitch': 0.38, 'roll': -7.3}
{'lipoC2': 7.93, 'temp': 25.75, 'lipoC3S3': 12.0, 'rot1': 0, 'rot0': 0, 'rot3': 0, 'rot2': 0, 'state': 'normal', 'yaw': 0.01, 'datetime': '2018-10-12 13:28:55.659506', 'mgs': 0, 'depth': 1.843, 'time': 2.72, 'pitch': 0.62, 'roll': -7.34}
{'lipoC2': 7.93, 'temp': 25.75, 'lipoC3S3': 12.0, 'rot1': 0, 'rot0': 0, 'rot3': 0, 'rot2': 0, 'state': 'normal', 'yaw': -0.11, 'datetime': '2018-10-12 13:28:55.761975', 'mgs': 0, 'depth': 1.843, 'time': 2.82, 'pitch': 0.8, 'roll': -7.52}
{'lipoC2': 7.93, 'temp': 25.75, 'lipoC3S3': 12.0, 'rot1': 0, 'rot0': 0, 'rot3': 0, 'rot2': 0, 'state': 'normal', 'yaw': -0.23, 'datetime': '2018-10-12 13:28:55.858915', 'mgs': 0, 'depth': 1.843, 'time': 2.92, 'pitch': 0.89, 'roll': -7.77}
{'lipoC2': 7.93, 'temp': 25.75, 'lipoC3S3': 11.98, 'rot1': 0, 'rot0': 0, 'rot3': 0, 'rot2': 0, 'state': 'normal', 'yaw': -0.28, 'datetime': '2018-10-12 13:28:55.957414', 'mgs': 0, 'depth': 1.767, 'time': 3.01, 'pitch': 0.97, 'roll': -7.98}
{'lipoC2': 7.94, 'temp': 25.75, 'lipoC3S3': 12.0, 'rot1': 0, 'rot0': 0, 'rot3': 0, 'rot2': 0, 'state': 'normal', 'yaw': -0.26, 'datetime': '2018-10-12 13:28:56.055615', 'mgs': 0, 'depth': 1.767, 'time': 3.11, 'pitch': 1.09, 'roll': -8.21}
{'lipoC2': 7.93, 'temp': 25.81, 'lipoC3S3': 11.98, 'rot1': 0, 'rot0': 0, 'rot3': 0, 'rot2': 0, 'state': 'normal', 'yaw': -0.17, 'datetime': '2018-10-12 13:28:56.152785', 'mgs': 0, 'depth': 1.767, 'time': 3.21, 'pitch': 1.2, 'roll': -8.32}
{'lipoC2': 7.93, 'temp': 25.81, 'lipoC3S3': 12.0, 'rot1': 0, 'rot0': 0, 'rot3': 0, 'rot2': 0, 'state': 'normal', 'yaw': -0.08, 'datetime': '2018-10-12 13:28:56.249892', 'mgs': 0, 'depth': 1.767, 'time': 3.31, 'pitch': 1.23, 'roll': -8.28}
{'lipoC2': 7.93, 'temp': 25.75, 'lipoC3S3': 11.98, 'rot1': 0, 'rot0': 0, 'rot3': 0, 'rot2': 0, 'state': 'normal', 'yaw': -0.05, 'datetime': '2018-10-12 13:28:56.348132', 'mgs': 0, 'depth': 1.767, 'time': 3.4, 'pitch': 1.13, 'roll': -8.17}
{'lipoC2': 7.93, 'temp': 25.75, 'lipoC3S3': 12.0, 'rot1': 0, 'rot0': 0, 'rot3': 0, 'rot2': 0, 'state': 'normal', 'yaw': -0.02, 'datetime': '2018-10-12 13:28:56.446561', 'mgs': 0, 'depth': 1.767, 'time': 3.51, 'pitch': 0.88, 'roll': -8.06}
{'lipoC2': 7.93, 'temp': 25.75, 'lipoC3S3': 11.98, 'rot1': 0, 'rot0': 0, 'rot3': 0, 'rot2': 0, 'state': 'normal', 'yaw': 0.04, 'datetime': '2018-10-12 13:28:56.543594', 'mgs': 0, 'depth': 1.767, 'time': 3.6, 'pitch': 0.56, 'roll': -7.93}
{'lipoC2': 7.93, 'temp': 25.75, 'lipoC3S3': 11.98, 'rot1': 0, 'rot0': 0, 'rot3': 0, 'rot2': 0, 'state': 'normal', 'yaw': 0.18, 'datetime': '2018-10-12 13:28:56.640603', 'mgs': 0, 'depth': 1.767, 'time': 3.7, 'pitch': 0.21, 'roll': -7.84}
{'lipoC2': 7.93, 'temp': 25.75, 'lipoC3S3': 12.0, 'rot1': 0, 'rot0': 0, 'rot3': 0, 'rot2': 0, 'state': 'normal', 'yaw': 0.34, 'datetime': '2018-10-12 13:28:56.738952', 'mgs': 0, 'depth': 1.691, 'time': 3.8, 'pitch': -0.1, 'roll': -7.84}
{'lipoC2': 7.93, 'temp': 25.81, 'lipoC3S3': 12.0, 'rot1': 0, 'rot0': 0, 'rot3': 0, 'rot2': 0, 'state': 'normal', 'yaw': 0.51, 'datetime': '2018-10-12 13:28:56.837170', 'mgs': 0, 'depth': 1.767, 'time': 3.89, 'pitch': -0.43, 'roll': -7.81}
{'lipoC2': 7.93, 'temp': 25.81, 'lipoC3S3': 12.0, 'rot1': 0, 'rot0': 0, 'rot3': 0, 'rot2': 0, 'state': 'normal', 'yaw': 0.6, 'datetime': '2018-10-12 13:28:56.934229', 'mgs': 0, 'depth': 1.691, 'time': 3.99, 'pitch': -0.71, 'roll': -7.68}
{'lipoC2': 7.93, 'temp': 25.81, 'lipoC3S3': 12.0, 'rot1': 0, 'rot0': 0, 'rot3': 0, 'rot2': 0, 'state': 'normal', 'yaw': 0.63, 'datetime': '2018-10-12 13:28:57.031169', 'mgs': 0, 'depth': 1.691, 'time': 4.09, 'pitch': -0.94, 'roll': -7.54}
{'lipoC2': 7.93, 'temp': 25.75, 'lipoC3S3': 11.98, 'rot1': 0, 'rot0': 0, 'rot3': 0, 'rot2': 0, 'state': 'normal', 'yaw': 0.65, 'datetime': '2018-10-12 13:28:57.129454', 'mgs': 0, 'depth': 1.691, 'time': 4.19, 'pitch': -1.06, 'roll': -7.47}
{'lipoC2': 7.93, 'temp': 25.75, 'lipoC3S3': 12.0, 'rot1': 0, 'rot0': 0, 'rot3': 0, 'rot2': 0, 'state': 'normal', 'yaw': 0.65, 'datetime': '2018-10-12 13:28:57.227765', 'mgs': 0, 'depth': 1.614, 'time': 4.29, 'pitch': -1.1, 'roll': -7.4}
{'lipoC2': 7.93, 'temp': 25.75, 'lipoC3S3': 11.98, 'rot1': 0, 'rot0': 0, 'rot3': 0, 'rot2': 0, 'state': 'normal', 'yaw': 0.66, 'datetime': '2018-10-12 13:28:57.324818', 'mgs': 0, 'depth': 1.691, 'time': 4.38, 'pitch': -1.1, 'roll': -7.18}
{'lipoC2': 7.93, 'temp': 25.75, 'lipoC3S3': 11.98, 'rot1': 0, 'rot0': 0, 'rot3': 0, 'rot2': 0, 'state': 'normal', 'yaw': 0.65, 'datetime': '2018-10-12 13:28:57.421778', 'mgs': 0, 'depth': 1.691, 'time': 4.48, 'pitch': -1.08, 'roll': -6.9}
{'lipoC2': 7.93, 'temp': 25.75, 'lipoC3S3': 12.0, 'rot1': 0, 'rot0': 0, 'rot3': 0, 'rot2': 0, 'state': 'normal', 'yaw': 0.58, 'datetime': '2018-10-12 13:28:57.518791', 'mgs': 0, 'depth': 1.614, 'time': 4.58, 'pitch': -1.0, 'roll': -6.72}
{'lipoC2': 7.93, 'temp': 25.75, 'lipoC3S3': 12.0, 'rot1': 0, 'rot0': 0, 'rot3': 0, 'rot2': 0, 'state': 'normal', 'yaw': 0.45, 'datetime': '2018-10-12 13:28:57.615871', 'mgs': 0, 'depth': 1.614, 'time': 4.68, 'pitch': -0.84, 'roll': -6.7}
{'lipoC2': 7.93, 'temp': 25.75, 'lipoC3S3': 12.0, 'rot1': 0, 'rot0': 0, 'rot3': 0, 'rot2': 0, 'state': 'normal', 'yaw': 0.37, 'datetime': '2018-10-12 13:28:57.712797', 'mgs': 0, 'depth': 1.614, 'time': 4.77, 'pitch': -0.53, 'roll': -6.75}
{'lipoC2': 7.93, 'temp': 25.75, 'lipoC3S3': 11.98, 'rot1': 0, 'rot0': 0, 'rot3': 0, 'rot2': 0, 'state': 'normal', 'yaw': 0.33, 'datetime': '2018-10-12 13:28:57.811028', 'mgs': 0, 'depth': 1.614, 'time': 4.87, 'pitch': -0.18, 'roll': -6.71}
{'lipoC2': 7.93, 'temp': 25.75, 'lipoC3S3': 11.98, 'rot1': 0, 'rot0': 0, 'rot3': 0, 'rot2': 0, 'state': 'normal', 'yaw': 0.29, 'datetime': '2018-10-12 13:28:57.909367', 'mgs': 0, 'depth': 1.538, 'time': 4.97, 'pitch': 0.18, 'roll': -6.58}
{'lipoC2': 7.94, 'temp': 25.75, 'lipoC3S3': 12.0, 'rot1': 0, 'rot0': 0, 'rot3': 0, 'rot2': 0, 'state': 'normal', 'yaw': 0.19, 'datetime': '2018-10-12 13:28:58.006991', 'mgs': 0, 'depth': 1.614, 'time': 5.07, 'pitch': 0.4, 'roll': -6.61}
{'lipoC2': 7.93, 'temp': 25.75, 'lipoC3S3': 11.98, 'rot1': 0, 'rot0': 0, 'rot3': 0, 'rot2': 0, 'state': 'normal', 'yaw': 0.13, 'datetime': '2018-10-12 13:28:58.104002', 'mgs': 0, 'depth': 1.538, 'time': 5.16, 'pitch': 0.53, 'roll': -6.77}
{'lipoC2': 7.93, 'temp': 25.75, 'lipoC3S3': 12.0, 'rot1': 0, 'rot0': 0, 'rot3': 0, 'rot2': 0, 'state': 'normal', 'yaw': 0.16, 'datetime': '2018-10-12 13:28:58.201661', 'mgs': 0, 'depth': 1.614, 'time': 5.26, 'pitch': 0.63, 'roll': -6.85}
{'lipoC2': 7.93, 'temp': 25.75, 'lipoC3S3': 12.0, 'rot1': 0, 'rot0': 0, 'rot3': 0, 'rot2': 0, 'state': 'normal', 'yaw': 0.32, 'datetime': '2018-10-12 13:28:58.299947', 'mgs': 0, 'depth': 1.538, 'time': 5.36, 'pitch': 0.71, 'roll': -6.77}
{'lipoC2': 7.93, 'temp': 25.75, 'lipoC3S3': 12.0, 'rot1': 0, 'rot0': 0, 'rot3': 0, 'rot2': 0, 'state': 'normal', 'yaw': 0.49, 'datetime': '2018-10-12 13:28:58.397856', 'mgs': 0, 'depth': 1.614, 'time': 5.46, 'pitch': 0.72, 'roll': -6.6}
{'lipoC2': 7.93, 'temp': 25.75, 'lipoC3S3': 12.0, 'rot1': 0, 'rot0': 0, 'rot3': 0, 'rot2': 0, 'state': 'normal', 'yaw': 0.6, 'datetime': '2018-10-12 13:28:58.494681', 'mgs': 0, 'depth': 1.538, 'time': 5.55, 'pitch': 0.63, 'roll': -6.58}
{'lipoC2': 7.93, 'temp': 25.75, 'lipoC3S3': 11.98, 'rot1': 0, 'rot0': 0, 'rot3': 0, 'rot2': 0, 'state': 'normal', 'yaw': 0.66, 'datetime': '2018-10-12 13:28:58.592348', 'mgs': 0, 'depth': 1.614, 'time': 5.65, 'pitch': 0.46, 'roll': -6.65}
{'lipoC2': 7.93, 'temp': 25.75, 'lipoC3S3': 12.0, 'rot1': 0, 'rot0': 0, 'rot3': 0, 'rot2': 0, 'state': 'normal', 'yaw': 0.79, 'datetime': '2018-10-12 13:28:58.690621', 'mgs': 0, 'depth': 1.538, 'time': 5.75, 'pitch': 0.25, 'roll': -6.69}
{'lipoC2': 7.93, 'temp': 25.75, 'lipoC3S3': 11.98, 'rot1': 0, 'rot0': 0, 'rot3': 0, 'rot2': 0, 'state': 'normal', 'yaw': 0.98, 'datetime': '2018-10-12 13:28:58.787661', 'mgs': 0, 'depth': 1.614, 'time': 5.85, 'pitch': 0.01, 'roll': -6.69}
{'lipoC2': 7.93, 'temp': 25.75, 'lipoC3S3': 11.98, 'rot1': 0, 'rot0': 0, 'rot3': 0, 'rot2': 0, 'state': 'normal', 'yaw': 1.2, 'datetime': '2018-10-12 13:28:58.884684', 'mgs': 1, 'depth': 1.614, 'time': 5.95, 'pitch': -0.24, 'roll': -6.75}
{'lipoC2': 7.93, 'temp': 25.75, 'lipoC3S3': 12.0, 'rot1': 0, 'rot0': 0, 'rot3': 0, 'rot2': 0, 'state': 'normal', 'yaw': 0.0, 'datetime': '2018-10-12 13:29:00.404532', 'mgs': 0, 'depth': 1.767, 'time': 1.26, 'pitch': -0.66, 'roll': -7.95}
{'lipoC2': 7.93, 'temp': 25.75, 'lipoC3S3': 12.0, 'rot1': 0, 'rot0': 0, 'rot3': 0, 'rot2': 0, 'state': 'normal', 'yaw': -0.22, 'datetime': '2018-10-12 13:29:00.435966', 'mgs': 0, 'depth': 1.767, 'time': 1.36, 'pitch': -0.66, 'roll': -7.97}
{'lipoC2': 7.93, 'temp': 25.75, 'lipoC3S3': 12.0, 'rot1': 0, 'rot0': 0, 'rot3': 0, 'rot2': 0, 'state': 'normal', 'yaw': -0.24, 'datetime': '2018-10-12 13:29:00.452868', 'mgs': 0, 'depth': 1.843, 'time': 1.46, 'pitch': -0.57, 'roll': -7.94}
{'lipoC2': 7.93, 'temp': 25.75, 'lipoC3S3': 11.94, 'rot1': 0, 'rot0': 0, 'rot3': 0, 'rot2': 0, 'state': 'normal', 'yaw': -0.08, 'datetime': '2018-10-12 13:29:00.533291', 'mgs': 0, 'depth': 2.148, 'time': 1.55, 'pitch': -0.46, 'roll': -7.95}
{'lipoC2': 7.94, 'temp': 25.75, 'lipoC3S3': 11.89, 'rot1': 0, 'rot0': 0, 'rot3': 1, 'rot2': 0, 'state': 'normal', 'yaw': 0.06, 'datetime': '2018-10-12 13:29:00.634481', 'mgs': 0, 'depth': 1.996, 'time': 1.65, 'pitch': -0.49, 'roll': -7.82}
{'lipoC2': 7.93, 'temp': 25.75, 'lipoC3S3': 11.89, 'rot1': 1, 'rot0': 1, 'rot3': 1, 'rot2': 1, 'state': 'normal', 'yaw': 0.14, 'datetime': '2018-10-12 13:29:00.732365', 'mgs': 0, 'depth': 2.911, 'time': 1.75, 'pitch': -0.71, 'roll': -6.82}
{'lipoC2': 7.93, 'temp': 25.75, 'lipoC3S3': 11.84, 'rot1': 2, 'rot0': 2, 'rot3': 2, 'rot2': 2, 'state': 'normal', 'yaw': 0.21, 'datetime': '2018-10-12 13:29:00.828902', 'mgs': 0, 'depth': 2.911, 'time': 1.84, 'pitch': -1.04, 'roll': -5.55}
{'lipoC2': 7.93, 'temp': 25.75, 'lipoC3S3': 11.9, 'rot1': 3, 'rot0': 3, 'rot3': 2, 'rot2': 2, 'state': 'normal', 'yaw': 0.34, 'datetime': '2018-10-12 13:29:00.927089', 'mgs': 0, 'depth': 2.072, 'time': 1.94, 'pitch': -1.45, 'roll': -4.19}
{'lipoC2': 7.93, 'temp': 25.75, 'lipoC3S3': 11.9, 'rot1': 4, 'rot0': 5, 'rot3': 3, 'rot2': 3, 'state': 'normal', 'yaw': 0.4, 'datetime': '2018-10-12 13:29:01.023788', 'mgs': 0, 'depth': 1.92, 'time': 2.04, 'pitch': -2.01, 'roll': -2.1}
{'lipoC2': 7.93, 'temp': 25.75, 'lipoC3S3': 11.9, 'rot1': 5, 'rot0': 6, 'rot3': 3, 'rot2': 4, 'state': 'normal', 'yaw': 0.41, 'datetime': '2018-10-12 13:29:01.120191', 'mgs': 0, 'depth': 1.996, 'time': 2.13, 'pitch': -2.54, 'roll': 0.1}
{'lipoC2': 7.93, 'temp': 25.75, 'lipoC3S3': 11.9, 'rot1': 6, 'rot0': 7, 'rot3': 4, 'rot2': 4, 'state': 'normal', 'yaw': 0.51, 'datetime': '2018-10-12 13:29:01.216831', 'mgs': 0, 'depth': 2.072, 'time': 2.23, 'pitch': -2.77, 'roll': 1.88}
{'lipoC2': 7.93, 'temp': 25.75, 'lipoC3S3': 11.9, 'rot1': 7, 'rot0': 8, 'rot3': 5, 'rot2': 5, 'state': 'normal', 'yaw': 0.71, 'datetime': '2018-10-12 13:29:01.313382', 'mgs': 0, 'depth': 1.996, 'time': 2.33, 'pitch': -2.78, 'roll': 3.42}
{'lipoC2': 7.93, 'temp': 25.75, 'lipoC3S3': 11.9, 'rot1': 8, 'rot0': 9, 'rot3': 5, 'rot2': 6, 'state': 'normal', 'yaw': 0.99, 'datetime': '2018-10-12 13:29:01.405523', 'mgs': 0, 'depth': 1.996, 'time': 2.42, 'pitch': -2.63, 'roll': 4.43}
{'lipoC2': 7.93, 'temp': 25.75, 'lipoC3S3': 11.89, 'rot1': 9, 'rot0': 10, 'rot3': 6, 'rot2': 6, 'state': 'normal', 'yaw': 1.25, 'datetime': '2018-10-12 13:29:01.505735', 'mgs': 0, 'depth': 2.072, 'time': 2.52, 'pitch': -2.52, 'roll': 4.85}
{'lipoC2': 7.93, 'temp': 25.75, 'lipoC3S3': 11.9, 'rot1': 11, 'rot0': 11, 'rot3': 6, 'rot2': 7, 'state': 'normal', 'yaw': 1.52, 'datetime': '2018-10-12 13:29:01.604165', 'mgs': 0, 'depth': 1.996, 'time': 2.62, 'pitch': -2.42, 'roll': 4.84}
{'lipoC2': 7.93, 'temp': 25.75, 'lipoC3S3': 11.79, 'rot1': 12, 'rot0': 12, 'rot3': 7, 'rot2': 7, 'state': 'normal', 'yaw': 1.75, 'datetime': '2018-10-12 13:29:01.701160', 'mgs': 0, 'depth': 1.691, 'time': 2.71, 'pitch': -2.31, 'roll': 4.5}
{'lipoC2': 7.93, 'temp': 25.75, 'lipoC3S3': 11.92, 'rot1': 13, 'rot0': 13, 'rot3': 7, 'rot2': 8, 'state': 'normal', 'yaw': 1.93, 'datetime': '2018-10-12 13:29:01.799413', 'mgs': 0, 'depth': 1.614, 'time': 2.81, 'pitch': -2.22, 'roll': 4.0}
{'lipoC2': 7.93, 'temp': 25.75, 'lipoC3S3': 11.9, 'rot1': 13, 'rot0': 14, 'rot3': 8, 'rot2': 9, 'state': 'normal', 'yaw': 1.75, 'datetime': '2018-10-12 13:29:01.897779', 'mgs': 0, 'depth': 2.377, 'time': 2.91, 'pitch': -2.17, 'roll': 3.19}
{'lipoC2': 7.94, 'temp': 25.75, 'lipoC3S3': 11.92, 'rot1': 14, 'rot0': 16, 'rot3': 9, 'rot2': 9, 'state': 'normal', 'yaw': 1.13, 'datetime': '2018-10-12 13:29:01.994805', 'mgs': 0, 'depth': 1.92, 'time': 3.01, 'pitch': -2.14, 'roll': 2.37}
{'lipoC2': 7.93, 'temp': 25.75, 'lipoC3S3': 11.89, 'rot1': 15, 'rot0': 17, 'rot3': 9, 'rot2': 10, 'state': 'normal', 'yaw': 0.17, 'datetime': '2018-10-12 13:29:02.092016', 'mgs': 0, 'depth': 1.614, 'time': 3.11, 'pitch': -2.1, 'roll': 1.7}
{'lipoC2': 7.93, 'temp': 25.75, 'lipoC3S3': 11.92, 'rot1': 15, 'rot0': 18, 'rot3': 10, 'rot2': 11, 'state': 'normal', 'yaw': -0.91, 'datetime': '2018-10-12 13:29:02.185673', 'mgs': 0, 'depth': 1.92, 'time': 3.2, 'pitch': -2.08, 'roll': 1.3}
{'lipoC2': 7.93, 'temp': 25.75, 'lipoC3S3': 11.92, 'rot1': 16, 'rot0': 19, 'rot3': 10, 'rot2': 12, 'state': 'normal', 'yaw': -2.31, 'datetime': '2018-10-12 13:29:02.288301', 'mgs': 0, 'depth': 1.92, 'time': 3.3, 'pitch': -2.12, 'roll': 1.04}
{'lipoC2': 7.93, 'temp': 25.75, 'lipoC3S3': 11.87, 'rot1': 17, 'rot0': 20, 'rot3': 11, 'rot2': 12, 'state': 'normal', 'yaw': -3.87, 'datetime': '2018-10-12 13:29:02.386303', 'mgs': 0, 'depth': 2.225, 'time': 3.4, 'pitch': -2.2, 'roll': 0.84}
{'lipoC2': 7.94, 'temp': 25.75, 'lipoC3S3': 11.87, 'rot1': 18, 'rot0': 21, 'rot3': 12, 'rot2': 13, 'state': 'normal', 'yaw': -4.91, 'datetime': '2018-10-12 13:29:02.483685', 'mgs': 0, 'depth': 1.691, 'time': 3.5, 'pitch': -2.28, 'roll': 0.64}
{'lipoC2': 7.93, 'temp': 25.75, 'lipoC3S3': 11.87, 'rot1': 19, 'rot0': 21, 'rot3': 12, 'rot2': 13, 'state': 'normal', 'yaw': -5.23, 'datetime': '2018-10-12 13:29:02.581443', 'mgs': 0, 'depth': 1.767, 'time': 3.6, 'pitch': -2.33, 'roll': 0.5}
{'lipoC2': 7.93, 'temp': 25.75, 'lipoC3S3': 11.84, 'rot1': 20, 'rot0': 22, 'rot3': 13, 'rot2': 14, 'state': 'normal', 'yaw': -5.04, 'datetime': '2018-10-12 13:29:02.678813', 'mgs': 0, 'depth': 1.691, 'time': 3.69, 'pitch': -2.36, 'roll': 0.38}
{'lipoC2': 7.93, 'temp': 25.75, 'lipoC3S3': 11.92, 'rot1': 21, 'rot0': 22, 'rot3': 13, 'rot2': 15, 'state': 'normal', 'yaw': -4.45, 'datetime': '2018-10-12 13:29:02.776123', 'mgs': 0, 'depth': 1.996, 'time': 3.79, 'pitch': -2.41, 'roll': 0.24}
{'lipoC2': 7.93, 'temp': 25.75, 'lipoC3S3': 11.9, 'rot1': 22, 'rot0': 23, 'rot3': 14, 'rot2': 15, 'state': 'normal', 'yaw': -3.55, 'datetime': '2018-10-12 13:29:02.873831', 'mgs': 0, 'depth': 2.301, 'time': 3.89, 'pitch': -2.41, 'roll': 0.01}
{'lipoC2': 7.93, 'temp': 25.75, 'lipoC3S3': 11.9, 'rot1': 23, 'rot0': 24, 'rot3': 14, 'rot2': 16, 'state': 'normal', 'yaw': -2.5, 'datetime': '2018-10-12 13:29:02.971474', 'mgs': 0, 'depth': 1.309, 'time': 3.99, 'pitch': -2.4, 'roll': -0.3}
{'lipoC2': 7.94, 'temp': 25.75, 'lipoC3S3': 11.88, 'rot1': 24, 'rot0': 24, 'rot3': 15, 'rot2': 17, 'state': 'normal', 'yaw': -1.12, 'datetime': '2018-10-12 13:29:03.068679', 'mgs': 0, 'depth': 1.92, 'time': 4.08, 'pitch': -2.29, 'roll': -0.71}
{'lipoC2': 7.93, 'temp': 25.75, 'lipoC3S3': 11.84, 'rot1': 25, 'rot0': 25, 'rot3': 15, 'rot2': 17, 'state': 'normal', 'yaw': 0.41, 'datetime': '2018-10-12 13:29:03.166788', 'mgs': 0, 'depth': 1.691, 'time': 4.18, 'pitch': -2.12, 'roll': -1.11}
{'lipoC2': 7.93, 'temp': 25.75, 'lipoC3S3': 11.89, 'rot1': 26, 'rot0': 26, 'rot3': 16, 'rot2': 18, 'state': 'normal', 'yaw': 2.03, 'datetime': '2018-10-12 13:29:03.263491', 'mgs': 0, 'depth': 1.843, 'time': 4.28, 'pitch': -1.94, 'roll': -1.39}
{'lipoC2': 7.93, 'temp': 25.75, 'lipoC3S3': 11.88, 'rot1': 27, 'rot0': 27, 'rot3': 17, 'rot2': 19, 'state': 'normal', 'yaw': 3.32, 'datetime': '2018-10-12 13:29:03.360884', 'mgs': 0, 'depth': 2.835, 'time': 4.38, 'pitch': -1.81, 'roll': -1.32}
{'lipoC2': 7.94, 'temp': 25.75, 'lipoC3S3': 11.83, 'rot1': 29, 'rot0': 28, 'rot3': 17, 'rot2': 19, 'state': 'normal', 'yaw': 4.47, 'datetime': '2018-10-12 13:29:03.458398', 'mgs': 0, 'depth': 1.843, 'time': 4.47, 'pitch': -1.64, 'roll': -0.94}
{'lipoC2': 7.93, 'temp': 25.75, 'lipoC3S3': 11.84, 'rot1': 29, 'rot0': 29, 'rot3': 18, 'rot2': 20, 'state': 'normal', 'yaw': 5.3, 'datetime': '2018-10-12 13:29:03.555709', 'mgs': 0, 'depth': 1.691, 'time': 4.57, 'pitch': -1.51, 'roll': -0.52}
{'lipoC2': 7.93, 'temp': 25.75, 'lipoC3S3': 11.84, 'rot1': 30, 'rot0': 30, 'rot3': 18, 'rot2': 21, 'state': 'normal', 'yaw': 5.58, 'datetime': '2018-10-12 13:29:03.653332', 'mgs': 0, 'depth': 1.233, 'time': 4.67, 'pitch': -1.48, 'roll': -0.38}
{'lipoC2': 7.93, 'temp': 25.75, 'lipoC3S3': 11.83, 'rot1': 31, 'rot0': 31, 'rot3': 19, 'rot2': 22, 'state': 'normal', 'yaw': 5.42, 'datetime': '2018-10-12 13:29:03.752146', 'mgs': 0, 'depth': 1.691, 'time': 4.77, 'pitch': -1.44, 'roll': -0.5}
{'lipoC2': 7.93, 'temp': 25.69, 'lipoC3S3': 11.87, 'rot1': 31, 'rot0': 32, 'rot3': 19, 'rot2': 22, 'state': 'normal', 'yaw': 4.92, 'datetime': '2018-10-12 13:29:03.850815', 'mgs': 0, 'depth': 1.614, 'time': 4.87, 'pitch': -1.44, 'roll': -0.82}
{'lipoC2': 7.93, 'temp': 25.69, 'lipoC3S3': 11.87, 'rot1': 32, 'rot0': 33, 'rot3': 20, 'rot2': 23, 'state': 'normal', 'yaw': 4.04, 'datetime': '2018-10-12 13:29:03.947997', 'mgs': 0, 'depth': 1.614, 'time': 4.96, 'pitch': -1.52, 'roll': -1.16}
{'lipoC2': 7.93, 'temp': 25.69, 'lipoC3S3': 11.9, 'rot1': 33, 'rot0': 35, 'rot3': 21, 'rot2': 24, 'state': 'normal', 'yaw': 2.92, 'datetime': '2018-10-12 13:29:04.045614', 'mgs': 0, 'depth': 1.92, 'time': 5.06, 'pitch': -1.61, 'roll': -1.41}
{'lipoC2': 7.93, 'temp': 25.75, 'lipoC3S3': 11.85, 'rot1': 33, 'rot0': 36, 'rot3': 21, 'rot2': 24, 'state': 'normal', 'yaw': 1.77, 'datetime': '2018-10-12 13:29:04.143509', 'mgs': 0, 'depth': 1.691, 'time': 5.16, 'pitch': -1.73, 'roll': -1.5}
{'lipoC2': 7.93, 'temp': 25.75, 'lipoC3S3': 11.8, 'rot1': 34, 'rot0': 37, 'rot3': 22, 'rot2': 25, 'state': 'normal', 'yaw': 0.35, 'datetime': '2018-10-12 13:29:04.238705', 'mgs': 0, 'depth': 1.614, 'time': 5.26, 'pitch': -1.9, 'roll': -1.47}
{'lipoC2': 7.93, 'temp': 25.69, 'lipoC3S3': 11.9, 'rot1': 35, 'rot0': 38, 'rot3': 22, 'rot2': 26, 'state': 'normal', 'yaw': -1.27, 'datetime': '2018-10-12 13:29:04.335064', 'mgs': 0, 'depth': 1.767, 'time': 5.36, 'pitch': -2.18, 'roll': -1.32}
{'lipoC2': 7.93, 'temp': 25.69, 'lipoC3S3': 11.9, 'rot1': 35, 'rot0': 39, 'rot3': 23, 'rot2': 26, 'state': 'normal', 'yaw': -2.99, 'datetime': '2018-10-12 13:29:04.432499', 'mgs': 0, 'depth': 1.996, 'time': 5.45, 'pitch': -2.56, 'roll': -1.12}
{'lipoC2': 7.93, 'temp': 25.69, 'lipoC3S3': 11.85, 'rot1': 36, 'rot0': 39, 'rot3': 23, 'rot2': 27, 'state': 'normal', 'yaw': -4.07, 'datetime': '2018-10-12 13:29:04.529855', 'mgs': 0, 'depth': 2.377, 'time': 5.55, 'pitch': -2.85, 'roll': -0.97}
{'lipoC2': 7.93, 'temp': 25.63, 'lipoC3S3': 11.88, 'rot1': 38, 'rot0': 40, 'rot3': 24, 'rot2': 28, 'state': 'normal', 'yaw': -4.41, 'datetime': '2018-10-12 13:29:04.628378', 'mgs': 0, 'depth': 1.996, 'time': 5.65, 'pitch': -3.0, 'roll': -0.94}
{'lipoC2': 7.93, 'temp': 25.63, 'lipoC3S3': 11.84, 'rot1': 39, 'rot0': 41, 'rot3': 24, 'rot2': 28, 'state': 'normal', 'yaw': -4.26, 'datetime': '2018-10-12 13:29:04.725796', 'mgs': 0, 'depth': 1.767, 'time': 5.75, 'pitch': -3.08, 'roll': -0.98}
{'lipoC2': 7.93, 'temp': 25.69, 'lipoC3S3': 11.97, 'rot1': 39, 'rot0': 41, 'rot3': 25, 'rot2': 29, 'state': 'normal', 'yaw': -3.68, 'datetime': '2018-10-12 13:29:04.823196', 'mgs': 0, 'depth': 1.691, 'time': 5.85, 'pitch': -3.08, 'roll': -1.2}
{'lipoC2': 7.93, 'temp': 25.69, 'lipoC3S3': 11.97, 'rot1': 39, 'rot0': 41, 'rot3': 25, 'rot2': 29, 'state': 'normal', 'yaw': -3.17, 'datetime': '2018-10-12 13:29:04.920621', 'mgs': 0, 'depth': 1.691, 'time': 5.94, 'pitch': -3.09, 'roll': -1.92}
{'lipoC2': 7.94, 'temp': 25.69, 'lipoC3S3': 11.87, 'rot1': 39, 'rot0': 41, 'rot3': 25, 'rot2': 29, 'state': 'normal', 'yaw': -2.86, 'datetime': '2018-10-12 13:29:05.023045', 'mgs': 0, 'depth': 1.767, 'time': 6.04, 'pitch': -3.18, 'roll': -2.81}
{'lipoC2': 7.93, 'temp': 25.69, 'lipoC3S3': 11.8, 'rot1': 40, 'rot0': 41, 'rot3': 26, 'rot2': 30, 'state': 'normal', 'yaw': -2.57, 'datetime': '2018-10-12 13:29:05.120407', 'mgs': 0, 'depth': 1.767, 'time': 6.14, 'pitch': -3.15, 'roll': -3.99}
{'lipoC2': 7.93, 'temp': 25.69, 'lipoC3S3': 11.9, 'rot1': 41, 'rot0': 42, 'rot3': 26, 'rot2': 31, 'state': 'normal', 'yaw': -2.13, 'datetime': '2018-10-12 13:29:05.217919', 'mgs': 0, 'depth': 2.072, 'time': 6.24, 'pitch': -2.81, 'roll': -4.78}
{'lipoC2': 7.93, 'temp': 25.69, 'lipoC3S3': 11.89, 'rot1': 42, 'rot0': 43, 'rot3': 27, 'rot2': 31, 'state': 'normal', 'yaw': -1.45, 'datetime': '2018-10-12 13:29:05.315346', 'mgs': 0, 'depth': 2.377, 'time': 6.33, 'pitch': -2.27, 'roll': -5.03}
{'lipoC2': 7.94, 'temp': 25.69, 'lipoC3S3': 11.85, 'rot1': 43, 'rot0': 43, 'rot3': 27, 'rot2': 32, 'state': 'normal', 'yaw': -0.44, 'datetime': '2018-10-12 13:29:05.412608', 'mgs': 0, 'depth': 1.92, 'time': 6.43, 'pitch': -1.59, 'roll': -5.01}
{'lipoC2': 7.93, 'temp': 25.69, 'lipoC3S3': 11.84, 'rot1': 44, 'rot0': 44, 'rot3': 28, 'rot2': 32, 'state': 'normal', 'yaw': 0.8, 'datetime': '2018-10-12 13:29:05.510113', 'mgs': 0, 'depth': 1.92, 'time': 6.53, 'pitch': -0.97, 'roll': -4.93}
{'lipoC2': 7.93, 'temp': 25.69, 'lipoC3S3': 11.9, 'rot1': 45, 'rot0': 44, 'rot3': 28, 'rot2': 33, 'state': 'normal', 'yaw': 2.24, 'datetime': '2018-10-12 13:29:05.607463', 'mgs': 0, 'depth': 2.225, 'time': 6.63, 'pitch': -0.45, 'roll': -4.89}
{'lipoC2': 7.93, 'temp': 25.69, 'lipoC3S3': 11.85, 'rot1': 46, 'rot0': 45, 'rot3': 29, 'rot2': 34, 'state': 'normal', 'yaw': 3.61, 'datetime': '2018-10-12 13:29:05.705667', 'mgs': 0, 'depth': 2.148, 'time': 6.72, 'pitch': -0.1, 'roll': -4.87}
{'lipoC2': 7.94, 'temp': 25.75, 'lipoC3S3': 11.84, 'rot1': 47, 'rot0': 46, 'rot3': 29, 'rot2': 34, 'state': 'normal', 'yaw': 4.58, 'datetime': '2018-10-12 13:29:05.804316', 'mgs': 0, 'depth': 2.759, 'time': 6.82, 'pitch': 0.07, 'roll': -4.83}
{'lipoC2': 7.94, 'temp': 25.75, 'lipoC3S3': 11.9, 'rot1': 48, 'rot0': 48, 'rot3': 30, 'rot2': 35, 'state': 'normal', 'yaw': 4.85, 'datetime': '2018-10-12 13:29:05.903265', 'mgs': 0, 'depth': 2.759, 'time': 6.92, 'pitch': 0.12, 'roll': -4.71}
{'lipoC2': 7.93, 'temp': 25.75, 'lipoC3S3': 11.84, 'rot1': 48, 'rot0': 49, 'rot3': 30, 'rot2': 35, 'state': 'normal', 'yaw': 4.56, 'datetime': '2018-10-12 13:29:06.000568', 'mgs': 0, 'depth': 2.148, 'time': 7.02, 'pitch': 0.05, 'roll': -4.38}
{'lipoC2': 7.93, 'temp': 25.69, 'lipoC3S3': 11.83, 'rot1': 49, 'rot0': 50, 'rot3': 31, 'rot2': 36, 'state': 'normal', 'yaw': 3.84, 'datetime': '2018-10-12 13:29:06.097883', 'mgs': 0, 'depth': 2.301, 'time': 7.12, 'pitch': -0.17, 'roll': -3.85}
{'lipoC2': 7.93, 'temp': 25.69, 'lipoC3S3': 11.84, 'rot1': 50, 'rot0': 51, 'rot3': 31, 'rot2': 36, 'state': 'normal', 'yaw': 2.91, 'datetime': '2018-10-12 13:29:06.195856', 'mgs': 0, 'depth': 2.988, 'time': 7.22, 'pitch': -0.49, 'roll': -3.3}
{'lipoC2': 7.93, 'temp': 25.63, 'lipoC3S3': 11.89, 'rot1': 50, 'rot0': 52, 'rot3': 32, 'rot2': 37, 'state': 'normal', 'yaw': 1.66, 'datetime': '2018-10-12 13:29:06.294400', 'mgs': 0, 'depth': 3.14, 'time': 7.31, 'pitch': -0.93, 'roll': -2.73}
{'lipoC2': 7.93, 'temp': 25.63, 'lipoC3S3': 11.84, 'rot1': 51, 'rot0': 53, 'rot3': 32, 'rot2': 38, 'state': 'normal', 'yaw': 0.2, 'datetime': '2018-10-12 13:29:06.391987', 'mgs': 0, 'depth': 2.606, 'time': 7.41, 'pitch': -1.42, 'roll': -2.27}
{'lipoC2': 7.93, 'temp': 25.63, 'lipoC3S3': 11.87, 'rot1': 51, 'rot0': 54, 'rot3': 33, 'rot2': 38, 'state': 'normal', 'yaw': -1.37, 'datetime': '2018-10-12 13:29:06.489322', 'mgs': 0, 'depth': 2.682, 'time': 7.51, 'pitch': -1.95, 'roll': -1.95}
{'lipoC2': 7.93, 'temp': 25.75, 'lipoC3S3': 11.92, 'rot1': 52, 'rot0': 55, 'rot3': 33, 'rot2': 39, 'state': 'normal', 'yaw': -2.97, 'datetime': '2018-10-12 13:29:06.586942', 'mgs': 0, 'depth': 2.759, 'time': 7.61, 'pitch': -2.45, 'roll': -1.72}
{'lipoC2': 7.93, 'temp': 25.75, 'lipoC3S3': 11.9, 'rot1': 53, 'rot0': 56, 'rot3': 34, 'rot2': 39, 'state': 'normal', 'yaw': -3.92, 'datetime': '2018-10-12 13:29:06.684268', 'mgs': 0, 'depth': 3.14, 'time': 7.7, 'pitch': -2.74, 'roll': -1.65}
{'lipoC2': 7.93, 'temp': 25.75, 'lipoC3S3': 11.92, 'rot1': 54, 'rot0': 56, 'rot3': 34, 'rot2': 40, 'state': 'normal', 'yaw': -4.31, 'datetime': '2018-10-12 13:29:06.781696', 'mgs': 0, 'depth': 2.988, 'time': 7.8, 'pitch': -2.9, 'roll': -1.6}
{'lipoC2': 7.93, 'temp': 25.75, 'lipoC3S3': 11.85, 'rot1': 55, 'rot0': 57, 'rot3': 34, 'rot2': 40, 'state': 'normal', 'yaw': -4.17, 'datetime': '2018-10-12 13:29:06.879073', 'mgs': 0, 'depth': 2.988, 'time': 7.9, 'pitch': -2.91, 'roll': -1.55}
{'lipoC2': 7.93, 'temp': 25.69, 'lipoC3S3': 11.93, 'rot1': 57, 'rot0': 58, 'rot3': 34, 'rot2': 40, 'state': 'normal', 'yaw': -3.65, 'datetime': '2018-10-12 13:29:06.973498', 'mgs': 0, 'depth': 3.522, 'time': 8.0, 'pitch': -2.83, 'roll': -1.5}
{'lipoC2': 7.93, 'temp': 25.69, 'lipoC3S3': 11.89, 'rot1': 58, 'rot0': 58, 'rot3': 34, 'rot2': 41, 'state': 'normal', 'yaw': -2.76, 'datetime': '2018-10-12 13:29:07.075144', 'mgs': 0, 'depth': 3.445, 'time': 8.1, 'pitch': -2.66, 'roll': -1.48}
{'lipoC2': 7.94, 'temp': 25.69, 'lipoC3S3': 11.89, 'rot1': 59, 'rot0': 59, 'rot3': 34, 'rot2': 41, 'state': 'normal', 'yaw': -1.61, 'datetime': '2018-10-12 13:29:07.173270', 'mgs': 0, 'depth': 3.827, 'time': 8.19, 'pitch': -2.45, 'roll': -1.36}
{'lipoC2': 7.94, 'temp': 25.19, 'lipoC3S3': 11.8, 'rot1': 60, 'rot0': 60, 'rot3': 35, 'rot2': 42, 'state': 'normal', 'yaw': -0.27, 'datetime': '2018-10-12 13:29:07.270807', 'mgs': 0, 'depth': 3.14, 'time': 8.29, 'pitch': -2.18, 'roll': -1.07}
{'lipoC2': 7.93, 'temp': 25.19, 'lipoC3S3': 11.9, 'rot1': 61, 'rot0': 60, 'rot3': 35, 'rot2': 42, 'state': 'normal', 'yaw': 1.26, 'datetime': '2018-10-12 13:29:07.368135', 'mgs': 0, 'depth': 3.064, 'time': 8.39, 'pitch': -1.86, 'roll': -0.64}
{'lipoC2': 7.93, 'temp': 26.06, 'lipoC3S3': 11.93, 'rot1': 62, 'rot0': 61, 'rot3': 35, 'rot2': 42, 'state': 'normal', 'yaw': 2.77, 'datetime': '2018-10-12 13:29:07.465513', 'mgs': 0, 'depth': 3.217, 'time': 8.48, 'pitch': -1.53, 'roll': -0.28}
{'lipoC2': 7.93, 'temp': 26.06, 'lipoC3S3': 11.93, 'rot1': 62, 'rot0': 62, 'rot3': 35, 'rot2': 42, 'state': 'normal', 'yaw': 3.92, 'datetime': '2018-10-12 13:29:07.562916', 'mgs': 0, 'depth': 3.751, 'time': 8.58, 'pitch': -1.25, 'roll': 0.1}
{'lipoC2': 7.94, 'temp': 26.06, 'lipoC3S3': 11.79, 'rot1': 63, 'rot0': 63, 'rot3': 35, 'rot2': 42, 'state': 'normal', 'yaw': 4.38, 'datetime': '2018-10-12 13:29:07.660274', 'mgs': 0, 'depth': 3.217, 'time': 8.68, 'pitch': -1.08, 'roll': 0.45}
{'lipoC2': 7.93, 'temp': 25.75, 'lipoC3S3': 11.9, 'rot1': 64, 'rot0': 64, 'rot3': 36, 'rot2': 43, 'state': 'normal', 'yaw': 4.33, 'datetime': '2018-10-12 13:29:07.758397', 'mgs': 0, 'depth': 3.598, 'time': 8.78, 'pitch': -1.03, 'roll': 0.81}
{'lipoC2': 7.93, 'temp': 25.75, 'lipoC3S3': 11.9, 'rot1': 64, 'rot0': 66, 'rot3': 36, 'rot2': 43, 'state': 'normal', 'yaw': 3.84, 'datetime': '2018-10-12 13:29:07.857222', 'mgs': 0, 'depth': 3.217, 'time': 8.88, 'pitch': -1.08, 'roll': 1.34}
{'lipoC2': 7.93, 'temp': 25.69, 'lipoC3S3': 11.93, 'rot1': 65, 'rot0': 67, 'rot3': 37, 'rot2': 44, 'state': 'normal', 'yaw': 2.97, 'datetime': '2018-10-12 13:29:07.955808', 'mgs': 0, 'depth': 3.217, 'time': 8.98, 'pitch': -1.17, 'roll': 1.98}
{'lipoC2': 7.93, 'temp': 25.69, 'lipoC3S3': 11.93, 'rot1': 66, 'rot0': 68, 'rot3': 37, 'rot2': 44, 'state': 'normal', 'yaw': 1.76, 'datetime': '2018-10-12 13:29:08.053156', 'mgs': 0, 'depth': 3.293, 'time': 9.07, 'pitch': -1.24, 'roll': 2.58}
{'lipoC2': 7.94, 'temp': 25.69, 'lipoC3S3': 11.92, 'rot1': 66, 'rot0': 69, 'rot3': 37, 'rot2': 44, 'state': 'normal', 'yaw': 0.27, 'datetime': '2018-10-12 13:29:08.150573', 'mgs': 0, 'depth': 3.674, 'time': 9.17, 'pitch': -1.31, 'roll': 3.02}
{'lipoC2': 7.93, 'temp': 25.63, 'lipoC3S3': 11.9, 'rot1': 67, 'rot0': 70, 'rot3': 37, 'rot2': 44, 'state': 'normal', 'yaw': -1.29, 'datetime': '2018-10-12 13:29:08.248641', 'mgs': 0, 'depth': 3.217, 'time': 9.27, 'pitch': -1.4, 'roll': 3.31}
{'lipoC2': 7.93, 'temp': 25.63, 'lipoC3S3': 11.92, 'rot1': 68, 'rot0': 71, 'rot3': 37, 'rot2': 44, 'state': 'normal', 'yaw': -3.22, 'datetime': '2018-10-12 13:29:08.347300', 'mgs': 0, 'depth': 3.217, 'time': 9.37, 'pitch': -1.56, 'roll': 3.66}
{'lipoC2': 7.93, 'temp': 25.69, 'lipoC3S3': 11.84, 'rot1': 69, 'rot0': 72, 'rot3': 38, 'rot2': 45, 'state': 'normal', 'yaw': -4.68, 'datetime': '2018-10-12 13:29:08.445439', 'mgs': 0, 'depth': 3.293, 'time': 9.47, 'pitch': -1.67, 'roll': 4.12}
{'lipoC2': 7.93, 'temp': 25.69, 'lipoC3S3': 11.87, 'rot1': 70, 'rot0': 73, 'rot3': 38, 'rot2': 45, 'state': 'normal', 'yaw': -5.44, 'datetime': '2018-10-12 13:29:08.542957', 'mgs': 0, 'depth': 3.217, 'time': 9.56, 'pitch': -1.78, 'roll': 4.61}
{'lipoC2': 7.93, 'temp': 25.69, 'lipoC3S3': 11.93, 'rot1': 71, 'rot0': 73, 'rot3': 38, 'rot2': 45, 'state': 'normal', 'yaw': -5.58, 'datetime': '2018-10-12 13:29:08.640156', 'mgs': 0, 'depth': 3.217, 'time': 9.66, 'pitch': -1.89, 'roll': 5.01}
{'lipoC2': 7.93, 'temp': 25.94, 'lipoC3S3': 11.92, 'rot1': 72, 'rot0': 74, 'rot3': 38, 'rot2': 45, 'state': 'normal', 'yaw': -5.27, 'datetime': '2018-10-12 13:29:08.737652', 'mgs': 0, 'depth': 3.674, 'time': 9.76, 'pitch': -2.03, 'roll': 5.18}
{'lipoC2': 7.93, 'temp': 25.94, 'lipoC3S3': 11.84, 'rot1': 74, 'rot0': 75, 'rot3': 38, 'rot2': 46, 'state': 'normal', 'yaw': -4.53, 'datetime': '2018-10-12 13:29:08.835035', 'mgs': 0, 'depth': 3.14, 'time': 9.86, 'pitch': -2.2, 'roll': 5.19}
{'lipoC2': 7.93, 'temp': 25.69, 'lipoC3S3': 11.83, 'rot1': 75, 'rot0': 75, 'rot3': 39, 'rot2': 46, 'state': 'normal', 'yaw': -3.44, 'datetime': '2018-10-12 13:29:08.932628', 'mgs': 0, 'depth': 3.14, 'time': 9.95, 'pitch': -2.35, 'roll': 5.15}
{'lipoC2': 7.93, 'temp': 25.69, 'lipoC3S3': 11.88, 'rot1': 76, 'rot0': 76, 'rot3': 39, 'rot2': 47, 'state': 'normal', 'yaw': -2.03, 'datetime': '2018-10-12 13:29:09.030061', 'mgs': 0, 'depth': 3.064, 'time': 10.05, 'pitch': -2.45, 'roll': 5.14}
{'lipoC2': 7.93, 'temp': 25.69, 'lipoC3S3': 11.93, 'rot1': 77, 'rot0': 77, 'rot3': 39, 'rot2': 47, 'state': 'normal', 'yaw': -0.55, 'datetime': '2018-10-12 13:29:09.127410', 'mgs': 0, 'depth': 2.988, 'time': 10.15, 'pitch': -2.49, 'roll': 5.19}
{'lipoC2': 7.93, 'temp': 25.69, 'lipoC3S3': 11.9, 'rot1': 78, 'rot0': 78, 'rot3': 39, 'rot2': 47, 'state': 'normal', 'yaw': 1.28, 'datetime': '2018-10-12 13:29:09.224854', 'mgs': 0, 'depth': 3.674, 'time': 10.25, 'pitch': -2.42, 'roll': 5.15}
{'lipoC2': 7.94, 'temp': 25.69, 'lipoC3S3': 11.93, 'rot1': 79, 'rot0': 79, 'rot3': 39, 'rot2': 47, 'state': 'normal', 'yaw': 2.86, 'datetime': '2018-10-12 13:29:09.322232', 'mgs': 0, 'depth': 2.911, 'time': 10.34, 'pitch': -2.32, 'roll': 5.2}
{'lipoC2': 7.93, 'temp': 25.75, 'lipoC3S3': 11.67, 'rot1': 80, 'rot0': 80, 'rot3': 39, 'rot2': 47, 'state': 'normal', 'yaw': 3.98, 'datetime': '2018-10-12 13:29:09.419846', 'mgs': 0, 'depth': 2.911, 'time': 10.44, 'pitch': -2.24, 'roll': 5.25}
{'lipoC2': 7.93, 'temp': 25.75, 'lipoC3S3': 11.89, 'rot1': 81, 'rot0': 81, 'rot3': 39, 'rot2': 48, 'state': 'normal', 'yaw': 4.95, 'datetime': '2018-10-12 13:29:09.517239', 'mgs': 0, 'depth': 2.759, 'time': 10.54, 'pitch': -2.17, 'roll': 5.2}
{'lipoC2': 7.94, 'temp': 25.75, 'lipoC3S3': 11.88, 'rot1': 81, 'rot0': 81, 'rot3': 39, 'rot2': 48, 'state': 'normal', 'yaw': 5.41, 'datetime': '2018-10-12 13:29:13.570725', 'mgs': 0, 'depth': 3.14, 'time': 10.64, 'pitch': -2.1, 'roll': 4.8}
{'lipoC2': 7.93, 'temp': 25.75, 'lipoC3S3': 11.87, 'rot1': 81, 'rot0': 81, 'rot3': 39, 'rot2': 49, 'state': 'normal', 'yaw': 5.74, 'datetime': '2018-10-12 13:29:13.594132', 'mgs': 0, 'depth': 2.911, 'time': 10.73, 'pitch': -2.11, 'roll': 4.0}
{'lipoC2': 7.93, 'temp': 25.75, 'lipoC3S3': 11.9, 'rot1': 81, 'rot0': 81, 'rot3': 39, 'rot2': 49, 'state': 'normal', 'yaw': 6.01, 'datetime': '2018-10-12 13:29:13.633610', 'mgs': 0, 'depth': 2.911, 'time': 10.83, 'pitch': -2.13, 'roll': 3.04}
{'lipoC2': 7.93, 'temp': 25.69, 'lipoC3S3': 11.92, 'rot1': 81, 'rot0': 81, 'rot3': 40, 'rot2': 50, 'state': 'normal', 'yaw': 6.27, 'datetime': '2018-10-12 13:29:13.651720', 'mgs': 0, 'depth': 2.759, 'time': 10.93, 'pitch': -2.12, 'roll': 1.8}
{'lipoC2': 7.93, 'temp': 25.69, 'lipoC3S3': 11.92, 'rot1': 81, 'rot0': 81, 'rot3': 40, 'rot2': 51, 'state': 'normal', 'yaw': 6.49, 'datetime': '2018-10-12 13:29:13.683387', 'mgs': 0, 'depth': 2.53, 'time': 11.03, 'pitch': -2.11, 'roll': 0.49}
{'lipoC2': 7.93, 'temp': 25.69, 'lipoC3S3': 11.88, 'rot1': 81, 'rot0': 81, 'rot3': 41, 'rot2': 51, 'state': 'normal', 'yaw': 6.68, 'datetime': '2018-10-12 13:29:13.701517', 'mgs': 0, 'depth': 2.377, 'time': 11.13, 'pitch': -2.1, 'roll': -0.81}
{'lipoC2': 7.93, 'temp': 25.75, 'lipoC3S3': 11.88, 'rot1': 81, 'rot0': 81, 'rot3': 41, 'rot2': 52, 'state': 'normal', 'yaw': 6.83, 'datetime': '2018-10-12 13:29:13.721248', 'mgs': 0, 'depth': 2.301, 'time': 11.23, 'pitch': -2.07, 'roll': -2.06}
{'lipoC2': 7.93, 'temp': 25.75, 'lipoC3S3': 11.88, 'rot1': 81, 'rot0': 81, 'rot3': 42, 'rot2': 52, 'state': 'normal', 'yaw': 6.95, 'datetime': '2018-10-12 13:29:13.729042', 'mgs': 0, 'depth': 2.148, 'time': 11.32, 'pitch': -2.05, 'roll': -3.06}
{'lipoC2': 7.93, 'temp': 25.69, 'lipoC3S3': 11.88, 'rot1': 81, 'rot0': 81, 'rot3': 42, 'rot2': 53, 'state': 'normal', 'yaw': 7.07, 'datetime': '2018-10-12 13:29:13.749300', 'mgs': 0, 'depth': 1.996, 'time': 11.42, 'pitch': -2.02, 'roll': -3.98}
{'lipoC2': 7.93, 'temp': 25.69, 'lipoC3S3': 11.92, 'rot1': 81, 'rot0': 81, 'rot3': 43, 'rot2': 54, 'state': 'normal', 'yaw': 7.15, 'datetime': '2018-10-12 13:29:13.757112', 'mgs': 0, 'depth': 1.996, 'time': 11.52, 'pitch': -1.99, 'roll': -4.68}
{'lipoC2': 7.93, 'temp': 25.69, 'lipoC3S3': 11.93, 'rot1': 81, 'rot0': 81, 'rot3': 43, 'rot2': 54, 'state': 'normal', 'yaw': 7.17, 'datetime': '2018-10-12 13:29:13.776316', 'mgs': 0, 'depth': 2.225, 'time': 11.62, 'pitch': -2.04, 'roll': -5.15}
{'lipoC2': 7.93, 'temp': 25.69, 'lipoC3S3': 11.92, 'rot1': 81, 'rot0': 81, 'rot3': 44, 'rot2': 55, 'state': 'normal', 'yaw': 7.18, 'datetime': '2018-10-12 13:29:13.784130', 'mgs': 0, 'depth': 2.148, 'time': 11.72, 'pitch': -2.16, 'roll': -5.4}
{'lipoC2': 7.93, 'temp': 25.69, 'lipoC3S3': 11.92, 'rot1': 81, 'rot0': 81, 'rot3': 45, 'rot2': 56, 'state': 'normal', 'yaw': 7.2, 'datetime': '2018-10-12 13:29:13.803341', 'mgs': 0, 'depth': 2.072, 'time': 11.81, 'pitch': -2.29, 'roll': -5.51}
{'lipoC2': 7.93, 'temp': 25.69, 'lipoC3S3': 11.88, 'rot1': 81, 'rot0': 81, 'rot3': 45, 'rot2': 56, 'state': 'normal', 'yaw': 7.21, 'datetime': '2018-10-12 13:29:13.811145', 'mgs': 0, 'depth': 1.843, 'time': 11.91, 'pitch': -2.39, 'roll': -5.46}
{'lipoC2': 7.94, 'temp': 25.69, 'lipoC3S3': 11.89, 'rot1': 81, 'rot0': 81, 'rot3': 46, 'rot2': 57, 'state': 'normal', 'yaw': 7.22, 'datetime': '2018-10-12 13:29:13.830368', 'mgs': 0, 'depth': 1.691, 'time': 12.01, 'pitch': -2.49, 'roll': -5.23}
{'lipoC2': 7.93, 'temp': 25.69, 'lipoC3S3': 11.92, 'rot1': 81, 'rot0': 81, 'rot3': 46, 'rot2': 58, 'state': 'normal', 'yaw': 7.19, 'datetime': '2018-10-12 13:29:13.838153', 'mgs': 0, 'depth': 1.614, 'time': 12.1, 'pitch': -2.58, 'roll': -4.84}
{'lipoC2': 7.94, 'temp': 25.75, 'lipoC3S3': 11.92, 'rot1': 81, 'rot0': 81, 'rot3': 47, 'rot2': 58, 'state': 'normal', 'yaw': 7.16, 'datetime': '2018-10-12 13:29:13.857382', 'mgs': 0, 'depth': 1.843, 'time': 12.2, 'pitch': -2.57, 'roll': -4.28}
{'lipoC2': 7.94, 'temp': 25.75, 'lipoC3S3': 11.89, 'rot1': 81, 'rot0': 81, 'rot3': 47, 'rot2': 59, 'state': 'normal', 'yaw': 7.15, 'datetime': '2018-10-12 13:29:13.865192', 'mgs': 0, 'depth': 1.614, 'time': 12.3, 'pitch': -2.42, 'roll': -3.67}
{'lipoC2': 7.93, 'temp': 25.69, 'lipoC3S3': 11.9, 'rot1': 81, 'rot0': 81, 'rot3': 48, 'rot2': 60, 'state': 'normal', 'yaw': 7.15, 'datetime': '2018-10-12 13:29:13.884414', 'mgs': 0, 'depth': 1.538, 'time': 12.4, 'pitch': -2.34, 'roll': -3.23}
{'lipoC2': 7.93, 'temp': 25.69, 'lipoC3S3': 11.92, 'rot1': 81, 'rot0': 81, 'rot3': 48, 'rot2': 60, 'state': 'normal', 'yaw': 7.15, 'datetime': '2018-10-12 13:29:13.892216', 'mgs': 0, 'depth': 1.843, 'time': 12.49, 'pitch': -2.34, 'roll': -2.92}
{'lipoC2': 7.93, 'temp': 25.69, 'lipoC3S3': 11.92, 'rot1': 81, 'rot0': 81, 'rot3': 49, 'rot2': 61, 'state': 'normal', 'yaw': 7.15, 'datetime': '2018-10-12 13:29:13.911411', 'mgs': 0, 'depth': 1.767, 'time': 12.59, 'pitch': -2.42, 'roll': -2.73}
{'lipoC2': 7.93, 'temp': 25.69, 'lipoC3S3': 11.89, 'rot1': 81, 'rot0': 81, 'rot3': 49, 'rot2': 61, 'state': 'normal', 'yaw': 7.15, 'datetime': '2018-10-12 13:29:13.919169', 'mgs': 0, 'depth': 1.462, 'time': 12.69, 'pitch': -2.52, 'roll': -2.67}
{'lipoC2': 7.93, 'temp': 25.69, 'lipoC3S3': 11.93, 'rot1': 81, 'rot0': 81, 'rot3': 50, 'rot2': 62, 'state': 'normal', 'yaw': 7.2, 'datetime': '2018-10-12 13:29:13.938363', 'mgs': 0, 'depth': 1.462, 'time': 12.79, 'pitch': -2.56, 'roll': -2.64}
{'lipoC2': 7.93, 'temp': 25.69, 'lipoC3S3': 11.92, 'rot1': 81, 'rot0': 81, 'rot3': 50, 'rot2': 63, 'state': 'normal', 'yaw': 7.31, 'datetime': '2018-10-12 13:29:13.946145', 'mgs': 0, 'depth': 1.538, 'time': 12.89, 'pitch': -2.54, 'roll': -2.61}
{'lipoC2': 7.93, 'temp': 25.69, 'lipoC3S3': 11.92, 'rot1': 81, 'rot0': 81, 'rot3': 51, 'rot2': 63, 'state': 'normal', 'yaw': 7.47, 'datetime': '2018-10-12 13:29:13.965132', 'mgs': 0, 'depth': 1.843, 'time': 12.99, 'pitch': -2.55, 'roll': -2.58}
{'lipoC2': 7.93, 'temp': 25.69, 'lipoC3S3': 11.88, 'rot1': 81, 'rot0': 81, 'rot3': 52, 'rot2': 64, 'state': 'normal', 'yaw': 7.65, 'datetime': '2018-10-12 13:29:13.972885', 'mgs': 0, 'depth': 1.691, 'time': 13.08, 'pitch': -2.61, 'roll': -2.67}
{'lipoC2': 7.93, 'temp': 25.69, 'lipoC3S3': 11.92, 'rot1': 81, 'rot0': 81, 'rot3': 52, 'rot2': 65, 'state': 'normal', 'yaw': 7.79, 'datetime': '2018-10-12 13:29:13.991706', 'mgs': 0, 'depth': 1.614, 'time': 13.18, 'pitch': -2.7, 'roll': -2.84}
{'lipoC2': 7.93, 'temp': 25.69, 'lipoC3S3': 11.92, 'rot1': 81, 'rot0': 81, 'rot3': 53, 'rot2': 65, 'state': 'normal', 'yaw': 7.92, 'datetime': '2018-10-12 13:29:13.999082', 'mgs': 0, 'depth': 1.538, 'time': 13.28, 'pitch': -2.77, 'roll': -2.99}
{'lipoC2': 7.93, 'temp': 25.63, 'lipoC3S3': 11.9, 'rot1': 81, 'rot0': 81, 'rot3': 53, 'rot2': 66, 'state': 'normal', 'yaw': 8.13, 'datetime': '2018-10-12 13:29:14.017861', 'mgs': 0, 'depth': 1.538, 'time': 13.38, 'pitch': -2.83, 'roll': -3.03}
{'lipoC2': 7.93, 'temp': 25.63, 'lipoC3S3': 11.9, 'rot1': 81, 'rot0': 81, 'rot3': 54, 'rot2': 67, 'state': 'normal', 'yaw': 8.37, 'datetime': '2018-10-12 13:29:14.025286', 'mgs': 0, 'depth': 1.614, 'time': 13.48, 'pitch': -2.89, 'roll': -2.95}
{'lipoC2': 7.93, 'temp': 25.69, 'lipoC3S3': 11.93, 'rot1': 81, 'rot0': 81, 'rot3': 54, 'rot2': 67, 'state': 'normal', 'yaw': 8.59, 'datetime': '2018-10-12 13:29:14.044094', 'mgs': 0, 'depth': 1.233, 'time': 13.57, 'pitch': -2.9, 'roll': -2.75}
{'lipoC2': 7.93, 'temp': 25.69, 'lipoC3S3': 11.92, 'rot1': 81, 'rot0': 81, 'rot3': 55, 'rot2': 68, 'state': 'normal', 'yaw': 8.79, 'datetime': '2018-10-12 13:29:14.051514', 'mgs': 0, 'depth': 1.92, 'time': 13.67, 'pitch': -2.88, 'roll': -2.51}
{'lipoC2': 7.93, 'temp': 25.69, 'lipoC3S3': 11.92, 'rot1': 81, 'rot0': 81, 'rot3': 55, 'rot2': 69, 'state': 'normal', 'yaw': 9.01, 'datetime': '2018-10-12 13:29:14.070281', 'mgs': 0, 'depth': 1.767, 'time': 13.77, 'pitch': -2.82, 'roll': -2.32}
{'lipoC2': 7.94, 'temp': 25.69, 'lipoC3S3': 11.9, 'rot1': 81, 'rot0': 81, 'rot3': 56, 'rot2': 69, 'state': 'normal', 'yaw': 9.26, 'datetime': '2018-10-12 13:29:14.077646', 'mgs': 0, 'depth': 1.538, 'time': 13.87, 'pitch': -2.77, 'roll': -2.22}
{'lipoC2': 7.93, 'temp': 25.69, 'lipoC3S3': 11.9, 'rot1': 81, 'rot0': 81, 'rot3': 57, 'rot2': 70, 'state': 'normal', 'yaw': 9.48, 'datetime': '2018-10-12 13:29:14.096490', 'mgs': 0, 'depth': 1.614, 'time': 13.96, 'pitch': -2.68, 'roll': -2.25}
{'lipoC2': 7.93, 'temp': 25.75, 'lipoC3S3': 11.94, 'rot1': 81, 'rot0': 81, 'rot3': 57, 'rot2': 71, 'state': 'normal', 'yaw': 9.68, 'datetime': '2018-10-12 13:29:14.103931', 'mgs': 0, 'depth': 1.691, 'time': 14.06, 'pitch': -2.54, 'roll': -2.38}
{'lipoC2': 7.93, 'temp': 25.75, 'lipoC3S3': 11.92, 'rot1': 81, 'rot0': 81, 'rot3': 58, 'rot2': 71, 'state': 'normal', 'yaw': 9.96, 'datetime': '2018-10-12 13:29:14.122729', 'mgs': 0, 'depth': 1.767, 'time': 14.16, 'pitch': -2.35, 'roll': -2.5}
{'lipoC2': 7.94, 'temp': 25.75, 'lipoC3S3': 11.87, 'rot1': 81, 'rot0': 81, 'rot3': 58, 'rot2': 72, 'state': 'normal', 'yaw': 10.25, 'datetime': '2018-10-12 13:29:14.130106', 'mgs': 0, 'depth': 1.691, 'time': 14.26, 'pitch': -2.25, 'roll': -2.52}
{'lipoC2': 7.93, 'temp': 25.69, 'lipoC3S3': 11.9, 'rot1': 81, 'rot0': 81, 'rot3': 59, 'rot2': 73, 'state': 'normal', 'yaw': 10.47, 'datetime': '2018-10-12 13:29:14.148886', 'mgs': 0, 'depth': 1.614, 'time': 14.35, 'pitch': -2.29, 'roll': -2.47}
{'lipoC2': 7.93, 'temp': 25.69, 'lipoC3S3': 11.93, 'rot1': 81, 'rot0': 81, 'rot3': 59, 'rot2': 73, 'state': 'normal', 'yaw': 10.61, 'datetime': '2018-10-12 13:29:14.156284', 'mgs': 0, 'depth': 1.538, 'time': 14.45, 'pitch': -2.4, 'roll': -2.45}
{'lipoC2': 7.93, 'temp': 25.63, 'lipoC3S3': 11.93, 'rot1': 81, 'rot0': 81, 'rot3': 60, 'rot2': 74, 'state': 'normal', 'yaw': 10.79, 'datetime': '2018-10-12 13:29:14.175065', 'mgs': 0, 'depth': 1.843, 'time': 14.55, 'pitch': -2.59, 'roll': -2.41}
{'lipoC2': 7.93, 'temp': 25.63, 'lipoC3S3': 11.96, 'rot1': 81, 'rot0': 81, 'rot3': 60, 'rot2': 75, 'state': 'normal', 'yaw': 11.02, 'datetime': '2018-10-12 13:29:14.182458', 'mgs': 0, 'depth': 1.538, 'time': 14.65, 'pitch': -2.78, 'roll': -2.33}
{'lipoC2': 7.93, 'temp': 25.63, 'lipoC3S3': 11.84, 'rot1': 82, 'rot0': 82, 'rot3': 61, 'rot2': 75, 'state': 'normal', 'yaw': 11.13, 'datetime': '2018-10-12 13:29:14.201559', 'mgs': 0, 'depth': 1.843, 'time': 14.74, 'pitch': -2.99, 'roll': -2.29}
{'lipoC2': 7.93, 'temp': 25.69, 'lipoC3S3': 11.87, 'rot1': 83, 'rot0': 83, 'rot3': 61, 'rot2': 76, 'state': 'normal', 'yaw': 10.63, 'datetime': '2018-10-12 13:29:14.208930', 'mgs': 0, 'depth': 2.072, 'time': 14.84, 'pitch': -3.33, 'roll': -2.23}
{'lipoC2': 7.93, 'temp': 25.69, 'lipoC3S3': 11.88, 'rot1': 83, 'rot0': 83, 'rot3': 62, 'rot2': 77, 'state': 'normal', 'yaw': 9.49, 'datetime': '2018-10-12 13:29:14.227718', 'mgs': 0, 'depth': 2.377, 'time': 14.94, 'pitch': -3.83, 'roll': -2.09}
{'lipoC2': 7.94, 'temp': 25.63, 'lipoC3S3': 11.87, 'rot1': 84, 'rot0': 84, 'rot3': 62, 'rot2': 77, 'state': 'normal', 'yaw': 7.81, 'datetime': '2018-10-12 13:29:14.235214', 'mgs': 0, 'depth': 1.691, 'time': 15.04, 'pitch': -4.45, 'roll': -1.92}
{'lipoC2': 7.93, 'temp': 25.63, 'lipoC3S3': 11.9, 'rot1': 85, 'rot0': 85, 'rot3': 63, 'rot2': 78, 'state': 'normal', 'yaw': 5.67, 'datetime': '2018-10-12 13:29:14.254022', 'mgs': 0, 'depth': 1.691, 'time': 15.14, 'pitch': -5.07, 'roll': -1.71}
{'lipoC2': 7.94, 'temp': 25.63, 'lipoC3S3': 11.87, 'rot1': 86, 'rot0': 86, 'rot3': 64, 'rot2': 79, 'state': 'normal', 'yaw': 3.37, 'datetime': '2018-10-12 13:29:14.261524', 'mgs': 0, 'depth': 1.614, 'time': 15.23, 'pitch': -5.57, 'roll': -1.49}
{'lipoC2': 7.93, 'temp': 25.63, 'lipoC3S3': 11.85, 'rot1': 87, 'rot0': 87, 'rot3': 64, 'rot2': 79, 'state': 'normal', 'yaw': 0.44, 'datetime': '2018-10-12 13:29:14.301687', 'mgs': 0, 'depth': 2.072, 'time': 15.33, 'pitch': -6.01, 'roll': -1.27}
{'lipoC2': 7.93, 'temp': 25.63, 'lipoC3S3': 11.79, 'rot1': 88, 'rot0': 87, 'rot3': 65, 'rot2': 80, 'state': 'normal', 'yaw': -2.85, 'datetime': '2018-10-12 13:29:14.399082', 'mgs': 0, 'depth': 1.691, 'time': 15.43, 'pitch': -6.31, 'roll': -1.04}
{'lipoC2': 7.93, 'temp': 25.69, 'lipoC3S3': 11.9, 'rot1': 88, 'rot0': 88, 'rot3': 65, 'rot2': 81, 'state': 'normal', 'yaw': -6.46, 'datetime': '2018-10-12 13:29:14.496523', 'mgs': 0, 'depth': 1.92, 'time': 15.53, 'pitch': -6.48, 'roll': -0.83}
{'lipoC2': 7.93, 'temp': 25.69, 'lipoC3S3': 11.89, 'rot1': 89, 'rot0': 89, 'rot3': 66, 'rot2': 81, 'state': 'normal', 'yaw': -10.32, 'datetime': '2018-10-12 13:29:14.593922', 'mgs': 0, 'depth': 1.843, 'time': 15.63, 'pitch': -6.51, 'roll': -0.66}
{'lipoC2': 7.93, 'temp': 25.69, 'lipoC3S3': 11.85, 'rot1': 90, 'rot0': 90, 'rot3': 66, 'rot2': 82, 'state': 'normal', 'yaw': -13.97, 'datetime': '2018-10-12 13:29:14.691374', 'mgs': 0, 'depth': 2.072, 'time': 15.72, 'pitch': -6.44, 'roll': -0.54}
{'lipoC2': 7.93, 'temp': 25.69, 'lipoC3S3': 11.79, 'rot1': 91, 'rot0': 91, 'rot3': 67, 'rot2': 83, 'state': 'normal', 'yaw': -18.18, 'datetime': '2018-10-12 13:29:14.788767', 'mgs': 0, 'depth': 1.691, 'time': 15.82, 'pitch': -6.25, 'roll': -0.42}
{'lipoC2': 7.93, 'temp': 25.69, 'lipoC3S3': 11.9, 'rot1': 92, 'rot0': 92, 'rot3': 67, 'rot2': 83, 'state': 'normal', 'yaw': -22.54, 'datetime': '2018-10-12 13:29:14.886216', 'mgs': 0, 'depth': 1.843, 'time': 15.92, 'pitch': -5.95, 'roll': -0.31}
{'lipoC2': 7.93, 'temp': 25.63, 'lipoC3S3': 11.89, 'rot1': 93, 'rot0': 92, 'rot3': 68, 'rot2': 84, 'state': 'normal', 'yaw': -26.56, 'datetime': '2018-10-12 13:29:14.983778', 'mgs': 0, 'depth': 1.92, 'time': 16.02, 'pitch': -5.64, 'roll': -0.23}
{'lipoC2': 7.93, 'temp': 25.63, 'lipoC3S3': 11.89, 'rot1': 94, 'rot0': 93, 'rot3': 68, 'rot2': 85, 'state': 'normal', 'yaw': -31.09, 'datetime': '2018-10-12 13:29:15.081202', 'mgs': 0, 'depth': 1.843, 'time': 16.11, 'pitch': -5.3, 'roll': -0.16}
{'lipoC2': 7.92, 'temp': 25.63, 'lipoC3S3': 11.85, 'rot1': 94, 'rot0': 94, 'rot3': 69, 'rot2': 85, 'state': 'normal', 'yaw': -35.69, 'datetime': '2018-10-12 13:29:15.183669', 'mgs': 0, 'depth': 1.614, 'time': 16.21, 'pitch': -5.0, 'roll': -0.15}
{'lipoC2': 7.93, 'temp': 25.69, 'lipoC3S3': 11.83, 'rot1': 95, 'rot0': 95, 'rot3': 70, 'rot2': 86, 'state': 'normal', 'yaw': -40.36, 'datetime': '2018-10-12 13:29:15.281164', 'mgs': 0, 'depth': 1.614, 'time': 16.31, 'pitch': -4.75, 'roll': -0.17}
{'lipoC2': 7.93, 'temp': 25.69, 'lipoC3S3': 11.9, 'rot1': 96, 'rot0': 96, 'rot3': 70, 'rot2': 87, 'state': 'normal', 'yaw': -44.64, 'datetime': '2018-10-12 13:29:15.378575', 'mgs': 0, 'depth': 1.92, 'time': 16.41, 'pitch': -4.52, 'roll': -0.2}
{'lipoC2': 7.93, 'temp': 25.69, 'lipoC3S3': 11.88, 'rot1': 97, 'rot0': 97, 'rot3': 71, 'rot2': 87, 'state': 'normal', 'yaw': -49.49, 'datetime': '2018-10-12 13:29:15.476021', 'mgs': 0, 'depth': 1.843, 'time': 16.5, 'pitch': -4.23, 'roll': -0.21}
{'lipoC2': 7.93, 'temp': 25.69, 'lipoC3S3': 11.85, 'rot1': 98, 'rot0': 98, 'rot3': 71, 'rot2': 88, 'state': 'normal', 'yaw': -54.42, 'datetime': '2018-10-12 13:29:15.573430', 'mgs': 0, 'depth': 1.843, 'time': 16.6, 'pitch': -3.9, 'roll': -0.21}
{'lipoC2': 7.94, 'temp': 25.69, 'lipoC3S3': 11.87, 'rot1': 98, 'rot0': 98, 'rot3': 72, 'rot2': 89, 'state': 'normal', 'yaw': -59.46, 'datetime': '2018-10-12 13:29:15.670940', 'mgs': 0, 'depth': 1.614, 'time': 16.7, 'pitch': -3.61, 'roll': -0.21}
{'lipoC2': 7.93, 'temp': 25.69, 'lipoC3S3': 11.85, 'rot1': 99, 'rot0': 99, 'rot3': 72, 'rot2': 89, 'state': 'normal', 'yaw': -64.07, 'datetime': '2018-10-12 13:29:15.769627', 'mgs': 0, 'depth': 1.843, 'time': 16.8, 'pitch': -3.39, 'roll': -0.22}
{'lipoC2': 7.93, 'temp': 25.69, 'lipoC3S3': 11.87, 'rot1': 100, 'rot0': 100, 'rot3': 73, 'rot2': 90, 'state': 'normal', 'yaw': -69.21, 'datetime': '2018-10-12 13:29:15.868595', 'mgs': 0, 'depth': 1.92, 'time': 16.9, 'pitch': -3.18, 'roll': -0.2}
{'lipoC2': 7.93, 'temp': 25.69, 'lipoC3S3': 11.85, 'rot1': 101, 'rot0': 101, 'rot3': 74, 'rot2': 90, 'state': 'normal', 'yaw': -74.39, 'datetime': '2018-10-12 13:29:15.966097', 'mgs': 0, 'depth': 1.843, 'time': 16.99, 'pitch': -3.0, 'roll': -0.13}
{'lipoC2': 7.93, 'temp': 25.69, 'lipoC3S3': 11.88, 'rot1': 102, 'rot0': 102, 'rot3': 74, 'rot2': 91, 'state': 'normal', 'yaw': -79.57, 'datetime': '2018-10-12 13:29:16.063762', 'mgs': 0, 'depth': 1.767, 'time': 17.09, 'pitch': -2.85, 'roll': -0.07}
{'lipoC2': 7.93, 'temp': 25.69, 'lipoC3S3': 11.89, 'rot1': 103, 'rot0': 102, 'rot3': 75, 'rot2': 92, 'state': 'normal', 'yaw': -84.76, 'datetime': '2018-10-12 13:29:16.161633', 'mgs': 0, 'depth': 1.843, 'time': 17.19, 'pitch': -2.65, 'roll': 0.04}
{'lipoC2': 7.93, 'temp': 25.69, 'lipoC3S3': 11.9, 'rot1': 104, 'rot0': 103, 'rot3': 75, 'rot2': 92, 'state': 'normal', 'yaw': -89.44, 'datetime': '2018-10-12 13:29:16.260570', 'mgs': 0, 'depth': 1.385, 'time': 17.29, 'pitch': -2.48, 'roll': 0.12}
{'lipoC2': 7.94, 'temp': 25.69, 'lipoC3S3': 11.85, 'rot1': 104, 'rot0': 104, 'rot3': 76, 'rot2': 93, 'state': 'normal', 'yaw': -94.7, 'datetime': '2018-10-12 13:29:16.359393', 'mgs': 0, 'depth': 1.614, 'time': 17.39, 'pitch': -2.33, 'roll': 0.18}
{'lipoC2': 7.93, 'temp': 25.69, 'lipoC3S3': 11.85, 'rot1': 105, 'rot0': 105, 'rot3': 76, 'rot2': 94, 'state': 'normal', 'yaw': -100.06, 'datetime': '2018-10-12 13:29:16.457278', 'mgs': 0, 'depth': 1.614, 'time': 17.49, 'pitch': -2.24, 'roll': 0.15}
{'lipoC2': 7.94, 'temp': 25.69, 'lipoC3S3': 11.88, 'rot1': 106, 'rot0': 106, 'rot3': 77, 'rot2': 94, 'state': 'normal', 'yaw': -105.5, 'datetime': '2018-10-12 13:29:16.554900', 'mgs': 0, 'depth': 1.614, 'time': 17.58, 'pitch': -2.16, 'roll': 0.0}
{'lipoC2': 7.93, 'temp': 25.69, 'lipoC3S3': 11.85, 'rot1': 107, 'rot0': 107, 'rot3': 78, 'rot2': 95, 'state': 'normal', 'yaw': -110.99, 'datetime': '2018-10-12 13:29:16.652755', 'mgs': 0, 'depth': 2.072, 'time': 17.68, 'pitch': -2.12, 'roll': -0.2}
{'lipoC2': 7.93, 'temp': 25.69, 'lipoC3S3': 11.96, 'rot1': 107, 'rot0': 107, 'rot3': 78, 'rot2': 96, 'state': 'normal', 'yaw': -115.93, 'datetime': '2018-10-12 13:29:16.745861', 'mgs': 0, 'depth': 1.538, 'time': 17.78, 'pitch': -2.07, 'roll': -0.36}
{'lipoC2': 7.93, 'temp': 25.69, 'lipoC3S3': 11.96, 'rot1': 107, 'rot0': 107, 'rot3': 78, 'rot2': 96, 'state': 'normal', 'yaw': -120.96, 'datetime': '2018-10-12 13:29:16.847971', 'mgs': 0, 'depth': 1.614, 'time': 17.88, 'pitch': -1.82, 'roll': -0.72}
{'lipoC2': 7.93, 'temp': 25.69, 'lipoC3S3': 11.9, 'rot1': 107, 'rot0': 107, 'rot3': 78, 'rot2': 97, 'state': 'normal', 'yaw': -125.53, 'datetime': '2018-10-12 13:29:16.945777', 'mgs': 0, 'depth': 1.92, 'time': 17.98, 'pitch': -1.47, 'roll': -1.22}
{'lipoC2': 7.93, 'temp': 25.69, 'lipoC3S3': 11.88, 'rot1': 108, 'rot0': 107, 'rot3': 79, 'rot2': 97, 'state': 'normal', 'yaw': -129.74, 'datetime': '2018-10-12 13:29:17.043524', 'mgs': 0, 'depth': 1.843, 'time': 18.07, 'pitch': -0.99, 'roll': -1.95}
{'lipoC2': 7.93, 'temp': 25.69, 'lipoC3S3': 11.88, 'rot1': 108, 'rot0': 109, 'rot3': 79, 'rot2': 98, 'state': 'normal', 'yaw': -133.53, 'datetime': '2018-10-12 13:29:17.141245', 'mgs': 0, 'depth': 2.072, 'time': 18.17, 'pitch': -0.63, 'roll': -2.36}
{'lipoC2': 7.93, 'temp': 25.63, 'lipoC3S3': 11.9, 'rot1': 109, 'rot0': 110, 'rot3': 80, 'rot2': 98, 'state': 'normal', 'yaw': -137.87, 'datetime': '2018-10-12 13:29:17.238945', 'mgs': 0, 'depth': 1.157, 'time': 18.27, 'pitch': -0.32, 'roll': -2.38}
{'lipoC2': 7.93, 'temp': 25.63, 'lipoC3S3': 11.89, 'rot1': 109, 'rot0': 111, 'rot3': 80, 'rot2': 99, 'state': 'normal', 'yaw': -142.27, 'datetime': '2018-10-12 13:29:17.336708', 'mgs': 0, 'depth': 1.767, 'time': 18.37, 'pitch': -0.2, 'roll': -2.18}
{'lipoC2': 7.93, 'temp': 25.69, 'lipoC3S3': 11.92, 'rot1': 110, 'rot0': 112, 'rot3': 81, 'rot2': 100, 'state': 'normal', 'yaw': -146.65, 'datetime': '2018-10-12 13:29:17.434470', 'mgs': 0, 'depth': 1.767, 'time': 18.46, 'pitch': -0.28, 'roll': -1.99}
{'lipoC2': 7.93, 'temp': 25.69, 'lipoC3S3': 11.81, 'rot1': 111, 'rot0': 113, 'rot3': 81, 'rot2': 100, 'state': 'normal', 'yaw': -150.63, 'datetime': '2018-10-12 13:29:17.532242', 'mgs': 0, 'depth': 1.843, 'time': 18.56, 'pitch': -0.47, 'roll': -1.88}
{'lipoC2': 7.93, 'temp': 25.69, 'lipoC3S3': 11.84, 'rot1': 111, 'rot0': 114, 'rot3': 82, 'rot2': 101, 'state': 'normal', 'yaw': -155.05, 'datetime': '2018-10-12 13:29:17.630058', 'mgs': 0, 'depth': 1.843, 'time': 18.66, 'pitch': -0.68, 'roll': -1.84}
{'lipoC2': 7.93, 'temp': 25.69, 'lipoC3S3': 11.83, 'rot1': 112, 'rot0': 115, 'rot3': 82, 'rot2': 101, 'state': 'normal', 'yaw': -159.47, 'datetime': '2018-10-12 13:29:17.727814', 'mgs': 0, 'depth': 2.606, 'time': 18.76, 'pitch': -0.91, 'roll': -1.78}
{'lipoC2': 7.93, 'temp': 25.69, 'lipoC3S3': 11.89, 'rot1': 112, 'rot0': 116, 'rot3': 83, 'rot2': 102, 'state': 'normal', 'yaw': -163.87, 'datetime': '2018-10-12 13:29:17.825631', 'mgs': 0, 'depth': 2.759, 'time': 18.85, 'pitch': -1.11, 'roll': -1.69}
{'lipoC2': 7.93, 'temp': 25.69, 'lipoC3S3': 11.89, 'rot1': 113, 'rot0': 117, 'rot3': 83, 'rot2': 103, 'state': 'normal', 'yaw': -167.81, 'datetime': '2018-10-12 13:29:17.924511', 'mgs': 0, 'depth': 2.377, 'time': 18.95, 'pitch': -1.29, 'roll': -1.44}
{'lipoC2': 7.94, 'temp': 25.69, 'lipoC3S3': 11.77, 'rot1': 114, 'rot0': 119, 'rot3': 84, 'rot2': 103, 'state': 'normal', 'yaw': -172.15, 'datetime': '2018-10-12 13:29:18.023542', 'mgs': 0, 'depth': 2.148, 'time': 19.05, 'pitch': -1.59, 'roll': -0.98}
{'lipoC2': 7.93, 'temp': 25.69, 'lipoC3S3': 11.89, 'rot1': 114, 'rot0': 120, 'rot3': 84, 'rot2': 104, 'state': 'normal', 'yaw': -176.47, 'datetime': '2018-10-12 13:29:18.131873', 'mgs': 0, 'depth': 2.454, 'time': 19.15, 'pitch': -1.93, 'roll': -0.35}
{'lipoC2': 7.93, 'temp': 25.69, 'lipoC3S3': 11.83, 'rot1': 115, 'rot0': 121, 'rot3': 85, 'rot2': 104, 'state': 'normal', 'yaw': 179.24, 'datetime': '2018-10-12 13:29:18.215525', 'mgs': 0, 'depth': 2.301, 'time': 19.25, 'pitch': -2.26, 'roll': 0.32}
{'lipoC2': 7.94, 'temp': 25.69, 'lipoC3S3': 11.83, 'rot1': 116, 'rot0': 122, 'rot3': 85, 'rot2': 105, 'state': 'normal', 'yaw': 174.97, 'datetime': '2018-10-12 13:29:18.313430', 'mgs': 0, 'depth': 2.606, 'time': 19.35, 'pitch': -2.55, 'roll': 0.92}
{'lipoC2': 7.94, 'temp': 25.69, 'lipoC3S3': 11.88, 'rot1': 116, 'rot0': 123, 'rot3': 86, 'rot2': 105, 'state': 'normal', 'yaw': 170.71, 'datetime': '2018-10-12 13:29:18.410879', 'mgs': 0, 'depth': 3.064, 'time': 19.45, 'pitch': -2.81, 'roll': 1.35}
{'lipoC2': 7.93, 'temp': 25.69, 'lipoC3S3': 11.89, 'rot1': 117, 'rot0': 124, 'rot3': 86, 'rot2': 106, 'state': 'normal', 'yaw': 166.94, 'datetime': '2018-10-12 13:29:18.513064', 'mgs': 0, 'depth': 2.682, 'time': 19.55, 'pitch': -3.0, 'roll': 1.62}
{'lipoC2': 7.93, 'temp': 25.88, 'lipoC3S3': 11.84, 'rot1': 118, 'rot0': 124, 'rot3': 87, 'rot2': 107, 'state': 'normal', 'yaw': 163.45, 'datetime': '2018-10-12 13:29:18.608671', 'mgs': 0, 'depth': 2.53, 'time': 19.65, 'pitch': -3.07, 'roll': 1.79}
{'lipoC2': 7.93, 'temp': 25.88, 'lipoC3S3': 11.83, 'rot1': 119, 'rot0': 125, 'rot3': 87, 'rot2': 107, 'state': 'normal', 'yaw': 160.79, 'datetime': '2018-10-12 13:29:18.712876', 'mgs': 0, 'depth': 2.988, 'time': 19.74, 'pitch': -3.0, 'roll': 1.84}
{'lipoC2': 7.93, 'temp': 25.88, 'lipoC3S3': 11.89, 'rot1': 120, 'rot0': 126, 'rot3': 88, 'rot2': 108, 'state': 'normal', 'yaw': 158.81, 'datetime': '2018-10-12 13:29:18.804425', 'mgs': 0, 'depth': 2.988, 'time': 19.84, 'pitch': -2.83, 'roll': 1.81}
{'lipoC2': 7.94, 'temp': 25.63, 'lipoC3S3': 11.88, 'rot1': 121, 'rot0': 126, 'rot3': 88, 'rot2': 108, 'state': 'normal', 'yaw': 157.41, 'datetime': '2018-10-12 13:29:18.909502', 'mgs': 0, 'depth': 3.293, 'time': 19.94, 'pitch': -2.6, 'roll': 1.69}
{'lipoC2': 7.93, 'temp': 25.63, 'lipoC3S3': 11.92, 'rot1': 122, 'rot0': 127, 'rot3': 89, 'rot2': 109, 'state': 'normal', 'yaw': 156.58, 'datetime': '2018-10-12 13:29:19.008459', 'mgs': 0, 'depth': 2.606, 'time': 20.04, 'pitch': -2.34, 'roll': 1.53}
{'lipoC2': 7.93, 'temp': 26.38, 'lipoC3S3': 11.9, 'rot1': 123, 'rot0': 128, 'rot3': 89, 'rot2': 109, 'state': 'normal', 'yaw': 156.06, 'datetime': '2018-10-12 13:29:19.106220', 'mgs': 0, 'depth': 3.064, 'time': 20.13, 'pitch': -2.0, 'roll': 1.37}
{'lipoC2': 7.94, 'temp': 26.38, 'lipoC3S3': 11.92, 'rot1': 125, 'rot0': 128, 'rot3': 89, 'rot2': 109, 'state': 'normal', 'yaw': 155.96, 'datetime': '2018-10-12 13:29:19.203908', 'mgs': 0, 'depth': 2.682, 'time': 20.23, 'pitch': -1.63, 'roll': 1.2}
{'lipoC2': 7.94, 'temp': 26.38, 'lipoC3S3': 11.88, 'rot1': 126, 'rot0': 129, 'rot3': 89, 'rot2': 109, 'state': 'normal', 'yaw': 156.17, 'datetime': '2018-10-12 13:29:19.301817', 'mgs': 0, 'depth': 3.293, 'time': 20.33, 'pitch': -1.22, 'roll': 1.0}
{'lipoC2': 7.93, 'temp': 26.19, 'lipoC3S3': 11.89, 'rot1': 127, 'rot0': 130, 'rot3': 89, 'rot2': 109, 'state': 'normal', 'yaw': 156.65, 'datetime': '2018-10-12 13:29:19.399690', 'mgs': 0, 'depth': 2.682, 'time': 20.43, 'pitch': -0.77, 'roll': 0.66}
