{'lipoC2': 7.77, 'temp': 23.63, 'lipoC3S3': 11.73, 'rot1': 0, 'rot0': 0, 'rot3': 0, 'rot2': 0, 'state': 'normal', 'yaw': 0.0, 'datetime': '2018-10-12 14:08:48.488933', 'mgs': 0, 'depth': 1.996, 'time': 1.26, 'pitch': -1.34, 'roll': -8.26}
{'lipoC2': 7.77, 'temp': 23.63, 'lipoC3S3': 11.75, 'rot1': 0, 'rot0': 0, 'rot3': 0, 'rot2': 0, 'state': 'normal', 'yaw': 0.14, 'datetime': '2018-10-12 14:08:48.512612', 'mgs': 0, 'depth': 1.92, 'time': 1.36, 'pitch': -1.45, 'roll': -8.03}
{'lipoC2': 7.76, 'temp': 23.63, 'lipoC3S3': 11.73, 'rot1': 0, 'rot0': 0, 'rot3': 0, 'rot2': 0, 'state': 'normal', 'yaw': 0.17, 'datetime': '2018-10-12 14:08:48.531556', 'mgs': 0, 'depth': 1.996, 'time': 1.45, 'pitch': -1.71, 'roll': -7.71}
{'lipoC2': 7.77, 'temp': 23.63, 'lipoC3S3': 11.75, 'rot1': 0, 'rot0': 0, 'rot3': 0, 'rot2': 0, 'state': 'normal', 'yaw': 0.2, 'datetime': '2018-10-12 14:08:48.549206', 'mgs': 0, 'depth': 1.996, 'time': 1.55, 'pitch': -1.95, 'roll': -7.54}
{'lipoC2': 7.77, 'temp': 23.63, 'lipoC3S3': 11.75, 'rot1': 0, 'rot0': 0, 'rot3': 0, 'rot2': 0, 'state': 'normal', 'yaw': 0.23, 'datetime': '2018-10-12 14:08:48.565917', 'mgs': 0, 'depth': 1.996, 'time': 1.65, 'pitch': -2.13, 'roll': -7.6}
{'lipoC2': 7.77, 'temp': 23.63, 'lipoC3S3': 11.73, 'rot1': 0, 'rot0': 0, 'rot3': 0, 'rot2': 0, 'state': 'normal', 'yaw': 0.3, 'datetime': '2018-10-12 14:08:48.582652', 'mgs': 0, 'depth': 1.92, 'time': 1.75, 'pitch': -2.22, 'roll': -7.85}
{'lipoC2': 7.77, 'temp': 23.63, 'lipoC3S3': 11.75, 'rot1': 0, 'rot0': 0, 'rot3': 0, 'rot2': 0, 'state': 'normal', 'yaw': 0.31, 'datetime': '2018-10-12 14:08:48.593056', 'mgs': 0, 'depth': 1.996, 'time': 1.85, 'pitch': -2.3, 'roll': -8.16}
{'lipoC2': 7.77, 'temp': 23.63, 'lipoC3S3': 11.73, 'rot1': 0, 'rot0': 0, 'rot3': 0, 'rot2': 0, 'state': 'normal', 'yaw': 0.26, 'datetime': '2018-10-12 14:08:48.600347', 'mgs': 0, 'depth': 1.996, 'time': 1.94, 'pitch': -2.39, 'roll': -8.3}
{'lipoC2': 7.77, 'temp': 23.63, 'lipoC3S3': 11.73, 'rot1': 0, 'rot0': 0, 'rot3': 0, 'rot2': 0, 'state': 'normal', 'yaw': 0.21, 'datetime': '2018-10-12 14:08:48.607600', 'mgs': 0, 'depth': 2.072, 'time': 2.04, 'pitch': -2.43, 'roll': -8.39}
{'lipoC2': 7.77, 'temp': 23.63, 'lipoC3S3': 11.75, 'rot1': 0, 'rot0': 0, 'rot3': 0, 'rot2': 0, 'state': 'normal', 'yaw': 0.2, 'datetime': '2018-10-12 14:08:48.614848', 'mgs': 0, 'depth': 1.996, 'time': 2.14, 'pitch': -2.4, 'roll': -8.37}
{'lipoC2': 7.77, 'temp': 23.63, 'lipoC3S3': 11.75, 'rot1': 0, 'rot0': 0, 'rot3': 0, 'rot2': 0, 'state': 'normal', 'yaw': 0.07, 'datetime': '2018-10-12 14:08:48.622116', 'mgs': 0, 'depth': 1.92, 'time': 2.24, 'pitch': -2.31, 'roll': -8.23}
{'lipoC2': 7.77, 'temp': 23.63, 'lipoC3S3': 11.75, 'rot1': 0, 'rot0': 0, 'rot3': 0, 'rot2': 0, 'state': 'normal', 'yaw': -0.21, 'datetime': '2018-10-12 14:08:48.629338', 'mgs': 0, 'depth': 2.072, 'time': 2.33, 'pitch': -2.2, 'roll': -8.18}
{'lipoC2': 7.77, 'temp': 23.63, 'lipoC3S3': 11.73, 'rot1': 0, 'rot0': 0, 'rot3': 0, 'rot2': 0, 'state': 'normal', 'yaw': -0.65, 'datetime': '2018-10-12 14:08:48.636588', 'mgs': 0, 'depth': 1.996, 'time': 2.43, 'pitch': -2.17, 'roll': -8.29}
{'lipoC2': 7.77, 'temp': 23.63, 'lipoC3S3': 11.75, 'rot1': 0, 'rot0': 0, 'rot3': 0, 'rot2': 0, 'state': 'normal', 'yaw': -1.09, 'datetime': '2018-10-12 14:08:48.643830', 'mgs': 0, 'depth': 1.996, 'time': 2.53, 'pitch': -2.23, 'roll': -8.63}
{'lipoC2': 7.77, 'temp': 23.63, 'lipoC3S3': 11.75, 'rot1': 0, 'rot0': 0, 'rot3': 0, 'rot2': 0, 'state': 'normal', 'yaw': -1.34, 'datetime': '2018-10-12 14:08:48.651076', 'mgs': 0, 'depth': 2.072, 'time': 2.63, 'pitch': -2.21, 'roll': -8.92}
{'lipoC2': 7.77, 'temp': 23.63, 'lipoC3S3': 11.75, 'rot1': 0, 'rot0': 0, 'rot3': 0, 'rot2': 0, 'state': 'normal', 'yaw': -1.49, 'datetime': '2018-10-12 14:08:48.658267', 'mgs': 0, 'depth': 1.996, 'time': 2.72, 'pitch': -2.23, 'roll': -8.95}
{'lipoC2': 7.77, 'temp': 23.63, 'lipoC3S3': 11.75, 'rot1': 0, 'rot0': 0, 'rot3': 0, 'rot2': 0, 'state': 'normal', 'yaw': -1.6, 'datetime': '2018-10-12 14:08:48.665530', 'mgs': 0, 'depth': 2.072, 'time': 2.82, 'pitch': -2.24, 'roll': -8.88}
{'lipoC2': 7.77, 'temp': 23.63, 'lipoC3S3': 11.75, 'rot1': 0, 'rot0': 0, 'rot3': 0, 'rot2': 0, 'state': 'normal', 'yaw': -1.62, 'datetime': '2018-10-12 14:08:48.672782', 'mgs': 0, 'depth': 1.996, 'time': 2.92, 'pitch': -2.07, 'roll': -8.79}
{'lipoC2': 7.76, 'temp': 23.63, 'lipoC3S3': 11.73, 'rot1': 0, 'rot0': 0, 'rot3': 0, 'rot2': 0, 'state': 'normal', 'yaw': -1.65, 'datetime': '2018-10-12 14:08:48.680315', 'mgs': 0, 'depth': 1.996, 'time': 3.02, 'pitch': -1.79, 'roll': -8.78}
{'lipoC2': 7.76, 'temp': 23.63, 'lipoC3S3': 11.73, 'rot1': 0, 'rot0': 0, 'rot3': 0, 'rot2': 0, 'state': 'normal', 'yaw': -1.61, 'datetime': '2018-10-12 14:08:48.687660', 'mgs': 0, 'depth': 1.996, 'time': 3.11, 'pitch': -1.48, 'roll': -8.78}
{'lipoC2': 7.77, 'temp': 23.56, 'lipoC3S3': 11.73, 'rot1': 0, 'rot0': 0, 'rot3': 0, 'rot2': 0, 'state': 'normal', 'yaw': -1.53, 'datetime': '2018-10-12 14:08:48.694975', 'mgs': 0, 'depth': 1.92, 'time': 3.21, 'pitch': -1.23, 'roll': -8.74}
{'lipoC2': 7.77, 'temp': 23.56, 'lipoC3S3': 11.75, 'rot1': 0, 'rot0': 0, 'rot3': 0, 'rot2': 0, 'state': 'normal', 'yaw': -1.47, 'datetime': '2018-10-12 14:08:48.702291', 'mgs': 0, 'depth': 1.996, 'time': 3.31, 'pitch': -1.27, 'roll': -8.49}
{'lipoC2': 7.77, 'temp': 23.63, 'lipoC3S3': 11.75, 'rot1': 0, 'rot0': 0, 'rot3': 0, 'rot2': 0, 'state': 'normal', 'yaw': -1.43, 'datetime': '2018-10-12 14:08:48.709528', 'mgs': 0, 'depth': 1.996, 'time': 3.41, 'pitch': -1.63, 'roll': -8.3}
{'lipoC2': 7.77, 'temp': 23.63, 'lipoC3S3': 11.75, 'rot1': 0, 'rot0': 0, 'rot3': 0, 'rot2': 0, 'state': 'normal', 'yaw': -1.28, 'datetime': '2018-10-12 14:08:48.716790', 'mgs': 0, 'depth': 1.92, 'time': 3.51, 'pitch': -2.18, 'roll': -8.29}
{'lipoC2': 7.77, 'temp': 23.63, 'lipoC3S3': 11.75, 'rot1': 0, 'rot0': 0, 'rot3': 0, 'rot2': 0, 'state': 'normal', 'yaw': -0.89, 'datetime': '2018-10-12 14:08:48.724106', 'mgs': 1, 'depth': 1.92, 'time': 3.6, 'pitch': -2.69, 'roll': -8.3}
{'lipoC2': 7.77, 'temp': 23.56, 'lipoC3S3': 11.75, 'rot1': 0, 'rot0': 0, 'rot3': 0, 'rot2': 0, 'state': 'normal', 'yaw': -0.54, 'datetime': '2018-10-12 14:08:50.242843', 'mgs': 1, 'depth': 1.92, 'time': 3.7, 'pitch': -3.24, 'roll': -8.35}
{'lipoC2': 7.77, 'temp': 23.56, 'lipoC3S3': 11.75, 'rot1': 0, 'rot0': 0, 'rot3': 0, 'rot2': 0, 'state': 'normal', 'yaw': -0.42, 'datetime': '2018-10-12 14:08:50.268123', 'mgs': 1, 'depth': 1.996, 'time': 3.8, 'pitch': -3.71, 'roll': -8.38}
{'lipoC2': 7.77, 'temp': 23.56, 'lipoC3S3': 11.75, 'rot1': 0, 'rot0': 0, 'rot3': 0, 'rot2': 0, 'state': 'normal', 'yaw': 0.0, 'datetime': '2018-10-12 14:08:50.284716', 'mgs': 0, 'depth': 2.072, 'time': 1.26, 'pitch': -3.77, 'roll': -8.53}
{'lipoC2': 7.77, 'temp': 23.56, 'lipoC3S3': 11.75, 'rot1': 0, 'rot0': 0, 'rot3': 0, 'rot2': 0, 'state': 'normal', 'yaw': 0.17, 'datetime': '2018-10-12 14:08:50.308282', 'mgs': 0, 'depth': 2.148, 'time': 1.36, 'pitch': -3.62, 'roll': -8.64}
{'lipoC2': 7.77, 'temp': 23.56, 'lipoC3S3': 11.75, 'rot1': 0, 'rot0': 0, 'rot3': 0, 'rot2': 0, 'state': 'normal', 'yaw': 0.11, 'datetime': '2018-10-12 14:08:50.331972', 'mgs': 0, 'depth': 2.148, 'time': 1.45, 'pitch': -3.57, 'roll': -8.67}
{'lipoC2': 7.77, 'temp': 23.63, 'lipoC3S3': 11.55, 'rot1': 0, 'rot0': 0, 'rot3': 0, 'rot2': 0, 'state': 'normal', 'yaw': -0.22, 'datetime': '2018-10-12 14:08:50.346201', 'mgs': 0, 'depth': 2.148, 'time': 1.55, 'pitch': -3.54, 'roll': -8.54}
{'lipoC2': 7.77, 'temp': 23.63, 'lipoC3S3': 11.69, 'rot1': 0, 'rot0': 1, 'rot3': 0, 'rot2': 0, 'state': 'normal', 'yaw': -0.72, 'datetime': '2018-10-12 14:08:50.442868', 'mgs': 0, 'depth': 2.148, 'time': 1.65, 'pitch': -3.37, 'roll': -8.09}
{'lipoC2': 7.77, 'temp': 23.63, 'lipoC3S3': 11.69, 'rot1': 2, 'rot0': 2, 'rot3': 0, 'rot2': 0, 'state': 'normal', 'yaw': -1.32, 'datetime': '2018-10-12 14:08:50.539531', 'mgs': 0, 'depth': 2.072, 'time': 1.75, 'pitch': -2.96, 'roll': -7.15}
{'lipoC2': 7.77, 'temp': 23.63, 'lipoC3S3': 11.69, 'rot1': 3, 'rot0': 3, 'rot3': 0, 'rot2': 0, 'state': 'normal', 'yaw': -1.79, 'datetime': '2018-10-12 14:08:50.636185', 'mgs': 0, 'depth': 1.843, 'time': 1.84, 'pitch': -2.39, 'roll': -6.43}
{'lipoC2': 7.77, 'temp': 23.63, 'lipoC3S3': 11.68, 'rot1': 4, 'rot0': 4, 'rot3': 0, 'rot2': 0, 'state': 'normal', 'yaw': -2.18, 'datetime': '2018-10-12 14:08:50.732884', 'mgs': 0, 'depth': 2.911, 'time': 1.94, 'pitch': -1.6, 'roll': -5.72}
{'lipoC2': 7.77, 'temp': 23.63, 'lipoC3S3': 11.69, 'rot1': 5, 'rot0': 5, 'rot3': 0, 'rot2': 0, 'state': 'normal', 'yaw': -2.36, 'datetime': '2018-10-12 14:08:50.829749', 'mgs': 0, 'depth': 3.064, 'time': 2.04, 'pitch': -0.63, 'roll': -4.87}
{'lipoC2': 7.77, 'temp': 23.63, 'lipoC3S3': 11.69, 'rot1': 6, 'rot0': 5, 'rot3': 0, 'rot2': 0, 'state': 'normal', 'yaw': -2.27, 'datetime': '2018-10-12 14:08:50.926370', 'mgs': 0, 'depth': 2.606, 'time': 2.13, 'pitch': 0.25, 'roll': -4.24}
{'lipoC2': 7.78, 'temp': 23.63, 'lipoC3S3': 11.6, 'rot1': 7, 'rot0': 6, 'rot3': 1, 'rot2': 0, 'state': 'normal', 'yaw': -1.86, 'datetime': '2018-10-12 14:08:51.023013', 'mgs': 0, 'depth': 2.148, 'time': 2.23, 'pitch': 1.16, 'roll': -3.61}
{'lipoC2': 7.78, 'temp': 23.63, 'lipoC3S3': 11.61, 'rot1': 8, 'rot0': 7, 'rot3': 1, 'rot2': 0, 'state': 'normal', 'yaw': -1.28, 'datetime': '2018-10-12 14:08:51.123325', 'mgs': 0, 'depth': 2.072, 'time': 2.33, 'pitch': 1.71, 'roll': -2.86}
{'lipoC2': 7.76, 'temp': 23.63, 'lipoC3S3': 11.56, 'rot1': 9, 'rot0': 8, 'rot3': 1, 'rot2': 1, 'state': 'normal', 'yaw': -0.48, 'datetime': '2018-10-12 14:08:51.221544', 'mgs': 0, 'depth': 2.225, 'time': 2.42, 'pitch': 2.01, 'roll': -1.77}
{'lipoC2': 7.77, 'temp': 23.56, 'lipoC3S3': 11.65, 'rot1': 10, 'rot0': 9, 'rot3': 2, 'rot2': 1, 'state': 'normal', 'yaw': 0.44, 'datetime': '2018-10-12 14:08:51.318346', 'mgs': 0, 'depth': 2.225, 'time': 2.52, 'pitch': 2.07, 'roll': -0.54}
{'lipoC2': 7.76, 'temp': 23.56, 'lipoC3S3': 11.68, 'rot1': 11, 'rot0': 9, 'rot3': 2, 'rot2': 1, 'state': 'normal', 'yaw': 1.39, 'datetime': '2018-10-12 14:08:51.415980', 'mgs': 0, 'depth': 2.225, 'time': 2.62, 'pitch': 2.02, 'roll': 0.62}
{'lipoC2': 7.77, 'temp': 23.56, 'lipoC3S3': 11.65, 'rot1': 12, 'rot0': 11, 'rot3': 2, 'rot2': 1, 'state': 'normal', 'yaw': 2.32, 'datetime': '2018-10-12 14:08:51.514291', 'mgs': 0, 'depth': 2.225, 'time': 2.71, 'pitch': 1.85, 'roll': 2.01}
{'lipoC2': 7.76, 'temp': 23.56, 'lipoC3S3': 11.67, 'rot1': 13, 'rot0': 12, 'rot3': 2, 'rot2': 1, 'state': 'normal', 'yaw': 3.07, 'datetime': '2018-10-12 14:08:51.608051', 'mgs': 0, 'depth': 2.988, 'time': 2.81, 'pitch': 1.56, 'roll': 3.45}
{'lipoC2': 7.77, 'temp': 23.63, 'lipoC3S3': 11.69, 'rot1': 14, 'rot0': 13, 'rot3': 2, 'rot2': 1, 'state': 'normal', 'yaw': 3.66, 'datetime': '2018-10-12 14:08:51.708206', 'mgs': 0, 'depth': 2.225, 'time': 2.91, 'pitch': 1.17, 'roll': 4.71}
{'lipoC2': 7.77, 'temp': 23.63, 'lipoC3S3': 11.63, 'rot1': 15, 'rot0': 14, 'rot3': 2, 'rot2': 1, 'state': 'normal', 'yaw': 3.89, 'datetime': '2018-10-12 14:08:51.806436', 'mgs': 0, 'depth': 2.301, 'time': 3.01, 'pitch': 0.76, 'roll': 5.49}
{'lipoC2': 7.77, 'temp': 23.63, 'lipoC3S3': 11.69, 'rot1': 16, 'rot0': 15, 'rot3': 2, 'rot2': 1, 'state': 'normal', 'yaw': 3.77, 'datetime': '2018-10-12 14:08:51.904615', 'mgs': 0, 'depth': 2.148, 'time': 3.11, 'pitch': 0.29, 'roll': 5.92}
{'lipoC2': 7.77, 'temp': 23.63, 'lipoC3S3': 11.69, 'rot1': 17, 'rot0': 16, 'rot3': 2, 'rot2': 1, 'state': 'normal', 'yaw': 3.3, 'datetime': '2018-10-12 14:08:52.001689', 'mgs': 0, 'depth': 2.301, 'time': 3.2, 'pitch': -0.22, 'roll': 5.92}
{'lipoC2': 7.76, 'temp': 23.63, 'lipoC3S3': 11.63, 'rot1': 18, 'rot0': 17, 'rot3': 2, 'rot2': 1, 'state': 'normal', 'yaw': 2.62, 'datetime': '2018-10-12 14:08:52.098618', 'mgs': 0, 'depth': 2.377, 'time': 3.3, 'pitch': -0.78, 'roll': 5.66}
{'lipoC2': 7.77, 'temp': 23.56, 'lipoC3S3': 11.67, 'rot1': 19, 'rot0': 18, 'rot3': 2, 'rot2': 1, 'state': 'normal', 'yaw': 1.84, 'datetime': '2018-10-12 14:08:52.195699', 'mgs': 0, 'depth': 2.301, 'time': 3.4, 'pitch': -1.3, 'roll': 5.37}
{'lipoC2': 7.77, 'temp': 23.56, 'lipoC3S3': 11.69, 'rot1': 19, 'rot0': 19, 'rot3': 2, 'rot2': 1, 'state': 'normal', 'yaw': 0.83, 'datetime': '2018-10-12 14:08:52.292752', 'mgs': 0, 'depth': 3.064, 'time': 3.49, 'pitch': -1.85, 'roll': 5.14}
{'lipoC2': 7.77, 'temp': 23.56, 'lipoC3S3': 11.69, 'rot1': 20, 'rot0': 20, 'rot3': 2, 'rot2': 1, 'state': 'normal', 'yaw': -0.28, 'datetime': '2018-10-12 14:08:52.389828', 'mgs': 0, 'depth': 2.377, 'time': 3.59, 'pitch': -2.3, 'roll': 4.86}
{'lipoC2': 7.77, 'temp': 23.56, 'lipoC3S3': 11.69, 'rot1': 21, 'rot0': 21, 'rot3': 2, 'rot2': 1, 'state': 'normal', 'yaw': -1.33, 'datetime': '2018-10-12 14:08:52.486723', 'mgs': 0, 'depth': 2.377, 'time': 3.69, 'pitch': -2.55, 'roll': 4.37}
{'lipoC2': 7.77, 'temp': 23.56, 'lipoC3S3': 11.59, 'rot1': 22, 'rot0': 22, 'rot3': 2, 'rot2': 1, 'state': 'normal', 'yaw': -2.52, 'datetime': '2018-10-12 14:08:52.583687', 'mgs': 0, 'depth': 2.301, 'time': 3.79, 'pitch': -2.7, 'roll': 3.66}
{'lipoC2': 7.77, 'temp': 23.63, 'lipoC3S3': 11.68, 'rot1': 23, 'rot0': 23, 'rot3': 2, 'rot2': 1, 'state': 'normal', 'yaw': -3.35, 'datetime': '2018-10-12 14:08:52.680717', 'mgs': 0, 'depth': 2.682, 'time': 3.88, 'pitch': -2.68, 'roll': 2.93}
{'lipoC2': 7.76, 'temp': 23.63, 'lipoC3S3': 11.67, 'rot1': 24, 'rot0': 24, 'rot3': 2, 'rot2': 1, 'state': 'normal', 'yaw': -3.7, 'datetime': '2018-10-12 14:08:52.778043', 'mgs': 0, 'depth': 2.377, 'time': 3.98, 'pitch': -2.67, 'roll': 2.32}
{'lipoC2': 7.77, 'temp': 23.63, 'lipoC3S3': 11.58, 'rot1': 25, 'rot0': 25, 'rot3': 2, 'rot2': 2, 'state': 'normal', 'yaw': -3.77, 'datetime': '2018-10-12 14:08:52.875040', 'mgs': 0, 'depth': 2.377, 'time': 4.08, 'pitch': -2.69, 'roll': 1.78}
{'lipoC2': 7.78, 'temp': 23.63, 'lipoC3S3': 11.6, 'rot1': 26, 'rot0': 25, 'rot3': 3, 'rot2': 2, 'state': 'normal', 'yaw': -3.59, 'datetime': '2018-10-12 14:08:52.972174', 'mgs': 0, 'depth': 2.301, 'time': 4.17, 'pitch': -2.68, 'roll': 1.46}
{'lipoC2': 7.76, 'temp': 23.63, 'lipoC3S3': 11.64, 'rot1': 27, 'rot0': 26, 'rot3': 3, 'rot2': 3, 'state': 'normal', 'yaw': -3.18, 'datetime': '2018-10-12 14:08:53.069548', 'mgs': 0, 'depth': 2.377, 'time': 4.27, 'pitch': -2.54, 'roll': 1.38}
{'lipoC2': 7.76, 'temp': 23.56, 'lipoC3S3': 11.69, 'rot1': 28, 'rot0': 27, 'rot3': 3, 'rot2': 3, 'state': 'normal', 'yaw': -2.63, 'datetime': '2018-10-12 14:08:53.167846', 'mgs': 0, 'depth': 2.835, 'time': 4.37, 'pitch': -2.24, 'roll': 1.31}
{'lipoC2': 7.77, 'temp': 23.56, 'lipoC3S3': 11.68, 'rot1': 29, 'rot0': 28, 'rot3': 3, 'rot2': 3, 'state': 'normal', 'yaw': -1.85, 'datetime': '2018-10-12 14:08:53.265349', 'mgs': 0, 'depth': 2.911, 'time': 4.47, 'pitch': -1.87, 'roll': 1.08}
{'lipoC2': 7.76, 'temp': 23.56, 'lipoC3S3': 11.64, 'rot1': 30, 'rot0': 29, 'rot3': 3, 'rot2': 3, 'state': 'normal', 'yaw': -0.96, 'datetime': '2018-10-12 14:08:53.362433', 'mgs': 0, 'depth': 2.759, 'time': 4.57, 'pitch': -1.63, 'roll': 0.84}
{'lipoC2': 7.77, 'temp': 23.56, 'lipoC3S3': 11.63, 'rot1': 31, 'rot0': 30, 'rot3': 3, 'rot2': 3, 'state': 'normal', 'yaw': -0.12, 'datetime': '2018-10-12 14:08:53.459969', 'mgs': 0, 'depth': 3.14, 'time': 4.66, 'pitch': -1.55, 'roll': 0.75}
{'lipoC2': 7.77, 'temp': 23.56, 'lipoC3S3': 11.6, 'rot1': 32, 'rot0': 31, 'rot3': 4, 'rot2': 4, 'state': 'normal', 'yaw': 0.59, 'datetime': '2018-10-12 14:08:53.558299', 'mgs': 0, 'depth': 2.377, 'time': 4.76, 'pitch': -1.53, 'roll': 0.94}
{'lipoC2': 7.77, 'temp': 23.63, 'lipoC3S3': 11.68, 'rot1': 33, 'rot0': 32, 'rot3': 4, 'rot2': 4, 'state': 'normal', 'yaw': 1.05, 'datetime': '2018-10-12 14:08:53.655371', 'mgs': 0, 'depth': 2.377, 'time': 4.86, 'pitch': -1.46, 'roll': 1.36}
{'lipoC2': 7.76, 'temp': 23.63, 'lipoC3S3': 11.68, 'rot1': 34, 'rot0': 33, 'rot3': 4, 'rot2': 4, 'state': 'normal', 'yaw': 1.33, 'datetime': '2018-10-12 14:08:53.752362', 'mgs': 0, 'depth': 2.988, 'time': 4.96, 'pitch': -1.14, 'roll': 1.79}
{'lipoC2': 7.77, 'temp': 23.63, 'lipoC3S3': 11.68, 'rot1': 35, 'rot0': 34, 'rot3': 4, 'rot2': 4, 'state': 'normal', 'yaw': 1.31, 'datetime': '2018-10-12 14:08:53.850432', 'mgs': 0, 'depth': 2.911, 'time': 5.05, 'pitch': -0.76, 'roll': 1.92}
{'lipoC2': 7.77, 'temp': 23.63, 'lipoC3S3': 11.64, 'rot1': 36, 'rot0': 35, 'rot3': 4, 'rot2': 4, 'state': 'normal', 'yaw': 0.95, 'datetime': '2018-10-12 14:08:53.946634', 'mgs': 0, 'depth': 2.759, 'time': 5.15, 'pitch': -0.49, 'roll': 1.91}
{'lipoC2': 7.77, 'temp': 23.63, 'lipoC3S3': 11.64, 'rot1': 37, 'rot0': 36, 'rot3': 5, 'rot2': 5, 'state': 'normal', 'yaw': 0.3, 'datetime': '2018-10-12 14:08:54.043316', 'mgs': 0, 'depth': 2.454, 'time': 5.25, 'pitch': -0.44, 'roll': 2.05}
{'lipoC2': 7.78, 'temp': 23.56, 'lipoC3S3': 11.63, 'rot1': 38, 'rot0': 37, 'rot3': 5, 'rot2': 5, 'state': 'normal', 'yaw': -0.45, 'datetime': '2018-10-12 14:08:54.141434', 'mgs': 0, 'depth': 2.988, 'time': 5.34, 'pitch': -0.61, 'roll': 2.43}
{'lipoC2': 7.77, 'temp': 23.56, 'lipoC3S3': 11.64, 'rot1': 39, 'rot0': 38, 'rot3': 6, 'rot2': 6, 'state': 'normal', 'yaw': -1.14, 'datetime': '2018-10-12 14:08:54.238437', 'mgs': 0, 'depth': 2.682, 'time': 5.44, 'pitch': -0.84, 'roll': 2.96}
{'lipoC2': 7.77, 'temp': 23.56, 'lipoC3S3': 11.67, 'rot1': 40, 'rot0': 39, 'rot3': 6, 'rot2': 6, 'state': 'normal', 'yaw': -1.86, 'datetime': '2018-10-12 14:08:54.335411', 'mgs': 0, 'depth': 2.53, 'time': 5.54, 'pitch': -1.07, 'roll': 3.66}
{'lipoC2': 7.77, 'temp': 23.63, 'lipoC3S3': 11.56, 'rot1': 41, 'rot0': 40, 'rot3': 6, 'rot2': 7, 'state': 'normal', 'yaw': -2.22, 'datetime': '2018-10-12 14:08:54.431411', 'mgs': 0, 'depth': 2.454, 'time': 5.64, 'pitch': -1.28, 'roll': 4.28}
{'lipoC2': 7.77, 'temp': 23.63, 'lipoC3S3': 11.67, 'rot1': 42, 'rot0': 41, 'rot3': 7, 'rot2': 7, 'state': 'normal', 'yaw': -2.19, 'datetime': '2018-10-12 14:08:54.529429', 'mgs': 0, 'depth': 2.454, 'time': 5.73, 'pitch': -1.47, 'roll': 4.64}
{'lipoC2': 7.77, 'temp': 23.56, 'lipoC3S3': 11.68, 'rot1': 43, 'rot0': 42, 'rot3': 7, 'rot2': 7, 'state': 'normal', 'yaw': -1.76, 'datetime': '2018-10-12 14:08:54.626342', 'mgs': 0, 'depth': 2.911, 'time': 5.83, 'pitch': -1.57, 'roll': 4.59}
{'lipoC2': 7.77, 'temp': 23.56, 'lipoC3S3': 11.72, 'rot1': 44, 'rot0': 42, 'rot3': 7, 'rot2': 7, 'state': 'normal', 'yaw': -1.05, 'datetime': '2018-10-12 14:08:54.723422', 'mgs': 0, 'depth': 2.454, 'time': 5.93, 'pitch': -1.51, 'roll': 4.08}
{'lipoC2': 7.76, 'temp': 23.56, 'lipoC3S3': 11.72, 'rot1': 44, 'rot0': 42, 'rot3': 7, 'rot2': 7, 'state': 'normal', 'yaw': -0.45, 'datetime': '2018-10-12 14:08:54.821767', 'mgs': 0, 'depth': 2.454, 'time': 6.03, 'pitch': -1.32, 'roll': 3.08}
{'lipoC2': 7.77, 'temp': 23.63, 'lipoC3S3': 11.61, 'rot1': 44, 'rot0': 42, 'rot3': 8, 'rot2': 7, 'state': 'normal', 'yaw': 0.09, 'datetime': '2018-10-12 14:08:54.920107', 'mgs': 0, 'depth': 2.301, 'time': 6.13, 'pitch': -1.1, 'roll': 1.68}
{'lipoC2': 7.77, 'temp': 23.63, 'lipoC3S3': 11.52, 'rot1': 44, 'rot0': 43, 'rot3': 8, 'rot2': 8, 'state': 'normal', 'yaw': 0.53, 'datetime': '2018-10-12 14:08:55.017914', 'mgs': 0, 'depth': 3.217, 'time': 6.22, 'pitch': -0.84, 'roll': -0.01}
{'lipoC2': 7.77, 'temp': 23.63, 'lipoC3S3': 11.51, 'rot1': 46, 'rot0': 44, 'rot3': 9, 'rot2': 9, 'state': 'normal', 'yaw': 0.79, 'datetime': '2018-10-12 14:08:55.114349', 'mgs': 0, 'depth': 4.132, 'time': 6.32, 'pitch': -0.54, 'roll': -0.9}
{'lipoC2': 7.77, 'temp': 23.63, 'lipoC3S3': 11.43, 'rot1': 47, 'rot0': 46, 'rot3': 9, 'rot2': 9, 'state': 'normal', 'yaw': 0.84, 'datetime': '2018-10-12 14:08:55.212591', 'mgs': 0, 'depth': 2.454, 'time': 6.42, 'pitch': -0.18, 'roll': -0.72}
{'lipoC2': 7.77, 'temp': 23.63, 'lipoC3S3': 11.58, 'rot1': 48, 'rot0': 47, 'rot3': 10, 'rot2': 10, 'state': 'normal', 'yaw': 0.81, 'datetime': '2018-10-12 14:08:55.308699', 'mgs': 0, 'depth': 4.132, 'time': 6.52, 'pitch': 0.2, 'roll': 0.06}
{'lipoC2': 7.77, 'temp': 23.63, 'lipoC3S3': 11.42, 'rot1': 50, 'rot0': 49, 'rot3': 10, 'rot2': 10, 'state': 'normal', 'yaw': 0.65, 'datetime': '2018-10-12 14:08:55.408671', 'mgs': 0, 'depth': 2.835, 'time': 6.61, 'pitch': 0.53, 'roll': 1.0}
{'lipoC2': 7.77, 'temp': 23.63, 'lipoC3S3': 11.52, 'rot1': 51, 'rot0': 50, 'rot3': 10, 'rot2': 11, 'state': 'normal', 'yaw': 0.43, 'datetime': '2018-10-12 14:08:55.505964', 'mgs': 0, 'depth': 3.064, 'time': 6.71, 'pitch': 0.8, 'roll': 1.82}
{'lipoC2': 7.77, 'temp': 23.63, 'lipoC3S3': 11.43, 'rot1': 53, 'rot0': 52, 'rot3': 11, 'rot2': 12, 'state': 'normal', 'yaw': 0.14, 'datetime': '2018-10-12 14:08:55.603937', 'mgs': 0, 'depth': 2.759, 'time': 6.81, 'pitch': 1.06, 'roll': 2.48}
{'lipoC2': 7.77, 'temp': 23.63, 'lipoC3S3': 11.56, 'rot1': 54, 'rot0': 53, 'rot3': 11, 'rot2': 12, 'state': 'normal', 'yaw': -0.21, 'datetime': '2018-10-12 14:08:55.701447', 'mgs': 0, 'depth': 3.14, 'time': 6.91, 'pitch': 1.24, 'roll': 3.27}
{'lipoC2': 7.76, 'temp': 23.63, 'lipoC3S3': 11.5, 'rot1': 56, 'rot0': 55, 'rot3': 12, 'rot2': 13, 'state': 'normal', 'yaw': -0.63, 'datetime': '2018-10-12 14:08:55.798957', 'mgs': 0, 'depth': 3.979, 'time': 7.0, 'pitch': 1.3, 'roll': 4.29}
{'lipoC2': 7.77, 'temp': 23.38, 'lipoC3S3': 11.43, 'rot1': 57, 'rot0': 56, 'rot3': 13, 'rot2': 14, 'state': 'normal', 'yaw': -1.02, 'datetime': '2018-10-12 14:08:55.896136', 'mgs': 0, 'depth': 3.14, 'time': 7.1, 'pitch': 1.32, 'roll': 5.5}
{'lipoC2': 7.77, 'temp': 23.38, 'lipoC3S3': 11.55, 'rot1': 59, 'rot0': 58, 'rot3': 13, 'rot2': 14, 'state': 'normal', 'yaw': -1.29, 'datetime': '2018-10-12 14:08:55.993804', 'mgs': 0, 'depth': 3.369, 'time': 7.2, 'pitch': 1.25, 'roll': 6.54}
{'lipoC2': 7.78, 'temp': 23.69, 'lipoC3S3': 11.23, 'rot1': 60, 'rot0': 59, 'rot3': 13, 'rot2': 15, 'state': 'normal', 'yaw': -1.57, 'datetime': '2018-10-12 14:08:56.091084', 'mgs': 0, 'depth': 3.827, 'time': 7.3, 'pitch': 1.13, 'roll': 7.54}
{'lipoC2': 7.77, 'temp': 23.69, 'lipoC3S3': 11.51, 'rot1': 61, 'rot0': 61, 'rot3': 14, 'rot2': 15, 'state': 'normal', 'yaw': -1.89, 'datetime': '2018-10-12 14:08:56.188375', 'mgs': 0, 'depth': 3.293, 'time': 7.39, 'pitch': 1.06, 'roll': 8.43}
{'lipoC2': 7.77, 'temp': 23.69, 'lipoC3S3': 11.56, 'rot1': 63, 'rot0': 62, 'rot3': 14, 'rot2': 16, 'state': 'normal', 'yaw': -2.0, 'datetime': '2018-10-12 14:08:56.285856', 'mgs': 0, 'depth': 4.514, 'time': 7.49, 'pitch': 1.06, 'roll': 9.09}
{'lipoC2': 7.78, 'temp': 24.0, 'lipoC3S3': 11.43, 'rot1': 64, 'rot0': 63, 'rot3': 15, 'rot2': 17, 'state': 'normal', 'yaw': -1.86, 'datetime': '2018-10-12 14:08:56.383201', 'mgs': 0, 'depth': 3.674, 'time': 7.59, 'pitch': 1.06, 'roll': 9.37}
{'lipoC2': 7.77, 'temp': 24.0, 'lipoC3S3': 11.56, 'rot1': 66, 'rot0': 64, 'rot3': 15, 'rot2': 17, 'state': 'normal', 'yaw': -1.5, 'datetime': '2018-10-12 14:08:56.480575', 'mgs': 0, 'depth': 3.445, 'time': 7.69, 'pitch': 1.01, 'roll': 9.36}
{'lipoC2': 7.76, 'temp': 23.63, 'lipoC3S3': 11.56, 'rot1': 67, 'rot0': 65, 'rot3': 16, 'rot2': 18, 'state': 'normal', 'yaw': -0.95, 'datetime': '2018-10-12 14:08:56.577954', 'mgs': 0, 'depth': 4.819, 'time': 7.78, 'pitch': 0.94, 'roll': 9.04}
{'lipoC2': 7.77, 'temp': 23.63, 'lipoC3S3': 11.42, 'rot1': 68, 'rot0': 66, 'rot3': 16, 'rot2': 18, 'state': 'normal', 'yaw': -0.32, 'datetime': '2018-10-12 14:08:56.676236', 'mgs': 0, 'depth': 3.522, 'time': 7.88, 'pitch': 0.87, 'roll': 8.58}
{'lipoC2': 7.77, 'temp': 23.63, 'lipoC3S3': 11.4, 'rot1': 70, 'rot0': 68, 'rot3': 17, 'rot2': 19, 'state': 'normal', 'yaw': 0.5, 'datetime': '2018-10-12 14:08:56.774912', 'mgs': 0, 'depth': 3.445, 'time': 7.98, 'pitch': 0.82, 'roll': 8.04}
{'lipoC2': 7.77, 'temp': 23.63, 'lipoC3S3': 11.38, 'rot1': 71, 'rot0': 69, 'rot3': 17, 'rot2': 19, 'state': 'normal', 'yaw': 1.09, 'datetime': '2018-10-12 14:08:56.873851', 'mgs': 0, 'depth': 3.522, 'time': 8.08, 'pitch': 0.74, 'roll': 7.58}
{'lipoC2': 7.76, 'temp': 23.63, 'lipoC3S3': 11.55, 'rot1': 73, 'rot0': 71, 'rot3': 18, 'rot2': 20, 'state': 'normal', 'yaw': 1.45, 'datetime': '2018-10-12 14:08:56.971108', 'mgs': 0, 'depth': 3.903, 'time': 8.18, 'pitch': 0.68, 'roll': 7.17}
{'lipoC2': 7.77, 'temp': 23.63, 'lipoC3S3': 11.48, 'rot1': 74, 'rot0': 72, 'rot3': 18, 'rot2': 21, 'state': 'normal', 'yaw': 1.63, 'datetime': '2018-10-12 14:08:57.068628', 'mgs': 0, 'depth': 4.514, 'time': 8.27, 'pitch': 0.66, 'roll': 6.74}
{'lipoC2': 7.76, 'temp': 23.63, 'lipoC3S3': 11.51, 'rot1': 75, 'rot0': 74, 'rot3': 20, 'rot2': 22, 'state': 'normal', 'yaw': 1.4, 'datetime': '2018-10-12 14:08:57.166704', 'mgs': 0, 'depth': 3.827, 'time': 8.37, 'pitch': 0.74, 'roll': 6.3}
{'lipoC2': 7.76, 'temp': 23.63, 'lipoC3S3': 11.54, 'rot1': 76, 'rot0': 76, 'rot3': 20, 'rot2': 23, 'state': 'normal', 'yaw': 0.68, 'datetime': '2018-10-12 14:08:57.265484', 'mgs': 0, 'depth': 3.827, 'time': 8.47, 'pitch': 0.83, 'roll': 5.81}
{'lipoC2': 7.78, 'temp': 23.63, 'lipoC3S3': 11.46, 'rot1': 78, 'rot0': 77, 'rot3': 21, 'rot2': 23, 'state': 'normal', 'yaw': -0.31, 'datetime': '2018-10-12 14:08:57.363777', 'mgs': 0, 'depth': 4.666, 'time': 8.57, 'pitch': 0.93, 'roll': 5.3}
{'lipoC2': 7.77, 'temp': 23.63, 'lipoC3S3': 11.42, 'rot1': 79, 'rot0': 79, 'rot3': 21, 'rot2': 24, 'state': 'normal', 'yaw': -1.18, 'datetime': '2018-10-12 14:08:57.461174', 'mgs': 0, 'depth': 3.598, 'time': 8.67, 'pitch': 1.01, 'roll': 4.85}
{'lipoC2': 7.77, 'temp': 23.63, 'lipoC3S3': 11.54, 'rot1': 80, 'rot0': 81, 'rot3': 22, 'rot2': 25, 'state': 'normal', 'yaw': -1.91, 'datetime': '2018-10-12 14:08:57.558608', 'mgs': 0, 'depth': 5.276, 'time': 8.77, 'pitch': 1.06, 'roll': 4.56}
{'lipoC2': 7.77, 'temp': 23.63, 'lipoC3S3': 11.56, 'rot1': 82, 'rot0': 82, 'rot3': 22, 'rot2': 25, 'state': 'normal', 'yaw': -2.52, 'datetime': '2018-10-12 14:08:57.657255', 'mgs': 0, 'depth': 3.522, 'time': 8.86, 'pitch': 1.11, 'roll': 4.42}
{'lipoC2': 7.77, 'temp': 23.63, 'lipoC3S3': 11.6, 'rot1': 82, 'rot0': 83, 'rot3': 23, 'rot2': 26, 'state': 'normal', 'yaw': -2.9, 'datetime': '2018-10-12 14:09:01.711846', 'mgs': 0, 'depth': 3.979, 'time': 8.96, 'pitch': 1.13, 'roll': 4.25}
{'lipoC2': 7.77, 'temp': 23.69, 'lipoC3S3': 11.6, 'rot1': 83, 'rot0': 83, 'rot3': 24, 'rot2': 27, 'state': 'normal', 'yaw': -3.21, 'datetime': '2018-10-12 14:09:01.729765', 'mgs': 0, 'depth': 3.598, 'time': 9.06, 'pitch': 0.94, 'roll': 3.52}
{'lipoC2': 7.76, 'temp': 23.69, 'lipoC3S3': 11.64, 'rot1': 83, 'rot0': 83, 'rot3': 24, 'rot2': 27, 'state': 'normal', 'yaw': -3.51, 'datetime': '2018-10-12 14:09:01.761723', 'mgs': 0, 'depth': 3.903, 'time': 9.16, 'pitch': 0.59, 'roll': 2.51}
{'lipoC2': 7.77, 'temp': 23.63, 'lipoC3S3': 11.64, 'rot1': 83, 'rot0': 83, 'rot3': 25, 'rot2': 28, 'state': 'normal', 'yaw': -3.8, 'datetime': '2018-10-12 14:09:01.779727', 'mgs': 0, 'depth': 3.827, 'time': 9.26, 'pitch': 0.18, 'roll': 1.46}
{'lipoC2': 7.77, 'temp': 23.63, 'lipoC3S3': 11.61, 'rot1': 83, 'rot0': 83, 'rot3': 25, 'rot2': 29, 'state': 'normal', 'yaw': -4.13, 'datetime': '2018-10-12 14:09:01.811613', 'mgs': 0, 'depth': 3.522, 'time': 9.35, 'pitch': -0.33, 'roll': 0.25}
{'lipoC2': 7.77, 'temp': 23.63, 'lipoC3S3': 11.65, 'rot1': 83, 'rot0': 83, 'rot3': 26, 'rot2': 29, 'state': 'normal', 'yaw': -4.42, 'datetime': '2018-10-12 14:09:01.829660', 'mgs': 0, 'depth': 3.751, 'time': 9.45, 'pitch': -0.84, 'roll': -1.0}
{'lipoC2': 7.77, 'temp': 23.63, 'lipoC3S3': 11.6, 'rot1': 83, 'rot0': 83, 'rot3': 26, 'rot2': 30, 'state': 'normal', 'yaw': -4.68, 'datetime': '2018-10-12 14:09:01.854329', 'mgs': 0, 'depth': 3.522, 'time': 9.55, 'pitch': -1.3, 'roll': -2.24}
{'lipoC2': 7.77, 'temp': 23.63, 'lipoC3S3': 11.64, 'rot1': 83, 'rot0': 83, 'rot3': 26, 'rot2': 30, 'state': 'normal', 'yaw': -4.89, 'datetime': '2018-10-12 14:09:01.862190', 'mgs': 0, 'depth': 3.369, 'time': 9.65, 'pitch': -1.67, 'roll': -3.28}
{'lipoC2': 7.77, 'temp': 23.63, 'lipoC3S3': 11.65, 'rot1': 83, 'rot0': 83, 'rot3': 27, 'rot2': 31, 'state': 'normal', 'yaw': -5.13, 'datetime': '2018-10-12 14:09:01.881441', 'mgs': 0, 'depth': 3.598, 'time': 9.74, 'pitch': -1.96, 'roll': -4.3}
{'lipoC2': 7.77, 'temp': 23.63, 'lipoC3S3': 11.61, 'rot1': 83, 'rot0': 83, 'rot3': 27, 'rot2': 32, 'state': 'normal', 'yaw': -5.39, 'datetime': '2018-10-12 14:09:01.889237', 'mgs': 0, 'depth': 3.064, 'time': 9.84, 'pitch': -2.14, 'roll': -5.1}
{'lipoC2': 7.77, 'temp': 23.63, 'lipoC3S3': 11.6, 'rot1': 83, 'rot0': 83, 'rot3': 28, 'rot2': 32, 'state': 'normal', 'yaw': -5.63, 'datetime': '2018-10-12 14:09:01.908438', 'mgs': 0, 'depth': 3.293, 'time': 9.94, 'pitch': -2.24, 'roll': -5.6}
{'lipoC2': 7.77, 'temp': 23.63, 'lipoC3S3': 11.61, 'rot1': 83, 'rot0': 83, 'rot3': 28, 'rot2': 33, 'state': 'normal', 'yaw': -5.89, 'datetime': '2018-10-12 14:09:01.916274', 'mgs': 0, 'depth': 3.217, 'time': 10.04, 'pitch': -2.28, 'roll': -5.78}
{'lipoC2': 7.76, 'temp': 23.63, 'lipoC3S3': 11.6, 'rot1': 83, 'rot0': 83, 'rot3': 29, 'rot2': 33, 'state': 'normal', 'yaw': -6.16, 'datetime': '2018-10-12 14:09:01.935508', 'mgs': 0, 'depth': 3.14, 'time': 10.14, 'pitch': -2.31, 'roll': -5.77}
{'lipoC2': 7.77, 'temp': 23.63, 'lipoC3S3': 11.63, 'rot1': 83, 'rot0': 83, 'rot3': 29, 'rot2': 34, 'state': 'normal', 'yaw': -6.43, 'datetime': '2018-10-12 14:09:01.943515', 'mgs': 0, 'depth': 2.988, 'time': 10.23, 'pitch': -2.34, 'roll': -5.63}
{'lipoC2': 7.77, 'temp': 23.63, 'lipoC3S3': 11.65, 'rot1': 83, 'rot0': 83, 'rot3': 29, 'rot2': 35, 'state': 'normal', 'yaw': -6.7, 'datetime': '2018-10-12 14:09:01.962791', 'mgs': 0, 'depth': 3.217, 'time': 10.33, 'pitch': -2.36, 'roll': -5.46}
{'lipoC2': 7.77, 'temp': 23.63, 'lipoC3S3': 11.65, 'rot1': 83, 'rot0': 83, 'rot3': 30, 'rot2': 35, 'state': 'normal', 'yaw': -6.94, 'datetime': '2018-10-12 14:09:01.970644', 'mgs': 0, 'depth': 2.759, 'time': 10.43, 'pitch': -2.38, 'roll': -5.22}
{'lipoC2': 7.77, 'temp': 23.63, 'lipoC3S3': 11.64, 'rot1': 83, 'rot0': 83, 'rot3': 30, 'rot2': 36, 'state': 'normal', 'yaw': -7.17, 'datetime': '2018-10-12 14:09:01.989854', 'mgs': 0, 'depth': 2.835, 'time': 10.53, 'pitch': -2.4, 'roll': -4.77}
{'lipoC2': 7.77, 'temp': 23.63, 'lipoC3S3': 11.64, 'rot1': 83, 'rot0': 83, 'rot3': 31, 'rot2': 37, 'state': 'normal', 'yaw': -7.39, 'datetime': '2018-10-12 14:09:01.997691', 'mgs': 0, 'depth': 2.682, 'time': 10.63, 'pitch': -2.41, 'roll': -4.03}
{'lipoC2': 7.76, 'temp': 23.63, 'lipoC3S3': 11.65, 'rot1': 83, 'rot0': 83, 'rot3': 31, 'rot2': 37, 'state': 'normal', 'yaw': -7.59, 'datetime': '2018-10-12 14:09:02.016935', 'mgs': 0, 'depth': 2.988, 'time': 10.73, 'pitch': -2.31, 'roll': -3.04}
{'lipoC2': 7.77, 'temp': 23.63, 'lipoC3S3': 11.61, 'rot1': 83, 'rot0': 83, 'rot3': 32, 'rot2': 38, 'state': 'normal', 'yaw': -7.8, 'datetime': '2018-10-12 14:09:02.024784', 'mgs': 0, 'depth': 2.682, 'time': 10.82, 'pitch': -2.13, 'roll': -1.97}
{'lipoC2': 7.76, 'temp': 23.63, 'lipoC3S3': 11.65, 'rot1': 83, 'rot0': 83, 'rot3': 32, 'rot2': 38, 'state': 'normal', 'yaw': -7.96, 'datetime': '2018-10-12 14:09:02.044017', 'mgs': 0, 'depth': 2.911, 'time': 10.92, 'pitch': -1.95, 'roll': -1.16}
{'lipoC2': 7.76, 'temp': 23.63, 'lipoC3S3': 11.64, 'rot1': 83, 'rot0': 83, 'rot3': 33, 'rot2': 39, 'state': 'normal', 'yaw': -8.09, 'datetime': '2018-10-12 14:09:02.051890', 'mgs': 0, 'depth': 2.53, 'time': 11.02, 'pitch': -1.77, 'roll': -0.6}
{'lipoC2': 7.77, 'temp': 23.63, 'lipoC3S3': 11.65, 'rot1': 83, 'rot0': 83, 'rot3': 33, 'rot2': 40, 'state': 'normal', 'yaw': -8.22, 'datetime': '2018-10-12 14:09:02.071169', 'mgs': 0, 'depth': 2.682, 'time': 11.12, 'pitch': -1.69, 'roll': -0.36}
{'lipoC2': 7.77, 'temp': 23.63, 'lipoC3S3': 11.63, 'rot1': 83, 'rot0': 83, 'rot3': 33, 'rot2': 40, 'state': 'normal', 'yaw': -8.32, 'datetime': '2018-10-12 14:09:02.079000', 'mgs': 0, 'depth': 2.377, 'time': 11.21, 'pitch': -1.7, 'roll': -0.26}
{'lipoC2': 7.77, 'temp': 23.63, 'lipoC3S3': 11.65, 'rot1': 83, 'rot0': 83, 'rot3': 34, 'rot2': 41, 'state': 'normal', 'yaw': -8.37, 'datetime': '2018-10-12 14:09:02.097964', 'mgs': 0, 'depth': 2.53, 'time': 11.31, 'pitch': -1.76, 'roll': -0.17}
{'lipoC2': 7.77, 'temp': 23.81, 'lipoC3S3': 11.64, 'rot1': 83, 'rot0': 83, 'rot3': 34, 'rot2': 41, 'state': 'normal', 'yaw': -8.36, 'datetime': '2018-10-12 14:09:02.105381', 'mgs': 0, 'depth': 2.606, 'time': 11.41, 'pitch': -1.79, 'roll': -0.07}
{'lipoC2': 7.77, 'temp': 23.81, 'lipoC3S3': 11.63, 'rot1': 83, 'rot0': 83, 'rot3': 35, 'rot2': 42, 'state': 'normal', 'yaw': -8.37, 'datetime': '2018-10-12 14:09:02.124193', 'mgs': 0, 'depth': 2.148, 'time': 11.51, 'pitch': -1.73, 'roll': 0.03}
{'lipoC2': 7.77, 'temp': 23.81, 'lipoC3S3': 11.65, 'rot1': 83, 'rot0': 83, 'rot3': 35, 'rot2': 43, 'state': 'normal', 'yaw': -8.4, 'datetime': '2018-10-12 14:09:02.131621', 'mgs': 0, 'depth': 2.53, 'time': 11.61, 'pitch': -1.47, 'roll': 0.05}
{'lipoC2': 7.77, 'temp': 23.63, 'lipoC3S3': 11.65, 'rot1': 83, 'rot0': 83, 'rot3': 36, 'rot2': 43, 'state': 'normal', 'yaw': -8.41, 'datetime': '2018-10-12 14:09:02.150437', 'mgs': 0, 'depth': 2.301, 'time': 11.7, 'pitch': -1.08, 'roll': -0.02}
{'lipoC2': 7.77, 'temp': 23.63, 'lipoC3S3': 11.63, 'rot1': 83, 'rot0': 83, 'rot3': 36, 'rot2': 44, 'state': 'normal', 'yaw': -8.42, 'datetime': '2018-10-12 14:09:02.157850', 'mgs': 0, 'depth': 1.996, 'time': 11.8, 'pitch': -0.5, 'roll': -0.3}
{'lipoC2': 7.77, 'temp': 23.69, 'lipoC3S3': 11.67, 'rot1': 83, 'rot0': 83, 'rot3': 37, 'rot2': 44, 'state': 'normal', 'yaw': -8.42, 'datetime': '2018-10-12 14:09:02.176791', 'mgs': 0, 'depth': 1.996, 'time': 11.9, 'pitch': -0.03, 'roll': -0.71}
{'lipoC2': 7.77, 'temp': 23.69, 'lipoC3S3': 11.65, 'rot1': 83, 'rot0': 83, 'rot3': 37, 'rot2': 45, 'state': 'normal', 'yaw': -8.42, 'datetime': '2018-10-12 14:09:02.184239', 'mgs': 0, 'depth': 2.148, 'time': 12.0, 'pitch': 0.09, 'roll': -1.22}
{'lipoC2': 7.76, 'temp': 23.69, 'lipoC3S3': 11.65, 'rot1': 83, 'rot0': 83, 'rot3': 38, 'rot2': 46, 'state': 'normal', 'yaw': -8.41, 'datetime': '2018-10-12 14:09:02.203048', 'mgs': 0, 'depth': 1.92, 'time': 12.09, 'pitch': -0.17, 'roll': -1.74}
{'lipoC2': 7.77, 'temp': 23.63, 'lipoC3S3': 11.64, 'rot1': 83, 'rot0': 83, 'rot3': 38, 'rot2': 46, 'state': 'normal', 'yaw': -8.4, 'datetime': '2018-10-12 14:09:02.210467', 'mgs': 0, 'depth': 1.92, 'time': 12.19, 'pitch': -0.81, 'roll': -2.29}
{'lipoC2': 7.77, 'temp': 23.63, 'lipoC3S3': 11.67, 'rot1': 83, 'rot0': 83, 'rot3': 39, 'rot2': 47, 'state': 'normal', 'yaw': -8.36, 'datetime': '2018-10-12 14:09:02.229207', 'mgs': 0, 'depth': 1.843, 'time': 12.29, 'pitch': -1.52, 'roll': -2.76}
{'lipoC2': 7.77, 'temp': 23.69, 'lipoC3S3': 11.67, 'rot1': 83, 'rot0': 83, 'rot3': 39, 'rot2': 48, 'state': 'normal', 'yaw': -8.34, 'datetime': '2018-10-12 14:09:02.236658', 'mgs': 0, 'depth': 2.148, 'time': 12.39, 'pitch': -2.03, 'roll': -3.2}
{'lipoC2': 7.77, 'temp': 23.69, 'lipoC3S3': 11.63, 'rot1': 83, 'rot0': 83, 'rot3': 39, 'rot2': 48, 'state': 'normal', 'yaw': -8.33, 'datetime': '2018-10-12 14:09:02.255498', 'mgs': 0, 'depth': 1.92, 'time': 12.49, 'pitch': -2.26, 'roll': -3.69}
{'lipoC2': 7.77, 'temp': 23.69, 'lipoC3S3': 11.67, 'rot1': 83, 'rot0': 83, 'rot3': 40, 'rot2': 49, 'state': 'normal', 'yaw': -8.33, 'datetime': '2018-10-12 14:09:02.262922', 'mgs': 0, 'depth': 2.225, 'time': 12.58, 'pitch': -2.21, 'roll': -4.11}
{'lipoC2': 7.76, 'temp': 23.69, 'lipoC3S3': 11.67, 'rot1': 83, 'rot0': 83, 'rot3': 41, 'rot2': 50, 'state': 'normal', 'yaw': -8.3, 'datetime': '2018-10-12 14:09:02.281706', 'mgs': 0, 'depth': 2.225, 'time': 12.68, 'pitch': -1.94, 'roll': -4.46}
{'lipoC2': 7.77, 'temp': 23.69, 'lipoC3S3': 11.65, 'rot1': 83, 'rot0': 83, 'rot3': 41, 'rot2': 50, 'state': 'normal', 'yaw': -8.23, 'datetime': '2018-10-12 14:09:02.289099', 'mgs': 0, 'depth': 1.92, 'time': 12.78, 'pitch': -1.59, 'roll': -4.55}
{'lipoC2': 7.76, 'temp': 23.69, 'lipoC3S3': 11.65, 'rot1': 83, 'rot0': 83, 'rot3': 42, 'rot2': 51, 'state': 'normal', 'yaw': -8.22, 'datetime': '2018-10-12 14:09:02.307857', 'mgs': 0, 'depth': 2.301, 'time': 12.88, 'pitch': -1.34, 'roll': -4.32}
{'lipoC2': 7.77, 'temp': 23.69, 'lipoC3S3': 11.58, 'rot1': 83, 'rot0': 83, 'rot3': 42, 'rot2': 51, 'state': 'normal', 'yaw': -8.23, 'datetime': '2018-10-12 14:09:02.315275', 'mgs': 0, 'depth': 2.53, 'time': 12.98, 'pitch': -1.3, 'roll': -3.83}
{'lipoC2': 7.77, 'temp': 23.69, 'lipoC3S3': 11.63, 'rot1': 83, 'rot0': 83, 'rot3': 42, 'rot2': 52, 'state': 'normal', 'yaw': -8.12, 'datetime': '2018-10-12 14:09:02.334178', 'mgs': 0, 'depth': 1.767, 'time': 13.08, 'pitch': -1.31, 'roll': -3.38}
{'lipoC2': 7.77, 'temp': 23.63, 'lipoC3S3': 11.61, 'rot1': 84, 'rot0': 84, 'rot3': 43, 'rot2': 52, 'state': 'normal', 'yaw': -7.32, 'datetime': '2018-10-12 14:09:02.341638', 'mgs': 0, 'depth': 1.996, 'time': 13.17, 'pitch': -1.25, 'roll': -2.99}
{'lipoC2': 7.77, 'temp': 23.63, 'lipoC3S3': 11.65, 'rot1': 85, 'rot0': 85, 'rot3': 43, 'rot2': 53, 'state': 'normal', 'yaw': -5.94, 'datetime': '2018-10-12 14:09:02.360434', 'mgs': 0, 'depth': 1.92, 'time': 13.27, 'pitch': -1.09, 'roll': -2.69}
{'lipoC2': 7.77, 'temp': 23.63, 'lipoC3S3': 11.64, 'rot1': 86, 'rot0': 86, 'rot3': 44, 'rot2': 54, 'state': 'normal', 'yaw': -4.11, 'datetime': '2018-10-12 14:09:02.367849', 'mgs': 0, 'depth': 2.454, 'time': 13.37, 'pitch': -0.75, 'roll': -2.5}
{'lipoC2': 7.77, 'temp': 23.63, 'lipoC3S3': 11.64, 'rot1': 86, 'rot0': 86, 'rot3': 44, 'rot2': 54, 'state': 'normal', 'yaw': -2.18, 'datetime': '2018-10-12 14:09:02.386650', 'mgs': 0, 'depth': 2.072, 'time': 13.47, 'pitch': -0.34, 'roll': -2.37}
{'lipoC2': 7.76, 'temp': 23.63, 'lipoC3S3': 11.63, 'rot1': 87, 'rot0': 87, 'rot3': 44, 'rot2': 54, 'state': 'normal', 'yaw': 0.22, 'datetime': '2018-10-12 14:09:02.400301', 'mgs': 0, 'depth': 2.53, 'time': 13.56, 'pitch': 0.2, 'roll': -2.2}
{'lipoC2': 7.78, 'temp': 23.56, 'lipoC3S3': 11.59, 'rot1': 88, 'rot0': 88, 'rot3': 44, 'rot2': 54, 'state': 'normal', 'yaw': 2.97, 'datetime': '2018-10-12 14:09:02.443726', 'mgs': 0, 'depth': 2.072, 'time': 13.66, 'pitch': 0.66, 'roll': -2.05}
{'lipoC2': 7.76, 'temp': 23.56, 'lipoC3S3': 11.58, 'rot1': 89, 'rot0': 89, 'rot3': 45, 'rot2': 55, 'state': 'normal', 'yaw': 5.71, 'datetime': '2018-10-12 14:09:02.541281', 'mgs': 0, 'depth': 2.072, 'time': 13.76, 'pitch': 0.91, 'roll': -1.91}
{'lipoC2': 7.77, 'temp': 23.56, 'lipoC3S3': 11.68, 'rot1': 90, 'rot0': 90, 'rot3': 45, 'rot2': 55, 'state': 'normal', 'yaw': 9.09, 'datetime': '2018-10-12 14:09:02.638678', 'mgs': 0, 'depth': 2.072, 'time': 13.86, 'pitch': 0.99, 'roll': -1.76}
{'lipoC2': 7.77, 'temp': 23.56, 'lipoC3S3': 11.67, 'rot1': 91, 'rot0': 90, 'rot3': 45, 'rot2': 55, 'state': 'normal', 'yaw': 12.73, 'datetime': '2018-10-12 14:09:02.736076', 'mgs': 0, 'depth': 2.072, 'time': 13.95, 'pitch': 0.98, 'roll': -1.85}
{'lipoC2': 7.76, 'temp': 23.56, 'lipoC3S3': 11.68, 'rot1': 91, 'rot0': 91, 'rot3': 45, 'rot2': 55, 'state': 'normal', 'yaw': 16.58, 'datetime': '2018-10-12 14:09:02.833517', 'mgs': 0, 'depth': 2.072, 'time': 14.05, 'pitch': 0.99, 'roll': -2.17}
{'lipoC2': 7.77, 'temp': 23.63, 'lipoC3S3': 11.68, 'rot1': 92, 'rot0': 92, 'rot3': 45, 'rot2': 55, 'state': 'normal', 'yaw': 20.19, 'datetime': '2018-10-12 14:09:02.931934', 'mgs': 0, 'depth': 2.072, 'time': 14.15, 'pitch': 1.1, 'roll': -2.43}
{'lipoC2': 7.77, 'temp': 23.63, 'lipoC3S3': 11.68, 'rot1': 93, 'rot0': 93, 'rot3': 45, 'rot2': 55, 'state': 'normal', 'yaw': 24.37, 'datetime': '2018-10-12 14:09:03.030652', 'mgs': 0, 'depth': 2.148, 'time': 14.25, 'pitch': 1.28, 'roll': -2.46}
{'lipoC2': 7.77, 'temp': 23.63, 'lipoC3S3': 11.63, 'rot1': 94, 'rot0': 94, 'rot3': 45, 'rot2': 55, 'state': 'normal', 'yaw': 28.7, 'datetime': '2018-10-12 14:09:03.128786', 'mgs': 0, 'depth': 2.148, 'time': 14.35, 'pitch': 1.52, 'roll': -2.23}
{'lipoC2': 7.77, 'temp': 23.63, 'lipoC3S3': 11.68, 'rot1': 95, 'rot0': 95, 'rot3': 45, 'rot2': 55, 'state': 'normal', 'yaw': 33.14, 'datetime': '2018-10-12 14:09:03.226217', 'mgs': 0, 'depth': 2.225, 'time': 14.44, 'pitch': 1.79, 'roll': -2.04}
{'lipoC2': 7.76, 'temp': 23.63, 'lipoC3S3': 11.67, 'rot1': 95, 'rot0': 96, 'rot3': 45, 'rot2': 55, 'state': 'normal', 'yaw': 37.65, 'datetime': '2018-10-12 14:09:03.326967', 'mgs': 0, 'depth': 2.454, 'time': 14.54, 'pitch': 2.03, 'roll': -2.03}
{'lipoC2': 7.77, 'temp': 23.63, 'lipoC3S3': 11.61, 'rot1': 96, 'rot0': 96, 'rot3': 45, 'rot2': 55, 'state': 'normal', 'yaw': 41.76, 'datetime': '2018-10-12 14:09:03.427287', 'mgs': 0, 'depth': 2.148, 'time': 14.64, 'pitch': 2.15, 'roll': -2.19}
{'lipoC2': 7.77, 'temp': 23.63, 'lipoC3S3': 11.63, 'rot1': 97, 'rot0': 97, 'rot3': 45, 'rot2': 56, 'state': 'normal', 'yaw': 46.37, 'datetime': '2018-10-12 14:09:03.525876', 'mgs': 0, 'depth': 2.225, 'time': 14.74, 'pitch': 2.09, 'roll': -2.38}
{'lipoC2': 7.77, 'temp': 23.63, 'lipoC3S3': 11.65, 'rot1': 98, 'rot0': 98, 'rot3': 46, 'rot2': 56, 'state': 'normal', 'yaw': 51.07, 'datetime': '2018-10-12 14:09:03.623508', 'mgs': 0, 'depth': 2.225, 'time': 14.84, 'pitch': 1.85, 'roll': -2.52}
{'lipoC2': 7.76, 'temp': 23.63, 'lipoC3S3': 11.67, 'rot1': 99, 'rot0': 99, 'rot3': 46, 'rot2': 56, 'state': 'normal', 'yaw': 55.8, 'datetime': '2018-10-12 14:09:03.720960', 'mgs': 0, 'depth': 2.377, 'time': 14.94, 'pitch': 1.63, 'roll': -2.72}
{'lipoC2': 7.77, 'temp': 23.63, 'lipoC3S3': 11.64, 'rot1': 100, 'rot0': 100, 'rot3': 46, 'rot2': 56, 'state': 'normal', 'yaw': 60.59, 'datetime': '2018-10-12 14:09:03.818825', 'mgs': 0, 'depth': 2.606, 'time': 15.03, 'pitch': 1.5, 'roll': -2.79}
{'lipoC2': 7.77, 'temp': 23.63, 'lipoC3S3': 11.65, 'rot1': 100, 'rot0': 100, 'rot3': 46, 'rot2': 57, 'state': 'normal', 'yaw': 64.95, 'datetime': '2018-10-12 14:09:03.917716', 'mgs': 0, 'depth': 2.148, 'time': 15.13, 'pitch': 1.48, 'roll': -2.51}
{'lipoC2': 7.77, 'temp': 23.63, 'lipoC3S3': 11.68, 'rot1': 101, 'rot0': 101, 'rot3': 46, 'rot2': 57, 'state': 'normal', 'yaw': 69.9, 'datetime': '2018-10-12 14:09:04.015332', 'mgs': 0, 'depth': 2.377, 'time': 15.23, 'pitch': 1.45, 'roll': -1.88}
{'lipoC2': 7.77, 'temp': 23.63, 'lipoC3S3': 11.67, 'rot1': 102, 'rot0': 102, 'rot3': 46, 'rot2': 57, 'state': 'normal', 'yaw': 74.87, 'datetime': '2018-10-12 14:09:04.112909', 'mgs': 0, 'depth': 2.835, 'time': 15.33, 'pitch': 1.36, 'roll': -1.42}
{'lipoC2': 7.77, 'temp': 23.63, 'lipoC3S3': 11.58, 'rot1': 103, 'rot0': 103, 'rot3': 46, 'rot2': 57, 'state': 'normal', 'yaw': 79.87, 'datetime': '2018-10-12 14:09:04.210533', 'mgs': 0, 'depth': 2.454, 'time': 15.42, 'pitch': 1.26, 'roll': -1.4}
{'lipoC2': 7.77, 'temp': 23.63, 'lipoC3S3': 11.55, 'rot1': 104, 'rot0': 104, 'rot3': 47, 'rot2': 58, 'state': 'normal', 'yaw': 84.38, 'datetime': '2018-10-12 14:09:04.308089', 'mgs': 0, 'depth': 2.377, 'time': 15.52, 'pitch': 1.21, 'roll': -1.64}
{'lipoC2': 7.77, 'temp': 23.63, 'lipoC3S3': 11.68, 'rot1': 104, 'rot0': 105, 'rot3': 47, 'rot2': 58, 'state': 'normal', 'yaw': 89.43, 'datetime': '2018-10-12 14:09:04.405717', 'mgs': 0, 'depth': 2.377, 'time': 15.62, 'pitch': 1.24, 'roll': -1.93}
{'lipoC2': 7.77, 'temp': 23.63, 'lipoC3S3': 11.65, 'rot1': 105, 'rot0': 105, 'rot3': 48, 'rot2': 59, 'state': 'normal', 'yaw': 94.45, 'datetime': '2018-10-12 14:09:04.503333', 'mgs': 0, 'depth': 2.377, 'time': 15.72, 'pitch': 1.32, 'roll': -2.11}
{'lipoC2': 7.76, 'temp': 23.69, 'lipoC3S3': 11.65, 'rot1': 106, 'rot0': 106, 'rot3': 48, 'rot2': 59, 'state': 'normal', 'yaw': 99.44, 'datetime': '2018-10-12 14:09:04.601085', 'mgs': 0, 'depth': 2.682, 'time': 15.81, 'pitch': 1.37, 'roll': -2.12}
{'lipoC2': 7.77, 'temp': 23.69, 'lipoC3S3': 11.64, 'rot1': 107, 'rot0': 107, 'rot3': 49, 'rot2': 60, 'state': 'normal', 'yaw': 103.93, 'datetime': '2018-10-12 14:09:04.698497', 'mgs': 0, 'depth': 2.301, 'time': 15.91, 'pitch': 1.37, 'roll': -2.01}
{'lipoC2': 7.76, 'temp': 23.69, 'lipoC3S3': 11.67, 'rot1': 108, 'rot0': 108, 'rot3': 49, 'rot2': 60, 'state': 'normal', 'yaw': 108.95, 'datetime': '2018-10-12 14:09:04.796247', 'mgs': 0, 'depth': 2.835, 'time': 16.01, 'pitch': 1.29, 'roll': -1.94}
{'lipoC2': 7.76, 'temp': 23.69, 'lipoC3S3': 11.71, 'rot1': 108, 'rot0': 108, 'rot3': 49, 'rot2': 60, 'state': 'normal', 'yaw': 113.98, 'datetime': '2018-10-12 14:09:04.893800', 'mgs': 0, 'depth': 2.454, 'time': 16.11, 'pitch': 1.19, 'roll': -2.1}
{'lipoC2': 7.77, 'temp': 23.69, 'lipoC3S3': 11.59, 'rot1': 108, 'rot0': 108, 'rot3': 49, 'rot2': 60, 'state': 'normal', 'yaw': 118.59, 'datetime': '2018-10-12 14:09:04.990688', 'mgs': 0, 'depth': 2.53, 'time': 16.2, 'pitch': 1.07, 'roll': -2.57}
{'lipoC2': 7.77, 'temp': 23.69, 'lipoC3S3': 11.6, 'rot1': 108, 'rot0': 108, 'rot3': 50, 'rot2': 61, 'state': 'normal', 'yaw': 122.42, 'datetime': '2018-10-12 14:09:05.089868', 'mgs': 0, 'depth': 2.454, 'time': 16.31, 'pitch': 1.03, 'roll': -3.31}
{'lipoC2': 7.77, 'temp': 23.69, 'lipoC3S3': 11.6, 'rot1': 108, 'rot0': 108, 'rot3': 50, 'rot2': 61, 'state': 'normal', 'yaw': 126.35, 'datetime': '2018-10-12 14:09:05.188823', 'mgs': 0, 'depth': 2.682, 'time': 16.4, 'pitch': 1.18, 'roll': -4.37}
{'lipoC2': 7.76, 'temp': 23.69, 'lipoC3S3': 11.63, 'rot1': 108, 'rot0': 108, 'rot3': 51, 'rot2': 62, 'state': 'normal', 'yaw': 129.99, 'datetime': '2018-10-12 14:09:05.287211', 'mgs': 0, 'depth': 2.759, 'time': 16.5, 'pitch': 1.35, 'roll': -5.44}
{'lipoC2': 7.77, 'temp': 23.69, 'lipoC3S3': 11.61, 'rot1': 108, 'rot0': 108, 'rot3': 51, 'rot2': 63, 'state': 'normal', 'yaw': 133.41, 'datetime': '2018-10-12 14:09:05.385673', 'mgs': 0, 'depth': 2.606, 'time': 16.6, 'pitch': 1.62, 'roll': -6.48}
{'lipoC2': 7.76, 'temp': 23.69, 'lipoC3S3': 11.64, 'rot1': 108, 'rot0': 108, 'rot3': 51, 'rot2': 63, 'state': 'normal', 'yaw': 136.62, 'datetime': '2018-10-12 14:09:05.483314', 'mgs': 0, 'depth': 2.606, 'time': 16.7, 'pitch': 1.89, 'roll': -7.42}
{'lipoC2': 7.77, 'temp': 23.56, 'lipoC3S3': 11.59, 'rot1': 108, 'rot0': 108, 'rot3': 52, 'rot2': 64, 'state': 'normal', 'yaw': 139.34, 'datetime': '2018-10-12 14:09:05.581586', 'mgs': 0, 'depth': 2.911, 'time': 16.8, 'pitch': 2.12, 'roll': -8.21}
{'lipoC2': 7.76, 'temp': 23.56, 'lipoC3S3': 11.65, 'rot1': 108, 'rot0': 108, 'rot3': 52, 'rot2': 65, 'state': 'normal', 'yaw': 142.22, 'datetime': '2018-10-12 14:09:05.678382', 'mgs': 0, 'depth': 2.911, 'time': 16.9, 'pitch': 2.3, 'roll': -8.96}
{'lipoC2': 7.77, 'temp': 23.63, 'lipoC3S3': 11.61, 'rot1': 108, 'rot0': 108, 'rot3': 53, 'rot2': 65, 'state': 'normal', 'yaw': 145.0, 'datetime': '2018-10-12 14:09:05.779486', 'mgs': 0, 'depth': 2.759, 'time': 17.0, 'pitch': 2.39, 'roll': -9.55}
{'lipoC2': 7.77, 'temp': 23.63, 'lipoC3S3': 11.65, 'rot1': 108, 'rot0': 108, 'rot3': 53, 'rot2': 66, 'state': 'normal', 'yaw': 147.63, 'datetime': '2018-10-12 14:09:05.877121', 'mgs': 0, 'depth': 2.988, 'time': 17.09, 'pitch': 2.36, 'roll': -10.03}
{'lipoC2': 7.76, 'temp': 23.63, 'lipoC3S3': 11.65, 'rot1': 108, 'rot0': 108, 'rot3': 54, 'rot2': 67, 'state': 'normal', 'yaw': 150.14, 'datetime': '2018-10-12 14:09:05.974772', 'mgs': 0, 'depth': 3.14, 'time': 17.19, 'pitch': 2.29, 'roll': -10.42}
{'lipoC2': 7.77, 'temp': 23.38, 'lipoC3S3': 11.64, 'rot1': 108, 'rot0': 108, 'rot3': 54, 'rot2': 67, 'state': 'normal', 'yaw': 152.54, 'datetime': '2018-10-12 14:09:06.072530', 'mgs': 0, 'depth': 3.064, 'time': 17.29, 'pitch': 2.17, 'roll': -10.72}
{'lipoC2': 7.76, 'temp': 23.38, 'lipoC3S3': 11.65, 'rot1': 108, 'rot0': 108, 'rot3': 55, 'rot2': 68, 'state': 'normal', 'yaw': 154.58, 'datetime': '2018-10-12 14:09:06.170090', 'mgs': 0, 'depth': 3.369, 'time': 17.39, 'pitch': 2.01, 'roll': -10.86}
{'lipoC2': 7.76, 'temp': 24.0, 'lipoC3S3': 11.64, 'rot1': 108, 'rot0': 108, 'rot3': 55, 'rot2': 69, 'state': 'normal', 'yaw': 156.73, 'datetime': '2018-10-12 14:09:06.267829', 'mgs': 0, 'depth': 3.522, 'time': 17.48, 'pitch': 1.79, 'roll': -10.82}
{'lipoC2': 7.77, 'temp': 24.0, 'lipoC3S3': 11.64, 'rot1': 108, 'rot0': 108, 'rot3': 56, 'rot2': 69, 'state': 'normal', 'yaw': 158.78, 'datetime': '2018-10-12 14:09:06.364698', 'mgs': 0, 'depth': 3.445, 'time': 17.58, 'pitch': 1.47, 'roll': -10.64}
{'lipoC2': 7.77, 'temp': 24.0, 'lipoC3S3': 11.65, 'rot1': 108, 'rot0': 108, 'rot3': 56, 'rot2': 70, 'state': 'normal', 'yaw': 160.71, 'datetime': '2018-10-12 14:09:06.463095', 'mgs': 0, 'depth': 3.522, 'time': 17.68, 'pitch': 1.14, 'roll': -10.31}
{'lipoC2': 7.77, 'temp': 23.38, 'lipoC3S3': 11.61, 'rot1': 108, 'rot0': 108, 'rot3': 57, 'rot2': 70, 'state': 'normal', 'yaw': 162.38, 'datetime': '2018-10-12 14:09:06.560781', 'mgs': 0, 'depth': 3.674, 'time': 17.78, 'pitch': 0.87, 'roll': -9.95}
{'lipoC2': 7.77, 'temp': 23.38, 'lipoC3S3': 11.63, 'rot1': 108, 'rot0': 108, 'rot3': 57, 'rot2': 71, 'state': 'normal', 'yaw': 164.16, 'datetime': '2018-10-12 14:09:06.658376', 'mgs': 0, 'depth': 3.598, 'time': 17.87, 'pitch': 0.64, 'roll': -9.57}
{'lipoC2': 7.77, 'temp': 24.0, 'lipoC3S3': 11.63, 'rot1': 108, 'rot0': 108, 'rot3': 58, 'rot2': 72, 'state': 'normal', 'yaw': 165.83, 'datetime': '2018-10-12 14:09:06.755962', 'mgs': 0, 'depth': 3.674, 'time': 17.97, 'pitch': 0.48, 'roll': -9.26}
{'lipoC2': 7.77, 'temp': 24.0, 'lipoC3S3': 11.61, 'rot1': 108, 'rot0': 108, 'rot3': 58, 'rot2': 72, 'state': 'normal', 'yaw': 167.42, 'datetime': '2018-10-12 14:09:06.854014', 'mgs': 0, 'depth': 3.674, 'time': 18.07, 'pitch': 0.37, 'roll': -8.97}
{'lipoC2': 7.77, 'temp': 24.0, 'lipoC3S3': 11.64, 'rot1': 108, 'rot0': 108, 'rot3': 59, 'rot2': 73, 'state': 'normal', 'yaw': 168.76, 'datetime': '2018-10-12 14:09:06.951472', 'mgs': 0, 'depth': 3.827, 'time': 18.17, 'pitch': 0.32, 'roll': -8.74}
{'lipoC2': 7.77, 'temp': 23.63, 'lipoC3S3': 11.65, 'rot1': 108, 'rot0': 108, 'rot3': 59, 'rot2': 73, 'state': 'normal', 'yaw': 170.18, 'datetime': '2018-10-12 14:09:07.048970', 'mgs': 0, 'depth': 3.903, 'time': 18.27, 'pitch': 0.29, 'roll': -8.5}
{'lipoC2': 7.77, 'temp': 23.63, 'lipoC3S3': 11.65, 'rot1': 108, 'rot0': 108, 'rot3': 60, 'rot2': 74, 'state': 'normal', 'yaw': 171.51, 'datetime': '2018-10-12 14:09:07.146676', 'mgs': 0, 'depth': 4.285, 'time': 18.36, 'pitch': 0.28, 'roll': -8.28}
{'lipoC2': 7.77, 'temp': 23.69, 'lipoC3S3': 11.63, 'rot1': 108, 'rot0': 108, 'rot3': 60, 'rot2': 75, 'state': 'normal', 'yaw': 172.7, 'datetime': '2018-10-12 14:09:07.244780', 'mgs': 0, 'depth': 4.056, 'time': 18.46, 'pitch': 0.28, 'roll': -8.08}
{'lipoC2': 7.77, 'temp': 23.69, 'lipoC3S3': 11.65, 'rot1': 108, 'rot0': 108, 'rot3': 60, 'rot2': 75, 'state': 'normal', 'yaw': 173.77, 'datetime': '2018-10-12 14:09:07.344139', 'mgs': 0, 'depth': 4.437, 'time': 18.56, 'pitch': 0.26, 'roll': -7.87}
{'lipoC2': 7.76, 'temp': 23.5, 'lipoC3S3': 11.65, 'rot1': 108, 'rot0': 108, 'rot3': 61, 'rot2': 76, 'state': 'normal', 'yaw': 174.89, 'datetime': '2018-10-12 14:09:07.442814', 'mgs': 0, 'depth': 3.979, 'time': 18.66, 'pitch': 0.23, 'roll': -7.67}
{'lipoC2': 7.77, 'temp': 23.5, 'lipoC3S3': 11.63, 'rot1': 108, 'rot0': 108, 'rot3': 62, 'rot2': 76, 'state': 'normal', 'yaw': 175.95, 'datetime': '2018-10-12 14:09:07.541025', 'mgs': 0, 'depth': 4.208, 'time': 18.76, 'pitch': 0.2, 'roll': -7.47}
{'lipoC2': 7.76, 'temp': 23.5, 'lipoC3S3': 11.63, 'rot1': 108, 'rot0': 108, 'rot3': 62, 'rot2': 77, 'state': 'normal', 'yaw': 176.97, 'datetime': '2018-10-12 14:09:07.638560', 'mgs': 0, 'depth': 4.437, 'time': 18.85, 'pitch': 0.2, 'roll': -7.32}
{'lipoC2': 7.77, 'temp': 23.75, 'lipoC3S3': 11.65, 'rot1': 108, 'rot0': 108, 'rot3': 62, 'rot2': 78, 'state': 'normal', 'yaw': 177.91, 'datetime': '2018-10-12 14:09:07.735311', 'mgs': 0, 'depth': 4.437, 'time': 18.95, 'pitch': 0.24, 'roll': -7.2}
{'lipoC2': 7.77, 'temp': 23.75, 'lipoC3S3': 11.65, 'rot1': 108, 'rot0': 108, 'rot3': 63, 'rot2': 78, 'state': 'normal', 'yaw': 178.72, 'datetime': '2018-10-12 14:09:07.834925', 'mgs': 0, 'depth': 4.514, 'time': 19.05, 'pitch': 0.27, 'roll': -7.18}
{'lipoC2': 7.77, 'temp': 23.69, 'lipoC3S3': 11.63, 'rot1': 108, 'rot0': 108, 'rot3': 63, 'rot2': 79, 'state': 'normal', 'yaw': 179.6, 'datetime': '2018-10-12 14:09:07.933974', 'mgs': 0, 'depth': 4.514, 'time': 19.15, 'pitch': 0.33, 'roll': -7.19}
{'lipoC2': 7.77, 'temp': 23.69, 'lipoC3S3': 11.61, 'rot1': 108, 'rot0': 108, 'rot3': 64, 'rot2': 79, 'state': 'normal', 'yaw': -179.59, 'datetime': '2018-10-12 14:09:08.032887', 'mgs': 0, 'depth': 4.666, 'time': 19.25, 'pitch': 0.41, 'roll': -7.25}
{'lipoC2': 7.77, 'temp': 23.69, 'lipoC3S3': 11.61, 'rot1': 108, 'rot0': 108, 'rot3': 64, 'rot2': 80, 'state': 'normal', 'yaw': -178.83, 'datetime': '2018-10-12 14:09:08.130578', 'mgs': 0, 'depth': 4.819, 'time': 19.35, 'pitch': 0.49, 'roll': -7.3}
{'lipoC2': 7.76, 'temp': 23.63, 'lipoC3S3': 11.63, 'rot1': 108, 'rot0': 108, 'rot3': 65, 'rot2': 80, 'state': 'normal', 'yaw': -178.11, 'datetime': '2018-10-12 14:09:08.228263', 'mgs': 0, 'depth': 4.819, 'time': 19.45, 'pitch': 0.54, 'roll': -7.32}
{'lipoC2': 7.76, 'temp': 23.63, 'lipoC3S3': 11.67, 'rot1': 108, 'rot0': 108, 'rot3': 65, 'rot2': 81, 'state': 'normal', 'yaw': -177.48, 'datetime': '2018-10-12 14:09:08.326479', 'mgs': 0, 'depth': 4.971, 'time': 19.55, 'pitch': 0.52, 'roll': -7.29}
{'lipoC2': 7.77, 'temp': 23.69, 'lipoC3S3': 11.67, 'rot1': 108, 'rot0': 108, 'rot3': 66, 'rot2': 82, 'state': 'normal', 'yaw': -176.79, 'datetime': '2018-10-12 14:09:08.424301', 'mgs': 0, 'depth': 4.742, 'time': 19.64, 'pitch': 0.47, 'roll': -7.26}
{'lipoC2': 7.76, 'temp': 23.69, 'lipoC3S3': 11.67, 'rot1': 108, 'rot0': 108, 'rot3': 66, 'rot2': 82, 'state': 'normal', 'yaw': -176.14, 'datetime': '2018-10-12 14:09:08.522008', 'mgs': 0, 'depth': 5.353, 'time': 19.74, 'pitch': 0.39, 'roll': -7.21}
{'lipoC2': 7.76, 'temp': 23.69, 'lipoC3S3': 11.67, 'rot1': 108, 'rot0': 108, 'rot3': 66, 'rot2': 83, 'state': 'normal', 'yaw': -175.44, 'datetime': '2018-10-12 14:09:08.619608', 'mgs': 0, 'depth': 5.353, 'time': 19.84, 'pitch': -0.1, 'roll': -6.33}
{'lipoC2': 7.76, 'temp': 23.63, 'lipoC3S3': 11.67, 'rot1': 108, 'rot0': 108, 'rot3': 67, 'rot2': 83, 'state': 'normal', 'yaw': -174.53, 'datetime': '2018-10-12 14:09:08.717351', 'mgs': 0, 'depth': 5.429, 'time': 19.94, 'pitch': -0.55, 'roll': -4.48}
{'lipoC2': 7.77, 'temp': 23.63, 'lipoC3S3': 11.67, 'rot1': 108, 'rot0': 108, 'rot3': 67, 'rot2': 84, 'state': 'normal', 'yaw': -173.74, 'datetime': '2018-10-12 14:09:08.815190', 'mgs': 0, 'depth': 5.276, 'time': 20.03, 'pitch': -0.5, 'roll': -3.34}
{'lipoC2': 7.77, 'temp': 23.69, 'lipoC3S3': 11.65, 'rot1': 108, 'rot0': 108, 'rot3': 68, 'rot2': 84, 'state': 'normal', 'yaw': -172.98, 'datetime': '2018-10-12 14:09:08.912873', 'mgs': 0, 'depth': 5.353, 'time': 20.13, 'pitch': 0.53, 'roll': -2.66}
{'lipoC2': 7.77, 'temp': 23.69, 'lipoC3S3': 11.67, 'rot1': 108, 'rot0': 108, 'rot3': 68, 'rot2': 85, 'state': 'normal', 'yaw': -172.34, 'datetime': '2018-10-12 14:09:09.010519', 'mgs': 0, 'depth': 5.353, 'time': 20.23, 'pitch': 0.6, 'roll': -2.94}
{'lipoC2': 7.77, 'temp': 23.69, 'lipoC3S3': 11.65, 'rot1': 108, 'rot0': 108, 'rot3': 69, 'rot2': 85, 'state': 'normal', 'yaw': -171.76, 'datetime': '2018-10-12 14:09:09.108140', 'mgs': 0, 'depth': 5.276, 'time': 20.33, 'pitch': 0.61, 'roll': -3.62}
{'lipoC2': 7.77, 'temp': 23.63, 'lipoC3S3': 11.63, 'rot1': 108, 'rot0': 108, 'rot3': 69, 'rot2': 86, 'state': 'normal', 'yaw': -171.27, 'datetime': '2018-10-12 14:09:09.205942', 'mgs': 0, 'depth': 5.124, 'time': 20.42, 'pitch': 0.64, 'roll': -4.39}
{'lipoC2': 7.77, 'temp': 23.63, 'lipoC3S3': 11.63, 'rot1': 108, 'rot0': 108, 'rot3': 69, 'rot2': 87, 'state': 'normal', 'yaw': -170.69, 'datetime': '2018-10-12 14:09:09.303709', 'mgs': 0, 'depth': 5.124, 'time': 20.52, 'pitch': 0.35, 'roll': -4.84}
{'lipoC2': 7.76, 'temp': 23.63, 'lipoC3S3': 11.63, 'rot1': 108, 'rot0': 108, 'rot3': 70, 'rot2': 87, 'state': 'normal', 'yaw': -170.11, 'datetime': '2018-10-12 14:09:09.401221', 'mgs': 0, 'depth': 5.124, 'time': 20.62, 'pitch': -0.05, 'roll': -5.18}
{'lipoC2': 7.77, 'temp': 23.63, 'lipoC3S3': 11.61, 'rot1': 108, 'rot0': 108, 'rot3': 70, 'rot2': 88, 'state': 'normal', 'yaw': -169.56, 'datetime': '2018-10-12 14:09:09.499116', 'mgs': 0, 'depth': 5.276, 'time': 20.72, 'pitch': -0.32, 'roll': -5.49}
{'lipoC2': 7.76, 'temp': 23.63, 'lipoC3S3': 11.67, 'rot1': 108, 'rot0': 108, 'rot3': 71, 'rot2': 88, 'state': 'normal', 'yaw': -169.24, 'datetime': '2018-10-12 14:09:09.598267', 'mgs': 0, 'depth': 5.2, 'time': 20.82, 'pitch': -0.37, 'roll': -5.38}
{'lipoC2': 7.76, 'temp': 23.69, 'lipoC3S3': 11.64, 'rot1': 108, 'rot0': 108, 'rot3': 71, 'rot2': 89, 'state': 'normal', 'yaw': -168.92, 'datetime': '2018-10-12 14:09:09.697292', 'mgs': 0, 'depth': 5.124, 'time': 20.92, 'pitch': -0.39, 'roll': -5.37}
{'lipoC2': 7.77, 'temp': 23.69, 'lipoC3S3': 11.63, 'rot1': 108, 'rot0': 108, 'rot3': 72, 'rot2': 89, 'state': 'normal', 'yaw': -168.62, 'datetime': '2018-10-12 14:09:09.795940', 'mgs': 0, 'depth': 5.124, 'time': 21.01, 'pitch': -0.4, 'roll': -5.49}
{'lipoC2': 7.77, 'temp': 23.63, 'lipoC3S3': 11.65, 'rot1': 108, 'rot0': 108, 'rot3': 72, 'rot2': 90, 'state': 'normal', 'yaw': -168.44, 'datetime': '2018-10-12 14:09:09.893675', 'mgs': 0, 'depth': 5.124, 'time': 21.11, 'pitch': -0.36, 'roll': -5.33}
{'lipoC2': 7.77, 'temp': 23.63, 'lipoC3S3': 11.65, 'rot1': 108, 'rot0': 108, 'rot3': 73, 'rot2': 91, 'state': 'normal', 'yaw': -168.25, 'datetime': '2018-10-12 14:09:09.991368', 'mgs': 0, 'depth': 5.124, 'time': 21.21, 'pitch': -0.28, 'roll': -5.29}
{'lipoC2': 7.77, 'temp': 23.63, 'lipoC3S3': 11.67, 'rot1': 108, 'rot0': 108, 'rot3': 73, 'rot2': 91, 'state': 'normal', 'yaw': -168.1, 'datetime': '2018-10-12 14:09:10.089630', 'mgs': 0, 'depth': 5.429, 'time': 21.31, 'pitch': -0.18, 'roll': -5.23}
{'lipoC2': 7.77, 'temp': 23.63, 'lipoC3S3': 11.67, 'rot1': 108, 'rot0': 108, 'rot3': 74, 'rot2': 92, 'state': 'normal', 'yaw': -168.01, 'datetime': '2018-10-12 14:09:10.189093', 'mgs': 0, 'depth': 5.048, 'time': 21.41, 'pitch': -0.1, 'roll': -5.08}
{'lipoC2': 7.77, 'temp': 23.63, 'lipoC3S3': 11.64, 'rot1': 108, 'rot0': 108, 'rot3': 74, 'rot2': 92, 'state': 'normal', 'yaw': -167.95, 'datetime': '2018-10-12 14:09:10.287554', 'mgs': 0, 'depth': 5.124, 'time': 21.51, 'pitch': -0.11, 'roll': -4.97}
{'lipoC2': 7.76, 'temp': 23.63, 'lipoC3S3': 11.63, 'rot1': 108, 'rot0': 108, 'rot3': 74, 'rot2': 93, 'state': 'normal', 'yaw': -167.86, 'datetime': '2018-10-12 14:09:10.385569', 'mgs': 0, 'depth': 5.124, 'time': 21.6, 'pitch': -0.12, 'roll': -4.84}
{'lipoC2': 7.77, 'temp': 23.63, 'lipoC3S3': 11.64, 'rot1': 108, 'rot0': 108, 'rot3': 75, 'rot2': 93, 'state': 'normal', 'yaw': -167.83, 'datetime': '2018-10-12 14:09:10.483100', 'mgs': 0, 'depth': 5.124, 'time': 21.7, 'pitch': -0.13, 'roll': -4.69}
{'lipoC2': 7.76, 'temp': 23.63, 'lipoC3S3': 11.64, 'rot1': 108, 'rot0': 108, 'rot3': 75, 'rot2': 94, 'state': 'normal', 'yaw': -167.76, 'datetime': '2018-10-12 14:09:10.595417', 'mgs': 0, 'depth': 5.124, 'time': 21.8, 'pitch': -0.14, 'roll': -4.54}
{'lipoC2': 7.77, 'temp': 23.63, 'lipoC3S3': 11.64, 'rot1': 108, 'rot0': 108, 'rot3': 76, 'rot2': 94, 'state': 'normal', 'yaw': -167.73, 'datetime': '2018-10-12 14:09:10.673432', 'mgs': 0, 'depth': 5.2, 'time': 21.9, 'pitch': -0.14, 'roll': -4.41}
{'lipoC2': 7.77, 'temp': 23.63, 'lipoC3S3': 11.61, 'rot1': 108, 'rot0': 108, 'rot3': 76, 'rot2': 95, 'state': 'normal', 'yaw': -167.71, 'datetime': '2018-10-12 14:09:10.771413', 'mgs': 0, 'depth': 5.276, 'time': 22.0, 'pitch': -0.15, 'roll': -4.28}
{'lipoC2': 7.76, 'temp': 23.63, 'lipoC3S3': 11.63, 'rot1': 108, 'rot0': 108, 'rot3': 77, 'rot2': 96, 'state': 'normal', 'yaw': -167.7, 'datetime': '2018-10-12 14:09:10.869072', 'mgs': 0, 'depth': 5.2, 'time': 22.09, 'pitch': -0.15, 'roll': -4.18}
{'lipoC2': 7.77, 'temp': 23.63, 'lipoC3S3': 11.63, 'rot1': 108, 'rot0': 108, 'rot3': 77, 'rot2': 96, 'state': 'normal', 'yaw': -167.7, 'datetime': '2018-10-12 14:09:10.966766', 'mgs': 0, 'depth': 5.048, 'time': 22.19, 'pitch': -0.15, 'roll': -4.18}
{'lipoC2': 7.77, 'temp': 23.63, 'lipoC3S3': 11.67, 'rot1': 108, 'rot0': 108, 'rot3': 78, 'rot2': 97, 'state': 'normal', 'yaw': -167.7, 'datetime': '2018-10-12 14:09:11.065658', 'mgs': 0, 'depth': 5.353, 'time': 22.29, 'pitch': -0.15, 'roll': -4.19}
{'lipoC2': 7.77, 'temp': 23.63, 'lipoC3S3': 11.68, 'rot1': 108, 'rot0': 108, 'rot3': 78, 'rot2': 97, 'state': 'normal', 'yaw': -167.7, 'datetime': '2018-10-12 14:09:11.164645', 'mgs': 0, 'depth': 5.582, 'time': 22.39, 'pitch': -0.15, 'roll': -4.28}
{'lipoC2': 7.77, 'temp': 23.63, 'lipoC3S3': 11.67, 'rot1': 108, 'rot0': 108, 'rot3': 78, 'rot2': 98, 'state': 'normal', 'yaw': -167.7, 'datetime': '2018-10-12 14:09:11.263667', 'mgs': 0, 'depth': 5.2, 'time': 22.49, 'pitch': -0.15, 'roll': -4.39}
