{'lipoC2': 7.8, 'temp': 23.69, 'lipoC3S3': 11.84, 'rot1': 0, 'rot0': 0, 'rot3': 0, 'rot2': 0, 'state': 'normal', 'yaw': 0.0, 'datetime': '2018-10-12 14:00:02.500290', 'mgs': 0, 'depth': 2.148, 'time': 1.26, 'pitch': -1.64, 'roll': -11.29}
{'lipoC2': 7.8, 'temp': 23.69, 'lipoC3S3': 11.84, 'rot1': 0, 'rot0': 0, 'rot3': 0, 'rot2': 0, 'state': 'normal', 'yaw': -0.68, 'datetime': '2018-10-12 14:00:02.516998', 'mgs': 0, 'depth': 2.148, 'time': 1.36, 'pitch': -2.78, 'roll': -10.72}
{'lipoC2': 7.8, 'temp': 23.69, 'lipoC3S3': 11.84, 'rot1': 0, 'rot0': 0, 'rot3': 0, 'rot2': 0, 'state': 'normal', 'yaw': -1.36, 'datetime': '2018-10-12 14:00:02.533770', 'mgs': 0, 'depth': 2.148, 'time': 1.46, 'pitch': -3.82, 'roll': -10.41}
{'lipoC2': 7.8, 'temp': 23.69, 'lipoC3S3': 11.84, 'rot1': 0, 'rot0': 0, 'rot3': 0, 'rot2': 0, 'state': 'normal', 'yaw': -1.97, 'datetime': '2018-10-12 14:00:02.568470', 'mgs': 0, 'depth': 2.072, 'time': 1.55, 'pitch': -4.53, 'roll': -10.21}
{'lipoC2': 7.8, 'temp': 23.69, 'lipoC3S3': 11.85, 'rot1': 0, 'rot0': 0, 'rot3': 0, 'rot2': 0, 'state': 'normal', 'yaw': -2.6, 'datetime': '2018-10-12 14:00:02.669698', 'mgs': 0, 'depth': 2.072, 'time': 1.65, 'pitch': -4.94, 'roll': -9.96}
{'lipoC2': 7.79, 'temp': 23.63, 'lipoC3S3': 11.84, 'rot1': 0, 'rot0': 0, 'rot3': 0, 'rot2': 0, 'state': 'normal', 'yaw': -3.24, 'datetime': '2018-10-12 14:00:02.766690', 'mgs': 0, 'depth': 2.072, 'time': 1.75, 'pitch': -4.88, 'roll': -9.96}
{'lipoC2': 7.8, 'temp': 23.63, 'lipoC3S3': 11.84, 'rot1': 0, 'rot0': 0, 'rot3': 0, 'rot2': 0, 'state': 'normal', 'yaw': -4.25, 'datetime': '2018-10-12 14:00:02.863725', 'mgs': 0, 'depth': 2.072, 'time': 1.85, 'pitch': -4.85, 'roll': -11.08}
{'lipoC2': 7.8, 'temp': 23.69, 'lipoC3S3': 11.84, 'rot1': 0, 'rot0': 0, 'rot3': 0, 'rot2': 0, 'state': 'normal', 'yaw': -5.38, 'datetime': '2018-10-12 14:00:02.961438', 'mgs': 0, 'depth': 2.072, 'time': 1.94, 'pitch': -4.97, 'roll': -12.33}
{'lipoC2': 7.8, 'temp': 23.69, 'lipoC3S3': 11.84, 'rot1': 0, 'rot0': 0, 'rot3': 0, 'rot2': 0, 'state': 'normal', 'yaw': -6.61, 'datetime': '2018-10-12 14:00:03.058442', 'mgs': 0, 'depth': 2.072, 'time': 2.04, 'pitch': -5.03, 'roll': -13.09}
{'lipoC2': 7.8, 'temp': 23.69, 'lipoC3S3': 11.84, 'rot1': 0, 'rot0': 0, 'rot3': 0, 'rot2': 0, 'state': 'normal', 'yaw': -7.55, 'datetime': '2018-10-12 14:00:03.155511', 'mgs': 0, 'depth': 2.148, 'time': 2.14, 'pitch': -4.76, 'roll': -13.29}
{'lipoC2': 7.8, 'temp': 23.69, 'lipoC3S3': 11.84, 'rot1': 0, 'rot0': 0, 'rot3': 0, 'rot2': 0, 'state': 'normal', 'yaw': -8.0, 'datetime': '2018-10-12 14:00:03.252528', 'mgs': 0, 'depth': 1.996, 'time': 2.23, 'pitch': -4.06, 'roll': -13.11}
{'lipoC2': 7.8, 'temp': 23.69, 'lipoC3S3': 11.84, 'rot1': 0, 'rot0': 0, 'rot3': 0, 'rot2': 0, 'state': 'normal', 'yaw': -8.24, 'datetime': '2018-10-12 14:00:03.349530', 'mgs': 0, 'depth': 1.996, 'time': 2.33, 'pitch': -2.9, 'roll': -13.27}
{'lipoC2': 7.8, 'temp': 23.69, 'lipoC3S3': 11.84, 'rot1': 0, 'rot0': 0, 'rot3': 0, 'rot2': 0, 'state': 'normal', 'yaw': -8.51, 'datetime': '2018-10-12 14:00:03.446701', 'mgs': 0, 'depth': 1.996, 'time': 2.43, 'pitch': -1.71, 'roll': -13.95}
{'lipoC2': 7.79, 'temp': 23.69, 'lipoC3S3': 11.84, 'rot1': 0, 'rot0': 0, 'rot3': 0, 'rot2': 0, 'state': 'normal', 'yaw': -9.14, 'datetime': '2018-10-12 14:00:03.543624', 'mgs': 0, 'depth': 2.072, 'time': 2.53, 'pitch': -0.99, 'roll': -14.91}
{'lipoC2': 7.79, 'temp': 23.69, 'lipoC3S3': 11.84, 'rot1': 0, 'rot0': 0, 'rot3': 0, 'rot2': 0, 'state': 'normal', 'yaw': -9.54, 'datetime': '2018-10-12 14:00:03.640624', 'mgs': 0, 'depth': 2.072, 'time': 2.62, 'pitch': -0.39, 'roll': -15.35}
{'lipoC2': 7.8, 'temp': 23.69, 'lipoC3S3': 11.84, 'rot1': 0, 'rot0': 0, 'rot3': 0, 'rot2': 0, 'state': 'normal', 'yaw': -10.02, 'datetime': '2018-10-12 14:00:03.737664', 'mgs': 0, 'depth': 2.148, 'time': 2.72, 'pitch': -0.07, 'roll': -14.99}
{'lipoC2': 7.79, 'temp': 23.69, 'lipoC3S3': 11.84, 'rot1': 0, 'rot0': 0, 'rot3': 0, 'rot2': 0, 'state': 'normal', 'yaw': -10.33, 'datetime': '2018-10-12 14:00:03.834752', 'mgs': 0, 'depth': 2.148, 'time': 2.82, 'pitch': 0.15, 'roll': -14.05}
{'lipoC2': 7.8, 'temp': 23.69, 'lipoC3S3': 11.85, 'rot1': 0, 'rot0': 0, 'rot3': 0, 'rot2': 0, 'state': 'normal', 'yaw': -10.73, 'datetime': '2018-10-12 14:00:03.932996', 'mgs': 0, 'depth': 2.072, 'time': 2.91, 'pitch': 0.08, 'roll': -13.38}
{'lipoC2': 7.8, 'temp': 23.69, 'lipoC3S3': 11.84, 'rot1': 0, 'rot0': 0, 'rot3': 0, 'rot2': 0, 'state': 'normal', 'yaw': -11.22, 'datetime': '2018-10-12 14:00:04.031560', 'mgs': 0, 'depth': 2.148, 'time': 3.01, 'pitch': -0.22, 'roll': -12.84}
{'lipoC2': 7.8, 'temp': 23.69, 'lipoC3S3': 11.84, 'rot1': 0, 'rot0': 0, 'rot3': 0, 'rot2': 0, 'state': 'normal', 'yaw': -11.68, 'datetime': '2018-10-12 14:00:04.128455', 'mgs': 0, 'depth': 2.072, 'time': 3.11, 'pitch': -0.72, 'roll': -12.14}
{'lipoC2': 7.8, 'temp': 23.69, 'lipoC3S3': 11.85, 'rot1': 0, 'rot0': 0, 'rot3': 0, 'rot2': 0, 'state': 'normal', 'yaw': -11.78, 'datetime': '2018-10-12 14:00:04.225421', 'mgs': 0, 'depth': 2.148, 'time': 3.21, 'pitch': -0.98, 'roll': -11.33}
{'lipoC2': 7.79, 'temp': 23.69, 'lipoC3S3': 11.85, 'rot1': 0, 'rot0': 0, 'rot3': 0, 'rot2': 0, 'state': 'normal', 'yaw': -11.64, 'datetime': '2018-10-12 14:00:04.323592', 'mgs': 0, 'depth': 2.072, 'time': 3.31, 'pitch': -0.97, 'roll': -10.78}
{'lipoC2': 7.8, 'temp': 23.69, 'lipoC3S3': 11.84, 'rot1': 0, 'rot0': 0, 'rot3': 0, 'rot2': 0, 'state': 'normal', 'yaw': -11.39, 'datetime': '2018-10-12 14:00:04.421939', 'mgs': 0, 'depth': 2.072, 'time': 3.4, 'pitch': -0.79, 'roll': -10.68}
{'lipoC2': 7.8, 'temp': 23.69, 'lipoC3S3': 11.84, 'rot1': 0, 'rot0': 0, 'rot3': 0, 'rot2': 0, 'state': 'normal', 'yaw': -11.17, 'datetime': '2018-10-12 14:00:04.519071', 'mgs': 0, 'depth': 2.072, 'time': 3.5, 'pitch': -0.53, 'roll': -10.85}
{'lipoC2': 7.8, 'temp': 23.69, 'lipoC3S3': 11.85, 'rot1': 0, 'rot0': 0, 'rot3': 0, 'rot2': 0, 'state': 'normal', 'yaw': -11.01, 'datetime': '2018-10-12 14:00:04.615973', 'mgs': 0, 'depth': 2.072, 'time': 3.6, 'pitch': -0.29, 'roll': -10.71}
{'lipoC2': 7.8, 'temp': 23.69, 'lipoC3S3': 11.84, 'rot1': 0, 'rot0': 0, 'rot3': 0, 'rot2': 0, 'state': 'normal', 'yaw': -10.84, 'datetime': '2018-10-12 14:00:04.713186', 'mgs': 0, 'depth': 1.996, 'time': 3.7, 'pitch': -0.12, 'roll': -10.35}
{'lipoC2': 7.79, 'temp': 23.69, 'lipoC3S3': 11.84, 'rot1': 0, 'rot0': 0, 'rot3': 0, 'rot2': 0, 'state': 'normal', 'yaw': -10.52, 'datetime': '2018-10-12 14:00:04.810085', 'mgs': 0, 'depth': 2.072, 'time': 3.79, 'pitch': 0.09, 'roll': -10.01}
{'lipoC2': 7.8, 'temp': 23.69, 'lipoC3S3': 11.85, 'rot1': 0, 'rot0': 0, 'rot3': 0, 'rot2': 0, 'state': 'normal', 'yaw': -10.03, 'datetime': '2018-10-12 14:00:04.907060', 'mgs': 0, 'depth': 1.996, 'time': 3.89, 'pitch': 0.31, 'roll': -9.81}
{'lipoC2': 7.8, 'temp': 23.69, 'lipoC3S3': 11.84, 'rot1': 0, 'rot0': 0, 'rot3': 0, 'rot2': 0, 'state': 'normal', 'yaw': -9.49, 'datetime': '2018-10-12 14:00:05.004141', 'mgs': 0, 'depth': 2.072, 'time': 3.99, 'pitch': 0.46, 'roll': -9.61}
{'lipoC2': 7.8, 'temp': 23.69, 'lipoC3S3': 11.84, 'rot1': 0, 'rot0': 0, 'rot3': 0, 'rot2': 0, 'state': 'normal', 'yaw': -8.85, 'datetime': '2018-10-12 14:00:05.101103', 'mgs': 0, 'depth': 2.072, 'time': 4.08, 'pitch': 0.59, 'roll': -9.33}
{'lipoC2': 7.8, 'temp': 23.69, 'lipoC3S3': 11.84, 'rot1': 0, 'rot0': 0, 'rot3': 0, 'rot2': 0, 'state': 'normal', 'yaw': -8.15, 'datetime': '2018-10-12 14:00:05.198305', 'mgs': 0, 'depth': 1.996, 'time': 4.18, 'pitch': 0.7, 'roll': -8.97}
{'lipoC2': 7.79, 'temp': 23.69, 'lipoC3S3': 11.84, 'rot1': 0, 'rot0': 0, 'rot3': 0, 'rot2': 0, 'state': 'normal', 'yaw': -7.52, 'datetime': '2018-10-12 14:00:05.295577', 'mgs': 0, 'depth': 2.072, 'time': 4.28, 'pitch': 0.8, 'roll': -8.52}
{'lipoC2': 7.79, 'temp': 23.69, 'lipoC3S3': 11.84, 'rot1': 0, 'rot0': 0, 'rot3': 0, 'rot2': 0, 'state': 'normal', 'yaw': -6.82, 'datetime': '2018-10-12 14:00:05.392476', 'mgs': 0, 'depth': 1.996, 'time': 4.38, 'pitch': 0.88, 'roll': -7.87}
{'lipoC2': 7.79, 'temp': 23.69, 'lipoC3S3': 11.84, 'rot1': 0, 'rot0': 0, 'rot3': 0, 'rot2': 0, 'state': 'normal', 'yaw': -6.07, 'datetime': '2018-10-12 14:00:05.489473', 'mgs': 0, 'depth': 1.996, 'time': 4.47, 'pitch': 0.97, 'roll': -7.33}
{'lipoC2': 7.79, 'temp': 23.69, 'lipoC3S3': 11.84, 'rot1': 0, 'rot0': 0, 'rot3': 0, 'rot2': 0, 'state': 'normal', 'yaw': -5.43, 'datetime': '2018-10-12 14:00:05.586818', 'mgs': 0, 'depth': 2.072, 'time': 4.57, 'pitch': 1.02, 'roll': -7.05}
{'lipoC2': 7.8, 'temp': 23.75, 'lipoC3S3': 11.84, 'rot1': 0, 'rot0': 0, 'rot3': 0, 'rot2': 0, 'state': 'normal', 'yaw': -5.22, 'datetime': '2018-10-12 14:00:05.685030', 'mgs': 0, 'depth': 2.072, 'time': 4.67, 'pitch': 0.76, 'roll': -6.86}
{'lipoC2': 7.79, 'temp': 23.75, 'lipoC3S3': 11.84, 'rot1': 0, 'rot0': 0, 'rot3': 0, 'rot2': 0, 'state': 'normal', 'yaw': -5.37, 'datetime': '2018-10-12 14:00:05.782516', 'mgs': 0, 'depth': 2.148, 'time': 4.77, 'pitch': 0.08, 'roll': -6.68}
{'lipoC2': 7.8, 'temp': 23.69, 'lipoC3S3': 11.84, 'rot1': 0, 'rot0': 0, 'rot3': 0, 'rot2': 0, 'state': 'normal', 'yaw': -5.81, 'datetime': '2018-10-12 14:00:05.879531', 'mgs': 0, 'depth': 2.072, 'time': 4.86, 'pitch': -0.81, 'roll': -6.55}
{'lipoC2': 7.8, 'temp': 23.69, 'lipoC3S3': 11.84, 'rot1': 0, 'rot0': 0, 'rot3': 0, 'rot2': 0, 'state': 'normal', 'yaw': -6.1, 'datetime': '2018-10-12 14:00:05.976978', 'mgs': 0, 'depth': 2.072, 'time': 4.96, 'pitch': -1.44, 'roll': -6.38}
{'lipoC2': 7.79, 'temp': 23.69, 'lipoC3S3': 11.84, 'rot1': 0, 'rot0': 0, 'rot3': 0, 'rot2': 0, 'state': 'normal', 'yaw': -6.02, 'datetime': '2018-10-12 14:00:06.075220', 'mgs': 0, 'depth': 2.148, 'time': 5.06, 'pitch': -1.66, 'roll': -6.19}
{'lipoC2': 7.8, 'temp': 23.69, 'lipoC3S3': 11.84, 'rot1': 0, 'rot0': 0, 'rot3': 0, 'rot2': 0, 'state': 'normal', 'yaw': -5.43, 'datetime': '2018-10-12 14:00:06.172265', 'mgs': 0, 'depth': 2.225, 'time': 5.16, 'pitch': -1.34, 'roll': -6.09}
{'lipoC2': 7.79, 'temp': 23.69, 'lipoC3S3': 11.84, 'rot1': 0, 'rot0': 0, 'rot3': 0, 'rot2': 0, 'state': 'normal', 'yaw': -5.09, 'datetime': '2018-10-12 14:00:06.267539', 'mgs': 0, 'depth': 2.225, 'time': 5.25, 'pitch': -1.16, 'roll': -5.71}
{'lipoC2': 7.8, 'temp': 23.75, 'lipoC3S3': 11.85, 'rot1': 0, 'rot0': 0, 'rot3': 0, 'rot2': 0, 'state': 'normal', 'yaw': -5.35, 'datetime': '2018-10-12 14:00:06.366966', 'mgs': 0, 'depth': 2.225, 'time': 5.35, 'pitch': -1.48, 'roll': -5.12}
{'lipoC2': 7.79, 'temp': 23.75, 'lipoC3S3': 11.85, 'rot1': 0, 'rot0': 0, 'rot3': 0, 'rot2': 0, 'state': 'normal', 'yaw': -5.91, 'datetime': '2018-10-12 14:00:06.463990', 'mgs': 0, 'depth': 2.225, 'time': 5.45, 'pitch': -2.03, 'roll': -4.81}
{'lipoC2': 7.79, 'temp': 23.75, 'lipoC3S3': 11.84, 'rot1': 0, 'rot0': 0, 'rot3': 0, 'rot2': 0, 'state': 'normal', 'yaw': -6.13, 'datetime': '2018-10-12 14:00:06.561069', 'mgs': 0, 'depth': 2.301, 'time': 5.55, 'pitch': -2.23, 'roll': -5.28}
{'lipoC2': 7.8, 'temp': 23.63, 'lipoC3S3': 11.84, 'rot1': 0, 'rot0': 0, 'rot3': 0, 'rot2': 0, 'state': 'normal', 'yaw': -5.98, 'datetime': '2018-10-12 14:00:06.658257', 'mgs': 0, 'depth': 2.225, 'time': 5.64, 'pitch': -2.03, 'roll': -5.93}
{'lipoC2': 7.8, 'temp': 23.63, 'lipoC3S3': 11.84, 'rot1': 0, 'rot0': 0, 'rot3': 0, 'rot2': 0, 'state': 'normal', 'yaw': -5.76, 'datetime': '2018-10-12 14:00:06.755240', 'mgs': 0, 'depth': 2.225, 'time': 5.74, 'pitch': -1.76, 'roll': -6.3}
{'lipoC2': 7.8, 'temp': 23.63, 'lipoC3S3': 11.84, 'rot1': 0, 'rot0': 0, 'rot3': 0, 'rot2': 0, 'state': 'normal', 'yaw': -5.59, 'datetime': '2018-10-12 14:00:06.852280', 'mgs': 0, 'depth': 2.225, 'time': 5.84, 'pitch': -1.52, 'roll': -6.63}
{'lipoC2': 7.8, 'temp': 23.63, 'lipoC3S3': 11.84, 'rot1': 0, 'rot0': 0, 'rot3': 0, 'rot2': 0, 'state': 'normal', 'yaw': -5.64, 'datetime': '2018-10-12 14:00:06.949318', 'mgs': 0, 'depth': 2.301, 'time': 5.93, 'pitch': -1.49, 'roll': -6.94}
{'lipoC2': 7.8, 'temp': 23.63, 'lipoC3S3': 11.84, 'rot1': 0, 'rot0': 0, 'rot3': 0, 'rot2': 0, 'state': 'normal', 'yaw': -5.65, 'datetime': '2018-10-12 14:00:07.046556', 'mgs': 0, 'depth': 2.225, 'time': 6.03, 'pitch': -1.48, 'roll': -6.94}
{'lipoC2': 7.79, 'temp': 23.69, 'lipoC3S3': 11.84, 'rot1': 0, 'rot0': 0, 'rot3': 0, 'rot2': 0, 'state': 'normal', 'yaw': -5.51, 'datetime': '2018-10-12 14:00:07.143472', 'mgs': 0, 'depth': 2.301, 'time': 6.13, 'pitch': -1.4, 'roll': -6.91}
{'lipoC2': 7.8, 'temp': 23.69, 'lipoC3S3': 11.84, 'rot1': 0, 'rot0': 0, 'rot3': 0, 'rot2': 0, 'state': 'normal', 'yaw': -5.4, 'datetime': '2018-10-12 14:00:07.240440', 'mgs': 0, 'depth': 2.225, 'time': 6.22, 'pitch': -1.36, 'roll': -7.04}
{'lipoC2': 7.79, 'temp': 23.69, 'lipoC3S3': 11.84, 'rot1': 0, 'rot0': 0, 'rot3': 0, 'rot2': 0, 'state': 'normal', 'yaw': -5.39, 'datetime': '2018-10-12 14:00:07.338797', 'mgs': 0, 'depth': 2.301, 'time': 6.32, 'pitch': -1.34, 'roll': -7.13}
{'lipoC2': 7.8, 'temp': 23.69, 'lipoC3S3': 11.85, 'rot1': 0, 'rot0': 0, 'rot3': 0, 'rot2': 0, 'state': 'normal', 'yaw': -5.39, 'datetime': '2018-10-12 14:00:07.436011', 'mgs': 0, 'depth': 2.225, 'time': 6.42, 'pitch': -1.3, 'roll': -7.09}
{'lipoC2': 7.8, 'temp': 23.69, 'lipoC3S3': 11.84, 'rot1': 0, 'rot0': 0, 'rot3': 0, 'rot2': 0, 'state': 'normal', 'yaw': -5.3, 'datetime': '2018-10-12 14:00:07.534126', 'mgs': 0, 'depth': 2.225, 'time': 6.52, 'pitch': -1.15, 'roll': -7.07}
{'lipoC2': 7.8, 'temp': 23.69, 'lipoC3S3': 11.85, 'rot1': 0, 'rot0': 0, 'rot3': 0, 'rot2': 0, 'state': 'normal', 'yaw': -5.09, 'datetime': '2018-10-12 14:00:07.631171', 'mgs': 1, 'depth': 2.225, 'time': 6.62, 'pitch': -0.91, 'roll': -7.21}
{'lipoC2': 7.8, 'temp': 23.69, 'lipoC3S3': 11.84, 'rot1': 0, 'rot0': 0, 'rot3': 0, 'rot2': 0, 'state': 'normal', 'yaw': 0.0, 'datetime': '2018-10-12 14:00:09.150733', 'mgs': 0, 'depth': 2.454, 'time': 1.26, 'pitch': -3.87, 'roll': -7.54}
{'lipoC2': 7.8, 'temp': 23.69, 'lipoC3S3': 11.84, 'rot1': 0, 'rot0': 0, 'rot3': 0, 'rot2': 0, 'state': 'normal', 'yaw': 0.19, 'datetime': '2018-10-12 14:00:09.180973', 'mgs': 0, 'depth': 2.454, 'time': 1.36, 'pitch': -4.03, 'roll': -7.67}
{'lipoC2': 7.79, 'temp': 23.69, 'lipoC3S3': 11.85, 'rot1': 0, 'rot0': 0, 'rot3': 0, 'rot2': 0, 'state': 'normal', 'yaw': 0.45, 'datetime': '2018-10-12 14:00:09.198296', 'mgs': 0, 'depth': 2.454, 'time': 1.46, 'pitch': -3.93, 'roll': -7.77}
{'lipoC2': 7.8, 'temp': 23.69, 'lipoC3S3': 11.77, 'rot1': 0, 'rot0': 0, 'rot3': 2, 'rot2': 0, 'state': 'normal', 'yaw': 0.58, 'datetime': '2018-10-12 14:00:09.285097', 'mgs': 0, 'depth': 2.759, 'time': 1.55, 'pitch': -3.73, 'roll': -7.71}
{'lipoC2': 7.8, 'temp': 23.69, 'lipoC3S3': 11.69, 'rot1': 0, 'rot0': 0, 'rot3': 2, 'rot2': 1, 'state': 'normal', 'yaw': 0.51, 'datetime': '2018-10-12 14:00:09.383083', 'mgs': 0, 'depth': 2.225, 'time': 1.65, 'pitch': -3.61, 'roll': -7.23}
{'lipoC2': 7.79, 'temp': 23.69, 'lipoC3S3': 11.75, 'rot1': 1, 'rot0': 1, 'rot3': 3, 'rot2': 1, 'state': 'normal', 'yaw': 0.25, 'datetime': '2018-10-12 14:00:09.479783', 'mgs': 0, 'depth': 2.682, 'time': 1.75, 'pitch': -3.53, 'roll': -5.94}
{'lipoC2': 7.79, 'temp': 23.69, 'lipoC3S3': 11.72, 'rot1': 2, 'rot0': 2, 'rot3': 3, 'rot2': 2, 'state': 'normal', 'yaw': -0.01, 'datetime': '2018-10-12 14:00:09.576337', 'mgs': 0, 'depth': 2.606, 'time': 1.84, 'pitch': -3.43, 'roll': -4.52}
{'lipoC2': 7.8, 'temp': 23.69, 'lipoC3S3': 11.68, 'rot1': 3, 'rot0': 3, 'rot3': 4, 'rot2': 3, 'state': 'normal', 'yaw': 0.04, 'datetime': '2018-10-12 14:00:09.672961', 'mgs': 0, 'depth': 3.293, 'time': 1.94, 'pitch': -3.16, 'roll': -3.51}
{'lipoC2': 7.81, 'temp': 23.69, 'lipoC3S3': 11.68, 'rot1': 4, 'rot0': 4, 'rot3': 4, 'rot2': 3, 'state': 'normal', 'yaw': 0.51, 'datetime': '2018-10-12 14:00:09.765215', 'mgs': 0, 'depth': 2.53, 'time': 2.04, 'pitch': -2.56, 'roll': -2.34}
{'lipoC2': 7.8, 'temp': 23.69, 'lipoC3S3': 11.73, 'rot1': 5, 'rot0': 5, 'rot3': 5, 'rot2': 4, 'state': 'normal', 'yaw': 1.29, 'datetime': '2018-10-12 14:00:09.861811', 'mgs': 0, 'depth': 2.225, 'time': 2.13, 'pitch': -1.82, 'roll': -1.02}
{'lipoC2': 7.8, 'temp': 23.69, 'lipoC3S3': 11.69, 'rot1': 6, 'rot0': 7, 'rot3': 5, 'rot2': 4, 'state': 'normal', 'yaw': 2.0, 'datetime': '2018-10-12 14:00:09.958503', 'mgs': 0, 'depth': 2.148, 'time': 2.23, 'pitch': -1.2, 'roll': -0.13}
{'lipoC2': 7.79, 'temp': 23.69, 'lipoC3S3': 11.76, 'rot1': 7, 'rot0': 8, 'rot3': 6, 'rot2': 5, 'state': 'normal', 'yaw': 2.31, 'datetime': '2018-10-12 14:00:10.055181', 'mgs': 0, 'depth': 2.454, 'time': 2.33, 'pitch': -0.86, 'roll': 0.12}
{'lipoC2': 7.79, 'temp': 23.69, 'lipoC3S3': 11.77, 'rot1': 8, 'rot0': 9, 'rot3': 6, 'rot2': 6, 'state': 'normal', 'yaw': 2.17, 'datetime': '2018-10-12 14:00:10.151983', 'mgs': 0, 'depth': 2.301, 'time': 2.42, 'pitch': -0.83, 'roll': 0.03}
{'lipoC2': 7.8, 'temp': 23.69, 'lipoC3S3': 11.76, 'rot1': 8, 'rot0': 10, 'rot3': 7, 'rot2': 6, 'state': 'normal', 'yaw': 1.77, 'datetime': '2018-10-12 14:00:10.248824', 'mgs': 0, 'depth': 2.301, 'time': 2.52, 'pitch': -0.98, 'roll': -0.05}
{'lipoC2': 7.8, 'temp': 23.69, 'lipoC3S3': 11.76, 'rot1': 9, 'rot0': 11, 'rot3': 7, 'rot2': 7, 'state': 'normal', 'yaw': 1.09, 'datetime': '2018-10-12 14:00:10.345603', 'mgs': 0, 'depth': 2.225, 'time': 2.62, 'pitch': -1.24, 'roll': -0.02}
{'lipoC2': 7.8, 'temp': 23.63, 'lipoC3S3': 11.71, 'rot1': 10, 'rot0': 12, 'rot3': 8, 'rot2': 8, 'state': 'normal', 'yaw': 0.23, 'datetime': '2018-10-12 14:00:10.443026', 'mgs': 0, 'depth': 2.148, 'time': 2.71, 'pitch': -1.54, 'roll': 0.12}
{'lipoC2': 7.8, 'temp': 23.63, 'lipoC3S3': 11.75, 'rot1': 11, 'rot0': 13, 'rot3': 8, 'rot2': 8, 'state': 'normal', 'yaw': -0.6, 'datetime': '2018-10-12 14:00:10.541304', 'mgs': 0, 'depth': 2.301, 'time': 2.81, 'pitch': -1.75, 'roll': 0.23}
{'lipoC2': 7.81, 'temp': 23.63, 'lipoC3S3': 11.71, 'rot1': 12, 'rot0': 14, 'rot3': 9, 'rot2': 9, 'state': 'normal', 'yaw': -1.42, 'datetime': '2018-10-12 14:00:10.638655', 'mgs': 0, 'depth': 2.606, 'time': 2.91, 'pitch': -1.92, 'roll': 0.46}
{'lipoC2': 7.8, 'temp': 23.63, 'lipoC3S3': 11.73, 'rot1': 13, 'rot0': 15, 'rot3': 9, 'rot2': 10, 'state': 'normal', 'yaw': -2.07, 'datetime': '2018-10-12 14:00:10.735894', 'mgs': 0, 'depth': 1.691, 'time': 3.01, 'pitch': -2.11, 'roll': 0.82}
{'lipoC2': 7.79, 'temp': 23.63, 'lipoC3S3': 11.71, 'rot1': 14, 'rot0': 16, 'rot3': 10, 'rot2': 10, 'state': 'normal', 'yaw': -2.48, 'datetime': '2018-10-12 14:00:10.833683', 'mgs': 0, 'depth': 2.682, 'time': 3.11, 'pitch': -2.32, 'roll': 1.15}
{'lipoC2': 7.8, 'temp': 23.63, 'lipoC3S3': 11.71, 'rot1': 15, 'rot0': 17, 'rot3': 11, 'rot2': 11, 'state': 'normal', 'yaw': -2.55, 'datetime': '2018-10-12 14:00:10.932396', 'mgs': 0, 'depth': 2.759, 'time': 3.2, 'pitch': -2.54, 'roll': 1.29}
{'lipoC2': 7.8, 'temp': 23.63, 'lipoC3S3': 11.65, 'rot1': 16, 'rot0': 18, 'rot3': 11, 'rot2': 12, 'state': 'normal', 'yaw': -2.19, 'datetime': '2018-10-12 14:00:11.030811', 'mgs': 0, 'depth': 2.225, 'time': 3.3, 'pitch': -2.61, 'roll': 1.22}
{'lipoC2': 7.79, 'temp': 23.69, 'lipoC3S3': 11.73, 'rot1': 18, 'rot0': 19, 'rot3': 12, 'rot2': 12, 'state': 'normal', 'yaw': -1.53, 'datetime': '2018-10-12 14:00:11.128122', 'mgs': 0, 'depth': 2.454, 'time': 3.4, 'pitch': -2.47, 'roll': 0.97}
{'lipoC2': 7.8, 'temp': 23.69, 'lipoC3S3': 11.71, 'rot1': 19, 'rot0': 19, 'rot3': 12, 'rot2': 13, 'state': 'normal', 'yaw': -0.63, 'datetime': '2018-10-12 14:00:11.225516', 'mgs': 0, 'depth': 2.148, 'time': 3.5, 'pitch': -2.18, 'roll': 0.66}
{'lipoC2': 7.79, 'temp': 23.69, 'lipoC3S3': 11.71, 'rot1': 20, 'rot0': 20, 'rot3': 13, 'rot2': 14, 'state': 'normal', 'yaw': 0.34, 'datetime': '2018-10-12 14:00:11.323990', 'mgs': 0, 'depth': 2.225, 'time': 3.6, 'pitch': -1.85, 'roll': 0.45}
{'lipoC2': 7.8, 'temp': 23.69, 'lipoC3S3': 11.72, 'rot1': 21, 'rot0': 21, 'rot3': 13, 'rot2': 14, 'state': 'normal', 'yaw': 1.54, 'datetime': '2018-10-12 14:00:11.421391', 'mgs': 0, 'depth': 2.454, 'time': 3.69, 'pitch': -1.56, 'roll': 0.35}
{'lipoC2': 7.8, 'temp': 23.69, 'lipoC3S3': 11.67, 'rot1': 22, 'rot0': 22, 'rot3': 14, 'rot2': 15, 'state': 'normal', 'yaw': 2.56, 'datetime': '2018-10-12 14:00:11.518789', 'mgs': 0, 'depth': 2.225, 'time': 3.79, 'pitch': -1.39, 'roll': 0.38}
{'lipoC2': 7.8, 'temp': 23.69, 'lipoC3S3': 11.73, 'rot1': 23, 'rot0': 23, 'rot3': 14, 'rot2': 16, 'state': 'normal', 'yaw': 3.38, 'datetime': '2018-10-12 14:00:11.616192', 'mgs': 0, 'depth': 2.454, 'time': 3.89, 'pitch': -1.3, 'roll': 0.49}
{'lipoC2': 7.79, 'temp': 23.69, 'lipoC3S3': 11.75, 'rot1': 24, 'rot0': 24, 'rot3': 15, 'rot2': 16, 'state': 'normal', 'yaw': 3.99, 'datetime': '2018-10-12 14:00:11.713617', 'mgs': 0, 'depth': 2.988, 'time': 3.99, 'pitch': -1.25, 'roll': 0.66}
{'lipoC2': 7.8, 'temp': 23.69, 'lipoC3S3': 11.61, 'rot1': 25, 'rot0': 25, 'rot3': 15, 'rot2': 17, 'state': 'normal', 'yaw': 4.33, 'datetime': '2018-10-12 14:00:11.811042', 'mgs': 0, 'depth': 2.225, 'time': 4.08, 'pitch': -1.2, 'roll': 0.72}
{'lipoC2': 7.8, 'temp': 23.63, 'lipoC3S3': 11.75, 'rot1': 26, 'rot0': 27, 'rot3': 16, 'rot2': 18, 'state': 'normal', 'yaw': 4.32, 'datetime': '2018-10-12 14:00:11.909106', 'mgs': 0, 'depth': 2.377, 'time': 4.18, 'pitch': -1.13, 'roll': 0.62}
{'lipoC2': 7.79, 'temp': 23.63, 'lipoC3S3': 11.69, 'rot1': 26, 'rot0': 28, 'rot3': 16, 'rot2': 18, 'state': 'normal', 'yaw': 4.03, 'datetime': '2018-10-12 14:00:12.005828', 'mgs': 0, 'depth': 3.14, 'time': 4.28, 'pitch': -1.11, 'roll': 0.47}
{'lipoC2': 7.79, 'temp': 23.69, 'lipoC3S3': 11.65, 'rot1': 27, 'rot0': 29, 'rot3': 17, 'rot2': 19, 'state': 'normal', 'yaw': 3.61, 'datetime': '2018-10-12 14:00:12.103175', 'mgs': 0, 'depth': 2.225, 'time': 4.38, 'pitch': -1.15, 'roll': 0.3}
{'lipoC2': 7.8, 'temp': 23.69, 'lipoC3S3': 11.75, 'rot1': 28, 'rot0': 30, 'rot3': 17, 'rot2': 20, 'state': 'normal', 'yaw': 3.03, 'datetime': '2018-10-12 14:00:12.200660', 'mgs': 0, 'depth': 2.377, 'time': 4.47, 'pitch': -1.28, 'roll': 0.03}
{'lipoC2': 7.8, 'temp': 23.69, 'lipoC3S3': 11.71, 'rot1': 29, 'rot0': 31, 'rot3': 18, 'rot2': 20, 'state': 'normal', 'yaw': 2.33, 'datetime': '2018-10-12 14:00:12.298017', 'mgs': 0, 'depth': 2.53, 'time': 4.57, 'pitch': -1.44, 'roll': -0.25}
{'lipoC2': 7.79, 'temp': 23.69, 'lipoC3S3': 11.75, 'rot1': 30, 'rot0': 32, 'rot3': 19, 'rot2': 21, 'state': 'normal', 'yaw': 1.57, 'datetime': '2018-10-12 14:00:12.396175', 'mgs': 0, 'depth': 2.454, 'time': 4.67, 'pitch': -1.63, 'roll': -0.47}
{'lipoC2': 7.79, 'temp': 23.69, 'lipoC3S3': 11.73, 'rot1': 30, 'rot0': 33, 'rot3': 19, 'rot2': 22, 'state': 'normal', 'yaw': 0.68, 'datetime': '2018-10-12 14:00:12.494931', 'mgs': 0, 'depth': 2.53, 'time': 4.77, 'pitch': -1.93, 'roll': -0.59}
{'lipoC2': 7.8, 'temp': 23.63, 'lipoC3S3': 11.72, 'rot1': 31, 'rot0': 34, 'rot3': 19, 'rot2': 22, 'state': 'normal', 'yaw': -0.21, 'datetime': '2018-10-12 14:00:12.593562', 'mgs': 0, 'depth': 2.53, 'time': 4.87, 'pitch': -2.29, 'roll': -0.54}
{'lipoC2': 7.8, 'temp': 23.63, 'lipoC3S3': 11.67, 'rot1': 32, 'rot0': 35, 'rot3': 20, 'rot2': 23, 'state': 'normal', 'yaw': -0.93, 'datetime': '2018-10-12 14:00:12.690951', 'mgs': 0, 'depth': 2.53, 'time': 4.97, 'pitch': -2.6, 'roll': -0.35}
{'lipoC2': 7.79, 'temp': 23.63, 'lipoC3S3': 11.71, 'rot1': 33, 'rot0': 37, 'rot3': 21, 'rot2': 24, 'state': 'normal', 'yaw': -1.45, 'datetime': '2018-10-12 14:00:12.788324', 'mgs': 0, 'depth': 2.377, 'time': 5.06, 'pitch': -2.9, 'roll': -0.15}
{'lipoC2': 7.8, 'temp': 23.69, 'lipoC3S3': 11.73, 'rot1': 35, 'rot0': 38, 'rot3': 21, 'rot2': 24, 'state': 'normal', 'yaw': -1.76, 'datetime': '2018-10-12 14:00:12.886721', 'mgs': 0, 'depth': 2.225, 'time': 5.16, 'pitch': -3.19, 'roll': -0.06}
{'lipoC2': 7.79, 'temp': 23.69, 'lipoC3S3': 11.71, 'rot1': 36, 'rot0': 38, 'rot3': 22, 'rot2': 25, 'state': 'normal', 'yaw': -1.72, 'datetime': '2018-10-12 14:00:12.985374', 'mgs': 0, 'depth': 2.377, 'time': 5.26, 'pitch': -3.45, 'roll': -0.17}
{'lipoC2': 7.8, 'temp': 23.69, 'lipoC3S3': 11.72, 'rot1': 37, 'rot0': 39, 'rot3': 22, 'rot2': 26, 'state': 'normal', 'yaw': -1.28, 'datetime': '2018-10-12 14:00:13.083744', 'mgs': 0, 'depth': 2.225, 'time': 5.36, 'pitch': -3.66, 'roll': -0.44}
{'lipoC2': 7.8, 'temp': 23.69, 'lipoC3S3': 11.75, 'rot1': 38, 'rot0': 40, 'rot3': 23, 'rot2': 26, 'state': 'normal', 'yaw': -0.54, 'datetime': '2018-10-12 14:00:13.181129', 'mgs': 0, 'depth': 2.53, 'time': 5.45, 'pitch': -3.79, 'roll': -0.75}
{'lipoC2': 7.8, 'temp': 23.69, 'lipoC3S3': 11.81, 'rot1': 39, 'rot0': 40, 'rot3': 23, 'rot2': 27, 'state': 'normal', 'yaw': 0.42, 'datetime': '2018-10-12 14:00:13.280819', 'mgs': 0, 'depth': 2.301, 'time': 5.55, 'pitch': -3.79, 'roll': -1.09}
{'lipoC2': 7.8, 'temp': 23.63, 'lipoC3S3': 11.81, 'rot1': 39, 'rot0': 40, 'rot3': 23, 'rot2': 27, 'state': 'normal', 'yaw': 1.21, 'datetime': '2018-10-12 14:00:13.380287', 'mgs': 0, 'depth': 2.225, 'time': 5.65, 'pitch': -3.7, 'roll': -1.81}
{'lipoC2': 7.8, 'temp': 23.63, 'lipoC3S3': 11.75, 'rot1': 39, 'rot0': 40, 'rot3': 23, 'rot2': 27, 'state': 'normal', 'yaw': 1.97, 'datetime': '2018-10-12 14:00:13.477660', 'mgs': 0, 'depth': 2.682, 'time': 5.75, 'pitch': -3.58, 'roll': -2.81}
{'lipoC2': 7.8, 'temp': 23.63, 'lipoC3S3': 11.54, 'rot1': 39, 'rot0': 41, 'rot3': 23, 'rot2': 28, 'state': 'normal', 'yaw': 2.6, 'datetime': '2018-10-12 14:00:13.575190', 'mgs': 0, 'depth': 2.225, 'time': 5.85, 'pitch': -3.36, 'roll': -3.92}
{'lipoC2': 7.8, 'temp': 23.63, 'lipoC3S3': 11.55, 'rot1': 40, 'rot0': 42, 'rot3': 24, 'rot2': 28, 'state': 'normal', 'yaw': 2.78, 'datetime': '2018-10-12 14:00:13.672824', 'mgs': 0, 'depth': 2.301, 'time': 5.94, 'pitch': -2.98, 'roll': -4.27}
{'lipoC2': 7.79, 'temp': 23.63, 'lipoC3S3': 11.68, 'rot1': 41, 'rot0': 44, 'rot3': 24, 'rot2': 29, 'state': 'normal', 'yaw': 2.48, 'datetime': '2018-10-12 14:00:13.770184', 'mgs': 0, 'depth': 2.53, 'time': 6.04, 'pitch': -2.43, 'roll': -3.69}
{'lipoC2': 7.81, 'temp': 23.69, 'lipoC3S3': 11.59, 'rot1': 43, 'rot0': 46, 'rot3': 25, 'rot2': 30, 'state': 'normal', 'yaw': 1.82, 'datetime': '2018-10-12 14:00:13.867655', 'mgs': 0, 'depth': 3.369, 'time': 6.14, 'pitch': -1.8, 'roll': -2.68}
{'lipoC2': 7.8, 'temp': 23.69, 'lipoC3S3': 11.51, 'rot1': 44, 'rot0': 47, 'rot3': 25, 'rot2': 30, 'state': 'normal', 'yaw': 0.82, 'datetime': '2018-10-12 14:00:13.965139', 'mgs': 0, 'depth': 2.454, 'time': 6.24, 'pitch': -1.2, 'roll': -1.56}
{'lipoC2': 7.8, 'temp': 23.69, 'lipoC3S3': 11.67, 'rot1': 45, 'rot0': 49, 'rot3': 25, 'rot2': 31, 'state': 'normal', 'yaw': -0.32, 'datetime': '2018-10-12 14:00:14.062540', 'mgs': 0, 'depth': 3.598, 'time': 6.33, 'pitch': -0.81, 'roll': -0.57}
{'lipoC2': 7.81, 'temp': 23.69, 'lipoC3S3': 11.4, 'rot1': 46, 'rot0': 50, 'rot3': 26, 'rot2': 31, 'state': 'normal', 'yaw': -1.74, 'datetime': '2018-10-12 14:00:14.159796', 'mgs': 0, 'depth': 3.293, 'time': 6.43, 'pitch': -0.63, 'roll': 0.45}
{'lipoC2': 7.8, 'temp': 23.69, 'lipoC3S3': 11.59, 'rot1': 47, 'rot0': 52, 'rot3': 26, 'rot2': 32, 'state': 'normal', 'yaw': -3.07, 'datetime': '2018-10-12 14:00:14.257283', 'mgs': 0, 'depth': 2.759, 'time': 6.53, 'pitch': -0.69, 'roll': 1.54}
{'lipoC2': 7.79, 'temp': 23.63, 'lipoC3S3': 11.67, 'rot1': 49, 'rot0': 53, 'rot3': 27, 'rot2': 32, 'state': 'normal', 'yaw': -4.27, 'datetime': '2018-10-12 14:00:14.354683', 'mgs': 0, 'depth': 2.759, 'time': 6.63, 'pitch': -0.88, 'roll': 2.66}
{'lipoC2': 7.8, 'temp': 23.63, 'lipoC3S3': 11.68, 'rot1': 50, 'rot0': 54, 'rot3': 27, 'rot2': 33, 'state': 'normal', 'yaw': -5.24, 'datetime': '2018-10-12 14:00:14.453407', 'mgs': 0, 'depth': 3.14, 'time': 6.72, 'pitch': -1.09, 'roll': 3.74}
{'lipoC2': 7.8, 'temp': 23.69, 'lipoC3S3': 11.68, 'rot1': 52, 'rot0': 56, 'rot3': 28, 'rot2': 34, 'state': 'normal', 'yaw': -5.9, 'datetime': '2018-10-12 14:00:14.552340', 'mgs': 0, 'depth': 3.14, 'time': 6.82, 'pitch': -1.22, 'roll': 4.81}
{'lipoC2': 7.81, 'temp': 23.69, 'lipoC3S3': 11.61, 'rot1': 53, 'rot0': 57, 'rot3': 28, 'rot2': 34, 'state': 'normal', 'yaw': -6.14, 'datetime': '2018-10-12 14:00:14.649417', 'mgs': 0, 'depth': 3.522, 'time': 6.92, 'pitch': -1.22, 'roll': 5.67}
{'lipoC2': 7.8, 'temp': 23.69, 'lipoC3S3': 11.63, 'rot1': 55, 'rot0': 58, 'rot3': 29, 'rot2': 35, 'state': 'normal', 'yaw': -6.04, 'datetime': '2018-10-12 14:00:14.743300', 'mgs': 0, 'depth': 3.217, 'time': 7.02, 'pitch': -1.16, 'roll': 6.4}
{'lipoC2': 7.81, 'temp': 23.5, 'lipoC3S3': 11.61, 'rot1': 56, 'rot0': 60, 'rot3': 29, 'rot2': 35, 'state': 'normal', 'yaw': -5.7, 'datetime': '2018-10-12 14:00:14.843925', 'mgs': 0, 'depth': 3.369, 'time': 7.12, 'pitch': -1.04, 'roll': 6.92}
{'lipoC2': 7.81, 'temp': 23.5, 'lipoC3S3': 11.52, 'rot1': 58, 'rot0': 61, 'rot3': 29, 'rot2': 36, 'state': 'normal', 'yaw': -5.14, 'datetime': '2018-10-12 14:00:14.943488', 'mgs': 0, 'depth': 3.369, 'time': 7.22, 'pitch': -0.85, 'roll': 7.3}
{'lipoC2': 7.8, 'temp': 24.25, 'lipoC3S3': 11.52, 'rot1': 59, 'rot0': 62, 'rot3': 30, 'rot2': 36, 'state': 'normal', 'yaw': -4.39, 'datetime': '2018-10-12 14:00:15.042107', 'mgs': 0, 'depth': 3.445, 'time': 7.31, 'pitch': -0.66, 'roll': 7.44}
{'lipoC2': 7.79, 'temp': 24.25, 'lipoC3S3': 11.69, 'rot1': 61, 'rot0': 63, 'rot3': 30, 'rot2': 37, 'state': 'normal', 'yaw': -3.49, 'datetime': '2018-10-12 14:00:15.139437', 'mgs': 0, 'depth': 3.522, 'time': 7.41, 'pitch': -0.49, 'roll': 7.42}
{'lipoC2': 7.8, 'temp': 24.25, 'lipoC3S3': 11.65, 'rot1': 62, 'rot0': 65, 'rot3': 31, 'rot2': 37, 'state': 'normal', 'yaw': -2.54, 'datetime': '2018-10-12 14:00:15.236907', 'mgs': 0, 'depth': 4.285, 'time': 7.51, 'pitch': -0.35, 'roll': 7.28}
{'lipoC2': 7.79, 'temp': 24.38, 'lipoC3S3': 11.58, 'rot1': 64, 'rot0': 66, 'rot3': 31, 'rot2': 38, 'state': 'normal', 'yaw': -1.66, 'datetime': '2018-10-12 14:00:15.335245', 'mgs': 0, 'depth': 3.522, 'time': 7.61, 'pitch': -0.2, 'roll': 7.07}
{'lipoC2': 7.79, 'temp': 24.38, 'lipoC3S3': 11.69, 'rot1': 65, 'rot0': 67, 'rot3': 32, 'rot2': 38, 'state': 'normal', 'yaw': -0.67, 'datetime': '2018-10-12 14:00:15.432716', 'mgs': 0, 'depth': 3.598, 'time': 7.7, 'pitch': -0.06, 'roll': 6.77}
{'lipoC2': 7.81, 'temp': 23.75, 'lipoC3S3': 11.63, 'rot1': 67, 'rot0': 68, 'rot3': 32, 'rot2': 39, 'state': 'normal', 'yaw': 0.38, 'datetime': '2018-10-12 14:00:15.530104', 'mgs': 0, 'depth': 3.979, 'time': 7.8, 'pitch': 0.09, 'roll': 6.45}
{'lipoC2': 7.8, 'temp': 23.75, 'lipoC3S3': 11.63, 'rot1': 68, 'rot0': 69, 'rot3': 32, 'rot2': 39, 'state': 'normal', 'yaw': 1.46, 'datetime': '2018-10-12 14:00:15.627476', 'mgs': 0, 'depth': 3.522, 'time': 7.9, 'pitch': 0.2, 'roll': 6.14}
{'lipoC2': 7.79, 'temp': 23.69, 'lipoC3S3': 11.65, 'rot1': 69, 'rot0': 70, 'rot3': 33, 'rot2': 40, 'state': 'normal', 'yaw': 2.27, 'datetime': '2018-10-12 14:00:15.724842', 'mgs': 0, 'depth': 5.124, 'time': 8.0, 'pitch': 0.23, 'roll': 5.98}
{'lipoC2': 7.8, 'temp': 23.69, 'lipoC3S3': 11.73, 'rot1': 71, 'rot0': 72, 'rot3': 33, 'rot2': 40, 'state': 'normal', 'yaw': 2.82, 'datetime': '2018-10-12 14:00:15.822325', 'mgs': 0, 'depth': 3.598, 'time': 8.09, 'pitch': 0.19, 'roll': 5.95}
{'lipoC2': 7.8, 'temp': 23.69, 'lipoC3S3': 11.67, 'rot1': 73, 'rot0': 73, 'rot3': 33, 'rot2': 40, 'state': 'normal', 'yaw': 3.14, 'datetime': '2018-10-12 14:00:15.919634', 'mgs': 0, 'depth': 3.598, 'time': 8.19, 'pitch': 0.05, 'roll': 6.14}
{'lipoC2': 7.81, 'temp': 23.75, 'lipoC3S3': 11.68, 'rot1': 74, 'rot0': 75, 'rot3': 33, 'rot2': 40, 'state': 'normal', 'yaw': 3.04, 'datetime': '2018-10-12 14:00:16.017262', 'mgs': 0, 'depth': 4.666, 'time': 8.29, 'pitch': -0.15, 'roll': 6.43}
{'lipoC2': 7.8, 'temp': 23.75, 'lipoC3S3': 11.54, 'rot1': 75, 'rot0': 77, 'rot3': 33, 'rot2': 40, 'state': 'normal', 'yaw': 2.59, 'datetime': '2018-10-12 14:00:16.114598', 'mgs': 0, 'depth': 3.674, 'time': 8.39, 'pitch': -0.35, 'roll': 6.7}
{'lipoC2': 7.8, 'temp': 23.69, 'lipoC3S3': 11.69, 'rot1': 76, 'rot0': 79, 'rot3': 33, 'rot2': 40, 'state': 'normal', 'yaw': 1.79, 'datetime': '2018-10-12 14:00:16.211913', 'mgs': 0, 'depth': 3.674, 'time': 8.48, 'pitch': -0.52, 'roll': 6.95}
{'lipoC2': 7.8, 'temp': 23.69, 'lipoC3S3': 11.67, 'rot1': 77, 'rot0': 80, 'rot3': 33, 'rot2': 40, 'state': 'normal', 'yaw': 0.69, 'datetime': '2018-10-12 14:00:16.309577', 'mgs': 0, 'depth': 4.514, 'time': 8.58, 'pitch': -0.63, 'roll': 7.16}
{'lipoC2': 7.8, 'temp': 23.69, 'lipoC3S3': 11.63, 'rot1': 78, 'rot0': 82, 'rot3': 33, 'rot2': 40, 'state': 'normal', 'yaw': -0.55, 'datetime': '2018-10-12 14:00:16.407697', 'mgs': 0, 'depth': 3.598, 'time': 8.68, 'pitch': -0.68, 'roll': 7.35}
{'lipoC2': 7.8, 'temp': 23.69, 'lipoC3S3': 11.61, 'rot1': 80, 'rot0': 83, 'rot3': 33, 'rot2': 40, 'state': 'normal', 'yaw': -2.07, 'datetime': '2018-10-12 14:00:16.506530', 'mgs': 0, 'depth': 3.598, 'time': 8.78, 'pitch': -0.71, 'roll': 7.57}
{'lipoC2': 7.79, 'temp': 23.69, 'lipoC3S3': 11.71, 'rot1': 80, 'rot0': 84, 'rot3': 33, 'rot2': 40, 'state': 'normal', 'yaw': -3.4, 'datetime': '2018-10-12 14:00:20.560753', 'mgs': 0, 'depth': 3.674, 'time': 8.88, 'pitch': -0.76, 'roll': 7.77}
{'lipoC2': 7.8, 'temp': 23.69, 'lipoC3S3': 11.73, 'rot1': 80, 'rot0': 84, 'rot3': 33, 'rot2': 41, 'state': 'normal', 'yaw': -4.54, 'datetime': '2018-10-12 14:00:20.578791', 'mgs': 0, 'depth': 3.751, 'time': 8.98, 'pitch': -0.86, 'roll': 7.18}
{'lipoC2': 7.8, 'temp': 23.69, 'lipoC3S3': 11.71, 'rot1': 80, 'rot0': 84, 'rot3': 34, 'rot2': 41, 'state': 'normal', 'yaw': -5.58, 'datetime': '2018-10-12 14:00:20.609406', 'mgs': 0, 'depth': 3.445, 'time': 9.07, 'pitch': -1.07, 'roll': 6.16}
{'lipoC2': 7.8, 'temp': 23.69, 'lipoC3S3': 11.76, 'rot1': 80, 'rot0': 84, 'rot3': 34, 'rot2': 42, 'state': 'normal', 'yaw': -6.44, 'datetime': '2018-10-12 14:00:20.617320', 'mgs': 0, 'depth': 3.751, 'time': 9.17, 'pitch': -1.28, 'roll': 5.05}
{'lipoC2': 7.8, 'temp': 23.69, 'lipoC3S3': 11.76, 'rot1': 80, 'rot0': 84, 'rot3': 35, 'rot2': 42, 'state': 'normal', 'yaw': -7.27, 'datetime': '2018-10-12 14:00:20.636648', 'mgs': 0, 'depth': 3.751, 'time': 9.27, 'pitch': -1.51, 'roll': 3.73}
{'lipoC2': 7.79, 'temp': 23.69, 'lipoC3S3': 11.75, 'rot1': 80, 'rot0': 84, 'rot3': 35, 'rot2': 43, 'state': 'normal', 'yaw': -8.03, 'datetime': '2018-10-12 14:00:20.644562', 'mgs': 0, 'depth': 3.598, 'time': 9.37, 'pitch': -1.71, 'roll': 2.45}
{'lipoC2': 7.8, 'temp': 23.69, 'lipoC3S3': 11.69, 'rot1': 80, 'rot0': 84, 'rot3': 36, 'rot2': 44, 'state': 'normal', 'yaw': -8.76, 'datetime': '2018-10-12 14:00:20.663930', 'mgs': 0, 'depth': 3.369, 'time': 9.47, 'pitch': -1.87, 'roll': 1.28}
{'lipoC2': 7.8, 'temp': 23.69, 'lipoC3S3': 11.71, 'rot1': 80, 'rot0': 84, 'rot3': 36, 'rot2': 44, 'state': 'normal', 'yaw': -9.46, 'datetime': '2018-10-12 14:00:20.671820', 'mgs': 0, 'depth': 3.14, 'time': 9.56, 'pitch': -1.9, 'roll': 0.22}
{'lipoC2': 7.8, 'temp': 23.69, 'lipoC3S3': 11.77, 'rot1': 80, 'rot0': 84, 'rot3': 36, 'rot2': 45, 'state': 'normal', 'yaw': -10.09, 'datetime': '2018-10-12 14:00:20.691135', 'mgs': 0, 'depth': 3.064, 'time': 9.66, 'pitch': -1.93, 'roll': -0.66}
{'lipoC2': 7.8, 'temp': 23.56, 'lipoC3S3': 11.75, 'rot1': 80, 'rot0': 84, 'rot3': 37, 'rot2': 45, 'state': 'normal', 'yaw': -10.79, 'datetime': '2018-10-12 14:00:20.698978', 'mgs': 0, 'depth': 3.217, 'time': 9.76, 'pitch': -1.87, 'roll': -1.63}
{'lipoC2': 7.8, 'temp': 23.56, 'lipoC3S3': 11.72, 'rot1': 80, 'rot0': 84, 'rot3': 37, 'rot2': 46, 'state': 'normal', 'yaw': -11.49, 'datetime': '2018-10-12 14:00:20.718272', 'mgs': 0, 'depth': 2.759, 'time': 9.86, 'pitch': -1.81, 'roll': -2.58}
{'lipoC2': 7.79, 'temp': 23.69, 'lipoC3S3': 11.73, 'rot1': 80, 'rot0': 84, 'rot3': 38, 'rot2': 47, 'state': 'normal', 'yaw': -12.14, 'datetime': '2018-10-12 14:00:20.726175', 'mgs': 0, 'depth': 2.759, 'time': 9.95, 'pitch': -1.77, 'roll': -3.34}
{'lipoC2': 7.8, 'temp': 23.69, 'lipoC3S3': 11.75, 'rot1': 80, 'rot0': 84, 'rot3': 38, 'rot2': 47, 'state': 'normal', 'yaw': -12.85, 'datetime': '2018-10-12 14:00:20.745428', 'mgs': 0, 'depth': 2.988, 'time': 10.05, 'pitch': -1.82, 'roll': -4.02}
{'lipoC2': 7.8, 'temp': 23.69, 'lipoC3S3': 11.72, 'rot1': 80, 'rot0': 84, 'rot3': 39, 'rot2': 48, 'state': 'normal', 'yaw': -13.53, 'datetime': '2018-10-12 14:00:20.753256', 'mgs': 0, 'depth': 2.606, 'time': 10.15, 'pitch': -1.89, 'roll': -4.45}
{'lipoC2': 7.8, 'temp': 23.69, 'lipoC3S3': 11.75, 'rot1': 80, 'rot0': 84, 'rot3': 39, 'rot2': 48, 'state': 'normal', 'yaw': -14.17, 'datetime': '2018-10-12 14:00:20.772452', 'mgs': 0, 'depth': 2.53, 'time': 10.25, 'pitch': -1.94, 'roll': -4.53}
{'lipoC2': 7.8, 'temp': 23.69, 'lipoC3S3': 11.75, 'rot1': 80, 'rot0': 84, 'rot3': 40, 'rot2': 49, 'state': 'normal', 'yaw': -14.69, 'datetime': '2018-10-12 14:00:20.780264', 'mgs': 0, 'depth': 2.682, 'time': 10.34, 'pitch': -1.98, 'roll': -4.34}
{'lipoC2': 7.8, 'temp': 23.69, 'lipoC3S3': 11.72, 'rot1': 80, 'rot0': 84, 'rot3': 40, 'rot2': 50, 'state': 'normal', 'yaw': -15.25, 'datetime': '2018-10-12 14:00:20.799456', 'mgs': 0, 'depth': 2.072, 'time': 10.44, 'pitch': -2.02, 'roll': -3.9}
{'lipoC2': 7.79, 'temp': 23.69, 'lipoC3S3': 11.76, 'rot1': 80, 'rot0': 84, 'rot3': 40, 'rot2': 50, 'state': 'normal', 'yaw': -15.82, 'datetime': '2018-10-12 14:00:20.807270', 'mgs': 0, 'depth': 2.377, 'time': 10.54, 'pitch': -2.06, 'roll': -3.36}
{'lipoC2': 7.8, 'temp': 23.69, 'lipoC3S3': 11.73, 'rot1': 80, 'rot0': 84, 'rot3': 41, 'rot2': 51, 'state': 'normal', 'yaw': -16.4, 'datetime': '2018-10-12 14:00:20.826486', 'mgs': 0, 'depth': 2.301, 'time': 10.64, 'pitch': -2.07, 'roll': -2.82}
{'lipoC2': 7.8, 'temp': 23.69, 'lipoC3S3': 11.73, 'rot1': 80, 'rot0': 84, 'rot3': 41, 'rot2': 52, 'state': 'normal', 'yaw': -16.89, 'datetime': '2018-10-12 14:00:20.834455', 'mgs': 0, 'depth': 2.225, 'time': 10.73, 'pitch': -2.01, 'roll': -2.35}
{'lipoC2': 7.79, 'temp': 23.69, 'lipoC3S3': 11.73, 'rot1': 80, 'rot0': 84, 'rot3': 42, 'rot2': 52, 'state': 'normal', 'yaw': -17.38, 'datetime': '2018-10-12 14:00:20.853686', 'mgs': 0, 'depth': 2.225, 'time': 10.83, 'pitch': -1.88, 'roll': -1.87}
{'lipoC2': 7.8, 'temp': 23.69, 'lipoC3S3': 11.76, 'rot1': 80, 'rot0': 84, 'rot3': 42, 'rot2': 53, 'state': 'normal', 'yaw': -17.79, 'datetime': '2018-10-12 14:00:20.861507', 'mgs': 0, 'depth': 2.454, 'time': 10.93, 'pitch': -1.64, 'roll': -1.53}
{'lipoC2': 7.8, 'temp': 23.69, 'lipoC3S3': 11.71, 'rot1': 80, 'rot0': 84, 'rot3': 43, 'rot2': 53, 'state': 'normal', 'yaw': -18.13, 'datetime': '2018-10-12 14:00:20.880735', 'mgs': 0, 'depth': 2.225, 'time': 11.03, 'pitch': -1.45, 'roll': -1.34}
{'lipoC2': 7.8, 'temp': 23.69, 'lipoC3S3': 11.76, 'rot1': 80, 'rot0': 84, 'rot3': 43, 'rot2': 54, 'state': 'normal', 'yaw': -18.44, 'datetime': '2018-10-12 14:00:20.888327', 'mgs': 0, 'depth': 2.301, 'time': 11.13, 'pitch': -1.48, 'roll': -1.33}
{'lipoC2': 7.79, 'temp': 23.75, 'lipoC3S3': 11.76, 'rot1': 80, 'rot0': 84, 'rot3': 44, 'rot2': 55, 'state': 'normal', 'yaw': -18.82, 'datetime': '2018-10-12 14:00:20.907308', 'mgs': 0, 'depth': 2.454, 'time': 11.23, 'pitch': -1.74, 'roll': -1.44}
{'lipoC2': 7.8, 'temp': 23.75, 'lipoC3S3': 11.72, 'rot1': 80, 'rot0': 84, 'rot3': 44, 'rot2': 55, 'state': 'normal', 'yaw': -19.24, 'datetime': '2018-10-12 14:00:20.914717', 'mgs': 0, 'depth': 2.225, 'time': 11.32, 'pitch': -2.08, 'roll': -1.66}
{'lipoC2': 7.8, 'temp': 23.69, 'lipoC3S3': 11.76, 'rot1': 80, 'rot0': 84, 'rot3': 45, 'rot2': 56, 'state': 'normal', 'yaw': -19.67, 'datetime': '2018-10-12 14:00:20.933520', 'mgs': 0, 'depth': 2.148, 'time': 11.42, 'pitch': -2.32, 'roll': -1.9}
{'lipoC2': 7.8, 'temp': 23.69, 'lipoC3S3': 11.76, 'rot1': 80, 'rot0': 84, 'rot3': 45, 'rot2': 57, 'state': 'normal', 'yaw': -20.06, 'datetime': '2018-10-12 14:00:20.940955', 'mgs': 0, 'depth': 2.377, 'time': 11.52, 'pitch': -2.36, 'roll': -2.1}
{'lipoC2': 7.8, 'temp': 23.69, 'lipoC3S3': 11.72, 'rot1': 80, 'rot0': 84, 'rot3': 46, 'rot2': 57, 'state': 'normal', 'yaw': -20.36, 'datetime': '2018-10-12 14:00:20.959721', 'mgs': 0, 'depth': 2.148, 'time': 11.62, 'pitch': -2.28, 'roll': -2.18}
{'lipoC2': 7.8, 'temp': 23.75, 'lipoC3S3': 11.76, 'rot1': 80, 'rot0': 84, 'rot3': 46, 'rot2': 58, 'state': 'normal', 'yaw': -20.66, 'datetime': '2018-10-12 14:00:20.967138', 'mgs': 0, 'depth': 2.225, 'time': 11.72, 'pitch': -2.13, 'roll': -2.17}
{'lipoC2': 7.8, 'temp': 23.75, 'lipoC3S3': 11.75, 'rot1': 80, 'rot0': 84, 'rot3': 47, 'rot2': 58, 'state': 'normal', 'yaw': -20.94, 'datetime': '2018-10-12 14:00:20.985940', 'mgs': 0, 'depth': 2.377, 'time': 11.81, 'pitch': -1.99, 'roll': -2.16}
{'lipoC2': 7.8, 'temp': 23.75, 'lipoC3S3': 11.73, 'rot1': 80, 'rot0': 84, 'rot3': 47, 'rot2': 59, 'state': 'normal', 'yaw': -21.23, 'datetime': '2018-10-12 14:00:20.993362', 'mgs': 0, 'depth': 2.072, 'time': 11.91, 'pitch': -1.98, 'roll': -2.24}
{'lipoC2': 7.8, 'temp': 23.75, 'lipoC3S3': 11.77, 'rot1': 80, 'rot0': 84, 'rot3': 48, 'rot2': 60, 'state': 'normal', 'yaw': -21.49, 'datetime': '2018-10-12 14:00:21.012185', 'mgs': 0, 'depth': 2.148, 'time': 12.01, 'pitch': -2.02, 'roll': -2.44}
{'lipoC2': 7.8, 'temp': 23.75, 'lipoC3S3': 11.76, 'rot1': 80, 'rot0': 84, 'rot3': 48, 'rot2': 60, 'state': 'normal', 'yaw': -21.76, 'datetime': '2018-10-12 14:00:21.019555', 'mgs': 0, 'depth': 2.301, 'time': 12.11, 'pitch': -2.12, 'roll': -2.69}
{'lipoC2': 7.8, 'temp': 23.75, 'lipoC3S3': 11.73, 'rot1': 80, 'rot0': 84, 'rot3': 49, 'rot2': 61, 'state': 'normal', 'yaw': -22.0, 'datetime': '2018-10-12 14:00:21.038314', 'mgs': 0, 'depth': 2.072, 'time': 12.2, 'pitch': -2.23, 'roll': -2.87}
{'lipoC2': 7.79, 'temp': 23.75, 'lipoC3S3': 11.76, 'rot1': 80, 'rot0': 84, 'rot3': 49, 'rot2': 62, 'state': 'normal', 'yaw': -22.2, 'datetime': '2018-10-12 14:00:21.045735', 'mgs': 0, 'depth': 2.148, 'time': 12.3, 'pitch': -2.25, 'roll': -2.9}
{'lipoC2': 7.79, 'temp': 23.75, 'lipoC3S3': 11.77, 'rot1': 80, 'rot0': 84, 'rot3': 50, 'rot2': 62, 'state': 'normal', 'yaw': -22.38, 'datetime': '2018-10-12 14:00:21.064664', 'mgs': 0, 'depth': 2.454, 'time': 12.4, 'pitch': -2.2, 'roll': -2.72}
{'lipoC2': 7.8, 'temp': 23.75, 'lipoC3S3': 11.73, 'rot1': 80, 'rot0': 84, 'rot3': 50, 'rot2': 63, 'state': 'normal', 'yaw': -22.5, 'datetime': '2018-10-12 14:00:21.072072', 'mgs': 0, 'depth': 2.301, 'time': 12.5, 'pitch': -2.02, 'roll': -2.34}
{'lipoC2': 7.8, 'temp': 23.75, 'lipoC3S3': 11.75, 'rot1': 80, 'rot0': 84, 'rot3': 51, 'rot2': 63, 'state': 'normal', 'yaw': -22.53, 'datetime': '2018-10-12 14:00:21.090912', 'mgs': 0, 'depth': 2.225, 'time': 12.59, 'pitch': -1.76, 'roll': -1.89}
{'lipoC2': 7.8, 'temp': 23.69, 'lipoC3S3': 11.76, 'rot1': 80, 'rot0': 84, 'rot3': 51, 'rot2': 64, 'state': 'normal', 'yaw': -22.53, 'datetime': '2018-10-12 14:00:21.098314', 'mgs': 0, 'depth': 2.377, 'time': 12.69, 'pitch': -1.52, 'roll': -1.57}
{'lipoC2': 7.8, 'temp': 23.69, 'lipoC3S3': 11.76, 'rot1': 80, 'rot0': 84, 'rot3': 52, 'rot2': 65, 'state': 'normal', 'yaw': -22.59, 'datetime': '2018-10-12 14:00:21.117122', 'mgs': 0, 'depth': 2.454, 'time': 12.79, 'pitch': -1.29, 'roll': -1.41}
{'lipoC2': 7.81, 'temp': 23.69, 'lipoC3S3': 11.64, 'rot1': 80, 'rot0': 84, 'rot3': 52, 'rot2': 65, 'state': 'normal', 'yaw': -22.66, 'datetime': '2018-10-12 14:00:21.124539', 'mgs': 0, 'depth': 2.606, 'time': 12.89, 'pitch': -1.17, 'roll': -1.46}
{'lipoC2': 7.79, 'temp': 23.69, 'lipoC3S3': 11.69, 'rot1': 81, 'rot0': 85, 'rot3': 53, 'rot2': 66, 'state': 'normal', 'yaw': -22.56, 'datetime': '2018-10-12 14:00:21.143365', 'mgs': 0, 'depth': 2.759, 'time': 12.99, 'pitch': -1.06, 'roll': -1.6}
{'lipoC2': 7.79, 'temp': 23.75, 'lipoC3S3': 11.67, 'rot1': 82, 'rot0': 85, 'rot3': 53, 'rot2': 66, 'state': 'normal', 'yaw': -21.8, 'datetime': '2018-10-12 14:00:21.150786', 'mgs': 0, 'depth': 2.301, 'time': 13.09, 'pitch': -0.88, 'roll': -1.56}
{'lipoC2': 7.8, 'temp': 23.75, 'lipoC3S3': 11.75, 'rot1': 82, 'rot0': 86, 'rot3': 54, 'rot2': 67, 'state': 'normal', 'yaw': -20.64, 'datetime': '2018-10-12 14:00:21.169579', 'mgs': 0, 'depth': 2.377, 'time': 13.18, 'pitch': -0.75, 'roll': -1.26}
{'lipoC2': 7.8, 'temp': 23.75, 'lipoC3S3': 11.73, 'rot1': 83, 'rot0': 87, 'rot3': 54, 'rot2': 68, 'state': 'normal', 'yaw': -18.9, 'datetime': '2018-10-12 14:00:21.176983', 'mgs': 0, 'depth': 2.454, 'time': 13.28, 'pitch': -0.63, 'roll': -0.68}
{'lipoC2': 7.8, 'temp': 23.63, 'lipoC3S3': 11.68, 'rot1': 84, 'rot0': 88, 'rot3': 55, 'rot2': 68, 'state': 'normal', 'yaw': -16.74, 'datetime': '2018-10-12 14:00:21.195786', 'mgs': 0, 'depth': 2.225, 'time': 13.38, 'pitch': -0.58, 'roll': -0.03}
{'lipoC2': 7.8, 'temp': 23.63, 'lipoC3S3': 11.73, 'rot1': 85, 'rot0': 89, 'rot3': 55, 'rot2': 69, 'state': 'normal', 'yaw': -14.17, 'datetime': '2018-10-12 14:00:21.203224', 'mgs': 0, 'depth': 2.454, 'time': 13.48, 'pitch': -0.61, 'roll': 0.43}
{'lipoC2': 7.79, 'temp': 23.69, 'lipoC3S3': 11.69, 'rot1': 86, 'rot0': 90, 'rot3': 56, 'rot2': 70, 'state': 'normal', 'yaw': -11.23, 'datetime': '2018-10-12 14:00:21.292305', 'mgs': 0, 'depth': 2.454, 'time': 13.58, 'pitch': -0.81, 'roll': 0.53}
{'lipoC2': 7.8, 'temp': 23.69, 'lipoC3S3': 11.75, 'rot1': 86, 'rot0': 91, 'rot3': 56, 'rot2': 70, 'state': 'normal', 'yaw': -8.36, 'datetime': '2018-10-12 14:00:21.389668', 'mgs': 0, 'depth': 2.377, 'time': 13.67, 'pitch': -1.02, 'roll': 0.29}
{'lipoC2': 7.8, 'temp': 23.69, 'lipoC3S3': 11.69, 'rot1': 87, 'rot0': 91, 'rot3': 57, 'rot2': 71, 'state': 'normal', 'yaw': -4.88, 'datetime': '2018-10-12 14:00:21.487085', 'mgs': 0, 'depth': 2.454, 'time': 13.77, 'pitch': -1.17, 'roll': -0.25}
{'lipoC2': 7.8, 'temp': 23.69, 'lipoC3S3': 11.69, 'rot1': 88, 'rot0': 92, 'rot3': 57, 'rot2': 72, 'state': 'normal', 'yaw': -1.1, 'datetime': '2018-10-12 14:00:21.584455', 'mgs': 0, 'depth': 2.225, 'time': 13.87, 'pitch': -1.16, 'roll': -0.93}
{'lipoC2': 7.79, 'temp': 23.69, 'lipoC3S3': 11.72, 'rot1': 89, 'rot0': 93, 'rot3': 58, 'rot2': 72, 'state': 'normal', 'yaw': 2.5, 'datetime': '2018-10-12 14:00:21.682064', 'mgs': 0, 'depth': 2.225, 'time': 13.97, 'pitch': -1.1, 'roll': -1.47}
{'lipoC2': 7.79, 'temp': 23.69, 'lipoC3S3': 11.73, 'rot1': 90, 'rot0': 94, 'rot3': 58, 'rot2': 73, 'state': 'normal', 'yaw': 6.65, 'datetime': '2018-10-12 14:00:21.779440', 'mgs': 0, 'depth': 2.377, 'time': 14.06, 'pitch': -0.98, 'roll': -1.85}
{'lipoC2': 7.8, 'temp': 23.69, 'lipoC3S3': 11.71, 'rot1': 90, 'rot0': 95, 'rot3': 59, 'rot2': 74, 'state': 'normal', 'yaw': 10.95, 'datetime': '2018-10-12 14:00:21.876858', 'mgs': 0, 'depth': 2.148, 'time': 14.16, 'pitch': -0.94, 'roll': -2.06}
{'lipoC2': 7.8, 'temp': 23.69, 'lipoC3S3': 11.75, 'rot1': 91, 'rot0': 96, 'rot3': 59, 'rot2': 74, 'state': 'normal', 'yaw': 15.34, 'datetime': '2018-10-12 14:00:21.974262', 'mgs': 0, 'depth': 2.377, 'time': 14.26, 'pitch': -1.01, 'roll': -2.21}
{'lipoC2': 7.79, 'temp': 23.69, 'lipoC3S3': 11.68, 'rot1': 92, 'rot0': 96, 'rot3': 60, 'rot2': 75, 'state': 'normal', 'yaw': 19.35, 'datetime': '2018-10-12 14:00:22.072306', 'mgs': 0, 'depth': 2.225, 'time': 14.36, 'pitch': -1.13, 'roll': -2.38}
{'lipoC2': 7.8, 'temp': 23.69, 'lipoC3S3': 11.69, 'rot1': 93, 'rot0': 97, 'rot3': 60, 'rot2': 76, 'state': 'normal', 'yaw': 23.83, 'datetime': '2018-10-12 14:00:22.173301', 'mgs': 0, 'depth': 2.072, 'time': 14.45, 'pitch': -1.23, 'roll': -2.49}
{'lipoC2': 7.8, 'temp': 23.69, 'lipoC3S3': 11.73, 'rot1': 94, 'rot0': 98, 'rot3': 61, 'rot2': 76, 'state': 'normal', 'yaw': 28.39, 'datetime': '2018-10-12 14:00:22.271621', 'mgs': 0, 'depth': 2.377, 'time': 14.55, 'pitch': -1.23, 'roll': -2.52}
{'lipoC2': 7.79, 'temp': 23.69, 'lipoC3S3': 11.73, 'rot1': 94, 'rot0': 99, 'rot3': 61, 'rot2': 77, 'state': 'normal', 'yaw': 33.05, 'datetime': '2018-10-12 14:00:22.369434', 'mgs': 0, 'depth': 2.377, 'time': 14.65, 'pitch': -1.12, 'roll': -2.44}
{'lipoC2': 7.8, 'temp': 23.69, 'lipoC3S3': 11.73, 'rot1': 95, 'rot0': 100, 'rot3': 62, 'rot2': 78, 'state': 'normal', 'yaw': 37.28, 'datetime': '2018-10-12 14:00:22.468203', 'mgs': 0, 'depth': 2.301, 'time': 14.75, 'pitch': -0.95, 'roll': -2.34}
{'lipoC2': 7.8, 'temp': 23.75, 'lipoC3S3': 11.73, 'rot1': 96, 'rot0': 100, 'rot3': 62, 'rot2': 78, 'state': 'normal', 'yaw': 42.03, 'datetime': '2018-10-12 14:00:22.566950', 'mgs': 0, 'depth': 2.225, 'time': 14.85, 'pitch': -0.82, 'roll': -2.27}
{'lipoC2': 7.79, 'temp': 23.75, 'lipoC3S3': 11.72, 'rot1': 97, 'rot0': 101, 'rot3': 63, 'rot2': 79, 'state': 'normal', 'yaw': 46.83, 'datetime': '2018-10-12 14:00:22.664444', 'mgs': 0, 'depth': 2.377, 'time': 14.94, 'pitch': -0.81, 'roll': -2.32}
{'lipoC2': 7.8, 'temp': 23.69, 'lipoC3S3': 11.69, 'rot1': 98, 'rot0': 102, 'rot3': 63, 'rot2': 80, 'state': 'normal', 'yaw': 51.68, 'datetime': '2018-10-12 14:00:22.762056', 'mgs': 0, 'depth': 2.454, 'time': 15.04, 'pitch': -0.91, 'roll': -2.5}
{'lipoC2': 7.8, 'temp': 23.69, 'lipoC3S3': 11.69, 'rot1': 99, 'rot0': 103, 'rot3': 64, 'rot2': 80, 'state': 'normal', 'yaw': 56.11, 'datetime': '2018-10-12 14:00:22.859863', 'mgs': 0, 'depth': 2.301, 'time': 15.14, 'pitch': -1.05, 'roll': -2.75}
{'lipoC2': 7.8, 'temp': 23.69, 'lipoC3S3': 11.71, 'rot1': 99, 'rot0': 104, 'rot3': 64, 'rot2': 81, 'state': 'normal', 'yaw': 61.1, 'datetime': '2018-10-12 14:00:22.958718', 'mgs': 0, 'depth': 2.301, 'time': 15.24, 'pitch': -1.22, 'roll': -3.03}
{'lipoC2': 7.8, 'temp': 23.69, 'lipoC3S3': 11.68, 'rot1': 100, 'rot0': 104, 'rot3': 65, 'rot2': 82, 'state': 'normal', 'yaw': 66.16, 'datetime': '2018-10-12 14:00:23.057309', 'mgs': 0, 'depth': 1.462, 'time': 15.34, 'pitch': -1.29, 'roll': -3.23}
{'lipoC2': 7.81, 'temp': 23.69, 'lipoC3S3': 11.69, 'rot1': 101, 'rot0': 105, 'rot3': 65, 'rot2': 82, 'state': 'normal', 'yaw': 71.32, 'datetime': '2018-10-12 14:00:23.154959', 'mgs': 0, 'depth': 2.148, 'time': 15.43, 'pitch': -1.17, 'roll': -3.18}
{'lipoC2': 7.8, 'temp': 23.69, 'lipoC3S3': 11.72, 'rot1': 102, 'rot0': 106, 'rot3': 66, 'rot2': 83, 'state': 'normal', 'yaw': 76.57, 'datetime': '2018-10-12 14:00:23.252613', 'mgs': 0, 'depth': 2.148, 'time': 15.53, 'pitch': -0.89, 'roll': -2.86}
{'lipoC2': 7.8, 'temp': 23.69, 'lipoC3S3': 11.69, 'rot1': 103, 'rot0': 107, 'rot3': 67, 'rot2': 84, 'state': 'normal', 'yaw': 81.36, 'datetime': '2018-10-12 14:00:23.350530', 'mgs': 0, 'depth': 2.377, 'time': 15.63, 'pitch': -0.57, 'roll': -2.51}
{'lipoC2': 7.8, 'temp': 23.69, 'lipoC3S3': 11.69, 'rot1': 103, 'rot0': 108, 'rot3': 67, 'rot2': 84, 'state': 'normal', 'yaw': 86.68, 'datetime': '2018-10-12 14:00:23.448188', 'mgs': 0, 'depth': 2.148, 'time': 15.73, 'pitch': -0.23, 'roll': -2.28}
{'lipoC2': 7.8, 'temp': 23.69, 'lipoC3S3': 11.65, 'rot1': 104, 'rot0': 109, 'rot3': 68, 'rot2': 85, 'state': 'normal', 'yaw': 92.02, 'datetime': '2018-10-12 14:00:23.545933', 'mgs': 0, 'depth': 2.148, 'time': 15.82, 'pitch': 0.09, 'roll': -2.26}
{'lipoC2': 7.8, 'temp': 23.69, 'lipoC3S3': 11.73, 'rot1': 105, 'rot0': 109, 'rot3': 68, 'rot2': 86, 'state': 'normal', 'yaw': 97.43, 'datetime': '2018-10-12 14:00:23.643374', 'mgs': 0, 'depth': 2.377, 'time': 15.92, 'pitch': 0.31, 'roll': -2.42}
{'lipoC2': 7.8, 'temp': 23.69, 'lipoC3S3': 11.8, 'rot1': 105, 'rot0': 110, 'rot3': 68, 'rot2': 86, 'state': 'normal', 'yaw': 102.34, 'datetime': '2018-10-12 14:00:23.741124', 'mgs': 0, 'depth': 2.072, 'time': 16.02, 'pitch': 0.36, 'roll': -2.67}
{'lipoC2': 7.79, 'temp': 23.69, 'lipoC3S3': 11.8, 'rot1': 105, 'rot0': 110, 'rot3': 68, 'rot2': 86, 'state': 'normal', 'yaw': 107.32, 'datetime': '2018-10-12 14:00:23.838743', 'mgs': 0, 'depth': 2.148, 'time': 16.12, 'pitch': 0.17, 'roll': -3.1}
{'lipoC2': 7.8, 'temp': 23.69, 'lipoC3S3': 11.72, 'rot1': 105, 'rot0': 110, 'rot3': 68, 'rot2': 86, 'state': 'normal', 'yaw': 111.79, 'datetime': '2018-10-12 14:00:23.936353', 'mgs': 0, 'depth': 2.454, 'time': 16.22, 'pitch': -0.11, 'roll': -3.63}
{'lipoC2': 7.79, 'temp': 23.75, 'lipoC3S3': 11.59, 'rot1': 106, 'rot0': 110, 'rot3': 68, 'rot2': 87, 'state': 'normal', 'yaw': 115.89, 'datetime': '2018-10-12 14:00:24.034215', 'mgs': 0, 'depth': 3.217, 'time': 16.32, 'pitch': -0.29, 'roll': -4.34}
{'lipoC2': 7.8, 'temp': 23.75, 'lipoC3S3': 11.65, 'rot1': 107, 'rot0': 111, 'rot3': 69, 'rot2': 87, 'state': 'normal', 'yaw': 119.4, 'datetime': '2018-10-12 14:00:24.131990', 'mgs': 0, 'depth': 3.903, 'time': 16.41, 'pitch': -0.25, 'roll': -4.25}
{'lipoC2': 7.78, 'temp': 23.69, 'lipoC3S3': 11.69, 'rot1': 109, 'rot0': 112, 'rot3': 69, 'rot2': 88, 'state': 'normal', 'yaw': 123.27, 'datetime': '2018-10-12 14:00:24.229541', 'mgs': 0, 'depth': 2.911, 'time': 16.51, 'pitch': 0.02, 'roll': -3.21}
{'lipoC2': 7.8, 'temp': 23.69, 'lipoC3S3': 11.69, 'rot1': 110, 'rot0': 114, 'rot3': 69, 'rot2': 88, 'state': 'normal', 'yaw': 127.08, 'datetime': '2018-10-12 14:00:24.327122', 'mgs': 0, 'depth': 2.377, 'time': 16.61, 'pitch': 0.41, 'roll': -1.74}
{'lipoC2': 7.8, 'temp': 23.69, 'lipoC3S3': 11.6, 'rot1': 112, 'rot0': 115, 'rot3': 69, 'rot2': 88, 'state': 'normal', 'yaw': 130.86, 'datetime': '2018-10-12 14:00:24.424831', 'mgs': 0, 'depth': 2.377, 'time': 16.71, 'pitch': 0.86, 'roll': -0.21}
{'lipoC2': 7.8, 'temp': 23.69, 'lipoC3S3': 11.65, 'rot1': 113, 'rot0': 116, 'rot3': 69, 'rot2': 88, 'state': 'normal', 'yaw': 134.21, 'datetime': '2018-10-12 14:00:24.523158', 'mgs': 0, 'depth': 3.827, 'time': 16.8, 'pitch': 1.22, 'roll': 1.0}
{'lipoC2': 7.79, 'temp': 23.69, 'lipoC3S3': 11.65, 'rot1': 115, 'rot0': 117, 'rot3': 69, 'rot2': 88, 'state': 'normal', 'yaw': 137.93, 'datetime': '2018-10-12 14:00:24.622099', 'mgs': 0, 'depth': 2.53, 'time': 16.9, 'pitch': 1.57, 'roll': 2.07}
{'lipoC2': 7.79, 'temp': 23.69, 'lipoC3S3': 11.56, 'rot1': 116, 'rot0': 118, 'rot3': 70, 'rot2': 90, 'state': 'normal', 'yaw': 141.61, 'datetime': '2018-10-12 14:00:24.720879', 'mgs': 0, 'depth': 2.606, 'time': 17.0, 'pitch': 1.91, 'roll': 2.93}
{'lipoC2': 7.79, 'temp': 23.69, 'lipoC3S3': 11.68, 'rot1': 118, 'rot0': 119, 'rot3': 70, 'rot2': 90, 'state': 'normal', 'yaw': 145.24, 'datetime': '2018-10-12 14:00:24.818701', 'mgs': 0, 'depth': 2.606, 'time': 17.1, 'pitch': 2.17, 'roll': 3.84}
{'lipoC2': 7.79, 'temp': 23.69, 'lipoC3S3': 11.68, 'rot1': 119, 'rot0': 120, 'rot3': 71, 'rot2': 91, 'state': 'normal', 'yaw': 148.83, 'datetime': '2018-10-12 14:00:24.916084', 'mgs': 0, 'depth': 3.369, 'time': 17.2, 'pitch': 2.29, 'roll': 4.92}
{'lipoC2': 7.79, 'temp': 23.69, 'lipoC3S3': 11.68, 'rot1': 121, 'rot0': 121, 'rot3': 71, 'rot2': 92, 'state': 'normal', 'yaw': 152.32, 'datetime': '2018-10-12 14:00:25.014141', 'mgs': 0, 'depth': 2.759, 'time': 17.3, 'pitch': 2.33, 'roll': 6.04}
{'lipoC2': 7.79, 'temp': 23.69, 'lipoC3S3': 11.54, 'rot1': 122, 'rot0': 122, 'rot3': 72, 'rot2': 92, 'state': 'normal', 'yaw': 155.35, 'datetime': '2018-10-12 14:00:25.112921', 'mgs': 0, 'depth': 2.759, 'time': 17.39, 'pitch': 2.39, 'roll': 6.96}
{'lipoC2': 7.81, 'temp': 23.69, 'lipoC3S3': 11.6, 'rot1': 124, 'rot0': 124, 'rot3': 72, 'rot2': 93, 'state': 'normal', 'yaw': 158.56, 'datetime': '2018-10-12 14:00:25.208123', 'mgs': 0, 'depth': 3.217, 'time': 17.49, 'pitch': 2.48, 'roll': 7.7}
{'lipoC2': 7.8, 'temp': 23.69, 'lipoC3S3': 11.69, 'rot1': 125, 'rot0': 125, 'rot3': 73, 'rot2': 93, 'state': 'normal', 'yaw': 161.67, 'datetime': '2018-10-12 14:00:25.309479', 'mgs': 0, 'depth': 2.835, 'time': 17.59, 'pitch': 2.58, 'roll': 8.14}
{'lipoC2': 7.79, 'temp': 23.69, 'lipoC3S3': 11.55, 'rot1': 127, 'rot0': 126, 'rot3': 73, 'rot2': 94, 'state': 'normal', 'yaw': 164.67, 'datetime': '2018-10-12 14:00:25.407127', 'mgs': 0, 'depth': 2.988, 'time': 17.69, 'pitch': 2.7, 'roll': 8.27}
{'lipoC2': 7.8, 'temp': 23.69, 'lipoC3S3': 11.56, 'rot1': 128, 'rot0': 127, 'rot3': 74, 'rot2': 94, 'state': 'normal', 'yaw': 167.62, 'datetime': '2018-10-12 14:00:25.505017', 'mgs': 0, 'depth': 2.911, 'time': 17.79, 'pitch': 2.76, 'roll': 8.2}
{'lipoC2': 7.8, 'temp': 23.69, 'lipoC3S3': 11.51, 'rot1': 130, 'rot0': 129, 'rot3': 74, 'rot2': 95, 'state': 'normal', 'yaw': 170.27, 'datetime': '2018-10-12 14:00:25.602688', 'mgs': 0, 'depth': 2.988, 'time': 17.89, 'pitch': 2.84, 'roll': 8.08}
{'lipoC2': 7.79, 'temp': 23.81, 'lipoC3S3': 11.59, 'rot1': 131, 'rot0': 130, 'rot3': 75, 'rot2': 95, 'state': 'normal', 'yaw': 173.16, 'datetime': '2018-10-12 14:00:25.700419', 'mgs': 0, 'depth': 3.064, 'time': 17.98, 'pitch': 3.0, 'roll': 7.98}
{'lipoC2': 7.79, 'temp': 23.81, 'lipoC3S3': 11.68, 'rot1': 133, 'rot0': 131, 'rot3': 75, 'rot2': 96, 'state': 'normal', 'yaw': 175.96, 'datetime': '2018-10-12 14:00:25.797982', 'mgs': 0, 'depth': 3.064, 'time': 18.08, 'pitch': 3.17, 'roll': 7.88}
{'lipoC2': 7.79, 'temp': 23.69, 'lipoC3S3': 11.68, 'rot1': 134, 'rot0': 132, 'rot3': 76, 'rot2': 97, 'state': 'normal', 'yaw': 178.68, 'datetime': '2018-10-12 14:00:25.895710', 'mgs': 0, 'depth': 3.064, 'time': 18.18, 'pitch': 3.29, 'roll': 7.64}
{'lipoC2': 7.79, 'temp': 23.69, 'lipoC3S3': 11.68, 'rot1': 136, 'rot0': 133, 'rot3': 76, 'rot2': 97, 'state': 'normal', 'yaw': -178.95, 'datetime': '2018-10-12 14:00:25.993459', 'mgs': 0, 'depth': 2.835, 'time': 18.28, 'pitch': 3.39, 'roll': 7.28}
{'lipoC2': 7.8, 'temp': 23.69, 'lipoC3S3': 11.65, 'rot1': 137, 'rot0': 135, 'rot3': 77, 'rot2': 98, 'state': 'normal', 'yaw': -176.4, 'datetime': '2018-10-12 14:00:26.091445', 'mgs': 0, 'depth': 4.056, 'time': 18.37, 'pitch': 3.43, 'roll': 6.73}
{'lipoC2': 7.79, 'temp': 23.25, 'lipoC3S3': 11.64, 'rot1': 138, 'rot0': 136, 'rot3': 77, 'rot2': 98, 'state': 'normal', 'yaw': -174.49, 'datetime': '2018-10-12 14:00:26.188828', 'mgs': 0, 'depth': 4.132, 'time': 18.47, 'pitch': 3.37, 'roll': 6.15}
{'lipoC2': 7.8, 'temp': 23.25, 'lipoC3S3': 11.67, 'rot1': 139, 'rot0': 138, 'rot3': 77, 'rot2': 98, 'state': 'normal', 'yaw': -173.35, 'datetime': '2018-10-12 14:00:26.286554', 'mgs': 0, 'depth': 3.751, 'time': 18.57, 'pitch': 3.26, 'roll': 5.69}
{'lipoC2': 7.8, 'temp': 23.69, 'lipoC3S3': 11.68, 'rot1': 140, 'rot0': 139, 'rot3': 77, 'rot2': 99, 'state': 'normal', 'yaw': -172.85, 'datetime': '2018-10-12 14:00:26.384423', 'mgs': 0, 'depth': 4.056, 'time': 18.67, 'pitch': 3.13, 'roll': 5.59}
{'lipoC2': 7.8, 'temp': 23.69, 'lipoC3S3': 11.65, 'rot1': 141, 'rot0': 141, 'rot3': 77, 'rot2': 99, 'state': 'normal', 'yaw': -172.72, 'datetime': '2018-10-12 14:00:26.482043', 'mgs': 0, 'depth': 4.666, 'time': 18.76, 'pitch': 2.9, 'roll': 5.77}
{'lipoC2': 7.8, 'temp': 23.69, 'lipoC3S3': 11.67, 'rot1': 143, 'rot0': 142, 'rot3': 77, 'rot2': 99, 'state': 'normal', 'yaw': -172.93, 'datetime': '2018-10-12 14:00:26.579910', 'mgs': 0, 'depth': 4.056, 'time': 18.86, 'pitch': 2.63, 'roll': 6.12}
{'lipoC2': 7.8, 'temp': 24.06, 'lipoC3S3': 11.65, 'rot1': 144, 'rot0': 144, 'rot3': 77, 'rot2': 99, 'state': 'normal', 'yaw': -173.39, 'datetime': '2018-10-12 14:00:26.678055', 'mgs': 0, 'depth': 4.285, 'time': 18.96, 'pitch': 2.29, 'roll': 6.66}
{'lipoC2': 7.8, 'temp': 24.06, 'lipoC3S3': 11.54, 'rot1': 145, 'rot0': 145, 'rot3': 77, 'rot2': 99, 'state': 'normal', 'yaw': -174.01, 'datetime': '2018-10-12 14:00:26.776739', 'mgs': 0, 'depth': 3.217, 'time': 19.06, 'pitch': 1.9, 'roll': 7.23}
{'lipoC2': 7.81, 'temp': 23.69, 'lipoC3S3': 11.6, 'rot1': 146, 'rot0': 147, 'rot3': 78, 'rot2': 99, 'state': 'normal', 'yaw': -174.91, 'datetime': '2018-10-12 14:00:26.875753', 'mgs': 0, 'depth': 4.056, 'time': 19.16, 'pitch': 1.39, 'roll': 7.88}
{'lipoC2': 7.81, 'temp': 23.69, 'lipoC3S3': 11.6, 'rot1': 147, 'rot0': 149, 'rot3': 78, 'rot2': 99, 'state': 'normal', 'yaw': -175.93, 'datetime': '2018-10-12 14:00:26.974537', 'mgs': 0, 'depth': 4.208, 'time': 19.26, 'pitch': 0.9, 'roll': 8.4}
{'lipoC2': 7.8, 'temp': 23.69, 'lipoC3S3': 11.47, 'rot1': 148, 'rot0': 150, 'rot3': 78, 'rot2': 100, 'state': 'normal', 'yaw': -177.05, 'datetime': '2018-10-12 14:00:27.072376', 'mgs': 0, 'depth': 3.903, 'time': 19.36, 'pitch': 0.55, 'roll': 8.8}
{'lipoC2': 7.8, 'temp': 23.69, 'lipoC3S3': 11.55, 'rot1': 150, 'rot0': 152, 'rot3': 79, 'rot2': 100, 'state': 'normal', 'yaw': -178.31, 'datetime': '2018-10-12 14:00:27.170056', 'mgs': 0, 'depth': 3.903, 'time': 19.45, 'pitch': 0.28, 'roll': 9.06}
{'lipoC2': 7.79, 'temp': 23.69, 'lipoC3S3': 11.68, 'rot1': 151, 'rot0': 154, 'rot3': 79, 'rot2': 100, 'state': 'normal', 'yaw': -179.54, 'datetime': '2018-10-12 14:00:27.268356', 'mgs': 0, 'depth': 3.217, 'time': 19.55, 'pitch': 0.05, 'roll': 9.23}
{'lipoC2': 7.8, 'temp': 23.69, 'lipoC3S3': 11.55, 'rot1': 152, 'rot0': 155, 'rot3': 79, 'rot2': 100, 'state': 'normal', 'yaw': 179.06, 'datetime': '2018-10-12 14:00:27.367302', 'mgs': 0, 'depth': 3.217, 'time': 19.65, 'pitch': -0.21, 'roll': 9.37}
{'lipoC2': 7.81, 'temp': 23.69, 'lipoC3S3': 11.6, 'rot1': 153, 'rot0': 157, 'rot3': 79, 'rot2': 100, 'state': 'normal', 'yaw': 177.58, 'datetime': '2018-10-12 14:00:27.466295', 'mgs': 0, 'depth': 4.361, 'time': 19.75, 'pitch': -0.46, 'roll': 9.57}
