{'lipoC2': 7.77, 'temp': 30.0, 'lipoC3S3': 12.17, 'rot1': 0, 'rot0': 0, 'rot3': 0, 'rot2': 0, 'state': 'normal', 'yaw': 0.45, 'datetime': '2018-10-12 21:04:37.481207', 'mgs': 0, 'depth': -0.827, 'time': 1.26, 'pitch': 12.8, 'roll': -25.71}
{'lipoC2': 7.77, 'temp': 30.0, 'lipoC3S3': 12.17, 'rot1': 0, 'rot0': 0, 'rot3': 0, 'rot2': 0, 'state': 'normal', 'yaw': 5.23, 'datetime': '2018-10-12 21:04:37.504903', 'mgs': 0, 'depth': -0.903, 'time': 1.36, 'pitch': 14.73, 'roll': -24.3}
{'lipoC2': 7.78, 'temp': 30.0, 'lipoC3S3': 12.17, 'rot1': 0, 'rot0': 0, 'rot3': 0, 'rot2': 0, 'state': 'normal', 'yaw': 9.82, 'datetime': '2018-10-12 21:04:37.520861', 'mgs': 0, 'depth': -0.827, 'time': 1.46, 'pitch': 15.09, 'roll': -21.75}
{'lipoC2': 7.78, 'temp': 30.0, 'lipoC3S3': 12.17, 'rot1': 0, 'rot0': 0, 'rot3': 0, 'rot2': 0, 'state': 'normal', 'yaw': 13.26, 'datetime': '2018-10-12 21:04:37.530416', 'mgs': 0, 'depth': -0.903, 'time': 1.55, 'pitch': 13.49, 'roll': -19.5}
{'lipoC2': 7.77, 'temp': 30.0, 'lipoC3S3': 12.17, 'rot1': 0, 'rot0': 0, 'rot3': 0, 'rot2': 0, 'state': 'normal', 'yaw': 15.5, 'datetime': '2018-10-12 21:04:37.538485', 'mgs': 0, 'depth': -0.903, 'time': 1.65, 'pitch': 11.26, 'roll': -19.13}
{'lipoC2': 7.77, 'temp': 30.0, 'lipoC3S3': 12.18, 'rot1': 0, 'rot0': 0, 'rot3': 0, 'rot2': 0, 'state': 'normal', 'yaw': 18.6, 'datetime': '2018-10-12 21:04:37.546483', 'mgs': 0, 'depth': -0.827, 'time': 1.75, 'pitch': 9.02, 'roll': -18.19}
{'lipoC2': 7.77, 'temp': 30.0, 'lipoC3S3': 12.17, 'rot1': 0, 'rot0': 0, 'rot3': 0, 'rot2': 0, 'state': 'normal', 'yaw': 21.89, 'datetime': '2018-10-12 21:04:37.554548', 'mgs': 0, 'depth': -0.827, 'time': 1.85, 'pitch': 7.35, 'roll': -18.63}
{'lipoC2': 7.77, 'temp': 30.0, 'lipoC3S3': 12.17, 'rot1': 0, 'rot0': 0, 'rot3': 0, 'rot2': 0, 'state': 'normal', 'yaw': 25.78, 'datetime': '2018-10-12 21:04:37.562478', 'mgs': 0, 'depth': -0.827, 'time': 1.95, 'pitch': 5.43, 'roll': -19.67}
{'lipoC2': 7.77, 'temp': 30.0, 'lipoC3S3': 12.17, 'rot1': 0, 'rot0': 0, 'rot3': 0, 'rot2': 0, 'state': 'normal', 'yaw': 30.51, 'datetime': '2018-10-12 21:04:37.570619', 'mgs': 0, 'depth': -0.827, 'time': 2.04, 'pitch': 4.28, 'roll': -19.83}
{'lipoC2': 7.77, 'temp': 30.0, 'lipoC3S3': 12.17, 'rot1': 0, 'rot0': 0, 'rot3': 0, 'rot2': 0, 'state': 'normal', 'yaw': 35.06, 'datetime': '2018-10-12 21:04:37.578676', 'mgs': 0, 'depth': -0.827, 'time': 2.14, 'pitch': 3.9, 'roll': -20.64}
{'lipoC2': 7.78, 'temp': 30.0, 'lipoC3S3': 12.17, 'rot1': 0, 'rot0': 0, 'rot3': 0, 'rot2': 0, 'state': 'normal', 'yaw': 39.46, 'datetime': '2018-10-12 21:04:37.586775', 'mgs': 0, 'depth': -0.827, 'time': 2.24, 'pitch': 2.83, 'roll': -22.45}
{'lipoC2': 7.77, 'temp': 30.0, 'lipoC3S3': 12.17, 'rot1': 0, 'rot0': 0, 'rot3': 0, 'rot2': 0, 'state': 'normal', 'yaw': 43.02, 'datetime': '2018-10-12 21:04:37.594773', 'mgs': 0, 'depth': -0.827, 'time': 2.33, 'pitch': 2.27, 'roll': -22.39}
{'lipoC2': 7.77, 'temp': 30.0, 'lipoC3S3': 12.17, 'rot1': 0, 'rot0': 0, 'rot3': 0, 'rot2': 0, 'state': 'normal', 'yaw': 47.21, 'datetime': '2018-10-12 21:04:37.602794', 'mgs': 0, 'depth': -0.751, 'time': 2.43, 'pitch': 3.65, 'roll': -21.18}
{'lipoC2': 7.77, 'temp': 30.0, 'lipoC3S3': 12.17, 'rot1': 0, 'rot0': 0, 'rot3': 0, 'rot2': 0, 'state': 'normal', 'yaw': 50.22, 'datetime': '2018-10-12 21:04:37.611344', 'mgs': 0, 'depth': -0.827, 'time': 2.53, 'pitch': 5.17, 'roll': -19.09}
{'lipoC2': 7.78, 'temp': 30.0, 'lipoC3S3': 12.17, 'rot1': 0, 'rot0': 0, 'rot3': 0, 'rot2': 0, 'state': 'normal', 'yaw': 51.17, 'datetime': '2018-10-12 21:04:37.621017', 'mgs': 0, 'depth': -0.827, 'time': 2.63, 'pitch': 4.75, 'roll': -17.46}
{'lipoC2': 7.77, 'temp': 29.94, 'lipoC3S3': 12.17, 'rot1': 0, 'rot0': 0, 'rot3': 0, 'rot2': 0, 'state': 'normal', 'yaw': 50.84, 'datetime': '2018-10-12 21:04:37.629474', 'mgs': 0, 'depth': -0.903, 'time': 2.72, 'pitch': 4.14, 'roll': -17.73}
{'lipoC2': 7.77, 'temp': 29.94, 'lipoC3S3': 12.17, 'rot1': 0, 'rot0': 0, 'rot3': 0, 'rot2': 0, 'state': 'normal', 'yaw': 50.11, 'datetime': '2018-10-12 21:04:37.637562', 'mgs': 0, 'depth': -0.827, 'time': 2.82, 'pitch': 4.88, 'roll': -17.34}
{'lipoC2': 7.77, 'temp': 30.06, 'lipoC3S3': 12.17, 'rot1': 0, 'rot0': 0, 'rot3': 0, 'rot2': 0, 'state': 'normal', 'yaw': 49.25, 'datetime': '2018-10-12 21:04:37.645530', 'mgs': 0, 'depth': -0.827, 'time': 2.92, 'pitch': 6.67, 'roll': -15.22}
{'lipoC2': 7.77, 'temp': 30.06, 'lipoC3S3': 12.17, 'rot1': 0, 'rot0': 0, 'rot3': 0, 'rot2': 0, 'state': 'normal', 'yaw': 48.4, 'datetime': '2018-10-12 21:04:37.653720', 'mgs': 0, 'depth': -0.827, 'time': 3.02, 'pitch': 7.63, 'roll': -13.25}
{'lipoC2': 7.77, 'temp': 30.06, 'lipoC3S3': 12.17, 'rot1': 0, 'rot0': 0, 'rot3': 0, 'rot2': 0, 'state': 'normal', 'yaw': 47.83, 'datetime': '2018-10-12 21:04:37.664181', 'mgs': 0, 'depth': -0.827, 'time': 3.12, 'pitch': 7.28, 'roll': -10.8}
{'lipoC2': 7.77, 'temp': 29.94, 'lipoC3S3': 12.17, 'rot1': 0, 'rot0': 0, 'rot3': 0, 'rot2': 0, 'state': 'normal', 'yaw': 47.87, 'datetime': '2018-10-12 21:04:37.674864', 'mgs': 0, 'depth': -0.827, 'time': 3.21, 'pitch': 6.76, 'roll': -9.76}
{'lipoC2': 7.77, 'temp': 29.94, 'lipoC3S3': 12.17, 'rot1': 0, 'rot0': 0, 'rot3': 0, 'rot2': 0, 'state': 'normal', 'yaw': 48.88, 'datetime': '2018-10-12 21:04:37.685597', 'mgs': 0, 'depth': -0.903, 'time': 3.31, 'pitch': 5.43, 'roll': -9.62}
{'lipoC2': 7.78, 'temp': 29.94, 'lipoC3S3': 12.17, 'rot1': 0, 'rot0': 0, 'rot3': 0, 'rot2': 0, 'state': 'normal', 'yaw': 51.13, 'datetime': '2018-10-12 21:04:37.696351', 'mgs': 0, 'depth': -0.827, 'time': 3.41, 'pitch': 3.03, 'roll': -9.89}
{'lipoC2': 7.77, 'temp': 29.94, 'lipoC3S3': 12.17, 'rot1': 0, 'rot0': 0, 'rot3': 0, 'rot2': 0, 'state': 'normal', 'yaw': 54.31, 'datetime': '2018-10-12 21:04:37.707266', 'mgs': 0, 'depth': -0.827, 'time': 3.51, 'pitch': 1.28, 'roll': -8.69}
{'lipoC2': 7.77, 'temp': 29.94, 'lipoC3S3': 12.17, 'rot1': 0, 'rot0': 0, 'rot3': 0, 'rot2': 0, 'state': 'normal', 'yaw': 58.03, 'datetime': '2018-10-12 21:04:37.717000', 'mgs': 0, 'depth': -0.903, 'time': 3.6, 'pitch': 0.88, 'roll': -7.01}
{'lipoC2': 7.77, 'temp': 30.0, 'lipoC3S3': 12.17, 'rot1': 0, 'rot0': 0, 'rot3': 0, 'rot2': 0, 'state': 'normal', 'yaw': 61.44, 'datetime': '2018-10-12 21:04:37.726923', 'mgs': 0, 'depth': -0.827, 'time': 3.7, 'pitch': 1.01, 'roll': -6.54}
{'lipoC2': 7.78, 'temp': 30.0, 'lipoC3S3': 12.17, 'rot1': 0, 'rot0': 0, 'rot3': 0, 'rot2': 0, 'state': 'normal', 'yaw': 64.72, 'datetime': '2018-10-12 21:04:37.737434', 'mgs': 0, 'depth': -0.903, 'time': 3.8, 'pitch': 1.45, 'roll': -7.37}
{'lipoC2': 7.77, 'temp': 29.94, 'lipoC3S3': 12.18, 'rot1': 0, 'rot0': 0, 'rot3': 0, 'rot2': 0, 'state': 'normal', 'yaw': 67.3, 'datetime': '2018-10-12 21:04:37.747908', 'mgs': 0, 'depth': -0.903, 'time': 3.89, 'pitch': 2.44, 'roll': -8.24}
{'lipoC2': 7.77, 'temp': 29.94, 'lipoC3S3': 12.18, 'rot1': 0, 'rot0': 0, 'rot3': 0, 'rot2': 0, 'state': 'normal', 'yaw': 69.2, 'datetime': '2018-10-12 21:04:37.758876', 'mgs': 0, 'depth': -0.903, 'time': 3.99, 'pitch': 2.36, 'roll': -9.73}
{'lipoC2': 7.77, 'temp': 29.94, 'lipoC3S3': 12.17, 'rot1': 0, 'rot0': 0, 'rot3': 0, 'rot2': 0, 'state': 'normal', 'yaw': 70.9, 'datetime': '2018-10-12 21:04:37.769584', 'mgs': 0, 'depth': -0.903, 'time': 4.09, 'pitch': 2.05, 'roll': -10.23}
{'lipoC2': 7.77, 'temp': 29.94, 'lipoC3S3': 12.18, 'rot1': 0, 'rot0': 0, 'rot3': 0, 'rot2': 0, 'state': 'normal', 'yaw': 72.22, 'datetime': '2018-10-12 21:04:37.780289', 'mgs': 0, 'depth': -0.903, 'time': 4.19, 'pitch': 1.35, 'roll': -10.37}
{'lipoC2': 7.77, 'temp': 29.94, 'lipoC3S3': 12.17, 'rot1': 0, 'rot0': 0, 'rot3': 0, 'rot2': 0, 'state': 'normal', 'yaw': 73.12, 'datetime': '2018-10-12 21:04:37.790994', 'mgs': 0, 'depth': -0.903, 'time': 4.28, 'pitch': 0.7, 'roll': -10.54}
{'lipoC2': 7.77, 'temp': 30.0, 'lipoC3S3': 12.17, 'rot1': 0, 'rot0': 0, 'rot3': 0, 'rot2': 0, 'state': 'normal', 'yaw': 74.06, 'datetime': '2018-10-12 21:04:37.801719', 'mgs': 0, 'depth': -0.827, 'time': 4.38, 'pitch': 0.08, 'roll': -10.9}
{'lipoC2': 7.77, 'temp': 30.0, 'lipoC3S3': 12.17, 'rot1': 0, 'rot0': 0, 'rot3': 0, 'rot2': 0, 'state': 'normal', 'yaw': 74.87, 'datetime': '2018-10-12 21:04:37.811896', 'mgs': 0, 'depth': -0.827, 'time': 4.48, 'pitch': -0.54, 'roll': -11.27}
{'lipoC2': 7.77, 'temp': 30.0, 'lipoC3S3': 12.18, 'rot1': 0, 'rot0': 0, 'rot3': 0, 'rot2': 0, 'state': 'normal', 'yaw': 75.63, 'datetime': '2018-10-12 21:04:37.822165', 'mgs': 0, 'depth': -0.827, 'time': 4.58, 'pitch': -0.72, 'roll': -11.17}
{'lipoC2': 7.77, 'temp': 30.0, 'lipoC3S3': 12.18, 'rot1': 0, 'rot0': 0, 'rot3': 0, 'rot2': 0, 'state': 'normal', 'yaw': 76.72, 'datetime': '2018-10-12 21:04:37.832979', 'mgs': 0, 'depth': -0.751, 'time': 4.68, 'pitch': -1.2, 'roll': -11.12}
{'lipoC2': 7.77, 'temp': 30.0, 'lipoC3S3': 12.17, 'rot1': 0, 'rot0': 0, 'rot3': 0, 'rot2': 0, 'state': 'normal', 'yaw': 77.58, 'datetime': '2018-10-12 21:04:37.843717', 'mgs': 0, 'depth': -0.827, 'time': 4.77, 'pitch': -1.61, 'roll': -10.65}
{'lipoC2': 7.77, 'temp': 29.94, 'lipoC3S3': 12.18, 'rot1': 0, 'rot0': 0, 'rot3': 0, 'rot2': 0, 'state': 'normal', 'yaw': 77.95, 'datetime': '2018-10-12 21:04:37.854548', 'mgs': 0, 'depth': -0.903, 'time': 4.87, 'pitch': -1.81, 'roll': -9.84}
{'lipoC2': 7.77, 'temp': 29.94, 'lipoC3S3': 12.17, 'rot1': 0, 'rot0': 0, 'rot3': 0, 'rot2': 0, 'state': 'normal', 'yaw': 78.03, 'datetime': '2018-10-12 21:04:37.865320', 'mgs': 0, 'depth': -0.903, 'time': 4.97, 'pitch': -1.93, 'roll': -9.02}
{'lipoC2': 7.77, 'temp': 29.94, 'lipoC3S3': 12.17, 'rot1': 0, 'rot0': 0, 'rot3': 0, 'rot2': 0, 'state': 'normal', 'yaw': 77.92, 'datetime': '2018-10-12 21:04:37.876056', 'mgs': 0, 'depth': -0.827, 'time': 5.07, 'pitch': -2.19, 'roll': -8.46}
{'lipoC2': 7.77, 'temp': 30.0, 'lipoC3S3': 12.18, 'rot1': 0, 'rot0': 0, 'rot3': 0, 'rot2': 0, 'state': 'normal', 'yaw': 77.65, 'datetime': '2018-10-12 21:04:37.886762', 'mgs': 0, 'depth': -0.903, 'time': 5.16, 'pitch': -2.28, 'roll': -7.92}
{'lipoC2': 7.77, 'temp': 30.0, 'lipoC3S3': 12.17, 'rot1': 0, 'rot0': 0, 'rot3': 0, 'rot2': 0, 'state': 'normal', 'yaw': 77.44, 'datetime': '2018-10-12 21:04:37.897485', 'mgs': 0, 'depth': -0.903, 'time': 5.26, 'pitch': -1.89, 'roll': -7.86}
{'lipoC2': 7.77, 'temp': 29.94, 'lipoC3S3': 12.18, 'rot1': 0, 'rot0': 0, 'rot3': 0, 'rot2': 0, 'state': 'normal', 'yaw': 77.71, 'datetime': '2018-10-12 21:04:37.907777', 'mgs': 0, 'depth': -0.903, 'time': 5.36, 'pitch': -1.62, 'roll': -7.98}
{'lipoC2': 7.77, 'temp': 29.94, 'lipoC3S3': 12.18, 'rot1': 0, 'rot0': 0, 'rot3': 0, 'rot2': 0, 'state': 'normal', 'yaw': 78.28, 'datetime': '2018-10-12 21:04:37.916406', 'mgs': 0, 'depth': -0.827, 'time': 5.45, 'pitch': -1.39, 'roll': -8.28}
{'lipoC2': 7.77, 'temp': 29.94, 'lipoC3S3': 12.17, 'rot1': 0, 'rot0': 0, 'rot3': 0, 'rot2': 0, 'state': 'normal', 'yaw': 78.83, 'datetime': '2018-10-12 21:04:37.924585', 'mgs': 0, 'depth': -0.827, 'time': 5.55, 'pitch': -1.24, 'roll': -8.65}
{'lipoC2': 7.77, 'temp': 29.94, 'lipoC3S3': 12.18, 'rot1': 0, 'rot0': 0, 'rot3': 0, 'rot2': 0, 'state': 'normal', 'yaw': 78.76, 'datetime': '2018-10-12 21:04:37.932484', 'mgs': 0, 'depth': -0.903, 'time': 5.65, 'pitch': -1.06, 'roll': -8.82}
{'lipoC2': 7.77, 'temp': 29.94, 'lipoC3S3': 12.17, 'rot1': 0, 'rot0': 0, 'rot3': 0, 'rot2': 0, 'state': 'normal', 'yaw': 78.26, 'datetime': '2018-10-12 21:04:37.940485', 'mgs': 0, 'depth': -0.903, 'time': 5.75, 'pitch': -0.71, 'roll': -8.76}
{'lipoC2': 7.78, 'temp': 29.94, 'lipoC3S3': 12.17, 'rot1': 0, 'rot0': 0, 'rot3': 0, 'rot2': 0, 'state': 'normal', 'yaw': 77.6, 'datetime': '2018-10-12 21:04:37.948422', 'mgs': 0, 'depth': -0.827, 'time': 5.84, 'pitch': -0.61, 'roll': -8.73}
{'lipoC2': 7.77, 'temp': 29.94, 'lipoC3S3': 12.17, 'rot1': 0, 'rot0': 0, 'rot3': 0, 'rot2': 0, 'state': 'normal', 'yaw': 77.05, 'datetime': '2018-10-12 21:04:37.956426', 'mgs': 0, 'depth': -0.903, 'time': 5.94, 'pitch': -0.84, 'roll': -8.8}
{'lipoC2': 7.77, 'temp': 29.94, 'lipoC3S3': 12.17, 'rot1': 0, 'rot0': 0, 'rot3': 0, 'rot2': 0, 'state': 'normal', 'yaw': 76.78, 'datetime': '2018-10-12 21:04:37.964372', 'mgs': 0, 'depth': -0.827, 'time': 6.04, 'pitch': -0.74, 'roll': -8.8}
{'lipoC2': 7.77, 'temp': 29.94, 'lipoC3S3': 12.18, 'rot1': 0, 'rot0': 0, 'rot3': 0, 'rot2': 0, 'state': 'normal', 'yaw': 77.0, 'datetime': '2018-10-12 21:04:37.972361', 'mgs': 0, 'depth': -0.903, 'time': 6.14, 'pitch': -1.23, 'roll': -9.36}
{'lipoC2': 7.77, 'temp': 29.94, 'lipoC3S3': 12.17, 'rot1': 0, 'rot0': 0, 'rot3': 0, 'rot2': 0, 'state': 'normal', 'yaw': 77.25, 'datetime': '2018-10-12 21:04:37.980454', 'mgs': 0, 'depth': -0.827, 'time': 6.23, 'pitch': -1.23, 'roll': -9.14}
{'lipoC2': 7.77, 'temp': 30.0, 'lipoC3S3': 12.17, 'rot1': 0, 'rot0': 0, 'rot3': 0, 'rot2': 0, 'state': 'normal', 'yaw': 76.92, 'datetime': '2018-10-12 21:04:37.988480', 'mgs': 0, 'depth': -0.903, 'time': 6.33, 'pitch': -2.14, 'roll': -9.12}
{'lipoC2': 7.77, 'temp': 30.0, 'lipoC3S3': 12.17, 'rot1': 0, 'rot0': 0, 'rot3': 0, 'rot2': 0, 'state': 'normal', 'yaw': 76.6, 'datetime': '2018-10-12 21:04:37.996430', 'mgs': 0, 'depth': -0.903, 'time': 6.43, 'pitch': -2.41, 'roll': -9.2}
{'lipoC2': 7.77, 'temp': 30.0, 'lipoC3S3': 12.18, 'rot1': 0, 'rot0': 0, 'rot3': 0, 'rot2': 0, 'state': 'normal', 'yaw': 76.64, 'datetime': '2018-10-12 21:04:38.005119', 'mgs': 0, 'depth': -0.903, 'time': 6.53, 'pitch': -2.38, 'roll': -9.36}
{'lipoC2': 7.77, 'temp': 29.94, 'lipoC3S3': 12.17, 'rot1': 0, 'rot0': 0, 'rot3': 0, 'rot2': 0, 'state': 'normal', 'yaw': 76.4, 'datetime': '2018-10-12 21:04:38.015236', 'mgs': 0, 'depth': -0.903, 'time': 6.63, 'pitch': -2.43, 'roll': -9.37}
{'lipoC2': 7.77, 'temp': 29.94, 'lipoC3S3': 12.17, 'rot1': 0, 'rot0': 0, 'rot3': 0, 'rot2': 0, 'state': 'normal', 'yaw': 76.18, 'datetime': '2018-10-12 21:04:38.025670', 'mgs': 0, 'depth': -0.827, 'time': 6.72, 'pitch': -2.46, 'roll': -9.38}
{'lipoC2': 7.77, 'temp': 30.0, 'lipoC3S3': 12.17, 'rot1': 0, 'rot0': 0, 'rot3': 0, 'rot2': 0, 'state': 'normal', 'yaw': 76.11, 'datetime': '2018-10-12 21:04:38.036373', 'mgs': 0, 'depth': -0.827, 'time': 6.82, 'pitch': -2.51, 'roll': -9.48}
{'lipoC2': 7.77, 'temp': 30.0, 'lipoC3S3': 12.17, 'rot1': 0, 'rot0': 0, 'rot3': 0, 'rot2': 0, 'state': 'normal', 'yaw': 76.11, 'datetime': '2018-10-12 21:04:38.047108', 'mgs': 0, 'depth': -0.903, 'time': 6.92, 'pitch': -2.52, 'roll': -9.44}
{'lipoC2': 7.77, 'temp': 30.0, 'lipoC3S3': 12.17, 'rot1': 0, 'rot0': 0, 'rot3': 0, 'rot2': 0, 'state': 'normal', 'yaw': 76.15, 'datetime': '2018-10-12 21:04:38.057816', 'mgs': 0, 'depth': -0.827, 'time': 7.02, 'pitch': -2.56, 'roll': -9.45}
{'lipoC2': 7.77, 'temp': 30.0, 'lipoC3S3': 12.17, 'rot1': 0, 'rot0': 0, 'rot3': 0, 'rot2': 0, 'state': 'normal', 'yaw': 76.15, 'datetime': '2018-10-12 21:04:38.068548', 'mgs': 0, 'depth': -0.903, 'time': 7.11, 'pitch': -2.53, 'roll': -9.48}
{'lipoC2': 7.77, 'temp': 30.0, 'lipoC3S3': 12.17, 'rot1': 0, 'rot0': 0, 'rot3': 0, 'rot2': 0, 'state': 'normal', 'yaw': 76.1, 'datetime': '2018-10-12 21:04:38.079278', 'mgs': 0, 'depth': -0.903, 'time': 7.21, 'pitch': -2.47, 'roll': -9.47}
{'lipoC2': 7.77, 'temp': 29.94, 'lipoC3S3': 12.17, 'rot1': 0, 'rot0': 0, 'rot3': 0, 'rot2': 0, 'state': 'normal', 'yaw': 76.1, 'datetime': '2018-10-12 21:04:38.089984', 'mgs': 0, 'depth': -0.827, 'time': 7.31, 'pitch': -2.44, 'roll': -9.48}
{'lipoC2': 7.77, 'temp': 29.94, 'lipoC3S3': 12.17, 'rot1': 0, 'rot0': 0, 'rot3': 0, 'rot2': 0, 'state': 'normal', 'yaw': 76.1, 'datetime': '2018-10-12 21:04:38.100766', 'mgs': 0, 'depth': -0.903, 'time': 7.41, 'pitch': -2.41, 'roll': -9.49}
{'lipoC2': 7.77, 'temp': 29.94, 'lipoC3S3': 12.17, 'rot1': 0, 'rot0': 0, 'rot3': 0, 'rot2': 0, 'state': 'normal', 'yaw': 76.1, 'datetime': '2018-10-12 21:04:38.110018', 'mgs': 0, 'depth': -0.827, 'time': 7.51, 'pitch': -2.39, 'roll': -9.49}
{'lipoC2': 7.77, 'temp': 30.0, 'lipoC3S3': 12.18, 'rot1': 0, 'rot0': 0, 'rot3': 0, 'rot2': 0, 'state': 'normal', 'yaw': 76.1, 'datetime': '2018-10-12 21:04:38.118587', 'mgs': 0, 'depth': -0.827, 'time': 7.6, 'pitch': -2.36, 'roll': -9.51}
{'lipoC2': 7.77, 'temp': 30.0, 'lipoC3S3': 12.17, 'rot1': 0, 'rot0': 0, 'rot3': 0, 'rot2': 0, 'state': 'normal', 'yaw': 76.1, 'datetime': '2018-10-12 21:04:38.129249', 'mgs': 0, 'depth': -0.827, 'time': 7.7, 'pitch': -2.33, 'roll': -9.47}
{'lipoC2': 7.77, 'temp': 29.94, 'lipoC3S3': 12.18, 'rot1': 0, 'rot0': 0, 'rot3': 0, 'rot2': 0, 'state': 'normal', 'yaw': 76.11, 'datetime': '2018-10-12 21:04:38.139959', 'mgs': 0, 'depth': -0.827, 'time': 7.8, 'pitch': -2.31, 'roll': -9.48}
{'lipoC2': 7.77, 'temp': 29.94, 'lipoC3S3': 12.17, 'rot1': 0, 'rot0': 0, 'rot3': 0, 'rot2': 0, 'state': 'normal', 'yaw': 76.1, 'datetime': '2018-10-12 21:04:38.150810', 'mgs': 0, 'depth': -0.827, 'time': 7.9, 'pitch': -2.28, 'roll': -9.5}
{'lipoC2': 7.77, 'temp': 29.94, 'lipoC3S3': 12.17, 'rot1': 0, 'rot0': 0, 'rot3': 0, 'rot2': 0, 'state': 'normal', 'yaw': 76.1, 'datetime': '2018-10-12 21:04:38.161541', 'mgs': 0, 'depth': -0.903, 'time': 7.99, 'pitch': -2.25, 'roll': -9.49}
{'lipoC2': 7.77, 'temp': 29.94, 'lipoC3S3': 12.17, 'rot1': 0, 'rot0': 0, 'rot3': 0, 'rot2': 0, 'state': 'normal', 'yaw': 76.11, 'datetime': '2018-10-12 21:04:38.172054', 'mgs': 0, 'depth': -0.827, 'time': 8.09, 'pitch': -2.22, 'roll': -9.51}
{'lipoC2': 7.77, 'temp': 29.94, 'lipoC3S3': 12.17, 'rot1': 0, 'rot0': 0, 'rot3': 0, 'rot2': 0, 'state': 'normal', 'yaw': 76.11, 'datetime': '2018-10-12 21:04:38.182912', 'mgs': 0, 'depth': -0.827, 'time': 8.19, 'pitch': -2.21, 'roll': -9.51}
{'lipoC2': 7.77, 'temp': 30.0, 'lipoC3S3': 12.17, 'rot1': 0, 'rot0': 0, 'rot3': 0, 'rot2': 0, 'state': 'normal', 'yaw': 76.09, 'datetime': '2018-10-12 21:04:38.193647', 'mgs': 0, 'depth': -0.751, 'time': 8.29, 'pitch': -2.22, 'roll': -9.51}
{'lipoC2': 7.77, 'temp': 30.0, 'lipoC3S3': 12.17, 'rot1': 0, 'rot0': 0, 'rot3': 0, 'rot2': 0, 'state': 'normal', 'yaw': 76.08, 'datetime': '2018-10-12 21:04:38.203700', 'mgs': 0, 'depth': -0.903, 'time': 8.39, 'pitch': -2.13, 'roll': -9.53}
{'lipoC2': 7.77, 'temp': 29.94, 'lipoC3S3': 12.17, 'rot1': 0, 'rot0': 0, 'rot3': 0, 'rot2': 0, 'state': 'normal', 'yaw': 76.07, 'datetime': '2018-10-12 21:04:38.213229', 'mgs': 0, 'depth': -0.903, 'time': 8.48, 'pitch': -2.14, 'roll': -9.52}
{'lipoC2': 7.77, 'temp': 29.94, 'lipoC3S3': 12.17, 'rot1': 0, 'rot0': 0, 'rot3': 0, 'rot2': 0, 'state': 'normal', 'yaw': 76.07, 'datetime': '2018-10-12 21:04:38.223666', 'mgs': 0, 'depth': -0.827, 'time': 8.58, 'pitch': -2.11, 'roll': -9.53}
{'lipoC2': 7.77, 'temp': 29.94, 'lipoC3S3': 12.17, 'rot1': 0, 'rot0': 0, 'rot3': 0, 'rot2': 0, 'state': 'normal', 'yaw': 76.07, 'datetime': '2018-10-12 21:04:38.234400', 'mgs': 0, 'depth': -0.903, 'time': 8.68, 'pitch': -2.1, 'roll': -9.53}
{'lipoC2': 7.77, 'temp': 29.94, 'lipoC3S3': 12.18, 'rot1': 0, 'rot0': 0, 'rot3': 0, 'rot2': 0, 'state': 'normal', 'yaw': 76.07, 'datetime': '2018-10-12 21:04:38.245104', 'mgs': 0, 'depth': -0.903, 'time': 8.78, 'pitch': -2.09, 'roll': -9.53}
{'lipoC2': 7.77, 'temp': 29.94, 'lipoC3S3': 12.17, 'rot1': 0, 'rot0': 0, 'rot3': 0, 'rot2': 0, 'state': 'normal', 'yaw': 76.07, 'datetime': '2018-10-12 21:04:38.256007', 'mgs': 0, 'depth': -0.903, 'time': 8.88, 'pitch': -2.09, 'roll': -9.54}
{'lipoC2': 7.77, 'temp': 29.94, 'lipoC3S3': 12.18, 'rot1': 0, 'rot0': 0, 'rot3': 0, 'rot2': 0, 'state': 'normal', 'yaw': 76.07, 'datetime': '2018-10-12 21:04:38.266739', 'mgs': 0, 'depth': -0.827, 'time': 8.97, 'pitch': -2.09, 'roll': -9.54}
{'lipoC2': 7.77, 'temp': 29.94, 'lipoC3S3': 12.17, 'rot1': 0, 'rot0': 0, 'rot3': 0, 'rot2': 0, 'state': 'normal', 'yaw': 76.07, 'datetime': '2018-10-12 21:04:38.277566', 'mgs': 0, 'depth': -0.903, 'time': 9.07, 'pitch': -2.07, 'roll': -9.54}
{'lipoC2': 7.77, 'temp': 29.94, 'lipoC3S3': 12.18, 'rot1': 0, 'rot0': 0, 'rot3': 0, 'rot2': 0, 'state': 'normal', 'yaw': 76.07, 'datetime': '2018-10-12 21:04:38.288288', 'mgs': 0, 'depth': -0.903, 'time': 9.17, 'pitch': -2.07, 'roll': -9.53}
{'lipoC2': 7.77, 'temp': 30.0, 'lipoC3S3': 12.18, 'rot1': 0, 'rot0': 0, 'rot3': 0, 'rot2': 0, 'state': 'normal', 'yaw': 76.07, 'datetime': '2018-10-12 21:04:38.298531', 'mgs': 0, 'depth': -0.903, 'time': 9.27, 'pitch': -2.06, 'roll': -9.54}
{'lipoC2': 7.77, 'temp': 30.0, 'lipoC3S3': 12.17, 'rot1': 0, 'rot0': 0, 'rot3': 0, 'rot2': 0, 'state': 'normal', 'yaw': 76.07, 'datetime': '2018-10-12 21:04:38.308062', 'mgs': 0, 'depth': -0.827, 'time': 9.36, 'pitch': -2.05, 'roll': -9.55}
{'lipoC2': 7.77, 'temp': 29.94, 'lipoC3S3': 12.17, 'rot1': 0, 'rot0': 0, 'rot3': 0, 'rot2': 0, 'state': 'normal', 'yaw': 76.07, 'datetime': '2018-10-12 21:04:38.318788', 'mgs': 0, 'depth': -0.827, 'time': 9.46, 'pitch': -2.05, 'roll': -9.55}
{'lipoC2': 7.77, 'temp': 29.94, 'lipoC3S3': 12.17, 'rot1': 0, 'rot0': 0, 'rot3': 0, 'rot2': 0, 'state': 'normal', 'yaw': 76.07, 'datetime': '2018-10-12 21:04:38.329646', 'mgs': 0, 'depth': -0.827, 'time': 9.56, 'pitch': -2.04, 'roll': -9.57}
{'lipoC2': 7.77, 'temp': 29.94, 'lipoC3S3': 12.18, 'rot1': 0, 'rot0': 0, 'rot3': 0, 'rot2': 0, 'state': 'normal', 'yaw': 76.07, 'datetime': '2018-10-12 21:04:38.340471', 'mgs': 0, 'depth': -0.827, 'time': 9.66, 'pitch': -2.03, 'roll': -9.56}
{'lipoC2': 7.77, 'temp': 29.94, 'lipoC3S3': 12.17, 'rot1': 1, 'rot0': 0, 'rot3': 0, 'rot2': 0, 'state': 'normal', 'yaw': 76.07, 'datetime': '2018-10-12 21:04:38.351233', 'mgs': 0, 'depth': -0.903, 'time': 9.75, 'pitch': -2.02, 'roll': -9.57}
{'lipoC2': 7.77, 'temp': 29.94, 'lipoC3S3': 12.17, 'rot1': 1, 'rot0': 0, 'rot3': 0, 'rot2': 0, 'state': 'normal', 'yaw': 76.08, 'datetime': '2018-10-12 21:04:38.362057', 'mgs': 0, 'depth': -0.827, 'time': 9.85, 'pitch': -2.0, 'roll': -9.58}
{'lipoC2': 7.77, 'temp': 30.0, 'lipoC3S3': 12.18, 'rot1': 1, 'rot0': 0, 'rot3': 0, 'rot2': 0, 'state': 'normal', 'yaw': 76.1, 'datetime': '2018-10-12 21:04:38.373209', 'mgs': 0, 'depth': -0.827, 'time': 9.95, 'pitch': -2.0, 'roll': -9.58}
{'lipoC2': 7.77, 'temp': 30.0, 'lipoC3S3': 12.17, 'rot1': 1, 'rot0': 0, 'rot3': 0, 'rot2': 0, 'state': 'normal', 'yaw': 76.13, 'datetime': '2018-10-12 21:04:38.384172', 'mgs': 0, 'depth': -0.751, 'time': 10.05, 'pitch': -2.02, 'roll': -9.57}
{'lipoC2': 7.77, 'temp': 30.0, 'lipoC3S3': 12.17, 'rot1': 1, 'rot0': 0, 'rot3': 0, 'rot2': 0, 'state': 'normal', 'yaw': 76.17, 'datetime': '2018-10-12 21:04:38.394925', 'mgs': 0, 'depth': -0.903, 'time': 10.14, 'pitch': -2.13, 'roll': -9.48}
{'lipoC2': 7.77, 'temp': 30.0, 'lipoC3S3': 12.17, 'rot1': 1, 'rot0': 0, 'rot3': 0, 'rot2': 0, 'state': 'normal', 'yaw': 76.16, 'datetime': '2018-10-12 21:04:38.404014', 'mgs': 0, 'depth': -0.903, 'time': 10.24, 'pitch': -1.76, 'roll': -9.63}
{'lipoC2': 7.77, 'temp': 30.0, 'lipoC3S3': 12.17, 'rot1': 1, 'rot0': 0, 'rot3': 0, 'rot2': 0, 'state': 'normal', 'yaw': 76.09, 'datetime': '2018-10-12 21:04:38.414877', 'mgs': 0, 'depth': -0.827, 'time': 10.34, 'pitch': -1.79, 'roll': -9.63}
{'lipoC2': 7.77, 'temp': 30.0, 'lipoC3S3': 12.17, 'rot1': 1, 'rot0': 0, 'rot3': 0, 'rot2': 0, 'state': 'normal', 'yaw': 76.0, 'datetime': '2018-10-12 21:04:38.425722', 'mgs': 0, 'depth': -0.827, 'time': 10.44, 'pitch': -1.87, 'roll': -9.71}
{'lipoC2': 7.77, 'temp': 30.0, 'lipoC3S3': 12.18, 'rot1': 1, 'rot0': 0, 'rot3': 0, 'rot2': 0, 'state': 'normal', 'yaw': 76.03, 'datetime': '2018-10-12 21:04:38.436484', 'mgs': 0, 'depth': -0.827, 'time': 10.53, 'pitch': -1.92, 'roll': -9.86}
{'lipoC2': 7.77, 'temp': 30.0, 'lipoC3S3': 12.17, 'rot1': 1, 'rot0': 0, 'rot3': 0, 'rot2': 0, 'state': 'normal', 'yaw': 76.12, 'datetime': '2018-10-12 21:04:38.447297', 'mgs': 0, 'depth': -0.903, 'time': 10.63, 'pitch': -1.91, 'roll': -9.67}
{'lipoC2': 7.77, 'temp': 29.94, 'lipoC3S3': 12.18, 'rot1': 1, 'rot0': 0, 'rot3': 0, 'rot2': 0, 'state': 'normal', 'yaw': 76.12, 'datetime': '2018-10-12 21:04:38.458018', 'mgs': 0, 'depth': -0.903, 'time': 10.73, 'pitch': -1.96, 'roll': -9.6}
{'lipoC2': 7.77, 'temp': 29.94, 'lipoC3S3': 12.17, 'rot1': 1, 'rot0': 0, 'rot3': 0, 'rot2': 0, 'state': 'normal', 'yaw': 76.12, 'datetime': '2018-10-12 21:04:38.468840', 'mgs': 0, 'depth': -0.903, 'time': 10.83, 'pitch': -1.93, 'roll': -9.63}
{'lipoC2': 7.77, 'temp': 29.94, 'lipoC3S3': 12.17, 'rot1': 1, 'rot0': 0, 'rot3': 0, 'rot2': 0, 'state': 'normal', 'yaw': 76.15, 'datetime': '2018-10-12 21:04:38.479610', 'mgs': 0, 'depth': -0.827, 'time': 10.93, 'pitch': -1.96, 'roll': -9.56}
{'lipoC2': 7.77, 'temp': 29.94, 'lipoC3S3': 12.17, 'rot1': 1, 'rot0': 0, 'rot3': 0, 'rot2': 0, 'state': 'normal', 'yaw': 76.14, 'datetime': '2018-10-12 21:04:38.490382', 'mgs': 0, 'depth': -0.827, 'time': 11.02, 'pitch': -1.94, 'roll': -9.63}
{'lipoC2': 7.77, 'temp': 29.94, 'lipoC3S3': 12.17, 'rot1': 1, 'rot0': 0, 'rot3': 0, 'rot2': 0, 'state': 'normal', 'yaw': 76.16, 'datetime': '2018-10-12 21:04:38.500009', 'mgs': 0, 'depth': -0.827, 'time': 11.12, 'pitch': -1.92, 'roll': -9.6}
{'lipoC2': 7.77, 'temp': 29.94, 'lipoC3S3': 12.18, 'rot1': 1, 'rot0': 0, 'rot3': 0, 'rot2': 0, 'state': 'normal', 'yaw': 76.16, 'datetime': '2018-10-12 21:04:38.508641', 'mgs': 0, 'depth': -0.827, 'time': 11.22, 'pitch': -1.92, 'roll': -9.6}
{'lipoC2': 7.77, 'temp': 29.94, 'lipoC3S3': 12.17, 'rot1': 1, 'rot0': 0, 'rot3': 0, 'rot2': 0, 'state': 'normal', 'yaw': 76.13, 'datetime': '2018-10-12 21:04:38.519303', 'mgs': 0, 'depth': -0.903, 'time': 11.32, 'pitch': -1.85, 'roll': -9.78}
{'lipoC2': 7.77, 'temp': 30.0, 'lipoC3S3': 12.17, 'rot1': 1, 'rot0': 0, 'rot3': 0, 'rot2': 0, 'state': 'normal', 'yaw': 76.08, 'datetime': '2018-10-12 21:04:38.530106', 'mgs': 0, 'depth': -0.827, 'time': 11.41, 'pitch': -1.87, 'roll': -9.67}
{'lipoC2': 7.77, 'temp': 30.0, 'lipoC3S3': 12.17, 'rot1': 1, 'rot0': 0, 'rot3': 0, 'rot2': 0, 'state': 'normal', 'yaw': 76.02, 'datetime': '2018-10-12 21:04:38.540854', 'mgs': 0, 'depth': -0.827, 'time': 11.51, 'pitch': -1.81, 'roll': -9.58}
{'lipoC2': 7.77, 'temp': 30.0, 'lipoC3S3': 12.17, 'rot1': 1, 'rot0': 0, 'rot3': 0, 'rot2': 0, 'state': 'normal', 'yaw': 76.02, 'datetime': '2018-10-12 21:04:38.551661', 'mgs': 0, 'depth': -0.827, 'time': 11.61, 'pitch': -1.79, 'roll': -9.63}
{'lipoC2': 7.77, 'temp': 29.94, 'lipoC3S3': 12.17, 'rot1': 1, 'rot0': 0, 'rot3': 0, 'rot2': 0, 'state': 'normal', 'yaw': 76.06, 'datetime': '2018-10-12 21:04:38.562435', 'mgs': 0, 'depth': -0.827, 'time': 11.71, 'pitch': -1.86, 'roll': -9.6}
{'lipoC2': 7.77, 'temp': 29.94, 'lipoC3S3': 12.17, 'rot1': 1, 'rot0': 0, 'rot3': 0, 'rot2': 0, 'state': 'normal', 'yaw': 75.99, 'datetime': '2018-10-12 21:04:38.573287', 'mgs': 0, 'depth': -0.827, 'time': 11.81, 'pitch': -1.81, 'roll': -9.55}
{'lipoC2': 7.77, 'temp': 29.94, 'lipoC3S3': 12.17, 'rot1': 1, 'rot0': 0, 'rot3': 0, 'rot2': 0, 'state': 'normal', 'yaw': 75.99, 'datetime': '2018-10-12 21:04:38.581217', 'mgs': 0, 'depth': -0.903, 'time': 11.9, 'pitch': -1.81, 'roll': -9.61}
{'lipoC2': 7.77, 'temp': 29.94, 'lipoC3S3': 12.17, 'rot1': 1, 'rot0': 0, 'rot3': 0, 'rot2': 0, 'state': 'normal', 'yaw': 76.03, 'datetime': '2018-10-12 21:04:38.589048', 'mgs': 0, 'depth': -0.827, 'time': 12.0, 'pitch': -1.83, 'roll': -9.54}
{'lipoC2': 7.77, 'temp': 29.94, 'lipoC3S3': 12.17, 'rot1': 1, 'rot0': 0, 'rot3': 0, 'rot2': 0, 'state': 'normal', 'yaw': 76.04, 'datetime': '2018-10-12 21:04:38.596775', 'mgs': 0, 'depth': -0.827, 'time': 12.1, 'pitch': -1.81, 'roll': -9.52}
{'lipoC2': 7.77, 'temp': 29.94, 'lipoC3S3': 12.17, 'rot1': 1, 'rot0': 0, 'rot3': 0, 'rot2': 0, 'state': 'normal', 'yaw': 76.05, 'datetime': '2018-10-12 21:04:38.604573', 'mgs': 0, 'depth': -0.827, 'time': 12.2, 'pitch': -1.8, 'roll': -9.59}
{'lipoC2': 7.77, 'temp': 29.94, 'lipoC3S3': 12.18, 'rot1': 1, 'rot0': 0, 'rot3': 0, 'rot2': 0, 'state': 'normal', 'yaw': 76.07, 'datetime': '2018-10-12 21:04:38.612282', 'mgs': 0, 'depth': -0.903, 'time': 12.3, 'pitch': -1.79, 'roll': -9.5}
{'lipoC2': 7.77, 'temp': 30.0, 'lipoC3S3': 12.17, 'rot1': 1, 'rot0': 0, 'rot3': 0, 'rot2': 0, 'state': 'normal', 'yaw': 76.07, 'datetime': '2018-10-12 21:04:38.620101', 'mgs': 0, 'depth': -0.903, 'time': 12.39, 'pitch': -1.8, 'roll': -9.48}
{'lipoC2': 7.77, 'temp': 30.0, 'lipoC3S3': 12.17, 'rot1': 1, 'rot0': 0, 'rot3': 0, 'rot2': 0, 'state': 'normal', 'yaw': 76.06, 'datetime': '2018-10-12 21:04:38.627827', 'mgs': 0, 'depth': -0.827, 'time': 12.49, 'pitch': -1.81, 'roll': -9.49}
{'lipoC2': 7.77, 'temp': 30.0, 'lipoC3S3': 12.17, 'rot1': 1, 'rot0': 0, 'rot3': 0, 'rot2': 0, 'state': 'normal', 'yaw': 76.15, 'datetime': '2018-10-12 21:04:38.635627', 'mgs': 0, 'depth': -0.827, 'time': 12.59, 'pitch': -1.79, 'roll': -9.4}
{'lipoC2': 7.77, 'temp': 29.94, 'lipoC3S3': 12.17, 'rot1': 1, 'rot0': 0, 'rot3': 0, 'rot2': 0, 'state': 'normal', 'yaw': 76.6, 'datetime': '2018-10-12 21:04:38.643306', 'mgs': 0, 'depth': -0.903, 'time': 12.69, 'pitch': -1.84, 'roll': -9.32}
{'lipoC2': 7.77, 'temp': 29.94, 'lipoC3S3': 12.17, 'rot1': 1, 'rot0': 0, 'rot3': 0, 'rot2': 0, 'state': 'normal', 'yaw': 76.54, 'datetime': '2018-10-12 21:04:38.651113', 'mgs': 0, 'depth': -0.827, 'time': 12.78, 'pitch': -1.51, 'roll': -9.47}
{'lipoC2': 7.77, 'temp': 29.94, 'lipoC3S3': 12.17, 'rot1': 1, 'rot0': 0, 'rot3': 0, 'rot2': 0, 'state': 'normal', 'yaw': 76.63, 'datetime': '2018-10-12 21:04:38.658930', 'mgs': 0, 'depth': -0.903, 'time': 12.88, 'pitch': -1.57, 'roll': -9.48}
{'lipoC2': 7.77, 'temp': 29.94, 'lipoC3S3': 12.17, 'rot1': 1, 'rot0': 0, 'rot3': 0, 'rot2': 0, 'state': 'normal', 'yaw': 76.64, 'datetime': '2018-10-12 21:04:38.666753', 'mgs': 0, 'depth': -0.903, 'time': 12.98, 'pitch': -1.62, 'roll': -9.43}
{'lipoC2': 7.77, 'temp': 29.94, 'lipoC3S3': 12.17, 'rot1': 1, 'rot0': 0, 'rot3': 0, 'rot2': 0, 'state': 'normal', 'yaw': 76.78, 'datetime': '2018-10-12 21:04:38.674475', 'mgs': 0, 'depth': -0.903, 'time': 13.08, 'pitch': -1.51, 'roll': -9.51}
{'lipoC2': 7.77, 'temp': 29.94, 'lipoC3S3': 12.17, 'rot1': 1, 'rot0': 0, 'rot3': 0, 'rot2': 0, 'state': 'normal', 'yaw': 76.98, 'datetime': '2018-10-12 21:04:38.682231', 'mgs': 0, 'depth': -0.903, 'time': 13.18, 'pitch': -1.46, 'roll': -9.53}
{'lipoC2': 7.77, 'temp': 29.94, 'lipoC3S3': 12.17, 'rot1': 1, 'rot0': 0, 'rot3': 0, 'rot2': 0, 'state': 'normal', 'yaw': 77.7, 'datetime': '2018-10-12 21:04:38.689918', 'mgs': 0, 'depth': -0.903, 'time': 13.27, 'pitch': -1.24, 'roll': -9.47}
{'lipoC2': 7.77, 'temp': 29.94, 'lipoC3S3': 12.17, 'rot1': 1, 'rot0': 0, 'rot3': 0, 'rot2': 0, 'state': 'normal', 'yaw': 78.78, 'datetime': '2018-10-12 21:04:38.697710', 'mgs': 0, 'depth': -0.903, 'time': 13.37, 'pitch': -1.26, 'roll': -9.67}
{'lipoC2': 7.77, 'temp': 29.94, 'lipoC3S3': 12.17, 'rot1': 1, 'rot0': 0, 'rot3': 0, 'rot2': 0, 'state': 'normal', 'yaw': 79.96, 'datetime': '2018-10-12 21:04:38.705457', 'mgs': 0, 'depth': -0.903, 'time': 13.47, 'pitch': -1.15, 'roll': -9.62}
{'lipoC2': 7.77, 'temp': 29.94, 'lipoC3S3': 12.17, 'rot1': 1, 'rot0': 0, 'rot3': 0, 'rot2': 0, 'state': 'normal', 'yaw': 80.97, 'datetime': '2018-10-12 21:04:38.713227', 'mgs': 0, 'depth': -0.827, 'time': 13.56, 'pitch': -1.08, 'roll': -9.82}
{'lipoC2': 7.77, 'temp': 29.94, 'lipoC3S3': 12.17, 'rot1': 1, 'rot0': 0, 'rot3': 0, 'rot2': 0, 'state': 'normal', 'yaw': 81.7, 'datetime': '2018-10-12 21:04:38.720930', 'mgs': 0, 'depth': -0.827, 'time': 13.66, 'pitch': -1.21, 'roll': -9.93}
{'lipoC2': 7.77, 'temp': 29.94, 'lipoC3S3': 12.17, 'rot1': 1, 'rot0': 0, 'rot3': 0, 'rot2': 0, 'state': 'normal', 'yaw': 82.35, 'datetime': '2018-10-12 21:04:38.728749', 'mgs': 0, 'depth': -0.827, 'time': 13.76, 'pitch': -1.23, 'roll': -10.04}
{'lipoC2': 7.77, 'temp': 29.94, 'lipoC3S3': 12.17, 'rot1': 1, 'rot0': 0, 'rot3': 0, 'rot2': 0, 'state': 'normal', 'yaw': 83.27, 'datetime': '2018-10-12 21:04:38.736482', 'mgs': 0, 'depth': -0.827, 'time': 13.86, 'pitch': -1.21, 'roll': -10.02}
{'lipoC2': 7.77, 'temp': 29.94, 'lipoC3S3': 12.17, 'rot1': 1, 'rot0': 0, 'rot3': 0, 'rot2': 0, 'state': 'normal', 'yaw': 84.04, 'datetime': '2018-10-12 21:04:38.744282', 'mgs': 0, 'depth': -0.827, 'time': 13.95, 'pitch': -1.17, 'roll': -10.15}
{'lipoC2': 7.77, 'temp': 29.94, 'lipoC3S3': 12.17, 'rot1': 1, 'rot0': 0, 'rot3': 0, 'rot2': 0, 'state': 'normal', 'yaw': 84.49, 'datetime': '2018-10-12 21:04:38.751967', 'mgs': 0, 'depth': -0.903, 'time': 14.05, 'pitch': -1.22, 'roll': -10.16}
{'lipoC2': 7.77, 'temp': 29.94, 'lipoC3S3': 12.17, 'rot1': 1, 'rot0': 0, 'rot3': 0, 'rot2': 0, 'state': 'normal', 'yaw': 84.84, 'datetime': '2018-10-12 21:04:38.759775', 'mgs': 0, 'depth': -0.903, 'time': 14.15, 'pitch': -1.29, 'roll': -10.25}
{'lipoC2': 7.77, 'temp': 29.94, 'lipoC3S3': 12.17, 'rot1': 1, 'rot0': 0, 'rot3': 0, 'rot2': 0, 'state': 'normal', 'yaw': 84.99, 'datetime': '2018-10-12 21:04:38.767486', 'mgs': 0, 'depth': -0.903, 'time': 14.25, 'pitch': -1.24, 'roll': -10.31}
{'lipoC2': 7.77, 'temp': 29.94, 'lipoC3S3': 12.17, 'rot1': 1, 'rot0': 0, 'rot3': 0, 'rot2': 0, 'state': 'normal', 'yaw': 84.97, 'datetime': '2018-10-12 21:04:38.775307', 'mgs': 0, 'depth': -0.827, 'time': 14.35, 'pitch': -1.33, 'roll': -10.43}
{'lipoC2': 7.77, 'temp': 29.94, 'lipoC3S3': 12.17, 'rot1': 1, 'rot0': 0, 'rot3': 0, 'rot2': 0, 'state': 'normal', 'yaw': 84.7, 'datetime': '2018-10-12 21:04:38.782989', 'mgs': 0, 'depth': -0.827, 'time': 14.44, 'pitch': -1.15, 'roll': -10.51}
{'lipoC2': 7.77, 'temp': 30.0, 'lipoC3S3': 12.17, 'rot1': 1, 'rot0': 0, 'rot3': 0, 'rot2': 0, 'state': 'normal', 'yaw': 84.44, 'datetime': '2018-10-12 21:04:38.790911', 'mgs': 0, 'depth': -0.903, 'time': 14.54, 'pitch': -1.32, 'roll': -10.4}
{'lipoC2': 7.77, 'temp': 30.0, 'lipoC3S3': 12.17, 'rot1': 1, 'rot0': 0, 'rot3': 0, 'rot2': 0, 'state': 'normal', 'yaw': 84.05, 'datetime': '2018-10-12 21:04:38.798628', 'mgs': 0, 'depth': -0.827, 'time': 14.64, 'pitch': -1.08, 'roll': -10.42}
{'lipoC2': 7.77, 'temp': 30.0, 'lipoC3S3': 12.17, 'rot1': 1, 'rot0': 0, 'rot3': 0, 'rot2': 0, 'state': 'normal', 'yaw': 83.75, 'datetime': '2018-10-12 21:04:38.806474', 'mgs': 0, 'depth': -0.827, 'time': 14.74, 'pitch': -0.81, 'roll': -10.26}
{'lipoC2': 7.77, 'temp': 29.94, 'lipoC3S3': 12.17, 'rot1': 1, 'rot0': 0, 'rot3': 0, 'rot2': 0, 'state': 'normal', 'yaw': 83.58, 'datetime': '2018-10-12 21:04:38.814181', 'mgs': 0, 'depth': -0.903, 'time': 14.83, 'pitch': -0.69, 'roll': -10.31}
{'lipoC2': 7.77, 'temp': 29.94, 'lipoC3S3': 12.17, 'rot1': 1, 'rot0': 0, 'rot3': 0, 'rot2': 0, 'state': 'normal', 'yaw': 83.7, 'datetime': '2018-10-12 21:04:38.821946', 'mgs': 0, 'depth': -0.903, 'time': 14.93, 'pitch': -0.57, 'roll': -10.07}
{'lipoC2': 7.77, 'temp': 29.94, 'lipoC3S3': 12.17, 'rot1': 1, 'rot0': 0, 'rot3': 0, 'rot2': 0, 'state': 'normal', 'yaw': 84.43, 'datetime': '2018-10-12 21:04:38.829681', 'mgs': 0, 'depth': -0.827, 'time': 15.03, 'pitch': -0.29, 'roll': -10.1}
{'lipoC2': 7.77, 'temp': 29.94, 'lipoC3S3': 12.17, 'rot1': 1, 'rot0': 0, 'rot3': 0, 'rot2': 0, 'state': 'normal', 'yaw': 85.92, 'datetime': '2018-10-12 21:04:38.837505', 'mgs': 0, 'depth': -0.903, 'time': 15.13, 'pitch': -0.05, 'roll': -9.98}
{'lipoC2': 7.77, 'temp': 29.94, 'lipoC3S3': 12.17, 'rot1': 1, 'rot0': 0, 'rot3': 0, 'rot2': 0, 'state': 'normal', 'yaw': 87.26, 'datetime': '2018-10-12 21:04:38.845241', 'mgs': 0, 'depth': -0.827, 'time': 15.22, 'pitch': -0.07, 'roll': -9.74}
{'lipoC2': 7.77, 'temp': 29.94, 'lipoC3S3': 12.17, 'rot1': 1, 'rot0': 0, 'rot3': 0, 'rot2': 0, 'state': 'normal', 'yaw': 88.19, 'datetime': '2018-10-12 21:04:38.852977', 'mgs': 0, 'depth': -0.827, 'time': 15.32, 'pitch': 0.24, 'roll': -9.99}
{'lipoC2': 7.77, 'temp': 29.94, 'lipoC3S3': 12.17, 'rot1': 1, 'rot0': 0, 'rot3': 0, 'rot2': 0, 'state': 'normal', 'yaw': 88.57, 'datetime': '2018-10-12 21:04:38.860665', 'mgs': 0, 'depth': -0.827, 'time': 15.42, 'pitch': 0.11, 'roll': -9.95}
{'lipoC2': 7.77, 'temp': 29.94, 'lipoC3S3': 12.18, 'rot1': 1, 'rot0': 0, 'rot3': 0, 'rot2': 0, 'state': 'normal', 'yaw': 88.48, 'datetime': '2018-10-12 21:04:38.868472', 'mgs': 0, 'depth': -0.827, 'time': 15.52, 'pitch': 0.16, 'roll': -9.97}
{'lipoC2': 7.77, 'temp': 29.94, 'lipoC3S3': 12.17, 'rot1': 1, 'rot0': 0, 'rot3': 0, 'rot2': 0, 'state': 'normal', 'yaw': 88.28, 'datetime': '2018-10-12 21:04:38.876211', 'mgs': 0, 'depth': -0.903, 'time': 15.61, 'pitch': 0.24, 'roll': -9.8}
{'lipoC2': 7.78, 'temp': 29.94, 'lipoC3S3': 12.17, 'rot1': 1, 'rot0': 0, 'rot3': 0, 'rot2': 0, 'state': 'normal', 'yaw': 88.09, 'datetime': '2018-10-12 21:04:38.883985', 'mgs': 0, 'depth': -0.827, 'time': 15.71, 'pitch': 0.2, 'roll': -9.91}
{'lipoC2': 7.77, 'temp': 29.94, 'lipoC3S3': 12.17, 'rot1': 1, 'rot0': 0, 'rot3': 0, 'rot2': 0, 'state': 'normal', 'yaw': 87.91, 'datetime': '2018-10-12 21:04:38.891671', 'mgs': 0, 'depth': -0.827, 'time': 15.81, 'pitch': 0.28, 'roll': -9.93}
{'lipoC2': 7.77, 'temp': 29.94, 'lipoC3S3': 12.17, 'rot1': 1, 'rot0': 0, 'rot3': 0, 'rot2': 0, 'state': 'normal', 'yaw': 87.9, 'datetime': '2018-10-12 21:04:38.899402', 'mgs': 0, 'depth': -0.827, 'time': 15.91, 'pitch': 0.26, 'roll': -9.89}
{'lipoC2': 7.77, 'temp': 29.94, 'lipoC3S3': 12.18, 'rot1': 1, 'rot0': 0, 'rot3': 0, 'rot2': 0, 'state': 'normal', 'yaw': 88.13, 'datetime': '2018-10-12 21:04:38.907124', 'mgs': 0, 'depth': -0.903, 'time': 16.0, 'pitch': 0.23, 'roll': -9.91}
{'lipoC2': 7.77, 'temp': 29.94, 'lipoC3S3': 12.17, 'rot1': 1, 'rot0': 0, 'rot3': 0, 'rot2': 0, 'state': 'normal', 'yaw': 88.54, 'datetime': '2018-10-12 21:04:38.914849', 'mgs': 0, 'depth': -0.827, 'time': 16.1, 'pitch': 0.33, 'roll': -9.68}
{'lipoC2': 7.77, 'temp': 29.94, 'lipoC3S3': 12.18, 'rot1': 1, 'rot0': 0, 'rot3': 0, 'rot2': 0, 'state': 'normal', 'yaw': 88.91, 'datetime': '2018-10-12 21:04:38.922630', 'mgs': 0, 'depth': -0.903, 'time': 16.2, 'pitch': 0.41, 'roll': -9.89}
{'lipoC2': 7.77, 'temp': 29.94, 'lipoC3S3': 12.17, 'rot1': 1, 'rot0': 0, 'rot3': 0, 'rot2': 0, 'state': 'normal', 'yaw': 88.92, 'datetime': '2018-10-12 21:04:38.930387', 'mgs': 0, 'depth': -0.903, 'time': 16.3, 'pitch': 0.35, 'roll': -9.76}
{'lipoC2': 7.77, 'temp': 29.94, 'lipoC3S3': 12.17, 'rot1': 1, 'rot0': 0, 'rot3': 0, 'rot2': 0, 'state': 'normal', 'yaw': 88.76, 'datetime': '2018-10-12 21:04:38.938095', 'mgs': 0, 'depth': -0.827, 'time': 16.4, 'pitch': 0.36, 'roll': -9.81}
{'lipoC2': 7.77, 'temp': 30.0, 'lipoC3S3': 12.17, 'rot1': 1, 'rot0': 0, 'rot3': 0, 'rot2': 0, 'state': 'normal', 'yaw': 88.52, 'datetime': '2018-10-12 21:04:38.945806', 'mgs': 0, 'depth': -0.903, 'time': 16.49, 'pitch': 0.3, 'roll': -9.82}
{'lipoC2': 7.77, 'temp': 30.0, 'lipoC3S3': 12.18, 'rot1': 1, 'rot0': 0, 'rot3': 0, 'rot2': 0, 'state': 'normal', 'yaw': 88.56, 'datetime': '2018-10-12 21:04:38.953464', 'mgs': 0, 'depth': -0.903, 'time': 16.59, 'pitch': 0.3, 'roll': -9.67}
{'lipoC2': 7.77, 'temp': 30.0, 'lipoC3S3': 12.17, 'rot1': 1, 'rot0': 0, 'rot3': 0, 'rot2': 0, 'state': 'normal', 'yaw': 88.82, 'datetime': '2018-10-12 21:04:38.961196', 'mgs': 0, 'depth': -0.827, 'time': 16.69, 'pitch': 0.3, 'roll': -9.97}
{'lipoC2': 7.77, 'temp': 29.94, 'lipoC3S3': 12.17, 'rot1': 1, 'rot0': 0, 'rot3': 0, 'rot2': 0, 'state': 'normal', 'yaw': 89.27, 'datetime': '2018-10-12 21:04:38.968924', 'mgs': 0, 'depth': -0.827, 'time': 16.79, 'pitch': 0.41, 'roll': -9.72}
{'lipoC2': 7.77, 'temp': 29.94, 'lipoC3S3': 12.17, 'rot1': 1, 'rot0': 0, 'rot3': 0, 'rot2': 0, 'state': 'normal', 'yaw': 89.66, 'datetime': '2018-10-12 21:04:38.976640', 'mgs': 0, 'depth': -0.827, 'time': 16.89, 'pitch': 0.38, 'roll': -9.85}
{'lipoC2': 7.77, 'temp': 29.94, 'lipoC3S3': 12.17, 'rot1': 1, 'rot0': 0, 'rot3': 0, 'rot2': 0, 'state': 'normal', 'yaw': 89.68, 'datetime': '2018-10-12 21:04:38.984338', 'mgs': 0, 'depth': -0.903, 'time': 16.98, 'pitch': 0.31, 'roll': -9.75}
{'lipoC2': 7.77, 'temp': 29.94, 'lipoC3S3': 12.17, 'rot1': 1, 'rot0': 0, 'rot3': 0, 'rot2': 0, 'state': 'normal', 'yaw': 89.37, 'datetime': '2018-10-12 21:04:38.992022', 'mgs': 0, 'depth': -0.903, 'time': 17.08, 'pitch': 0.25, 'roll': -9.8}
{'lipoC2': 7.77, 'temp': 29.94, 'lipoC3S3': 12.17, 'rot1': 1, 'rot0': 0, 'rot3': 0, 'rot2': 0, 'state': 'normal', 'yaw': 88.84, 'datetime': '2018-10-12 21:04:38.999737', 'mgs': 0, 'depth': -0.827, 'time': 17.18, 'pitch': 0.16, 'roll': -9.76}
{'lipoC2': 7.77, 'temp': 29.94, 'lipoC3S3': 12.17, 'rot1': 1, 'rot0': 0, 'rot3': 0, 'rot2': 0, 'state': 'normal', 'yaw': 88.38, 'datetime': '2018-10-12 21:04:39.007449', 'mgs': 0, 'depth': -0.903, 'time': 17.27, 'pitch': 0.08, 'roll': -9.73}
{'lipoC2': 7.77, 'temp': 29.94, 'lipoC3S3': 12.18, 'rot1': 1, 'rot0': 0, 'rot3': 0, 'rot2': 0, 'state': 'normal', 'yaw': 87.91, 'datetime': '2018-10-12 21:04:39.015130', 'mgs': 0, 'depth': -0.827, 'time': 17.37, 'pitch': 0.05, 'roll': -9.65}
{'lipoC2': 7.77, 'temp': 29.94, 'lipoC3S3': 12.17, 'rot1': 1, 'rot0': 0, 'rot3': 0, 'rot2': 0, 'state': 'normal', 'yaw': 87.59, 'datetime': '2018-10-12 21:04:39.022796', 'mgs': 0, 'depth': -0.903, 'time': 17.47, 'pitch': 0.09, 'roll': -9.59}
{'lipoC2': 7.77, 'temp': 29.94, 'lipoC3S3': 12.17, 'rot1': 1, 'rot0': 0, 'rot3': 0, 'rot2': 0, 'state': 'normal', 'yaw': 87.37, 'datetime': '2018-10-12 21:04:39.030506', 'mgs': 0, 'depth': -0.827, 'time': 17.57, 'pitch': 0.02, 'roll': -9.65}
{'lipoC2': 7.77, 'temp': 29.94, 'lipoC3S3': 12.17, 'rot1': 1, 'rot0': 0, 'rot3': 0, 'rot2': 0, 'state': 'normal', 'yaw': 87.45, 'datetime': '2018-10-12 21:04:39.038199', 'mgs': 0, 'depth': -0.903, 'time': 17.66, 'pitch': 0.05, 'roll': -9.52}
{'lipoC2': 7.77, 'temp': 29.94, 'lipoC3S3': 12.17, 'rot1': 1, 'rot0': 0, 'rot3': 0, 'rot2': 0, 'state': 'normal', 'yaw': 87.35, 'datetime': '2018-10-12 21:04:39.045887', 'mgs': 0, 'depth': -0.827, 'time': 17.76, 'pitch': 0.08, 'roll': -9.68}
{'lipoC2': 7.77, 'temp': 29.94, 'lipoC3S3': 12.17, 'rot1': 1, 'rot0': 0, 'rot3': 0, 'rot2': 0, 'state': 'normal', 'yaw': 87.16, 'datetime': '2018-10-12 21:04:39.053665', 'mgs': 0, 'depth': -0.827, 'time': 17.86, 'pitch': 0.07, 'roll': -9.46}
{'lipoC2': 7.77, 'temp': 30.0, 'lipoC3S3': 12.17, 'rot1': 2, 'rot0': 0, 'rot3': 0, 'rot2': 0, 'state': 'normal', 'yaw': 86.95, 'datetime': '2018-10-12 21:04:39.061380', 'mgs': 0, 'depth': -0.903, 'time': 17.96, 'pitch': 0.03, 'roll': -9.67}
{'lipoC2': 7.77, 'temp': 30.0, 'lipoC3S3': 12.17, 'rot1': 2, 'rot0': 0, 'rot3': 0, 'rot2': 0, 'state': 'normal', 'yaw': 86.8, 'datetime': '2018-10-12 21:04:39.069074', 'mgs': 0, 'depth': -0.903, 'time': 18.06, 'pitch': 0.03, 'roll': -9.5}
{'lipoC2': 7.77, 'temp': 30.0, 'lipoC3S3': 12.17, 'rot1': 2, 'rot0': 0, 'rot3': 0, 'rot2': 0, 'state': 'normal', 'yaw': 86.95, 'datetime': '2018-10-12 21:04:39.076761', 'mgs': 0, 'depth': -0.903, 'time': 18.15, 'pitch': 0.01, 'roll': -9.52}
{'lipoC2': 7.77, 'temp': 29.94, 'lipoC3S3': 12.17, 'rot1': 2, 'rot0': 0, 'rot3': 0, 'rot2': 0, 'state': 'normal', 'yaw': 87.98, 'datetime': '2018-10-12 21:04:39.084461', 'mgs': 0, 'depth': -0.903, 'time': 18.25, 'pitch': 0.15, 'roll': -9.37}
{'lipoC2': 7.77, 'temp': 29.94, 'lipoC3S3': 12.17, 'rot1': 2, 'rot0': 0, 'rot3': 0, 'rot2': 0, 'state': 'normal', 'yaw': 89.97, 'datetime': '2018-10-12 21:04:39.092129', 'mgs': 0, 'depth': -0.903, 'time': 18.35, 'pitch': 0.31, 'roll': -9.43}
{'lipoC2': 7.78, 'temp': 29.94, 'lipoC3S3': 12.19, 'rot1': 2, 'rot0': 0, 'rot3': 0, 'rot2': 0, 'state': 'normal', 'yaw': 91.78, 'datetime': '2018-10-12 21:04:39.099840', 'mgs': 0, 'depth': -0.903, 'time': 18.45, 'pitch': 0.51, 'roll': -9.54}
{'lipoC2': 7.77, 'temp': 29.94, 'lipoC3S3': 12.17, 'rot1': 2, 'rot0': 0, 'rot3': 0, 'rot2': 0, 'state': 'normal', 'yaw': 93.2, 'datetime': '2018-10-12 21:04:39.107573', 'mgs': 0, 'depth': -0.827, 'time': 18.54, 'pitch': 0.71, 'roll': -9.51}
{'lipoC2': 7.77, 'temp': 29.94, 'lipoC3S3': 12.17, 'rot1': 2, 'rot0': 0, 'rot3': 0, 'rot2': 0, 'state': 'normal', 'yaw': 93.81, 'datetime': '2018-10-12 21:04:39.115280', 'mgs': 0, 'depth': -0.827, 'time': 18.64, 'pitch': 0.81, 'roll': -9.36}
{'lipoC2': 7.77, 'temp': 29.94, 'lipoC3S3': 12.17, 'rot1': 2, 'rot0': 0, 'rot3': 0, 'rot2': 0, 'state': 'normal', 'yaw': 94.48, 'datetime': '2018-10-12 21:04:39.122961', 'mgs': 0, 'depth': -0.827, 'time': 18.74, 'pitch': 0.82, 'roll': -9.26}
{'lipoC2': 7.77, 'temp': 29.94, 'lipoC3S3': 12.18, 'rot1': 2, 'rot0': 0, 'rot3': 0, 'rot2': 0, 'state': 'normal', 'yaw': 95.34, 'datetime': '2018-10-12 21:04:39.130729', 'mgs': 0, 'depth': -0.903, 'time': 18.84, 'pitch': 1.06, 'roll': -9.24}
{'lipoC2': 7.77, 'temp': 29.94, 'lipoC3S3': 12.17, 'rot1': 2, 'rot0': 0, 'rot3': 0, 'rot2': 0, 'state': 'normal', 'yaw': 96.44, 'datetime': '2018-10-12 21:04:39.138429', 'mgs': 0, 'depth': -0.903, 'time': 18.93, 'pitch': 1.26, 'roll': -9.16}
{'lipoC2': 7.77, 'temp': 29.94, 'lipoC3S3': 12.17, 'rot1': 2, 'rot0': 0, 'rot3': 0, 'rot2': 0, 'state': 'normal', 'yaw': 97.65, 'datetime': '2018-10-12 21:04:39.146155', 'mgs': 0, 'depth': -0.827, 'time': 19.03, 'pitch': 1.35, 'roll': -9.18}
{'lipoC2': 7.77, 'temp': 29.94, 'lipoC3S3': 12.18, 'rot1': 2, 'rot0': 0, 'rot3': 0, 'rot2': 0, 'state': 'normal', 'yaw': 98.41, 'datetime': '2018-10-12 21:04:39.153839', 'mgs': 0, 'depth': -0.903, 'time': 19.13, 'pitch': 1.38, 'roll': -9.19}
{'lipoC2': 7.77, 'temp': 29.94, 'lipoC3S3': 12.17, 'rot1': 2, 'rot0': 0, 'rot3': 0, 'rot2': 0, 'state': 'normal', 'yaw': 99.07, 'datetime': '2018-10-12 21:04:39.161506', 'mgs': 0, 'depth': -0.827, 'time': 19.23, 'pitch': 1.37, 'roll': -9.25}
{'lipoC2': 7.77, 'temp': 29.94, 'lipoC3S3': 12.17, 'rot1': 2, 'rot0': 0, 'rot3': 0, 'rot2': 0, 'state': 'normal', 'yaw': 100.02, 'datetime': '2018-10-12 21:04:39.169195', 'mgs': 0, 'depth': -0.827, 'time': 19.32, 'pitch': 1.68, 'roll': -9.18}
{'lipoC2': 7.77, 'temp': 30.0, 'lipoC3S3': 12.17, 'rot1': 2, 'rot0': 0, 'rot3': 0, 'rot2': 0, 'state': 'normal', 'yaw': 101.48, 'datetime': '2018-10-12 21:04:39.176895', 'mgs': 0, 'depth': -0.751, 'time': 19.42, 'pitch': 1.77, 'roll': -9.16}
{'lipoC2': 7.77, 'temp': 30.0, 'lipoC3S3': 12.17, 'rot1': 2, 'rot0': 0, 'rot3': 0, 'rot2': 0, 'state': 'normal', 'yaw': 103.06, 'datetime': '2018-10-12 21:04:39.184695', 'mgs': 0, 'depth': -0.827, 'time': 19.52, 'pitch': 1.9, 'roll': -9.21}
{'lipoC2': 7.77, 'temp': 30.0, 'lipoC3S3': 12.17, 'rot1': 2, 'rot0': 0, 'rot3': 0, 'rot2': 0, 'state': 'normal', 'yaw': 104.51, 'datetime': '2018-10-12 21:04:39.192409', 'mgs': 0, 'depth': -0.827, 'time': 19.62, 'pitch': 2.01, 'roll': -9.2}
{'lipoC2': 7.77, 'temp': 30.0, 'lipoC3S3': 12.18, 'rot1': 2, 'rot0': 0, 'rot3': 0, 'rot2': 0, 'state': 'normal', 'yaw': 106.25, 'datetime': '2018-10-12 21:04:39.200117', 'mgs': 0, 'depth': -0.827, 'time': 19.72, 'pitch': 2.14, 'roll': -9.3}
{'lipoC2': 7.77, 'temp': 30.0, 'lipoC3S3': 12.17, 'rot1': 2, 'rot0': 0, 'rot3': 0, 'rot2': 0, 'state': 'normal', 'yaw': 108.25, 'datetime': '2018-10-12 21:04:39.207834', 'mgs': 0, 'depth': -0.827, 'time': 19.81, 'pitch': 2.32, 'roll': -9.51}
{'lipoC2': 7.77, 'temp': 29.94, 'lipoC3S3': 12.17, 'rot1': 3, 'rot0': 0, 'rot3': 0, 'rot2': 0, 'state': 'normal', 'yaw': 109.83, 'datetime': '2018-10-12 21:04:39.215540', 'mgs': 0, 'depth': -0.903, 'time': 19.91, 'pitch': 2.47, 'roll': -9.32}
{'lipoC2': 7.77, 'temp': 29.94, 'lipoC3S3': 12.17, 'rot1': 3, 'rot0': 0, 'rot3': 0, 'rot2': 0, 'state': 'normal', 'yaw': 110.32, 'datetime': '2018-10-12 21:04:39.223198', 'mgs': 0, 'depth': -0.827, 'time': 20.01, 'pitch': 2.79, 'roll': -9.73}
{'lipoC2': 7.77, 'temp': 29.94, 'lipoC3S3': 12.17, 'rot1': 3, 'rot0': 0, 'rot3': 0, 'rot2': 0, 'state': 'normal', 'yaw': 109.48, 'datetime': '2018-10-12 21:04:39.230905', 'mgs': 0, 'depth': -0.903, 'time': 20.11, 'pitch': 2.68, 'roll': -9.63}
{'lipoC2': 7.77, 'temp': 29.94, 'lipoC3S3': 12.17, 'rot1': 3, 'rot0': 0, 'rot3': 0, 'rot2': 0, 'state': 'normal', 'yaw': 107.83, 'datetime': '2018-10-12 21:04:39.238628', 'mgs': 0, 'depth': -0.903, 'time': 20.2, 'pitch': 2.42, 'roll': -9.52}
{'lipoC2': 7.77, 'temp': 29.94, 'lipoC3S3': 12.17, 'rot1': 3, 'rot0': 0, 'rot3': 0, 'rot2': 0, 'state': 'normal', 'yaw': 106.16, 'datetime': '2018-10-12 21:04:39.246349', 'mgs': 0, 'depth': -0.903, 'time': 20.3, 'pitch': 2.01, 'roll': -9.9}
{'lipoC2': 7.77, 'temp': 29.94, 'lipoC3S3': 12.17, 'rot1': 3, 'rot0': 0, 'rot3': 0, 'rot2': 0, 'state': 'normal', 'yaw': 104.43, 'datetime': '2018-10-12 21:04:39.254047', 'mgs': 0, 'depth': -0.827, 'time': 20.4, 'pitch': 1.88, 'roll': -9.59}
{'lipoC2': 7.77, 'temp': 29.94, 'lipoC3S3': 12.17, 'rot1': 3, 'rot0': 0, 'rot3': 0, 'rot2': 0, 'state': 'normal', 'yaw': 103.15, 'datetime': '2018-10-12 21:04:39.261731', 'mgs': 0, 'depth': -0.827, 'time': 20.5, 'pitch': 1.78, 'roll': -9.73}
{'lipoC2': 7.77, 'temp': 29.94, 'lipoC3S3': 12.17, 'rot1': 3, 'rot0': 0, 'rot3': 0, 'rot2': 0, 'state': 'normal', 'yaw': 102.2, 'datetime': '2018-10-12 21:04:39.269417', 'mgs': 0, 'depth': -0.903, 'time': 20.59, 'pitch': 1.77, 'roll': -9.65}
{'lipoC2': 7.77, 'temp': 29.94, 'lipoC3S3': 12.17, 'rot1': 3, 'rot0': 0, 'rot3': 0, 'rot2': 0, 'state': 'normal', 'yaw': 102.05, 'datetime': '2018-10-12 21:04:39.277117', 'mgs': 0, 'depth': -0.827, 'time': 20.69, 'pitch': 2.01, 'roll': -9.84}
{'lipoC2': 7.77, 'temp': 29.94, 'lipoC3S3': 12.17, 'rot1': 3, 'rot0': 0, 'rot3': 0, 'rot2': 0, 'state': 'normal', 'yaw': 101.8, 'datetime': '2018-10-12 21:04:39.284821', 'mgs': 0, 'depth': -0.827, 'time': 20.79, 'pitch': 1.62, 'roll': -9.41}
{'lipoC2': 7.77, 'temp': 29.94, 'lipoC3S3': 12.17, 'rot1': 3, 'rot0': 0, 'rot3': 0, 'rot2': 0, 'state': 'normal', 'yaw': 101.65, 'datetime': '2018-10-12 21:04:39.292495', 'mgs': 0, 'depth': -0.903, 'time': 20.89, 'pitch': 1.46, 'roll': -9.32}
{'lipoC2': 7.77, 'temp': 29.94, 'lipoC3S3': 12.17, 'rot1': 3, 'rot0': 0, 'rot3': 0, 'rot2': 0, 'state': 'normal', 'yaw': 101.69, 'datetime': '2018-10-12 21:04:39.300209', 'mgs': 0, 'depth': -0.827, 'time': 20.98, 'pitch': 1.65, 'roll': -9.07}
{'lipoC2': 7.77, 'temp': 29.94, 'lipoC3S3': 12.18, 'rot1': 3, 'rot0': 0, 'rot3': 0, 'rot2': 0, 'state': 'normal', 'yaw': 101.87, 'datetime': '2018-10-12 21:04:39.307910', 'mgs': 0, 'depth': -0.903, 'time': 21.08, 'pitch': 1.87, 'roll': -8.74}
{'lipoC2': 7.77, 'temp': 29.94, 'lipoC3S3': 12.17, 'rot1': 3, 'rot0': 0, 'rot3': 0, 'rot2': 0, 'state': 'normal', 'yaw': 101.71, 'datetime': '2018-10-12 21:04:39.315733', 'mgs': 0, 'depth': -0.751, 'time': 21.18, 'pitch': 1.83, 'roll': -8.74}
{'lipoC2': 7.77, 'temp': 29.94, 'lipoC3S3': 12.17, 'rot1': 3, 'rot0': 0, 'rot3': 0, 'rot2': 0, 'state': 'normal', 'yaw': 101.3, 'datetime': '2018-10-12 21:04:39.323428', 'mgs': 0, 'depth': -0.827, 'time': 21.27, 'pitch': 0.98, 'roll': -8.34}
{'lipoC2': 7.77, 'temp': 29.94, 'lipoC3S3': 12.17, 'rot1': 3, 'rot0': 0, 'rot3': 0, 'rot2': 0, 'state': 'normal', 'yaw': 100.62, 'datetime': '2018-10-12 21:04:39.331165', 'mgs': 0, 'depth': -0.751, 'time': 21.37, 'pitch': 1.59, 'roll': -8.94}
{'lipoC2': 7.77, 'temp': 29.94, 'lipoC3S3': 12.18, 'rot1': 3, 'rot0': 0, 'rot3': 0, 'rot2': 0, 'state': 'normal', 'yaw': 101.0, 'datetime': '2018-10-12 21:04:39.338907', 'mgs': 0, 'depth': -0.903, 'time': 21.47, 'pitch': 1.99, 'roll': -7.76}
{'lipoC2': 7.77, 'temp': 29.94, 'lipoC3S3': 12.17, 'rot1': 3, 'rot0': 0, 'rot3': 0, 'rot2': 0, 'state': 'normal', 'yaw': 100.47, 'datetime': '2018-10-12 21:04:39.346638', 'mgs': 0, 'depth': -0.751, 'time': 21.57, 'pitch': 1.79, 'roll': -8.49}
{'lipoC2': 7.77, 'temp': 29.94, 'lipoC3S3': 12.17, 'rot1': 3, 'rot0': 0, 'rot3': 0, 'rot2': 0, 'state': 'normal', 'yaw': 98.46, 'datetime': '2018-10-12 21:04:39.354355', 'mgs': 0, 'depth': -0.903, 'time': 21.67, 'pitch': 1.33, 'roll': -7.68}
{'lipoC2': 7.77, 'temp': 29.94, 'lipoC3S3': 12.17, 'rot1': 3, 'rot0': 0, 'rot3': 0, 'rot2': 0, 'state': 'normal', 'yaw': 96.87, 'datetime': '2018-10-12 21:04:39.362033', 'mgs': 0, 'depth': -0.827, 'time': 21.76, 'pitch': 1.27, 'roll': -8.61}
{'lipoC2': 7.77, 'temp': 29.94, 'lipoC3S3': 12.17, 'rot1': 3, 'rot0': 0, 'rot3': 0, 'rot2': 0, 'state': 'normal', 'yaw': 96.43, 'datetime': '2018-10-12 21:04:39.369752', 'mgs': 0, 'depth': -0.827, 'time': 21.86, 'pitch': 1.46, 'roll': -8.34}
{'lipoC2': 7.77, 'temp': 29.94, 'lipoC3S3': 12.17, 'rot1': 3, 'rot0': 0, 'rot3': 0, 'rot2': 0, 'state': 'normal', 'yaw': 96.94, 'datetime': '2018-10-12 21:04:39.377490', 'mgs': 0, 'depth': -0.827, 'time': 21.96, 'pitch': 1.47, 'roll': -8.3}
{'lipoC2': 7.77, 'temp': 29.94, 'lipoC3S3': 12.17, 'rot1': 3, 'rot0': 0, 'rot3': 0, 'rot2': 0, 'state': 'normal', 'yaw': 97.78, 'datetime': '2018-10-12 21:04:39.385214', 'mgs': 0, 'depth': -0.827, 'time': 22.06, 'pitch': 1.69, 'roll': -8.8}
{'lipoC2': 7.77, 'temp': 29.94, 'lipoC3S3': 12.17, 'rot1': 3, 'rot0': 0, 'rot3': 0, 'rot2': 0, 'state': 'normal', 'yaw': 98.57, 'datetime': '2018-10-12 21:04:39.392891', 'mgs': 0, 'depth': -0.827, 'time': 22.16, 'pitch': 1.61, 'roll': -8.49}
{'lipoC2': 7.77, 'temp': 29.94, 'lipoC3S3': 12.17, 'rot1': 3, 'rot0': 0, 'rot3': 0, 'rot2': 0, 'state': 'normal', 'yaw': 98.94, 'datetime': '2018-10-12 21:04:39.400593', 'mgs': 0, 'depth': -0.827, 'time': 22.25, 'pitch': 1.53, 'roll': -8.78}
{'lipoC2': 7.77, 'temp': 29.94, 'lipoC3S3': 12.17, 'rot1': 3, 'rot0': 0, 'rot3': 0, 'rot2': 0, 'state': 'normal', 'yaw': 98.72, 'datetime': '2018-10-12 21:04:39.408317', 'mgs': 0, 'depth': -0.751, 'time': 22.35, 'pitch': 1.91, 'roll': -11.08}
{'lipoC2': 7.77, 'temp': 29.94, 'lipoC3S3': 12.17, 'rot1': 3, 'rot0': 0, 'rot3': 0, 'rot2': 0, 'state': 'normal', 'yaw': 97.87, 'datetime': '2018-10-12 21:04:39.416030', 'mgs': 0, 'depth': -0.827, 'time': 22.45, 'pitch': 1.39, 'roll': -9.82}
{'lipoC2': 7.77, 'temp': 30.0, 'lipoC3S3': 12.18, 'rot1': 3, 'rot0': 0, 'rot3': 0, 'rot2': 0, 'state': 'normal', 'yaw': 96.29, 'datetime': '2018-10-12 21:04:39.423705', 'mgs': 0, 'depth': -0.827, 'time': 22.55, 'pitch': 1.23, 'roll': -9.27}
{'lipoC2': 7.76, 'temp': 30.0, 'lipoC3S3': 12.17, 'rot1': 3, 'rot0': 0, 'rot3': 0, 'rot2': 0, 'state': 'normal', 'yaw': 94.47, 'datetime': '2018-10-12 21:04:39.431430', 'mgs': 0, 'depth': -0.903, 'time': 22.65, 'pitch': 1.09, 'roll': -9.84}
{'lipoC2': 7.77, 'temp': 30.0, 'lipoC3S3': 12.17, 'rot1': 3, 'rot0': 0, 'rot3': 0, 'rot2': 0, 'state': 'normal', 'yaw': 93.36, 'datetime': '2018-10-12 21:04:39.439156', 'mgs': 0, 'depth': -0.903, 'time': 22.74, 'pitch': 0.84, 'roll': -9.88}
{'lipoC2': 7.77, 'temp': 29.94, 'lipoC3S3': 12.17, 'rot1': 3, 'rot0': 0, 'rot3': 0, 'rot2': 0, 'state': 'normal', 'yaw': 92.79, 'datetime': '2018-10-12 21:04:39.446992', 'mgs': 0, 'depth': -0.98, 'time': 22.84, 'pitch': 0.79, 'roll': -9.86}
{'lipoC2': 7.77, 'temp': 29.94, 'lipoC3S3': 12.17, 'rot1': 3, 'rot0': 0, 'rot3': 0, 'rot2': 0, 'state': 'normal', 'yaw': 92.44, 'datetime': '2018-10-12 21:04:39.454719', 'mgs': 0, 'depth': -0.827, 'time': 22.94, 'pitch': 0.84, 'roll': -10.32}
{'lipoC2': 7.77, 'temp': 29.94, 'lipoC3S3': 12.17, 'rot1': 3, 'rot0': 0, 'rot3': 0, 'rot2': 0, 'state': 'normal', 'yaw': 92.18, 'datetime': '2018-10-12 21:04:39.462393', 'mgs': 0, 'depth': -0.903, 'time': 23.03, 'pitch': 0.67, 'roll': -9.89}
{'lipoC2': 7.77, 'temp': 29.94, 'lipoC3S3': 12.17, 'rot1': 3, 'rot0': 0, 'rot3': 0, 'rot2': 0, 'state': 'normal', 'yaw': 91.76, 'datetime': '2018-10-12 21:04:39.470125', 'mgs': 0, 'depth': -0.827, 'time': 23.13, 'pitch': 0.78, 'roll': -10.32}
{'lipoC2': 7.77, 'temp': 29.94, 'lipoC3S3': 12.17, 'rot1': 3, 'rot0': 0, 'rot3': 0, 'rot2': 0, 'state': 'normal', 'yaw': 91.22, 'datetime': '2018-10-12 21:04:39.477850', 'mgs': 0, 'depth': -0.827, 'time': 23.23, 'pitch': 0.75, 'roll': -10.04}
{'lipoC2': 7.77, 'temp': 29.94, 'lipoC3S3': 12.17, 'rot1': 3, 'rot0': 0, 'rot3': 0, 'rot2': 0, 'state': 'normal', 'yaw': 90.4, 'datetime': '2018-10-12 21:04:39.485617', 'mgs': 0, 'depth': -0.827, 'time': 23.33, 'pitch': 0.6, 'roll': -10.22}
{'lipoC2': 7.77, 'temp': 29.94, 'lipoC3S3': 12.17, 'rot1': 3, 'rot0': 0, 'rot3': 0, 'rot2': 0, 'state': 'normal', 'yaw': 89.67, 'datetime': '2018-10-12 21:04:39.493291', 'mgs': 0, 'depth': -0.827, 'time': 23.42, 'pitch': 0.53, 'roll': -10.36}
{'lipoC2': 7.77, 'temp': 29.94, 'lipoC3S3': 12.18, 'rot1': 3, 'rot0': 0, 'rot3': 0, 'rot2': 0, 'state': 'normal', 'yaw': 89.11, 'datetime': '2018-10-12 21:04:39.500999', 'mgs': 0, 'depth': -0.903, 'time': 23.52, 'pitch': 0.45, 'roll': -9.96}
{'lipoC2': 7.77, 'temp': 29.94, 'lipoC3S3': 12.17, 'rot1': 3, 'rot0': 0, 'rot3': 0, 'rot2': 0, 'state': 'normal', 'yaw': 88.73, 'datetime': '2018-10-12 21:04:39.508744', 'mgs': 0, 'depth': -0.903, 'time': 23.62, 'pitch': 0.4, 'roll': -10.23}
{'lipoC2': 7.77, 'temp': 29.94, 'lipoC3S3': 12.17, 'rot1': 3, 'rot0': 0, 'rot3': 0, 'rot2': 0, 'state': 'normal', 'yaw': 88.56, 'datetime': '2018-10-12 21:04:39.516472', 'mgs': 0, 'depth': -0.827, 'time': 23.72, 'pitch': 0.41, 'roll': -10.18}
{'lipoC2': 7.77, 'temp': 29.88, 'lipoC3S3': 12.17, 'rot1': 3, 'rot0': 0, 'rot3': 0, 'rot2': 0, 'state': 'normal', 'yaw': 88.53, 'datetime': '2018-10-12 21:04:39.524192', 'mgs': 0, 'depth': -0.827, 'time': 23.82, 'pitch': 0.54, 'roll': -10.17}
{'lipoC2': 7.77, 'temp': 29.88, 'lipoC3S3': 12.17, 'rot1': 3, 'rot0': 0, 'rot3': 0, 'rot2': 0, 'state': 'normal', 'yaw': 88.81, 'datetime': '2018-10-12 21:04:39.531871', 'mgs': 0, 'depth': -0.827, 'time': 23.91, 'pitch': 0.54, 'roll': -10.32}
{'lipoC2': 7.77, 'temp': 29.94, 'lipoC3S3': 12.17, 'rot1': 3, 'rot0': 0, 'rot3': 0, 'rot2': 0, 'state': 'normal', 'yaw': 89.02, 'datetime': '2018-10-12 21:04:39.539607', 'mgs': 0, 'depth': -0.827, 'time': 24.01, 'pitch': 0.69, 'roll': -10.28}
{'lipoC2': 7.77, 'temp': 29.94, 'lipoC3S3': 12.18, 'rot1': 3, 'rot0': 0, 'rot3': 0, 'rot2': 0, 'state': 'normal', 'yaw': 89.08, 'datetime': '2018-10-12 21:04:39.547357', 'mgs': 0, 'depth': -0.903, 'time': 24.11, 'pitch': 0.68, 'roll': -10.33}
{'lipoC2': 7.77, 'temp': 29.94, 'lipoC3S3': 12.17, 'rot1': 3, 'rot0': 0, 'rot3': 0, 'rot2': 0, 'state': 'normal', 'yaw': 88.82, 'datetime': '2018-10-12 21:04:39.555073', 'mgs': 0, 'depth': -0.827, 'time': 24.21, 'pitch': 0.65, 'roll': -10.67}
{'lipoC2': 7.77, 'temp': 29.94, 'lipoC3S3': 12.17, 'rot1': 3, 'rot0': 0, 'rot3': 0, 'rot2': 0, 'state': 'normal', 'yaw': 88.5, 'datetime': '2018-10-12 21:04:39.562774', 'mgs': 0, 'depth': -0.827, 'time': 24.31, 'pitch': 0.48, 'roll': -10.7}
{'lipoC2': 7.77, 'temp': 29.94, 'lipoC3S3': 12.17, 'rot1': 3, 'rot0': 0, 'rot3': 0, 'rot2': 0, 'state': 'normal', 'yaw': 88.11, 'datetime': '2018-10-12 21:04:39.570479', 'mgs': 0, 'depth': -0.827, 'time': 24.4, 'pitch': 0.23, 'roll': -10.8}
{'lipoC2': 7.77, 'temp': 29.94, 'lipoC3S3': 12.17, 'rot1': 3, 'rot0': 0, 'rot3': 0, 'rot2': 0, 'state': 'normal', 'yaw': 87.83, 'datetime': '2018-10-12 21:04:39.578339', 'mgs': 0, 'depth': -0.827, 'time': 24.5, 'pitch': 0.33, 'roll': -10.97}
{'lipoC2': 7.77, 'temp': 29.94, 'lipoC3S3': 12.17, 'rot1': 3, 'rot0': 0, 'rot3': 0, 'rot2': 0, 'state': 'normal', 'yaw': 87.55, 'datetime': '2018-10-12 21:04:39.586100', 'mgs': 0, 'depth': -0.903, 'time': 24.6, 'pitch': 0.3, 'roll': -11.06}
{'lipoC2': 7.77, 'temp': 29.94, 'lipoC3S3': 12.17, 'rot1': 3, 'rot0': 0, 'rot3': 0, 'rot2': 0, 'state': 'normal', 'yaw': 87.32, 'datetime': '2018-10-12 21:04:39.593809', 'mgs': 0, 'depth': -0.903, 'time': 24.69, 'pitch': 0.26, 'roll': -11.17}
{'lipoC2': 7.77, 'temp': 29.94, 'lipoC3S3': 12.17, 'rot1': 3, 'rot0': 0, 'rot3': 0, 'rot2': 0, 'state': 'normal', 'yaw': 87.14, 'datetime': '2018-10-12 21:04:39.601507', 'mgs': 0, 'depth': -0.903, 'time': 24.79, 'pitch': 0.34, 'roll': -11.28}
{'lipoC2': 7.77, 'temp': 29.94, 'lipoC3S3': 12.17, 'rot1': 3, 'rot0': 0, 'rot3': 0, 'rot2': 0, 'state': 'normal', 'yaw': 87.04, 'datetime': '2018-10-12 21:04:39.609449', 'mgs': 0, 'depth': -0.827, 'time': 24.89, 'pitch': 0.17, 'roll': -11.53}
{'lipoC2': 7.77, 'temp': 29.94, 'lipoC3S3': 12.17, 'rot1': 3, 'rot0': 0, 'rot3': 0, 'rot2': 0, 'state': 'normal', 'yaw': 87.19, 'datetime': '2018-10-12 21:04:39.617211', 'mgs': 0, 'depth': -0.751, 'time': 24.99, 'pitch': 0.32, 'roll': -11.51}
{'lipoC2': 7.77, 'temp': 29.94, 'lipoC3S3': 12.18, 'rot1': 3, 'rot0': 0, 'rot3': 0, 'rot2': 0, 'state': 'normal', 'yaw': 87.59, 'datetime': '2018-10-12 21:04:39.624933', 'mgs': 0, 'depth': -0.827, 'time': 25.08, 'pitch': 0.28, 'roll': -11.86}
{'lipoC2': 7.77, 'temp': 29.94, 'lipoC3S3': 12.17, 'rot1': 3, 'rot0': 0, 'rot3': 0, 'rot2': 0, 'state': 'normal', 'yaw': 87.9, 'datetime': '2018-10-12 21:04:39.632621', 'mgs': 0, 'depth': -0.98, 'time': 25.18, 'pitch': 0.53, 'roll': -11.4}
{'lipoC2': 7.77, 'temp': 29.94, 'lipoC3S3': 12.17, 'rot1': 3, 'rot0': 0, 'rot3': 0, 'rot2': 0, 'state': 'normal', 'yaw': 87.93, 'datetime': '2018-10-12 21:04:39.640345', 'mgs': 0, 'depth': -0.903, 'time': 25.28, 'pitch': 0.66, 'roll': -11.69}
{'lipoC2': 7.77, 'temp': 29.94, 'lipoC3S3': 12.17, 'rot1': 3, 'rot0': 0, 'rot3': 0, 'rot2': 0, 'state': 'normal', 'yaw': 87.95, 'datetime': '2018-10-12 21:04:39.648054', 'mgs': 0, 'depth': -0.903, 'time': 25.38, 'pitch': 0.61, 'roll': -11.14}
