{'lipoC2': 8.05, 'temp': 25.19, 'lipoC3S3': 12.5, 'rot1': 0, 'rot0': 0, 'rot3': 0, 'rot2': 0, 'state': 'normal', 'yaw': 0.0, 'datetime': '2018-10-12 15:41:19.481314', 'mgs': 0, 'depth': -0.293, 'time': 1.26, 'pitch': -3.0, 'roll': -1.01}
{'lipoC2': 8.06, 'temp': 25.19, 'lipoC3S3': 12.5, 'rot1': 0, 'rot0': 0, 'rot3': 0, 'rot2': 0, 'state': 'normal', 'yaw': 0.0, 'datetime': '2018-10-12 15:41:19.498054', 'mgs': 0, 'depth': -0.369, 'time': 1.36, 'pitch': -3.0, 'roll': -1.02}
{'lipoC2': 8.06, 'temp': 25.19, 'lipoC3S3': 12.5, 'rot1': 0, 'rot0': 0, 'rot3': 0, 'rot2': 0, 'state': 'normal', 'yaw': -0.0, 'datetime': '2018-10-12 15:41:19.514775', 'mgs': 0, 'depth': -0.369, 'time': 1.46, 'pitch': -3.0, 'roll': -0.99}
{'lipoC2': 8.05, 'temp': 25.19, 'lipoC3S3': 12.51, 'rot1': 0, 'rot0': 0, 'rot3': 0, 'rot2': 0, 'state': 'normal', 'yaw': 0.0, 'datetime': '2018-10-12 15:41:19.531558', 'mgs': 0, 'depth': -0.369, 'time': 1.55, 'pitch': -3.0, 'roll': -1.01}
{'lipoC2': 8.06, 'temp': 25.19, 'lipoC3S3': 12.5, 'rot1': 0, 'rot0': 0, 'rot3': 0, 'rot2': 0, 'state': 'normal', 'yaw': -0.0, 'datetime': '2018-10-12 15:41:19.548205', 'mgs': 0, 'depth': -0.369, 'time': 1.65, 'pitch': -3.0, 'roll': -0.98}
{'lipoC2': 8.05, 'temp': 25.25, 'lipoC3S3': 12.5, 'rot1': 0, 'rot0': 0, 'rot3': 0, 'rot2': 0, 'state': 'normal', 'yaw': -0.0, 'datetime': '2018-10-12 15:41:19.555502', 'mgs': 0, 'depth': -0.369, 'time': 1.75, 'pitch': -3.0, 'roll': -1.0}
{'lipoC2': 8.05, 'temp': 25.25, 'lipoC3S3': 12.5, 'rot1': 0, 'rot0': 0, 'rot3': 0, 'rot2': 0, 'state': 'normal', 'yaw': -0.0, 'datetime': '2018-10-12 15:41:19.562779', 'mgs': 0, 'depth': -0.369, 'time': 1.85, 'pitch': -3.0, 'roll': -0.97}
{'lipoC2': 8.05, 'temp': 25.25, 'lipoC3S3': 12.51, 'rot1': 0, 'rot0': 0, 'rot3': 0, 'rot2': 0, 'state': 'normal', 'yaw': -0.0, 'datetime': '2018-10-12 15:41:19.570052', 'mgs': 0, 'depth': -0.369, 'time': 1.94, 'pitch': -3.0, 'roll': -0.99}
{'lipoC2': 8.06, 'temp': 25.25, 'lipoC3S3': 12.5, 'rot1': 0, 'rot0': 0, 'rot3': 0, 'rot2': 0, 'state': 'normal', 'yaw': -0.0, 'datetime': '2018-10-12 15:41:19.577277', 'mgs': 0, 'depth': -0.369, 'time': 2.04, 'pitch': -3.0, 'roll': -0.97}
{'lipoC2': 8.05, 'temp': 25.25, 'lipoC3S3': 12.51, 'rot1': 0, 'rot0': 0, 'rot3': 0, 'rot2': 0, 'state': 'normal', 'yaw': -0.0, 'datetime': '2018-10-12 15:41:19.584552', 'mgs': 0, 'depth': -0.369, 'time': 2.14, 'pitch': -3.0, 'roll': -0.99}
{'lipoC2': 8.06, 'temp': 25.25, 'lipoC3S3': 12.5, 'rot1': 0, 'rot0': 0, 'rot3': 0, 'rot2': 0, 'state': 'normal', 'yaw': -0.0, 'datetime': '2018-10-12 15:41:19.591801', 'mgs': 0, 'depth': -0.369, 'time': 2.24, 'pitch': -3.0, 'roll': -0.97}
{'lipoC2': 8.05, 'temp': 25.25, 'lipoC3S3': 12.5, 'rot1': 0, 'rot0': 0, 'rot3': 0, 'rot2': 0, 'state': 'normal', 'yaw': -0.0, 'datetime': '2018-10-12 15:41:19.599053', 'mgs': 0, 'depth': -0.369, 'time': 2.34, 'pitch': -3.0, 'roll': -0.97}
{'lipoC2': 8.05, 'temp': 25.25, 'lipoC3S3': 12.5, 'rot1': 0, 'rot0': 0, 'rot3': 0, 'rot2': 0, 'state': 'normal', 'yaw': -0.0, 'datetime': '2018-10-12 15:41:19.606278', 'mgs': 0, 'depth': -0.369, 'time': 2.43, 'pitch': -3.0, 'roll': -0.97}
{'lipoC2': 8.05, 'temp': 25.25, 'lipoC3S3': 12.5, 'rot1': 0, 'rot0': 0, 'rot3': 0, 'rot2': 0, 'state': 'normal', 'yaw': -0.0, 'datetime': '2018-10-12 15:41:19.613547', 'mgs': 0, 'depth': -0.293, 'time': 2.53, 'pitch': -3.0, 'roll': -0.97}
{'lipoC2': 8.05, 'temp': 25.25, 'lipoC3S3': 12.5, 'rot1': 0, 'rot0': 0, 'rot3': 0, 'rot2': 0, 'state': 'normal', 'yaw': -0.0, 'datetime': '2018-10-12 15:41:19.620789', 'mgs': 0, 'depth': -0.369, 'time': 2.63, 'pitch': -3.0, 'roll': -0.96}
{'lipoC2': 8.05, 'temp': 25.19, 'lipoC3S3': 12.5, 'rot1': 0, 'rot0': 0, 'rot3': 0, 'rot2': 0, 'state': 'normal', 'yaw': -0.0, 'datetime': '2018-10-12 15:41:19.628079', 'mgs': 0, 'depth': -0.293, 'time': 2.73, 'pitch': -3.0, 'roll': -0.96}
{'lipoC2': 8.05, 'temp': 25.19, 'lipoC3S3': 12.5, 'rot1': 0, 'rot0': 0, 'rot3': 0, 'rot2': 0, 'state': 'normal', 'yaw': -0.0, 'datetime': '2018-10-12 15:41:19.635298', 'mgs': 0, 'depth': -0.369, 'time': 2.83, 'pitch': -3.0, 'roll': -0.96}
{'lipoC2': 8.05, 'temp': 25.25, 'lipoC3S3': 12.5, 'rot1': 0, 'rot0': 0, 'rot3': 0, 'rot2': 0, 'state': 'normal', 'yaw': -0.0, 'datetime': '2018-10-12 15:41:19.642575', 'mgs': 0, 'depth': -0.369, 'time': 2.92, 'pitch': -3.0, 'roll': -0.96}
{'lipoC2': 8.05, 'temp': 25.25, 'lipoC3S3': 12.5, 'rot1': 0, 'rot0': 0, 'rot3': 0, 'rot2': 0, 'state': 'normal', 'yaw': -0.0, 'datetime': '2018-10-12 15:41:19.650028', 'mgs': 0, 'depth': -0.369, 'time': 3.02, 'pitch': -3.0, 'roll': -0.96}
{'lipoC2': 8.05, 'temp': 25.25, 'lipoC3S3': 12.5, 'rot1': 0, 'rot0': 0, 'rot3': 0, 'rot2': 0, 'state': 'normal', 'yaw': -0.0, 'datetime': '2018-10-12 15:41:19.657291', 'mgs': 0, 'depth': -0.293, 'time': 3.12, 'pitch': -3.0, 'roll': -0.96}
{'lipoC2': 8.05, 'temp': 25.25, 'lipoC3S3': 12.5, 'rot1': 0, 'rot0': 0, 'rot3': 0, 'rot2': 0, 'state': 'normal', 'yaw': -0.0, 'datetime': '2018-10-12 15:41:19.664565', 'mgs': 0, 'depth': -0.369, 'time': 3.22, 'pitch': -3.0, 'roll': -0.96}
{'lipoC2': 8.06, 'temp': 25.25, 'lipoC3S3': 12.51, 'rot1': 0, 'rot0': 0, 'rot3': 0, 'rot2': 0, 'state': 'normal', 'yaw': -0.0, 'datetime': '2018-10-12 15:41:19.671856', 'mgs': 0, 'depth': -0.369, 'time': 3.32, 'pitch': -3.0, 'roll': -0.96}
{'lipoC2': 8.05, 'temp': 25.25, 'lipoC3S3': 12.5, 'rot1': 0, 'rot0': 0, 'rot3': 0, 'rot2': 0, 'state': 'normal', 'yaw': -0.0, 'datetime': '2018-10-12 15:41:19.753219', 'mgs': 0, 'depth': -0.369, 'time': 3.41, 'pitch': -3.0, 'roll': -0.96}
{'lipoC2': 8.05, 'temp': 25.25, 'lipoC3S3': 12.51, 'rot1': 0, 'rot0': 0, 'rot3': 0, 'rot2': 0, 'state': 'normal', 'yaw': -0.0, 'datetime': '2018-10-12 15:41:19.850332', 'mgs': 0, 'depth': -0.369, 'time': 3.51, 'pitch': -3.0, 'roll': -0.96}
{'lipoC2': 8.05, 'temp': 25.25, 'lipoC3S3': 12.5, 'rot1': 0, 'rot0': 0, 'rot3': 0, 'rot2': 0, 'state': 'normal', 'yaw': -0.0, 'datetime': '2018-10-12 15:41:19.948641', 'mgs': 0, 'depth': -0.369, 'time': 3.61, 'pitch': -3.0, 'roll': -0.96}
{'lipoC2': 8.05, 'temp': 25.25, 'lipoC3S3': 12.5, 'rot1': 0, 'rot0': 0, 'rot3': 0, 'rot2': 0, 'state': 'normal', 'yaw': -0.0, 'datetime': '2018-10-12 15:41:20.047008', 'mgs': 0, 'depth': -0.369, 'time': 3.71, 'pitch': -3.0, 'roll': -0.96}
{'lipoC2': 8.05, 'temp': 25.25, 'lipoC3S3': 12.5, 'rot1': 0, 'rot0': 0, 'rot3': 0, 'rot2': 0, 'state': 'normal', 'yaw': -0.0, 'datetime': '2018-10-12 15:41:20.144095', 'mgs': 0, 'depth': -0.369, 'time': 3.8, 'pitch': -3.0, 'roll': -0.96}
{'lipoC2': 8.05, 'temp': 25.19, 'lipoC3S3': 12.5, 'rot1': 0, 'rot0': 0, 'rot3': 0, 'rot2': 0, 'state': 'normal', 'yaw': -0.0, 'datetime': '2018-10-12 15:41:20.241193', 'mgs': 0, 'depth': -0.369, 'time': 3.9, 'pitch': -3.0, 'roll': -0.96}
{'lipoC2': 8.05, 'temp': 25.19, 'lipoC3S3': 12.5, 'rot1': 0, 'rot0': 0, 'rot3': 0, 'rot2': 0, 'state': 'normal', 'yaw': -0.0, 'datetime': '2018-10-12 15:41:20.340136', 'mgs': 0, 'depth': -0.369, 'time': 4.0, 'pitch': -3.0, 'roll': -0.96}
{'lipoC2': 8.06, 'temp': 25.19, 'lipoC3S3': 12.5, 'rot1': 0, 'rot0': 0, 'rot3': 0, 'rot2': 0, 'state': 'normal', 'yaw': -0.0, 'datetime': '2018-10-12 15:41:20.438515', 'mgs': 0, 'depth': -0.369, 'time': 4.1, 'pitch': -3.0, 'roll': -0.96}
{'lipoC2': 8.05, 'temp': 25.19, 'lipoC3S3': 12.5, 'rot1': 0, 'rot0': 0, 'rot3': 0, 'rot2': 0, 'state': 'normal', 'yaw': -0.0, 'datetime': '2018-10-12 15:41:20.535835', 'mgs': 0, 'depth': -0.369, 'time': 4.2, 'pitch': -3.0, 'roll': -0.96}
{'lipoC2': 8.06, 'temp': 25.19, 'lipoC3S3': 12.5, 'rot1': 0, 'rot0': 0, 'rot3': 0, 'rot2': 0, 'state': 'normal', 'yaw': -0.0, 'datetime': '2018-10-12 15:41:20.632895', 'mgs': 0, 'depth': -0.369, 'time': 4.29, 'pitch': -3.0, 'roll': -0.96}
{'lipoC2': 8.05, 'temp': 25.19, 'lipoC3S3': 12.5, 'rot1': 0, 'rot0': 0, 'rot3': 0, 'rot2': 0, 'state': 'normal', 'yaw': -0.0, 'datetime': '2018-10-12 15:41:20.731188', 'mgs': 0, 'depth': -0.369, 'time': 4.39, 'pitch': -3.0, 'roll': -0.96}
{'lipoC2': 8.06, 'temp': 25.19, 'lipoC3S3': 12.5, 'rot1': 0, 'rot0': 0, 'rot3': 0, 'rot2': 0, 'state': 'normal', 'yaw': -0.0, 'datetime': '2018-10-12 15:41:20.828311', 'mgs': 0, 'depth': -0.369, 'time': 4.49, 'pitch': -3.0, 'roll': -0.96}
{'lipoC2': 8.05, 'temp': 25.19, 'lipoC3S3': 12.5, 'rot1': 0, 'rot0': 0, 'rot3': 0, 'rot2': 0, 'state': 'normal', 'yaw': -0.0, 'datetime': '2018-10-12 15:41:20.925364', 'mgs': 0, 'depth': -0.369, 'time': 4.59, 'pitch': -3.0, 'roll': -0.96}
{'lipoC2': 8.05, 'temp': 25.25, 'lipoC3S3': 12.5, 'rot1': 0, 'rot0': 0, 'rot3': 0, 'rot2': 0, 'state': 'normal', 'yaw': -0.0, 'datetime': '2018-10-12 15:41:21.022809', 'mgs': 0, 'depth': -0.293, 'time': 4.68, 'pitch': -3.0, 'roll': -0.96}
{'lipoC2': 8.05, 'temp': 25.25, 'lipoC3S3': 12.5, 'rot1': 0, 'rot0': 0, 'rot3': 0, 'rot2': 0, 'state': 'normal', 'yaw': -0.0, 'datetime': '2018-10-12 15:41:21.121205', 'mgs': 0, 'depth': -0.369, 'time': 4.78, 'pitch': -3.0, 'roll': -0.96}
{'lipoC2': 8.05, 'temp': 25.25, 'lipoC3S3': 12.5, 'rot1': 0, 'rot0': 0, 'rot3': 0, 'rot2': 0, 'state': 'normal', 'yaw': -0.0, 'datetime': '2018-10-12 15:41:21.219587', 'mgs': 0, 'depth': -0.369, 'time': 4.88, 'pitch': -3.0, 'roll': -0.96}
{'lipoC2': 8.05, 'temp': 25.25, 'lipoC3S3': 12.5, 'rot1': 0, 'rot0': 0, 'rot3': 0, 'rot2': 0, 'state': 'normal', 'yaw': -0.0, 'datetime': '2018-10-12 15:41:21.316676', 'mgs': 0, 'depth': -0.293, 'time': 4.98, 'pitch': -3.0, 'roll': -0.96}
{'lipoC2': 8.05, 'temp': 25.25, 'lipoC3S3': 12.5, 'rot1': 0, 'rot0': 0, 'rot3': 0, 'rot2': 0, 'state': 'normal', 'yaw': -0.0, 'datetime': '2018-10-12 15:41:21.413748', 'mgs': 0, 'depth': -0.293, 'time': 5.07, 'pitch': -3.0, 'roll': -0.96}
{'lipoC2': 8.05, 'temp': 25.25, 'lipoC3S3': 12.5, 'rot1': 0, 'rot0': 0, 'rot3': 0, 'rot2': 0, 'state': 'normal', 'yaw': -0.0, 'datetime': '2018-10-12 15:41:21.512102', 'mgs': 0, 'depth': -0.369, 'time': 5.17, 'pitch': -3.0, 'roll': -0.96}
{'lipoC2': 8.05, 'temp': 25.25, 'lipoC3S3': 12.5, 'rot1': 0, 'rot0': 0, 'rot3': 0, 'rot2': 0, 'state': 'normal', 'yaw': -0.0, 'datetime': '2018-10-12 15:41:21.610633', 'mgs': 0, 'depth': -0.369, 'time': 5.27, 'pitch': -3.0, 'roll': -0.96}
{'lipoC2': 8.05, 'temp': 25.25, 'lipoC3S3': 12.5, 'rot1': 0, 'rot0': 0, 'rot3': 0, 'rot2': 0, 'state': 'normal', 'yaw': -0.0, 'datetime': '2018-10-12 15:41:21.707975', 'mgs': 0, 'depth': -0.369, 'time': 5.37, 'pitch': -3.0, 'roll': -0.96}
{'lipoC2': 8.05, 'temp': 25.25, 'lipoC3S3': 12.5, 'rot1': 0, 'rot0': 0, 'rot3': 0, 'rot2': 0, 'state': 'normal', 'yaw': -0.0, 'datetime': '2018-10-12 15:41:21.804970', 'mgs': 0, 'depth': -0.369, 'time': 5.47, 'pitch': -3.0, 'roll': -0.96}
{'lipoC2': 8.05, 'temp': 25.25, 'lipoC3S3': 12.5, 'rot1': 0, 'rot0': 0, 'rot3': 0, 'rot2': 0, 'state': 'normal', 'yaw': -0.0, 'datetime': '2018-10-12 15:41:21.903143', 'mgs': 0, 'depth': -0.369, 'time': 5.56, 'pitch': -3.0, 'roll': -0.96}
{'lipoC2': 8.05, 'temp': 25.25, 'lipoC3S3': 12.5, 'rot1': 0, 'rot0': 0, 'rot3': 0, 'rot2': 0, 'state': 'normal', 'yaw': -0.0, 'datetime': '2018-10-12 15:41:22.001501', 'mgs': 0, 'depth': -0.293, 'time': 5.66, 'pitch': -3.0, 'roll': -0.96}
{'lipoC2': 8.06, 'temp': 25.25, 'lipoC3S3': 12.5, 'rot1': 0, 'rot0': 0, 'rot3': 0, 'rot2': 0, 'state': 'normal', 'yaw': -0.0, 'datetime': '2018-10-12 15:41:22.099581', 'mgs': 0, 'depth': -0.369, 'time': 5.76, 'pitch': -3.0, 'roll': -0.96}
{'lipoC2': 8.05, 'temp': 25.25, 'lipoC3S3': 12.5, 'rot1': 0, 'rot0': 0, 'rot3': 0, 'rot2': 0, 'state': 'normal', 'yaw': -0.0, 'datetime': '2018-10-12 15:41:22.196651', 'mgs': 0, 'depth': -0.369, 'time': 5.86, 'pitch': -3.0, 'roll': -0.96}
{'lipoC2': 8.05, 'temp': 25.25, 'lipoC3S3': 12.5, 'rot1': 0, 'rot0': 0, 'rot3': 0, 'rot2': 0, 'state': 'normal', 'yaw': -0.0, 'datetime': '2018-10-12 15:41:22.294353', 'mgs': 0, 'depth': -0.369, 'time': 5.95, 'pitch': -3.0, 'roll': -0.96}
{'lipoC2': 8.06, 'temp': 25.25, 'lipoC3S3': 12.5, 'rot1': 0, 'rot0': 0, 'rot3': 0, 'rot2': 0, 'state': 'normal', 'yaw': -0.0, 'datetime': '2018-10-12 15:41:22.392688', 'mgs': 0, 'depth': -0.369, 'time': 6.05, 'pitch': -3.0, 'roll': -0.96}
{'lipoC2': 8.05, 'temp': 25.19, 'lipoC3S3': 12.5, 'rot1': 0, 'rot0': 0, 'rot3': 0, 'rot2': 0, 'state': 'normal', 'yaw': -0.0, 'datetime': '2018-10-12 15:41:22.491073', 'mgs': 0, 'depth': -0.446, 'time': 6.15, 'pitch': -3.0, 'roll': -0.96}
{'lipoC2': 8.05, 'temp': 25.19, 'lipoC3S3': 12.5, 'rot1': 0, 'rot0': 0, 'rot3': 0, 'rot2': 0, 'state': 'normal', 'yaw': -0.0, 'datetime': '2018-10-12 15:41:22.588138', 'mgs': 0, 'depth': -0.293, 'time': 6.25, 'pitch': -3.0, 'roll': -0.96}
{'lipoC2': 8.05, 'temp': 25.25, 'lipoC3S3': 12.5, 'rot1': 0, 'rot0': 0, 'rot3': 0, 'rot2': 0, 'state': 'normal', 'yaw': -0.0, 'datetime': '2018-10-12 15:41:22.685239', 'mgs': 0, 'depth': -0.369, 'time': 6.35, 'pitch': -3.0, 'roll': -0.96}
{'lipoC2': 8.06, 'temp': 25.25, 'lipoC3S3': 12.5, 'rot1': 0, 'rot0': 0, 'rot3': 0, 'rot2': 0, 'state': 'normal', 'yaw': -0.0, 'datetime': '2018-10-12 15:41:22.787039', 'mgs': 0, 'depth': -0.446, 'time': 6.45, 'pitch': -3.0, 'roll': -0.96}
{'lipoC2': 8.05, 'temp': 25.25, 'lipoC3S3': 12.5, 'rot1': 0, 'rot0': 0, 'rot3': 0, 'rot2': 0, 'state': 'normal', 'yaw': -0.0, 'datetime': '2018-10-12 15:41:22.887571', 'mgs': 0, 'depth': -0.369, 'time': 6.54, 'pitch': -3.0, 'roll': -0.96}
{'lipoC2': 8.05, 'temp': 25.25, 'lipoC3S3': 12.5, 'rot1': 0, 'rot0': 0, 'rot3': 0, 'rot2': 0, 'state': 'normal', 'yaw': -0.0, 'datetime': '2018-10-12 15:41:22.984463', 'mgs': 0, 'depth': -0.369, 'time': 6.64, 'pitch': -3.0, 'roll': -0.96}
{'lipoC2': 8.05, 'temp': 25.25, 'lipoC3S3': 12.5, 'rot1': 0, 'rot0': 0, 'rot3': 0, 'rot2': 0, 'state': 'normal', 'yaw': -0.0, 'datetime': '2018-10-12 15:41:23.083051', 'mgs': 0, 'depth': -0.293, 'time': 6.74, 'pitch': -3.0, 'roll': -0.96}
{'lipoC2': 8.05, 'temp': 25.25, 'lipoC3S3': 12.5, 'rot1': 0, 'rot0': 0, 'rot3': 0, 'rot2': 0, 'state': 'normal', 'yaw': -0.0, 'datetime': '2018-10-12 15:41:23.181043', 'mgs': 0, 'depth': -0.369, 'time': 6.84, 'pitch': -3.0, 'roll': -0.96}
{'lipoC2': 8.05, 'temp': 25.25, 'lipoC3S3': 12.5, 'rot1': 0, 'rot0': 0, 'rot3': 0, 'rot2': 0, 'state': 'normal', 'yaw': -0.0, 'datetime': '2018-10-12 15:41:23.278763', 'mgs': 0, 'depth': -0.293, 'time': 6.93, 'pitch': -3.0, 'roll': -0.96}
{'lipoC2': 8.05, 'temp': 25.25, 'lipoC3S3': 12.5, 'rot1': 0, 'rot0': 0, 'rot3': 0, 'rot2': 0, 'state': 'normal', 'yaw': -0.0, 'datetime': '2018-10-12 15:41:23.376642', 'mgs': 0, 'depth': -0.369, 'time': 7.03, 'pitch': -3.0, 'roll': -0.96}
{'lipoC2': 8.05, 'temp': 25.25, 'lipoC3S3': 12.5, 'rot1': 0, 'rot0': 0, 'rot3': 0, 'rot2': 0, 'state': 'normal', 'yaw': -0.0, 'datetime': '2018-10-12 15:41:23.473862', 'mgs': 0, 'depth': -0.369, 'time': 7.13, 'pitch': -3.0, 'roll': -0.96}
{'lipoC2': 8.05, 'temp': 25.25, 'lipoC3S3': 12.48, 'rot1': 0, 'rot0': 0, 'rot3': 0, 'rot2': 0, 'state': 'normal', 'yaw': -0.0, 'datetime': '2018-10-12 15:41:23.571929', 'mgs': 0, 'depth': -0.369, 'time': 7.23, 'pitch': -3.0, 'roll': -0.96}
{'lipoC2': 8.05, 'temp': 25.19, 'lipoC3S3': 12.5, 'rot1': 0, 'rot0': 0, 'rot3': 0, 'rot2': 0, 'state': 'normal', 'yaw': -0.0, 'datetime': '2018-10-12 15:41:23.670293', 'mgs': 0, 'depth': -0.293, 'time': 7.32, 'pitch': -3.0, 'roll': -0.96}
{'lipoC2': 8.05, 'temp': 25.19, 'lipoC3S3': 12.5, 'rot1': 0, 'rot0': 0, 'rot3': 0, 'rot2': 0, 'state': 'normal', 'yaw': -0.0, 'datetime': '2018-10-12 15:41:23.767339', 'mgs': 0, 'depth': -0.369, 'time': 7.42, 'pitch': -3.0, 'roll': -0.96}
{'lipoC2': 8.05, 'temp': 25.25, 'lipoC3S3': 12.5, 'rot1': 0, 'rot0': 0, 'rot3': 0, 'rot2': 0, 'state': 'normal', 'yaw': -0.0, 'datetime': '2018-10-12 15:41:23.864766', 'mgs': 0, 'depth': -0.369, 'time': 7.52, 'pitch': -3.0, 'roll': -0.96}
{'lipoC2': 8.05, 'temp': 25.25, 'lipoC3S3': 12.5, 'rot1': 0, 'rot0': 0, 'rot3': 0, 'rot2': 0, 'state': 'normal', 'yaw': -0.0, 'datetime': '2018-10-12 15:41:23.962968', 'mgs': 0, 'depth': -0.369, 'time': 7.62, 'pitch': -3.0, 'roll': -0.96}
{'lipoC2': 8.05, 'temp': 25.25, 'lipoC3S3': 12.5, 'rot1': 0, 'rot0': 0, 'rot3': 0, 'rot2': 0, 'state': 'normal', 'yaw': -0.0, 'datetime': '2018-10-12 15:41:24.061231', 'mgs': 0, 'depth': -0.446, 'time': 7.72, 'pitch': -3.0, 'roll': -0.96}
{'lipoC2': 8.05, 'temp': 25.25, 'lipoC3S3': 12.5, 'rot1': 0, 'rot0': 0, 'rot3': 0, 'rot2': 0, 'state': 'normal', 'yaw': -0.0, 'datetime': '2018-10-12 15:41:24.159094', 'mgs': 0, 'depth': -0.369, 'time': 7.81, 'pitch': -3.0, 'roll': -0.96}
{'lipoC2': 8.05, 'temp': 25.25, 'lipoC3S3': 12.5, 'rot1': 0, 'rot0': 0, 'rot3': 0, 'rot2': 0, 'state': 'normal', 'yaw': -0.0, 'datetime': '2018-10-12 15:41:24.255392', 'mgs': 0, 'depth': -0.446, 'time': 7.91, 'pitch': -3.0, 'roll': -0.96}
{'lipoC2': 8.05, 'temp': 25.25, 'lipoC3S3': 12.5, 'rot1': 0, 'rot0': 0, 'rot3': 0, 'rot2': 0, 'state': 'normal', 'yaw': -0.0, 'datetime': '2018-10-12 15:41:24.354154', 'mgs': 0, 'depth': -0.446, 'time': 8.01, 'pitch': -3.0, 'roll': -0.96}
{'lipoC2': 8.06, 'temp': 25.25, 'lipoC3S3': 12.5, 'rot1': 0, 'rot0': 0, 'rot3': 0, 'rot2': 0, 'state': 'normal', 'yaw': -0.0, 'datetime': '2018-10-12 15:41:24.452131', 'mgs': 0, 'depth': -0.369, 'time': 8.11, 'pitch': -3.0, 'roll': -0.96}
{'lipoC2': 8.05, 'temp': 25.25, 'lipoC3S3': 12.51, 'rot1': 0, 'rot0': 0, 'rot3': 0, 'rot2': 0, 'state': 'normal', 'yaw': -0.0, 'datetime': '2018-10-12 15:41:24.549590', 'mgs': 0, 'depth': -0.369, 'time': 8.21, 'pitch': -3.0, 'roll': -0.96}
{'lipoC2': 8.05, 'temp': 25.25, 'lipoC3S3': 12.5, 'rot1': 0, 'rot0': 0, 'rot3': 0, 'rot2': 0, 'state': 'normal', 'yaw': -0.0, 'datetime': '2018-10-12 15:41:24.646665', 'mgs': 0, 'depth': -0.369, 'time': 8.3, 'pitch': -3.0, 'roll': -0.96}
{'lipoC2': 8.05, 'temp': 25.25, 'lipoC3S3': 12.5, 'rot1': 0, 'rot0': 0, 'rot3': 0, 'rot2': 0, 'state': 'normal', 'yaw': -0.0, 'datetime': '2018-10-12 15:41:24.744680', 'mgs': 0, 'depth': -0.369, 'time': 8.4, 'pitch': -3.0, 'roll': -0.96}
{'lipoC2': 8.05, 'temp': 25.25, 'lipoC3S3': 12.51, 'rot1': 0, 'rot0': 0, 'rot3': 0, 'rot2': 0, 'state': 'normal', 'yaw': -0.0, 'datetime': '2018-10-12 15:41:24.842616', 'mgs': 0, 'depth': -0.293, 'time': 8.5, 'pitch': -3.0, 'roll': -0.96}
{'lipoC2': 8.06, 'temp': 25.25, 'lipoC3S3': 12.5, 'rot1': 0, 'rot0': 0, 'rot3': 0, 'rot2': 0, 'state': 'normal', 'yaw': -0.0, 'datetime': '2018-10-12 15:41:24.938942', 'mgs': 0, 'depth': -0.369, 'time': 8.6, 'pitch': -3.0, 'roll': -0.96}
{'lipoC2': 8.05, 'temp': 25.25, 'lipoC3S3': 12.5, 'rot1': 0, 'rot0': 0, 'rot3': 0, 'rot2': 0, 'state': 'normal', 'yaw': -0.0, 'datetime': '2018-10-12 15:41:25.036226', 'mgs': 0, 'depth': -0.369, 'time': 8.69, 'pitch': -3.0, 'roll': -0.96}
{'lipoC2': 8.05, 'temp': 25.25, 'lipoC3S3': 12.5, 'rot1': 0, 'rot0': 0, 'rot3': 0, 'rot2': 0, 'state': 'normal', 'yaw': -0.0, 'datetime': '2018-10-12 15:41:25.134654', 'mgs': 0, 'depth': -0.369, 'time': 8.79, 'pitch': -3.0, 'roll': -0.96}
{'lipoC2': 8.05, 'temp': 25.25, 'lipoC3S3': 12.5, 'rot1': 0, 'rot0': 0, 'rot3': 0, 'rot2': 0, 'state': 'normal', 'yaw': -0.0, 'datetime': '2018-10-12 15:41:25.233055', 'mgs': 0, 'depth': -0.446, 'time': 8.89, 'pitch': -3.0, 'roll': -0.96}
{'lipoC2': 8.05, 'temp': 25.25, 'lipoC3S3': 12.5, 'rot1': 0, 'rot0': 0, 'rot3': 0, 'rot2': 0, 'state': 'normal', 'yaw': -0.0, 'datetime': '2018-10-12 15:41:25.330182', 'mgs': 0, 'depth': -0.369, 'time': 8.99, 'pitch': -3.0, 'roll': -0.96}
{'lipoC2': 8.05, 'temp': 25.25, 'lipoC3S3': 12.5, 'rot1': 0, 'rot0': 0, 'rot3': 0, 'rot2': 0, 'state': 'normal', 'yaw': -0.0, 'datetime': '2018-10-12 15:41:25.427275', 'mgs': 0, 'depth': -0.369, 'time': 9.08, 'pitch': -3.0, 'roll': -0.96}
{'lipoC2': 8.05, 'temp': 25.25, 'lipoC3S3': 12.5, 'rot1': 0, 'rot0': 0, 'rot3': 0, 'rot2': 0, 'state': 'normal', 'yaw': -0.0, 'datetime': '2018-10-12 15:41:25.525941', 'mgs': 0, 'depth': -0.369, 'time': 9.18, 'pitch': -3.0, 'roll': -0.96}
{'lipoC2': 8.05, 'temp': 25.19, 'lipoC3S3': 12.5, 'rot1': 0, 'rot0': 0, 'rot3': 0, 'rot2': 0, 'state': 'normal', 'yaw': -0.0, 'datetime': '2018-10-12 15:41:25.623962', 'mgs': 0, 'depth': -0.369, 'time': 9.28, 'pitch': -3.0, 'roll': -0.96}
{'lipoC2': 8.06, 'temp': 25.19, 'lipoC3S3': 12.5, 'rot1': 0, 'rot0': 0, 'rot3': 0, 'rot2': 0, 'state': 'normal', 'yaw': -0.0, 'datetime': '2018-10-12 15:41:25.721685', 'mgs': 0, 'depth': -0.369, 'time': 9.38, 'pitch': -3.0, 'roll': -0.96}
{'lipoC2': 8.05, 'temp': 25.25, 'lipoC3S3': 12.5, 'rot1': 0, 'rot0': 0, 'rot3': 0, 'rot2': 0, 'state': 'normal', 'yaw': -0.0, 'datetime': '2018-10-12 15:41:25.818901', 'mgs': 0, 'depth': -0.446, 'time': 9.48, 'pitch': -3.0, 'roll': -0.96}
{'lipoC2': 8.05, 'temp': 25.25, 'lipoC3S3': 12.5, 'rot1': 0, 'rot0': 0, 'rot3': 0, 'rot2': 0, 'state': 'normal', 'yaw': -0.0, 'datetime': '2018-10-12 15:41:25.916715', 'mgs': 0, 'depth': -0.293, 'time': 9.57, 'pitch': -3.0, 'roll': -0.96}
{'lipoC2': 8.05, 'temp': 25.25, 'lipoC3S3': 12.5, 'rot1': 0, 'rot0': 0, 'rot3': 0, 'rot2': 0, 'state': 'normal', 'yaw': -0.0, 'datetime': '2018-10-12 15:41:26.015157', 'mgs': 0, 'depth': -0.369, 'time': 9.67, 'pitch': -3.0, 'roll': -0.96}
{'lipoC2': 8.05, 'temp': 25.19, 'lipoC3S3': 12.5, 'rot1': 0, 'rot0': 0, 'rot3': 0, 'rot2': 0, 'state': 'normal', 'yaw': -0.0, 'datetime': '2018-10-12 15:41:26.113343', 'mgs': 0, 'depth': -0.293, 'time': 9.77, 'pitch': -3.0, 'roll': -0.96}
{'lipoC2': 8.05, 'temp': 25.19, 'lipoC3S3': 12.51, 'rot1': 0, 'rot0': 0, 'rot3': 0, 'rot2': 0, 'state': 'normal', 'yaw': -0.0, 'datetime': '2018-10-12 15:41:26.210296', 'mgs': 0, 'depth': -0.369, 'time': 9.87, 'pitch': -3.0, 'roll': -0.96}
{'lipoC2': 8.05, 'temp': 25.25, 'lipoC3S3': 12.5, 'rot1': 0, 'rot0': 0, 'rot3': 0, 'rot2': 0, 'state': 'normal', 'yaw': -0.0, 'datetime': '2018-10-12 15:41:26.303881', 'mgs': 0, 'depth': -0.369, 'time': 9.97, 'pitch': -3.0, 'roll': -0.96}
{'lipoC2': 8.05, 'temp': 25.25, 'lipoC3S3': 12.5, 'rot1': 0, 'rot0': 0, 'rot3': 0, 'rot2': 0, 'state': 'normal', 'yaw': -0.0, 'datetime': '2018-10-12 15:41:26.401345', 'mgs': 0, 'depth': -0.369, 'time': 10.06, 'pitch': -3.0, 'roll': -0.96}
{'lipoC2': 8.05, 'temp': 25.25, 'lipoC3S3': 12.5, 'rot1': 0, 'rot0': 0, 'rot3': 0, 'rot2': 0, 'state': 'normal', 'yaw': -0.0, 'datetime': '2018-10-12 15:41:26.504510', 'mgs': 0, 'depth': -0.369, 'time': 10.16, 'pitch': -3.0, 'roll': -0.96}
{'lipoC2': 8.05, 'temp': 25.25, 'lipoC3S3': 12.5, 'rot1': 0, 'rot0': 0, 'rot3': 0, 'rot2': 0, 'state': 'normal', 'yaw': -0.0, 'datetime': '2018-10-12 15:41:26.601870', 'mgs': 0, 'depth': -0.369, 'time': 10.26, 'pitch': -3.0, 'roll': -0.96}
{'lipoC2': 8.05, 'temp': 25.25, 'lipoC3S3': 12.5, 'rot1': 0, 'rot0': 0, 'rot3': 0, 'rot2': 0, 'state': 'normal', 'yaw': -0.0, 'datetime': '2018-10-12 15:41:26.698701', 'mgs': 0, 'depth': -0.293, 'time': 10.36, 'pitch': -3.0, 'roll': -0.96}
{'lipoC2': 8.05, 'temp': 25.38, 'lipoC3S3': 12.5, 'rot1': 0, 'rot0': 0, 'rot3': 0, 'rot2': 0, 'state': 'normal', 'yaw': -0.0, 'datetime': '2018-10-12 15:41:26.796688', 'mgs': 0, 'depth': -0.369, 'time': 10.45, 'pitch': -3.0, 'roll': -0.96}
{'lipoC2': 8.05, 'temp': 25.38, 'lipoC3S3': 12.5, 'rot1': 0, 'rot0': 0, 'rot3': 0, 'rot2': 0, 'state': 'normal', 'yaw': -0.0, 'datetime': '2018-10-12 15:41:26.893680', 'mgs': 0, 'depth': -0.446, 'time': 10.55, 'pitch': -3.0, 'roll': -0.96}
{'lipoC2': 8.06, 'temp': 25.38, 'lipoC3S3': 12.5, 'rot1': 0, 'rot0': 0, 'rot3': 0, 'rot2': 0, 'state': 'normal', 'yaw': -0.0, 'datetime': '2018-10-12 15:41:26.990832', 'mgs': 0, 'depth': -0.369, 'time': 10.65, 'pitch': -3.0, 'roll': -0.96}
{'lipoC2': 8.05, 'temp': 25.25, 'lipoC3S3': 12.5, 'rot1': 0, 'rot0': 0, 'rot3': 0, 'rot2': 0, 'state': 'normal', 'yaw': -0.0, 'datetime': '2018-10-12 15:41:27.088909', 'mgs': 0, 'depth': -0.369, 'time': 10.75, 'pitch': -3.0, 'roll': -0.96}
{'lipoC2': 8.05, 'temp': 25.25, 'lipoC3S3': 12.5, 'rot1': 0, 'rot0': 0, 'rot3': 0, 'rot2': 0, 'state': 'normal', 'yaw': -0.0, 'datetime': '2018-10-12 15:41:27.187424', 'mgs': 0, 'depth': -0.369, 'time': 10.85, 'pitch': -3.0, 'roll': -0.96}
{'lipoC2': 8.05, 'temp': 25.19, 'lipoC3S3': 12.5, 'rot1': 0, 'rot0': 0, 'rot3': 0, 'rot2': 0, 'state': 'normal', 'yaw': -0.0, 'datetime': '2018-10-12 15:41:27.285409', 'mgs': 0, 'depth': -0.369, 'time': 10.94, 'pitch': -3.0, 'roll': -0.96}
{'lipoC2': 8.05, 'temp': 25.19, 'lipoC3S3': 12.5, 'rot1': 0, 'rot0': 0, 'rot3': 0, 'rot2': 0, 'state': 'normal', 'yaw': -0.0, 'datetime': '2018-10-12 15:41:27.382287', 'mgs': 0, 'depth': -0.369, 'time': 11.04, 'pitch': -3.0, 'roll': -0.96}
{'lipoC2': 8.05, 'temp': 25.19, 'lipoC3S3': 12.5, 'rot1': 0, 'rot0': 0, 'rot3': 0, 'rot2': 0, 'state': 'normal', 'yaw': -0.0, 'datetime': '2018-10-12 15:41:27.479689', 'mgs': 1, 'depth': -0.446, 'time': 11.14, 'pitch': -3.0, 'roll': -0.96}
{'lipoC2': 8.06, 'temp': 25.25, 'lipoC3S3': 12.5, 'rot1': 0, 'rot0': 0, 'rot3': 0, 'rot2': 0, 'state': 'normal', 'yaw': 0.0, 'datetime': '2018-10-12 15:41:32.005277', 'mgs': 0, 'depth': -0.369, 'time': 1.26, 'pitch': -3.04, 'roll': -1.16}
{'lipoC2': 8.05, 'temp': 25.25, 'lipoC3S3': 12.5, 'rot1': 0, 'rot0': 0, 'rot3': 0, 'rot2': 0, 'state': 'normal', 'yaw': 0.01, 'datetime': '2018-10-12 15:41:32.034201', 'mgs': 0, 'depth': -0.369, 'time': 1.36, 'pitch': -3.08, 'roll': -1.36}
{'lipoC2': 8.05, 'temp': 25.25, 'lipoC3S3': 12.5, 'rot1': 0, 'rot0': 0, 'rot3': 0, 'rot2': 0, 'state': 'normal', 'yaw': 0.01, 'datetime': '2018-10-12 15:41:32.053894', 'mgs': 0, 'depth': -0.369, 'time': 1.45, 'pitch': -3.09, 'roll': -1.38}
{'lipoC2': 8.05, 'temp': 25.25, 'lipoC3S3': 12.5, 'rot1': 0, 'rot0': 0, 'rot3': 0, 'rot2': 0, 'state': 'normal', 'yaw': 0.02, 'datetime': '2018-10-12 15:41:32.079616', 'mgs': 0, 'depth': -0.293, 'time': 1.55, 'pitch': -3.12, 'roll': -1.52}
{'lipoC2': 8.05, 'temp': 25.25, 'lipoC3S3': 12.51, 'rot1': 0, 'rot0': 0, 'rot3': 0, 'rot2': 0, 'state': 'normal', 'yaw': 0.02, 'datetime': '2018-10-12 15:41:32.095742', 'mgs': 0, 'depth': -0.369, 'time': 1.65, 'pitch': -3.12, 'roll': -1.53}
{'lipoC2': 8.05, 'temp': 25.25, 'lipoC3S3': 12.51, 'rot1': 0, 'rot0': 0, 'rot3': 0, 'rot2': 0, 'state': 'normal', 'yaw': 0.03, 'datetime': '2018-10-12 15:41:32.103828', 'mgs': 0, 'depth': -0.293, 'time': 1.75, 'pitch': -3.15, 'roll': -1.65}
{'lipoC2': 8.05, 'temp': 25.25, 'lipoC3S3': 12.5, 'rot1': 0, 'rot0': 0, 'rot3': 0, 'rot2': 0, 'state': 'normal', 'yaw': 0.03, 'datetime': '2018-10-12 15:41:32.117513', 'mgs': 0, 'depth': -0.369, 'time': 1.84, 'pitch': -3.15, 'roll': -1.66}
{'lipoC2': 8.05, 'temp': 25.25, 'lipoC3S3': 12.5, 'rot1': 0, 'rot0': 0, 'rot3': 0, 'rot2': 0, 'state': 'normal', 'yaw': 0.04, 'datetime': '2018-10-12 15:41:32.131821', 'mgs': 0, 'depth': -0.369, 'time': 1.94, 'pitch': -3.17, 'roll': -1.76}
{'lipoC2': 8.05, 'temp': 25.25, 'lipoC3S3': 12.5, 'rot1': 0, 'rot0': 0, 'rot3': 0, 'rot2': 0, 'state': 'normal', 'yaw': 0.04, 'datetime': '2018-10-12 15:41:32.140377', 'mgs': 0, 'depth': -0.293, 'time': 2.04, 'pitch': -3.18, 'roll': -1.76}
{'lipoC2': 8.05, 'temp': 25.25, 'lipoC3S3': 12.5, 'rot1': 0, 'rot0': 0, 'rot3': 0, 'rot2': 0, 'state': 'normal', 'yaw': 0.05, 'datetime': '2018-10-12 15:41:32.154074', 'mgs': 0, 'depth': -0.293, 'time': 2.13, 'pitch': -3.19, 'roll': -1.86}
{'lipoC2': 8.05, 'temp': 25.25, 'lipoC3S3': 12.5, 'rot1': 0, 'rot0': 0, 'rot3': 0, 'rot2': 0, 'state': 'normal', 'yaw': 0.05, 'datetime': '2018-10-12 15:41:32.167775', 'mgs': 0, 'depth': -0.293, 'time': 2.23, 'pitch': -3.2, 'roll': -1.86}
{'lipoC2': 8.05, 'temp': 25.25, 'lipoC3S3': 12.5, 'rot1': 0, 'rot0': 0, 'rot3': 0, 'rot2': 0, 'state': 'normal', 'yaw': 0.05, 'datetime': '2018-10-12 15:41:32.175782', 'mgs': 0, 'depth': -0.369, 'time': 2.33, 'pitch': -3.2, 'roll': -1.93}
{'lipoC2': 8.05, 'temp': 25.25, 'lipoC3S3': 12.51, 'rot1': 0, 'rot0': 0, 'rot3': 0, 'rot2': 0, 'state': 'normal', 'yaw': 0.05, 'datetime': '2018-10-12 15:41:32.189467', 'mgs': 0, 'depth': -0.293, 'time': 2.43, 'pitch': -3.2, 'roll': -1.92}
{'lipoC2': 8.05, 'temp': 25.25, 'lipoC3S3': 12.5, 'rot1': 0, 'rot0': 0, 'rot3': 0, 'rot2': 0, 'state': 'normal', 'yaw': 0.05, 'datetime': '2018-10-12 15:41:32.203130', 'mgs': 0, 'depth': -0.369, 'time': 2.53, 'pitch': -3.22, 'roll': -1.99}
{'lipoC2': 8.05, 'temp': 25.25, 'lipoC3S3': 12.5, 'rot1': 0, 'rot0': 0, 'rot3': 0, 'rot2': 0, 'state': 'normal', 'yaw': 0.05, 'datetime': '2018-10-12 15:41:32.210797', 'mgs': 0, 'depth': -0.369, 'time': 2.62, 'pitch': -3.22, 'roll': -1.98}
{'lipoC2': 8.05, 'temp': 25.25, 'lipoC3S3': 12.51, 'rot1': 0, 'rot0': 0, 'rot3': 0, 'rot2': 0, 'state': 'normal', 'yaw': 0.06, 'datetime': '2018-10-12 15:41:32.224377', 'mgs': 0, 'depth': -0.369, 'time': 2.72, 'pitch': -3.23, 'roll': -2.05}
{'lipoC2': 8.05, 'temp': 25.25, 'lipoC3S3': 12.5, 'rot1': 0, 'rot0': 0, 'rot3': 0, 'rot2': 0, 'state': 'normal', 'yaw': 0.06, 'datetime': '2018-10-12 15:41:32.238291', 'mgs': 0, 'depth': -0.293, 'time': 2.82, 'pitch': -3.23, 'roll': -2.05}
{'lipoC2': 8.05, 'temp': 25.31, 'lipoC3S3': 12.5, 'rot1': 0, 'rot0': 0, 'rot3': 0, 'rot2': 0, 'state': 'normal', 'yaw': 0.06, 'datetime': '2018-10-12 15:41:32.245850', 'mgs': 0, 'depth': -0.293, 'time': 2.91, 'pitch': -3.24, 'roll': -2.1}
{'lipoC2': 8.05, 'temp': 25.31, 'lipoC3S3': 12.5, 'rot1': 0, 'rot0': 0, 'rot3': 0, 'rot2': 0, 'state': 'normal', 'yaw': 0.06, 'datetime': '2018-10-12 15:41:32.259235', 'mgs': 0, 'depth': -0.369, 'time': 3.01, 'pitch': -3.24, 'roll': -2.09}
{'lipoC2': 8.05, 'temp': 25.31, 'lipoC3S3': 12.51, 'rot1': 0, 'rot0': 0, 'rot3': 0, 'rot2': 0, 'state': 'normal', 'yaw': 0.06, 'datetime': '2018-10-12 15:41:32.272530', 'mgs': 0, 'depth': -0.369, 'time': 3.11, 'pitch': -3.24, 'roll': -2.12}
{'lipoC2': 8.05, 'temp': 25.25, 'lipoC3S3': 12.5, 'rot1': 0, 'rot0': 0, 'rot3': 0, 'rot2': 0, 'state': 'normal', 'yaw': 0.06, 'datetime': '2018-10-12 15:41:32.280112', 'mgs': 0, 'depth': -0.293, 'time': 3.21, 'pitch': -3.25, 'roll': -2.14}
{'lipoC2': 8.05, 'temp': 25.25, 'lipoC3S3': 12.5, 'rot1': 0, 'rot0': 0, 'rot3': 0, 'rot2': 0, 'state': 'normal', 'yaw': 0.06, 'datetime': '2018-10-12 15:41:32.293372', 'mgs': 0, 'depth': -0.369, 'time': 3.3, 'pitch': -3.25, 'roll': -2.16}
{'lipoC2': 8.05, 'temp': 25.25, 'lipoC3S3': 12.5, 'rot1': 0, 'rot0': 0, 'rot3': 0, 'rot2': 0, 'state': 'normal', 'yaw': 0.06, 'datetime': '2018-10-12 15:41:32.306586', 'mgs': 0, 'depth': -0.369, 'time': 3.4, 'pitch': -3.26, 'roll': -2.19}
{'lipoC2': 8.05, 'temp': 25.25, 'lipoC3S3': 12.5, 'rot1': 0, 'rot0': 0, 'rot3': 0, 'rot2': 0, 'state': 'normal', 'yaw': 0.06, 'datetime': '2018-10-12 15:41:32.314151', 'mgs': 0, 'depth': -0.369, 'time': 3.5, 'pitch': -3.26, 'roll': -2.21}
{'lipoC2': 8.05, 'temp': 25.25, 'lipoC3S3': 12.5, 'rot1': 0, 'rot0': 0, 'rot3': 0, 'rot2': 0, 'state': 'normal', 'yaw': 0.06, 'datetime': '2018-10-12 15:41:32.328138', 'mgs': 0, 'depth': -0.293, 'time': 3.6, 'pitch': -3.27, 'roll': -2.23}
{'lipoC2': 8.05, 'temp': 25.25, 'lipoC3S3': 12.5, 'rot1': 0, 'rot0': 0, 'rot3': 0, 'rot2': 0, 'state': 'normal', 'yaw': 0.06, 'datetime': '2018-10-12 15:41:32.341515', 'mgs': 0, 'depth': -0.369, 'time': 3.69, 'pitch': -3.28, 'roll': -2.24}
{'lipoC2': 8.05, 'temp': 25.25, 'lipoC3S3': 12.5, 'rot1': 0, 'rot0': 0, 'rot3': 0, 'rot2': 0, 'state': 'normal', 'yaw': 0.07, 'datetime': '2018-10-12 15:41:32.349100', 'mgs': 0, 'depth': -0.293, 'time': 3.79, 'pitch': -3.28, 'roll': -2.26}
{'lipoC2': 8.05, 'temp': 25.31, 'lipoC3S3': 12.5, 'rot1': 0, 'rot0': 0, 'rot3': 0, 'rot2': 0, 'state': 'normal', 'yaw': 0.07, 'datetime': '2018-10-12 15:41:32.362369', 'mgs': 0, 'depth': -0.293, 'time': 3.89, 'pitch': -3.29, 'roll': -2.29}
{'lipoC2': 8.05, 'temp': 25.31, 'lipoC3S3': 12.5, 'rot1': 0, 'rot0': 0, 'rot3': 0, 'rot2': 0, 'state': 'normal', 'yaw': 0.07, 'datetime': '2018-10-12 15:41:32.375572', 'mgs': 0, 'depth': -0.369, 'time': 3.98, 'pitch': -3.29, 'roll': -2.25}
{'lipoC2': 8.05, 'temp': 25.31, 'lipoC3S3': 12.5, 'rot1': 0, 'rot0': 0, 'rot3': 0, 'rot2': 0, 'state': 'normal', 'yaw': 0.07, 'datetime': '2018-10-12 15:41:32.383168', 'mgs': 0, 'depth': -0.369, 'time': 4.08, 'pitch': -3.29, 'roll': -2.29}
{'lipoC2': 8.06, 'temp': 25.25, 'lipoC3S3': 12.5, 'rot1': 0, 'rot0': 0, 'rot3': 0, 'rot2': 0, 'state': 'normal', 'yaw': 0.07, 'datetime': '2018-10-12 15:41:32.396486', 'mgs': 0, 'depth': -0.369, 'time': 4.18, 'pitch': -3.29, 'roll': -2.24}
{'lipoC2': 8.05, 'temp': 25.25, 'lipoC3S3': 12.5, 'rot1': 0, 'rot0': 0, 'rot3': 0, 'rot2': 0, 'state': 'normal', 'yaw': 0.07, 'datetime': '2018-10-12 15:41:32.409733', 'mgs': 0, 'depth': -0.293, 'time': 4.28, 'pitch': -3.29, 'roll': -2.27}
{'lipoC2': 8.05, 'temp': 25.25, 'lipoC3S3': 12.5, 'rot1': 0, 'rot0': 0, 'rot3': 0, 'rot2': 0, 'state': 'normal', 'yaw': 0.07, 'datetime': '2018-10-12 15:41:32.417570', 'mgs': 0, 'depth': -0.369, 'time': 4.37, 'pitch': -3.3, 'roll': -2.25}
{'lipoC2': 8.05, 'temp': 25.25, 'lipoC3S3': 12.5, 'rot1': 0, 'rot0': 0, 'rot3': 0, 'rot2': 0, 'state': 'normal', 'yaw': 0.07, 'datetime': '2018-10-12 15:41:32.431557', 'mgs': 0, 'depth': -0.293, 'time': 4.47, 'pitch': -3.29, 'roll': -2.26}
{'lipoC2': 8.07, 'temp': 25.25, 'lipoC3S3': 12.42, 'rot1': 2, 'rot0': 0, 'rot3': 0, 'rot2': 0, 'state': 'normal', 'yaw': 0.07, 'datetime': '2018-10-12 15:41:32.444893', 'mgs': 0, 'depth': -0.369, 'time': 4.57, 'pitch': -3.3, 'roll': -2.23}
{'lipoC2': 8.05, 'temp': 25.25, 'lipoC3S3': 12.48, 'rot1': 4, 'rot0': 2, 'rot3': 0, 'rot2': 0, 'state': 'normal', 'yaw': 0.07, 'datetime': '2018-10-12 15:41:32.452608', 'mgs': 0, 'depth': 1.004, 'time': 4.67, 'pitch': -3.3, 'roll': -2.24}
{'lipoC2': 8.05, 'temp': 25.25, 'lipoC3S3': 12.47, 'rot1': 6, 'rot0': 3, 'rot3': 0, 'rot2': 0, 'state': 'normal', 'yaw': 0.07, 'datetime': '2018-10-12 15:41:32.465848', 'mgs': 0, 'depth': -0.064, 'time': 4.76, 'pitch': -3.3, 'roll': -2.21}
{'lipoC2': 8.05, 'temp': 25.19, 'lipoC3S3': 12.48, 'rot1': 8, 'rot0': 5, 'rot3': 0, 'rot2': 0, 'state': 'normal', 'yaw': 0.07, 'datetime': '2018-10-12 15:41:32.479106', 'mgs': 0, 'depth': -0.293, 'time': 4.86, 'pitch': -3.3, 'roll': -2.24}
{'lipoC2': 8.05, 'temp': 25.19, 'lipoC3S3': 12.46, 'rot1': 9, 'rot0': 7, 'rot3': 0, 'rot2': 0, 'state': 'normal', 'yaw': 0.08, 'datetime': '2018-10-12 15:41:32.529521', 'mgs': 0, 'depth': -0.369, 'time': 4.96, 'pitch': -3.3, 'roll': -2.23}
{'lipoC2': 8.05, 'temp': 25.19, 'lipoC3S3': 12.5, 'rot1': 11, 'rot0': 9, 'rot3': 0, 'rot2': 0, 'state': 'normal', 'yaw': 0.07, 'datetime': '2018-10-12 15:41:32.627398', 'mgs': 0, 'depth': -0.293, 'time': 5.06, 'pitch': -3.3, 'roll': -2.24}
{'lipoC2': 8.05, 'temp': 25.19, 'lipoC3S3': 12.41, 'rot1': 13, 'rot0': 11, 'rot3': 0, 'rot2': 0, 'state': 'normal', 'yaw': 0.08, 'datetime': '2018-10-12 15:41:32.724467', 'mgs': 0, 'depth': -0.369, 'time': 5.15, 'pitch': -3.3, 'roll': -2.24}
{'lipoC2': 8.05, 'temp': 25.19, 'lipoC3S3': 12.43, 'rot1': 15, 'rot0': 13, 'rot3': 0, 'rot2': 0, 'state': 'normal', 'yaw': 0.08, 'datetime': '2018-10-12 15:41:32.824986', 'mgs': 0, 'depth': -0.369, 'time': 5.25, 'pitch': -3.31, 'roll': -2.25}
{'lipoC2': 8.05, 'temp': 25.25, 'lipoC3S3': 12.47, 'rot1': 16, 'rot0': 15, 'rot3': 0, 'rot2': 0, 'state': 'normal', 'yaw': 0.08, 'datetime': '2018-10-12 15:41:32.923518', 'mgs': 0, 'depth': -0.369, 'time': 5.35, 'pitch': -3.31, 'roll': -2.26}
{'lipoC2': 8.05, 'temp': 25.25, 'lipoC3S3': 12.47, 'rot1': 18, 'rot0': 16, 'rot3': 0, 'rot2': 0, 'state': 'normal', 'yaw': 0.08, 'datetime': '2018-10-12 15:41:33.021117', 'mgs': 0, 'depth': -0.369, 'time': 5.45, 'pitch': -3.31, 'roll': -2.27}
{'lipoC2': 8.05, 'temp': 25.25, 'lipoC3S3': 12.55, 'rot1': 20, 'rot0': 18, 'rot3': 0, 'rot2': 0, 'state': 'normal', 'yaw': 0.08, 'datetime': '2018-10-12 15:41:33.118178', 'mgs': 0, 'depth': -0.369, 'time': 5.54, 'pitch': -3.31, 'roll': -2.32}
{'lipoC2': 8.05, 'temp': 25.25, 'lipoC3S3': 12.47, 'rot1': 22, 'rot0': 20, 'rot3': 0, 'rot2': 0, 'state': 'normal', 'yaw': 0.08, 'datetime': '2018-10-12 15:41:33.215765', 'mgs': 0, 'depth': -0.293, 'time': 5.64, 'pitch': -3.31, 'roll': -2.31}
{'lipoC2': 8.05, 'temp': 25.25, 'lipoC3S3': 12.47, 'rot1': 25, 'rot0': 22, 'rot3': 0, 'rot2': 0, 'state': 'normal', 'yaw': 0.09, 'datetime': '2018-10-12 15:41:33.314331', 'mgs': 0, 'depth': 0.241, 'time': 5.74, 'pitch': -3.32, 'roll': -2.33}
{'lipoC2': 8.05, 'temp': 25.25, 'lipoC3S3': 12.47, 'rot1': 29, 'rot0': 23, 'rot3': 0, 'rot2': 0, 'state': 'normal', 'yaw': 0.09, 'datetime': '2018-10-12 15:41:33.411416', 'mgs': 0, 'depth': -0.446, 'time': 5.84, 'pitch': -3.31, 'roll': -2.35}
{'lipoC2': 8.07, 'temp': 25.25, 'lipoC3S3': 12.47, 'rot1': 31, 'rot0': 25, 'rot3': 0, 'rot2': 0, 'state': 'normal', 'yaw': 0.09, 'datetime': '2018-10-12 15:41:33.508563', 'mgs': 0, 'depth': -0.674, 'time': 5.94, 'pitch': -3.32, 'roll': -2.35}
{'lipoC2': 8.06, 'temp': 25.25, 'lipoC3S3': 12.46, 'rot1': 35, 'rot0': 27, 'rot3': 0, 'rot2': 0, 'state': 'normal', 'yaw': 0.09, 'datetime': '2018-10-12 15:41:33.606248', 'mgs': 0, 'depth': -0.369, 'time': 6.03, 'pitch': -3.32, 'roll': -2.37}
{'lipoC2': 8.05, 'temp': 25.25, 'lipoC3S3': 12.46, 'rot1': 39, 'rot0': 29, 'rot3': 0, 'rot2': 0, 'state': 'normal', 'yaw': 0.12, 'datetime': '2018-10-12 15:41:33.703277', 'mgs': 0, 'depth': -0.369, 'time': 6.13, 'pitch': -3.23, 'roll': -2.54}
{'lipoC2': 8.05, 'temp': 25.25, 'lipoC3S3': 12.47, 'rot1': 43, 'rot0': 31, 'rot3': 0, 'rot2': 0, 'state': 'normal', 'yaw': 0.68, 'datetime': '2018-10-12 15:41:33.800394', 'mgs': 0, 'depth': -0.369, 'time': 6.23, 'pitch': -3.15, 'roll': -3.53}
{'lipoC2': 8.05, 'temp': 25.31, 'lipoC3S3': 12.38, 'rot1': 50, 'rot0': 32, 'rot3': 0, 'rot2': 0, 'state': 'normal', 'yaw': 1.77, 'datetime': '2018-10-12 15:41:33.897501', 'mgs': 0, 'depth': -0.293, 'time': 6.32, 'pitch': -2.39, 'roll': -4.88}
{'lipoC2': 8.05, 'temp': 25.31, 'lipoC3S3': 12.47, 'rot1': 57, 'rot0': 34, 'rot3': 0, 'rot2': 0, 'state': 'normal', 'yaw': 3.68, 'datetime': '2018-10-12 15:41:33.995976', 'mgs': 0, 'depth': -0.369, 'time': 6.42, 'pitch': -1.32, 'roll': -3.67}
{'lipoC2': 8.05, 'temp': 25.31, 'lipoC3S3': 12.47, 'rot1': 64, 'rot0': 36, 'rot3': 0, 'rot2': 0, 'state': 'normal', 'yaw': 6.56, 'datetime': '2018-10-12 15:41:34.094018', 'mgs': 0, 'depth': 0.165, 'time': 6.52, 'pitch': -2.11, 'roll': -1.75}
{'lipoC2': 8.05, 'temp': 25.25, 'lipoC3S3': 12.48, 'rot1': 70, 'rot0': 38, 'rot3': 0, 'rot2': 0, 'state': 'normal', 'yaw': 9.83, 'datetime': '2018-10-12 15:41:34.191072', 'mgs': 0, 'depth': -0.293, 'time': 6.62, 'pitch': -4.24, 'roll': -1.33}
{'lipoC2': 8.05, 'temp': 25.25, 'lipoC3S3': 12.47, 'rot1': 74, 'rot0': 40, 'rot3': 0, 'rot2': 0, 'state': 'normal', 'yaw': 13.3, 'datetime': '2018-10-12 15:41:34.288162', 'mgs': 0, 'depth': -0.369, 'time': 6.72, 'pitch': -5.45, 'roll': -1.21}
{'lipoC2': 8.05, 'temp': 25.25, 'lipoC3S3': 12.48, 'rot1': 78, 'rot0': 42, 'rot3': 0, 'rot2': 0, 'state': 'normal', 'yaw': 16.59, 'datetime': '2018-10-12 15:41:34.386529', 'mgs': 0, 'depth': -0.293, 'time': 6.81, 'pitch': -5.28, 'roll': -1.12}
{'lipoC2': 8.06, 'temp': 25.25, 'lipoC3S3': 12.42, 'rot1': 81, 'rot0': 43, 'rot3': 0, 'rot2': 0, 'state': 'normal', 'yaw': 20.23, 'datetime': '2018-10-12 15:41:34.484840', 'mgs': 0, 'depth': -0.369, 'time': 6.91, 'pitch': -4.45, 'roll': -1.52}
{'lipoC2': 8.05, 'temp': 25.25, 'lipoC3S3': 12.48, 'rot1': 85, 'rot0': 45, 'rot3': 0, 'rot2': 0, 'state': 'normal', 'yaw': 23.68, 'datetime': '2018-10-12 15:41:34.581765', 'mgs': 0, 'depth': 0.089, 'time': 7.01, 'pitch': -3.34, 'roll': -2.15}
{'lipoC2': 8.05, 'temp': 25.25, 'lipoC3S3': 12.47, 'rot1': 88, 'rot0': 47, 'rot3': 0, 'rot2': 0, 'state': 'normal', 'yaw': 26.58, 'datetime': '2018-10-12 15:41:34.678987', 'mgs': 0, 'depth': -0.369, 'time': 7.11, 'pitch': -2.11, 'roll': -2.4}
{'lipoC2': 8.06, 'temp': 25.25, 'lipoC3S3': 12.47, 'rot1': 92, 'rot0': 49, 'rot3': 0, 'rot2': 0, 'state': 'normal', 'yaw': 28.6, 'datetime': '2018-10-12 15:41:34.776433', 'mgs': 0, 'depth': -1.132, 'time': 7.2, 'pitch': -1.33, 'roll': -2.53}
{'lipoC2': 8.05, 'temp': 25.25, 'lipoC3S3': 12.47, 'rot1': 95, 'rot0': 50, 'rot3': 0, 'rot2': 0, 'state': 'normal', 'yaw': 30.53, 'datetime': '2018-10-12 15:41:34.878458', 'mgs': 0, 'depth': -0.293, 'time': 7.3, 'pitch': -0.73, 'roll': -2.45}
{'lipoC2': 8.05, 'temp': 25.25, 'lipoC3S3': 12.52, 'rot1': 99, 'rot0': 52, 'rot3': 0, 'rot2': 0, 'state': 'normal', 'yaw': 32.64, 'datetime': '2018-10-12 15:41:34.975450', 'mgs': 0, 'depth': -0.369, 'time': 7.4, 'pitch': -0.35, 'roll': -2.35}
{'lipoC2': 8.05, 'temp': 25.25, 'lipoC3S3': 12.47, 'rot1': 101, 'rot0': 54, 'rot3': 0, 'rot2': 0, 'state': 'normal', 'yaw': 34.79, 'datetime': '2018-10-12 15:41:35.072661', 'mgs': 0, 'depth': 0.165, 'time': 7.5, 'pitch': -0.43, 'roll': -2.31}
{'lipoC2': 8.05, 'temp': 25.25, 'lipoC3S3': 12.47, 'rot1': 103, 'rot0': 56, 'rot3': 0, 'rot2': 0, 'state': 'normal', 'yaw': 37.29, 'datetime': '2018-10-12 15:41:35.169867', 'mgs': 0, 'depth': -0.369, 'time': 7.59, 'pitch': -0.93, 'roll': -2.43}
{'lipoC2': 8.05, 'temp': 25.25, 'lipoC3S3': 12.46, 'rot1': 104, 'rot0': 58, 'rot3': 0, 'rot2': 0, 'state': 'normal', 'yaw': 39.94, 'datetime': '2018-10-12 15:41:35.266993', 'mgs': 0, 'depth': -0.369, 'time': 7.69, 'pitch': -1.42, 'roll': -2.82}
{'lipoC2': 8.05, 'temp': 25.25, 'lipoC3S3': 12.47, 'rot1': 105, 'rot0': 59, 'rot3': 0, 'rot2': 0, 'state': 'normal', 'yaw': 42.43, 'datetime': '2018-10-12 15:41:35.364213', 'mgs': 0, 'depth': -0.369, 'time': 7.79, 'pitch': -1.55, 'roll': -3.06}
{'lipoC2': 8.05, 'temp': 25.25, 'lipoC3S3': 12.42, 'rot1': 106, 'rot0': 61, 'rot3': 0, 'rot2': 0, 'state': 'normal', 'yaw': 45.43, 'datetime': '2018-10-12 15:41:35.461426', 'mgs': 0, 'depth': -0.369, 'time': 7.89, 'pitch': -1.28, 'roll': -3.01}
{'lipoC2': 8.05, 'temp': 25.25, 'lipoC3S3': 12.47, 'rot1': 107, 'rot0': 63, 'rot3': 0, 'rot2': 0, 'state': 'normal', 'yaw': 48.38, 'datetime': '2018-10-12 15:41:35.553671', 'mgs': 0, 'depth': -0.293, 'time': 7.98, 'pitch': -1.05, 'roll': -2.82}
{'lipoC2': 8.05, 'temp': 25.25, 'lipoC3S3': 12.47, 'rot1': 108, 'rot0': 65, 'rot3': 0, 'rot2': 0, 'state': 'normal', 'yaw': 50.62, 'datetime': '2018-10-12 15:41:35.650690', 'mgs': 0, 'depth': -0.369, 'time': 8.08, 'pitch': -1.1, 'roll': -2.4}
{'lipoC2': 8.05, 'temp': 25.25, 'lipoC3S3': 12.48, 'rot1': 110, 'rot0': 67, 'rot3': 0, 'rot2': 0, 'state': 'normal', 'yaw': 51.07, 'datetime': '2018-10-12 15:41:35.749135', 'mgs': 0, 'depth': -0.293, 'time': 8.18, 'pitch': -1.42, 'roll': -1.76}
{'lipoC2': 8.05, 'temp': 25.25, 'lipoC3S3': 12.47, 'rot1': 111, 'rot0': 69, 'rot3': 0, 'rot2': 0, 'state': 'normal', 'yaw': 49.11, 'datetime': '2018-10-12 15:41:35.847544', 'mgs': 0, 'depth': 0.165, 'time': 8.28, 'pitch': -2.09, 'roll': -1.06}
{'lipoC2': 8.05, 'temp': 25.25, 'lipoC3S3': 12.47, 'rot1': 112, 'rot0': 70, 'rot3': 0, 'rot2': 0, 'state': 'normal', 'yaw': 44.89, 'datetime': '2018-10-12 15:41:35.944773', 'mgs': 0, 'depth': -0.369, 'time': 8.37, 'pitch': -2.46, 'roll': -0.59}
{'lipoC2': 8.06, 'temp': 25.25, 'lipoC3S3': 12.46, 'rot1': 113, 'rot0': 72, 'rot3': 0, 'rot2': 0, 'state': 'normal', 'yaw': 39.09, 'datetime': '2018-10-12 15:41:36.042227', 'mgs': 0, 'depth': -0.369, 'time': 8.47, 'pitch': -2.53, 'roll': -0.72}
{'lipoC2': 8.05, 'temp': 25.25, 'lipoC3S3': 12.48, 'rot1': 115, 'rot0': 74, 'rot3': 0, 'rot2': 0, 'state': 'normal', 'yaw': 33.1, 'datetime': '2018-10-12 15:41:36.139767', 'mgs': 0, 'depth': 0.165, 'time': 8.57, 'pitch': -2.64, 'roll': -0.95}
{'lipoC2': 8.05, 'temp': 25.25, 'lipoC3S3': 12.45, 'rot1': 117, 'rot0': 76, 'rot3': 0, 'rot2': 0, 'state': 'normal', 'yaw': 26.15, 'datetime': '2018-10-12 15:41:36.238404', 'mgs': 0, 'depth': -0.369, 'time': 8.67, 'pitch': -3.16, 'roll': -0.85}
{'lipoC2': 8.05, 'temp': 25.25, 'lipoC3S3': 12.48, 'rot1': 118, 'rot0': 77, 'rot3': 0, 'rot2': 0, 'state': 'normal', 'yaw': 19.13, 'datetime': '2018-10-12 15:41:36.336798', 'mgs': 0, 'depth': -0.369, 'time': 8.77, 'pitch': -3.89, 'roll': -0.28}
{'lipoC2': 8.06, 'temp': 25.25, 'lipoC3S3': 12.42, 'rot1': 119, 'rot0': 79, 'rot3': 0, 'rot2': 0, 'state': 'normal', 'yaw': 12.18, 'datetime': '2018-10-12 15:41:36.433779', 'mgs': 0, 'depth': -0.369, 'time': 8.86, 'pitch': -4.7, 'roll': 0.48}
{'lipoC2': 8.06, 'temp': 25.25, 'lipoC3S3': 12.48, 'rot1': 120, 'rot0': 81, 'rot3': 0, 'rot2': 0, 'state': 'normal', 'yaw': 5.52, 'datetime': '2018-10-12 15:41:36.531008', 'mgs': 0, 'depth': -0.369, 'time': 8.96, 'pitch': -5.27, 'roll': 0.83}
{'lipoC2': 8.05, 'temp': 25.25, 'lipoC3S3': 12.45, 'rot1': 123, 'rot0': 83, 'rot3': 0, 'rot2': 0, 'state': 'normal', 'yaw': -0.12, 'datetime': '2018-10-12 15:41:36.628203', 'mgs': 0, 'depth': -0.369, 'time': 9.06, 'pitch': -5.31, 'roll': 0.56}
{'lipoC2': 8.05, 'temp': 25.25, 'lipoC3S3': 12.47, 'rot1': 127, 'rot0': 85, 'rot3': 0, 'rot2': 0, 'state': 'normal', 'yaw': -5.94, 'datetime': '2018-10-12 15:41:36.725270', 'mgs': 0, 'depth': 0.317, 'time': 9.15, 'pitch': -4.89, 'roll': 0.06}
{'lipoC2': 8.05, 'temp': 25.25, 'lipoC3S3': 12.47, 'rot1': 132, 'rot0': 86, 'rot3': 0, 'rot2': 0, 'state': 'normal', 'yaw': -11.27, 'datetime': '2018-10-12 15:41:36.822499', 'mgs': 0, 'depth': -0.369, 'time': 9.25, 'pitch': -4.5, 'roll': -0.34}
{'lipoC2': 8.06, 'temp': 25.25, 'lipoC3S3': 12.48, 'rot1': 140, 'rot0': 87, 'rot3': 0, 'rot2': 0, 'state': 'normal', 'yaw': -15.68, 'datetime': '2018-10-12 15:41:36.919665', 'mgs': 0, 'depth': -0.369, 'time': 9.35, 'pitch': -4.43, 'roll': -0.62}
{'lipoC2': 8.05, 'temp': 25.25, 'lipoC3S3': 12.48, 'rot1': 152, 'rot0': 89, 'rot3': 0, 'rot2': 0, 'state': 'normal', 'yaw': -19.99, 'datetime': '2018-10-12 15:41:37.016912', 'mgs': 0, 'depth': -0.369, 'time': 9.45, 'pitch': -4.67, 'roll': -0.64}
{'lipoC2': 8.04, 'temp': 25.25, 'lipoC3S3': 12.41, 'rot1': 166, 'rot0': 90, 'rot3': 0, 'rot2': 0, 'state': 'normal', 'yaw': -23.77, 'datetime': '2018-10-12 15:41:37.114295', 'mgs': 0, 'depth': -0.369, 'time': 9.54, 'pitch': -5.07, 'roll': -0.15}
{'lipoC2': 8.05, 'temp': 25.25, 'lipoC3S3': 12.47, 'rot1': 182, 'rot0': 91, 'rot3': 0, 'rot2': 0, 'state': 'normal', 'yaw': -26.86, 'datetime': '2018-10-12 15:41:37.211605', 'mgs': 0, 'depth': -0.369, 'time': 9.64, 'pitch': -5.55, 'roll': 0.32}
{'lipoC2': 8.06, 'temp': 25.25, 'lipoC3S3': 12.47, 'rot1': 198, 'rot0': 92, 'rot3': 0, 'rot2': 0, 'state': 'normal', 'yaw': -29.89, 'datetime': '2018-10-12 15:41:37.308815', 'mgs': 0, 'depth': -0.446, 'time': 9.74, 'pitch': -5.99, 'roll': 0.79}
{'lipoC2': 8.05, 'temp': 25.25, 'lipoC3S3': 12.47, 'rot1': 212, 'rot0': 93, 'rot3': 0, 'rot2': 0, 'state': 'normal', 'yaw': -32.5, 'datetime': '2018-10-12 15:41:37.406037', 'mgs': 0, 'depth': -0.369, 'time': 9.84, 'pitch': -6.22, 'roll': 1.05}
{'lipoC2': 8.05, 'temp': 25.25, 'lipoC3S3': 12.43, 'rot1': 226, 'rot0': 94, 'rot3': 0, 'rot2': 0, 'state': 'normal', 'yaw': -34.69, 'datetime': '2018-10-12 15:41:37.503175', 'mgs': 0, 'depth': -0.369, 'time': 9.93, 'pitch': -6.22, 'roll': 1.2}
{'lipoC2': 8.05, 'temp': 25.25, 'lipoC3S3': 12.5, 'rot1': 241, 'rot0': 95, 'rot3': 0, 'rot2': 0, 'state': 'normal', 'yaw': -36.2, 'datetime': '2018-10-12 15:41:37.601897', 'mgs': 0, 'depth': -0.369, 'time': 10.03, 'pitch': -6.17, 'roll': 1.26}
{'lipoC2': 8.05, 'temp': 25.25, 'lipoC3S3': 12.47, 'rot1': 255, 'rot0': 97, 'rot3': 0, 'rot2': 0, 'state': 'normal', 'yaw': -37.29, 'datetime': '2018-10-12 15:41:37.700214', 'mgs': 0, 'depth': -0.369, 'time': 10.13, 'pitch': -6.26, 'roll': 1.25}
{'lipoC2': 8.05, 'temp': 25.25, 'lipoC3S3': 12.42, 'rot1': 268, 'rot0': 98, 'rot3': 0, 'rot2': 0, 'state': 'normal', 'yaw': -37.26, 'datetime': '2018-10-12 15:41:37.802785', 'mgs': 0, 'depth': -0.369, 'time': 10.23, 'pitch': -6.21, 'roll': 1.3}
{'lipoC2': 8.05, 'temp': 25.25, 'lipoC3S3': 12.47, 'rot1': 283, 'rot0': 99, 'rot3': 0, 'rot2': 0, 'state': 'normal', 'yaw': -35.08, 'datetime': '2018-10-12 15:41:37.899712', 'mgs': 0, 'depth': -0.293, 'time': 10.33, 'pitch': -6.12, 'roll': 1.06}
{'lipoC2': 8.05, 'temp': 25.25, 'lipoC3S3': 12.47, 'rot1': 297, 'rot0': 100, 'rot3': 0, 'rot2': 0, 'state': 'normal', 'yaw': -31.05, 'datetime': '2018-10-12 15:41:37.997787', 'mgs': 0, 'depth': -0.369, 'time': 10.42, 'pitch': -6.24, 'roll': 0.54}
{'lipoC2': 8.05, 'temp': 25.25, 'lipoC3S3': 12.47, 'rot1': 313, 'rot0': 101, 'rot3': 0, 'rot2': 0, 'state': 'normal', 'yaw': -25.01, 'datetime': '2018-10-12 15:41:38.096237', 'mgs': 0, 'depth': -0.369, 'time': 10.52, 'pitch': -6.36, 'roll': -0.15}
{'lipoC2': 8.05, 'temp': 25.25, 'lipoC3S3': 12.47, 'rot1': 325, 'rot0': 102, 'rot3': 0, 'rot2': 0, 'state': 'normal', 'yaw': -18.19, 'datetime': '2018-10-12 15:41:38.194014', 'mgs': 0, 'depth': -0.446, 'time': 10.62, 'pitch': -6.11, 'roll': -0.5}
{'lipoC2': 8.06, 'temp': 25.25, 'lipoC3S3': 12.46, 'rot1': 332, 'rot0': 104, 'rot3': 0, 'rot2': 0, 'state': 'normal', 'yaw': -11.43, 'datetime': '2018-10-12 15:41:38.291446', 'mgs': 0, 'depth': -0.293, 'time': 10.72, 'pitch': -5.73, 'roll': -0.7}
{'lipoC2': 8.05, 'temp': 25.25, 'lipoC3S3': 12.47, 'rot1': 337, 'rot0': 105, 'rot3': 0, 'rot2': 0, 'state': 'normal', 'yaw': -5.47, 'datetime': '2018-10-12 15:41:38.388692', 'mgs': 0, 'depth': -0.446, 'time': 10.81, 'pitch': -5.35, 'roll': -0.86}
{'lipoC2': 8.06, 'temp': 25.25, 'lipoC3S3': 12.46, 'rot1': 338, 'rot0': 106, 'rot3': 0, 'rot2': 0, 'state': 'normal', 'yaw': -1.36, 'datetime': '2018-10-12 15:41:38.486072', 'mgs': 0, 'depth': -0.369, 'time': 10.91, 'pitch': -5.07, 'roll': -0.96}
{'lipoC2': 8.05, 'temp': 25.25, 'lipoC3S3': 12.47, 'rot1': 340, 'rot0': 107, 'rot3': 0, 'rot2': 0, 'state': 'normal', 'yaw': 1.52, 'datetime': '2018-10-12 15:41:38.583238', 'mgs': 0, 'depth': -0.369, 'time': 11.01, 'pitch': -4.63, 'roll': -1.01}
{'lipoC2': 8.06, 'temp': 25.25, 'lipoC3S3': 12.47, 'rot1': 342, 'rot0': 108, 'rot3': 0, 'rot2': 0, 'state': 'normal', 'yaw': 2.89, 'datetime': '2018-10-12 15:41:38.680542', 'mgs': 0, 'depth': -0.14, 'time': 11.11, 'pitch': -4.46, 'roll': -1.05}
{'lipoC2': 8.05, 'temp': 25.25, 'lipoC3S3': 12.47, 'rot1': 344, 'rot0': 109, 'rot3': 0, 'rot2': 0, 'state': 'normal', 'yaw': 3.24, 'datetime': '2018-10-12 15:41:38.777826', 'mgs': 0, 'depth': -0.369, 'time': 11.2, 'pitch': -4.73, 'roll': -1.09}
{'lipoC2': 8.05, 'temp': 25.25, 'lipoC3S3': 12.47, 'rot1': 345, 'rot0': 111, 'rot3': 0, 'rot2': 0, 'state': 'normal', 'yaw': 3.21, 'datetime': '2018-10-12 15:41:38.874964', 'mgs': 0, 'depth': 0.012, 'time': 11.3, 'pitch': -5.36, 'roll': -1.04}
{'lipoC2': 8.05, 'temp': 25.25, 'lipoC3S3': 12.47, 'rot1': 346, 'rot0': 113, 'rot3': 0, 'rot2': 0, 'state': 'normal', 'yaw': 3.21, 'datetime': '2018-10-12 15:41:38.972437', 'mgs': 0, 'depth': -0.369, 'time': 11.4, 'pitch': -5.96, 'roll': -0.76}
{'lipoC2': 8.06, 'temp': 25.25, 'lipoC3S3': 12.46, 'rot1': 348, 'rot0': 115, 'rot3': 0, 'rot2': 0, 'state': 'normal', 'yaw': 3.38, 'datetime': '2018-10-12 15:41:39.064747', 'mgs': 0, 'depth': -0.446, 'time': 11.5, 'pitch': -6.15, 'roll': -0.11}
{'lipoC2': 8.05, 'temp': 25.25, 'lipoC3S3': 12.47, 'rot1': 349, 'rot0': 116, 'rot3': 0, 'rot2': 0, 'state': 'normal', 'yaw': 3.72, 'datetime': '2018-10-12 15:41:39.166844', 'mgs': 0, 'depth': -0.369, 'time': 11.59, 'pitch': -6.38, 'roll': 0.04}
{'lipoC2': 8.05, 'temp': 25.31, 'lipoC3S3': 12.47, 'rot1': 350, 'rot0': 118, 'rot3': 0, 'rot2': 0, 'state': 'normal', 'yaw': 4.12, 'datetime': '2018-10-12 15:41:39.264035', 'mgs': 0, 'depth': 0.089, 'time': 11.69, 'pitch': -6.42, 'roll': 0.47}
{'lipoC2': 8.05, 'temp': 25.31, 'lipoC3S3': 12.47, 'rot1': 351, 'rot0': 120, 'rot3': 0, 'rot2': 0, 'state': 'normal', 'yaw': 4.35, 'datetime': '2018-10-12 15:41:39.361609', 'mgs': 0, 'depth': -0.369, 'time': 11.79, 'pitch': -6.41, 'roll': 0.93}
{'lipoC2': 8.05, 'temp': 25.25, 'lipoC3S3': 12.47, 'rot1': 352, 'rot0': 122, 'rot3': 0, 'rot2': 0, 'state': 'normal', 'yaw': 4.55, 'datetime': '2018-10-12 15:41:39.459717', 'mgs': 0, 'depth': 0.165, 'time': 11.89, 'pitch': -6.39, 'roll': 0.51}
{'lipoC2': 8.06, 'temp': 25.25, 'lipoC3S3': 12.46, 'rot1': 353, 'rot0': 124, 'rot3': 0, 'rot2': 0, 'state': 'normal', 'yaw': 4.77, 'datetime': '2018-10-12 15:41:39.558370', 'mgs': 0, 'depth': -0.446, 'time': 11.99, 'pitch': -6.17, 'roll': -0.73}
{'lipoC2': 8.06, 'temp': 25.25, 'lipoC3S3': 12.46, 'rot1': 355, 'rot0': 126, 'rot3': 0, 'rot2': 0, 'state': 'normal', 'yaw': 4.92, 'datetime': '2018-10-12 15:41:39.656888', 'mgs': 0, 'depth': -0.369, 'time': 12.09, 'pitch': -5.74, 'roll': -2.39}
{'lipoC2': 8.05, 'temp': 25.31, 'lipoC3S3': 12.47, 'rot1': 356, 'rot0': 127, 'rot3': 0, 'rot2': 0, 'state': 'normal', 'yaw': 5.03, 'datetime': '2018-10-12 15:41:39.754162', 'mgs': 0, 'depth': -0.446, 'time': 12.18, 'pitch': -5.37, 'roll': -3.77}
{'lipoC2': 8.06, 'temp': 25.31, 'lipoC3S3': 12.46, 'rot1': 357, 'rot0': 129, 'rot3': 0, 'rot2': 0, 'state': 'normal', 'yaw': 5.28, 'datetime': '2018-10-12 15:41:39.851512', 'mgs': 0, 'depth': -0.369, 'time': 12.28, 'pitch': -5.2, 'roll': -4.26}
{'lipoC2': 8.05, 'temp': 25.25, 'lipoC3S3': 12.42, 'rot1': 358, 'rot0': 131, 'rot3': 0, 'rot2': 0, 'state': 'normal', 'yaw': 5.66, 'datetime': '2018-10-12 15:41:39.945151', 'mgs': 0, 'depth': -0.446, 'time': 12.38, 'pitch': -5.41, 'roll': -3.93}
{'lipoC2': 8.05, 'temp': 25.25, 'lipoC3S3': 12.45, 'rot1': 359, 'rot0': 133, 'rot3': 0, 'rot2': 0, 'state': 'normal', 'yaw': 6.04, 'datetime': '2018-10-12 15:41:40.043757', 'mgs': 0, 'depth': -0.369, 'time': 12.48, 'pitch': -5.69, 'roll': -2.79}
{'lipoC2': 8.05, 'temp': 25.25, 'lipoC3S3': 12.47, 'rot1': 360, 'rot0': 135, 'rot3': 0, 'rot2': 0, 'state': 'normal', 'yaw': 6.41, 'datetime': '2018-10-12 15:41:40.140903', 'mgs': 0, 'depth': -0.522, 'time': 12.57, 'pitch': -5.83, 'roll': -1.73}
{'lipoC2': 8.05, 'temp': 25.25, 'lipoC3S3': 12.41, 'rot1': 362, 'rot0': 136, 'rot3': 0, 'rot2': 0, 'state': 'normal', 'yaw': 6.97, 'datetime': '2018-10-12 15:41:40.238303', 'mgs': 0, 'depth': -0.369, 'time': 12.67, 'pitch': -5.54, 'roll': -1.12}
{'lipoC2': 8.06, 'temp': 25.25, 'lipoC3S3': 12.46, 'rot1': 363, 'rot0': 138, 'rot3': 0, 'rot2': 0, 'state': 'normal', 'yaw': 7.48, 'datetime': '2018-10-12 15:41:40.336190', 'mgs': 0, 'depth': -0.369, 'time': 12.77, 'pitch': -5.36, 'roll': -1.63}
{'lipoC2': 8.05, 'temp': 25.31, 'lipoC3S3': 12.42, 'rot1': 364, 'rot0': 140, 'rot3': 0, 'rot2': 0, 'state': 'normal', 'yaw': 7.68, 'datetime': '2018-10-12 15:41:40.434799', 'mgs': 0, 'depth': -0.369, 'time': 12.87, 'pitch': -5.34, 'roll': -2.43}
{'lipoC2': 8.05, 'temp': 25.31, 'lipoC3S3': 12.47, 'rot1': 365, 'rot0': 142, 'rot3': 0, 'rot2': 0, 'state': 'normal', 'yaw': 7.44, 'datetime': '2018-10-12 15:41:40.532125', 'mgs': 0, 'depth': -0.369, 'time': 12.97, 'pitch': -5.27, 'roll': -2.36}
{'lipoC2': 8.05, 'temp': 25.31, 'lipoC3S3': 12.41, 'rot1': 366, 'rot0': 144, 'rot3': 0, 'rot2': 0, 'state': 'normal', 'yaw': 6.93, 'datetime': '2018-10-12 15:41:40.629474', 'mgs': 0, 'depth': -0.369, 'time': 13.06, 'pitch': -5.6, 'roll': -1.86}
{'lipoC2': 8.05, 'temp': 25.25, 'lipoC3S3': 12.43, 'rot1': 367, 'rot0': 145, 'rot3': 0, 'rot2': 0, 'state': 'normal', 'yaw': 6.41, 'datetime': '2018-10-12 15:41:40.726768', 'mgs': 0, 'depth': -0.369, 'time': 13.16, 'pitch': -6.15, 'roll': -1.49}
{'lipoC2': 8.05, 'temp': 25.25, 'lipoC3S3': 12.46, 'rot1': 368, 'rot0': 147, 'rot3': 0, 'rot2': 0, 'state': 'normal', 'yaw': 5.82, 'datetime': '2018-10-12 15:41:40.824202', 'mgs': 0, 'depth': 0.317, 'time': 13.26, 'pitch': -6.51, 'roll': -1.3}
{'lipoC2': 8.05, 'temp': 25.25, 'lipoC3S3': 12.47, 'rot1': 370, 'rot0': 148, 'rot3': 0, 'rot2': 0, 'state': 'normal', 'yaw': 5.21, 'datetime': '2018-10-12 15:41:40.921242', 'mgs': 0, 'depth': 0.089, 'time': 13.36, 'pitch': -6.4, 'roll': -1.34}
{'lipoC2': 8.05, 'temp': 25.25, 'lipoC3S3': 12.48, 'rot1': 373, 'rot0': 148, 'rot3': 0, 'rot2': 0, 'state': 'normal', 'yaw': 4.64, 'datetime': '2018-10-12 15:41:41.023607', 'mgs': 0, 'depth': -0.369, 'time': 13.45, 'pitch': -6.16, 'roll': -1.77}
{'lipoC2': 8.05, 'temp': 25.25, 'lipoC3S3': 12.48, 'rot1': 376, 'rot0': 148, 'rot3': 0, 'rot2': 0, 'state': 'normal', 'yaw': 4.2, 'datetime': '2018-10-12 15:41:41.120887', 'mgs': 0, 'depth': -0.369, 'time': 13.55, 'pitch': -6.01, 'roll': -2.26}
{'lipoC2': 8.05, 'temp': 25.25, 'lipoC3S3': 12.5, 'rot1': 376, 'rot0': 148, 'rot3': 0, 'rot2': 0, 'state': 'normal', 'yaw': 3.82, 'datetime': '2018-10-12 15:41:41.218159', 'mgs': 0, 'depth': -0.369, 'time': 13.65, 'pitch': -5.96, 'roll': -2.53}
{'lipoC2': 8.05, 'temp': 25.25, 'lipoC3S3': 12.48, 'rot1': 376, 'rot0': 148, 'rot3': 0, 'rot2': 0, 'state': 'normal', 'yaw': 3.58, 'datetime': '2018-10-12 15:41:41.315453', 'mgs': 0, 'depth': -0.293, 'time': 13.74, 'pitch': -5.86, 'roll': -2.28}
{'lipoC2': 8.05, 'temp': 25.25, 'lipoC3S3': 12.48, 'rot1': 376, 'rot0': 148, 'rot3': 0, 'rot2': 0, 'state': 'normal', 'yaw': 3.45, 'datetime': '2018-10-12 15:41:41.413217', 'mgs': 0, 'depth': -0.446, 'time': 13.84, 'pitch': -5.8, 'roll': -2.15}
{'lipoC2': 8.05, 'temp': 25.25, 'lipoC3S3': 12.5, 'rot1': 376, 'rot0': 148, 'rot3': 0, 'rot2': 0, 'state': 'normal', 'yaw': 3.28, 'datetime': '2018-10-12 15:41:41.512027', 'mgs': 0, 'depth': -0.446, 'time': 13.94, 'pitch': -5.62, 'roll': -2.13}
{'lipoC2': 8.05, 'temp': 25.25, 'lipoC3S3': 12.5, 'rot1': 376, 'rot0': 148, 'rot3': 0, 'rot2': 0, 'state': 'normal', 'yaw': 2.92, 'datetime': '2018-10-12 15:41:41.609432', 'mgs': 0, 'depth': -0.446, 'time': 14.04, 'pitch': -5.28, 'roll': -2.12}
{'lipoC2': 8.05, 'temp': 25.25, 'lipoC3S3': 12.48, 'rot1': 376, 'rot0': 148, 'rot3': 0, 'rot2': 0, 'state': 'normal', 'yaw': 2.36, 'datetime': '2018-10-12 15:41:41.706657', 'mgs': 0, 'depth': -0.369, 'time': 14.14, 'pitch': -5.05, 'roll': -2.4}
{'lipoC2': 8.05, 'temp': 25.25, 'lipoC3S3': 12.48, 'rot1': 376, 'rot0': 148, 'rot3': 0, 'rot2': 0, 'state': 'normal', 'yaw': 1.64, 'datetime': '2018-10-12 15:41:41.803924', 'mgs': 0, 'depth': -0.446, 'time': 14.23, 'pitch': -4.7, 'roll': -2.6}
{'lipoC2': 8.05, 'temp': 25.25, 'lipoC3S3': 12.48, 'rot1': 376, 'rot0': 148, 'rot3': 0, 'rot2': 0, 'state': 'normal', 'yaw': 1.09, 'datetime': '2018-10-12 15:41:41.902496', 'mgs': 0, 'depth': -0.369, 'time': 14.33, 'pitch': -3.89, 'roll': -2.29}
{'lipoC2': 8.05, 'temp': 25.25, 'lipoC3S3': 12.48, 'rot1': 376, 'rot0': 148, 'rot3': 0, 'rot2': 0, 'state': 'normal', 'yaw': 0.86, 'datetime': '2018-10-12 15:41:42.001085', 'mgs': 0, 'depth': -0.369, 'time': 14.43, 'pitch': -3.69, 'roll': -2.26}
{'lipoC2': 8.05, 'temp': 25.25, 'lipoC3S3': 12.48, 'rot1': 376, 'rot0': 148, 'rot3': 0, 'rot2': 0, 'state': 'normal', 'yaw': 0.9, 'datetime': '2018-10-12 15:41:42.098840', 'mgs': 0, 'depth': -0.446, 'time': 14.53, 'pitch': -3.58, 'roll': -2.47}
{'lipoC2': 8.05, 'temp': 25.25, 'lipoC3S3': 12.5, 'rot1': 376, 'rot0': 148, 'rot3': 0, 'rot2': 0, 'state': 'normal', 'yaw': 0.88, 'datetime': '2018-10-12 15:41:42.196499', 'mgs': 0, 'depth': -0.293, 'time': 14.63, 'pitch': -3.55, 'roll': -2.53}
{'lipoC2': 8.05, 'temp': 25.25, 'lipoC3S3': 12.48, 'rot1': 376, 'rot0': 148, 'rot3': 0, 'rot2': 0, 'state': 'normal', 'yaw': 0.83, 'datetime': '2018-10-12 15:41:42.294220', 'mgs': 0, 'depth': -0.369, 'time': 14.73, 'pitch': -3.54, 'roll': -2.39}
{'lipoC2': 8.05, 'temp': 25.31, 'lipoC3S3': 12.5, 'rot1': 376, 'rot0': 148, 'rot3': 0, 'rot2': 0, 'state': 'normal', 'yaw': 0.83, 'datetime': '2018-10-12 15:41:42.392673', 'mgs': 0, 'depth': -0.369, 'time': 14.82, 'pitch': -3.56, 'roll': -2.51}
{'lipoC2': 8.05, 'temp': 25.31, 'lipoC3S3': 12.48, 'rot1': 376, 'rot0': 148, 'rot3': 0, 'rot2': 0, 'state': 'normal', 'yaw': 0.83, 'datetime': '2018-10-12 15:41:42.491179', 'mgs': 0, 'depth': -0.446, 'time': 14.92, 'pitch': -3.59, 'roll': -2.54}
{'lipoC2': 8.05, 'temp': 25.31, 'lipoC3S3': 12.5, 'rot1': 376, 'rot0': 148, 'rot3': 0, 'rot2': 0, 'state': 'normal', 'yaw': 0.83, 'datetime': '2018-10-12 15:41:42.588476', 'mgs': 0, 'depth': -0.446, 'time': 15.02, 'pitch': -3.61, 'roll': -2.52}
{'lipoC2': 8.05, 'temp': 25.25, 'lipoC3S3': 12.48, 'rot1': 376, 'rot0': 148, 'rot3': 0, 'rot2': 0, 'state': 'normal', 'yaw': 0.83, 'datetime': '2018-10-12 15:41:42.685676', 'mgs': 0, 'depth': -0.369, 'time': 15.12, 'pitch': -3.62, 'roll': -2.49}
{'lipoC2': 8.05, 'temp': 25.25, 'lipoC3S3': 12.5, 'rot1': 376, 'rot0': 148, 'rot3': 0, 'rot2': 0, 'state': 'normal', 'yaw': 0.83, 'datetime': '2018-10-12 15:41:42.784224', 'mgs': 0, 'depth': -0.446, 'time': 15.22, 'pitch': -3.6, 'roll': -2.51}
{'lipoC2': 8.05, 'temp': 25.25, 'lipoC3S3': 12.48, 'rot1': 376, 'rot0': 148, 'rot3': 0, 'rot2': 0, 'state': 'normal', 'yaw': 0.83, 'datetime': '2018-10-12 15:41:42.882834', 'mgs': 0, 'depth': -0.446, 'time': 15.31, 'pitch': -3.61, 'roll': -2.49}
{'lipoC2': 8.05, 'temp': 25.25, 'lipoC3S3': 12.48, 'rot1': 376, 'rot0': 148, 'rot3': 0, 'rot2': 0, 'state': 'normal', 'yaw': 0.83, 'datetime': '2018-10-12 15:41:42.981473', 'mgs': 0, 'depth': -0.369, 'time': 15.41, 'pitch': -3.6, 'roll': -2.49}
