{'lipoC2': 8.06, 'temp': 25.13, 'lipoC3S3': 12.5, 'rot1': 0, 'rot0': 0, 'rot3': 0, 'rot2': 0, 'state': 'normal', 'yaw': -0.0, 'datetime': '2018-10-12 15:40:39.061666', 'mgs': 0, 'depth': -0.293, 'time': 1.36, 'pitch': -3.42, 'roll': -2.76}
{'lipoC2': 8.06, 'temp': 25.19, 'lipoC3S3': 12.5, 'rot1': 0, 'rot0': 0, 'rot3': 0, 'rot2': 0, 'state': 'normal', 'yaw': -0.01, 'datetime': '2018-10-12 15:40:39.078406', 'mgs': 0, 'depth': -0.293, 'time': 1.46, 'pitch': -3.41, 'roll': -2.83}
{'lipoC2': 8.06, 'temp': 25.19, 'lipoC3S3': 12.5, 'rot1': 0, 'rot0': 0, 'rot3': 0, 'rot2': 0, 'state': 'normal', 'yaw': -0.0, 'datetime': '2018-10-12 15:40:39.095070', 'mgs': 0, 'depth': -0.369, 'time': 1.55, 'pitch': -3.43, 'roll': -2.73}
{'lipoC2': 8.06, 'temp': 25.19, 'lipoC3S3': 12.5, 'rot1': 0, 'rot0': 0, 'rot3': 0, 'rot2': 0, 'state': 'normal', 'yaw': -0.01, 'datetime': '2018-10-12 15:40:39.111748', 'mgs': 0, 'depth': -0.293, 'time': 1.65, 'pitch': -3.4, 'roll': -2.81}
{'lipoC2': 8.06, 'temp': 25.13, 'lipoC3S3': 12.5, 'rot1': 0, 'rot0': 0, 'rot3': 0, 'rot2': 0, 'state': 'normal', 'yaw': -0.01, 'datetime': '2018-10-12 15:40:39.128496', 'mgs': 0, 'depth': -0.293, 'time': 1.75, 'pitch': -3.42, 'roll': -2.74}
{'lipoC2': 8.06, 'temp': 25.13, 'lipoC3S3': 12.5, 'rot1': 0, 'rot0': 0, 'rot3': 0, 'rot2': 0, 'state': 'normal', 'yaw': -0.01, 'datetime': '2018-10-12 15:40:39.145181', 'mgs': 0, 'depth': -0.293, 'time': 1.85, 'pitch': -3.41, 'roll': -2.75}
{'lipoC2': 8.06, 'temp': 25.13, 'lipoC3S3': 12.5, 'rot1': 0, 'rot0': 0, 'rot3': 0, 'rot2': 0, 'state': 'normal', 'yaw': -0.01, 'datetime': '2018-10-12 15:40:39.161910', 'mgs': 0, 'depth': -0.293, 'time': 1.95, 'pitch': -3.41, 'roll': -2.77}
{'lipoC2': 8.06, 'temp': 25.13, 'lipoC3S3': 12.5, 'rot1': 0, 'rot0': 0, 'rot3': 0, 'rot2': 0, 'state': 'normal', 'yaw': -0.01, 'datetime': '2018-10-12 15:40:39.169279', 'mgs': 0, 'depth': -0.369, 'time': 2.04, 'pitch': -3.41, 'roll': -2.72}
{'lipoC2': 8.06, 'temp': 25.13, 'lipoC3S3': 12.51, 'rot1': 0, 'rot0': 0, 'rot3': 0, 'rot2': 0, 'state': 'normal', 'yaw': -0.01, 'datetime': '2018-10-12 15:40:39.176509', 'mgs': 0, 'depth': -0.293, 'time': 2.14, 'pitch': -3.4, 'roll': -2.78}
{'lipoC2': 8.06, 'temp': 25.13, 'lipoC3S3': 12.5, 'rot1': 0, 'rot0': 0, 'rot3': 0, 'rot2': 0, 'state': 'normal', 'yaw': -0.01, 'datetime': '2018-10-12 15:40:39.183751', 'mgs': 0, 'depth': -0.369, 'time': 2.24, 'pitch': -3.41, 'roll': -2.72}
{'lipoC2': 8.06, 'temp': 25.13, 'lipoC3S3': 12.51, 'rot1': 0, 'rot0': 0, 'rot3': 0, 'rot2': 0, 'state': 'normal', 'yaw': -0.01, 'datetime': '2018-10-12 15:40:39.190966', 'mgs': 0, 'depth': -0.369, 'time': 2.34, 'pitch': -3.41, 'roll': -2.78}
{'lipoC2': 8.05, 'temp': 25.19, 'lipoC3S3': 12.5, 'rot1': 0, 'rot0': 0, 'rot3': 0, 'rot2': 0, 'state': 'normal', 'yaw': -0.01, 'datetime': '2018-10-12 15:40:39.198198', 'mgs': 0, 'depth': -0.293, 'time': 2.43, 'pitch': -3.4, 'roll': -2.72}
{'lipoC2': 8.06, 'temp': 25.19, 'lipoC3S3': 12.5, 'rot1': 0, 'rot0': 0, 'rot3': 0, 'rot2': 0, 'state': 'normal', 'yaw': -0.01, 'datetime': '2018-10-12 15:40:39.205435', 'mgs': 0, 'depth': -0.293, 'time': 2.53, 'pitch': -3.41, 'roll': -2.77}
{'lipoC2': 8.06, 'temp': 25.19, 'lipoC3S3': 12.51, 'rot1': 0, 'rot0': 0, 'rot3': 0, 'rot2': 0, 'state': 'normal', 'yaw': -0.01, 'datetime': '2018-10-12 15:40:39.273085', 'mgs': 0, 'depth': -0.293, 'time': 2.63, 'pitch': -3.39, 'roll': -2.75}
{'lipoC2': 8.06, 'temp': 25.19, 'lipoC3S3': 12.5, 'rot1': 0, 'rot0': 0, 'rot3': 0, 'rot2': 0, 'state': 'normal', 'yaw': -0.01, 'datetime': '2018-10-12 15:40:39.370126', 'mgs': 0, 'depth': -0.293, 'time': 2.73, 'pitch': -3.41, 'roll': -2.74}
{'lipoC2': 8.06, 'temp': 25.19, 'lipoC3S3': 12.5, 'rot1': 0, 'rot0': 0, 'rot3': 0, 'rot2': 0, 'state': 'normal', 'yaw': -0.01, 'datetime': '2018-10-12 15:40:39.467229', 'mgs': 0, 'depth': -0.293, 'time': 2.83, 'pitch': -3.38, 'roll': -2.75}
{'lipoC2': 8.06, 'temp': 25.13, 'lipoC3S3': 12.5, 'rot1': 0, 'rot0': 0, 'rot3': 0, 'rot2': 0, 'state': 'normal', 'yaw': -0.01, 'datetime': '2018-10-12 15:40:39.564337', 'mgs': 0, 'depth': -0.293, 'time': 2.92, 'pitch': -3.39, 'roll': -2.73}
{'lipoC2': 8.06, 'temp': 25.13, 'lipoC3S3': 12.5, 'rot1': 0, 'rot0': 0, 'rot3': 0, 'rot2': 0, 'state': 'normal', 'yaw': -0.01, 'datetime': '2018-10-12 15:40:39.661408', 'mgs': 0, 'depth': -0.293, 'time': 3.02, 'pitch': -3.37, 'roll': -2.75}
{'lipoC2': 8.06, 'temp': 25.13, 'lipoC3S3': 12.5, 'rot1': 0, 'rot0': 0, 'rot3': 0, 'rot2': 0, 'state': 'normal', 'yaw': -0.01, 'datetime': '2018-10-12 15:40:39.758509', 'mgs': 0, 'depth': -0.369, 'time': 3.12, 'pitch': -3.38, 'roll': -2.7}
{'lipoC2': 8.06, 'temp': 25.13, 'lipoC3S3': 12.5, 'rot1': 0, 'rot0': 0, 'rot3': 0, 'rot2': 0, 'state': 'normal', 'yaw': -0.01, 'datetime': '2018-10-12 15:40:39.856981', 'mgs': 0, 'depth': -0.369, 'time': 3.21, 'pitch': -3.37, 'roll': -2.72}
{'lipoC2': 8.06, 'temp': 25.13, 'lipoC3S3': 12.5, 'rot1': 0, 'rot0': 0, 'rot3': 0, 'rot2': 0, 'state': 'normal', 'yaw': -0.01, 'datetime': '2018-10-12 15:40:39.955887', 'mgs': 0, 'depth': -0.369, 'time': 3.31, 'pitch': -3.38, 'roll': -2.69}
{'lipoC2': 8.06, 'temp': 25.13, 'lipoC3S3': 12.51, 'rot1': 0, 'rot0': 0, 'rot3': 0, 'rot2': 0, 'state': 'normal', 'yaw': -0.01, 'datetime': '2018-10-12 15:40:40.053181', 'mgs': 0, 'depth': -0.369, 'time': 3.41, 'pitch': -3.38, 'roll': -2.71}
{'lipoC2': 8.06, 'temp': 25.13, 'lipoC3S3': 12.5, 'rot1': 0, 'rot0': 0, 'rot3': 0, 'rot2': 0, 'state': 'normal', 'yaw': -0.01, 'datetime': '2018-10-12 15:40:40.150285', 'mgs': 0, 'depth': -0.293, 'time': 3.51, 'pitch': -3.38, 'roll': -2.69}
{'lipoC2': 8.06, 'temp': 25.13, 'lipoC3S3': 12.5, 'rot1': 0, 'rot0': 0, 'rot3': 0, 'rot2': 0, 'state': 'normal', 'yaw': -0.01, 'datetime': '2018-10-12 15:40:40.248278', 'mgs': 0, 'depth': -0.369, 'time': 3.61, 'pitch': -3.38, 'roll': -2.69}
{'lipoC2': 8.06, 'temp': 25.13, 'lipoC3S3': 12.5, 'rot1': 0, 'rot0': 0, 'rot3': 0, 'rot2': 0, 'state': 'normal', 'yaw': -0.01, 'datetime': '2018-10-12 15:40:40.346581', 'mgs': 0, 'depth': -0.369, 'time': 3.7, 'pitch': -3.38, 'roll': -2.69}
{'lipoC2': 8.06, 'temp': 25.13, 'lipoC3S3': 12.5, 'rot1': 0, 'rot0': 0, 'rot3': 0, 'rot2': 0, 'state': 'normal', 'yaw': -0.01, 'datetime': '2018-10-12 15:40:40.444053', 'mgs': 0, 'depth': -0.293, 'time': 3.8, 'pitch': -3.38, 'roll': -2.7}
{'lipoC2': 8.06, 'temp': 25.19, 'lipoC3S3': 12.5, 'rot1': 0, 'rot0': 0, 'rot3': 0, 'rot2': 0, 'state': 'normal', 'yaw': -0.01, 'datetime': '2018-10-12 15:40:40.541117', 'mgs': 0, 'depth': -0.293, 'time': 3.9, 'pitch': -3.38, 'roll': -2.7}
{'lipoC2': 8.06, 'temp': 25.19, 'lipoC3S3': 12.5, 'rot1': 0, 'rot0': 0, 'rot3': 0, 'rot2': 0, 'state': 'normal', 'yaw': -0.01, 'datetime': '2018-10-12 15:40:40.638795', 'mgs': 0, 'depth': -0.293, 'time': 4.0, 'pitch': -3.38, 'roll': -2.7}
{'lipoC2': 8.06, 'temp': 25.19, 'lipoC3S3': 12.51, 'rot1': 0, 'rot0': 0, 'rot3': 0, 'rot2': 0, 'state': 'normal', 'yaw': -0.01, 'datetime': '2018-10-12 15:40:40.737178', 'mgs': 0, 'depth': -0.369, 'time': 4.1, 'pitch': -3.38, 'roll': -2.7}
{'lipoC2': 8.06, 'temp': 25.13, 'lipoC3S3': 12.5, 'rot1': 0, 'rot0': 0, 'rot3': 0, 'rot2': 0, 'state': 'normal', 'yaw': -0.01, 'datetime': '2018-10-12 15:40:40.834719', 'mgs': 0, 'depth': -0.369, 'time': 4.19, 'pitch': -3.39, 'roll': -2.69}
{'lipoC2': 8.06, 'temp': 25.13, 'lipoC3S3': 12.5, 'rot1': 0, 'rot0': 0, 'rot3': 0, 'rot2': 0, 'state': 'normal', 'yaw': -0.01, 'datetime': '2018-10-12 15:40:40.931745', 'mgs': 0, 'depth': -0.293, 'time': 4.29, 'pitch': -3.42, 'roll': -2.64}
{'lipoC2': 8.06, 'temp': 25.19, 'lipoC3S3': 12.5, 'rot1': 0, 'rot0': 0, 'rot3': 0, 'rot2': 0, 'state': 'normal', 'yaw': -0.01, 'datetime': '2018-10-12 15:40:41.029420', 'mgs': 0, 'depth': -0.217, 'time': 4.39, 'pitch': -3.42, 'roll': -2.66}
{'lipoC2': 8.06, 'temp': 25.19, 'lipoC3S3': 12.5, 'rot1': 0, 'rot0': 0, 'rot3': 0, 'rot2': 0, 'state': 'normal', 'yaw': -0.01, 'datetime': '2018-10-12 15:40:41.127843', 'mgs': 0, 'depth': -0.293, 'time': 4.49, 'pitch': -3.42, 'roll': -2.63}
{'lipoC2': 8.06, 'temp': 25.19, 'lipoC3S3': 12.5, 'rot1': 0, 'rot0': 0, 'rot3': 0, 'rot2': 0, 'state': 'normal', 'yaw': -0.01, 'datetime': '2018-10-12 15:40:41.226047', 'mgs': 0, 'depth': -0.369, 'time': 4.59, 'pitch': -3.42, 'roll': -2.63}
{'lipoC2': 8.05, 'temp': 25.19, 'lipoC3S3': 12.5, 'rot1': 0, 'rot0': 0, 'rot3': 0, 'rot2': 0, 'state': 'normal', 'yaw': -0.01, 'datetime': '2018-10-12 15:40:41.323125', 'mgs': 0, 'depth': -0.293, 'time': 4.68, 'pitch': -3.42, 'roll': -2.63}
{'lipoC2': 8.06, 'temp': 25.19, 'lipoC3S3': 12.51, 'rot1': 0, 'rot0': 0, 'rot3': 0, 'rot2': 0, 'state': 'normal', 'yaw': -0.01, 'datetime': '2018-10-12 15:40:41.420395', 'mgs': 0, 'depth': -0.293, 'time': 4.78, 'pitch': -3.43, 'roll': -2.62}
{'lipoC2': 8.06, 'temp': 25.13, 'lipoC3S3': 12.5, 'rot1': 0, 'rot0': 0, 'rot3': 0, 'rot2': 0, 'state': 'normal', 'yaw': -0.01, 'datetime': '2018-10-12 15:40:41.517639', 'mgs': 0, 'depth': -0.293, 'time': 4.88, 'pitch': -3.43, 'roll': -2.62}
{'lipoC2': 8.06, 'temp': 25.13, 'lipoC3S3': 12.5, 'rot1': 0, 'rot0': 0, 'rot3': 0, 'rot2': 0, 'state': 'normal', 'yaw': -0.01, 'datetime': '2018-10-12 15:40:41.614696', 'mgs': 0, 'depth': -0.369, 'time': 4.97, 'pitch': -3.43, 'roll': -2.62}
{'lipoC2': 8.06, 'temp': 25.13, 'lipoC3S3': 12.5, 'rot1': 0, 'rot0': 0, 'rot3': 0, 'rot2': 0, 'state': 'normal', 'yaw': -0.01, 'datetime': '2018-10-12 15:40:41.711779', 'mgs': 0, 'depth': -0.293, 'time': 5.07, 'pitch': -3.43, 'roll': -2.62}
{'lipoC2': 8.06, 'temp': 25.13, 'lipoC3S3': 12.5, 'rot1': 0, 'rot0': 0, 'rot3': 0, 'rot2': 0, 'state': 'normal', 'yaw': -0.01, 'datetime': '2018-10-12 15:40:41.810262', 'mgs': 0, 'depth': -0.217, 'time': 5.17, 'pitch': -3.43, 'roll': -2.62}
{'lipoC2': 8.06, 'temp': 25.13, 'lipoC3S3': 12.5, 'rot1': 0, 'rot0': 0, 'rot3': 0, 'rot2': 0, 'state': 'normal', 'yaw': -0.01, 'datetime': '2018-10-12 15:40:41.908617', 'mgs': 0, 'depth': -0.293, 'time': 5.27, 'pitch': -3.43, 'roll': -2.62}
{'lipoC2': 8.06, 'temp': 25.19, 'lipoC3S3': 12.51, 'rot1': 0, 'rot0': 0, 'rot3': 0, 'rot2': 0, 'state': 'normal', 'yaw': -0.01, 'datetime': '2018-10-12 15:40:42.005706', 'mgs': 0, 'depth': -0.369, 'time': 5.36, 'pitch': -3.43, 'roll': -2.62}
{'lipoC2': 8.06, 'temp': 25.19, 'lipoC3S3': 12.5, 'rot1': 0, 'rot0': 0, 'rot3': 0, 'rot2': 0, 'state': 'normal', 'yaw': -0.01, 'datetime': '2018-10-12 15:40:42.102787', 'mgs': 0, 'depth': -0.369, 'time': 5.46, 'pitch': -3.43, 'roll': -2.62}
{'lipoC2': 8.06, 'temp': 25.19, 'lipoC3S3': 12.5, 'rot1': 0, 'rot0': 0, 'rot3': 0, 'rot2': 0, 'state': 'normal', 'yaw': -0.01, 'datetime': '2018-10-12 15:40:42.200732', 'mgs': 0, 'depth': -0.369, 'time': 5.56, 'pitch': -3.43, 'roll': -2.62}
{'lipoC2': 8.05, 'temp': 25.13, 'lipoC3S3': 12.5, 'rot1': 0, 'rot0': 0, 'rot3': 0, 'rot2': 0, 'state': 'normal', 'yaw': -0.01, 'datetime': '2018-10-12 15:40:42.299128', 'mgs': 0, 'depth': -0.293, 'time': 5.66, 'pitch': -3.43, 'roll': -2.62}
{'lipoC2': 8.06, 'temp': 25.13, 'lipoC3S3': 12.5, 'rot1': 0, 'rot0': 0, 'rot3': 0, 'rot2': 0, 'state': 'normal', 'yaw': -0.01, 'datetime': '2018-10-12 15:40:42.396783', 'mgs': 1, 'depth': -0.369, 'time': 5.76, 'pitch': -3.43, 'roll': -2.62}
{'lipoC2': 8.06, 'temp': 25.19, 'lipoC3S3': 12.5, 'rot1': 0, 'rot0': 0, 'rot3': 0, 'rot2': 0, 'state': 'normal', 'yaw': 0.0, 'datetime': '2018-10-12 15:40:46.920034', 'mgs': 0, 'depth': -0.293, 'time': 1.26, 'pitch': -3.42, 'roll': -2.59}
{'lipoC2': 8.06, 'temp': 25.19, 'lipoC3S3': 12.5, 'rot1': 0, 'rot0': 0, 'rot3': 0, 'rot2': 0, 'state': 'normal', 'yaw': 0.0, 'datetime': '2018-10-12 15:40:46.937724', 'mgs': 0, 'depth': -0.293, 'time': 1.36, 'pitch': -3.42, 'roll': -2.59}
{'lipoC2': 8.05, 'temp': 25.19, 'lipoC3S3': 12.5, 'rot1': 0, 'rot0': 0, 'rot3': 0, 'rot2': 0, 'state': 'normal', 'yaw': 0.0, 'datetime': '2018-10-12 15:40:46.962736', 'mgs': 0, 'depth': -0.293, 'time': 1.46, 'pitch': -3.42, 'roll': -2.59}
{'lipoC2': 8.06, 'temp': 25.19, 'lipoC3S3': 12.51, 'rot1': 0, 'rot0': 0, 'rot3': 0, 'rot2': 0, 'state': 'normal', 'yaw': 0.0, 'datetime': '2018-10-12 15:40:46.971823', 'mgs': 0, 'depth': -0.293, 'time': 1.55, 'pitch': -3.42, 'roll': -2.59}
{'lipoC2': 8.06, 'temp': 25.19, 'lipoC3S3': 12.5, 'rot1': 0, 'rot0': 0, 'rot3': 0, 'rot2': 0, 'state': 'normal', 'yaw': 0.0, 'datetime': '2018-10-12 15:40:46.986498', 'mgs': 0, 'depth': -0.293, 'time': 1.65, 'pitch': -3.42, 'roll': -2.59}
{'lipoC2': 8.06, 'temp': 25.13, 'lipoC3S3': 12.5, 'rot1': 0, 'rot0': 0, 'rot3': 0, 'rot2': 0, 'state': 'normal', 'yaw': 0.0, 'datetime': '2018-10-12 15:40:46.996504', 'mgs': 0, 'depth': -0.293, 'time': 1.75, 'pitch': -3.42, 'roll': -2.59}
{'lipoC2': 8.06, 'temp': 25.13, 'lipoC3S3': 12.51, 'rot1': 0, 'rot0': 0, 'rot3': 0, 'rot2': 0, 'state': 'normal', 'yaw': 0.0, 'datetime': '2018-10-12 15:40:47.015009', 'mgs': 0, 'depth': -0.293, 'time': 1.85, 'pitch': -3.42, 'roll': -2.59}
{'lipoC2': 8.06, 'temp': 25.13, 'lipoC3S3': 12.5, 'rot1': 0, 'rot0': 0, 'rot3': 0, 'rot2': 0, 'state': 'normal', 'yaw': 0.0, 'datetime': '2018-10-12 15:40:47.022533', 'mgs': 0, 'depth': -0.293, 'time': 1.94, 'pitch': -3.42, 'roll': -2.59}
{'lipoC2': 8.06, 'temp': 25.13, 'lipoC3S3': 12.5, 'rot1': 0, 'rot0': 0, 'rot3': 0, 'rot2': 0, 'state': 'normal', 'yaw': 0.0, 'datetime': '2018-10-12 15:40:47.034456', 'mgs': 0, 'depth': -0.369, 'time': 2.04, 'pitch': -3.42, 'roll': -2.59}
{'lipoC2': 8.06, 'temp': 25.13, 'lipoC3S3': 12.5, 'rot1': 0, 'rot0': 0, 'rot3': 0, 'rot2': 0, 'state': 'normal', 'yaw': 0.0, 'datetime': '2018-10-12 15:40:47.042084', 'mgs': 0, 'depth': -0.293, 'time': 2.14, 'pitch': -3.42, 'roll': -2.59}
{'lipoC2': 8.06, 'temp': 25.19, 'lipoC3S3': 12.5, 'rot1': 0, 'rot0': 0, 'rot3': 0, 'rot2': 0, 'state': 'normal', 'yaw': 0.0, 'datetime': '2018-10-12 15:40:47.054267', 'mgs': 0, 'depth': -0.293, 'time': 2.23, 'pitch': -3.42, 'roll': -2.59}
{'lipoC2': 8.06, 'temp': 25.19, 'lipoC3S3': 12.5, 'rot1': 0, 'rot0': 0, 'rot3': 0, 'rot2': 0, 'state': 'normal', 'yaw': 0.0, 'datetime': '2018-10-12 15:40:47.061827', 'mgs': 0, 'depth': -0.293, 'time': 2.33, 'pitch': -3.42, 'roll': -2.59}
{'lipoC2': 8.06, 'temp': 25.19, 'lipoC3S3': 12.51, 'rot1': 0, 'rot0': 0, 'rot3': 0, 'rot2': 0, 'state': 'normal', 'yaw': 0.0, 'datetime': '2018-10-12 15:40:47.073819', 'mgs': 0, 'depth': -0.293, 'time': 2.43, 'pitch': -3.42, 'roll': -2.59}
{'lipoC2': 8.05, 'temp': 25.19, 'lipoC3S3': 12.5, 'rot1': 0, 'rot0': 0, 'rot3': 0, 'rot2': 0, 'state': 'normal', 'yaw': 0.0, 'datetime': '2018-10-12 15:40:47.081482', 'mgs': 0, 'depth': -0.293, 'time': 2.53, 'pitch': -3.42, 'roll': -2.59}
{'lipoC2': 8.06, 'temp': 25.19, 'lipoC3S3': 12.5, 'rot1': 0, 'rot0': 0, 'rot3': 0, 'rot2': 0, 'state': 'normal', 'yaw': 0.0, 'datetime': '2018-10-12 15:40:47.093224', 'mgs': 0, 'depth': -0.293, 'time': 2.62, 'pitch': -3.42, 'roll': -2.59}
{'lipoC2': 8.06, 'temp': 25.19, 'lipoC3S3': 12.51, 'rot1': 0, 'rot0': 0, 'rot3': 0, 'rot2': 0, 'state': 'normal', 'yaw': 0.0, 'datetime': '2018-10-12 15:40:47.100449', 'mgs': 0, 'depth': -0.293, 'time': 2.72, 'pitch': -3.42, 'roll': -2.59}
{'lipoC2': 8.06, 'temp': 25.19, 'lipoC3S3': 12.51, 'rot1': 0, 'rot0': 0, 'rot3': 0, 'rot2': 0, 'state': 'normal', 'yaw': 0.0, 'datetime': '2018-10-12 15:40:47.112159', 'mgs': 0, 'depth': -0.293, 'time': 2.82, 'pitch': -3.42, 'roll': -2.59}
{'lipoC2': 8.06, 'temp': 25.19, 'lipoC3S3': 12.5, 'rot1': 0, 'rot0': 0, 'rot3': 0, 'rot2': 0, 'state': 'normal', 'yaw': 0.0, 'datetime': '2018-10-12 15:40:47.119362', 'mgs': 0, 'depth': -0.369, 'time': 2.92, 'pitch': -3.42, 'roll': -2.59}
{'lipoC2': 8.06, 'temp': 25.19, 'lipoC3S3': 12.5, 'rot1': 0, 'rot0': 0, 'rot3': 0, 'rot2': 0, 'state': 'normal', 'yaw': 0.0, 'datetime': '2018-10-12 15:40:47.131094', 'mgs': 0, 'depth': -0.293, 'time': 3.01, 'pitch': -3.42, 'roll': -2.59}
{'lipoC2': 8.05, 'temp': 25.19, 'lipoC3S3': 12.51, 'rot1': 0, 'rot0': 0, 'rot3': 0, 'rot2': 0, 'state': 'normal', 'yaw': 0.0, 'datetime': '2018-10-12 15:40:47.138321', 'mgs': 0, 'depth': -0.293, 'time': 3.11, 'pitch': -3.42, 'roll': -2.59}
{'lipoC2': 8.06, 'temp': 25.19, 'lipoC3S3': 12.51, 'rot1': 0, 'rot0': 0, 'rot3': 0, 'rot2': 0, 'state': 'normal', 'yaw': 0.0, 'datetime': '2018-10-12 15:40:47.150052', 'mgs': 0, 'depth': -0.293, 'time': 3.21, 'pitch': -3.42, 'roll': -2.59}
{'lipoC2': 8.06, 'temp': 25.19, 'lipoC3S3': 12.51, 'rot1': 0, 'rot0': 0, 'rot3': 0, 'rot2': 0, 'state': 'normal', 'yaw': 0.0, 'datetime': '2018-10-12 15:40:47.157262', 'mgs': 0, 'depth': -0.293, 'time': 3.31, 'pitch': -3.42, 'roll': -2.59}
{'lipoC2': 8.06, 'temp': 25.19, 'lipoC3S3': 12.5, 'rot1': 0, 'rot0': 0, 'rot3': 0, 'rot2': 0, 'state': 'normal', 'yaw': 0.0, 'datetime': '2018-10-12 15:40:47.169082', 'mgs': 0, 'depth': -0.369, 'time': 3.4, 'pitch': -3.42, 'roll': -2.59}
{'lipoC2': 8.06, 'temp': 25.19, 'lipoC3S3': 12.5, 'rot1': 0, 'rot0': 0, 'rot3': 0, 'rot2': 0, 'state': 'normal', 'yaw': 0.0, 'datetime': '2018-10-12 15:40:47.176370', 'mgs': 0, 'depth': -0.369, 'time': 3.5, 'pitch': -3.42, 'roll': -2.59}
{'lipoC2': 8.06, 'temp': 25.19, 'lipoC3S3': 12.5, 'rot1': 0, 'rot0': 0, 'rot3': 0, 'rot2': 0, 'state': 'normal', 'yaw': 0.0, 'datetime': '2018-10-12 15:40:47.188056', 'mgs': 0, 'depth': -0.293, 'time': 3.6, 'pitch': -3.42, 'roll': -2.59}
{'lipoC2': 8.06, 'temp': 25.19, 'lipoC3S3': 12.5, 'rot1': 0, 'rot0': 0, 'rot3': 0, 'rot2': 0, 'state': 'normal', 'yaw': 0.0, 'datetime': '2018-10-12 15:40:47.195240', 'mgs': 0, 'depth': -0.369, 'time': 3.7, 'pitch': -3.42, 'roll': -2.59}
{'lipoC2': 8.05, 'temp': 25.19, 'lipoC3S3': 12.5, 'rot1': 0, 'rot0': 0, 'rot3': 0, 'rot2': 0, 'state': 'normal', 'yaw': 0.0, 'datetime': '2018-10-12 15:40:47.206919', 'mgs': 0, 'depth': -0.293, 'time': 3.79, 'pitch': -3.42, 'roll': -2.59}
{'lipoC2': 8.06, 'temp': 25.19, 'lipoC3S3': 12.51, 'rot1': 0, 'rot0': 0, 'rot3': 0, 'rot2': 0, 'state': 'normal', 'yaw': 0.0, 'datetime': '2018-10-12 15:40:47.214137', 'mgs': 0, 'depth': -0.293, 'time': 3.89, 'pitch': -3.42, 'roll': -2.59}
{'lipoC2': 8.06, 'temp': 25.19, 'lipoC3S3': 12.51, 'rot1': 0, 'rot0': 0, 'rot3': 0, 'rot2': 0, 'state': 'normal', 'yaw': 0.0, 'datetime': '2018-10-12 15:40:47.225847', 'mgs': 0, 'depth': -0.293, 'time': 3.99, 'pitch': -3.42, 'roll': -2.59}
{'lipoC2': 8.05, 'temp': 25.19, 'lipoC3S3': 12.5, 'rot1': 0, 'rot0': 0, 'rot3': 0, 'rot2': 0, 'state': 'normal', 'yaw': 0.0, 'datetime': '2018-10-12 15:40:47.233075', 'mgs': 0, 'depth': -0.293, 'time': 4.09, 'pitch': -3.42, 'roll': -2.59}
{'lipoC2': 8.06, 'temp': 25.19, 'lipoC3S3': 12.51, 'rot1': 0, 'rot0': 0, 'rot3': 0, 'rot2': 0, 'state': 'normal', 'yaw': 0.0, 'datetime': '2018-10-12 15:40:47.244801', 'mgs': 0, 'depth': -0.293, 'time': 4.18, 'pitch': -3.42, 'roll': -2.59}
{'lipoC2': 8.06, 'temp': 25.19, 'lipoC3S3': 12.5, 'rot1': 0, 'rot0': 0, 'rot3': 0, 'rot2': 0, 'state': 'normal', 'yaw': 0.0, 'datetime': '2018-10-12 15:40:47.252037', 'mgs': 0, 'depth': -0.369, 'time': 4.28, 'pitch': -3.42, 'roll': -2.59}
{'lipoC2': 8.05, 'temp': 25.19, 'lipoC3S3': 12.5, 'rot1': 0, 'rot0': 0, 'rot3': 0, 'rot2': 0, 'state': 'normal', 'yaw': 0.0, 'datetime': '2018-10-12 15:40:47.263774', 'mgs': 0, 'depth': -0.293, 'time': 4.38, 'pitch': -3.42, 'roll': -2.59}
{'lipoC2': 8.06, 'temp': 25.19, 'lipoC3S3': 12.5, 'rot1': 0, 'rot0': 0, 'rot3': 0, 'rot2': 0, 'state': 'normal', 'yaw': 0.0, 'datetime': '2018-10-12 15:40:47.271010', 'mgs': 0, 'depth': -0.369, 'time': 4.47, 'pitch': -3.42, 'roll': -2.59}
{'lipoC2': 8.05, 'temp': 25.19, 'lipoC3S3': 12.51, 'rot1': 0, 'rot0': 0, 'rot3': 0, 'rot2': 0, 'state': 'normal', 'yaw': 0.0, 'datetime': '2018-10-12 15:40:47.282741', 'mgs': 0, 'depth': -0.293, 'time': 4.57, 'pitch': -3.42, 'roll': -2.59}
{'lipoC2': 8.06, 'temp': 25.19, 'lipoC3S3': 12.52, 'rot1': 0, 'rot0': 0, 'rot3': 0, 'rot2': 0, 'state': 'normal', 'yaw': -0.0, 'datetime': '2018-10-12 15:40:47.289965', 'mgs': 0, 'depth': -0.369, 'time': 4.67, 'pitch': -3.43, 'roll': -2.58}
{'lipoC2': 8.06, 'temp': 25.19, 'lipoC3S3': 12.51, 'rot1': 0, 'rot0': 0, 'rot3': 0, 'rot2': 0, 'state': 'normal', 'yaw': -0.0, 'datetime': '2018-10-12 15:40:47.301717', 'mgs': 0, 'depth': -0.293, 'time': 4.77, 'pitch': -3.43, 'roll': -2.58}
{'lipoC2': 8.06, 'temp': 25.13, 'lipoC3S3': 12.51, 'rot1': 0, 'rot0': 0, 'rot3': 0, 'rot2': 0, 'state': 'normal', 'yaw': -0.0, 'datetime': '2018-10-12 15:40:47.358664', 'mgs': 0, 'depth': -0.293, 'time': 4.86, 'pitch': -3.42, 'roll': -2.56}
{'lipoC2': 8.05, 'temp': 25.13, 'lipoC3S3': 12.5, 'rot1': 0, 'rot0': 0, 'rot3': 0, 'rot2': 0, 'state': 'normal', 'yaw': -0.0, 'datetime': '2018-10-12 15:40:47.456772', 'mgs': 0, 'depth': -0.293, 'time': 4.96, 'pitch': -3.43, 'roll': -2.57}
{'lipoC2': 8.05, 'temp': 25.13, 'lipoC3S3': 12.5, 'rot1': 0, 'rot0': 0, 'rot3': 0, 'rot2': 0, 'state': 'normal', 'yaw': -0.0, 'datetime': '2018-10-12 15:40:47.554681', 'mgs': 0, 'depth': -0.293, 'time': 5.06, 'pitch': -3.45, 'roll': -2.52}
{'lipoC2': 8.05, 'temp': 25.19, 'lipoC3S3': 12.51, 'rot1': 0, 'rot0': 0, 'rot3': 0, 'rot2': 0, 'state': 'normal', 'yaw': 0.01, 'datetime': '2018-10-12 15:40:47.651501', 'mgs': 0, 'depth': -0.293, 'time': 5.16, 'pitch': -3.45, 'roll': -2.52}
{'lipoC2': 8.05, 'temp': 25.19, 'lipoC3S3': 12.51, 'rot1': 0, 'rot0': 0, 'rot3': 0, 'rot2': 0, 'state': 'normal', 'yaw': -0.0, 'datetime': '2018-10-12 15:40:47.748956', 'mgs': 0, 'depth': -0.293, 'time': 5.25, 'pitch': -3.42, 'roll': -2.56}
{'lipoC2': 8.05, 'temp': 25.13, 'lipoC3S3': 12.51, 'rot1': 0, 'rot0': 0, 'rot3': 0, 'rot2': 0, 'state': 'normal', 'yaw': -0.0, 'datetime': '2018-10-12 15:40:47.847851', 'mgs': 0, 'depth': -0.369, 'time': 5.35, 'pitch': -3.42, 'roll': -2.51}
{'lipoC2': 8.06, 'temp': 25.13, 'lipoC3S3': 12.5, 'rot1': 0, 'rot0': 0, 'rot3': 0, 'rot2': 0, 'state': 'normal', 'yaw': -0.0, 'datetime': '2018-10-12 15:40:47.944609', 'mgs': 0, 'depth': -0.293, 'time': 5.45, 'pitch': -3.39, 'roll': -2.52}
{'lipoC2': 8.05, 'temp': 25.13, 'lipoC3S3': 12.51, 'rot1': 0, 'rot0': 0, 'rot3': 0, 'rot2': 0, 'state': 'normal', 'yaw': -0.0, 'datetime': '2018-10-12 15:40:48.041443', 'mgs': 0, 'depth': -0.369, 'time': 5.55, 'pitch': -3.39, 'roll': -2.51}
{'lipoC2': 8.05, 'temp': 25.19, 'lipoC3S3': 12.5, 'rot1': 0, 'rot0': 0, 'rot3': 0, 'rot2': 0, 'state': 'normal', 'yaw': -0.0, 'datetime': '2018-10-12 15:40:48.139003', 'mgs': 0, 'depth': -0.293, 'time': 5.64, 'pitch': -3.39, 'roll': -2.47}
{'lipoC2': 8.06, 'temp': 25.19, 'lipoC3S3': 12.5, 'rot1': 0, 'rot0': 0, 'rot3': 0, 'rot2': 0, 'state': 'normal', 'yaw': -0.0, 'datetime': '2018-10-12 15:40:48.237199', 'mgs': 0, 'depth': -0.369, 'time': 5.74, 'pitch': -3.38, 'roll': -2.49}
{'lipoC2': 8.06, 'temp': 25.19, 'lipoC3S3': 12.51, 'rot1': 0, 'rot0': 0, 'rot3': 0, 'rot2': 0, 'state': 'normal', 'yaw': -0.0, 'datetime': '2018-10-12 15:40:48.333980', 'mgs': 0, 'depth': -0.293, 'time': 5.84, 'pitch': -3.38, 'roll': -2.49}
{'lipoC2': 8.05, 'temp': 25.19, 'lipoC3S3': 12.51, 'rot1': 0, 'rot0': 0, 'rot3': 0, 'rot2': 0, 'state': 'normal', 'yaw': -0.0, 'datetime': '2018-10-12 15:40:48.430721', 'mgs': 0, 'depth': -0.293, 'time': 5.94, 'pitch': -3.38, 'roll': -2.45}
{'lipoC2': 8.06, 'temp': 25.19, 'lipoC3S3': 12.51, 'rot1': 0, 'rot0': 0, 'rot3': 0, 'rot2': 0, 'state': 'normal', 'yaw': -0.0, 'datetime': '2018-10-12 15:40:48.528165', 'mgs': 0, 'depth': -0.369, 'time': 6.03, 'pitch': -3.38, 'roll': -2.45}
{'lipoC2': 8.05, 'temp': 25.19, 'lipoC3S3': 12.5, 'rot1': 0, 'rot0': 0, 'rot3': 0, 'rot2': 0, 'state': 'normal', 'yaw': -0.0, 'datetime': '2018-10-12 15:40:48.624994', 'mgs': 0, 'depth': -0.293, 'time': 6.13, 'pitch': -3.38, 'roll': -2.47}
{'lipoC2': 8.05, 'temp': 25.19, 'lipoC3S3': 12.5, 'rot1': 0, 'rot0': 0, 'rot3': 0, 'rot2': 0, 'state': 'normal', 'yaw': 0.0, 'datetime': '2018-10-12 15:40:48.721581', 'mgs': 0, 'depth': -0.293, 'time': 6.23, 'pitch': -3.38, 'roll': -2.44}
{'lipoC2': 8.05, 'temp': 25.19, 'lipoC3S3': 12.51, 'rot1': 0, 'rot0': 0, 'rot3': 0, 'rot2': 0, 'state': 'normal', 'yaw': -0.0, 'datetime': '2018-10-12 15:40:48.819681', 'mgs': 0, 'depth': -0.293, 'time': 6.33, 'pitch': -3.38, 'roll': -2.47}
{'lipoC2': 8.05, 'temp': 25.19, 'lipoC3S3': 12.51, 'rot1': 0, 'rot0': 0, 'rot3': 0, 'rot2': 0, 'state': 'normal', 'yaw': 0.0, 'datetime': '2018-10-12 15:40:48.917639', 'mgs': 0, 'depth': -0.293, 'time': 6.42, 'pitch': -3.38, 'roll': -2.44}
{'lipoC2': 8.06, 'temp': 25.19, 'lipoC3S3': 12.51, 'rot1': 0, 'rot0': 0, 'rot3': 0, 'rot2': 0, 'state': 'normal', 'yaw': 0.0, 'datetime': '2018-10-12 15:40:49.014401', 'mgs': 0, 'depth': -0.369, 'time': 6.52, 'pitch': -3.38, 'roll': -2.44}
{'lipoC2': 8.06, 'temp': 25.19, 'lipoC3S3': 12.5, 'rot1': 0, 'rot0': 0, 'rot3': 0, 'rot2': 0, 'state': 'normal', 'yaw': 0.0, 'datetime': '2018-10-12 15:40:49.111257', 'mgs': 0, 'depth': -0.293, 'time': 6.62, 'pitch': -3.38, 'roll': -2.44}
{'lipoC2': 8.05, 'temp': 25.19, 'lipoC3S3': 12.51, 'rot1': 0, 'rot0': 0, 'rot3': 0, 'rot2': 0, 'state': 'normal', 'yaw': 0.0, 'datetime': '2018-10-12 15:40:49.209394', 'mgs': 0, 'depth': -0.293, 'time': 6.72, 'pitch': -3.38, 'roll': -2.44}
{'lipoC2': 8.06, 'temp': 25.19, 'lipoC3S3': 12.5, 'rot1': 0, 'rot0': 0, 'rot3': 0, 'rot2': 0, 'state': 'normal', 'yaw': 0.0, 'datetime': '2018-10-12 15:40:49.306727', 'mgs': 0, 'depth': -0.369, 'time': 6.81, 'pitch': -3.38, 'roll': -2.44}
{'lipoC2': 8.05, 'temp': 25.19, 'lipoC3S3': 12.51, 'rot1': 0, 'rot0': 0, 'rot3': 0, 'rot2': 0, 'state': 'normal', 'yaw': 0.0, 'datetime': '2018-10-12 15:40:49.403557', 'mgs': 0, 'depth': -0.293, 'time': 6.91, 'pitch': -3.38, 'roll': -2.43}
{'lipoC2': 8.06, 'temp': 25.19, 'lipoC3S3': 12.5, 'rot1': 0, 'rot0': 0, 'rot3': 0, 'rot2': 0, 'state': 'normal', 'yaw': 0.0, 'datetime': '2018-10-12 15:40:49.501202', 'mgs': 0, 'depth': -0.369, 'time': 7.01, 'pitch': -3.38, 'roll': -2.44}
{'lipoC2': 8.06, 'temp': 25.19, 'lipoC3S3': 12.51, 'rot1': 0, 'rot0': 0, 'rot3': 0, 'rot2': 0, 'state': 'normal', 'yaw': 0.0, 'datetime': '2018-10-12 15:40:49.599346', 'mgs': 0, 'depth': -0.293, 'time': 7.11, 'pitch': -3.38, 'roll': -2.46}
{'lipoC2': 8.05, 'temp': 25.19, 'lipoC3S3': 12.5, 'rot1': 0, 'rot0': 0, 'rot3': 0, 'rot2': 0, 'state': 'normal', 'yaw': 0.0, 'datetime': '2018-10-12 15:40:49.695939', 'mgs': 0, 'depth': -0.293, 'time': 7.2, 'pitch': -3.39, 'roll': -2.44}
{'lipoC2': 8.05, 'temp': 25.19, 'lipoC3S3': 12.5, 'rot1': 0, 'rot0': 0, 'rot3': 0, 'rot2': 0, 'state': 'normal', 'yaw': 0.1, 'datetime': '2018-10-12 15:40:49.795846', 'mgs': 0, 'depth': -0.293, 'time': 7.3, 'pitch': -3.39, 'roll': -2.45}
{'lipoC2': 8.05, 'temp': 25.19, 'lipoC3S3': 12.5, 'rot1': 0, 'rot0': 0, 'rot3': 0, 'rot2': 0, 'state': 'normal', 'yaw': 1.36, 'datetime': '2018-10-12 15:40:49.893656', 'mgs': 0, 'depth': -0.293, 'time': 7.4, 'pitch': -3.5, 'roll': -1.63}
{'lipoC2': 8.06, 'temp': 25.19, 'lipoC3S3': 12.5, 'rot1': 0, 'rot0': 0, 'rot3': 0, 'rot2': 0, 'state': 'normal', 'yaw': 3.81, 'datetime': '2018-10-12 15:40:49.990735', 'mgs': 0, 'depth': -0.369, 'time': 7.49, 'pitch': -3.66, 'roll': -0.63}
{'lipoC2': 8.06, 'temp': 25.19, 'lipoC3S3': 12.5, 'rot1': 0, 'rot0': 0, 'rot3': 0, 'rot2': 0, 'state': 'normal', 'yaw': 6.41, 'datetime': '2018-10-12 15:40:50.087318', 'mgs': 0, 'depth': -0.369, 'time': 7.59, 'pitch': -4.45, 'roll': -0.52}
{'lipoC2': 8.06, 'temp': 25.19, 'lipoC3S3': 12.5, 'rot1': 0, 'rot0': 0, 'rot3': 0, 'rot2': 0, 'state': 'normal', 'yaw': 9.76, 'datetime': '2018-10-12 15:40:50.184223', 'mgs': 0, 'depth': -0.369, 'time': 7.69, 'pitch': -5.38, 'roll': -0.53}
{'lipoC2': 8.05, 'temp': 25.19, 'lipoC3S3': 12.47, 'rot1': 0, 'rot0': 0, 'rot3': 0, 'rot2': 0, 'state': 'normal', 'yaw': 13.62, 'datetime': '2018-10-12 15:40:50.280972', 'mgs': 0, 'depth': -0.369, 'time': 7.78, 'pitch': -5.61, 'roll': -0.54}
{'lipoC2': 8.06, 'temp': 25.19, 'lipoC3S3': 12.5, 'rot1': 1, 'rot0': 1, 'rot3': 0, 'rot2': 0, 'state': 'normal', 'yaw': 17.94, 'datetime': '2018-10-12 15:40:50.378143', 'mgs': 0, 'depth': -0.064, 'time': 7.88, 'pitch': -5.22, 'roll': -0.9}
{'lipoC2': 8.06, 'temp': 25.19, 'lipoC3S3': 12.5, 'rot1': 1, 'rot0': 1, 'rot3': 0, 'rot2': 0, 'state': 'normal', 'yaw': 21.93, 'datetime': '2018-10-12 15:40:50.476179', 'mgs': 0, 'depth': -0.293, 'time': 7.98, 'pitch': -4.68, 'roll': -1.3}
{'lipoC2': 8.06, 'temp': 25.19, 'lipoC3S3': 12.5, 'rot1': 3, 'rot0': 2, 'rot3': 0, 'rot2': 0, 'state': 'normal', 'yaw': 26.06, 'datetime': '2018-10-12 15:40:50.572917', 'mgs': 0, 'depth': -0.369, 'time': 8.08, 'pitch': -4.18, 'roll': -1.62}
{'lipoC2': 8.06, 'temp': 25.19, 'lipoC3S3': 12.5, 'rot1': 5, 'rot0': 3, 'rot3': 0, 'rot2': 0, 'state': 'normal', 'yaw': 29.4, 'datetime': '2018-10-12 15:40:50.669755', 'mgs': 0, 'depth': -0.293, 'time': 8.17, 'pitch': -4.06, 'roll': -1.98}
{'lipoC2': 8.06, 'temp': 25.19, 'lipoC3S3': 12.5, 'rot1': 7, 'rot0': 3, 'rot3': 0, 'rot2': 0, 'state': 'normal', 'yaw': 31.19, 'datetime': '2018-10-12 15:40:50.767837', 'mgs': 0, 'depth': -0.293, 'time': 8.27, 'pitch': -4.06, 'roll': -2.16}
{'lipoC2': 8.06, 'temp': 25.19, 'lipoC3S3': 12.48, 'rot1': 9, 'rot0': 3, 'rot3': 0, 'rot2': 0, 'state': 'normal', 'yaw': 31.36, 'datetime': '2018-10-12 15:40:50.865876', 'mgs': 0, 'depth': -0.293, 'time': 8.37, 'pitch': -3.98, 'roll': -2.19}
{'lipoC2': 8.06, 'temp': 25.19, 'lipoC3S3': 12.48, 'rot1': 11, 'rot0': 4, 'rot3': 0, 'rot2': 0, 'state': 'normal', 'yaw': 29.7, 'datetime': '2018-10-12 15:40:50.962835', 'mgs': 0, 'depth': -0.369, 'time': 8.47, 'pitch': -4.04, 'roll': -2.51}
{'lipoC2': 8.05, 'temp': 25.19, 'lipoC3S3': 12.5, 'rot1': 13, 'rot0': 5, 'rot3': 0, 'rot2': 0, 'state': 'normal', 'yaw': 26.62, 'datetime': '2018-10-12 15:40:51.059818', 'mgs': 0, 'depth': -0.293, 'time': 8.56, 'pitch': -4.06, 'roll': -2.86}
{'lipoC2': 8.05, 'temp': 25.19, 'lipoC3S3': 12.5, 'rot1': 14, 'rot0': 6, 'rot3': 0, 'rot2': 0, 'state': 'normal', 'yaw': 23.1, 'datetime': '2018-10-12 15:40:51.158023', 'mgs': 0, 'depth': -0.293, 'time': 8.66, 'pitch': -4.08, 'roll': -2.94}
{'lipoC2': 8.06, 'temp': 25.19, 'lipoC3S3': 12.47, 'rot1': 14, 'rot0': 6, 'rot3': 0, 'rot2': 0, 'state': 'normal', 'yaw': 18.73, 'datetime': '2018-10-12 15:40:51.255129', 'mgs': 0, 'depth': -0.369, 'time': 8.76, 'pitch': -4.31, 'roll': -3.06}
{'lipoC2': 8.06, 'temp': 25.19, 'lipoC3S3': 12.5, 'rot1': 16, 'rot0': 7, 'rot3': 0, 'rot2': 0, 'state': 'normal', 'yaw': 14.16, 'datetime': '2018-10-12 15:40:51.351966', 'mgs': 0, 'depth': -0.293, 'time': 8.86, 'pitch': -4.81, 'roll': -3.32}
{'lipoC2': 8.06, 'temp': 25.19, 'lipoC3S3': 12.5, 'rot1': 17, 'rot0': 7, 'rot3': 0, 'rot2': 0, 'state': 'normal', 'yaw': 10.25, 'datetime': '2018-10-12 15:40:51.449096', 'mgs': 0, 'depth': -0.446, 'time': 8.95, 'pitch': -5.18, 'roll': -3.36}
{'lipoC2': 8.05, 'temp': 25.19, 'lipoC3S3': 12.5, 'rot1': 18, 'rot0': 8, 'rot3': 0, 'rot2': 0, 'state': 'normal', 'yaw': 6.46, 'datetime': '2018-10-12 15:40:51.545948', 'mgs': 0, 'depth': -0.293, 'time': 9.05, 'pitch': -5.36, 'roll': -3.23}
{'lipoC2': 8.06, 'temp': 25.19, 'lipoC3S3': 12.5, 'rot1': 19, 'rot0': 8, 'rot3': 0, 'rot2': 0, 'state': 'normal', 'yaw': 3.59, 'datetime': '2018-10-12 15:40:51.642917', 'mgs': 0, 'depth': -0.293, 'time': 9.15, 'pitch': -5.42, 'roll': -3.01}
{'lipoC2': 8.05, 'temp': 25.19, 'lipoC3S3': 12.5, 'rot1': 20, 'rot0': 9, 'rot3': 0, 'rot2': 0, 'state': 'normal', 'yaw': 1.89, 'datetime': '2018-10-12 15:40:51.739994', 'mgs': 0, 'depth': -0.293, 'time': 9.24, 'pitch': -5.44, 'roll': -2.85}
{'lipoC2': 8.06, 'temp': 25.19, 'lipoC3S3': 12.5, 'rot1': 20, 'rot0': 9, 'rot3': 0, 'rot2': 0, 'state': 'normal', 'yaw': 0.86, 'datetime': '2018-10-12 15:40:51.836796', 'mgs': 0, 'depth': -0.369, 'time': 9.34, 'pitch': -5.53, 'roll': -2.74}
{'lipoC2': 8.06, 'temp': 25.19, 'lipoC3S3': 12.51, 'rot1': 20, 'rot0': 9, 'rot3': 0, 'rot2': 0, 'state': 'normal', 'yaw': 0.34, 'datetime': '2018-10-12 15:40:51.933891', 'mgs': 0, 'depth': -0.293, 'time': 9.44, 'pitch': -5.55, 'roll': -2.6}
{'lipoC2': 8.05, 'temp': 25.19, 'lipoC3S3': 12.51, 'rot1': 20, 'rot0': 9, 'rot3': 0, 'rot2': 0, 'state': 'normal', 'yaw': 0.12, 'datetime': '2018-10-12 15:40:52.031039', 'mgs': 0, 'depth': -0.369, 'time': 9.54, 'pitch': -5.58, 'roll': -2.54}
{'lipoC2': 8.06, 'temp': 25.19, 'lipoC3S3': 12.5, 'rot1': 20, 'rot0': 9, 'rot3': 0, 'rot2': 0, 'state': 'normal', 'yaw': -0.35, 'datetime': '2018-10-12 15:40:52.129357', 'mgs': 0, 'depth': -0.369, 'time': 9.63, 'pitch': -5.51, 'roll': -2.45}
{'lipoC2': 8.05, 'temp': 25.19, 'lipoC3S3': 12.5, 'rot1': 20, 'rot0': 9, 'rot3': 0, 'rot2': 0, 'state': 'normal', 'yaw': -2.04, 'datetime': '2018-10-12 15:40:52.227508', 'mgs': 0, 'depth': -0.293, 'time': 9.73, 'pitch': -5.15, 'roll': -2.32}
{'lipoC2': 8.05, 'temp': 25.19, 'lipoC3S3': 12.5, 'rot1': 20, 'rot0': 9, 'rot3': 0, 'rot2': 0, 'state': 'normal', 'yaw': -4.82, 'datetime': '2018-10-12 15:40:52.324516', 'mgs': 0, 'depth': -0.293, 'time': 9.83, 'pitch': -4.84, 'roll': -2.28}
{'lipoC2': 8.06, 'temp': 25.19, 'lipoC3S3': 12.5, 'rot1': 20, 'rot0': 9, 'rot3': 0, 'rot2': 0, 'state': 'normal', 'yaw': -8.04, 'datetime': '2018-10-12 15:40:52.421437', 'mgs': 0, 'depth': -0.293, 'time': 9.93, 'pitch': -4.8, 'roll': -2.16}
{'lipoC2': 8.05, 'temp': 25.19, 'lipoC3S3': 12.5, 'rot1': 20, 'rot0': 9, 'rot3': 0, 'rot2': 0, 'state': 'normal', 'yaw': -10.97, 'datetime': '2018-10-12 15:40:52.515487', 'mgs': 0, 'depth': -0.369, 'time': 10.02, 'pitch': -4.97, 'roll': -1.96}
{'lipoC2': 8.06, 'temp': 25.19, 'lipoC3S3': 12.5, 'rot1': 20, 'rot0': 9, 'rot3': 0, 'rot2': 0, 'state': 'normal', 'yaw': -14.09, 'datetime': '2018-10-12 15:40:52.613388', 'mgs': 0, 'depth': -0.369, 'time': 10.12, 'pitch': -5.23, 'roll': -1.55}
{'lipoC2': 8.06, 'temp': 25.19, 'lipoC3S3': 12.46, 'rot1': 21, 'rot0': 9, 'rot3': 0, 'rot2': 0, 'state': 'normal', 'yaw': -17.03, 'datetime': '2018-10-12 15:40:52.710353', 'mgs': 0, 'depth': -0.369, 'time': 10.22, 'pitch': -5.55, 'roll': -1.02}
{'lipoC2': 8.05, 'temp': 25.19, 'lipoC3S3': 12.5, 'rot1': 22, 'rot0': 9, 'rot3': 0, 'rot2': 0, 'state': 'normal', 'yaw': -19.55, 'datetime': '2018-10-12 15:40:52.810155', 'mgs': 0, 'depth': -0.293, 'time': 10.32, 'pitch': -5.76, 'roll': -0.59}
{'lipoC2': 8.06, 'temp': 25.19, 'lipoC3S3': 12.5, 'rot1': 24, 'rot0': 10, 'rot3': 0, 'rot2': 0, 'state': 'normal', 'yaw': -22.11, 'datetime': '2018-10-12 15:40:52.910439', 'mgs': 0, 'depth': -0.369, 'time': 10.42, 'pitch': -5.83, 'roll': -0.2}
{'lipoC2': 8.05, 'temp': 25.19, 'lipoC3S3': 12.5, 'rot1': 26, 'rot0': 11, 'rot3': 0, 'rot2': 0, 'state': 'normal', 'yaw': -24.13, 'datetime': '2018-10-12 15:40:53.007566', 'mgs': 0, 'depth': -0.369, 'time': 10.51, 'pitch': -5.83, 'roll': 0.07}
{'lipoC2': 8.05, 'temp': 25.19, 'lipoC3S3': 12.51, 'rot1': 29, 'rot0': 11, 'rot3': 0, 'rot2': 0, 'state': 'normal', 'yaw': -25.43, 'datetime': '2018-10-12 15:40:53.104627', 'mgs': 0, 'depth': -0.293, 'time': 10.61, 'pitch': -5.83, 'roll': 0.23}
{'lipoC2': 8.05, 'temp': 25.13, 'lipoC3S3': 12.5, 'rot1': 31, 'rot0': 12, 'rot3': 0, 'rot2': 0, 'state': 'normal', 'yaw': -26.02, 'datetime': '2018-10-12 15:40:53.201751', 'mgs': 0, 'depth': -0.369, 'time': 10.71, 'pitch': -5.72, 'roll': 0.26}
{'lipoC2': 8.06, 'temp': 25.13, 'lipoC3S3': 12.5, 'rot1': 33, 'rot0': 12, 'rot3': 0, 'rot2': 0, 'state': 'normal', 'yaw': -26.07, 'datetime': '2018-10-12 15:40:53.298881', 'mgs': 0, 'depth': -0.369, 'time': 10.81, 'pitch': -5.49, 'roll': 0.12}
{'lipoC2': 8.06, 'temp': 25.13, 'lipoC3S3': 12.5, 'rot1': 35, 'rot0': 13, 'rot3': 0, 'rot2': 0, 'state': 'normal', 'yaw': -25.44, 'datetime': '2018-10-12 15:40:53.395905', 'mgs': 0, 'depth': -0.293, 'time': 10.9, 'pitch': -5.44, 'roll': -0.22}
{'lipoC2': 8.05, 'temp': 25.19, 'lipoC3S3': 12.46, 'rot1': 37, 'rot0': 13, 'rot3': 0, 'rot2': 0, 'state': 'normal', 'yaw': -24.23, 'datetime': '2018-10-12 15:40:53.493320', 'mgs': 0, 'depth': -0.293, 'time': 11.0, 'pitch': -5.46, 'roll': -0.45}
{'lipoC2': 8.05, 'temp': 25.19, 'lipoC3S3': 12.5, 'rot1': 39, 'rot0': 14, 'rot3': 0, 'rot2': 0, 'state': 'normal', 'yaw': -22.31, 'datetime': '2018-10-12 15:40:53.590344', 'mgs': 0, 'depth': -0.522, 'time': 11.1, 'pitch': -5.59, 'roll': -0.67}
{'lipoC2': 8.05, 'temp': 25.19, 'lipoC3S3': 12.5, 'rot1': 41, 'rot0': 14, 'rot3': 0, 'rot2': 0, 'state': 'normal', 'yaw': -19.98, 'datetime': '2018-10-12 15:40:53.687469', 'mgs': 0, 'depth': -0.293, 'time': 11.19, 'pitch': -5.85, 'roll': -0.9}
{'lipoC2': 8.05, 'temp': 25.19, 'lipoC3S3': 12.5, 'rot1': 44, 'rot0': 15, 'rot3': 0, 'rot2': 0, 'state': 'normal', 'yaw': -17.37, 'datetime': '2018-10-12 15:40:53.784467', 'mgs': 0, 'depth': -0.369, 'time': 11.29, 'pitch': -6.22, 'roll': -1.08}
{'lipoC2': 8.05, 'temp': 25.19, 'lipoC3S3': 12.5, 'rot1': 46, 'rot0': 15, 'rot3': 0, 'rot2': 0, 'state': 'normal', 'yaw': -14.78, 'datetime': '2018-10-12 15:40:53.882836', 'mgs': 0, 'depth': -0.293, 'time': 11.39, 'pitch': -6.62, 'roll': -1.17}
{'lipoC2': 8.06, 'temp': 25.19, 'lipoC3S3': 12.5, 'rot1': 48, 'rot0': 16, 'rot3': 0, 'rot2': 0, 'state': 'normal', 'yaw': -11.7, 'datetime': '2018-10-12 15:40:53.981412', 'mgs': 0, 'depth': -0.369, 'time': 11.49, 'pitch': -6.97, 'roll': -1.26}
{'lipoC2': 8.05, 'temp': 25.19, 'lipoC3S3': 12.5, 'rot1': 49, 'rot0': 16, 'rot3': 0, 'rot2': 0, 'state': 'normal', 'yaw': -8.55, 'datetime': '2018-10-12 15:40:54.078492', 'mgs': 0, 'depth': -0.369, 'time': 11.59, 'pitch': -7.19, 'roll': -1.55}
{'lipoC2': 8.05, 'temp': 25.19, 'lipoC3S3': 12.5, 'rot1': 51, 'rot0': 17, 'rot3': 0, 'rot2': 0, 'state': 'normal', 'yaw': -5.65, 'datetime': '2018-10-12 15:40:54.175532', 'mgs': 0, 'depth': -0.369, 'time': 11.68, 'pitch': -7.19, 'roll': -1.73}
{'lipoC2': 8.06, 'temp': 25.19, 'lipoC3S3': 12.51, 'rot1': 52, 'rot0': 17, 'rot3': 0, 'rot2': 0, 'state': 'normal', 'yaw': -3.47, 'datetime': '2018-10-12 15:40:54.274000', 'mgs': 0, 'depth': -0.293, 'time': 11.78, 'pitch': -7.1, 'roll': -1.77}
{'lipoC2': 8.05, 'temp': 25.19, 'lipoC3S3': 12.51, 'rot1': 52, 'rot0': 17, 'rot3': 0, 'rot2': 0, 'state': 'normal', 'yaw': -1.8, 'datetime': '2018-10-12 15:40:54.372040', 'mgs': 0, 'depth': -0.369, 'time': 11.88, 'pitch': -7.02, 'roll': -1.74}
{'lipoC2': 8.05, 'temp': 25.19, 'lipoC3S3': 12.5, 'rot1': 52, 'rot0': 17, 'rot3': 0, 'rot2': 0, 'state': 'normal', 'yaw': -1.02, 'datetime': '2018-10-12 15:40:54.469612', 'mgs': 0, 'depth': -0.293, 'time': 11.98, 'pitch': -6.8, 'roll': -1.55}
{'lipoC2': 8.05, 'temp': 25.19, 'lipoC3S3': 12.5, 'rot1': 52, 'rot0': 17, 'rot3': 0, 'rot2': 0, 'state': 'normal', 'yaw': -1.06, 'datetime': '2018-10-12 15:40:54.566521', 'mgs': 0, 'depth': -0.369, 'time': 12.07, 'pitch': -6.66, 'roll': -1.44}
{'lipoC2': 8.06, 'temp': 25.19, 'lipoC3S3': 12.5, 'rot1': 52, 'rot0': 17, 'rot3': 0, 'rot2': 0, 'state': 'normal', 'yaw': -1.44, 'datetime': '2018-10-12 15:40:54.664736', 'mgs': 0, 'depth': -0.293, 'time': 12.17, 'pitch': -6.68, 'roll': -1.41}
{'lipoC2': 8.06, 'temp': 25.19, 'lipoC3S3': 12.5, 'rot1': 52, 'rot0': 17, 'rot3': 0, 'rot2': 0, 'state': 'normal', 'yaw': -1.7, 'datetime': '2018-10-12 15:40:54.762908', 'mgs': 0, 'depth': -0.293, 'time': 12.27, 'pitch': -6.82, 'roll': -1.37}
{'lipoC2': 8.06, 'temp': 25.19, 'lipoC3S3': 12.5, 'rot1': 52, 'rot0': 17, 'rot3': 0, 'rot2': 0, 'state': 'normal', 'yaw': -1.41, 'datetime': '2018-10-12 15:40:54.860149', 'mgs': 0, 'depth': -0.369, 'time': 12.37, 'pitch': -7.17, 'roll': -1.58}
{'lipoC2': 8.05, 'temp': 25.19, 'lipoC3S3': 12.5, 'rot1': 52, 'rot0': 17, 'rot3': 0, 'rot2': 0, 'state': 'normal', 'yaw': 0.02, 'datetime': '2018-10-12 15:40:54.957080', 'mgs': 0, 'depth': -0.293, 'time': 12.47, 'pitch': -7.65, 'roll': -1.84}
{'lipoC2': 8.05, 'temp': 25.19, 'lipoC3S3': 12.5, 'rot1': 52, 'rot0': 17, 'rot3': 0, 'rot2': 0, 'state': 'normal', 'yaw': 2.64, 'datetime': '2018-10-12 15:40:55.054350', 'mgs': 0, 'depth': -0.293, 'time': 12.56, 'pitch': -7.72, 'roll': -1.87}
{'lipoC2': 8.05, 'temp': 25.19, 'lipoC3S3': 12.5, 'rot1': 52, 'rot0': 17, 'rot3': 0, 'rot2': 0, 'state': 'normal', 'yaw': 6.73, 'datetime': '2018-10-12 15:40:55.151269', 'mgs': 0, 'depth': -0.293, 'time': 12.66, 'pitch': -7.46, 'roll': -1.94}
{'lipoC2': 8.06, 'temp': 25.19, 'lipoC3S3': 12.5, 'rot1': 52, 'rot0': 17, 'rot3': 0, 'rot2': 0, 'state': 'normal', 'yaw': 11.21, 'datetime': '2018-10-12 15:40:55.247085', 'mgs': 0, 'depth': -0.293, 'time': 12.76, 'pitch': -6.95, 'roll': -2.27}
{'lipoC2': 8.05, 'temp': 25.19, 'lipoC3S3': 12.5, 'rot1': 54, 'rot0': 18, 'rot3': 0, 'rot2': 0, 'state': 'normal', 'yaw': 15.25, 'datetime': '2018-10-12 15:40:55.345812', 'mgs': 0, 'depth': -0.369, 'time': 12.85, 'pitch': -6.58, 'roll': -2.51}
{'lipoC2': 8.05, 'temp': 25.19, 'lipoC3S3': 12.5, 'rot1': 55, 'rot0': 19, 'rot3': 0, 'rot2': 0, 'state': 'normal', 'yaw': 19.8, 'datetime': '2018-10-12 15:40:55.441859', 'mgs': 0, 'depth': -0.293, 'time': 12.95, 'pitch': -6.4, 'roll': -2.45}
{'lipoC2': 8.06, 'temp': 25.19, 'lipoC3S3': 12.5, 'rot1': 58, 'rot0': 19, 'rot3': 0, 'rot2': 0, 'state': 'normal', 'yaw': 24.74, 'datetime': '2018-10-12 15:40:55.540068', 'mgs': 0, 'depth': -0.293, 'time': 13.05, 'pitch': -6.21, 'roll': -2.0}
{'lipoC2': 8.06, 'temp': 25.19, 'lipoC3S3': 12.5, 'rot1': 60, 'rot0': 20, 'rot3': 0, 'rot2': 0, 'state': 'normal', 'yaw': 30.23, 'datetime': '2018-10-12 15:40:55.637268', 'mgs': 0, 'depth': -0.369, 'time': 13.15, 'pitch': -6.01, 'roll': -1.72}
{'lipoC2': 8.06, 'temp': 25.19, 'lipoC3S3': 12.48, 'rot1': 61, 'rot0': 20, 'rot3': 0, 'rot2': 0, 'state': 'normal', 'yaw': 35.23, 'datetime': '2018-10-12 15:40:55.735675', 'mgs': 0, 'depth': -0.369, 'time': 13.24, 'pitch': -5.91, 'roll': -1.96}
{'lipoC2': 8.06, 'temp': 25.19, 'lipoC3S3': 12.5, 'rot1': 62, 'rot0': 21, 'rot3': 0, 'rot2': 0, 'state': 'normal', 'yaw': 40.52, 'datetime': '2018-10-12 15:40:55.834132', 'mgs': 0, 'depth': -0.369, 'time': 13.34, 'pitch': -5.66, 'roll': -2.22}
{'lipoC2': 8.06, 'temp': 25.19, 'lipoC3S3': 12.5, 'rot1': 63, 'rot0': 22, 'rot3': 0, 'rot2': 0, 'state': 'normal', 'yaw': 45.18, 'datetime': '2018-10-12 15:40:55.929683', 'mgs': 0, 'depth': -0.522, 'time': 13.44, 'pitch': -5.34, 'roll': -2.15}
{'lipoC2': 8.05, 'temp': 25.19, 'lipoC3S3': 12.5, 'rot1': 64, 'rot0': 23, 'rot3': 0, 'rot2': 0, 'state': 'normal', 'yaw': 49.03, 'datetime': '2018-10-12 15:40:56.028196', 'mgs': 0, 'depth': -0.293, 'time': 13.54, 'pitch': -5.26, 'roll': -2.08}
{'lipoC2': 8.06, 'temp': 25.19, 'lipoC3S3': 12.5, 'rot1': 65, 'rot0': 24, 'rot3': 0, 'rot2': 0, 'state': 'normal', 'yaw': 51.93, 'datetime': '2018-10-12 15:40:56.126548', 'mgs': 0, 'depth': 0.394, 'time': 13.64, 'pitch': -5.24, 'roll': -2.08}
{'lipoC2': 8.05, 'temp': 25.19, 'lipoC3S3': 12.5, 'rot1': 66, 'rot0': 25, 'rot3': 0, 'rot2': 0, 'state': 'normal', 'yaw': 54.58, 'datetime': '2018-10-12 15:40:56.224904', 'mgs': 0, 'depth': -0.369, 'time': 13.73, 'pitch': -5.02, 'roll': -2.07}
{'lipoC2': 8.07, 'temp': 25.19, 'lipoC3S3': 12.48, 'rot1': 67, 'rot0': 26, 'rot3': 0, 'rot2': 0, 'state': 'normal', 'yaw': 56.08, 'datetime': '2018-10-12 15:40:56.322011', 'mgs': 0, 'depth': -0.293, 'time': 13.83, 'pitch': -4.57, 'roll': -2.07}
{'lipoC2': 8.06, 'temp': 25.19, 'lipoC3S3': 12.48, 'rot1': 68, 'rot0': 27, 'rot3': 0, 'rot2': 0, 'state': 'normal', 'yaw': 55.43, 'datetime': '2018-10-12 15:40:56.420363', 'mgs': 0, 'depth': -0.293, 'time': 13.93, 'pitch': -4.15, 'roll': -2.08}
{'lipoC2': 8.07, 'temp': 25.19, 'lipoC3S3': 12.48, 'rot1': 69, 'rot0': 28, 'rot3': 0, 'rot2': 0, 'state': 'normal', 'yaw': 52.62, 'datetime': '2018-10-12 15:40:56.517727', 'mgs': 0, 'depth': -0.369, 'time': 14.03, 'pitch': -4.0, 'roll': -2.14}
{'lipoC2': 8.05, 'temp': 25.19, 'lipoC3S3': 12.48, 'rot1': 70, 'rot0': 29, 'rot3': 0, 'rot2': 0, 'state': 'normal', 'yaw': 47.41, 'datetime': '2018-10-12 15:40:56.615930', 'mgs': 0, 'depth': -0.369, 'time': 14.13, 'pitch': -4.06, 'roll': -2.17}
{'lipoC2': 8.05, 'temp': 25.19, 'lipoC3S3': 12.48, 'rot1': 72, 'rot0': 30, 'rot3': 0, 'rot2': 0, 'state': 'normal', 'yaw': 40.88, 'datetime': '2018-10-12 15:40:56.712976', 'mgs': 0, 'depth': -0.293, 'time': 14.22, 'pitch': -4.38, 'roll': -1.87}
{'lipoC2': 8.05, 'temp': 25.19, 'lipoC3S3': 12.48, 'rot1': 75, 'rot0': 31, 'rot3': 0, 'rot2': 0, 'state': 'normal', 'yaw': 33.9, 'datetime': '2018-10-12 15:40:56.810041', 'mgs': 0, 'depth': -0.598, 'time': 14.32, 'pitch': -4.95, 'roll': -1.32}
{'lipoC2': 8.06, 'temp': 25.19, 'lipoC3S3': 12.5, 'rot1': 78, 'rot0': 31, 'rot3': 0, 'rot2': 0, 'state': 'normal', 'yaw': 27.81, 'datetime': '2018-10-12 15:40:56.907165', 'mgs': 0, 'depth': -0.293, 'time': 14.42, 'pitch': -5.23, 'roll': -0.6}
{'lipoC2': 8.05, 'temp': 25.19, 'lipoC3S3': 12.48, 'rot1': 79, 'rot0': 32, 'rot3': 0, 'rot2': 0, 'state': 'normal', 'yaw': 21.72, 'datetime': '2018-10-12 15:40:57.004255', 'mgs': 0, 'depth': -0.293, 'time': 14.51, 'pitch': -5.2, 'roll': 0.22}
{'lipoC2': 8.06, 'temp': 25.19, 'lipoC3S3': 12.5, 'rot1': 80, 'rot0': 33, 'rot3': 0, 'rot2': 0, 'state': 'normal', 'yaw': 16.48, 'datetime': '2018-10-12 15:40:57.101347', 'mgs': 0, 'depth': -0.14, 'time': 14.61, 'pitch': -5.1, 'roll': 0.45}
{'lipoC2': 8.05, 'temp': 25.19, 'lipoC3S3': 12.5, 'rot1': 80, 'rot0': 33, 'rot3': 0, 'rot2': 0, 'state': 'normal', 'yaw': 12.52, 'datetime': '2018-10-12 15:40:57.198632', 'mgs': 0, 'depth': -0.369, 'time': 14.71, 'pitch': -5.18, 'roll': 0.18}
{'lipoC2': 8.06, 'temp': 25.19, 'lipoC3S3': 12.5, 'rot1': 81, 'rot0': 34, 'rot3': 0, 'rot2': 0, 'state': 'normal', 'yaw': 9.03, 'datetime': '2018-10-12 15:40:57.295835', 'mgs': 0, 'depth': -0.293, 'time': 14.81, 'pitch': -5.37, 'roll': 0.02}
{'lipoC2': 8.05, 'temp': 25.19, 'lipoC3S3': 12.5, 'rot1': 82, 'rot0': 34, 'rot3': 0, 'rot2': 0, 'state': 'normal', 'yaw': 6.54, 'datetime': '2018-10-12 15:40:57.392834', 'mgs': 0, 'depth': -0.293, 'time': 14.9, 'pitch': -5.55, 'roll': 0.29}
{'lipoC2': 8.06, 'temp': 25.19, 'lipoC3S3': 12.48, 'rot1': 84, 'rot0': 35, 'rot3': 0, 'rot2': 0, 'state': 'normal', 'yaw': 4.76, 'datetime': '2018-10-12 15:40:57.490381', 'mgs': 0, 'depth': -0.369, 'time': 15.0, 'pitch': -5.54, 'roll': 0.42}
{'lipoC2': 8.05, 'temp': 25.19, 'lipoC3S3': 12.5, 'rot1': 85, 'rot0': 35, 'rot3': 0, 'rot2': 0, 'state': 'normal', 'yaw': 3.67, 'datetime': '2018-10-12 15:40:57.588722', 'mgs': 0, 'depth': -0.293, 'time': 15.1, 'pitch': -5.32, 'roll': 0.22}
{'lipoC2': 8.05, 'temp': 25.19, 'lipoC3S3': 12.5, 'rot1': 85, 'rot0': 36, 'rot3': 0, 'rot2': 0, 'state': 'normal', 'yaw': 2.85, 'datetime': '2018-10-12 15:40:57.686730', 'mgs': 0, 'depth': -0.369, 'time': 15.2, 'pitch': -4.96, 'roll': -0.13}
{'lipoC2': 8.06, 'temp': 25.19, 'lipoC3S3': 12.51, 'rot1': 85, 'rot0': 36, 'rot3': 0, 'rot2': 0, 'state': 'normal', 'yaw': 2.16, 'datetime': '2018-10-12 15:40:57.783788', 'mgs': 0, 'depth': -0.369, 'time': 15.3, 'pitch': -4.72, 'roll': -0.3}
{'lipoC2': 8.05, 'temp': 25.19, 'lipoC3S3': 12.5, 'rot1': 85, 'rot0': 36, 'rot3': 0, 'rot2': 0, 'state': 'normal', 'yaw': 1.42, 'datetime': '2018-10-12 15:40:57.880927', 'mgs': 0, 'depth': -0.369, 'time': 15.39, 'pitch': -4.75, 'roll': -0.3}
{'lipoC2': 8.06, 'temp': 25.19, 'lipoC3S3': 12.5, 'rot1': 85, 'rot0': 36, 'rot3': 0, 'rot2': 0, 'state': 'normal', 'yaw': 0.93, 'datetime': '2018-10-12 15:40:57.979159', 'mgs': 0, 'depth': -0.293, 'time': 15.49, 'pitch': -5.05, 'roll': -0.12}
{'lipoC2': 8.06, 'temp': 25.19, 'lipoC3S3': 12.5, 'rot1': 85, 'rot0': 36, 'rot3': 0, 'rot2': 0, 'state': 'normal', 'yaw': 0.63, 'datetime': '2018-10-12 15:40:58.077351', 'mgs': 0, 'depth': -0.293, 'time': 15.59, 'pitch': -5.44, 'roll': 0.41}
{'lipoC2': 8.06, 'temp': 25.19, 'lipoC3S3': 12.5, 'rot1': 85, 'rot0': 36, 'rot3': 0, 'rot2': 0, 'state': 'normal', 'yaw': -0.33, 'datetime': '2018-10-12 15:40:58.174674', 'mgs': 0, 'depth': -0.369, 'time': 15.69, 'pitch': -5.64, 'roll': 0.73}
{'lipoC2': 8.05, 'temp': 25.19, 'lipoC3S3': 12.5, 'rot1': 85, 'rot0': 36, 'rot3': 0, 'rot2': 0, 'state': 'normal', 'yaw': -2.87, 'datetime': '2018-10-12 15:40:58.271760', 'mgs': 0, 'depth': -0.369, 'time': 15.78, 'pitch': -5.55, 'roll': 0.4}
{'lipoC2': 8.06, 'temp': 25.19, 'lipoC3S3': 12.51, 'rot1': 85, 'rot0': 36, 'rot3': 0, 'rot2': 0, 'state': 'normal', 'yaw': -6.4, 'datetime': '2018-10-12 15:40:58.370043', 'mgs': 0, 'depth': -0.369, 'time': 15.88, 'pitch': -5.35, 'roll': 0.33}
{'lipoC2': 8.06, 'temp': 25.19, 'lipoC3S3': 12.5, 'rot1': 85, 'rot0': 36, 'rot3': 0, 'rot2': 0, 'state': 'normal', 'yaw': -11.31, 'datetime': '2018-10-12 15:40:58.468374', 'mgs': 0, 'depth': -0.293, 'time': 15.98, 'pitch': -5.35, 'roll': 0.6}
{'lipoC2': 8.05, 'temp': 25.19, 'lipoC3S3': 12.51, 'rot1': 85, 'rot0': 36, 'rot3': 0, 'rot2': 0, 'state': 'normal', 'yaw': -16.92, 'datetime': '2018-10-12 15:40:58.565304', 'mgs': 0, 'depth': -0.293, 'time': 16.08, 'pitch': -5.63, 'roll': 0.86}
{'lipoC2': 8.06, 'temp': 25.19, 'lipoC3S3': 12.5, 'rot1': 86, 'rot0': 36, 'rot3': 0, 'rot2': 0, 'state': 'normal', 'yaw': -22.99, 'datetime': '2018-10-12 15:40:58.662665', 'mgs': 0, 'depth': -0.293, 'time': 16.17, 'pitch': -5.71, 'roll': 1.2}
{'lipoC2': 8.05, 'temp': 25.25, 'lipoC3S3': 12.5, 'rot1': 88, 'rot0': 36, 'rot3': 0, 'rot2': 0, 'state': 'normal', 'yaw': -28.61, 'datetime': '2018-10-12 15:40:58.759903', 'mgs': 0, 'depth': -0.293, 'time': 16.27, 'pitch': -5.44, 'roll': 1.49}
{'lipoC2': 8.06, 'temp': 25.25, 'lipoC3S3': 12.45, 'rot1': 92, 'rot0': 37, 'rot3': 0, 'rot2': 0, 'state': 'normal', 'yaw': -34.68, 'datetime': '2018-10-12 15:40:58.856903', 'mgs': 0, 'depth': -0.369, 'time': 16.37, 'pitch': -5.32, 'roll': 1.36}
{'lipoC2': 8.06, 'temp': 25.25, 'lipoC3S3': 12.5, 'rot1': 97, 'rot0': 37, 'rot3': 0, 'rot2': 0, 'state': 'normal', 'yaw': -40.35, 'datetime': '2018-10-12 15:40:58.953934', 'mgs': 0, 'depth': 0.012, 'time': 16.47, 'pitch': -5.42, 'roll': 0.85}
{'lipoC2': 8.05, 'temp': 25.19, 'lipoC3S3': 12.5, 'rot1': 101, 'rot0': 38, 'rot3': 0, 'rot2': 0, 'state': 'normal', 'yaw': -45.24, 'datetime': '2018-10-12 15:40:59.051079', 'mgs': 0, 'depth': -0.369, 'time': 16.56, 'pitch': -5.13, 'roll': 0.59}
{'lipoC2': 8.05, 'temp': 25.19, 'lipoC3S3': 12.43, 'rot1': 107, 'rot0': 39, 'rot3': 0, 'rot2': 0, 'state': 'normal', 'yaw': -50.8, 'datetime': '2018-10-12 15:40:59.148303', 'mgs': 0, 'depth': -0.293, 'time': 16.66, 'pitch': -4.41, 'roll': 0.55}
{'lipoC2': 8.06, 'temp': 25.19, 'lipoC3S3': 12.48, 'rot1': 113, 'rot0': 40, 'rot3': 0, 'rot2': 0, 'state': 'normal', 'yaw': -56.6, 'datetime': '2018-10-12 15:40:59.245545', 'mgs': 0, 'depth': -0.293, 'time': 16.76, 'pitch': -3.75, 'roll': 0.65}
{'lipoC2': 8.05, 'temp': 25.19, 'lipoC3S3': 12.48, 'rot1': 120, 'rot0': 41, 'rot3': 0, 'rot2': 0, 'state': 'normal', 'yaw': -62.63, 'datetime': '2018-10-12 15:40:59.338621', 'mgs': 0, 'depth': -0.293, 'time': 16.86, 'pitch': -3.34, 'roll': 0.72}
{'lipoC2': 8.06, 'temp': 25.19, 'lipoC3S3': 12.42, 'rot1': 129, 'rot0': 42, 'rot3': 0, 'rot2': 0, 'state': 'normal', 'yaw': -67.71, 'datetime': '2018-10-12 15:40:59.437633', 'mgs': 0, 'depth': -0.369, 'time': 16.95, 'pitch': -3.29, 'roll': 0.97}
{'lipoC2': 8.05, 'temp': 25.19, 'lipoC3S3': 12.48, 'rot1': 141, 'rot0': 43, 'rot3': 0, 'rot2': 0, 'state': 'normal', 'yaw': -72.0, 'datetime': '2018-10-12 15:40:59.540119', 'mgs': 0, 'depth': -0.293, 'time': 17.05, 'pitch': -3.52, 'roll': 1.71}
{'lipoC2': 8.06, 'temp': 25.19, 'lipoC3S3': 12.47, 'rot1': 153, 'rot0': 44, 'rot3': 0, 'rot2': 0, 'state': 'normal', 'yaw': -73.98, 'datetime': '2018-10-12 15:40:59.637394', 'mgs': 0, 'depth': -0.369, 'time': 17.15, 'pitch': -3.98, 'roll': 2.68}
{'lipoC2': 8.06, 'temp': 25.19, 'lipoC3S3': 12.48, 'rot1': 166, 'rot0': 46, 'rot3': 0, 'rot2': 0, 'state': 'normal', 'yaw': -73.21, 'datetime': '2018-10-12 15:40:59.734540', 'mgs': 0, 'depth': -0.293, 'time': 17.25, 'pitch': -4.64, 'roll': 3.35}
{'lipoC2': 8.06, 'temp': 25.19, 'lipoC3S3': 12.47, 'rot1': 180, 'rot0': 47, 'rot3': 0, 'rot2': 0, 'state': 'normal', 'yaw': -70.31, 'datetime': '2018-10-12 15:40:59.832804', 'mgs': 0, 'depth': -0.446, 'time': 17.34, 'pitch': -5.31, 'roll': 3.26}
{'lipoC2': 8.05, 'temp': 25.19, 'lipoC3S3': 12.5, 'rot1': 194, 'rot0': 48, 'rot3': 0, 'rot2': 0, 'state': 'normal', 'yaw': -64.96, 'datetime': '2018-10-12 15:40:59.931325', 'mgs': 0, 'depth': -0.293, 'time': 17.44, 'pitch': -5.9, 'roll': 2.5}
{'lipoC2': 8.05, 'temp': 25.25, 'lipoC3S3': 12.47, 'rot1': 204, 'rot0': 50, 'rot3': 0, 'rot2': 0, 'state': 'normal', 'yaw': -57.8, 'datetime': '2018-10-12 15:41:00.029296', 'mgs': 0, 'depth': -0.293, 'time': 17.54, 'pitch': -6.17, 'roll': 1.51}
{'lipoC2': 8.06, 'temp': 25.25, 'lipoC3S3': 12.48, 'rot1': 214, 'rot0': 51, 'rot3': 0, 'rot2': 0, 'state': 'normal', 'yaw': -49.42, 'datetime': '2018-10-12 15:41:00.126466', 'mgs': 0, 'depth': -0.369, 'time': 17.64, 'pitch': -6.31, 'roll': 0.5}
{'lipoC2': 8.06, 'temp': 25.19, 'lipoC3S3': 12.48, 'rot1': 222, 'rot0': 52, 'rot3': 0, 'rot2': 0, 'state': 'normal', 'yaw': -41.29, 'datetime': '2018-10-12 15:41:00.219431', 'mgs': 0, 'depth': 0.317, 'time': 17.74, 'pitch': -6.21, 'roll': -0.22}
{'lipoC2': 8.05, 'temp': 25.19, 'lipoC3S3': 12.5, 'rot1': 228, 'rot0': 52, 'rot3': 0, 'rot2': 0, 'state': 'normal', 'yaw': -32.42, 'datetime': '2018-10-12 15:41:00.317977', 'mgs': 0, 'depth': -0.369, 'time': 17.84, 'pitch': -5.94, 'roll': -0.69}
{'lipoC2': 8.05, 'temp': 25.19, 'lipoC3S3': 12.5, 'rot1': 232, 'rot0': 53, 'rot3': 0, 'rot2': 0, 'state': 'normal', 'yaw': -24.27, 'datetime': '2018-10-12 15:41:00.415116', 'mgs': 0, 'depth': -0.369, 'time': 17.93, 'pitch': -5.81, 'roll': -0.9}
{'lipoC2': 8.05, 'temp': 25.19, 'lipoC3S3': 12.5, 'rot1': 234, 'rot0': 54, 'rot3': 0, 'rot2': 0, 'state': 'normal', 'yaw': -17.15, 'datetime': '2018-10-12 15:41:00.512301', 'mgs': 0, 'depth': -0.293, 'time': 18.03, 'pitch': -5.95, 'roll': -1.02}
{'lipoC2': 8.05, 'temp': 25.19, 'lipoC3S3': 12.5, 'rot1': 236, 'rot0': 54, 'rot3': 0, 'rot2': 0, 'state': 'normal', 'yaw': -11.63, 'datetime': '2018-10-12 15:41:00.609735', 'mgs': 0, 'depth': -0.369, 'time': 18.13, 'pitch': -5.95, 'roll': -0.82}
{'lipoC2': 8.06, 'temp': 25.25, 'lipoC3S3': 12.46, 'rot1': 239, 'rot0': 55, 'rot3': 0, 'rot2': 0, 'state': 'normal', 'yaw': -6.52, 'datetime': '2018-10-12 15:41:00.706976', 'mgs': 0, 'depth': -0.369, 'time': 18.23, 'pitch': -5.86, 'roll': -0.79}
{'lipoC2': 8.05, 'temp': 25.25, 'lipoC3S3': 12.5, 'rot1': 240, 'rot0': 55, 'rot3': 0, 'rot2': 0, 'state': 'normal', 'yaw': -2.41, 'datetime': '2018-10-12 15:41:00.804160', 'mgs': 0, 'depth': -0.293, 'time': 18.32, 'pitch': -5.97, 'roll': -1.46}
{'lipoC2': 8.05, 'temp': 25.19, 'lipoC3S3': 12.5, 'rot1': 240, 'rot0': 55, 'rot3': 0, 'rot2': 0, 'state': 'normal', 'yaw': 0.65, 'datetime': '2018-10-12 15:41:00.901245', 'mgs': 0, 'depth': -0.369, 'time': 18.42, 'pitch': -5.91, 'roll': -1.78}
{'lipoC2': 8.05, 'temp': 25.19, 'lipoC3S3': 12.5, 'rot1': 240, 'rot0': 55, 'rot3': 0, 'rot2': 0, 'state': 'normal', 'yaw': 2.41, 'datetime': '2018-10-12 15:41:00.998509', 'mgs': 0, 'depth': -0.293, 'time': 18.52, 'pitch': -5.59, 'roll': -1.6}
{'lipoC2': 8.05, 'temp': 25.19, 'lipoC3S3': 12.51, 'rot1': 240, 'rot0': 55, 'rot3': 0, 'rot2': 0, 'state': 'normal', 'yaw': 2.71, 'datetime': '2018-10-12 15:41:01.095698', 'mgs': 0, 'depth': -0.293, 'time': 18.61, 'pitch': -5.14, 'roll': -1.42}
{'lipoC2': 8.05, 'temp': 25.19, 'lipoC3S3': 12.51, 'rot1': 240, 'rot0': 55, 'rot3': 0, 'rot2': 0, 'state': 'normal', 'yaw': 1.77, 'datetime': '2018-10-12 15:41:01.192861', 'mgs': 0, 'depth': -0.369, 'time': 18.71, 'pitch': -5.05, 'roll': -1.5}
{'lipoC2': 8.05, 'temp': 25.19, 'lipoC3S3': 12.5, 'rot1': 240, 'rot0': 55, 'rot3': 0, 'rot2': 0, 'state': 'normal', 'yaw': 0.51, 'datetime': '2018-10-12 15:41:01.290990', 'mgs': 0, 'depth': -0.369, 'time': 18.81, 'pitch': -5.08, 'roll': -1.31}
{'lipoC2': 8.05, 'temp': 25.19, 'lipoC3S3': 12.5, 'rot1': 240, 'rot0': 55, 'rot3': 0, 'rot2': 0, 'state': 'normal', 'yaw': -0.63, 'datetime': '2018-10-12 15:41:01.391226', 'mgs': 0, 'depth': -0.369, 'time': 18.91, 'pitch': -5.11, 'roll': -0.82}
{'lipoC2': 8.05, 'temp': 25.19, 'lipoC3S3': 12.5, 'rot1': 240, 'rot0': 55, 'rot3': 0, 'rot2': 0, 'state': 'normal', 'yaw': -0.3, 'datetime': '2018-10-12 15:41:01.491476', 'mgs': 0, 'depth': -0.369, 'time': 19.01, 'pitch': -5.56, 'roll': -0.92}
{'lipoC2': 8.05, 'temp': 25.19, 'lipoC3S3': 12.5, 'rot1': 240, 'rot0': 55, 'rot3': 0, 'rot2': 0, 'state': 'normal', 'yaw': 1.76, 'datetime': '2018-10-12 15:41:01.588709', 'mgs': 0, 'depth': -0.293, 'time': 19.1, 'pitch': -6.2, 'roll': -1.08}
{'lipoC2': 8.05, 'temp': 25.19, 'lipoC3S3': 12.51, 'rot1': 240, 'rot0': 55, 'rot3': 0, 'rot2': 0, 'state': 'normal', 'yaw': 4.44, 'datetime': '2018-10-12 15:41:01.686115', 'mgs': 0, 'depth': -0.369, 'time': 19.2, 'pitch': -6.75, 'roll': -1.07}
{'lipoC2': 8.05, 'temp': 25.19, 'lipoC3S3': 12.51, 'rot1': 240, 'rot0': 55, 'rot3': 0, 'rot2': 0, 'state': 'normal', 'yaw': 8.24, 'datetime': '2018-10-12 15:41:01.784857', 'mgs': 0, 'depth': -0.293, 'time': 19.3, 'pitch': -7.33, 'roll': -1.35}
{'lipoC2': 8.05, 'temp': 25.19, 'lipoC3S3': 12.5, 'rot1': 240, 'rot0': 55, 'rot3': 0, 'rot2': 0, 'state': 'normal', 'yaw': 12.99, 'datetime': '2018-10-12 15:41:01.883136', 'mgs': 0, 'depth': -0.293, 'time': 19.4, 'pitch': -7.41, 'roll': -1.59}
{'lipoC2': 8.05, 'temp': 25.19, 'lipoC3S3': 12.48, 'rot1': 242, 'rot0': 55, 'rot3': 0, 'rot2': 0, 'state': 'normal', 'yaw': 18.09, 'datetime': '2018-10-12 15:41:01.980507', 'mgs': 0, 'depth': -0.293, 'time': 19.5, 'pitch': -7.02, 'roll': -1.64}
{'lipoC2': 8.06, 'temp': 25.19, 'lipoC3S3': 12.48, 'rot1': 246, 'rot0': 56, 'rot3': 0, 'rot2': 0, 'state': 'normal', 'yaw': 22.08, 'datetime': '2018-10-12 15:41:02.077682', 'mgs': 0, 'depth': -0.369, 'time': 19.59, 'pitch': -6.35, 'roll': -1.87}
{'lipoC2': 8.06, 'temp': 25.19, 'lipoC3S3': 12.5, 'rot1': 250, 'rot0': 56, 'rot3': 0, 'rot2': 0, 'state': 'normal', 'yaw': 23.86, 'datetime': '2018-10-12 15:41:02.176167', 'mgs': 0, 'depth': -0.446, 'time': 19.69, 'pitch': -5.55, 'roll': -2.11}
{'lipoC2': 8.06, 'temp': 25.19, 'lipoC3S3': 12.5, 'rot1': 254, 'rot0': 57, 'rot3': 0, 'rot2': 0, 'state': 'normal', 'yaw': 23.95, 'datetime': '2018-10-12 15:41:02.274009', 'mgs': 0, 'depth': 0.317, 'time': 19.79, 'pitch': -5.05, 'roll': -2.35}
{'lipoC2': 8.05, 'temp': 25.19, 'lipoC3S3': 12.5, 'rot1': 258, 'rot0': 57, 'rot3': 0, 'rot2': 0, 'state': 'normal', 'yaw': 23.33, 'datetime': '2018-10-12 15:41:02.371209', 'mgs': 0, 'depth': -0.293, 'time': 19.89, 'pitch': -4.93, 'roll': -2.21}
{'lipoC2': 8.05, 'temp': 25.19, 'lipoC3S3': 12.5, 'rot1': 262, 'rot0': 58, 'rot3': 0, 'rot2': 0, 'state': 'normal', 'yaw': 23.02, 'datetime': '2018-10-12 15:41:02.468416', 'mgs': 0, 'depth': -0.369, 'time': 19.98, 'pitch': -5.02, 'roll': -1.59}
{'lipoC2': 8.05, 'temp': 25.19, 'lipoC3S3': 12.5, 'rot1': 267, 'rot0': 58, 'rot3': 0, 'rot2': 0, 'state': 'normal', 'yaw': 22.96, 'datetime': '2018-10-12 15:41:02.565535', 'mgs': 0, 'depth': -0.369, 'time': 20.08, 'pitch': -5.35, 'roll': -0.99}
{'lipoC2': 8.05, 'temp': 25.25, 'lipoC3S3': 12.48, 'rot1': 270, 'rot0': 59, 'rot3': 0, 'rot2': 0, 'state': 'normal', 'yaw': 23.19, 'datetime': '2018-10-12 15:41:02.663203', 'mgs': 0, 'depth': -0.293, 'time': 20.18, 'pitch': -5.95, 'roll': -0.44}
{'lipoC2': 8.06, 'temp': 25.25, 'lipoC3S3': 12.5, 'rot1': 274, 'rot0': 59, 'rot3': 0, 'rot2': 0, 'state': 'normal', 'yaw': 24.05, 'datetime': '2018-10-12 15:41:02.759749', 'mgs': 0, 'depth': 0.165, 'time': 20.28, 'pitch': -6.44, 'roll': 0.01}
{'lipoC2': 8.05, 'temp': 25.25, 'lipoC3S3': 12.5, 'rot1': 277, 'rot0': 60, 'rot3': 0, 'rot2': 0, 'state': 'normal', 'yaw': 25.54, 'datetime': '2018-10-12 15:41:02.856938', 'mgs': 0, 'depth': -0.369, 'time': 20.37, 'pitch': -6.7, 'roll': 0.24}
{'lipoC2': 8.05, 'temp': 25.25, 'lipoC3S3': 12.5, 'rot1': 280, 'rot0': 60, 'rot3': 0, 'rot2': 0, 'state': 'normal', 'yaw': 27.76, 'datetime': '2018-10-12 15:41:02.954243', 'mgs': 0, 'depth': -0.369, 'time': 20.47, 'pitch': -6.79, 'roll': 0.66}
{'lipoC2': 8.05, 'temp': 25.25, 'lipoC3S3': 12.5, 'rot1': 282, 'rot0': 61, 'rot3': 0, 'rot2': 0, 'state': 'normal', 'yaw': 30.11, 'datetime': '2018-10-12 15:41:03.051467', 'mgs': 0, 'depth': -0.369, 'time': 20.57, 'pitch': -6.82, 'roll': 0.97}
{'lipoC2': 8.06, 'temp': 25.19, 'lipoC3S3': 12.48, 'rot1': 284, 'rot0': 62, 'rot3': 0, 'rot2': 0, 'state': 'normal', 'yaw': 32.62, 'datetime': '2018-10-12 15:41:03.149217', 'mgs': 0, 'depth': -0.293, 'time': 20.67, 'pitch': -6.85, 'roll': 0.91}
{'lipoC2': 8.06, 'temp': 25.19, 'lipoC3S3': 12.48, 'rot1': 286, 'rot0': 62, 'rot3': 0, 'rot2': 0, 'state': 'normal', 'yaw': 35.32, 'datetime': '2018-10-12 15:41:03.247611', 'mgs': 0, 'depth': -0.293, 'time': 20.76, 'pitch': -6.7, 'roll': 0.23}
