{'lipoC2': 7.57, 'temp': 27.5, 'lipoC3S3': 11.75, 'rot1': 0, 'rot0': 0, 'rot3': 0, 'rot2': 0, 'state': 'normal', 'yaw': 0.0, 'datetime': '2018-10-12 18:14:47.899315', 'mgs': 0, 'depth': -0.369, 'time': 1.26, 'pitch': 1.44, 'roll': -1.38}
{'lipoC2': 7.57, 'temp': 27.5, 'lipoC3S3': 11.76, 'rot1': 0, 'rot0': 0, 'rot3': 0, 'rot2': 0, 'state': 'normal', 'yaw': -0.11, 'datetime': '2018-10-12 18:14:47.916227', 'mgs': 0, 'depth': -0.293, 'time': 1.36, 'pitch': 1.65, 'roll': -1.09}
{'lipoC2': 7.57, 'temp': 27.5, 'lipoC3S3': 11.76, 'rot1': 0, 'rot0': 0, 'rot3': 0, 'rot2': 0, 'state': 'normal', 'yaw': -0.14, 'datetime': '2018-10-12 18:14:47.933062', 'mgs': 0, 'depth': -0.369, 'time': 1.45, 'pitch': 1.7, 'roll': -1.71}
{'lipoC2': 7.57, 'temp': 27.5, 'lipoC3S3': 11.75, 'rot1': 0, 'rot0': 0, 'rot3': 0, 'rot2': 0, 'state': 'normal', 'yaw': -0.34, 'datetime': '2018-10-12 18:14:47.949908', 'mgs': 0, 'depth': -0.293, 'time': 1.55, 'pitch': 1.49, 'roll': -2.61}
{'lipoC2': 7.57, 'temp': 27.5, 'lipoC3S3': 11.75, 'rot1': 0, 'rot0': 0, 'rot3': 0, 'rot2': 0, 'state': 'normal', 'yaw': -0.44, 'datetime': '2018-10-12 18:14:47.966666', 'mgs': 0, 'depth': -0.293, 'time': 1.65, 'pitch': 1.26, 'roll': -3.67}
{'lipoC2': 7.57, 'temp': 27.5, 'lipoC3S3': 11.75, 'rot1': 0, 'rot0': 0, 'rot3': 0, 'rot2': 0, 'state': 'normal', 'yaw': -0.58, 'datetime': '2018-10-12 18:14:47.983491', 'mgs': 0, 'depth': -0.293, 'time': 1.75, 'pitch': 1.16, 'roll': -4.24}
{'lipoC2': 7.57, 'temp': 27.5, 'lipoC3S3': 11.76, 'rot1': 0, 'rot0': 0, 'rot3': 0, 'rot2': 0, 'state': 'normal', 'yaw': -0.87, 'datetime': '2018-10-12 18:14:48.000363', 'mgs': 0, 'depth': -0.369, 'time': 1.85, 'pitch': 1.23, 'roll': -4.02}
{'lipoC2': 7.57, 'temp': 27.5, 'lipoC3S3': 11.76, 'rot1': 0, 'rot0': 0, 'rot3': 0, 'rot2': 0, 'state': 'normal', 'yaw': -1.37, 'datetime': '2018-10-12 18:14:48.008500', 'mgs': 0, 'depth': -0.369, 'time': 1.94, 'pitch': 1.5, 'roll': -3.25}
{'lipoC2': 7.57, 'temp': 27.5, 'lipoC3S3': 11.76, 'rot1': 0, 'rot0': 0, 'rot3': 0, 'rot2': 0, 'state': 'normal', 'yaw': -1.9, 'datetime': '2018-10-12 18:14:48.015830', 'mgs': 0, 'depth': -0.369, 'time': 2.04, 'pitch': 1.9, 'roll': -2.38}
{'lipoC2': 7.57, 'temp': 27.5, 'lipoC3S3': 11.75, 'rot1': 0, 'rot0': 0, 'rot3': 0, 'rot2': 0, 'state': 'normal', 'yaw': -2.29, 'datetime': '2018-10-12 18:14:48.098583', 'mgs': 0, 'depth': -0.293, 'time': 2.14, 'pitch': 2.0, 'roll': -1.95}
{'lipoC2': 7.57, 'temp': 27.5, 'lipoC3S3': 11.76, 'rot1': 0, 'rot0': 0, 'rot3': 0, 'rot2': 0, 'state': 'normal', 'yaw': -2.47, 'datetime': '2018-10-12 18:14:48.195683', 'mgs': 0, 'depth': -0.369, 'time': 2.24, 'pitch': 1.7, 'roll': -2.24}
{'lipoC2': 7.57, 'temp': 27.5, 'lipoC3S3': 11.75, 'rot1': 0, 'rot0': 0, 'rot3': 0, 'rot2': 0, 'state': 'normal', 'yaw': -2.52, 'datetime': '2018-10-12 18:14:48.294133', 'mgs': 0, 'depth': -0.369, 'time': 2.34, 'pitch': 1.13, 'roll': -2.91}
{'lipoC2': 7.57, 'temp': 27.5, 'lipoC3S3': 11.75, 'rot1': 0, 'rot0': 0, 'rot3': 0, 'rot2': 0, 'state': 'normal', 'yaw': -2.45, 'datetime': '2018-10-12 18:14:48.392366', 'mgs': 0, 'depth': -0.369, 'time': 2.43, 'pitch': 0.47, 'roll': -3.71}
{'lipoC2': 7.57, 'temp': 27.5, 'lipoC3S3': 11.75, 'rot1': 0, 'rot0': 0, 'rot3': 0, 'rot2': 0, 'state': 'normal', 'yaw': -2.11, 'datetime': '2018-10-12 18:14:48.489473', 'mgs': 0, 'depth': -0.293, 'time': 2.53, 'pitch': 0.08, 'roll': -4.17}
{'lipoC2': 7.57, 'temp': 27.5, 'lipoC3S3': 11.75, 'rot1': 0, 'rot0': 0, 'rot3': 0, 'rot2': 0, 'state': 'normal', 'yaw': -1.5, 'datetime': '2018-10-12 18:14:48.586558', 'mgs': 0, 'depth': -0.446, 'time': 2.63, 'pitch': 0.1, 'roll': -4.08}
{'lipoC2': 7.57, 'temp': 27.44, 'lipoC3S3': 11.75, 'rot1': 0, 'rot0': 0, 'rot3': 0, 'rot2': 0, 'state': 'normal', 'yaw': -0.91, 'datetime': '2018-10-12 18:14:48.683639', 'mgs': 0, 'depth': -0.369, 'time': 2.72, 'pitch': 0.43, 'roll': -3.58}
{'lipoC2': 7.57, 'temp': 27.44, 'lipoC3S3': 11.76, 'rot1': 0, 'rot0': 0, 'rot3': 0, 'rot2': 0, 'state': 'normal', 'yaw': -0.6, 'datetime': '2018-10-12 18:14:48.781367', 'mgs': 0, 'depth': -0.369, 'time': 2.82, 'pitch': 0.86, 'roll': -2.4}
{'lipoC2': 7.58, 'temp': 27.5, 'lipoC3S3': 11.75, 'rot1': 0, 'rot0': 0, 'rot3': 0, 'rot2': 0, 'state': 'normal', 'yaw': -0.61, 'datetime': '2018-10-12 18:14:48.882160', 'mgs': 0, 'depth': -0.446, 'time': 2.92, 'pitch': 1.08, 'roll': -1.3}
{'lipoC2': 7.57, 'temp': 27.5, 'lipoC3S3': 11.75, 'rot1': 0, 'rot0': 0, 'rot3': 0, 'rot2': 0, 'state': 'normal', 'yaw': -0.97, 'datetime': '2018-10-12 18:14:48.980124', 'mgs': 0, 'depth': -0.446, 'time': 3.02, 'pitch': 0.84, 'roll': -1.02}
{'lipoC2': 7.57, 'temp': 27.5, 'lipoC3S3': 11.76, 'rot1': 0, 'rot0': 0, 'rot3': 0, 'rot2': 0, 'state': 'normal', 'yaw': -1.42, 'datetime': '2018-10-12 18:14:49.077083', 'mgs': 0, 'depth': -0.522, 'time': 3.11, 'pitch': 0.29, 'roll': -1.56}
{'lipoC2': 7.57, 'temp': 27.5, 'lipoC3S3': 11.75, 'rot1': 0, 'rot0': 0, 'rot3': 0, 'rot2': 0, 'state': 'normal', 'yaw': -1.09, 'datetime': '2018-10-12 18:14:49.174145', 'mgs': 0, 'depth': -0.446, 'time': 3.21, 'pitch': 0.14, 'roll': -2.46}
{'lipoC2': 7.57, 'temp': 27.5, 'lipoC3S3': 11.76, 'rot1': 0, 'rot0': 0, 'rot3': 0, 'rot2': 0, 'state': 'normal', 'yaw': -0.41, 'datetime': '2018-10-12 18:14:49.271918', 'mgs': 0, 'depth': -0.369, 'time': 3.31, 'pitch': 0.31, 'roll': -3.44}
{'lipoC2': 7.57, 'temp': 27.5, 'lipoC3S3': 11.76, 'rot1': 0, 'rot0': 0, 'rot3': 0, 'rot2': 0, 'state': 'normal', 'yaw': 0.46, 'datetime': '2018-10-12 18:14:49.370524', 'mgs': 0, 'depth': -0.369, 'time': 3.41, 'pitch': 0.64, 'roll': -4.23}
{'lipoC2': 7.57, 'temp': 27.5, 'lipoC3S3': 11.75, 'rot1': 0, 'rot0': 0, 'rot3': 0, 'rot2': 0, 'state': 'normal', 'yaw': 1.32, 'datetime': '2018-10-12 18:14:49.468855', 'mgs': 0, 'depth': -0.369, 'time': 3.51, 'pitch': 1.11, 'roll': -4.31}
{'lipoC2': 7.57, 'temp': 27.5, 'lipoC3S3': 11.75, 'rot1': 0, 'rot0': 0, 'rot3': 0, 'rot2': 0, 'state': 'normal', 'yaw': 2.03, 'datetime': '2018-10-12 18:14:49.565816', 'mgs': 0, 'depth': -0.369, 'time': 3.6, 'pitch': 1.56, 'roll': -3.67}
{'lipoC2': 7.57, 'temp': 27.5, 'lipoC3S3': 11.75, 'rot1': 0, 'rot0': 0, 'rot3': 0, 'rot2': 0, 'state': 'normal', 'yaw': 2.71, 'datetime': '2018-10-12 18:14:49.662953', 'mgs': 0, 'depth': -0.369, 'time': 3.7, 'pitch': 1.96, 'roll': -2.35}
{'lipoC2': 7.57, 'temp': 27.5, 'lipoC3S3': 11.75, 'rot1': 0, 'rot0': 0, 'rot3': 0, 'rot2': 0, 'state': 'normal', 'yaw': 3.33, 'datetime': '2018-10-12 18:14:49.761292', 'mgs': 0, 'depth': -0.369, 'time': 3.8, 'pitch': 2.24, 'roll': -1.07}
{'lipoC2': 7.57, 'temp': 27.5, 'lipoC3S3': 11.75, 'rot1': 0, 'rot0': 0, 'rot3': 0, 'rot2': 0, 'state': 'normal', 'yaw': 3.9, 'datetime': '2018-10-12 18:14:49.859692', 'mgs': 0, 'depth': -0.369, 'time': 3.9, 'pitch': 2.37, 'roll': -0.18}
{'lipoC2': 7.57, 'temp': 27.5, 'lipoC3S3': 11.76, 'rot1': 0, 'rot0': 0, 'rot3': 0, 'rot2': 0, 'state': 'normal', 'yaw': 4.3, 'datetime': '2018-10-12 18:14:49.956789', 'mgs': 0, 'depth': -0.446, 'time': 3.99, 'pitch': 2.28, 'roll': -0.25}
{'lipoC2': 7.57, 'temp': 27.5, 'lipoC3S3': 11.76, 'rot1': 0, 'rot0': 0, 'rot3': 0, 'rot2': 0, 'state': 'normal', 'yaw': 4.71, 'datetime': '2018-10-12 18:14:50.053861', 'mgs': 0, 'depth': -0.446, 'time': 4.09, 'pitch': 1.93, 'roll': -1.29}
{'lipoC2': 7.57, 'temp': 27.5, 'lipoC3S3': 11.75, 'rot1': 0, 'rot0': 0, 'rot3': 0, 'rot2': 0, 'state': 'normal', 'yaw': 5.3, 'datetime': '2018-10-12 18:14:50.152189', 'mgs': 0, 'depth': -0.369, 'time': 4.19, 'pitch': 1.65, 'roll': -2.84}
{'lipoC2': 7.57, 'temp': 27.5, 'lipoC3S3': 11.75, 'rot1': 0, 'rot0': 0, 'rot3': 0, 'rot2': 0, 'state': 'normal', 'yaw': 6.13, 'datetime': '2018-10-12 18:14:50.249484', 'mgs': 0, 'depth': -0.293, 'time': 4.29, 'pitch': 1.61, 'roll': -4.68}
{'lipoC2': 7.57, 'temp': 27.5, 'lipoC3S3': 11.76, 'rot1': 0, 'rot0': 0, 'rot3': 0, 'rot2': 0, 'state': 'normal', 'yaw': 6.75, 'datetime': '2018-10-12 18:14:50.346745', 'mgs': 0, 'depth': -0.369, 'time': 4.38, 'pitch': 1.77, 'roll': -5.98}
{'lipoC2': 7.57, 'temp': 27.5, 'lipoC3S3': 11.75, 'rot1': 0, 'rot0': 0, 'rot3': 0, 'rot2': 0, 'state': 'normal', 'yaw': 6.96, 'datetime': '2018-10-12 18:14:50.443909', 'mgs': 0, 'depth': -0.293, 'time': 4.48, 'pitch': 2.03, 'roll': -6.1}
{'lipoC2': 7.57, 'temp': 27.5, 'lipoC3S3': 11.76, 'rot1': 0, 'rot0': 0, 'rot3': 0, 'rot2': 0, 'state': 'normal', 'yaw': 6.71, 'datetime': '2018-10-12 18:14:50.541046', 'mgs': 0, 'depth': -0.369, 'time': 4.58, 'pitch': 2.31, 'roll': -5.05}
{'lipoC2': 7.57, 'temp': 27.5, 'lipoC3S3': 11.75, 'rot1': 0, 'rot0': 0, 'rot3': 0, 'rot2': 0, 'state': 'normal', 'yaw': 6.22, 'datetime': '2018-10-12 18:14:50.638255', 'mgs': 0, 'depth': -0.446, 'time': 4.68, 'pitch': 2.82, 'roll': -3.61}
{'lipoC2': 7.57, 'temp': 27.5, 'lipoC3S3': 11.75, 'rot1': 0, 'rot0': 0, 'rot3': 0, 'rot2': 0, 'state': 'normal', 'yaw': 5.75, 'datetime': '2018-10-12 18:14:50.735229', 'mgs': 0, 'depth': -0.522, 'time': 4.77, 'pitch': 3.65, 'roll': -2.91}
{'lipoC2': 7.57, 'temp': 27.5, 'lipoC3S3': 11.75, 'rot1': 0, 'rot0': 0, 'rot3': 0, 'rot2': 0, 'state': 'normal', 'yaw': 5.16, 'datetime': '2018-10-12 18:14:50.832615', 'mgs': 0, 'depth': -0.369, 'time': 4.87, 'pitch': 4.4, 'roll': -3.25}
{'lipoC2': 7.57, 'temp': 27.5, 'lipoC3S3': 11.75, 'rot1': 0, 'rot0': 0, 'rot3': 0, 'rot2': 0, 'state': 'normal', 'yaw': 5.2, 'datetime': '2018-10-12 18:14:50.929565', 'mgs': 0, 'depth': -0.369, 'time': 4.97, 'pitch': 5.17, 'roll': -4.19}
{'lipoC2': 7.57, 'temp': 27.5, 'lipoC3S3': 11.76, 'rot1': 0, 'rot0': 0, 'rot3': 0, 'rot2': 0, 'state': 'normal', 'yaw': 6.84, 'datetime': '2018-10-12 18:14:51.026646', 'mgs': 0, 'depth': -0.446, 'time': 5.07, 'pitch': 5.88, 'roll': -4.53}
{'lipoC2': 7.57, 'temp': 27.5, 'lipoC3S3': 11.75, 'rot1': 0, 'rot0': 0, 'rot3': 0, 'rot2': 0, 'state': 'normal', 'yaw': 9.69, 'datetime': '2018-10-12 18:14:51.124853', 'mgs': 0, 'depth': -0.369, 'time': 5.16, 'pitch': 5.57, 'roll': -4.2}
{'lipoC2': 7.57, 'temp': 27.5, 'lipoC3S3': 11.76, 'rot1': 0, 'rot0': 0, 'rot3': 0, 'rot2': 0, 'state': 'normal', 'yaw': 14.27, 'datetime': '2018-10-12 18:14:51.223240', 'mgs': 0, 'depth': -0.369, 'time': 5.26, 'pitch': 4.02, 'roll': -3.36}
{'lipoC2': 7.57, 'temp': 27.5, 'lipoC3S3': 11.75, 'rot1': 0, 'rot0': 0, 'rot3': 0, 'rot2': 0, 'state': 'normal', 'yaw': 19.77, 'datetime': '2018-10-12 18:14:51.321166', 'mgs': 0, 'depth': -0.369, 'time': 5.36, 'pitch': 1.73, 'roll': -2.39}
{'lipoC2': 7.57, 'temp': 27.5, 'lipoC3S3': 11.75, 'rot1': 0, 'rot0': 0, 'rot3': 0, 'rot2': 0, 'state': 'normal', 'yaw': 25.14, 'datetime': '2018-10-12 18:14:51.418353', 'mgs': 0, 'depth': -0.293, 'time': 5.46, 'pitch': -0.61, 'roll': -1.99}
{'lipoC2': 7.57, 'temp': 27.5, 'lipoC3S3': 11.75, 'rot1': 0, 'rot0': 0, 'rot3': 0, 'rot2': 0, 'state': 'normal', 'yaw': 29.43, 'datetime': '2018-10-12 18:14:51.515739', 'mgs': 0, 'depth': -0.217, 'time': 5.55, 'pitch': -2.25, 'roll': -2.37}
{'lipoC2': 7.57, 'temp': 27.5, 'lipoC3S3': 11.75, 'rot1': 0, 'rot0': 0, 'rot3': 0, 'rot2': 0, 'state': 'normal', 'yaw': 34.33, 'datetime': '2018-10-12 18:14:51.614138', 'mgs': 0, 'depth': -0.217, 'time': 5.65, 'pitch': -3.02, 'roll': -3.12}
{'lipoC2': 7.57, 'temp': 27.5, 'lipoC3S3': 11.75, 'rot1': 0, 'rot0': 0, 'rot3': 0, 'rot2': 0, 'state': 'normal', 'yaw': 39.58, 'datetime': '2018-10-12 18:14:51.712469', 'mgs': 0, 'depth': -0.217, 'time': 5.75, 'pitch': -2.57, 'roll': -3.5}
{'lipoC2': 7.57, 'temp': 27.5, 'lipoC3S3': 11.76, 'rot1': 0, 'rot0': 0, 'rot3': 0, 'rot2': 0, 'state': 'normal', 'yaw': 44.91, 'datetime': '2018-10-12 18:14:51.809648', 'mgs': 0, 'depth': -0.14, 'time': 5.85, 'pitch': -1.49, 'roll': -3.2}
{'lipoC2': 7.57, 'temp': 27.5, 'lipoC3S3': 11.76, 'rot1': 0, 'rot0': 0, 'rot3': 0, 'rot2': 0, 'state': 'normal', 'yaw': 50.17, 'datetime': '2018-10-12 18:14:51.906694', 'mgs': 0, 'depth': -0.14, 'time': 5.95, 'pitch': -0.36, 'roll': -2.44}
{'lipoC2': 7.57, 'temp': 27.5, 'lipoC3S3': 11.76, 'rot1': 0, 'rot0': 0, 'rot3': 0, 'rot2': 0, 'state': 'normal', 'yaw': 54.69, 'datetime': '2018-10-12 18:14:52.005086', 'mgs': 0, 'depth': -0.217, 'time': 6.04, 'pitch': 0.41, 'roll': -1.8}
{'lipoC2': 7.57, 'temp': 27.44, 'lipoC3S3': 11.76, 'rot1': 0, 'rot0': 0, 'rot3': 0, 'rot2': 0, 'state': 'normal', 'yaw': 59.55, 'datetime': '2018-10-12 18:14:52.102305', 'mgs': 0, 'depth': -0.14, 'time': 6.14, 'pitch': 1.03, 'roll': -1.58}
{'lipoC2': 7.57, 'temp': 27.44, 'lipoC3S3': 11.75, 'rot1': 0, 'rot0': 0, 'rot3': 0, 'rot2': 0, 'state': 'normal', 'yaw': 64.16, 'datetime': '2018-10-12 18:14:52.199462', 'mgs': 0, 'depth': -0.217, 'time': 6.24, 'pitch': 1.62, 'roll': -1.72}
{'lipoC2': 7.57, 'temp': 27.5, 'lipoC3S3': 11.76, 'rot1': 0, 'rot0': 0, 'rot3': 0, 'rot2': 0, 'state': 'normal', 'yaw': 68.01, 'datetime': '2018-10-12 18:14:52.296865', 'mgs': 0, 'depth': -0.14, 'time': 6.34, 'pitch': 2.22, 'roll': -2.02}
{'lipoC2': 7.57, 'temp': 27.5, 'lipoC3S3': 11.75, 'rot1': 0, 'rot0': 0, 'rot3': 0, 'rot2': 0, 'state': 'normal', 'yaw': 71.75, 'datetime': '2018-10-12 18:14:52.393914', 'mgs': 0, 'depth': -0.14, 'time': 6.43, 'pitch': 2.98, 'roll': -2.56}
{'lipoC2': 7.57, 'temp': 27.5, 'lipoC3S3': 11.76, 'rot1': 0, 'rot0': 0, 'rot3': 0, 'rot2': 0, 'state': 'normal', 'yaw': 75.18, 'datetime': '2018-10-12 18:14:52.491115', 'mgs': 0, 'depth': -0.14, 'time': 6.53, 'pitch': 3.99, 'roll': -3.08}
{'lipoC2': 7.57, 'temp': 27.5, 'lipoC3S3': 11.75, 'rot1': 0, 'rot0': 0, 'rot3': 0, 'rot2': 0, 'state': 'normal', 'yaw': 78.08, 'datetime': '2018-10-12 18:14:52.588102', 'mgs': 0, 'depth': 0.012, 'time': 6.63, 'pitch': 4.83, 'roll': -3.17}
{'lipoC2': 7.57, 'temp': 27.5, 'lipoC3S3': 11.75, 'rot1': 0, 'rot0': 0, 'rot3': 0, 'rot2': 0, 'state': 'normal', 'yaw': 80.41, 'datetime': '2018-10-12 18:14:52.681879', 'mgs': 0, 'depth': -0.14, 'time': 6.72, 'pitch': 5.23, 'roll': -2.61}
{'lipoC2': 7.57, 'temp': 27.5, 'lipoC3S3': 11.75, 'rot1': 0, 'rot0': 0, 'rot3': 0, 'rot2': 0, 'state': 'normal', 'yaw': 83.0, 'datetime': '2018-10-12 18:14:52.781234', 'mgs': 0, 'depth': 0.012, 'time': 6.82, 'pitch': 5.31, 'roll': -2.38}
{'lipoC2': 7.57, 'temp': 27.5, 'lipoC3S3': 11.77, 'rot1': 0, 'rot0': 0, 'rot3': 0, 'rot2': 0, 'state': 'normal', 'yaw': 85.66, 'datetime': '2018-10-12 18:14:52.879418', 'mgs': 0, 'depth': -0.064, 'time': 6.92, 'pitch': 5.07, 'roll': -2.83}
{'lipoC2': 7.57, 'temp': 27.5, 'lipoC3S3': 11.75, 'rot1': 0, 'rot0': 0, 'rot3': 0, 'rot2': 0, 'state': 'normal', 'yaw': 88.53, 'datetime': '2018-10-12 18:14:52.977995', 'mgs': 0, 'depth': -0.064, 'time': 7.02, 'pitch': 5.08, 'roll': -3.22}
{'lipoC2': 7.57, 'temp': 27.44, 'lipoC3S3': 11.76, 'rot1': 0, 'rot0': 0, 'rot3': 0, 'rot2': 0, 'state': 'normal', 'yaw': 91.85, 'datetime': '2018-10-12 18:14:53.076364', 'mgs': 0, 'depth': -0.064, 'time': 7.12, 'pitch': 5.37, 'roll': -3.03}
{'lipoC2': 7.57, 'temp': 27.44, 'lipoC3S3': 11.75, 'rot1': 0, 'rot0': 0, 'rot3': 0, 'rot2': 0, 'state': 'normal', 'yaw': 94.89, 'datetime': '2018-10-12 18:14:53.173995', 'mgs': 0, 'depth': -0.064, 'time': 7.22, 'pitch': 5.68, 'roll': -2.53}
{'lipoC2': 7.57, 'temp': 27.5, 'lipoC3S3': 11.76, 'rot1': 0, 'rot0': 0, 'rot3': 0, 'rot2': 0, 'state': 'normal', 'yaw': 98.01, 'datetime': '2018-10-12 18:14:53.271091', 'mgs': 0, 'depth': -0.14, 'time': 7.31, 'pitch': 5.95, 'roll': -2.68}
{'lipoC2': 7.57, 'temp': 27.5, 'lipoC3S3': 11.75, 'rot1': 0, 'rot0': 0, 'rot3': 0, 'rot2': 0, 'state': 'normal', 'yaw': 100.93, 'datetime': '2018-10-12 18:14:53.368952', 'mgs': 0, 'depth': -0.064, 'time': 7.41, 'pitch': 6.02, 'roll': -3.27}
{'lipoC2': 7.57, 'temp': 27.5, 'lipoC3S3': 11.75, 'rot1': 0, 'rot0': 0, 'rot3': 0, 'rot2': 0, 'state': 'normal', 'yaw': 103.77, 'datetime': '2018-10-12 18:14:53.467418', 'mgs': 0, 'depth': -0.064, 'time': 7.51, 'pitch': 5.47, 'roll': -3.78}
{'lipoC2': 7.57, 'temp': 27.5, 'lipoC3S3': 11.76, 'rot1': 0, 'rot0': 0, 'rot3': 0, 'rot2': 0, 'state': 'normal', 'yaw': 106.46, 'datetime': '2018-10-12 18:14:53.565427', 'mgs': 0, 'depth': -0.14, 'time': 7.61, 'pitch': 4.59, 'roll': -4.11}
{'lipoC2': 7.57, 'temp': 27.5, 'lipoC3S3': 11.75, 'rot1': 0, 'rot0': 0, 'rot3': 0, 'rot2': 0, 'state': 'normal', 'yaw': 109.0, 'datetime': '2018-10-12 18:14:53.662375', 'mgs': 0, 'depth': -0.064, 'time': 7.7, 'pitch': 3.71, 'roll': -4.23}
{'lipoC2': 7.57, 'temp': 27.44, 'lipoC3S3': 11.76, 'rot1': 0, 'rot0': 0, 'rot3': 0, 'rot2': 0, 'state': 'normal', 'yaw': 111.07, 'datetime': '2018-10-12 18:14:53.759815', 'mgs': 0, 'depth': -0.14, 'time': 7.8, 'pitch': 3.09, 'roll': -4.12}
{'lipoC2': 7.57, 'temp': 27.44, 'lipoC3S3': 11.75, 'rot1': 0, 'rot0': 0, 'rot3': 0, 'rot2': 0, 'state': 'normal', 'yaw': 113.19, 'datetime': '2018-10-12 18:14:53.858295', 'mgs': 0, 'depth': 0.012, 'time': 7.9, 'pitch': 2.61, 'roll': -3.73}
{'lipoC2': 7.57, 'temp': 27.63, 'lipoC3S3': 11.75, 'rot1': 0, 'rot0': 0, 'rot3': 0, 'rot2': 0, 'state': 'normal', 'yaw': 115.29, 'datetime': '2018-10-12 18:14:53.955263', 'mgs': 0, 'depth': 0.012, 'time': 8.0, 'pitch': 2.23, 'roll': -3.27}
{'lipoC2': 7.57, 'temp': 27.63, 'lipoC3S3': 11.75, 'rot1': 0, 'rot0': 0, 'rot3': 0, 'rot2': 0, 'state': 'normal', 'yaw': 117.38, 'datetime': '2018-10-12 18:14:54.052140', 'mgs': 0, 'depth': 0.012, 'time': 8.09, 'pitch': 1.81, 'roll': -2.89}
{'lipoC2': 7.57, 'temp': 27.63, 'lipoC3S3': 11.75, 'rot1': 0, 'rot0': 0, 'rot3': 0, 'rot2': 0, 'state': 'normal', 'yaw': 119.23, 'datetime': '2018-10-12 18:14:54.149103', 'mgs': 0, 'depth': 0.012, 'time': 8.19, 'pitch': 1.38, 'roll': -2.6}
{'lipoC2': 7.57, 'temp': 27.5, 'lipoC3S3': 11.75, 'rot1': 0, 'rot0': 0, 'rot3': 0, 'rot2': 0, 'state': 'normal', 'yaw': 121.27, 'datetime': '2018-10-12 18:14:54.246042', 'mgs': 0, 'depth': 0.012, 'time': 8.29, 'pitch': 0.89, 'roll': -2.27}
{'lipoC2': 7.57, 'temp': 27.5, 'lipoC3S3': 11.75, 'rot1': 0, 'rot0': 0, 'rot3': 0, 'rot2': 0, 'state': 'normal', 'yaw': 123.24, 'datetime': '2018-10-12 18:14:54.343065', 'mgs': 0, 'depth': 0.089, 'time': 8.39, 'pitch': 0.55, 'roll': -1.85}
{'lipoC2': 7.57, 'temp': 27.5, 'lipoC3S3': 11.75, 'rot1': 0, 'rot0': 0, 'rot3': 0, 'rot2': 0, 'state': 'normal', 'yaw': 124.96, 'datetime': '2018-10-12 18:14:54.440358', 'mgs': 0, 'depth': 0.012, 'time': 8.48, 'pitch': 0.47, 'roll': -1.39}
{'lipoC2': 7.57, 'temp': 27.5, 'lipoC3S3': 11.75, 'rot1': 0, 'rot0': 0, 'rot3': 0, 'rot2': 0, 'state': 'normal', 'yaw': 126.86, 'datetime': '2018-10-12 18:14:54.537466', 'mgs': 0, 'depth': 0.012, 'time': 8.58, 'pitch': 0.62, 'roll': -0.82}
{'lipoC2': 7.57, 'temp': 27.5, 'lipoC3S3': 11.76, 'rot1': 0, 'rot0': 0, 'rot3': 0, 'rot2': 0, 'state': 'normal', 'yaw': 128.75, 'datetime': '2018-10-12 18:14:54.634250', 'mgs': 0, 'depth': 0.089, 'time': 8.68, 'pitch': 1.0, 'roll': -0.22}
{'lipoC2': 7.57, 'temp': 27.44, 'lipoC3S3': 11.76, 'rot1': 0, 'rot0': 0, 'rot3': 0, 'rot2': 0, 'state': 'normal', 'yaw': 130.63, 'datetime': '2018-10-12 18:14:54.731701', 'mgs': 0, 'depth': 0.089, 'time': 8.77, 'pitch': 1.46, 'roll': 0.37}
{'lipoC2': 7.57, 'temp': 27.44, 'lipoC3S3': 11.75, 'rot1': 0, 'rot0': 0, 'rot3': 0, 'rot2': 0, 'state': 'normal', 'yaw': 132.32, 'datetime': '2018-10-12 18:14:54.830042', 'mgs': 0, 'depth': 0.012, 'time': 8.87, 'pitch': 1.86, 'roll': 0.75}
{'lipoC2': 7.57, 'temp': 27.5, 'lipoC3S3': 11.75, 'rot1': 0, 'rot0': 0, 'rot3': 0, 'rot2': 0, 'state': 'normal', 'yaw': 134.2, 'datetime': '2018-10-12 18:14:54.928427', 'mgs': 0, 'depth': 0.012, 'time': 8.97, 'pitch': 2.29, 'roll': 0.98}
{'lipoC2': 7.57, 'temp': 27.5, 'lipoC3S3': 11.76, 'rot1': 0, 'rot0': 0, 'rot3': 0, 'rot2': 0, 'state': 'normal', 'yaw': 136.04, 'datetime': '2018-10-12 18:14:55.025412', 'mgs': 0, 'depth': 0.012, 'time': 9.07, 'pitch': 2.74, 'roll': 1.07}
{'lipoC2': 7.57, 'temp': 27.5, 'lipoC3S3': 11.76, 'rot1': 0, 'rot0': 0, 'rot3': 0, 'rot2': 0, 'state': 'normal', 'yaw': 137.41, 'datetime': '2018-10-12 18:14:55.122403', 'mgs': 0, 'depth': 0.165, 'time': 9.16, 'pitch': 3.45, 'roll': 1.22}
{'lipoC2': 7.57, 'temp': 27.44, 'lipoC3S3': 11.75, 'rot1': 0, 'rot0': 0, 'rot3': 0, 'rot2': 0, 'state': 'normal', 'yaw': 138.7, 'datetime': '2018-10-12 18:14:55.221608', 'mgs': 0, 'depth': 0.165, 'time': 9.26, 'pitch': 4.09, 'roll': 1.73}
{'lipoC2': 7.57, 'temp': 27.44, 'lipoC3S3': 11.75, 'rot1': 0, 'rot0': 0, 'rot3': 0, 'rot2': 0, 'state': 'normal', 'yaw': 140.54, 'datetime': '2018-10-12 18:14:55.317686', 'mgs': 0, 'depth': 0.089, 'time': 9.36, 'pitch': 4.59, 'roll': 2.66}
{'lipoC2': 7.57, 'temp': 27.5, 'lipoC3S3': 11.76, 'rot1': 0, 'rot0': 0, 'rot3': 0, 'rot2': 0, 'state': 'normal', 'yaw': 142.38, 'datetime': '2018-10-12 18:14:55.416113', 'mgs': 0, 'depth': 0.012, 'time': 9.46, 'pitch': 5.22, 'roll': 3.19}
{'lipoC2': 7.57, 'temp': 27.5, 'lipoC3S3': 11.75, 'rot1': 0, 'rot0': 0, 'rot3': 0, 'rot2': 0, 'state': 'normal', 'yaw': 144.15, 'datetime': '2018-10-12 18:14:55.513090', 'mgs': 0, 'depth': 0.012, 'time': 9.56, 'pitch': 5.82, 'roll': 2.87}
{'lipoC2': 7.57, 'temp': 27.5, 'lipoC3S3': 11.75, 'rot1': 0, 'rot0': 0, 'rot3': 0, 'rot2': 0, 'state': 'normal', 'yaw': 146.19, 'datetime': '2018-10-12 18:14:55.611644', 'mgs': 0, 'depth': -0.064, 'time': 9.65, 'pitch': 6.25, 'roll': 2.18}
{'lipoC2': 7.57, 'temp': 27.5, 'lipoC3S3': 11.75, 'rot1': 0, 'rot0': 0, 'rot3': 0, 'rot2': 0, 'state': 'normal', 'yaw': 149.21, 'datetime': '2018-10-12 18:14:55.709004', 'mgs': 0, 'depth': -0.064, 'time': 9.75, 'pitch': 6.19, 'roll': 1.53}
{'lipoC2': 7.57, 'temp': 27.5, 'lipoC3S3': 11.75, 'rot1': 0, 'rot0': 0, 'rot3': 0, 'rot2': 0, 'state': 'normal', 'yaw': 152.64, 'datetime': '2018-10-12 18:14:55.806049', 'mgs': 0, 'depth': -0.14, 'time': 9.85, 'pitch': 5.61, 'roll': 1.16}
{'lipoC2': 7.57, 'temp': 27.5, 'lipoC3S3': 11.75, 'rot1': 0, 'rot0': 0, 'rot3': 0, 'rot2': 0, 'state': 'normal', 'yaw': 155.55, 'datetime': '2018-10-12 18:14:55.903494', 'mgs': 0, 'depth': -0.217, 'time': 9.95, 'pitch': 4.76, 'roll': 0.83}
{'lipoC2': 7.57, 'temp': 27.5, 'lipoC3S3': 11.75, 'rot1': 0, 'rot0': 0, 'rot3': 0, 'rot2': 0, 'state': 'normal', 'yaw': 158.57, 'datetime': '2018-10-12 18:14:56.000571', 'mgs': 0, 'depth': -0.217, 'time': 10.04, 'pitch': 3.55, 'roll': 0.25}
{'lipoC2': 7.57, 'temp': 27.5, 'lipoC3S3': 11.75, 'rot1': 0, 'rot0': 0, 'rot3': 0, 'rot2': 0, 'state': 'normal', 'yaw': 161.46, 'datetime': '2018-10-12 18:14:56.097670', 'mgs': 0, 'depth': -0.446, 'time': 10.14, 'pitch': 2.21, 'roll': -0.58}
{'lipoC2': 7.57, 'temp': 27.5, 'lipoC3S3': 11.76, 'rot1': 0, 'rot0': 0, 'rot3': 0, 'rot2': 0, 'state': 'normal', 'yaw': 163.95, 'datetime': '2018-10-12 18:14:56.194705', 'mgs': 0, 'depth': -0.522, 'time': 10.24, 'pitch': 0.97, 'roll': -1.56}
{'lipoC2': 7.57, 'temp': 27.5, 'lipoC3S3': 11.75, 'rot1': 0, 'rot0': 0, 'rot3': 0, 'rot2': 0, 'state': 'normal', 'yaw': 165.89, 'datetime': '2018-10-12 18:14:56.291864', 'mgs': 0, 'depth': -0.446, 'time': 10.34, 'pitch': 0.06, 'roll': -2.21}
{'lipoC2': 7.57, 'temp': 27.5, 'lipoC3S3': 11.76, 'rot1': 0, 'rot0': 0, 'rot3': 0, 'rot2': 0, 'state': 'normal', 'yaw': 167.81, 'datetime': '2018-10-12 18:14:56.389048', 'mgs': 0, 'depth': -0.598, 'time': 10.43, 'pitch': -0.66, 'roll': -2.83}
{'lipoC2': 7.57, 'temp': 27.5, 'lipoC3S3': 11.75, 'rot1': 0, 'rot0': 0, 'rot3': 0, 'rot2': 0, 'state': 'normal', 'yaw': 169.66, 'datetime': '2018-10-12 18:14:56.486239', 'mgs': 0, 'depth': -0.598, 'time': 10.53, 'pitch': -1.31, 'roll': -3.64}
{'lipoC2': 7.57, 'temp': 27.5, 'lipoC3S3': 11.75, 'rot1': 0, 'rot0': 0, 'rot3': 0, 'rot2': 0, 'state': 'normal', 'yaw': 171.53, 'datetime': '2018-10-12 18:14:56.584309', 'mgs': 0, 'depth': -0.598, 'time': 10.63, 'pitch': -2.13, 'roll': -4.4}
{'lipoC2': 7.57, 'temp': 27.5, 'lipoC3S3': 11.75, 'rot1': 0, 'rot0': 0, 'rot3': 0, 'rot2': 0, 'state': 'normal', 'yaw': 173.66, 'datetime': '2018-10-12 18:14:56.682670', 'mgs': 0, 'depth': -0.674, 'time': 10.73, 'pitch': -2.94, 'roll': -5.03}
{'lipoC2': 7.57, 'temp': 27.5, 'lipoC3S3': 11.76, 'rot1': 0, 'rot0': 0, 'rot3': 0, 'rot2': 0, 'state': 'normal', 'yaw': 175.65, 'datetime': '2018-10-12 18:14:56.781120', 'mgs': 0, 'depth': -0.598, 'time': 10.82, 'pitch': -3.23, 'roll': -5.52}
{'lipoC2': 7.57, 'temp': 27.5, 'lipoC3S3': 11.75, 'rot1': 0, 'rot0': 0, 'rot3': 0, 'rot2': 0, 'state': 'normal', 'yaw': 177.37, 'datetime': '2018-10-12 18:14:56.878406', 'mgs': 0, 'depth': -0.598, 'time': 10.92, 'pitch': -2.78, 'roll': -5.82}
{'lipoC2': 7.57, 'temp': 27.5, 'lipoC3S3': 11.76, 'rot1': 0, 'rot0': 0, 'rot3': 0, 'rot2': 0, 'state': 'normal', 'yaw': 178.83, 'datetime': '2018-10-12 18:14:56.975599', 'mgs': 0, 'depth': -0.598, 'time': 11.02, 'pitch': -2.29, 'roll': -5.66}
{'lipoC2': 7.57, 'temp': 27.5, 'lipoC3S3': 11.75, 'rot1': 0, 'rot0': 0, 'rot3': 0, 'rot2': 0, 'state': 'normal', 'yaw': 179.56, 'datetime': '2018-10-12 18:14:57.073954', 'mgs': 0, 'depth': -0.522, 'time': 11.12, 'pitch': -2.26, 'roll': -5.42}
{'lipoC2': 7.57, 'temp': 27.5, 'lipoC3S3': 11.76, 'rot1': 0, 'rot0': 0, 'rot3': 0, 'rot2': 0, 'state': 'normal', 'yaw': 179.62, 'datetime': '2018-10-12 18:14:57.167977', 'mgs': 0, 'depth': -0.598, 'time': 11.22, 'pitch': -2.62, 'roll': -5.56}
{'lipoC2': 7.57, 'temp': 27.5, 'lipoC3S3': 11.75, 'rot1': 0, 'rot0': 0, 'rot3': 0, 'rot2': 0, 'state': 'normal', 'yaw': 179.33, 'datetime': '2018-10-12 18:14:57.265085', 'mgs': 0, 'depth': -0.522, 'time': 11.31, 'pitch': -3.19, 'roll': -6.4}
{'lipoC2': 7.57, 'temp': 27.5, 'lipoC3S3': 11.75, 'rot1': 0, 'rot0': 0, 'rot3': 0, 'rot2': 0, 'state': 'normal', 'yaw': 178.98, 'datetime': '2018-10-12 18:14:57.362222', 'mgs': 0, 'depth': -0.522, 'time': 11.41, 'pitch': -3.87, 'roll': -7.52}
{'lipoC2': 7.57, 'temp': 27.5, 'lipoC3S3': 11.75, 'rot1': 0, 'rot0': 0, 'rot3': 0, 'rot2': 0, 'state': 'normal', 'yaw': 178.6, 'datetime': '2018-10-12 18:14:57.460565', 'mgs': 0, 'depth': -0.522, 'time': 11.51, 'pitch': -4.41, 'roll': -8.18}
{'lipoC2': 7.57, 'temp': 27.5, 'lipoC3S3': 11.75, 'rot1': 0, 'rot0': 0, 'rot3': 0, 'rot2': 0, 'state': 'normal', 'yaw': 177.88, 'datetime': '2018-10-12 18:14:57.557781', 'mgs': 0, 'depth': -0.522, 'time': 11.61, 'pitch': -4.92, 'roll': -8.29}
{'lipoC2': 7.57, 'temp': 27.5, 'lipoC3S3': 11.75, 'rot1': 0, 'rot0': 0, 'rot3': 0, 'rot2': 0, 'state': 'normal', 'yaw': 176.85, 'datetime': '2018-10-12 18:14:57.654883', 'mgs': 0, 'depth': -0.522, 'time': 11.7, 'pitch': -5.31, 'roll': -7.86}
{'lipoC2': 7.57, 'temp': 27.5, 'lipoC3S3': 11.75, 'rot1': 0, 'rot0': 0, 'rot3': 0, 'rot2': 0, 'state': 'normal', 'yaw': 175.77, 'datetime': '2018-10-12 18:14:57.752270', 'mgs': 0, 'depth': -0.446, 'time': 11.8, 'pitch': -5.45, 'roll': -7.29}
{'lipoC2': 7.57, 'temp': 27.5, 'lipoC3S3': 11.76, 'rot1': 0, 'rot0': 0, 'rot3': 0, 'rot2': 0, 'state': 'normal', 'yaw': 174.65, 'datetime': '2018-10-12 18:14:57.849395', 'mgs': 0, 'depth': -0.446, 'time': 11.9, 'pitch': -5.44, 'roll': -6.77}
{'lipoC2': 7.57, 'temp': 27.5, 'lipoC3S3': 11.76, 'rot1': 0, 'rot0': 0, 'rot3': 0, 'rot2': 0, 'state': 'normal', 'yaw': 173.71, 'datetime': '2018-10-12 18:14:57.946550', 'mgs': 0, 'depth': -0.446, 'time': 12.0, 'pitch': -5.26, 'roll': -6.7}
{'lipoC2': 7.57, 'temp': 27.5, 'lipoC3S3': 11.75, 'rot1': 0, 'rot0': 0, 'rot3': 0, 'rot2': 0, 'state': 'normal', 'yaw': 172.6, 'datetime': '2018-10-12 18:14:58.043670', 'mgs': 0, 'depth': -0.369, 'time': 12.09, 'pitch': -4.91, 'roll': -7.04}
{'lipoC2': 7.57, 'temp': 27.5, 'lipoC3S3': 11.75, 'rot1': 0, 'rot0': 0, 'rot3': 0, 'rot2': 0, 'state': 'normal', 'yaw': 171.57, 'datetime': '2018-10-12 18:14:58.140858', 'mgs': 0, 'depth': -0.369, 'time': 12.19, 'pitch': -4.45, 'roll': -7.16}
{'lipoC2': 7.57, 'temp': 27.5, 'lipoC3S3': 11.75, 'rot1': 0, 'rot0': 0, 'rot3': 0, 'rot2': 0, 'state': 'normal', 'yaw': 170.71, 'datetime': '2018-10-12 18:14:58.238040', 'mgs': 0, 'depth': -0.369, 'time': 12.29, 'pitch': -3.74, 'roll': -6.69}
{'lipoC2': 7.57, 'temp': 27.5, 'lipoC3S3': 11.75, 'rot1': 0, 'rot0': 0, 'rot3': 0, 'rot2': 0, 'state': 'normal', 'yaw': 170.45, 'datetime': '2018-10-12 18:14:58.335185', 'mgs': 0, 'depth': -0.446, 'time': 12.39, 'pitch': -3.03, 'roll': -5.71}
{'lipoC2': 7.57, 'temp': 27.5, 'lipoC3S3': 11.75, 'rot1': 0, 'rot0': 0, 'rot3': 0, 'rot2': 0, 'state': 'normal', 'yaw': 170.42, 'datetime': '2018-10-12 18:14:58.433330', 'mgs': 0, 'depth': -0.446, 'time': 12.48, 'pitch': -2.8, 'roll': -4.79}
{'lipoC2': 7.57, 'temp': 27.5, 'lipoC3S3': 11.75, 'rot1': 0, 'rot0': 0, 'rot3': 0, 'rot2': 0, 'state': 'normal', 'yaw': 170.58, 'datetime': '2018-10-12 18:14:58.531723', 'mgs': 0, 'depth': -0.446, 'time': 12.58, 'pitch': -3.28, 'roll': -3.96}
{'lipoC2': 7.57, 'temp': 27.44, 'lipoC3S3': 11.75, 'rot1': 0, 'rot0': 0, 'rot3': 0, 'rot2': 0, 'state': 'normal', 'yaw': 171.03, 'datetime': '2018-10-12 18:14:58.629728', 'mgs': 0, 'depth': -0.369, 'time': 12.68, 'pitch': -4.23, 'roll': -3.62}
{'lipoC2': 7.57, 'temp': 27.44, 'lipoC3S3': 11.75, 'rot1': 0, 'rot0': 0, 'rot3': 0, 'rot2': 0, 'state': 'normal', 'yaw': 171.81, 'datetime': '2018-10-12 18:14:58.726834', 'mgs': 0, 'depth': -0.446, 'time': 12.78, 'pitch': -5.01, 'roll': -3.67}
{'lipoC2': 7.57, 'temp': 27.5, 'lipoC3S3': 11.75, 'rot1': 0, 'rot0': 0, 'rot3': 0, 'rot2': 0, 'state': 'normal', 'yaw': 172.6, 'datetime': '2018-10-12 18:14:58.824347', 'mgs': 0, 'depth': -0.446, 'time': 12.88, 'pitch': -5.04, 'roll': -3.75}
{'lipoC2': 7.57, 'temp': 27.5, 'lipoC3S3': 11.75, 'rot1': 0, 'rot0': 0, 'rot3': 0, 'rot2': 0, 'state': 'normal', 'yaw': 173.3, 'datetime': '2018-10-12 18:14:58.922814', 'mgs': 0, 'depth': -0.522, 'time': 12.97, 'pitch': -4.46, 'roll': -3.93}
{'lipoC2': 7.57, 'temp': 27.5, 'lipoC3S3': 11.76, 'rot1': 0, 'rot0': 0, 'rot3': 0, 'rot2': 0, 'state': 'normal', 'yaw': 173.67, 'datetime': '2018-10-12 18:14:59.021165', 'mgs': 0, 'depth': -0.522, 'time': 13.07, 'pitch': -3.88, 'roll': -4.26}
{'lipoC2': 7.57, 'temp': 27.5, 'lipoC3S3': 11.76, 'rot1': 0, 'rot0': 0, 'rot3': 0, 'rot2': 0, 'state': 'normal', 'yaw': 173.76, 'datetime': '2018-10-12 18:14:59.121671', 'mgs': 0, 'depth': -0.522, 'time': 13.17, 'pitch': -4.0, 'roll': -4.59}
{'lipoC2': 7.57, 'temp': 27.5, 'lipoC3S3': 11.75, 'rot1': 0, 'rot0': 0, 'rot3': 0, 'rot2': 0, 'state': 'normal', 'yaw': 173.87, 'datetime': '2018-10-12 18:14:59.219820', 'mgs': 0, 'depth': -0.446, 'time': 13.27, 'pitch': -4.82, 'roll': -4.69}
{'lipoC2': 7.57, 'temp': 27.5, 'lipoC3S3': 11.75, 'rot1': 0, 'rot0': 0, 'rot3': 0, 'rot2': 0, 'state': 'normal', 'yaw': 173.98, 'datetime': '2018-10-12 18:14:59.318335', 'mgs': 0, 'depth': -0.369, 'time': 13.36, 'pitch': -5.78, 'roll': -4.51}
{'lipoC2': 7.57, 'temp': 27.5, 'lipoC3S3': 11.75, 'rot1': 0, 'rot0': 0, 'rot3': 0, 'rot2': 0, 'state': 'normal', 'yaw': 174.06, 'datetime': '2018-10-12 18:14:59.415607', 'mgs': 0, 'depth': -0.446, 'time': 13.46, 'pitch': -6.68, 'roll': -4.17}
{'lipoC2': 7.57, 'temp': 27.5, 'lipoC3S3': 11.76, 'rot1': 0, 'rot0': 0, 'rot3': 0, 'rot2': 0, 'state': 'normal', 'yaw': 174.15, 'datetime': '2018-10-12 18:14:59.512692', 'mgs': 0, 'depth': -0.446, 'time': 13.56, 'pitch': -7.07, 'roll': -3.71}
{'lipoC2': 7.57, 'temp': 27.5, 'lipoC3S3': 11.75, 'rot1': 0, 'rot0': 0, 'rot3': 0, 'rot2': 0, 'state': 'normal', 'yaw': 174.15, 'datetime': '2018-10-12 18:14:59.610345', 'mgs': 0, 'depth': -0.293, 'time': 13.66, 'pitch': -6.81, 'roll': -3.06}
{'lipoC2': 7.57, 'temp': 27.5, 'lipoC3S3': 11.75, 'rot1': 0, 'rot0': 0, 'rot3': 0, 'rot2': 0, 'state': 'normal', 'yaw': 174.44, 'datetime': '2018-10-12 18:14:59.707274', 'mgs': 0, 'depth': -0.293, 'time': 13.75, 'pitch': -6.07, 'roll': -2.26}
{'lipoC2': 7.57, 'temp': 27.5, 'lipoC3S3': 11.75, 'rot1': 0, 'rot0': 0, 'rot3': 0, 'rot2': 0, 'state': 'normal', 'yaw': 175.03, 'datetime': '2018-10-12 18:14:59.804506', 'mgs': 0, 'depth': -0.293, 'time': 13.85, 'pitch': -5.26, 'roll': -1.54}
{'lipoC2': 7.57, 'temp': 27.5, 'lipoC3S3': 11.76, 'rot1': 0, 'rot0': 0, 'rot3': 0, 'rot2': 0, 'state': 'normal', 'yaw': 175.43, 'datetime': '2018-10-12 18:14:59.901483', 'mgs': 0, 'depth': -0.369, 'time': 13.95, 'pitch': -4.5, 'roll': -1.05}
{'lipoC2': 7.57, 'temp': 27.5, 'lipoC3S3': 11.75, 'rot1': 0, 'rot0': 0, 'rot3': 0, 'rot2': 0, 'state': 'normal', 'yaw': 175.75, 'datetime': '2018-10-12 18:14:59.998732', 'mgs': 0, 'depth': -0.369, 'time': 14.05, 'pitch': -3.88, 'roll': -0.84}
{'lipoC2': 7.57, 'temp': 27.56, 'lipoC3S3': 11.76, 'rot1': 0, 'rot0': 0, 'rot3': 0, 'rot2': 0, 'state': 'normal', 'yaw': 176.37, 'datetime': '2018-10-12 18:15:00.091257', 'mgs': 0, 'depth': -0.369, 'time': 14.14, 'pitch': -3.13, 'roll': -0.84}
{'lipoC2': 7.57, 'temp': 27.56, 'lipoC3S3': 11.75, 'rot1': 0, 'rot0': 0, 'rot3': 0, 'rot2': 0, 'state': 'normal', 'yaw': 177.04, 'datetime': '2018-10-12 18:15:00.188447', 'mgs': 0, 'depth': -0.446, 'time': 14.24, 'pitch': -2.6, 'roll': -1.09}
{'lipoC2': 7.57, 'temp': 27.56, 'lipoC3S3': 11.76, 'rot1': 0, 'rot0': 0, 'rot3': 0, 'rot2': 0, 'state': 'normal', 'yaw': 177.64, 'datetime': '2018-10-12 18:15:00.286502', 'mgs': 0, 'depth': -0.446, 'time': 14.34, 'pitch': -2.7, 'roll': -1.51}
{'lipoC2': 7.57, 'temp': 27.56, 'lipoC3S3': 11.76, 'rot1': 0, 'rot0': 0, 'rot3': 0, 'rot2': 0, 'state': 'normal', 'yaw': 178.22, 'datetime': '2018-10-12 18:15:00.387501', 'mgs': 0, 'depth': -0.446, 'time': 14.44, 'pitch': -3.06, 'roll': -2.19}
{'lipoC2': 7.57, 'temp': 27.56, 'lipoC3S3': 11.76, 'rot1': 0, 'rot0': 0, 'rot3': 0, 'rot2': 0, 'state': 'normal', 'yaw': 179.08, 'datetime': '2018-10-12 18:15:00.487597', 'mgs': 0, 'depth': -0.446, 'time': 14.53, 'pitch': -2.83, 'roll': -2.64}
{'lipoC2': 7.57, 'temp': 27.44, 'lipoC3S3': 11.76, 'rot1': 0, 'rot0': 0, 'rot3': 0, 'rot2': 0, 'state': 'normal', 'yaw': 179.62, 'datetime': '2018-10-12 18:15:00.584789', 'mgs': 0, 'depth': -0.522, 'time': 14.63, 'pitch': -2.94, 'roll': -2.81}
{'lipoC2': 7.56, 'temp': 27.44, 'lipoC3S3': 11.75, 'rot1': 0, 'rot0': 0, 'rot3': 0, 'rot2': 0, 'state': 'normal', 'yaw': 179.43, 'datetime': '2018-10-12 18:15:00.682122', 'mgs': 0, 'depth': -0.446, 'time': 14.73, 'pitch': -3.61, 'roll': -2.9}
{'lipoC2': 7.57, 'temp': 27.5, 'lipoC3S3': 11.76, 'rot1': 0, 'rot0': 0, 'rot3': 0, 'rot2': 0, 'state': 'normal', 'yaw': 178.83, 'datetime': '2018-10-12 18:15:00.780513', 'mgs': 0, 'depth': -0.522, 'time': 14.83, 'pitch': -4.53, 'roll': -2.88}
{'lipoC2': 7.57, 'temp': 27.5, 'lipoC3S3': 11.75, 'rot1': 0, 'rot0': 0, 'rot3': 0, 'rot2': 0, 'state': 'normal', 'yaw': 177.95, 'datetime': '2018-10-12 18:15:00.878943', 'mgs': 0, 'depth': -0.522, 'time': 14.93, 'pitch': -5.44, 'roll': -2.88}
{'lipoC2': 7.57, 'temp': 27.44, 'lipoC3S3': 11.76, 'rot1': 0, 'rot0': 0, 'rot3': 0, 'rot2': 0, 'state': 'normal', 'yaw': 177.2, 'datetime': '2018-10-12 18:15:00.976058', 'mgs': 0, 'depth': -0.369, 'time': 15.02, 'pitch': -6.1, 'roll': -3.01}
{'lipoC2': 7.57, 'temp': 27.44, 'lipoC3S3': 11.76, 'rot1': 0, 'rot0': 0, 'rot3': 0, 'rot2': 0, 'state': 'normal', 'yaw': 176.73, 'datetime': '2018-10-12 18:15:01.073388', 'mgs': 0, 'depth': -0.446, 'time': 15.12, 'pitch': -6.36, 'roll': -3.3}
{'lipoC2': 7.57, 'temp': 27.44, 'lipoC3S3': 11.76, 'rot1': 0, 'rot0': 0, 'rot3': 0, 'rot2': 0, 'state': 'normal', 'yaw': 176.45, 'datetime': '2018-10-12 18:15:01.171637', 'mgs': 0, 'depth': -0.369, 'time': 15.22, 'pitch': -6.24, 'roll': -3.36}
{'lipoC2': 7.57, 'temp': 27.5, 'lipoC3S3': 11.75, 'rot1': 0, 'rot0': 0, 'rot3': 0, 'rot2': 0, 'state': 'normal', 'yaw': 176.12, 'datetime': '2018-10-12 18:15:01.268840', 'mgs': 0, 'depth': -0.293, 'time': 15.32, 'pitch': -5.93, 'roll': -2.79}
{'lipoC2': 7.57, 'temp': 27.5, 'lipoC3S3': 11.76, 'rot1': 0, 'rot0': 0, 'rot3': 0, 'rot2': 0, 'state': 'normal', 'yaw': 175.96, 'datetime': '2018-10-12 18:15:01.365988', 'mgs': 0, 'depth': -0.293, 'time': 15.41, 'pitch': -5.87, 'roll': -1.83}
{'lipoC2': 7.56, 'temp': 27.5, 'lipoC3S3': 11.75, 'rot1': 0, 'rot0': 0, 'rot3': 0, 'rot2': 0, 'state': 'normal', 'yaw': 175.92, 'datetime': '2018-10-12 18:15:01.463194', 'mgs': 0, 'depth': -0.217, 'time': 15.51, 'pitch': -6.36, 'roll': -0.72}
{'lipoC2': 7.57, 'temp': 27.5, 'lipoC3S3': 11.75, 'rot1': 0, 'rot0': 0, 'rot3': 0, 'rot2': 0, 'state': 'normal', 'yaw': 175.62, 'datetime': '2018-10-12 18:15:01.560350', 'mgs': 0, 'depth': -0.293, 'time': 15.61, 'pitch': -7.47, 'roll': 0.59}
{'lipoC2': 7.57, 'temp': 27.5, 'lipoC3S3': 11.76, 'rot1': 0, 'rot0': 0, 'rot3': 0, 'rot2': 0, 'state': 'normal', 'yaw': 174.51, 'datetime': '2018-10-12 18:15:01.657575', 'mgs': 0, 'depth': -0.217, 'time': 15.71, 'pitch': -8.6, 'roll': 1.36}
{'lipoC2': 7.57, 'temp': 27.5, 'lipoC3S3': 11.75, 'rot1': 0, 'rot0': 0, 'rot3': 0, 'rot2': 0, 'state': 'normal', 'yaw': 172.73, 'datetime': '2018-10-12 18:15:01.754578', 'mgs': 0, 'depth': -0.14, 'time': 15.8, 'pitch': -9.23, 'roll': 1.24}
{'lipoC2': 7.57, 'temp': 27.5, 'lipoC3S3': 11.75, 'rot1': 0, 'rot0': 0, 'rot3': 0, 'rot2': 0, 'state': 'normal', 'yaw': 171.1, 'datetime': '2018-10-12 18:15:01.851771', 'mgs': 0, 'depth': -0.064, 'time': 15.9, 'pitch': -9.23, 'roll': 1.09}
{'lipoC2': 7.57, 'temp': 27.5, 'lipoC3S3': 11.76, 'rot1': 0, 'rot0': 0, 'rot3': 0, 'rot2': 0, 'state': 'normal', 'yaw': 169.84, 'datetime': '2018-10-12 18:15:01.948927', 'mgs': 0, 'depth': -0.064, 'time': 16.0, 'pitch': -8.91, 'roll': 1.25}
{'lipoC2': 7.57, 'temp': 27.5, 'lipoC3S3': 11.76, 'rot1': 0, 'rot0': 0, 'rot3': 0, 'rot2': 0, 'state': 'normal', 'yaw': 169.04, 'datetime': '2018-10-12 18:15:02.046022', 'mgs': 0, 'depth': -0.14, 'time': 16.09, 'pitch': -8.71, 'roll': 1.59}
{'lipoC2': 7.57, 'temp': 27.5, 'lipoC3S3': 11.75, 'rot1': 0, 'rot0': 0, 'rot3': 0, 'rot2': 0, 'state': 'normal', 'yaw': 168.36, 'datetime': '2018-10-12 18:15:02.144132', 'mgs': 0, 'depth': -0.14, 'time': 16.19, 'pitch': -8.72, 'roll': 1.61}
{'lipoC2': 7.57, 'temp': 27.5, 'lipoC3S3': 11.76, 'rot1': 0, 'rot0': 0, 'rot3': 0, 'rot2': 0, 'state': 'normal', 'yaw': 167.56, 'datetime': '2018-10-12 18:15:02.242776', 'mgs': 0, 'depth': -0.217, 'time': 16.29, 'pitch': -8.65, 'roll': 1.15}
{'lipoC2': 7.57, 'temp': 27.5, 'lipoC3S3': 11.76, 'rot1': 0, 'rot0': 0, 'rot3': 0, 'rot2': 0, 'state': 'normal', 'yaw': 166.89, 'datetime': '2018-10-12 18:15:02.341220', 'mgs': 0, 'depth': -0.14, 'time': 16.39, 'pitch': -8.36, 'roll': 0.29}
{'lipoC2': 7.57, 'temp': 27.5, 'lipoC3S3': 11.76, 'rot1': 0, 'rot0': 0, 'rot3': 0, 'rot2': 0, 'state': 'normal', 'yaw': 166.75, 'datetime': '2018-10-12 18:15:02.438299', 'mgs': 0, 'depth': -0.217, 'time': 16.49, 'pitch': -7.78, 'roll': -0.42}
{'lipoC2': 7.57, 'temp': 27.5, 'lipoC3S3': 11.75, 'rot1': 0, 'rot0': 0, 'rot3': 0, 'rot2': 0, 'state': 'normal', 'yaw': 167.8, 'datetime': '2018-10-12 18:15:02.535344', 'mgs': 0, 'depth': -0.293, 'time': 16.58, 'pitch': -7.23, 'roll': -0.7}
{'lipoC2': 7.57, 'temp': 27.5, 'lipoC3S3': 11.75, 'rot1': 0, 'rot0': 0, 'rot3': 0, 'rot2': 0, 'state': 'normal', 'yaw': 169.55, 'datetime': '2018-10-12 18:15:02.633810', 'mgs': 0, 'depth': -0.293, 'time': 16.68, 'pitch': -6.96, 'roll': -0.93}
{'lipoC2': 7.57, 'temp': 27.5, 'lipoC3S3': 11.76, 'rot1': 0, 'rot0': 0, 'rot3': 0, 'rot2': 0, 'state': 'normal', 'yaw': 171.71, 'datetime': '2018-10-12 18:15:02.732183', 'mgs': 0, 'depth': -0.369, 'time': 16.78, 'pitch': -6.83, 'roll': -1.47}
{'lipoC2': 7.57, 'temp': 27.5, 'lipoC3S3': 11.75, 'rot1': 0, 'rot0': 0, 'rot3': 0, 'rot2': 0, 'state': 'normal', 'yaw': 173.61, 'datetime': '2018-10-12 18:15:02.829623', 'mgs': 0, 'depth': -0.369, 'time': 16.88, 'pitch': -6.85, 'roll': -2.49}
{'lipoC2': 7.57, 'temp': 27.5, 'lipoC3S3': 11.76, 'rot1': 0, 'rot0': 0, 'rot3': 0, 'rot2': 0, 'state': 'normal', 'yaw': 175.2, 'datetime': '2018-10-12 18:15:02.926567', 'mgs': 0, 'depth': -0.369, 'time': 16.98, 'pitch': -6.88, 'roll': -3.4}
{'lipoC2': 7.57, 'temp': 27.5, 'lipoC3S3': 11.75, 'rot1': 0, 'rot0': 0, 'rot3': 0, 'rot2': 0, 'state': 'normal', 'yaw': 176.22, 'datetime': '2018-10-12 18:15:03.025039', 'mgs': 0, 'depth': -0.446, 'time': 17.08, 'pitch': -6.88, 'roll': -3.75}
{'lipoC2': 7.57, 'temp': 27.5, 'lipoC3S3': 11.75, 'rot1': 0, 'rot0': 0, 'rot3': 0, 'rot2': 0, 'state': 'normal', 'yaw': 176.73, 'datetime': '2018-10-12 18:15:03.123388', 'mgs': 0, 'depth': -0.369, 'time': 17.17, 'pitch': -6.97, 'roll': -3.94}
{'lipoC2': 7.57, 'temp': 27.5, 'lipoC3S3': 11.75, 'rot1': 0, 'rot0': 0, 'rot3': 0, 'rot2': 0, 'state': 'normal', 'yaw': 176.76, 'datetime': '2018-10-12 18:15:03.220468', 'mgs': 0, 'depth': -0.369, 'time': 17.27, 'pitch': -7.16, 'roll': -4.19}
{'lipoC2': 7.57, 'temp': 27.5, 'lipoC3S3': 11.76, 'rot1': 0, 'rot0': 0, 'rot3': 0, 'rot2': 0, 'state': 'normal', 'yaw': 176.57, 'datetime': '2018-10-12 18:15:03.317681', 'mgs': 0, 'depth': -0.293, 'time': 17.37, 'pitch': -7.35, 'roll': -4.35}
{'lipoC2': 7.57, 'temp': 27.5, 'lipoC3S3': 11.75, 'rot1': 0, 'rot0': 0, 'rot3': 0, 'rot2': 0, 'state': 'normal', 'yaw': 176.23, 'datetime': '2018-10-12 18:15:03.414774', 'mgs': 0, 'depth': -0.293, 'time': 17.47, 'pitch': -7.36, 'roll': -4.15}
{'lipoC2': 7.57, 'temp': 27.5, 'lipoC3S3': 11.75, 'rot1': 0, 'rot0': 0, 'rot3': 0, 'rot2': 0, 'state': 'normal', 'yaw': 175.74, 'datetime': '2018-10-12 18:15:03.511950', 'mgs': 0, 'depth': -0.217, 'time': 17.56, 'pitch': -7.19, 'roll': -3.66}
{'lipoC2': 7.57, 'temp': 27.5, 'lipoC3S3': 11.75, 'rot1': 0, 'rot0': 0, 'rot3': 0, 'rot2': 0, 'state': 'normal', 'yaw': 175.26, 'datetime': '2018-10-12 18:15:03.609105', 'mgs': 0, 'depth': -0.217, 'time': 17.66, 'pitch': -7.04, 'roll': -3.17}
{'lipoC2': 7.57, 'temp': 27.5, 'lipoC3S3': 11.76, 'rot1': 0, 'rot0': 0, 'rot3': 0, 'rot2': 0, 'state': 'normal', 'yaw': 174.93, 'datetime': '2018-10-12 18:15:03.706333', 'mgs': 0, 'depth': -0.217, 'time': 17.76, 'pitch': -6.64, 'roll': -2.85}
{'lipoC2': 7.57, 'temp': 27.5, 'lipoC3S3': 11.75, 'rot1': 0, 'rot0': 0, 'rot3': 0, 'rot2': 0, 'state': 'normal', 'yaw': 174.65, 'datetime': '2018-10-12 18:15:03.803402', 'mgs': 0, 'depth': -0.217, 'time': 17.85, 'pitch': -5.75, 'roll': -2.48}
{'lipoC2': 7.56, 'temp': 27.5, 'lipoC3S3': 11.75, 'rot1': 0, 'rot0': 0, 'rot3': 0, 'rot2': 0, 'state': 'normal', 'yaw': 174.41, 'datetime': '2018-10-12 18:15:03.900921', 'mgs': 0, 'depth': -0.217, 'time': 17.95, 'pitch': -4.91, 'roll': -1.97}
{'lipoC2': 7.57, 'temp': 27.5, 'lipoC3S3': 11.75, 'rot1': 0, 'rot0': 0, 'rot3': 0, 'rot2': 0, 'state': 'normal', 'yaw': 174.21, 'datetime': '2018-10-12 18:15:03.997827', 'mgs': 0, 'depth': -0.293, 'time': 18.05, 'pitch': -4.58, 'roll': -1.35}
{'lipoC2': 7.57, 'temp': 27.5, 'lipoC3S3': 11.75, 'rot1': 0, 'rot0': 0, 'rot3': 0, 'rot2': 0, 'state': 'normal', 'yaw': 173.99, 'datetime': '2018-10-12 18:15:04.096084', 'mgs': 0, 'depth': -0.293, 'time': 18.15, 'pitch': -4.96, 'roll': -0.88}
{'lipoC2': 7.57, 'temp': 27.5, 'lipoC3S3': 11.75, 'rot1': 0, 'rot0': 0, 'rot3': 0, 'rot2': 0, 'state': 'normal', 'yaw': 173.8, 'datetime': '2018-10-12 18:15:04.194558', 'mgs': 0, 'depth': -0.217, 'time': 18.25, 'pitch': -5.85, 'roll': -0.52}
{'lipoC2': 7.57, 'temp': 27.5, 'lipoC3S3': 11.76, 'rot1': 0, 'rot0': 0, 'rot3': 0, 'rot2': 0, 'state': 'normal', 'yaw': 173.8, 'datetime': '2018-10-12 18:15:04.291835', 'mgs': 0, 'depth': -0.217, 'time': 18.34, 'pitch': -6.52, 'roll': -0.0}
{'lipoC2': 7.57, 'temp': 27.44, 'lipoC3S3': 11.75, 'rot1': 0, 'rot0': 0, 'rot3': 0, 'rot2': 0, 'state': 'normal', 'yaw': 173.65, 'datetime': '2018-10-12 18:15:04.389155', 'mgs': 0, 'depth': -0.217, 'time': 18.44, 'pitch': -6.85, 'roll': 0.45}
{'lipoC2': 7.57, 'temp': 27.44, 'lipoC3S3': 11.76, 'rot1': 0, 'rot0': 0, 'rot3': 0, 'rot2': 0, 'state': 'normal', 'yaw': 173.2, 'datetime': '2018-10-12 18:15:04.487222', 'mgs': 0, 'depth': -0.293, 'time': 18.54, 'pitch': -7.23, 'roll': 0.41}
{'lipoC2': 7.57, 'temp': 27.44, 'lipoC3S3': 11.75, 'rot1': 0, 'rot0': 0, 'rot3': 0, 'rot2': 0, 'state': 'normal', 'yaw': 172.58, 'datetime': '2018-10-12 18:15:04.585603', 'mgs': 0, 'depth': -0.217, 'time': 18.64, 'pitch': -7.8, 'roll': 0.05}
{'lipoC2': 7.57, 'temp': 27.5, 'lipoC3S3': 11.75, 'rot1': 0, 'rot0': 0, 'rot3': 0, 'rot2': 0, 'state': 'normal', 'yaw': 171.91, 'datetime': '2018-10-12 18:15:04.680953', 'mgs': 0, 'depth': -0.217, 'time': 18.74, 'pitch': -8.16, 'roll': -0.14}
{'lipoC2': 7.57, 'temp': 27.5, 'lipoC3S3': 11.75, 'rot1': 0, 'rot0': 0, 'rot3': 0, 'rot2': 0, 'state': 'normal', 'yaw': 171.25, 'datetime': '2018-10-12 18:15:04.780513', 'mgs': 0, 'depth': -0.217, 'time': 18.83, 'pitch': -8.42, 'roll': 0.18}
{'lipoC2': 7.57, 'temp': 27.5, 'lipoC3S3': 11.75, 'rot1': 0, 'rot0': 0, 'rot3': 0, 'rot2': 0, 'state': 'normal', 'yaw': 170.56, 'datetime': '2018-10-12 18:15:04.878394', 'mgs': 0, 'depth': -0.293, 'time': 18.93, 'pitch': -8.8, 'roll': 0.71}
{'lipoC2': 7.56, 'temp': 27.5, 'lipoC3S3': 11.75, 'rot1': 0, 'rot0': 0, 'rot3': 0, 'rot2': 0, 'state': 'normal', 'yaw': 169.66, 'datetime': '2018-10-12 18:15:04.976707', 'mgs': 0, 'depth': -0.217, 'time': 19.03, 'pitch': -9.19, 'roll': 1.1}
{'lipoC2': 7.57, 'temp': 27.5, 'lipoC3S3': 11.76, 'rot1': 0, 'rot0': 0, 'rot3': 0, 'rot2': 0, 'state': 'normal', 'yaw': 169.01, 'datetime': '2018-10-12 18:15:05.073864', 'mgs': 0, 'depth': -0.217, 'time': 19.13, 'pitch': -9.32, 'roll': 0.86}
{'lipoC2': 7.57, 'temp': 27.44, 'lipoC3S3': 11.76, 'rot1': 0, 'rot0': 0, 'rot3': 0, 'rot2': 0, 'state': 'normal', 'yaw': 168.75, 'datetime': '2018-10-12 18:15:05.171046', 'mgs': 0, 'depth': -0.217, 'time': 19.22, 'pitch': -9.25, 'roll': 0.27}
{'lipoC2': 7.57, 'temp': 27.44, 'lipoC3S3': 11.76, 'rot1': 0, 'rot0': 0, 'rot3': 0, 'rot2': 0, 'state': 'normal', 'yaw': 168.98, 'datetime': '2018-10-12 18:15:05.268343', 'mgs': 0, 'depth': -0.293, 'time': 19.32, 'pitch': -8.85, 'roll': -0.29}
{'lipoC2': 7.57, 'temp': 27.5, 'lipoC3S3': 11.75, 'rot1': 0, 'rot0': 0, 'rot3': 0, 'rot2': 0, 'state': 'normal', 'yaw': 170.01, 'datetime': '2018-10-12 18:15:05.365493', 'mgs': 0, 'depth': -0.293, 'time': 19.42, 'pitch': -8.01, 'roll': -0.79}
{'lipoC2': 7.57, 'temp': 27.5, 'lipoC3S3': 11.76, 'rot1': 0, 'rot0': 0, 'rot3': 0, 'rot2': 0, 'state': 'normal', 'yaw': 171.56, 'datetime': '2018-10-12 18:15:05.462897', 'mgs': 0, 'depth': -0.369, 'time': 19.51, 'pitch': -7.33, 'roll': -0.77}
{'lipoC2': 7.57, 'temp': 27.5, 'lipoC3S3': 11.75, 'rot1': 0, 'rot0': 0, 'rot3': 0, 'rot2': 0, 'state': 'normal', 'yaw': 173.17, 'datetime': '2018-10-12 18:15:05.559934', 'mgs': 0, 'depth': -0.293, 'time': 19.61, 'pitch': -7.47, 'roll': -0.2}
{'lipoC2': 7.57, 'temp': 27.44, 'lipoC3S3': 11.75, 'rot1': 0, 'rot0': 0, 'rot3': 0, 'rot2': 0, 'state': 'normal', 'yaw': 174.64, 'datetime': '2018-10-12 18:15:05.655770', 'mgs': 0, 'depth': -0.369, 'time': 19.71, 'pitch': -8.34, 'roll': -0.29}
{'lipoC2': 7.57, 'temp': 27.44, 'lipoC3S3': 11.75, 'rot1': 0, 'rot0': 0, 'rot3': 0, 'rot2': 0, 'state': 'normal', 'yaw': 176.52, 'datetime': '2018-10-12 18:15:05.754154', 'mgs': 0, 'depth': -0.369, 'time': 19.81, 'pitch': -9.37, 'roll': -1.9}
{'lipoC2': 7.57, 'temp': 27.5, 'lipoC3S3': 11.75, 'rot1': 0, 'rot0': 0, 'rot3': 0, 'rot2': 0, 'state': 'normal', 'yaw': 178.7, 'datetime': '2018-10-12 18:15:05.851533', 'mgs': 0, 'depth': -0.369, 'time': 19.9, 'pitch': -9.7, 'roll': -4.08}
{'lipoC2': 7.57, 'temp': 27.5, 'lipoC3S3': 11.75, 'rot1': 0, 'rot0': 0, 'rot3': 0, 'rot2': 0, 'state': 'normal', 'yaw': -179.65, 'datetime': '2018-10-12 18:15:05.950158', 'mgs': 0, 'depth': -0.446, 'time': 20.0, 'pitch': -9.39, 'roll': -5.4}
{'lipoC2': 7.57, 'temp': 27.5, 'lipoC3S3': 11.75, 'rot1': 0, 'rot0': 0, 'rot3': 0, 'rot2': 0, 'state': 'normal', 'yaw': -178.83, 'datetime': '2018-10-12 18:15:06.048640', 'mgs': 0, 'depth': -0.369, 'time': 20.1, 'pitch': -8.82, 'roll': -5.79}
{'lipoC2': 7.57, 'temp': 27.5, 'lipoC3S3': 11.75, 'rot1': 0, 'rot0': 0, 'rot3': 0, 'rot2': 0, 'state': 'normal', 'yaw': -178.73, 'datetime': '2018-10-12 18:15:06.146898', 'mgs': 0, 'depth': -0.446, 'time': 20.2, 'pitch': -8.33, 'roll': -5.32}
{'lipoC2': 7.57, 'temp': 27.5, 'lipoC3S3': 11.75, 'rot1': 0, 'rot0': 0, 'rot3': 0, 'rot2': 0, 'state': 'normal', 'yaw': -179.02, 'datetime': '2018-10-12 18:15:06.244146', 'mgs': 0, 'depth': -0.369, 'time': 20.3, 'pitch': -7.96, 'roll': -4.82}
{'lipoC2': 7.57, 'temp': 27.5, 'lipoC3S3': 11.75, 'rot1': 0, 'rot0': 0, 'rot3': 0, 'rot2': 0, 'state': 'normal', 'yaw': -179.75, 'datetime': '2018-10-12 18:15:06.341516', 'mgs': 0, 'depth': -0.446, 'time': 20.4, 'pitch': -7.48, 'roll': -4.77}
{'lipoC2': 7.57, 'temp': 27.5, 'lipoC3S3': 11.75, 'rot1': 0, 'rot0': 0, 'rot3': 0, 'rot2': 0, 'state': 'normal', 'yaw': 179.62, 'datetime': '2018-10-12 18:15:06.439905', 'mgs': 0, 'depth': -0.446, 'time': 20.49, 'pitch': -6.97, 'roll': -4.83}
{'lipoC2': 7.57, 'temp': 27.5, 'lipoC3S3': 11.76, 'rot1': 0, 'rot0': 0, 'rot3': 0, 'rot2': 0, 'state': 'normal', 'yaw': 179.06, 'datetime': '2018-10-12 18:15:06.538276', 'mgs': 0, 'depth': -0.446, 'time': 20.59, 'pitch': -6.29, 'roll': -4.43}
{'lipoC2': 7.57, 'temp': 27.5, 'lipoC3S3': 11.75, 'rot1': 0, 'rot0': 0, 'rot3': 0, 'rot2': 0, 'state': 'normal', 'yaw': 178.4, 'datetime': '2018-10-12 18:15:06.635411', 'mgs': 0, 'depth': -0.446, 'time': 20.69, 'pitch': -5.7, 'roll': -3.53}
{'lipoC2': 7.57, 'temp': 27.5, 'lipoC3S3': 11.75, 'rot1': 0, 'rot0': 0, 'rot3': 0, 'rot2': 0, 'state': 'normal', 'yaw': 177.75, 'datetime': '2018-10-12 18:15:06.732577', 'mgs': 0, 'depth': -0.446, 'time': 20.79, 'pitch': -5.7, 'roll': -2.67}
{'lipoC2': 7.57, 'temp': 27.44, 'lipoC3S3': 11.75, 'rot1': 0, 'rot0': 0, 'rot3': 0, 'rot2': 0, 'state': 'normal', 'yaw': 177.25, 'datetime': '2018-10-12 18:15:06.830929', 'mgs': 0, 'depth': -0.369, 'time': 20.89, 'pitch': -6.33, 'roll': -2.13}
{'lipoC2': 7.57, 'temp': 27.44, 'lipoC3S3': 11.76, 'rot1': 0, 'rot0': 0, 'rot3': 0, 'rot2': 0, 'state': 'normal', 'yaw': 176.63, 'datetime': '2018-10-12 18:15:06.928658', 'mgs': 0, 'depth': -0.446, 'time': 20.98, 'pitch': -7.33, 'roll': -2.08}
{'lipoC2': 7.57, 'temp': 27.44, 'lipoC3S3': 11.75, 'rot1': 0, 'rot0': 0, 'rot3': 0, 'rot2': 0, 'state': 'normal', 'yaw': 176.05, 'datetime': '2018-10-12 18:15:07.025751', 'mgs': 0, 'depth': -0.369, 'time': 21.08, 'pitch': -7.89, 'roll': -2.13}
{'lipoC2': 7.57, 'temp': 27.5, 'lipoC3S3': 11.76, 'rot1': 0, 'rot0': 0, 'rot3': 0, 'rot2': 0, 'state': 'normal', 'yaw': 175.56, 'datetime': '2018-10-12 18:15:07.122992', 'mgs': 0, 'depth': -0.446, 'time': 21.18, 'pitch': -8.12, 'roll': -1.88}
{'lipoC2': 7.57, 'temp': 27.5, 'lipoC3S3': 11.75, 'rot1': 0, 'rot0': 0, 'rot3': 0, 'rot2': 0, 'state': 'normal', 'yaw': 174.97, 'datetime': '2018-10-12 18:15:07.220196', 'mgs': 0, 'depth': -0.369, 'time': 21.27, 'pitch': -8.06, 'roll': -1.6}
{'lipoC2': 7.57, 'temp': 27.5, 'lipoC3S3': 11.76, 'rot1': 0, 'rot0': 0, 'rot3': 0, 'rot2': 0, 'state': 'normal', 'yaw': 174.78, 'datetime': '2018-10-12 18:15:07.317521', 'mgs': 0, 'depth': -0.446, 'time': 21.37, 'pitch': -7.7, 'roll': -1.6}
{'lipoC2': 7.57, 'temp': 27.5, 'lipoC3S3': 11.76, 'rot1': 0, 'rot0': 0, 'rot3': 0, 'rot2': 0, 'state': 'normal', 'yaw': 175.12, 'datetime': '2018-10-12 18:15:07.414339', 'mgs': 0, 'depth': -0.369, 'time': 21.47, 'pitch': -7.25, 'roll': -1.63}
{'lipoC2': 7.57, 'temp': 27.5, 'lipoC3S3': 11.75, 'rot1': 0, 'rot0': 0, 'rot3': 0, 'rot2': 0, 'state': 'normal', 'yaw': 175.63, 'datetime': '2018-10-12 18:15:07.511410', 'mgs': 0, 'depth': -0.369, 'time': 21.57, 'pitch': -6.76, 'roll': -1.18}
{'lipoC2': 7.57, 'temp': 27.5, 'lipoC3S3': 11.75, 'rot1': 0, 'rot0': 0, 'rot3': 0, 'rot2': 0, 'state': 'normal', 'yaw': 176.14, 'datetime': '2018-10-12 18:15:07.608626', 'mgs': 0, 'depth': -0.369, 'time': 21.66, 'pitch': -6.0, 'roll': -0.52}
{'lipoC2': 7.57, 'temp': 27.5, 'lipoC3S3': 11.75, 'rot1': 0, 'rot0': 0, 'rot3': 0, 'rot2': 0, 'state': 'normal', 'yaw': 176.49, 'datetime': '2018-10-12 18:15:07.705816', 'mgs': 0, 'depth': -0.369, 'time': 21.76, 'pitch': -4.91, 'roll': -0.19}
{'lipoC2': 7.57, 'temp': 27.5, 'lipoC3S3': 11.75, 'rot1': 0, 'rot0': 0, 'rot3': 0, 'rot2': 0, 'state': 'normal', 'yaw': 176.77, 'datetime': '2018-10-12 18:15:07.803614', 'mgs': 0, 'depth': -0.369, 'time': 21.86, 'pitch': -3.73, 'roll': -0.66}
{'lipoC2': 7.57, 'temp': 27.5, 'lipoC3S3': 11.75, 'rot1': 0, 'rot0': 0, 'rot3': 0, 'rot2': 0, 'state': 'normal', 'yaw': 176.9, 'datetime': '2018-10-12 18:15:07.902126', 'mgs': 0, 'depth': -0.369, 'time': 21.96, 'pitch': -2.56, 'roll': -2.18}
{'lipoC2': 7.57, 'temp': 27.5, 'lipoC3S3': 11.76, 'rot1': 0, 'rot0': 0, 'rot3': 0, 'rot2': 0, 'state': 'normal', 'yaw': 177.05, 'datetime': '2018-10-12 18:15:08.000642', 'mgs': 0, 'depth': -0.446, 'time': 22.06, 'pitch': -1.82, 'roll': -4.18}
{'lipoC2': 7.57, 'temp': 27.5, 'lipoC3S3': 11.76, 'rot1': 0, 'rot0': 0, 'rot3': 0, 'rot2': 0, 'state': 'normal', 'yaw': 177.29, 'datetime': '2018-10-12 18:15:08.097876', 'mgs': 0, 'depth': -0.446, 'time': 22.15, 'pitch': -1.3, 'roll': -5.49}
{'lipoC2': 7.57, 'temp': 27.5, 'lipoC3S3': 11.75, 'rot1': 0, 'rot0': 0, 'rot3': 0, 'rot2': 0, 'state': 'normal', 'yaw': 177.58, 'datetime': '2018-10-12 18:15:08.194781', 'mgs': 0, 'depth': -0.369, 'time': 22.25, 'pitch': -0.83, 'roll': -5.89}
{'lipoC2': 7.57, 'temp': 27.5, 'lipoC3S3': 11.75, 'rot1': 0, 'rot0': 0, 'rot3': 0, 'rot2': 0, 'state': 'normal', 'yaw': 177.73, 'datetime': '2018-10-12 18:15:08.293302', 'mgs': 0, 'depth': -0.446, 'time': 22.35, 'pitch': -0.75, 'roll': -5.94}
{'lipoC2': 7.57, 'temp': 27.5, 'lipoC3S3': 11.76, 'rot1': 0, 'rot0': 0, 'rot3': 0, 'rot2': 0, 'state': 'normal', 'yaw': 177.79, 'datetime': '2018-10-12 18:15:08.390813', 'mgs': 0, 'depth': -0.446, 'time': 22.45, 'pitch': -1.24, 'roll': -6.39}
{'lipoC2': 7.57, 'temp': 27.5, 'lipoC3S3': 11.76, 'rot1': 0, 'rot0': 0, 'rot3': 0, 'rot2': 0, 'state': 'normal', 'yaw': 177.95, 'datetime': '2018-10-12 18:15:08.488870', 'mgs': 0, 'depth': -0.446, 'time': 22.55, 'pitch': -2.05, 'roll': -7.32}
{'lipoC2': 7.57, 'temp': 27.5, 'lipoC3S3': 11.75, 'rot1': 0, 'rot0': 0, 'rot3': 0, 'rot2': 0, 'state': 'normal', 'yaw': 178.36, 'datetime': '2018-10-12 18:15:08.585922', 'mgs': 0, 'depth': -0.369, 'time': 22.64, 'pitch': -2.84, 'roll': -8.29}
{'lipoC2': 7.57, 'temp': 27.5, 'lipoC3S3': 11.76, 'rot1': 0, 'rot0': 0, 'rot3': 0, 'rot2': 0, 'state': 'normal', 'yaw': 178.84, 'datetime': '2018-10-12 18:15:08.684399', 'mgs': 0, 'depth': -0.369, 'time': 22.74, 'pitch': -3.35, 'roll': -8.43}
{'lipoC2': 7.57, 'temp': 27.5, 'lipoC3S3': 11.75, 'rot1': 0, 'rot0': 0, 'rot3': 0, 'rot2': 0, 'state': 'normal', 'yaw': 179.14, 'datetime': '2018-10-12 18:15:08.781953', 'mgs': 0, 'depth': -0.446, 'time': 22.84, 'pitch': -3.68, 'roll': -7.29}
{'lipoC2': 7.57, 'temp': 27.5, 'lipoC3S3': 11.75, 'rot1': 0, 'rot0': 0, 'rot3': 0, 'rot2': 0, 'state': 'normal', 'yaw': 179.0, 'datetime': '2018-10-12 18:15:08.879311', 'mgs': 0, 'depth': -0.293, 'time': 22.93, 'pitch': -4.0, 'roll': -5.09}
{'lipoC2': 7.57, 'temp': 27.5, 'lipoC3S3': 11.75, 'rot1': 0, 'rot0': 0, 'rot3': 0, 'rot2': 0, 'state': 'normal', 'yaw': 178.57, 'datetime': '2018-10-12 18:15:08.976393', 'mgs': 0, 'depth': -0.293, 'time': 23.03, 'pitch': -4.9, 'roll': -2.82}
{'lipoC2': 7.57, 'temp': 27.5, 'lipoC3S3': 11.75, 'rot1': 0, 'rot0': 0, 'rot3': 0, 'rot2': 0, 'state': 'normal', 'yaw': 178.17, 'datetime': '2018-10-12 18:15:09.073295', 'mgs': 0, 'depth': -0.293, 'time': 23.13, 'pitch': -5.86, 'roll': -1.56}
{'lipoC2': 7.57, 'temp': 27.5, 'lipoC3S3': 11.76, 'rot1': 0, 'rot0': 0, 'rot3': 0, 'rot2': 0, 'state': 'normal', 'yaw': 177.72, 'datetime': '2018-10-12 18:15:09.170457', 'mgs': 0, 'depth': -0.293, 'time': 23.23, 'pitch': -6.51, 'roll': -0.93}
{'lipoC2': 7.57, 'temp': 27.5, 'lipoC3S3': 11.75, 'rot1': 0, 'rot0': 0, 'rot3': 0, 'rot2': 0, 'state': 'normal', 'yaw': 177.16, 'datetime': '2018-10-12 18:15:09.266024', 'mgs': 0, 'depth': -0.217, 'time': 23.32, 'pitch': -6.27, 'roll': -0.46}
{'lipoC2': 7.57, 'temp': 27.5, 'lipoC3S3': 11.75, 'rot1': 0, 'rot0': 0, 'rot3': 0, 'rot2': 0, 'state': 'normal', 'yaw': 176.65, 'datetime': '2018-10-12 18:15:09.364725', 'mgs': 0, 'depth': -0.217, 'time': 23.42, 'pitch': -5.28, 'roll': -0.01}
{'lipoC2': 7.57, 'temp': 27.44, 'lipoC3S3': 11.76, 'rot1': 0, 'rot0': 0, 'rot3': 0, 'rot2': 0, 'state': 'normal', 'yaw': 176.02, 'datetime': '2018-10-12 18:15:09.461900', 'mgs': 0, 'depth': -0.293, 'time': 23.52, 'pitch': -3.81, 'roll': 0.29}
{'lipoC2': 7.57, 'temp': 27.44, 'lipoC3S3': 11.75, 'rot1': 0, 'rot0': 0, 'rot3': 0, 'rot2': 0, 'state': 'normal', 'yaw': 175.56, 'datetime': '2018-10-12 18:15:09.559013', 'mgs': 0, 'depth': -0.293, 'time': 23.62, 'pitch': -2.6, 'roll': 0.61}
{'lipoC2': 7.57, 'temp': 27.44, 'lipoC3S3': 11.75, 'rot1': 0, 'rot0': 0, 'rot3': 0, 'rot2': 0, 'state': 'normal', 'yaw': 175.34, 'datetime': '2018-10-12 18:15:09.656896', 'mgs': 0, 'depth': -0.293, 'time': 23.71, 'pitch': -2.39, 'roll': 1.12}
{'lipoC2': 7.57, 'temp': 27.5, 'lipoC3S3': 11.75, 'rot1': 0, 'rot0': 0, 'rot3': 0, 'rot2': 0, 'state': 'normal', 'yaw': 175.27, 'datetime': '2018-10-12 18:15:09.755279', 'mgs': 0, 'depth': -0.217, 'time': 23.81, 'pitch': -3.34, 'roll': 1.83}
{'lipoC2': 7.57, 'temp': 27.5, 'lipoC3S3': 11.75, 'rot1': 0, 'rot0': 0, 'rot3': 0, 'rot2': 0, 'state': 'normal', 'yaw': 175.37, 'datetime': '2018-10-12 18:15:09.853699', 'mgs': 0, 'depth': -0.293, 'time': 23.91, 'pitch': -5.1, 'roll': 2.27}
{'lipoC2': 7.57, 'temp': 27.56, 'lipoC3S3': 11.75, 'rot1': 0, 'rot0': 0, 'rot3': 0, 'rot2': 0, 'state': 'normal', 'yaw': 175.39, 'datetime': '2018-10-12 18:15:09.949501', 'mgs': 0, 'depth': -0.293, 'time': 24.01, 'pitch': -7.08, 'roll': 1.78}
{'lipoC2': 7.57, 'temp': 27.56, 'lipoC3S3': 11.76, 'rot1': 0, 'rot0': 0, 'rot3': 0, 'rot2': 0, 'state': 'normal', 'yaw': 175.54, 'datetime': '2018-10-12 18:15:10.048068', 'mgs': 0, 'depth': -0.369, 'time': 24.1, 'pitch': -8.68, 'roll': 0.43}
{'lipoC2': 7.57, 'temp': 27.56, 'lipoC3S3': 11.76, 'rot1': 0, 'rot0': 0, 'rot3': 0, 'rot2': 0, 'state': 'normal', 'yaw': 176.01, 'datetime': '2018-10-12 18:15:10.146354', 'mgs': 0, 'depth': -0.369, 'time': 24.2, 'pitch': -9.17, 'roll': -1.0}
{'lipoC2': 7.57, 'temp': 27.5, 'lipoC3S3': 11.75, 'rot1': 0, 'rot0': 0, 'rot3': 0, 'rot2': 0, 'state': 'normal', 'yaw': 176.81, 'datetime': '2018-10-12 18:15:10.244719', 'mgs': 0, 'depth': -0.293, 'time': 24.3, 'pitch': -8.6, 'roll': -2.49}
{'lipoC2': 7.57, 'temp': 27.5, 'lipoC3S3': 11.75, 'rot1': 0, 'rot0': 0, 'rot3': 0, 'rot2': 0, 'state': 'normal', 'yaw': 177.77, 'datetime': '2018-10-12 18:15:10.342200', 'mgs': 0, 'depth': -0.293, 'time': 24.4, 'pitch': -7.34, 'roll': -3.5}
{'lipoC2': 7.57, 'temp': 27.5, 'lipoC3S3': 11.75, 'rot1': 0, 'rot0': 0, 'rot3': 0, 'rot2': 0, 'state': 'normal', 'yaw': 178.63, 'datetime': '2018-10-12 18:15:10.439744', 'mgs': 0, 'depth': -0.446, 'time': 24.5, 'pitch': -5.99, 'roll': -3.7}
{'lipoC2': 7.57, 'temp': 27.5, 'lipoC3S3': 11.76, 'rot1': 0, 'rot0': 0, 'rot3': 0, 'rot2': 0, 'state': 'normal', 'yaw': 179.14, 'datetime': '2018-10-12 18:15:10.537486', 'mgs': 0, 'depth': -0.446, 'time': 24.59, 'pitch': -5.16, 'roll': -3.25}
{'lipoC2': 7.57, 'temp': 27.5, 'lipoC3S3': 11.76, 'rot1': 0, 'rot0': 0, 'rot3': 0, 'rot2': 0, 'state': 'normal', 'yaw': 179.41, 'datetime': '2018-10-12 18:15:10.635673', 'mgs': 0, 'depth': -0.446, 'time': 24.69, 'pitch': -4.81, 'roll': -2.52}
{'lipoC2': 7.57, 'temp': 27.44, 'lipoC3S3': 11.75, 'rot1': 0, 'rot0': 0, 'rot3': 0, 'rot2': 0, 'state': 'normal', 'yaw': 179.55, 'datetime': '2018-10-12 18:15:10.732848', 'mgs': 0, 'depth': -0.446, 'time': 24.79, 'pitch': -5.1, 'roll': -2.11}
{'lipoC2': 7.57, 'temp': 27.44, 'lipoC3S3': 11.76, 'rot1': 0, 'rot0': 0, 'rot3': 0, 'rot2': 0, 'state': 'normal', 'yaw': 179.7, 'datetime': '2018-10-12 18:15:10.829905', 'mgs': 0, 'depth': -0.446, 'time': 24.89, 'pitch': -5.72, 'roll': -2.14}
{'lipoC2': 7.57, 'temp': 27.56, 'lipoC3S3': 11.75, 'rot1': 0, 'rot0': 0, 'rot3': 0, 'rot2': 0, 'state': 'normal', 'yaw': 179.83, 'datetime': '2018-10-12 18:15:10.927104', 'mgs': 0, 'depth': -0.369, 'time': 24.99, 'pitch': -6.07, 'roll': -2.24}
{'lipoC2': 7.57, 'temp': 27.56, 'lipoC3S3': 11.76, 'rot1': 0, 'rot0': 0, 'rot3': 0, 'rot2': 0, 'state': 'normal', 'yaw': 179.96, 'datetime': '2018-10-12 18:15:11.022862', 'mgs': 0, 'depth': -0.446, 'time': 25.08, 'pitch': -5.88, 'roll': -2.23}
{'lipoC2': 7.57, 'temp': 27.56, 'lipoC3S3': 11.75, 'rot1': 0, 'rot0': 0, 'rot3': 0, 'rot2': 0, 'state': 'normal', 'yaw': -179.92, 'datetime': '2018-10-12 18:15:11.121563', 'mgs': 0, 'depth': -0.369, 'time': 25.18, 'pitch': -5.33, 'roll': -1.99}
{'lipoC2': 7.57, 'temp': 27.44, 'lipoC3S3': 11.75, 'rot1': 0, 'rot0': 0, 'rot3': 0, 'rot2': 0, 'state': 'normal', 'yaw': -179.85, 'datetime': '2018-10-12 18:15:11.218837', 'mgs': 0, 'depth': -0.369, 'time': 25.28, 'pitch': -5.09, 'roll': -1.6}
{'lipoC2': 7.57, 'temp': 27.44, 'lipoC3S3': 11.75, 'rot1': 0, 'rot0': 0, 'rot3': 0, 'rot2': 0, 'state': 'normal', 'yaw': -179.78, 'datetime': '2018-10-12 18:15:11.315964', 'mgs': 0, 'depth': -0.446, 'time': 25.37, 'pitch': -5.31, 'roll': -1.37}
