{'lipoC2': 7.8, 'temp': 23.75, 'lipoC3S3': 11.83, 'rot1': 0, 'rot0': 0, 'rot3': 0, 'rot2': 0, 'state': 'normal', 'yaw': 0.0, 'datetime': '2018-10-12 14:01:14.610868', 'mgs': 0, 'depth': 2.759, 'time': 1.26, 'pitch': -0.79, 'roll': -4.37}
{'lipoC2': 7.79, 'temp': 23.75, 'lipoC3S3': 11.83, 'rot1': 0, 'rot0': 0, 'rot3': 0, 'rot2': 0, 'state': 'normal', 'yaw': -0.1, 'datetime': '2018-10-12 14:01:14.627827', 'mgs': 0, 'depth': 2.759, 'time': 1.36, 'pitch': -0.82, 'roll': -4.03}
{'lipoC2': 7.79, 'temp': 23.75, 'lipoC3S3': 11.83, 'rot1': 0, 'rot0': 0, 'rot3': 0, 'rot2': 0, 'state': 'normal', 'yaw': -0.2, 'datetime': '2018-10-12 14:01:14.644920', 'mgs': 0, 'depth': 2.759, 'time': 1.46, 'pitch': -0.73, 'roll': -3.7}
{'lipoC2': 7.8, 'temp': 23.69, 'lipoC3S3': 11.83, 'rot1': 0, 'rot0': 0, 'rot3': 0, 'rot2': 0, 'state': 'normal', 'yaw': -0.23, 'datetime': '2018-10-12 14:01:14.662064', 'mgs': 0, 'depth': 2.682, 'time': 1.55, 'pitch': -0.56, 'roll': -3.6}
{'lipoC2': 7.79, 'temp': 23.69, 'lipoC3S3': 11.83, 'rot1': 0, 'rot0': 0, 'rot3': 0, 'rot2': 0, 'state': 'normal', 'yaw': -0.24, 'datetime': '2018-10-12 14:01:14.679201', 'mgs': 0, 'depth': 2.682, 'time': 1.65, 'pitch': -0.43, 'roll': -3.8}
{'lipoC2': 7.79, 'temp': 23.75, 'lipoC3S3': 11.83, 'rot1': 0, 'rot0': 0, 'rot3': 0, 'rot2': 0, 'state': 'normal', 'yaw': -0.24, 'datetime': '2018-10-12 14:01:14.696211', 'mgs': 0, 'depth': 2.759, 'time': 1.75, 'pitch': -0.38, 'roll': -4.24}
{'lipoC2': 7.79, 'temp': 23.75, 'lipoC3S3': 11.83, 'rot1': 0, 'rot0': 0, 'rot3': 0, 'rot2': 0, 'state': 'normal', 'yaw': -0.24, 'datetime': '2018-10-12 14:01:14.713338', 'mgs': 0, 'depth': 2.682, 'time': 1.85, 'pitch': -0.42, 'roll': -4.71}
{'lipoC2': 7.79, 'temp': 23.69, 'lipoC3S3': 11.83, 'rot1': 0, 'rot0': 0, 'rot3': 0, 'rot2': 0, 'state': 'normal', 'yaw': -0.3, 'datetime': '2018-10-12 14:01:14.769324', 'mgs': 0, 'depth': 2.759, 'time': 1.94, 'pitch': -0.44, 'roll': -4.87}
{'lipoC2': 7.8, 'temp': 23.69, 'lipoC3S3': 11.83, 'rot1': 0, 'rot0': 0, 'rot3': 0, 'rot2': 0, 'state': 'normal', 'yaw': -0.35, 'datetime': '2018-10-12 14:01:14.866318', 'mgs': 0, 'depth': 2.682, 'time': 2.04, 'pitch': -0.46, 'roll': -4.61}
{'lipoC2': 7.8, 'temp': 23.69, 'lipoC3S3': 11.83, 'rot1': 0, 'rot0': 0, 'rot3': 0, 'rot2': 0, 'state': 'normal', 'yaw': -0.35, 'datetime': '2018-10-12 14:01:14.963335', 'mgs': 0, 'depth': 2.682, 'time': 2.14, 'pitch': -0.44, 'roll': -4.03}
{'lipoC2': 7.79, 'temp': 23.69, 'lipoC3S3': 11.83, 'rot1': 0, 'rot0': 0, 'rot3': 0, 'rot2': 0, 'state': 'normal', 'yaw': -0.36, 'datetime': '2018-10-12 14:01:15.060346', 'mgs': 0, 'depth': 2.682, 'time': 2.23, 'pitch': -0.35, 'roll': -3.51}
{'lipoC2': 7.8, 'temp': 23.69, 'lipoC3S3': 11.83, 'rot1': 0, 'rot0': 0, 'rot3': 0, 'rot2': 0, 'state': 'normal', 'yaw': -0.37, 'datetime': '2018-10-12 14:01:15.157332', 'mgs': 0, 'depth': 2.682, 'time': 2.33, 'pitch': -0.24, 'roll': -3.34}
{'lipoC2': 7.79, 'temp': 23.69, 'lipoC3S3': 11.83, 'rot1': 0, 'rot0': 0, 'rot3': 0, 'rot2': 0, 'state': 'normal', 'yaw': -0.37, 'datetime': '2018-10-12 14:01:15.254351', 'mgs': 0, 'depth': 2.759, 'time': 2.43, 'pitch': -0.11, 'roll': -3.56}
{'lipoC2': 7.8, 'temp': 23.69, 'lipoC3S3': 11.81, 'rot1': 0, 'rot0': 0, 'rot3': 0, 'rot2': 0, 'state': 'normal', 'yaw': -0.4, 'datetime': '2018-10-12 14:01:15.351328', 'mgs': 0, 'depth': 2.682, 'time': 2.53, 'pitch': -0.0, 'roll': -4.04}
{'lipoC2': 7.79, 'temp': 23.69, 'lipoC3S3': 11.83, 'rot1': 0, 'rot0': 0, 'rot3': 0, 'rot2': 0, 'state': 'normal', 'yaw': -0.41, 'datetime': '2018-10-12 14:01:15.448339', 'mgs': 0, 'depth': 2.759, 'time': 2.62, 'pitch': 0.02, 'roll': -4.46}
{'lipoC2': 7.79, 'temp': 23.69, 'lipoC3S3': 11.83, 'rot1': 0, 'rot0': 0, 'rot3': 0, 'rot2': 0, 'state': 'normal', 'yaw': -0.41, 'datetime': '2018-10-12 14:01:15.550688', 'mgs': 0, 'depth': 2.759, 'time': 2.72, 'pitch': -0.02, 'roll': -4.67}
{'lipoC2': 7.8, 'temp': 23.69, 'lipoC3S3': 11.81, 'rot1': 0, 'rot0': 0, 'rot3': 0, 'rot2': 0, 'state': 'normal', 'yaw': -0.4, 'datetime': '2018-10-12 14:01:15.647743', 'mgs': 0, 'depth': 2.682, 'time': 2.82, 'pitch': -0.11, 'roll': -4.56}
{'lipoC2': 7.79, 'temp': 23.69, 'lipoC3S3': 11.83, 'rot1': 0, 'rot0': 0, 'rot3': 0, 'rot2': 0, 'state': 'normal', 'yaw': -0.4, 'datetime': '2018-10-12 14:01:15.746105', 'mgs': 0, 'depth': 2.606, 'time': 2.92, 'pitch': -0.22, 'roll': -4.24}
{'lipoC2': 7.79, 'temp': 23.69, 'lipoC3S3': 11.83, 'rot1': 0, 'rot0': 0, 'rot3': 0, 'rot2': 0, 'state': 'normal', 'yaw': -0.39, 'datetime': '2018-10-12 14:01:15.844622', 'mgs': 0, 'depth': 2.682, 'time': 3.01, 'pitch': -0.36, 'roll': -3.82}
{'lipoC2': 7.79, 'temp': 23.69, 'lipoC3S3': 11.83, 'rot1': 0, 'rot0': 0, 'rot3': 0, 'rot2': 0, 'state': 'normal', 'yaw': -0.37, 'datetime': '2018-10-12 14:01:15.941306', 'mgs': 0, 'depth': 2.682, 'time': 3.11, 'pitch': -0.51, 'roll': -3.57}
{'lipoC2': 7.8, 'temp': 23.69, 'lipoC3S3': 11.83, 'rot1': 0, 'rot0': 0, 'rot3': 0, 'rot2': 0, 'state': 'normal', 'yaw': -0.42, 'datetime': '2018-10-12 14:01:16.038299', 'mgs': 0, 'depth': 2.682, 'time': 3.21, 'pitch': -0.57, 'roll': -3.54}
{'lipoC2': 7.8, 'temp': 23.69, 'lipoC3S3': 11.83, 'rot1': 0, 'rot0': 0, 'rot3': 0, 'rot2': 0, 'state': 'normal', 'yaw': -0.43, 'datetime': '2018-10-12 14:01:16.136886', 'mgs': 0, 'depth': 2.682, 'time': 3.31, 'pitch': -0.56, 'roll': -3.63}
{'lipoC2': 7.79, 'temp': 23.75, 'lipoC3S3': 11.83, 'rot1': 0, 'rot0': 0, 'rot3': 0, 'rot2': 0, 'state': 'normal', 'yaw': -0.44, 'datetime': '2018-10-12 14:01:16.234952', 'mgs': 0, 'depth': 2.606, 'time': 3.4, 'pitch': -0.46, 'roll': -3.8}
{'lipoC2': 7.79, 'temp': 23.75, 'lipoC3S3': 11.83, 'rot1': 0, 'rot0': 0, 'rot3': 0, 'rot2': 0, 'state': 'normal', 'yaw': -0.39, 'datetime': '2018-10-12 14:01:16.331976', 'mgs': 0, 'depth': 2.682, 'time': 3.5, 'pitch': -0.33, 'roll': -3.99}
{'lipoC2': 7.79, 'temp': 23.75, 'lipoC3S3': 11.83, 'rot1': 0, 'rot0': 0, 'rot3': 0, 'rot2': 0, 'state': 'normal', 'yaw': -0.37, 'datetime': '2018-10-12 14:01:16.429086', 'mgs': 0, 'depth': 2.759, 'time': 3.6, 'pitch': -0.32, 'roll': -4.08}
{'lipoC2': 7.79, 'temp': 23.75, 'lipoC3S3': 11.83, 'rot1': 0, 'rot0': 0, 'rot3': 0, 'rot2': 0, 'state': 'normal', 'yaw': -0.36, 'datetime': '2018-10-12 14:01:16.527259', 'mgs': 0, 'depth': 2.759, 'time': 3.7, 'pitch': -0.41, 'roll': -4.05}
{'lipoC2': 7.79, 'temp': 23.75, 'lipoC3S3': 11.81, 'rot1': 0, 'rot0': 0, 'rot3': 0, 'rot2': 0, 'state': 'normal', 'yaw': -0.36, 'datetime': '2018-10-12 14:01:16.624279', 'mgs': 0, 'depth': 2.682, 'time': 3.8, 'pitch': -0.59, 'roll': -3.85}
{'lipoC2': 7.79, 'temp': 23.75, 'lipoC3S3': 11.83, 'rot1': 0, 'rot0': 0, 'rot3': 0, 'rot2': 0, 'state': 'normal', 'yaw': -0.36, 'datetime': '2018-10-12 14:01:16.721284', 'mgs': 0, 'depth': 2.759, 'time': 3.89, 'pitch': -0.74, 'roll': -3.6}
{'lipoC2': 7.79, 'temp': 23.75, 'lipoC3S3': 11.83, 'rot1': 0, 'rot0': 0, 'rot3': 0, 'rot2': 0, 'state': 'normal', 'yaw': -0.33, 'datetime': '2018-10-12 14:01:16.818702', 'mgs': 0, 'depth': 2.759, 'time': 3.99, 'pitch': -0.77, 'roll': -3.53}
{'lipoC2': 7.8, 'temp': 23.75, 'lipoC3S3': 11.83, 'rot1': 0, 'rot0': 0, 'rot3': 0, 'rot2': 0, 'state': 'normal', 'yaw': -0.25, 'datetime': '2018-10-12 14:01:16.915682', 'mgs': 0, 'depth': 2.759, 'time': 4.09, 'pitch': -0.77, 'roll': -3.68}
{'lipoC2': 7.79, 'temp': 23.63, 'lipoC3S3': 11.83, 'rot1': 0, 'rot0': 0, 'rot3': 0, 'rot2': 0, 'state': 'normal', 'yaw': -0.2, 'datetime': '2018-10-12 14:01:17.012663', 'mgs': 0, 'depth': 2.759, 'time': 4.18, 'pitch': -0.69, 'roll': -3.99}
{'lipoC2': 7.79, 'temp': 23.63, 'lipoC3S3': 11.83, 'rot1': 0, 'rot0': 0, 'rot3': 0, 'rot2': 0, 'state': 'normal', 'yaw': -0.2, 'datetime': '2018-10-12 14:01:17.109646', 'mgs': 0, 'depth': 2.759, 'time': 4.28, 'pitch': -0.64, 'roll': -4.26}
{'lipoC2': 7.79, 'temp': 23.69, 'lipoC3S3': 11.83, 'rot1': 0, 'rot0': 0, 'rot3': 0, 'rot2': 0, 'state': 'normal', 'yaw': -0.21, 'datetime': '2018-10-12 14:01:17.206788', 'mgs': 0, 'depth': 2.835, 'time': 4.38, 'pitch': -0.57, 'roll': -4.34}
{'lipoC2': 7.79, 'temp': 23.69, 'lipoC3S3': 11.83, 'rot1': 0, 'rot0': 0, 'rot3': 0, 'rot2': 0, 'state': 'normal', 'yaw': 0.22, 'datetime': '2018-10-12 14:01:17.303718', 'mgs': 0, 'depth': 2.682, 'time': 4.47, 'pitch': -0.26, 'roll': -4.07}
{'lipoC2': 7.79, 'temp': 23.69, 'lipoC3S3': 11.83, 'rot1': 0, 'rot0': 0, 'rot3': 0, 'rot2': 0, 'state': 'normal', 'yaw': 2.04, 'datetime': '2018-10-12 14:01:17.400835', 'mgs': 0, 'depth': 2.759, 'time': 4.57, 'pitch': 0.68, 'roll': -4.81}
{'lipoC2': 7.8, 'temp': 23.69, 'lipoC3S3': 11.81, 'rot1': 0, 'rot0': 0, 'rot3': 0, 'rot2': 0, 'state': 'normal', 'yaw': 4.66, 'datetime': '2018-10-12 14:01:17.499266', 'mgs': 0, 'depth': 2.606, 'time': 4.67, 'pitch': 2.41, 'roll': -5.98}
{'lipoC2': 7.79, 'temp': 23.69, 'lipoC3S3': 11.83, 'rot1': 0, 'rot0': 0, 'rot3': 0, 'rot2': 0, 'state': 'normal', 'yaw': 7.14, 'datetime': '2018-10-12 14:01:17.597848', 'mgs': 0, 'depth': 2.53, 'time': 4.77, 'pitch': 3.84, 'roll': -7.27}
{'lipoC2': 7.79, 'temp': 23.75, 'lipoC3S3': 11.83, 'rot1': 0, 'rot0': 0, 'rot3': 0, 'rot2': 0, 'state': 'normal', 'yaw': 9.01, 'datetime': '2018-10-12 14:01:17.694649', 'mgs': 0, 'depth': 2.53, 'time': 4.87, 'pitch': 4.6, 'roll': -8.62}
{'lipoC2': 7.79, 'temp': 23.75, 'lipoC3S3': 11.83, 'rot1': 0, 'rot0': 0, 'rot3': 0, 'rot2': 0, 'state': 'normal', 'yaw': 10.08, 'datetime': '2018-10-12 14:01:17.791732', 'mgs': 0, 'depth': 2.454, 'time': 4.96, 'pitch': 4.49, 'roll': -9.46}
{'lipoC2': 7.79, 'temp': 23.75, 'lipoC3S3': 11.83, 'rot1': 0, 'rot0': 0, 'rot3': 0, 'rot2': 0, 'state': 'normal', 'yaw': 10.6, 'datetime': '2018-10-12 14:01:17.889803', 'mgs': 0, 'depth': 2.377, 'time': 5.06, 'pitch': 3.79, 'roll': -9.23}
{'lipoC2': 7.79, 'temp': 23.69, 'lipoC3S3': 11.83, 'rot1': 0, 'rot0': 0, 'rot3': 0, 'rot2': 0, 'state': 'normal', 'yaw': 11.06, 'datetime': '2018-10-12 14:01:17.988167', 'mgs': 0, 'depth': 2.301, 'time': 5.16, 'pitch': 2.83, 'roll': -8.1}
{'lipoC2': 7.79, 'temp': 23.69, 'lipoC3S3': 11.83, 'rot1': 0, 'rot0': 0, 'rot3': 0, 'rot2': 0, 'state': 'normal', 'yaw': 11.49, 'datetime': '2018-10-12 14:01:18.085066', 'mgs': 0, 'depth': 2.377, 'time': 5.26, 'pitch': 1.79, 'roll': -6.49}
{'lipoC2': 7.79, 'temp': 23.69, 'lipoC3S3': 11.83, 'rot1': 0, 'rot0': 0, 'rot3': 0, 'rot2': 0, 'state': 'normal', 'yaw': 11.87, 'datetime': '2018-10-12 14:01:18.182173', 'mgs': 0, 'depth': 2.377, 'time': 5.36, 'pitch': 0.68, 'roll': -4.69}
{'lipoC2': 7.8, 'temp': 23.69, 'lipoC3S3': 11.81, 'rot1': 0, 'rot0': 0, 'rot3': 0, 'rot2': 0, 'state': 'normal', 'yaw': 12.17, 'datetime': '2018-10-12 14:01:18.279091', 'mgs': 0, 'depth': 2.301, 'time': 5.45, 'pitch': -0.33, 'roll': -3.01}
{'lipoC2': 7.79, 'temp': 23.69, 'lipoC3S3': 11.83, 'rot1': 0, 'rot0': 0, 'rot3': 0, 'rot2': 0, 'state': 'normal', 'yaw': 12.53, 'datetime': '2018-10-12 14:01:18.376207', 'mgs': 0, 'depth': 2.377, 'time': 5.55, 'pitch': -1.37, 'roll': -1.45}
{'lipoC2': 7.79, 'temp': 23.63, 'lipoC3S3': 11.83, 'rot1': 0, 'rot0': 0, 'rot3': 0, 'rot2': 0, 'state': 'normal', 'yaw': 12.63, 'datetime': '2018-10-12 14:01:18.473172', 'mgs': 0, 'depth': 2.301, 'time': 5.65, 'pitch': -2.4, 'roll': -0.69}
{'lipoC2': 7.79, 'temp': 23.63, 'lipoC3S3': 11.83, 'rot1': 0, 'rot0': 0, 'rot3': 0, 'rot2': 0, 'state': 'normal', 'yaw': 12.32, 'datetime': '2018-10-12 14:01:18.570317', 'mgs': 0, 'depth': 2.377, 'time': 5.74, 'pitch': -3.52, 'roll': -0.46}
{'lipoC2': 7.79, 'temp': 23.69, 'lipoC3S3': 11.81, 'rot1': 0, 'rot0': 0, 'rot3': 0, 'rot2': 0, 'state': 'normal', 'yaw': 12.27, 'datetime': '2018-10-12 14:01:18.667249', 'mgs': 0, 'depth': 2.301, 'time': 5.84, 'pitch': -4.38, 'roll': -0.58}
{'lipoC2': 7.79, 'temp': 23.69, 'lipoC3S3': 11.83, 'rot1': 0, 'rot0': 0, 'rot3': 0, 'rot2': 0, 'state': 'normal', 'yaw': 12.1, 'datetime': '2018-10-12 14:01:18.764312', 'mgs': 0, 'depth': 2.377, 'time': 5.94, 'pitch': -4.93, 'roll': -0.89}
{'lipoC2': 7.79, 'temp': 23.69, 'lipoC3S3': 11.83, 'rot1': 0, 'rot0': 0, 'rot3': 0, 'rot2': 0, 'state': 'normal', 'yaw': 11.98, 'datetime': '2018-10-12 14:01:18.856702', 'mgs': 0, 'depth': 2.377, 'time': 6.03, 'pitch': -4.97, 'roll': -1.41}
{'lipoC2': 7.8, 'temp': 23.69, 'lipoC3S3': 11.83, 'rot1': 0, 'rot0': 0, 'rot3': 0, 'rot2': 0, 'state': 'normal', 'yaw': 11.72, 'datetime': '2018-10-12 14:01:18.957310', 'mgs': 0, 'depth': 2.301, 'time': 6.13, 'pitch': -4.49, 'roll': -1.83}
{'lipoC2': 7.79, 'temp': 23.69, 'lipoC3S3': 11.83, 'rot1': 0, 'rot0': 0, 'rot3': 0, 'rot2': 0, 'state': 'normal', 'yaw': 11.44, 'datetime': '2018-10-12 14:01:19.058414', 'mgs': 0, 'depth': 2.301, 'time': 6.23, 'pitch': -3.41, 'roll': -2.07}
{'lipoC2': 7.79, 'temp': 23.69, 'lipoC3S3': 11.83, 'rot1': 0, 'rot0': 0, 'rot3': 0, 'rot2': 0, 'state': 'normal', 'yaw': 11.19, 'datetime': '2018-10-12 14:01:19.152997', 'mgs': 0, 'depth': 2.301, 'time': 6.33, 'pitch': -1.85, 'roll': -2.35}
{'lipoC2': 7.79, 'temp': 23.69, 'lipoC3S3': 11.83, 'rot1': 0, 'rot0': 0, 'rot3': 0, 'rot2': 0, 'state': 'normal', 'yaw': 10.84, 'datetime': '2018-10-12 14:01:19.251199', 'mgs': 0, 'depth': 2.301, 'time': 6.43, 'pitch': -0.43, 'roll': -2.93}
{'lipoC2': 7.79, 'temp': 23.69, 'lipoC3S3': 11.83, 'rot1': 0, 'rot0': 0, 'rot3': 0, 'rot2': 0, 'state': 'normal', 'yaw': 10.56, 'datetime': '2018-10-12 14:01:19.348214', 'mgs': 0, 'depth': 2.148, 'time': 6.52, 'pitch': 0.99, 'roll': -3.65}
{'lipoC2': 7.79, 'temp': 23.69, 'lipoC3S3': 11.84, 'rot1': 0, 'rot0': 0, 'rot3': 0, 'rot2': 0, 'state': 'normal', 'yaw': 10.41, 'datetime': '2018-10-12 14:01:19.443900', 'mgs': 0, 'depth': 2.225, 'time': 6.62, 'pitch': 1.99, 'roll': -4.26}
{'lipoC2': 7.79, 'temp': 23.69, 'lipoC3S3': 11.83, 'rot1': 0, 'rot0': 0, 'rot3': 0, 'rot2': 0, 'state': 'normal', 'yaw': 10.36, 'datetime': '2018-10-12 14:01:19.542863', 'mgs': 0, 'depth': 2.148, 'time': 6.72, 'pitch': 2.52, 'roll': -4.81}
{'lipoC2': 7.8, 'temp': 23.69, 'lipoC3S3': 11.83, 'rot1': 0, 'rot0': 0, 'rot3': 0, 'rot2': 0, 'state': 'normal', 'yaw': 10.39, 'datetime': '2018-10-12 14:01:19.641204', 'mgs': 0, 'depth': 2.148, 'time': 6.82, 'pitch': 2.78, 'roll': -5.23}
{'lipoC2': 7.8, 'temp': 23.69, 'lipoC3S3': 11.83, 'rot1': 0, 'rot0': 0, 'rot3': 0, 'rot2': 0, 'state': 'normal', 'yaw': 10.32, 'datetime': '2018-10-12 14:01:19.738299', 'mgs': 0, 'depth': 2.072, 'time': 6.91, 'pitch': 2.7, 'roll': -5.59}
{'lipoC2': 7.79, 'temp': 23.69, 'lipoC3S3': 11.83, 'rot1': 0, 'rot0': 0, 'rot3': 0, 'rot2': 0, 'state': 'normal', 'yaw': 10.25, 'datetime': '2018-10-12 14:01:19.835179', 'mgs': 0, 'depth': 2.148, 'time': 7.01, 'pitch': 2.49, 'roll': -5.57}
{'lipoC2': 7.79, 'temp': 23.69, 'lipoC3S3': 11.83, 'rot1': 0, 'rot0': 0, 'rot3': 0, 'rot2': 0, 'state': 'normal', 'yaw': 10.18, 'datetime': '2018-10-12 14:01:19.933235', 'mgs': 0, 'depth': 2.225, 'time': 7.11, 'pitch': 2.21, 'roll': -5.34}
{'lipoC2': 7.79, 'temp': 23.69, 'lipoC3S3': 11.83, 'rot1': 0, 'rot0': 0, 'rot3': 0, 'rot2': 0, 'state': 'normal', 'yaw': 10.37, 'datetime': '2018-10-12 14:01:20.030174', 'mgs': 0, 'depth': 2.148, 'time': 7.2, 'pitch': 1.95, 'roll': -5.17}
{'lipoC2': 7.79, 'temp': 23.69, 'lipoC3S3': 11.83, 'rot1': 0, 'rot0': 0, 'rot3': 0, 'rot2': 0, 'state': 'normal', 'yaw': 10.81, 'datetime': '2018-10-12 14:01:20.127269', 'mgs': 0, 'depth': 2.225, 'time': 7.3, 'pitch': 1.76, 'roll': -5.43}
{'lipoC2': 7.79, 'temp': 23.69, 'lipoC3S3': 11.81, 'rot1': 0, 'rot0': 0, 'rot3': 0, 'rot2': 0, 'state': 'normal', 'yaw': 11.35, 'datetime': '2018-10-12 14:01:20.224302', 'mgs': 0, 'depth': 2.148, 'time': 7.4, 'pitch': 1.51, 'roll': -5.78}
{'lipoC2': 7.79, 'temp': 23.69, 'lipoC3S3': 11.83, 'rot1': 0, 'rot0': 0, 'rot3': 0, 'rot2': 0, 'state': 'normal', 'yaw': 11.81, 'datetime': '2018-10-12 14:01:20.321419', 'mgs': 0, 'depth': 2.225, 'time': 7.5, 'pitch': 0.94, 'roll': -6.09}
{'lipoC2': 7.79, 'temp': 23.63, 'lipoC3S3': 11.84, 'rot1': 0, 'rot0': 0, 'rot3': 0, 'rot2': 0, 'state': 'normal', 'yaw': 12.08, 'datetime': '2018-10-12 14:01:20.418343', 'mgs': 0, 'depth': 2.225, 'time': 7.59, 'pitch': 0.03, 'roll': -6.44}
{'lipoC2': 7.79, 'temp': 23.63, 'lipoC3S3': 11.83, 'rot1': 0, 'rot0': 0, 'rot3': 0, 'rot2': 0, 'state': 'normal', 'yaw': 12.23, 'datetime': '2018-10-12 14:01:20.515502', 'mgs': 0, 'depth': 2.225, 'time': 7.69, 'pitch': -1.03, 'roll': -6.87}
{'lipoC2': 7.79, 'temp': 23.69, 'lipoC3S3': 11.83, 'rot1': 0, 'rot0': 0, 'rot3': 0, 'rot2': 0, 'state': 'normal', 'yaw': 12.42, 'datetime': '2018-10-12 14:01:20.612663', 'mgs': 0, 'depth': 2.225, 'time': 7.79, 'pitch': -1.9, 'roll': -7.38}
{'lipoC2': 7.79, 'temp': 23.69, 'lipoC3S3': 11.83, 'rot1': 0, 'rot0': 0, 'rot3': 0, 'rot2': 0, 'state': 'normal', 'yaw': 12.87, 'datetime': '2018-10-12 14:01:20.709470', 'mgs': 0, 'depth': 2.301, 'time': 7.88, 'pitch': -2.38, 'roll': -8.1}
{'lipoC2': 7.8, 'temp': 23.69, 'lipoC3S3': 11.83, 'rot1': 0, 'rot0': 0, 'rot3': 0, 'rot2': 0, 'state': 'normal', 'yaw': 13.39, 'datetime': '2018-10-12 14:01:20.806629', 'mgs': 0, 'depth': 2.301, 'time': 7.98, 'pitch': -2.41, 'roll': -8.51}
{'lipoC2': 7.79, 'temp': 23.75, 'lipoC3S3': 11.84, 'rot1': 0, 'rot0': 0, 'rot3': 0, 'rot2': 0, 'state': 'normal', 'yaw': 13.72, 'datetime': '2018-10-12 14:01:20.904854', 'mgs': 0, 'depth': 2.301, 'time': 8.08, 'pitch': -2.29, 'roll': -8.41}
{'lipoC2': 7.79, 'temp': 23.75, 'lipoC3S3': 11.83, 'rot1': 0, 'rot0': 0, 'rot3': 0, 'rot2': 0, 'state': 'normal', 'yaw': 13.81, 'datetime': '2018-10-12 14:01:21.003128', 'mgs': 0, 'depth': 2.301, 'time': 8.18, 'pitch': -2.2, 'roll': -8.0}
{'lipoC2': 7.8, 'temp': 23.69, 'lipoC3S3': 11.83, 'rot1': 0, 'rot0': 0, 'rot3': 0, 'rot2': 0, 'state': 'normal', 'yaw': 13.77, 'datetime': '2018-10-12 14:01:21.100180', 'mgs': 0, 'depth': 2.377, 'time': 8.27, 'pitch': -2.2, 'roll': -7.54}
{'lipoC2': 7.79, 'temp': 23.69, 'lipoC3S3': 11.83, 'rot1': 0, 'rot0': 0, 'rot3': 0, 'rot2': 0, 'state': 'normal', 'yaw': 13.75, 'datetime': '2018-10-12 14:01:21.195939', 'mgs': 0, 'depth': 2.377, 'time': 8.37, 'pitch': -2.11, 'roll': -7.37}
{'lipoC2': 7.79, 'temp': 23.69, 'lipoC3S3': 11.83, 'rot1': 0, 'rot0': 0, 'rot3': 0, 'rot2': 0, 'state': 'normal', 'yaw': 13.66, 'datetime': '2018-10-12 14:01:21.295456', 'mgs': 1, 'depth': 2.377, 'time': 8.47, 'pitch': -2.08, 'roll': -7.45}
{'lipoC2': 7.79, 'temp': 23.69, 'lipoC3S3': 11.83, 'rot1': 0, 'rot0': 0, 'rot3': 0, 'rot2': 0, 'state': 'normal', 'yaw': 0.0, 'datetime': '2018-10-12 14:01:22.815608', 'mgs': 0, 'depth': 2.377, 'time': 1.26, 'pitch': -2.63, 'roll': -9.15}
{'lipoC2': 7.79, 'temp': 23.69, 'lipoC3S3': 11.83, 'rot1': 0, 'rot0': 0, 'rot3': 0, 'rot2': 0, 'state': 'normal', 'yaw': 0.37, 'datetime': '2018-10-12 14:01:22.833208', 'mgs': 0, 'depth': 2.301, 'time': 1.36, 'pitch': -2.98, 'roll': -9.09}
{'lipoC2': 7.79, 'temp': 23.69, 'lipoC3S3': 11.83, 'rot1': 0, 'rot0': 0, 'rot3': 0, 'rot2': 0, 'state': 'normal', 'yaw': 0.75, 'datetime': '2018-10-12 14:01:22.857341', 'mgs': 0, 'depth': 2.301, 'time': 1.45, 'pitch': -3.17, 'roll': -8.88}
{'lipoC2': 7.79, 'temp': 23.69, 'lipoC3S3': 11.76, 'rot1': 0, 'rot0': 0, 'rot3': 0, 'rot2': 0, 'state': 'normal', 'yaw': 1.09, 'datetime': '2018-10-12 14:01:22.946781', 'mgs': 0, 'depth': 2.301, 'time': 1.55, 'pitch': -3.22, 'roll': -8.46}
{'lipoC2': 7.8, 'temp': 23.69, 'lipoC3S3': 11.79, 'rot1': 0, 'rot0': 0, 'rot3': 0, 'rot2': 1, 'state': 'normal', 'yaw': 1.41, 'datetime': '2018-10-12 14:01:23.045925', 'mgs': 0, 'depth': 2.377, 'time': 1.65, 'pitch': -2.95, 'roll': -8.13}
{'lipoC2': 7.79, 'temp': 23.69, 'lipoC3S3': 11.76, 'rot1': 0, 'rot0': 0, 'rot3': 1, 'rot2': 1, 'state': 'normal', 'yaw': 1.62, 'datetime': '2018-10-12 14:01:23.143469', 'mgs': 0, 'depth': 2.301, 'time': 1.74, 'pitch': -2.57, 'roll': -8.13}
{'lipoC2': 7.79, 'temp': 23.69, 'lipoC3S3': 11.8, 'rot1': 0, 'rot0': 0, 'rot3': 1, 'rot2': 2, 'state': 'normal', 'yaw': 1.64, 'datetime': '2018-10-12 14:01:23.239577', 'mgs': 0, 'depth': 2.454, 'time': 1.84, 'pitch': -2.38, 'roll': -8.46}
{'lipoC2': 7.79, 'temp': 23.69, 'lipoC3S3': 11.79, 'rot1': 0, 'rot0': 0, 'rot3': 2, 'rot2': 2, 'state': 'normal', 'yaw': 1.54, 'datetime': '2018-10-12 14:01:23.336363', 'mgs': 0, 'depth': 2.682, 'time': 1.94, 'pitch': -2.46, 'roll': -8.92}
{'lipoC2': 7.79, 'temp': 23.69, 'lipoC3S3': 11.8, 'rot1': 0, 'rot0': 0, 'rot3': 2, 'rot2': 3, 'state': 'normal', 'yaw': 1.31, 'datetime': '2018-10-12 14:01:23.433043', 'mgs': 0, 'depth': 2.377, 'time': 2.04, 'pitch': -2.75, 'roll': -9.0}
{'lipoC2': 7.79, 'temp': 23.69, 'lipoC3S3': 11.79, 'rot1': 0, 'rot0': 0, 'rot3': 3, 'rot2': 4, 'state': 'normal', 'yaw': 1.15, 'datetime': '2018-10-12 14:01:23.529662', 'mgs': 0, 'depth': 2.377, 'time': 2.13, 'pitch': -2.98, 'roll': -8.73}
{'lipoC2': 7.8, 'temp': 23.69, 'lipoC3S3': 11.79, 'rot1': 0, 'rot0': 0, 'rot3': 3, 'rot2': 4, 'state': 'normal', 'yaw': 1.13, 'datetime': '2018-10-12 14:01:23.626691', 'mgs': 0, 'depth': 2.682, 'time': 2.23, 'pitch': -2.8, 'roll': -8.48}
{'lipoC2': 7.79, 'temp': 23.69, 'lipoC3S3': 11.79, 'rot1': 0, 'rot0': 0, 'rot3': 3, 'rot2': 5, 'state': 'normal', 'yaw': 1.03, 'datetime': '2018-10-12 14:01:23.723526', 'mgs': 0, 'depth': 2.835, 'time': 2.33, 'pitch': -2.41, 'roll': -8.46}
{'lipoC2': 7.79, 'temp': 23.69, 'lipoC3S3': 11.79, 'rot1': 0, 'rot0': 0, 'rot3': 4, 'rot2': 5, 'state': 'normal', 'yaw': 0.74, 'datetime': '2018-10-12 14:01:23.820001', 'mgs': 0, 'depth': 2.911, 'time': 2.42, 'pitch': -1.91, 'roll': -8.36}
{'lipoC2': 7.8, 'temp': 23.75, 'lipoC3S3': 11.77, 'rot1': 0, 'rot0': 0, 'rot3': 4, 'rot2': 6, 'state': 'normal', 'yaw': 0.46, 'datetime': '2018-10-12 14:01:23.916676', 'mgs': 0, 'depth': 2.835, 'time': 2.52, 'pitch': -1.45, 'roll': -7.93}
{'lipoC2': 7.79, 'temp': 23.75, 'lipoC3S3': 11.73, 'rot1': 0, 'rot0': 0, 'rot3': 5, 'rot2': 6, 'state': 'normal', 'yaw': 0.26, 'datetime': '2018-10-12 14:01:24.014442', 'mgs': 0, 'depth': 2.606, 'time': 2.62, 'pitch': -1.14, 'roll': -7.45}
{'lipoC2': 7.79, 'temp': 23.69, 'lipoC3S3': 11.77, 'rot1': 0, 'rot0': 0, 'rot3': 5, 'rot2': 7, 'state': 'normal', 'yaw': 0.05, 'datetime': '2018-10-12 14:01:24.112092', 'mgs': 0, 'depth': 2.911, 'time': 2.71, 'pitch': -1.01, 'roll': -7.06}
{'lipoC2': 7.8, 'temp': 23.69, 'lipoC3S3': 11.73, 'rot1': 0, 'rot0': 0, 'rot3': 5, 'rot2': 7, 'state': 'normal', 'yaw': -0.15, 'datetime': '2018-10-12 14:01:24.208706', 'mgs': 0, 'depth': 2.759, 'time': 2.81, 'pitch': -1.07, 'roll': -6.71}
{'lipoC2': 7.79, 'temp': 23.69, 'lipoC3S3': 11.75, 'rot1': 0, 'rot0': 0, 'rot3': 6, 'rot2': 8, 'state': 'normal', 'yaw': -0.33, 'datetime': '2018-10-12 14:01:24.305430', 'mgs': 0, 'depth': 2.759, 'time': 2.91, 'pitch': -1.24, 'roll': -6.2}
{'lipoC2': 7.79, 'temp': 23.69, 'lipoC3S3': 11.77, 'rot1': 0, 'rot0': 0, 'rot3': 6, 'rot2': 8, 'state': 'normal', 'yaw': -0.48, 'datetime': '2018-10-12 14:01:24.403416', 'mgs': 0, 'depth': 2.911, 'time': 3.01, 'pitch': -1.36, 'roll': -5.54}
{'lipoC2': 7.79, 'temp': 23.69, 'lipoC3S3': 11.73, 'rot1': 0, 'rot0': 0, 'rot3': 7, 'rot2': 9, 'state': 'normal', 'yaw': -0.63, 'datetime': '2018-10-12 14:01:24.500026', 'mgs': 0, 'depth': 2.835, 'time': 3.1, 'pitch': -1.41, 'roll': -4.67}
{'lipoC2': 7.79, 'temp': 23.69, 'lipoC3S3': 11.75, 'rot1': 0, 'rot0': 0, 'rot3': 7, 'rot2': 9, 'state': 'normal', 'yaw': -0.76, 'datetime': '2018-10-12 14:01:24.596859', 'mgs': 0, 'depth': 2.911, 'time': 3.2, 'pitch': -1.33, 'roll': -3.98}
{'lipoC2': 7.79, 'temp': 23.69, 'lipoC3S3': 11.77, 'rot1': 0, 'rot0': 0, 'rot3': 8, 'rot2': 10, 'state': 'normal', 'yaw': -0.85, 'datetime': '2018-10-12 14:01:24.694473', 'mgs': 0, 'depth': 2.911, 'time': 3.3, 'pitch': -1.16, 'roll': -3.59}
{'lipoC2': 7.79, 'temp': 23.69, 'lipoC3S3': 11.77, 'rot1': 0, 'rot0': 0, 'rot3': 8, 'rot2': 10, 'state': 'normal', 'yaw': -0.95, 'datetime': '2018-10-12 14:01:24.791637', 'mgs': 0, 'depth': 3.064, 'time': 3.39, 'pitch': -0.93, 'roll': -3.41}
{'lipoC2': 7.79, 'temp': 23.69, 'lipoC3S3': 11.76, 'rot1': 0, 'rot0': 0, 'rot3': 9, 'rot2': 11, 'state': 'normal', 'yaw': -1.05, 'datetime': '2018-10-12 14:01:24.888151', 'mgs': 0, 'depth': 3.064, 'time': 3.49, 'pitch': -0.74, 'roll': -3.42}
{'lipoC2': 7.79, 'temp': 23.69, 'lipoC3S3': 11.81, 'rot1': 0, 'rot0': 0, 'rot3': 9, 'rot2': 11, 'state': 'normal', 'yaw': -1.1, 'datetime': '2018-10-12 14:01:24.985667', 'mgs': 0, 'depth': 3.14, 'time': 3.59, 'pitch': -0.68, 'roll': -3.51}
{'lipoC2': 7.79, 'temp': 23.5, 'lipoC3S3': 11.79, 'rot1': 0, 'rot0': 0, 'rot3': 9, 'rot2': 12, 'state': 'normal', 'yaw': -1.13, 'datetime': '2018-10-12 14:01:25.082906', 'mgs': 0, 'depth': 3.14, 'time': 3.69, 'pitch': -0.69, 'roll': -3.66}
{'lipoC2': 7.79, 'temp': 23.5, 'lipoC3S3': 11.79, 'rot1': 0, 'rot0': 0, 'rot3': 10, 'rot2': 12, 'state': 'normal', 'yaw': -1.23, 'datetime': '2018-10-12 14:01:25.179640', 'mgs': 0, 'depth': 3.14, 'time': 3.78, 'pitch': -0.75, 'roll': -3.92}
{'lipoC2': 7.8, 'temp': 23.63, 'lipoC3S3': 11.79, 'rot1': 0, 'rot0': 0, 'rot3': 10, 'rot2': 13, 'state': 'normal', 'yaw': -1.29, 'datetime': '2018-10-12 14:01:25.276850', 'mgs': 0, 'depth': 3.369, 'time': 3.88, 'pitch': -0.76, 'roll': -4.31}
{'lipoC2': 7.8, 'temp': 23.63, 'lipoC3S3': 11.8, 'rot1': 0, 'rot0': 0, 'rot3': 11, 'rot2': 13, 'state': 'normal', 'yaw': -1.3, 'datetime': '2018-10-12 14:01:25.373974', 'mgs': 0, 'depth': 3.293, 'time': 3.98, 'pitch': -0.73, 'roll': -4.89}
{'lipoC2': 7.79, 'temp': 23.63, 'lipoC3S3': 11.77, 'rot1': 0, 'rot0': 0, 'rot3': 11, 'rot2': 14, 'state': 'normal', 'yaw': -1.31, 'datetime': '2018-10-12 14:01:25.466275', 'mgs': 0, 'depth': 3.293, 'time': 4.07, 'pitch': -0.64, 'roll': -5.52}
{'lipoC2': 7.79, 'temp': 24.13, 'lipoC3S3': 11.73, 'rot1': 0, 'rot0': 0, 'rot3': 12, 'rot2': 14, 'state': 'normal', 'yaw': -1.33, 'datetime': '2018-10-12 14:01:25.566902', 'mgs': 0, 'depth': 3.293, 'time': 4.17, 'pitch': -0.52, 'roll': -6.08}
{'lipoC2': 7.79, 'temp': 24.13, 'lipoC3S3': 11.79, 'rot1': 0, 'rot0': 0, 'rot3': 12, 'rot2': 15, 'state': 'normal', 'yaw': -1.34, 'datetime': '2018-10-12 14:01:25.666291', 'mgs': 0, 'depth': 3.369, 'time': 4.27, 'pitch': -0.39, 'roll': -6.47}
{'lipoC2': 7.79, 'temp': 23.75, 'lipoC3S3': 11.8, 'rot1': 0, 'rot0': 0, 'rot3': 12, 'rot2': 15, 'state': 'normal', 'yaw': -1.36, 'datetime': '2018-10-12 14:01:25.763909', 'mgs': 0, 'depth': 3.522, 'time': 4.37, 'pitch': -0.22, 'roll': -6.78}
{'lipoC2': 7.79, 'temp': 23.75, 'lipoC3S3': 11.79, 'rot1': 0, 'rot0': 0, 'rot3': 13, 'rot2': 16, 'state': 'normal', 'yaw': -1.37, 'datetime': '2018-10-12 14:01:25.860932', 'mgs': 0, 'depth': 3.369, 'time': 4.47, 'pitch': -0.04, 'roll': -6.98}
{'lipoC2': 7.79, 'temp': 23.75, 'lipoC3S3': 11.8, 'rot1': 0, 'rot0': 0, 'rot3': 13, 'rot2': 16, 'state': 'normal', 'yaw': -1.39, 'datetime': '2018-10-12 14:01:25.958035', 'mgs': 0, 'depth': 3.369, 'time': 4.56, 'pitch': 0.09, 'roll': -7.11}
{'lipoC2': 7.79, 'temp': 23.69, 'lipoC3S3': 11.8, 'rot1': 0, 'rot0': 0, 'rot3': 14, 'rot2': 17, 'state': 'normal', 'yaw': -1.4, 'datetime': '2018-10-12 14:01:26.056394', 'mgs': 0, 'depth': 3.445, 'time': 4.66, 'pitch': 0.12, 'roll': -7.2}
{'lipoC2': 7.79, 'temp': 23.69, 'lipoC3S3': 11.81, 'rot1': 0, 'rot0': 0, 'rot3': 14, 'rot2': 17, 'state': 'normal', 'yaw': -1.4, 'datetime': '2018-10-12 14:01:26.154597', 'mgs': 0, 'depth': 3.445, 'time': 4.76, 'pitch': 0.11, 'roll': -7.24}
{'lipoC2': 7.79, 'temp': 23.69, 'lipoC3S3': 11.81, 'rot1': 0, 'rot0': 0, 'rot3': 14, 'rot2': 17, 'state': 'normal', 'yaw': -1.41, 'datetime': '2018-10-12 14:01:26.251634', 'mgs': 0, 'depth': 3.522, 'time': 4.86, 'pitch': -0.03, 'roll': -7.13}
{'lipoC2': 7.79, 'temp': 23.69, 'lipoC3S3': 11.81, 'rot1': 0, 'rot0': 0, 'rot3': 14, 'rot2': 17, 'state': 'normal', 'yaw': -1.43, 'datetime': '2018-10-12 14:01:26.350721', 'mgs': 0, 'depth': 3.522, 'time': 4.95, 'pitch': -0.24, 'roll': -6.84}
{'lipoC2': 7.79, 'temp': 23.69, 'lipoC3S3': 11.81, 'rot1': 0, 'rot0': 0, 'rot3': 14, 'rot2': 17, 'state': 'normal', 'yaw': -1.46, 'datetime': '2018-10-12 14:01:26.446927', 'mgs': 0, 'depth': 3.598, 'time': 5.05, 'pitch': -0.43, 'roll': -6.5}
{'lipoC2': 7.79, 'temp': 23.69, 'lipoC3S3': 11.81, 'rot1': 0, 'rot0': 0, 'rot3': 14, 'rot2': 17, 'state': 'normal', 'yaw': -1.49, 'datetime': '2018-10-12 14:01:26.544040', 'mgs': 0, 'depth': 3.598, 'time': 5.15, 'pitch': -0.62, 'roll': -6.06}
{'lipoC2': 7.79, 'temp': 23.69, 'lipoC3S3': 11.81, 'rot1': 0, 'rot0': 0, 'rot3': 14, 'rot2': 17, 'state': 'normal', 'yaw': -1.51, 'datetime': '2018-10-12 14:01:26.641405', 'mgs': 0, 'depth': 3.598, 'time': 5.25, 'pitch': -0.78, 'roll': -5.58}
{'lipoC2': 7.79, 'temp': 23.69, 'lipoC3S3': 11.81, 'rot1': 0, 'rot0': 0, 'rot3': 14, 'rot2': 17, 'state': 'normal', 'yaw': -1.5, 'datetime': '2018-10-12 14:01:26.738035', 'mgs': 0, 'depth': 3.598, 'time': 5.34, 'pitch': -0.92, 'roll': -5.18}
{'lipoC2': 7.79, 'temp': 23.69, 'lipoC3S3': 11.81, 'rot1': 0, 'rot0': 0, 'rot3': 14, 'rot2': 17, 'state': 'normal', 'yaw': -1.49, 'datetime': '2018-10-12 14:01:26.835060', 'mgs': 0, 'depth': 3.674, 'time': 5.44, 'pitch': -1.1, 'roll': -4.82}
{'lipoC2': 7.79, 'temp': 23.69, 'lipoC3S3': 11.81, 'rot1': 0, 'rot0': 0, 'rot3': 14, 'rot2': 17, 'state': 'normal', 'yaw': -1.47, 'datetime': '2018-10-12 14:01:26.932211', 'mgs': 0, 'depth': 3.598, 'time': 5.54, 'pitch': -1.3, 'roll': -4.55}
{'lipoC2': 7.79, 'temp': 23.75, 'lipoC3S3': 11.81, 'rot1': 0, 'rot0': 0, 'rot3': 14, 'rot2': 17, 'state': 'normal', 'yaw': -1.46, 'datetime': '2018-10-12 14:01:27.029427', 'mgs': 0, 'depth': 3.598, 'time': 5.64, 'pitch': -1.45, 'roll': -4.35}
{'lipoC2': 7.79, 'temp': 23.75, 'lipoC3S3': 11.81, 'rot1': 0, 'rot0': 0, 'rot3': 14, 'rot2': 17, 'state': 'normal', 'yaw': -1.45, 'datetime': '2018-10-12 14:01:27.126364', 'mgs': 0, 'depth': 3.674, 'time': 5.73, 'pitch': -1.57, 'roll': -4.19}
{'lipoC2': 7.79, 'temp': 23.69, 'lipoC3S3': 11.81, 'rot1': 0, 'rot0': 0, 'rot3': 14, 'rot2': 17, 'state': 'normal', 'yaw': -1.45, 'datetime': '2018-10-12 14:01:27.223601', 'mgs': 0, 'depth': 3.751, 'time': 5.83, 'pitch': -1.62, 'roll': -4.1}
{'lipoC2': 7.79, 'temp': 23.69, 'lipoC3S3': 11.81, 'rot1': 0, 'rot0': 0, 'rot3': 14, 'rot2': 17, 'state': 'normal', 'yaw': -1.45, 'datetime': '2018-10-12 14:01:27.320939', 'mgs': 0, 'depth': 3.674, 'time': 5.93, 'pitch': -1.63, 'roll': -4.11}
{'lipoC2': 7.79, 'temp': 23.69, 'lipoC3S3': 11.81, 'rot1': 0, 'rot0': 0, 'rot3': 14, 'rot2': 17, 'state': 'normal', 'yaw': -1.45, 'datetime': '2018-10-12 14:01:27.419221', 'mgs': 0, 'depth': 3.674, 'time': 6.03, 'pitch': -1.6, 'roll': -4.24}
{'lipoC2': 7.79, 'temp': 23.81, 'lipoC3S3': 11.81, 'rot1': 0, 'rot0': 0, 'rot3': 14, 'rot2': 17, 'state': 'normal', 'yaw': -1.44, 'datetime': '2018-10-12 14:01:27.517218', 'mgs': 0, 'depth': 3.674, 'time': 6.12, 'pitch': -1.45, 'roll': -4.52}
{'lipoC2': 7.79, 'temp': 23.81, 'lipoC3S3': 11.81, 'rot1': 0, 'rot0': 0, 'rot3': 14, 'rot2': 17, 'state': 'normal', 'yaw': -1.38, 'datetime': '2018-10-12 14:01:27.614338', 'mgs': 0, 'depth': 3.674, 'time': 6.22, 'pitch': -1.22, 'roll': -4.93}
{'lipoC2': 7.79, 'temp': 23.69, 'lipoC3S3': 11.83, 'rot1': 0, 'rot0': 0, 'rot3': 14, 'rot2': 17, 'state': 'normal', 'yaw': -1.31, 'datetime': '2018-10-12 14:01:27.711469', 'mgs': 0, 'depth': 3.674, 'time': 6.32, 'pitch': -0.96, 'roll': -5.37}
{'lipoC2': 7.8, 'temp': 23.69, 'lipoC3S3': 11.81, 'rot1': 0, 'rot0': 0, 'rot3': 14, 'rot2': 17, 'state': 'normal', 'yaw': -1.25, 'datetime': '2018-10-12 14:01:27.809740', 'mgs': 0, 'depth': 3.674, 'time': 6.42, 'pitch': -0.73, 'roll': -5.74}
{'lipoC2': 7.79, 'temp': 23.69, 'lipoC3S3': 11.83, 'rot1': 0, 'rot0': 0, 'rot3': 14, 'rot2': 17, 'state': 'normal', 'yaw': -1.19, 'datetime': '2018-10-12 14:01:27.908011', 'mgs': 0, 'depth': 3.598, 'time': 6.51, 'pitch': -0.54, 'roll': -6.04}
{'lipoC2': 7.79, 'temp': 23.75, 'lipoC3S3': 11.83, 'rot1': 0, 'rot0': 0, 'rot3': 14, 'rot2': 17, 'state': 'normal', 'yaw': -1.13, 'datetime': '2018-10-12 14:01:28.004947', 'mgs': 0, 'depth': 3.598, 'time': 6.61, 'pitch': -0.42, 'roll': -6.21}
{'lipoC2': 7.79, 'temp': 23.75, 'lipoC3S3': 11.83, 'rot1': 0, 'rot0': 0, 'rot3': 14, 'rot2': 17, 'state': 'normal', 'yaw': -1.09, 'datetime': '2018-10-12 14:01:28.102449', 'mgs': 0, 'depth': 3.598, 'time': 6.71, 'pitch': -0.36, 'roll': -6.29}
{'lipoC2': 7.79, 'temp': 23.63, 'lipoC3S3': 11.83, 'rot1': 0, 'rot0': 0, 'rot3': 14, 'rot2': 17, 'state': 'normal', 'yaw': -1.09, 'datetime': '2018-10-12 14:01:28.200500', 'mgs': 0, 'depth': 3.522, 'time': 6.81, 'pitch': -0.36, 'roll': -6.3}
{'lipoC2': 7.79, 'temp': 23.63, 'lipoC3S3': 11.81, 'rot1': 0, 'rot0': 0, 'rot3': 14, 'rot2': 17, 'state': 'normal', 'yaw': -1.09, 'datetime': '2018-10-12 14:01:28.298751', 'mgs': 0, 'depth': 3.522, 'time': 6.91, 'pitch': -0.36, 'roll': -6.3}
{'lipoC2': 7.79, 'temp': 23.63, 'lipoC3S3': 11.83, 'rot1': 0, 'rot0': 0, 'rot3': 14, 'rot2': 17, 'state': 'normal', 'yaw': -1.09, 'datetime': '2018-10-12 14:01:28.395809', 'mgs': 0, 'depth': 3.522, 'time': 7.0, 'pitch': -0.36, 'roll': -6.3}
{'lipoC2': 7.79, 'temp': 23.69, 'lipoC3S3': 11.83, 'rot1': 0, 'rot0': 0, 'rot3': 14, 'rot2': 17, 'state': 'normal', 'yaw': -1.06, 'datetime': '2018-10-12 14:01:28.492917', 'mgs': 0, 'depth': 3.598, 'time': 7.1, 'pitch': -0.37, 'roll': -6.24}
{'lipoC2': 7.79, 'temp': 23.69, 'lipoC3S3': 11.83, 'rot1': 0, 'rot0': 0, 'rot3': 14, 'rot2': 17, 'state': 'normal', 'yaw': -1.01, 'datetime': '2018-10-12 14:01:28.589920', 'mgs': 0, 'depth': 3.522, 'time': 7.2, 'pitch': -0.36, 'roll': -6.09}
{'lipoC2': 7.79, 'temp': 23.69, 'lipoC3S3': 11.81, 'rot1': 0, 'rot0': 0, 'rot3': 14, 'rot2': 17, 'state': 'normal', 'yaw': -0.96, 'datetime': '2018-10-12 14:01:28.687064', 'mgs': 0, 'depth': 3.522, 'time': 7.29, 'pitch': -0.44, 'roll': -5.86}
{'lipoC2': 7.79, 'temp': 23.69, 'lipoC3S3': 11.81, 'rot1': 0, 'rot0': 0, 'rot3': 14, 'rot2': 17, 'state': 'normal', 'yaw': -0.92, 'datetime': '2018-10-12 14:01:28.784002', 'mgs': 0, 'depth': 3.445, 'time': 7.39, 'pitch': -0.62, 'roll': -5.62}
{'lipoC2': 7.79, 'temp': 23.69, 'lipoC3S3': 11.83, 'rot1': 0, 'rot0': 0, 'rot3': 14, 'rot2': 17, 'state': 'normal', 'yaw': -0.88, 'datetime': '2018-10-12 14:01:28.881046', 'mgs': 0, 'depth': 3.522, 'time': 7.49, 'pitch': -0.8, 'roll': -5.5}
{'lipoC2': 7.79, 'temp': 23.63, 'lipoC3S3': 11.81, 'rot1': 0, 'rot0': 0, 'rot3': 14, 'rot2': 17, 'state': 'normal', 'yaw': -0.79, 'datetime': '2018-10-12 14:01:28.978092', 'mgs': 0, 'depth': 3.445, 'time': 7.59, 'pitch': -1.0, 'roll': -5.47}
{'lipoC2': 7.79, 'temp': 23.63, 'lipoC3S3': 11.83, 'rot1': 0, 'rot0': 0, 'rot3': 14, 'rot2': 17, 'state': 'normal', 'yaw': -0.69, 'datetime': '2018-10-12 14:01:29.075096', 'mgs': 0, 'depth': 3.445, 'time': 7.68, 'pitch': -1.13, 'roll': -5.44}
{'lipoC2': 7.79, 'temp': 23.69, 'lipoC3S3': 11.83, 'rot1': 0, 'rot0': 0, 'rot3': 14, 'rot2': 17, 'state': 'normal', 'yaw': -0.6, 'datetime': '2018-10-12 14:01:29.173465', 'mgs': 0, 'depth': 3.445, 'time': 7.78, 'pitch': -1.21, 'roll': -5.38}
{'lipoC2': 7.79, 'temp': 23.69, 'lipoC3S3': 11.81, 'rot1': 0, 'rot0': 0, 'rot3': 14, 'rot2': 17, 'state': 'normal', 'yaw': -0.47, 'datetime': '2018-10-12 14:01:29.271905', 'mgs': 0, 'depth': 3.445, 'time': 7.88, 'pitch': -1.2, 'roll': -5.24}
{'lipoC2': 7.79, 'temp': 23.69, 'lipoC3S3': 11.81, 'rot1': 0, 'rot0': 0, 'rot3': 14, 'rot2': 17, 'state': 'normal', 'yaw': -0.3, 'datetime': '2018-10-12 14:01:29.368918', 'mgs': 0, 'depth': 3.369, 'time': 7.98, 'pitch': -1.19, 'roll': -5.12}
{'lipoC2': 7.79, 'temp': 23.69, 'lipoC3S3': 11.72, 'rot1': 0, 'rot0': 0, 'rot3': 14, 'rot2': 17, 'state': 'normal', 'yaw': -0.14, 'datetime': '2018-10-12 14:01:29.465829', 'mgs': 0, 'depth': 3.293, 'time': 8.07, 'pitch': -1.12, 'roll': -5.1}
{'lipoC2': 7.79, 'temp': 23.69, 'lipoC3S3': 11.8, 'rot1': 0, 'rot0': 0, 'rot3': 15, 'rot2': 18, 'state': 'normal', 'yaw': 0.03, 'datetime': '2018-10-12 14:01:29.566740', 'mgs': 0, 'depth': 3.674, 'time': 8.17, 'pitch': -0.97, 'roll': -5.21}
{'lipoC2': 7.79, 'temp': 23.63, 'lipoC3S3': 11.81, 'rot1': 0, 'rot0': 0, 'rot3': 15, 'rot2': 18, 'state': 'normal', 'yaw': 0.17, 'datetime': '2018-10-12 14:01:29.665001', 'mgs': 0, 'depth': 3.369, 'time': 8.27, 'pitch': -0.77, 'roll': -5.47}
{'lipoC2': 7.79, 'temp': 23.63, 'lipoC3S3': 11.83, 'rot1': 0, 'rot0': 0, 'rot3': 15, 'rot2': 18, 'state': 'normal', 'yaw': 0.27, 'datetime': '2018-10-12 14:01:29.762154', 'mgs': 0, 'depth': 3.369, 'time': 8.37, 'pitch': -0.65, 'roll': -5.57}
{'lipoC2': 7.79, 'temp': 23.63, 'lipoC3S3': 11.8, 'rot1': 0, 'rot0': 0, 'rot3': 15, 'rot2': 18, 'state': 'normal', 'yaw': 0.38, 'datetime': '2018-10-12 14:01:29.858993', 'mgs': 0, 'depth': 3.369, 'time': 8.47, 'pitch': -0.63, 'roll': -5.51}
{'lipoC2': 7.79, 'temp': 23.75, 'lipoC3S3': 11.8, 'rot1': 0, 'rot0': 0, 'rot3': 15, 'rot2': 19, 'state': 'normal', 'yaw': 0.51, 'datetime': '2018-10-12 14:01:29.957237', 'mgs': 0, 'depth': 3.445, 'time': 8.56, 'pitch': -0.59, 'roll': -5.47}
{'lipoC2': 7.79, 'temp': 23.75, 'lipoC3S3': 11.81, 'rot1': 0, 'rot0': 0, 'rot3': 16, 'rot2': 19, 'state': 'normal', 'yaw': 0.66, 'datetime': '2018-10-12 14:01:30.054316', 'mgs': 0, 'depth': 3.293, 'time': 8.66, 'pitch': -0.54, 'roll': -5.58}
{'lipoC2': 7.79, 'temp': 23.69, 'lipoC3S3': 11.81, 'rot1': 0, 'rot0': 0, 'rot3': 16, 'rot2': 19, 'state': 'normal', 'yaw': 0.79, 'datetime': '2018-10-12 14:01:30.151301', 'mgs': 0, 'depth': 3.293, 'time': 8.76, 'pitch': -0.52, 'roll': -5.76}
{'lipoC2': 7.79, 'temp': 23.69, 'lipoC3S3': 11.72, 'rot1': 0, 'rot0': 0, 'rot3': 16, 'rot2': 19, 'state': 'normal', 'yaw': 0.9, 'datetime': '2018-10-12 14:01:30.248509', 'mgs': 0, 'depth': 3.369, 'time': 8.85, 'pitch': -0.48, 'roll': -5.89}
{'lipoC2': 7.79, 'temp': 23.69, 'lipoC3S3': 11.79, 'rot1': 0, 'rot0': 0, 'rot3': 16, 'rot2': 20, 'state': 'normal', 'yaw': 1.0, 'datetime': '2018-10-12 14:01:30.350815', 'mgs': 0, 'depth': 3.293, 'time': 8.95, 'pitch': -0.47, 'roll': -5.94}
{'lipoC2': 7.79, 'temp': 23.69, 'lipoC3S3': 11.79, 'rot1': 0, 'rot0': 0, 'rot3': 17, 'rot2': 20, 'state': 'normal', 'yaw': 1.08, 'datetime': '2018-10-12 14:01:30.436687', 'mgs': 0, 'depth': 3.598, 'time': 9.05, 'pitch': -0.39, 'roll': -5.92}
{'lipoC2': 7.79, 'temp': 23.69, 'lipoC3S3': 11.79, 'rot1': 0, 'rot0': 0, 'rot3': 17, 'rot2': 21, 'state': 'normal', 'yaw': 1.19, 'datetime': '2018-10-12 14:01:30.533671', 'mgs': 0, 'depth': 3.369, 'time': 9.15, 'pitch': -0.34, 'roll': -5.79}
{'lipoC2': 7.79, 'temp': 23.63, 'lipoC3S3': 11.81, 'rot1': 0, 'rot0': 0, 'rot3': 17, 'rot2': 21, 'state': 'normal', 'yaw': 1.29, 'datetime': '2018-10-12 14:01:30.631271', 'mgs': 0, 'depth': 3.369, 'time': 9.25, 'pitch': -0.33, 'roll': -5.74}
{'lipoC2': 7.79, 'temp': 23.63, 'lipoC3S3': 11.76, 'rot1': 0, 'rot0': 0, 'rot3': 18, 'rot2': 22, 'state': 'normal', 'yaw': 1.4, 'datetime': '2018-10-12 14:01:30.728252', 'mgs': 0, 'depth': 3.293, 'time': 9.34, 'pitch': -0.32, 'roll': -5.76}
{'lipoC2': 7.79, 'temp': 23.63, 'lipoC3S3': 11.73, 'rot1': 0, 'rot0': 0, 'rot3': 18, 'rot2': 22, 'state': 'normal', 'yaw': 1.51, 'datetime': '2018-10-12 14:01:30.825309', 'mgs': 0, 'depth': 3.293, 'time': 9.44, 'pitch': -0.36, 'roll': -5.96}
{'lipoC2': 7.79, 'temp': 23.69, 'lipoC3S3': 11.79, 'rot1': 0, 'rot0': 0, 'rot3': 19, 'rot2': 23, 'state': 'normal', 'yaw': 1.61, 'datetime': '2018-10-12 14:01:30.922290', 'mgs': 0, 'depth': 3.522, 'time': 9.54, 'pitch': -0.35, 'roll': -6.17}
{'lipoC2': 7.79, 'temp': 23.69, 'lipoC3S3': 11.81, 'rot1': 0, 'rot0': 0, 'rot3': 19, 'rot2': 23, 'state': 'normal', 'yaw': 1.69, 'datetime': '2018-10-12 14:01:31.020684', 'mgs': 0, 'depth': 3.293, 'time': 9.64, 'pitch': -0.34, 'roll': -6.28}
{'lipoC2': 7.79, 'temp': 23.75, 'lipoC3S3': 11.83, 'rot1': 0, 'rot0': 0, 'rot3': 19, 'rot2': 23, 'state': 'normal', 'yaw': 1.78, 'datetime': '2018-10-12 14:01:31.118957', 'mgs': 0, 'depth': 3.369, 'time': 9.73, 'pitch': -0.35, 'roll': -6.16}
{'lipoC2': 7.79, 'temp': 23.75, 'lipoC3S3': 11.79, 'rot1': 0, 'rot0': 0, 'rot3': 19, 'rot2': 23, 'state': 'normal', 'yaw': 1.88, 'datetime': '2018-10-12 14:01:31.221148', 'mgs': 0, 'depth': 3.369, 'time': 9.83, 'pitch': -0.43, 'roll': -5.85}
{'lipoC2': 7.8, 'temp': 23.75, 'lipoC3S3': 11.75, 'rot1': 0, 'rot0': 0, 'rot3': 20, 'rot2': 24, 'state': 'normal', 'yaw': 2.0, 'datetime': '2018-10-12 14:01:31.318009', 'mgs': 0, 'depth': 3.293, 'time': 9.93, 'pitch': -0.42, 'roll': -5.63}
{'lipoC2': 7.79, 'temp': 23.69, 'lipoC3S3': 11.8, 'rot1': 0, 'rot0': 0, 'rot3': 20, 'rot2': 24, 'state': 'normal', 'yaw': 2.1, 'datetime': '2018-10-12 14:01:31.416454', 'mgs': 0, 'depth': 3.369, 'time': 10.03, 'pitch': -0.4, 'roll': -5.6}
{'lipoC2': 7.79, 'temp': 23.69, 'lipoC3S3': 11.72, 'rot1': 0, 'rot0': 0, 'rot3': 20, 'rot2': 24, 'state': 'normal', 'yaw': 2.17, 'datetime': '2018-10-12 14:01:31.514505', 'mgs': 0, 'depth': 3.369, 'time': 10.13, 'pitch': -0.36, 'roll': -5.64}
{'lipoC2': 7.79, 'temp': 23.69, 'lipoC3S3': 11.79, 'rot1': 0, 'rot0': 0, 'rot3': 21, 'rot2': 25, 'state': 'normal', 'yaw': 2.22, 'datetime': '2018-10-12 14:01:31.611747', 'mgs': 0, 'depth': 3.674, 'time': 10.22, 'pitch': -0.35, 'roll': -5.75}
{'lipoC2': 7.79, 'temp': 23.69, 'lipoC3S3': 11.79, 'rot1': 0, 'rot0': 0, 'rot3': 21, 'rot2': 25, 'state': 'normal', 'yaw': 2.26, 'datetime': '2018-10-12 14:01:31.708656', 'mgs': 0, 'depth': 3.445, 'time': 10.32, 'pitch': -0.35, 'roll': -5.87}
{'lipoC2': 7.79, 'temp': 23.69, 'lipoC3S3': 11.83, 'rot1': 0, 'rot0': 0, 'rot3': 22, 'rot2': 26, 'state': 'normal', 'yaw': 2.27, 'datetime': '2018-10-12 14:01:31.807023', 'mgs': 0, 'depth': 3.369, 'time': 10.42, 'pitch': -0.42, 'roll': -5.92}
{'lipoC2': 7.79, 'temp': 23.69, 'lipoC3S3': 11.83, 'rot1': 0, 'rot0': 0, 'rot3': 22, 'rot2': 26, 'state': 'normal', 'yaw': 2.34, 'datetime': '2018-10-12 14:01:31.904137', 'mgs': 0, 'depth': 3.293, 'time': 10.52, 'pitch': -0.54, 'roll': -5.84}
{'lipoC2': 7.79, 'temp': 23.69, 'lipoC3S3': 11.76, 'rot1': 0, 'rot0': 0, 'rot3': 22, 'rot2': 26, 'state': 'normal', 'yaw': 2.42, 'datetime': '2018-10-12 14:01:32.001300', 'mgs': 0, 'depth': 3.445, 'time': 10.61, 'pitch': -0.63, 'roll': -5.71}
{'lipoC2': 7.8, 'temp': 23.63, 'lipoC3S3': 11.79, 'rot1': 0, 'rot0': 0, 'rot3': 22, 'rot2': 26, 'state': 'normal', 'yaw': 2.48, 'datetime': '2018-10-12 14:01:32.098889', 'mgs': 0, 'depth': 3.445, 'time': 10.71, 'pitch': -0.66, 'roll': -5.66}
{'lipoC2': 7.79, 'temp': 23.63, 'lipoC3S3': 11.81, 'rot1': 0, 'rot0': 0, 'rot3': 22, 'rot2': 27, 'state': 'normal', 'yaw': 2.56, 'datetime': '2018-10-12 14:01:32.197212', 'mgs': 0, 'depth': 3.369, 'time': 10.81, 'pitch': -0.65, 'roll': -5.67}
{'lipoC2': 7.79, 'temp': 23.69, 'lipoC3S3': 11.81, 'rot1': 0, 'rot0': 0, 'rot3': 22, 'rot2': 27, 'state': 'normal', 'yaw': 2.65, 'datetime': '2018-10-12 14:01:32.294509', 'mgs': 0, 'depth': 3.445, 'time': 10.91, 'pitch': -0.7, 'roll': -5.64}
{'lipoC2': 7.79, 'temp': 23.69, 'lipoC3S3': 11.81, 'rot1': 0, 'rot0': 0, 'rot3': 22, 'rot2': 27, 'state': 'normal', 'yaw': 2.74, 'datetime': '2018-10-12 14:01:32.391695', 'mgs': 0, 'depth': 3.445, 'time': 11.0, 'pitch': -0.76, 'roll': -5.54}
{'lipoC2': 7.79, 'temp': 23.69, 'lipoC3S3': 11.81, 'rot1': 0, 'rot0': 0, 'rot3': 22, 'rot2': 27, 'state': 'normal', 'yaw': 2.83, 'datetime': '2018-10-12 14:01:32.488618', 'mgs': 0, 'depth': 3.369, 'time': 11.1, 'pitch': -0.78, 'roll': -5.43}
{'lipoC2': 7.79, 'temp': 23.63, 'lipoC3S3': 11.77, 'rot1': 0, 'rot0': 0, 'rot3': 22, 'rot2': 27, 'state': 'normal', 'yaw': 2.91, 'datetime': '2018-10-12 14:01:32.585863', 'mgs': 0, 'depth': 3.445, 'time': 11.2, 'pitch': -0.77, 'roll': -5.33}
{'lipoC2': 7.79, 'temp': 23.63, 'lipoC3S3': 11.76, 'rot1': 0, 'rot0': 0, 'rot3': 23, 'rot2': 27, 'state': 'normal', 'yaw': 3.02, 'datetime': '2018-10-12 14:01:32.682666', 'mgs': 0, 'depth': 3.522, 'time': 11.29, 'pitch': -0.73, 'roll': -5.38}
{'lipoC2': 7.79, 'temp': 23.75, 'lipoC3S3': 11.81, 'rot1': 0, 'rot0': 0, 'rot3': 23, 'rot2': 28, 'state': 'normal', 'yaw': 3.14, 'datetime': '2018-10-12 14:01:32.780600', 'mgs': 0, 'depth': 3.445, 'time': 11.39, 'pitch': -0.66, 'roll': -5.54}
{'lipoC2': 7.79, 'temp': 23.75, 'lipoC3S3': 11.81, 'rot1': 0, 'rot0': 0, 'rot3': 23, 'rot2': 28, 'state': 'normal', 'yaw': 3.27, 'datetime': '2018-10-12 14:01:32.878864', 'mgs': 0, 'depth': 3.369, 'time': 11.49, 'pitch': -0.64, 'roll': -5.59}
{'lipoC2': 7.79, 'temp': 23.75, 'lipoC3S3': 11.75, 'rot1': 0, 'rot0': 0, 'rot3': 23, 'rot2': 28, 'state': 'normal', 'yaw': 3.4, 'datetime': '2018-10-12 14:01:32.975998', 'mgs': 0, 'depth': 3.445, 'time': 11.59, 'pitch': -0.63, 'roll': -5.58}
{'lipoC2': 7.79, 'temp': 23.69, 'lipoC3S3': 11.72, 'rot1': 0, 'rot0': 0, 'rot3': 24, 'rot2': 28, 'state': 'normal', 'yaw': 3.52, 'datetime': '2018-10-12 14:01:33.073208', 'mgs': 0, 'depth': 3.522, 'time': 11.69, 'pitch': -0.58, 'roll': -5.62}
{'lipoC2': 7.79, 'temp': 23.69, 'lipoC3S3': 11.81, 'rot1': 0, 'rot0': 0, 'rot3': 24, 'rot2': 29, 'state': 'normal', 'yaw': 3.61, 'datetime': '2018-10-12 14:01:33.171034', 'mgs': 0, 'depth': 3.445, 'time': 11.78, 'pitch': -0.48, 'roll': -5.78}
{'lipoC2': 7.79, 'temp': 23.69, 'lipoC3S3': 11.83, 'rot1': 0, 'rot0': 0, 'rot3': 24, 'rot2': 29, 'state': 'normal', 'yaw': 3.7, 'datetime': '2018-10-12 14:01:33.269253', 'mgs': 0, 'depth': 3.445, 'time': 11.88, 'pitch': -0.4, 'roll': -5.87}
{'lipoC2': 7.79, 'temp': 23.69, 'lipoC3S3': 11.83, 'rot1': 0, 'rot0': 0, 'rot3': 24, 'rot2': 29, 'state': 'normal', 'yaw': 3.81, 'datetime': '2018-10-12 14:01:33.366522', 'mgs': 0, 'depth': 3.445, 'time': 11.98, 'pitch': -0.31, 'roll': -5.84}
{'lipoC2': 7.79, 'temp': 23.69, 'lipoC3S3': 11.81, 'rot1': 0, 'rot0': 0, 'rot3': 24, 'rot2': 29, 'state': 'normal', 'yaw': 3.92, 'datetime': '2018-10-12 14:01:33.463471', 'mgs': 0, 'depth': 3.445, 'time': 12.08, 'pitch': -0.23, 'roll': -5.74}
{'lipoC2': 7.79, 'temp': 23.63, 'lipoC3S3': 11.81, 'rot1': 0, 'rot0': 0, 'rot3': 24, 'rot2': 29, 'state': 'normal', 'yaw': 4.03, 'datetime': '2018-10-12 14:01:33.561626', 'mgs': 0, 'depth': 3.445, 'time': 12.17, 'pitch': -0.22, 'roll': -5.68}
{'lipoC2': 7.79, 'temp': 23.63, 'lipoC3S3': 11.81, 'rot1': 0, 'rot0': 0, 'rot3': 24, 'rot2': 29, 'state': 'normal', 'yaw': 4.13, 'datetime': '2018-10-12 14:01:33.660076', 'mgs': 0, 'depth': 3.445, 'time': 12.27, 'pitch': -0.21, 'roll': -5.68}
{'lipoC2': 7.79, 'temp': 23.69, 'lipoC3S3': 11.81, 'rot1': 0, 'rot0': 0, 'rot3': 24, 'rot2': 29, 'state': 'normal', 'yaw': 4.25, 'datetime': '2018-10-12 14:01:33.757392', 'mgs': 0, 'depth': 3.445, 'time': 12.37, 'pitch': -0.28, 'roll': -5.77}
{'lipoC2': 7.79, 'temp': 23.69, 'lipoC3S3': 11.81, 'rot1': 0, 'rot0': 0, 'rot3': 24, 'rot2': 29, 'state': 'normal', 'yaw': 4.38, 'datetime': '2018-10-12 14:01:33.854384', 'mgs': 0, 'depth': 3.369, 'time': 12.47, 'pitch': -0.4, 'roll': -5.77}
{'lipoC2': 7.79, 'temp': 23.69, 'lipoC3S3': 11.79, 'rot1': 0, 'rot0': 0, 'rot3': 24, 'rot2': 29, 'state': 'normal', 'yaw': 4.5, 'datetime': '2018-10-12 14:01:33.951603', 'mgs': 0, 'depth': 3.369, 'time': 12.56, 'pitch': -0.53, 'roll': -5.68}
{'lipoC2': 7.79, 'temp': 23.75, 'lipoC3S3': 11.73, 'rot1': 0, 'rot0': 0, 'rot3': 24, 'rot2': 29, 'state': 'normal', 'yaw': 4.63, 'datetime': '2018-10-12 14:01:34.049623', 'mgs': 0, 'depth': 3.369, 'time': 12.66, 'pitch': -0.66, 'roll': -5.57}
{'lipoC2': 7.79, 'temp': 23.75, 'lipoC3S3': 11.77, 'rot1': 0, 'rot0': 0, 'rot3': 25, 'rot2': 30, 'state': 'normal', 'yaw': 4.73, 'datetime': '2018-10-12 14:01:34.146876', 'mgs': 0, 'depth': 3.674, 'time': 12.76, 'pitch': -0.71, 'roll': -5.53}
{'lipoC2': 7.79, 'temp': 23.69, 'lipoC3S3': 11.79, 'rot1': 0, 'rot0': 0, 'rot3': 25, 'rot2': 30, 'state': 'normal', 'yaw': 4.84, 'datetime': '2018-10-12 14:01:34.243723', 'mgs': 0, 'depth': 3.369, 'time': 12.86, 'pitch': -0.7, 'roll': -5.52}
{'lipoC2': 7.79, 'temp': 23.69, 'lipoC3S3': 11.76, 'rot1': 0, 'rot0': 0, 'rot3': 26, 'rot2': 31, 'state': 'normal', 'yaw': 4.93, 'datetime': '2018-10-12 14:01:34.340929', 'mgs': 0, 'depth': 3.445, 'time': 12.95, 'pitch': -0.66, 'roll': -5.55}
{'lipoC2': 7.8, 'temp': 23.69, 'lipoC3S3': 11.77, 'rot1': 0, 'rot0': 0, 'rot3': 26, 'rot2': 31, 'state': 'normal', 'yaw': 5.02, 'datetime': '2018-10-12 14:01:34.437849', 'mgs': 0, 'depth': 3.445, 'time': 13.05, 'pitch': -0.57, 'roll': -5.73}
{'lipoC2': 7.8, 'temp': 23.69, 'lipoC3S3': 11.81, 'rot1': 0, 'rot0': 0, 'rot3': 26, 'rot2': 31, 'state': 'normal', 'yaw': 5.13, 'datetime': '2018-10-12 14:01:34.534949', 'mgs': 0, 'depth': 3.369, 'time': 13.15, 'pitch': -0.52, 'roll': -5.94}
{'lipoC2': 7.79, 'temp': 23.69, 'lipoC3S3': 11.81, 'rot1': 0, 'rot0': 0, 'rot3': 26, 'rot2': 31, 'state': 'normal', 'yaw': 5.22, 'datetime': '2018-10-12 14:01:34.633486', 'mgs': 0, 'depth': 3.369, 'time': 13.25, 'pitch': -0.53, 'roll': -6.03}
{'lipoC2': 7.79, 'temp': 23.69, 'lipoC3S3': 11.73, 'rot1': 0, 'rot0': 0, 'rot3': 27, 'rot2': 32, 'state': 'normal', 'yaw': 5.34, 'datetime': '2018-10-12 14:01:34.731934', 'mgs': 0, 'depth': 3.445, 'time': 13.35, 'pitch': -0.6, 'roll': -6.02}
{'lipoC2': 7.8, 'temp': 23.69, 'lipoC3S3': 11.77, 'rot1': 0, 'rot0': 0, 'rot3': 27, 'rot2': 32, 'state': 'normal', 'yaw': 5.47, 'datetime': '2018-10-12 14:01:34.828998', 'mgs': 0, 'depth': 3.598, 'time': 13.44, 'pitch': -0.62, 'roll': -6.06}
{'lipoC2': 7.79, 'temp': 23.69, 'lipoC3S3': 11.81, 'rot1': 0, 'rot0': 0, 'rot3': 27, 'rot2': 32, 'state': 'normal', 'yaw': 5.6, 'datetime': '2018-10-12 14:01:34.925953', 'mgs': 0, 'depth': 3.445, 'time': 13.54, 'pitch': -0.62, 'roll': -6.21}
{'lipoC2': 7.79, 'temp': 23.75, 'lipoC3S3': 11.81, 'rot1': 0, 'rot0': 0, 'rot3': 27, 'rot2': 32, 'state': 'normal', 'yaw': 5.71, 'datetime': '2018-10-12 14:01:35.024152', 'mgs': 0, 'depth': 3.445, 'time': 13.64, 'pitch': -0.61, 'roll': -6.22}
{'lipoC2': 7.79, 'temp': 23.75, 'lipoC3S3': 11.81, 'rot1': 0, 'rot0': 0, 'rot3': 27, 'rot2': 32, 'state': 'normal', 'yaw': 5.79, 'datetime': '2018-10-12 14:01:35.122568', 'mgs': 0, 'depth': 3.445, 'time': 13.74, 'pitch': -0.59, 'roll': -6.06}
{'lipoC2': 7.79, 'temp': 23.75, 'lipoC3S3': 11.81, 'rot1': 0, 'rot0': 0, 'rot3': 27, 'rot2': 32, 'state': 'normal', 'yaw': 5.88, 'datetime': '2018-10-12 14:01:35.219594', 'mgs': 0, 'depth': 3.369, 'time': 13.83, 'pitch': -0.59, 'roll': -5.76}
{'lipoC2': 7.8, 'temp': 23.75, 'lipoC3S3': 11.77, 'rot1': 0, 'rot0': 0, 'rot3': 27, 'rot2': 33, 'state': 'normal', 'yaw': 5.99, 'datetime': '2018-10-12 14:01:35.316579', 'mgs': 0, 'depth': 3.522, 'time': 13.93, 'pitch': -0.57, 'roll': -5.41}
{'lipoC2': 7.79, 'temp': 23.75, 'lipoC3S3': 11.79, 'rot1': 0, 'rot0': 0, 'rot3': 28, 'rot2': 33, 'state': 'normal', 'yaw': 6.09, 'datetime': '2018-10-12 14:01:35.414890', 'mgs': 0, 'depth': 3.369, 'time': 14.03, 'pitch': -0.56, 'roll': -5.23}
{'lipoC2': 7.79, 'temp': 23.69, 'lipoC3S3': 11.77, 'rot1': 0, 'rot0': 0, 'rot3': 28, 'rot2': 34, 'state': 'normal', 'yaw': 6.2, 'datetime': '2018-10-12 14:01:35.513356', 'mgs': 0, 'depth': 3.674, 'time': 14.13, 'pitch': -0.56, 'roll': -5.28}
{'lipoC2': 7.79, 'temp': 23.69, 'lipoC3S3': 11.79, 'rot1': 0, 'rot0': 0, 'rot3': 29, 'rot2': 34, 'state': 'normal', 'yaw': 6.3, 'datetime': '2018-10-12 14:01:35.610655', 'mgs': 0, 'depth': 3.445, 'time': 14.23, 'pitch': -0.54, 'roll': -5.54}
{'lipoC2': 7.79, 'temp': 23.69, 'lipoC3S3': 11.81, 'rot1': 0, 'rot0': 0, 'rot3': 29, 'rot2': 34, 'state': 'normal', 'yaw': 6.39, 'datetime': '2018-10-12 14:01:35.707429', 'mgs': 0, 'depth': 3.445, 'time': 14.32, 'pitch': -0.54, 'roll': -5.92}
{'lipoC2': 7.79, 'temp': 23.69, 'lipoC3S3': 11.81, 'rot1': 0, 'rot0': 0, 'rot3': 29, 'rot2': 34, 'state': 'normal', 'yaw': 6.51, 'datetime': '2018-10-12 14:01:35.804519', 'mgs': 0, 'depth': 3.445, 'time': 14.42, 'pitch': -0.55, 'roll': -6.14}
{'lipoC2': 7.79, 'temp': 23.69, 'lipoC3S3': 11.81, 'rot1': 0, 'rot0': 0, 'rot3': 29, 'rot2': 34, 'state': 'normal', 'yaw': 6.99, 'datetime': '2018-10-12 14:01:35.901634', 'mgs': 0, 'depth': 3.369, 'time': 14.52, 'pitch': -0.39, 'roll': -5.9}
{'lipoC2': 7.8, 'temp': 23.69, 'lipoC3S3': 11.81, 'rot1': 0, 'rot0': 0, 'rot3': 29, 'rot2': 34, 'state': 'normal', 'yaw': 7.72, 'datetime': '2018-10-12 14:01:35.998618', 'mgs': 0, 'depth': 3.217, 'time': 14.61, 'pitch': 0.02, 'roll': -6.23}
{'lipoC2': 7.79, 'temp': 23.69, 'lipoC3S3': 11.73, 'rot1': 0, 'rot0': 0, 'rot3': 29, 'rot2': 35, 'state': 'normal', 'yaw': 7.93, 'datetime': '2018-10-12 14:01:36.095687', 'mgs': 0, 'depth': 3.293, 'time': 14.71, 'pitch': 0.23, 'roll': -8.46}
{'lipoC2': 7.8, 'temp': 23.69, 'lipoC3S3': 11.77, 'rot1': 0, 'rot0': 0, 'rot3': 29, 'rot2': 35, 'state': 'normal', 'yaw': 8.04, 'datetime': '2018-10-12 14:01:36.192751', 'mgs': 0, 'depth': 3.369, 'time': 14.81, 'pitch': 0.32, 'roll': -11.38}
{'lipoC2': 7.79, 'temp': 23.69, 'lipoC3S3': 11.8, 'rot1': 0, 'rot0': 0, 'rot3': 30, 'rot2': 35, 'state': 'normal', 'yaw': 8.13, 'datetime': '2018-10-12 14:01:36.289820', 'mgs': 0, 'depth': 3.14, 'time': 14.9, 'pitch': 0.37, 'roll': -13.19}
{'lipoC2': 7.79, 'temp': 23.69, 'lipoC3S3': 11.79, 'rot1': 0, 'rot0': 0, 'rot3': 30, 'rot2': 36, 'state': 'normal', 'yaw': 7.75, 'datetime': '2018-10-12 14:01:36.387802', 'mgs': 0, 'depth': 3.064, 'time': 15.0, 'pitch': 0.08, 'roll': -14.62}
{'lipoC2': 7.8, 'temp': 23.69, 'lipoC3S3': 11.77, 'rot1': 0, 'rot0': 0, 'rot3': 32, 'rot2': 36, 'state': 'normal', 'yaw': 7.0, 'datetime': '2018-10-12 14:01:36.485978', 'mgs': 0, 'depth': 3.14, 'time': 15.1, 'pitch': -0.4, 'roll': -16.02}
{'lipoC2': 7.79, 'temp': 23.69, 'lipoC3S3': 11.79, 'rot1': 0, 'rot0': 0, 'rot3': 32, 'rot2': 37, 'state': 'normal', 'yaw': 6.17, 'datetime': '2018-10-12 14:01:36.583094', 'mgs': 0, 'depth': 2.606, 'time': 15.2, 'pitch': -0.72, 'roll': -16.71}
{'lipoC2': 7.79, 'temp': 23.69, 'lipoC3S3': 11.76, 'rot1': 0, 'rot0': 0, 'rot3': 32, 'rot2': 37, 'state': 'normal', 'yaw': 5.25, 'datetime': '2018-10-12 14:01:36.680215', 'mgs': 0, 'depth': 2.835, 'time': 15.3, 'pitch': -0.73, 'roll': -16.26}
{'lipoC2': 7.79, 'temp': 23.69, 'lipoC3S3': 11.77, 'rot1': 0, 'rot0': 0, 'rot3': 33, 'rot2': 38, 'state': 'normal', 'yaw': 4.34, 'datetime': '2018-10-12 14:01:36.777894', 'mgs': 0, 'depth': 2.759, 'time': 15.39, 'pitch': -0.53, 'roll': -15.05}
{'lipoC2': 7.79, 'temp': 23.69, 'lipoC3S3': 11.77, 'rot1': 0, 'rot0': 0, 'rot3': 33, 'rot2': 38, 'state': 'normal', 'yaw': 3.27, 'datetime': '2018-10-12 14:01:36.876224', 'mgs': 0, 'depth': 2.835, 'time': 15.49, 'pitch': -0.23, 'roll': -13.47}
{'lipoC2': 7.79, 'temp': 23.69, 'lipoC3S3': 11.79, 'rot1': 0, 'rot0': 0, 'rot3': 34, 'rot2': 39, 'state': 'normal', 'yaw': 2.35, 'datetime': '2018-10-12 14:01:36.973258', 'mgs': 0, 'depth': 2.53, 'time': 15.59, 'pitch': 0.23, 'roll': -11.91}
{'lipoC2': 7.79, 'temp': 23.69, 'lipoC3S3': 11.72, 'rot1': 0, 'rot0': 0, 'rot3': 34, 'rot2': 39, 'state': 'normal', 'yaw': 1.72, 'datetime': '2018-10-12 14:01:37.070560', 'mgs': 0, 'depth': 2.377, 'time': 15.69, 'pitch': 0.98, 'roll': -10.57}
{'lipoC2': 7.79, 'temp': 23.69, 'lipoC3S3': 11.73, 'rot1': 0, 'rot0': 0, 'rot3': 35, 'rot2': 40, 'state': 'normal', 'yaw': 1.22, 'datetime': '2018-10-12 14:01:37.168163', 'mgs': 0, 'depth': 2.377, 'time': 15.78, 'pitch': 1.73, 'roll': -9.64}
{'lipoC2': 7.79, 'temp': 23.69, 'lipoC3S3': 11.76, 'rot1': 0, 'rot0': 0, 'rot3': 35, 'rot2': 41, 'state': 'normal', 'yaw': 0.75, 'datetime': '2018-10-12 14:01:37.265187', 'mgs': 0, 'depth': 2.454, 'time': 15.88, 'pitch': 2.48, 'roll': -8.82}
{'lipoC2': 7.79, 'temp': 23.69, 'lipoC3S3': 11.77, 'rot1': 0, 'rot0': 0, 'rot3': 36, 'rot2': 41, 'state': 'normal', 'yaw': 0.26, 'datetime': '2018-10-12 14:01:37.362278', 'mgs': 0, 'depth': 2.53, 'time': 15.98, 'pitch': 2.97, 'roll': -8.32}
{'lipoC2': 7.8, 'temp': 23.75, 'lipoC3S3': 11.75, 'rot1': 0, 'rot0': 0, 'rot3': 36, 'rot2': 42, 'state': 'normal', 'yaw': -0.14, 'datetime': '2018-10-12 14:01:37.459508', 'mgs': 0, 'depth': 2.148, 'time': 16.08, 'pitch': 3.11, 'roll': -8.04}
{'lipoC2': 7.79, 'temp': 23.75, 'lipoC3S3': 11.77, 'rot1': 0, 'rot0': 0, 'rot3': 37, 'rot2': 42, 'state': 'normal', 'yaw': -0.41, 'datetime': '2018-10-12 14:01:37.556541', 'mgs': 0, 'depth': 2.225, 'time': 16.17, 'pitch': 2.89, 'roll': -8.09}
{'lipoC2': 7.79, 'temp': 23.75, 'lipoC3S3': 11.76, 'rot1': 0, 'rot0': 0, 'rot3': 37, 'rot2': 43, 'state': 'normal', 'yaw': -0.59, 'datetime': '2018-10-12 14:01:37.653577', 'mgs': 0, 'depth': 2.301, 'time': 16.27, 'pitch': 2.34, 'roll': -8.17}
{'lipoC2': 7.79, 'temp': 23.75, 'lipoC3S3': 11.77, 'rot1': 0, 'rot0': 0, 'rot3': 38, 'rot2': 43, 'state': 'normal', 'yaw': -0.64, 'datetime': '2018-10-12 14:01:37.750600', 'mgs': 0, 'depth': 1.996, 'time': 16.37, 'pitch': 1.67, 'roll': -8.04}
{'lipoC2': 7.79, 'temp': 23.75, 'lipoC3S3': 11.73, 'rot1': 0, 'rot0': 0, 'rot3': 38, 'rot2': 44, 'state': 'normal', 'yaw': -0.52, 'datetime': '2018-10-12 14:01:37.847669', 'mgs': 0, 'depth': 1.92, 'time': 16.46, 'pitch': 1.23, 'roll': -7.79}
{'lipoC2': 7.79, 'temp': 23.69, 'lipoC3S3': 11.71, 'rot1': 0, 'rot0': 0, 'rot3': 39, 'rot2': 44, 'state': 'normal', 'yaw': -0.16, 'datetime': '2018-10-12 14:01:37.944669', 'mgs': 0, 'depth': 1.996, 'time': 16.56, 'pitch': 1.01, 'roll': -7.4}
{'lipoC2': 7.79, 'temp': 23.69, 'lipoC3S3': 11.77, 'rot1': 0, 'rot0': 0, 'rot3': 39, 'rot2': 45, 'state': 'normal', 'yaw': 0.32, 'datetime': '2018-10-12 14:01:38.041396', 'mgs': 0, 'depth': 2.148, 'time': 16.66, 'pitch': 1.06, 'roll': -7.09}
{'lipoC2': 7.8, 'temp': 23.69, 'lipoC3S3': 11.72, 'rot1': 0, 'rot0': 0, 'rot3': 40, 'rot2': 46, 'state': 'normal', 'yaw': 0.71, 'datetime': '2018-10-12 14:01:38.135649', 'mgs': 0, 'depth': 1.92, 'time': 16.76, 'pitch': 1.23, 'roll': -7.02}
{'lipoC2': 7.79, 'temp': 23.69, 'lipoC3S3': 11.76, 'rot1': 0, 'rot0': 0, 'rot3': 40, 'rot2': 46, 'state': 'normal', 'yaw': 0.99, 'datetime': '2018-10-12 14:01:38.234019', 'mgs': 0, 'depth': 1.843, 'time': 16.86, 'pitch': 1.42, 'roll': -7.16}
{'lipoC2': 7.79, 'temp': 23.69, 'lipoC3S3': 11.72, 'rot1': 0, 'rot0': 0, 'rot3': 41, 'rot2': 47, 'state': 'normal', 'yaw': 1.06, 'datetime': '2018-10-12 14:01:38.331534', 'mgs': 0, 'depth': 1.691, 'time': 16.95, 'pitch': 1.49, 'roll': -7.39}
{'lipoC2': 7.79, 'temp': 23.69, 'lipoC3S3': 11.77, 'rot1': 0, 'rot0': 0, 'rot3': 41, 'rot2': 47, 'state': 'normal', 'yaw': 1.01, 'datetime': '2018-10-12 14:01:38.428113', 'mgs': 0, 'depth': 1.996, 'time': 17.05, 'pitch': 1.44, 'roll': -7.63}
{'lipoC2': 7.79, 'temp': 23.69, 'lipoC3S3': 11.76, 'rot1': 0, 'rot0': 0, 'rot3': 42, 'rot2': 48, 'state': 'normal', 'yaw': 0.89, 'datetime': '2018-10-12 14:01:38.526228', 'mgs': 0, 'depth': 1.92, 'time': 17.15, 'pitch': 1.3, 'roll': -7.73}
{'lipoC2': 7.8, 'temp': 23.69, 'lipoC3S3': 11.75, 'rot1': 0, 'rot0': 0, 'rot3': 42, 'rot2': 49, 'state': 'normal', 'yaw': 0.78, 'datetime': '2018-10-12 14:01:38.624660', 'mgs': 0, 'depth': 2.148, 'time': 17.25, 'pitch': 1.15, 'roll': -7.77}
{'lipoC2': 7.79, 'temp': 23.69, 'lipoC3S3': 11.76, 'rot1': 0, 'rot0': 0, 'rot3': 43, 'rot2': 49, 'state': 'normal', 'yaw': 0.71, 'datetime': '2018-10-12 14:01:38.721733', 'mgs': 0, 'depth': 1.614, 'time': 17.34, 'pitch': 1.02, 'roll': -7.57}
{'lipoC2': 7.79, 'temp': 23.69, 'lipoC3S3': 11.73, 'rot1': 0, 'rot0': 0, 'rot3': 43, 'rot2': 50, 'state': 'normal', 'yaw': 0.6, 'datetime': '2018-10-12 14:01:38.818747', 'mgs': 0, 'depth': 1.92, 'time': 17.44, 'pitch': 0.96, 'roll': -7.47}
{'lipoC2': 7.79, 'temp': 23.69, 'lipoC3S3': 11.75, 'rot1': 0, 'rot0': 0, 'rot3': 44, 'rot2': 50, 'state': 'normal', 'yaw': 0.43, 'datetime': '2018-10-12 14:01:38.916268', 'mgs': 0, 'depth': 1.996, 'time': 17.54, 'pitch': 0.96, 'roll': -7.81}
{'lipoC2': 7.79, 'temp': 23.69, 'lipoC3S3': 11.73, 'rot1': 0, 'rot0': 0, 'rot3': 45, 'rot2': 51, 'state': 'normal', 'yaw': 0.16, 'datetime': '2018-10-12 14:01:39.013385', 'mgs': 0, 'depth': 1.767, 'time': 17.64, 'pitch': 1.07, 'roll': -8.22}
{'lipoC2': 7.8, 'temp': 23.63, 'lipoC3S3': 11.75, 'rot1': 0, 'rot0': 0, 'rot3': 45, 'rot2': 52, 'state': 'normal', 'yaw': -0.19, 'datetime': '2018-10-12 14:01:39.110454', 'mgs': 0, 'depth': 2.148, 'time': 17.73, 'pitch': 1.16, 'roll': -8.45}
{'lipoC2': 7.79, 'temp': 23.63, 'lipoC3S3': 11.76, 'rot1': 0, 'rot0': 0, 'rot3': 46, 'rot2': 52, 'state': 'normal', 'yaw': -0.51, 'datetime': '2018-10-12 14:01:39.207690', 'mgs': 0, 'depth': 1.996, 'time': 17.83, 'pitch': 1.32, 'roll': -8.51}
{'lipoC2': 7.8, 'temp': 23.63, 'lipoC3S3': 11.72, 'rot1': 0, 'rot0': 0, 'rot3': 46, 'rot2': 53, 'state': 'normal', 'yaw': -0.79, 'datetime': '2018-10-12 14:01:39.304678', 'mgs': 0, 'depth': 1.767, 'time': 17.93, 'pitch': 1.56, 'roll': -8.33}
{'lipoC2': 7.79, 'temp': 23.75, 'lipoC3S3': 11.69, 'rot1': 0, 'rot0': 0, 'rot3': 47, 'rot2': 53, 'state': 'normal', 'yaw': -1.11, 'datetime': '2018-10-12 14:01:39.401757', 'mgs': 0, 'depth': 2.072, 'time': 18.02, 'pitch': 1.71, 'roll': -8.1}
