{'lipoC2': 8.27, 'temp': 29.13, 'lipoC3S3': 12.67, 'rot1': 0, 'rot0': 0, 'rot3': 0, 'rot2': 0, 'state': 'normal', 'yaw': 0.0, 'datetime': '2018-10-12 19:07:07.241487', 'mgs': 0, 'depth': -0.903, 'time': 1.26, 'pitch': -2.02, 'roll': -5.04}
{'lipoC2': 8.27, 'temp': 29.13, 'lipoC3S3': 12.67, 'rot1': 0, 'rot0': 0, 'rot3': 0, 'rot2': 0, 'state': 'normal', 'yaw': 0.0, 'datetime': '2018-10-12 19:07:07.258158', 'mgs': 0, 'depth': -0.903, 'time': 1.36, 'pitch': -2.02, 'roll': -5.04}
{'lipoC2': 8.27, 'temp': 29.13, 'lipoC3S3': 12.68, 'rot1': 0, 'rot0': 0, 'rot3': 0, 'rot2': 0, 'state': 'normal', 'yaw': 0.0, 'datetime': '2018-10-12 19:07:07.287338', 'mgs': 0, 'depth': -0.903, 'time': 1.45, 'pitch': -2.02, 'roll': -5.04}
{'lipoC2': 8.27, 'temp': 29.13, 'lipoC3S3': 12.67, 'rot1': 0, 'rot0': 0, 'rot3': 0, 'rot2': 0, 'state': 'normal', 'yaw': 0.0, 'datetime': '2018-10-12 19:07:07.296493', 'mgs': 0, 'depth': -0.98, 'time': 1.55, 'pitch': -2.02, 'roll': -5.04}
{'lipoC2': 8.27, 'temp': 29.13, 'lipoC3S3': 12.68, 'rot1': 0, 'rot0': 0, 'rot3': 0, 'rot2': 0, 'state': 'normal', 'yaw': 0.0, 'datetime': '2018-10-12 19:07:07.304834', 'mgs': 0, 'depth': -0.98, 'time': 1.65, 'pitch': -2.02, 'roll': -5.04}
{'lipoC2': 8.27, 'temp': 29.06, 'lipoC3S3': 12.68, 'rot1': 0, 'rot0': 0, 'rot3': 0, 'rot2': 0, 'state': 'normal', 'yaw': 0.0, 'datetime': '2018-10-12 19:07:07.312975', 'mgs': 0, 'depth': -0.903, 'time': 1.75, 'pitch': -2.02, 'roll': -5.04}
{'lipoC2': 8.27, 'temp': 29.06, 'lipoC3S3': 12.68, 'rot1': 0, 'rot0': 0, 'rot3': 0, 'rot2': 0, 'state': 'normal', 'yaw': 0.0, 'datetime': '2018-10-12 19:07:07.321156', 'mgs': 0, 'depth': -0.903, 'time': 1.84, 'pitch': -2.02, 'roll': -5.04}
{'lipoC2': 8.27, 'temp': 29.13, 'lipoC3S3': 12.67, 'rot1': 0, 'rot0': 0, 'rot3': 0, 'rot2': 0, 'state': 'normal', 'yaw': 0.0, 'datetime': '2018-10-12 19:07:07.329005', 'mgs': 0, 'depth': -0.903, 'time': 1.94, 'pitch': -2.02, 'roll': -5.04}
{'lipoC2': 8.27, 'temp': 29.13, 'lipoC3S3': 12.67, 'rot1': 0, 'rot0': 0, 'rot3': 0, 'rot2': 0, 'state': 'normal', 'yaw': 0.0, 'datetime': '2018-10-12 19:07:07.336869', 'mgs': 0, 'depth': -0.903, 'time': 2.04, 'pitch': -2.02, 'roll': -5.04}
{'lipoC2': 8.27, 'temp': 29.13, 'lipoC3S3': 12.67, 'rot1': 0, 'rot0': 0, 'rot3': 0, 'rot2': 0, 'state': 'normal', 'yaw': 0.0, 'datetime': '2018-10-12 19:07:07.345188', 'mgs': 0, 'depth': -0.903, 'time': 2.14, 'pitch': -2.02, 'roll': -5.04}
{'lipoC2': 8.27, 'temp': 29.13, 'lipoC3S3': 12.68, 'rot1': 0, 'rot0': 0, 'rot3': 0, 'rot2': 0, 'state': 'normal', 'yaw': 0.0, 'datetime': '2018-10-12 19:07:07.353109', 'mgs': 0, 'depth': -0.903, 'time': 2.23, 'pitch': -2.02, 'roll': -5.04}
{'lipoC2': 8.27, 'temp': 29.13, 'lipoC3S3': 12.67, 'rot1': 0, 'rot0': 0, 'rot3': 0, 'rot2': 0, 'state': 'normal', 'yaw': 0.0, 'datetime': '2018-10-12 19:07:07.361379', 'mgs': 0, 'depth': -0.903, 'time': 2.33, 'pitch': -2.02, 'roll': -5.04}
{'lipoC2': 8.27, 'temp': 29.13, 'lipoC3S3': 12.68, 'rot1': 0, 'rot0': 0, 'rot3': 0, 'rot2': 0, 'state': 'normal', 'yaw': 0.0, 'datetime': '2018-10-12 19:07:07.370675', 'mgs': 0, 'depth': -0.903, 'time': 2.43, 'pitch': -2.02, 'roll': -5.04}
{'lipoC2': 8.27, 'temp': 29.13, 'lipoC3S3': 12.68, 'rot1': 0, 'rot0': 0, 'rot3': 0, 'rot2': 0, 'state': 'normal', 'yaw': 0.0, 'datetime': '2018-10-12 19:07:07.380302', 'mgs': 0, 'depth': -0.903, 'time': 2.53, 'pitch': -2.02, 'roll': -5.04}
{'lipoC2': 8.27, 'temp': 29.13, 'lipoC3S3': 12.67, 'rot1': 0, 'rot0': 0, 'rot3': 0, 'rot2': 0, 'state': 'normal', 'yaw': 0.0, 'datetime': '2018-10-12 19:07:07.388391', 'mgs': 0, 'depth': -0.903, 'time': 2.63, 'pitch': -2.02, 'roll': -5.04}
{'lipoC2': 8.27, 'temp': 29.06, 'lipoC3S3': 12.67, 'rot1': 0, 'rot0': 0, 'rot3': 0, 'rot2': 0, 'state': 'normal', 'yaw': 0.0, 'datetime': '2018-10-12 19:07:07.396506', 'mgs': 0, 'depth': -0.903, 'time': 2.72, 'pitch': -2.02, 'roll': -5.04}
{'lipoC2': 8.27, 'temp': 29.06, 'lipoC3S3': 12.68, 'rot1': 0, 'rot0': 0, 'rot3': 0, 'rot2': 0, 'state': 'normal', 'yaw': 0.0, 'datetime': '2018-10-12 19:07:07.404647', 'mgs': 0, 'depth': -0.903, 'time': 2.82, 'pitch': -2.02, 'roll': -5.04}
{'lipoC2': 8.27, 'temp': 29.13, 'lipoC3S3': 12.68, 'rot1': 0, 'rot0': 0, 'rot3': 0, 'rot2': 0, 'state': 'normal', 'yaw': 0.0, 'datetime': '2018-10-12 19:07:07.412764', 'mgs': 0, 'depth': -0.903, 'time': 2.92, 'pitch': -2.02, 'roll': -5.04}
{'lipoC2': 8.27, 'temp': 29.13, 'lipoC3S3': 12.68, 'rot1': 0, 'rot0': 0, 'rot3': 0, 'rot2': 0, 'state': 'normal', 'yaw': 0.0, 'datetime': '2018-10-12 19:07:07.421045', 'mgs': 0, 'depth': -0.903, 'time': 3.02, 'pitch': -2.02, 'roll': -5.04}
{'lipoC2': 8.27, 'temp': 29.13, 'lipoC3S3': 12.68, 'rot1': 0, 'rot0': 0, 'rot3': 0, 'rot2': 0, 'state': 'normal', 'yaw': 0.0, 'datetime': '2018-10-12 19:07:07.429162', 'mgs': 0, 'depth': -0.903, 'time': 3.12, 'pitch': -2.02, 'roll': -5.04}
{'lipoC2': 8.27, 'temp': 29.13, 'lipoC3S3': 12.67, 'rot1': 0, 'rot0': 0, 'rot3': 0, 'rot2': 0, 'state': 'normal', 'yaw': 0.0, 'datetime': '2018-10-12 19:07:07.478678', 'mgs': 0, 'depth': -0.903, 'time': 3.21, 'pitch': -2.02, 'roll': -5.04}
{'lipoC2': 8.27, 'temp': 29.13, 'lipoC3S3': 12.67, 'rot1': 0, 'rot0': 0, 'rot3': 0, 'rot2': 0, 'state': 'normal', 'yaw': 0.0, 'datetime': '2018-10-12 19:07:07.575735', 'mgs': 0, 'depth': -0.827, 'time': 3.31, 'pitch': -2.02, 'roll': -5.04}
{'lipoC2': 8.27, 'temp': 29.06, 'lipoC3S3': 12.68, 'rot1': 0, 'rot0': 0, 'rot3': 0, 'rot2': 0, 'state': 'normal', 'yaw': 0.0, 'datetime': '2018-10-12 19:07:07.672811', 'mgs': 0, 'depth': -0.903, 'time': 3.41, 'pitch': -2.02, 'roll': -5.04}
{'lipoC2': 8.27, 'temp': 29.06, 'lipoC3S3': 12.68, 'rot1': 0, 'rot0': 0, 'rot3': 0, 'rot2': 0, 'state': 'normal', 'yaw': 0.0, 'datetime': '2018-10-12 19:07:07.770596', 'mgs': 0, 'depth': -0.903, 'time': 3.51, 'pitch': -2.02, 'roll': -5.04}
{'lipoC2': 8.26, 'temp': 29.06, 'lipoC3S3': 12.67, 'rot1': 0, 'rot0': 0, 'rot3': 0, 'rot2': 0, 'state': 'normal', 'yaw': 0.0, 'datetime': '2018-10-12 19:07:07.868952', 'mgs': 0, 'depth': -0.903, 'time': 3.6, 'pitch': -2.02, 'roll': -5.04}
{'lipoC2': 8.27, 'temp': 29.06, 'lipoC3S3': 12.68, 'rot1': 0, 'rot0': 0, 'rot3': 0, 'rot2': 0, 'state': 'normal', 'yaw': 0.0, 'datetime': '2018-10-12 19:07:07.967243', 'mgs': 0, 'depth': -0.903, 'time': 3.7, 'pitch': -2.02, 'roll': -5.04}
{'lipoC2': 8.27, 'temp': 29.06, 'lipoC3S3': 12.67, 'rot1': 0, 'rot0': 0, 'rot3': 0, 'rot2': 0, 'state': 'normal', 'yaw': 0.0, 'datetime': '2018-10-12 19:07:08.069618', 'mgs': 0, 'depth': -0.903, 'time': 3.8, 'pitch': -2.02, 'roll': -5.04}
{'lipoC2': 8.27, 'temp': 29.13, 'lipoC3S3': 12.67, 'rot1': 0, 'rot0': 0, 'rot3': 0, 'rot2': 0, 'state': 'normal', 'yaw': 0.0, 'datetime': '2018-10-12 19:07:08.166674', 'mgs': 0, 'depth': -0.98, 'time': 3.9, 'pitch': -2.02, 'roll': -5.04}
{'lipoC2': 8.27, 'temp': 29.13, 'lipoC3S3': 12.67, 'rot1': 0, 'rot0': 0, 'rot3': 0, 'rot2': 0, 'state': 'normal', 'yaw': 0.0, 'datetime': '2018-10-12 19:07:08.264975', 'mgs': 0, 'depth': -0.903, 'time': 3.99, 'pitch': -2.02, 'roll': -5.04}
{'lipoC2': 8.27, 'temp': 29.13, 'lipoC3S3': 12.67, 'rot1': 0, 'rot0': 0, 'rot3': 0, 'rot2': 0, 'state': 'normal', 'yaw': 0.0, 'datetime': '2018-10-12 19:07:08.363328', 'mgs': 0, 'depth': -0.903, 'time': 4.09, 'pitch': -2.02, 'roll': -5.04}
{'lipoC2': 8.27, 'temp': 29.06, 'lipoC3S3': 12.68, 'rot1': 0, 'rot0': 0, 'rot3': 0, 'rot2': 0, 'state': 'normal', 'yaw': 0.0, 'datetime': '2018-10-12 19:07:08.460393', 'mgs': 0, 'depth': -0.903, 'time': 4.19, 'pitch': -2.02, 'roll': -5.04}
{'lipoC2': 8.27, 'temp': 29.06, 'lipoC3S3': 12.67, 'rot1': 0, 'rot0': 0, 'rot3': 0, 'rot2': 0, 'state': 'normal', 'yaw': 0.0, 'datetime': '2018-10-12 19:07:08.557451', 'mgs': 0, 'depth': -0.903, 'time': 4.29, 'pitch': -2.02, 'roll': -5.04}
{'lipoC2': 8.27, 'temp': 29.13, 'lipoC3S3': 12.68, 'rot1': 0, 'rot0': 0, 'rot3': 0, 'rot2': 0, 'state': 'normal', 'yaw': 0.0, 'datetime': '2018-10-12 19:07:08.655720', 'mgs': 0, 'depth': -0.903, 'time': 4.39, 'pitch': -2.02, 'roll': -5.04}
{'lipoC2': 8.27, 'temp': 29.13, 'lipoC3S3': 12.67, 'rot1': 0, 'rot0': 0, 'rot3': 0, 'rot2': 0, 'state': 'normal', 'yaw': 0.0, 'datetime': '2018-10-12 19:07:08.754061', 'mgs': 0, 'depth': -0.827, 'time': 4.48, 'pitch': -2.02, 'roll': -5.04}
{'lipoC2': 8.27, 'temp': 29.13, 'lipoC3S3': 12.67, 'rot1': 0, 'rot0': 0, 'rot3': 0, 'rot2': 0, 'state': 'normal', 'yaw': 0.0, 'datetime': '2018-10-12 19:07:08.851152', 'mgs': 0, 'depth': -0.827, 'time': 4.58, 'pitch': -2.02, 'roll': -5.04}
{'lipoC2': 8.27, 'temp': 29.13, 'lipoC3S3': 12.67, 'rot1': 0, 'rot0': 0, 'rot3': 0, 'rot2': 0, 'state': 'normal', 'yaw': 0.0, 'datetime': '2018-10-12 19:07:08.948125', 'mgs': 0, 'depth': -0.903, 'time': 4.68, 'pitch': -2.02, 'roll': -5.04}
{'lipoC2': 8.27, 'temp': 29.13, 'lipoC3S3': 12.67, 'rot1': 0, 'rot0': 0, 'rot3': 0, 'rot2': 0, 'state': 'normal', 'yaw': 0.0, 'datetime': '2018-10-12 19:07:09.046475', 'mgs': 0, 'depth': -0.903, 'time': 4.78, 'pitch': -2.02, 'roll': -5.04}
{'lipoC2': 8.27, 'temp': 29.13, 'lipoC3S3': 12.68, 'rot1': 0, 'rot0': 0, 'rot3': 0, 'rot2': 0, 'state': 'normal', 'yaw': 0.0, 'datetime': '2018-10-12 19:07:09.144753', 'mgs': 0, 'depth': -0.903, 'time': 4.88, 'pitch': -2.02, 'roll': -5.04}
{'lipoC2': 8.27, 'temp': 29.13, 'lipoC3S3': 12.68, 'rot1': 0, 'rot0': 0, 'rot3': 0, 'rot2': 0, 'state': 'normal', 'yaw': 0.0, 'datetime': '2018-10-12 19:07:09.241818', 'mgs': 0, 'depth': -0.903, 'time': 4.97, 'pitch': -2.02, 'roll': -5.04}
{'lipoC2': 8.27, 'temp': 29.13, 'lipoC3S3': 12.67, 'rot1': 0, 'rot0': 0, 'rot3': 0, 'rot2': 0, 'state': 'normal', 'yaw': 0.0, 'datetime': '2018-10-12 19:07:09.338998', 'mgs': 0, 'depth': -0.903, 'time': 5.07, 'pitch': -2.02, 'roll': -5.04}
{'lipoC2': 8.27, 'temp': 29.13, 'lipoC3S3': 12.67, 'rot1': 0, 'rot0': 0, 'rot3': 0, 'rot2': 0, 'state': 'normal', 'yaw': 0.0, 'datetime': '2018-10-12 19:07:09.436836', 'mgs': 0, 'depth': -0.903, 'time': 5.17, 'pitch': -2.02, 'roll': -5.04}
{'lipoC2': 8.27, 'temp': 29.13, 'lipoC3S3': 12.67, 'rot1': 0, 'rot0': 0, 'rot3': 0, 'rot2': 0, 'state': 'normal', 'yaw': 0.0, 'datetime': '2018-10-12 19:07:09.533749', 'mgs': 0, 'depth': -0.827, 'time': 5.26, 'pitch': -2.02, 'roll': -5.04}
{'lipoC2': 8.27, 'temp': 29.13, 'lipoC3S3': 12.68, 'rot1': 0, 'rot0': 0, 'rot3': 0, 'rot2': 0, 'state': 'normal', 'yaw': 0.0, 'datetime': '2018-10-12 19:07:09.630780', 'mgs': 0, 'depth': -0.903, 'time': 5.36, 'pitch': -2.02, 'roll': -5.04}
{'lipoC2': 8.27, 'temp': 29.13, 'lipoC3S3': 12.67, 'rot1': 0, 'rot0': 0, 'rot3': 0, 'rot2': 0, 'state': 'normal', 'yaw': 0.0, 'datetime': '2018-10-12 19:07:09.728696', 'mgs': 0, 'depth': -0.903, 'time': 5.46, 'pitch': -2.02, 'roll': -5.04}
{'lipoC2': 8.27, 'temp': 29.13, 'lipoC3S3': 12.67, 'rot1': 0, 'rot0': 0, 'rot3': 0, 'rot2': 0, 'state': 'normal', 'yaw': -0.0, 'datetime': '2018-10-12 19:07:09.827189', 'mgs': 0, 'depth': -0.903, 'time': 5.56, 'pitch': -2.01, 'roll': -5.08}
{'lipoC2': 8.27, 'temp': 29.13, 'lipoC3S3': 12.67, 'rot1': 0, 'rot0': 0, 'rot3': 0, 'rot2': 0, 'state': 'normal', 'yaw': 0.0, 'datetime': '2018-10-12 19:07:09.925489', 'mgs': 0, 'depth': -0.903, 'time': 5.66, 'pitch': -2.01, 'roll': -5.03}
{'lipoC2': 8.27, 'temp': 29.13, 'lipoC3S3': 12.68, 'rot1': 0, 'rot0': 0, 'rot3': 0, 'rot2': 0, 'state': 'normal', 'yaw': -0.0, 'datetime': '2018-10-12 19:07:10.022581', 'mgs': 0, 'depth': -0.903, 'time': 5.75, 'pitch': -2.02, 'roll': -5.11}
{'lipoC2': 8.27, 'temp': 29.13, 'lipoC3S3': 12.67, 'rot1': 0, 'rot0': 0, 'rot3': 0, 'rot2': 0, 'state': 'normal', 'yaw': -0.0, 'datetime': '2018-10-12 19:07:10.119820', 'mgs': 0, 'depth': -0.827, 'time': 5.85, 'pitch': -2.02, 'roll': -5.05}
{'lipoC2': 8.27, 'temp': 29.13, 'lipoC3S3': 12.67, 'rot1': 0, 'rot0': 0, 'rot3': 0, 'rot2': 0, 'state': 'normal', 'yaw': -0.0, 'datetime': '2018-10-12 19:07:10.218124', 'mgs': 0, 'depth': -0.903, 'time': 5.95, 'pitch': -2.01, 'roll': -5.04}
{'lipoC2': 8.27, 'temp': 29.13, 'lipoC3S3': 12.67, 'rot1': 0, 'rot0': 0, 'rot3': 0, 'rot2': 0, 'state': 'normal', 'yaw': 0.0, 'datetime': '2018-10-12 19:07:10.316331', 'mgs': 0, 'depth': -0.903, 'time': 6.05, 'pitch': -2.02, 'roll': -5.04}
{'lipoC2': 8.27, 'temp': 29.13, 'lipoC3S3': 12.67, 'rot1': 0, 'rot0': 0, 'rot3': 0, 'rot2': 0, 'state': 'normal', 'yaw': -0.0, 'datetime': '2018-10-12 19:07:10.413435', 'mgs': 0, 'depth': -0.903, 'time': 6.14, 'pitch': -2.01, 'roll': -5.14}
{'lipoC2': 8.27, 'temp': 29.13, 'lipoC3S3': 12.67, 'rot1': 0, 'rot0': 0, 'rot3': 0, 'rot2': 0, 'state': 'normal', 'yaw': -0.0, 'datetime': '2018-10-12 19:07:10.508765', 'mgs': 0, 'depth': -0.903, 'time': 6.24, 'pitch': -2.01, 'roll': -5.07}
{'lipoC2': 8.27, 'temp': 29.13, 'lipoC3S3': 12.67, 'rot1': 0, 'rot0': 0, 'rot3': 0, 'rot2': 0, 'state': 'normal', 'yaw': -0.0, 'datetime': '2018-10-12 19:07:10.608915', 'mgs': 0, 'depth': -0.903, 'time': 6.34, 'pitch': -2.02, 'roll': -5.13}
{'lipoC2': 8.27, 'temp': 29.13, 'lipoC3S3': 12.67, 'rot1': 0, 'rot0': 0, 'rot3': 0, 'rot2': 0, 'state': 'normal', 'yaw': -0.0, 'datetime': '2018-10-12 19:07:10.707293', 'mgs': 0, 'depth': -0.98, 'time': 6.44, 'pitch': -2.01, 'roll': -5.08}
{'lipoC2': 8.27, 'temp': 29.13, 'lipoC3S3': 12.67, 'rot1': 0, 'rot0': 0, 'rot3': 0, 'rot2': 0, 'state': 'normal', 'yaw': -0.0, 'datetime': '2018-10-12 19:07:10.802407', 'mgs': 0, 'depth': -0.903, 'time': 6.54, 'pitch': -2.01, 'roll': -5.14}
{'lipoC2': 8.27, 'temp': 29.13, 'lipoC3S3': 12.67, 'rot1': 0, 'rot0': 0, 'rot3': 0, 'rot2': 0, 'state': 'normal', 'yaw': -0.0, 'datetime': '2018-10-12 19:07:10.904048', 'mgs': 0, 'depth': -0.903, 'time': 6.63, 'pitch': -2.01, 'roll': -5.1}
{'lipoC2': 8.27, 'temp': 29.13, 'lipoC3S3': 12.68, 'rot1': 0, 'rot0': 0, 'rot3': 0, 'rot2': 0, 'state': 'normal', 'yaw': -0.0, 'datetime': '2018-10-12 19:07:11.002399', 'mgs': 0, 'depth': -0.903, 'time': 6.73, 'pitch': -2.02, 'roll': -5.13}
{'lipoC2': 8.27, 'temp': 29.13, 'lipoC3S3': 12.67, 'rot1': 0, 'rot0': 0, 'rot3': 0, 'rot2': 0, 'state': 'normal', 'yaw': -0.0, 'datetime': '2018-10-12 19:07:11.100671', 'mgs': 0, 'depth': -0.903, 'time': 6.83, 'pitch': -2.01, 'roll': -5.11}
{'lipoC2': 8.27, 'temp': 29.13, 'lipoC3S3': 12.67, 'rot1': 0, 'rot0': 0, 'rot3': 0, 'rot2': 0, 'state': 'normal', 'yaw': -0.0, 'datetime': '2018-10-12 19:07:11.197784', 'mgs': 0, 'depth': -0.903, 'time': 6.93, 'pitch': -2.02, 'roll': -5.13}
{'lipoC2': 8.27, 'temp': 29.13, 'lipoC3S3': 12.68, 'rot1': 0, 'rot0': 0, 'rot3': 0, 'rot2': 0, 'state': 'normal', 'yaw': -0.0, 'datetime': '2018-10-12 19:07:11.294970', 'mgs': 1, 'depth': -0.903, 'time': 7.02, 'pitch': -2.02, 'roll': -5.11}
{'lipoC2': 8.27, 'temp': 29.19, 'lipoC3S3': 12.67, 'rot1': 0, 'rot0': 0, 'rot3': 0, 'rot2': 0, 'state': 'normal', 'yaw': 0.0, 'datetime': '2018-10-12 19:07:14.822232', 'mgs': 0, 'depth': -0.827, 'time': 1.26, 'pitch': -1.98, 'roll': -5.21}
{'lipoC2': 8.27, 'temp': 29.19, 'lipoC3S3': 12.67, 'rot1': 0, 'rot0': 0, 'rot3': 0, 'rot2': 0, 'state': 'normal', 'yaw': -0.0, 'datetime': '2018-10-12 19:07:14.855709', 'mgs': 0, 'depth': -0.827, 'time': 1.36, 'pitch': -1.97, 'roll': -5.19}
{'lipoC2': 8.27, 'temp': 29.19, 'lipoC3S3': 12.68, 'rot1': 0, 'rot0': 0, 'rot3': 0, 'rot2': 0, 'state': 'normal', 'yaw': -0.0, 'datetime': '2018-10-12 19:07:14.878248', 'mgs': 0, 'depth': -0.903, 'time': 1.46, 'pitch': -1.96, 'roll': -5.21}
{'lipoC2': 8.27, 'temp': 29.13, 'lipoC3S3': 12.67, 'rot1': 0, 'rot0': 0, 'rot3': 0, 'rot2': 0, 'state': 'normal', 'yaw': -0.0, 'datetime': '2018-10-12 19:07:14.892237', 'mgs': 0, 'depth': -0.903, 'time': 1.55, 'pitch': -1.95, 'roll': -5.17}
{'lipoC2': 8.26, 'temp': 29.13, 'lipoC3S3': 12.67, 'rot1': 0, 'rot0': 0, 'rot3': 0, 'rot2': 0, 'state': 'normal', 'yaw': -0.0, 'datetime': '2018-10-12 19:07:14.905690', 'mgs': 0, 'depth': -0.903, 'time': 1.65, 'pitch': -1.95, 'roll': -5.18}
{'lipoC2': 8.27, 'temp': 29.13, 'lipoC3S3': 12.67, 'rot1': 0, 'rot0': 0, 'rot3': 0, 'rot2': 0, 'state': 'normal', 'yaw': -0.0, 'datetime': '2018-10-12 19:07:14.913293', 'mgs': 0, 'depth': -0.903, 'time': 1.75, 'pitch': -1.94, 'roll': -5.16}
{'lipoC2': 8.27, 'temp': 29.13, 'lipoC3S3': 12.67, 'rot1': 0, 'rot0': 0, 'rot3': 0, 'rot2': 0, 'state': 'normal', 'yaw': -0.0, 'datetime': '2018-10-12 19:07:14.926667', 'mgs': 0, 'depth': -0.903, 'time': 1.84, 'pitch': -1.92, 'roll': -5.19}
{'lipoC2': 8.27, 'temp': 29.13, 'lipoC3S3': 12.68, 'rot1': 0, 'rot0': 0, 'rot3': 0, 'rot2': 0, 'state': 'normal', 'yaw': -0.0, 'datetime': '2018-10-12 19:07:14.940009', 'mgs': 0, 'depth': -0.903, 'time': 1.94, 'pitch': -1.92, 'roll': -5.18}
{'lipoC2': 8.27, 'temp': 29.13, 'lipoC3S3': 12.67, 'rot1': 0, 'rot0': 0, 'rot3': 0, 'rot2': 0, 'state': 'normal', 'yaw': -0.0, 'datetime': '2018-10-12 19:07:14.947539', 'mgs': 0, 'depth': -0.903, 'time': 2.04, 'pitch': -1.91, 'roll': -5.21}
{'lipoC2': 8.27, 'temp': 29.13, 'lipoC3S3': 12.67, 'rot1': 0, 'rot0': 0, 'rot3': 0, 'rot2': 0, 'state': 'normal', 'yaw': -0.0, 'datetime': '2018-10-12 19:07:14.961023', 'mgs': 0, 'depth': -0.827, 'time': 2.14, 'pitch': -1.91, 'roll': -5.19}
{'lipoC2': 8.27, 'temp': 29.13, 'lipoC3S3': 12.68, 'rot1': 0, 'rot0': 0, 'rot3': 0, 'rot2': 0, 'state': 'normal', 'yaw': 0.01, 'datetime': '2018-10-12 19:07:14.975119', 'mgs': 0, 'depth': -0.903, 'time': 2.23, 'pitch': -1.9, 'roll': -5.2}
{'lipoC2': 8.27, 'temp': 29.13, 'lipoC3S3': 12.67, 'rot1': 0, 'rot0': 0, 'rot3': 0, 'rot2': 0, 'state': 'normal', 'yaw': 0.01, 'datetime': '2018-10-12 19:07:14.983353', 'mgs': 0, 'depth': -0.903, 'time': 2.33, 'pitch': -1.89, 'roll': -5.2}
{'lipoC2': 8.26, 'temp': 29.19, 'lipoC3S3': 12.67, 'rot1': 0, 'rot0': 0, 'rot3': 0, 'rot2': 0, 'state': 'normal', 'yaw': 0.0, 'datetime': '2018-10-12 19:07:14.996785', 'mgs': 0, 'depth': -0.98, 'time': 2.43, 'pitch': -1.88, 'roll': -5.22}
{'lipoC2': 8.27, 'temp': 29.19, 'lipoC3S3': 12.68, 'rot1': 0, 'rot0': 0, 'rot3': 0, 'rot2': 0, 'state': 'normal', 'yaw': 0.0, 'datetime': '2018-10-12 19:07:15.010150', 'mgs': 0, 'depth': -0.903, 'time': 2.53, 'pitch': -1.87, 'roll': -5.23}
{'lipoC2': 8.27, 'temp': 29.19, 'lipoC3S3': 12.67, 'rot1': 0, 'rot0': 0, 'rot3': 0, 'rot2': 0, 'state': 'normal', 'yaw': 0.0, 'datetime': '2018-10-12 19:07:15.017666', 'mgs': 0, 'depth': -0.903, 'time': 2.62, 'pitch': -1.87, 'roll': -5.23}
{'lipoC2': 8.27, 'temp': 29.19, 'lipoC3S3': 12.67, 'rot1': 0, 'rot0': 0, 'rot3': 0, 'rot2': 0, 'state': 'normal', 'yaw': 0.0, 'datetime': '2018-10-12 19:07:15.031043', 'mgs': 0, 'depth': -0.827, 'time': 2.72, 'pitch': -1.86, 'roll': -5.24}
{'lipoC2': 8.27, 'temp': 29.19, 'lipoC3S3': 12.67, 'rot1': 0, 'rot0': 0, 'rot3': 0, 'rot2': 0, 'state': 'normal', 'yaw': 0.0, 'datetime': '2018-10-12 19:07:15.044456', 'mgs': 0, 'depth': -0.903, 'time': 2.82, 'pitch': -1.86, 'roll': -5.24}
{'lipoC2': 8.27, 'temp': 29.13, 'lipoC3S3': 12.68, 'rot1': 0, 'rot0': 0, 'rot3': 0, 'rot2': 0, 'state': 'normal', 'yaw': 0.0, 'datetime': '2018-10-12 19:07:15.052025', 'mgs': 0, 'depth': -0.98, 'time': 2.91, 'pitch': -1.86, 'roll': -5.24}
{'lipoC2': 8.26, 'temp': 29.13, 'lipoC3S3': 12.67, 'rot1': 0, 'rot0': 0, 'rot3': 0, 'rot2': 0, 'state': 'normal', 'yaw': 0.0, 'datetime': '2018-10-12 19:07:15.065494', 'mgs': 0, 'depth': -0.903, 'time': 3.01, 'pitch': -1.86, 'roll': -5.24}
{'lipoC2': 8.27, 'temp': 29.13, 'lipoC3S3': 12.67, 'rot1': 0, 'rot0': 0, 'rot3': 0, 'rot2': 0, 'state': 'normal', 'yaw': 0.0, 'datetime': '2018-10-12 19:07:15.079591', 'mgs': 0, 'depth': -0.827, 'time': 3.11, 'pitch': -1.86, 'roll': -5.24}
{'lipoC2': 8.27, 'temp': 29.13, 'lipoC3S3': 12.67, 'rot1': 0, 'rot0': 0, 'rot3': 0, 'rot2': 0, 'state': 'normal', 'yaw': 0.0, 'datetime': '2018-10-12 19:07:15.087328', 'mgs': 0, 'depth': -0.903, 'time': 3.21, 'pitch': -1.86, 'roll': -5.24}
{'lipoC2': 8.27, 'temp': 29.13, 'lipoC3S3': 12.68, 'rot1': 0, 'rot0': 0, 'rot3': 0, 'rot2': 0, 'state': 'normal', 'yaw': 0.0, 'datetime': '2018-10-12 19:07:15.100685', 'mgs': 0, 'depth': -0.98, 'time': 3.3, 'pitch': -1.86, 'roll': -5.24}
{'lipoC2': 8.26, 'temp': 29.13, 'lipoC3S3': 12.67, 'rot1': 0, 'rot0': 0, 'rot3': 0, 'rot2': 0, 'state': 'normal', 'yaw': 0.0, 'datetime': '2018-10-12 19:07:15.114130', 'mgs': 0, 'depth': -0.903, 'time': 3.4, 'pitch': -1.86, 'roll': -5.24}
{'lipoC2': 8.27, 'temp': 29.13, 'lipoC3S3': 12.68, 'rot1': 0, 'rot0': 0, 'rot3': 0, 'rot2': 0, 'state': 'normal', 'yaw': 0.0, 'datetime': '2018-10-12 19:07:15.121690', 'mgs': 0, 'depth': -0.827, 'time': 3.5, 'pitch': -1.86, 'roll': -5.23}
{'lipoC2': 8.27, 'temp': 29.13, 'lipoC3S3': 12.54, 'rot1': 2, 'rot0': 1, 'rot3': 0, 'rot2': 0, 'state': 'normal', 'yaw': 0.0, 'datetime': '2018-10-12 19:07:15.135068', 'mgs': 0, 'depth': -0.903, 'time': 3.6, 'pitch': -1.86, 'roll': -5.23}
{'lipoC2': 8.27, 'temp': 29.13, 'lipoC3S3': 12.64, 'rot1': 6, 'rot0': 3, 'rot3': 0, 'rot2': 0, 'state': 'normal', 'yaw': 0.0, 'datetime': '2018-10-12 19:07:15.148392', 'mgs': 0, 'depth': -1.056, 'time': 3.69, 'pitch': -1.86, 'roll': -5.23}
{'lipoC2': 8.27, 'temp': 29.13, 'lipoC3S3': 12.66, 'rot1': 9, 'rot0': 5, 'rot3': 0, 'rot2': 0, 'state': 'normal', 'yaw': 0.0, 'datetime': '2018-10-12 19:07:15.178607', 'mgs': 0, 'depth': -0.903, 'time': 3.79, 'pitch': -1.86, 'roll': -5.23}
{'lipoC2': 8.27, 'temp': 29.13, 'lipoC3S3': 12.66, 'rot1': 12, 'rot0': 6, 'rot3': 0, 'rot2': 0, 'state': 'normal', 'yaw': 0.0, 'datetime': '2018-10-12 19:07:15.275151', 'mgs': 0, 'depth': -0.903, 'time': 3.89, 'pitch': -1.86, 'roll': -5.23}
{'lipoC2': 8.27, 'temp': 29.13, 'lipoC3S3': 12.66, 'rot1': 16, 'rot0': 8, 'rot3': 0, 'rot2': 0, 'state': 'normal', 'yaw': 0.01, 'datetime': '2018-10-12 19:07:15.373385', 'mgs': 0, 'depth': -0.14, 'time': 3.99, 'pitch': -1.86, 'roll': -5.23}
{'lipoC2': 8.27, 'temp': 29.13, 'lipoC3S3': 12.66, 'rot1': 20, 'rot0': 10, 'rot3': 0, 'rot2': 0, 'state': 'normal', 'yaw': 0.01, 'datetime': '2018-10-12 19:07:15.471427', 'mgs': 0, 'depth': -0.903, 'time': 4.08, 'pitch': -1.86, 'roll': -5.24}
{'lipoC2': 8.28, 'temp': 29.13, 'lipoC3S3': 12.64, 'rot1': 23, 'rot0': 12, 'rot3': 0, 'rot2': 0, 'state': 'normal', 'yaw': -0.0, 'datetime': '2018-10-12 19:07:15.568534', 'mgs': 0, 'depth': -0.98, 'time': 4.18, 'pitch': -1.87, 'roll': -5.24}
{'lipoC2': 8.26, 'temp': 29.13, 'lipoC3S3': 12.66, 'rot1': 27, 'rot0': 14, 'rot3': 0, 'rot2': 0, 'state': 'normal', 'yaw': 0.01, 'datetime': '2018-10-12 19:07:15.668713', 'mgs': 0, 'depth': -0.98, 'time': 4.28, 'pitch': -1.87, 'roll': -5.24}
{'lipoC2': 8.27, 'temp': 29.13, 'lipoC3S3': 12.66, 'rot1': 30, 'rot0': 16, 'rot3': 0, 'rot2': 0, 'state': 'normal', 'yaw': 0.01, 'datetime': '2018-10-12 19:07:15.765872', 'mgs': 0, 'depth': -0.064, 'time': 4.38, 'pitch': -1.88, 'roll': -5.24}
{'lipoC2': 8.27, 'temp': 29.13, 'lipoC3S3': 12.66, 'rot1': 34, 'rot0': 17, 'rot3': 0, 'rot2': 0, 'state': 'normal', 'yaw': -0.01, 'datetime': '2018-10-12 19:07:15.863045', 'mgs': 0, 'depth': -0.903, 'time': 4.47, 'pitch': -1.87, 'roll': -5.23}
{'lipoC2': 8.27, 'temp': 29.13, 'lipoC3S3': 12.66, 'rot1': 38, 'rot0': 19, 'rot3': 0, 'rot2': 0, 'state': 'normal', 'yaw': 0.01, 'datetime': '2018-10-12 19:07:15.959948', 'mgs': 0, 'depth': 0.012, 'time': 4.57, 'pitch': -1.87, 'roll': -5.23}
{'lipoC2': 8.26, 'temp': 29.13, 'lipoC3S3': 12.64, 'rot1': 41, 'rot0': 21, 'rot3': 0, 'rot2': 0, 'state': 'normal', 'yaw': 0.01, 'datetime': '2018-10-12 19:07:16.058482', 'mgs': 0, 'depth': -0.751, 'time': 4.67, 'pitch': -1.88, 'roll': -5.24}
{'lipoC2': 8.27, 'temp': 29.13, 'lipoC3S3': 12.63, 'rot1': 45, 'rot0': 23, 'rot3': 0, 'rot2': 0, 'state': 'normal', 'yaw': 0.0, 'datetime': '2018-10-12 19:07:16.156819', 'mgs': 0, 'depth': -0.903, 'time': 4.77, 'pitch': -1.86, 'roll': -5.25}
{'lipoC2': 8.27, 'temp': 29.19, 'lipoC3S3': 12.66, 'rot1': 48, 'rot0': 25, 'rot3': 0, 'rot2': 0, 'state': 'normal', 'yaw': 0.01, 'datetime': '2018-10-12 19:07:16.254049', 'mgs': 0, 'depth': -0.903, 'time': 4.86, 'pitch': -1.87, 'roll': -5.24}
{'lipoC2': 8.27, 'temp': 29.19, 'lipoC3S3': 12.56, 'rot1': 52, 'rot0': 27, 'rot3': 0, 'rot2': 0, 'state': 'normal', 'yaw': 0.02, 'datetime': '2018-10-12 19:07:16.350978', 'mgs': 0, 'depth': -0.903, 'time': 4.96, 'pitch': -1.87, 'roll': -5.23}
{'lipoC2': 8.26, 'temp': 29.19, 'lipoC3S3': 12.64, 'rot1': 56, 'rot0': 28, 'rot3': 0, 'rot2': 0, 'state': 'normal', 'yaw': -0.0, 'datetime': '2018-10-12 19:07:16.449125', 'mgs': 0, 'depth': -0.827, 'time': 5.06, 'pitch': -1.87, 'roll': -5.23}
{'lipoC2': 8.27, 'temp': 29.13, 'lipoC3S3': 12.64, 'rot1': 59, 'rot0': 30, 'rot3': 0, 'rot2': 0, 'state': 'normal', 'yaw': 0.02, 'datetime': '2018-10-12 19:07:16.547408', 'mgs': 0, 'depth': 0.012, 'time': 5.16, 'pitch': -1.88, 'roll': -5.24}
{'lipoC2': 8.27, 'temp': 29.13, 'lipoC3S3': 12.66, 'rot1': 63, 'rot0': 32, 'rot3': 0, 'rot2': 0, 'state': 'normal', 'yaw': 0.05, 'datetime': '2018-10-12 19:07:16.645298', 'mgs': 0, 'depth': -0.903, 'time': 5.26, 'pitch': -1.89, 'roll': -5.2}
{'lipoC2': 8.27, 'temp': 29.13, 'lipoC3S3': 12.63, 'rot1': 66, 'rot0': 34, 'rot3': 0, 'rot2': 0, 'state': 'normal', 'yaw': 0.07, 'datetime': '2018-10-12 19:07:16.747424', 'mgs': 0, 'depth': -0.903, 'time': 5.35, 'pitch': -1.79, 'roll': -5.36}
{'lipoC2': 8.28, 'temp': 29.13, 'lipoC3S3': 12.64, 'rot1': 70, 'rot0': 36, 'rot3': 0, 'rot2': 0, 'state': 'normal', 'yaw': 0.09, 'datetime': '2018-10-12 19:07:16.845280', 'mgs': 0, 'depth': -0.827, 'time': 5.45, 'pitch': -1.79, 'roll': -5.31}
{'lipoC2': 8.27, 'temp': 29.13, 'lipoC3S3': 12.55, 'rot1': 73, 'rot0': 38, 'rot3': 0, 'rot2': 0, 'state': 'normal', 'yaw': 0.12, 'datetime': '2018-10-12 19:07:16.943414', 'mgs': 0, 'depth': -0.903, 'time': 5.55, 'pitch': -1.64, 'roll': -5.42}
{'lipoC2': 8.26, 'temp': 29.13, 'lipoC3S3': 12.64, 'rot1': 77, 'rot0': 39, 'rot3': 0, 'rot2': 0, 'state': 'normal', 'yaw': 0.73, 'datetime': '2018-10-12 19:07:17.040576', 'mgs': 0, 'depth': -0.903, 'time': 5.65, 'pitch': -1.6, 'roll': -5.45}
{'lipoC2': 8.27, 'temp': 29.13, 'lipoC3S3': 12.58, 'rot1': 81, 'rot0': 41, 'rot3': 0, 'rot2': 0, 'state': 'normal', 'yaw': 2.18, 'datetime': '2018-10-12 19:07:17.137583', 'mgs': 0, 'depth': -0.903, 'time': 5.74, 'pitch': -1.24, 'roll': -4.91}
{'lipoC2': 8.27, 'temp': 29.13, 'lipoC3S3': 12.64, 'rot1': 84, 'rot0': 43, 'rot3': 0, 'rot2': 0, 'state': 'normal', 'yaw': 4.07, 'datetime': '2018-10-12 19:07:17.234670', 'mgs': 0, 'depth': -0.827, 'time': 5.84, 'pitch': -0.49, 'roll': -4.44}
{'lipoC2': 8.26, 'temp': 29.13, 'lipoC3S3': 12.58, 'rot1': 87, 'rot0': 45, 'rot3': 0, 'rot2': 0, 'state': 'normal', 'yaw': 6.66, 'datetime': '2018-10-12 19:07:17.331806', 'mgs': 0, 'depth': -0.903, 'time': 5.94, 'pitch': 0.39, 'roll': -4.35}
{'lipoC2': 8.26, 'temp': 29.13, 'lipoC3S3': 12.66, 'rot1': 91, 'rot0': 47, 'rot3': 0, 'rot2': 0, 'state': 'normal', 'yaw': 9.45, 'datetime': '2018-10-12 19:07:17.428835', 'mgs': 0, 'depth': -0.903, 'time': 6.03, 'pitch': 0.51, 'roll': -4.09}
{'lipoC2': 8.27, 'temp': 29.13, 'lipoC3S3': 12.64, 'rot1': 95, 'rot0': 49, 'rot3': 0, 'rot2': 0, 'state': 'normal', 'yaw': 11.86, 'datetime': '2018-10-12 19:07:17.521171', 'mgs': 0, 'depth': -0.827, 'time': 6.13, 'pitch': 0.21, 'roll': -4.27}
{'lipoC2': 8.27, 'temp': 29.13, 'lipoC3S3': 12.66, 'rot1': 100, 'rot0': 51, 'rot3': 0, 'rot2': 0, 'state': 'normal', 'yaw': 14.21, 'datetime': '2018-10-12 19:07:17.618385', 'mgs': 0, 'depth': -0.903, 'time': 6.23, 'pitch': -0.34, 'roll': -5.08}
{'lipoC2': 8.27, 'temp': 29.13, 'lipoC3S3': 12.66, 'rot1': 106, 'rot0': 52, 'rot3': 0, 'rot2': 0, 'state': 'normal', 'yaw': 15.99, 'datetime': '2018-10-12 19:07:17.715591', 'mgs': 0, 'depth': -0.446, 'time': 6.33, 'pitch': -0.91, 'roll': -5.44}
{'lipoC2': 8.27, 'temp': 29.13, 'lipoC3S3': 12.63, 'rot1': 114, 'rot0': 54, 'rot3': 0, 'rot2': 0, 'state': 'normal', 'yaw': 17.04, 'datetime': '2018-10-12 19:07:17.812869', 'mgs': 0, 'depth': -0.903, 'time': 6.42, 'pitch': -0.92, 'roll': -5.47}
{'lipoC2': 8.27, 'temp': 29.13, 'lipoC3S3': 12.59, 'rot1': 123, 'rot0': 56, 'rot3': 0, 'rot2': 0, 'state': 'normal', 'yaw': 17.33, 'datetime': '2018-10-12 19:07:17.911520', 'mgs': 0, 'depth': -0.903, 'time': 6.52, 'pitch': -0.61, 'roll': -5.48}
{'lipoC2': 8.26, 'temp': 29.19, 'lipoC3S3': 12.62, 'rot1': 130, 'rot0': 58, 'rot3': 0, 'rot2': 0, 'state': 'normal', 'yaw': 17.04, 'datetime': '2018-10-12 19:07:18.009970', 'mgs': 0, 'depth': -0.903, 'time': 6.62, 'pitch': -0.37, 'roll': -5.25}
{'lipoC2': 8.27, 'temp': 29.19, 'lipoC3S3': 12.66, 'rot1': 137, 'rot0': 60, 'rot3': 0, 'rot2': 0, 'state': 'normal', 'yaw': 16.12, 'datetime': '2018-10-12 19:07:18.107567', 'mgs': 0, 'depth': -0.903, 'time': 6.72, 'pitch': -0.25, 'roll': -5.0}
{'lipoC2': 8.27, 'temp': 29.13, 'lipoC3S3': 12.64, 'rot1': 143, 'rot0': 62, 'rot3': 0, 'rot2': 0, 'state': 'normal', 'yaw': 14.74, 'datetime': '2018-10-12 19:07:18.201370', 'mgs': 0, 'depth': -1.59, 'time': 6.82, 'pitch': -0.18, 'roll': -5.05}
{'lipoC2': 8.27, 'temp': 29.13, 'lipoC3S3': 12.66, 'rot1': 149, 'rot0': 63, 'rot3': 0, 'rot2': 0, 'state': 'normal', 'yaw': 13.3, 'datetime': '2018-10-12 19:07:18.299396', 'mgs': 0, 'depth': -0.827, 'time': 6.91, 'pitch': -0.31, 'roll': -5.2}
{'lipoC2': 8.27, 'temp': 29.13, 'lipoC3S3': 12.66, 'rot1': 153, 'rot0': 65, 'rot3': 0, 'rot2': 0, 'state': 'normal', 'yaw': 11.52, 'datetime': '2018-10-12 19:07:18.397789', 'mgs': 0, 'depth': -0.903, 'time': 7.01, 'pitch': -0.69, 'roll': -5.2}
{'lipoC2': 8.27, 'temp': 29.13, 'lipoC3S3': 12.68, 'rot1': 158, 'rot0': 67, 'rot3': 0, 'rot2': 0, 'state': 'normal', 'yaw': 9.03, 'datetime': '2018-10-12 19:07:18.495684', 'mgs': 0, 'depth': -0.827, 'time': 7.11, 'pitch': -1.06, 'roll': -5.16}
{'lipoC2': 8.27, 'temp': 29.13, 'lipoC3S3': 12.66, 'rot1': 162, 'rot0': 69, 'rot3': 0, 'rot2': 0, 'state': 'normal', 'yaw': 5.84, 'datetime': '2018-10-12 19:07:18.592842', 'mgs': 0, 'depth': -0.522, 'time': 7.21, 'pitch': -1.24, 'roll': -4.98}
{'lipoC2': 8.27, 'temp': 29.13, 'lipoC3S3': 12.67, 'rot1': 166, 'rot0': 71, 'rot3': 0, 'rot2': 0, 'state': 'normal', 'yaw': 2.54, 'datetime': '2018-10-12 19:07:18.690588', 'mgs': 0, 'depth': -0.903, 'time': 7.31, 'pitch': -1.3, 'roll': -4.89}
{'lipoC2': 8.27, 'temp': 29.13, 'lipoC3S3': 12.64, 'rot1': 169, 'rot0': 73, 'rot3': 0, 'rot2': 0, 'state': 'normal', 'yaw': -1.35, 'datetime': '2018-10-12 19:07:18.788870', 'mgs': 0, 'depth': -0.522, 'time': 7.4, 'pitch': -1.37, 'roll': -4.61}
{'lipoC2': 8.27, 'temp': 29.13, 'lipoC3S3': 12.63, 'rot1': 172, 'rot0': 74, 'rot3': 0, 'rot2': 0, 'state': 'normal', 'yaw': -5.12, 'datetime': '2018-10-12 19:07:18.886067', 'mgs': 0, 'depth': -0.903, 'time': 7.5, 'pitch': -1.53, 'roll': -4.29}
{'lipoC2': 8.26, 'temp': 29.06, 'lipoC3S3': 12.66, 'rot1': 176, 'rot0': 75, 'rot3': 0, 'rot2': 0, 'state': 'normal', 'yaw': -8.48, 'datetime': '2018-10-12 19:07:18.988561', 'mgs': 0, 'depth': -0.903, 'time': 7.6, 'pitch': -1.62, 'roll': -4.17}
{'lipoC2': 8.27, 'temp': 29.06, 'lipoC3S3': 12.64, 'rot1': 179, 'rot0': 76, 'rot3': 0, 'rot2': 0, 'state': 'normal', 'yaw': -10.94, 'datetime': '2018-10-12 19:07:19.086191', 'mgs': 0, 'depth': -0.217, 'time': 7.7, 'pitch': -1.82, 'roll': -4.0}
{'lipoC2': 8.27, 'temp': 29.13, 'lipoC3S3': 12.6, 'rot1': 183, 'rot0': 78, 'rot3': 0, 'rot2': 0, 'state': 'normal', 'yaw': -12.99, 'datetime': '2018-10-12 19:07:19.183298', 'mgs': 0, 'depth': -0.903, 'time': 7.79, 'pitch': -2.12, 'roll': -3.92}
{'lipoC2': 8.27, 'temp': 29.13, 'lipoC3S3': 12.66, 'rot1': 186, 'rot0': 79, 'rot3': 0, 'rot2': 0, 'state': 'normal', 'yaw': -14.4, 'datetime': '2018-10-12 19:07:19.280523', 'mgs': 0, 'depth': -0.827, 'time': 7.89, 'pitch': -2.3, 'roll': -4.0}
{'lipoC2': 8.27, 'temp': 29.13, 'lipoC3S3': 12.66, 'rot1': 190, 'rot0': 80, 'rot3': 0, 'rot2': 0, 'state': 'normal', 'yaw': -15.17, 'datetime': '2018-10-12 19:07:19.377702', 'mgs': 0, 'depth': -0.751, 'time': 7.99, 'pitch': -2.55, 'roll': -3.94}
{'lipoC2': 8.27, 'temp': 29.13, 'lipoC3S3': 12.64, 'rot1': 193, 'rot0': 81, 'rot3': 0, 'rot2': 0, 'state': 'normal', 'yaw': -15.43, 'datetime': '2018-10-12 19:07:19.475102', 'mgs': 0, 'depth': -0.903, 'time': 8.09, 'pitch': -2.56, 'roll': -3.99}
{'lipoC2': 8.27, 'temp': 29.13, 'lipoC3S3': 12.66, 'rot1': 197, 'rot0': 82, 'rot3': 0, 'rot2': 0, 'state': 'normal', 'yaw': -15.21, 'datetime': '2018-10-12 19:07:19.572202', 'mgs': 0, 'depth': -0.903, 'time': 8.18, 'pitch': -2.59, 'roll': -4.11}
{'lipoC2': 8.27, 'temp': 29.13, 'lipoC3S3': 12.64, 'rot1': 200, 'rot0': 84, 'rot3': 0, 'rot2': 0, 'state': 'normal', 'yaw': -14.32, 'datetime': '2018-10-12 19:07:19.669499', 'mgs': 0, 'depth': -0.903, 'time': 8.28, 'pitch': -2.61, 'roll': -4.29}
{'lipoC2': 8.26, 'temp': 29.13, 'lipoC3S3': 12.66, 'rot1': 204, 'rot0': 85, 'rot3': 0, 'rot2': 0, 'state': 'normal', 'yaw': -12.9, 'datetime': '2018-10-12 19:07:19.767554', 'mgs': 0, 'depth': -0.827, 'time': 8.38, 'pitch': -2.39, 'roll': -4.39}
{'lipoC2': 8.27, 'temp': 29.13, 'lipoC3S3': 12.66, 'rot1': 207, 'rot0': 86, 'rot3': 0, 'rot2': 0, 'state': 'normal', 'yaw': -10.61, 'datetime': '2018-10-12 19:07:19.866154', 'mgs': 0, 'depth': -0.98, 'time': 8.48, 'pitch': -1.78, 'roll': -4.29}
{'lipoC2': 8.27, 'temp': 29.19, 'lipoC3S3': 12.66, 'rot1': 211, 'rot0': 87, 'rot3': 0, 'rot2': 0, 'state': 'normal', 'yaw': -7.84, 'datetime': '2018-10-12 19:07:19.964539', 'mgs': 0, 'depth': -0.827, 'time': 8.58, 'pitch': -0.92, 'roll': -4.07}
{'lipoC2': 8.27, 'temp': 29.19, 'lipoC3S3': 12.64, 'rot1': 214, 'rot0': 88, 'rot3': 0, 'rot2': 0, 'state': 'normal', 'yaw': -4.87, 'datetime': '2018-10-12 19:07:20.061836', 'mgs': 0, 'depth': -0.446, 'time': 8.67, 'pitch': -0.33, 'roll': -3.91}
{'lipoC2': 8.27, 'temp': 29.13, 'lipoC3S3': 12.62, 'rot1': 218, 'rot0': 89, 'rot3': 0, 'rot2': 0, 'state': 'normal', 'yaw': -2.16, 'datetime': '2018-10-12 19:07:20.158934', 'mgs': 0, 'depth': -0.903, 'time': 8.77, 'pitch': -0.25, 'roll': -4.08}
{'lipoC2': 8.26, 'temp': 29.13, 'lipoC3S3': 12.66, 'rot1': 222, 'rot0': 91, 'rot3': 0, 'rot2': 0, 'state': 'normal', 'yaw': -0.23, 'datetime': '2018-10-12 19:07:20.257465', 'mgs': 0, 'depth': -0.98, 'time': 8.87, 'pitch': -0.54, 'roll': -4.66}
{'lipoC2': 8.27, 'temp': 29.13, 'lipoC3S3': 12.7, 'rot1': 225, 'rot0': 92, 'rot3': 0, 'rot2': 0, 'state': 'normal', 'yaw': 1.17, 'datetime': '2018-10-12 19:07:20.355904', 'mgs': 0, 'depth': -0.98, 'time': 8.97, 'pitch': -1.0, 'roll': -5.51}
{'lipoC2': 8.27, 'temp': 29.13, 'lipoC3S3': 12.66, 'rot1': 228, 'rot0': 94, 'rot3': 0, 'rot2': 0, 'state': 'normal', 'yaw': 2.05, 'datetime': '2018-10-12 19:07:20.453426', 'mgs': 0, 'depth': -0.903, 'time': 9.06, 'pitch': -1.61, 'roll': -5.24}
{'lipoC2': 8.27, 'temp': 29.13, 'lipoC3S3': 12.66, 'rot1': 232, 'rot0': 96, 'rot3': 0, 'rot2': 0, 'state': 'normal', 'yaw': 2.41, 'datetime': '2018-10-12 19:07:20.550608', 'mgs': 0, 'depth': -0.217, 'time': 9.16, 'pitch': -1.61, 'roll': -5.14}
{'lipoC2': 8.27, 'temp': 29.13, 'lipoC3S3': 12.63, 'rot1': 236, 'rot0': 98, 'rot3': 0, 'rot2': 0, 'state': 'normal', 'yaw': 2.43, 'datetime': '2018-10-12 19:07:20.648673', 'mgs': 0, 'depth': -0.903, 'time': 9.26, 'pitch': -1.78, 'roll': -5.22}
{'lipoC2': 8.27, 'temp': 29.13, 'lipoC3S3': 12.66, 'rot1': 239, 'rot0': 99, 'rot3': 0, 'rot2': 0, 'state': 'normal', 'yaw': 2.44, 'datetime': '2018-10-12 19:07:20.747168', 'mgs': 0, 'depth': -0.903, 'time': 9.36, 'pitch': -1.8, 'roll': -5.15}
{'lipoC2': 8.27, 'temp': 29.19, 'lipoC3S3': 12.6, 'rot1': 243, 'rot0': 101, 'rot3': 0, 'rot2': 0, 'state': 'normal', 'yaw': 2.43, 'datetime': '2018-10-12 19:07:20.844998', 'mgs': 0, 'depth': -0.903, 'time': 9.46, 'pitch': -1.77, 'roll': -5.2}
{'lipoC2': 8.27, 'temp': 29.19, 'lipoC3S3': 12.66, 'rot1': 246, 'rot0': 103, 'rot3': 0, 'rot2': 0, 'state': 'normal', 'yaw': 2.44, 'datetime': '2018-10-12 19:07:20.942307', 'mgs': 0, 'depth': -0.98, 'time': 9.55, 'pitch': -1.79, 'roll': -5.17}
{'lipoC2': 8.27, 'temp': 29.19, 'lipoC3S3': 12.64, 'rot1': 250, 'rot0': 105, 'rot3': 0, 'rot2': 0, 'state': 'normal', 'yaw': 2.44, 'datetime': '2018-10-12 19:07:21.039792', 'mgs': 0, 'depth': -0.903, 'time': 9.65, 'pitch': -1.79, 'roll': -5.17}
{'lipoC2': 8.27, 'temp': 29.13, 'lipoC3S3': 12.64, 'rot1': 254, 'rot0': 107, 'rot3': 0, 'rot2': 0, 'state': 'normal', 'yaw': 2.44, 'datetime': '2018-10-12 19:07:21.137010', 'mgs': 0, 'depth': -0.446, 'time': 9.75, 'pitch': -1.78, 'roll': -5.18}
{'lipoC2': 8.27, 'temp': 29.13, 'lipoC3S3': 12.64, 'rot1': 257, 'rot0': 109, 'rot3': 0, 'rot2': 0, 'state': 'normal', 'yaw': 2.45, 'datetime': '2018-10-12 19:07:21.234345', 'mgs': 0, 'depth': -0.903, 'time': 9.85, 'pitch': -1.8, 'roll': -5.15}
{'lipoC2': 8.27, 'temp': 29.13, 'lipoC3S3': 12.67, 'rot1': 261, 'rot0': 110, 'rot3': 0, 'rot2': 0, 'state': 'normal', 'yaw': 2.44, 'datetime': '2018-10-12 19:07:21.331856', 'mgs': 0, 'depth': -0.903, 'time': 9.94, 'pitch': -1.79, 'roll': -5.15}
{'lipoC2': 8.27, 'temp': 29.13, 'lipoC3S3': 12.64, 'rot1': 264, 'rot0': 112, 'rot3': 0, 'rot2': 0, 'state': 'normal', 'yaw': 2.45, 'datetime': '2018-10-12 19:07:21.429106', 'mgs': 0, 'depth': -0.827, 'time': 10.04, 'pitch': -1.8, 'roll': -5.11}
{'lipoC2': 8.27, 'temp': 29.13, 'lipoC3S3': 12.64, 'rot1': 268, 'rot0': 114, 'rot3': 0, 'rot2': 0, 'state': 'normal', 'yaw': 2.45, 'datetime': '2018-10-12 19:07:21.526178', 'mgs': 0, 'depth': -0.751, 'time': 10.14, 'pitch': -1.81, 'roll': -5.15}
{'lipoC2': 8.26, 'temp': 29.13, 'lipoC3S3': 12.62, 'rot1': 271, 'rot0': 116, 'rot3': 0, 'rot2': 0, 'state': 'normal', 'yaw': 2.45, 'datetime': '2018-10-12 19:07:21.623501', 'mgs': 0, 'depth': -0.98, 'time': 10.24, 'pitch': -1.81, 'roll': -5.11}
{'lipoC2': 8.28, 'temp': 29.13, 'lipoC3S3': 12.64, 'rot1': 275, 'rot0': 118, 'rot3': 0, 'rot2': 0, 'state': 'normal', 'yaw': 2.45, 'datetime': '2018-10-12 19:07:21.721358', 'mgs': 0, 'depth': -1.59, 'time': 10.33, 'pitch': -1.8, 'roll': -5.12}
{'lipoC2': 8.27, 'temp': 29.19, 'lipoC3S3': 12.64, 'rot1': 279, 'rot0': 119, 'rot3': 0, 'rot2': 0, 'state': 'normal', 'yaw': 2.45, 'datetime': '2018-10-12 19:07:21.819941', 'mgs': 0, 'depth': -0.903, 'time': 10.43, 'pitch': -1.82, 'roll': -5.1}
{'lipoC2': 8.27, 'temp': 29.19, 'lipoC3S3': 12.66, 'rot1': 282, 'rot0': 121, 'rot3': 0, 'rot2': 0, 'state': 'normal', 'yaw': 2.45, 'datetime': '2018-10-12 19:07:21.918476', 'mgs': 0, 'depth': -0.598, 'time': 10.53, 'pitch': -1.83, 'roll': -5.1}
{'lipoC2': 8.27, 'temp': 29.19, 'lipoC3S3': 12.66, 'rot1': 285, 'rot0': 123, 'rot3': 0, 'rot2': 0, 'state': 'normal', 'yaw': 2.46, 'datetime': '2018-10-12 19:07:22.016594', 'mgs': 0, 'depth': -0.903, 'time': 10.63, 'pitch': -1.82, 'roll': -5.07}
{'lipoC2': 8.26, 'temp': 29.19, 'lipoC3S3': 12.64, 'rot1': 287, 'rot0': 125, 'rot3': 0, 'rot2': 0, 'state': 'normal', 'yaw': 2.44, 'datetime': '2018-10-12 19:07:22.113721', 'mgs': 0, 'depth': -0.446, 'time': 10.73, 'pitch': -1.82, 'roll': -5.08}
{'lipoC2': 8.27, 'temp': 29.19, 'lipoC3S3': 12.66, 'rot1': 288, 'rot0': 127, 'rot3': 0, 'rot2': 0, 'state': 'normal', 'yaw': 2.45, 'datetime': '2018-10-12 19:07:22.211638', 'mgs': 0, 'depth': -0.903, 'time': 10.82, 'pitch': -1.83, 'roll': -5.06}
{'lipoC2': 8.27, 'temp': 29.13, 'lipoC3S3': 12.67, 'rot1': 290, 'rot0': 129, 'rot3': 0, 'rot2': 0, 'state': 'normal', 'yaw': 2.44, 'datetime': '2018-10-12 19:07:22.310311', 'mgs': 0, 'depth': -0.98, 'time': 10.92, 'pitch': -1.84, 'roll': -5.08}
{'lipoC2': 8.27, 'temp': 29.13, 'lipoC3S3': 12.66, 'rot1': 291, 'rot0': 130, 'rot3': 0, 'rot2': 0, 'state': 'normal', 'yaw': 2.45, 'datetime': '2018-10-12 19:07:22.408721', 'mgs': 0, 'depth': -0.903, 'time': 11.02, 'pitch': -1.87, 'roll': -5.04}
{'lipoC2': 8.27, 'temp': 29.13, 'lipoC3S3': 12.66, 'rot1': 292, 'rot0': 132, 'rot3': 0, 'rot2': 0, 'state': 'normal', 'yaw': 2.46, 'datetime': '2018-10-12 19:07:22.506030', 'mgs': 0, 'depth': -0.98, 'time': 11.12, 'pitch': -1.88, 'roll': -5.05}
{'lipoC2': 8.27, 'temp': 29.13, 'lipoC3S3': 12.64, 'rot1': 293, 'rot0': 134, 'rot3': 0, 'rot2': 0, 'state': 'normal', 'yaw': 2.45, 'datetime': '2018-10-12 19:07:22.603257', 'mgs': 0, 'depth': -0.827, 'time': 11.22, 'pitch': -1.88, 'roll': -5.02}
{'lipoC2': 8.27, 'temp': 29.13, 'lipoC3S3': 12.64, 'rot1': 294, 'rot0': 136, 'rot3': 0, 'rot2': 0, 'state': 'normal', 'yaw': 2.45, 'datetime': '2018-10-12 19:07:22.701809', 'mgs': 0, 'depth': -1.208, 'time': 11.32, 'pitch': -1.88, 'roll': -5.05}
{'lipoC2': 8.27, 'temp': 29.19, 'lipoC3S3': 12.64, 'rot1': 296, 'rot0': 138, 'rot3': 0, 'rot2': 0, 'state': 'normal', 'yaw': 2.46, 'datetime': '2018-10-12 19:07:22.803139', 'mgs': 0, 'depth': -0.98, 'time': 11.41, 'pitch': -1.9, 'roll': -5.0}
{'lipoC2': 8.27, 'temp': 29.19, 'lipoC3S3': 12.63, 'rot1': 298, 'rot0': 140, 'rot3': 0, 'rot2': 0, 'state': 'normal', 'yaw': 2.46, 'datetime': '2018-10-12 19:07:22.898773', 'mgs': 0, 'depth': -0.903, 'time': 11.51, 'pitch': -1.89, 'roll': -5.04}
{'lipoC2': 8.27, 'temp': 29.19, 'lipoC3S3': 12.66, 'rot1': 300, 'rot0': 141, 'rot3': 0, 'rot2': 0, 'state': 'normal', 'yaw': 2.45, 'datetime': '2018-10-12 19:07:22.993030', 'mgs': 0, 'depth': -0.98, 'time': 11.61, 'pitch': -1.89, 'roll': -5.0}
{'lipoC2': 8.26, 'temp': 29.13, 'lipoC3S3': 12.64, 'rot1': 303, 'rot0': 143, 'rot3': 0, 'rot2': 0, 'state': 'normal', 'yaw': 2.44, 'datetime': '2018-10-12 19:07:23.093525', 'mgs': 0, 'depth': -0.98, 'time': 11.71, 'pitch': -1.89, 'roll': -5.04}
{'lipoC2': 8.27, 'temp': 29.13, 'lipoC3S3': 12.66, 'rot1': 305, 'rot0': 145, 'rot3': 0, 'rot2': 0, 'state': 'normal', 'yaw': 2.45, 'datetime': '2018-10-12 19:07:23.192075', 'mgs': 0, 'depth': -0.903, 'time': 11.81, 'pitch': -1.88, 'roll': -5.01}
{'lipoC2': 8.27, 'temp': 29.13, 'lipoC3S3': 12.66, 'rot1': 308, 'rot0': 147, 'rot3': 0, 'rot2': 0, 'state': 'normal', 'yaw': 2.45, 'datetime': '2018-10-12 19:07:23.290633', 'mgs': 0, 'depth': -0.903, 'time': 11.91, 'pitch': -1.88, 'roll': -5.02}
{'lipoC2': 8.26, 'temp': 29.13, 'lipoC3S3': 12.66, 'rot1': 310, 'rot0': 149, 'rot3': 0, 'rot2': 0, 'state': 'normal', 'yaw': 2.44, 'datetime': '2018-10-12 19:07:23.387867', 'mgs': 0, 'depth': -0.598, 'time': 12.0, 'pitch': -1.88, 'roll': -4.99}
{'lipoC2': 8.27, 'temp': 29.13, 'lipoC3S3': 12.64, 'rot1': 312, 'rot0': 150, 'rot3': 0, 'rot2': 0, 'state': 'normal', 'yaw': 2.45, 'datetime': '2018-10-12 19:07:23.485081', 'mgs': 0, 'depth': -0.827, 'time': 12.1, 'pitch': -1.88, 'roll': -5.01}
{'lipoC2': 8.27, 'temp': 29.13, 'lipoC3S3': 12.66, 'rot1': 314, 'rot0': 152, 'rot3': 0, 'rot2': 0, 'state': 'normal', 'yaw': 2.46, 'datetime': '2018-10-12 19:07:23.583405', 'mgs': 0, 'depth': -0.903, 'time': 12.2, 'pitch': -1.86, 'roll': -4.96}
{'lipoC2': 8.27, 'temp': 29.13, 'lipoC3S3': 12.64, 'rot1': 317, 'rot0': 154, 'rot3': 0, 'rot2': 0, 'state': 'normal', 'yaw': 2.46, 'datetime': '2018-10-12 19:07:23.680666', 'mgs': 0, 'depth': -1.056, 'time': 12.3, 'pitch': -1.86, 'roll': -5.0}
{'lipoC2': 8.27, 'temp': 29.19, 'lipoC3S3': 12.63, 'rot1': 320, 'rot0': 156, 'rot3': 0, 'rot2': 0, 'state': 'normal', 'yaw': 2.46, 'datetime': '2018-10-12 19:07:23.777995', 'mgs': 0, 'depth': -1.437, 'time': 12.39, 'pitch': -1.86, 'roll': -4.96}
{'lipoC2': 8.26, 'temp': 29.19, 'lipoC3S3': 12.64, 'rot1': 324, 'rot0': 158, 'rot3': 0, 'rot2': 0, 'state': 'normal', 'yaw': 2.45, 'datetime': '2018-10-12 19:07:23.875325', 'mgs': 0, 'depth': -0.903, 'time': 12.49, 'pitch': -1.85, 'roll': -5.01}
{'lipoC2': 8.27, 'temp': 29.19, 'lipoC3S3': 12.64, 'rot1': 327, 'rot0': 160, 'rot3': 0, 'rot2': 0, 'state': 'normal', 'yaw': 2.46, 'datetime': '2018-10-12 19:07:23.974016', 'mgs': 0, 'depth': -0.903, 'time': 12.59, 'pitch': -1.85, 'roll': -5.01}
{'lipoC2': 8.27, 'temp': 29.19, 'lipoC3S3': 12.64, 'rot1': 331, 'rot0': 162, 'rot3': 0, 'rot2': 0, 'state': 'normal', 'yaw': 2.46, 'datetime': '2018-10-12 19:07:24.072693', 'mgs': 0, 'depth': -0.98, 'time': 12.69, 'pitch': -1.84, 'roll': -5.04}
{'lipoC2': 8.27, 'temp': 29.19, 'lipoC3S3': 12.64, 'rot1': 334, 'rot0': 164, 'rot3': 0, 'rot2': 0, 'state': 'normal', 'yaw': 2.45, 'datetime': '2018-10-12 19:07:24.170388', 'mgs': 0, 'depth': -0.522, 'time': 12.78, 'pitch': -1.83, 'roll': -5.02}
{'lipoC2': 8.27, 'temp': 29.13, 'lipoC3S3': 12.6, 'rot1': 338, 'rot0': 165, 'rot3': 0, 'rot2': 0, 'state': 'normal', 'yaw': 2.46, 'datetime': '2018-10-12 19:07:24.267524', 'mgs': 0, 'depth': -0.98, 'time': 12.88, 'pitch': -1.84, 'roll': -5.02}
{'lipoC2': 8.27, 'temp': 29.13, 'lipoC3S3': 12.64, 'rot1': 341, 'rot0': 167, 'rot3': 0, 'rot2': 0, 'state': 'normal', 'yaw': 2.47, 'datetime': '2018-10-12 19:07:24.365465', 'mgs': 0, 'depth': -0.98, 'time': 12.98, 'pitch': -1.81, 'roll': -5.02}
{'lipoC2': 8.27, 'temp': 29.13, 'lipoC3S3': 12.64, 'rot1': 345, 'rot0': 169, 'rot3': 0, 'rot2': 0, 'state': 'normal', 'yaw': 2.45, 'datetime': '2018-10-12 19:07:24.464017', 'mgs': 0, 'depth': -1.59, 'time': 13.08, 'pitch': -1.81, 'roll': -5.05}
{'lipoC2': 8.27, 'temp': 29.19, 'lipoC3S3': 12.64, 'rot1': 348, 'rot0': 171, 'rot3': 0, 'rot2': 0, 'state': 'normal', 'yaw': 2.45, 'datetime': '2018-10-12 19:07:24.562385', 'mgs': 0, 'depth': -0.827, 'time': 13.18, 'pitch': -1.82, 'roll': -5.04}
{'lipoC2': 8.27, 'temp': 29.19, 'lipoC3S3': 12.62, 'rot1': 352, 'rot0': 173, 'rot3': 0, 'rot2': 0, 'state': 'normal', 'yaw': 2.45, 'datetime': '2018-10-12 19:07:24.659741', 'mgs': 0, 'depth': -0.903, 'time': 13.28, 'pitch': -1.81, 'roll': -5.06}
{'lipoC2': 8.27, 'temp': 29.19, 'lipoC3S3': 12.64, 'rot1': 356, 'rot0': 175, 'rot3': 0, 'rot2': 0, 'state': 'normal', 'yaw': 2.45, 'datetime': '2018-10-12 19:07:24.757009', 'mgs': 0, 'depth': -0.903, 'time': 13.37, 'pitch': -1.8, 'roll': -5.05}
{'lipoC2': 8.27, 'temp': 29.19, 'lipoC3S3': 12.64, 'rot1': 360, 'rot0': 177, 'rot3': 0, 'rot2': 0, 'state': 'normal', 'yaw': 2.45, 'datetime': '2018-10-12 19:07:24.855382', 'mgs': 0, 'depth': -0.903, 'time': 13.47, 'pitch': -1.79, 'roll': -5.07}
{'lipoC2': 8.27, 'temp': 29.19, 'lipoC3S3': 12.66, 'rot1': 365, 'rot0': 178, 'rot3': 0, 'rot2': 0, 'state': 'normal', 'yaw': 2.44, 'datetime': '2018-10-12 19:07:24.954023', 'mgs': 0, 'depth': -0.903, 'time': 13.57, 'pitch': -1.79, 'roll': -5.07}
{'lipoC2': 8.27, 'temp': 29.19, 'lipoC3S3': 12.64, 'rot1': 369, 'rot0': 180, 'rot3': 0, 'rot2': 0, 'state': 'normal', 'yaw': 2.42, 'datetime': '2018-10-12 19:07:25.052652', 'mgs': 0, 'depth': -0.903, 'time': 13.67, 'pitch': -1.79, 'roll': -5.09}
{'lipoC2': 8.27, 'temp': 29.19, 'lipoC3S3': 12.66, 'rot1': 374, 'rot0': 182, 'rot3': 0, 'rot2': 0, 'state': 'normal', 'yaw': 2.42, 'datetime': '2018-10-12 19:07:25.149925', 'mgs': 0, 'depth': -0.446, 'time': 13.77, 'pitch': -1.79, 'roll': -5.09}
{'lipoC2': 8.26, 'temp': 29.19, 'lipoC3S3': 12.6, 'rot1': 379, 'rot0': 184, 'rot3': 0, 'rot2': 0, 'state': 'normal', 'yaw': 2.44, 'datetime': '2018-10-12 19:07:25.247174', 'mgs': 0, 'depth': -0.903, 'time': 13.86, 'pitch': -1.77, 'roll': -5.12}
{'lipoC2': 8.27, 'temp': 29.19, 'lipoC3S3': 12.64, 'rot1': 384, 'rot0': 186, 'rot3': 0, 'rot2': 0, 'state': 'normal', 'yaw': 2.43, 'datetime': '2018-10-12 19:07:25.345841', 'mgs': 0, 'depth': -0.98, 'time': 13.96, 'pitch': -1.77, 'roll': -5.12}
{'lipoC2': 8.27, 'temp': 29.13, 'lipoC3S3': 12.64, 'rot1': 388, 'rot0': 188, 'rot3': 0, 'rot2': 0, 'state': 'normal', 'yaw': 2.43, 'datetime': '2018-10-12 19:07:25.444335', 'mgs': 0, 'depth': -1.132, 'time': 14.06, 'pitch': -1.77, 'roll': -5.12}
{'lipoC2': 8.27, 'temp': 29.13, 'lipoC3S3': 12.63, 'rot1': 393, 'rot0': 189, 'rot3': 0, 'rot2': 0, 'state': 'normal', 'yaw': 2.43, 'datetime': '2018-10-12 19:07:25.541722', 'mgs': 0, 'depth': -0.98, 'time': 14.16, 'pitch': -1.76, 'roll': -5.12}
{'lipoC2': 8.27, 'temp': 29.13, 'lipoC3S3': 12.66, 'rot1': 398, 'rot0': 191, 'rot3': 0, 'rot2': 0, 'state': 'normal', 'yaw': 2.43, 'datetime': '2018-10-12 19:07:25.639102', 'mgs': 0, 'depth': -0.903, 'time': 14.26, 'pitch': -1.75, 'roll': -5.14}
{'lipoC2': 8.27, 'temp': 29.19, 'lipoC3S3': 12.6, 'rot1': 402, 'rot0': 193, 'rot3': 0, 'rot2': 0, 'state': 'normal', 'yaw': 2.43, 'datetime': '2018-10-12 19:07:25.736925', 'mgs': 0, 'depth': -0.903, 'time': 14.35, 'pitch': -1.75, 'roll': -5.14}
{'lipoC2': 8.26, 'temp': 29.19, 'lipoC3S3': 12.66, 'rot1': 407, 'rot0': 195, 'rot3': 0, 'rot2': 0, 'state': 'normal', 'yaw': 2.43, 'datetime': '2018-10-12 19:07:25.834490', 'mgs': 0, 'depth': -0.903, 'time': 14.45, 'pitch': -1.76, 'roll': -5.15}
{'lipoC2': 8.27, 'temp': 29.13, 'lipoC3S3': 12.64, 'rot1': 412, 'rot0': 197, 'rot3': 0, 'rot2': 0, 'state': 'normal', 'yaw': 2.43, 'datetime': '2018-10-12 19:07:25.931506', 'mgs': 0, 'depth': -1.056, 'time': 14.55, 'pitch': -1.75, 'roll': -5.16}
{'lipoC2': 8.27, 'temp': 29.13, 'lipoC3S3': 12.63, 'rot1': 416, 'rot0': 199, 'rot3': 0, 'rot2': 0, 'state': 'normal', 'yaw': 2.43, 'datetime': '2018-10-12 19:07:26.028798', 'mgs': 0, 'depth': -1.361, 'time': 14.65, 'pitch': -1.74, 'roll': -5.17}
{'lipoC2': 8.28, 'temp': 29.13, 'lipoC3S3': 12.64, 'rot1': 421, 'rot0': 200, 'rot3': 0, 'rot2': 0, 'state': 'normal', 'yaw': 2.43, 'datetime': '2018-10-12 19:07:26.127465', 'mgs': 0, 'depth': -0.598, 'time': 14.74, 'pitch': -1.74, 'roll': -5.17}
{'lipoC2': 8.26, 'temp': 29.13, 'lipoC3S3': 12.64, 'rot1': 426, 'rot0': 202, 'rot3': 0, 'rot2': 0, 'state': 'normal', 'yaw': 2.43, 'datetime': '2018-10-12 19:07:26.226143', 'mgs': 0, 'depth': -0.522, 'time': 14.84, 'pitch': -1.74, 'roll': -5.19}
{'lipoC2': 8.27, 'temp': 29.13, 'lipoC3S3': 12.64, 'rot1': 431, 'rot0': 204, 'rot3': 0, 'rot2': 0, 'state': 'normal', 'yaw': 2.43, 'datetime': '2018-10-12 19:07:26.323413', 'mgs': 0, 'depth': -1.59, 'time': 14.94, 'pitch': -1.72, 'roll': -5.17}
{'lipoC2': 8.27, 'temp': 29.19, 'lipoC3S3': 12.64, 'rot1': 435, 'rot0': 206, 'rot3': 0, 'rot2': 0, 'state': 'normal', 'yaw': 2.44, 'datetime': '2018-10-12 19:07:26.420872', 'mgs': 0, 'depth': -0.903, 'time': 15.04, 'pitch': -1.72, 'roll': -5.19}
{'lipoC2': 8.27, 'temp': 29.19, 'lipoC3S3': 12.64, 'rot1': 440, 'rot0': 208, 'rot3': 0, 'rot2': 0, 'state': 'normal', 'yaw': 2.42, 'datetime': '2018-10-12 19:07:26.518718', 'mgs': 0, 'depth': -0.827, 'time': 15.14, 'pitch': -1.71, 'roll': -5.19}
{'lipoC2': 8.27, 'temp': 29.19, 'lipoC3S3': 12.66, 'rot1': 445, 'rot0': 210, 'rot3': 0, 'rot2': 0, 'state': 'normal', 'yaw': 2.43, 'datetime': '2018-10-12 19:07:26.617282', 'mgs': 0, 'depth': -0.446, 'time': 15.23, 'pitch': -1.71, 'roll': -5.2}
{'lipoC2': 8.27, 'temp': 29.19, 'lipoC3S3': 12.64, 'rot1': 449, 'rot0': 212, 'rot3': 0, 'rot2': 0, 'state': 'normal', 'yaw': 2.44, 'datetime': '2018-10-12 19:07:26.715885', 'mgs': 0, 'depth': -0.217, 'time': 15.33, 'pitch': -1.7, 'roll': -5.2}
{'lipoC2': 8.26, 'temp': 29.19, 'lipoC3S3': 12.59, 'rot1': 454, 'rot0': 214, 'rot3': 0, 'rot2': 0, 'state': 'normal', 'yaw': 2.43, 'datetime': '2018-10-12 19:07:26.813191', 'mgs': 0, 'depth': -0.98, 'time': 15.43, 'pitch': -1.7, 'roll': -5.2}
{'lipoC2': 8.27, 'temp': 29.19, 'lipoC3S3': 12.64, 'rot1': 458, 'rot0': 216, 'rot3': 0, 'rot2': 0, 'state': 'normal', 'yaw': 2.42, 'datetime': '2018-10-12 19:07:26.910490', 'mgs': 0, 'depth': -0.903, 'time': 15.53, 'pitch': -1.7, 'roll': -5.2}
{'lipoC2': 8.27, 'temp': 29.19, 'lipoC3S3': 12.64, 'rot1': 463, 'rot0': 217, 'rot3': 0, 'rot2': 0, 'state': 'normal', 'yaw': 2.43, 'datetime': '2018-10-12 19:07:27.008740', 'mgs': 0, 'depth': -0.827, 'time': 15.63, 'pitch': -1.7, 'roll': -5.2}
{'lipoC2': 8.27, 'temp': 29.19, 'lipoC3S3': 12.66, 'rot1': 468, 'rot0': 219, 'rot3': 0, 'rot2': 0, 'state': 'normal', 'yaw': 2.43, 'datetime': '2018-10-12 19:07:27.107350', 'mgs': 0, 'depth': -0.903, 'time': 15.73, 'pitch': -1.7, 'roll': -5.2}
{'lipoC2': 8.26, 'temp': 29.19, 'lipoC3S3': 12.64, 'rot1': 473, 'rot0': 221, 'rot3': 0, 'rot2': 0, 'state': 'normal', 'yaw': 2.43, 'datetime': '2018-10-12 19:07:27.205836', 'mgs': 0, 'depth': -0.903, 'time': 15.82, 'pitch': -1.7, 'roll': -5.2}
{'lipoC2': 8.27, 'temp': 29.19, 'lipoC3S3': 12.64, 'rot1': 478, 'rot0': 223, 'rot3': 0, 'rot2': 0, 'state': 'normal', 'yaw': 2.42, 'datetime': '2018-10-12 19:07:27.305983', 'mgs': 0, 'depth': -0.522, 'time': 15.92, 'pitch': -1.7, 'roll': -5.2}
{'lipoC2': 8.26, 'temp': 29.19, 'lipoC3S3': 12.59, 'rot1': 482, 'rot0': 225, 'rot3': 0, 'rot2': 0, 'state': 'normal', 'yaw': 2.42, 'datetime': '2018-10-12 19:07:27.400515', 'mgs': 0, 'depth': -0.98, 'time': 16.02, 'pitch': -1.7, 'roll': -5.2}
{'lipoC2': 8.26, 'temp': 29.19, 'lipoC3S3': 12.6, 'rot1': 487, 'rot0': 227, 'rot3': 0, 'rot2': 0, 'state': 'normal', 'yaw': 2.43, 'datetime': '2018-10-12 19:07:27.498995', 'mgs': 0, 'depth': -0.98, 'time': 16.12, 'pitch': -1.7, 'roll': -5.2}
{'lipoC2': 8.27, 'temp': 29.19, 'lipoC3S3': 12.6, 'rot1': 491, 'rot0': 228, 'rot3': 0, 'rot2': 0, 'state': 'normal', 'yaw': 2.43, 'datetime': '2018-10-12 19:07:27.597567', 'mgs': 0, 'depth': -0.98, 'time': 16.22, 'pitch': -1.7, 'roll': -5.2}
{'lipoC2': 8.27, 'temp': 29.19, 'lipoC3S3': 12.64, 'rot1': 496, 'rot0': 230, 'rot3': 0, 'rot2': 0, 'state': 'normal', 'yaw': 2.43, 'datetime': '2018-10-12 19:07:27.694863', 'mgs': 0, 'depth': -0.98, 'time': 16.31, 'pitch': -1.7, 'roll': -5.2}
{'lipoC2': 8.27, 'temp': 29.19, 'lipoC3S3': 12.64, 'rot1': 501, 'rot0': 232, 'rot3': 0, 'rot2': 0, 'state': 'normal', 'yaw': 2.42, 'datetime': '2018-10-12 19:07:27.792230', 'mgs': 0, 'depth': -0.903, 'time': 16.41, 'pitch': -1.7, 'roll': -5.2}
{'lipoC2': 8.27, 'temp': 29.19, 'lipoC3S3': 12.59, 'rot1': 505, 'rot0': 234, 'rot3': 0, 'rot2': 0, 'state': 'normal', 'yaw': 2.42, 'datetime': '2018-10-12 19:07:27.890382', 'mgs': 0, 'depth': -0.903, 'time': 16.51, 'pitch': -1.7, 'roll': -5.2}
{'lipoC2': 8.27, 'temp': 29.19, 'lipoC3S3': 12.66, 'rot1': 510, 'rot0': 236, 'rot3': 0, 'rot2': 0, 'state': 'normal', 'yaw': 2.43, 'datetime': '2018-10-12 19:07:27.987614', 'mgs': 0, 'depth': -0.903, 'time': 16.61, 'pitch': -1.7, 'roll': -5.2}
{'lipoC2': 8.27, 'temp': 29.19, 'lipoC3S3': 12.66, 'rot1': 515, 'rot0': 237, 'rot3': 0, 'rot2': 0, 'state': 'normal', 'yaw': 2.43, 'datetime': '2018-10-12 19:07:28.084939', 'mgs': 0, 'depth': -1.056, 'time': 16.7, 'pitch': -1.7, 'roll': -5.2}
{'lipoC2': 8.27, 'temp': 29.19, 'lipoC3S3': 12.63, 'rot1': 519, 'rot0': 239, 'rot3': 0, 'rot2': 0, 'state': 'normal', 'yaw': 2.43, 'datetime': '2018-10-12 19:07:28.182206', 'mgs': 0, 'depth': -0.903, 'time': 16.8, 'pitch': -1.7, 'roll': -5.2}
{'lipoC2': 8.26, 'temp': 29.19, 'lipoC3S3': 12.64, 'rot1': 524, 'rot0': 241, 'rot3': 0, 'rot2': 0, 'state': 'normal', 'yaw': 2.42, 'datetime': '2018-10-12 19:07:28.280954', 'mgs': 0, 'depth': -0.369, 'time': 16.9, 'pitch': -1.7, 'roll': -5.2}
{'lipoC2': 8.27, 'temp': 29.19, 'lipoC3S3': 12.64, 'rot1': 528, 'rot0': 243, 'rot3': 0, 'rot2': 0, 'state': 'normal', 'yaw': 2.43, 'datetime': '2018-10-12 19:07:28.379489', 'mgs': 0, 'depth': -0.446, 'time': 17.0, 'pitch': -1.7, 'roll': -5.2}
{'lipoC2': 8.27, 'temp': 29.19, 'lipoC3S3': 12.66, 'rot1': 533, 'rot0': 245, 'rot3': 0, 'rot2': 0, 'state': 'normal', 'yaw': 2.43, 'datetime': '2018-10-12 19:07:28.478090', 'mgs': 0, 'depth': -0.446, 'time': 17.1, 'pitch': -1.7, 'roll': -5.2}
{'lipoC2': 8.27, 'temp': 29.19, 'lipoC3S3': 12.63, 'rot1': 538, 'rot0': 247, 'rot3': 0, 'rot2': 0, 'state': 'normal', 'yaw': 2.42, 'datetime': '2018-10-12 19:07:28.575431', 'mgs': 0, 'depth': -0.903, 'time': 17.19, 'pitch': -1.7, 'roll': -5.2}
{'lipoC2': 8.27, 'temp': 29.19, 'lipoC3S3': 12.66, 'rot1': 542, 'rot0': 248, 'rot3': 0, 'rot2': 0, 'state': 'normal', 'yaw': 2.42, 'datetime': '2018-10-12 19:07:28.672696', 'mgs': 0, 'depth': -0.98, 'time': 17.29, 'pitch': -1.7, 'roll': -5.2}
{'lipoC2': 8.26, 'temp': 29.19, 'lipoC3S3': 12.62, 'rot1': 547, 'rot0': 250, 'rot3': 0, 'rot2': 0, 'state': 'normal', 'yaw': 2.42, 'datetime': '2018-10-12 19:07:28.771367', 'mgs': 0, 'depth': -0.903, 'time': 17.39, 'pitch': -1.7, 'roll': -5.2}
{'lipoC2': 8.26, 'temp': 29.19, 'lipoC3S3': 12.59, 'rot1': 552, 'rot0': 252, 'rot3': 0, 'rot2': 0, 'state': 'normal', 'yaw': 2.42, 'datetime': '2018-10-12 19:07:28.870183', 'mgs': 0, 'depth': -0.903, 'time': 17.49, 'pitch': -1.7, 'roll': -5.2}
{'lipoC2': 8.26, 'temp': 29.19, 'lipoC3S3': 12.66, 'rot1': 554, 'rot0': 253, 'rot3': 0, 'rot2': 0, 'state': 'normal', 'yaw': 2.4, 'datetime': '2018-10-12 19:07:28.967693', 'mgs': 0, 'depth': -0.903, 'time': 17.59, 'pitch': -1.7, 'roll': -5.2}
{'lipoC2': 8.27, 'temp': 29.19, 'lipoC3S3': 12.66, 'rot1': 554, 'rot0': 253, 'rot3': 0, 'rot2': 0, 'state': 'normal', 'yaw': 2.41, 'datetime': '2018-10-12 19:07:29.064962', 'mgs': 0, 'depth': -0.903, 'time': 17.68, 'pitch': -1.7, 'roll': -5.2}
{'lipoC2': 8.27, 'temp': 29.19, 'lipoC3S3': 12.55, 'rot1': 554, 'rot0': 253, 'rot3': 0, 'rot2': 0, 'state': 'normal', 'yaw': 2.42, 'datetime': '2018-10-12 19:07:29.162871', 'mgs': 0, 'depth': -0.674, 'time': 17.78, 'pitch': -1.7, 'roll': -5.2}
{'lipoC2': 8.28, 'temp': 29.19, 'lipoC3S3': 12.52, 'rot1': 557, 'rot0': 259, 'rot3': 1, 'rot2': 1, 'state': 'normal', 'yaw': 2.42, 'datetime': '2018-10-12 19:07:29.261505', 'mgs': 0, 'depth': 0.317, 'time': 17.88, 'pitch': -1.7, 'roll': -5.2}
{'lipoC2': 8.27, 'temp': 29.19, 'lipoC3S3': 12.51, 'rot1': 561, 'rot0': 262, 'rot3': 1, 'rot2': 2, 'state': 'normal', 'yaw': 2.42, 'datetime': '2018-10-12 19:07:29.359893', 'mgs': 0, 'depth': -1.285, 'time': 17.98, 'pitch': -1.7, 'roll': -5.2}
{'lipoC2': 8.27, 'temp': 29.19, 'lipoC3S3': 12.59, 'rot1': 565, 'rot0': 265, 'rot3': 2, 'rot2': 3, 'state': 'normal', 'yaw': 2.41, 'datetime': '2018-10-12 19:07:29.457275', 'mgs': 0, 'depth': -0.903, 'time': 18.08, 'pitch': -1.7, 'roll': -5.19}
{'lipoC2': 8.27, 'temp': 29.19, 'lipoC3S3': 12.6, 'rot1': 569, 'rot0': 268, 'rot3': 3, 'rot2': 4, 'state': 'normal', 'yaw': 2.41, 'datetime': '2018-10-12 19:07:29.554352', 'mgs': 0, 'depth': 0.089, 'time': 18.18, 'pitch': -1.69, 'roll': -5.16}
{'lipoC2': 8.27, 'temp': 29.19, 'lipoC3S3': 12.6, 'rot1': 573, 'rot0': 271, 'rot3': 3, 'rot2': 5, 'state': 'normal', 'yaw': 2.42, 'datetime': '2018-10-12 19:07:29.652938', 'mgs': 0, 'depth': -0.827, 'time': 18.27, 'pitch': -1.7, 'roll': -5.15}
{'lipoC2': 8.26, 'temp': 29.19, 'lipoC3S3': 12.6, 'rot1': 577, 'rot0': 274, 'rot3': 4, 'rot2': 6, 'state': 'normal', 'yaw': 2.43, 'datetime': '2018-10-12 19:07:29.751547', 'mgs': 0, 'depth': -0.674, 'time': 18.37, 'pitch': -1.71, 'roll': -5.15}
{'lipoC2': 8.27, 'temp': 29.19, 'lipoC3S3': 12.6, 'rot1': 581, 'rot0': 277, 'rot3': 5, 'rot2': 7, 'state': 'normal', 'yaw': 2.43, 'datetime': '2018-10-12 19:07:29.849129', 'mgs': 0, 'depth': -0.751, 'time': 18.47, 'pitch': -1.71, 'roll': -5.14}
{'lipoC2': 8.28, 'temp': 29.19, 'lipoC3S3': 12.56, 'rot1': 584, 'rot0': 281, 'rot3': 5, 'rot2': 7, 'state': 'normal', 'yaw': 2.43, 'datetime': '2018-10-12 19:07:29.946346', 'mgs': 0, 'depth': -0.369, 'time': 18.57, 'pitch': -1.71, 'roll': -5.13}
{'lipoC2': 8.27, 'temp': 29.19, 'lipoC3S3': 12.6, 'rot1': 588, 'rot0': 284, 'rot3': 6, 'rot2': 8, 'state': 'normal', 'yaw': 2.45, 'datetime': '2018-10-12 19:07:30.044785', 'mgs': 0, 'depth': -0.598, 'time': 18.67, 'pitch': -1.71, 'roll': -5.11}
{'lipoC2': 8.27, 'temp': 29.19, 'lipoC3S3': 12.6, 'rot1': 592, 'rot0': 287, 'rot3': 6, 'rot2': 9, 'state': 'normal', 'yaw': 2.46, 'datetime': '2018-10-12 19:07:30.141943', 'mgs': 0, 'depth': -0.598, 'time': 18.76, 'pitch': -1.71, 'roll': -5.11}
{'lipoC2': 8.28, 'temp': 29.19, 'lipoC3S3': 12.55, 'rot1': 596, 'rot0': 290, 'rot3': 7, 'rot2': 10, 'state': 'normal', 'yaw': 2.46, 'datetime': '2018-10-12 19:07:30.239305', 'mgs': 0, 'depth': 0.241, 'time': 18.86, 'pitch': -1.71, 'roll': -5.11}
{'lipoC2': 8.28, 'temp': 29.19, 'lipoC3S3': 12.56, 'rot1': 600, 'rot0': 293, 'rot3': 8, 'rot2': 11, 'state': 'normal', 'yaw': 2.45, 'datetime': '2018-10-12 19:07:30.337062', 'mgs': 0, 'depth': -0.827, 'time': 18.96, 'pitch': -1.71, 'roll': -5.11}
{'lipoC2': 8.25, 'temp': 29.19, 'lipoC3S3': 12.58, 'rot1': 604, 'rot0': 296, 'rot3': 8, 'rot2': 12, 'state': 'normal', 'yaw': 2.47, 'datetime': '2018-10-12 19:07:30.435289', 'mgs': 0, 'depth': -0.827, 'time': 19.06, 'pitch': -1.72, 'roll': -5.12}
{'lipoC2': 8.28, 'temp': 29.19, 'lipoC3S3': 12.52, 'rot1': 608, 'rot0': 300, 'rot3': 9, 'rot2': 13, 'state': 'normal', 'yaw': 2.47, 'datetime': '2018-10-12 19:07:30.533795', 'mgs': 0, 'depth': -1.437, 'time': 19.16, 'pitch': -1.72, 'roll': -5.11}
{'lipoC2': 8.28, 'temp': 29.19, 'lipoC3S3': 12.56, 'rot1': 612, 'rot0': 303, 'rot3': 10, 'rot2': 14, 'state': 'normal', 'yaw': 2.48, 'datetime': '2018-10-12 19:07:30.632765', 'mgs': 0, 'depth': 0.241, 'time': 19.25, 'pitch': -1.72, 'roll': -5.1}
{'lipoC2': 8.27, 'temp': 29.19, 'lipoC3S3': 12.59, 'rot1': 616, 'rot0': 306, 'rot3': 10, 'rot2': 15, 'state': 'normal', 'yaw': 2.47, 'datetime': '2018-10-12 19:07:30.730394', 'mgs': 0, 'depth': 0.241, 'time': 19.35, 'pitch': -1.72, 'roll': -5.09}
{'lipoC2': 8.27, 'temp': 29.19, 'lipoC3S3': 12.59, 'rot1': 620, 'rot0': 309, 'rot3': 11, 'rot2': 16, 'state': 'normal', 'yaw': 2.47, 'datetime': '2018-10-12 19:07:30.828003', 'mgs': 0, 'depth': -0.064, 'time': 19.45, 'pitch': -1.72, 'roll': -5.08}
