{'lipoC2': 7.96, 'temp': 27.31, 'lipoC3S3': 12.35, 'rot1': 0, 'rot0': 0, 'rot3': 0, 'rot2': 0, 'state': 'normal', 'yaw': 0.0, 'datetime': '2018-10-12 15:58:39.203233', 'mgs': 0, 'depth': -0.674, 'time': 1.26, 'pitch': -7.52, 'roll': 2.35}
{'lipoC2': 7.96, 'temp': 27.31, 'lipoC3S3': 12.35, 'rot1': 0, 'rot0': 0, 'rot3': 0, 'rot2': 0, 'state': 'normal', 'yaw': 0.08, 'datetime': '2018-10-12 15:58:39.220018', 'mgs': 0, 'depth': -0.674, 'time': 1.36, 'pitch': -7.05, 'roll': 1.78}
{'lipoC2': 7.96, 'temp': 27.31, 'lipoC3S3': 12.35, 'rot1': 0, 'rot0': 0, 'rot3': 0, 'rot2': 0, 'state': 'normal', 'yaw': 0.1, 'datetime': '2018-10-12 15:58:39.236855', 'mgs': 0, 'depth': -0.598, 'time': 1.45, 'pitch': -6.69, 'roll': 1.92}
{'lipoC2': 7.96, 'temp': 27.25, 'lipoC3S3': 12.35, 'rot1': 0, 'rot0': 0, 'rot3': 0, 'rot2': 0, 'state': 'normal', 'yaw': -0.03, 'datetime': '2018-10-12 15:58:39.250435', 'mgs': 0, 'depth': -0.674, 'time': 1.55, 'pitch': -6.04, 'roll': 2.27}
{'lipoC2': 7.96, 'temp': 27.25, 'lipoC3S3': 12.35, 'rot1': 0, 'rot0': 0, 'rot3': 0, 'rot2': 0, 'state': 'normal', 'yaw': -0.35, 'datetime': '2018-10-12 15:58:39.257787', 'mgs': 0, 'depth': -0.674, 'time': 1.65, 'pitch': -5.16, 'roll': 2.43}
{'lipoC2': 7.95, 'temp': 27.25, 'lipoC3S3': 12.35, 'rot1': 0, 'rot0': 0, 'rot3': 0, 'rot2': 0, 'state': 'normal', 'yaw': -0.69, 'datetime': '2018-10-12 15:58:39.265057', 'mgs': 0, 'depth': -0.674, 'time': 1.75, 'pitch': -4.44, 'roll': 2.11}
{'lipoC2': 7.96, 'temp': 27.25, 'lipoC3S3': 12.35, 'rot1': 0, 'rot0': 0, 'rot3': 0, 'rot2': 0, 'state': 'normal', 'yaw': -1.09, 'datetime': '2018-10-12 15:58:39.272340', 'mgs': 0, 'depth': -0.674, 'time': 1.85, 'pitch': -3.97, 'roll': 1.53}
{'lipoC2': 7.96, 'temp': 27.25, 'lipoC3S3': 12.35, 'rot1': 0, 'rot0': 0, 'rot3': 0, 'rot2': 0, 'state': 'normal', 'yaw': -1.58, 'datetime': '2018-10-12 15:58:39.279605', 'mgs': 0, 'depth': -0.751, 'time': 1.94, 'pitch': -3.42, 'roll': 0.44}
{'lipoC2': 7.96, 'temp': 27.25, 'lipoC3S3': 12.35, 'rot1': 0, 'rot0': 0, 'rot3': 0, 'rot2': 0, 'state': 'normal', 'yaw': -2.06, 'datetime': '2018-10-12 15:58:39.286869', 'mgs': 0, 'depth': -0.751, 'time': 2.04, 'pitch': -2.64, 'roll': -0.79}
{'lipoC2': 7.96, 'temp': 27.25, 'lipoC3S3': 12.35, 'rot1': 0, 'rot0': 0, 'rot3': 0, 'rot2': 0, 'state': 'normal', 'yaw': -2.53, 'datetime': '2018-10-12 15:58:39.346569', 'mgs': 0, 'depth': -0.751, 'time': 2.14, 'pitch': -2.39, 'roll': -1.0}
{'lipoC2': 7.96, 'temp': 27.31, 'lipoC3S3': 12.35, 'rot1': 0, 'rot0': 0, 'rot3': 0, 'rot2': 0, 'state': 'normal', 'yaw': -3.0, 'datetime': '2018-10-12 15:58:39.443709', 'mgs': 0, 'depth': -0.674, 'time': 2.23, 'pitch': -2.67, 'roll': -0.67}
{'lipoC2': 7.96, 'temp': 27.31, 'lipoC3S3': 12.34, 'rot1': 0, 'rot0': 0, 'rot3': 0, 'rot2': 0, 'state': 'normal', 'yaw': -3.38, 'datetime': '2018-10-12 15:58:39.540807', 'mgs': 0, 'depth': -0.751, 'time': 2.33, 'pitch': -3.06, 'roll': -0.41}
{'lipoC2': 7.96, 'temp': 27.25, 'lipoC3S3': 12.35, 'rot1': 0, 'rot0': 0, 'rot3': 0, 'rot2': 0, 'state': 'normal', 'yaw': -3.8, 'datetime': '2018-10-12 15:58:39.637907', 'mgs': 0, 'depth': -0.598, 'time': 2.43, 'pitch': -3.53, 'roll': -0.19}
{'lipoC2': 7.96, 'temp': 27.25, 'lipoC3S3': 12.35, 'rot1': 0, 'rot0': 0, 'rot3': 0, 'rot2': 0, 'state': 'normal', 'yaw': -4.02, 'datetime': '2018-10-12 15:58:39.735021', 'mgs': 0, 'depth': -0.598, 'time': 2.53, 'pitch': -3.58, 'roll': -0.19}
{'lipoC2': 7.96, 'temp': 27.25, 'lipoC3S3': 12.35, 'rot1': 0, 'rot0': 0, 'rot3': 0, 'rot2': 0, 'state': 'normal', 'yaw': -3.93, 'datetime': '2018-10-12 15:58:39.832171', 'mgs': 0, 'depth': -0.674, 'time': 2.62, 'pitch': -3.11, 'roll': -0.43}
{'lipoC2': 7.96, 'temp': 27.25, 'lipoC3S3': 12.34, 'rot1': 0, 'rot0': 0, 'rot3': 0, 'rot2': 0, 'state': 'normal', 'yaw': -3.65, 'datetime': '2018-10-12 15:58:39.929294', 'mgs': 0, 'depth': -0.674, 'time': 2.72, 'pitch': -2.32, 'roll': -0.78}
{'lipoC2': 7.96, 'temp': 27.25, 'lipoC3S3': 12.35, 'rot1': 0, 'rot0': 0, 'rot3': 0, 'rot2': 0, 'state': 'normal', 'yaw': -3.35, 'datetime': '2018-10-12 15:58:40.031400', 'mgs': 0, 'depth': -0.674, 'time': 2.82, 'pitch': -1.57, 'roll': -1.26}
{'lipoC2': 7.96, 'temp': 27.25, 'lipoC3S3': 12.35, 'rot1': 0, 'rot0': 0, 'rot3': 0, 'rot2': 0, 'state': 'normal', 'yaw': -3.13, 'datetime': '2018-10-12 15:58:40.129462', 'mgs': 0, 'depth': -0.598, 'time': 2.92, 'pitch': -1.17, 'roll': -1.57}
{'lipoC2': 7.96, 'temp': 27.25, 'lipoC3S3': 12.34, 'rot1': 0, 'rot0': 0, 'rot3': 0, 'rot2': 0, 'state': 'normal', 'yaw': -2.93, 'datetime': '2018-10-12 15:58:40.227850', 'mgs': 0, 'depth': -0.674, 'time': 3.01, 'pitch': -1.09, 'roll': -1.67}
{'lipoC2': 7.96, 'temp': 27.25, 'lipoC3S3': 12.35, 'rot1': 0, 'rot0': 0, 'rot3': 0, 'rot2': 0, 'state': 'normal', 'yaw': -2.84, 'datetime': '2018-10-12 15:58:40.325972', 'mgs': 0, 'depth': -0.674, 'time': 3.11, 'pitch': -1.47, 'roll': -1.76}
{'lipoC2': 7.96, 'temp': 27.25, 'lipoC3S3': 12.35, 'rot1': 0, 'rot0': 0, 'rot3': 0, 'rot2': 0, 'state': 'normal', 'yaw': -3.02, 'datetime': '2018-10-12 15:58:40.423058', 'mgs': 0, 'depth': -0.674, 'time': 3.21, 'pitch': -1.75, 'roll': -1.97}
{'lipoC2': 7.96, 'temp': 27.25, 'lipoC3S3': 12.35, 'rot1': 0, 'rot0': 0, 'rot3': 0, 'rot2': 0, 'state': 'normal', 'yaw': -3.36, 'datetime': '2018-10-12 15:58:40.520390', 'mgs': 0, 'depth': -0.598, 'time': 3.31, 'pitch': -1.56, 'roll': -2.07}
{'lipoC2': 7.96, 'temp': 27.31, 'lipoC3S3': 12.35, 'rot1': 0, 'rot0': 0, 'rot3': 0, 'rot2': 0, 'state': 'normal', 'yaw': -3.65, 'datetime': '2018-10-12 15:58:40.618896', 'mgs': 0, 'depth': -0.598, 'time': 3.4, 'pitch': -0.99, 'roll': -2.14}
{'lipoC2': 7.96, 'temp': 27.31, 'lipoC3S3': 12.35, 'rot1': 0, 'rot0': 0, 'rot3': 0, 'rot2': 0, 'state': 'normal', 'yaw': -3.85, 'datetime': '2018-10-12 15:58:40.716860', 'mgs': 0, 'depth': -0.598, 'time': 3.5, 'pitch': -0.46, 'roll': -2.13}
{'lipoC2': 7.96, 'temp': 27.31, 'lipoC3S3': 12.35, 'rot1': 0, 'rot0': 0, 'rot3': 0, 'rot2': 0, 'state': 'normal', 'yaw': -3.86, 'datetime': '2018-10-12 15:58:40.813924', 'mgs': 0, 'depth': -0.598, 'time': 3.6, 'pitch': -0.39, 'roll': -1.81}
{'lipoC2': 7.96, 'temp': 27.25, 'lipoC3S3': 12.35, 'rot1': 0, 'rot0': 0, 'rot3': 0, 'rot2': 0, 'state': 'normal', 'yaw': -3.75, 'datetime': '2018-10-12 15:58:40.911109', 'mgs': 0, 'depth': -0.598, 'time': 3.7, 'pitch': -0.79, 'roll': -1.55}
{'lipoC2': 7.96, 'temp': 27.25, 'lipoC3S3': 12.35, 'rot1': 0, 'rot0': 0, 'rot3': 0, 'rot2': 0, 'state': 'normal', 'yaw': -3.56, 'datetime': '2018-10-12 15:58:41.008212', 'mgs': 0, 'depth': -0.598, 'time': 3.8, 'pitch': -1.43, 'roll': -1.53}
{'lipoC2': 7.96, 'temp': 27.25, 'lipoC3S3': 12.34, 'rot1': 0, 'rot0': 0, 'rot3': 0, 'rot2': 0, 'state': 'normal', 'yaw': -3.51, 'datetime': '2018-10-12 15:58:41.105212', 'mgs': 0, 'depth': -0.674, 'time': 3.89, 'pitch': -2.32, 'roll': -1.72}
{'lipoC2': 7.96, 'temp': 27.25, 'lipoC3S3': 12.35, 'rot1': 0, 'rot0': 0, 'rot3': 0, 'rot2': 0, 'state': 'normal', 'yaw': -3.67, 'datetime': '2018-10-12 15:58:41.202405', 'mgs': 0, 'depth': -0.598, 'time': 3.99, 'pitch': -3.0, 'roll': -2.07}
{'lipoC2': 7.96, 'temp': 27.25, 'lipoC3S3': 12.35, 'rot1': 0, 'rot0': 0, 'rot3': 0, 'rot2': 0, 'state': 'normal', 'yaw': -3.94, 'datetime': '2018-10-12 15:58:41.299544', 'mgs': 0, 'depth': -0.598, 'time': 4.09, 'pitch': -3.28, 'roll': -2.33}
{'lipoC2': 7.96, 'temp': 27.25, 'lipoC3S3': 12.34, 'rot1': 0, 'rot0': 0, 'rot3': 0, 'rot2': 0, 'state': 'normal', 'yaw': -4.09, 'datetime': '2018-10-12 15:58:41.396599', 'mgs': 0, 'depth': -0.522, 'time': 4.18, 'pitch': -3.21, 'roll': -2.52}
{'lipoC2': 7.96, 'temp': 27.25, 'lipoC3S3': 12.35, 'rot1': 0, 'rot0': 0, 'rot3': 0, 'rot2': 0, 'state': 'normal', 'yaw': -4.0, 'datetime': '2018-10-12 15:58:41.493892', 'mgs': 0, 'depth': -0.522, 'time': 4.28, 'pitch': -2.79, 'roll': -2.29}
{'lipoC2': 7.96, 'temp': 27.31, 'lipoC3S3': 12.34, 'rot1': 0, 'rot0': 0, 'rot3': 0, 'rot2': 0, 'state': 'normal', 'yaw': -3.77, 'datetime': '2018-10-12 15:58:41.591073', 'mgs': 0, 'depth': -0.522, 'time': 4.38, 'pitch': -2.3, 'roll': -1.47}
{'lipoC2': 7.96, 'temp': 27.31, 'lipoC3S3': 12.35, 'rot1': 0, 'rot0': 0, 'rot3': 0, 'rot2': 0, 'state': 'normal', 'yaw': -3.48, 'datetime': '2018-10-12 15:58:41.688166', 'mgs': 0, 'depth': -0.522, 'time': 4.47, 'pitch': -1.88, 'roll': -0.35}
{'lipoC2': 7.96, 'temp': 27.31, 'lipoC3S3': 12.35, 'rot1': 0, 'rot0': 0, 'rot3': 0, 'rot2': 0, 'state': 'normal', 'yaw': -3.16, 'datetime': '2018-10-12 15:58:41.783044', 'mgs': 0, 'depth': -0.598, 'time': 4.57, 'pitch': -1.21, 'roll': -0.12}
{'lipoC2': 7.96, 'temp': 27.31, 'lipoC3S3': 12.34, 'rot1': 0, 'rot0': 0, 'rot3': 0, 'rot2': 0, 'state': 'normal', 'yaw': -2.94, 'datetime': '2018-10-12 15:58:41.882729', 'mgs': 0, 'depth': -0.598, 'time': 4.67, 'pitch': -0.58, 'roll': -0.8}
{'lipoC2': 7.96, 'temp': 27.31, 'lipoC3S3': 12.34, 'rot1': 0, 'rot0': 0, 'rot3': 0, 'rot2': 0, 'state': 'normal', 'yaw': -2.8, 'datetime': '2018-10-12 15:58:41.981148', 'mgs': 0, 'depth': -0.598, 'time': 4.77, 'pitch': -0.45, 'roll': -1.79}
{'lipoC2': 7.96, 'temp': 27.25, 'lipoC3S3': 12.34, 'rot1': 0, 'rot0': 0, 'rot3': 0, 'rot2': 0, 'state': 'normal', 'yaw': -2.77, 'datetime': '2018-10-12 15:58:42.079394', 'mgs': 0, 'depth': -0.598, 'time': 4.87, 'pitch': -0.51, 'roll': -2.5}
{'lipoC2': 7.96, 'temp': 27.25, 'lipoC3S3': 12.35, 'rot1': 0, 'rot0': 0, 'rot3': 0, 'rot2': 0, 'state': 'normal', 'yaw': -2.86, 'datetime': '2018-10-12 15:58:42.176501', 'mgs': 0, 'depth': -0.598, 'time': 4.97, 'pitch': -0.47, 'roll': -2.39}
{'lipoC2': 7.96, 'temp': 27.25, 'lipoC3S3': 12.35, 'rot1': 0, 'rot0': 0, 'rot3': 0, 'rot2': 0, 'state': 'normal', 'yaw': -2.99, 'datetime': '2018-10-12 15:58:42.273543', 'mgs': 0, 'depth': -0.674, 'time': 5.06, 'pitch': -0.37, 'roll': -1.69}
{'lipoC2': 7.96, 'temp': 27.25, 'lipoC3S3': 12.35, 'rot1': 0, 'rot0': 0, 'rot3': 0, 'rot2': 0, 'state': 'normal', 'yaw': -3.1, 'datetime': '2018-10-12 15:58:42.371971', 'mgs': 0, 'depth': -0.522, 'time': 5.16, 'pitch': -0.24, 'roll': -0.78}
{'lipoC2': 7.96, 'temp': 27.25, 'lipoC3S3': 12.35, 'rot1': 0, 'rot0': 0, 'rot3': 0, 'rot2': 0, 'state': 'normal', 'yaw': -3.09, 'datetime': '2018-10-12 15:58:42.470340', 'mgs': 0, 'depth': -0.674, 'time': 5.26, 'pitch': -0.22, 'roll': -0.03}
{'lipoC2': 7.95, 'temp': 27.31, 'lipoC3S3': 12.35, 'rot1': 0, 'rot0': 0, 'rot3': 0, 'rot2': 0, 'state': 'normal', 'yaw': -3.01, 'datetime': '2018-10-12 15:58:42.567325', 'mgs': 0, 'depth': -0.522, 'time': 5.36, 'pitch': -0.47, 'roll': 0.01}
{'lipoC2': 7.96, 'temp': 27.31, 'lipoC3S3': 12.35, 'rot1': 0, 'rot0': 0, 'rot3': 0, 'rot2': 0, 'state': 'normal', 'yaw': -2.87, 'datetime': '2018-10-12 15:58:42.664370', 'mgs': 0, 'depth': -0.598, 'time': 5.45, 'pitch': -1.01, 'roll': -0.53}
{'lipoC2': 7.96, 'temp': 27.31, 'lipoC3S3': 12.35, 'rot1': 0, 'rot0': 0, 'rot3': 0, 'rot2': 0, 'state': 'normal', 'yaw': -2.67, 'datetime': '2018-10-12 15:58:42.761610', 'mgs': 0, 'depth': -0.598, 'time': 5.55, 'pitch': -1.89, 'roll': -1.31}
{'lipoC2': 7.96, 'temp': 27.25, 'lipoC3S3': 12.35, 'rot1': 0, 'rot0': 0, 'rot3': 0, 'rot2': 0, 'state': 'normal', 'yaw': -2.36, 'datetime': '2018-10-12 15:58:42.858707', 'mgs': 0, 'depth': -0.598, 'time': 5.65, 'pitch': -2.8, 'roll': -1.99}
{'lipoC2': 7.96, 'temp': 27.25, 'lipoC3S3': 12.35, 'rot1': 0, 'rot0': 0, 'rot3': 0, 'rot2': 0, 'state': 'normal', 'yaw': -2.06, 'datetime': '2018-10-12 15:58:42.955956', 'mgs': 0, 'depth': -0.598, 'time': 5.74, 'pitch': -3.31, 'roll': -2.13}
{'lipoC2': 7.96, 'temp': 27.25, 'lipoC3S3': 12.35, 'rot1': 0, 'rot0': 0, 'rot3': 0, 'rot2': 0, 'state': 'normal', 'yaw': -1.83, 'datetime': '2018-10-12 15:58:43.053114', 'mgs': 0, 'depth': -0.598, 'time': 5.84, 'pitch': -3.43, 'roll': -1.77}
{'lipoC2': 7.96, 'temp': 27.25, 'lipoC3S3': 12.35, 'rot1': 0, 'rot0': 0, 'rot3': 0, 'rot2': 0, 'state': 'normal', 'yaw': -1.64, 'datetime': '2018-10-12 15:58:43.149612', 'mgs': 0, 'depth': -0.598, 'time': 5.94, 'pitch': -2.89, 'roll': -0.8}
{'lipoC2': 7.96, 'temp': 27.25, 'lipoC3S3': 12.35, 'rot1': 0, 'rot0': 0, 'rot3': 0, 'rot2': 0, 'state': 'normal', 'yaw': -1.53, 'datetime': '2018-10-12 15:58:43.247339', 'mgs': 0, 'depth': -0.674, 'time': 6.04, 'pitch': -2.2, 'roll': 0.38}
{'lipoC2': 7.96, 'temp': 27.25, 'lipoC3S3': 12.35, 'rot1': 0, 'rot0': 0, 'rot3': 0, 'rot2': 0, 'state': 'normal', 'yaw': -1.52, 'datetime': '2018-10-12 15:58:43.344491', 'mgs': 0, 'depth': -0.674, 'time': 6.13, 'pitch': -1.97, 'roll': 1.24}
{'lipoC2': 7.96, 'temp': 27.25, 'lipoC3S3': 12.35, 'rot1': 0, 'rot0': 0, 'rot3': 0, 'rot2': 0, 'state': 'normal', 'yaw': -1.58, 'datetime': '2018-10-12 15:58:43.441631', 'mgs': 0, 'depth': -0.751, 'time': 6.23, 'pitch': -2.26, 'roll': 1.67}
{'lipoC2': 7.96, 'temp': 27.31, 'lipoC3S3': 12.35, 'rot1': 0, 'rot0': 0, 'rot3': 0, 'rot2': 0, 'state': 'normal', 'yaw': -1.78, 'datetime': '2018-10-12 15:58:43.538691', 'mgs': 0, 'depth': -0.674, 'time': 6.33, 'pitch': -2.94, 'roll': 1.6}
{'lipoC2': 7.96, 'temp': 27.31, 'lipoC3S3': 12.35, 'rot1': 0, 'rot0': 0, 'rot3': 0, 'rot2': 0, 'state': 'normal', 'yaw': -2.11, 'datetime': '2018-10-12 15:58:43.635737', 'mgs': 0, 'depth': -0.674, 'time': 6.43, 'pitch': -3.52, 'roll': 1.17}
{'lipoC2': 7.96, 'temp': 27.31, 'lipoC3S3': 12.35, 'rot1': 0, 'rot0': 0, 'rot3': 0, 'rot2': 0, 'state': 'normal', 'yaw': -2.5, 'datetime': '2018-10-12 15:58:43.734323', 'mgs': 0, 'depth': -0.751, 'time': 6.52, 'pitch': -3.76, 'roll': 0.76}
{'lipoC2': 7.96, 'temp': 27.31, 'lipoC3S3': 12.35, 'rot1': 0, 'rot0': 0, 'rot3': 0, 'rot2': 0, 'state': 'normal', 'yaw': -3.08, 'datetime': '2018-10-12 15:58:43.832688', 'mgs': 0, 'depth': -0.674, 'time': 6.62, 'pitch': -3.69, 'roll': 0.63}
{'lipoC2': 7.96, 'temp': 27.31, 'lipoC3S3': 12.35, 'rot1': 0, 'rot0': 0, 'rot3': 0, 'rot2': 0, 'state': 'normal', 'yaw': -3.72, 'datetime': '2018-10-12 15:58:43.929801', 'mgs': 0, 'depth': -0.751, 'time': 6.72, 'pitch': -3.34, 'roll': 1.05}
{'lipoC2': 7.95, 'temp': 27.25, 'lipoC3S3': 12.35, 'rot1': 0, 'rot0': 0, 'rot3': 0, 'rot2': 0, 'state': 'normal', 'yaw': -4.23, 'datetime': '2018-10-12 15:58:44.026832', 'mgs': 0, 'depth': -0.674, 'time': 6.82, 'pitch': -3.21, 'roll': 1.46}
{'lipoC2': 7.96, 'temp': 27.25, 'lipoC3S3': 12.35, 'rot1': 0, 'rot0': 0, 'rot3': 0, 'rot2': 0, 'state': 'normal', 'yaw': -4.33, 'datetime': '2018-10-12 15:58:44.124966', 'mgs': 0, 'depth': -0.674, 'time': 6.92, 'pitch': -3.41, 'roll': 1.63}
{'lipoC2': 7.96, 'temp': 27.25, 'lipoC3S3': 12.35, 'rot1': 0, 'rot0': 0, 'rot3': 0, 'rot2': 0, 'state': 'normal', 'yaw': -4.16, 'datetime': '2018-10-12 15:58:44.221832', 'mgs': 0, 'depth': -0.598, 'time': 7.01, 'pitch': -4.02, 'roll': 1.64}
{'lipoC2': 7.96, 'temp': 27.31, 'lipoC3S3': 12.35, 'rot1': 0, 'rot0': 0, 'rot3': 0, 'rot2': 0, 'state': 'normal', 'yaw': -4.0, 'datetime': '2018-10-12 15:58:44.320485', 'mgs': 0, 'depth': -0.674, 'time': 7.11, 'pitch': -4.49, 'roll': 1.74}
{'lipoC2': 7.96, 'temp': 27.31, 'lipoC3S3': 12.35, 'rot1': 0, 'rot0': 0, 'rot3': 0, 'rot2': 0, 'state': 'normal', 'yaw': -3.98, 'datetime': '2018-10-12 15:58:44.417719', 'mgs': 0, 'depth': -0.598, 'time': 7.21, 'pitch': -4.32, 'roll': 2.37}
{'lipoC2': 7.96, 'temp': 27.31, 'lipoC3S3': 12.35, 'rot1': 0, 'rot0': 0, 'rot3': 0, 'rot2': 0, 'state': 'normal', 'yaw': -3.94, 'datetime': '2018-10-12 15:58:44.515520', 'mgs': 0, 'depth': -0.674, 'time': 7.31, 'pitch': -3.65, 'roll': 3.23}
{'lipoC2': 7.96, 'temp': 27.31, 'lipoC3S3': 12.34, 'rot1': 0, 'rot0': 0, 'rot3': 0, 'rot2': 0, 'state': 'normal', 'yaw': -3.87, 'datetime': '2018-10-12 15:58:44.611138', 'mgs': 0, 'depth': -0.674, 'time': 7.4, 'pitch': -2.62, 'roll': 4.22}
{'lipoC2': 7.96, 'temp': 27.31, 'lipoC3S3': 12.35, 'rot1': 0, 'rot0': 0, 'rot3': 0, 'rot2': 0, 'state': 'normal', 'yaw': -3.65, 'datetime': '2018-10-12 15:58:44.709764', 'mgs': 0, 'depth': -0.674, 'time': 7.5, 'pitch': -1.77, 'roll': 4.9}
{'lipoC2': 7.96, 'temp': 27.31, 'lipoC3S3': 12.35, 'rot1': 0, 'rot0': 0, 'rot3': 0, 'rot2': 0, 'state': 'normal', 'yaw': -3.26, 'datetime': '2018-10-12 15:58:44.806898', 'mgs': 0, 'depth': -0.674, 'time': 7.6, 'pitch': -1.45, 'roll': 5.14}
{'lipoC2': 7.96, 'temp': 27.31, 'lipoC3S3': 12.34, 'rot1': 0, 'rot0': 0, 'rot3': 0, 'rot2': 0, 'state': 'normal', 'yaw': -2.85, 'datetime': '2018-10-12 15:58:44.903980', 'mgs': 0, 'depth': -0.598, 'time': 7.7, 'pitch': -1.84, 'roll': 4.68}
{'lipoC2': 7.96, 'temp': 27.25, 'lipoC3S3': 12.35, 'rot1': 0, 'rot0': 0, 'rot3': 0, 'rot2': 0, 'state': 'normal', 'yaw': -2.4, 'datetime': '2018-10-12 15:58:45.001005', 'mgs': 0, 'depth': -0.598, 'time': 7.79, 'pitch': -2.56, 'roll': 3.88}
{'lipoC2': 7.96, 'temp': 27.25, 'lipoC3S3': 12.35, 'rot1': 0, 'rot0': 0, 'rot3': 0, 'rot2': 0, 'state': 'normal', 'yaw': -2.02, 'datetime': '2018-10-12 15:58:45.098190', 'mgs': 0, 'depth': -0.674, 'time': 7.89, 'pitch': -2.67, 'roll': 3.27}
{'lipoC2': 7.96, 'temp': 27.25, 'lipoC3S3': 12.35, 'rot1': 0, 'rot0': 0, 'rot3': 0, 'rot2': 0, 'state': 'normal', 'yaw': -1.91, 'datetime': '2018-10-12 15:58:45.195263', 'mgs': 0, 'depth': -0.674, 'time': 7.99, 'pitch': -1.69, 'roll': 2.69}
{'lipoC2': 7.96, 'temp': 27.31, 'lipoC3S3': 12.35, 'rot1': 0, 'rot0': 0, 'rot3': 0, 'rot2': 0, 'state': 'normal', 'yaw': -2.05, 'datetime': '2018-10-12 15:58:45.292283', 'mgs': 0, 'depth': -0.674, 'time': 8.08, 'pitch': -0.26, 'roll': 1.86}
{'lipoC2': 7.96, 'temp': 27.31, 'lipoC3S3': 12.34, 'rot1': 0, 'rot0': 0, 'rot3': 0, 'rot2': 0, 'state': 'normal', 'yaw': -2.41, 'datetime': '2018-10-12 15:58:45.389470', 'mgs': 0, 'depth': -0.751, 'time': 8.18, 'pitch': 0.5, 'roll': 1.23}
{'lipoC2': 7.96, 'temp': 27.25, 'lipoC3S3': 12.35, 'rot1': 0, 'rot0': 0, 'rot3': 0, 'rot2': 0, 'state': 'normal', 'yaw': -2.93, 'datetime': '2018-10-12 15:58:45.487404', 'mgs': 0, 'depth': -0.674, 'time': 8.28, 'pitch': 0.59, 'roll': 1.24}
{'lipoC2': 7.96, 'temp': 27.25, 'lipoC3S3': 12.35, 'rot1': 0, 'rot0': 0, 'rot3': 0, 'rot2': 0, 'state': 'normal', 'yaw': -3.76, 'datetime': '2018-10-12 15:58:45.585739', 'mgs': 0, 'depth': -0.674, 'time': 8.38, 'pitch': 0.57, 'roll': 2.1}
{'lipoC2': 7.96, 'temp': 27.25, 'lipoC3S3': 12.35, 'rot1': 0, 'rot0': 0, 'rot3': 0, 'rot2': 0, 'state': 'normal', 'yaw': -4.99, 'datetime': '2018-10-12 15:58:45.682983', 'mgs': 0, 'depth': -0.674, 'time': 8.48, 'pitch': 0.65, 'roll': 3.36}
{'lipoC2': 7.96, 'temp': 27.31, 'lipoC3S3': 12.35, 'rot1': 0, 'rot0': 0, 'rot3': 0, 'rot2': 0, 'state': 'normal', 'yaw': -6.56, 'datetime': '2018-10-12 15:58:45.779018', 'mgs': 0, 'depth': -0.598, 'time': 8.57, 'pitch': 0.89, 'roll': 4.45}
{'lipoC2': 7.96, 'temp': 27.31, 'lipoC3S3': 12.34, 'rot1': 0, 'rot0': 0, 'rot3': 0, 'rot2': 0, 'state': 'normal', 'yaw': -8.03, 'datetime': '2018-10-12 15:58:45.877758', 'mgs': 0, 'depth': -0.674, 'time': 8.67, 'pitch': 1.31, 'roll': 4.91}
{'lipoC2': 7.95, 'temp': 27.31, 'lipoC3S3': 12.35, 'rot1': 0, 'rot0': 0, 'rot3': 0, 'rot2': 0, 'state': 'normal', 'yaw': -9.69, 'datetime': '2018-10-12 15:58:45.976212', 'mgs': 0, 'depth': -0.674, 'time': 8.77, 'pitch': 1.86, 'roll': 4.75}
{'lipoC2': 7.96, 'temp': 27.31, 'lipoC3S3': 12.34, 'rot1': 0, 'rot0': 0, 'rot3': 0, 'rot2': 0, 'state': 'normal', 'yaw': -11.45, 'datetime': '2018-10-12 15:58:46.073173', 'mgs': 0, 'depth': -0.751, 'time': 8.86, 'pitch': 2.21, 'roll': 3.66}
{'lipoC2': 7.96, 'temp': 27.31, 'lipoC3S3': 12.35, 'rot1': 0, 'rot0': 0, 'rot3': 0, 'rot2': 0, 'state': 'normal', 'yaw': -13.25, 'datetime': '2018-10-12 15:58:46.170274', 'mgs': 0, 'depth': -0.751, 'time': 8.96, 'pitch': 2.09, 'roll': 2.06}
{'lipoC2': 7.96, 'temp': 27.25, 'lipoC3S3': 12.35, 'rot1': 0, 'rot0': 0, 'rot3': 0, 'rot2': 0, 'state': 'normal', 'yaw': -14.65, 'datetime': '2018-10-12 15:58:46.268052', 'mgs': 0, 'depth': -0.751, 'time': 9.06, 'pitch': 1.65, 'roll': 0.62}
{'lipoC2': 7.96, 'temp': 27.25, 'lipoC3S3': 12.35, 'rot1': 0, 'rot0': 0, 'rot3': 0, 'rot2': 0, 'state': 'normal', 'yaw': -15.74, 'datetime': '2018-10-12 15:58:46.365125', 'mgs': 0, 'depth': -0.751, 'time': 9.16, 'pitch': 1.0, 'roll': -0.36}
{'lipoC2': 7.96, 'temp': 27.25, 'lipoC3S3': 12.35, 'rot1': 0, 'rot0': 0, 'rot3': 0, 'rot2': 0, 'state': 'normal', 'yaw': -16.42, 'datetime': '2018-10-12 15:58:46.462966', 'mgs': 0, 'depth': -0.674, 'time': 9.25, 'pitch': 0.41, 'roll': -0.45}
{'lipoC2': 7.96, 'temp': 27.25, 'lipoC3S3': 12.35, 'rot1': 0, 'rot0': 0, 'rot3': 0, 'rot2': 0, 'state': 'normal', 'yaw': -16.79, 'datetime': '2018-10-12 15:58:46.559409', 'mgs': 0, 'depth': -0.674, 'time': 9.35, 'pitch': -0.16, 'roll': 0.16}
{'lipoC2': 7.95, 'temp': 27.25, 'lipoC3S3': 12.35, 'rot1': 0, 'rot0': 0, 'rot3': 0, 'rot2': 0, 'state': 'normal', 'yaw': -16.96, 'datetime': '2018-10-12 15:58:46.656398', 'mgs': 0, 'depth': -0.522, 'time': 9.45, 'pitch': -0.5, 'roll': 1.01}
{'lipoC2': 7.96, 'temp': 27.25, 'lipoC3S3': 12.34, 'rot1': 0, 'rot0': 0, 'rot3': 0, 'rot2': 0, 'state': 'normal', 'yaw': -16.82, 'datetime': '2018-10-12 15:58:46.753547', 'mgs': 0, 'depth': -0.522, 'time': 9.55, 'pitch': -0.21, 'roll': 1.87}
{'lipoC2': 7.96, 'temp': 27.25, 'lipoC3S3': 12.35, 'rot1': 0, 'rot0': 0, 'rot3': 0, 'rot2': 0, 'state': 'normal', 'yaw': -16.49, 'datetime': '2018-10-12 15:58:46.846165', 'mgs': 0, 'depth': -0.522, 'time': 9.64, 'pitch': 0.6, 'roll': 2.22}
{'lipoC2': 7.96, 'temp': 27.25, 'lipoC3S3': 12.35, 'rot1': 0, 'rot0': 0, 'rot3': 0, 'rot2': 0, 'state': 'normal', 'yaw': -16.18, 'datetime': '2018-10-12 15:58:46.946102', 'mgs': 0, 'depth': -0.598, 'time': 9.74, 'pitch': 1.36, 'roll': 1.83}
{'lipoC2': 7.96, 'temp': 27.25, 'lipoC3S3': 12.35, 'rot1': 0, 'rot0': 0, 'rot3': 0, 'rot2': 0, 'state': 'normal', 'yaw': -15.6, 'datetime': '2018-10-12 15:58:47.044894', 'mgs': 0, 'depth': -0.674, 'time': 9.84, 'pitch': 2.01, 'roll': 0.93}
{'lipoC2': 7.96, 'temp': 27.25, 'lipoC3S3': 12.35, 'rot1': 0, 'rot0': 0, 'rot3': 0, 'rot2': 0, 'state': 'normal', 'yaw': -14.79, 'datetime': '2018-10-12 15:58:47.141935', 'mgs': 0, 'depth': -0.674, 'time': 9.94, 'pitch': 2.03, 'roll': -0.88}
{'lipoC2': 7.96, 'temp': 27.31, 'lipoC3S3': 12.35, 'rot1': 0, 'rot0': 0, 'rot3': 0, 'rot2': 0, 'state': 'normal', 'yaw': -14.04, 'datetime': '2018-10-12 15:58:47.240037', 'mgs': 0, 'depth': -0.751, 'time': 10.03, 'pitch': 1.43, 'roll': -2.33}
{'lipoC2': 7.96, 'temp': 27.31, 'lipoC3S3': 12.35, 'rot1': 0, 'rot0': 0, 'rot3': 0, 'rot2': 0, 'state': 'normal', 'yaw': -13.24, 'datetime': '2018-10-12 15:58:47.338393', 'mgs': 0, 'depth': -0.674, 'time': 10.13, 'pitch': -0.04, 'roll': -2.61}
{'lipoC2': 7.96, 'temp': 27.31, 'lipoC3S3': 12.34, 'rot1': 0, 'rot0': 0, 'rot3': 0, 'rot2': 0, 'state': 'normal', 'yaw': -12.75, 'datetime': '2018-10-12 15:58:47.436795', 'mgs': 0, 'depth': -0.674, 'time': 10.23, 'pitch': -1.93, 'roll': -1.27}
{'lipoC2': 7.95, 'temp': 27.31, 'lipoC3S3': 12.34, 'rot1': 0, 'rot0': 0, 'rot3': 0, 'rot2': 0, 'state': 'normal', 'yaw': -12.61, 'datetime': '2018-10-12 15:58:47.533752', 'mgs': 0, 'depth': -0.598, 'time': 10.33, 'pitch': -3.18, 'roll': 0.96}
{'lipoC2': 7.96, 'temp': 27.25, 'lipoC3S3': 12.35, 'rot1': 0, 'rot0': 0, 'rot3': 0, 'rot2': 0, 'state': 'normal', 'yaw': -12.61, 'datetime': '2018-10-12 15:58:47.630784', 'mgs': 0, 'depth': -0.522, 'time': 10.43, 'pitch': -3.52, 'roll': 2.48}
{'lipoC2': 7.95, 'temp': 27.25, 'lipoC3S3': 12.35, 'rot1': 0, 'rot0': 0, 'rot3': 0, 'rot2': 0, 'state': 'normal', 'yaw': -12.55, 'datetime': '2018-10-12 15:58:47.729256', 'mgs': 0, 'depth': -0.598, 'time': 10.52, 'pitch': -3.61, 'roll': 2.61}
{'lipoC2': 7.96, 'temp': 27.25, 'lipoC3S3': 12.35, 'rot1': 0, 'rot0': 0, 'rot3': 0, 'rot2': 0, 'state': 'normal', 'yaw': -12.38, 'datetime': '2018-10-12 15:58:47.825465', 'mgs': 0, 'depth': -0.598, 'time': 10.62, 'pitch': -3.54, 'roll': 1.46}
{'lipoC2': 7.96, 'temp': 27.25, 'lipoC3S3': 12.35, 'rot1': 0, 'rot0': 0, 'rot3': 0, 'rot2': 0, 'state': 'normal', 'yaw': -12.23, 'datetime': '2018-10-12 15:58:47.924100', 'mgs': 0, 'depth': -0.598, 'time': 10.72, 'pitch': -3.53, 'roll': -0.55}
{'lipoC2': 7.96, 'temp': 27.25, 'lipoC3S3': 12.34, 'rot1': 0, 'rot0': 0, 'rot3': 0, 'rot2': 0, 'state': 'normal', 'yaw': -12.08, 'datetime': '2018-10-12 15:58:48.021384', 'mgs': 0, 'depth': -0.598, 'time': 10.81, 'pitch': -4.05, 'roll': -2.72}
{'lipoC2': 7.96, 'temp': 27.31, 'lipoC3S3': 12.35, 'rot1': 0, 'rot0': 0, 'rot3': 0, 'rot2': 0, 'state': 'normal', 'yaw': -11.83, 'datetime': '2018-10-12 15:58:48.119757', 'mgs': 0, 'depth': -0.598, 'time': 10.91, 'pitch': -4.92, 'roll': -3.53}
{'lipoC2': 7.96, 'temp': 27.31, 'lipoC3S3': 12.35, 'rot1': 0, 'rot0': 0, 'rot3': 0, 'rot2': 0, 'state': 'normal', 'yaw': -11.71, 'datetime': '2018-10-12 15:58:48.217008', 'mgs': 0, 'depth': -0.522, 'time': 11.01, 'pitch': -5.67, 'roll': -2.49}
{'lipoC2': 7.95, 'temp': 27.31, 'lipoC3S3': 12.35, 'rot1': 0, 'rot0': 0, 'rot3': 0, 'rot2': 0, 'state': 'normal', 'yaw': -11.88, 'datetime': '2018-10-12 15:58:48.314063', 'mgs': 0, 'depth': -0.522, 'time': 11.11, 'pitch': -5.48, 'roll': -0.1}
{'lipoC2': 7.96, 'temp': 27.31, 'lipoC3S3': 12.35, 'rot1': 0, 'rot0': 0, 'rot3': 0, 'rot2': 0, 'state': 'normal', 'yaw': -12.22, 'datetime': '2018-10-12 15:58:48.411442', 'mgs': 0, 'depth': -0.522, 'time': 11.21, 'pitch': -4.78, 'roll': 1.35}
{'lipoC2': 7.96, 'temp': 27.31, 'lipoC3S3': 12.35, 'rot1': 0, 'rot0': 0, 'rot3': 0, 'rot2': 0, 'state': 'normal', 'yaw': -12.83, 'datetime': '2018-10-12 15:58:48.508474', 'mgs': 0, 'depth': -0.446, 'time': 11.3, 'pitch': -4.36, 'roll': 1.07}
{'lipoC2': 7.96, 'temp': 27.31, 'lipoC3S3': 12.35, 'rot1': 0, 'rot0': 0, 'rot3': 0, 'rot2': 0, 'state': 'normal', 'yaw': -13.62, 'datetime': '2018-10-12 15:58:48.605590', 'mgs': 0, 'depth': -0.522, 'time': 11.4, 'pitch': -3.84, 'roll': -0.73}
{'lipoC2': 7.96, 'temp': 27.31, 'lipoC3S3': 12.35, 'rot1': 0, 'rot0': 0, 'rot3': 0, 'rot2': 0, 'state': 'normal', 'yaw': -14.42, 'datetime': '2018-10-12 15:58:48.702661', 'mgs': 0, 'depth': -0.598, 'time': 11.5, 'pitch': -3.03, 'roll': -2.89}
{'lipoC2': 7.96, 'temp': 27.31, 'lipoC3S3': 12.35, 'rot1': 0, 'rot0': 0, 'rot3': 0, 'rot2': 0, 'state': 'normal', 'yaw': -15.1, 'datetime': '2018-10-12 15:58:48.799745', 'mgs': 0, 'depth': -0.674, 'time': 11.59, 'pitch': -2.1, 'roll': -4.06}
{'lipoC2': 7.96, 'temp': 27.31, 'lipoC3S3': 12.35, 'rot1': 0, 'rot0': 0, 'rot3': 0, 'rot2': 0, 'state': 'normal', 'yaw': -15.81, 'datetime': '2018-10-12 15:58:48.896906', 'mgs': 0, 'depth': -0.674, 'time': 11.69, 'pitch': -1.5, 'roll': -4.08}
{'lipoC2': 7.96, 'temp': 27.31, 'lipoC3S3': 12.34, 'rot1': 0, 'rot0': 0, 'rot3': 0, 'rot2': 0, 'state': 'normal', 'yaw': -16.56, 'datetime': '2018-10-12 15:58:48.994150', 'mgs': 0, 'depth': -0.674, 'time': 11.79, 'pitch': -0.94, 'roll': -3.41}
{'lipoC2': 7.96, 'temp': 27.25, 'lipoC3S3': 12.35, 'rot1': 0, 'rot0': 0, 'rot3': 0, 'rot2': 0, 'state': 'normal', 'yaw': -17.37, 'datetime': '2018-10-12 15:58:49.092215', 'mgs': 0, 'depth': -0.674, 'time': 11.89, 'pitch': -0.99, 'roll': -1.65}
{'lipoC2': 7.96, 'temp': 27.25, 'lipoC3S3': 12.35, 'rot1': 0, 'rot0': 0, 'rot3': 0, 'rot2': 0, 'state': 'normal', 'yaw': -18.26, 'datetime': '2018-10-12 15:58:49.189354', 'mgs': 0, 'depth': -0.598, 'time': 11.98, 'pitch': -1.02, 'roll': -0.18}
{'lipoC2': 7.96, 'temp': 27.25, 'lipoC3S3': 12.34, 'rot1': 0, 'rot0': 0, 'rot3': 0, 'rot2': 0, 'state': 'normal', 'yaw': -19.11, 'datetime': '2018-10-12 15:58:49.287856', 'mgs': 0, 'depth': -0.598, 'time': 12.08, 'pitch': -1.21, 'roll': 0.29}
{'lipoC2': 7.96, 'temp': 27.25, 'lipoC3S3': 12.35, 'rot1': 0, 'rot0': 0, 'rot3': 0, 'rot2': 0, 'state': 'normal', 'yaw': -19.9, 'datetime': '2018-10-12 15:58:49.384757', 'mgs': 0, 'depth': -0.598, 'time': 12.18, 'pitch': -1.7, 'roll': -0.17}
{'lipoC2': 7.96, 'temp': 27.25, 'lipoC3S3': 12.35, 'rot1': 0, 'rot0': 0, 'rot3': 0, 'rot2': 0, 'state': 'normal', 'yaw': -20.41, 'datetime': '2018-10-12 15:58:49.482821', 'mgs': 0, 'depth': -0.598, 'time': 12.28, 'pitch': -2.17, 'roll': -0.91}
{'lipoC2': 7.96, 'temp': 27.25, 'lipoC3S3': 12.35, 'rot1': 0, 'rot0': 0, 'rot3': 0, 'rot2': 0, 'state': 'normal', 'yaw': -20.57, 'datetime': '2018-10-12 15:58:49.581268', 'mgs': 0, 'depth': -0.674, 'time': 12.38, 'pitch': -2.71, 'roll': -1.65}
{'lipoC2': 7.96, 'temp': 27.25, 'lipoC3S3': 12.35, 'rot1': 0, 'rot0': 0, 'rot3': 0, 'rot2': 0, 'state': 'normal', 'yaw': -20.61, 'datetime': '2018-10-12 15:58:49.678339', 'mgs': 0, 'depth': -0.598, 'time': 12.47, 'pitch': -3.43, 'roll': -1.86}
{'lipoC2': 7.96, 'temp': 27.25, 'lipoC3S3': 12.35, 'rot1': 0, 'rot0': 0, 'rot3': 0, 'rot2': 0, 'state': 'normal', 'yaw': -20.7, 'datetime': '2018-10-12 15:58:49.775636', 'mgs': 0, 'depth': -0.598, 'time': 12.57, 'pitch': -4.05, 'roll': -1.21}
{'lipoC2': 7.96, 'temp': 27.25, 'lipoC3S3': 12.35, 'rot1': 0, 'rot0': 0, 'rot3': 0, 'rot2': 0, 'state': 'normal', 'yaw': -20.8, 'datetime': '2018-10-12 15:58:49.873110', 'mgs': 0, 'depth': -0.598, 'time': 12.67, 'pitch': -4.46, 'roll': -0.22}
{'lipoC2': 7.96, 'temp': 27.25, 'lipoC3S3': 12.35, 'rot1': 0, 'rot0': 0, 'rot3': 0, 'rot2': 0, 'state': 'normal', 'yaw': -20.99, 'datetime': '2018-10-12 15:58:49.970224', 'mgs': 0, 'depth': -0.598, 'time': 12.77, 'pitch': -4.9, 'roll': 0.8}
{'lipoC2': 7.96, 'temp': 27.31, 'lipoC3S3': 12.35, 'rot1': 0, 'rot0': 0, 'rot3': 0, 'rot2': 0, 'state': 'normal', 'yaw': -21.18, 'datetime': '2018-10-12 15:58:50.067306', 'mgs': 0, 'depth': -0.598, 'time': 12.86, 'pitch': -5.36, 'roll': 1.31}
{'lipoC2': 7.96, 'temp': 27.31, 'lipoC3S3': 12.34, 'rot1': 0, 'rot0': 0, 'rot3': 0, 'rot2': 0, 'state': 'normal', 'yaw': -21.15, 'datetime': '2018-10-12 15:58:50.164447', 'mgs': 0, 'depth': -0.522, 'time': 12.96, 'pitch': -5.74, 'roll': 1.29}
{'lipoC2': 7.96, 'temp': 27.31, 'lipoC3S3': 12.34, 'rot1': 0, 'rot0': 0, 'rot3': 0, 'rot2': 0, 'state': 'normal', 'yaw': -20.65, 'datetime': '2018-10-12 15:58:50.257043', 'mgs': 0, 'depth': -0.522, 'time': 13.06, 'pitch': -6.04, 'roll': 0.9}
{'lipoC2': 7.96, 'temp': 27.31, 'lipoC3S3': 12.34, 'rot1': 0, 'rot0': 0, 'rot3': 0, 'rot2': 0, 'state': 'normal', 'yaw': -19.68, 'datetime': '2018-10-12 15:58:50.354129', 'mgs': 0, 'depth': -0.522, 'time': 13.15, 'pitch': -6.05, 'roll': 0.42}
{'lipoC2': 7.96, 'temp': 27.31, 'lipoC3S3': 12.35, 'rot1': 0, 'rot0': 0, 'rot3': 0, 'rot2': 0, 'state': 'normal', 'yaw': -18.33, 'datetime': '2018-10-12 15:58:50.454487', 'mgs': 0, 'depth': -0.522, 'time': 13.25, 'pitch': -5.69, 'roll': 0.01}
{'lipoC2': 7.95, 'temp': 27.25, 'lipoC3S3': 12.34, 'rot1': 0, 'rot0': 0, 'rot3': 0, 'rot2': 0, 'state': 'normal', 'yaw': -17.1, 'datetime': '2018-10-12 15:58:50.552807', 'mgs': 0, 'depth': -0.522, 'time': 13.35, 'pitch': -5.39, 'roll': -0.31}
{'lipoC2': 7.96, 'temp': 27.25, 'lipoC3S3': 12.35, 'rot1': 0, 'rot0': 0, 'rot3': 0, 'rot2': 0, 'state': 'normal', 'yaw': -15.98, 'datetime': '2018-10-12 15:58:50.649900', 'mgs': 0, 'depth': -0.522, 'time': 13.45, 'pitch': -5.27, 'roll': -0.65}
{'lipoC2': 7.96, 'temp': 27.25, 'lipoC3S3': 12.35, 'rot1': 0, 'rot0': 0, 'rot3': 0, 'rot2': 0, 'state': 'normal', 'yaw': -15.22, 'datetime': '2018-10-12 15:58:50.746979', 'mgs': 0, 'depth': -0.522, 'time': 13.54, 'pitch': -5.24, 'roll': -0.9}
{'lipoC2': 7.96, 'temp': 27.25, 'lipoC3S3': 12.34, 'rot1': 0, 'rot0': 0, 'rot3': 0, 'rot2': 0, 'state': 'normal', 'yaw': -14.88, 'datetime': '2018-10-12 15:58:50.845102', 'mgs': 0, 'depth': -0.598, 'time': 13.64, 'pitch': -5.12, 'roll': -0.98}
{'lipoC2': 7.96, 'temp': 27.25, 'lipoC3S3': 12.35, 'rot1': 0, 'rot0': 0, 'rot3': 0, 'rot2': 0, 'state': 'normal', 'yaw': -14.87, 'datetime': '2018-10-12 15:58:50.943447', 'mgs': 0, 'depth': -0.522, 'time': 13.74, 'pitch': -4.8, 'roll': -0.86}
{'lipoC2': 7.96, 'temp': 27.25, 'lipoC3S3': 12.35, 'rot1': 0, 'rot0': 0, 'rot3': 0, 'rot2': 0, 'state': 'normal', 'yaw': -14.95, 'datetime': '2018-10-12 15:58:51.040547', 'mgs': 0, 'depth': -0.598, 'time': 13.84, 'pitch': -4.32, 'roll': -0.49}
{'lipoC2': 7.96, 'temp': 27.25, 'lipoC3S3': 12.35, 'rot1': 0, 'rot0': 0, 'rot3': 0, 'rot2': 0, 'state': 'normal', 'yaw': -15.14, 'datetime': '2018-10-12 15:58:51.137687', 'mgs': 0, 'depth': -0.598, 'time': 13.94, 'pitch': -3.92, 'roll': -0.16}
{'lipoC2': 7.96, 'temp': 27.25, 'lipoC3S3': 12.35, 'rot1': 0, 'rot0': 0, 'rot3': 0, 'rot2': 0, 'state': 'normal', 'yaw': -15.36, 'datetime': '2018-10-12 15:58:51.235573', 'mgs': 0, 'depth': -0.598, 'time': 14.03, 'pitch': -3.56, 'roll': -0.12}
{'lipoC2': 7.96, 'temp': 27.25, 'lipoC3S3': 12.35, 'rot1': 0, 'rot0': 0, 'rot3': 0, 'rot2': 0, 'state': 'normal', 'yaw': -15.43, 'datetime': '2018-10-12 15:58:51.333931', 'mgs': 0, 'depth': -0.598, 'time': 14.13, 'pitch': -3.02, 'roll': -0.58}
{'lipoC2': 7.96, 'temp': 27.25, 'lipoC3S3': 12.35, 'rot1': 0, 'rot0': 0, 'rot3': 0, 'rot2': 0, 'state': 'normal', 'yaw': -15.45, 'datetime': '2018-10-12 15:58:51.430985', 'mgs': 0, 'depth': -0.674, 'time': 14.23, 'pitch': -2.35, 'roll': -1.41}
{'lipoC2': 7.96, 'temp': 27.31, 'lipoC3S3': 12.35, 'rot1': 0, 'rot0': 0, 'rot3': 0, 'rot2': 0, 'state': 'normal', 'yaw': -15.44, 'datetime': '2018-10-12 15:58:51.528092', 'mgs': 0, 'depth': -0.598, 'time': 14.32, 'pitch': -1.84, 'roll': -2.38}
{'lipoC2': 7.96, 'temp': 27.31, 'lipoC3S3': 12.34, 'rot1': 0, 'rot0': 0, 'rot3': 0, 'rot2': 0, 'state': 'normal', 'yaw': -15.36, 'datetime': '2018-10-12 15:58:51.626093', 'mgs': 0, 'depth': -0.674, 'time': 14.42, 'pitch': -1.73, 'roll': -3.03}
{'lipoC2': 7.96, 'temp': 27.31, 'lipoC3S3': 12.34, 'rot1': 0, 'rot0': 0, 'rot3': 0, 'rot2': 0, 'state': 'normal', 'yaw': -15.44, 'datetime': '2018-10-12 15:58:51.723148', 'mgs': 0, 'depth': -0.598, 'time': 14.52, 'pitch': -1.8, 'roll': -3.02}
{'lipoC2': 7.96, 'temp': 27.25, 'lipoC3S3': 12.35, 'rot1': 0, 'rot0': 0, 'rot3': 0, 'rot2': 0, 'state': 'normal', 'yaw': -15.79, 'datetime': '2018-10-12 15:58:51.820377', 'mgs': 0, 'depth': -0.598, 'time': 14.62, 'pitch': -1.87, 'roll': -2.1}
{'lipoC2': 7.96, 'temp': 27.25, 'lipoC3S3': 12.35, 'rot1': 0, 'rot0': 0, 'rot3': 0, 'rot2': 0, 'state': 'normal', 'yaw': -16.22, 'datetime': '2018-10-12 15:58:51.917569', 'mgs': 0, 'depth': -0.674, 'time': 14.72, 'pitch': -1.9, 'roll': -0.68}
{'lipoC2': 7.96, 'temp': 27.25, 'lipoC3S3': 12.34, 'rot1': 0, 'rot0': 0, 'rot3': 0, 'rot2': 0, 'state': 'normal', 'yaw': -16.43, 'datetime': '2018-10-12 15:58:52.014433', 'mgs': 0, 'depth': -0.674, 'time': 14.81, 'pitch': -2.04, 'roll': 0.31}
{'lipoC2': 7.96, 'temp': 27.25, 'lipoC3S3': 12.35, 'rot1': 0, 'rot0': 0, 'rot3': 0, 'rot2': 0, 'state': 'normal', 'yaw': -16.44, 'datetime': '2018-10-12 15:58:52.107123', 'mgs': 0, 'depth': -0.674, 'time': 14.91, 'pitch': -2.3, 'roll': 0.67}
{'lipoC2': 7.96, 'temp': 27.25, 'lipoC3S3': 12.35, 'rot1': 0, 'rot0': 0, 'rot3': 0, 'rot2': 0, 'state': 'normal', 'yaw': -16.44, 'datetime': '2018-10-12 15:58:52.207468', 'mgs': 0, 'depth': -0.674, 'time': 15.01, 'pitch': -2.58, 'roll': 0.0}
{'lipoC2': 7.96, 'temp': 27.25, 'lipoC3S3': 12.35, 'rot1': 0, 'rot0': 0, 'rot3': 0, 'rot2': 0, 'state': 'normal', 'yaw': -16.3, 'datetime': '2018-10-12 15:58:52.305763', 'mgs': 0, 'depth': -0.751, 'time': 15.1, 'pitch': -2.88, 'roll': -1.22}
{'lipoC2': 7.96, 'temp': 27.25, 'lipoC3S3': 12.35, 'rot1': 0, 'rot0': 0, 'rot3': 0, 'rot2': 0, 'state': 'normal', 'yaw': -16.24, 'datetime': '2018-10-12 15:58:52.402852', 'mgs': 0, 'depth': -0.674, 'time': 15.2, 'pitch': -3.43, 'roll': -2.09}
{'lipoC2': 7.96, 'temp': 27.25, 'lipoC3S3': 12.35, 'rot1': 0, 'rot0': 0, 'rot3': 0, 'rot2': 0, 'state': 'normal', 'yaw': -16.45, 'datetime': '2018-10-12 15:58:52.500012', 'mgs': 0, 'depth': -0.598, 'time': 15.3, 'pitch': -3.71, 'roll': -2.29}
{'lipoC2': 7.95, 'temp': 27.25, 'lipoC3S3': 12.35, 'rot1': 0, 'rot0': 0, 'rot3': 0, 'rot2': 0, 'state': 'normal', 'yaw': -16.99, 'datetime': '2018-10-12 15:58:52.597971', 'mgs': 0, 'depth': -0.446, 'time': 15.4, 'pitch': -3.67, 'roll': -0.97}
{'lipoC2': 7.96, 'temp': 27.25, 'lipoC3S3': 12.35, 'rot1': 0, 'rot0': 0, 'rot3': 0, 'rot2': 0, 'state': 'normal', 'yaw': -17.69, 'datetime': '2018-10-12 15:58:52.696249', 'mgs': 0, 'depth': -0.522, 'time': 15.49, 'pitch': -3.12, 'roll': 1.27}
{'lipoC2': 7.96, 'temp': 27.31, 'lipoC3S3': 12.35, 'rot1': 0, 'rot0': 0, 'rot3': 0, 'rot2': 0, 'state': 'normal', 'yaw': -18.29, 'datetime': '2018-10-12 15:58:52.793881', 'mgs': 0, 'depth': -0.522, 'time': 15.59, 'pitch': -2.57, 'roll': 2.21}
{'lipoC2': 7.96, 'temp': 27.31, 'lipoC3S3': 12.35, 'rot1': 0, 'rot0': 0, 'rot3': 0, 'rot2': 0, 'state': 'normal', 'yaw': -18.71, 'datetime': '2018-10-12 15:58:52.885695', 'mgs': 0, 'depth': -0.522, 'time': 15.69, 'pitch': -2.29, 'roll': 1.99}
{'lipoC2': 7.95, 'temp': 27.25, 'lipoC3S3': 12.35, 'rot1': 0, 'rot0': 0, 'rot3': 0, 'rot2': 0, 'state': 'normal', 'yaw': -18.84, 'datetime': '2018-10-12 15:58:52.983393', 'mgs': 0, 'depth': -0.598, 'time': 15.79, 'pitch': -2.18, 'roll': 0.63}
{'lipoC2': 7.95, 'temp': 27.25, 'lipoC3S3': 12.34, 'rot1': 0, 'rot0': 0, 'rot3': 0, 'rot2': 0, 'state': 'normal', 'yaw': -18.81, 'datetime': '2018-10-12 15:58:53.081766', 'mgs': 0, 'depth': -0.522, 'time': 15.89, 'pitch': -2.17, 'roll': -1.81}
{'lipoC2': 7.95, 'temp': 27.25, 'lipoC3S3': 12.35, 'rot1': 0, 'rot0': 0, 'rot3': 0, 'rot2': 0, 'state': 'normal', 'yaw': -18.62, 'datetime': '2018-10-12 15:58:53.180159', 'mgs': 0, 'depth': -0.522, 'time': 15.98, 'pitch': -2.18, 'roll': -2.92}
{'lipoC2': 7.96, 'temp': 27.25, 'lipoC3S3': 12.35, 'rot1': 0, 'rot0': 0, 'rot3': 0, 'rot2': 0, 'state': 'normal', 'yaw': -18.3, 'datetime': '2018-10-12 15:58:53.277265', 'mgs': 0, 'depth': -0.522, 'time': 16.08, 'pitch': -2.14, 'roll': -2.49}
{'lipoC2': 7.96, 'temp': 27.25, 'lipoC3S3': 12.35, 'rot1': 0, 'rot0': 0, 'rot3': 0, 'rot2': 0, 'state': 'normal', 'yaw': -18.04, 'datetime': '2018-10-12 15:58:53.374370', 'mgs': 0, 'depth': -0.522, 'time': 16.18, 'pitch': -2.34, 'roll': -0.41}
{'lipoC2': 7.96, 'temp': 27.25, 'lipoC3S3': 12.34, 'rot1': 0, 'rot0': 0, 'rot3': 0, 'rot2': 0, 'state': 'normal', 'yaw': -17.86, 'datetime': '2018-10-12 15:58:53.472804', 'mgs': 0, 'depth': -0.522, 'time': 16.28, 'pitch': -2.73, 'roll': 2.23}
{'lipoC2': 7.96, 'temp': 27.25, 'lipoC3S3': 12.35, 'rot1': 0, 'rot0': 0, 'rot3': 0, 'rot2': 0, 'state': 'normal', 'yaw': -17.68, 'datetime': '2018-10-12 15:58:53.575243', 'mgs': 0, 'depth': -0.522, 'time': 16.37, 'pitch': -3.5, 'roll': 3.95}
{'lipoC2': 7.96, 'temp': 27.25, 'lipoC3S3': 12.35, 'rot1': 0, 'rot0': 0, 'rot3': 0, 'rot2': 0, 'state': 'normal', 'yaw': -17.64, 'datetime': '2018-10-12 15:58:53.672401', 'mgs': 0, 'depth': -0.446, 'time': 16.47, 'pitch': -4.49, 'roll': 4.35}
{'lipoC2': 7.96, 'temp': 27.25, 'lipoC3S3': 12.35, 'rot1': 0, 'rot0': 0, 'rot3': 0, 'rot2': 0, 'state': 'normal', 'yaw': -17.79, 'datetime': '2018-10-12 15:58:53.769729', 'mgs': 0, 'depth': -0.522, 'time': 16.57, 'pitch': -5.53, 'roll': 3.34}
{'lipoC2': 7.96, 'temp': 27.25, 'lipoC3S3': 12.35, 'rot1': 0, 'rot0': 0, 'rot3': 0, 'rot2': 0, 'state': 'normal', 'yaw': -18.02, 'datetime': '2018-10-12 15:58:53.866767', 'mgs': 0, 'depth': -0.598, 'time': 16.67, 'pitch': -6.61, 'roll': 1.43}
{'lipoC2': 7.96, 'temp': 27.25, 'lipoC3S3': 12.35, 'rot1': 0, 'rot0': 0, 'rot3': 0, 'rot2': 0, 'state': 'normal', 'yaw': -18.21, 'datetime': '2018-10-12 15:58:53.969542', 'mgs': 0, 'depth': -0.598, 'time': 16.76, 'pitch': -7.11, 'roll': -0.14}
{'lipoC2': 7.96, 'temp': 27.25, 'lipoC3S3': 12.35, 'rot1': 0, 'rot0': 0, 'rot3': 0, 'rot2': 0, 'state': 'normal', 'yaw': -18.33, 'datetime': '2018-10-12 15:58:54.055575', 'mgs': 0, 'depth': -0.446, 'time': 16.86, 'pitch': -6.76, 'roll': -0.88}
{'lipoC2': 7.95, 'temp': 27.25, 'lipoC3S3': 12.35, 'rot1': 0, 'rot0': 0, 'rot3': 0, 'rot2': 0, 'state': 'normal', 'yaw': -18.33, 'datetime': '2018-10-12 15:58:54.152683', 'mgs': 0, 'depth': -0.446, 'time': 16.96, 'pitch': -5.95, 'roll': -0.76}
{'lipoC2': 7.96, 'temp': 27.25, 'lipoC3S3': 12.35, 'rot1': 0, 'rot0': 0, 'rot3': 0, 'rot2': 0, 'state': 'normal', 'yaw': -18.26, 'datetime': '2018-10-12 15:58:54.249786', 'mgs': 0, 'depth': -0.446, 'time': 17.06, 'pitch': -4.95, 'roll': -0.17}
{'lipoC2': 7.96, 'temp': 27.25, 'lipoC3S3': 12.35, 'rot1': 0, 'rot0': 0, 'rot3': 0, 'rot2': 0, 'state': 'normal', 'yaw': -17.93, 'datetime': '2018-10-12 15:58:54.356842', 'mgs': 0, 'depth': -0.446, 'time': 17.15, 'pitch': -4.19, 'roll': 0.62}
{'lipoC2': 7.96, 'temp': 27.25, 'lipoC3S3': 12.35, 'rot1': 0, 'rot0': 0, 'rot3': 0, 'rot2': 0, 'state': 'normal', 'yaw': -17.48, 'datetime': '2018-10-12 15:58:54.445247', 'mgs': 0, 'depth': -0.522, 'time': 17.25, 'pitch': -4.02, 'roll': 1.4}
{'lipoC2': 7.96, 'temp': 27.25, 'lipoC3S3': 12.35, 'rot1': 0, 'rot0': 0, 'rot3': 0, 'rot2': 0, 'state': 'normal', 'yaw': -16.88, 'datetime': '2018-10-12 15:58:54.549922', 'mgs': 0, 'depth': -0.522, 'time': 17.35, 'pitch': -4.07, 'roll': 1.97}
{'lipoC2': 7.96, 'temp': 27.25, 'lipoC3S3': 12.35, 'rot1': 0, 'rot0': 0, 'rot3': 0, 'rot2': 0, 'state': 'normal', 'yaw': -16.26, 'datetime': '2018-10-12 15:58:54.640762', 'mgs': 0, 'depth': -0.522, 'time': 17.45, 'pitch': -4.26, 'roll': 2.05}
{'lipoC2': 7.95, 'temp': 27.25, 'lipoC3S3': 12.35, 'rot1': 0, 'rot0': 0, 'rot3': 0, 'rot2': 0, 'state': 'normal', 'yaw': -15.69, 'datetime': '2018-10-12 15:58:54.738469', 'mgs': 0, 'depth': -0.522, 'time': 17.54, 'pitch': -4.52, 'roll': 1.61}
{'lipoC2': 7.95, 'temp': 27.25, 'lipoC3S3': 12.35, 'rot1': 0, 'rot0': 0, 'rot3': 0, 'rot2': 0, 'state': 'normal', 'yaw': -15.21, 'datetime': '2018-10-12 15:58:54.836428', 'mgs': 0, 'depth': -0.522, 'time': 17.64, 'pitch': -4.4, 'roll': 1.06}
{'lipoC2': 7.96, 'temp': 27.25, 'lipoC3S3': 12.35, 'rot1': 0, 'rot0': 0, 'rot3': 0, 'rot2': 0, 'state': 'normal', 'yaw': -14.78, 'datetime': '2018-10-12 15:58:54.934792', 'mgs': 0, 'depth': -0.522, 'time': 17.74, 'pitch': -4.04, 'roll': 0.43}
{'lipoC2': 7.95, 'temp': 27.25, 'lipoC3S3': 12.34, 'rot1': 0, 'rot0': 0, 'rot3': 0, 'rot2': 0, 'state': 'normal', 'yaw': -14.55, 'datetime': '2018-10-12 15:58:55.031834', 'mgs': 0, 'depth': -0.522, 'time': 17.84, 'pitch': -3.71, 'roll': 0.03}
{'lipoC2': 7.95, 'temp': 27.25, 'lipoC3S3': 12.35, 'rot1': 0, 'rot0': 0, 'rot3': 0, 'rot2': 0, 'state': 'normal', 'yaw': -14.6, 'datetime': '2018-10-12 15:58:55.128971', 'mgs': 0, 'depth': -0.522, 'time': 17.93, 'pitch': -3.56, 'roll': 0.21}
{'lipoC2': 7.96, 'temp': 27.25, 'lipoC3S3': 12.35, 'rot1': 0, 'rot0': 0, 'rot3': 0, 'rot2': 0, 'state': 'normal', 'yaw': -14.83, 'datetime': '2018-10-12 15:58:55.226814', 'mgs': 0, 'depth': -0.598, 'time': 18.03, 'pitch': -3.63, 'roll': 0.86}
{'lipoC2': 7.96, 'temp': 27.25, 'lipoC3S3': 12.35, 'rot1': 0, 'rot0': 0, 'rot3': 0, 'rot2': 0, 'state': 'normal', 'yaw': -15.37, 'datetime': '2018-10-12 15:58:55.328654', 'mgs': 0, 'depth': -0.598, 'time': 18.13, 'pitch': -3.7, 'roll': 2.01}
{'lipoC2': 7.96, 'temp': 27.25, 'lipoC3S3': 12.34, 'rot1': 0, 'rot0': 0, 'rot3': 0, 'rot2': 0, 'state': 'normal', 'yaw': -16.07, 'datetime': '2018-10-12 15:58:55.425798', 'mgs': 0, 'depth': -0.598, 'time': 18.23, 'pitch': -3.63, 'roll': 3.08}
{'lipoC2': 7.95, 'temp': 27.25, 'lipoC3S3': 12.35, 'rot1': 0, 'rot0': 0, 'rot3': 0, 'rot2': 0, 'state': 'normal', 'yaw': -16.96, 'datetime': '2018-10-12 15:58:55.522876', 'mgs': 0, 'depth': -0.522, 'time': 18.32, 'pitch': -3.69, 'roll': 3.43}
{'lipoC2': 7.96, 'temp': 27.31, 'lipoC3S3': 12.35, 'rot1': 0, 'rot0': 0, 'rot3': 0, 'rot2': 0, 'state': 'normal', 'yaw': -17.88, 'datetime': '2018-10-12 15:58:55.620002', 'mgs': 0, 'depth': -0.598, 'time': 18.42, 'pitch': -3.72, 'roll': 3.06}
{'lipoC2': 7.96, 'temp': 27.31, 'lipoC3S3': 12.35, 'rot1': 0, 'rot0': 0, 'rot3': 0, 'rot2': 0, 'state': 'normal', 'yaw': -18.93, 'datetime': '2018-10-12 15:58:55.717061', 'mgs': 0, 'depth': -0.522, 'time': 18.52, 'pitch': -3.63, 'roll': 1.99}
{'lipoC2': 7.96, 'temp': 27.31, 'lipoC3S3': 12.35, 'rot1': 0, 'rot0': 0, 'rot3': 0, 'rot2': 0, 'state': 'normal', 'yaw': -19.63, 'datetime': '2018-10-12 15:58:55.814214', 'mgs': 0, 'depth': -0.522, 'time': 18.62, 'pitch': -3.57, 'roll': 0.65}
{'lipoC2': 7.96, 'temp': 27.31, 'lipoC3S3': 12.35, 'rot1': 0, 'rot0': 0, 'rot3': 0, 'rot2': 0, 'state': 'normal', 'yaw': -19.76, 'datetime': '2018-10-12 15:58:55.911320', 'mgs': 0, 'depth': -0.598, 'time': 18.71, 'pitch': -3.61, 'roll': -0.34}
{'lipoC2': 7.96, 'temp': 27.31, 'lipoC3S3': 12.35, 'rot1': 0, 'rot0': 0, 'rot3': 0, 'rot2': 0, 'state': 'normal', 'yaw': -19.35, 'datetime': '2018-10-12 15:58:56.008541', 'mgs': 0, 'depth': -0.598, 'time': 18.81, 'pitch': -3.69, 'roll': -0.85}
{'lipoC2': 7.96, 'temp': 27.25, 'lipoC3S3': 12.35, 'rot1': 0, 'rot0': 0, 'rot3': 0, 'rot2': 0, 'state': 'normal', 'yaw': -18.75, 'datetime': '2018-10-12 15:58:56.105518', 'mgs': 0, 'depth': -0.598, 'time': 18.91, 'pitch': -3.51, 'roll': -0.57}
{'lipoC2': 7.95, 'temp': 27.25, 'lipoC3S3': 12.34, 'rot1': 0, 'rot0': 0, 'rot3': 0, 'rot2': 0, 'state': 'normal', 'yaw': -18.36, 'datetime': '2018-10-12 15:58:56.203492', 'mgs': 0, 'depth': -0.522, 'time': 19.0, 'pitch': -3.09, 'roll': 0.23}
{'lipoC2': 7.96, 'temp': 27.25, 'lipoC3S3': 12.35, 'rot1': 0, 'rot0': 0, 'rot3': 0, 'rot2': 0, 'state': 'normal', 'yaw': -17.96, 'datetime': '2018-10-12 15:58:56.301898', 'mgs': 0, 'depth': -0.522, 'time': 19.1, 'pitch': -2.55, 'roll': 1.34}
{'lipoC2': 7.95, 'temp': 27.31, 'lipoC3S3': 12.34, 'rot1': 0, 'rot0': 0, 'rot3': 0, 'rot2': 0, 'state': 'normal', 'yaw': -17.57, 'datetime': '2018-10-12 15:58:56.398999', 'mgs': 0, 'depth': -0.522, 'time': 19.2, 'pitch': -2.23, 'roll': 2.27}
{'lipoC2': 7.96, 'temp': 27.31, 'lipoC3S3': 12.34, 'rot1': 0, 'rot0': 0, 'rot3': 0, 'rot2': 0, 'state': 'normal', 'yaw': -17.22, 'datetime': '2018-10-12 15:58:56.493946', 'mgs': 0, 'depth': -0.522, 'time': 19.3, 'pitch': -2.2, 'roll': 2.61}
{'lipoC2': 7.96, 'temp': 27.31, 'lipoC3S3': 12.34, 'rot1': 0, 'rot0': 0, 'rot3': 0, 'rot2': 0, 'state': 'normal', 'yaw': -16.92, 'datetime': '2018-10-12 15:58:56.593977', 'mgs': 0, 'depth': -0.598, 'time': 19.4, 'pitch': -2.84, 'roll': 2.13}
{'lipoC2': 7.96, 'temp': 27.31, 'lipoC3S3': 12.35, 'rot1': 0, 'rot0': 0, 'rot3': 0, 'rot2': 0, 'state': 'normal', 'yaw': -16.62, 'datetime': '2018-10-12 15:58:56.692394', 'mgs': 0, 'depth': -0.522, 'time': 19.49, 'pitch': -3.95, 'roll': 1.08}
{'lipoC2': 7.96, 'temp': 27.31, 'lipoC3S3': 12.35, 'rot1': 0, 'rot0': 0, 'rot3': 0, 'rot2': 0, 'state': 'normal', 'yaw': -16.44, 'datetime': '2018-10-12 15:58:56.789547', 'mgs': 0, 'depth': -0.522, 'time': 19.59, 'pitch': -4.68, 'roll': 0.52}
{'lipoC2': 7.96, 'temp': 27.25, 'lipoC3S3': 12.35, 'rot1': 0, 'rot0': 0, 'rot3': 0, 'rot2': 0, 'state': 'normal', 'yaw': -16.36, 'datetime': '2018-10-12 15:58:56.886592', 'mgs': 0, 'depth': -0.446, 'time': 19.69, 'pitch': -4.76, 'roll': 0.46}
{'lipoC2': 7.96, 'temp': 27.25, 'lipoC3S3': 12.34, 'rot1': 0, 'rot0': 0, 'rot3': 0, 'rot2': 0, 'state': 'normal', 'yaw': -16.47, 'datetime': '2018-10-12 15:58:56.984550', 'mgs': 0, 'depth': -0.522, 'time': 19.79, 'pitch': -4.09, 'roll': 1.23}
{'lipoC2': 7.96, 'temp': 27.25, 'lipoC3S3': 12.35, 'rot1': 0, 'rot0': 0, 'rot3': 0, 'rot2': 0, 'state': 'normal', 'yaw': -16.62, 'datetime': '2018-10-12 15:58:57.081655', 'mgs': 0, 'depth': -0.446, 'time': 19.89, 'pitch': -3.2, 'roll': 1.82}
{'lipoC2': 7.96, 'temp': 27.25, 'lipoC3S3': 12.35, 'rot1': 0, 'rot0': 0, 'rot3': 0, 'rot2': 0, 'state': 'normal', 'yaw': -16.48, 'datetime': '2018-10-12 15:58:57.178819', 'mgs': 0, 'depth': -0.446, 'time': 19.98, 'pitch': -2.81, 'roll': 1.91}
{'lipoC2': 7.96, 'temp': 27.25, 'lipoC3S3': 12.35, 'rot1': 0, 'rot0': 0, 'rot3': 0, 'rot2': 0, 'state': 'normal', 'yaw': -16.28, 'datetime': '2018-10-12 15:58:57.275834', 'mgs': 0, 'depth': -0.522, 'time': 20.08, 'pitch': -2.77, 'roll': 1.3}
{'lipoC2': 7.96, 'temp': 27.25, 'lipoC3S3': 12.35, 'rot1': 0, 'rot0': 0, 'rot3': 0, 'rot2': 0, 'state': 'normal', 'yaw': -16.1, 'datetime': '2018-10-12 15:58:57.372918', 'mgs': 0, 'depth': -0.522, 'time': 20.18, 'pitch': -3.05, 'roll': 0.05}
{'lipoC2': 7.96, 'temp': 27.25, 'lipoC3S3': 12.34, 'rot1': 0, 'rot0': 0, 'rot3': 0, 'rot2': 0, 'state': 'normal', 'yaw': -15.85, 'datetime': '2018-10-12 15:58:57.470108', 'mgs': 0, 'depth': -0.522, 'time': 20.27, 'pitch': -3.26, 'roll': -1.32}
{'lipoC2': 7.96, 'temp': 27.31, 'lipoC3S3': 12.35, 'rot1': 0, 'rot0': 0, 'rot3': 0, 'rot2': 0, 'state': 'normal', 'yaw': -15.76, 'datetime': '2018-10-12 15:58:57.567140', 'mgs': 0, 'depth': -0.522, 'time': 20.37, 'pitch': -2.91, 'roll': -1.79}
{'lipoC2': 7.96, 'temp': 27.31, 'lipoC3S3': 12.35, 'rot1': 0, 'rot0': 0, 'rot3': 0, 'rot2': 0, 'state': 'normal', 'yaw': -15.84, 'datetime': '2018-10-12 15:58:57.664265', 'mgs': 0, 'depth': -0.598, 'time': 20.47, 'pitch': -2.16, 'roll': -1.41}
{'lipoC2': 7.96, 'temp': 27.31, 'lipoC3S3': 12.35, 'rot1': 0, 'rot0': 0, 'rot3': 0, 'rot2': 0, 'state': 'normal', 'yaw': -16.01, 'datetime': '2018-10-12 15:58:57.759698', 'mgs': 0, 'depth': -0.522, 'time': 20.56, 'pitch': -1.26, 'roll': -0.07}
{'lipoC2': 7.95, 'temp': 27.31, 'lipoC3S3': 12.34, 'rot1': 0, 'rot0': 0, 'rot3': 0, 'rot2': 0, 'state': 'normal', 'yaw': -15.93, 'datetime': '2018-10-12 15:58:57.858614', 'mgs': 0, 'depth': -0.522, 'time': 20.66, 'pitch': -0.92, 'roll': 1.27}
{'lipoC2': 7.96, 'temp': 27.31, 'lipoC3S3': 12.35, 'rot1': 0, 'rot0': 0, 'rot3': 0, 'rot2': 0, 'state': 'normal', 'yaw': -15.65, 'datetime': '2018-10-12 15:58:57.956559', 'mgs': 0, 'depth': -0.522, 'time': 20.76, 'pitch': -1.3, 'roll': 2.02}
{'lipoC2': 7.96, 'temp': 27.31, 'lipoC3S3': 12.34, 'rot1': 0, 'rot0': 0, 'rot3': 0, 'rot2': 0, 'state': 'normal', 'yaw': -15.3, 'datetime': '2018-10-12 15:58:58.054746', 'mgs': 0, 'depth': -0.598, 'time': 20.86, 'pitch': -2.33, 'roll': 2.1}
{'lipoC2': 7.96, 'temp': 27.31, 'lipoC3S3': 12.34, 'rot1': 0, 'rot0': 0, 'rot3': 0, 'rot2': 0, 'state': 'normal', 'yaw': -14.94, 'datetime': '2018-10-12 15:58:58.152991', 'mgs': 0, 'depth': -0.598, 'time': 20.96, 'pitch': -3.46, 'roll': 1.5}
{'lipoC2': 7.96, 'temp': 27.31, 'lipoC3S3': 12.34, 'rot1': 0, 'rot0': 0, 'rot3': 0, 'rot2': 0, 'state': 'normal', 'yaw': -14.55, 'datetime': '2018-10-12 15:58:58.250145', 'mgs': 0, 'depth': -0.598, 'time': 21.05, 'pitch': -4.15, 'roll': 0.53}
{'lipoC2': 7.96, 'temp': 27.31, 'lipoC3S3': 12.35, 'rot1': 0, 'rot0': 0, 'rot3': 0, 'rot2': 0, 'state': 'normal', 'yaw': -14.22, 'datetime': '2018-10-12 15:58:58.347410', 'mgs': 0, 'depth': -0.522, 'time': 21.15, 'pitch': -3.98, 'roll': -0.3}
{'lipoC2': 7.96, 'temp': 27.31, 'lipoC3S3': 12.35, 'rot1': 0, 'rot0': 0, 'rot3': 0, 'rot2': 0, 'state': 'normal', 'yaw': -13.93, 'datetime': '2018-10-12 15:58:58.445748', 'mgs': 0, 'depth': -0.522, 'time': 21.25, 'pitch': -3.19, 'roll': -0.74}
{'lipoC2': 7.95, 'temp': 27.25, 'lipoC3S3': 12.34, 'rot1': 0, 'rot0': 0, 'rot3': 0, 'rot2': 0, 'state': 'normal', 'yaw': -13.29, 'datetime': '2018-10-12 15:58:58.544179', 'mgs': 0, 'depth': -0.446, 'time': 21.35, 'pitch': -1.95, 'roll': -0.53}
{'lipoC2': 7.96, 'temp': 27.25, 'lipoC3S3': 12.34, 'rot1': 0, 'rot0': 0, 'rot3': 0, 'rot2': 0, 'state': 'normal', 'yaw': -12.19, 'datetime': '2018-10-12 15:58:58.639339', 'mgs': 0, 'depth': -0.522, 'time': 21.44, 'pitch': -1.19, 'roll': 0.42}
{'lipoC2': 7.96, 'temp': 27.25, 'lipoC3S3': 12.35, 'rot1': 0, 'rot0': 0, 'rot3': 0, 'rot2': 0, 'state': 'normal', 'yaw': -11.42, 'datetime': '2018-10-12 15:58:58.738319', 'mgs': 0, 'depth': -0.446, 'time': 21.54, 'pitch': -1.44, 'roll': 1.74}
{'lipoC2': 7.96, 'temp': 27.31, 'lipoC3S3': 12.35, 'rot1': 0, 'rot0': 0, 'rot3': 0, 'rot2': 0, 'state': 'normal', 'yaw': -11.07, 'datetime': '2018-10-12 15:58:58.833066', 'mgs': 0, 'depth': -0.369, 'time': 21.64, 'pitch': -2.78, 'roll': 3.27}
{'lipoC2': 7.96, 'temp': 27.31, 'lipoC3S3': 12.35, 'rot1': 0, 'rot0': 0, 'rot3': 0, 'rot2': 0, 'state': 'normal', 'yaw': -10.75, 'datetime': '2018-10-12 15:58:58.932670', 'mgs': 0, 'depth': -0.369, 'time': 21.74, 'pitch': -4.32, 'roll': 4.47}
{'lipoC2': 7.96, 'temp': 27.25, 'lipoC3S3': 12.35, 'rot1': 0, 'rot0': 0, 'rot3': 0, 'rot2': 0, 'state': 'normal', 'yaw': -10.4, 'datetime': '2018-10-12 15:58:59.029684', 'mgs': 0, 'depth': -0.369, 'time': 21.83, 'pitch': -5.16, 'roll': 4.89}
{'lipoC2': 7.96, 'temp': 27.25, 'lipoC3S3': 12.35, 'rot1': 0, 'rot0': 0, 'rot3': 0, 'rot2': 0, 'state': 'normal', 'yaw': -10.0, 'datetime': '2018-10-12 15:58:59.126851', 'mgs': 0, 'depth': -0.369, 'time': 21.93, 'pitch': -5.27, 'roll': 4.75}
{'lipoC2': 7.96, 'temp': 27.25, 'lipoC3S3': 12.35, 'rot1': 0, 'rot0': 0, 'rot3': 0, 'rot2': 0, 'state': 'normal', 'yaw': -9.57, 'datetime': '2018-10-12 15:58:59.223877', 'mgs': 0, 'depth': -0.446, 'time': 22.03, 'pitch': -4.5, 'roll': 3.95}
{'lipoC2': 7.96, 'temp': 27.25, 'lipoC3S3': 12.34, 'rot1': 0, 'rot0': 0, 'rot3': 0, 'rot2': 0, 'state': 'normal', 'yaw': -9.19, 'datetime': '2018-10-12 15:58:59.321022', 'mgs': 0, 'depth': -0.446, 'time': 22.13, 'pitch': -3.56, 'roll': 2.36}
{'lipoC2': 7.96, 'temp': 27.25, 'lipoC3S3': 12.34, 'rot1': 0, 'rot0': 0, 'rot3': 0, 'rot2': 0, 'state': 'normal', 'yaw': -8.88, 'datetime': '2018-10-12 15:58:59.418551', 'mgs': 0, 'depth': -0.446, 'time': 22.22, 'pitch': -3.4, 'roll': 1.36}
{'lipoC2': 7.96, 'temp': 27.25, 'lipoC3S3': 12.35, 'rot1': 0, 'rot0': 0, 'rot3': 0, 'rot2': 0, 'state': 'normal', 'yaw': -8.56, 'datetime': '2018-10-12 15:58:59.515520', 'mgs': 0, 'depth': -0.446, 'time': 22.32, 'pitch': -3.78, 'roll': 0.44}
{'lipoC2': 7.96, 'temp': 27.25, 'lipoC3S3': 12.35, 'rot1': 0, 'rot0': 0, 'rot3': 0, 'rot2': 0, 'state': 'normal', 'yaw': -8.4, 'datetime': '2018-10-12 15:58:59.612646', 'mgs': 0, 'depth': -0.446, 'time': 22.42, 'pitch': -4.7, 'roll': 0.59}
{'lipoC2': 7.96, 'temp': 27.25, 'lipoC3S3': 12.34, 'rot1': 0, 'rot0': 0, 'rot3': 0, 'rot2': 0, 'state': 'normal', 'yaw': -8.44, 'datetime': '2018-10-12 15:58:59.709738', 'mgs': 0, 'depth': -0.369, 'time': 22.51, 'pitch': -6.04, 'roll': 2.09}
{'lipoC2': 7.96, 'temp': 27.25, 'lipoC3S3': 12.35, 'rot1': 0, 'rot0': 0, 'rot3': 0, 'rot2': 0, 'state': 'normal', 'yaw': -8.6, 'datetime': '2018-10-12 15:58:59.808333', 'mgs': 0, 'depth': -0.446, 'time': 22.61, 'pitch': -7.11, 'roll': 2.64}
{'lipoC2': 7.96, 'temp': 27.25, 'lipoC3S3': 12.35, 'rot1': 0, 'rot0': 0, 'rot3': 0, 'rot2': 0, 'state': 'normal', 'yaw': -8.83, 'datetime': '2018-10-12 15:58:59.906206', 'mgs': 0, 'depth': -0.369, 'time': 22.71, 'pitch': -7.96, 'roll': 2.61}
{'lipoC2': 7.96, 'temp': 27.25, 'lipoC3S3': 12.35, 'rot1': 0, 'rot0': 0, 'rot3': 0, 'rot2': 0, 'state': 'normal', 'yaw': -8.96, 'datetime': '2018-10-12 15:58:59.999098', 'mgs': 0, 'depth': -0.446, 'time': 22.81, 'pitch': -7.91, 'roll': 1.73}
{'lipoC2': 7.96, 'temp': 27.25, 'lipoC3S3': 12.35, 'rot1': 0, 'rot0': 0, 'rot3': 0, 'rot2': 0, 'state': 'normal', 'yaw': -9.06, 'datetime': '2018-10-12 15:59:00.100418', 'mgs': 0, 'depth': -0.446, 'time': 22.91, 'pitch': -7.14, 'roll': -0.32}
{'lipoC2': 7.96, 'temp': 27.25, 'lipoC3S3': 12.35, 'rot1': 0, 'rot0': 0, 'rot3': 0, 'rot2': 0, 'state': 'normal', 'yaw': -9.19, 'datetime': '2018-10-12 15:59:00.198846', 'mgs': 0, 'depth': -0.446, 'time': 23.0, 'pitch': -6.38, 'roll': -2.13}
{'lipoC2': 7.96, 'temp': 27.25, 'lipoC3S3': 12.35, 'rot1': 0, 'rot0': 0, 'rot3': 0, 'rot2': 0, 'state': 'normal', 'yaw': -9.23, 'datetime': '2018-10-12 15:59:00.296694', 'mgs': 0, 'depth': -0.522, 'time': 23.1, 'pitch': -5.63, 'roll': -2.6}
{'lipoC2': 7.96, 'temp': 27.25, 'lipoC3S3': 12.35, 'rot1': 0, 'rot0': 0, 'rot3': 0, 'rot2': 0, 'state': 'normal', 'yaw': -9.33, 'datetime': '2018-10-12 15:59:00.393848', 'mgs': 0, 'depth': -0.598, 'time': 23.2, 'pitch': -4.99, 'roll': -1.96}
{'lipoC2': 7.96, 'temp': 27.31, 'lipoC3S3': 12.35, 'rot1': 0, 'rot0': 0, 'rot3': 0, 'rot2': 0, 'state': 'normal', 'yaw': -9.73, 'datetime': '2018-10-12 15:59:00.490983', 'mgs': 0, 'depth': -0.522, 'time': 23.3, 'pitch': -5.54, 'roll': 0.37}
{'lipoC2': 7.96, 'temp': 27.31, 'lipoC3S3': 12.35, 'rot1': 0, 'rot0': 0, 'rot3': 0, 'rot2': 0, 'state': 'normal', 'yaw': -10.15, 'datetime': '2018-10-12 15:59:00.589391', 'mgs': 0, 'depth': -0.522, 'time': 23.4, 'pitch': -6.47, 'roll': 1.9}
{'lipoC2': 7.96, 'temp': 27.31, 'lipoC3S3': 12.35, 'rot1': 0, 'rot0': 0, 'rot3': 0, 'rot2': 0, 'state': 'normal', 'yaw': -10.54, 'datetime': '2018-10-12 15:59:00.686490', 'mgs': 0, 'depth': -0.598, 'time': 23.49, 'pitch': -7.41, 'roll': 2.3}
{'lipoC2': 7.96, 'temp': 27.31, 'lipoC3S3': 12.34, 'rot1': 0, 'rot0': 0, 'rot3': 0, 'rot2': 0, 'state': 'normal', 'yaw': -10.9, 'datetime': '2018-10-12 15:59:00.783614', 'mgs': 0, 'depth': -0.522, 'time': 23.59, 'pitch': -8.2, 'roll': 1.17}
{'lipoC2': 7.96, 'temp': 27.31, 'lipoC3S3': 12.35, 'rot1': 0, 'rot0': 0, 'rot3': 0, 'rot2': 0, 'state': 'normal', 'yaw': -11.33, 'datetime': '2018-10-12 15:59:00.880850', 'mgs': 0, 'depth': -0.522, 'time': 23.69, 'pitch': -8.6, 'roll': -0.81}
{'lipoC2': 7.96, 'temp': 27.25, 'lipoC3S3': 12.34, 'rot1': 0, 'rot0': 0, 'rot3': 0, 'rot2': 0, 'state': 'normal', 'yaw': -11.94, 'datetime': '2018-10-12 15:59:00.978171', 'mgs': 0, 'depth': -0.522, 'time': 23.78, 'pitch': -8.3, 'roll': -3.23}
{'lipoC2': 7.95, 'temp': 27.25, 'lipoC3S3': 12.34, 'rot1': 0, 'rot0': 0, 'rot3': 0, 'rot2': 0, 'state': 'normal', 'yaw': -12.7, 'datetime': '2018-10-12 15:59:01.075201', 'mgs': 0, 'depth': -0.522, 'time': 23.88, 'pitch': -7.2, 'roll': -4.56}
{'lipoC2': 7.96, 'temp': 27.25, 'lipoC3S3': 12.35, 'rot1': 0, 'rot0': 0, 'rot3': 0, 'rot2': 0, 'state': 'normal', 'yaw': -13.45, 'datetime': '2018-10-12 15:59:01.172154', 'mgs': 0, 'depth': -0.674, 'time': 23.98, 'pitch': -5.81, 'roll': -4.85}
{'lipoC2': 7.96, 'temp': 27.31, 'lipoC3S3': 12.35, 'rot1': 0, 'rot0': 0, 'rot3': 0, 'rot2': 0, 'state': 'normal', 'yaw': -14.38, 'datetime': '2018-10-12 15:59:01.269637', 'mgs': 0, 'depth': -0.522, 'time': 24.08, 'pitch': -5.03, 'roll': -4.02}
{'lipoC2': 7.96, 'temp': 27.31, 'lipoC3S3': 12.35, 'rot1': 0, 'rot0': 0, 'rot3': 0, 'rot2': 0, 'state': 'normal', 'yaw': -15.24, 'datetime': '2018-10-12 15:59:01.366509', 'mgs': 0, 'depth': -0.598, 'time': 24.17, 'pitch': -4.75, 'roll': -2.2}
{'lipoC2': 7.96, 'temp': 27.25, 'lipoC3S3': 12.35, 'rot1': 0, 'rot0': 0, 'rot3': 0, 'rot2': 0, 'state': 'normal', 'yaw': -15.94, 'datetime': '2018-10-12 15:59:01.463465', 'mgs': 0, 'depth': -0.674, 'time': 24.27, 'pitch': -4.92, 'roll': -1.36}
{'lipoC2': 7.96, 'temp': 27.25, 'lipoC3S3': 12.35, 'rot1': 0, 'rot0': 0, 'rot3': 0, 'rot2': 0, 'state': 'normal', 'yaw': -16.53, 'datetime': '2018-10-12 15:59:01.561731', 'mgs': 0, 'depth': -0.598, 'time': 24.37, 'pitch': -5.77, 'roll': -1.22}
{'lipoC2': 7.96, 'temp': 27.25, 'lipoC3S3': 12.34, 'rot1': 0, 'rot0': 0, 'rot3': 0, 'rot2': 0, 'state': 'normal', 'yaw': -17.14, 'datetime': '2018-10-12 15:59:01.660543', 'mgs': 0, 'depth': -0.598, 'time': 24.47, 'pitch': -6.93, 'roll': -1.58}
{'lipoC2': 7.96, 'temp': 27.31, 'lipoC3S3': 12.34, 'rot1': 0, 'rot0': 0, 'rot3': 0, 'rot2': 0, 'state': 'normal', 'yaw': -17.72, 'datetime': '2018-10-12 15:59:01.757169', 'mgs': 0, 'depth': -0.674, 'time': 24.56, 'pitch': -7.58, 'roll': -2.32}
{'lipoC2': 7.96, 'temp': 27.31, 'lipoC3S3': 12.35, 'rot1': 0, 'rot0': 0, 'rot3': 0, 'rot2': 0, 'state': 'normal', 'yaw': -18.25, 'datetime': '2018-10-12 15:59:01.854305', 'mgs': 0, 'depth': -0.674, 'time': 24.66, 'pitch': -7.5, 'roll': -3.14}
{'lipoC2': 7.96, 'temp': 27.25, 'lipoC3S3': 12.35, 'rot1': 0, 'rot0': 0, 'rot3': 0, 'rot2': 0, 'state': 'normal', 'yaw': -18.6, 'datetime': '2018-10-12 15:59:01.951088', 'mgs': 0, 'depth': -0.598, 'time': 24.76, 'pitch': -6.91, 'roll': -3.72}
{'lipoC2': 7.96, 'temp': 27.25, 'lipoC3S3': 12.35, 'rot1': 0, 'rot0': 0, 'rot3': 0, 'rot2': 0, 'state': 'normal', 'yaw': -18.68, 'datetime': '2018-10-12 15:59:02.050653', 'mgs': 0, 'depth': -0.674, 'time': 24.86, 'pitch': -5.93, 'roll': -4.07}
{'lipoC2': 7.96, 'temp': 27.25, 'lipoC3S3': 12.35, 'rot1': 0, 'rot0': 0, 'rot3': 0, 'rot2': 0, 'state': 'normal', 'yaw': -18.41, 'datetime': '2018-10-12 15:59:02.147760', 'mgs': 0, 'depth': -0.674, 'time': 24.95, 'pitch': -5.15, 'roll': -3.97}
{'lipoC2': 7.96, 'temp': 27.31, 'lipoC3S3': 12.35, 'rot1': 0, 'rot0': 0, 'rot3': 0, 'rot2': 0, 'state': 'normal', 'yaw': -18.0, 'datetime': '2018-10-12 15:59:02.244778', 'mgs': 0, 'depth': -0.674, 'time': 25.05, 'pitch': -4.91, 'roll': -3.34}
{'lipoC2': 7.96, 'temp': 27.31, 'lipoC3S3': 12.35, 'rot1': 0, 'rot0': 0, 'rot3': 0, 'rot2': 0, 'state': 'normal', 'yaw': -17.82, 'datetime': '2018-10-12 15:59:02.342548', 'mgs': 0, 'depth': -0.751, 'time': 25.15, 'pitch': -5.32, 'roll': -2.43}
{'lipoC2': 7.96, 'temp': 27.25, 'lipoC3S3': 12.35, 'rot1': 0, 'rot0': 0, 'rot3': 0, 'rot2': 0, 'state': 'normal', 'yaw': -17.87, 'datetime': '2018-10-12 15:59:02.439886', 'mgs': 0, 'depth': -0.751, 'time': 25.25, 'pitch': -6.53, 'roll': -1.45}
