{'lipoC2': 8.35, 'temp': 26.81, 'lipoC3S3': 12.67, 'rot1': 0, 'rot0': 0, 'rot3': 0, 'rot2': 0, 'state': 'normal', 'yaw': 0.0, 'datetime': '2018-10-12 18:40:11.265169', 'mgs': 0, 'depth': -0.064, 'time': 1.26, 'pitch': 0.74, 'roll': -4.45}
{'lipoC2': 8.35, 'temp': 26.81, 'lipoC3S3': 12.68, 'rot1': 0, 'rot0': 0, 'rot3': 0, 'rot2': 0, 'state': 'normal', 'yaw': 0.0, 'datetime': '2018-10-12 18:40:11.281847', 'mgs': 0, 'depth': -0.064, 'time': 1.36, 'pitch': 0.74, 'roll': -4.45}
{'lipoC2': 8.36, 'temp': 26.81, 'lipoC3S3': 12.67, 'rot1': 0, 'rot0': 0, 'rot3': 0, 'rot2': 0, 'state': 'normal', 'yaw': 0.0, 'datetime': '2018-10-12 18:40:11.298466', 'mgs': 0, 'depth': -0.064, 'time': 1.46, 'pitch': 0.74, 'roll': -4.45}
{'lipoC2': 8.35, 'temp': 26.75, 'lipoC3S3': 12.67, 'rot1': 0, 'rot0': 0, 'rot3': 0, 'rot2': 0, 'state': 'normal', 'yaw': 0.0, 'datetime': '2018-10-12 18:40:11.315138', 'mgs': 0, 'depth': -0.064, 'time': 1.55, 'pitch': 0.74, 'roll': -4.45}
{'lipoC2': 8.35, 'temp': 26.75, 'lipoC3S3': 12.67, 'rot1': 0, 'rot0': 0, 'rot3': 0, 'rot2': 0, 'state': 'normal', 'yaw': 0.0, 'datetime': '2018-10-12 18:40:11.331791', 'mgs': 0, 'depth': -0.064, 'time': 1.65, 'pitch': 0.74, 'roll': -4.45}
{'lipoC2': 8.35, 'temp': 26.75, 'lipoC3S3': 12.67, 'rot1': 0, 'rot0': 0, 'rot3': 0, 'rot2': 0, 'state': 'normal', 'yaw': 0.0, 'datetime': '2018-10-12 18:40:11.345404', 'mgs': 0, 'depth': -0.064, 'time': 1.75, 'pitch': 0.74, 'roll': -4.45}
{'lipoC2': 8.35, 'temp': 26.75, 'lipoC3S3': 12.68, 'rot1': 0, 'rot0': 0, 'rot3': 0, 'rot2': 0, 'state': 'normal', 'yaw': 0.0, 'datetime': '2018-10-12 18:40:11.352639', 'mgs': 0, 'depth': -0.064, 'time': 1.85, 'pitch': 0.74, 'roll': -4.45}
{'lipoC2': 8.35, 'temp': 26.75, 'lipoC3S3': 12.67, 'rot1': 0, 'rot0': 0, 'rot3': 0, 'rot2': 0, 'state': 'normal', 'yaw': 0.0, 'datetime': '2018-10-12 18:40:11.359893', 'mgs': 0, 'depth': -0.064, 'time': 1.94, 'pitch': 0.74, 'roll': -4.45}
{'lipoC2': 8.35, 'temp': 26.75, 'lipoC3S3': 12.68, 'rot1': 0, 'rot0': 0, 'rot3': 0, 'rot2': 0, 'state': 'normal', 'yaw': 0.0, 'datetime': '2018-10-12 18:40:11.367168', 'mgs': 0, 'depth': -0.064, 'time': 2.04, 'pitch': 0.74, 'roll': -4.45}
{'lipoC2': 8.35, 'temp': 26.75, 'lipoC3S3': 12.67, 'rot1': 0, 'rot0': 0, 'rot3': 0, 'rot2': 0, 'state': 'normal', 'yaw': 0.0, 'datetime': '2018-10-12 18:40:11.374429', 'mgs': 0, 'depth': -0.064, 'time': 2.14, 'pitch': 0.74, 'roll': -4.45}
{'lipoC2': 8.35, 'temp': 26.69, 'lipoC3S3': 12.67, 'rot1': 0, 'rot0': 0, 'rot3': 0, 'rot2': 0, 'state': 'normal', 'yaw': 0.0, 'datetime': '2018-10-12 18:40:11.381639', 'mgs': 0, 'depth': -0.14, 'time': 2.24, 'pitch': 0.74, 'roll': -4.45}
{'lipoC2': 8.35, 'temp': 26.69, 'lipoC3S3': 12.67, 'rot1': 0, 'rot0': 0, 'rot3': 0, 'rot2': 0, 'state': 'normal', 'yaw': 0.0, 'datetime': '2018-10-12 18:40:11.388852', 'mgs': 0, 'depth': -0.064, 'time': 2.34, 'pitch': 0.74, 'roll': -4.45}
{'lipoC2': 8.35, 'temp': 26.75, 'lipoC3S3': 12.67, 'rot1': 0, 'rot0': 0, 'rot3': 0, 'rot2': 0, 'state': 'normal', 'yaw': 0.0, 'datetime': '2018-10-12 18:40:11.396087', 'mgs': 0, 'depth': -0.14, 'time': 2.43, 'pitch': 0.74, 'roll': -4.45}
{'lipoC2': 8.35, 'temp': 26.75, 'lipoC3S3': 12.67, 'rot1': 0, 'rot0': 0, 'rot3': 0, 'rot2': 0, 'state': 'normal', 'yaw': 0.0, 'datetime': '2018-10-12 18:40:11.403316', 'mgs': 0, 'depth': -0.14, 'time': 2.53, 'pitch': 0.74, 'roll': -4.45}
{'lipoC2': 8.35, 'temp': 26.75, 'lipoC3S3': 12.68, 'rot1': 0, 'rot0': 0, 'rot3': 0, 'rot2': 0, 'state': 'normal', 'yaw': 0.0, 'datetime': '2018-10-12 18:40:11.410546', 'mgs': 0, 'depth': -0.064, 'time': 2.63, 'pitch': 0.74, 'roll': -4.45}
{'lipoC2': 8.35, 'temp': 26.75, 'lipoC3S3': 12.7, 'rot1': 0, 'rot0': 0, 'rot3': 0, 'rot2': 0, 'state': 'normal', 'yaw': 0.0, 'datetime': '2018-10-12 18:40:11.417805', 'mgs': 0, 'depth': -0.064, 'time': 2.73, 'pitch': 0.74, 'roll': -4.45}
{'lipoC2': 8.35, 'temp': 26.75, 'lipoC3S3': 12.67, 'rot1': 0, 'rot0': 0, 'rot3': 0, 'rot2': 0, 'state': 'normal', 'yaw': 0.0, 'datetime': '2018-10-12 18:40:11.434906', 'mgs': 0, 'depth': -0.064, 'time': 2.83, 'pitch': 0.74, 'roll': -4.45}
{'lipoC2': 8.35, 'temp': 26.69, 'lipoC3S3': 12.68, 'rot1': 0, 'rot0': 0, 'rot3': 0, 'rot2': 0, 'state': 'normal', 'yaw': 0.0, 'datetime': '2018-10-12 18:40:11.531969', 'mgs': 0, 'depth': -0.064, 'time': 2.92, 'pitch': 0.74, 'roll': -4.45}
{'lipoC2': 8.35, 'temp': 26.69, 'lipoC3S3': 12.68, 'rot1': 0, 'rot0': 0, 'rot3': 0, 'rot2': 0, 'state': 'normal', 'yaw': 0.0, 'datetime': '2018-10-12 18:40:11.629039', 'mgs': 0, 'depth': -0.064, 'time': 3.02, 'pitch': 0.74, 'roll': -4.45}
{'lipoC2': 8.35, 'temp': 26.69, 'lipoC3S3': 12.68, 'rot1': 0, 'rot0': 0, 'rot3': 0, 'rot2': 0, 'state': 'normal', 'yaw': 0.0, 'datetime': '2018-10-12 18:40:11.727173', 'mgs': 0, 'depth': -0.064, 'time': 3.12, 'pitch': 0.74, 'roll': -4.45}
{'lipoC2': 8.35, 'temp': 26.69, 'lipoC3S3': 12.67, 'rot1': 0, 'rot0': 0, 'rot3': 0, 'rot2': 0, 'state': 'normal', 'yaw': 0.0, 'datetime': '2018-10-12 18:40:11.825497', 'mgs': 0, 'depth': -0.064, 'time': 3.22, 'pitch': 0.74, 'roll': -4.45}
{'lipoC2': 8.35, 'temp': 26.69, 'lipoC3S3': 12.67, 'rot1': 0, 'rot0': 0, 'rot3': 0, 'rot2': 0, 'state': 'normal', 'yaw': 0.0, 'datetime': '2018-10-12 18:40:11.923126', 'mgs': 0, 'depth': -0.14, 'time': 3.31, 'pitch': 0.74, 'roll': -4.45}
{'lipoC2': 8.36, 'temp': 26.69, 'lipoC3S3': 12.67, 'rot1': 0, 'rot0': 0, 'rot3': 0, 'rot2': 0, 'state': 'normal', 'yaw': 0.0, 'datetime': '2018-10-12 18:40:12.020225', 'mgs': 0, 'depth': -0.064, 'time': 3.41, 'pitch': 0.74, 'roll': -4.45}
{'lipoC2': 8.35, 'temp': 26.69, 'lipoC3S3': 12.67, 'rot1': 0, 'rot0': 0, 'rot3': 0, 'rot2': 0, 'state': 'normal', 'yaw': 0.0, 'datetime': '2018-10-12 18:40:12.118437', 'mgs': 0, 'depth': -0.14, 'time': 3.51, 'pitch': 0.74, 'roll': -4.45}
{'lipoC2': 8.36, 'temp': 26.69, 'lipoC3S3': 12.67, 'rot1': 0, 'rot0': 0, 'rot3': 0, 'rot2': 0, 'state': 'normal', 'yaw': 0.0, 'datetime': '2018-10-12 18:40:12.216736', 'mgs': 0, 'depth': -0.064, 'time': 3.61, 'pitch': 0.74, 'roll': -4.45}
{'lipoC2': 8.35, 'temp': 26.75, 'lipoC3S3': 12.67, 'rot1': 0, 'rot0': 0, 'rot3': 0, 'rot2': 0, 'state': 'normal', 'yaw': 0.0, 'datetime': '2018-10-12 18:40:12.315089', 'mgs': 0, 'depth': -0.14, 'time': 3.71, 'pitch': 0.74, 'roll': -4.45}
{'lipoC2': 8.35, 'temp': 26.75, 'lipoC3S3': 12.67, 'rot1': 0, 'rot0': 0, 'rot3': 0, 'rot2': 0, 'state': 'normal', 'yaw': 0.0, 'datetime': '2018-10-12 18:40:12.412080', 'mgs': 0, 'depth': -0.064, 'time': 3.8, 'pitch': 0.74, 'roll': -4.45}
{'lipoC2': 8.35, 'temp': 26.75, 'lipoC3S3': 12.67, 'rot1': 0, 'rot0': 0, 'rot3': 0, 'rot2': 0, 'state': 'normal', 'yaw': 0.0, 'datetime': '2018-10-12 18:40:12.509428', 'mgs': 0, 'depth': -0.14, 'time': 3.9, 'pitch': 0.74, 'roll': -4.45}
{'lipoC2': 8.35, 'temp': 26.75, 'lipoC3S3': 12.67, 'rot1': 0, 'rot0': 0, 'rot3': 0, 'rot2': 0, 'state': 'normal', 'yaw': 0.0, 'datetime': '2018-10-12 18:40:12.607758', 'mgs': 0, 'depth': -0.064, 'time': 4.0, 'pitch': 0.74, 'roll': -4.45}
{'lipoC2': 8.35, 'temp': 26.75, 'lipoC3S3': 12.67, 'rot1': 0, 'rot0': 0, 'rot3': 0, 'rot2': 0, 'state': 'normal', 'yaw': 0.0, 'datetime': '2018-10-12 18:40:12.706093', 'mgs': 0, 'depth': -0.064, 'time': 4.1, 'pitch': 0.74, 'roll': -4.45}
{'lipoC2': 8.35, 'temp': 26.69, 'lipoC3S3': 12.67, 'rot1': 0, 'rot0': 0, 'rot3': 0, 'rot2': 0, 'state': 'normal', 'yaw': 0.0, 'datetime': '2018-10-12 18:40:12.803154', 'mgs': 0, 'depth': -0.14, 'time': 4.2, 'pitch': 0.74, 'roll': -4.45}
{'lipoC2': 8.35, 'temp': 26.69, 'lipoC3S3': 12.67, 'rot1': 0, 'rot0': 0, 'rot3': 0, 'rot2': 0, 'state': 'normal', 'yaw': 0.0, 'datetime': '2018-10-12 18:40:12.900221', 'mgs': 0, 'depth': -0.14, 'time': 4.29, 'pitch': 0.74, 'roll': -4.45}
{'lipoC2': 8.35, 'temp': 26.75, 'lipoC3S3': 12.67, 'rot1': 0, 'rot0': 0, 'rot3': 0, 'rot2': 0, 'state': 'normal', 'yaw': 0.0, 'datetime': '2018-10-12 18:40:12.998552', 'mgs': 0, 'depth': -0.14, 'time': 4.39, 'pitch': 0.74, 'roll': -4.45}
{'lipoC2': 8.35, 'temp': 26.75, 'lipoC3S3': 12.67, 'rot1': 0, 'rot0': 0, 'rot3': 0, 'rot2': 0, 'state': 'normal', 'yaw': 0.0, 'datetime': '2018-10-12 18:40:13.096901', 'mgs': 0, 'depth': -0.064, 'time': 4.49, 'pitch': 0.74, 'roll': -4.45}
{'lipoC2': 8.35, 'temp': 26.75, 'lipoC3S3': 12.68, 'rot1': 0, 'rot0': 0, 'rot3': 0, 'rot2': 0, 'state': 'normal', 'yaw': 0.0, 'datetime': '2018-10-12 18:40:13.193980', 'mgs': 0, 'depth': -0.14, 'time': 4.59, 'pitch': 0.74, 'roll': -4.45}
{'lipoC2': 8.35, 'temp': 26.75, 'lipoC3S3': 12.67, 'rot1': 0, 'rot0': 0, 'rot3': 0, 'rot2': 0, 'state': 'normal', 'yaw': 0.0, 'datetime': '2018-10-12 18:40:13.291039', 'mgs': 0, 'depth': -0.14, 'time': 4.68, 'pitch': 0.74, 'roll': -4.45}
{'lipoC2': 8.35, 'temp': 26.75, 'lipoC3S3': 12.67, 'rot1': 0, 'rot0': 0, 'rot3': 0, 'rot2': 0, 'state': 'normal', 'yaw': 0.0, 'datetime': '2018-10-12 18:40:13.389120', 'mgs': 0, 'depth': -0.14, 'time': 4.78, 'pitch': 0.74, 'roll': -4.45}
{'lipoC2': 8.35, 'temp': 26.75, 'lipoC3S3': 12.68, 'rot1': 0, 'rot0': 0, 'rot3': 0, 'rot2': 0, 'state': 'normal', 'yaw': 0.0, 'datetime': '2018-10-12 18:40:13.486249', 'mgs': 0, 'depth': -0.064, 'time': 4.88, 'pitch': 0.74, 'roll': -4.45}
{'lipoC2': 8.35, 'temp': 26.75, 'lipoC3S3': 12.68, 'rot1': 0, 'rot0': 0, 'rot3': 0, 'rot2': 0, 'state': 'normal', 'yaw': 0.0, 'datetime': '2018-10-12 18:40:13.583305', 'mgs': 0, 'depth': -0.064, 'time': 4.97, 'pitch': 0.74, 'roll': -4.45}
{'lipoC2': 8.35, 'temp': 26.75, 'lipoC3S3': 12.67, 'rot1': 0, 'rot0': 0, 'rot3': 0, 'rot2': 0, 'state': 'normal', 'yaw': 0.0, 'datetime': '2018-10-12 18:40:13.681075', 'mgs': 0, 'depth': -0.14, 'time': 5.07, 'pitch': 0.74, 'roll': -4.45}
{'lipoC2': 8.35, 'temp': 26.75, 'lipoC3S3': 12.67, 'rot1': 0, 'rot0': 0, 'rot3': 0, 'rot2': 0, 'state': 'normal', 'yaw': -0.0, 'datetime': '2018-10-12 18:40:13.779477', 'mgs': 1, 'depth': -0.14, 'time': 5.17, 'pitch': 0.75, 'roll': -4.43}
{'lipoC2': 8.35, 'temp': 26.75, 'lipoC3S3': 12.67, 'rot1': 0, 'rot0': 0, 'rot3': 0, 'rot2': 0, 'state': 'normal', 'yaw': 0.0, 'datetime': '2018-10-12 18:40:17.302182', 'mgs': 0, 'depth': -0.14, 'time': 1.26, 'pitch': 0.76, 'roll': -4.41}
{'lipoC2': 8.35, 'temp': 26.75, 'lipoC3S3': 12.68, 'rot1': 0, 'rot0': 0, 'rot3': 0, 'rot2': 0, 'state': 'normal', 'yaw': 0.0, 'datetime': '2018-10-12 18:40:17.328474', 'mgs': 0, 'depth': -0.064, 'time': 1.36, 'pitch': 0.76, 'roll': -4.41}
{'lipoC2': 8.35, 'temp': 26.75, 'lipoC3S3': 12.67, 'rot1': 0, 'rot0': 0, 'rot3': 0, 'rot2': 0, 'state': 'normal', 'yaw': 0.0, 'datetime': '2018-10-12 18:40:17.345214', 'mgs': 0, 'depth': -0.064, 'time': 1.45, 'pitch': 0.76, 'roll': -4.41}
{'lipoC2': 8.35, 'temp': 26.75, 'lipoC3S3': 12.67, 'rot1': 0, 'rot0': 0, 'rot3': 0, 'rot2': 0, 'state': 'normal', 'yaw': 0.0, 'datetime': '2018-10-12 18:40:17.368841', 'mgs': 0, 'depth': -0.064, 'time': 1.55, 'pitch': 0.76, 'roll': -4.41}
{'lipoC2': 8.35, 'temp': 26.75, 'lipoC3S3': 12.67, 'rot1': 0, 'rot0': 0, 'rot3': 0, 'rot2': 0, 'state': 'normal', 'yaw': 0.0, 'datetime': '2018-10-12 18:40:17.383083', 'mgs': 0, 'depth': -0.064, 'time': 1.65, 'pitch': 0.76, 'roll': -4.41}
{'lipoC2': 8.35, 'temp': 26.75, 'lipoC3S3': 12.67, 'rot1': 0, 'rot0': 0, 'rot3': 0, 'rot2': 0, 'state': 'normal', 'yaw': 0.0, 'datetime': '2018-10-12 18:40:17.390396', 'mgs': 0, 'depth': -0.064, 'time': 1.75, 'pitch': 0.76, 'roll': -4.41}
{'lipoC2': 8.35, 'temp': 26.75, 'lipoC3S3': 12.68, 'rot1': 0, 'rot0': 0, 'rot3': 0, 'rot2': 0, 'state': 'normal', 'yaw': 0.0, 'datetime': '2018-10-12 18:40:17.403417', 'mgs': 0, 'depth': -0.064, 'time': 1.84, 'pitch': 0.76, 'roll': -4.41}
{'lipoC2': 8.35, 'temp': 26.81, 'lipoC3S3': 12.68, 'rot1': 0, 'rot0': 0, 'rot3': 0, 'rot2': 0, 'state': 'normal', 'yaw': 0.0, 'datetime': '2018-10-12 18:40:17.416401', 'mgs': 0, 'depth': -0.064, 'time': 1.94, 'pitch': 0.76, 'roll': -4.41}
{'lipoC2': 8.35, 'temp': 26.81, 'lipoC3S3': 12.67, 'rot1': 0, 'rot0': 0, 'rot3': 0, 'rot2': 0, 'state': 'normal', 'yaw': 0.0, 'datetime': '2018-10-12 18:40:17.423660', 'mgs': 0, 'depth': -0.14, 'time': 2.04, 'pitch': 0.76, 'roll': -4.41}
{'lipoC2': 8.35, 'temp': 26.81, 'lipoC3S3': 12.67, 'rot1': 0, 'rot0': 0, 'rot3': 0, 'rot2': 0, 'state': 'normal', 'yaw': 0.0, 'datetime': '2018-10-12 18:40:17.436993', 'mgs': 0, 'depth': -0.14, 'time': 2.14, 'pitch': 0.76, 'roll': -4.41}
{'lipoC2': 8.35, 'temp': 26.75, 'lipoC3S3': 12.68, 'rot1': 0, 'rot0': 0, 'rot3': 0, 'rot2': 0, 'state': 'normal', 'yaw': 0.0, 'datetime': '2018-10-12 18:40:17.450149', 'mgs': 0, 'depth': -0.064, 'time': 2.23, 'pitch': 0.76, 'roll': -4.41}
{'lipoC2': 8.35, 'temp': 26.75, 'lipoC3S3': 12.67, 'rot1': 0, 'rot0': 0, 'rot3': 0, 'rot2': 0, 'state': 'normal', 'yaw': 0.0, 'datetime': '2018-10-12 18:40:17.457699', 'mgs': 0, 'depth': -0.064, 'time': 2.33, 'pitch': 0.76, 'roll': -4.41}
{'lipoC2': 8.35, 'temp': 26.75, 'lipoC3S3': 12.68, 'rot1': 0, 'rot0': 0, 'rot3': 0, 'rot2': 0, 'state': 'normal', 'yaw': 0.0, 'datetime': '2018-10-12 18:40:17.470879', 'mgs': 0, 'depth': -0.14, 'time': 2.43, 'pitch': 0.76, 'roll': -4.41}
{'lipoC2': 8.35, 'temp': 26.75, 'lipoC3S3': 12.67, 'rot1': 0, 'rot0': 0, 'rot3': 0, 'rot2': 0, 'state': 'normal', 'yaw': 0.0, 'datetime': '2018-10-12 18:40:17.484012', 'mgs': 0, 'depth': -0.064, 'time': 2.53, 'pitch': 0.76, 'roll': -4.41}
{'lipoC2': 8.35, 'temp': 26.75, 'lipoC3S3': 12.68, 'rot1': 0, 'rot0': 0, 'rot3': 0, 'rot2': 0, 'state': 'normal', 'yaw': 0.0, 'datetime': '2018-10-12 18:40:17.491364', 'mgs': 0, 'depth': -0.064, 'time': 2.62, 'pitch': 0.76, 'roll': -4.41}
{'lipoC2': 8.35, 'temp': 26.75, 'lipoC3S3': 12.68, 'rot1': 0, 'rot0': 0, 'rot3': 0, 'rot2': 0, 'state': 'normal', 'yaw': 0.0, 'datetime': '2018-10-12 18:40:17.504547', 'mgs': 0, 'depth': -0.064, 'time': 2.72, 'pitch': 0.76, 'roll': -4.41}
{'lipoC2': 8.35, 'temp': 26.75, 'lipoC3S3': 12.67, 'rot1': 0, 'rot0': 0, 'rot3': 0, 'rot2': 0, 'state': 'normal', 'yaw': 0.0, 'datetime': '2018-10-12 18:40:17.517645', 'mgs': 0, 'depth': -0.14, 'time': 2.82, 'pitch': 0.76, 'roll': -4.41}
{'lipoC2': 8.35, 'temp': 26.81, 'lipoC3S3': 12.67, 'rot1': 0, 'rot0': 0, 'rot3': 0, 'rot2': 0, 'state': 'normal', 'yaw': 0.0, 'datetime': '2018-10-12 18:40:17.525037', 'mgs': 0, 'depth': -0.14, 'time': 2.91, 'pitch': 0.76, 'roll': -4.41}
{'lipoC2': 8.35, 'temp': 26.81, 'lipoC3S3': 12.68, 'rot1': 0, 'rot0': 0, 'rot3': 0, 'rot2': 0, 'state': 'normal', 'yaw': 0.0, 'datetime': '2018-10-12 18:40:17.538207', 'mgs': 0, 'depth': -0.064, 'time': 3.01, 'pitch': 0.76, 'roll': -4.41}
{'lipoC2': 8.35, 'temp': 26.81, 'lipoC3S3': 12.68, 'rot1': 0, 'rot0': 0, 'rot3': 0, 'rot2': 0, 'state': 'normal', 'yaw': 0.0, 'datetime': '2018-10-12 18:40:17.551247', 'mgs': 0, 'depth': -0.064, 'time': 3.11, 'pitch': 0.76, 'roll': -4.41}
{'lipoC2': 8.35, 'temp': 26.75, 'lipoC3S3': 12.68, 'rot1': 0, 'rot0': 0, 'rot3': 0, 'rot2': 0, 'state': 'normal', 'yaw': 0.0, 'datetime': '2018-10-12 18:40:17.558633', 'mgs': 0, 'depth': -0.064, 'time': 3.21, 'pitch': 0.76, 'roll': -4.41}
{'lipoC2': 8.35, 'temp': 26.75, 'lipoC3S3': 12.67, 'rot1': 0, 'rot0': 0, 'rot3': 0, 'rot2': 0, 'state': 'normal', 'yaw': 0.0, 'datetime': '2018-10-12 18:40:17.571803', 'mgs': 0, 'depth': -0.14, 'time': 3.3, 'pitch': 0.76, 'roll': -4.41}
{'lipoC2': 8.35, 'temp': 26.75, 'lipoC3S3': 12.68, 'rot1': 0, 'rot0': 0, 'rot3': 0, 'rot2': 0, 'state': 'normal', 'yaw': 0.0, 'datetime': '2018-10-12 18:40:17.584921', 'mgs': 0, 'depth': -0.064, 'time': 3.4, 'pitch': 0.76, 'roll': -4.41}
{'lipoC2': 8.35, 'temp': 26.75, 'lipoC3S3': 12.68, 'rot1': 0, 'rot0': 0, 'rot3': 0, 'rot2': 0, 'state': 'normal', 'yaw': 0.0, 'datetime': '2018-10-12 18:40:17.592240', 'mgs': 0, 'depth': 0.012, 'time': 3.5, 'pitch': 0.76, 'roll': -4.41}
{'lipoC2': 8.36, 'temp': 26.75, 'lipoC3S3': 12.63, 'rot1': 1, 'rot0': 1, 'rot3': 0, 'rot2': 0, 'state': 'normal', 'yaw': 0.0, 'datetime': '2018-10-12 18:40:17.605387', 'mgs': 0, 'depth': -0.064, 'time': 3.6, 'pitch': 0.76, 'roll': -4.41}
{'lipoC2': 8.35, 'temp': 26.75, 'lipoC3S3': 12.67, 'rot1': 3, 'rot0': 3, 'rot3': 0, 'rot2': 0, 'state': 'normal', 'yaw': 0.0, 'datetime': '2018-10-12 18:40:17.618492', 'mgs': 0, 'depth': 0.699, 'time': 3.69, 'pitch': 0.76, 'roll': -4.41}
{'lipoC2': 8.37, 'temp': 26.75, 'lipoC3S3': 12.66, 'rot1': 4, 'rot0': 5, 'rot3': 0, 'rot2': 0, 'state': 'normal', 'yaw': 0.0, 'datetime': '2018-10-12 18:40:17.670607', 'mgs': 0, 'depth': -0.064, 'time': 3.79, 'pitch': 0.76, 'roll': -4.41}
{'lipoC2': 8.35, 'temp': 26.75, 'lipoC3S3': 12.64, 'rot1': 6, 'rot0': 7, 'rot3': 0, 'rot2': 0, 'state': 'normal', 'yaw': 0.0, 'datetime': '2018-10-12 18:40:17.767453', 'mgs': 0, 'depth': 0.317, 'time': 3.89, 'pitch': 0.76, 'roll': -4.41}
{'lipoC2': 8.35, 'temp': 26.75, 'lipoC3S3': 12.66, 'rot1': 8, 'rot0': 9, 'rot3': 0, 'rot2': 0, 'state': 'normal', 'yaw': 0.0, 'datetime': '2018-10-12 18:40:17.865532', 'mgs': 0, 'depth': -0.064, 'time': 3.99, 'pitch': 0.76, 'roll': -4.41}
{'lipoC2': 8.35, 'temp': 26.75, 'lipoC3S3': 12.66, 'rot1': 10, 'rot0': 10, 'rot3': 0, 'rot2': 0, 'state': 'normal', 'yaw': 0.0, 'datetime': '2018-10-12 18:40:17.963515', 'mgs': 0, 'depth': -0.293, 'time': 4.08, 'pitch': 0.76, 'roll': -4.41}
{'lipoC2': 8.35, 'temp': 26.75, 'lipoC3S3': 12.72, 'rot1': 11, 'rot0': 12, 'rot3': 0, 'rot2': 0, 'state': 'normal', 'yaw': 0.0, 'datetime': '2018-10-12 18:40:18.060594', 'mgs': 0, 'depth': -0.064, 'time': 4.18, 'pitch': 0.76, 'roll': -4.41}
{'lipoC2': 8.35, 'temp': 26.75, 'lipoC3S3': 12.66, 'rot1': 13, 'rot0': 14, 'rot3': 0, 'rot2': 0, 'state': 'normal', 'yaw': 0.0, 'datetime': '2018-10-12 18:40:18.158859', 'mgs': 0, 'depth': -0.064, 'time': 4.28, 'pitch': 0.76, 'roll': -4.41}
{'lipoC2': 8.35, 'temp': 26.75, 'lipoC3S3': 12.66, 'rot1': 15, 'rot0': 16, 'rot3': 0, 'rot2': 0, 'state': 'normal', 'yaw': 0.0, 'datetime': '2018-10-12 18:40:18.257093', 'mgs': 0, 'depth': 0.699, 'time': 4.38, 'pitch': 0.76, 'roll': -4.41}
{'lipoC2': 8.35, 'temp': 26.75, 'lipoC3S3': 12.62, 'rot1': 17, 'rot0': 18, 'rot3': 0, 'rot2': 0, 'state': 'normal', 'yaw': 0.01, 'datetime': '2018-10-12 18:40:18.355448', 'mgs': 0, 'depth': -0.064, 'time': 4.47, 'pitch': 0.76, 'roll': -4.4}
{'lipoC2': 8.34, 'temp': 26.75, 'lipoC3S3': 12.66, 'rot1': 19, 'rot0': 20, 'rot3': 0, 'rot2': 0, 'state': 'normal', 'yaw': 0.0, 'datetime': '2018-10-12 18:40:18.452454', 'mgs': 0, 'depth': 0.241, 'time': 4.57, 'pitch': 0.76, 'roll': -4.4}
{'lipoC2': 8.35, 'temp': 26.75, 'lipoC3S3': 12.66, 'rot1': 20, 'rot0': 22, 'rot3': 0, 'rot2': 0, 'state': 'normal', 'yaw': 0.01, 'datetime': '2018-10-12 18:40:18.549776', 'mgs': 0, 'depth': -0.064, 'time': 4.67, 'pitch': 0.76, 'roll': -4.4}
{'lipoC2': 8.35, 'temp': 26.75, 'lipoC3S3': 12.66, 'rot1': 22, 'rot0': 23, 'rot3': 0, 'rot2': 0, 'state': 'normal', 'yaw': 0.01, 'datetime': '2018-10-12 18:40:18.647112', 'mgs': 0, 'depth': 0.623, 'time': 4.77, 'pitch': 0.76, 'roll': -4.4}
{'lipoC2': 8.35, 'temp': 26.75, 'lipoC3S3': 12.66, 'rot1': 24, 'rot0': 25, 'rot3': 0, 'rot2': 0, 'state': 'normal', 'yaw': 0.01, 'datetime': '2018-10-12 18:40:18.744211', 'mgs': 0, 'depth': -0.064, 'time': 4.86, 'pitch': 0.76, 'roll': -4.4}
{'lipoC2': 8.35, 'temp': 26.75, 'lipoC3S3': 12.62, 'rot1': 26, 'rot0': 27, 'rot3': 0, 'rot2': 0, 'state': 'normal', 'yaw': 0.01, 'datetime': '2018-10-12 18:40:18.841245', 'mgs': 0, 'depth': -0.064, 'time': 4.96, 'pitch': 0.76, 'roll': -4.4}
{'lipoC2': 8.35, 'temp': 26.75, 'lipoC3S3': 12.66, 'rot1': 27, 'rot0': 29, 'rot3': 0, 'rot2': 0, 'state': 'normal', 'yaw': 0.01, 'datetime': '2018-10-12 18:40:18.939747', 'mgs': 0, 'depth': -0.064, 'time': 5.06, 'pitch': 0.76, 'roll': -4.4}
{'lipoC2': 8.35, 'temp': 26.81, 'lipoC3S3': 12.64, 'rot1': 29, 'rot0': 31, 'rot3': 0, 'rot2': 0, 'state': 'normal', 'yaw': 0.01, 'datetime': '2018-10-12 18:40:19.038032', 'mgs': 0, 'depth': 1.462, 'time': 5.16, 'pitch': 0.76, 'roll': -4.4}
{'lipoC2': 8.35, 'temp': 26.81, 'lipoC3S3': 12.66, 'rot1': 31, 'rot0': 33, 'rot3': 0, 'rot2': 0, 'state': 'normal', 'yaw': 0.01, 'datetime': '2018-10-12 18:40:19.135762', 'mgs': 0, 'depth': 1.233, 'time': 5.26, 'pitch': 0.76, 'roll': -4.4}
{'lipoC2': 8.35, 'temp': 26.81, 'lipoC3S3': 12.66, 'rot1': 33, 'rot0': 34, 'rot3': 0, 'rot2': 0, 'state': 'normal', 'yaw': 0.01, 'datetime': '2018-10-12 18:40:19.242495', 'mgs': 0, 'depth': -0.064, 'time': 5.35, 'pitch': 0.76, 'roll': -4.4}
{'lipoC2': 8.35, 'temp': 26.81, 'lipoC3S3': 12.66, 'rot1': 34, 'rot0': 36, 'rot3': 0, 'rot2': 0, 'state': 'normal', 'yaw': 0.01, 'datetime': '2018-10-12 18:40:19.330710', 'mgs': 0, 'depth': -0.064, 'time': 5.45, 'pitch': 0.76, 'roll': -4.4}
{'lipoC2': 8.35, 'temp': 26.81, 'lipoC3S3': 12.66, 'rot1': 36, 'rot0': 38, 'rot3': 0, 'rot2': 0, 'state': 'normal', 'yaw': 0.01, 'datetime': '2018-10-12 18:40:19.428940', 'mgs': 0, 'depth': 1.157, 'time': 5.55, 'pitch': 0.76, 'roll': -4.4}
{'lipoC2': 8.35, 'temp': 26.75, 'lipoC3S3': 12.66, 'rot1': 38, 'rot0': 40, 'rot3': 0, 'rot2': 0, 'state': 'normal', 'yaw': 0.01, 'datetime': '2018-10-12 18:40:19.530601', 'mgs': 0, 'depth': -0.064, 'time': 5.65, 'pitch': 0.76, 'roll': -4.4}
{'lipoC2': 8.36, 'temp': 26.75, 'lipoC3S3': 12.64, 'rot1': 40, 'rot0': 42, 'rot3': 0, 'rot2': 0, 'state': 'normal', 'yaw': 0.01, 'datetime': '2018-10-12 18:40:19.626645', 'mgs': 0, 'depth': -0.522, 'time': 5.75, 'pitch': 0.76, 'roll': -4.4}
{'lipoC2': 8.35, 'temp': 26.75, 'lipoC3S3': 12.7, 'rot1': 41, 'rot0': 43, 'rot3': 0, 'rot2': 0, 'state': 'normal', 'yaw': 0.01, 'datetime': '2018-10-12 18:40:19.723965', 'mgs': 0, 'depth': -0.064, 'time': 5.84, 'pitch': 0.76, 'roll': -4.4}
{'lipoC2': 8.35, 'temp': 26.75, 'lipoC3S3': 12.64, 'rot1': 43, 'rot0': 45, 'rot3': 0, 'rot2': 0, 'state': 'normal', 'yaw': 0.02, 'datetime': '2018-10-12 18:40:19.822312', 'mgs': 0, 'depth': -0.217, 'time': 5.94, 'pitch': 0.76, 'roll': -4.4}
{'lipoC2': 8.36, 'temp': 26.75, 'lipoC3S3': 12.64, 'rot1': 45, 'rot0': 47, 'rot3': 0, 'rot2': 0, 'state': 'normal', 'yaw': 0.04, 'datetime': '2018-10-12 18:40:19.920814', 'mgs': 0, 'depth': -0.064, 'time': 6.04, 'pitch': 0.76, 'roll': -4.4}
{'lipoC2': 8.35, 'temp': 26.75, 'lipoC3S3': 12.64, 'rot1': 47, 'rot0': 49, 'rot3': 0, 'rot2': 0, 'state': 'normal', 'yaw': 0.03, 'datetime': '2018-10-12 18:40:20.018122', 'mgs': 0, 'depth': -0.369, 'time': 6.14, 'pitch': 0.76, 'roll': -4.4}
{'lipoC2': 8.35, 'temp': 26.75, 'lipoC3S3': 12.66, 'rot1': 49, 'rot0': 51, 'rot3': 0, 'rot2': 0, 'state': 'normal', 'yaw': 0.04, 'datetime': '2018-10-12 18:40:20.114977', 'mgs': 0, 'depth': -0.064, 'time': 6.24, 'pitch': 0.76, 'roll': -4.4}
{'lipoC2': 8.35, 'temp': 26.75, 'lipoC3S3': 12.66, 'rot1': 50, 'rot0': 52, 'rot3': 0, 'rot2': 0, 'state': 'normal', 'yaw': 0.04, 'datetime': '2018-10-12 18:40:20.213330', 'mgs': 0, 'depth': -0.217, 'time': 6.33, 'pitch': 0.76, 'roll': -4.4}
{'lipoC2': 8.36, 'temp': 26.75, 'lipoC3S3': 12.64, 'rot1': 52, 'rot0': 54, 'rot3': 0, 'rot2': 0, 'state': 'normal', 'yaw': 0.02, 'datetime': '2018-10-12 18:40:20.311653', 'mgs': 0, 'depth': -0.064, 'time': 6.43, 'pitch': 0.76, 'roll': -4.4}
{'lipoC2': 8.35, 'temp': 26.75, 'lipoC3S3': 12.66, 'rot1': 54, 'rot0': 56, 'rot3': 0, 'rot2': 0, 'state': 'normal', 'yaw': 0.01, 'datetime': '2018-10-12 18:40:20.408725', 'mgs': 0, 'depth': 0.089, 'time': 6.53, 'pitch': 0.76, 'roll': -4.39}
{'lipoC2': 8.35, 'temp': 26.75, 'lipoC3S3': 12.66, 'rot1': 56, 'rot0': 58, 'rot3': 0, 'rot2': 0, 'state': 'normal', 'yaw': 0.0, 'datetime': '2018-10-12 18:40:20.505748', 'mgs': 0, 'depth': -0.064, 'time': 6.63, 'pitch': 0.76, 'roll': -4.39}
{'lipoC2': 8.36, 'temp': 26.75, 'lipoC3S3': 12.64, 'rot1': 57, 'rot0': 60, 'rot3': 0, 'rot2': 0, 'state': 'normal', 'yaw': 0.0, 'datetime': '2018-10-12 18:40:20.604205', 'mgs': 0, 'depth': -0.217, 'time': 6.72, 'pitch': 0.76, 'roll': -4.39}
{'lipoC2': 8.35, 'temp': 26.75, 'lipoC3S3': 12.68, 'rot1': 59, 'rot0': 62, 'rot3': 0, 'rot2': 0, 'state': 'normal', 'yaw': 0.0, 'datetime': '2018-10-12 18:40:20.701328', 'mgs': 0, 'depth': -0.14, 'time': 6.82, 'pitch': 0.76, 'roll': -4.39}
{'lipoC2': 8.36, 'temp': 26.75, 'lipoC3S3': 12.63, 'rot1': 61, 'rot0': 63, 'rot3': 0, 'rot2': 0, 'state': 'normal', 'yaw': 0.0, 'datetime': '2018-10-12 18:40:20.798361', 'mgs': 0, 'depth': -0.064, 'time': 6.92, 'pitch': 0.76, 'roll': -4.39}
{'lipoC2': 8.35, 'temp': 26.75, 'lipoC3S3': 12.63, 'rot1': 63, 'rot0': 65, 'rot3': 0, 'rot2': 0, 'state': 'normal', 'yaw': 0.0, 'datetime': '2018-10-12 18:40:20.896138', 'mgs': 0, 'depth': -0.064, 'time': 7.02, 'pitch': 0.76, 'roll': -4.39}
{'lipoC2': 8.35, 'temp': 26.81, 'lipoC3S3': 12.66, 'rot1': 65, 'rot0': 67, 'rot3': 0, 'rot2': 0, 'state': 'normal', 'yaw': 0.0, 'datetime': '2018-10-12 18:40:20.994683', 'mgs': 0, 'depth': -0.064, 'time': 7.11, 'pitch': 0.76, 'roll': -4.39}
{'lipoC2': 8.35, 'temp': 26.81, 'lipoC3S3': 12.64, 'rot1': 66, 'rot0': 69, 'rot3': 0, 'rot2': 0, 'state': 'normal', 'yaw': 0.0, 'datetime': '2018-10-12 18:40:21.092882', 'mgs': 0, 'depth': -0.14, 'time': 7.21, 'pitch': 0.76, 'roll': -4.39}
{'lipoC2': 8.35, 'temp': 26.81, 'lipoC3S3': 12.66, 'rot1': 68, 'rot0': 71, 'rot3': 0, 'rot2': 0, 'state': 'normal', 'yaw': 0.0, 'datetime': '2018-10-12 18:40:21.189845', 'mgs': 0, 'depth': -0.064, 'time': 7.31, 'pitch': 0.76, 'roll': -4.39}
{'lipoC2': 8.35, 'temp': 26.81, 'lipoC3S3': 12.55, 'rot1': 70, 'rot0': 73, 'rot3': 0, 'rot2': 0, 'state': 'normal', 'yaw': 0.0, 'datetime': '2018-10-12 18:40:21.286961', 'mgs': 0, 'depth': -0.064, 'time': 7.41, 'pitch': 0.76, 'roll': -4.39}
{'lipoC2': 8.35, 'temp': 26.81, 'lipoC3S3': 12.66, 'rot1': 72, 'rot0': 74, 'rot3': 0, 'rot2': 0, 'state': 'normal', 'yaw': 0.0, 'datetime': '2018-10-12 18:40:21.385362', 'mgs': 0, 'depth': -0.064, 'time': 7.51, 'pitch': 0.76, 'roll': -4.39}
{'lipoC2': 8.35, 'temp': 26.81, 'lipoC3S3': 12.64, 'rot1': 74, 'rot0': 76, 'rot3': 0, 'rot2': 0, 'state': 'normal', 'yaw': 0.0, 'datetime': '2018-10-12 18:40:21.483508', 'mgs': 0, 'depth': 0.851, 'time': 7.61, 'pitch': 0.76, 'roll': -4.39}
{'lipoC2': 8.35, 'temp': 26.81, 'lipoC3S3': 12.66, 'rot1': 76, 'rot0': 78, 'rot3': 0, 'rot2': 0, 'state': 'normal', 'yaw': 0.0, 'datetime': '2018-10-12 18:40:21.580640', 'mgs': 0, 'depth': -0.14, 'time': 7.7, 'pitch': 0.76, 'roll': -4.39}
{'lipoC2': 8.35, 'temp': 26.81, 'lipoC3S3': 12.59, 'rot1': 78, 'rot0': 80, 'rot3': 0, 'rot2': 0, 'state': 'normal', 'yaw': 0.0, 'datetime': '2018-10-12 18:40:21.677673', 'mgs': 0, 'depth': 0.012, 'time': 7.8, 'pitch': 0.76, 'roll': -4.39}
{'lipoC2': 8.35, 'temp': 26.81, 'lipoC3S3': 12.66, 'rot1': 80, 'rot0': 82, 'rot3': 0, 'rot2': 0, 'state': 'normal', 'yaw': 0.01, 'datetime': '2018-10-12 18:40:21.773157', 'mgs': 0, 'depth': -0.064, 'time': 7.9, 'pitch': 0.76, 'roll': -4.39}
{'lipoC2': 8.35, 'temp': 26.75, 'lipoC3S3': 12.64, 'rot1': 81, 'rot0': 84, 'rot3': 0, 'rot2': 0, 'state': 'normal', 'yaw': 0.02, 'datetime': '2018-10-12 18:40:21.871474', 'mgs': 0, 'depth': 0.241, 'time': 8.0, 'pitch': 0.76, 'roll': -4.39}
{'lipoC2': 8.35, 'temp': 26.75, 'lipoC3S3': 12.66, 'rot1': 83, 'rot0': 85, 'rot3': 0, 'rot2': 0, 'state': 'normal', 'yaw': 0.02, 'datetime': '2018-10-12 18:40:21.968474', 'mgs': 0, 'depth': 0.012, 'time': 8.09, 'pitch': 0.76, 'roll': -4.39}
{'lipoC2': 8.35, 'temp': 26.75, 'lipoC3S3': 12.66, 'rot1': 85, 'rot0': 87, 'rot3': 0, 'rot2': 0, 'state': 'normal', 'yaw': 0.04, 'datetime': '2018-10-12 18:40:22.065505', 'mgs': 0, 'depth': -0.064, 'time': 8.19, 'pitch': 0.76, 'roll': -4.39}
{'lipoC2': 8.35, 'temp': 26.75, 'lipoC3S3': 12.66, 'rot1': 87, 'rot0': 89, 'rot3': 0, 'rot2': 0, 'state': 'normal', 'yaw': 0.04, 'datetime': '2018-10-12 18:40:22.163764', 'mgs': 0, 'depth': 1.004, 'time': 8.29, 'pitch': 0.76, 'roll': -4.39}
{'lipoC2': 8.34, 'temp': 26.75, 'lipoC3S3': 12.59, 'rot1': 89, 'rot0': 91, 'rot3': 0, 'rot2': 0, 'state': 'normal', 'yaw': 0.04, 'datetime': '2018-10-12 18:40:22.262174', 'mgs': 0, 'depth': -0.064, 'time': 8.39, 'pitch': 0.76, 'roll': -4.39}
{'lipoC2': 8.35, 'temp': 26.75, 'lipoC3S3': 12.71, 'rot1': 90, 'rot0': 93, 'rot3': 0, 'rot2': 0, 'state': 'normal', 'yaw': 0.03, 'datetime': '2018-10-12 18:40:22.359554', 'mgs': 0, 'depth': 0.012, 'time': 8.48, 'pitch': 0.76, 'roll': -4.39}
{'lipoC2': 8.35, 'temp': 26.75, 'lipoC3S3': 12.58, 'rot1': 92, 'rot0': 94, 'rot3': 0, 'rot2': 0, 'state': 'normal', 'yaw': 0.02, 'datetime': '2018-10-12 18:40:22.459729', 'mgs': 0, 'depth': -0.064, 'time': 8.58, 'pitch': 0.76, 'roll': -4.39}
{'lipoC2': 8.35, 'temp': 26.75, 'lipoC3S3': 12.64, 'rot1': 94, 'rot0': 96, 'rot3': 0, 'rot2': 0, 'state': 'normal', 'yaw': 0.01, 'datetime': '2018-10-12 18:40:22.557851', 'mgs': 0, 'depth': 0.012, 'time': 8.68, 'pitch': 0.76, 'roll': -4.39}
{'lipoC2': 8.35, 'temp': 26.75, 'lipoC3S3': 12.7, 'rot1': 96, 'rot0': 98, 'rot3': 0, 'rot2': 0, 'state': 'normal', 'yaw': 0.01, 'datetime': '2018-10-12 18:40:22.654668', 'mgs': 0, 'depth': 0.012, 'time': 8.78, 'pitch': 0.76, 'roll': -4.39}
{'lipoC2': 8.35, 'temp': 26.75, 'lipoC3S3': 12.55, 'rot1': 97, 'rot0': 100, 'rot3': 0, 'rot2': 0, 'state': 'normal', 'yaw': 0.01, 'datetime': '2018-10-12 18:40:22.751930', 'mgs': 0, 'depth': -0.064, 'time': 8.88, 'pitch': 0.76, 'roll': -4.39}
{'lipoC2': 8.35, 'temp': 26.81, 'lipoC3S3': 12.64, 'rot1': 99, 'rot0': 102, 'rot3': 0, 'rot2': 0, 'state': 'normal', 'yaw': 0.01, 'datetime': '2018-10-12 18:40:22.849551', 'mgs': 0, 'depth': -0.064, 'time': 8.97, 'pitch': 0.76, 'roll': -4.39}
{'lipoC2': 8.35, 'temp': 26.81, 'lipoC3S3': 12.66, 'rot1': 101, 'rot0': 104, 'rot3': 0, 'rot2': 0, 'state': 'normal', 'yaw': 0.01, 'datetime': '2018-10-12 18:40:22.948140', 'mgs': 0, 'depth': -0.064, 'time': 9.07, 'pitch': 0.76, 'roll': -4.39}
{'lipoC2': 8.35, 'temp': 26.81, 'lipoC3S3': 12.66, 'rot1': 103, 'rot0': 106, 'rot3': 0, 'rot2': 0, 'state': 'normal', 'yaw': 0.01, 'datetime': '2018-10-12 18:40:23.046512', 'mgs': 0, 'depth': 0.012, 'time': 9.17, 'pitch': 0.76, 'roll': -4.39}
{'lipoC2': 8.35, 'temp': 26.81, 'lipoC3S3': 12.64, 'rot1': 104, 'rot0': 107, 'rot3': 0, 'rot2': 0, 'state': 'normal', 'yaw': 0.01, 'datetime': '2018-10-12 18:40:23.144540', 'mgs': 0, 'depth': -0.064, 'time': 9.27, 'pitch': 0.76, 'roll': -4.39}
{'lipoC2': 8.36, 'temp': 26.81, 'lipoC3S3': 12.64, 'rot1': 106, 'rot0': 109, 'rot3': 0, 'rot2': 0, 'state': 'normal', 'yaw': 0.01, 'datetime': '2018-10-12 18:40:23.241684', 'mgs': 0, 'depth': -0.446, 'time': 9.36, 'pitch': 0.76, 'roll': -4.39}
{'lipoC2': 8.35, 'temp': 26.75, 'lipoC3S3': 12.64, 'rot1': 108, 'rot0': 111, 'rot3': 0, 'rot2': 0, 'state': 'normal', 'yaw': 0.01, 'datetime': '2018-10-12 18:40:23.339506', 'mgs': 0, 'depth': 0.851, 'time': 9.46, 'pitch': 0.76, 'roll': -4.39}
{'lipoC2': 8.37, 'temp': 26.75, 'lipoC3S3': 12.63, 'rot1': 110, 'rot0': 113, 'rot3': 0, 'rot2': 0, 'state': 'normal', 'yaw': 0.01, 'datetime': '2018-10-12 18:40:23.438209', 'mgs': 0, 'depth': -0.827, 'time': 9.56, 'pitch': 0.76, 'roll': -4.39}
{'lipoC2': 8.35, 'temp': 26.75, 'lipoC3S3': 12.56, 'rot1': 111, 'rot0': 115, 'rot3': 0, 'rot2': 0, 'state': 'normal', 'yaw': 0.01, 'datetime': '2018-10-12 18:40:23.536593', 'mgs': 0, 'depth': -0.064, 'time': 9.66, 'pitch': 0.76, 'roll': -4.39}
{'lipoC2': 8.35, 'temp': 26.81, 'lipoC3S3': 12.64, 'rot1': 113, 'rot0': 116, 'rot3': 0, 'rot2': 0, 'state': 'normal', 'yaw': 0.01, 'datetime': '2018-10-12 18:40:23.633804', 'mgs': 0, 'depth': 0.012, 'time': 9.76, 'pitch': 0.76, 'roll': -4.39}
{'lipoC2': 8.35, 'temp': 26.81, 'lipoC3S3': 12.56, 'rot1': 115, 'rot0': 118, 'rot3': 0, 'rot2': 0, 'state': 'normal', 'yaw': 0.01, 'datetime': '2018-10-12 18:40:23.731121', 'mgs': 0, 'depth': -0.14, 'time': 9.85, 'pitch': 0.76, 'roll': -4.39}
{'lipoC2': 8.35, 'temp': 26.75, 'lipoC3S3': 12.62, 'rot1': 117, 'rot0': 120, 'rot3': 0, 'rot2': 0, 'state': 'normal', 'yaw': 0.02, 'datetime': '2018-10-12 18:40:23.829617', 'mgs': 0, 'depth': -0.064, 'time': 9.95, 'pitch': 0.76, 'roll': -4.39}
{'lipoC2': 8.35, 'temp': 26.75, 'lipoC3S3': 12.67, 'rot1': 118, 'rot0': 122, 'rot3': 0, 'rot2': 0, 'state': 'normal', 'yaw': 0.03, 'datetime': '2018-10-12 18:40:23.928394', 'mgs': 0, 'depth': -0.064, 'time': 10.05, 'pitch': 0.76, 'roll': -4.39}
{'lipoC2': 8.35, 'temp': 26.75, 'lipoC3S3': 12.64, 'rot1': 120, 'rot0': 124, 'rot3': 0, 'rot2': 0, 'state': 'normal', 'yaw': 0.04, 'datetime': '2018-10-12 18:40:24.026499', 'mgs': 0, 'depth': -0.064, 'time': 10.15, 'pitch': 0.76, 'roll': -4.39}
{'lipoC2': 8.35, 'temp': 26.81, 'lipoC3S3': 12.66, 'rot1': 122, 'rot0': 125, 'rot3': 0, 'rot2': 0, 'state': 'normal', 'yaw': 0.03, 'datetime': '2018-10-12 18:40:24.123569', 'mgs': 0, 'depth': -0.064, 'time': 10.25, 'pitch': 0.76, 'roll': -4.39}
{'lipoC2': 8.35, 'temp': 26.81, 'lipoC3S3': 12.66, 'rot1': 124, 'rot0': 127, 'rot3': 0, 'rot2': 0, 'state': 'normal', 'yaw': 0.04, 'datetime': '2018-10-12 18:40:24.221167', 'mgs': 0, 'depth': 0.012, 'time': 10.35, 'pitch': 0.76, 'roll': -4.39}
{'lipoC2': 8.35, 'temp': 26.75, 'lipoC3S3': 12.64, 'rot1': 126, 'rot0': 129, 'rot3': 0, 'rot2': 0, 'state': 'normal', 'yaw': 0.04, 'datetime': '2018-10-12 18:40:24.319569', 'mgs': 0, 'depth': 0.546, 'time': 10.44, 'pitch': 0.76, 'roll': -4.39}
{'lipoC2': 8.36, 'temp': 26.75, 'lipoC3S3': 12.62, 'rot1': 127, 'rot0': 131, 'rot3': 0, 'rot2': 0, 'state': 'normal', 'yaw': 0.04, 'datetime': '2018-10-12 18:40:24.418260', 'mgs': 0, 'depth': -0.064, 'time': 10.54, 'pitch': 0.76, 'roll': -4.39}
{'lipoC2': 8.35, 'temp': 26.75, 'lipoC3S3': 12.66, 'rot1': 129, 'rot0': 133, 'rot3': 0, 'rot2': 0, 'state': 'normal', 'yaw': 0.03, 'datetime': '2018-10-12 18:40:24.515504', 'mgs': 0, 'depth': -0.064, 'time': 10.64, 'pitch': 0.76, 'roll': -4.39}
{'lipoC2': 8.36, 'temp': 26.75, 'lipoC3S3': 12.63, 'rot1': 131, 'rot0': 134, 'rot3': 0, 'rot2': 0, 'state': 'normal', 'yaw': 0.04, 'datetime': '2018-10-12 18:40:24.612721', 'mgs': 0, 'depth': -0.064, 'time': 10.74, 'pitch': 0.76, 'roll': -4.4}
{'lipoC2': 8.35, 'temp': 26.75, 'lipoC3S3': 12.55, 'rot1': 133, 'rot0': 136, 'rot3': 0, 'rot2': 0, 'state': 'normal', 'yaw': 0.04, 'datetime': '2018-10-12 18:40:24.711376', 'mgs': 0, 'depth': -0.064, 'time': 10.84, 'pitch': 0.76, 'roll': -4.4}
{'lipoC2': 8.35, 'temp': 26.81, 'lipoC3S3': 12.64, 'rot1': 135, 'rot0': 138, 'rot3': 0, 'rot2': 0, 'state': 'normal', 'yaw': 0.03, 'datetime': '2018-10-12 18:40:24.808643', 'mgs': 0, 'depth': -0.14, 'time': 10.93, 'pitch': 0.76, 'roll': -4.4}
{'lipoC2': 8.36, 'temp': 26.81, 'lipoC3S3': 12.64, 'rot1': 136, 'rot0': 140, 'rot3': 0, 'rot2': 0, 'state': 'normal', 'yaw': 0.04, 'datetime': '2018-10-12 18:40:24.905982', 'mgs': 0, 'depth': -0.064, 'time': 11.03, 'pitch': 0.76, 'roll': -4.4}
{'lipoC2': 8.35, 'temp': 26.81, 'lipoC3S3': 12.64, 'rot1': 138, 'rot0': 142, 'rot3': 0, 'rot2': 0, 'state': 'normal', 'yaw': 0.04, 'datetime': '2018-10-12 18:40:25.003223', 'mgs': 0, 'depth': -0.064, 'time': 11.13, 'pitch': 0.76, 'roll': -4.39}
{'lipoC2': 8.35, 'temp': 26.75, 'lipoC3S3': 12.7, 'rot1': 140, 'rot0': 143, 'rot3': 0, 'rot2': 0, 'state': 'normal', 'yaw': 0.04, 'datetime': '2018-10-12 18:40:25.101889', 'mgs': 0, 'depth': 0.012, 'time': 11.23, 'pitch': 0.76, 'roll': -4.39}
{'lipoC2': 8.35, 'temp': 26.75, 'lipoC3S3': 12.64, 'rot1': 142, 'rot0': 145, 'rot3': 0, 'rot2': 0, 'state': 'normal', 'yaw': 0.04, 'datetime': '2018-10-12 18:40:25.200496', 'mgs': 0, 'depth': -0.064, 'time': 11.32, 'pitch': 0.76, 'roll': -4.39}
{'lipoC2': 8.35, 'temp': 26.75, 'lipoC3S3': 12.64, 'rot1': 143, 'rot0': 147, 'rot3': 0, 'rot2': 0, 'state': 'normal', 'yaw': 0.04, 'datetime': '2018-10-12 18:40:25.297974', 'mgs': 0, 'depth': 0.012, 'time': 11.42, 'pitch': 0.76, 'roll': -4.39}
{'lipoC2': 8.35, 'temp': 26.75, 'lipoC3S3': 12.6, 'rot1': 145, 'rot0': 149, 'rot3': 0, 'rot2': 0, 'state': 'normal', 'yaw': 0.04, 'datetime': '2018-10-12 18:40:25.395262', 'mgs': 0, 'depth': -0.064, 'time': 11.52, 'pitch': 0.76, 'roll': -4.39}
{'lipoC2': 8.34, 'temp': 26.75, 'lipoC3S3': 12.58, 'rot1': 147, 'rot0': 151, 'rot3': 0, 'rot2': 0, 'state': 'normal', 'yaw': 0.04, 'datetime': '2018-10-12 18:40:25.493203', 'mgs': 0, 'depth': -0.064, 'time': 11.62, 'pitch': 0.76, 'roll': -4.39}
{'lipoC2': 8.35, 'temp': 26.81, 'lipoC3S3': 12.64, 'rot1': 149, 'rot0': 152, 'rot3': 0, 'rot2': 0, 'state': 'normal', 'yaw': 0.04, 'datetime': '2018-10-12 18:40:25.591509', 'mgs': 0, 'depth': -0.14, 'time': 11.72, 'pitch': 0.76, 'roll': -4.39}
{'lipoC2': 8.35, 'temp': 26.81, 'lipoC3S3': 12.66, 'rot1': 150, 'rot0': 154, 'rot3': 0, 'rot2': 0, 'state': 'normal', 'yaw': 0.04, 'datetime': '2018-10-12 18:40:25.690250', 'mgs': 0, 'depth': -0.064, 'time': 11.81, 'pitch': 0.76, 'roll': -4.39}
{'lipoC2': 8.37, 'temp': 26.75, 'lipoC3S3': 12.64, 'rot1': 152, 'rot0': 156, 'rot3': 0, 'rot2': 0, 'state': 'normal', 'yaw': 0.04, 'datetime': '2018-10-12 18:40:25.787301', 'mgs': 0, 'depth': 0.165, 'time': 11.91, 'pitch': 0.76, 'roll': -4.39}
{'lipoC2': 8.35, 'temp': 26.75, 'lipoC3S3': 12.64, 'rot1': 154, 'rot0': 158, 'rot3': 0, 'rot2': 0, 'state': 'normal', 'yaw': 0.05, 'datetime': '2018-10-12 18:40:25.884584', 'mgs': 0, 'depth': -0.064, 'time': 12.01, 'pitch': 0.76, 'roll': -4.39}
{'lipoC2': 8.35, 'temp': 26.75, 'lipoC3S3': 12.66, 'rot1': 156, 'rot0': 160, 'rot3': 0, 'rot2': 0, 'state': 'normal', 'yaw': 0.05, 'datetime': '2018-10-12 18:40:25.983268', 'mgs': 0, 'depth': -0.064, 'time': 12.11, 'pitch': 0.76, 'roll': -4.39}
{'lipoC2': 8.35, 'temp': 26.81, 'lipoC3S3': 12.64, 'rot1': 158, 'rot0': 161, 'rot3': 0, 'rot2': 0, 'state': 'normal', 'yaw': 0.06, 'datetime': '2018-10-12 18:40:26.081729', 'mgs': 0, 'depth': 0.012, 'time': 12.21, 'pitch': 0.76, 'roll': -4.39}
{'lipoC2': 8.36, 'temp': 26.81, 'lipoC3S3': 12.63, 'rot1': 160, 'rot0': 163, 'rot3': 0, 'rot2': 0, 'state': 'normal', 'yaw': 0.08, 'datetime': '2018-10-12 18:40:26.179998', 'mgs': 0, 'depth': -0.14, 'time': 12.31, 'pitch': 0.76, 'roll': -4.39}
{'lipoC2': 8.35, 'temp': 26.81, 'lipoC3S3': 12.66, 'rot1': 162, 'rot0': 165, 'rot3': 0, 'rot2': 0, 'state': 'normal', 'yaw': 0.08, 'datetime': '2018-10-12 18:40:26.277344', 'mgs': 0, 'depth': -0.064, 'time': 12.4, 'pitch': 0.76, 'roll': -4.39}
{'lipoC2': 8.35, 'temp': 26.81, 'lipoC3S3': 12.64, 'rot1': 164, 'rot0': 167, 'rot3': 0, 'rot2': 0, 'state': 'normal', 'yaw': 0.08, 'datetime': '2018-10-12 18:40:26.374678', 'mgs': 0, 'depth': 0.699, 'time': 12.5, 'pitch': 0.76, 'roll': -4.39}
{'lipoC2': 8.36, 'temp': 26.81, 'lipoC3S3': 12.64, 'rot1': 165, 'rot0': 169, 'rot3': 0, 'rot2': 0, 'state': 'normal', 'yaw': 0.08, 'datetime': '2018-10-12 18:40:26.473281', 'mgs': 0, 'depth': -0.751, 'time': 12.6, 'pitch': 0.76, 'roll': -4.39}
{'lipoC2': 8.35, 'temp': 26.81, 'lipoC3S3': 12.56, 'rot1': 167, 'rot0': 170, 'rot3': 0, 'rot2': 0, 'state': 'normal', 'yaw': 0.09, 'datetime': '2018-10-12 18:40:26.571779', 'mgs': 0, 'depth': -0.064, 'time': 12.7, 'pitch': 0.76, 'roll': -4.39}
{'lipoC2': 8.35, 'temp': 26.81, 'lipoC3S3': 12.56, 'rot1': 169, 'rot0': 172, 'rot3': 0, 'rot2': 0, 'state': 'normal', 'yaw': 0.08, 'datetime': '2018-10-12 18:40:26.669519', 'mgs': 0, 'depth': -0.14, 'time': 12.8, 'pitch': 0.76, 'roll': -4.39}
{'lipoC2': 8.35, 'temp': 26.75, 'lipoC3S3': 12.64, 'rot1': 171, 'rot0': 174, 'rot3': 0, 'rot2': 0, 'state': 'normal', 'yaw': 0.08, 'datetime': '2018-10-12 18:40:26.766792', 'mgs': 0, 'depth': 0.012, 'time': 12.89, 'pitch': 0.76, 'roll': -4.39}
{'lipoC2': 8.34, 'temp': 26.75, 'lipoC3S3': 12.64, 'rot1': 173, 'rot0': 176, 'rot3': 0, 'rot2': 0, 'state': 'normal', 'yaw': 0.09, 'datetime': '2018-10-12 18:40:26.864868', 'mgs': 0, 'depth': -0.064, 'time': 12.99, 'pitch': 0.76, 'roll': -4.39}
{'lipoC2': 8.35, 'temp': 26.75, 'lipoC3S3': 12.66, 'rot1': 174, 'rot0': 178, 'rot3': 0, 'rot2': 0, 'state': 'normal', 'yaw': 0.09, 'datetime': '2018-10-12 18:40:26.962585', 'mgs': 0, 'depth': -0.064, 'time': 13.09, 'pitch': 0.76, 'roll': -4.39}
{'lipoC2': 8.37, 'temp': 26.75, 'lipoC3S3': 12.64, 'rot1': 176, 'rot0': 179, 'rot3': 0, 'rot2': 0, 'state': 'normal', 'yaw': 0.09, 'datetime': '2018-10-12 18:40:27.064673', 'mgs': 0, 'depth': 0.012, 'time': 13.19, 'pitch': 0.76, 'roll': -4.39}
{'lipoC2': 8.35, 'temp': 26.75, 'lipoC3S3': 12.64, 'rot1': 178, 'rot0': 181, 'rot3': 0, 'rot2': 0, 'state': 'normal', 'yaw': 0.09, 'datetime': '2018-10-12 18:40:27.161740', 'mgs': 0, 'depth': 0.012, 'time': 13.28, 'pitch': 0.76, 'roll': -4.39}
{'lipoC2': 8.35, 'temp': 26.75, 'lipoC3S3': 12.64, 'rot1': 180, 'rot0': 183, 'rot3': 0, 'rot2': 0, 'state': 'normal', 'yaw': 0.09, 'datetime': '2018-10-12 18:40:27.260503', 'mgs': 0, 'depth': -0.064, 'time': 13.38, 'pitch': 0.76, 'roll': -4.39}
{'lipoC2': 8.35, 'temp': 26.75, 'lipoC3S3': 12.64, 'rot1': 181, 'rot0': 185, 'rot3': 0, 'rot2': 0, 'state': 'normal', 'yaw': 0.09, 'datetime': '2018-10-12 18:40:27.353963', 'mgs': 0, 'depth': -0.217, 'time': 13.48, 'pitch': 0.76, 'roll': -4.39}
{'lipoC2': 8.35, 'temp': 26.81, 'lipoC3S3': 12.64, 'rot1': 183, 'rot0': 187, 'rot3': 0, 'rot2': 0, 'state': 'normal', 'yaw': 0.09, 'datetime': '2018-10-12 18:40:27.452481', 'mgs': 0, 'depth': 0.623, 'time': 13.58, 'pitch': 0.76, 'roll': -4.39}
{'lipoC2': 8.35, 'temp': 26.81, 'lipoC3S3': 12.66, 'rot1': 185, 'rot0': 188, 'rot3': 0, 'rot2': 0, 'state': 'normal', 'yaw': 0.09, 'datetime': '2018-10-12 18:40:27.549710', 'mgs': 0, 'depth': -0.064, 'time': 13.68, 'pitch': 0.76, 'roll': -4.39}
{'lipoC2': 8.35, 'temp': 26.81, 'lipoC3S3': 12.64, 'rot1': 187, 'rot0': 190, 'rot3': 0, 'rot2': 0, 'state': 'normal', 'yaw': 0.08, 'datetime': '2018-10-12 18:40:27.651832', 'mgs': 0, 'depth': 0.165, 'time': 13.77, 'pitch': 0.76, 'roll': -4.39}
{'lipoC2': 8.35, 'temp': 26.75, 'lipoC3S3': 12.66, 'rot1': 189, 'rot0': 192, 'rot3': 0, 'rot2': 0, 'state': 'normal', 'yaw': 0.08, 'datetime': '2018-10-12 18:40:27.750515', 'mgs': 0, 'depth': -0.064, 'time': 13.87, 'pitch': 0.76, 'roll': -4.39}
{'lipoC2': 8.35, 'temp': 26.75, 'lipoC3S3': 12.6, 'rot1': 190, 'rot0': 194, 'rot3': 0, 'rot2': 0, 'state': 'normal', 'yaw': 0.08, 'datetime': '2018-10-12 18:40:27.849179', 'mgs': 0, 'depth': -0.064, 'time': 13.97, 'pitch': 0.76, 'roll': -4.39}
{'lipoC2': 8.36, 'temp': 26.81, 'lipoC3S3': 12.64, 'rot1': 192, 'rot0': 196, 'rot3': 0, 'rot2': 0, 'state': 'normal', 'yaw': 0.09, 'datetime': '2018-10-12 18:40:27.947019', 'mgs': 0, 'depth': -0.903, 'time': 14.07, 'pitch': 0.76, 'roll': -4.39}
{'lipoC2': 8.34, 'temp': 26.81, 'lipoC3S3': 12.64, 'rot1': 194, 'rot0': 197, 'rot3': 0, 'rot2': 0, 'state': 'normal', 'yaw': 0.08, 'datetime': '2018-10-12 18:40:28.044347', 'mgs': 0, 'depth': -0.064, 'time': 14.17, 'pitch': 0.76, 'roll': -4.39}
{'lipoC2': 8.35, 'temp': 26.81, 'lipoC3S3': 12.67, 'rot1': 196, 'rot0': 199, 'rot3': 0, 'rot2': 0, 'state': 'normal', 'yaw': 0.1, 'datetime': '2018-10-12 18:40:28.142238', 'mgs': 0, 'depth': -0.064, 'time': 14.27, 'pitch': 0.76, 'roll': -4.39}
{'lipoC2': 8.35, 'temp': 26.75, 'lipoC3S3': 12.64, 'rot1': 197, 'rot0': 201, 'rot3': 0, 'rot2': 0, 'state': 'normal', 'yaw': 0.09, 'datetime': '2018-10-12 18:40:28.240702', 'mgs': 0, 'depth': -0.064, 'time': 14.36, 'pitch': 0.76, 'roll': -4.39}
{'lipoC2': 8.35, 'temp': 26.75, 'lipoC3S3': 12.64, 'rot1': 199, 'rot0': 203, 'rot3': 0, 'rot2': 0, 'state': 'normal', 'yaw': 0.11, 'datetime': '2018-10-12 18:40:28.339179', 'mgs': 0, 'depth': 0.012, 'time': 14.46, 'pitch': 0.76, 'roll': -4.39}
{'lipoC2': 8.35, 'temp': 26.75, 'lipoC3S3': 12.58, 'rot1': 201, 'rot0': 205, 'rot3': 0, 'rot2': 0, 'state': 'normal', 'yaw': 0.11, 'datetime': '2018-10-12 18:40:28.436511', 'mgs': 0, 'depth': -0.064, 'time': 14.56, 'pitch': 0.76, 'roll': -4.39}
{'lipoC2': 8.35, 'temp': 26.75, 'lipoC3S3': 12.64, 'rot1': 203, 'rot0': 206, 'rot3': 0, 'rot2': 0, 'state': 'normal', 'yaw': 0.11, 'datetime': '2018-10-12 18:40:28.533958', 'mgs': 0, 'depth': -0.064, 'time': 14.66, 'pitch': 0.76, 'roll': -4.38}
{'lipoC2': 8.35, 'temp': 26.75, 'lipoC3S3': 12.64, 'rot1': 205, 'rot0': 208, 'rot3': 0, 'rot2': 0, 'state': 'normal', 'yaw': 0.11, 'datetime': '2018-10-12 18:40:28.632414', 'mgs': 0, 'depth': -0.064, 'time': 14.76, 'pitch': 0.76, 'roll': -4.38}
{'lipoC2': 8.35, 'temp': 26.81, 'lipoC3S3': 12.66, 'rot1': 206, 'rot0': 210, 'rot3': 0, 'rot2': 0, 'state': 'normal', 'yaw': 0.11, 'datetime': '2018-10-12 18:40:28.731088', 'mgs': 0, 'depth': 0.928, 'time': 14.85, 'pitch': 0.75, 'roll': -4.39}
{'lipoC2': 8.36, 'temp': 26.81, 'lipoC3S3': 12.63, 'rot1': 208, 'rot0': 212, 'rot3': 0, 'rot2': 0, 'state': 'normal', 'yaw': 0.1, 'datetime': '2018-10-12 18:40:28.829248', 'mgs': 0, 'depth': 0.012, 'time': 14.95, 'pitch': 0.76, 'roll': -4.39}
{'lipoC2': 8.35, 'temp': 26.81, 'lipoC3S3': 12.64, 'rot1': 210, 'rot0': 214, 'rot3': 0, 'rot2': 0, 'state': 'normal', 'yaw': 0.1, 'datetime': '2018-10-12 18:40:28.926676', 'mgs': 0, 'depth': -0.064, 'time': 15.05, 'pitch': 0.76, 'roll': -4.37}
{'lipoC2': 8.34, 'temp': 26.81, 'lipoC3S3': 12.64, 'rot1': 212, 'rot0': 216, 'rot3': 0, 'rot2': 0, 'state': 'normal', 'yaw': 0.1, 'datetime': '2018-10-12 18:40:29.019021', 'mgs': 0, 'depth': 0.165, 'time': 15.15, 'pitch': 0.76, 'roll': -4.37}
{'lipoC2': 8.35, 'temp': 26.81, 'lipoC3S3': 12.64, 'rot1': 214, 'rot0': 218, 'rot3': 0, 'rot2': 0, 'state': 'normal', 'yaw': 0.1, 'datetime': '2018-10-12 18:40:29.116943', 'mgs': 0, 'depth': 0.012, 'time': 15.25, 'pitch': 0.76, 'roll': -4.36}
{'lipoC2': 8.35, 'temp': 26.75, 'lipoC3S3': 12.63, 'rot1': 216, 'rot0': 220, 'rot3': 0, 'rot2': 0, 'state': 'normal', 'yaw': 0.1, 'datetime': '2018-10-12 18:40:29.214384', 'mgs': 0, 'depth': -0.064, 'time': 15.34, 'pitch': 0.76, 'roll': -4.36}
{'lipoC2': 8.35, 'temp': 26.75, 'lipoC3S3': 12.64, 'rot1': 217, 'rot0': 221, 'rot3': 0, 'rot2': 0, 'state': 'normal', 'yaw': 0.1, 'datetime': '2018-10-12 18:40:29.311569', 'mgs': 0, 'depth': -0.064, 'time': 15.44, 'pitch': 0.76, 'roll': -4.36}
{'lipoC2': 8.34, 'temp': 26.81, 'lipoC3S3': 12.59, 'rot1': 219, 'rot0': 223, 'rot3': 0, 'rot2': 0, 'state': 'normal', 'yaw': 0.1, 'datetime': '2018-10-12 18:40:29.414736', 'mgs': 0, 'depth': -0.064, 'time': 15.54, 'pitch': 0.76, 'roll': -4.36}
{'lipoC2': 8.35, 'temp': 26.81, 'lipoC3S3': 12.63, 'rot1': 221, 'rot0': 225, 'rot3': 0, 'rot2': 0, 'state': 'normal', 'yaw': 0.1, 'datetime': '2018-10-12 18:40:29.513227', 'mgs': 0, 'depth': 0.012, 'time': 15.64, 'pitch': 0.76, 'roll': -4.36}
{'lipoC2': 8.35, 'temp': 26.81, 'lipoC3S3': 12.64, 'rot1': 223, 'rot0': 227, 'rot3': 0, 'rot2': 0, 'state': 'normal', 'yaw': 0.1, 'datetime': '2018-10-12 18:40:29.611704', 'mgs': 0, 'depth': -0.064, 'time': 15.74, 'pitch': 0.76, 'roll': -4.36}
{'lipoC2': 8.36, 'temp': 26.81, 'lipoC3S3': 12.64, 'rot1': 225, 'rot0': 229, 'rot3': 0, 'rot2': 0, 'state': 'normal', 'yaw': 0.1, 'datetime': '2018-10-12 18:40:29.709039', 'mgs': 0, 'depth': -0.827, 'time': 15.83, 'pitch': 0.76, 'roll': -4.36}
{'lipoC2': 8.35, 'temp': 26.81, 'lipoC3S3': 12.66, 'rot1': 226, 'rot0': 231, 'rot3': 0, 'rot2': 0, 'state': 'normal', 'yaw': 0.1, 'datetime': '2018-10-12 18:40:29.806374', 'mgs': 0, 'depth': -0.064, 'time': 15.93, 'pitch': 0.76, 'roll': -4.35}
{'lipoC2': 8.35, 'temp': 26.81, 'lipoC3S3': 12.63, 'rot1': 228, 'rot0': 233, 'rot3': 0, 'rot2': 0, 'state': 'normal', 'yaw': 0.1, 'datetime': '2018-10-12 18:40:29.904587', 'mgs': 0, 'depth': 0.47, 'time': 16.03, 'pitch': 0.76, 'roll': -4.35}
{'lipoC2': 8.36, 'temp': 26.81, 'lipoC3S3': 12.63, 'rot1': 230, 'rot0': 235, 'rot3': 0, 'rot2': 0, 'state': 'normal', 'yaw': 0.11, 'datetime': '2018-10-12 18:40:30.003635', 'mgs': 0, 'depth': -0.064, 'time': 16.13, 'pitch': 0.76, 'roll': -4.35}
{'lipoC2': 8.35, 'temp': 26.81, 'lipoC3S3': 12.59, 'rot1': 232, 'rot0': 236, 'rot3': 0, 'rot2': 0, 'state': 'normal', 'yaw': 0.11, 'datetime': '2018-10-12 18:40:30.101655', 'mgs': 0, 'depth': -0.064, 'time': 16.23, 'pitch': 0.76, 'roll': -4.35}
{'lipoC2': 8.35, 'temp': 26.81, 'lipoC3S3': 12.64, 'rot1': 234, 'rot0': 238, 'rot3': 0, 'rot2': 0, 'state': 'normal', 'yaw': 0.11, 'datetime': '2018-10-12 18:40:30.198941', 'mgs': 0, 'depth': -0.217, 'time': 16.32, 'pitch': 0.76, 'roll': -4.35}
{'lipoC2': 8.35, 'temp': 26.81, 'lipoC3S3': 12.58, 'rot1': 235, 'rot0': 240, 'rot3': 0, 'rot2': 0, 'state': 'normal', 'yaw': 0.11, 'datetime': '2018-10-12 18:40:30.293716', 'mgs': 0, 'depth': -0.064, 'time': 16.42, 'pitch': 0.76, 'roll': -4.34}
{'lipoC2': 8.35, 'temp': 26.75, 'lipoC3S3': 12.66, 'rot1': 237, 'rot0': 242, 'rot3': 0, 'rot2': 0, 'state': 'normal', 'yaw': 0.11, 'datetime': '2018-10-12 18:40:30.392175', 'mgs': 0, 'depth': -0.14, 'time': 16.52, 'pitch': 0.78, 'roll': -4.34}
{'lipoC2': 8.35, 'temp': 26.75, 'lipoC3S3': 12.64, 'rot1': 239, 'rot0': 244, 'rot3': 0, 'rot2': 0, 'state': 'normal', 'yaw': 0.11, 'datetime': '2018-10-12 18:40:30.490689', 'mgs': 0, 'depth': -0.064, 'time': 16.62, 'pitch': 0.78, 'roll': -4.33}
{'lipoC2': 8.35, 'temp': 26.75, 'lipoC3S3': 12.64, 'rot1': 241, 'rot0': 246, 'rot3': 0, 'rot2': 0, 'state': 'normal', 'yaw': 0.11, 'datetime': '2018-10-12 18:40:30.588404', 'mgs': 0, 'depth': -0.064, 'time': 16.72, 'pitch': 0.78, 'roll': -4.33}
{'lipoC2': 8.35, 'temp': 26.75, 'lipoC3S3': 12.63, 'rot1': 243, 'rot0': 247, 'rot3': 0, 'rot2': 0, 'state': 'normal', 'yaw': 0.11, 'datetime': '2018-10-12 18:40:30.685766', 'mgs': 0, 'depth': 0.546, 'time': 16.81, 'pitch': 0.78, 'roll': -4.33}
{'lipoC2': 8.34, 'temp': 26.75, 'lipoC3S3': 12.64, 'rot1': 244, 'rot0': 249, 'rot3': 0, 'rot2': 0, 'state': 'normal', 'yaw': 0.11, 'datetime': '2018-10-12 18:40:30.783619', 'mgs': 0, 'depth': 0.012, 'time': 16.91, 'pitch': 0.78, 'roll': -4.33}
{'lipoC2': 8.35, 'temp': 26.75, 'lipoC3S3': 12.64, 'rot1': 246, 'rot0': 251, 'rot3': 0, 'rot2': 0, 'state': 'normal', 'yaw': 0.11, 'datetime': '2018-10-12 18:40:30.882103', 'mgs': 0, 'depth': 0.699, 'time': 17.01, 'pitch': 0.78, 'roll': -4.33}
{'lipoC2': 8.36, 'temp': 26.75, 'lipoC3S3': 12.63, 'rot1': 248, 'rot0': 253, 'rot3': 0, 'rot2': 0, 'state': 'normal', 'yaw': 0.11, 'datetime': '2018-10-12 18:40:30.980722', 'mgs': 0, 'depth': -0.064, 'time': 17.11, 'pitch': 0.78, 'roll': -4.32}
{'lipoC2': 8.35, 'temp': 26.81, 'lipoC3S3': 12.64, 'rot1': 250, 'rot0': 255, 'rot3': 0, 'rot2': 0, 'state': 'normal', 'yaw': 0.11, 'datetime': '2018-10-12 18:40:31.077942', 'mgs': 0, 'depth': -0.064, 'time': 17.21, 'pitch': 0.78, 'roll': -4.33}
{'lipoC2': 8.35, 'temp': 26.81, 'lipoC3S3': 12.66, 'rot1': 251, 'rot0': 256, 'rot3': 0, 'rot2': 0, 'state': 'normal', 'yaw': 0.11, 'datetime': '2018-10-12 18:40:31.175217', 'mgs': 0, 'depth': -0.064, 'time': 17.3, 'pitch': 0.78, 'roll': -4.3}
{'lipoC2': 8.35, 'temp': 26.81, 'lipoC3S3': 12.66, 'rot1': 251, 'rot0': 256, 'rot3': 0, 'rot2': 0, 'state': 'normal', 'yaw': 0.1, 'datetime': '2018-10-12 18:40:31.273487', 'mgs': 0, 'depth': -0.14, 'time': 17.4, 'pitch': 0.79, 'roll': -4.32}
{'lipoC2': 8.36, 'temp': 26.81, 'lipoC3S3': 12.6, 'rot1': 251, 'rot0': 256, 'rot3': 0, 'rot2': 0, 'state': 'normal', 'yaw': 0.1, 'datetime': '2018-10-12 18:40:31.371134', 'mgs': 0, 'depth': 0.47, 'time': 17.5, 'pitch': 0.79, 'roll': -4.32}
{'lipoC2': 8.35, 'temp': 26.81, 'lipoC3S3': 12.47, 'rot1': 256, 'rot0': 261, 'rot3': 0, 'rot2': 1, 'state': 'normal', 'yaw': 0.1, 'datetime': '2018-10-12 18:40:31.468252', 'mgs': 0, 'depth': -0.064, 'time': 17.6, 'pitch': 0.79, 'roll': -4.32}
{'lipoC2': 8.35, 'temp': 26.81, 'lipoC3S3': 12.63, 'rot1': 259, 'rot0': 264, 'rot3': 1, 'rot2': 2, 'state': 'normal', 'yaw': 0.11, 'datetime': '2018-10-12 18:40:31.565641', 'mgs': 0, 'depth': 0.012, 'time': 17.69, 'pitch': 0.78, 'roll': -4.32}
{'lipoC2': 8.35, 'temp': 26.81, 'lipoC3S3': 12.6, 'rot1': 262, 'rot0': 267, 'rot3': 2, 'rot2': 3, 'state': 'normal', 'yaw': 0.12, 'datetime': '2018-10-12 18:40:31.664098', 'mgs': 0, 'depth': 1.767, 'time': 17.79, 'pitch': 0.77, 'roll': -4.29}
{'lipoC2': 8.37, 'temp': 26.81, 'lipoC3S3': 12.56, 'rot1': 265, 'rot0': 270, 'rot3': 2, 'rot2': 3, 'state': 'normal', 'yaw': 0.11, 'datetime': '2018-10-12 18:40:31.762640', 'mgs': 0, 'depth': 0.623, 'time': 17.89, 'pitch': 0.78, 'roll': -4.32}
{'lipoC2': 8.34, 'temp': 26.81, 'lipoC3S3': 12.55, 'rot1': 268, 'rot0': 273, 'rot3': 3, 'rot2': 4, 'state': 'normal', 'yaw': 0.11, 'datetime': '2018-10-12 18:40:31.860002', 'mgs': 0, 'depth': -0.064, 'time': 17.99, 'pitch': 0.78, 'roll': -4.29}
{'lipoC2': 8.35, 'temp': 26.81, 'lipoC3S3': 12.6, 'rot1': 271, 'rot0': 276, 'rot3': 4, 'rot2': 5, 'state': 'normal', 'yaw': 0.13, 'datetime': '2018-10-12 18:40:31.957226', 'mgs': 0, 'depth': 1.385, 'time': 18.09, 'pitch': 0.78, 'roll': -4.31}
{'lipoC2': 8.35, 'temp': 26.81, 'lipoC3S3': 12.54, 'rot1': 274, 'rot0': 279, 'rot3': 4, 'rot2': 6, 'state': 'normal', 'yaw': 0.13, 'datetime': '2018-10-12 18:40:32.055462', 'mgs': 0, 'depth': -0.064, 'time': 18.18, 'pitch': 0.78, 'roll': -4.31}
{'lipoC2': 8.35, 'temp': 26.81, 'lipoC3S3': 12.6, 'rot1': 277, 'rot0': 282, 'rot3': 5, 'rot2': 7, 'state': 'normal', 'yaw': 0.13, 'datetime': '2018-10-12 18:40:32.154043', 'mgs': 0, 'depth': -0.064, 'time': 18.28, 'pitch': 0.78, 'roll': -4.26}
{'lipoC2': 8.36, 'temp': 26.81, 'lipoC3S3': 12.59, 'rot1': 280, 'rot0': 286, 'rot3': 6, 'rot2': 8, 'state': 'normal', 'yaw': 0.13, 'datetime': '2018-10-12 18:40:32.252234', 'mgs': 0, 'depth': 1.462, 'time': 18.38, 'pitch': 0.78, 'roll': -4.29}
{'lipoC2': 8.34, 'temp': 26.81, 'lipoC3S3': 12.56, 'rot1': 283, 'rot0': 289, 'rot3': 6, 'rot2': 9, 'state': 'normal', 'yaw': 0.13, 'datetime': '2018-10-12 18:40:32.349401', 'mgs': 0, 'depth': 0.012, 'time': 18.48, 'pitch': 0.78, 'roll': -4.27}
{'lipoC2': 8.36, 'temp': 26.81, 'lipoC3S3': 12.59, 'rot1': 286, 'rot0': 292, 'rot3': 7, 'rot2': 9, 'state': 'normal', 'yaw': 0.13, 'datetime': '2018-10-12 18:40:32.446673', 'mgs': 0, 'depth': 1.233, 'time': 18.58, 'pitch': 0.79, 'roll': -4.28}
{'lipoC2': 8.37, 'temp': 26.81, 'lipoC3S3': 12.55, 'rot1': 289, 'rot0': 295, 'rot3': 8, 'rot2': 10, 'state': 'normal', 'yaw': 0.14, 'datetime': '2018-10-12 18:40:32.545631', 'mgs': 0, 'depth': 0.47, 'time': 18.67, 'pitch': 0.79, 'roll': -4.31}
{'lipoC2': 8.37, 'temp': 26.81, 'lipoC3S3': 12.55, 'rot1': 292, 'rot0': 298, 'rot3': 8, 'rot2': 11, 'state': 'normal', 'yaw': 0.14, 'datetime': '2018-10-12 18:40:32.645811', 'mgs': 0, 'depth': 0.394, 'time': 18.77, 'pitch': 0.78, 'roll': -4.27}
{'lipoC2': 8.35, 'temp': 26.81, 'lipoC3S3': 12.62, 'rot1': 295, 'rot0': 301, 'rot3': 9, 'rot2': 12, 'state': 'normal', 'yaw': 0.15, 'datetime': '2018-10-12 18:40:32.742515', 'mgs': 0, 'depth': 0.012, 'time': 18.87, 'pitch': 0.79, 'roll': -4.28}
{'lipoC2': 8.36, 'temp': 26.81, 'lipoC3S3': 12.59, 'rot1': 298, 'rot0': 304, 'rot3': 9, 'rot2': 13, 'state': 'normal', 'yaw': 0.13, 'datetime': '2018-10-12 18:40:32.839755', 'mgs': 0, 'depth': 1.385, 'time': 18.97, 'pitch': 0.79, 'roll': -4.24}
{'lipoC2': 8.36, 'temp': 26.81, 'lipoC3S3': 12.59, 'rot1': 301, 'rot0': 307, 'rot3': 10, 'rot2': 14, 'state': 'normal', 'yaw': 0.13, 'datetime': '2018-10-12 18:40:32.937801', 'mgs': 0, 'depth': 1.157, 'time': 19.07, 'pitch': 0.79, 'roll': -4.27}
{'lipoC2': 8.35, 'temp': 26.81, 'lipoC3S3': 12.6, 'rot1': 304, 'rot0': 310, 'rot3': 11, 'rot2': 15, 'state': 'normal', 'yaw': 0.13, 'datetime': '2018-10-12 18:40:33.037194', 'mgs': 0, 'depth': 0.47, 'time': 19.17, 'pitch': 0.79, 'roll': -4.26}
{'lipoC2': 8.36, 'temp': 26.81, 'lipoC3S3': 12.6, 'rot1': 307, 'rot0': 313, 'rot3': 11, 'rot2': 15, 'state': 'normal', 'yaw': 0.14, 'datetime': '2018-10-12 18:40:33.134208', 'mgs': 0, 'depth': 1.614, 'time': 19.26, 'pitch': 0.79, 'roll': -4.27}
{'lipoC2': 8.34, 'temp': 26.81, 'lipoC3S3': 12.6, 'rot1': 310, 'rot0': 316, 'rot3': 12, 'rot2': 16, 'state': 'normal', 'yaw': 0.13, 'datetime': '2018-10-12 18:40:33.232694', 'mgs': 0, 'depth': 0.775, 'time': 19.36, 'pitch': 0.79, 'roll': -4.27}
{'lipoC2': 8.37, 'temp': 26.81, 'lipoC3S3': 12.55, 'rot1': 313, 'rot0': 320, 'rot3': 13, 'rot2': 17, 'state': 'normal', 'yaw': 0.13, 'datetime': '2018-10-12 18:40:33.329340', 'mgs': 0, 'depth': 0.089, 'time': 19.46, 'pitch': 0.79, 'roll': -4.24}
{'lipoC2': 8.35, 'temp': 26.81, 'lipoC3S3': 12.46, 'rot1': 316, 'rot0': 323, 'rot3': 13, 'rot2': 18, 'state': 'normal', 'yaw': 0.13, 'datetime': '2018-10-12 18:40:33.428269', 'mgs': 0, 'depth': -0.903, 'time': 19.56, 'pitch': 0.79, 'roll': -4.26}
{'lipoC2': 8.35, 'temp': 26.75, 'lipoC3S3': 12.68, 'rot1': 319, 'rot0': 326, 'rot3': 14, 'rot2': 19, 'state': 'normal', 'yaw': 0.13, 'datetime': '2018-10-12 18:40:33.526157', 'mgs': 0, 'depth': 0.47, 'time': 19.66, 'pitch': 0.79, 'roll': -4.23}
{'lipoC2': 8.36, 'temp': 26.75, 'lipoC3S3': 12.6, 'rot1': 322, 'rot0': 329, 'rot3': 14, 'rot2': 20, 'state': 'normal', 'yaw': 0.13, 'datetime': '2018-10-12 18:40:33.623123', 'mgs': 0, 'depth': 0.623, 'time': 19.75, 'pitch': 0.79, 'roll': -4.23}
{'lipoC2': 8.36, 'temp': 26.75, 'lipoC3S3': 12.58, 'rot1': 325, 'rot0': 333, 'rot3': 15, 'rot2': 21, 'state': 'normal', 'yaw': 0.15, 'datetime': '2018-10-12 18:40:33.716045', 'mgs': 0, 'depth': 1.08, 'time': 19.85, 'pitch': 0.79, 'roll': -4.22}
{'lipoC2': 8.35, 'temp': 26.81, 'lipoC3S3': 12.67, 'rot1': 328, 'rot0': 336, 'rot3': 16, 'rot2': 22, 'state': 'normal', 'yaw': 0.15, 'datetime': '2018-10-12 18:40:33.814066', 'mgs': 0, 'depth': 0.241, 'time': 19.95, 'pitch': 0.79, 'roll': -4.2}
{'lipoC2': 8.36, 'temp': 26.81, 'lipoC3S3': 12.46, 'rot1': 331, 'rot0': 339, 'rot3': 16, 'rot2': 22, 'state': 'normal', 'yaw': 0.16, 'datetime': '2018-10-12 18:40:33.913192', 'mgs': 0, 'depth': -0.369, 'time': 20.05, 'pitch': 0.79, 'roll': -4.2}
{'lipoC2': 8.36, 'temp': 26.75, 'lipoC3S3': 12.6, 'rot1': 334, 'rot0': 342, 'rot3': 17, 'rot2': 23, 'state': 'normal', 'yaw': 0.15, 'datetime': '2018-10-12 18:40:34.012072', 'mgs': 0, 'depth': 1.385, 'time': 20.15, 'pitch': 0.79, 'roll': -4.2}
{'lipoC2': 8.35, 'temp': 26.75, 'lipoC3S3': 12.63, 'rot1': 337, 'rot0': 345, 'rot3': 18, 'rot2': 24, 'state': 'normal', 'yaw': 0.16, 'datetime': '2018-10-12 18:40:34.111054', 'mgs': 0, 'depth': 0.012, 'time': 20.25, 'pitch': 0.79, 'roll': -4.22}
{'lipoC2': 8.35, 'temp': 26.75, 'lipoC3S3': 12.6, 'rot1': 340, 'rot0': 348, 'rot3': 18, 'rot2': 25, 'state': 'normal', 'yaw': 0.15, 'datetime': '2018-10-12 18:40:34.208611', 'mgs': 0, 'depth': 0.317, 'time': 20.34, 'pitch': 0.79, 'roll': -4.21}
