{'lipoC2': 8.05, 'temp': 30.94, 'lipoC3S3': 12.43, 'rot1': 0, 'rot0': 0, 'rot3': 0, 'rot2': 0, 'state': 'normal', 'yaw': 0.0, 'datetime': '2018-10-12 19:56:15.806884', 'mgs': 0, 'depth': -0.98, 'time': 1.26, 'pitch': 14.15, 'roll': -19.24}
{'lipoC2': 8.05, 'temp': 30.94, 'lipoC3S3': 12.43, 'rot1': 0, 'rot0': 0, 'rot3': 0, 'rot2': 0, 'state': 'normal', 'yaw': 3.52, 'datetime': '2018-10-12 19:56:15.824948', 'mgs': 0, 'depth': -1.056, 'time': 1.36, 'pitch': 15.17, 'roll': -18.29}
{'lipoC2': 8.05, 'temp': 30.94, 'lipoC3S3': 12.42, 'rot1': 0, 'rot0': 0, 'rot3': 0, 'rot2': 0, 'state': 'normal', 'yaw': 8.45, 'datetime': '2018-10-12 19:56:15.843141', 'mgs': 0, 'depth': -0.98, 'time': 1.46, 'pitch': 17.35, 'roll': -17.02}
{'lipoC2': 8.05, 'temp': 30.94, 'lipoC3S3': 12.42, 'rot1': 0, 'rot0': 0, 'rot3': 0, 'rot2': 0, 'state': 'normal', 'yaw': 12.72, 'datetime': '2018-10-12 19:56:15.861183', 'mgs': 0, 'depth': -0.98, 'time': 1.55, 'pitch': 19.28, 'roll': -15.76}
{'lipoC2': 8.05, 'temp': 30.94, 'lipoC3S3': 12.42, 'rot1': 0, 'rot0': 0, 'rot3': 0, 'rot2': 0, 'state': 'normal', 'yaw': 16.6, 'datetime': '2018-10-12 19:56:15.879579', 'mgs': 0, 'depth': -1.056, 'time': 1.65, 'pitch': 19.91, 'roll': -15.09}
{'lipoC2': 8.05, 'temp': 30.94, 'lipoC3S3': 12.43, 'rot1': 0, 'rot0': 0, 'rot3': 0, 'rot2': 0, 'state': 'normal', 'yaw': 20.55, 'datetime': '2018-10-12 19:56:15.891701', 'mgs': 0, 'depth': -0.98, 'time': 1.75, 'pitch': 18.9, 'roll': -18.68}
{'lipoC2': 8.04, 'temp': 30.94, 'lipoC3S3': 12.42, 'rot1': 0, 'rot0': 0, 'rot3': 0, 'rot2': 0, 'state': 'normal', 'yaw': 28.43, 'datetime': '2018-10-12 19:56:15.899593', 'mgs': 0, 'depth': -1.056, 'time': 1.85, 'pitch': 17.06, 'roll': -20.42}
{'lipoC2': 8.04, 'temp': 30.88, 'lipoC3S3': 12.42, 'rot1': 0, 'rot0': 0, 'rot3': 0, 'rot2': 0, 'state': 'normal', 'yaw': 42.12, 'datetime': '2018-10-12 19:56:15.907401', 'mgs': 0, 'depth': -1.056, 'time': 1.95, 'pitch': 14.25, 'roll': -14.53}
{'lipoC2': 8.04, 'temp': 30.88, 'lipoC3S3': 12.42, 'rot1': 0, 'rot0': 0, 'rot3': 0, 'rot2': 0, 'state': 'normal', 'yaw': 53.81, 'datetime': '2018-10-12 19:56:15.915179', 'mgs': 0, 'depth': -1.056, 'time': 2.04, 'pitch': 12.54, 'roll': -11.81}
{'lipoC2': 8.04, 'temp': 30.88, 'lipoC3S3': 12.42, 'rot1': 0, 'rot0': 0, 'rot3': 0, 'rot2': 0, 'state': 'normal', 'yaw': 63.0, 'datetime': '2018-10-12 19:56:15.923033', 'mgs': 0, 'depth': -0.98, 'time': 2.14, 'pitch': 13.06, 'roll': -14.6}
{'lipoC2': 8.05, 'temp': 30.88, 'lipoC3S3': 12.42, 'rot1': 0, 'rot0': 0, 'rot3': 0, 'rot2': 0, 'state': 'normal', 'yaw': 71.48, 'datetime': '2018-10-12 19:56:15.930942', 'mgs': 0, 'depth': -1.056, 'time': 2.24, 'pitch': 14.55, 'roll': -17.45}
{'lipoC2': 8.04, 'temp': 30.88, 'lipoC3S3': 12.42, 'rot1': 0, 'rot0': 0, 'rot3': 0, 'rot2': 0, 'state': 'normal', 'yaw': 79.96, 'datetime': '2018-10-12 19:56:15.938748', 'mgs': 0, 'depth': -1.132, 'time': 2.34, 'pitch': 16.37, 'roll': -19.1}
{'lipoC2': 8.04, 'temp': 30.94, 'lipoC3S3': 12.42, 'rot1': 0, 'rot0': 0, 'rot3': 0, 'rot2': 0, 'state': 'normal', 'yaw': 86.9, 'datetime': '2018-10-12 19:56:15.946642', 'mgs': 0, 'depth': -0.98, 'time': 2.43, 'pitch': 17.95, 'roll': -19.44}
{'lipoC2': 8.05, 'temp': 30.94, 'lipoC3S3': 12.42, 'rot1': 0, 'rot0': 0, 'rot3': 0, 'rot2': 0, 'state': 'normal', 'yaw': 95.95, 'datetime': '2018-10-12 19:56:15.954438', 'mgs': 0, 'depth': -1.056, 'time': 2.53, 'pitch': 18.4, 'roll': -18.68}
{'lipoC2': 8.04, 'temp': 30.94, 'lipoC3S3': 12.42, 'rot1': 0, 'rot0': 0, 'rot3': 0, 'rot2': 0, 'state': 'normal', 'yaw': 104.22, 'datetime': '2018-10-12 19:56:15.962288', 'mgs': 0, 'depth': -0.98, 'time': 2.63, 'pitch': 17.41, 'roll': -20.17}
{'lipoC2': 8.04, 'temp': 30.94, 'lipoC3S3': 12.42, 'rot1': 0, 'rot0': 0, 'rot3': 0, 'rot2': 0, 'state': 'normal', 'yaw': 111.61, 'datetime': '2018-10-12 19:56:15.970201', 'mgs': 0, 'depth': -1.056, 'time': 2.72, 'pitch': 14.73, 'roll': -20.49}
{'lipoC2': 8.05, 'temp': 30.94, 'lipoC3S3': 12.43, 'rot1': 0, 'rot0': 0, 'rot3': 0, 'rot2': 0, 'state': 'normal', 'yaw': 120.3, 'datetime': '2018-10-12 19:56:15.978134', 'mgs': 0, 'depth': -0.98, 'time': 2.82, 'pitch': 11.02, 'roll': -17.35}
{'lipoC2': 8.04, 'temp': 30.88, 'lipoC3S3': 12.42, 'rot1': 0, 'rot0': 0, 'rot3': 0, 'rot2': 0, 'state': 'normal', 'yaw': 128.01, 'datetime': '2018-10-12 19:56:15.986107', 'mgs': 0, 'depth': -0.98, 'time': 2.92, 'pitch': 6.84, 'roll': -11.34}
{'lipoC2': 8.05, 'temp': 30.88, 'lipoC3S3': 12.43, 'rot1': 0, 'rot0': 0, 'rot3': 0, 'rot2': 0, 'state': 'normal', 'yaw': 133.95, 'datetime': '2018-10-12 19:56:15.994026', 'mgs': 0, 'depth': -0.98, 'time': 3.02, 'pitch': 3.35, 'roll': -5.9}
{'lipoC2': 8.04, 'temp': 30.88, 'lipoC3S3': 12.43, 'rot1': 0, 'rot0': 0, 'rot3': 0, 'rot2': 0, 'state': 'normal', 'yaw': 137.43, 'datetime': '2018-10-12 19:56:16.001836', 'mgs': 0, 'depth': -0.98, 'time': 3.12, 'pitch': 2.55, 'roll': -2.11}
{'lipoC2': 8.04, 'temp': 30.88, 'lipoC3S3': 12.43, 'rot1': 0, 'rot0': 0, 'rot3': 0, 'rot2': 0, 'state': 'normal', 'yaw': 140.37, 'datetime': '2018-10-12 19:56:16.009847', 'mgs': 0, 'depth': -1.056, 'time': 3.21, 'pitch': 2.05, 'roll': -0.43}
{'lipoC2': 8.05, 'temp': 30.88, 'lipoC3S3': 12.42, 'rot1': 0, 'rot0': 0, 'rot3': 0, 'rot2': 0, 'state': 'normal', 'yaw': 143.15, 'datetime': '2018-10-12 19:56:16.017778', 'mgs': 0, 'depth': -1.056, 'time': 3.31, 'pitch': 1.09, 'roll': -2.02}
{'lipoC2': 8.05, 'temp': 30.94, 'lipoC3S3': 12.42, 'rot1': 0, 'rot0': 0, 'rot3': 0, 'rot2': 0, 'state': 'normal', 'yaw': 146.4, 'datetime': '2018-10-12 19:56:16.025739', 'mgs': 0, 'depth': -1.056, 'time': 3.41, 'pitch': 1.04, 'roll': -3.98}
{'lipoC2': 8.05, 'temp': 30.94, 'lipoC3S3': 12.43, 'rot1': 0, 'rot0': 0, 'rot3': 0, 'rot2': 0, 'state': 'normal', 'yaw': 149.55, 'datetime': '2018-10-12 19:56:16.033641', 'mgs': 0, 'depth': -1.056, 'time': 3.51, 'pitch': 1.49, 'roll': -5.05}
{'lipoC2': 8.05, 'temp': 30.94, 'lipoC3S3': 12.42, 'rot1': 0, 'rot0': 0, 'rot3': 0, 'rot2': 0, 'state': 'normal', 'yaw': 153.33, 'datetime': '2018-10-12 19:56:16.041599', 'mgs': 0, 'depth': -0.98, 'time': 3.61, 'pitch': 1.33, 'roll': -6.56}
{'lipoC2': 8.05, 'temp': 30.94, 'lipoC3S3': 12.43, 'rot1': 0, 'rot0': 0, 'rot3': 0, 'rot2': 0, 'state': 'normal', 'yaw': 157.53, 'datetime': '2018-10-12 19:56:16.049547', 'mgs': 0, 'depth': -1.056, 'time': 3.7, 'pitch': 0.81, 'roll': -8.09}
{'lipoC2': 8.04, 'temp': 30.94, 'lipoC3S3': 12.42, 'rot1': 0, 'rot0': 0, 'rot3': 0, 'rot2': 0, 'state': 'normal', 'yaw': 160.87, 'datetime': '2018-10-12 19:56:16.057487', 'mgs': 0, 'depth': -1.056, 'time': 3.8, 'pitch': 1.38, 'roll': -9.09}
{'lipoC2': 8.04, 'temp': 30.94, 'lipoC3S3': 12.43, 'rot1': 0, 'rot0': 0, 'rot3': 0, 'rot2': 0, 'state': 'normal', 'yaw': 162.62, 'datetime': '2018-10-12 19:56:16.065309', 'mgs': 0, 'depth': -1.056, 'time': 3.9, 'pitch': 3.12, 'roll': -9.16}
{'lipoC2': 8.04, 'temp': 30.94, 'lipoC3S3': 12.42, 'rot1': 0, 'rot0': 0, 'rot3': 0, 'rot2': 0, 'state': 'normal', 'yaw': 163.37, 'datetime': '2018-10-12 19:56:16.073170', 'mgs': 0, 'depth': -0.98, 'time': 4.0, 'pitch': 4.6, 'roll': -9.67}
{'lipoC2': 8.04, 'temp': 30.94, 'lipoC3S3': 12.42, 'rot1': 0, 'rot0': 0, 'rot3': 0, 'rot2': 0, 'state': 'normal', 'yaw': 163.44, 'datetime': '2018-10-12 19:56:16.080977', 'mgs': 0, 'depth': -0.98, 'time': 4.09, 'pitch': 5.43, 'roll': -10.53}
{'lipoC2': 8.05, 'temp': 30.88, 'lipoC3S3': 12.42, 'rot1': 0, 'rot0': 0, 'rot3': 0, 'rot2': 0, 'state': 'normal', 'yaw': 163.19, 'datetime': '2018-10-12 19:56:16.088892', 'mgs': 0, 'depth': -1.056, 'time': 4.19, 'pitch': 5.81, 'roll': -11.1}
{'lipoC2': 8.04, 'temp': 30.88, 'lipoC3S3': 12.42, 'rot1': 0, 'rot0': 0, 'rot3': 0, 'rot2': 0, 'state': 'normal', 'yaw': 163.18, 'datetime': '2018-10-12 19:56:16.096707', 'mgs': 0, 'depth': -1.056, 'time': 4.29, 'pitch': 5.83, 'roll': -10.89}
{'lipoC2': 8.04, 'temp': 30.88, 'lipoC3S3': 12.43, 'rot1': 0, 'rot0': 0, 'rot3': 0, 'rot2': 0, 'state': 'normal', 'yaw': 163.17, 'datetime': '2018-10-12 19:56:16.104617', 'mgs': 0, 'depth': -0.98, 'time': 4.39, 'pitch': 5.5, 'roll': -10.09}
{'lipoC2': 8.04, 'temp': 30.88, 'lipoC3S3': 12.42, 'rot1': 0, 'rot0': 0, 'rot3': 0, 'rot2': 0, 'state': 'normal', 'yaw': 163.09, 'datetime': '2018-10-12 19:56:16.112517', 'mgs': 0, 'depth': -0.903, 'time': 4.48, 'pitch': 4.86, 'roll': -9.12}
{'lipoC2': 8.05, 'temp': 30.88, 'lipoC3S3': 12.42, 'rot1': 0, 'rot0': 0, 'rot3': 0, 'rot2': 0, 'state': 'normal', 'yaw': 163.24, 'datetime': '2018-10-12 19:56:16.120475', 'mgs': 0, 'depth': -0.98, 'time': 4.58, 'pitch': 4.48, 'roll': -8.53}
{'lipoC2': 8.04, 'temp': 30.94, 'lipoC3S3': 12.43, 'rot1': 0, 'rot0': 0, 'rot3': 0, 'rot2': 0, 'state': 'normal', 'yaw': 163.57, 'datetime': '2018-10-12 19:56:16.128408', 'mgs': 0, 'depth': -1.056, 'time': 4.68, 'pitch': 4.27, 'roll': -8.19}
{'lipoC2': 8.05, 'temp': 30.94, 'lipoC3S3': 12.42, 'rot1': 0, 'rot0': 0, 'rot3': 0, 'rot2': 0, 'state': 'normal', 'yaw': 163.87, 'datetime': '2018-10-12 19:56:16.136225', 'mgs': 0, 'depth': -0.98, 'time': 4.77, 'pitch': 4.04, 'roll': -7.96}
{'lipoC2': 8.05, 'temp': 30.88, 'lipoC3S3': 12.42, 'rot1': 0, 'rot0': 0, 'rot3': 0, 'rot2': 0, 'state': 'normal', 'yaw': 163.93, 'datetime': '2018-10-12 19:56:16.144115', 'mgs': 0, 'depth': -1.056, 'time': 4.87, 'pitch': 3.67, 'roll': -7.61}
{'lipoC2': 8.04, 'temp': 30.88, 'lipoC3S3': 12.42, 'rot1': 0, 'rot0': 0, 'rot3': 0, 'rot2': 0, 'state': 'normal', 'yaw': 164.02, 'datetime': '2018-10-12 19:56:16.151894', 'mgs': 0, 'depth': -1.056, 'time': 4.97, 'pitch': 2.81, 'roll': -7.44}
{'lipoC2': 8.04, 'temp': 30.88, 'lipoC3S3': 12.42, 'rot1': 0, 'rot0': 0, 'rot3': 0, 'rot2': 0, 'state': 'normal', 'yaw': 164.29, 'datetime': '2018-10-12 19:56:16.159786', 'mgs': 0, 'depth': -1.056, 'time': 5.07, 'pitch': 1.45, 'roll': -6.96}
{'lipoC2': 8.04, 'temp': 30.88, 'lipoC3S3': 12.43, 'rot1': 0, 'rot0': 0, 'rot3': 0, 'rot2': 0, 'state': 'normal', 'yaw': 164.79, 'datetime': '2018-10-12 19:56:16.167572', 'mgs': 0, 'depth': -1.056, 'time': 5.17, 'pitch': 0.33, 'roll': -7.21}
{'lipoC2': 8.05, 'temp': 30.88, 'lipoC3S3': 12.42, 'rot1': 0, 'rot0': 0, 'rot3': 0, 'rot2': 0, 'state': 'normal', 'yaw': 164.98, 'datetime': '2018-10-12 19:56:16.175479', 'mgs': 0, 'depth': -1.056, 'time': 5.26, 'pitch': 0.51, 'roll': -8.12}
{'lipoC2': 8.04, 'temp': 30.88, 'lipoC3S3': 12.42, 'rot1': 0, 'rot0': 0, 'rot3': 0, 'rot2': 0, 'state': 'normal', 'yaw': 164.85, 'datetime': '2018-10-12 19:56:16.183240', 'mgs': 0, 'depth': -0.98, 'time': 5.36, 'pitch': 0.49, 'roll': -8.84}
{'lipoC2': 8.05, 'temp': 30.88, 'lipoC3S3': 12.42, 'rot1': 0, 'rot0': 0, 'rot3': 0, 'rot2': 0, 'state': 'normal', 'yaw': 164.84, 'datetime': '2018-10-12 19:56:16.191141', 'mgs': 0, 'depth': -1.056, 'time': 5.46, 'pitch': 0.48, 'roll': -8.91}
{'lipoC2': 8.04, 'temp': 30.88, 'lipoC3S3': 12.42, 'rot1': 0, 'rot0': 0, 'rot3': 0, 'rot2': 0, 'state': 'normal', 'yaw': 164.82, 'datetime': '2018-10-12 19:56:16.198959', 'mgs': 0, 'depth': -0.98, 'time': 5.56, 'pitch': 0.45, 'roll': -8.86}
{'lipoC2': 8.04, 'temp': 30.88, 'lipoC3S3': 12.42, 'rot1': 0, 'rot0': 0, 'rot3': 0, 'rot2': 0, 'state': 'normal', 'yaw': 164.78, 'datetime': '2018-10-12 19:56:16.206874', 'mgs': 0, 'depth': -1.056, 'time': 5.66, 'pitch': 0.42, 'roll': -9.04}
{'lipoC2': 8.04, 'temp': 30.88, 'lipoC3S3': 12.43, 'rot1': 0, 'rot0': 0, 'rot3': 0, 'rot2': 0, 'state': 'normal', 'yaw': 164.7, 'datetime': '2018-10-12 19:56:16.214684', 'mgs': 0, 'depth': -1.056, 'time': 5.75, 'pitch': 0.38, 'roll': -9.02}
{'lipoC2': 8.04, 'temp': 30.88, 'lipoC3S3': 12.43, 'rot1': 0, 'rot0': 0, 'rot3': 0, 'rot2': 0, 'state': 'normal', 'yaw': 164.73, 'datetime': '2018-10-12 19:56:16.222554', 'mgs': 0, 'depth': -0.98, 'time': 5.85, 'pitch': 0.31, 'roll': -9.05}
{'lipoC2': 8.04, 'temp': 30.88, 'lipoC3S3': 12.42, 'rot1': 0, 'rot0': 0, 'rot3': 0, 'rot2': 0, 'state': 'normal', 'yaw': 164.71, 'datetime': '2018-10-12 19:56:16.230362', 'mgs': 0, 'depth': -1.056, 'time': 5.95, 'pitch': 0.3, 'roll': -9.1}
{'lipoC2': 8.04, 'temp': 30.88, 'lipoC3S3': 12.42, 'rot1': 0, 'rot0': 0, 'rot3': 0, 'rot2': 0, 'state': 'normal', 'yaw': 164.68, 'datetime': '2018-10-12 19:56:16.238374', 'mgs': 0, 'depth': -0.98, 'time': 6.05, 'pitch': 0.21, 'roll': -9.11}
{'lipoC2': 8.04, 'temp': 30.88, 'lipoC3S3': 12.42, 'rot1': 0, 'rot0': 0, 'rot3': 0, 'rot2': 0, 'state': 'normal', 'yaw': 164.68, 'datetime': '2018-10-12 19:56:16.246428', 'mgs': 0, 'depth': -1.056, 'time': 6.14, 'pitch': 0.19, 'roll': -9.22}
{'lipoC2': 8.04, 'temp': 30.88, 'lipoC3S3': 12.42, 'rot1': 0, 'rot0': 0, 'rot3': 0, 'rot2': 0, 'state': 'normal', 'yaw': 164.67, 'datetime': '2018-10-12 19:56:16.254544', 'mgs': 0, 'depth': -1.056, 'time': 6.24, 'pitch': 0.14, 'roll': -9.21}
{'lipoC2': 8.04, 'temp': 30.88, 'lipoC3S3': 12.42, 'rot1': 0, 'rot0': 0, 'rot3': 0, 'rot2': 0, 'state': 'normal', 'yaw': 164.68, 'datetime': '2018-10-12 19:56:16.262344', 'mgs': 0, 'depth': -1.056, 'time': 6.34, 'pitch': 0.13, 'roll': -9.25}
{'lipoC2': 8.05, 'temp': 30.88, 'lipoC3S3': 12.42, 'rot1': 0, 'rot0': 0, 'rot3': 0, 'rot2': 0, 'state': 'normal', 'yaw': 164.67, 'datetime': '2018-10-12 19:56:16.270254', 'mgs': 0, 'depth': -0.98, 'time': 6.44, 'pitch': 0.08, 'roll': -9.29}
{'lipoC2': 8.05, 'temp': 30.88, 'lipoC3S3': 12.42, 'rot1': 0, 'rot0': 0, 'rot3': 0, 'rot2': 0, 'state': 'normal', 'yaw': 164.67, 'datetime': '2018-10-12 19:56:16.278073', 'mgs': 0, 'depth': -0.98, 'time': 6.54, 'pitch': 0.06, 'roll': -9.31}
{'lipoC2': 8.04, 'temp': 30.88, 'lipoC3S3': 12.42, 'rot1': 0, 'rot0': 0, 'rot3': 0, 'rot2': 0, 'state': 'normal', 'yaw': 164.68, 'datetime': '2018-10-12 19:56:16.285973', 'mgs': 0, 'depth': -1.056, 'time': 6.63, 'pitch': 0.03, 'roll': -9.33}
{'lipoC2': 8.04, 'temp': 30.88, 'lipoC3S3': 12.42, 'rot1': 0, 'rot0': 0, 'rot3': 0, 'rot2': 0, 'state': 'normal', 'yaw': 164.68, 'datetime': '2018-10-12 19:56:16.293788', 'mgs': 0, 'depth': -0.98, 'time': 6.73, 'pitch': 0.01, 'roll': -9.35}
{'lipoC2': 8.04, 'temp': 30.81, 'lipoC3S3': 12.42, 'rot1': 0, 'rot0': 0, 'rot3': 0, 'rot2': 0, 'state': 'normal', 'yaw': 164.68, 'datetime': '2018-10-12 19:56:16.301649', 'mgs': 0, 'depth': -0.98, 'time': 6.83, 'pitch': 0.01, 'roll': -9.35}
{'lipoC2': 8.04, 'temp': 30.81, 'lipoC3S3': 12.43, 'rot1': 0, 'rot0': 0, 'rot3': 0, 'rot2': 0, 'state': 'normal', 'yaw': 164.68, 'datetime': '2018-10-12 19:56:16.309447', 'mgs': 0, 'depth': -0.98, 'time': 6.93, 'pitch': -0.01, 'roll': -9.36}
{'lipoC2': 8.04, 'temp': 30.81, 'lipoC3S3': 12.42, 'rot1': 0, 'rot0': 0, 'rot3': 0, 'rot2': 0, 'state': 'normal', 'yaw': 164.67, 'datetime': '2018-10-12 19:56:16.317365', 'mgs': 0, 'depth': -1.056, 'time': 7.03, 'pitch': -0.02, 'roll': -9.37}
{'lipoC2': 8.04, 'temp': 30.88, 'lipoC3S3': 12.42, 'rot1': 0, 'rot0': 0, 'rot3': 0, 'rot2': 0, 'state': 'normal', 'yaw': 164.67, 'datetime': '2018-10-12 19:56:16.325168', 'mgs': 0, 'depth': -0.98, 'time': 7.12, 'pitch': -0.04, 'roll': -9.39}
{'lipoC2': 8.05, 'temp': 30.88, 'lipoC3S3': 12.42, 'rot1': 0, 'rot0': 0, 'rot3': 0, 'rot2': 0, 'state': 'normal', 'yaw': 164.67, 'datetime': '2018-10-12 19:56:16.333039', 'mgs': 0, 'depth': -0.98, 'time': 7.22, 'pitch': -0.06, 'roll': -9.4}
{'lipoC2': 8.04, 'temp': 30.88, 'lipoC3S3': 12.42, 'rot1': 0, 'rot0': 0, 'rot3': 0, 'rot2': 0, 'state': 'normal', 'yaw': 164.68, 'datetime': '2018-10-12 19:56:16.340853', 'mgs': 0, 'depth': -0.98, 'time': 7.32, 'pitch': -0.08, 'roll': -9.42}
{'lipoC2': 8.04, 'temp': 30.88, 'lipoC3S3': 12.43, 'rot1': 0, 'rot0': 0, 'rot3': 0, 'rot2': 0, 'state': 'normal', 'yaw': 164.68, 'datetime': '2018-10-12 19:56:16.348746', 'mgs': 0, 'depth': -0.98, 'time': 7.42, 'pitch': -0.08, 'roll': -9.43}
{'lipoC2': 8.04, 'temp': 30.94, 'lipoC3S3': 12.43, 'rot1': 0, 'rot0': 0, 'rot3': 0, 'rot2': 0, 'state': 'normal', 'yaw': 164.63, 'datetime': '2018-10-12 19:56:16.356551', 'mgs': 0, 'depth': -1.056, 'time': 7.51, 'pitch': -0.06, 'roll': -9.37}
{'lipoC2': 8.04, 'temp': 30.94, 'lipoC3S3': 12.43, 'rot1': 0, 'rot0': 0, 'rot3': 0, 'rot2': 0, 'state': 'normal', 'yaw': 163.84, 'datetime': '2018-10-12 19:56:16.364436', 'mgs': 0, 'depth': -1.056, 'time': 7.61, 'pitch': -0.14, 'roll': -9.14}
{'lipoC2': 8.04, 'temp': 30.94, 'lipoC3S3': 12.43, 'rot1': 0, 'rot0': 0, 'rot3': 0, 'rot2': 0, 'state': 'normal', 'yaw': 163.41, 'datetime': '2018-10-12 19:56:16.372206', 'mgs': 0, 'depth': -1.056, 'time': 7.71, 'pitch': -0.28, 'roll': -9.21}
{'lipoC2': 8.05, 'temp': 30.88, 'lipoC3S3': 12.43, 'rot1': 0, 'rot0': 0, 'rot3': 0, 'rot2': 0, 'state': 'normal', 'yaw': 162.92, 'datetime': '2018-10-12 19:56:16.380118', 'mgs': 0, 'depth': -0.98, 'time': 7.81, 'pitch': -0.06, 'roll': -9.74}
{'lipoC2': 8.04, 'temp': 30.88, 'lipoC3S3': 12.43, 'rot1': 0, 'rot0': 0, 'rot3': 0, 'rot2': 0, 'state': 'normal', 'yaw': 161.57, 'datetime': '2018-10-12 19:56:16.388052', 'mgs': 0, 'depth': -0.98, 'time': 7.91, 'pitch': -0.57, 'roll': -9.32}
{'lipoC2': 8.04, 'temp': 30.88, 'lipoC3S3': 12.42, 'rot1': 0, 'rot0': 0, 'rot3': 0, 'rot2': 0, 'state': 'normal', 'yaw': 160.66, 'datetime': '2018-10-12 19:56:16.395972', 'mgs': 0, 'depth': -1.056, 'time': 8.0, 'pitch': -0.43, 'roll': -9.39}
{'lipoC2': 8.04, 'temp': 30.88, 'lipoC3S3': 12.43, 'rot1': 0, 'rot0': 0, 'rot3': 0, 'rot2': 0, 'state': 'normal', 'yaw': 160.64, 'datetime': '2018-10-12 19:56:16.403740', 'mgs': 0, 'depth': -1.056, 'time': 8.1, 'pitch': -0.36, 'roll': -9.35}
{'lipoC2': 8.05, 'temp': 30.88, 'lipoC3S3': 12.43, 'rot1': 0, 'rot0': 0, 'rot3': 0, 'rot2': 0, 'state': 'normal', 'yaw': 160.45, 'datetime': '2018-10-12 19:56:16.411660', 'mgs': 0, 'depth': -1.056, 'time': 8.2, 'pitch': -0.4, 'roll': -9.41}
{'lipoC2': 8.04, 'temp': 30.88, 'lipoC3S3': 12.43, 'rot1': 0, 'rot0': 0, 'rot3': 0, 'rot2': 0, 'state': 'normal', 'yaw': 160.05, 'datetime': '2018-10-12 19:56:16.419449', 'mgs': 0, 'depth': -0.98, 'time': 8.29, 'pitch': -0.57, 'roll': -9.4}
{'lipoC2': 8.04, 'temp': 30.88, 'lipoC3S3': 12.42, 'rot1': 0, 'rot0': 0, 'rot3': 0, 'rot2': 0, 'state': 'normal', 'yaw': 159.79, 'datetime': '2018-10-12 19:56:16.427349', 'mgs': 0, 'depth': -1.056, 'time': 8.39, 'pitch': -0.63, 'roll': -9.4}
{'lipoC2': 8.04, 'temp': 30.94, 'lipoC3S3': 12.43, 'rot1': 0, 'rot0': 0, 'rot3': 0, 'rot2': 0, 'state': 'normal', 'yaw': 159.76, 'datetime': '2018-10-12 19:56:16.435155', 'mgs': 0, 'depth': -0.98, 'time': 8.49, 'pitch': -0.6, 'roll': -9.4}
{'lipoC2': 8.04, 'temp': 30.94, 'lipoC3S3': 12.42, 'rot1': 0, 'rot0': 0, 'rot3': 0, 'rot2': 0, 'state': 'normal', 'yaw': 159.81, 'datetime': '2018-10-12 19:56:16.443029', 'mgs': 0, 'depth': -0.98, 'time': 8.59, 'pitch': -0.6, 'roll': -9.31}
{'lipoC2': 8.05, 'temp': 30.94, 'lipoC3S3': 12.43, 'rot1': 0, 'rot0': 0, 'rot3': 0, 'rot2': 0, 'state': 'normal', 'yaw': 159.81, 'datetime': '2018-10-12 19:56:16.450844', 'mgs': 0, 'depth': -0.98, 'time': 8.68, 'pitch': -0.6, 'roll': -9.4}
{'lipoC2': 8.04, 'temp': 30.94, 'lipoC3S3': 12.42, 'rot1': 0, 'rot0': 0, 'rot3': 0, 'rot2': 0, 'state': 'normal', 'yaw': 159.82, 'datetime': '2018-10-12 19:56:16.458739', 'mgs': 0, 'depth': -1.056, 'time': 8.78, 'pitch': -0.65, 'roll': -9.37}
{'lipoC2': 8.04, 'temp': 30.94, 'lipoC3S3': 12.43, 'rot1': 0, 'rot0': 0, 'rot3': 0, 'rot2': 0, 'state': 'normal', 'yaw': 159.82, 'datetime': '2018-10-12 19:56:16.466603', 'mgs': 0, 'depth': -0.98, 'time': 8.88, 'pitch': -0.65, 'roll': -9.4}
{'lipoC2': 8.04, 'temp': 30.88, 'lipoC3S3': 12.42, 'rot1': 0, 'rot0': 0, 'rot3': 0, 'rot2': 0, 'state': 'normal', 'yaw': 159.82, 'datetime': '2018-10-12 19:56:16.474528', 'mgs': 0, 'depth': -1.056, 'time': 8.98, 'pitch': -0.68, 'roll': -9.45}
{'lipoC2': 8.05, 'temp': 30.88, 'lipoC3S3': 12.42, 'rot1': 0, 'rot0': 0, 'rot3': 0, 'rot2': 0, 'state': 'normal', 'yaw': 159.82, 'datetime': '2018-10-12 19:56:16.482389', 'mgs': 0, 'depth': -1.056, 'time': 9.07, 'pitch': -0.7, 'roll': -9.41}
{'lipoC2': 8.05, 'temp': 30.88, 'lipoC3S3': 12.42, 'rot1': 0, 'rot0': 0, 'rot3': 0, 'rot2': 0, 'state': 'normal', 'yaw': 159.82, 'datetime': '2018-10-12 19:56:16.490304', 'mgs': 0, 'depth': -0.98, 'time': 9.17, 'pitch': -0.72, 'roll': -9.51}
{'lipoC2': 8.04, 'temp': 30.88, 'lipoC3S3': 12.42, 'rot1': 0, 'rot0': 0, 'rot3': 0, 'rot2': 0, 'state': 'normal', 'yaw': 159.82, 'datetime': '2018-10-12 19:56:16.498212', 'mgs': 0, 'depth': -0.98, 'time': 9.27, 'pitch': -0.74, 'roll': -9.5}
{'lipoC2': 8.04, 'temp': 30.88, 'lipoC3S3': 12.43, 'rot1': 0, 'rot0': 0, 'rot3': 0, 'rot2': 0, 'state': 'normal', 'yaw': 159.81, 'datetime': '2018-10-12 19:56:16.506145', 'mgs': 0, 'depth': -0.98, 'time': 9.37, 'pitch': -0.77, 'roll': -9.53}
{'lipoC2': 8.05, 'temp': 30.88, 'lipoC3S3': 12.42, 'rot1': 0, 'rot0': 0, 'rot3': 0, 'rot2': 0, 'state': 'normal', 'yaw': 159.73, 'datetime': '2018-10-12 19:56:16.514040', 'mgs': 0, 'depth': -0.98, 'time': 9.47, 'pitch': -0.76, 'roll': -9.55}
{'lipoC2': 8.04, 'temp': 30.88, 'lipoC3S3': 12.42, 'rot1': 0, 'rot0': 0, 'rot3': 0, 'rot2': 0, 'state': 'normal', 'yaw': 160.33, 'datetime': '2018-10-12 19:56:16.522040', 'mgs': 0, 'depth': -1.132, 'time': 9.56, 'pitch': -1.34, 'roll': -9.04}
{'lipoC2': 8.04, 'temp': 30.88, 'lipoC3S3': 12.42, 'rot1': 0, 'rot0': 0, 'rot3': 0, 'rot2': 0, 'state': 'normal', 'yaw': 161.0, 'datetime': '2018-10-12 19:56:16.529938', 'mgs': 0, 'depth': -0.98, 'time': 9.66, 'pitch': -1.1, 'roll': -9.08}
{'lipoC2': 8.04, 'temp': 30.88, 'lipoC3S3': 12.42, 'rot1': 0, 'rot0': 0, 'rot3': 0, 'rot2': 0, 'state': 'normal', 'yaw': 161.97, 'datetime': '2018-10-12 19:56:16.537862', 'mgs': 0, 'depth': -1.132, 'time': 9.76, 'pitch': -1.33, 'roll': -8.79}
{'lipoC2': 8.05, 'temp': 30.88, 'lipoC3S3': 12.42, 'rot1': 0, 'rot0': 0, 'rot3': 0, 'rot2': 0, 'state': 'normal', 'yaw': 163.07, 'datetime': '2018-10-12 19:56:16.545751', 'mgs': 0, 'depth': -1.056, 'time': 9.86, 'pitch': -1.2, 'roll': -8.98}
{'lipoC2': 8.04, 'temp': 30.88, 'lipoC3S3': 12.42, 'rot1': 0, 'rot0': 0, 'rot3': 0, 'rot2': 0, 'state': 'normal', 'yaw': 163.76, 'datetime': '2018-10-12 19:56:16.554016', 'mgs': 0, 'depth': -0.98, 'time': 9.95, 'pitch': -1.15, 'roll': -9.23}
{'lipoC2': 8.04, 'temp': 30.88, 'lipoC3S3': 12.42, 'rot1': 0, 'rot0': 0, 'rot3': 0, 'rot2': 0, 'state': 'normal', 'yaw': 164.22, 'datetime': '2018-10-12 19:56:16.561954', 'mgs': 0, 'depth': -1.056, 'time': 10.05, 'pitch': -0.73, 'roll': -9.53}
{'lipoC2': 8.04, 'temp': 30.88, 'lipoC3S3': 12.43, 'rot1': 0, 'rot0': 0, 'rot3': 0, 'rot2': 0, 'state': 'normal', 'yaw': 164.85, 'datetime': '2018-10-12 19:56:16.569897', 'mgs': 0, 'depth': -0.98, 'time': 10.15, 'pitch': -0.25, 'roll': -9.97}
{'lipoC2': 8.04, 'temp': 30.88, 'lipoC3S3': 12.42, 'rot1': 0, 'rot0': 0, 'rot3': 0, 'rot2': 0, 'state': 'normal', 'yaw': 166.15, 'datetime': '2018-10-12 19:56:16.577798', 'mgs': 0, 'depth': -0.98, 'time': 10.24, 'pitch': -0.34, 'roll': -9.56}
{'lipoC2': 8.04, 'temp': 30.88, 'lipoC3S3': 12.42, 'rot1': 0, 'rot0': 0, 'rot3': 0, 'rot2': 0, 'state': 'normal', 'yaw': 168.29, 'datetime': '2018-10-12 19:56:16.585709', 'mgs': 0, 'depth': -1.056, 'time': 10.34, 'pitch': -0.04, 'roll': -9.51}
{'lipoC2': 8.04, 'temp': 30.88, 'lipoC3S3': 12.42, 'rot1': 0, 'rot0': 0, 'rot3': 0, 'rot2': 0, 'state': 'normal', 'yaw': 170.9, 'datetime': '2018-10-12 19:56:16.593584', 'mgs': 0, 'depth': -0.98, 'time': 10.44, 'pitch': 0.37, 'roll': -10.07}
{'lipoC2': 8.04, 'temp': 30.88, 'lipoC3S3': 12.42, 'rot1': 0, 'rot0': 0, 'rot3': 0, 'rot2': 0, 'state': 'normal', 'yaw': 172.63, 'datetime': '2018-10-12 19:56:16.601511', 'mgs': 0, 'depth': -0.98, 'time': 10.54, 'pitch': 0.67, 'roll': -9.68}
{'lipoC2': 8.04, 'temp': 30.88, 'lipoC3S3': 12.42, 'rot1': 0, 'rot0': 0, 'rot3': 0, 'rot2': 0, 'state': 'normal', 'yaw': 173.02, 'datetime': '2018-10-12 19:56:16.609418', 'mgs': 0, 'depth': -1.056, 'time': 10.64, 'pitch': 0.75, 'roll': -9.99}
{'lipoC2': 8.04, 'temp': 30.88, 'lipoC3S3': 12.43, 'rot1': 0, 'rot0': 0, 'rot3': 0, 'rot2': 0, 'state': 'normal', 'yaw': 172.56, 'datetime': '2018-10-12 19:56:16.617222', 'mgs': 0, 'depth': -0.98, 'time': 10.73, 'pitch': 0.8, 'roll': -9.89}
{'lipoC2': 8.05, 'temp': 30.88, 'lipoC3S3': 12.42, 'rot1': 0, 'rot0': 0, 'rot3': 0, 'rot2': 0, 'state': 'normal', 'yaw': 171.18, 'datetime': '2018-10-12 19:56:16.625089', 'mgs': 0, 'depth': -0.98, 'time': 10.83, 'pitch': 0.72, 'roll': -9.98}
{'lipoC2': 8.04, 'temp': 30.94, 'lipoC3S3': 12.42, 'rot1': 0, 'rot0': 0, 'rot3': 0, 'rot2': 0, 'state': 'normal', 'yaw': 169.85, 'datetime': '2018-10-12 19:56:16.633038', 'mgs': 0, 'depth': -1.056, 'time': 10.93, 'pitch': 0.86, 'roll': -9.97}
{'lipoC2': 8.04, 'temp': 30.94, 'lipoC3S3': 12.42, 'rot1': 0, 'rot0': 0, 'rot3': 0, 'rot2': 0, 'state': 'normal', 'yaw': 169.72, 'datetime': '2018-10-12 19:56:16.640948', 'mgs': 0, 'depth': -1.056, 'time': 11.03, 'pitch': 1.16, 'roll': -10.0}
{'lipoC2': 8.04, 'temp': 30.94, 'lipoC3S3': 12.42, 'rot1': 0, 'rot0': 0, 'rot3': 0, 'rot2': 0, 'state': 'normal', 'yaw': 169.51, 'datetime': '2018-10-12 19:56:16.648757', 'mgs': 0, 'depth': -0.98, 'time': 11.13, 'pitch': 0.6, 'roll': -9.76}
{'lipoC2': 8.04, 'temp': 30.94, 'lipoC3S3': 12.43, 'rot1': 0, 'rot0': 0, 'rot3': 0, 'rot2': 0, 'state': 'normal', 'yaw': 168.54, 'datetime': '2018-10-12 19:56:16.656747', 'mgs': 0, 'depth': -0.98, 'time': 11.22, 'pitch': 0.63, 'roll': -9.91}
{'lipoC2': 8.04, 'temp': 30.94, 'lipoC3S3': 12.42, 'rot1': 0, 'rot0': 0, 'rot3': 0, 'rot2': 0, 'state': 'normal', 'yaw': 167.31, 'datetime': '2018-10-12 19:56:16.664684', 'mgs': 0, 'depth': -0.98, 'time': 11.32, 'pitch': 0.13, 'roll': -9.67}
{'lipoC2': 8.04, 'temp': 30.88, 'lipoC3S3': 12.42, 'rot1': 0, 'rot0': 0, 'rot3': 0, 'rot2': 0, 'state': 'normal', 'yaw': 167.08, 'datetime': '2018-10-12 19:56:16.672558', 'mgs': 0, 'depth': -0.98, 'time': 11.42, 'pitch': 0.22, 'roll': -9.89}
{'lipoC2': 8.04, 'temp': 30.88, 'lipoC3S3': 12.42, 'rot1': 0, 'rot0': 0, 'rot3': 0, 'rot2': 0, 'state': 'normal', 'yaw': 167.17, 'datetime': '2018-10-12 19:56:16.680560', 'mgs': 0, 'depth': -0.98, 'time': 11.52, 'pitch': 0.04, 'roll': -9.72}
{'lipoC2': 8.05, 'temp': 30.88, 'lipoC3S3': 12.43, 'rot1': 0, 'rot0': 0, 'rot3': 0, 'rot2': 0, 'state': 'normal', 'yaw': 167.05, 'datetime': '2018-10-12 19:56:16.688480', 'mgs': 0, 'depth': -0.98, 'time': 11.61, 'pitch': 0.3, 'roll': -9.77}
{'lipoC2': 8.05, 'temp': 30.88, 'lipoC3S3': 12.42, 'rot1': 0, 'rot0': 0, 'rot3': 0, 'rot2': 0, 'state': 'normal', 'yaw': 167.17, 'datetime': '2018-10-12 19:56:16.696428', 'mgs': 0, 'depth': -0.98, 'time': 11.71, 'pitch': 0.07, 'roll': -10.17}
{'lipoC2': 8.04, 'temp': 30.88, 'lipoC3S3': 12.42, 'rot1': 0, 'rot0': 0, 'rot3': 0, 'rot2': 0, 'state': 'normal', 'yaw': 167.59, 'datetime': '2018-10-12 19:56:16.704331', 'mgs': 0, 'depth': -0.98, 'time': 11.81, 'pitch': 0.12, 'roll': -9.95}
{'lipoC2': 8.05, 'temp': 30.88, 'lipoC3S3': 12.43, 'rot1': 0, 'rot0': 0, 'rot3': 0, 'rot2': 0, 'state': 'normal', 'yaw': 167.53, 'datetime': '2018-10-12 19:56:16.712212', 'mgs': 0, 'depth': -0.98, 'time': 11.91, 'pitch': 0.07, 'roll': -10.12}
{'lipoC2': 8.04, 'temp': 30.88, 'lipoC3S3': 12.43, 'rot1': 0, 'rot0': 0, 'rot3': 0, 'rot2': 0, 'state': 'normal', 'yaw': 166.52, 'datetime': '2018-10-12 19:56:16.720141', 'mgs': 0, 'depth': -0.98, 'time': 12.01, 'pitch': 0.02, 'roll': -9.92}
{'lipoC2': 8.04, 'temp': 30.88, 'lipoC3S3': 12.43, 'rot1': 0, 'rot0': 0, 'rot3': 0, 'rot2': 0, 'state': 'normal', 'yaw': 164.74, 'datetime': '2018-10-12 19:56:16.728102', 'mgs': 0, 'depth': -1.056, 'time': 12.1, 'pitch': -0.32, 'roll': -9.98}
{'lipoC2': 8.04, 'temp': 30.88, 'lipoC3S3': 12.43, 'rot1': 0, 'rot0': 0, 'rot3': 0, 'rot2': 0, 'state': 'normal', 'yaw': 163.07, 'datetime': '2018-10-12 19:56:16.736011', 'mgs': 0, 'depth': -0.98, 'time': 12.2, 'pitch': -0.4, 'roll': -9.73}
{'lipoC2': 8.04, 'temp': 30.88, 'lipoC3S3': 12.43, 'rot1': 0, 'rot0': 0, 'rot3': 0, 'rot2': 0, 'state': 'normal', 'yaw': 161.59, 'datetime': '2018-10-12 19:56:16.743952', 'mgs': 0, 'depth': -1.056, 'time': 12.3, 'pitch': -0.66, 'roll': -9.72}
{'lipoC2': 8.04, 'temp': 30.88, 'lipoC3S3': 12.43, 'rot1': 0, 'rot0': 0, 'rot3': 0, 'rot2': 0, 'state': 'normal', 'yaw': 160.64, 'datetime': '2018-10-12 19:56:16.751844', 'mgs': 0, 'depth': -0.98, 'time': 12.4, 'pitch': -0.7, 'roll': -9.92}
{'lipoC2': 8.04, 'temp': 30.88, 'lipoC3S3': 12.42, 'rot1': 0, 'rot0': 0, 'rot3': 0, 'rot2': 0, 'state': 'normal', 'yaw': 160.27, 'datetime': '2018-10-12 19:56:16.759763', 'mgs': 0, 'depth': -0.98, 'time': 12.49, 'pitch': -0.67, 'roll': -9.92}
{'lipoC2': 8.04, 'temp': 30.88, 'lipoC3S3': 12.43, 'rot1': 0, 'rot0': 0, 'rot3': 0, 'rot2': 0, 'state': 'normal', 'yaw': 160.05, 'datetime': '2018-10-12 19:56:16.767796', 'mgs': 0, 'depth': -0.98, 'time': 12.59, 'pitch': -0.7, 'roll': -9.74}
{'lipoC2': 8.04, 'temp': 30.94, 'lipoC3S3': 12.42, 'rot1': 0, 'rot0': 0, 'rot3': 0, 'rot2': 0, 'state': 'normal', 'yaw': 159.51, 'datetime': '2018-10-12 19:56:16.775753', 'mgs': 0, 'depth': -1.056, 'time': 12.69, 'pitch': -0.76, 'roll': -10.09}
{'lipoC2': 8.04, 'temp': 30.94, 'lipoC3S3': 12.42, 'rot1': 0, 'rot0': 0, 'rot3': 0, 'rot2': 0, 'state': 'normal', 'yaw': 158.73, 'datetime': '2018-10-12 19:56:16.783787', 'mgs': 0, 'depth': -1.056, 'time': 12.79, 'pitch': -0.92, 'roll': -9.96}
{'lipoC2': 8.04, 'temp': 30.88, 'lipoC3S3': 12.42, 'rot1': 0, 'rot0': 0, 'rot3': 0, 'rot2': 0, 'state': 'normal', 'yaw': 157.66, 'datetime': '2018-10-12 19:56:16.791836', 'mgs': 0, 'depth': -0.98, 'time': 12.88, 'pitch': -1.16, 'roll': -10.07}
{'lipoC2': 8.04, 'temp': 30.88, 'lipoC3S3': 12.42, 'rot1': 0, 'rot0': 0, 'rot3': 0, 'rot2': 0, 'state': 'normal', 'yaw': 156.6, 'datetime': '2018-10-12 19:56:16.799867', 'mgs': 0, 'depth': -1.056, 'time': 12.98, 'pitch': -1.18, 'roll': -10.13}
{'lipoC2': 8.05, 'temp': 30.88, 'lipoC3S3': 12.42, 'rot1': 0, 'rot0': 0, 'rot3': 0, 'rot2': 0, 'state': 'normal', 'yaw': 155.18, 'datetime': '2018-10-12 19:56:16.807819', 'mgs': 0, 'depth': -0.98, 'time': 13.08, 'pitch': -1.19, 'roll': -9.9}
{'lipoC2': 8.05, 'temp': 30.88, 'lipoC3S3': 12.42, 'rot1': 1, 'rot0': 0, 'rot3': 0, 'rot2': 0, 'state': 'normal', 'yaw': 154.35, 'datetime': '2018-10-12 19:56:16.815844', 'mgs': 0, 'depth': -1.056, 'time': 13.18, 'pitch': -1.31, 'roll': -9.79}
{'lipoC2': 8.05, 'temp': 30.88, 'lipoC3S3': 12.42, 'rot1': 1, 'rot0': 0, 'rot3': 0, 'rot2': 0, 'state': 'normal', 'yaw': 154.32, 'datetime': '2018-10-12 19:56:16.823785', 'mgs': 0, 'depth': -1.056, 'time': 13.28, 'pitch': -1.25, 'roll': -9.72}
{'lipoC2': 8.04, 'temp': 30.88, 'lipoC3S3': 12.42, 'rot1': 1, 'rot0': 0, 'rot3': 0, 'rot2': 0, 'state': 'normal', 'yaw': 155.19, 'datetime': '2018-10-12 19:56:16.831788', 'mgs': 0, 'depth': -0.98, 'time': 13.37, 'pitch': -1.11, 'roll': -9.8}
{'lipoC2': 8.04, 'temp': 30.88, 'lipoC3S3': 12.43, 'rot1': 1, 'rot0': 0, 'rot3': 0, 'rot2': 0, 'state': 'normal', 'yaw': 156.13, 'datetime': '2018-10-12 19:56:16.839620', 'mgs': 0, 'depth': -0.98, 'time': 13.47, 'pitch': -0.97, 'roll': -9.75}
{'lipoC2': 8.04, 'temp': 30.88, 'lipoC3S3': 12.42, 'rot1': 1, 'rot0': 0, 'rot3': 0, 'rot2': 0, 'state': 'normal', 'yaw': 156.78, 'datetime': '2018-10-12 19:56:16.847632', 'mgs': 0, 'depth': -0.98, 'time': 13.57, 'pitch': -0.89, 'roll': -9.81}
{'lipoC2': 8.04, 'temp': 30.88, 'lipoC3S3': 12.42, 'rot1': 1, 'rot0': 0, 'rot3': 0, 'rot2': 0, 'state': 'normal', 'yaw': 157.68, 'datetime': '2018-10-12 19:56:16.855446', 'mgs': 0, 'depth': -1.056, 'time': 13.67, 'pitch': -0.88, 'roll': -9.83}
{'lipoC2': 8.04, 'temp': 30.88, 'lipoC3S3': 12.43, 'rot1': 1, 'rot0': 0, 'rot3': 0, 'rot2': 0, 'state': 'normal', 'yaw': 158.73, 'datetime': '2018-10-12 19:56:16.863405', 'mgs': 0, 'depth': -1.056, 'time': 13.76, 'pitch': -0.58, 'roll': -9.76}
{'lipoC2': 8.04, 'temp': 30.88, 'lipoC3S3': 12.42, 'rot1': 1, 'rot0': 0, 'rot3': 0, 'rot2': 0, 'state': 'normal', 'yaw': 159.85, 'datetime': '2018-10-12 19:56:16.871227', 'mgs': 0, 'depth': -1.056, 'time': 13.86, 'pitch': -0.54, 'roll': -9.91}
{'lipoC2': 8.04, 'temp': 30.88, 'lipoC3S3': 12.43, 'rot1': 1, 'rot0': 0, 'rot3': 0, 'rot2': 0, 'state': 'normal', 'yaw': 160.89, 'datetime': '2018-10-12 19:56:16.879230', 'mgs': 0, 'depth': -0.98, 'time': 13.96, 'pitch': -0.43, 'roll': -9.87}
{'lipoC2': 8.04, 'temp': 30.88, 'lipoC3S3': 12.42, 'rot1': 1, 'rot0': 0, 'rot3': 0, 'rot2': 0, 'state': 'normal', 'yaw': 161.79, 'datetime': '2018-10-12 19:56:16.887038', 'mgs': 0, 'depth': -0.98, 'time': 14.06, 'pitch': -0.45, 'roll': -9.72}
{'lipoC2': 8.05, 'temp': 30.88, 'lipoC3S3': 12.42, 'rot1': 1, 'rot0': 0, 'rot3': 0, 'rot2': 0, 'state': 'normal', 'yaw': 162.04, 'datetime': '2018-10-12 19:56:16.895032', 'mgs': 0, 'depth': -1.056, 'time': 14.15, 'pitch': -0.47, 'roll': -9.75}
{'lipoC2': 8.04, 'temp': 30.88, 'lipoC3S3': 12.42, 'rot1': 2, 'rot0': 0, 'rot3': 0, 'rot2': 0, 'state': 'normal', 'yaw': 161.81, 'datetime': '2018-10-12 19:56:16.902819', 'mgs': 0, 'depth': -0.98, 'time': 14.25, 'pitch': -0.46, 'roll': -9.81}
{'lipoC2': 8.04, 'temp': 30.88, 'lipoC3S3': 12.42, 'rot1': 2, 'rot0': 0, 'rot3': 0, 'rot2': 0, 'state': 'normal', 'yaw': 161.35, 'datetime': '2018-10-12 19:56:16.910805', 'mgs': 0, 'depth': -1.056, 'time': 14.35, 'pitch': -0.47, 'roll': -9.74}
{'lipoC2': 8.05, 'temp': 30.88, 'lipoC3S3': 12.42, 'rot1': 3, 'rot0': 0, 'rot3': 0, 'rot2': 0, 'state': 'normal', 'yaw': 161.08, 'datetime': '2018-10-12 19:56:16.918634', 'mgs': 0, 'depth': -0.98, 'time': 14.45, 'pitch': -0.46, 'roll': -9.72}
{'lipoC2': 8.04, 'temp': 30.88, 'lipoC3S3': 12.42, 'rot1': 3, 'rot0': 0, 'rot3': 0, 'rot2': 0, 'state': 'normal', 'yaw': 160.78, 'datetime': '2018-10-12 19:56:16.926750', 'mgs': 0, 'depth': -0.98, 'time': 14.54, 'pitch': -0.64, 'roll': -9.86}
{'lipoC2': 8.04, 'temp': 30.88, 'lipoC3S3': 12.43, 'rot1': 3, 'rot0': 0, 'rot3': 0, 'rot2': 0, 'state': 'normal', 'yaw': 160.7, 'datetime': '2018-10-12 19:56:16.934587', 'mgs': 0, 'depth': -0.98, 'time': 14.64, 'pitch': -0.53, 'roll': -9.68}
{'lipoC2': 8.04, 'temp': 30.88, 'lipoC3S3': 12.42, 'rot1': 3, 'rot0': 0, 'rot3': 0, 'rot2': 0, 'state': 'normal', 'yaw': 160.57, 'datetime': '2018-10-12 19:56:16.942551', 'mgs': 0, 'depth': -0.98, 'time': 14.74, 'pitch': -0.66, 'roll': -9.71}
{'lipoC2': 8.04, 'temp': 30.88, 'lipoC3S3': 12.42, 'rot1': 3, 'rot0': 0, 'rot3': 0, 'rot2': 0, 'state': 'normal', 'yaw': 160.54, 'datetime': '2018-10-12 19:56:16.950390', 'mgs': 0, 'depth': -0.98, 'time': 14.84, 'pitch': -0.64, 'roll': -9.83}
{'lipoC2': 8.04, 'temp': 30.88, 'lipoC3S3': 12.42, 'rot1': 3, 'rot0': 0, 'rot3': 0, 'rot2': 0, 'state': 'normal', 'yaw': 160.54, 'datetime': '2018-10-12 19:56:16.958410', 'mgs': 0, 'depth': -1.056, 'time': 14.94, 'pitch': -0.76, 'roll': -9.71}
{'lipoC2': 8.04, 'temp': 30.88, 'lipoC3S3': 12.42, 'rot1': 3, 'rot0': 0, 'rot3': 0, 'rot2': 0, 'state': 'normal', 'yaw': 160.54, 'datetime': '2018-10-12 19:56:16.966264', 'mgs': 0, 'depth': -0.98, 'time': 15.03, 'pitch': -0.73, 'roll': -9.81}
{'lipoC2': 8.04, 'temp': 30.88, 'lipoC3S3': 12.42, 'rot1': 3, 'rot0': 0, 'rot3': 0, 'rot2': 0, 'state': 'normal', 'yaw': 160.62, 'datetime': '2018-10-12 19:56:16.974259', 'mgs': 0, 'depth': -1.056, 'time': 15.13, 'pitch': -0.66, 'roll': -9.42}
{'lipoC2': 8.04, 'temp': 30.88, 'lipoC3S3': 12.42, 'rot1': 3, 'rot0': 0, 'rot3': 0, 'rot2': 0, 'state': 'normal', 'yaw': 160.82, 'datetime': '2018-10-12 19:56:16.982052', 'mgs': 0, 'depth': -0.98, 'time': 15.23, 'pitch': -0.66, 'roll': -9.65}
{'lipoC2': 8.04, 'temp': 30.88, 'lipoC3S3': 12.42, 'rot1': 3, 'rot0': 0, 'rot3': 0, 'rot2': 0, 'state': 'normal', 'yaw': 161.22, 'datetime': '2018-10-12 19:56:16.990051', 'mgs': 0, 'depth': -0.98, 'time': 15.33, 'pitch': -0.89, 'roll': -9.78}
{'lipoC2': 8.04, 'temp': 30.88, 'lipoC3S3': 12.42, 'rot1': 3, 'rot0': 0, 'rot3': 0, 'rot2': 0, 'state': 'normal', 'yaw': 161.77, 'datetime': '2018-10-12 19:56:16.997880', 'mgs': 0, 'depth': -0.98, 'time': 15.43, 'pitch': -0.66, 'roll': -10.03}
{'lipoC2': 8.04, 'temp': 30.88, 'lipoC3S3': 12.42, 'rot1': 3, 'rot0': 0, 'rot3': 0, 'rot2': 0, 'state': 'normal', 'yaw': 162.38, 'datetime': '2018-10-12 19:56:17.005752', 'mgs': 0, 'depth': -0.98, 'time': 15.52, 'pitch': -0.69, 'roll': -9.98}
{'lipoC2': 8.04, 'temp': 30.88, 'lipoC3S3': 12.43, 'rot1': 3, 'rot0': 0, 'rot3': 0, 'rot2': 0, 'state': 'normal', 'yaw': 162.72, 'datetime': '2018-10-12 19:56:17.013637', 'mgs': 0, 'depth': -0.98, 'time': 15.62, 'pitch': -0.61, 'roll': -10.24}
{'lipoC2': 8.04, 'temp': 30.88, 'lipoC3S3': 12.42, 'rot1': 3, 'rot0': 0, 'rot3': 0, 'rot2': 0, 'state': 'normal', 'yaw': 162.61, 'datetime': '2018-10-12 19:56:17.021649', 'mgs': 0, 'depth': -1.056, 'time': 15.72, 'pitch': -0.73, 'roll': -10.35}
{'lipoC2': 8.04, 'temp': 30.88, 'lipoC3S3': 12.42, 'rot1': 3, 'rot0': 0, 'rot3': 0, 'rot2': 0, 'state': 'normal', 'yaw': 162.19, 'datetime': '2018-10-12 19:56:17.029499', 'mgs': 0, 'depth': -1.056, 'time': 15.81, 'pitch': -0.84, 'roll': -10.38}
{'lipoC2': 8.04, 'temp': 30.88, 'lipoC3S3': 12.42, 'rot1': 3, 'rot0': 0, 'rot3': 0, 'rot2': 0, 'state': 'normal', 'yaw': 161.63, 'datetime': '2018-10-12 19:56:17.037404', 'mgs': 0, 'depth': -0.98, 'time': 15.91, 'pitch': -0.58, 'roll': -10.39}
{'lipoC2': 8.04, 'temp': 30.88, 'lipoC3S3': 12.42, 'rot1': 3, 'rot0': 0, 'rot3': 0, 'rot2': 0, 'state': 'normal', 'yaw': 161.11, 'datetime': '2018-10-12 19:56:17.045223', 'mgs': 0, 'depth': -1.056, 'time': 16.01, 'pitch': -0.83, 'roll': -10.0}
{'lipoC2': 8.04, 'temp': 30.88, 'lipoC3S3': 12.43, 'rot1': 3, 'rot0': 0, 'rot3': 0, 'rot2': 0, 'state': 'normal', 'yaw': 160.68, 'datetime': '2018-10-12 19:56:17.053135', 'mgs': 0, 'depth': -0.98, 'time': 16.11, 'pitch': -1.07, 'roll': -9.97}
{'lipoC2': 8.05, 'temp': 30.88, 'lipoC3S3': 12.42, 'rot1': 3, 'rot0': 0, 'rot3': 0, 'rot2': 0, 'state': 'normal', 'yaw': 160.73, 'datetime': '2018-10-12 19:56:17.061050', 'mgs': 0, 'depth': -0.98, 'time': 16.2, 'pitch': -1.27, 'roll': -9.99}
{'lipoC2': 8.04, 'temp': 30.88, 'lipoC3S3': 12.43, 'rot1': 3, 'rot0': 0, 'rot3': 0, 'rot2': 0, 'state': 'normal', 'yaw': 161.36, 'datetime': '2018-10-12 19:56:17.068968', 'mgs': 0, 'depth': -0.98, 'time': 16.3, 'pitch': -0.66, 'roll': -10.07}
{'lipoC2': 8.05, 'temp': 30.88, 'lipoC3S3': 12.42, 'rot1': 3, 'rot0': 0, 'rot3': 0, 'rot2': 0, 'state': 'normal', 'yaw': 162.39, 'datetime': '2018-10-12 19:56:17.076782', 'mgs': 0, 'depth': -0.98, 'time': 16.4, 'pitch': 0.18, 'roll': -9.94}
{'lipoC2': 8.04, 'temp': 30.88, 'lipoC3S3': 12.43, 'rot1': 3, 'rot0': 0, 'rot3': 0, 'rot2': 0, 'state': 'normal', 'yaw': 163.1, 'datetime': '2018-10-12 19:56:17.084683', 'mgs': 0, 'depth': -1.056, 'time': 16.5, 'pitch': -0.19, 'roll': -9.31}
{'lipoC2': 8.04, 'temp': 30.88, 'lipoC3S3': 12.42, 'rot1': 3, 'rot0': 0, 'rot3': 0, 'rot2': 0, 'state': 'normal', 'yaw': 163.76, 'datetime': '2018-10-12 19:56:17.092465', 'mgs': 0, 'depth': -0.98, 'time': 16.59, 'pitch': -0.07, 'roll': -9.21}
{'lipoC2': 8.04, 'temp': 30.88, 'lipoC3S3': 12.42, 'rot1': 3, 'rot0': 0, 'rot3': 0, 'rot2': 0, 'state': 'normal', 'yaw': 164.16, 'datetime': '2018-10-12 19:56:17.100355', 'mgs': 0, 'depth': -0.98, 'time': 16.69, 'pitch': 0.05, 'roll': -9.2}
{'lipoC2': 8.04, 'temp': 30.88, 'lipoC3S3': 12.42, 'rot1': 3, 'rot0': 0, 'rot3': 0, 'rot2': 0, 'state': 'normal', 'yaw': 164.61, 'datetime': '2018-10-12 19:56:17.108155', 'mgs': 0, 'depth': -0.98, 'time': 16.79, 'pitch': 0.28, 'roll': -9.12}
{'lipoC2': 8.05, 'temp': 30.88, 'lipoC3S3': 12.42, 'rot1': 3, 'rot0': 0, 'rot3': 0, 'rot2': 0, 'state': 'normal', 'yaw': 165.14, 'datetime': '2018-10-12 19:56:17.116060', 'mgs': 0, 'depth': -1.056, 'time': 16.89, 'pitch': 0.53, 'roll': -8.36}
{'lipoC2': 8.04, 'temp': 30.94, 'lipoC3S3': 12.43, 'rot1': 4, 'rot0': 0, 'rot3': 0, 'rot2': 0, 'state': 'normal', 'yaw': 164.59, 'datetime': '2018-10-12 19:56:17.123858', 'mgs': 0, 'depth': -1.056, 'time': 16.99, 'pitch': 0.07, 'roll': -8.8}
{'lipoC2': 8.05, 'temp': 30.94, 'lipoC3S3': 12.42, 'rot1': 4, 'rot0': 0, 'rot3': 0, 'rot2': 0, 'state': 'normal', 'yaw': 163.41, 'datetime': '2018-10-12 19:56:17.131735', 'mgs': 0, 'depth': -1.056, 'time': 17.08, 'pitch': -0.31, 'roll': -8.16}
{'lipoC2': 8.04, 'temp': 30.94, 'lipoC3S3': 12.42, 'rot1': 4, 'rot0': 0, 'rot3': 0, 'rot2': 0, 'state': 'normal', 'yaw': 162.43, 'datetime': '2018-10-12 19:56:17.139538', 'mgs': 0, 'depth': -1.056, 'time': 17.18, 'pitch': -0.53, 'roll': -8.44}
{'lipoC2': 8.04, 'temp': 30.81, 'lipoC3S3': 12.42, 'rot1': 4, 'rot0': 0, 'rot3': 0, 'rot2': 0, 'state': 'normal', 'yaw': 161.75, 'datetime': '2018-10-12 19:56:17.147458', 'mgs': 0, 'depth': -0.98, 'time': 17.28, 'pitch': -0.52, 'roll': -8.72}
{'lipoC2': 8.04, 'temp': 30.81, 'lipoC3S3': 12.43, 'rot1': 4, 'rot0': 0, 'rot3': 0, 'rot2': 0, 'state': 'normal', 'yaw': 162.05, 'datetime': '2018-10-12 19:56:17.155267', 'mgs': 0, 'depth': -1.056, 'time': 17.38, 'pitch': -0.51, 'roll': -8.28}
{'lipoC2': 8.04, 'temp': 30.88, 'lipoC3S3': 12.42, 'rot1': 4, 'rot0': 0, 'rot3': 0, 'rot2': 0, 'state': 'normal', 'yaw': 162.94, 'datetime': '2018-10-12 19:56:17.163153', 'mgs': 0, 'depth': -1.056, 'time': 17.47, 'pitch': -0.32, 'roll': -8.73}
{'lipoC2': 8.04, 'temp': 30.88, 'lipoC3S3': 12.43, 'rot1': 4, 'rot0': 0, 'rot3': 0, 'rot2': 0, 'state': 'normal', 'yaw': 164.0, 'datetime': '2018-10-12 19:56:17.170970', 'mgs': 0, 'depth': -0.98, 'time': 17.57, 'pitch': -0.15, 'roll': -8.73}
{'lipoC2': 8.04, 'temp': 30.88, 'lipoC3S3': 12.42, 'rot1': 4, 'rot0': 0, 'rot3': 0, 'rot2': 0, 'state': 'normal', 'yaw': 165.15, 'datetime': '2018-10-12 19:56:17.178872', 'mgs': 0, 'depth': -0.98, 'time': 17.67, 'pitch': 0.03, 'roll': -8.84}
{'lipoC2': 8.04, 'temp': 30.88, 'lipoC3S3': 12.42, 'rot1': 4, 'rot0': 0, 'rot3': 0, 'rot2': 0, 'state': 'normal', 'yaw': 165.97, 'datetime': '2018-10-12 19:56:17.186676', 'mgs': 0, 'depth': -0.98, 'time': 17.77, 'pitch': -0.01, 'roll': -9.11}
{'lipoC2': 8.05, 'temp': 30.88, 'lipoC3S3': 12.42, 'rot1': 4, 'rot0': 0, 'rot3': 0, 'rot2': 0, 'state': 'normal', 'yaw': 166.04, 'datetime': '2018-10-12 19:56:17.194688', 'mgs': 0, 'depth': -0.98, 'time': 17.86, 'pitch': -0.21, 'roll': -10.63}
{'lipoC2': 8.05, 'temp': 30.88, 'lipoC3S3': 12.42, 'rot1': 4, 'rot0': 0, 'rot3': 0, 'rot2': 0, 'state': 'normal', 'yaw': 165.58, 'datetime': '2018-10-12 19:56:17.202476', 'mgs': 0, 'depth': -1.056, 'time': 17.96, 'pitch': 0.62, 'roll': -10.07}
{'lipoC2': 8.04, 'temp': 30.88, 'lipoC3S3': 12.42, 'rot1': 4, 'rot0': 0, 'rot3': 0, 'rot2': 0, 'state': 'normal', 'yaw': 163.99, 'datetime': '2018-10-12 19:56:17.210354', 'mgs': 0, 'depth': -1.056, 'time': 18.06, 'pitch': 0.11, 'roll': -9.55}
{'lipoC2': 8.04, 'temp': 30.88, 'lipoC3S3': 12.43, 'rot1': 4, 'rot0': 0, 'rot3': 0, 'rot2': 0, 'state': 'normal', 'yaw': 162.23, 'datetime': '2018-10-12 19:56:17.218172', 'mgs': 0, 'depth': -0.98, 'time': 18.16, 'pitch': -0.57, 'roll': -9.47}
{'lipoC2': 8.04, 'temp': 30.88, 'lipoC3S3': 12.43, 'rot1': 4, 'rot0': 0, 'rot3': 0, 'rot2': 0, 'state': 'normal', 'yaw': 160.67, 'datetime': '2018-10-12 19:56:17.226057', 'mgs': 0, 'depth': -1.056, 'time': 18.25, 'pitch': -1.21, 'roll': -9.65}
{'lipoC2': 8.05, 'temp': 30.88, 'lipoC3S3': 12.43, 'rot1': 4, 'rot0': 0, 'rot3': 0, 'rot2': 0, 'state': 'normal', 'yaw': 159.67, 'datetime': '2018-10-12 19:56:17.233851', 'mgs': 0, 'depth': -1.056, 'time': 18.35, 'pitch': -1.52, 'roll': -9.51}
{'lipoC2': 8.04, 'temp': 30.88, 'lipoC3S3': 12.42, 'rot1': 4, 'rot0': 0, 'rot3': 0, 'rot2': 0, 'state': 'normal', 'yaw': 158.92, 'datetime': '2018-10-12 19:56:17.241718', 'mgs': 0, 'depth': -0.98, 'time': 18.45, 'pitch': -1.73, 'roll': -9.54}
{'lipoC2': 8.04, 'temp': 30.88, 'lipoC3S3': 12.42, 'rot1': 4, 'rot0': 0, 'rot3': 0, 'rot2': 0, 'state': 'normal', 'yaw': 158.45, 'datetime': '2018-10-12 19:56:17.249542', 'mgs': 0, 'depth': -1.056, 'time': 18.55, 'pitch': -1.69, 'roll': -9.59}
{'lipoC2': 8.04, 'temp': 30.88, 'lipoC3S3': 12.43, 'rot1': 4, 'rot0': 0, 'rot3': 0, 'rot2': 0, 'state': 'normal', 'yaw': 158.26, 'datetime': '2018-10-12 19:56:17.257469', 'mgs': 0, 'depth': -1.056, 'time': 18.65, 'pitch': -1.42, 'roll': -9.89}
{'lipoC2': 8.04, 'temp': 30.88, 'lipoC3S3': 12.42, 'rot1': 4, 'rot0': 0, 'rot3': 0, 'rot2': 0, 'state': 'normal', 'yaw': 158.28, 'datetime': '2018-10-12 19:56:17.265278', 'mgs': 0, 'depth': -0.98, 'time': 18.75, 'pitch': -0.66, 'roll': -10.33}
{'lipoC2': 8.04, 'temp': 30.88, 'lipoC3S3': 12.42, 'rot1': 4, 'rot0': 0, 'rot3': 0, 'rot2': 0, 'state': 'normal', 'yaw': 158.49, 'datetime': '2018-10-12 19:56:17.273138', 'mgs': 0, 'depth': -1.056, 'time': 18.84, 'pitch': -0.67, 'roll': -9.89}
{'lipoC2': 8.05, 'temp': 30.88, 'lipoC3S3': 12.43, 'rot1': 4, 'rot0': 0, 'rot3': 0, 'rot2': 0, 'state': 'normal', 'yaw': 158.74, 'datetime': '2018-10-12 19:56:17.280958', 'mgs': 0, 'depth': -0.98, 'time': 18.94, 'pitch': -0.77, 'roll': -10.14}
{'lipoC2': 8.04, 'temp': 30.88, 'lipoC3S3': 12.43, 'rot1': 4, 'rot0': 0, 'rot3': 0, 'rot2': 0, 'state': 'normal', 'yaw': 158.52, 'datetime': '2018-10-12 19:56:17.288843', 'mgs': 0, 'depth': -0.98, 'time': 19.04, 'pitch': -0.84, 'roll': -9.85}
{'lipoC2': 8.04, 'temp': 30.88, 'lipoC3S3': 12.42, 'rot1': 4, 'rot0': 0, 'rot3': 0, 'rot2': 0, 'state': 'normal', 'yaw': 157.83, 'datetime': '2018-10-12 19:56:17.296648', 'mgs': 0, 'depth': -0.98, 'time': 19.14, 'pitch': -0.9, 'roll': -10.01}
{'lipoC2': 8.04, 'temp': 30.88, 'lipoC3S3': 12.43, 'rot1': 4, 'rot0': 0, 'rot3': 0, 'rot2': 0, 'state': 'normal', 'yaw': 157.1, 'datetime': '2018-10-12 19:56:17.304538', 'mgs': 0, 'depth': -1.056, 'time': 19.23, 'pitch': -0.89, 'roll': -9.96}
{'lipoC2': 8.04, 'temp': 30.88, 'lipoC3S3': 12.42, 'rot1': 4, 'rot0': 0, 'rot3': 0, 'rot2': 0, 'state': 'normal', 'yaw': 156.75, 'datetime': '2018-10-12 19:56:17.312326', 'mgs': 0, 'depth': -1.056, 'time': 19.33, 'pitch': -1.03, 'roll': -10.08}
{'lipoC2': 8.04, 'temp': 30.81, 'lipoC3S3': 12.42, 'rot1': 4, 'rot0': 0, 'rot3': 0, 'rot2': 0, 'state': 'normal', 'yaw': 156.49, 'datetime': '2018-10-12 19:56:17.320339', 'mgs': 0, 'depth': -1.056, 'time': 19.43, 'pitch': -0.98, 'roll': -10.15}
{'lipoC2': 8.04, 'temp': 30.81, 'lipoC3S3': 12.43, 'rot1': 4, 'rot0': 0, 'rot3': 0, 'rot2': 0, 'state': 'normal', 'yaw': 156.67, 'datetime': '2018-10-12 19:56:17.328142', 'mgs': 0, 'depth': -1.056, 'time': 19.52, 'pitch': -0.93, 'roll': -10.24}
{'lipoC2': 8.04, 'temp': 30.81, 'lipoC3S3': 12.42, 'rot1': 4, 'rot0': 0, 'rot3': 0, 'rot2': 0, 'state': 'normal', 'yaw': 156.99, 'datetime': '2018-10-12 19:56:17.336046', 'mgs': 0, 'depth': -0.98, 'time': 19.62, 'pitch': -1.02, 'roll': -10.27}
{'lipoC2': 8.04, 'temp': 30.81, 'lipoC3S3': 12.43, 'rot1': 4, 'rot0': 0, 'rot3': 0, 'rot2': 0, 'state': 'normal', 'yaw': 157.48, 'datetime': '2018-10-12 19:56:17.343839', 'mgs': 0, 'depth': -1.056, 'time': 19.72, 'pitch': -1.3, 'roll': -10.47}
{'lipoC2': 8.05, 'temp': 30.81, 'lipoC3S3': 12.43, 'rot1': 4, 'rot0': 0, 'rot3': 0, 'rot2': 0, 'state': 'normal', 'yaw': 158.22, 'datetime': '2018-10-12 19:56:17.351719', 'mgs': 0, 'depth': -1.056, 'time': 19.82, 'pitch': -1.77, 'roll': -10.34}
{'lipoC2': 8.04, 'temp': 30.88, 'lipoC3S3': 12.42, 'rot1': 4, 'rot0': 0, 'rot3': 0, 'rot2': 0, 'state': 'normal', 'yaw': 158.89, 'datetime': '2018-10-12 19:56:17.359527', 'mgs': 0, 'depth': -0.98, 'time': 19.91, 'pitch': -1.36, 'roll': -10.66}
{'lipoC2': 8.04, 'temp': 30.88, 'lipoC3S3': 12.43, 'rot1': 4, 'rot0': 0, 'rot3': 0, 'rot2': 0, 'state': 'normal', 'yaw': 159.99, 'datetime': '2018-10-12 19:56:17.367434', 'mgs': 0, 'depth': -0.98, 'time': 20.01, 'pitch': -1.26, 'roll': -10.7}
{'lipoC2': 8.04, 'temp': 30.88, 'lipoC3S3': 12.42, 'rot1': 4, 'rot0': 0, 'rot3': 0, 'rot2': 0, 'state': 'normal', 'yaw': 161.57, 'datetime': '2018-10-12 19:56:17.375230', 'mgs': 0, 'depth': -0.98, 'time': 20.11, 'pitch': -0.55, 'roll': -11.22}
{'lipoC2': 8.04, 'temp': 30.88, 'lipoC3S3': 12.42, 'rot1': 4, 'rot0': 0, 'rot3': 0, 'rot2': 0, 'state': 'normal', 'yaw': 162.88, 'datetime': '2018-10-12 19:56:17.383115', 'mgs': 0, 'depth': -0.903, 'time': 20.21, 'pitch': -0.04, 'roll': -11.72}
{'lipoC2': 8.04, 'temp': 30.88, 'lipoC3S3': 12.42, 'rot1': 4, 'rot0': 0, 'rot3': 0, 'rot2': 0, 'state': 'normal', 'yaw': 164.18, 'datetime': '2018-10-12 19:56:17.390921', 'mgs': 0, 'depth': -1.056, 'time': 20.31, 'pitch': 0.1, 'roll': -11.51}
{'lipoC2': 8.04, 'temp': 30.88, 'lipoC3S3': 12.43, 'rot1': 4, 'rot0': 0, 'rot3': 0, 'rot2': 0, 'state': 'normal', 'yaw': 165.11, 'datetime': '2018-10-12 19:56:17.398826', 'mgs': 0, 'depth': -1.056, 'time': 20.4, 'pitch': 0.28, 'roll': -11.64}
{'lipoC2': 8.04, 'temp': 30.88, 'lipoC3S3': 12.42, 'rot1': 4, 'rot0': 0, 'rot3': 0, 'rot2': 0, 'state': 'normal', 'yaw': 165.19, 'datetime': '2018-10-12 19:56:17.406629', 'mgs': 0, 'depth': -1.056, 'time': 20.5, 'pitch': 0.26, 'roll': -11.37}
{'lipoC2': 8.04, 'temp': 30.88, 'lipoC3S3': 12.42, 'rot1': 4, 'rot0': 0, 'rot3': 0, 'rot2': 0, 'state': 'normal', 'yaw': 164.28, 'datetime': '2018-10-12 19:56:17.414533', 'mgs': 0, 'depth': -0.98, 'time': 20.6, 'pitch': 0.71, 'roll': -11.67}
{'lipoC2': 8.04, 'temp': 30.81, 'lipoC3S3': 12.43, 'rot1': 4, 'rot0': 0, 'rot3': 0, 'rot2': 0, 'state': 'normal', 'yaw': 163.23, 'datetime': '2018-10-12 19:56:17.422323', 'mgs': 0, 'depth': -1.056, 'time': 20.7, 'pitch': 0.26, 'roll': -11.48}
{'lipoC2': 8.04, 'temp': 30.81, 'lipoC3S3': 12.43, 'rot1': 4, 'rot0': 0, 'rot3': 0, 'rot2': 0, 'state': 'normal', 'yaw': 162.04, 'datetime': '2018-10-12 19:56:17.430207', 'mgs': 0, 'depth': -1.056, 'time': 20.79, 'pitch': 0.28, 'roll': -11.48}
{'lipoC2': 8.04, 'temp': 30.88, 'lipoC3S3': 12.42, 'rot1': 4, 'rot0': 0, 'rot3': 0, 'rot2': 0, 'state': 'normal', 'yaw': 161.4, 'datetime': '2018-10-12 19:56:17.437999', 'mgs': 0, 'depth': -0.98, 'time': 20.89, 'pitch': -0.05, 'roll': -11.54}
{'lipoC2': 8.04, 'temp': 30.88, 'lipoC3S3': 12.42, 'rot1': 4, 'rot0': 0, 'rot3': 0, 'rot2': 0, 'state': 'normal', 'yaw': 160.95, 'datetime': '2018-10-12 19:56:17.445890', 'mgs': 0, 'depth': -0.98, 'time': 20.99, 'pitch': -0.31, 'roll': -11.21}
{'lipoC2': 8.05, 'temp': 30.81, 'lipoC3S3': 12.42, 'rot1': 4, 'rot0': 0, 'rot3': 0, 'rot2': 0, 'state': 'normal', 'yaw': 160.1, 'datetime': '2018-10-12 19:56:17.453805', 'mgs': 0, 'depth': -0.98, 'time': 21.09, 'pitch': -0.34, 'roll': -11.23}
{'lipoC2': 8.04, 'temp': 30.81, 'lipoC3S3': 12.43, 'rot1': 4, 'rot0': 0, 'rot3': 0, 'rot2': 0, 'state': 'normal', 'yaw': 159.02, 'datetime': '2018-10-12 19:56:17.461703', 'mgs': 0, 'depth': -0.98, 'time': 21.18, 'pitch': -0.36, 'roll': -10.86}
{'lipoC2': 8.04, 'temp': 30.81, 'lipoC3S3': 12.42, 'rot1': 4, 'rot0': 0, 'rot3': 0, 'rot2': 0, 'state': 'normal', 'yaw': 157.96, 'datetime': '2018-10-12 19:56:17.469527', 'mgs': 0, 'depth': -1.056, 'time': 21.28, 'pitch': -0.4, 'roll': -10.8}
{'lipoC2': 8.05, 'temp': 30.88, 'lipoC3S3': 12.42, 'rot1': 4, 'rot0': 0, 'rot3': 0, 'rot2': 0, 'state': 'normal', 'yaw': 157.37, 'datetime': '2018-10-12 19:56:17.477454', 'mgs': 0, 'depth': -0.98, 'time': 21.38, 'pitch': -0.74, 'roll': -10.73}
{'lipoC2': 8.04, 'temp': 30.88, 'lipoC3S3': 12.43, 'rot1': 4, 'rot0': 0, 'rot3': 0, 'rot2': 0, 'state': 'normal', 'yaw': 156.88, 'datetime': '2018-10-12 19:56:17.485265', 'mgs': 0, 'depth': -1.056, 'time': 21.48, 'pitch': -0.83, 'roll': -10.54}
{'lipoC2': 8.04, 'temp': 30.88, 'lipoC3S3': 12.43, 'rot1': 4, 'rot0': 0, 'rot3': 0, 'rot2': 0, 'state': 'normal', 'yaw': 156.4, 'datetime': '2018-10-12 19:56:17.493133', 'mgs': 0, 'depth': -0.98, 'time': 21.57, 'pitch': -0.78, 'roll': -10.4}
{'lipoC2': 8.05, 'temp': 30.88, 'lipoC3S3': 12.42, 'rot1': 4, 'rot0': 0, 'rot3': 0, 'rot2': 0, 'state': 'normal', 'yaw': 156.34, 'datetime': '2018-10-12 19:56:17.500950', 'mgs': 0, 'depth': -0.98, 'time': 21.67, 'pitch': -0.62, 'roll': -10.46}
{'lipoC2': 8.04, 'temp': 30.88, 'lipoC3S3': 12.42, 'rot1': 4, 'rot0': 0, 'rot3': 0, 'rot2': 0, 'state': 'normal', 'yaw': 156.67, 'datetime': '2018-10-12 19:56:17.508862', 'mgs': 0, 'depth': -1.056, 'time': 21.77, 'pitch': -0.71, 'roll': -10.27}
{'lipoC2': 8.04, 'temp': 30.81, 'lipoC3S3': 12.42, 'rot1': 4, 'rot0': 0, 'rot3': 0, 'rot2': 0, 'state': 'normal', 'yaw': 157.19, 'datetime': '2018-10-12 19:56:17.516660', 'mgs': 0, 'depth': -0.98, 'time': 21.87, 'pitch': -0.82, 'roll': -10.41}
{'lipoC2': 8.04, 'temp': 30.81, 'lipoC3S3': 12.42, 'rot1': 4, 'rot0': 0, 'rot3': 0, 'rot2': 0, 'state': 'normal', 'yaw': 158.14, 'datetime': '2018-10-12 19:56:17.524560', 'mgs': 0, 'depth': -0.98, 'time': 21.96, 'pitch': -0.3, 'roll': -10.05}
{'lipoC2': 8.04, 'temp': 30.88, 'lipoC3S3': 12.42, 'rot1': 4, 'rot0': 0, 'rot3': 0, 'rot2': 0, 'state': 'normal', 'yaw': 158.7, 'datetime': '2018-10-12 19:56:17.532311', 'mgs': 0, 'depth': -0.903, 'time': 22.06, 'pitch': -0.34, 'roll': -10.08}
{'lipoC2': 8.04, 'temp': 30.88, 'lipoC3S3': 12.42, 'rot1': 4, 'rot0': 0, 'rot3': 0, 'rot2': 0, 'state': 'normal', 'yaw': 159.27, 'datetime': '2018-10-12 19:56:17.540298', 'mgs': 0, 'depth': -1.056, 'time': 22.16, 'pitch': -0.4, 'roll': -9.7}
{'lipoC2': 8.04, 'temp': 30.88, 'lipoC3S3': 12.43, 'rot1': 4, 'rot0': 0, 'rot3': 0, 'rot2': 0, 'state': 'normal', 'yaw': 159.31, 'datetime': '2018-10-12 19:56:17.548129', 'mgs': 0, 'depth': -1.056, 'time': 22.26, 'pitch': -0.34, 'roll': -9.9}
{'lipoC2': 8.04, 'temp': 30.81, 'lipoC3S3': 12.43, 'rot1': 4, 'rot0': 0, 'rot3': 0, 'rot2': 0, 'state': 'normal', 'yaw': 159.43, 'datetime': '2018-10-12 19:56:17.556048', 'mgs': 0, 'depth': -0.98, 'time': 22.36, 'pitch': -0.28, 'roll': -9.8}
{'lipoC2': 8.05, 'temp': 30.81, 'lipoC3S3': 12.42, 'rot1': 4, 'rot0': 0, 'rot3': 0, 'rot2': 0, 'state': 'normal', 'yaw': 159.73, 'datetime': '2018-10-12 19:56:17.563836', 'mgs': 0, 'depth': -0.903, 'time': 22.45, 'pitch': -0.22, 'roll': -10.54}
{'lipoC2': 8.04, 'temp': 30.81, 'lipoC3S3': 12.42, 'rot1': 4, 'rot0': 0, 'rot3': 0, 'rot2': 0, 'state': 'normal', 'yaw': 160.19, 'datetime': '2018-10-12 19:56:17.571705', 'mgs': 0, 'depth': -0.98, 'time': 22.55, 'pitch': -0.78, 'roll': -9.59}
{'lipoC2': 8.04, 'temp': 30.81, 'lipoC3S3': 12.42, 'rot1': 4, 'rot0': 0, 'rot3': 0, 'rot2': 0, 'state': 'normal', 'yaw': 160.3, 'datetime': '2018-10-12 19:56:17.579517', 'mgs': 0, 'depth': -0.98, 'time': 22.65, 'pitch': -0.4, 'roll': -10.22}
{'lipoC2': 8.04, 'temp': 30.81, 'lipoC3S3': 12.42, 'rot1': 4, 'rot0': 0, 'rot3': 0, 'rot2': 0, 'state': 'normal', 'yaw': 160.67, 'datetime': '2018-10-12 19:56:17.587164', 'mgs': 0, 'depth': -0.903, 'time': 22.75, 'pitch': -0.43, 'roll': -9.82}
{'lipoC2': 8.04, 'temp': 30.81, 'lipoC3S3': 12.43, 'rot1': 4, 'rot0': 0, 'rot3': 0, 'rot2': 0, 'state': 'normal', 'yaw': 161.12, 'datetime': '2018-10-12 19:56:17.594558', 'mgs': 0, 'depth': -0.827, 'time': 22.84, 'pitch': -0.65, 'roll': -10.99}
{'lipoC2': 8.04, 'temp': 30.81, 'lipoC3S3': 12.42, 'rot1': 5, 'rot0': 0, 'rot3': 0, 'rot2': 0, 'state': 'normal', 'yaw': 161.59, 'datetime': '2018-10-12 19:56:17.601993', 'mgs': 0, 'depth': -0.98, 'time': 22.94, 'pitch': -0.16, 'roll': -9.34}
{'lipoC2': 8.04, 'temp': 30.88, 'lipoC3S3': 12.42, 'rot1': 5, 'rot0': 0, 'rot3': 0, 'rot2': 0, 'state': 'normal', 'yaw': 162.01, 'datetime': '2018-10-12 19:56:17.609411', 'mgs': 0, 'depth': -0.98, 'time': 23.04, 'pitch': -0.78, 'roll': -11.18}
{'lipoC2': 8.04, 'temp': 30.88, 'lipoC3S3': 12.43, 'rot1': 5, 'rot0': 0, 'rot3': 0, 'rot2': 0, 'state': 'normal', 'yaw': 162.46, 'datetime': '2018-10-12 19:56:17.616880', 'mgs': 0, 'depth': -0.98, 'time': 23.14, 'pitch': -0.48, 'roll': -10.08}
{'lipoC2': 8.05, 'temp': 30.88, 'lipoC3S3': 12.42, 'rot1': 5, 'rot0': 0, 'rot3': 0, 'rot2': 0, 'state': 'normal', 'yaw': 162.78, 'datetime': '2018-10-12 19:56:17.624276', 'mgs': 0, 'depth': -0.903, 'time': 23.23, 'pitch': -0.52, 'roll': -11.05}
{'lipoC2': 8.04, 'temp': 30.81, 'lipoC3S3': 12.43, 'rot1': 5, 'rot0': 0, 'rot3': 0, 'rot2': 0, 'state': 'normal', 'yaw': 163.19, 'datetime': '2018-10-12 19:56:17.631743', 'mgs': 0, 'depth': -0.98, 'time': 23.33, 'pitch': -0.51, 'roll': -10.52}
{'lipoC2': 8.05, 'temp': 30.81, 'lipoC3S3': 12.43, 'rot1': 5, 'rot0': 0, 'rot3': 0, 'rot2': 0, 'state': 'normal', 'yaw': 163.72, 'datetime': '2018-10-12 19:56:17.639145', 'mgs': 0, 'depth': -1.056, 'time': 23.43, 'pitch': -0.22, 'roll': -10.63}
{'lipoC2': 8.04, 'temp': 30.81, 'lipoC3S3': 12.43, 'rot1': 5, 'rot0': 0, 'rot3': 0, 'rot2': 0, 'state': 'normal', 'yaw': 164.36, 'datetime': '2018-10-12 19:56:17.646613', 'mgs': 0, 'depth': -0.903, 'time': 23.53, 'pitch': 0.04, 'roll': -10.68}
{'lipoC2': 8.04, 'temp': 30.81, 'lipoC3S3': 12.43, 'rot1': 5, 'rot0': 0, 'rot3': 0, 'rot2': 0, 'state': 'normal', 'yaw': 164.47, 'datetime': '2018-10-12 19:56:17.653994', 'mgs': 0, 'depth': -0.903, 'time': 23.62, 'pitch': -0.12, 'roll': -10.65}
{'lipoC2': 8.04, 'temp': 30.81, 'lipoC3S3': 12.43, 'rot1': 5, 'rot0': 0, 'rot3': 0, 'rot2': 0, 'state': 'normal', 'yaw': 164.12, 'datetime': '2018-10-12 19:56:17.661430', 'mgs': 0, 'depth': -0.98, 'time': 23.72, 'pitch': 0.25, 'roll': -10.23}
{'lipoC2': 8.05, 'temp': 30.75, 'lipoC3S3': 12.43, 'rot1': 5, 'rot0': 0, 'rot3': 0, 'rot2': 0, 'state': 'normal', 'yaw': 163.76, 'datetime': '2018-10-12 19:56:17.668811', 'mgs': 0, 'depth': -0.98, 'time': 23.82, 'pitch': 0.23, 'roll': -10.47}
{'lipoC2': 8.05, 'temp': 30.75, 'lipoC3S3': 12.43, 'rot1': 5, 'rot0': 0, 'rot3': 0, 'rot2': 0, 'state': 'normal', 'yaw': 163.79, 'datetime': '2018-10-12 19:56:17.676149', 'mgs': 0, 'depth': -0.903, 'time': 23.92, 'pitch': -0.1, 'roll': -10.07}
{'lipoC2': 8.04, 'temp': 30.75, 'lipoC3S3': 12.43, 'rot1': 5, 'rot0': 0, 'rot3': 0, 'rot2': 0, 'state': 'normal', 'yaw': 163.88, 'datetime': '2018-10-12 19:56:17.683591', 'mgs': 0, 'depth': -0.903, 'time': 24.01, 'pitch': 0.12, 'roll': -10.52}
{'lipoC2': 8.04, 'temp': 30.75, 'lipoC3S3': 12.43, 'rot1': 5, 'rot0': 0, 'rot3': 0, 'rot2': 0, 'state': 'normal', 'yaw': 163.96, 'datetime': '2018-10-12 19:56:17.691128', 'mgs': 0, 'depth': -0.98, 'time': 24.11, 'pitch': -0.01, 'roll': -10.1}
{'lipoC2': 8.04, 'temp': 30.75, 'lipoC3S3': 12.43, 'rot1': 5, 'rot0': 0, 'rot3': 0, 'rot2': 0, 'state': 'normal', 'yaw': 163.57, 'datetime': '2018-10-12 19:56:17.698514', 'mgs': 0, 'depth': -1.056, 'time': 24.21, 'pitch': 0.05, 'roll': -10.57}
{'lipoC2': 8.05, 'temp': 30.81, 'lipoC3S3': 12.43, 'rot1': 5, 'rot0': 0, 'rot3': 0, 'rot2': 0, 'state': 'normal', 'yaw': 162.69, 'datetime': '2018-10-12 19:56:17.706004', 'mgs': 0, 'depth': -0.98, 'time': 24.31, 'pitch': -0.11, 'roll': -10.22}
{'lipoC2': 8.04, 'temp': 30.81, 'lipoC3S3': 12.42, 'rot1': 5, 'rot0': 0, 'rot3': 0, 'rot2': 0, 'state': 'normal', 'yaw': 161.34, 'datetime': '2018-10-12 19:56:17.713464', 'mgs': 0, 'depth': -1.056, 'time': 24.41, 'pitch': -0.38, 'roll': -10.03}
{'lipoC2': 8.04, 'temp': 30.81, 'lipoC3S3': 12.43, 'rot1': 5, 'rot0': 0, 'rot3': 0, 'rot2': 0, 'state': 'normal', 'yaw': 160.45, 'datetime': '2018-10-12 19:56:17.720840', 'mgs': 0, 'depth': -0.903, 'time': 24.5, 'pitch': -0.73, 'roll': -10.0}
{'lipoC2': 8.04, 'temp': 30.81, 'lipoC3S3': 12.43, 'rot1': 5, 'rot0': 0, 'rot3': 0, 'rot2': 0, 'state': 'normal', 'yaw': 160.56, 'datetime': '2018-10-12 19:56:17.728323', 'mgs': 0, 'depth': -0.98, 'time': 24.6, 'pitch': -0.63, 'roll': -9.82}
{'lipoC2': 8.04, 'temp': 30.81, 'lipoC3S3': 12.43, 'rot1': 5, 'rot0': 0, 'rot3': 0, 'rot2': 0, 'state': 'normal', 'yaw': 161.4, 'datetime': '2018-10-12 19:56:17.735822', 'mgs': 0, 'depth': -0.98, 'time': 24.7, 'pitch': -0.09, 'roll': -10.06}
{'lipoC2': 8.04, 'temp': 30.81, 'lipoC3S3': 12.43, 'rot1': 5, 'rot0': 0, 'rot3': 0, 'rot2': 0, 'state': 'normal', 'yaw': 162.36, 'datetime': '2018-10-12 19:56:17.743307', 'mgs': 0, 'depth': -0.98, 'time': 24.8, 'pitch': -0.14, 'roll': -9.53}
{'lipoC2': 8.04, 'temp': 30.81, 'lipoC3S3': 12.42, 'rot1': 5, 'rot0': 0, 'rot3': 0, 'rot2': 0, 'state': 'normal', 'yaw': 162.7, 'datetime': '2018-10-12 19:56:17.751019', 'mgs': 0, 'depth': -0.98, 'time': 24.9, 'pitch': 0.29, 'roll': -9.99}
{'lipoC2': 8.04, 'temp': 30.75, 'lipoC3S3': 12.42, 'rot1': 5, 'rot0': 0, 'rot3': 0, 'rot2': 0, 'state': 'normal', 'yaw': 163.09, 'datetime': '2018-10-12 19:56:17.833532', 'mgs': 0, 'depth': -0.98, 'time': 24.99, 'pitch': 0.22, 'roll': -9.52}
{'lipoC2': 8.04, 'temp': 30.75, 'lipoC3S3': 12.42, 'rot1': 5, 'rot0': 0, 'rot3': 0, 'rot2': 0, 'state': 'normal', 'yaw': 163.69, 'datetime': '2018-10-12 19:56:17.930661', 'mgs': 0, 'depth': -1.056, 'time': 25.09, 'pitch': -0.06, 'roll': -9.84}
{'lipoC2': 8.04, 'temp': 30.75, 'lipoC3S3': 12.42, 'rot1': 5, 'rot0': 0, 'rot3': 0, 'rot2': 0, 'state': 'normal', 'yaw': 164.21, 'datetime': '2018-10-12 19:56:18.027778', 'mgs': 0, 'depth': -0.98, 'time': 25.19, 'pitch': 0.21, 'roll': -9.97}
{'lipoC2': 8.04, 'temp': 30.81, 'lipoC3S3': 12.42, 'rot1': 5, 'rot0': 0, 'rot3': 0, 'rot2': 0, 'state': 'normal', 'yaw': 164.31, 'datetime': '2018-10-12 19:56:18.125535', 'mgs': 0, 'depth': -0.98, 'time': 25.28, 'pitch': 0.18, 'roll': -10.13}
