{'lipoC2': 7.94, 'temp': 27.94, 'lipoC3S3': 12.06, 'rot1': 0, 'rot0': 0, 'rot3': 0, 'rot2': 0, 'state': 'normal', 'yaw': 0.0, 'datetime': '2018-10-12 13:25:24.943312', 'mgs': 0, 'depth': -0.14, 'time': 1.26, 'pitch': 0.42, 'roll': 2.29}
{'lipoC2': 7.94, 'temp': 27.94, 'lipoC3S3': 12.06, 'rot1': 0, 'rot0': 0, 'rot3': 0, 'rot2': 0, 'state': 'normal', 'yaw': 0.0, 'datetime': '2018-10-12 13:25:24.960192', 'mgs': 0, 'depth': -0.064, 'time': 1.36, 'pitch': 0.42, 'roll': 2.29}
{'lipoC2': 7.95, 'temp': 27.94, 'lipoC3S3': 12.06, 'rot1': 0, 'rot0': 0, 'rot3': 0, 'rot2': 0, 'state': 'normal', 'yaw': 0.0, 'datetime': '2018-10-12 13:25:24.977862', 'mgs': 0, 'depth': -0.14, 'time': 1.45, 'pitch': 0.42, 'roll': 2.29}
{'lipoC2': 7.94, 'temp': 27.94, 'lipoC3S3': 12.06, 'rot1': 0, 'rot0': 0, 'rot3': 0, 'rot2': 0, 'state': 'normal', 'yaw': 0.0, 'datetime': '2018-10-12 13:25:25.001303', 'mgs': 0, 'depth': -0.14, 'time': 1.55, 'pitch': 0.42, 'roll': 2.29}
{'lipoC2': 7.94, 'temp': 27.94, 'lipoC3S3': 12.08, 'rot1': 0, 'rot0': 0, 'rot3': 0, 'rot2': 0, 'state': 'normal', 'yaw': 0.0, 'datetime': '2018-10-12 13:25:25.015127', 'mgs': 0, 'depth': -0.14, 'time': 1.65, 'pitch': 0.42, 'roll': 2.29}
{'lipoC2': 7.95, 'temp': 27.94, 'lipoC3S3': 12.06, 'rot1': 0, 'rot0': 0, 'rot3': 0, 'rot2': 0, 'state': 'normal', 'yaw': 0.0, 'datetime': '2018-10-12 13:25:25.022827', 'mgs': 0, 'depth': -0.064, 'time': 1.75, 'pitch': 0.42, 'roll': 2.29}
{'lipoC2': 7.95, 'temp': 27.94, 'lipoC3S3': 12.06, 'rot1': 0, 'rot0': 0, 'rot3': 0, 'rot2': 0, 'state': 'normal', 'yaw': 0.0, 'datetime': '2018-10-12 13:25:25.030549', 'mgs': 0, 'depth': -0.064, 'time': 1.85, 'pitch': 0.42, 'roll': 2.29}
{'lipoC2': 7.94, 'temp': 27.94, 'lipoC3S3': 12.08, 'rot1': 0, 'rot0': 0, 'rot3': 0, 'rot2': 0, 'state': 'normal', 'yaw': 0.0, 'datetime': '2018-10-12 13:25:25.038226', 'mgs': 0, 'depth': -0.064, 'time': 1.94, 'pitch': 0.42, 'roll': 2.29}
{'lipoC2': 7.95, 'temp': 27.94, 'lipoC3S3': 12.06, 'rot1': 0, 'rot0': 0, 'rot3': 0, 'rot2': 0, 'state': 'normal', 'yaw': 0.0, 'datetime': '2018-10-12 13:25:25.045837', 'mgs': 0, 'depth': -0.064, 'time': 2.04, 'pitch': 0.42, 'roll': 2.29}
{'lipoC2': 7.95, 'temp': 27.94, 'lipoC3S3': 12.06, 'rot1': 0, 'rot0': 0, 'rot3': 0, 'rot2': 0, 'state': 'normal', 'yaw': 0.0, 'datetime': '2018-10-12 13:25:25.094542', 'mgs': 0, 'depth': -0.064, 'time': 2.14, 'pitch': 0.42, 'roll': 2.29}
{'lipoC2': 7.95, 'temp': 27.94, 'lipoC3S3': 12.06, 'rot1': 0, 'rot0': 0, 'rot3': 0, 'rot2': 0, 'state': 'normal', 'yaw': 0.0, 'datetime': '2018-10-12 13:25:25.191588', 'mgs': 0, 'depth': -0.14, 'time': 2.24, 'pitch': 0.42, 'roll': 2.29}
{'lipoC2': 7.94, 'temp': 27.94, 'lipoC3S3': 12.08, 'rot1': 0, 'rot0': 0, 'rot3': 0, 'rot2': 0, 'state': 'normal', 'yaw': 0.0, 'datetime': '2018-10-12 13:25:25.289950', 'mgs': 0, 'depth': -0.064, 'time': 2.33, 'pitch': 0.42, 'roll': 2.29}
{'lipoC2': 7.94, 'temp': 27.94, 'lipoC3S3': 12.06, 'rot1': 0, 'rot0': 0, 'rot3': 0, 'rot2': 0, 'state': 'normal', 'yaw': 0.0, 'datetime': '2018-10-12 13:25:25.388270', 'mgs': 0, 'depth': -0.14, 'time': 2.43, 'pitch': 0.42, 'roll': 2.29}
{'lipoC2': 7.94, 'temp': 27.94, 'lipoC3S3': 12.06, 'rot1': 0, 'rot0': 0, 'rot3': 0, 'rot2': 0, 'state': 'normal', 'yaw': 0.0, 'datetime': '2018-10-12 13:25:25.485312', 'mgs': 0, 'depth': -0.14, 'time': 2.53, 'pitch': 0.42, 'roll': 2.29}
{'lipoC2': 7.95, 'temp': 27.94, 'lipoC3S3': 12.06, 'rot1': 0, 'rot0': 0, 'rot3': 0, 'rot2': 0, 'state': 'normal', 'yaw': 0.0, 'datetime': '2018-10-12 13:25:25.582351', 'mgs': 0, 'depth': -0.14, 'time': 2.63, 'pitch': 0.42, 'roll': 2.29}
{'lipoC2': 7.94, 'temp': 27.94, 'lipoC3S3': 12.08, 'rot1': 0, 'rot0': 0, 'rot3': 0, 'rot2': 0, 'state': 'normal', 'yaw': 0.0, 'datetime': '2018-10-12 13:25:25.680722', 'mgs': 0, 'depth': -0.064, 'time': 2.72, 'pitch': 0.42, 'roll': 2.29}
{'lipoC2': 7.94, 'temp': 27.94, 'lipoC3S3': 12.08, 'rot1': 0, 'rot0': 0, 'rot3': 0, 'rot2': 0, 'state': 'normal', 'yaw': 0.0, 'datetime': '2018-10-12 13:25:25.784416', 'mgs': 0, 'depth': -0.14, 'time': 2.82, 'pitch': 0.42, 'roll': 2.29}
{'lipoC2': 7.95, 'temp': 27.94, 'lipoC3S3': 12.06, 'rot1': 0, 'rot0': 0, 'rot3': 0, 'rot2': 0, 'state': 'normal', 'yaw': 0.0, 'datetime': '2018-10-12 13:25:25.881488', 'mgs': 0, 'depth': -0.064, 'time': 2.92, 'pitch': 0.42, 'roll': 2.29}
{'lipoC2': 7.94, 'temp': 27.94, 'lipoC3S3': 12.06, 'rot1': 0, 'rot0': 0, 'rot3': 0, 'rot2': 0, 'state': 'normal', 'yaw': 0.0, 'datetime': '2018-10-12 13:25:25.978576', 'mgs': 0, 'depth': -0.14, 'time': 3.02, 'pitch': 0.42, 'roll': 2.29}
{'lipoC2': 7.94, 'temp': 27.94, 'lipoC3S3': 12.06, 'rot1': 0, 'rot0': 0, 'rot3': 0, 'rot2': 0, 'state': 'normal', 'yaw': 0.0, 'datetime': '2018-10-12 13:25:26.076007', 'mgs': 0, 'depth': -0.14, 'time': 3.12, 'pitch': 0.42, 'roll': 2.29}
{'lipoC2': 7.94, 'temp': 27.94, 'lipoC3S3': 12.08, 'rot1': 0, 'rot0': 0, 'rot3': 0, 'rot2': 0, 'state': 'normal', 'yaw': 0.0, 'datetime': '2018-10-12 13:25:26.173119', 'mgs': 0, 'depth': -0.064, 'time': 3.21, 'pitch': 0.42, 'roll': 2.29}
{'lipoC2': 7.94, 'temp': 27.94, 'lipoC3S3': 12.08, 'rot1': 0, 'rot0': 0, 'rot3': 0, 'rot2': 0, 'state': 'normal', 'yaw': 0.0, 'datetime': '2018-10-12 13:25:26.270117', 'mgs': 0, 'depth': -0.14, 'time': 3.31, 'pitch': 0.42, 'roll': 2.29}
{'lipoC2': 7.95, 'temp': 28.0, 'lipoC3S3': 12.06, 'rot1': 0, 'rot0': 0, 'rot3': 0, 'rot2': 0, 'state': 'normal', 'yaw': 0.0, 'datetime': '2018-10-12 13:25:26.368357', 'mgs': 0, 'depth': -0.064, 'time': 3.41, 'pitch': 0.42, 'roll': 2.29}
{'lipoC2': 7.94, 'temp': 28.0, 'lipoC3S3': 12.06, 'rot1': 0, 'rot0': 0, 'rot3': 0, 'rot2': 0, 'state': 'normal', 'yaw': 0.0, 'datetime': '2018-10-12 13:25:26.466735', 'mgs': 0, 'depth': -0.14, 'time': 3.51, 'pitch': 0.42, 'roll': 2.29}
{'lipoC2': 7.95, 'temp': 28.0, 'lipoC3S3': 12.06, 'rot1': 0, 'rot0': 0, 'rot3': 0, 'rot2': 0, 'state': 'normal', 'yaw': 0.0, 'datetime': '2018-10-12 13:25:26.564676', 'mgs': 0, 'depth': -0.14, 'time': 3.61, 'pitch': 0.42, 'roll': 2.29}
{'lipoC2': 7.95, 'temp': 27.94, 'lipoC3S3': 12.06, 'rot1': 0, 'rot0': 0, 'rot3': 0, 'rot2': 0, 'state': 'normal', 'yaw': 0.0, 'datetime': '2018-10-12 13:25:26.661726', 'mgs': 0, 'depth': -0.14, 'time': 3.7, 'pitch': 0.42, 'roll': 2.29}
{'lipoC2': 7.94, 'temp': 27.94, 'lipoC3S3': 12.08, 'rot1': 0, 'rot0': 0, 'rot3': 0, 'rot2': 0, 'state': 'normal', 'yaw': 0.0, 'datetime': '2018-10-12 13:25:26.759469', 'mgs': 0, 'depth': -0.064, 'time': 3.8, 'pitch': 0.42, 'roll': 2.29}
{'lipoC2': 7.94, 'temp': 27.94, 'lipoC3S3': 12.06, 'rot1': 0, 'rot0': 0, 'rot3': 0, 'rot2': 0, 'state': 'normal', 'yaw': 0.0, 'datetime': '2018-10-12 13:25:26.857695', 'mgs': 0, 'depth': -0.14, 'time': 3.9, 'pitch': 0.42, 'roll': 2.29}
{'lipoC2': 7.95, 'temp': 27.94, 'lipoC3S3': 12.06, 'rot1': 0, 'rot0': 0, 'rot3': 0, 'rot2': 0, 'state': 'normal', 'yaw': 0.0, 'datetime': '2018-10-12 13:25:26.955112', 'mgs': 0, 'depth': -0.064, 'time': 4.0, 'pitch': 0.42, 'roll': 2.29}
{'lipoC2': 7.94, 'temp': 27.94, 'lipoC3S3': 12.06, 'rot1': 0, 'rot0': 0, 'rot3': 0, 'rot2': 0, 'state': 'normal', 'yaw': 0.0, 'datetime': '2018-10-12 13:25:27.052132', 'mgs': 0, 'depth': -0.064, 'time': 4.09, 'pitch': 0.42, 'roll': 2.29}
{'lipoC2': 7.94, 'temp': 27.94, 'lipoC3S3': 12.06, 'rot1': 0, 'rot0': 0, 'rot3': 0, 'rot2': 0, 'state': 'normal', 'yaw': 0.0, 'datetime': '2018-10-12 13:25:27.149829', 'mgs': 0, 'depth': -0.14, 'time': 4.19, 'pitch': 0.42, 'roll': 2.29}
{'lipoC2': 7.94, 'temp': 27.94, 'lipoC3S3': 12.06, 'rot1': 0, 'rot0': 0, 'rot3': 0, 'rot2': 0, 'state': 'normal', 'yaw': 0.0, 'datetime': '2018-10-12 13:25:27.248156', 'mgs': 0, 'depth': -0.14, 'time': 4.29, 'pitch': 0.42, 'roll': 2.29}
{'lipoC2': 7.95, 'temp': 27.94, 'lipoC3S3': 12.06, 'rot1': 0, 'rot0': 0, 'rot3': 0, 'rot2': 0, 'state': 'normal', 'yaw': 0.0, 'datetime': '2018-10-12 13:25:27.346204', 'mgs': 0, 'depth': -0.064, 'time': 4.39, 'pitch': 0.42, 'roll': 2.29}
{'lipoC2': 7.94, 'temp': 27.94, 'lipoC3S3': 12.06, 'rot1': 0, 'rot0': 0, 'rot3': 0, 'rot2': 0, 'state': 'normal', 'yaw': 0.0, 'datetime': '2018-10-12 13:25:27.443212', 'mgs': 0, 'depth': -0.064, 'time': 4.49, 'pitch': 0.42, 'roll': 2.29}
{'lipoC2': 7.95, 'temp': 27.94, 'lipoC3S3': 12.06, 'rot1': 0, 'rot0': 0, 'rot3': 0, 'rot2': 0, 'state': 'normal', 'yaw': 0.0, 'datetime': '2018-10-12 13:25:27.540875', 'mgs': 0, 'depth': -0.064, 'time': 4.58, 'pitch': 0.42, 'roll': 2.29}
{'lipoC2': 7.94, 'temp': 27.94, 'lipoC3S3': 12.08, 'rot1': 0, 'rot0': 0, 'rot3': 0, 'rot2': 0, 'state': 'normal', 'yaw': 0.0, 'datetime': '2018-10-12 13:25:27.639242', 'mgs': 0, 'depth': -0.064, 'time': 4.68, 'pitch': 0.42, 'roll': 2.29}
{'lipoC2': 7.95, 'temp': 27.94, 'lipoC3S3': 12.06, 'rot1': 0, 'rot0': 0, 'rot3': 0, 'rot2': 0, 'state': 'normal', 'yaw': 0.0, 'datetime': '2018-10-12 13:25:27.737633', 'mgs': 0, 'depth': -0.064, 'time': 4.78, 'pitch': 0.42, 'roll': 2.29}
{'lipoC2': 7.95, 'temp': 27.94, 'lipoC3S3': 12.06, 'rot1': 0, 'rot0': 0, 'rot3': 0, 'rot2': 0, 'state': 'normal', 'yaw': 0.0, 'datetime': '2018-10-12 13:25:27.834671', 'mgs': 0, 'depth': -0.064, 'time': 4.88, 'pitch': 0.42, 'roll': 2.29}
{'lipoC2': 7.94, 'temp': 27.94, 'lipoC3S3': 12.08, 'rot1': 0, 'rot0': 0, 'rot3': 0, 'rot2': 0, 'state': 'normal', 'yaw': 0.0, 'datetime': '2018-10-12 13:25:27.931784', 'mgs': 0, 'depth': -0.14, 'time': 4.97, 'pitch': 0.42, 'roll': 2.29}
{'lipoC2': 7.94, 'temp': 27.94, 'lipoC3S3': 12.06, 'rot1': 0, 'rot0': 0, 'rot3': 0, 'rot2': 0, 'state': 'normal', 'yaw': 0.0, 'datetime': '2018-10-12 13:25:28.029079', 'mgs': 0, 'depth': -0.064, 'time': 5.07, 'pitch': 0.42, 'roll': 2.29}
{'lipoC2': 7.94, 'temp': 27.94, 'lipoC3S3': 12.06, 'rot1': 0, 'rot0': 0, 'rot3': 0, 'rot2': 0, 'state': 'normal', 'yaw': 0.0, 'datetime': '2018-10-12 13:25:28.126170', 'mgs': 0, 'depth': -0.14, 'time': 5.17, 'pitch': 0.42, 'roll': 2.29}
{'lipoC2': 7.95, 'temp': 27.94, 'lipoC3S3': 12.06, 'rot1': 0, 'rot0': 0, 'rot3': 0, 'rot2': 0, 'state': 'normal', 'yaw': 0.0, 'datetime': '2018-10-12 13:25:28.223251', 'mgs': 0, 'depth': -0.064, 'time': 5.26, 'pitch': 0.42, 'roll': 2.29}
{'lipoC2': 7.94, 'temp': 27.94, 'lipoC3S3': 12.06, 'rot1': 0, 'rot0': 0, 'rot3': 0, 'rot2': 0, 'state': 'normal', 'yaw': 0.0, 'datetime': '2018-10-12 13:25:28.321911', 'mgs': 0, 'depth': -0.064, 'time': 5.36, 'pitch': 0.42, 'roll': 2.29}
{'lipoC2': 7.95, 'temp': 27.94, 'lipoC3S3': 12.06, 'rot1': 0, 'rot0': 0, 'rot3': 0, 'rot2': 0, 'state': 'normal', 'yaw': 0.0, 'datetime': '2018-10-12 13:25:28.420132', 'mgs': 0, 'depth': -0.064, 'time': 5.46, 'pitch': 0.42, 'roll': 2.29}
{'lipoC2': 7.95, 'temp': 27.94, 'lipoC3S3': 12.06, 'rot1': 0, 'rot0': 0, 'rot3': 0, 'rot2': 0, 'state': 'normal', 'yaw': 0.0, 'datetime': '2018-10-12 13:25:28.517955', 'mgs': 0, 'depth': -0.064, 'time': 5.56, 'pitch': 0.42, 'roll': 2.29}
{'lipoC2': 7.94, 'temp': 27.94, 'lipoC3S3': 12.06, 'rot1': 0, 'rot0': 0, 'rot3': 0, 'rot2': 0, 'state': 'normal', 'yaw': 0.0, 'datetime': '2018-10-12 13:25:28.614968', 'mgs': 0, 'depth': -0.064, 'time': 5.66, 'pitch': 0.42, 'roll': 2.29}
{'lipoC2': 7.95, 'temp': 27.94, 'lipoC3S3': 12.06, 'rot1': 0, 'rot0': 0, 'rot3': 0, 'rot2': 0, 'state': 'normal', 'yaw': 0.0, 'datetime': '2018-10-12 13:25:28.712671', 'mgs': 0, 'depth': -0.14, 'time': 5.76, 'pitch': 0.42, 'roll': 2.29}
{'lipoC2': 7.94, 'temp': 27.94, 'lipoC3S3': 12.08, 'rot1': 0, 'rot0': 0, 'rot3': 0, 'rot2': 0, 'state': 'normal', 'yaw': 0.0, 'datetime': '2018-10-12 13:25:28.819430', 'mgs': 0, 'depth': -0.064, 'time': 5.85, 'pitch': 0.42, 'roll': 2.29}
{'lipoC2': 7.95, 'temp': 27.94, 'lipoC3S3': 12.06, 'rot1': 0, 'rot0': 0, 'rot3': 0, 'rot2': 0, 'state': 'normal', 'yaw': 0.0, 'datetime': '2018-10-12 13:25:28.911710', 'mgs': 0, 'depth': -0.064, 'time': 5.95, 'pitch': 0.43, 'roll': 2.3}
{'lipoC2': 7.94, 'temp': 27.94, 'lipoC3S3': 12.08, 'rot1': 0, 'rot0': 0, 'rot3': 0, 'rot2': 0, 'state': 'normal', 'yaw': -0.0, 'datetime': '2018-10-12 13:25:29.008694', 'mgs': 0, 'depth': -0.14, 'time': 6.05, 'pitch': 0.42, 'roll': 2.28}
{'lipoC2': 7.95, 'temp': 27.94, 'lipoC3S3': 12.06, 'rot1': 0, 'rot0': 0, 'rot3': 0, 'rot2': 0, 'state': 'normal', 'yaw': -0.0, 'datetime': '2018-10-12 13:25:29.106152', 'mgs': 0, 'depth': -0.064, 'time': 6.15, 'pitch': 0.43, 'roll': 2.28}
{'lipoC2': 7.95, 'temp': 27.94, 'lipoC3S3': 12.06, 'rot1': 0, 'rot0': 0, 'rot3': 0, 'rot2': 0, 'state': 'normal', 'yaw': -0.0, 'datetime': '2018-10-12 13:25:29.204545', 'mgs': 0, 'depth': -0.064, 'time': 6.24, 'pitch': 0.43, 'roll': 2.28}
{'lipoC2': 7.94, 'temp': 27.94, 'lipoC3S3': 12.06, 'rot1': 0, 'rot0': 0, 'rot3': 0, 'rot2': 0, 'state': 'normal', 'yaw': -0.0, 'datetime': '2018-10-12 13:25:29.302938', 'mgs': 0, 'depth': -0.14, 'time': 6.34, 'pitch': 0.43, 'roll': 2.28}
{'lipoC2': 7.95, 'temp': 27.94, 'lipoC3S3': 12.06, 'rot1': 0, 'rot0': 0, 'rot3': 0, 'rot2': 0, 'state': 'normal', 'yaw': -0.0, 'datetime': '2018-10-12 13:25:29.399961', 'mgs': 0, 'depth': -0.14, 'time': 6.44, 'pitch': 0.43, 'roll': 2.27}
{'lipoC2': 7.94, 'temp': 27.94, 'lipoC3S3': 12.08, 'rot1': 0, 'rot0': 0, 'rot3': 0, 'rot2': 0, 'state': 'normal', 'yaw': -0.0, 'datetime': '2018-10-12 13:25:29.497123', 'mgs': 0, 'depth': -0.14, 'time': 6.54, 'pitch': 0.41, 'roll': 2.18}
{'lipoC2': 7.95, 'temp': 27.94, 'lipoC3S3': 12.06, 'rot1': 0, 'rot0': 0, 'rot3': 0, 'rot2': 0, 'state': 'normal', 'yaw': -0.1, 'datetime': '2018-10-12 13:25:29.594227', 'mgs': 0, 'depth': -0.064, 'time': 6.64, 'pitch': 0.74, 'roll': 1.82}
{'lipoC2': 7.95, 'temp': 27.94, 'lipoC3S3': 12.06, 'rot1': 0, 'rot0': 0, 'rot3': 0, 'rot2': 0, 'state': 'normal', 'yaw': -0.67, 'datetime': '2018-10-12 13:25:29.691402', 'mgs': 0, 'depth': -0.064, 'time': 6.73, 'pitch': 2.5, 'roll': 0.89}
{'lipoC2': 7.94, 'temp': 27.94, 'lipoC3S3': 12.08, 'rot1': 0, 'rot0': 0, 'rot3': 0, 'rot2': 0, 'state': 'normal', 'yaw': -1.67, 'datetime': '2018-10-12 13:25:29.788565', 'mgs': 0, 'depth': -0.064, 'time': 6.83, 'pitch': 4.54, 'roll': 0.22}
{'lipoC2': 7.95, 'temp': 27.94, 'lipoC3S3': 12.06, 'rot1': 0, 'rot0': 0, 'rot3': 0, 'rot2': 0, 'state': 'normal', 'yaw': -2.83, 'datetime': '2018-10-12 13:25:29.885496', 'mgs': 0, 'depth': -0.064, 'time': 6.93, 'pitch': 5.38, 'roll': 0.62}
{'lipoC2': 7.94, 'temp': 27.94, 'lipoC3S3': 12.06, 'rot1': 0, 'rot0': 0, 'rot3': 0, 'rot2': 0, 'state': 'normal', 'yaw': -4.26, 'datetime': '2018-10-12 13:25:29.982627', 'mgs': 0, 'depth': -0.064, 'time': 7.02, 'pitch': 5.22, 'roll': 2.48}
{'lipoC2': 7.95, 'temp': 27.94, 'lipoC3S3': 12.06, 'rot1': 0, 'rot0': 0, 'rot3': 0, 'rot2': 0, 'state': 'normal', 'yaw': -5.98, 'datetime': '2018-10-12 13:25:30.079743', 'mgs': 0, 'depth': -0.14, 'time': 7.12, 'pitch': 4.28, 'roll': 4.94}
{'lipoC2': 7.95, 'temp': 27.94, 'lipoC3S3': 12.06, 'rot1': 0, 'rot0': 0, 'rot3': 0, 'rot2': 0, 'state': 'normal', 'yaw': -7.6, 'datetime': '2018-10-12 13:25:30.177790', 'mgs': 0, 'depth': -0.064, 'time': 7.22, 'pitch': 3.42, 'roll': 7.09}
{'lipoC2': 7.94, 'temp': 27.94, 'lipoC3S3': 12.06, 'rot1': 0, 'rot0': 0, 'rot3': 0, 'rot2': 0, 'state': 'normal', 'yaw': -9.04, 'datetime': '2018-10-12 13:25:30.276307', 'mgs': 0, 'depth': -0.064, 'time': 7.32, 'pitch': 3.0, 'roll': 8.88}
{'lipoC2': 7.95, 'temp': 27.94, 'lipoC3S3': 12.06, 'rot1': 0, 'rot0': 0, 'rot3': 0, 'rot2': 0, 'state': 'normal', 'yaw': -10.04, 'datetime': '2018-10-12 13:25:30.374412', 'mgs': 0, 'depth': -0.064, 'time': 7.42, 'pitch': 3.07, 'roll': 9.88}
{'lipoC2': 7.94, 'temp': 27.94, 'lipoC3S3': 12.06, 'rot1': 0, 'rot0': 0, 'rot3': 0, 'rot2': 0, 'state': 'normal', 'yaw': -9.89, 'datetime': '2018-10-12 13:25:30.471794', 'mgs': 0, 'depth': -0.064, 'time': 7.51, 'pitch': 3.43, 'roll': 7.8}
{'lipoC2': 7.95, 'temp': 27.94, 'lipoC3S3': 12.06, 'rot1': 0, 'rot0': 0, 'rot3': 0, 'rot2': 0, 'state': 'normal', 'yaw': -8.56, 'datetime': '2018-10-12 13:25:30.569327', 'mgs': 0, 'depth': -0.14, 'time': 7.61, 'pitch': 5.14, 'roll': 3.24}
{'lipoC2': 7.94, 'temp': 27.94, 'lipoC3S3': 12.08, 'rot1': 0, 'rot0': 0, 'rot3': 0, 'rot2': 0, 'state': 'normal', 'yaw': -7.53, 'datetime': '2018-10-12 13:25:30.667225', 'mgs': 0, 'depth': -0.064, 'time': 7.71, 'pitch': 6.9, 'roll': 0.27}
{'lipoC2': 7.95, 'temp': 27.94, 'lipoC3S3': 12.06, 'rot1': 0, 'rot0': 0, 'rot3': 0, 'rot2': 0, 'state': 'normal', 'yaw': -7.3, 'datetime': '2018-10-12 13:25:30.765125', 'mgs': 0, 'depth': -0.064, 'time': 7.81, 'pitch': 7.73, 'roll': -1.47}
{'lipoC2': 7.95, 'temp': 27.94, 'lipoC3S3': 12.06, 'rot1': 0, 'rot0': 0, 'rot3': 0, 'rot2': 0, 'state': 'normal', 'yaw': -8.33, 'datetime': '2018-10-12 13:25:30.862253', 'mgs': 0, 'depth': -0.217, 'time': 7.9, 'pitch': 7.43, 'roll': -2.17}
{'lipoC2': 7.94, 'temp': 28.0, 'lipoC3S3': 12.06, 'rot1': 0, 'rot0': 0, 'rot3': 0, 'rot2': 0, 'state': 'normal', 'yaw': -10.46, 'datetime': '2018-10-12 13:25:30.960195', 'mgs': 0, 'depth': -0.064, 'time': 8.0, 'pitch': 6.72, 'roll': -3.37}
{'lipoC2': 7.95, 'temp': 28.0, 'lipoC3S3': 12.06, 'rot1': 0, 'rot0': 0, 'rot3': 0, 'rot2': 0, 'state': 'normal', 'yaw': -12.1, 'datetime': '2018-10-12 13:25:31.058283', 'mgs': 0, 'depth': -0.064, 'time': 8.1, 'pitch': 6.19, 'roll': -5.75}
{'lipoC2': 7.95, 'temp': 28.0, 'lipoC3S3': 12.06, 'rot1': 0, 'rot0': 0, 'rot3': 0, 'rot2': 0, 'state': 'normal', 'yaw': -12.55, 'datetime': '2018-10-12 13:25:31.155043', 'mgs': 0, 'depth': -0.064, 'time': 8.2, 'pitch': 6.1, 'roll': -8.21}
{'lipoC2': 7.94, 'temp': 28.0, 'lipoC3S3': 12.06, 'rot1': 0, 'rot0': 0, 'rot3': 0, 'rot2': 0, 'state': 'normal', 'yaw': -12.23, 'datetime': '2018-10-12 13:25:31.252281', 'mgs': 0, 'depth': -0.064, 'time': 8.3, 'pitch': 5.86, 'roll': -9.85}
{'lipoC2': 7.94, 'temp': 28.0, 'lipoC3S3': 12.06, 'rot1': 0, 'rot0': 0, 'rot3': 0, 'rot2': 0, 'state': 'normal', 'yaw': -11.33, 'datetime': '2018-10-12 13:25:31.349889', 'mgs': 0, 'depth': -0.064, 'time': 8.39, 'pitch': 5.99, 'roll': -11.28}
{'lipoC2': 7.94, 'temp': 27.94, 'lipoC3S3': 12.06, 'rot1': 0, 'rot0': 0, 'rot3': 0, 'rot2': 0, 'state': 'normal', 'yaw': -9.22, 'datetime': '2018-10-12 13:25:31.447707', 'mgs': 0, 'depth': -0.064, 'time': 8.49, 'pitch': 6.46, 'roll': -13.44}
{'lipoC2': 7.94, 'temp': 27.94, 'lipoC3S3': 12.06, 'rot1': 0, 'rot0': 0, 'rot3': 0, 'rot2': 0, 'state': 'normal', 'yaw': -6.39, 'datetime': '2018-10-12 13:25:31.544327', 'mgs': 0, 'depth': -0.064, 'time': 8.59, 'pitch': 6.28, 'roll': -15.41}
{'lipoC2': 7.94, 'temp': 27.94, 'lipoC3S3': 12.06, 'rot1': 0, 'rot0': 0, 'rot3': 0, 'rot2': 0, 'state': 'normal', 'yaw': -2.82, 'datetime': '2018-10-12 13:25:31.640838', 'mgs': 0, 'depth': 0.012, 'time': 8.68, 'pitch': 5.75, 'roll': -16.75}
{'lipoC2': 7.94, 'temp': 27.94, 'lipoC3S3': 12.06, 'rot1': 0, 'rot0': 0, 'rot3': 0, 'rot2': 0, 'state': 'normal', 'yaw': 0.23, 'datetime': '2018-10-12 13:25:31.737979', 'mgs': 0, 'depth': -0.064, 'time': 8.78, 'pitch': 5.7, 'roll': -17.77}
{'lipoC2': 7.94, 'temp': 27.94, 'lipoC3S3': 12.06, 'rot1': 0, 'rot0': 0, 'rot3': 0, 'rot2': 0, 'state': 'normal', 'yaw': 2.07, 'datetime': '2018-10-12 13:25:31.835129', 'mgs': 0, 'depth': -0.064, 'time': 8.88, 'pitch': 5.98, 'roll': -19.14}
{'lipoC2': 7.95, 'temp': 27.94, 'lipoC3S3': 12.06, 'rot1': 0, 'rot0': 0, 'rot3': 0, 'rot2': 0, 'state': 'normal', 'yaw': 1.98, 'datetime': '2018-10-12 13:25:31.932319', 'mgs': 0, 'depth': -0.064, 'time': 8.98, 'pitch': 5.84, 'roll': -20.25}
{'lipoC2': 7.94, 'temp': 27.94, 'lipoC3S3': 12.06, 'rot1': 0, 'rot0': 0, 'rot3': 0, 'rot2': 0, 'state': 'normal', 'yaw': 0.95, 'datetime': '2018-10-12 13:25:32.030938', 'mgs': 0, 'depth': -0.064, 'time': 9.07, 'pitch': 5.4, 'roll': -20.94}
{'lipoC2': 7.94, 'temp': 27.94, 'lipoC3S3': 12.06, 'rot1': 0, 'rot0': 0, 'rot3': 0, 'rot2': 0, 'state': 'normal', 'yaw': -0.31, 'datetime': '2018-10-12 13:25:32.128934', 'mgs': 0, 'depth': 0.012, 'time': 9.17, 'pitch': 5.29, 'roll': -21.0}
{'lipoC2': 7.94, 'temp': 27.94, 'lipoC3S3': 12.06, 'rot1': 0, 'rot0': 0, 'rot3': 0, 'rot2': 0, 'state': 'normal', 'yaw': -1.75, 'datetime': '2018-10-12 13:25:32.227345', 'mgs': 0, 'depth': -0.064, 'time': 9.27, 'pitch': 5.61, 'roll': -20.37}
{'lipoC2': 7.94, 'temp': 27.94, 'lipoC3S3': 12.06, 'rot1': 0, 'rot0': 0, 'rot3': 0, 'rot2': 0, 'state': 'normal', 'yaw': -3.77, 'datetime': '2018-10-12 13:25:32.323557', 'mgs': 0, 'depth': 0.012, 'time': 9.37, 'pitch': 6.62, 'roll': -19.92}
{'lipoC2': 7.95, 'temp': 27.94, 'lipoC3S3': 12.06, 'rot1': 0, 'rot0': 0, 'rot3': 0, 'rot2': 0, 'state': 'normal', 'yaw': -6.97, 'datetime': '2018-10-12 13:25:32.421804', 'mgs': 0, 'depth': -0.064, 'time': 9.47, 'pitch': 8.06, 'roll': -19.87}
{'lipoC2': 7.95, 'temp': 27.94, 'lipoC3S3': 12.06, 'rot1': 0, 'rot0': 0, 'rot3': 0, 'rot2': 0, 'state': 'normal', 'yaw': -12.49, 'datetime': '2018-10-12 13:25:32.519949', 'mgs': 0, 'depth': -0.064, 'time': 9.56, 'pitch': 9.7, 'roll': -19.86}
{'lipoC2': 7.94, 'temp': 27.94, 'lipoC3S3': 12.06, 'rot1': 0, 'rot0': 0, 'rot3': 0, 'rot2': 0, 'state': 'normal', 'yaw': -20.31, 'datetime': '2018-10-12 13:25:32.617906', 'mgs': 0, 'depth': -0.064, 'time': 9.66, 'pitch': 10.43, 'roll': -20.28}
{'lipoC2': 7.94, 'temp': 27.94, 'lipoC3S3': 12.06, 'rot1': 0, 'rot0': 0, 'rot3': 0, 'rot2': 0, 'state': 'normal', 'yaw': -28.92, 'datetime': '2018-10-12 13:25:32.714967', 'mgs': 0, 'depth': -0.064, 'time': 9.76, 'pitch': 10.93, 'roll': -20.17}
{'lipoC2': 7.94, 'temp': 27.94, 'lipoC3S3': 12.06, 'rot1': 0, 'rot0': 0, 'rot3': 0, 'rot2': 0, 'state': 'normal', 'yaw': -37.48, 'datetime': '2018-10-12 13:25:32.812879', 'mgs': 0, 'depth': -0.064, 'time': 9.86, 'pitch': 11.74, 'roll': -20.09}
{'lipoC2': 7.94, 'temp': 27.94, 'lipoC3S3': 12.08, 'rot1': 0, 'rot0': 0, 'rot3': 0, 'rot2': 0, 'state': 'normal', 'yaw': -48.38, 'datetime': '2018-10-12 13:25:32.911853', 'mgs': 0, 'depth': -0.064, 'time': 9.95, 'pitch': 12.27, 'roll': -20.47}
{'lipoC2': 7.94, 'temp': 27.94, 'lipoC3S3': 12.06, 'rot1': 0, 'rot0': 0, 'rot3': 0, 'rot2': 0, 'state': 'normal', 'yaw': -60.63, 'datetime': '2018-10-12 13:25:33.008159', 'mgs': 0, 'depth': -0.14, 'time': 10.05, 'pitch': 12.11, 'roll': -21.17}
{'lipoC2': 7.94, 'temp': 27.94, 'lipoC3S3': 12.06, 'rot1': 0, 'rot0': 0, 'rot3': 0, 'rot2': 0, 'state': 'normal', 'yaw': -73.23, 'datetime': '2018-10-12 13:25:33.105649', 'mgs': 0, 'depth': -0.064, 'time': 10.15, 'pitch': 12.01, 'roll': -21.74}
{'lipoC2': 7.94, 'temp': 27.94, 'lipoC3S3': 12.06, 'rot1': 0, 'rot0': 0, 'rot3': 0, 'rot2': 0, 'state': 'normal', 'yaw': -85.15, 'datetime': '2018-10-12 13:25:33.202667', 'mgs': 0, 'depth': -0.14, 'time': 10.25, 'pitch': 12.36, 'roll': -22.46}
{'lipoC2': 7.94, 'temp': 27.94, 'lipoC3S3': 12.06, 'rot1': 0, 'rot0': 0, 'rot3': 0, 'rot2': 0, 'state': 'normal', 'yaw': -99.23, 'datetime': '2018-10-12 13:25:33.299969', 'mgs': 0, 'depth': -0.14, 'time': 10.34, 'pitch': 13.02, 'roll': -23.64}
{'lipoC2': 7.94, 'temp': 27.94, 'lipoC3S3': 12.06, 'rot1': 0, 'rot0': 0, 'rot3': 0, 'rot2': 0, 'state': 'normal', 'yaw': -114.06, 'datetime': '2018-10-12 13:25:33.396954', 'mgs': 0, 'depth': -0.14, 'time': 10.44, 'pitch': 13.47, 'roll': -26.01}
{'lipoC2': 7.94, 'temp': 27.94, 'lipoC3S3': 12.06, 'rot1': 0, 'rot0': 0, 'rot3': 0, 'rot2': 0, 'state': 'normal', 'yaw': -129.81, 'datetime': '2018-10-12 13:25:33.494183', 'mgs': 0, 'depth': -0.064, 'time': 10.54, 'pitch': 13.1, 'roll': -28.32}
{'lipoC2': 7.94, 'temp': 27.94, 'lipoC3S3': 12.06, 'rot1': 0, 'rot0': 0, 'rot3': 0, 'rot2': 0, 'state': 'normal', 'yaw': -145.46, 'datetime': '2018-10-12 13:25:33.586480', 'mgs': 0, 'depth': -0.14, 'time': 10.64, 'pitch': 11.43, 'roll': -29.88}
{'lipoC2': 7.94, 'temp': 27.94, 'lipoC3S3': 12.06, 'rot1': 0, 'rot0': 0, 'rot3': 0, 'rot2': 0, 'state': 'normal', 'yaw': -164.06, 'datetime': '2018-10-12 13:25:33.688623', 'mgs': 0, 'depth': -0.14, 'time': 10.73, 'pitch': 8.23, 'roll': -30.42}
{'lipoC2': 7.94, 'temp': 27.94, 'lipoC3S3': 12.06, 'rot1': 0, 'rot0': 0, 'rot3': 0, 'rot2': 0, 'state': 'normal', 'yaw': 177.29, 'datetime': '2018-10-12 13:25:33.786065', 'mgs': 0, 'depth': -0.217, 'time': 10.83, 'pitch': 4.3, 'roll': -29.9}
{'lipoC2': 7.94, 'temp': 27.94, 'lipoC3S3': 12.06, 'rot1': 0, 'rot0': 0, 'rot3': 0, 'rot2': 0, 'state': 'normal', 'yaw': 161.46, 'datetime': '2018-10-12 13:25:33.884186', 'mgs': 0, 'depth': -0.064, 'time': 10.93, 'pitch': 2.22, 'roll': -29.06}
{'lipoC2': 7.95, 'temp': 27.94, 'lipoC3S3': 12.06, 'rot1': 0, 'rot0': 0, 'rot3': 0, 'rot2': 0, 'state': 'normal', 'yaw': 144.69, 'datetime': '2018-10-12 13:25:33.982558', 'mgs': 0, 'depth': -0.064, 'time': 11.03, 'pitch': 2.22, 'roll': -28.17}
{'lipoC2': 7.94, 'temp': 27.94, 'lipoC3S3': 12.06, 'rot1': 0, 'rot0': 0, 'rot3': 0, 'rot2': 0, 'state': 'normal', 'yaw': 128.54, 'datetime': '2018-10-12 13:25:34.080400', 'mgs': 0, 'depth': -0.14, 'time': 11.13, 'pitch': 2.39, 'roll': -27.4}
{'lipoC2': 7.94, 'temp': 28.0, 'lipoC3S3': 12.06, 'rot1': 0, 'rot0': 0, 'rot3': 0, 'rot2': 0, 'state': 'normal', 'yaw': 114.26, 'datetime': '2018-10-12 13:25:34.170398', 'mgs': 0, 'depth': -0.14, 'time': 11.22, 'pitch': 2.44, 'roll': -27.15}
{'lipoC2': 7.94, 'temp': 28.0, 'lipoC3S3': 12.06, 'rot1': 0, 'rot0': 0, 'rot3': 0, 'rot2': 0, 'state': 'normal', 'yaw': 102.38, 'datetime': '2018-10-12 13:25:34.270817', 'mgs': 0, 'depth': -0.14, 'time': 11.32, 'pitch': 2.22, 'roll': -26.15}
{'lipoC2': 7.94, 'temp': 27.94, 'lipoC3S3': 12.08, 'rot1': 0, 'rot0': 0, 'rot3': 0, 'rot2': 0, 'state': 'normal', 'yaw': 89.15, 'datetime': '2018-10-12 13:25:34.366369', 'mgs': 0, 'depth': -0.14, 'time': 11.42, 'pitch': 2.41, 'roll': -24.84}
{'lipoC2': 7.94, 'temp': 27.94, 'lipoC3S3': 12.06, 'rot1': 0, 'rot0': 0, 'rot3': 0, 'rot2': 0, 'state': 'normal', 'yaw': 75.52, 'datetime': '2018-10-12 13:25:34.463946', 'mgs': 0, 'depth': -0.064, 'time': 11.52, 'pitch': 2.67, 'roll': -23.3}
{'lipoC2': 7.94, 'temp': 27.94, 'lipoC3S3': 12.06, 'rot1': 0, 'rot0': 0, 'rot3': 0, 'rot2': 0, 'state': 'normal', 'yaw': 61.33, 'datetime': '2018-10-12 13:25:34.561126', 'mgs': 0, 'depth': -0.14, 'time': 11.61, 'pitch': 2.41, 'roll': -21.75}
{'lipoC2': 7.94, 'temp': 27.94, 'lipoC3S3': 12.06, 'rot1': 0, 'rot0': 0, 'rot3': 0, 'rot2': 0, 'state': 'normal', 'yaw': 48.6, 'datetime': '2018-10-12 13:25:34.658550', 'mgs': 0, 'depth': -0.064, 'time': 11.71, 'pitch': 2.32, 'roll': -21.19}
{'lipoC2': 7.95, 'temp': 27.94, 'lipoC3S3': 12.06, 'rot1': 0, 'rot0': 0, 'rot3': 0, 'rot2': 0, 'state': 'normal', 'yaw': 36.5, 'datetime': '2018-10-12 13:25:34.757973', 'mgs': 0, 'depth': -0.064, 'time': 11.81, 'pitch': 2.98, 'roll': -20.82}
{'lipoC2': 7.94, 'temp': 27.94, 'lipoC3S3': 12.06, 'rot1': 0, 'rot0': 0, 'rot3': 0, 'rot2': 0, 'state': 'normal', 'yaw': 26.95, 'datetime': '2018-10-12 13:25:34.854041', 'mgs': 0, 'depth': -0.14, 'time': 11.91, 'pitch': 4.52, 'roll': -19.12}
{'lipoC2': 7.94, 'temp': 27.94, 'lipoC3S3': 12.06, 'rot1': 0, 'rot0': 0, 'rot3': 0, 'rot2': 0, 'state': 'normal', 'yaw': 18.69, 'datetime': '2018-10-12 13:25:34.951316', 'mgs': 0, 'depth': -0.064, 'time': 12.01, 'pitch': 6.39, 'roll': -16.61}
{'lipoC2': 7.94, 'temp': 27.94, 'lipoC3S3': 12.06, 'rot1': 0, 'rot0': 0, 'rot3': 0, 'rot2': 0, 'state': 'normal', 'yaw': 11.62, 'datetime': '2018-10-12 13:25:35.048512', 'mgs': 0, 'depth': -0.14, 'time': 12.1, 'pitch': 7.86, 'roll': -14.67}
{'lipoC2': 7.94, 'temp': 27.94, 'lipoC3S3': 12.06, 'rot1': 0, 'rot0': 0, 'rot3': 0, 'rot2': 0, 'state': 'normal', 'yaw': 4.51, 'datetime': '2018-10-12 13:25:35.145689', 'mgs': 0, 'depth': -0.14, 'time': 12.2, 'pitch': 8.38, 'roll': -13.72}
{'lipoC2': 7.94, 'temp': 27.94, 'lipoC3S3': 12.06, 'rot1': 0, 'rot0': 0, 'rot3': 0, 'rot2': 0, 'state': 'normal', 'yaw': -1.47, 'datetime': '2018-10-12 13:25:35.242750', 'mgs': 0, 'depth': -0.14, 'time': 12.3, 'pitch': 7.51, 'roll': -13.34}
{'lipoC2': 7.94, 'temp': 27.94, 'lipoC3S3': 12.06, 'rot1': 0, 'rot0': 0, 'rot3': 0, 'rot2': 0, 'state': 'normal', 'yaw': -5.35, 'datetime': '2018-10-12 13:25:35.339923', 'mgs': 0, 'depth': -0.064, 'time': 12.39, 'pitch': 6.3, 'roll': -14.07}
{'lipoC2': 7.94, 'temp': 27.94, 'lipoC3S3': 12.06, 'rot1': 0, 'rot0': 0, 'rot3': 0, 'rot2': 0, 'state': 'normal', 'yaw': -6.8, 'datetime': '2018-10-12 13:25:35.437017', 'mgs': 0, 'depth': -0.064, 'time': 12.49, 'pitch': 4.98, 'roll': -14.56}
{'lipoC2': 7.95, 'temp': 27.94, 'lipoC3S3': 12.06, 'rot1': 0, 'rot0': 0, 'rot3': 0, 'rot2': 0, 'state': 'normal', 'yaw': -4.28, 'datetime': '2018-10-12 13:25:35.534276', 'mgs': 0, 'depth': -0.14, 'time': 12.59, 'pitch': 3.96, 'roll': -14.37}
{'lipoC2': 7.94, 'temp': 27.94, 'lipoC3S3': 12.06, 'rot1': 0, 'rot0': 0, 'rot3': 0, 'rot2': 0, 'state': 'normal', 'yaw': 2.21, 'datetime': '2018-10-12 13:25:35.631392', 'mgs': 0, 'depth': -0.064, 'time': 12.69, 'pitch': 3.43, 'roll': -14.0}
{'lipoC2': 7.94, 'temp': 27.94, 'lipoC3S3': 12.06, 'rot1': 0, 'rot0': 0, 'rot3': 0, 'rot2': 0, 'state': 'normal', 'yaw': 11.53, 'datetime': '2018-10-12 13:25:35.729904', 'mgs': 0, 'depth': -0.064, 'time': 12.78, 'pitch': 3.02, 'roll': -13.96}
{'lipoC2': 7.94, 'temp': 27.94, 'lipoC3S3': 12.06, 'rot1': 0, 'rot0': 0, 'rot3': 0, 'rot2': 0, 'state': 'normal', 'yaw': 25.79, 'datetime': '2018-10-12 13:25:35.828356', 'mgs': 0, 'depth': -0.217, 'time': 12.88, 'pitch': 2.27, 'roll': -14.4}
{'lipoC2': 7.95, 'temp': 27.94, 'lipoC3S3': 12.06, 'rot1': 0, 'rot0': 0, 'rot3': 0, 'rot2': 0, 'state': 'normal', 'yaw': 43.26, 'datetime': '2018-10-12 13:25:35.926073', 'mgs': 0, 'depth': -0.14, 'time': 12.98, 'pitch': 1.42, 'roll': -15.4}
{'lipoC2': 7.94, 'temp': 27.94, 'lipoC3S3': 12.08, 'rot1': 0, 'rot0': 0, 'rot3': 0, 'rot2': 0, 'state': 'normal', 'yaw': 62.05, 'datetime': '2018-10-12 13:25:36.023094', 'mgs': 0, 'depth': -0.217, 'time': 13.08, 'pitch': 0.76, 'roll': -16.41}
{'lipoC2': 7.94, 'temp': 27.94, 'lipoC3S3': 12.06, 'rot1': 0, 'rot0': 0, 'rot3': 0, 'rot2': 0, 'state': 'normal', 'yaw': 78.47, 'datetime': '2018-10-12 13:25:36.121050', 'mgs': 0, 'depth': -0.293, 'time': 13.18, 'pitch': -0.06, 'roll': -17.48}
{'lipoC2': 7.94, 'temp': 27.94, 'lipoC3S3': 12.06, 'rot1': 0, 'rot0': 0, 'rot3': 0, 'rot2': 0, 'state': 'normal', 'yaw': 94.68, 'datetime': '2018-10-12 13:25:36.219369', 'mgs': 0, 'depth': -0.217, 'time': 13.27, 'pitch': -0.8, 'roll': -18.7}
{'lipoC2': 7.94, 'temp': 27.94, 'lipoC3S3': 12.06, 'rot1': 0, 'rot0': 0, 'rot3': 0, 'rot2': 0, 'state': 'normal', 'yaw': 108.29, 'datetime': '2018-10-12 13:25:36.317616', 'mgs': 0, 'depth': -0.14, 'time': 13.37, 'pitch': -0.75, 'roll': -20.0}
{'lipoC2': 7.94, 'temp': 27.94, 'lipoC3S3': 12.06, 'rot1': 0, 'rot0': 0, 'rot3': 0, 'rot2': 0, 'state': 'normal', 'yaw': 118.82, 'datetime': '2018-10-12 13:25:36.414700', 'mgs': 0, 'depth': -0.14, 'time': 13.47, 'pitch': 0.19, 'roll': -20.99}
{'lipoC2': 7.94, 'temp': 27.94, 'lipoC3S3': 12.06, 'rot1': 0, 'rot0': 0, 'rot3': 0, 'rot2': 0, 'state': 'normal', 'yaw': 125.81, 'datetime': '2018-10-12 13:25:36.512118', 'mgs': 0, 'depth': -0.14, 'time': 13.57, 'pitch': 0.65, 'roll': -20.8}
{'lipoC2': 7.94, 'temp': 27.94, 'lipoC3S3': 12.06, 'rot1': 0, 'rot0': 0, 'rot3': 0, 'rot2': 0, 'state': 'normal', 'yaw': 129.14, 'datetime': '2018-10-12 13:25:36.610503', 'mgs': 0, 'depth': -0.217, 'time': 13.67, 'pitch': 0.53, 'roll': -20.15}
{'lipoC2': 7.94, 'temp': 27.94, 'lipoC3S3': 12.06, 'rot1': 0, 'rot0': 0, 'rot3': 0, 'rot2': 0, 'state': 'normal', 'yaw': 129.23, 'datetime': '2018-10-12 13:25:36.707633', 'mgs': 0, 'depth': -0.14, 'time': 13.76, 'pitch': 0.35, 'roll': -19.36}
{'lipoC2': 7.95, 'temp': 27.88, 'lipoC3S3': 12.06, 'rot1': 0, 'rot0': 0, 'rot3': 0, 'rot2': 0, 'state': 'normal', 'yaw': 124.81, 'datetime': '2018-10-12 13:25:36.804706', 'mgs': 0, 'depth': -0.217, 'time': 13.86, 'pitch': 0.16, 'roll': -18.78}
{'lipoC2': 7.94, 'temp': 27.88, 'lipoC3S3': 12.06, 'rot1': 0, 'rot0': 0, 'rot3': 0, 'rot2': 0, 'state': 'normal', 'yaw': 116.92, 'datetime': '2018-10-12 13:25:36.902081', 'mgs': 0, 'depth': -0.14, 'time': 13.96, 'pitch': -0.24, 'roll': -18.38}
{'lipoC2': 7.95, 'temp': 27.88, 'lipoC3S3': 12.06, 'rot1': 0, 'rot0': 0, 'rot3': 0, 'rot2': 0, 'state': 'normal', 'yaw': 104.62, 'datetime': '2018-10-12 13:25:36.999169', 'mgs': 0, 'depth': -0.14, 'time': 14.06, 'pitch': -0.94, 'roll': -17.63}
{'lipoC2': 7.95, 'temp': 27.94, 'lipoC3S3': 12.06, 'rot1': 0, 'rot0': 0, 'rot3': 0, 'rot2': 0, 'state': 'normal', 'yaw': 89.83, 'datetime': '2018-10-12 13:25:37.096340', 'mgs': 0, 'depth': -0.217, 'time': 14.15, 'pitch': -1.32, 'roll': -16.38}
{'lipoC2': 7.94, 'temp': 27.94, 'lipoC3S3': 12.06, 'rot1': 0, 'rot0': 0, 'rot3': 0, 'rot2': 0, 'state': 'normal', 'yaw': 73.56, 'datetime': '2018-10-12 13:25:37.193402', 'mgs': 0, 'depth': -0.14, 'time': 14.25, 'pitch': -0.87, 'roll': -14.83}
{'lipoC2': 7.94, 'temp': 27.94, 'lipoC3S3': 12.06, 'rot1': 0, 'rot0': 0, 'rot3': 0, 'rot2': 0, 'state': 'normal', 'yaw': 58.64, 'datetime': '2018-10-12 13:25:37.290685', 'mgs': 0, 'depth': -0.14, 'time': 14.35, 'pitch': 0.22, 'roll': -13.47}
{'lipoC2': 7.94, 'temp': 27.94, 'lipoC3S3': 12.06, 'rot1': 0, 'rot0': 0, 'rot3': 0, 'rot2': 0, 'state': 'normal', 'yaw': 42.19, 'datetime': '2018-10-12 13:25:37.387644', 'mgs': 0, 'depth': -0.14, 'time': 14.44, 'pitch': 1.76, 'roll': -12.63}
{'lipoC2': 7.94, 'temp': 27.94, 'lipoC3S3': 12.08, 'rot1': 0, 'rot0': 0, 'rot3': 0, 'rot2': 0, 'state': 'normal', 'yaw': 26.38, 'datetime': '2018-10-12 13:25:37.484834', 'mgs': 0, 'depth': -0.14, 'time': 14.54, 'pitch': 3.41, 'roll': -12.35}
{'lipoC2': 7.94, 'temp': 27.94, 'lipoC3S3': 12.06, 'rot1': 0, 'rot0': 0, 'rot3': 0, 'rot2': 0, 'state': 'normal', 'yaw': 13.26, 'datetime': '2018-10-12 13:25:37.583322', 'mgs': 0, 'depth': -0.14, 'time': 14.64, 'pitch': 4.81, 'roll': -12.89}
{'lipoC2': 7.94, 'temp': 27.94, 'lipoC3S3': 12.08, 'rot1': 0, 'rot0': 0, 'rot3': 0, 'rot2': 0, 'state': 'normal', 'yaw': 0.25, 'datetime': '2018-10-12 13:25:37.681771', 'mgs': 0, 'depth': -0.064, 'time': 14.74, 'pitch': 5.66, 'roll': -14.37}
{'lipoC2': 7.94, 'temp': 27.94, 'lipoC3S3': 12.06, 'rot1': 0, 'rot0': 0, 'rot3': 0, 'rot2': 0, 'state': 'normal', 'yaw': -9.87, 'datetime': '2018-10-12 13:25:37.779503', 'mgs': 0, 'depth': -0.064, 'time': 14.84, 'pitch': 6.1, 'roll': -15.37}
{'lipoC2': 7.94, 'temp': 27.94, 'lipoC3S3': 12.06, 'rot1': 0, 'rot0': 0, 'rot3': 0, 'rot2': 0, 'state': 'normal', 'yaw': -17.07, 'datetime': '2018-10-12 13:25:37.876695', 'mgs': 0, 'depth': -0.14, 'time': 14.93, 'pitch': 6.57, 'roll': -16.39}
{'lipoC2': 7.94, 'temp': 27.94, 'lipoC3S3': 12.06, 'rot1': 0, 'rot0': 0, 'rot3': 0, 'rot2': 0, 'state': 'normal', 'yaw': -21.04, 'datetime': '2018-10-12 13:25:37.974394', 'mgs': 0, 'depth': -0.064, 'time': 15.03, 'pitch': 6.59, 'roll': -16.61}
{'lipoC2': 7.94, 'temp': 27.94, 'lipoC3S3': 12.06, 'rot1': 0, 'rot0': 0, 'rot3': 0, 'rot2': 0, 'state': 'normal', 'yaw': -22.68, 'datetime': '2018-10-12 13:25:38.072925', 'mgs': 0, 'depth': -0.064, 'time': 15.13, 'pitch': 6.39, 'roll': -16.67}
{'lipoC2': 7.94, 'temp': 27.94, 'lipoC3S3': 12.06, 'rot1': 0, 'rot0': 0, 'rot3': 0, 'rot2': 0, 'state': 'normal', 'yaw': -21.69, 'datetime': '2018-10-12 13:25:38.170414', 'mgs': 0, 'depth': -0.064, 'time': 15.23, 'pitch': 5.94, 'roll': -17.14}
{'lipoC2': 7.94, 'temp': 27.94, 'lipoC3S3': 12.06, 'rot1': 0, 'rot0': 0, 'rot3': 0, 'rot2': 0, 'state': 'normal', 'yaw': -19.09, 'datetime': '2018-10-12 13:25:38.267531', 'mgs': 0, 'depth': -0.14, 'time': 15.32, 'pitch': 5.6, 'roll': -17.7}
{'lipoC2': 7.95, 'temp': 27.94, 'lipoC3S3': 12.06, 'rot1': 0, 'rot0': 0, 'rot3': 0, 'rot2': 0, 'state': 'normal', 'yaw': -15.09, 'datetime': '2018-10-12 13:25:38.365199', 'mgs': 0, 'depth': -0.14, 'time': 15.42, 'pitch': 5.06, 'roll': -17.91}
{'lipoC2': 7.94, 'temp': 27.94, 'lipoC3S3': 12.06, 'rot1': 0, 'rot0': 0, 'rot3': 0, 'rot2': 0, 'state': 'normal', 'yaw': -8.82, 'datetime': '2018-10-12 13:25:38.463687', 'mgs': 0, 'depth': -0.064, 'time': 15.52, 'pitch': 4.48, 'roll': -17.86}
{'lipoC2': 7.94, 'temp': 27.94, 'lipoC3S3': 12.06, 'rot1': 0, 'rot0': 0, 'rot3': 0, 'rot2': 0, 'state': 'normal', 'yaw': -1.08, 'datetime': '2018-10-12 13:25:38.560812', 'mgs': 0, 'depth': -0.14, 'time': 15.62, 'pitch': 4.07, 'roll': -17.76}
{'lipoC2': 7.94, 'temp': 27.94, 'lipoC3S3': 12.06, 'rot1': 0, 'rot0': 0, 'rot3': 0, 'rot2': 0, 'state': 'normal', 'yaw': 7.89, 'datetime': '2018-10-12 13:25:38.657992', 'mgs': 0, 'depth': -0.064, 'time': 15.72, 'pitch': 3.49, 'roll': -17.25}
{'lipoC2': 7.95, 'temp': 27.94, 'lipoC3S3': 12.06, 'rot1': 0, 'rot0': 0, 'rot3': 0, 'rot2': 0, 'state': 'normal', 'yaw': 16.78, 'datetime': '2018-10-12 13:25:38.755322', 'mgs': 0, 'depth': -0.064, 'time': 15.81, 'pitch': 2.8, 'roll': -16.74}
{'lipoC2': 7.95, 'temp': 27.94, 'lipoC3S3': 12.06, 'rot1': 0, 'rot0': 0, 'rot3': 0, 'rot2': 0, 'state': 'normal', 'yaw': 27.39, 'datetime': '2018-10-12 13:25:38.852460', 'mgs': 0, 'depth': -0.064, 'time': 15.91, 'pitch': 1.89, 'roll': -16.21}
{'lipoC2': 7.94, 'temp': 27.94, 'lipoC3S3': 12.06, 'rot1': 0, 'rot0': 0, 'rot3': 0, 'rot2': 0, 'state': 'normal', 'yaw': 38.68, 'datetime': '2018-10-12 13:25:38.949558', 'mgs': 0, 'depth': -0.14, 'time': 16.01, 'pitch': 0.99, 'roll': -15.74}
{'lipoC2': 7.94, 'temp': 27.94, 'lipoC3S3': 12.06, 'rot1': 0, 'rot0': 0, 'rot3': 0, 'rot2': 0, 'state': 'normal', 'yaw': 50.78, 'datetime': '2018-10-12 13:25:39.046733', 'mgs': 0, 'depth': -0.14, 'time': 16.1, 'pitch': 0.45, 'roll': -15.38}
{'lipoC2': 7.94, 'temp': 27.94, 'lipoC3S3': 12.06, 'rot1': 0, 'rot0': 0, 'rot3': 0, 'rot2': 0, 'state': 'normal', 'yaw': 62.2, 'datetime': '2018-10-12 13:25:39.143794', 'mgs': 0, 'depth': -0.14, 'time': 16.2, 'pitch': 0.32, 'roll': -15.76}
{'lipoC2': 7.94, 'temp': 27.88, 'lipoC3S3': 12.06, 'rot1': 0, 'rot0': 0, 'rot3': 0, 'rot2': 0, 'state': 'normal', 'yaw': 74.26, 'datetime': '2018-10-12 13:25:39.241011', 'mgs': 0, 'depth': -0.14, 'time': 16.3, 'pitch': 0.77, 'roll': -17.44}
{'lipoC2': 7.94, 'temp': 27.88, 'lipoC3S3': 12.06, 'rot1': 0, 'rot0': 0, 'rot3': 0, 'rot2': 0, 'state': 'normal', 'yaw': 84.25, 'datetime': '2018-10-12 13:25:39.346687', 'mgs': 0, 'depth': -0.14, 'time': 16.4, 'pitch': 0.87, 'roll': -19.39}
{'lipoC2': 7.94, 'temp': 27.94, 'lipoC3S3': 12.06, 'rot1': 0, 'rot0': 0, 'rot3': 0, 'rot2': 0, 'state': 'normal', 'yaw': 90.58, 'datetime': '2018-10-12 13:25:39.436458', 'mgs': 0, 'depth': -0.14, 'time': 16.49, 'pitch': 0.12, 'roll': -20.23}
{'lipoC2': 7.94, 'temp': 27.94, 'lipoC3S3': 12.06, 'rot1': 0, 'rot0': 0, 'rot3': 0, 'rot2': 0, 'state': 'normal', 'yaw': 95.27, 'datetime': '2018-10-12 13:25:39.537285', 'mgs': 0, 'depth': -0.14, 'time': 16.59, 'pitch': -1.26, 'roll': -20.29}
{'lipoC2': 7.95, 'temp': 27.94, 'lipoC3S3': 12.06, 'rot1': 0, 'rot0': 0, 'rot3': 0, 'rot2': 0, 'state': 'normal', 'yaw': 97.07, 'datetime': '2018-10-12 13:25:39.637025', 'mgs': 0, 'depth': -0.064, 'time': 16.69, 'pitch': -1.79, 'roll': -20.0}
{'lipoC2': 7.94, 'temp': 27.94, 'lipoC3S3': 12.06, 'rot1': 0, 'rot0': 0, 'rot3': 0, 'rot2': 0, 'state': 'normal', 'yaw': 95.7, 'datetime': '2018-10-12 13:25:39.734171', 'mgs': 0, 'depth': -0.14, 'time': 16.79, 'pitch': -1.2, 'roll': -19.52}
{'lipoC2': 7.95, 'temp': 27.94, 'lipoC3S3': 12.06, 'rot1': 0, 'rot0': 0, 'rot3': 0, 'rot2': 0, 'state': 'normal', 'yaw': 91.69, 'datetime': '2018-10-12 13:25:39.827536', 'mgs': 0, 'depth': -0.217, 'time': 16.89, 'pitch': -0.58, 'roll': -18.78}
{'lipoC2': 7.94, 'temp': 27.88, 'lipoC3S3': 12.06, 'rot1': 0, 'rot0': 0, 'rot3': 0, 'rot2': 0, 'state': 'normal', 'yaw': 84.19, 'datetime': '2018-10-12 13:25:39.928477', 'mgs': 0, 'depth': -0.064, 'time': 16.99, 'pitch': -0.37, 'roll': -17.8}
{'lipoC2': 7.94, 'temp': 27.88, 'lipoC3S3': 12.06, 'rot1': 0, 'rot0': 0, 'rot3': 0, 'rot2': 0, 'state': 'normal', 'yaw': 74.2, 'datetime': '2018-10-12 13:25:40.028620', 'mgs': 0, 'depth': -0.14, 'time': 17.08, 'pitch': 0.22, 'roll': -16.53}
{'lipoC2': 7.94, 'temp': 27.88, 'lipoC3S3': 12.06, 'rot1': 0, 'rot0': 0, 'rot3': 0, 'rot2': 0, 'state': 'normal', 'yaw': 61.79, 'datetime': '2018-10-12 13:25:40.125726', 'mgs': 0, 'depth': -0.064, 'time': 17.18, 'pitch': 1.92, 'roll': -15.2}
{'lipoC2': 7.95, 'temp': 27.94, 'lipoC3S3': 12.06, 'rot1': 0, 'rot0': 0, 'rot3': 0, 'rot2': 0, 'state': 'normal', 'yaw': 47.22, 'datetime': '2018-10-12 13:25:40.222927', 'mgs': 0, 'depth': -0.14, 'time': 17.28, 'pitch': 4.34, 'roll': -14.29}
{'lipoC2': 7.94, 'temp': 27.94, 'lipoC3S3': 12.06, 'rot1': 0, 'rot0': 0, 'rot3': 0, 'rot2': 0, 'state': 'normal', 'yaw': 32.76, 'datetime': '2018-10-12 13:25:40.321519', 'mgs': 0, 'depth': -0.14, 'time': 17.38, 'pitch': 8.45, 'roll': -14.02}
{'lipoC2': 7.94, 'temp': 27.94, 'lipoC3S3': 12.06, 'rot1': 0, 'rot0': 0, 'rot3': 0, 'rot2': 0, 'state': 'normal', 'yaw': 16.55, 'datetime': '2018-10-12 13:25:40.418620', 'mgs': 0, 'depth': -0.064, 'time': 17.47, 'pitch': 15.17, 'roll': -15.31}
{'lipoC2': 7.95, 'temp': 27.94, 'lipoC3S3': 12.06, 'rot1': 0, 'rot0': 0, 'rot3': 0, 'rot2': 0, 'state': 'normal', 'yaw': 0.99, 'datetime': '2018-10-12 13:25:40.515707', 'mgs': 0, 'depth': -0.14, 'time': 17.57, 'pitch': 21.5, 'roll': -18.15}
{'lipoC2': 7.94, 'temp': 27.94, 'lipoC3S3': 12.06, 'rot1': 0, 'rot0': 0, 'rot3': 0, 'rot2': 0, 'state': 'normal', 'yaw': -11.36, 'datetime': '2018-10-12 13:25:40.613224', 'mgs': 0, 'depth': -0.14, 'time': 17.67, 'pitch': 26.03, 'roll': -20.65}
{'lipoC2': 7.94, 'temp': 27.94, 'lipoC3S3': 12.06, 'rot1': 0, 'rot0': 0, 'rot3': 0, 'rot2': 0, 'state': 'normal', 'yaw': -23.11, 'datetime': '2018-10-12 13:25:40.710462', 'mgs': 0, 'depth': -0.064, 'time': 17.76, 'pitch': 29.3, 'roll': -22.45}
{'lipoC2': 7.94, 'temp': 27.94, 'lipoC3S3': 12.06, 'rot1': 0, 'rot0': 0, 'rot3': 0, 'rot2': 0, 'state': 'normal', 'yaw': -33.19, 'datetime': '2018-10-12 13:25:40.807541', 'mgs': 0, 'depth': -0.064, 'time': 17.86, 'pitch': 31.14, 'roll': -22.93}
{'lipoC2': 7.94, 'temp': 28.0, 'lipoC3S3': 12.06, 'rot1': 0, 'rot0': 0, 'rot3': 0, 'rot2': 0, 'state': 'normal', 'yaw': -42.16, 'datetime': '2018-10-12 13:25:40.904926', 'mgs': 0, 'depth': -0.064, 'time': 17.96, 'pitch': 32.76, 'roll': -24.16}
{'lipoC2': 7.94, 'temp': 28.0, 'lipoC3S3': 12.06, 'rot1': 0, 'rot0': 0, 'rot3': 0, 'rot2': 0, 'state': 'normal', 'yaw': -50.73, 'datetime': '2018-10-12 13:25:41.002179', 'mgs': 0, 'depth': -0.14, 'time': 18.06, 'pitch': 33.27, 'roll': -25.4}
{'lipoC2': 7.94, 'temp': 28.0, 'lipoC3S3': 12.06, 'rot1': 0, 'rot0': 0, 'rot3': 0, 'rot2': 0, 'state': 'normal', 'yaw': -61.16, 'datetime': '2018-10-12 13:25:41.099059', 'mgs': 0, 'depth': 0.012, 'time': 18.15, 'pitch': 33.01, 'roll': -27.02}
{'lipoC2': 7.94, 'temp': 27.94, 'lipoC3S3': 12.06, 'rot1': 0, 'rot0': 0, 'rot3': 0, 'rot2': 0, 'state': 'normal', 'yaw': -72.25, 'datetime': '2018-10-12 13:25:41.195152', 'mgs': 0, 'depth': -0.064, 'time': 18.25, 'pitch': 33.26, 'roll': -29.36}
{'lipoC2': 7.94, 'temp': 27.94, 'lipoC3S3': 12.06, 'rot1': 0, 'rot0': 0, 'rot3': 0, 'rot2': 0, 'state': 'normal', 'yaw': -81.91, 'datetime': '2018-10-12 13:25:41.294438', 'mgs': 0, 'depth': -0.064, 'time': 18.35, 'pitch': 34.35, 'roll': -31.27}
{'lipoC2': 7.94, 'temp': 27.94, 'lipoC3S3': 12.06, 'rot1': 0, 'rot0': 0, 'rot3': 0, 'rot2': 0, 'state': 'normal', 'yaw': -91.96, 'datetime': '2018-10-12 13:25:41.392997', 'mgs': 0, 'depth': -0.064, 'time': 18.45, 'pitch': 35.39, 'roll': -32.43}
{'lipoC2': 7.95, 'temp': 27.94, 'lipoC3S3': 12.05, 'rot1': 0, 'rot0': 0, 'rot3': 0, 'rot2': 0, 'state': 'normal', 'yaw': -100.91, 'datetime': '2018-10-12 13:25:41.491603', 'mgs': 0, 'depth': -0.14, 'time': 18.55, 'pitch': 35.15, 'roll': -33.49}
{'lipoC2': 7.94, 'temp': 27.94, 'lipoC3S3': 12.06, 'rot1': 0, 'rot0': 0, 'rot3': 0, 'rot2': 0, 'state': 'normal', 'yaw': -106.88, 'datetime': '2018-10-12 13:25:41.588962', 'mgs': 0, 'depth': -0.14, 'time': 18.64, 'pitch': 33.49, 'roll': -33.74}
{'lipoC2': 7.94, 'temp': 27.94, 'lipoC3S3': 12.06, 'rot1': 0, 'rot0': 0, 'rot3': 0, 'rot2': 0, 'state': 'normal', 'yaw': -109.12, 'datetime': '2018-10-12 13:25:41.685981', 'mgs': 0, 'depth': 0.012, 'time': 18.74, 'pitch': 32.09, 'roll': -33.86}
{'lipoC2': 7.94, 'temp': 27.94, 'lipoC3S3': 12.06, 'rot1': 0, 'rot0': 0, 'rot3': 0, 'rot2': 0, 'state': 'normal', 'yaw': -107.76, 'datetime': '2018-10-12 13:25:41.784875', 'mgs': 0, 'depth': -0.064, 'time': 18.84, 'pitch': 31.21, 'roll': -33.65}
{'lipoC2': 7.95, 'temp': 27.94, 'lipoC3S3': 12.06, 'rot1': 0, 'rot0': 0, 'rot3': 0, 'rot2': 0, 'state': 'normal', 'yaw': -102.85, 'datetime': '2018-10-12 13:25:41.883201', 'mgs': 0, 'depth': -0.064, 'time': 18.94, 'pitch': 30.45, 'roll': -33.2}
{'lipoC2': 7.94, 'temp': 27.94, 'lipoC3S3': 12.06, 'rot1': 0, 'rot0': 0, 'rot3': 0, 'rot2': 0, 'state': 'normal', 'yaw': -94.95, 'datetime': '2018-10-12 13:25:41.980427', 'mgs': 0, 'depth': 0.012, 'time': 19.04, 'pitch': 29.85, 'roll': -32.26}
{'lipoC2': 7.94, 'temp': 27.94, 'lipoC3S3': 12.06, 'rot1': 0, 'rot0': 0, 'rot3': 0, 'rot2': 0, 'state': 'normal', 'yaw': -85.14, 'datetime': '2018-10-12 13:25:42.077526', 'mgs': 0, 'depth': -0.14, 'time': 19.13, 'pitch': 29.25, 'roll': -30.92}
{'lipoC2': 7.94, 'temp': 27.94, 'lipoC3S3': 12.06, 'rot1': 0, 'rot0': 0, 'rot3': 0, 'rot2': 0, 'state': 'normal', 'yaw': -75.22, 'datetime': '2018-10-12 13:25:42.174325', 'mgs': 0, 'depth': -0.064, 'time': 19.23, 'pitch': 28.44, 'roll': -29.25}
{'lipoC2': 7.94, 'temp': 27.94, 'lipoC3S3': 12.06, 'rot1': 0, 'rot0': 0, 'rot3': 0, 'rot2': 0, 'state': 'normal', 'yaw': -64.27, 'datetime': '2018-10-12 13:25:42.274176', 'mgs': 0, 'depth': -0.14, 'time': 19.33, 'pitch': 26.56, 'roll': -27.42}
{'lipoC2': 7.94, 'temp': 27.94, 'lipoC3S3': 12.06, 'rot1': 0, 'rot0': 0, 'rot3': 0, 'rot2': 0, 'state': 'normal', 'yaw': -54.16, 'datetime': '2018-10-12 13:25:42.371332', 'mgs': 0, 'depth': -0.064, 'time': 19.43, 'pitch': 24.01, 'roll': -26.09}
{'lipoC2': 7.95, 'temp': 27.94, 'lipoC3S3': 12.06, 'rot1': 0, 'rot0': 0, 'rot3': 0, 'rot2': 0, 'state': 'normal', 'yaw': -44.69, 'datetime': '2018-10-12 13:25:42.468503', 'mgs': 0, 'depth': -0.064, 'time': 19.52, 'pitch': 21.61, 'roll': -25.73}
{'lipoC2': 7.94, 'temp': 27.94, 'lipoC3S3': 12.06, 'rot1': 0, 'rot0': 0, 'rot3': 0, 'rot2': 0, 'state': 'normal', 'yaw': -36.6, 'datetime': '2018-10-12 13:25:42.565890', 'mgs': 0, 'depth': -0.064, 'time': 19.62, 'pitch': 19.92, 'roll': -26.22}
{'lipoC2': 7.94, 'temp': 27.94, 'lipoC3S3': 12.06, 'rot1': 0, 'rot0': 0, 'rot3': 0, 'rot2': 0, 'state': 'normal', 'yaw': -27.86, 'datetime': '2018-10-12 13:25:42.663241', 'mgs': 0, 'depth': -0.14, 'time': 19.72, 'pitch': 18.74, 'roll': -26.96}
{'lipoC2': 7.94, 'temp': 27.94, 'lipoC3S3': 12.06, 'rot1': 0, 'rot0': 0, 'rot3': 0, 'rot2': 0, 'state': 'normal', 'yaw': -19.52, 'datetime': '2018-10-12 13:25:42.760468', 'mgs': 0, 'depth': -0.14, 'time': 19.82, 'pitch': 18.07, 'roll': -27.27}
{'lipoC2': 7.94, 'temp': 27.94, 'lipoC3S3': 12.06, 'rot1': 0, 'rot0': 0, 'rot3': 0, 'rot2': 0, 'state': 'normal', 'yaw': -11.49, 'datetime': '2018-10-12 13:25:42.857662', 'mgs': 0, 'depth': -0.064, 'time': 19.91, 'pitch': 17.97, 'roll': -27.06}
{'lipoC2': 7.94, 'temp': 27.94, 'lipoC3S3': 12.06, 'rot1': 0, 'rot0': 0, 'rot3': 0, 'rot2': 0, 'state': 'normal', 'yaw': -4.11, 'datetime': '2018-10-12 13:25:42.954816', 'mgs': 0, 'depth': -0.064, 'time': 20.01, 'pitch': 18.16, 'roll': -26.75}
{'lipoC2': 7.94, 'temp': 27.94, 'lipoC3S3': 12.06, 'rot1': 0, 'rot0': 0, 'rot3': 0, 'rot2': 0, 'state': 'normal', 'yaw': 4.81, 'datetime': '2018-10-12 13:25:43.052232', 'mgs': 0, 'depth': -0.064, 'time': 20.11, 'pitch': 17.83, 'roll': -25.3}
{'lipoC2': 7.94, 'temp': 27.94, 'lipoC3S3': 12.06, 'rot1': 0, 'rot0': 0, 'rot3': 0, 'rot2': 0, 'state': 'normal', 'yaw': 13.97, 'datetime': '2018-10-12 13:25:43.149331', 'mgs': 0, 'depth': -0.064, 'time': 20.21, 'pitch': 16.31, 'roll': -24.26}
{'lipoC2': 7.94, 'temp': 27.94, 'lipoC3S3': 12.06, 'rot1': 0, 'rot0': 0, 'rot3': 0, 'rot2': 0, 'state': 'normal', 'yaw': 22.57, 'datetime': '2018-10-12 13:25:43.246059', 'mgs': 0, 'depth': -0.14, 'time': 20.3, 'pitch': 14.78, 'roll': -23.74}
{'lipoC2': 7.94, 'temp': 27.88, 'lipoC3S3': 12.06, 'rot1': 0, 'rot0': 0, 'rot3': 0, 'rot2': 0, 'state': 'normal', 'yaw': 31.85, 'datetime': '2018-10-12 13:25:43.344512', 'mgs': 0, 'depth': -0.064, 'time': 20.4, 'pitch': 12.89, 'roll': -22.45}
{'lipoC2': 7.94, 'temp': 27.88, 'lipoC3S3': 12.06, 'rot1': 0, 'rot0': 0, 'rot3': 0, 'rot2': 0, 'state': 'normal', 'yaw': 39.31, 'datetime': '2018-10-12 13:25:43.444172', 'mgs': 0, 'depth': -0.064, 'time': 20.5, 'pitch': 9.97, 'roll': -20.5}
{'lipoC2': 7.94, 'temp': 27.88, 'lipoC3S3': 12.06, 'rot1': 0, 'rot0': 0, 'rot3': 0, 'rot2': 0, 'state': 'normal', 'yaw': 45.94, 'datetime': '2018-10-12 13:25:43.541275', 'mgs': 0, 'depth': -0.064, 'time': 20.6, 'pitch': 5.64, 'roll': -18.14}
{'lipoC2': 7.94, 'temp': 27.94, 'lipoC3S3': 12.06, 'rot1': 0, 'rot0': 0, 'rot3': 0, 'rot2': 0, 'state': 'normal', 'yaw': 53.0, 'datetime': '2018-10-12 13:25:43.638510', 'mgs': 0, 'depth': -0.064, 'time': 20.7, 'pitch': 1.69, 'roll': -18.73}
{'lipoC2': 7.94, 'temp': 27.94, 'lipoC3S3': 12.06, 'rot1': 0, 'rot0': 0, 'rot3': 0, 'rot2': 0, 'state': 'normal', 'yaw': 60.04, 'datetime': '2018-10-12 13:25:43.736873', 'mgs': 0, 'depth': -0.064, 'time': 20.8, 'pitch': 1.09, 'roll': -22.44}
{'lipoC2': 7.94, 'temp': 27.94, 'lipoC3S3': 12.06, 'rot1': 0, 'rot0': 0, 'rot3': 0, 'rot2': 0, 'state': 'normal', 'yaw': 67.28, 'datetime': '2018-10-12 13:25:43.835262', 'mgs': 0, 'depth': 0.012, 'time': 20.89, 'pitch': 2.73, 'roll': -23.64}
{'lipoC2': 7.94, 'temp': 27.94, 'lipoC3S3': 12.06, 'rot1': 0, 'rot0': 0, 'rot3': 0, 'rot2': 0, 'state': 'normal', 'yaw': 72.94, 'datetime': '2018-10-12 13:25:43.932344', 'mgs': 0, 'depth': -0.064, 'time': 20.99, 'pitch': 5.47, 'roll': -27.92}
{'lipoC2': 7.94, 'temp': 27.94, 'lipoC3S3': 12.05, 'rot1': 0, 'rot0': 0, 'rot3': 0, 'rot2': 0, 'state': 'normal', 'yaw': 75.95, 'datetime': '2018-10-12 13:25:44.029451', 'mgs': 0, 'depth': -0.064, 'time': 21.09, 'pitch': 8.95, 'roll': -30.84}
{'lipoC2': 7.94, 'temp': 27.94, 'lipoC3S3': 12.06, 'rot1': 0, 'rot0': 0, 'rot3': 0, 'rot2': 0, 'state': 'normal', 'yaw': 76.4, 'datetime': '2018-10-12 13:25:44.127998', 'mgs': 0, 'depth': -0.064, 'time': 21.19, 'pitch': 12.22, 'roll': -33.81}
{'lipoC2': 7.94, 'temp': 27.94, 'lipoC3S3': 12.06, 'rot1': 0, 'rot0': 0, 'rot3': 0, 'rot2': 0, 'state': 'normal', 'yaw': 74.99, 'datetime': '2018-10-12 13:25:44.225186', 'mgs': 0, 'depth': -0.064, 'time': 21.28, 'pitch': 15.05, 'roll': -35.73}
{'lipoC2': 7.95, 'temp': 27.94, 'lipoC3S3': 12.06, 'rot1': 0, 'rot0': 0, 'rot3': 0, 'rot2': 0, 'state': 'normal', 'yaw': 72.13, 'datetime': '2018-10-12 13:25:44.317971', 'mgs': 0, 'depth': -0.064, 'time': 21.38, 'pitch': 14.94, 'roll': -34.75}
{'lipoC2': 7.94, 'temp': 27.94, 'lipoC3S3': 12.06, 'rot1': 0, 'rot0': 0, 'rot3': 0, 'rot2': 0, 'state': 'normal', 'yaw': 67.52, 'datetime': '2018-10-12 13:25:44.419202', 'mgs': 0, 'depth': -0.064, 'time': 21.48, 'pitch': 14.14, 'roll': -35.56}
{'lipoC2': 7.94, 'temp': 27.94, 'lipoC3S3': 12.05, 'rot1': 0, 'rot0': 0, 'rot3': 0, 'rot2': 0, 'state': 'normal', 'yaw': 60.9, 'datetime': '2018-10-12 13:25:44.517105', 'mgs': 0, 'depth': -0.14, 'time': 21.58, 'pitch': 14.11, 'roll': -39.48}
{'lipoC2': 7.94, 'temp': 27.94, 'lipoC3S3': 12.06, 'rot1': 0, 'rot0': 0, 'rot3': 0, 'rot2': 0, 'state': 'normal', 'yaw': 54.43, 'datetime': '2018-10-12 13:25:44.614272', 'mgs': 0, 'depth': -0.064, 'time': 21.67, 'pitch': 15.85, 'roll': -44.87}
{'lipoC2': 7.94, 'temp': 27.94, 'lipoC3S3': 12.05, 'rot1': 0, 'rot0': 0, 'rot3': 0, 'rot2': 0, 'state': 'normal', 'yaw': 49.12, 'datetime': '2018-10-12 13:25:44.711473', 'mgs': 0, 'depth': -0.064, 'time': 21.77, 'pitch': 17.54, 'roll': -49.74}
{'lipoC2': 7.94, 'temp': 27.94, 'lipoC3S3': 12.06, 'rot1': 0, 'rot0': 0, 'rot3': 0, 'rot2': 0, 'state': 'normal', 'yaw': 46.06, 'datetime': '2018-10-12 13:25:44.808824', 'mgs': 0, 'depth': -0.064, 'time': 21.87, 'pitch': 19.15, 'roll': -51.92}
{'lipoC2': 7.94, 'temp': 27.94, 'lipoC3S3': 12.06, 'rot1': 0, 'rot0': 0, 'rot3': 0, 'rot2': 0, 'state': 'normal', 'yaw': 44.46, 'datetime': '2018-10-12 13:25:44.905928', 'mgs': 0, 'depth': -0.064, 'time': 21.97, 'pitch': 21.01, 'roll': -51.84}
{'lipoC2': 7.94, 'temp': 27.94, 'lipoC3S3': 12.06, 'rot1': 0, 'rot0': 0, 'rot3': 0, 'rot2': 0, 'state': 'normal', 'yaw': 42.08, 'datetime': '2018-10-12 13:25:45.003030', 'mgs': 0, 'depth': -0.064, 'time': 22.06, 'pitch': 21.63, 'roll': -51.78}
{'lipoC2': 7.94, 'temp': 27.94, 'lipoC3S3': 12.06, 'rot1': 0, 'rot0': 0, 'rot3': 0, 'rot2': 0, 'state': 'normal', 'yaw': 39.38, 'datetime': '2018-10-12 13:25:45.101036', 'mgs': 0, 'depth': -0.064, 'time': 22.16, 'pitch': 21.64, 'roll': -52.27}
{'lipoC2': 7.94, 'temp': 27.94, 'lipoC3S3': 12.06, 'rot1': 0, 'rot0': 0, 'rot3': 0, 'rot2': 0, 'state': 'normal', 'yaw': 36.34, 'datetime': '2018-10-12 13:25:45.199585', 'mgs': 0, 'depth': -0.064, 'time': 22.26, 'pitch': 21.92, 'roll': -52.57}
{'lipoC2': 7.94, 'temp': 27.94, 'lipoC3S3': 12.06, 'rot1': 0, 'rot0': 0, 'rot3': 0, 'rot2': 0, 'state': 'normal', 'yaw': 32.63, 'datetime': '2018-10-12 13:25:45.297957', 'mgs': 0, 'depth': 0.012, 'time': 22.36, 'pitch': 22.29, 'roll': -53.38}
{'lipoC2': 7.94, 'temp': 27.94, 'lipoC3S3': 12.06, 'rot1': 0, 'rot0': 0, 'rot3': 0, 'rot2': 0, 'state': 'normal', 'yaw': 27.99, 'datetime': '2018-10-12 13:25:45.393665', 'mgs': 0, 'depth': 0.012, 'time': 22.45, 'pitch': 22.88, 'roll': -54.21}
{'lipoC2': 7.94, 'temp': 27.94, 'lipoC3S3': 12.06, 'rot1': 0, 'rot0': 0, 'rot3': 0, 'rot2': 0, 'state': 'normal', 'yaw': 23.36, 'datetime': '2018-10-12 13:25:45.492228', 'mgs': 0, 'depth': 0.012, 'time': 22.55, 'pitch': 22.66, 'roll': -54.12}
{'lipoC2': 7.94, 'temp': 27.94, 'lipoC3S3': 12.06, 'rot1': 0, 'rot0': 0, 'rot3': 0, 'rot2': 0, 'state': 'normal', 'yaw': 18.87, 'datetime': '2018-10-12 13:25:45.590699', 'mgs': 0, 'depth': 0.012, 'time': 22.65, 'pitch': 20.78, 'roll': -53.34}
{'lipoC2': 7.94, 'temp': 27.94, 'lipoC3S3': 12.06, 'rot1': 0, 'rot0': 0, 'rot3': 0, 'rot2': 0, 'state': 'normal', 'yaw': 13.98, 'datetime': '2018-10-12 13:25:45.684802', 'mgs': 0, 'depth': -0.064, 'time': 22.75, 'pitch': 18.33, 'roll': -52.17}
{'lipoC2': 7.94, 'temp': 27.94, 'lipoC3S3': 12.06, 'rot1': 0, 'rot0': 0, 'rot3': 0, 'rot2': 0, 'state': 'normal', 'yaw': 10.3, 'datetime': '2018-10-12 13:25:45.781925', 'mgs': 0, 'depth': 0.012, 'time': 22.85, 'pitch': 17.0, 'roll': -51.55}
{'lipoC2': 7.94, 'temp': 27.94, 'lipoC3S3': 12.06, 'rot1': 0, 'rot0': 0, 'rot3': 0, 'rot2': 0, 'state': 'normal', 'yaw': 8.39, 'datetime': '2018-10-12 13:25:45.879131', 'mgs': 0, 'depth': -0.064, 'time': 22.94, 'pitch': 16.28, 'roll': -50.29}
{'lipoC2': 7.94, 'temp': 27.94, 'lipoC3S3': 12.05, 'rot1': 0, 'rot0': 0, 'rot3': 0, 'rot2': 0, 'state': 'normal', 'yaw': 7.18, 'datetime': '2018-10-12 13:25:45.977378', 'mgs': 0, 'depth': 0.012, 'time': 23.04, 'pitch': 16.09, 'roll': -49.39}
{'lipoC2': 7.94, 'temp': 27.94, 'lipoC3S3': 12.06, 'rot1': 0, 'rot0': 0, 'rot3': 0, 'rot2': 0, 'state': 'normal', 'yaw': 6.03, 'datetime': '2018-10-12 13:25:46.075349', 'mgs': 0, 'depth': 0.012, 'time': 23.14, 'pitch': 15.24, 'roll': -48.9}
{'lipoC2': 7.95, 'temp': 27.94, 'lipoC3S3': 12.06, 'rot1': 0, 'rot0': 0, 'rot3': 0, 'rot2': 0, 'state': 'normal', 'yaw': 5.87, 'datetime': '2018-10-12 13:25:46.172365', 'mgs': 0, 'depth': 0.012, 'time': 23.24, 'pitch': 13.73, 'roll': -47.69}
{'lipoC2': 7.94, 'temp': 27.94, 'lipoC3S3': 12.06, 'rot1': 0, 'rot0': 0, 'rot3': 0, 'rot2': 0, 'state': 'normal', 'yaw': 6.53, 'datetime': '2018-10-12 13:25:46.272852', 'mgs': 0, 'depth': -0.064, 'time': 23.33, 'pitch': 12.78, 'roll': -46.21}
{'lipoC2': 7.94, 'temp': 27.94, 'lipoC3S3': 12.06, 'rot1': 0, 'rot0': 0, 'rot3': 0, 'rot2': 0, 'state': 'normal', 'yaw': 7.65, 'datetime': '2018-10-12 13:25:46.366535', 'mgs': 0, 'depth': 0.012, 'time': 23.43, 'pitch': 12.27, 'roll': -44.59}
{'lipoC2': 7.94, 'temp': 27.94, 'lipoC3S3': 12.06, 'rot1': 0, 'rot0': 0, 'rot3': 0, 'rot2': 0, 'state': 'normal', 'yaw': 9.42, 'datetime': '2018-10-12 13:25:46.463582', 'mgs': 0, 'depth': 0.012, 'time': 23.53, 'pitch': 11.5, 'roll': -41.22}
{'lipoC2': 7.94, 'temp': 27.94, 'lipoC3S3': 12.06, 'rot1': 0, 'rot0': 0, 'rot3': 0, 'rot2': 0, 'state': 'normal', 'yaw': 11.36, 'datetime': '2018-10-12 13:25:46.560774', 'mgs': 0, 'depth': -0.064, 'time': 23.63, 'pitch': 10.07, 'roll': -37.64}
{'lipoC2': 7.95, 'temp': 27.94, 'lipoC3S3': 12.06, 'rot1': 0, 'rot0': 0, 'rot3': 0, 'rot2': 0, 'state': 'normal', 'yaw': 12.45, 'datetime': '2018-10-12 13:25:46.657851', 'mgs': 0, 'depth': -0.064, 'time': 23.72, 'pitch': 8.77, 'roll': -34.91}
{'lipoC2': 7.94, 'temp': 27.94, 'lipoC3S3': 12.06, 'rot1': 0, 'rot0': 0, 'rot3': 0, 'rot2': 0, 'state': 'normal', 'yaw': 13.08, 'datetime': '2018-10-12 13:25:46.754957', 'mgs': 0, 'depth': -0.064, 'time': 23.82, 'pitch': 7.05, 'roll': -31.85}
{'lipoC2': 7.94, 'temp': 27.94, 'lipoC3S3': 12.06, 'rot1': 0, 'rot0': 0, 'rot3': 0, 'rot2': 0, 'state': 'normal', 'yaw': 13.4, 'datetime': '2018-10-12 13:25:46.852135', 'mgs': 0, 'depth': -0.064, 'time': 23.92, 'pitch': 5.16, 'roll': -27.79}
{'lipoC2': 7.94, 'temp': 27.88, 'lipoC3S3': 12.06, 'rot1': 0, 'rot0': 0, 'rot3': 0, 'rot2': 0, 'state': 'normal', 'yaw': 13.51, 'datetime': '2018-10-12 13:25:46.949704', 'mgs': 0, 'depth': -0.064, 'time': 24.01, 'pitch': 3.71, 'roll': -23.38}
{'lipoC2': 7.94, 'temp': 27.88, 'lipoC3S3': 12.06, 'rot1': 0, 'rot0': 0, 'rot3': 0, 'rot2': 0, 'state': 'normal', 'yaw': 13.22, 'datetime': '2018-10-12 13:25:47.048126', 'mgs': 0, 'depth': -0.064, 'time': 24.11, 'pitch': 2.93, 'roll': -20.48}
{'lipoC2': 7.94, 'temp': 27.88, 'lipoC3S3': 12.06, 'rot1': 0, 'rot0': 0, 'rot3': 0, 'rot2': 0, 'state': 'normal', 'yaw': 12.77, 'datetime': '2018-10-12 13:25:47.146418', 'mgs': 0, 'depth': -0.064, 'time': 24.21, 'pitch': 2.77, 'roll': -18.19}
{'lipoC2': 7.94, 'temp': 27.94, 'lipoC3S3': 12.06, 'rot1': 0, 'rot0': 0, 'rot3': 0, 'rot2': 0, 'state': 'normal', 'yaw': 12.17, 'datetime': '2018-10-12 13:25:47.243552', 'mgs': 0, 'depth': -0.14, 'time': 24.31, 'pitch': 2.86, 'roll': -16.08}
{'lipoC2': 7.94, 'temp': 27.94, 'lipoC3S3': 12.06, 'rot1': 0, 'rot0': 0, 'rot3': 0, 'rot2': 0, 'state': 'normal', 'yaw': 11.39, 'datetime': '2018-10-12 13:25:47.340751', 'mgs': 0, 'depth': -0.064, 'time': 24.41, 'pitch': 2.77, 'roll': -14.2}
{'lipoC2': 7.94, 'temp': 27.94, 'lipoC3S3': 12.06, 'rot1': 0, 'rot0': 0, 'rot3': 0, 'rot2': 0, 'state': 'normal', 'yaw': 10.47, 'datetime': '2018-10-12 13:25:47.439161', 'mgs': 0, 'depth': -0.14, 'time': 24.5, 'pitch': 2.9, 'roll': -12.65}
{'lipoC2': 7.94, 'temp': 27.94, 'lipoC3S3': 12.06, 'rot1': 0, 'rot0': 0, 'rot3': 0, 'rot2': 0, 'state': 'normal', 'yaw': 9.2, 'datetime': '2018-10-12 13:25:47.537521', 'mgs': 0, 'depth': -0.217, 'time': 24.6, 'pitch': 3.28, 'roll': -11.41}
{'lipoC2': 7.94, 'temp': 27.94, 'lipoC3S3': 12.06, 'rot1': 0, 'rot0': 0, 'rot3': 0, 'rot2': 0, 'state': 'normal', 'yaw': 7.83, 'datetime': '2018-10-12 13:25:47.634702', 'mgs': 0, 'depth': -0.14, 'time': 24.7, 'pitch': 3.9, 'roll': -10.49}
{'lipoC2': 7.94, 'temp': 27.94, 'lipoC3S3': 12.05, 'rot1': 0, 'rot0': 0, 'rot3': 0, 'rot2': 0, 'state': 'normal', 'yaw': 6.33, 'datetime': '2018-10-12 13:25:47.731821', 'mgs': 0, 'depth': -0.14, 'time': 24.8, 'pitch': 4.4, 'roll': -9.13}
{'lipoC2': 7.94, 'temp': 27.94, 'lipoC3S3': 12.06, 'rot1': 0, 'rot0': 0, 'rot3': 0, 'rot2': 0, 'state': 'normal', 'yaw': 5.0, 'datetime': '2018-10-12 13:25:47.830814', 'mgs': 0, 'depth': -0.064, 'time': 24.9, 'pitch': 4.28, 'roll': -7.35}
{'lipoC2': 7.94, 'temp': 27.94, 'lipoC3S3': 12.06, 'rot1': 0, 'rot0': 0, 'rot3': 0, 'rot2': 0, 'state': 'normal', 'yaw': 3.6, 'datetime': '2018-10-12 13:25:47.928278', 'mgs': 0, 'depth': -0.14, 'time': 24.99, 'pitch': 3.67, 'roll': -5.11}
{'lipoC2': 7.94, 'temp': 27.94, 'lipoC3S3': 12.06, 'rot1': 0, 'rot0': 0, 'rot3': 0, 'rot2': 0, 'state': 'normal', 'yaw': 2.43, 'datetime': '2018-10-12 13:25:48.025409', 'mgs': 0, 'depth': -0.14, 'time': 25.09, 'pitch': 3.07, 'roll': -3.37}
{'lipoC2': 7.94, 'temp': 27.94, 'lipoC3S3': 12.06, 'rot1': 0, 'rot0': 0, 'rot3': 0, 'rot2': 0, 'state': 'normal', 'yaw': 1.57, 'datetime': '2018-10-12 13:25:48.122554', 'mgs': 0, 'depth': -0.14, 'time': 25.19, 'pitch': 2.97, 'roll': -2.19}
{'lipoC2': 7.94, 'temp': 27.88, 'lipoC3S3': 12.06, 'rot1': 0, 'rot0': 0, 'rot3': 0, 'rot2': 0, 'state': 'normal', 'yaw': 1.01, 'datetime': '2018-10-12 13:25:48.219667', 'mgs': 0, 'depth': -0.064, 'time': 25.29, 'pitch': 3.26, 'roll': -1.29}
{'lipoC2': 7.94, 'temp': 27.88, 'lipoC3S3': 12.06, 'rot1': 0, 'rot0': 0, 'rot3': 0, 'rot2': 0, 'state': 'normal', 'yaw': 0.5, 'datetime': '2018-10-12 13:25:48.316794', 'mgs': 0, 'depth': -0.064, 'time': 25.38, 'pitch': 3.32, 'roll': -0.71}
