{'lipoC2': 8.14, 'temp': 27.13, 'lipoC3S3': 12.59, 'rot1': 0, 'rot0': 0, 'rot3': 0, 'rot2': 0, 'state': 'normal', 'yaw': 0.0, 'datetime': '2018-10-12 15:23:16.780017', 'mgs': 0, 'depth': -0.446, 'time': 1.26, 'pitch': -0.45, 'roll': -4.46}
{'lipoC2': 8.14, 'temp': 27.13, 'lipoC3S3': 12.59, 'rot1': 0, 'rot0': 0, 'rot3': 0, 'rot2': 0, 'state': 'normal', 'yaw': 0.08, 'datetime': '2018-10-12 15:23:16.797884', 'mgs': 0, 'depth': -0.446, 'time': 1.36, 'pitch': -0.44, 'roll': -5.51}
{'lipoC2': 8.14, 'temp': 27.13, 'lipoC3S3': 12.59, 'rot1': 0, 'rot0': 0, 'rot3': 0, 'rot2': 0, 'state': 'normal', 'yaw': 0.28, 'datetime': '2018-10-12 15:23:16.815939', 'mgs': 0, 'depth': -0.446, 'time': 1.46, 'pitch': -0.22, 'roll': -5.93}
{'lipoC2': 8.15, 'temp': 27.13, 'lipoC3S3': 12.59, 'rot1': 0, 'rot0': 0, 'rot3': 0, 'rot2': 0, 'state': 'normal', 'yaw': 0.76, 'datetime': '2018-10-12 15:23:16.831828', 'mgs': 0, 'depth': -0.369, 'time': 1.55, 'pitch': 0.14, 'roll': -5.62}
{'lipoC2': 8.15, 'temp': 27.13, 'lipoC3S3': 12.58, 'rot1': 0, 'rot0': 0, 'rot3': 0, 'rot2': 0, 'state': 'normal', 'yaw': 1.35, 'datetime': '2018-10-12 15:23:16.840086', 'mgs': 0, 'depth': -0.446, 'time': 1.65, 'pitch': 0.57, 'roll': -5.09}
{'lipoC2': 8.14, 'temp': 27.19, 'lipoC3S3': 12.59, 'rot1': 0, 'rot0': 0, 'rot3': 0, 'rot2': 0, 'state': 'normal', 'yaw': 1.99, 'datetime': '2018-10-12 15:23:16.847818', 'mgs': 0, 'depth': -0.446, 'time': 1.75, 'pitch': 1.07, 'roll': -4.71}
{'lipoC2': 8.14, 'temp': 27.19, 'lipoC3S3': 12.58, 'rot1': 0, 'rot0': 0, 'rot3': 0, 'rot2': 0, 'state': 'normal', 'yaw': 2.33, 'datetime': '2018-10-12 15:23:16.855377', 'mgs': 0, 'depth': -0.369, 'time': 1.85, 'pitch': 1.6, 'roll': -4.75}
{'lipoC2': 8.14, 'temp': 27.13, 'lipoC3S3': 12.59, 'rot1': 0, 'rot0': 0, 'rot3': 0, 'rot2': 0, 'state': 'normal', 'yaw': 2.18, 'datetime': '2018-10-12 15:23:16.863016', 'mgs': 0, 'depth': -0.369, 'time': 1.94, 'pitch': 2.33, 'roll': -5.36}
{'lipoC2': 8.14, 'temp': 27.13, 'lipoC3S3': 12.59, 'rot1': 0, 'rot0': 0, 'rot3': 0, 'rot2': 0, 'state': 'normal', 'yaw': 1.76, 'datetime': '2018-10-12 15:23:16.870626', 'mgs': 0, 'depth': -0.446, 'time': 2.04, 'pitch': 2.91, 'roll': -6.07}
{'lipoC2': 8.14, 'temp': 27.13, 'lipoC3S3': 12.59, 'rot1': 0, 'rot0': 0, 'rot3': 0, 'rot2': 0, 'state': 'normal', 'yaw': 1.37, 'datetime': '2018-10-12 15:23:16.878290', 'mgs': 0, 'depth': -0.446, 'time': 2.14, 'pitch': 3.22, 'roll': -6.21}
{'lipoC2': 8.14, 'temp': 27.19, 'lipoC3S3': 12.59, 'rot1': 0, 'rot0': 0, 'rot3': 0, 'rot2': 0, 'state': 'normal', 'yaw': 1.1, 'datetime': '2018-10-12 15:23:16.885843', 'mgs': 0, 'depth': -0.522, 'time': 2.23, 'pitch': 3.12, 'roll': -5.91}
{'lipoC2': 8.14, 'temp': 27.19, 'lipoC3S3': 12.59, 'rot1': 0, 'rot0': 0, 'rot3': 0, 'rot2': 0, 'state': 'normal', 'yaw': 0.8, 'datetime': '2018-10-12 15:23:16.893489', 'mgs': 0, 'depth': -0.446, 'time': 2.33, 'pitch': 2.8, 'roll': -5.59}
{'lipoC2': 8.14, 'temp': 27.13, 'lipoC3S3': 12.59, 'rot1': 0, 'rot0': 0, 'rot3': 0, 'rot2': 0, 'state': 'normal', 'yaw': 0.32, 'datetime': '2018-10-12 15:23:16.901074', 'mgs': 0, 'depth': -0.446, 'time': 2.43, 'pitch': 2.58, 'roll': -5.38}
{'lipoC2': 8.14, 'temp': 27.13, 'lipoC3S3': 12.59, 'rot1': 0, 'rot0': 0, 'rot3': 0, 'rot2': 0, 'state': 'normal', 'yaw': -0.31, 'datetime': '2018-10-12 15:23:16.908704', 'mgs': 0, 'depth': -0.446, 'time': 2.53, 'pitch': 2.78, 'roll': -5.3}
{'lipoC2': 8.14, 'temp': 27.13, 'lipoC3S3': 12.59, 'rot1': 0, 'rot0': 0, 'rot3': 0, 'rot2': 0, 'state': 'normal', 'yaw': -1.12, 'datetime': '2018-10-12 15:23:16.916266', 'mgs': 0, 'depth': -0.446, 'time': 2.62, 'pitch': 3.41, 'roll': -5.11}
{'lipoC2': 8.14, 'temp': 27.19, 'lipoC3S3': 12.59, 'rot1': 0, 'rot0': 0, 'rot3': 0, 'rot2': 0, 'state': 'normal', 'yaw': -2.05, 'datetime': '2018-10-12 15:23:16.924151', 'mgs': 0, 'depth': -0.446, 'time': 2.72, 'pitch': 4.27, 'roll': -4.6}
{'lipoC2': 8.14, 'temp': 27.19, 'lipoC3S3': 12.59, 'rot1': 0, 'rot0': 0, 'rot3': 0, 'rot2': 0, 'state': 'normal', 'yaw': -3.23, 'datetime': '2018-10-12 15:23:16.938840', 'mgs': 0, 'depth': -0.293, 'time': 2.82, 'pitch': 5.18, 'roll': -3.97}
{'lipoC2': 8.14, 'temp': 27.13, 'lipoC3S3': 12.59, 'rot1': 0, 'rot0': 0, 'rot3': 0, 'rot2': 0, 'state': 'normal', 'yaw': -4.52, 'datetime': '2018-10-12 15:23:17.035977', 'mgs': 0, 'depth': -0.293, 'time': 2.91, 'pitch': 5.56, 'roll': -3.52}
{'lipoC2': 8.14, 'temp': 27.13, 'lipoC3S3': 12.59, 'rot1': 0, 'rot0': 0, 'rot3': 0, 'rot2': 0, 'state': 'normal', 'yaw': -5.65, 'datetime': '2018-10-12 15:23:17.134568', 'mgs': 0, 'depth': -0.293, 'time': 3.01, 'pitch': 5.57, 'roll': -3.42}
{'lipoC2': 8.15, 'temp': 27.13, 'lipoC3S3': 12.6, 'rot1': 0, 'rot0': 0, 'rot3': 0, 'rot2': 0, 'state': 'normal', 'yaw': -6.74, 'datetime': '2018-10-12 15:23:17.232926', 'mgs': 0, 'depth': -0.446, 'time': 3.11, 'pitch': 5.2, 'roll': -3.68}
{'lipoC2': 8.15, 'temp': 27.13, 'lipoC3S3': 12.59, 'rot1': 0, 'rot0': 0, 'rot3': 0, 'rot2': 0, 'state': 'normal', 'yaw': -7.49, 'datetime': '2018-10-12 15:23:17.330007', 'mgs': 0, 'depth': -0.446, 'time': 3.21, 'pitch': 4.6, 'roll': -3.8}
{'lipoC2': 8.14, 'temp': 27.13, 'lipoC3S3': 12.59, 'rot1': 0, 'rot0': 0, 'rot3': 0, 'rot2': 0, 'state': 'normal', 'yaw': -7.86, 'datetime': '2018-10-12 15:23:17.427115', 'mgs': 0, 'depth': -0.446, 'time': 3.31, 'pitch': 3.86, 'roll': -3.74}
{'lipoC2': 8.14, 'temp': 27.13, 'lipoC3S3': 12.59, 'rot1': 0, 'rot0': 0, 'rot3': 0, 'rot2': 0, 'state': 'normal', 'yaw': -8.07, 'datetime': '2018-10-12 15:23:17.525303', 'mgs': 0, 'depth': -0.369, 'time': 3.4, 'pitch': 3.33, 'roll': -3.81}
{'lipoC2': 8.15, 'temp': 27.13, 'lipoC3S3': 12.59, 'rot1': 0, 'rot0': 0, 'rot3': 0, 'rot2': 0, 'state': 'normal', 'yaw': -8.39, 'datetime': '2018-10-12 15:23:17.626985', 'mgs': 0, 'depth': -0.369, 'time': 3.5, 'pitch': 3.0, 'roll': -4.11}
{'lipoC2': 8.14, 'temp': 27.13, 'lipoC3S3': 12.59, 'rot1': 0, 'rot0': 0, 'rot3': 0, 'rot2': 0, 'state': 'normal', 'yaw': -8.93, 'datetime': '2018-10-12 15:23:17.723840', 'mgs': 0, 'depth': -0.369, 'time': 3.6, 'pitch': 2.75, 'roll': -4.42}
{'lipoC2': 8.14, 'temp': 27.13, 'lipoC3S3': 12.59, 'rot1': 0, 'rot0': 0, 'rot3': 0, 'rot2': 0, 'state': 'normal', 'yaw': -9.61, 'datetime': '2018-10-12 15:23:17.820929', 'mgs': 0, 'depth': -0.369, 'time': 3.7, 'pitch': 2.79, 'roll': -4.68}
{'lipoC2': 8.14, 'temp': 27.13, 'lipoC3S3': 12.59, 'rot1': 0, 'rot0': 0, 'rot3': 0, 'rot2': 0, 'state': 'normal', 'yaw': -10.2, 'datetime': '2018-10-12 15:23:17.923687', 'mgs': 0, 'depth': -0.369, 'time': 3.8, 'pitch': 3.01, 'roll': -4.76}
{'lipoC2': 8.14, 'temp': 27.19, 'lipoC3S3': 12.59, 'rot1': 0, 'rot0': 0, 'rot3': 0, 'rot2': 0, 'state': 'normal', 'yaw': -10.73, 'datetime': '2018-10-12 15:23:18.020785', 'mgs': 0, 'depth': -0.369, 'time': 3.89, 'pitch': 3.06, 'roll': -4.57}
{'lipoC2': 8.15, 'temp': 27.19, 'lipoC3S3': 12.59, 'rot1': 0, 'rot0': 0, 'rot3': 0, 'rot2': 0, 'state': 'normal', 'yaw': -11.03, 'datetime': '2018-10-12 15:23:18.117933', 'mgs': 0, 'depth': -0.369, 'time': 3.99, 'pitch': 2.77, 'roll': -4.05}
{'lipoC2': 8.14, 'temp': 27.19, 'lipoC3S3': 12.59, 'rot1': 0, 'rot0': 0, 'rot3': 0, 'rot2': 0, 'state': 'normal', 'yaw': -11.17, 'datetime': '2018-10-12 15:23:18.214942', 'mgs': 0, 'depth': -0.369, 'time': 4.09, 'pitch': 2.35, 'roll': -3.67}
{'lipoC2': 8.14, 'temp': 27.19, 'lipoC3S3': 12.59, 'rot1': 0, 'rot0': 0, 'rot3': 0, 'rot2': 0, 'state': 'normal', 'yaw': -11.28, 'datetime': '2018-10-12 15:23:18.312307', 'mgs': 0, 'depth': -0.369, 'time': 4.18, 'pitch': 1.87, 'roll': -3.6}
{'lipoC2': 8.14, 'temp': 27.19, 'lipoC3S3': 12.59, 'rot1': 0, 'rot0': 0, 'rot3': 0, 'rot2': 0, 'state': 'normal', 'yaw': -11.46, 'datetime': '2018-10-12 15:23:18.409208', 'mgs': 0, 'depth': -0.446, 'time': 4.28, 'pitch': 1.48, 'roll': -3.87}
{'lipoC2': 8.14, 'temp': 27.19, 'lipoC3S3': 12.59, 'rot1': 0, 'rot0': 0, 'rot3': 0, 'rot2': 0, 'state': 'normal', 'yaw': -11.72, 'datetime': '2018-10-12 15:23:18.501446', 'mgs': 0, 'depth': -0.369, 'time': 4.38, 'pitch': 1.38, 'roll': -4.31}
{'lipoC2': 8.14, 'temp': 27.19, 'lipoC3S3': 12.59, 'rot1': 0, 'rot0': 0, 'rot3': 0, 'rot2': 0, 'state': 'normal', 'yaw': -11.93, 'datetime': '2018-10-12 15:23:18.598490', 'mgs': 0, 'depth': -0.446, 'time': 4.48, 'pitch': 1.49, 'roll': -4.56}
{'lipoC2': 8.14, 'temp': 27.19, 'lipoC3S3': 12.59, 'rot1': 0, 'rot0': 0, 'rot3': 0, 'rot2': 0, 'state': 'normal', 'yaw': -12.07, 'datetime': '2018-10-12 15:23:18.700511', 'mgs': 0, 'depth': -0.369, 'time': 4.57, 'pitch': 1.64, 'roll': -4.46}
{'lipoC2': 8.14, 'temp': 27.19, 'lipoC3S3': 12.58, 'rot1': 0, 'rot0': 0, 'rot3': 0, 'rot2': 0, 'state': 'normal', 'yaw': -12.08, 'datetime': '2018-10-12 15:23:18.797704', 'mgs': 0, 'depth': -0.369, 'time': 4.67, 'pitch': 1.68, 'roll': -4.14}
{'lipoC2': 8.14, 'temp': 27.19, 'lipoC3S3': 12.59, 'rot1': 0, 'rot0': 0, 'rot3': 0, 'rot2': 0, 'state': 'normal', 'yaw': -12.02, 'datetime': '2018-10-12 15:23:18.895771', 'mgs': 0, 'depth': -0.369, 'time': 4.77, 'pitch': 1.69, 'roll': -3.94}
{'lipoC2': 8.14, 'temp': 27.19, 'lipoC3S3': 12.59, 'rot1': 0, 'rot0': 0, 'rot3': 0, 'rot2': 0, 'state': 'normal', 'yaw': -11.98, 'datetime': '2018-10-12 15:23:18.994083', 'mgs': 0, 'depth': -0.446, 'time': 4.87, 'pitch': 1.67, 'roll': -3.91}
{'lipoC2': 8.14, 'temp': 27.19, 'lipoC3S3': 12.59, 'rot1': 0, 'rot0': 0, 'rot3': 0, 'rot2': 0, 'state': 'normal', 'yaw': -12.11, 'datetime': '2018-10-12 15:23:19.091595', 'mgs': 0, 'depth': -0.369, 'time': 4.97, 'pitch': 1.66, 'roll': -3.97}
{'lipoC2': 8.14, 'temp': 27.19, 'lipoC3S3': 12.59, 'rot1': 0, 'rot0': 0, 'rot3': 0, 'rot2': 0, 'state': 'normal', 'yaw': -12.46, 'datetime': '2018-10-12 15:23:19.188734', 'mgs': 0, 'depth': -0.369, 'time': 5.06, 'pitch': 1.74, 'roll': -4.11}
{'lipoC2': 8.14, 'temp': 27.13, 'lipoC3S3': 12.59, 'rot1': 0, 'rot0': 0, 'rot3': 0, 'rot2': 0, 'state': 'normal', 'yaw': -12.89, 'datetime': '2018-10-12 15:23:19.286215', 'mgs': 0, 'depth': -0.293, 'time': 5.16, 'pitch': 1.91, 'roll': -4.33}
{'lipoC2': 8.14, 'temp': 27.13, 'lipoC3S3': 12.59, 'rot1': 0, 'rot0': 0, 'rot3': 0, 'rot2': 0, 'state': 'normal', 'yaw': -13.4, 'datetime': '2018-10-12 15:23:19.384718', 'mgs': 0, 'depth': -0.369, 'time': 5.26, 'pitch': 2.09, 'roll': -4.6}
{'lipoC2': 8.14, 'temp': 27.19, 'lipoC3S3': 12.59, 'rot1': 0, 'rot0': 0, 'rot3': 0, 'rot2': 0, 'state': 'normal', 'yaw': -13.85, 'datetime': '2018-10-12 15:23:19.481729', 'mgs': 0, 'depth': -0.293, 'time': 5.36, 'pitch': 2.15, 'roll': -4.78}
{'lipoC2': 8.14, 'temp': 27.19, 'lipoC3S3': 12.59, 'rot1': 0, 'rot0': 0, 'rot3': 0, 'rot2': 0, 'state': 'normal', 'yaw': -14.18, 'datetime': '2018-10-12 15:23:19.578960', 'mgs': 0, 'depth': -0.369, 'time': 5.45, 'pitch': 2.07, 'roll': -4.87}
{'lipoC2': 8.14, 'temp': 27.19, 'lipoC3S3': 12.58, 'rot1': 0, 'rot0': 0, 'rot3': 0, 'rot2': 0, 'state': 'normal', 'yaw': -14.46, 'datetime': '2018-10-12 15:23:19.676362', 'mgs': 0, 'depth': -0.446, 'time': 5.55, 'pitch': 1.93, 'roll': -5.03}
{'lipoC2': 8.14, 'temp': 27.13, 'lipoC3S3': 12.59, 'rot1': 0, 'rot0': 0, 'rot3': 0, 'rot2': 0, 'state': 'normal', 'yaw': -14.82, 'datetime': '2018-10-12 15:23:19.773376', 'mgs': 0, 'depth': -0.446, 'time': 5.65, 'pitch': 1.73, 'roll': -5.42}
{'lipoC2': 8.15, 'temp': 27.13, 'lipoC3S3': 12.59, 'rot1': 0, 'rot0': 0, 'rot3': 0, 'rot2': 0, 'state': 'normal', 'yaw': -15.25, 'datetime': '2018-10-12 15:23:19.870578', 'mgs': 0, 'depth': -0.369, 'time': 5.74, 'pitch': 1.51, 'roll': -6.0}
{'lipoC2': 8.14, 'temp': 27.13, 'lipoC3S3': 12.59, 'rot1': 0, 'rot0': 0, 'rot3': 0, 'rot2': 0, 'state': 'normal', 'yaw': -15.72, 'datetime': '2018-10-12 15:23:19.967776', 'mgs': 0, 'depth': -0.369, 'time': 5.84, 'pitch': 1.47, 'roll': -5.91}
{'lipoC2': 8.14, 'temp': 27.13, 'lipoC3S3': 12.59, 'rot1': 0, 'rot0': 0, 'rot3': 0, 'rot2': 0, 'state': 'normal', 'yaw': -16.26, 'datetime': '2018-10-12 15:23:20.064803', 'mgs': 0, 'depth': -0.369, 'time': 5.94, 'pitch': 1.85, 'roll': -5.4}
{'lipoC2': 8.14, 'temp': 27.13, 'lipoC3S3': 12.59, 'rot1': 0, 'rot0': 0, 'rot3': 0, 'rot2': 0, 'state': 'normal', 'yaw': -16.81, 'datetime': '2018-10-12 15:23:20.162081', 'mgs': 0, 'depth': -0.369, 'time': 6.04, 'pitch': 2.7, 'roll': -4.69}
{'lipoC2': 8.14, 'temp': 27.19, 'lipoC3S3': 12.59, 'rot1': 0, 'rot0': 0, 'rot3': 0, 'rot2': 0, 'state': 'normal', 'yaw': -17.37, 'datetime': '2018-10-12 15:23:20.259081', 'mgs': 0, 'depth': -0.369, 'time': 6.13, 'pitch': 3.83, 'roll': -3.81}
{'lipoC2': 8.14, 'temp': 27.19, 'lipoC3S3': 12.59, 'rot1': 0, 'rot0': 0, 'rot3': 0, 'rot2': 0, 'state': 'normal', 'yaw': -17.92, 'datetime': '2018-10-12 15:23:20.356230', 'mgs': 0, 'depth': -0.293, 'time': 6.23, 'pitch': 5.05, 'roll': -3.14}
{'lipoC2': 8.14, 'temp': 27.13, 'lipoC3S3': 12.59, 'rot1': 0, 'rot0': 0, 'rot3': 0, 'rot2': 0, 'state': 'normal', 'yaw': -18.69, 'datetime': '2018-10-12 15:23:20.453436', 'mgs': 0, 'depth': -0.293, 'time': 6.33, 'pitch': 6.42, 'roll': -3.09}
{'lipoC2': 8.15, 'temp': 27.13, 'lipoC3S3': 12.59, 'rot1': 0, 'rot0': 0, 'rot3': 0, 'rot2': 0, 'state': 'normal', 'yaw': -19.57, 'datetime': '2018-10-12 15:23:20.550393', 'mgs': 0, 'depth': -0.369, 'time': 6.43, 'pitch': 7.87, 'roll': -3.77}
{'lipoC2': 8.14, 'temp': 27.13, 'lipoC3S3': 12.59, 'rot1': 0, 'rot0': 0, 'rot3': 0, 'rot2': 0, 'state': 'normal', 'yaw': -20.33, 'datetime': '2018-10-12 15:23:20.648756', 'mgs': 0, 'depth': -0.293, 'time': 6.52, 'pitch': 9.22, 'roll': -4.57}
{'lipoC2': 8.14, 'temp': 27.13, 'lipoC3S3': 12.59, 'rot1': 0, 'rot0': 0, 'rot3': 0, 'rot2': 0, 'state': 'normal', 'yaw': -21.08, 'datetime': '2018-10-12 15:23:20.746956', 'mgs': 0, 'depth': -0.369, 'time': 6.62, 'pitch': 10.34, 'roll': -5.17}
{'lipoC2': 8.14, 'temp': 27.13, 'lipoC3S3': 12.59, 'rot1': 0, 'rot0': 0, 'rot3': 0, 'rot2': 0, 'state': 'normal', 'yaw': -21.7, 'datetime': '2018-10-12 15:23:20.844018', 'mgs': 0, 'depth': -0.369, 'time': 6.72, 'pitch': 10.71, 'roll': -5.26}
{'lipoC2': 8.14, 'temp': 27.13, 'lipoC3S3': 12.58, 'rot1': 0, 'rot0': 0, 'rot3': 0, 'rot2': 0, 'state': 'normal', 'yaw': -22.13, 'datetime': '2018-10-12 15:23:20.941179', 'mgs': 0, 'depth': -0.369, 'time': 6.82, 'pitch': 10.49, 'roll': -5.04}
{'lipoC2': 8.14, 'temp': 27.13, 'lipoC3S3': 12.59, 'rot1': 0, 'rot0': 0, 'rot3': 0, 'rot2': 0, 'state': 'normal', 'yaw': -22.39, 'datetime': '2018-10-12 15:23:21.039102', 'mgs': 0, 'depth': -0.369, 'time': 6.91, 'pitch': 10.04, 'roll': -4.72}
{'lipoC2': 8.14, 'temp': 27.13, 'lipoC3S3': 12.59, 'rot1': 0, 'rot0': 0, 'rot3': 0, 'rot2': 0, 'state': 'normal', 'yaw': -22.57, 'datetime': '2018-10-12 15:23:21.137474', 'mgs': 0, 'depth': -0.369, 'time': 7.01, 'pitch': 9.51, 'roll': -4.34}
{'lipoC2': 8.14, 'temp': 27.13, 'lipoC3S3': 12.58, 'rot1': 0, 'rot0': 0, 'rot3': 0, 'rot2': 0, 'state': 'normal', 'yaw': -22.7, 'datetime': '2018-10-12 15:23:21.234923', 'mgs': 0, 'depth': -0.293, 'time': 7.11, 'pitch': 8.87, 'roll': -4.0}
{'lipoC2': 8.14, 'temp': 27.13, 'lipoC3S3': 12.59, 'rot1': 0, 'rot0': 0, 'rot3': 0, 'rot2': 0, 'state': 'normal', 'yaw': -22.76, 'datetime': '2018-10-12 15:23:21.331778', 'mgs': 0, 'depth': -0.293, 'time': 7.21, 'pitch': 8.0, 'roll': -3.75}
{'lipoC2': 8.14, 'temp': 27.19, 'lipoC3S3': 12.59, 'rot1': 0, 'rot0': 0, 'rot3': 0, 'rot2': 0, 'state': 'normal', 'yaw': -22.68, 'datetime': '2018-10-12 15:23:21.427958', 'mgs': 0, 'depth': -0.369, 'time': 7.3, 'pitch': 6.9, 'roll': -3.64}
{'lipoC2': 8.15, 'temp': 27.19, 'lipoC3S3': 12.59, 'rot1': 0, 'rot0': 0, 'rot3': 0, 'rot2': 0, 'state': 'normal', 'yaw': -22.34, 'datetime': '2018-10-12 15:23:21.519325', 'mgs': 0, 'depth': -0.293, 'time': 7.4, 'pitch': 5.43, 'roll': -3.65}
{'lipoC2': 8.14, 'temp': 27.19, 'lipoC3S3': 12.59, 'rot1': 0, 'rot0': 0, 'rot3': 0, 'rot2': 0, 'state': 'normal', 'yaw': -21.77, 'datetime': '2018-10-12 15:23:21.616447', 'mgs': 0, 'depth': -0.369, 'time': 7.5, 'pitch': 4.1, 'roll': -3.86}
{'lipoC2': 8.14, 'temp': 27.13, 'lipoC3S3': 12.59, 'rot1': 0, 'rot0': 0, 'rot3': 0, 'rot2': 0, 'state': 'normal', 'yaw': -21.15, 'datetime': '2018-10-12 15:23:21.713557', 'mgs': 0, 'depth': -0.293, 'time': 7.6, 'pitch': 3.0, 'roll': -4.47}
{'lipoC2': 8.14, 'temp': 27.13, 'lipoC3S3': 12.59, 'rot1': 0, 'rot0': 0, 'rot3': 0, 'rot2': 0, 'state': 'normal', 'yaw': -20.66, 'datetime': '2018-10-12 15:23:21.810689', 'mgs': 0, 'depth': -0.369, 'time': 7.69, 'pitch': 2.38, 'roll': -5.6}
{'lipoC2': 8.14, 'temp': 27.19, 'lipoC3S3': 12.59, 'rot1': 0, 'rot0': 0, 'rot3': 0, 'rot2': 0, 'state': 'normal', 'yaw': -20.2, 'datetime': '2018-10-12 15:23:21.907851', 'mgs': 0, 'depth': -0.293, 'time': 7.79, 'pitch': 2.37, 'roll': -7.17}
{'lipoC2': 8.14, 'temp': 27.19, 'lipoC3S3': 12.59, 'rot1': 0, 'rot0': 0, 'rot3': 0, 'rot2': 0, 'state': 'normal', 'yaw': -19.92, 'datetime': '2018-10-12 15:23:22.004945', 'mgs': 0, 'depth': -0.293, 'time': 7.89, 'pitch': 2.18, 'roll': -6.61}
{'lipoC2': 8.14, 'temp': 27.19, 'lipoC3S3': 12.58, 'rot1': 0, 'rot0': 0, 'rot3': 0, 'rot2': 0, 'state': 'normal', 'yaw': -19.69, 'datetime': '2018-10-12 15:23:22.102119', 'mgs': 0, 'depth': -0.369, 'time': 7.99, 'pitch': 1.86, 'roll': -5.63}
{'lipoC2': 8.14, 'temp': 27.13, 'lipoC3S3': 12.59, 'rot1': 0, 'rot0': 0, 'rot3': 0, 'rot2': 0, 'state': 'normal', 'yaw': -19.57, 'datetime': '2018-10-12 15:23:22.199181', 'mgs': 0, 'depth': -0.293, 'time': 8.08, 'pitch': 1.04, 'roll': -4.67}
{'lipoC2': 8.14, 'temp': 27.13, 'lipoC3S3': 12.59, 'rot1': 0, 'rot0': 0, 'rot3': 0, 'rot2': 0, 'state': 'normal', 'yaw': -19.64, 'datetime': '2018-10-12 15:23:22.296293', 'mgs': 0, 'depth': -0.217, 'time': 8.18, 'pitch': -0.04, 'roll': -3.6}
{'lipoC2': 8.14, 'temp': 27.13, 'lipoC3S3': 12.59, 'rot1': 0, 'rot0': 0, 'rot3': 0, 'rot2': 0, 'state': 'normal', 'yaw': -19.72, 'datetime': '2018-10-12 15:23:22.394177', 'mgs': 0, 'depth': -0.293, 'time': 8.28, 'pitch': -0.94, 'roll': -2.78}
{'lipoC2': 8.14, 'temp': 27.13, 'lipoC3S3': 12.58, 'rot1': 0, 'rot0': 0, 'rot3': 0, 'rot2': 0, 'state': 'normal', 'yaw': -19.82, 'datetime': '2018-10-12 15:23:22.492532', 'mgs': 0, 'depth': -0.293, 'time': 8.38, 'pitch': -1.56, 'roll': -2.61}
{'lipoC2': 8.14, 'temp': 27.13, 'lipoC3S3': 12.59, 'rot1': 0, 'rot0': 0, 'rot3': 0, 'rot2': 0, 'state': 'normal', 'yaw': -19.83, 'datetime': '2018-10-12 15:23:22.589693', 'mgs': 0, 'depth': -0.369, 'time': 8.47, 'pitch': -1.71, 'roll': -3.39}
{'lipoC2': 8.14, 'temp': 27.19, 'lipoC3S3': 12.59, 'rot1': 0, 'rot0': 0, 'rot3': 0, 'rot2': 0, 'state': 'normal', 'yaw': -19.78, 'datetime': '2018-10-12 15:23:22.686809', 'mgs': 0, 'depth': -0.293, 'time': 8.57, 'pitch': -1.49, 'roll': -4.59}
{'lipoC2': 8.14, 'temp': 27.19, 'lipoC3S3': 12.59, 'rot1': 0, 'rot0': 0, 'rot3': 0, 'rot2': 0, 'state': 'normal', 'yaw': -19.91, 'datetime': '2018-10-12 15:23:22.784594', 'mgs': 0, 'depth': -0.446, 'time': 8.67, 'pitch': -1.23, 'roll': -5.25}
{'lipoC2': 8.14, 'temp': 27.13, 'lipoC3S3': 12.59, 'rot1': 0, 'rot0': 0, 'rot3': 0, 'rot2': 0, 'state': 'normal', 'yaw': -20.31, 'datetime': '2018-10-12 15:23:22.883048', 'mgs': 0, 'depth': -0.369, 'time': 8.77, 'pitch': -0.98, 'roll': -5.55}
{'lipoC2': 8.14, 'temp': 27.13, 'lipoC3S3': 12.59, 'rot1': 0, 'rot0': 0, 'rot3': 0, 'rot2': 0, 'state': 'normal', 'yaw': -20.84, 'datetime': '2018-10-12 15:23:22.980170', 'mgs': 0, 'depth': -0.369, 'time': 8.86, 'pitch': -0.79, 'roll': -5.38}
{'lipoC2': 8.14, 'temp': 27.13, 'lipoC3S3': 12.59, 'rot1': 0, 'rot0': 0, 'rot3': 0, 'rot2': 0, 'state': 'normal', 'yaw': -21.35, 'datetime': '2018-10-12 15:23:23.077260', 'mgs': 0, 'depth': -0.293, 'time': 8.96, 'pitch': -0.61, 'roll': -4.65}
{'lipoC2': 8.14, 'temp': 27.19, 'lipoC3S3': 12.59, 'rot1': 0, 'rot0': 0, 'rot3': 0, 'rot2': 0, 'state': 'normal', 'yaw': -21.78, 'datetime': '2018-10-12 15:23:23.175069', 'mgs': 0, 'depth': -0.369, 'time': 9.06, 'pitch': -0.42, 'roll': -3.98}
{'lipoC2': 8.15, 'temp': 27.19, 'lipoC3S3': 12.59, 'rot1': 0, 'rot0': 0, 'rot3': 0, 'rot2': 0, 'state': 'normal', 'yaw': -22.11, 'datetime': '2018-10-12 15:23:23.272244', 'mgs': 0, 'depth': -0.369, 'time': 9.16, 'pitch': -0.22, 'roll': -3.8}
{'lipoC2': 8.14, 'temp': 27.19, 'lipoC3S3': 12.59, 'rot1': 0, 'rot0': 0, 'rot3': 0, 'rot2': 0, 'state': 'normal', 'yaw': -22.34, 'datetime': '2018-10-12 15:23:23.369962', 'mgs': 0, 'depth': -0.369, 'time': 9.25, 'pitch': -0.2, 'roll': -4.22}
{'lipoC2': 8.14, 'temp': 27.19, 'lipoC3S3': 12.58, 'rot1': 0, 'rot0': 0, 'rot3': 0, 'rot2': 0, 'state': 'normal', 'yaw': -22.59, 'datetime': '2018-10-12 15:23:23.466455', 'mgs': 0, 'depth': -0.369, 'time': 9.35, 'pitch': -0.24, 'roll': -4.79}
{'lipoC2': 8.14, 'temp': 27.19, 'lipoC3S3': 12.59, 'rot1': 0, 'rot0': 0, 'rot3': 0, 'rot2': 0, 'state': 'normal', 'yaw': -22.85, 'datetime': '2018-10-12 15:23:23.563526', 'mgs': 0, 'depth': -0.446, 'time': 9.45, 'pitch': -0.05, 'roll': -5.13}
{'lipoC2': 8.14, 'temp': 27.13, 'lipoC3S3': 12.59, 'rot1': 0, 'rot0': 0, 'rot3': 0, 'rot2': 0, 'state': 'normal', 'yaw': -22.99, 'datetime': '2018-10-12 15:23:23.660688', 'mgs': 0, 'depth': -0.369, 'time': 9.55, 'pitch': 0.23, 'roll': -5.05}
{'lipoC2': 8.14, 'temp': 27.13, 'lipoC3S3': 12.58, 'rot1': 0, 'rot0': 0, 'rot3': 0, 'rot2': 0, 'state': 'normal', 'yaw': -22.96, 'datetime': '2018-10-12 15:23:23.757779', 'mgs': 0, 'depth': -0.369, 'time': 9.64, 'pitch': 0.46, 'roll': -4.22}
{'lipoC2': 8.14, 'temp': 27.19, 'lipoC3S3': 12.58, 'rot1': 0, 'rot0': 0, 'rot3': 0, 'rot2': 0, 'state': 'normal', 'yaw': -22.88, 'datetime': '2018-10-12 15:23:23.854858', 'mgs': 0, 'depth': -0.369, 'time': 9.74, 'pitch': 0.84, 'roll': -3.49}
{'lipoC2': 8.14, 'temp': 27.19, 'lipoC3S3': 12.58, 'rot1': 0, 'rot0': 0, 'rot3': 0, 'rot2': 0, 'state': 'normal', 'yaw': -22.86, 'datetime': '2018-10-12 15:23:23.951971', 'mgs': 0, 'depth': -0.369, 'time': 9.84, 'pitch': 1.25, 'roll': -3.18}
{'lipoC2': 8.14, 'temp': 27.19, 'lipoC3S3': 12.59, 'rot1': 0, 'rot0': 0, 'rot3': 0, 'rot2': 0, 'state': 'normal', 'yaw': -23.06, 'datetime': '2018-10-12 15:23:24.049066', 'mgs': 0, 'depth': -0.293, 'time': 9.93, 'pitch': 1.57, 'roll': -2.56}
{'lipoC2': 8.14, 'temp': 27.19, 'lipoC3S3': 12.58, 'rot1': 0, 'rot0': 0, 'rot3': 0, 'rot2': 0, 'state': 'normal', 'yaw': -23.43, 'datetime': '2018-10-12 15:23:24.146951', 'mgs': 0, 'depth': -0.293, 'time': 10.03, 'pitch': 1.89, 'roll': -2.17}
{'lipoC2': 8.14, 'temp': 27.19, 'lipoC3S3': 12.59, 'rot1': 0, 'rot0': 0, 'rot3': 0, 'rot2': 0, 'state': 'normal', 'yaw': -23.8, 'datetime': '2018-10-12 15:23:24.245371', 'mgs': 0, 'depth': -0.369, 'time': 10.13, 'pitch': 2.38, 'roll': -1.86}
{'lipoC2': 8.14, 'temp': 27.19, 'lipoC3S3': 12.59, 'rot1': 0, 'rot0': 0, 'rot3': 0, 'rot2': 0, 'state': 'normal', 'yaw': -23.94, 'datetime': '2018-10-12 15:23:24.342465', 'mgs': 0, 'depth': -0.293, 'time': 10.23, 'pitch': 2.66, 'roll': -1.49}
{'lipoC2': 8.14, 'temp': 27.19, 'lipoC3S3': 12.59, 'rot1': 0, 'rot0': 0, 'rot3': 0, 'rot2': 0, 'state': 'normal', 'yaw': -23.79, 'datetime': '2018-10-12 15:23:24.439635', 'mgs': 0, 'depth': -0.369, 'time': 10.33, 'pitch': 2.49, 'roll': -1.29}
{'lipoC2': 8.14, 'temp': 27.19, 'lipoC3S3': 12.58, 'rot1': 0, 'rot0': 0, 'rot3': 0, 'rot2': 0, 'state': 'normal', 'yaw': -23.45, 'datetime': '2018-10-12 15:23:24.537519', 'mgs': 0, 'depth': -0.369, 'time': 10.42, 'pitch': 2.08, 'roll': -1.31}
{'lipoC2': 8.14, 'temp': 27.19, 'lipoC3S3': 12.59, 'rot1': 0, 'rot0': 0, 'rot3': 0, 'rot2': 0, 'state': 'normal', 'yaw': -23.04, 'datetime': '2018-10-12 15:23:24.635830', 'mgs': 0, 'depth': -0.369, 'time': 10.52, 'pitch': 1.51, 'roll': -1.63}
{'lipoC2': 8.14, 'temp': 27.19, 'lipoC3S3': 12.59, 'rot1': 0, 'rot0': 0, 'rot3': 0, 'rot2': 0, 'state': 'normal', 'yaw': -22.91, 'datetime': '2018-10-12 15:23:24.732976', 'mgs': 0, 'depth': -0.369, 'time': 10.62, 'pitch': 0.92, 'roll': -2.16}
{'lipoC2': 8.14, 'temp': 27.19, 'lipoC3S3': 12.58, 'rot1': 0, 'rot0': 0, 'rot3': 0, 'rot2': 0, 'state': 'normal', 'yaw': -23.24, 'datetime': '2018-10-12 15:23:24.830087', 'mgs': 0, 'depth': -0.369, 'time': 10.72, 'pitch': 0.52, 'roll': -2.5}
{'lipoC2': 8.14, 'temp': 27.19, 'lipoC3S3': 12.59, 'rot1': 0, 'rot0': 0, 'rot3': 0, 'rot2': 0, 'state': 'normal', 'yaw': -23.75, 'datetime': '2018-10-12 15:23:24.927958', 'mgs': 0, 'depth': -0.369, 'time': 10.81, 'pitch': 0.44, 'roll': -2.59}
{'lipoC2': 8.14, 'temp': 27.13, 'lipoC3S3': 12.59, 'rot1': 0, 'rot0': 0, 'rot3': 0, 'rot2': 0, 'state': 'normal', 'yaw': -24.34, 'datetime': '2018-10-12 15:23:25.025012', 'mgs': 0, 'depth': -0.293, 'time': 10.91, 'pitch': 0.49, 'roll': -2.48}
{'lipoC2': 8.14, 'temp': 27.13, 'lipoC3S3': 12.59, 'rot1': 0, 'rot0': 0, 'rot3': 0, 'rot2': 0, 'state': 'normal', 'yaw': -24.82, 'datetime': '2018-10-12 15:23:25.125429', 'mgs': 0, 'depth': -0.369, 'time': 11.01, 'pitch': 0.49, 'roll': -2.13}
{'lipoC2': 8.14, 'temp': 27.13, 'lipoC3S3': 12.59, 'rot1': 0, 'rot0': 0, 'rot3': 0, 'rot2': 0, 'state': 'normal', 'yaw': -25.09, 'datetime': '2018-10-12 15:23:25.219210', 'mgs': 0, 'depth': -0.369, 'time': 11.11, 'pitch': 0.35, 'roll': -1.62}
{'lipoC2': 8.14, 'temp': 27.13, 'lipoC3S3': 12.58, 'rot1': 0, 'rot0': 0, 'rot3': 0, 'rot2': 0, 'state': 'normal', 'yaw': -25.22, 'datetime': '2018-10-12 15:23:25.316369', 'mgs': 0, 'depth': -0.369, 'time': 11.2, 'pitch': 0.09, 'roll': -1.27}
{'lipoC2': 8.14, 'temp': 27.13, 'lipoC3S3': 12.58, 'rot1': 0, 'rot0': 0, 'rot3': 0, 'rot2': 0, 'state': 'normal', 'yaw': -25.25, 'datetime': '2018-10-12 15:23:25.413421', 'mgs': 0, 'depth': -0.293, 'time': 11.3, 'pitch': -0.0, 'roll': -1.28}
{'lipoC2': 8.14, 'temp': 27.19, 'lipoC3S3': 12.59, 'rot1': 0, 'rot0': 0, 'rot3': 0, 'rot2': 0, 'state': 'normal', 'yaw': -25.42, 'datetime': '2018-10-12 15:23:25.510514', 'mgs': 0, 'depth': -0.217, 'time': 11.4, 'pitch': 0.13, 'roll': -1.55}
{'lipoC2': 8.14, 'temp': 27.19, 'lipoC3S3': 12.59, 'rot1': 0, 'rot0': 0, 'rot3': 0, 'rot2': 0, 'state': 'normal', 'yaw': -25.73, 'datetime': '2018-10-12 15:23:25.607685', 'mgs': 0, 'depth': -0.217, 'time': 11.49, 'pitch': 0.4, 'roll': -1.91}
{'lipoC2': 8.14, 'temp': 27.19, 'lipoC3S3': 12.59, 'rot1': 0, 'rot0': 0, 'rot3': 0, 'rot2': 0, 'state': 'normal', 'yaw': -26.12, 'datetime': '2018-10-12 15:23:25.704741', 'mgs': 0, 'depth': -0.293, 'time': 11.59, 'pitch': 0.44, 'roll': -2.31}
{'lipoC2': 8.13, 'temp': 27.19, 'lipoC3S3': 12.59, 'rot1': 0, 'rot0': 0, 'rot3': 0, 'rot2': 0, 'state': 'normal', 'yaw': -26.53, 'datetime': '2018-10-12 15:23:25.801880', 'mgs': 0, 'depth': -0.293, 'time': 11.69, 'pitch': 0.09, 'roll': -2.61}
{'lipoC2': 8.14, 'temp': 27.19, 'lipoC3S3': 12.59, 'rot1': 0, 'rot0': 0, 'rot3': 0, 'rot2': 0, 'state': 'normal', 'yaw': -26.92, 'datetime': '2018-10-12 15:23:25.899888', 'mgs': 0, 'depth': -0.293, 'time': 11.79, 'pitch': -0.5, 'roll': -2.84}
{'lipoC2': 8.14, 'temp': 27.19, 'lipoC3S3': 12.59, 'rot1': 0, 'rot0': 0, 'rot3': 0, 'rot2': 0, 'state': 'normal', 'yaw': -27.52, 'datetime': '2018-10-12 15:23:25.998283', 'mgs': 0, 'depth': -0.293, 'time': 11.89, 'pitch': -1.4, 'roll': -3.14}
{'lipoC2': 8.14, 'temp': 27.19, 'lipoC3S3': 12.59, 'rot1': 0, 'rot0': 0, 'rot3': 0, 'rot2': 0, 'state': 'normal', 'yaw': -28.33, 'datetime': '2018-10-12 15:23:26.095382', 'mgs': 0, 'depth': -0.293, 'time': 11.98, 'pitch': -2.3, 'roll': -3.42}
{'lipoC2': 8.14, 'temp': 27.19, 'lipoC3S3': 12.59, 'rot1': 0, 'rot0': 0, 'rot3': 0, 'rot2': 0, 'state': 'normal', 'yaw': -29.36, 'datetime': '2018-10-12 15:23:26.192526', 'mgs': 0, 'depth': -0.369, 'time': 12.08, 'pitch': -2.61, 'roll': -3.73}
{'lipoC2': 8.14, 'temp': 27.19, 'lipoC3S3': 12.59, 'rot1': 0, 'rot0': 0, 'rot3': 0, 'rot2': 0, 'state': 'normal', 'yaw': -30.46, 'datetime': '2018-10-12 15:23:26.290435', 'mgs': 0, 'depth': -0.369, 'time': 12.18, 'pitch': -2.13, 'roll': -3.68}
{'lipoC2': 8.14, 'temp': 27.19, 'lipoC3S3': 12.59, 'rot1': 0, 'rot0': 0, 'rot3': 0, 'rot2': 0, 'state': 'normal', 'yaw': -31.57, 'datetime': '2018-10-12 15:23:26.388830', 'mgs': 0, 'depth': -0.293, 'time': 12.28, 'pitch': -1.21, 'roll': -2.93}
{'lipoC2': 8.14, 'temp': 27.19, 'lipoC3S3': 12.59, 'rot1': 0, 'rot0': 0, 'rot3': 0, 'rot2': 0, 'state': 'normal', 'yaw': -32.26, 'datetime': '2018-10-12 15:23:26.485908', 'mgs': 0, 'depth': -0.369, 'time': 12.37, 'pitch': -0.33, 'roll': -1.86}
{'lipoC2': 8.14, 'temp': 27.19, 'lipoC3S3': 12.59, 'rot1': 0, 'rot0': 0, 'rot3': 0, 'rot2': 0, 'state': 'normal', 'yaw': -32.63, 'datetime': '2018-10-12 15:23:26.583089', 'mgs': 0, 'depth': -0.293, 'time': 12.47, 'pitch': 0.29, 'roll': -0.96}
{'lipoC2': 8.14, 'temp': 27.19, 'lipoC3S3': 12.59, 'rot1': 0, 'rot0': 0, 'rot3': 0, 'rot2': 0, 'state': 'normal', 'yaw': -32.87, 'datetime': '2018-10-12 15:23:26.680212', 'mgs': 0, 'depth': -0.369, 'time': 12.57, 'pitch': 0.48, 'roll': -0.63}
{'lipoC2': 8.14, 'temp': 27.13, 'lipoC3S3': 12.59, 'rot1': 0, 'rot0': 0, 'rot3': 0, 'rot2': 0, 'state': 'normal', 'yaw': -33.16, 'datetime': '2018-10-12 15:23:26.777274', 'mgs': 0, 'depth': -0.369, 'time': 12.66, 'pitch': 0.32, 'roll': -0.94}
{'lipoC2': 8.14, 'temp': 27.13, 'lipoC3S3': 12.59, 'rot1': 0, 'rot0': 0, 'rot3': 0, 'rot2': 0, 'state': 'normal', 'yaw': -33.52, 'datetime': '2018-10-12 15:23:26.874402', 'mgs': 0, 'depth': -0.446, 'time': 12.76, 'pitch': 0.05, 'roll': -1.5}
{'lipoC2': 8.14, 'temp': 27.19, 'lipoC3S3': 12.59, 'rot1': 0, 'rot0': 0, 'rot3': 0, 'rot2': 0, 'state': 'normal', 'yaw': -33.99, 'datetime': '2018-10-12 15:23:26.971783', 'mgs': 0, 'depth': -0.369, 'time': 12.86, 'pitch': -0.15, 'roll': -2.04}
{'lipoC2': 8.14, 'temp': 27.19, 'lipoC3S3': 12.58, 'rot1': 0, 'rot0': 0, 'rot3': 0, 'rot2': 0, 'state': 'normal', 'yaw': -34.67, 'datetime': '2018-10-12 15:23:27.068871', 'mgs': 0, 'depth': -0.369, 'time': 12.96, 'pitch': -0.12, 'roll': -2.66}
{'lipoC2': 8.14, 'temp': 27.19, 'lipoC3S3': 12.59, 'rot1': 0, 'rot0': 0, 'rot3': 0, 'rot2': 0, 'state': 'normal', 'yaw': -35.29, 'datetime': '2018-10-12 15:23:27.166003', 'mgs': 0, 'depth': -0.369, 'time': 13.05, 'pitch': 0.02, 'roll': -3.12}
{'lipoC2': 8.14, 'temp': 27.19, 'lipoC3S3': 12.59, 'rot1': 0, 'rot0': 0, 'rot3': 0, 'rot2': 0, 'state': 'normal', 'yaw': -35.68, 'datetime': '2018-10-12 15:23:27.263132', 'mgs': 0, 'depth': -0.369, 'time': 13.15, 'pitch': 0.06, 'roll': -3.12}
{'lipoC2': 8.14, 'temp': 27.19, 'lipoC3S3': 12.59, 'rot1': 0, 'rot0': 0, 'rot3': 0, 'rot2': 0, 'state': 'normal', 'yaw': -35.74, 'datetime': '2018-10-12 15:23:27.360238', 'mgs': 0, 'depth': -0.369, 'time': 13.25, 'pitch': 0.04, 'roll': -2.48}
{'lipoC2': 8.14, 'temp': 27.13, 'lipoC3S3': 12.59, 'rot1': 0, 'rot0': 0, 'rot3': 0, 'rot2': 0, 'state': 'normal', 'yaw': -35.52, 'datetime': '2018-10-12 15:23:27.457354', 'mgs': 0, 'depth': -0.369, 'time': 13.35, 'pitch': -0.13, 'roll': -1.52}
{'lipoC2': 8.14, 'temp': 27.13, 'lipoC3S3': 12.58, 'rot1': 0, 'rot0': 0, 'rot3': 0, 'rot2': 0, 'state': 'normal', 'yaw': -35.28, 'datetime': '2018-10-12 15:23:27.554479', 'mgs': 0, 'depth': -0.369, 'time': 13.44, 'pitch': -0.45, 'roll': -1.02}
{'lipoC2': 8.14, 'temp': 27.13, 'lipoC3S3': 12.59, 'rot1': 0, 'rot0': 0, 'rot3': 0, 'rot2': 0, 'state': 'normal', 'yaw': -35.27, 'datetime': '2018-10-12 15:23:27.652624', 'mgs': 0, 'depth': -0.369, 'time': 13.54, 'pitch': -0.77, 'roll': -1.22}
{'lipoC2': 8.14, 'temp': 27.13, 'lipoC3S3': 12.59, 'rot1': 0, 'rot0': 0, 'rot3': 0, 'rot2': 0, 'state': 'normal', 'yaw': -35.56, 'datetime': '2018-10-12 15:23:27.750954', 'mgs': 0, 'depth': -0.369, 'time': 13.64, 'pitch': -1.02, 'roll': -1.81}
{'lipoC2': 8.14, 'temp': 27.13, 'lipoC3S3': 12.59, 'rot1': 0, 'rot0': 0, 'rot3': 0, 'rot2': 0, 'state': 'normal', 'yaw': -35.99, 'datetime': '2018-10-12 15:23:27.848137', 'mgs': 0, 'depth': -0.369, 'time': 13.74, 'pitch': -0.92, 'roll': -2.54}
{'lipoC2': 8.14, 'temp': 27.19, 'lipoC3S3': 12.59, 'rot1': 0, 'rot0': 0, 'rot3': 0, 'rot2': 0, 'state': 'normal', 'yaw': -36.6, 'datetime': '2018-10-12 15:23:27.945220', 'mgs': 0, 'depth': -0.369, 'time': 13.84, 'pitch': -0.54, 'roll': -3.06}
{'lipoC2': 8.14, 'temp': 27.19, 'lipoC3S3': 12.59, 'rot1': 0, 'rot0': 0, 'rot3': 0, 'rot2': 0, 'state': 'normal', 'yaw': -37.13, 'datetime': '2018-10-12 15:23:28.043173', 'mgs': 0, 'depth': -0.369, 'time': 13.93, 'pitch': -0.16, 'roll': -3.15}
{'lipoC2': 8.14, 'temp': 27.19, 'lipoC3S3': 12.59, 'rot1': 0, 'rot0': 0, 'rot3': 0, 'rot2': 0, 'state': 'normal', 'yaw': -37.49, 'datetime': '2018-10-12 15:23:28.144493', 'mgs': 0, 'depth': -0.446, 'time': 14.03, 'pitch': 0.25, 'roll': -2.79}
{'lipoC2': 8.14, 'temp': 27.19, 'lipoC3S3': 12.59, 'rot1': 0, 'rot0': 0, 'rot3': 0, 'rot2': 0, 'state': 'normal', 'yaw': -37.56, 'datetime': '2018-10-12 15:23:28.244391', 'mgs': 0, 'depth': -0.369, 'time': 14.13, 'pitch': 0.42, 'roll': -2.24}
{'lipoC2': 8.14, 'temp': 27.19, 'lipoC3S3': 12.59, 'rot1': 0, 'rot0': 0, 'rot3': 0, 'rot2': 0, 'state': 'normal', 'yaw': -37.44, 'datetime': '2018-10-12 15:23:28.340439', 'mgs': 0, 'depth': -0.446, 'time': 14.23, 'pitch': 0.29, 'roll': -2.01}
{'lipoC2': 8.14, 'temp': 27.19, 'lipoC3S3': 12.59, 'rot1': 0, 'rot0': 0, 'rot3': 0, 'rot2': 0, 'state': 'normal', 'yaw': -37.37, 'datetime': '2018-10-12 15:23:28.438391', 'mgs': 0, 'depth': -0.369, 'time': 14.32, 'pitch': 0.1, 'roll': -2.35}
{'lipoC2': 8.14, 'temp': 27.19, 'lipoC3S3': 12.59, 'rot1': 0, 'rot0': 0, 'rot3': 0, 'rot2': 0, 'state': 'normal', 'yaw': -37.56, 'datetime': '2018-10-12 15:23:28.535416', 'mgs': 0, 'depth': -0.369, 'time': 14.42, 'pitch': -0.02, 'roll': -3.0}
{'lipoC2': 8.14, 'temp': 27.19, 'lipoC3S3': 12.59, 'rot1': 0, 'rot0': 0, 'rot3': 0, 'rot2': 0, 'state': 'normal', 'yaw': -37.95, 'datetime': '2018-10-12 15:23:28.632723', 'mgs': 0, 'depth': -0.369, 'time': 14.52, 'pitch': -0.02, 'roll': -3.47}
{'lipoC2': 8.14, 'temp': 27.13, 'lipoC3S3': 12.59, 'rot1': 0, 'rot0': 0, 'rot3': 0, 'rot2': 0, 'state': 'normal', 'yaw': -38.21, 'datetime': '2018-10-12 15:23:28.729693', 'mgs': 0, 'depth': -0.446, 'time': 14.61, 'pitch': 0.06, 'roll': -3.46}
{'lipoC2': 8.15, 'temp': 27.13, 'lipoC3S3': 12.58, 'rot1': 0, 'rot0': 0, 'rot3': 0, 'rot2': 0, 'state': 'normal', 'yaw': -38.3, 'datetime': '2018-10-12 15:23:28.826813', 'mgs': 0, 'depth': -0.369, 'time': 14.71, 'pitch': 0.2, 'roll': -3.08}
{'lipoC2': 8.14, 'temp': 27.13, 'lipoC3S3': 12.59, 'rot1': 0, 'rot0': 0, 'rot3': 0, 'rot2': 0, 'state': 'normal', 'yaw': -38.22, 'datetime': '2018-10-12 15:23:28.923870', 'mgs': 0, 'depth': -0.369, 'time': 14.81, 'pitch': 0.34, 'roll': -2.47}
{'lipoC2': 8.14, 'temp': 27.13, 'lipoC3S3': 12.59, 'rot1': 0, 'rot0': 0, 'rot3': 0, 'rot2': 0, 'state': 'normal', 'yaw': -38.03, 'datetime': '2018-10-12 15:23:29.016311', 'mgs': 0, 'depth': -0.522, 'time': 14.91, 'pitch': 0.53, 'roll': -1.83}
{'lipoC2': 8.13, 'temp': 27.13, 'lipoC3S3': 12.59, 'rot1': 0, 'rot0': 0, 'rot3': 0, 'rot2': 0, 'state': 'normal', 'yaw': -37.98, 'datetime': '2018-10-12 15:23:29.114862', 'mgs': 0, 'depth': -0.446, 'time': 15.0, 'pitch': 0.9, 'roll': -1.35}
{'lipoC2': 8.14, 'temp': 27.19, 'lipoC3S3': 12.59, 'rot1': 0, 'rot0': 0, 'rot3': 0, 'rot2': 0, 'state': 'normal', 'yaw': -38.14, 'datetime': '2018-10-12 15:23:29.215213', 'mgs': 0, 'depth': -0.369, 'time': 15.1, 'pitch': 1.47, 'roll': -0.93}
{'lipoC2': 8.14, 'temp': 27.19, 'lipoC3S3': 12.59, 'rot1': 0, 'rot0': 0, 'rot3': 0, 'rot2': 0, 'state': 'normal', 'yaw': -38.52, 'datetime': '2018-10-12 15:23:29.312414', 'mgs': 0, 'depth': -0.369, 'time': 15.2, 'pitch': 1.99, 'roll': -0.57}
{'lipoC2': 8.14, 'temp': 27.19, 'lipoC3S3': 12.59, 'rot1': 0, 'rot0': 0, 'rot3': 0, 'rot2': 0, 'state': 'normal', 'yaw': -38.98, 'datetime': '2018-10-12 15:23:29.405560', 'mgs': 0, 'depth': -0.369, 'time': 15.3, 'pitch': 2.24, 'roll': -0.3}
{'lipoC2': 8.14, 'temp': 27.19, 'lipoC3S3': 12.59, 'rot1': 0, 'rot0': 0, 'rot3': 0, 'rot2': 0, 'state': 'normal', 'yaw': -39.54, 'datetime': '2018-10-12 15:23:29.507253', 'mgs': 0, 'depth': -0.369, 'time': 15.4, 'pitch': 2.17, 'roll': -0.1}
{'lipoC2': 8.14, 'temp': 27.19, 'lipoC3S3': 12.59, 'rot1': 0, 'rot0': 0, 'rot3': 0, 'rot2': 0, 'state': 'normal', 'yaw': -39.98, 'datetime': '2018-10-12 15:23:29.605922', 'mgs': 0, 'depth': -0.369, 'time': 15.49, 'pitch': 1.8, 'roll': -0.04}
{'lipoC2': 8.14, 'temp': 27.13, 'lipoC3S3': 12.58, 'rot1': 0, 'rot0': 0, 'rot3': 0, 'rot2': 0, 'state': 'normal', 'yaw': -40.25, 'datetime': '2018-10-12 15:23:29.703177', 'mgs': 0, 'depth': -0.369, 'time': 15.59, 'pitch': 1.43, 'roll': -0.2}
{'lipoC2': 8.14, 'temp': 27.13, 'lipoC3S3': 12.59, 'rot1': 0, 'rot0': 0, 'rot3': 0, 'rot2': 0, 'state': 'normal', 'yaw': -40.32, 'datetime': '2018-10-12 15:23:29.800680', 'mgs': 0, 'depth': -0.369, 'time': 15.69, 'pitch': 1.32, 'roll': -0.52}
{'lipoC2': 8.14, 'temp': 27.19, 'lipoC3S3': 12.59, 'rot1': 0, 'rot0': 0, 'rot3': 0, 'rot2': 0, 'state': 'normal', 'yaw': -40.22, 'datetime': '2018-10-12 15:23:29.899190', 'mgs': 0, 'depth': -0.369, 'time': 15.78, 'pitch': 1.49, 'roll': -0.81}
{'lipoC2': 8.14, 'temp': 27.19, 'lipoC3S3': 12.59, 'rot1': 0, 'rot0': 0, 'rot3': 0, 'rot2': 0, 'state': 'normal', 'yaw': -40.0, 'datetime': '2018-10-12 15:23:29.996375', 'mgs': 0, 'depth': -0.369, 'time': 15.88, 'pitch': 1.69, 'roll': -0.79}
{'lipoC2': 8.14, 'temp': 27.19, 'lipoC3S3': 12.59, 'rot1': 0, 'rot0': 0, 'rot3': 0, 'rot2': 0, 'state': 'normal', 'yaw': -39.83, 'datetime': '2018-10-12 15:23:30.093503', 'mgs': 0, 'depth': -0.446, 'time': 15.98, 'pitch': 1.69, 'roll': -0.69}
{'lipoC2': 8.14, 'temp': 27.19, 'lipoC3S3': 12.59, 'rot1': 0, 'rot0': 0, 'rot3': 0, 'rot2': 0, 'state': 'normal', 'yaw': -39.9, 'datetime': '2018-10-12 15:23:30.191240', 'mgs': 0, 'depth': -0.293, 'time': 16.08, 'pitch': 1.43, 'roll': -0.73}
{'lipoC2': 8.14, 'temp': 27.19, 'lipoC3S3': 12.59, 'rot1': 0, 'rot0': 0, 'rot3': 0, 'rot2': 0, 'state': 'normal', 'yaw': -40.3, 'datetime': '2018-10-12 15:23:30.288380', 'mgs': 0, 'depth': -0.369, 'time': 16.18, 'pitch': 1.06, 'roll': -0.88}
{'lipoC2': 8.14, 'temp': 27.13, 'lipoC3S3': 12.58, 'rot1': 0, 'rot0': 0, 'rot3': 0, 'rot2': 0, 'state': 'normal', 'yaw': -40.81, 'datetime': '2018-10-12 15:23:30.385490', 'mgs': 0, 'depth': -0.369, 'time': 16.27, 'pitch': 0.84, 'roll': -1.05}
{'lipoC2': 8.14, 'temp': 27.13, 'lipoC3S3': 12.58, 'rot1': 0, 'rot0': 0, 'rot3': 0, 'rot2': 0, 'state': 'normal', 'yaw': -41.19, 'datetime': '2018-10-12 15:23:30.482669', 'mgs': 0, 'depth': -0.369, 'time': 16.37, 'pitch': 0.85, 'roll': -1.25}
{'lipoC2': 8.14, 'temp': 27.13, 'lipoC3S3': 12.59, 'rot1': 0, 'rot0': 0, 'rot3': 0, 'rot2': 0, 'state': 'normal', 'yaw': -41.44, 'datetime': '2018-10-12 15:23:30.579831', 'mgs': 0, 'depth': -0.293, 'time': 16.47, 'pitch': 1.0, 'roll': -1.51}
{'lipoC2': 8.14, 'temp': 27.19, 'lipoC3S3': 12.59, 'rot1': 0, 'rot0': 0, 'rot3': 0, 'rot2': 0, 'state': 'normal', 'yaw': -41.5, 'datetime': '2018-10-12 15:23:30.676815', 'mgs': 0, 'depth': -0.446, 'time': 16.57, 'pitch': 1.18, 'roll': -1.88}
{'lipoC2': 8.14, 'temp': 27.19, 'lipoC3S3': 12.58, 'rot1': 0, 'rot0': 0, 'rot3': 0, 'rot2': 0, 'state': 'normal', 'yaw': -41.19, 'datetime': '2018-10-12 15:23:30.773984', 'mgs': 0, 'depth': -0.369, 'time': 16.66, 'pitch': 1.15, 'roll': -2.32}
{'lipoC2': 8.14, 'temp': 27.19, 'lipoC3S3': 12.59, 'rot1': 0, 'rot0': 0, 'rot3': 0, 'rot2': 0, 'state': 'normal', 'yaw': -40.7, 'datetime': '2018-10-12 15:23:30.871085', 'mgs': 0, 'depth': -0.369, 'time': 16.76, 'pitch': 0.95, 'roll': -2.62}
{'lipoC2': 8.14, 'temp': 27.19, 'lipoC3S3': 12.59, 'rot1': 0, 'rot0': 0, 'rot3': 0, 'rot2': 0, 'state': 'normal', 'yaw': -40.2, 'datetime': '2018-10-12 15:23:30.968171', 'mgs': 0, 'depth': -0.369, 'time': 16.86, 'pitch': 0.61, 'roll': -2.67}
{'lipoC2': 8.14, 'temp': 27.19, 'lipoC3S3': 12.59, 'rot1': 0, 'rot0': 0, 'rot3': 0, 'rot2': 0, 'state': 'normal', 'yaw': -40.03, 'datetime': '2018-10-12 15:23:31.060666', 'mgs': 0, 'depth': -0.369, 'time': 16.95, 'pitch': 0.19, 'roll': -2.53}
{'lipoC2': 8.14, 'temp': 27.13, 'lipoC3S3': 12.59, 'rot1': 0, 'rot0': 0, 'rot3': 0, 'rot2': 0, 'state': 'normal', 'yaw': -40.39, 'datetime': '2018-10-12 15:23:31.158599', 'mgs': 0, 'depth': -0.369, 'time': 17.05, 'pitch': -0.4, 'roll': -2.17}
{'lipoC2': 8.14, 'temp': 27.13, 'lipoC3S3': 12.58, 'rot1': 0, 'rot0': 0, 'rot3': 0, 'rot2': 0, 'state': 'normal', 'yaw': -41.31, 'datetime': '2018-10-12 15:23:31.256926', 'mgs': 0, 'depth': -0.369, 'time': 17.15, 'pitch': -1.04, 'roll': -1.89}
{'lipoC2': 8.14, 'temp': 27.19, 'lipoC3S3': 12.59, 'rot1': 0, 'rot0': 0, 'rot3': 0, 'rot2': 0, 'state': 'normal', 'yaw': -42.31, 'datetime': '2018-10-12 15:23:31.354165', 'mgs': 0, 'depth': -0.217, 'time': 17.25, 'pitch': -1.15, 'roll': -2.0}
{'lipoC2': 8.14, 'temp': 27.19, 'lipoC3S3': 12.59, 'rot1': 0, 'rot0': 0, 'rot3': 0, 'rot2': 0, 'state': 'normal', 'yaw': -42.9, 'datetime': '2018-10-12 15:23:31.451317', 'mgs': 0, 'depth': -0.293, 'time': 17.34, 'pitch': -0.86, 'roll': -1.97}
{'lipoC2': 8.14, 'temp': 27.19, 'lipoC3S3': 12.59, 'rot1': 0, 'rot0': 0, 'rot3': 0, 'rot2': 0, 'state': 'normal', 'yaw': -42.91, 'datetime': '2018-10-12 15:23:31.549035', 'mgs': 0, 'depth': -0.293, 'time': 17.44, 'pitch': -0.51, 'roll': -1.5}
{'lipoC2': 8.14, 'temp': 27.19, 'lipoC3S3': 12.59, 'rot1': 0, 'rot0': 0, 'rot3': 0, 'rot2': 0, 'state': 'normal', 'yaw': -42.39, 'datetime': '2018-10-12 15:23:31.647436', 'mgs': 0, 'depth': -0.293, 'time': 17.54, 'pitch': -0.28, 'roll': -0.8}
{'lipoC2': 8.14, 'temp': 27.19, 'lipoC3S3': 12.58, 'rot1': 0, 'rot0': 0, 'rot3': 0, 'rot2': 0, 'state': 'normal', 'yaw': -41.69, 'datetime': '2018-10-12 15:23:31.744568', 'mgs': 0, 'depth': -0.369, 'time': 17.64, 'pitch': -0.33, 'roll': -0.36}
{'lipoC2': 8.14, 'temp': 27.13, 'lipoC3S3': 12.59, 'rot1': 0, 'rot0': 0, 'rot3': 0, 'rot2': 0, 'state': 'normal', 'yaw': -41.14, 'datetime': '2018-10-12 15:23:31.841686', 'mgs': 0, 'depth': -0.369, 'time': 17.74, 'pitch': -0.55, 'roll': -0.53}
{'lipoC2': 8.14, 'temp': 27.13, 'lipoC3S3': 12.59, 'rot1': 0, 'rot0': 0, 'rot3': 0, 'rot2': 0, 'state': 'normal', 'yaw': -40.95, 'datetime': '2018-10-12 15:23:31.939576', 'mgs': 0, 'depth': -0.217, 'time': 17.83, 'pitch': -0.84, 'roll': -1.1}
{'lipoC2': 8.14, 'temp': 27.13, 'lipoC3S3': 12.59, 'rot1': 0, 'rot0': 0, 'rot3': 0, 'rot2': 0, 'state': 'normal', 'yaw': -41.15, 'datetime': '2018-10-12 15:23:32.036690', 'mgs': 0, 'depth': -0.217, 'time': 17.93, 'pitch': -1.12, 'roll': -1.86}
{'lipoC2': 8.14, 'temp': 27.19, 'lipoC3S3': 12.58, 'rot1': 0, 'rot0': 0, 'rot3': 0, 'rot2': 0, 'state': 'normal', 'yaw': -41.6, 'datetime': '2018-10-12 15:23:32.133850', 'mgs': 0, 'depth': -0.217, 'time': 18.03, 'pitch': -1.22, 'roll': -2.55}
{'lipoC2': 8.15, 'temp': 27.19, 'lipoC3S3': 12.59, 'rot1': 0, 'rot0': 0, 'rot3': 0, 'rot2': 0, 'state': 'normal', 'yaw': -41.96, 'datetime': '2018-10-12 15:23:32.231130', 'mgs': 0, 'depth': -0.217, 'time': 18.12, 'pitch': -1.15, 'roll': -2.8}
{'lipoC2': 8.14, 'temp': 27.19, 'lipoC3S3': 12.58, 'rot1': 0, 'rot0': 0, 'rot3': 0, 'rot2': 0, 'state': 'normal', 'yaw': -42.07, 'datetime': '2018-10-12 15:23:32.328121', 'mgs': 0, 'depth': -0.369, 'time': 18.22, 'pitch': -1.1, 'roll': -2.67}
{'lipoC2': 8.14, 'temp': 27.19, 'lipoC3S3': 12.59, 'rot1': 0, 'rot0': 0, 'rot3': 0, 'rot2': 0, 'state': 'normal', 'yaw': -41.74, 'datetime': '2018-10-12 15:23:32.425200', 'mgs': 0, 'depth': -0.369, 'time': 18.32, 'pitch': -1.08, 'roll': -2.21}
{'lipoC2': 8.14, 'temp': 27.19, 'lipoC3S3': 12.59, 'rot1': 0, 'rot0': 0, 'rot3': 0, 'rot2': 0, 'state': 'normal', 'yaw': -41.08, 'datetime': '2018-10-12 15:23:32.522372', 'mgs': 0, 'depth': -0.369, 'time': 18.42, 'pitch': -1.17, 'roll': -1.79}
{'lipoC2': 8.14, 'temp': 27.19, 'lipoC3S3': 12.59, 'rot1': 0, 'rot0': 0, 'rot3': 0, 'rot2': 0, 'state': 'normal', 'yaw': -40.51, 'datetime': '2018-10-12 15:23:32.623284', 'mgs': 0, 'depth': -0.293, 'time': 18.51, 'pitch': -1.39, 'roll': -1.7}
{'lipoC2': 8.14, 'temp': 27.19, 'lipoC3S3': 12.59, 'rot1': 0, 'rot0': 0, 'rot3': 0, 'rot2': 0, 'state': 'normal', 'yaw': -40.02, 'datetime': '2018-10-12 15:23:32.716622', 'mgs': 0, 'depth': -0.369, 'time': 18.61, 'pitch': -1.59, 'roll': -2.0}
{'lipoC2': 8.14, 'temp': 27.19, 'lipoC3S3': 12.58, 'rot1': 0, 'rot0': 0, 'rot3': 0, 'rot2': 0, 'state': 'normal', 'yaw': -39.79, 'datetime': '2018-10-12 15:23:32.813702', 'mgs': 0, 'depth': -0.293, 'time': 18.71, 'pitch': -1.66, 'roll': -2.52}
{'lipoC2': 8.14, 'temp': 27.19, 'lipoC3S3': 12.59, 'rot1': 0, 'rot0': 0, 'rot3': 0, 'rot2': 0, 'state': 'normal', 'yaw': -39.87, 'datetime': '2018-10-12 15:23:32.911633', 'mgs': 0, 'depth': -0.293, 'time': 18.81, 'pitch': -1.64, 'roll': -2.88}
{'lipoC2': 8.14, 'temp': 27.13, 'lipoC3S3': 12.59, 'rot1': 0, 'rot0': 0, 'rot3': 0, 'rot2': 0, 'state': 'normal', 'yaw': -40.32, 'datetime': '2018-10-12 15:23:33.009994', 'mgs': 0, 'depth': -0.369, 'time': 18.91, 'pitch': -1.58, 'roll': -3.0}
{'lipoC2': 8.14, 'temp': 27.13, 'lipoC3S3': 12.59, 'rot1': 0, 'rot0': 0, 'rot3': 0, 'rot2': 0, 'state': 'normal', 'yaw': -40.95, 'datetime': '2018-10-12 15:23:33.107401', 'mgs': 0, 'depth': -0.293, 'time': 19.0, 'pitch': -1.5, 'roll': -2.91}
{'lipoC2': 8.14, 'temp': 27.13, 'lipoC3S3': 12.58, 'rot1': 0, 'rot0': 0, 'rot3': 0, 'rot2': 0, 'state': 'normal', 'yaw': -41.49, 'datetime': '2018-10-12 15:23:33.204487', 'mgs': 0, 'depth': -0.369, 'time': 19.1, 'pitch': -1.47, 'roll': -2.64}
{'lipoC2': 8.14, 'temp': 27.19, 'lipoC3S3': 12.59, 'rot1': 0, 'rot0': 0, 'rot3': 0, 'rot2': 0, 'state': 'normal', 'yaw': -41.79, 'datetime': '2018-10-12 15:23:33.302233', 'mgs': 0, 'depth': -0.293, 'time': 19.2, 'pitch': -1.51, 'roll': -2.46}
{'lipoC2': 8.14, 'temp': 27.19, 'lipoC3S3': 12.59, 'rot1': 0, 'rot0': 0, 'rot3': 0, 'rot2': 0, 'state': 'normal', 'yaw': -42.04, 'datetime': '2018-10-12 15:23:33.400654', 'mgs': 0, 'depth': -0.369, 'time': 19.3, 'pitch': -1.56, 'roll': -2.35}
{'lipoC2': 8.14, 'temp': 27.19, 'lipoC3S3': 12.58, 'rot1': 0, 'rot0': 0, 'rot3': 0, 'rot2': 0, 'state': 'normal', 'yaw': -42.44, 'datetime': '2018-10-12 15:23:33.498220', 'mgs': 0, 'depth': -0.369, 'time': 19.39, 'pitch': -1.62, 'roll': -2.29}
{'lipoC2': 8.14, 'temp': 27.19, 'lipoC3S3': 12.59, 'rot1': 0, 'rot0': 0, 'rot3': 0, 'rot2': 0, 'state': 'normal', 'yaw': -43.07, 'datetime': '2018-10-12 15:23:33.595307', 'mgs': 0, 'depth': -0.293, 'time': 19.49, 'pitch': -1.49, 'roll': -2.15}
{'lipoC2': 8.14, 'temp': 27.19, 'lipoC3S3': 12.58, 'rot1': 0, 'rot0': 0, 'rot3': 0, 'rot2': 0, 'state': 'normal', 'yaw': -43.79, 'datetime': '2018-10-12 15:23:33.692811', 'mgs': 0, 'depth': -0.293, 'time': 19.59, 'pitch': -1.13, 'roll': -1.9}
{'lipoC2': 8.14, 'temp': 27.19, 'lipoC3S3': 12.59, 'rot1': 0, 'rot0': 0, 'rot3': 0, 'rot2': 0, 'state': 'normal', 'yaw': -44.51, 'datetime': '2018-10-12 15:23:33.789978', 'mgs': 0, 'depth': -0.369, 'time': 19.68, 'pitch': -0.65, 'roll': -1.32}
{'lipoC2': 8.14, 'temp': 27.19, 'lipoC3S3': 12.59, 'rot1': 0, 'rot0': 0, 'rot3': 0, 'rot2': 0, 'state': 'normal', 'yaw': -45.0, 'datetime': '2018-10-12 15:23:33.887040', 'mgs': 0, 'depth': -0.293, 'time': 19.78, 'pitch': -0.34, 'roll': -0.56}
{'lipoC2': 8.14, 'temp': 27.19, 'lipoC3S3': 12.58, 'rot1': 0, 'rot0': 0, 'rot3': 0, 'rot2': 0, 'state': 'normal', 'yaw': -45.29, 'datetime': '2018-10-12 15:23:33.984181', 'mgs': 0, 'depth': -0.217, 'time': 19.88, 'pitch': -0.26, 'roll': 0.1}
{'lipoC2': 8.14, 'temp': 27.19, 'lipoC3S3': 12.59, 'rot1': 0, 'rot0': 0, 'rot3': 0, 'rot2': 0, 'state': 'normal', 'yaw': -45.41, 'datetime': '2018-10-12 15:23:34.082631', 'mgs': 0, 'depth': -0.293, 'time': 19.98, 'pitch': -0.26, 'roll': 0.39}
{'lipoC2': 8.14, 'temp': 27.19, 'lipoC3S3': 12.59, 'rot1': 0, 'rot0': 0, 'rot3': 0, 'rot2': 0, 'state': 'normal', 'yaw': -45.5, 'datetime': '2018-10-12 15:23:34.179773', 'mgs': 0, 'depth': -0.217, 'time': 20.08, 'pitch': -0.37, 'roll': 0.36}
{'lipoC2': 8.14, 'temp': 27.19, 'lipoC3S3': 12.59, 'rot1': 0, 'rot0': 0, 'rot3': 0, 'rot2': 0, 'state': 'normal', 'yaw': -45.64, 'datetime': '2018-10-12 15:23:34.276845', 'mgs': 0, 'depth': -0.293, 'time': 20.17, 'pitch': -0.57, 'roll': 0.3}
{'lipoC2': 8.14, 'temp': 27.19, 'lipoC3S3': 12.59, 'rot1': 0, 'rot0': 0, 'rot3': 0, 'rot2': 0, 'state': 'normal', 'yaw': -45.95, 'datetime': '2018-10-12 15:23:34.373984', 'mgs': 0, 'depth': -0.369, 'time': 20.27, 'pitch': -0.85, 'roll': 0.27}
{'lipoC2': 8.14, 'temp': 27.19, 'lipoC3S3': 12.59, 'rot1': 0, 'rot0': 0, 'rot3': 0, 'rot2': 0, 'state': 'normal', 'yaw': -46.42, 'datetime': '2018-10-12 15:23:34.471063', 'mgs': 0, 'depth': -0.369, 'time': 20.37, 'pitch': -1.04, 'roll': 0.23}
{'lipoC2': 8.14, 'temp': 27.19, 'lipoC3S3': 12.58, 'rot1': 0, 'rot0': 0, 'rot3': 0, 'rot2': 0, 'state': 'normal', 'yaw': -47.06, 'datetime': '2018-10-12 15:23:34.568183', 'mgs': 0, 'depth': -0.293, 'time': 20.46, 'pitch': -0.91, 'roll': 0.29}
{'lipoC2': 8.14, 'temp': 27.19, 'lipoC3S3': 12.58, 'rot1': 0, 'rot0': 0, 'rot3': 0, 'rot2': 0, 'state': 'normal', 'yaw': -47.6, 'datetime': '2018-10-12 15:23:34.665281', 'mgs': 0, 'depth': -0.293, 'time': 20.56, 'pitch': -0.61, 'roll': 0.54}
{'lipoC2': 8.14, 'temp': 27.13, 'lipoC3S3': 12.59, 'rot1': 0, 'rot0': 0, 'rot3': 0, 'rot2': 0, 'state': 'normal', 'yaw': -47.97, 'datetime': '2018-10-12 15:23:34.763921', 'mgs': 0, 'depth': -0.293, 'time': 20.66, 'pitch': -0.49, 'roll': 0.76}
{'lipoC2': 8.14, 'temp': 27.13, 'lipoC3S3': 12.59, 'rot1': 0, 'rot0': 0, 'rot3': 0, 'rot2': 0, 'state': 'normal', 'yaw': -48.29, 'datetime': '2018-10-12 15:23:34.862287', 'mgs': 0, 'depth': -0.293, 'time': 20.76, 'pitch': -0.49, 'roll': 0.93}
{'lipoC2': 8.14, 'temp': 27.19, 'lipoC3S3': 12.59, 'rot1': 0, 'rot0': 0, 'rot3': 0, 'rot2': 0, 'state': 'normal', 'yaw': -48.38, 'datetime': '2018-10-12 15:23:34.959435', 'mgs': 0, 'depth': -0.217, 'time': 20.85, 'pitch': -0.6, 'roll': 1.23}
{'lipoC2': 8.14, 'temp': 27.19, 'lipoC3S3': 12.59, 'rot1': 0, 'rot0': 0, 'rot3': 0, 'rot2': 0, 'state': 'normal', 'yaw': -48.53, 'datetime': '2018-10-12 15:23:35.056558', 'mgs': 0, 'depth': -0.293, 'time': 20.95, 'pitch': -0.93, 'roll': 1.32}
{'lipoC2': 8.14, 'temp': 27.19, 'lipoC3S3': 12.59, 'rot1': 0, 'rot0': 0, 'rot3': 0, 'rot2': 0, 'state': 'normal', 'yaw': -48.8, 'datetime': '2018-10-12 15:23:35.154645', 'mgs': 0, 'depth': -0.217, 'time': 21.05, 'pitch': -1.18, 'roll': 0.89}
{'lipoC2': 8.14, 'temp': 27.19, 'lipoC3S3': 12.59, 'rot1': 0, 'rot0': 0, 'rot3': 0, 'rot2': 0, 'state': 'normal', 'yaw': -49.0, 'datetime': '2018-10-12 15:23:35.253034', 'mgs': 0, 'depth': -0.293, 'time': 21.15, 'pitch': -1.29, 'roll': 0.16}
{'lipoC2': 8.14, 'temp': 27.19, 'lipoC3S3': 12.59, 'rot1': 0, 'rot0': 0, 'rot3': 0, 'rot2': 0, 'state': 'normal', 'yaw': -49.0, 'datetime': '2018-10-12 15:23:35.350158', 'mgs': 0, 'depth': -0.293, 'time': 21.25, 'pitch': -1.24, 'roll': -0.39}
{'lipoC2': 8.14, 'temp': 27.19, 'lipoC3S3': 12.59, 'rot1': 0, 'rot0': 0, 'rot3': 0, 'rot2': 0, 'state': 'normal', 'yaw': -49.06, 'datetime': '2018-10-12 15:23:35.447258', 'mgs': 0, 'depth': -0.293, 'time': 21.34, 'pitch': -1.04, 'roll': -0.78}
{'lipoC2': 8.14, 'temp': 27.19, 'lipoC3S3': 12.59, 'rot1': 0, 'rot0': 0, 'rot3': 0, 'rot2': 0, 'state': 'normal', 'yaw': -49.19, 'datetime': '2018-10-12 15:23:35.545175', 'mgs': 0, 'depth': -0.293, 'time': 21.44, 'pitch': -0.78, 'roll': -0.85}
{'lipoC2': 8.14, 'temp': 27.19, 'lipoC3S3': 12.58, 'rot1': 0, 'rot0': 0, 'rot3': 0, 'rot2': 0, 'state': 'normal', 'yaw': -49.24, 'datetime': '2018-10-12 15:23:35.642319', 'mgs': 0, 'depth': -0.293, 'time': 21.54, 'pitch': -0.37, 'roll': -0.21}
{'lipoC2': 8.14, 'temp': 27.13, 'lipoC3S3': 12.59, 'rot1': 0, 'rot0': 0, 'rot3': 0, 'rot2': 0, 'state': 'normal', 'yaw': -49.38, 'datetime': '2018-10-12 15:23:35.739379', 'mgs': 0, 'depth': -0.217, 'time': 21.64, 'pitch': -0.02, 'roll': 0.51}
{'lipoC2': 8.14, 'temp': 27.13, 'lipoC3S3': 12.58, 'rot1': 0, 'rot0': 0, 'rot3': 0, 'rot2': 0, 'state': 'normal', 'yaw': -49.55, 'datetime': '2018-10-12 15:23:35.836614', 'mgs': 0, 'depth': -0.293, 'time': 21.73, 'pitch': 0.29, 'roll': 0.8}
{'lipoC2': 8.14, 'temp': 27.19, 'lipoC3S3': 12.59, 'rot1': 0, 'rot0': 0, 'rot3': 0, 'rot2': 0, 'state': 'normal', 'yaw': -49.62, 'datetime': '2018-10-12 15:23:35.933559', 'mgs': 0, 'depth': -0.293, 'time': 21.83, 'pitch': 0.6, 'roll': 0.53}
{'lipoC2': 8.14, 'temp': 27.19, 'lipoC3S3': 12.59, 'rot1': 0, 'rot0': 0, 'rot3': 0, 'rot2': 0, 'state': 'normal', 'yaw': -49.54, 'datetime': '2018-10-12 15:23:36.030656', 'mgs': 0, 'depth': -0.293, 'time': 21.93, 'pitch': 0.7, 'roll': 0.04}
{'lipoC2': 8.14, 'temp': 27.19, 'lipoC3S3': 12.58, 'rot1': 0, 'rot0': 0, 'rot3': 0, 'rot2': 0, 'state': 'normal', 'yaw': -49.32, 'datetime': '2018-10-12 15:23:36.127812', 'mgs': 0, 'depth': -0.217, 'time': 22.03, 'pitch': 0.42, 'roll': -0.34}
{'lipoC2': 8.14, 'temp': 27.19, 'lipoC3S3': 12.59, 'rot1': 0, 'rot0': 0, 'rot3': 0, 'rot2': 0, 'state': 'normal', 'yaw': -49.07, 'datetime': '2018-10-12 15:23:36.224930', 'mgs': 0, 'depth': -0.217, 'time': 22.12, 'pitch': -0.07, 'roll': -0.62}
{'lipoC2': 8.14, 'temp': 27.19, 'lipoC3S3': 12.58, 'rot1': 0, 'rot0': 0, 'rot3': 0, 'rot2': 0, 'state': 'normal', 'yaw': -48.92, 'datetime': '2018-10-12 15:23:36.322033', 'mgs': 0, 'depth': -0.293, 'time': 22.22, 'pitch': -0.75, 'roll': -0.76}
{'lipoC2': 8.14, 'temp': 27.19, 'lipoC3S3': 12.58, 'rot1': 0, 'rot0': 0, 'rot3': 0, 'rot2': 0, 'state': 'normal', 'yaw': -48.96, 'datetime': '2018-10-12 15:23:36.419091', 'mgs': 0, 'depth': -0.293, 'time': 22.32, 'pitch': -1.19, 'roll': -0.73}
{'lipoC2': 8.14, 'temp': 27.19, 'lipoC3S3': 12.58, 'rot1': 0, 'rot0': 0, 'rot3': 0, 'rot2': 0, 'state': 'normal', 'yaw': -49.1, 'datetime': '2018-10-12 15:23:36.517139', 'mgs': 0, 'depth': -0.293, 'time': 22.42, 'pitch': -1.39, 'roll': -0.75}
{'lipoC2': 8.14, 'temp': 27.19, 'lipoC3S3': 12.58, 'rot1': 0, 'rot0': 0, 'rot3': 0, 'rot2': 0, 'state': 'normal', 'yaw': -49.26, 'datetime': '2018-10-12 15:23:36.615532', 'mgs': 0, 'depth': -0.217, 'time': 22.51, 'pitch': -1.67, 'roll': -1.03}
{'lipoC2': 8.14, 'temp': 27.19, 'lipoC3S3': 12.58, 'rot1': 0, 'rot0': 0, 'rot3': 0, 'rot2': 0, 'state': 'normal', 'yaw': -49.42, 'datetime': '2018-10-12 15:23:36.712621', 'mgs': 0, 'depth': -0.293, 'time': 22.61, 'pitch': -1.93, 'roll': -1.57}
{'lipoC2': 8.14, 'temp': 27.19, 'lipoC3S3': 12.58, 'rot1': 0, 'rot0': 0, 'rot3': 0, 'rot2': 0, 'state': 'normal', 'yaw': -49.66, 'datetime': '2018-10-12 15:23:36.809758', 'mgs': 0, 'depth': -0.293, 'time': 22.71, 'pitch': -1.98, 'roll': -2.19}
{'lipoC2': 8.14, 'temp': 27.19, 'lipoC3S3': 12.58, 'rot1': 0, 'rot0': 0, 'rot3': 0, 'rot2': 0, 'state': 'normal', 'yaw': -49.89, 'datetime': '2018-10-12 15:23:36.907646', 'mgs': 0, 'depth': -0.369, 'time': 22.81, 'pitch': -1.88, 'roll': -2.55}
{'lipoC2': 8.14, 'temp': 27.19, 'lipoC3S3': 12.59, 'rot1': 0, 'rot0': 0, 'rot3': 0, 'rot2': 0, 'state': 'normal', 'yaw': -50.24, 'datetime': '2018-10-12 15:23:37.006016', 'mgs': 0, 'depth': -0.293, 'time': 22.9, 'pitch': -1.8, 'roll': -2.74}
{'lipoC2': 8.14, 'temp': 27.19, 'lipoC3S3': 12.58, 'rot1': 0, 'rot0': 0, 'rot3': 0, 'rot2': 0, 'state': 'normal', 'yaw': -50.69, 'datetime': '2018-10-12 15:23:37.103108', 'mgs': 0, 'depth': -0.293, 'time': 23.0, 'pitch': -1.86, 'roll': -2.58}
{'lipoC2': 8.14, 'temp': 27.13, 'lipoC3S3': 12.59, 'rot1': 0, 'rot0': 0, 'rot3': 0, 'rot2': 0, 'state': 'normal', 'yaw': -51.23, 'datetime': '2018-10-12 15:23:37.200290', 'mgs': 0, 'depth': -0.293, 'time': 23.1, 'pitch': -1.96, 'roll': -2.05}
{'lipoC2': 8.14, 'temp': 27.13, 'lipoC3S3': 12.59, 'rot1': 0, 'rot0': 0, 'rot3': 0, 'rot2': 0, 'state': 'normal', 'yaw': -51.81, 'datetime': '2018-10-12 15:23:37.297496', 'mgs': 0, 'depth': -0.369, 'time': 23.2, 'pitch': -2.03, 'roll': -1.59}
{'lipoC2': 8.14, 'temp': 27.19, 'lipoC3S3': 12.59, 'rot1': 0, 'rot0': 0, 'rot3': 0, 'rot2': 0, 'state': 'normal', 'yaw': -52.42, 'datetime': '2018-10-12 15:23:37.394555', 'mgs': 0, 'depth': -0.293, 'time': 23.29, 'pitch': -1.96, 'roll': -1.42}
{'lipoC2': 8.14, 'temp': 27.19, 'lipoC3S3': 12.59, 'rot1': 0, 'rot0': 0, 'rot3': 0, 'rot2': 0, 'state': 'normal', 'yaw': -52.89, 'datetime': '2018-10-12 15:23:37.491680', 'mgs': 0, 'depth': -0.293, 'time': 23.39, 'pitch': -1.74, 'roll': -1.4}
{'lipoC2': 8.14, 'temp': 27.19, 'lipoC3S3': 12.58, 'rot1': 0, 'rot0': 0, 'rot3': 0, 'rot2': 0, 'state': 'normal', 'yaw': -53.09, 'datetime': '2018-10-12 15:23:37.588942', 'mgs': 0, 'depth': -0.293, 'time': 23.49, 'pitch': -1.59, 'roll': -1.43}
{'lipoC2': 8.14, 'temp': 27.19, 'lipoC3S3': 12.59, 'rot1': 0, 'rot0': 0, 'rot3': 0, 'rot2': 0, 'state': 'normal', 'yaw': -53.22, 'datetime': '2018-10-12 15:23:37.686093', 'mgs': 0, 'depth': -0.369, 'time': 23.58, 'pitch': -1.59, 'roll': -1.51}
{'lipoC2': 8.14, 'temp': 27.19, 'lipoC3S3': 12.59, 'rot1': 0, 'rot0': 0, 'rot3': 0, 'rot2': 0, 'state': 'normal', 'yaw': -53.46, 'datetime': '2018-10-12 15:23:37.783185', 'mgs': 0, 'depth': -0.293, 'time': 23.68, 'pitch': -1.71, 'roll': -1.79}
{'lipoC2': 8.14, 'temp': 27.19, 'lipoC3S3': 12.59, 'rot1': 0, 'rot0': 0, 'rot3': 0, 'rot2': 0, 'state': 'normal', 'yaw': -53.88, 'datetime': '2018-10-12 15:23:37.880310', 'mgs': 0, 'depth': -0.369, 'time': 23.78, 'pitch': -1.8, 'roll': -2.01}
{'lipoC2': 8.14, 'temp': 27.19, 'lipoC3S3': 12.58, 'rot1': 0, 'rot0': 0, 'rot3': 0, 'rot2': 0, 'state': 'normal', 'yaw': -54.45, 'datetime': '2018-10-12 15:23:37.977490', 'mgs': 0, 'depth': -0.369, 'time': 23.88, 'pitch': -1.68, 'roll': -1.91}
{'lipoC2': 8.14, 'temp': 27.19, 'lipoC3S3': 12.59, 'rot1': 0, 'rot0': 0, 'rot3': 0, 'rot2': 0, 'state': 'normal', 'yaw': -55.37, 'datetime': '2018-10-12 15:23:38.074568', 'mgs': 0, 'depth': -0.369, 'time': 23.97, 'pitch': -1.4, 'roll': -1.24}
{'lipoC2': 8.14, 'temp': 27.19, 'lipoC3S3': 12.59, 'rot1': 0, 'rot0': 0, 'rot3': 0, 'rot2': 0, 'state': 'normal', 'yaw': -56.49, 'datetime': '2018-10-12 15:23:38.171705', 'mgs': 0, 'depth': -0.293, 'time': 24.07, 'pitch': -1.08, 'roll': -0.35}
{'lipoC2': 8.14, 'temp': 27.19, 'lipoC3S3': 12.59, 'rot1': 0, 'rot0': 0, 'rot3': 0, 'rot2': 0, 'state': 'normal', 'yaw': -57.39, 'datetime': '2018-10-12 15:23:38.269894', 'mgs': 0, 'depth': -0.293, 'time': 24.17, 'pitch': -0.98, 'roll': 0.26}
{'lipoC2': 8.14, 'temp': 27.19, 'lipoC3S3': 12.59, 'rot1': 0, 'rot0': 0, 'rot3': 0, 'rot2': 0, 'state': 'normal', 'yaw': -57.92, 'datetime': '2018-10-12 15:23:38.368296', 'mgs': 0, 'depth': -0.217, 'time': 24.27, 'pitch': -1.08, 'roll': 0.6}
{'lipoC2': 8.13, 'temp': 27.19, 'lipoC3S3': 12.59, 'rot1': 0, 'rot0': 0, 'rot3': 0, 'rot2': 0, 'state': 'normal', 'yaw': -57.91, 'datetime': '2018-10-12 15:23:38.465420', 'mgs': 0, 'depth': -0.369, 'time': 24.37, 'pitch': -1.3, 'roll': 0.68}
{'lipoC2': 8.14, 'temp': 27.19, 'lipoC3S3': 12.59, 'rot1': 0, 'rot0': 0, 'rot3': 0, 'rot2': 0, 'state': 'normal', 'yaw': -57.75, 'datetime': '2018-10-12 15:23:38.562991', 'mgs': 0, 'depth': -0.293, 'time': 24.46, 'pitch': -1.8, 'roll': 0.29}
{'lipoC2': 8.14, 'temp': 27.19, 'lipoC3S3': 12.59, 'rot1': 0, 'rot0': 0, 'rot3': 0, 'rot2': 0, 'state': 'normal', 'yaw': -57.87, 'datetime': '2018-10-12 15:23:38.660429', 'mgs': 0, 'depth': -0.293, 'time': 24.56, 'pitch': -2.18, 'roll': -0.28}
{'lipoC2': 8.14, 'temp': 27.19, 'lipoC3S3': 12.59, 'rot1': 0, 'rot0': 0, 'rot3': 0, 'rot2': 0, 'state': 'normal', 'yaw': -58.61, 'datetime': '2018-10-12 15:23:38.758759', 'mgs': 0, 'depth': -0.217, 'time': 24.66, 'pitch': -2.48, 'roll': -0.34}
{'lipoC2': 8.14, 'temp': 27.19, 'lipoC3S3': 12.59, 'rot1': 0, 'rot0': 0, 'rot3': 0, 'rot2': 0, 'state': 'normal', 'yaw': -60.02, 'datetime': '2018-10-12 15:23:38.858324', 'mgs': 0, 'depth': -0.217, 'time': 24.76, 'pitch': -2.34, 'roll': -0.44}
{'lipoC2': 8.14, 'temp': 27.19, 'lipoC3S3': 12.59, 'rot1': 0, 'rot0': 0, 'rot3': 0, 'rot2': 0, 'state': 'normal', 'yaw': -61.71, 'datetime': '2018-10-12 15:23:38.957674', 'mgs': 0, 'depth': -0.217, 'time': 24.85, 'pitch': -1.6, 'roll': -0.51}
{'lipoC2': 8.14, 'temp': 27.19, 'lipoC3S3': 12.59, 'rot1': 0, 'rot0': 0, 'rot3': 0, 'rot2': 0, 'state': 'normal', 'yaw': -62.95, 'datetime': '2018-10-12 15:23:39.055504', 'mgs': 0, 'depth': -0.293, 'time': 24.95, 'pitch': -1.22, 'roll': -0.34}
{'lipoC2': 8.14, 'temp': 27.19, 'lipoC3S3': 12.58, 'rot1': 0, 'rot0': 0, 'rot3': 0, 'rot2': 0, 'state': 'normal', 'yaw': -63.81, 'datetime': '2018-10-12 15:23:39.152650', 'mgs': 0, 'depth': -0.293, 'time': 25.05, 'pitch': -1.36, 'roll': -0.11}
{'lipoC2': 8.14, 'temp': 27.19, 'lipoC3S3': 12.59, 'rot1': 0, 'rot0': 0, 'rot3': 0, 'rot2': 0, 'state': 'normal', 'yaw': -64.22, 'datetime': '2018-10-12 15:23:39.249744', 'mgs': 0, 'depth': -0.293, 'time': 25.15, 'pitch': -1.86, 'roll': 0.07}
{'lipoC2': 8.14, 'temp': 27.19, 'lipoC3S3': 12.59, 'rot1': 0, 'rot0': 0, 'rot3': 0, 'rot2': 0, 'state': 'normal', 'yaw': -64.32, 'datetime': '2018-10-12 15:23:39.346783', 'mgs': 0, 'depth': -0.293, 'time': 25.24, 'pitch': -2.5, 'roll': 0.02}
