{'lipoC2': 8.17, 'temp': 26.63, 'lipoC3S3': 12.7, 'rot1': 0, 'rot0': 0, 'rot3': 0, 'rot2': 0, 'state': 'normal', 'yaw': 0.0, 'datetime': '2018-10-12 15:16:37.758127', 'mgs': 0, 'depth': 0.012, 'time': 1.26, 'pitch': 5.01, 'roll': -4.24}
{'lipoC2': 8.17, 'temp': 26.63, 'lipoC3S3': 12.7, 'rot1': 0, 'rot0': 0, 'rot3': 0, 'rot2': 0, 'state': 'normal', 'yaw': -0.35, 'datetime': '2018-10-12 15:16:37.775980', 'mgs': 0, 'depth': -0.064, 'time': 1.36, 'pitch': 5.52, 'roll': -5.06}
{'lipoC2': 8.17, 'temp': 26.63, 'lipoC3S3': 12.71, 'rot1': 0, 'rot0': 0, 'rot3': 0, 'rot2': 0, 'state': 'normal', 'yaw': -0.45, 'datetime': '2018-10-12 15:16:37.793739', 'mgs': 0, 'depth': -0.064, 'time': 1.45, 'pitch': 5.52, 'roll': -5.41}
{'lipoC2': 8.16, 'temp': 26.63, 'lipoC3S3': 12.7, 'rot1': 0, 'rot0': 0, 'rot3': 0, 'rot2': 0, 'state': 'normal', 'yaw': -0.39, 'datetime': '2018-10-12 15:16:37.811413', 'mgs': 0, 'depth': 0.012, 'time': 1.55, 'pitch': 5.17, 'roll': -5.12}
{'lipoC2': 8.17, 'temp': 26.63, 'lipoC3S3': 12.7, 'rot1': 0, 'rot0': 0, 'rot3': 0, 'rot2': 0, 'state': 'normal', 'yaw': -0.15, 'datetime': '2018-10-12 15:16:37.829194', 'mgs': 0, 'depth': -0.064, 'time': 1.65, 'pitch': 4.61, 'roll': -4.43}
{'lipoC2': 8.17, 'temp': 26.63, 'lipoC3S3': 12.7, 'rot1': 0, 'rot0': 0, 'rot3': 0, 'rot2': 0, 'state': 'normal', 'yaw': 0.13, 'datetime': '2018-10-12 15:16:37.846893', 'mgs': 0, 'depth': 0.012, 'time': 1.75, 'pitch': 4.18, 'roll': -3.93}
{'lipoC2': 8.17, 'temp': 26.63, 'lipoC3S3': 12.7, 'rot1': 0, 'rot0': 0, 'rot3': 0, 'rot2': 0, 'state': 'normal', 'yaw': 0.33, 'datetime': '2018-10-12 15:16:37.861346', 'mgs': 0, 'depth': 0.012, 'time': 1.85, 'pitch': 4.1, 'roll': -3.98}
{'lipoC2': 8.17, 'temp': 26.63, 'lipoC3S3': 12.7, 'rot1': 0, 'rot0': 0, 'rot3': 0, 'rot2': 0, 'state': 'normal', 'yaw': 0.34, 'datetime': '2018-10-12 15:16:37.868994', 'mgs': 0, 'depth': 0.012, 'time': 1.94, 'pitch': 4.3, 'roll': -4.54}
{'lipoC2': 8.17, 'temp': 26.63, 'lipoC3S3': 12.7, 'rot1': 0, 'rot0': 0, 'rot3': 0, 'rot2': 0, 'state': 'normal', 'yaw': 0.18, 'datetime': '2018-10-12 15:16:37.876265', 'mgs': 0, 'depth': -0.064, 'time': 2.04, 'pitch': 4.73, 'roll': -5.42}
{'lipoC2': 8.17, 'temp': 26.63, 'lipoC3S3': 12.7, 'rot1': 0, 'rot0': 0, 'rot3': 0, 'rot2': 0, 'state': 'normal', 'yaw': -0.11, 'datetime': '2018-10-12 15:16:37.883503', 'mgs': 0, 'depth': -0.064, 'time': 2.14, 'pitch': 5.28, 'roll': -6.21}
{'lipoC2': 8.17, 'temp': 26.63, 'lipoC3S3': 12.7, 'rot1': 0, 'rot0': 0, 'rot3': 0, 'rot2': 0, 'state': 'normal', 'yaw': -0.36, 'datetime': '2018-10-12 15:16:37.890786', 'mgs': 0, 'depth': -0.064, 'time': 2.23, 'pitch': 5.7, 'roll': -6.56}
{'lipoC2': 8.17, 'temp': 26.63, 'lipoC3S3': 12.7, 'rot1': 0, 'rot0': 0, 'rot3': 0, 'rot2': 0, 'state': 'normal', 'yaw': -0.67, 'datetime': '2018-10-12 15:16:37.898124', 'mgs': 0, 'depth': -0.064, 'time': 2.33, 'pitch': 5.9, 'roll': -6.51}
{'lipoC2': 8.17, 'temp': 26.56, 'lipoC3S3': 12.7, 'rot1': 0, 'rot0': 0, 'rot3': 0, 'rot2': 0, 'state': 'normal', 'yaw': -0.95, 'datetime': '2018-10-12 15:16:37.905409', 'mgs': 0, 'depth': -0.064, 'time': 2.43, 'pitch': 5.85, 'roll': -6.34}
{'lipoC2': 8.16, 'temp': 26.56, 'lipoC3S3': 12.7, 'rot1': 0, 'rot0': 0, 'rot3': 0, 'rot2': 0, 'state': 'normal', 'yaw': -1.13, 'datetime': '2018-10-12 15:16:37.912710', 'mgs': 0, 'depth': -0.14, 'time': 2.53, 'pitch': 5.79, 'roll': -6.38}
{'lipoC2': 8.17, 'temp': 26.56, 'lipoC3S3': 12.7, 'rot1': 0, 'rot0': 0, 'rot3': 0, 'rot2': 0, 'state': 'normal', 'yaw': -1.27, 'datetime': '2018-10-12 15:16:37.919970', 'mgs': 0, 'depth': -0.14, 'time': 2.62, 'pitch': 5.79, 'roll': -6.53}
{'lipoC2': 8.17, 'temp': 26.63, 'lipoC3S3': 12.7, 'rot1': 0, 'rot0': 0, 'rot3': 0, 'rot2': 0, 'state': 'normal', 'yaw': -1.5, 'datetime': '2018-10-12 15:16:37.927181', 'mgs': 0, 'depth': -0.064, 'time': 2.72, 'pitch': 5.97, 'roll': -6.47}
{'lipoC2': 8.17, 'temp': 26.63, 'lipoC3S3': 12.7, 'rot1': 0, 'rot0': 0, 'rot3': 0, 'rot2': 0, 'state': 'normal', 'yaw': -1.96, 'datetime': '2018-10-12 15:16:37.934433', 'mgs': 0, 'depth': -0.064, 'time': 2.82, 'pitch': 6.36, 'roll': -6.07}
{'lipoC2': 8.17, 'temp': 26.63, 'lipoC3S3': 12.68, 'rot1': 0, 'rot0': 0, 'rot3': 0, 'rot2': 0, 'state': 'normal', 'yaw': -2.45, 'datetime': '2018-10-12 15:16:37.941704', 'mgs': 0, 'depth': -0.064, 'time': 2.92, 'pitch': 6.76, 'roll': -5.58}
{'lipoC2': 8.17, 'temp': 26.63, 'lipoC3S3': 12.7, 'rot1': 0, 'rot0': 0, 'rot3': 0, 'rot2': 0, 'state': 'normal', 'yaw': -2.75, 'datetime': '2018-10-12 15:16:37.949163', 'mgs': 0, 'depth': -0.064, 'time': 3.02, 'pitch': 6.93, 'roll': -5.59}
{'lipoC2': 8.17, 'temp': 26.63, 'lipoC3S3': 12.7, 'rot1': 0, 'rot0': 0, 'rot3': 0, 'rot2': 0, 'state': 'normal', 'yaw': -2.96, 'datetime': '2018-10-12 15:16:37.956414', 'mgs': 0, 'depth': -0.064, 'time': 3.11, 'pitch': 6.9, 'roll': -6.41}
{'lipoC2': 8.17, 'temp': 26.56, 'lipoC3S3': 12.7, 'rot1': 0, 'rot0': 0, 'rot3': 0, 'rot2': 0, 'state': 'normal', 'yaw': -3.21, 'datetime': '2018-10-12 15:16:37.963612', 'mgs': 0, 'depth': -0.064, 'time': 3.21, 'pitch': 6.65, 'roll': -7.5}
{'lipoC2': 8.17, 'temp': 26.56, 'lipoC3S3': 12.7, 'rot1': 0, 'rot0': 0, 'rot3': 0, 'rot2': 0, 'state': 'normal', 'yaw': -3.47, 'datetime': '2018-10-12 15:16:37.970833', 'mgs': 0, 'depth': -0.14, 'time': 3.31, 'pitch': 6.15, 'roll': -8.23}
{'lipoC2': 8.17, 'temp': 26.63, 'lipoC3S3': 12.7, 'rot1': 0, 'rot0': 0, 'rot3': 0, 'rot2': 0, 'state': 'normal', 'yaw': -3.78, 'datetime': '2018-10-12 15:16:37.978050', 'mgs': 0, 'depth': -0.14, 'time': 3.41, 'pitch': 5.41, 'roll': -8.42}
{'lipoC2': 8.17, 'temp': 26.63, 'lipoC3S3': 12.68, 'rot1': 0, 'rot0': 0, 'rot3': 0, 'rot2': 0, 'state': 'normal', 'yaw': -4.34, 'datetime': '2018-10-12 15:16:37.985247', 'mgs': 0, 'depth': -0.14, 'time': 3.5, 'pitch': 4.63, 'roll': -8.0}
{'lipoC2': 8.17, 'temp': 26.63, 'lipoC3S3': 12.7, 'rot1': 0, 'rot0': 0, 'rot3': 0, 'rot2': 0, 'state': 'normal', 'yaw': -5.11, 'datetime': '2018-10-12 15:16:37.992459', 'mgs': 0, 'depth': -0.217, 'time': 3.6, 'pitch': 4.29, 'roll': -7.07}
{'lipoC2': 8.17, 'temp': 26.63, 'lipoC3S3': 12.7, 'rot1': 0, 'rot0': 0, 'rot3': 0, 'rot2': 0, 'state': 'normal', 'yaw': -5.97, 'datetime': '2018-10-12 15:16:37.999828', 'mgs': 0, 'depth': -0.14, 'time': 3.7, 'pitch': 4.34, 'roll': -6.16}
{'lipoC2': 8.17, 'temp': 26.63, 'lipoC3S3': 12.7, 'rot1': 0, 'rot0': 0, 'rot3': 0, 'rot2': 0, 'state': 'normal', 'yaw': -7.0, 'datetime': '2018-10-12 15:16:38.007111', 'mgs': 0, 'depth': -0.064, 'time': 3.8, 'pitch': 4.61, 'roll': -5.62}
{'lipoC2': 8.17, 'temp': 26.63, 'lipoC3S3': 12.7, 'rot1': 0, 'rot0': 0, 'rot3': 0, 'rot2': 0, 'state': 'normal', 'yaw': -7.93, 'datetime': '2018-10-12 15:16:38.014354', 'mgs': 0, 'depth': -0.064, 'time': 3.89, 'pitch': 5.01, 'roll': -5.88}
{'lipoC2': 8.17, 'temp': 26.63, 'lipoC3S3': 12.7, 'rot1': 0, 'rot0': 0, 'rot3': 0, 'rot2': 0, 'state': 'normal', 'yaw': -8.62, 'datetime': '2018-10-12 15:16:38.021592', 'mgs': 0, 'depth': -0.064, 'time': 3.99, 'pitch': 5.32, 'roll': -6.83}
{'lipoC2': 8.17, 'temp': 26.63, 'lipoC3S3': 12.7, 'rot1': 0, 'rot0': 0, 'rot3': 0, 'rot2': 0, 'state': 'normal', 'yaw': -9.0, 'datetime': '2018-10-12 15:16:38.028836', 'mgs': 0, 'depth': -0.064, 'time': 4.09, 'pitch': 5.4, 'roll': -7.83}
{'lipoC2': 8.17, 'temp': 26.63, 'lipoC3S3': 12.68, 'rot1': 0, 'rot0': 0, 'rot3': 0, 'rot2': 0, 'state': 'normal', 'yaw': -9.25, 'datetime': '2018-10-12 15:16:38.054649', 'mgs': 0, 'depth': 0.012, 'time': 4.18, 'pitch': 5.37, 'roll': -8.44}
{'lipoC2': 8.17, 'temp': 26.63, 'lipoC3S3': 12.7, 'rot1': 0, 'rot0': 0, 'rot3': 0, 'rot2': 0, 'state': 'normal', 'yaw': -9.43, 'datetime': '2018-10-12 15:16:38.151771', 'mgs': 0, 'depth': -0.064, 'time': 4.28, 'pitch': 5.34, 'roll': -8.23}
{'lipoC2': 8.17, 'temp': 26.56, 'lipoC3S3': 12.7, 'rot1': 0, 'rot0': 0, 'rot3': 0, 'rot2': 0, 'state': 'normal', 'yaw': -9.54, 'datetime': '2018-10-12 15:16:38.249949', 'mgs': 0, 'depth': -0.064, 'time': 4.38, 'pitch': 5.39, 'roll': -7.74}
{'lipoC2': 8.17, 'temp': 26.56, 'lipoC3S3': 12.7, 'rot1': 0, 'rot0': 0, 'rot3': 0, 'rot2': 0, 'state': 'normal', 'yaw': -9.59, 'datetime': '2018-10-12 15:16:38.348371', 'mgs': 0, 'depth': -0.064, 'time': 4.48, 'pitch': 5.65, 'roll': -7.35}
{'lipoC2': 8.17, 'temp': 26.56, 'lipoC3S3': 12.7, 'rot1': 0, 'rot0': 0, 'rot3': 0, 'rot2': 0, 'state': 'normal', 'yaw': -9.64, 'datetime': '2018-10-12 15:16:38.446506', 'mgs': 0, 'depth': -0.064, 'time': 4.58, 'pitch': 6.03, 'roll': -7.29}
{'lipoC2': 8.17, 'temp': 26.63, 'lipoC3S3': 12.7, 'rot1': 0, 'rot0': 0, 'rot3': 0, 'rot2': 0, 'state': 'normal', 'yaw': -9.68, 'datetime': '2018-10-12 15:16:38.543510', 'mgs': 0, 'depth': 0.012, 'time': 4.67, 'pitch': 6.25, 'roll': -7.46}
{'lipoC2': 8.17, 'temp': 26.63, 'lipoC3S3': 12.7, 'rot1': 0, 'rot0': 0, 'rot3': 0, 'rot2': 0, 'state': 'normal', 'yaw': -9.82, 'datetime': '2018-10-12 15:16:38.641485', 'mgs': 0, 'depth': -0.064, 'time': 4.77, 'pitch': 6.24, 'roll': -7.73}
{'lipoC2': 8.17, 'temp': 26.56, 'lipoC3S3': 12.7, 'rot1': 0, 'rot0': 0, 'rot3': 0, 'rot2': 0, 'state': 'normal', 'yaw': -9.99, 'datetime': '2018-10-12 15:16:38.739858', 'mgs': 0, 'depth': 0.012, 'time': 4.87, 'pitch': 6.13, 'roll': -8.0}
{'lipoC2': 8.17, 'temp': 26.56, 'lipoC3S3': 12.7, 'rot1': 0, 'rot0': 0, 'rot3': 0, 'rot2': 0, 'state': 'normal', 'yaw': -10.27, 'datetime': '2018-10-12 15:16:38.838294', 'mgs': 0, 'depth': -0.064, 'time': 4.97, 'pitch': 6.07, 'roll': -8.28}
{'lipoC2': 8.16, 'temp': 26.56, 'lipoC3S3': 12.7, 'rot1': 0, 'rot0': 0, 'rot3': 0, 'rot2': 0, 'state': 'normal', 'yaw': -10.59, 'datetime': '2018-10-12 15:16:38.935437', 'mgs': 0, 'depth': -0.14, 'time': 5.07, 'pitch': 6.18, 'roll': -8.57}
{'lipoC2': 8.16, 'temp': 26.63, 'lipoC3S3': 12.7, 'rot1': 0, 'rot0': 0, 'rot3': 0, 'rot2': 0, 'state': 'normal', 'yaw': -10.89, 'datetime': '2018-10-12 15:16:39.035764', 'mgs': 0, 'depth': -0.064, 'time': 5.16, 'pitch': 6.25, 'roll': -8.69}
{'lipoC2': 8.17, 'temp': 26.63, 'lipoC3S3': 12.7, 'rot1': 0, 'rot0': 0, 'rot3': 0, 'rot2': 0, 'state': 'normal', 'yaw': -11.1, 'datetime': '2018-10-12 15:16:39.135833', 'mgs': 0, 'depth': -0.064, 'time': 5.26, 'pitch': 6.16, 'roll': -8.53}
{'lipoC2': 8.17, 'temp': 26.63, 'lipoC3S3': 12.7, 'rot1': 0, 'rot0': 0, 'rot3': 0, 'rot2': 0, 'state': 'normal', 'yaw': -11.24, 'datetime': '2018-10-12 15:16:39.233372', 'mgs': 0, 'depth': -0.064, 'time': 5.36, 'pitch': 6.0, 'roll': -8.19}
{'lipoC2': 8.17, 'temp': 26.63, 'lipoC3S3': 12.7, 'rot1': 0, 'rot0': 0, 'rot3': 0, 'rot2': 0, 'state': 'normal', 'yaw': -11.34, 'datetime': '2018-10-12 15:16:39.330544', 'mgs': 0, 'depth': -0.064, 'time': 5.46, 'pitch': 6.08, 'roll': -8.04}
{'lipoC2': 8.17, 'temp': 26.63, 'lipoC3S3': 12.7, 'rot1': 0, 'rot0': 0, 'rot3': 0, 'rot2': 0, 'state': 'normal', 'yaw': -11.45, 'datetime': '2018-10-12 15:16:39.427691', 'mgs': 0, 'depth': -0.064, 'time': 5.55, 'pitch': 6.53, 'roll': -8.26}
{'lipoC2': 8.17, 'temp': 26.5, 'lipoC3S3': 12.71, 'rot1': 0, 'rot0': 0, 'rot3': 0, 'rot2': 0, 'state': 'normal', 'yaw': -11.58, 'datetime': '2018-10-12 15:16:39.524787', 'mgs': 0, 'depth': -0.064, 'time': 5.65, 'pitch': 7.21, 'roll': -8.88}
{'lipoC2': 8.17, 'temp': 26.5, 'lipoC3S3': 12.7, 'rot1': 0, 'rot0': 0, 'rot3': 0, 'rot2': 0, 'state': 'normal', 'yaw': -11.65, 'datetime': '2018-10-12 15:16:39.621822', 'mgs': 0, 'depth': -0.064, 'time': 5.75, 'pitch': 7.66, 'roll': -9.6}
{'lipoC2': 8.17, 'temp': 26.69, 'lipoC3S3': 12.7, 'rot1': 0, 'rot0': 0, 'rot3': 0, 'rot2': 0, 'state': 'normal', 'yaw': -11.68, 'datetime': '2018-10-12 15:16:39.718966', 'mgs': 0, 'depth': -0.064, 'time': 5.85, 'pitch': 7.86, 'roll': -9.99}
{'lipoC2': 8.17, 'temp': 26.69, 'lipoC3S3': 12.7, 'rot1': 0, 'rot0': 0, 'rot3': 0, 'rot2': 0, 'state': 'normal', 'yaw': -11.68, 'datetime': '2018-10-12 15:16:39.816996', 'mgs': 0, 'depth': -0.064, 'time': 5.94, 'pitch': 7.92, 'roll': -10.02}
{'lipoC2': 8.17, 'temp': 26.69, 'lipoC3S3': 12.7, 'rot1': 0, 'rot0': 0, 'rot3': 0, 'rot2': 0, 'state': 'normal', 'yaw': -11.54, 'datetime': '2018-10-12 15:16:39.914404', 'mgs': 0, 'depth': -0.064, 'time': 6.04, 'pitch': 7.94, 'roll': -9.8}
{'lipoC2': 8.17, 'temp': 26.63, 'lipoC3S3': 12.7, 'rot1': 0, 'rot0': 0, 'rot3': 0, 'rot2': 0, 'state': 'normal', 'yaw': -11.39, 'datetime': '2018-10-12 15:16:40.011303', 'mgs': 0, 'depth': -0.064, 'time': 6.14, 'pitch': 7.91, 'roll': -9.55}
{'lipoC2': 8.17, 'temp': 26.63, 'lipoC3S3': 12.7, 'rot1': 0, 'rot0': 0, 'rot3': 0, 'rot2': 0, 'state': 'normal', 'yaw': -11.42, 'datetime': '2018-10-12 15:16:40.108714', 'mgs': 0, 'depth': -0.14, 'time': 6.24, 'pitch': 8.01, 'roll': -9.57}
{'lipoC2': 8.17, 'temp': 26.63, 'lipoC3S3': 12.7, 'rot1': 0, 'rot0': 0, 'rot3': 0, 'rot2': 0, 'state': 'normal', 'yaw': -11.64, 'datetime': '2018-10-12 15:16:40.202495', 'mgs': 0, 'depth': -0.064, 'time': 6.33, 'pitch': 8.41, 'roll': -9.79}
{'lipoC2': 8.17, 'temp': 26.63, 'lipoC3S3': 12.7, 'rot1': 0, 'rot0': 0, 'rot3': 0, 'rot2': 0, 'state': 'normal', 'yaw': -12.08, 'datetime': '2018-10-12 15:16:40.308442', 'mgs': 0, 'depth': -0.064, 'time': 6.43, 'pitch': 9.1, 'roll': -10.17}
{'lipoC2': 8.17, 'temp': 26.63, 'lipoC3S3': 12.7, 'rot1': 0, 'rot0': 0, 'rot3': 0, 'rot2': 0, 'state': 'normal', 'yaw': -12.58, 'datetime': '2018-10-12 15:16:40.397458', 'mgs': 0, 'depth': -0.064, 'time': 6.53, 'pitch': 9.61, 'roll': -10.54}
{'lipoC2': 8.17, 'temp': 26.63, 'lipoC3S3': 12.68, 'rot1': 0, 'rot0': 0, 'rot3': 0, 'rot2': 0, 'state': 'normal', 'yaw': -13.02, 'datetime': '2018-10-12 15:16:40.499785', 'mgs': 0, 'depth': -0.14, 'time': 6.63, 'pitch': 9.81, 'roll': -10.74}
{'lipoC2': 8.17, 'temp': 26.63, 'lipoC3S3': 12.7, 'rot1': 0, 'rot0': 0, 'rot3': 0, 'rot2': 0, 'state': 'normal', 'yaw': -13.41, 'datetime': '2018-10-12 15:16:40.593007', 'mgs': 0, 'depth': -0.064, 'time': 6.72, 'pitch': 9.75, 'roll': -10.72}
{'lipoC2': 8.17, 'temp': 26.56, 'lipoC3S3': 12.7, 'rot1': 0, 'rot0': 0, 'rot3': 0, 'rot2': 0, 'state': 'normal', 'yaw': -13.89, 'datetime': '2018-10-12 15:16:40.691396', 'mgs': 0, 'depth': -0.064, 'time': 6.82, 'pitch': 9.61, 'roll': -10.37}
{'lipoC2': 8.17, 'temp': 26.56, 'lipoC3S3': 12.7, 'rot1': 0, 'rot0': 0, 'rot3': 0, 'rot2': 0, 'state': 'normal', 'yaw': -14.33, 'datetime': '2018-10-12 15:16:40.797764', 'mgs': 0, 'depth': -0.064, 'time': 6.92, 'pitch': 9.32, 'roll': -10.0}
{'lipoC2': 8.17, 'temp': 26.56, 'lipoC3S3': 12.7, 'rot1': 0, 'rot0': 0, 'rot3': 0, 'rot2': 0, 'state': 'normal', 'yaw': -14.86, 'datetime': '2018-10-12 15:16:40.885934', 'mgs': 0, 'depth': -0.064, 'time': 7.02, 'pitch': 9.0, 'roll': -9.9}
{'lipoC2': 8.17, 'temp': 26.63, 'lipoC3S3': 12.7, 'rot1': 0, 'rot0': 0, 'rot3': 0, 'rot2': 0, 'state': 'normal', 'yaw': -15.67, 'datetime': '2018-10-12 15:16:40.984562', 'mgs': 0, 'depth': -0.064, 'time': 7.12, 'pitch': 9.11, 'roll': -10.41}
{'lipoC2': 8.17, 'temp': 26.63, 'lipoC3S3': 12.7, 'rot1': 0, 'rot0': 0, 'rot3': 0, 'rot2': 0, 'state': 'normal', 'yaw': -17.02, 'datetime': '2018-10-12 15:16:41.082467', 'mgs': 0, 'depth': -0.14, 'time': 7.22, 'pitch': 9.7, 'roll': -11.62}
{'lipoC2': 8.17, 'temp': 26.63, 'lipoC3S3': 12.7, 'rot1': 0, 'rot0': 0, 'rot3': 0, 'rot2': 0, 'state': 'normal', 'yaw': -18.61, 'datetime': '2018-10-12 15:16:41.179578', 'mgs': 0, 'depth': -0.14, 'time': 7.31, 'pitch': 10.06, 'roll': -13.02}
{'lipoC2': 8.16, 'temp': 26.63, 'lipoC3S3': 12.7, 'rot1': 0, 'rot0': 0, 'rot3': 0, 'rot2': 0, 'state': 'normal', 'yaw': -20.08, 'datetime': '2018-10-12 15:16:41.276698', 'mgs': 0, 'depth': -0.14, 'time': 7.41, 'pitch': 9.77, 'roll': -13.97}
{'lipoC2': 8.17, 'temp': 26.63, 'lipoC3S3': 12.68, 'rot1': 0, 'rot0': 0, 'rot3': 0, 'rot2': 0, 'state': 'normal', 'yaw': -21.16, 'datetime': '2018-10-12 15:16:41.373833', 'mgs': 0, 'depth': -0.064, 'time': 7.51, 'pitch': 9.13, 'roll': -13.97}
{'lipoC2': 8.16, 'temp': 26.63, 'lipoC3S3': 12.7, 'rot1': 0, 'rot0': 0, 'rot3': 0, 'rot2': 0, 'state': 'normal', 'yaw': -22.06, 'datetime': '2018-10-12 15:16:41.470960', 'mgs': 0, 'depth': -0.064, 'time': 7.6, 'pitch': 8.48, 'roll': -13.18}
{'lipoC2': 8.16, 'temp': 26.63, 'lipoC3S3': 12.7, 'rot1': 0, 'rot0': 0, 'rot3': 0, 'rot2': 0, 'state': 'normal', 'yaw': -22.67, 'datetime': '2018-10-12 15:16:41.568083', 'mgs': 0, 'depth': -0.14, 'time': 7.7, 'pitch': 8.2, 'roll': -12.19}
{'lipoC2': 8.17, 'temp': 26.63, 'lipoC3S3': 12.7, 'rot1': 0, 'rot0': 0, 'rot3': 0, 'rot2': 0, 'state': 'normal', 'yaw': -22.93, 'datetime': '2018-10-12 15:16:41.665425', 'mgs': 0, 'depth': -0.064, 'time': 7.8, 'pitch': 8.29, 'roll': -11.68}
{'lipoC2': 8.17, 'temp': 26.63, 'lipoC3S3': 12.7, 'rot1': 0, 'rot0': 0, 'rot3': 0, 'rot2': 0, 'state': 'normal', 'yaw': -23.15, 'datetime': '2018-10-12 15:16:41.762538', 'mgs': 0, 'depth': -0.064, 'time': 7.9, 'pitch': 8.6, 'roll': -11.81}
{'lipoC2': 8.17, 'temp': 26.63, 'lipoC3S3': 12.68, 'rot1': 0, 'rot0': 0, 'rot3': 0, 'rot2': 0, 'state': 'normal', 'yaw': -23.41, 'datetime': '2018-10-12 15:16:41.859582', 'mgs': 0, 'depth': 0.012, 'time': 7.99, 'pitch': 8.87, 'roll': -12.42}
{'lipoC2': 8.17, 'temp': 26.69, 'lipoC3S3': 12.7, 'rot1': 0, 'rot0': 0, 'rot3': 0, 'rot2': 0, 'state': 'normal', 'yaw': -23.69, 'datetime': '2018-10-12 15:16:41.956909', 'mgs': 0, 'depth': -0.064, 'time': 8.09, 'pitch': 8.86, 'roll': -13.23}
{'lipoC2': 8.16, 'temp': 26.69, 'lipoC3S3': 12.7, 'rot1': 0, 'rot0': 0, 'rot3': 0, 'rot2': 0, 'state': 'normal', 'yaw': -23.9, 'datetime': '2018-10-12 15:16:42.055282', 'mgs': 0, 'depth': -0.064, 'time': 8.19, 'pitch': 8.64, 'roll': -13.88}
{'lipoC2': 8.17, 'temp': 26.63, 'lipoC3S3': 12.7, 'rot1': 0, 'rot0': 0, 'rot3': 0, 'rot2': 0, 'state': 'normal', 'yaw': -24.06, 'datetime': '2018-10-12 15:16:42.153661', 'mgs': 0, 'depth': 0.089, 'time': 8.29, 'pitch': 8.48, 'roll': -14.28}
{'lipoC2': 8.17, 'temp': 26.63, 'lipoC3S3': 12.7, 'rot1': 0, 'rot0': 0, 'rot3': 0, 'rot2': 0, 'state': 'normal', 'yaw': -24.13, 'datetime': '2018-10-12 15:16:42.250709', 'mgs': 0, 'depth': 0.089, 'time': 8.39, 'pitch': 8.54, 'roll': -14.14}
{'lipoC2': 8.17, 'temp': 26.63, 'lipoC3S3': 12.7, 'rot1': 0, 'rot0': 0, 'rot3': 0, 'rot2': 0, 'state': 'normal', 'yaw': -24.21, 'datetime': '2018-10-12 15:16:42.347748', 'mgs': 0, 'depth': 0.012, 'time': 8.48, 'pitch': 8.89, 'roll': -13.76}
{'lipoC2': 8.16, 'temp': 26.63, 'lipoC3S3': 12.7, 'rot1': 0, 'rot0': 0, 'rot3': 0, 'rot2': 0, 'state': 'normal', 'yaw': -24.21, 'datetime': '2018-10-12 15:16:42.446122', 'mgs': 0, 'depth': 0.012, 'time': 8.58, 'pitch': 9.3, 'roll': -13.65}
{'lipoC2': 8.16, 'temp': 26.63, 'lipoC3S3': 12.7, 'rot1': 0, 'rot0': 0, 'rot3': 0, 'rot2': 0, 'state': 'normal', 'yaw': -24.2, 'datetime': '2018-10-12 15:16:42.544448', 'mgs': 0, 'depth': 0.012, 'time': 8.68, 'pitch': 9.52, 'roll': -13.81}
{'lipoC2': 8.17, 'temp': 26.63, 'lipoC3S3': 12.7, 'rot1': 0, 'rot0': 0, 'rot3': 0, 'rot2': 0, 'state': 'normal', 'yaw': -24.19, 'datetime': '2018-10-12 15:16:42.641577', 'mgs': 0, 'depth': -0.064, 'time': 8.78, 'pitch': 9.42, 'roll': -14.25}
{'lipoC2': 8.17, 'temp': 26.63, 'lipoC3S3': 12.7, 'rot1': 0, 'rot0': 0, 'rot3': 0, 'rot2': 0, 'state': 'normal', 'yaw': -24.31, 'datetime': '2018-10-12 15:16:42.738787', 'mgs': 0, 'depth': -0.064, 'time': 8.87, 'pitch': 9.14, 'roll': -14.98}
{'lipoC2': 8.17, 'temp': 26.69, 'lipoC3S3': 12.7, 'rot1': 0, 'rot0': 0, 'rot3': 0, 'rot2': 0, 'state': 'normal', 'yaw': -24.45, 'datetime': '2018-10-12 15:16:42.836979', 'mgs': 0, 'depth': -0.064, 'time': 8.97, 'pitch': 8.85, 'roll': -15.74}
{'lipoC2': 8.16, 'temp': 26.69, 'lipoC3S3': 12.7, 'rot1': 0, 'rot0': 0, 'rot3': 0, 'rot2': 0, 'state': 'normal', 'yaw': -24.63, 'datetime': '2018-10-12 15:16:42.935407', 'mgs': 0, 'depth': -0.064, 'time': 9.07, 'pitch': 8.64, 'roll': -16.23}
{'lipoC2': 8.17, 'temp': 26.69, 'lipoC3S3': 12.7, 'rot1': 0, 'rot0': 0, 'rot3': 0, 'rot2': 0, 'state': 'normal', 'yaw': -24.9, 'datetime': '2018-10-12 15:16:43.032572', 'mgs': 0, 'depth': -0.064, 'time': 9.17, 'pitch': 8.8, 'roll': -16.03}
{'lipoC2': 8.17, 'temp': 26.63, 'lipoC3S3': 12.7, 'rot1': 0, 'rot0': 0, 'rot3': 0, 'rot2': 0, 'state': 'normal', 'yaw': -25.28, 'datetime': '2018-10-12 15:16:43.129698', 'mgs': 0, 'depth': -0.064, 'time': 9.27, 'pitch': 9.08, 'roll': -15.39}
{'lipoC2': 8.17, 'temp': 26.63, 'lipoC3S3': 12.7, 'rot1': 0, 'rot0': 0, 'rot3': 0, 'rot2': 0, 'state': 'normal', 'yaw': -25.69, 'datetime': '2018-10-12 15:16:43.226793', 'mgs': 0, 'depth': -0.064, 'time': 9.36, 'pitch': 9.16, 'roll': -14.9}
{'lipoC2': 8.17, 'temp': 26.63, 'lipoC3S3': 12.7, 'rot1': 0, 'rot0': 0, 'rot3': 0, 'rot2': 0, 'state': 'normal', 'yaw': -26.13, 'datetime': '2018-10-12 15:16:43.323959', 'mgs': 0, 'depth': -0.064, 'time': 9.46, 'pitch': 9.02, 'roll': -14.7}
{'lipoC2': 8.17, 'temp': 26.63, 'lipoC3S3': 12.68, 'rot1': 0, 'rot0': 0, 'rot3': 0, 'rot2': 0, 'state': 'normal', 'yaw': -26.42, 'datetime': '2018-10-12 15:16:43.420984', 'mgs': 0, 'depth': 0.012, 'time': 9.56, 'pitch': 8.8, 'roll': -14.84}
{'lipoC2': 8.17, 'temp': 26.63, 'lipoC3S3': 12.7, 'rot1': 0, 'rot0': 0, 'rot3': 0, 'rot2': 0, 'state': 'normal', 'yaw': -26.58, 'datetime': '2018-10-12 15:16:43.518307', 'mgs': 0, 'depth': 0.012, 'time': 9.65, 'pitch': 8.86, 'roll': -15.08}
{'lipoC2': 8.16, 'temp': 26.63, 'lipoC3S3': 12.7, 'rot1': 0, 'rot0': 0, 'rot3': 0, 'rot2': 0, 'state': 'normal', 'yaw': -26.87, 'datetime': '2018-10-12 15:16:43.615403', 'mgs': 0, 'depth': -0.064, 'time': 9.75, 'pitch': 9.36, 'roll': -15.22}
{'lipoC2': 8.17, 'temp': 26.63, 'lipoC3S3': 12.7, 'rot1': 0, 'rot0': 0, 'rot3': 0, 'rot2': 0, 'state': 'normal', 'yaw': -27.32, 'datetime': '2018-10-12 15:16:43.712557', 'mgs': 0, 'depth': -0.064, 'time': 9.85, 'pitch': 10.2, 'roll': -15.08}
{'lipoC2': 8.17, 'temp': 26.63, 'lipoC3S3': 12.7, 'rot1': 0, 'rot0': 0, 'rot3': 0, 'rot2': 0, 'state': 'normal', 'yaw': -27.78, 'datetime': '2018-10-12 15:16:43.810292', 'mgs': 0, 'depth': 0.012, 'time': 9.94, 'pitch': 11.07, 'roll': -14.53}
{'lipoC2': 8.17, 'temp': 26.63, 'lipoC3S3': 12.7, 'rot1': 0, 'rot0': 0, 'rot3': 0, 'rot2': 0, 'state': 'normal', 'yaw': -28.15, 'datetime': '2018-10-12 15:16:43.907969', 'mgs': 0, 'depth': 0.012, 'time': 10.04, 'pitch': 11.66, 'roll': -13.95}
{'lipoC2': 8.17, 'temp': 26.63, 'lipoC3S3': 12.7, 'rot1': 0, 'rot0': 0, 'rot3': 0, 'rot2': 0, 'state': 'normal', 'yaw': -28.47, 'datetime': '2018-10-12 15:16:44.006353', 'mgs': 0, 'depth': -0.064, 'time': 10.14, 'pitch': 11.94, 'roll': -13.64}
{'lipoC2': 8.17, 'temp': 26.63, 'lipoC3S3': 12.68, 'rot1': 0, 'rot0': 0, 'rot3': 0, 'rot2': 0, 'state': 'normal', 'yaw': -28.62, 'datetime': '2018-10-12 15:16:44.103494', 'mgs': 0, 'depth': -0.064, 'time': 10.24, 'pitch': 11.74, 'roll': -13.94}
{'lipoC2': 8.17, 'temp': 26.63, 'lipoC3S3': 12.7, 'rot1': 0, 'rot0': 0, 'rot3': 0, 'rot2': 0, 'state': 'normal', 'yaw': -28.75, 'datetime': '2018-10-12 15:16:44.200617', 'mgs': 0, 'depth': -0.064, 'time': 10.34, 'pitch': 11.36, 'roll': -14.7}
{'lipoC2': 8.17, 'temp': 26.63, 'lipoC3S3': 12.7, 'rot1': 0, 'rot0': 0, 'rot3': 0, 'rot2': 0, 'state': 'normal', 'yaw': -28.96, 'datetime': '2018-10-12 15:16:44.298968', 'mgs': 0, 'depth': -0.064, 'time': 10.44, 'pitch': 10.97, 'roll': -15.37}
{'lipoC2': 8.17, 'temp': 26.63, 'lipoC3S3': 12.7, 'rot1': 0, 'rot0': 0, 'rot3': 0, 'rot2': 0, 'state': 'normal', 'yaw': -29.26, 'datetime': '2018-10-12 15:16:44.397461', 'mgs': 0, 'depth': -0.064, 'time': 10.53, 'pitch': 10.49, 'roll': -15.77}
{'lipoC2': 8.17, 'temp': 26.63, 'lipoC3S3': 12.7, 'rot1': 0, 'rot0': 0, 'rot3': 0, 'rot2': 0, 'state': 'normal', 'yaw': -29.69, 'datetime': '2018-10-12 15:16:44.495138', 'mgs': 0, 'depth': -0.14, 'time': 10.63, 'pitch': 10.25, 'roll': -15.82}
{'lipoC2': 8.17, 'temp': 26.63, 'lipoC3S3': 12.7, 'rot1': 0, 'rot0': 0, 'rot3': 0, 'rot2': 0, 'state': 'normal', 'yaw': -30.14, 'datetime': '2018-10-12 15:16:44.592285', 'mgs': 0, 'depth': -0.14, 'time': 10.73, 'pitch': 10.37, 'roll': -15.59}
{'lipoC2': 8.17, 'temp': 26.63, 'lipoC3S3': 12.7, 'rot1': 0, 'rot0': 0, 'rot3': 0, 'rot2': 0, 'state': 'normal', 'yaw': -30.41, 'datetime': '2018-10-12 15:16:44.690140', 'mgs': 0, 'depth': -0.064, 'time': 10.83, 'pitch': 10.42, 'roll': -15.21}
{'lipoC2': 8.17, 'temp': 26.63, 'lipoC3S3': 12.68, 'rot1': 0, 'rot0': 0, 'rot3': 0, 'rot2': 0, 'state': 'normal', 'yaw': -30.41, 'datetime': '2018-10-12 15:16:44.788533', 'mgs': 0, 'depth': -0.14, 'time': 10.93, 'pitch': 10.21, 'roll': -14.84}
{'lipoC2': 8.17, 'temp': 26.63, 'lipoC3S3': 12.7, 'rot1': 0, 'rot0': 0, 'rot3': 0, 'rot2': 0, 'state': 'normal', 'yaw': -30.28, 'datetime': '2018-10-12 15:16:44.885654', 'mgs': 0, 'depth': -0.064, 'time': 11.02, 'pitch': 9.92, 'roll': -14.94}
{'lipoC2': 8.17, 'temp': 26.63, 'lipoC3S3': 12.7, 'rot1': 0, 'rot0': 0, 'rot3': 0, 'rot2': 0, 'state': 'normal', 'yaw': -30.1, 'datetime': '2018-10-12 15:16:44.982788', 'mgs': 0, 'depth': -0.064, 'time': 11.12, 'pitch': 9.83, 'roll': -15.69}
{'lipoC2': 8.17, 'temp': 26.63, 'lipoC3S3': 12.7, 'rot1': 0, 'rot0': 0, 'rot3': 0, 'rot2': 0, 'state': 'normal', 'yaw': -29.96, 'datetime': '2018-10-12 15:16:45.080143', 'mgs': 0, 'depth': -0.064, 'time': 11.22, 'pitch': 10.1, 'roll': -16.82}
{'lipoC2': 8.17, 'temp': 26.63, 'lipoC3S3': 12.7, 'rot1': 0, 'rot0': 0, 'rot3': 0, 'rot2': 0, 'state': 'normal', 'yaw': -29.91, 'datetime': '2018-10-12 15:16:45.177308', 'mgs': 0, 'depth': -0.064, 'time': 11.31, 'pitch': 10.56, 'roll': -17.97}
{'lipoC2': 8.17, 'temp': 26.69, 'lipoC3S3': 12.68, 'rot1': 0, 'rot0': 0, 'rot3': 0, 'rot2': 0, 'state': 'normal', 'yaw': -30.12, 'datetime': '2018-10-12 15:16:45.274387', 'mgs': 0, 'depth': -0.064, 'time': 11.41, 'pitch': 11.11, 'roll': -18.49}
{'lipoC2': 8.17, 'temp': 26.69, 'lipoC3S3': 12.7, 'rot1': 0, 'rot0': 0, 'rot3': 0, 'rot2': 0, 'state': 'normal', 'yaw': -30.53, 'datetime': '2018-10-12 15:16:45.371532', 'mgs': 0, 'depth': -0.064, 'time': 11.51, 'pitch': 11.7, 'roll': -18.22}
{'lipoC2': 8.17, 'temp': 26.69, 'lipoC3S3': 12.7, 'rot1': 0, 'rot0': 0, 'rot3': 0, 'rot2': 0, 'state': 'normal', 'yaw': -31.03, 'datetime': '2018-10-12 15:16:45.468672', 'mgs': 0, 'depth': -0.14, 'time': 11.61, 'pitch': 12.28, 'roll': -17.42}
{'lipoC2': 8.17, 'temp': 26.63, 'lipoC3S3': 12.7, 'rot1': 0, 'rot0': 0, 'rot3': 0, 'rot2': 0, 'state': 'normal', 'yaw': -31.34, 'datetime': '2018-10-12 15:16:45.565808', 'mgs': 0, 'depth': -0.064, 'time': 11.7, 'pitch': 12.4, 'roll': -16.7}
{'lipoC2': 8.17, 'temp': 26.63, 'lipoC3S3': 12.7, 'rot1': 0, 'rot0': 0, 'rot3': 0, 'rot2': 0, 'state': 'normal', 'yaw': -31.39, 'datetime': '2018-10-12 15:16:45.662930', 'mgs': 0, 'depth': -0.14, 'time': 11.8, 'pitch': 11.92, 'roll': -16.5}
{'lipoC2': 8.17, 'temp': 26.63, 'lipoC3S3': 12.7, 'rot1': 0, 'rot0': 0, 'rot3': 0, 'rot2': 0, 'state': 'normal', 'yaw': -31.36, 'datetime': '2018-10-12 15:16:45.761493', 'mgs': 0, 'depth': -0.064, 'time': 11.9, 'pitch': 11.12, 'roll': -16.75}
{'lipoC2': 8.16, 'temp': 26.63, 'lipoC3S3': 12.7, 'rot1': 0, 'rot0': 0, 'rot3': 0, 'rot2': 0, 'state': 'normal', 'yaw': -31.5, 'datetime': '2018-10-12 15:16:45.859904', 'mgs': 0, 'depth': -0.064, 'time': 12.0, 'pitch': 10.47, 'roll': -17.2}
{'lipoC2': 8.17, 'temp': 26.63, 'lipoC3S3': 12.7, 'rot1': 0, 'rot0': 0, 'rot3': 0, 'rot2': 0, 'state': 'normal', 'yaw': -32.09, 'datetime': '2018-10-12 15:16:45.957869', 'mgs': 0, 'depth': -0.064, 'time': 12.1, 'pitch': 10.43, 'roll': -17.39}
{'lipoC2': 8.17, 'temp': 26.63, 'lipoC3S3': 12.7, 'rot1': 0, 'rot0': 0, 'rot3': 0, 'rot2': 0, 'state': 'normal', 'yaw': -33.06, 'datetime': '2018-10-12 15:16:46.054932', 'mgs': 0, 'depth': -0.064, 'time': 12.19, 'pitch': 10.87, 'roll': -17.14}
{'lipoC2': 8.17, 'temp': 26.63, 'lipoC3S3': 12.7, 'rot1': 0, 'rot0': 0, 'rot3': 0, 'rot2': 0, 'state': 'normal', 'yaw': -33.95, 'datetime': '2018-10-12 15:16:46.152438', 'mgs': 0, 'depth': -0.064, 'time': 12.29, 'pitch': 11.2, 'roll': -16.74}
{'lipoC2': 8.17, 'temp': 26.63, 'lipoC3S3': 12.68, 'rot1': 0, 'rot0': 0, 'rot3': 0, 'rot2': 0, 'state': 'normal', 'yaw': -34.69, 'datetime': '2018-10-12 15:16:46.250742', 'mgs': 0, 'depth': 0.012, 'time': 12.39, 'pitch': 11.27, 'roll': -16.48}
{'lipoC2': 8.17, 'temp': 26.63, 'lipoC3S3': 12.7, 'rot1': 0, 'rot0': 0, 'rot3': 0, 'rot2': 0, 'state': 'normal', 'yaw': -34.97, 'datetime': '2018-10-12 15:16:46.348884', 'mgs': 0, 'depth': 0.012, 'time': 12.49, 'pitch': 10.97, 'roll': -16.71}
{'lipoC2': 8.17, 'temp': 26.63, 'lipoC3S3': 12.7, 'rot1': 0, 'rot0': 0, 'rot3': 0, 'rot2': 0, 'state': 'normal', 'yaw': -34.84, 'datetime': '2018-10-12 15:16:46.446030', 'mgs': 0, 'depth': -0.064, 'time': 12.58, 'pitch': 10.55, 'roll': -17.48}
{'lipoC2': 8.17, 'temp': 26.63, 'lipoC3S3': 12.7, 'rot1': 0, 'rot0': 0, 'rot3': 0, 'rot2': 0, 'state': 'normal', 'yaw': -34.5, 'datetime': '2018-10-12 15:16:46.543360', 'mgs': 0, 'depth': -0.064, 'time': 12.68, 'pitch': 10.21, 'roll': -18.51}
{'lipoC2': 8.17, 'temp': 26.63, 'lipoC3S3': 12.7, 'rot1': 0, 'rot0': 0, 'rot3': 0, 'rot2': 0, 'state': 'normal', 'yaw': -34.1, 'datetime': '2018-10-12 15:16:46.641706', 'mgs': 0, 'depth': -0.064, 'time': 12.78, 'pitch': 10.01, 'roll': -19.3}
{'lipoC2': 8.17, 'temp': 26.69, 'lipoC3S3': 12.68, 'rot1': 0, 'rot0': 0, 'rot3': 0, 'rot2': 0, 'state': 'normal', 'yaw': -33.53, 'datetime': '2018-10-12 15:16:46.738849', 'mgs': 0, 'depth': -0.064, 'time': 12.88, 'pitch': 9.98, 'roll': -19.81}
{'lipoC2': 8.16, 'temp': 26.69, 'lipoC3S3': 12.7, 'rot1': 0, 'rot0': 0, 'rot3': 0, 'rot2': 0, 'state': 'normal', 'yaw': -32.77, 'datetime': '2018-10-12 15:16:46.835979', 'mgs': 0, 'depth': -0.064, 'time': 12.98, 'pitch': 10.06, 'roll': -19.73}
{'lipoC2': 8.17, 'temp': 26.69, 'lipoC3S3': 12.7, 'rot1': 0, 'rot0': 0, 'rot3': 0, 'rot2': 0, 'state': 'normal', 'yaw': -32.05, 'datetime': '2018-10-12 15:16:46.933261', 'mgs': 0, 'depth': -0.064, 'time': 13.07, 'pitch': 10.17, 'roll': -19.2}
{'lipoC2': 8.17, 'temp': 26.63, 'lipoC3S3': 12.7, 'rot1': 0, 'rot0': 0, 'rot3': 0, 'rot2': 0, 'state': 'normal', 'yaw': -31.51, 'datetime': '2018-10-12 15:16:47.030356', 'mgs': 0, 'depth': -0.064, 'time': 13.17, 'pitch': 10.45, 'roll': -18.37}
{'lipoC2': 8.17, 'temp': 26.63, 'lipoC3S3': 12.7, 'rot1': 0, 'rot0': 0, 'rot3': 0, 'rot2': 0, 'state': 'normal', 'yaw': -31.25, 'datetime': '2018-10-12 15:16:47.127432', 'mgs': 0, 'depth': 0.012, 'time': 13.27, 'pitch': 10.92, 'roll': -17.79}
{'lipoC2': 8.17, 'temp': 26.69, 'lipoC3S3': 12.7, 'rot1': 0, 'rot0': 0, 'rot3': 0, 'rot2': 0, 'state': 'normal', 'yaw': -31.21, 'datetime': '2018-10-12 15:16:47.224554', 'mgs': 0, 'depth': -0.064, 'time': 13.36, 'pitch': 11.21, 'roll': -17.79}
{'lipoC2': 8.17, 'temp': 26.69, 'lipoC3S3': 12.7, 'rot1': 0, 'rot0': 0, 'rot3': 0, 'rot2': 0, 'state': 'normal', 'yaw': -31.29, 'datetime': '2018-10-12 15:16:47.321695', 'mgs': 0, 'depth': -0.064, 'time': 13.46, 'pitch': 11.14, 'roll': -18.25}
{'lipoC2': 8.17, 'temp': 26.69, 'lipoC3S3': 12.7, 'rot1': 0, 'rot0': 0, 'rot3': 0, 'rot2': 0, 'state': 'normal', 'yaw': -31.46, 'datetime': '2018-10-12 15:16:47.418925', 'mgs': 0, 'depth': -0.064, 'time': 13.56, 'pitch': 10.82, 'roll': -19.05}
{'lipoC2': 8.17, 'temp': 26.63, 'lipoC3S3': 12.7, 'rot1': 0, 'rot0': 0, 'rot3': 0, 'rot2': 0, 'state': 'normal', 'yaw': -31.72, 'datetime': '2018-10-12 15:16:47.515964', 'mgs': 0, 'depth': -0.064, 'time': 13.66, 'pitch': 10.52, 'roll': -20.02}
{'lipoC2': 8.17, 'temp': 26.63, 'lipoC3S3': 12.7, 'rot1': 0, 'rot0': 0, 'rot3': 0, 'rot2': 0, 'state': 'normal', 'yaw': -32.2, 'datetime': '2018-10-12 15:16:47.614254', 'mgs': 0, 'depth': -0.064, 'time': 13.75, 'pitch': 10.46, 'roll': -20.8}
{'lipoC2': 8.17, 'temp': 26.63, 'lipoC3S3': 12.7, 'rot1': 0, 'rot0': 0, 'rot3': 0, 'rot2': 0, 'state': 'normal', 'yaw': -33.04, 'datetime': '2018-10-12 15:16:47.712717', 'mgs': 0, 'depth': -0.064, 'time': 13.85, 'pitch': 10.83, 'roll': -21.29}
{'lipoC2': 8.17, 'temp': 26.63, 'lipoC3S3': 12.7, 'rot1': 0, 'rot0': 0, 'rot3': 0, 'rot2': 0, 'state': 'normal', 'yaw': -34.05, 'datetime': '2018-10-12 15:16:47.810585', 'mgs': 0, 'depth': -0.064, 'time': 13.95, 'pitch': 11.5, 'roll': -21.18}
{'lipoC2': 8.17, 'temp': 26.63, 'lipoC3S3': 12.7, 'rot1': 0, 'rot0': 0, 'rot3': 0, 'rot2': 0, 'state': 'normal', 'yaw': -35.19, 'datetime': '2018-10-12 15:16:47.907751', 'mgs': 0, 'depth': -0.064, 'time': 14.05, 'pitch': 12.2, 'roll': -20.82}
{'lipoC2': 8.17, 'temp': 26.63, 'lipoC3S3': 12.7, 'rot1': 0, 'rot0': 0, 'rot3': 0, 'rot2': 0, 'state': 'normal', 'yaw': -36.27, 'datetime': '2018-10-12 15:16:48.005252', 'mgs': 0, 'depth': -0.14, 'time': 14.15, 'pitch': 12.62, 'roll': -20.82}
{'lipoC2': 8.16, 'temp': 26.63, 'lipoC3S3': 12.68, 'rot1': 0, 'rot0': 0, 'rot3': 0, 'rot2': 0, 'state': 'normal', 'yaw': -37.46, 'datetime': '2018-10-12 15:16:48.103592', 'mgs': 0, 'depth': -0.217, 'time': 14.24, 'pitch': 12.62, 'roll': -21.35}
{'lipoC2': 8.17, 'temp': 26.63, 'lipoC3S3': 12.7, 'rot1': 0, 'rot0': 0, 'rot3': 0, 'rot2': 0, 'state': 'normal', 'yaw': -38.61, 'datetime': '2018-10-12 15:16:48.201899', 'mgs': 0, 'depth': -0.14, 'time': 14.34, 'pitch': 12.22, 'roll': -22.05}
{'lipoC2': 8.17, 'temp': 26.63, 'lipoC3S3': 12.68, 'rot1': 0, 'rot0': 0, 'rot3': 0, 'rot2': 0, 'state': 'normal', 'yaw': -39.78, 'datetime': '2018-10-12 15:16:48.299063', 'mgs': 0, 'depth': -0.064, 'time': 14.44, 'pitch': 11.9, 'roll': -22.51}
{'lipoC2': 8.17, 'temp': 26.63, 'lipoC3S3': 12.7, 'rot1': 0, 'rot0': 0, 'rot3': 0, 'rot2': 0, 'state': 'normal', 'yaw': -40.99, 'datetime': '2018-10-12 15:16:48.396173', 'mgs': 0, 'depth': -0.14, 'time': 14.54, 'pitch': 12.04, 'roll': -22.48}
{'lipoC2': 8.17, 'temp': 26.69, 'lipoC3S3': 12.7, 'rot1': 0, 'rot0': 0, 'rot3': 0, 'rot2': 0, 'state': 'normal', 'yaw': -42.15, 'datetime': '2018-10-12 15:16:48.494620', 'mgs': 0, 'depth': -0.14, 'time': 14.64, 'pitch': 12.51, 'roll': -22.07}
{'lipoC2': 8.17, 'temp': 26.69, 'lipoC3S3': 12.7, 'rot1': 0, 'rot0': 0, 'rot3': 0, 'rot2': 0, 'state': 'normal', 'yaw': -43.3, 'datetime': '2018-10-12 15:16:48.591728', 'mgs': 0, 'depth': -0.14, 'time': 14.73, 'pitch': 13.07, 'roll': -21.48}
{'lipoC2': 8.17, 'temp': 26.63, 'lipoC3S3': 12.7, 'rot1': 0, 'rot0': 0, 'rot3': 0, 'rot2': 0, 'state': 'normal', 'yaw': -44.05, 'datetime': '2018-10-12 15:16:48.688910', 'mgs': 0, 'depth': -0.064, 'time': 14.83, 'pitch': 13.34, 'roll': -21.08}
{'lipoC2': 8.17, 'temp': 26.63, 'lipoC3S3': 12.7, 'rot1': 0, 'rot0': 0, 'rot3': 0, 'rot2': 0, 'state': 'normal', 'yaw': -44.28, 'datetime': '2018-10-12 15:16:48.786189', 'mgs': 0, 'depth': -0.064, 'time': 14.93, 'pitch': 13.03, 'roll': -21.01}
{'lipoC2': 8.17, 'temp': 26.63, 'lipoC3S3': 12.7, 'rot1': 0, 'rot0': 0, 'rot3': 0, 'rot2': 0, 'state': 'normal', 'yaw': -43.98, 'datetime': '2018-10-12 15:16:48.883414', 'mgs': 0, 'depth': -0.064, 'time': 15.02, 'pitch': 12.19, 'roll': -21.23}
{'lipoC2': 8.17, 'temp': 26.63, 'lipoC3S3': 12.68, 'rot1': 0, 'rot0': 0, 'rot3': 0, 'rot2': 0, 'state': 'normal', 'yaw': -43.47, 'datetime': '2018-10-12 15:16:48.980466', 'mgs': 0, 'depth': -0.064, 'time': 15.12, 'pitch': 11.48, 'roll': -21.55}
{'lipoC2': 8.17, 'temp': 26.63, 'lipoC3S3': 12.7, 'rot1': 0, 'rot0': 0, 'rot3': 0, 'rot2': 0, 'state': 'normal', 'yaw': -43.09, 'datetime': '2018-10-12 15:16:49.077595', 'mgs': 0, 'depth': -0.14, 'time': 15.22, 'pitch': 11.28, 'roll': -21.85}
{'lipoC2': 8.17, 'temp': 26.63, 'lipoC3S3': 12.7, 'rot1': 0, 'rot0': 0, 'rot3': 0, 'rot2': 0, 'state': 'normal', 'yaw': -42.88, 'datetime': '2018-10-12 15:16:49.174690', 'mgs': 0, 'depth': -0.14, 'time': 15.31, 'pitch': 11.41, 'roll': -21.99}
{'lipoC2': 8.17, 'temp': 26.63, 'lipoC3S3': 12.7, 'rot1': 0, 'rot0': 0, 'rot3': 0, 'rot2': 0, 'state': 'normal', 'yaw': -42.7, 'datetime': '2018-10-12 15:16:49.271819', 'mgs': 0, 'depth': -0.064, 'time': 15.41, 'pitch': 11.75, 'roll': -21.98}
{'lipoC2': 8.17, 'temp': 26.63, 'lipoC3S3': 12.68, 'rot1': 0, 'rot0': 0, 'rot3': 0, 'rot2': 0, 'state': 'normal', 'yaw': -42.49, 'datetime': '2018-10-12 15:16:49.368932', 'mgs': 0, 'depth': -0.14, 'time': 15.51, 'pitch': 12.2, 'roll': -22.17}
{'lipoC2': 8.17, 'temp': 26.63, 'lipoC3S3': 12.7, 'rot1': 0, 'rot0': 0, 'rot3': 0, 'rot2': 0, 'state': 'normal', 'yaw': -42.26, 'datetime': '2018-10-12 15:16:49.467316', 'mgs': 0, 'depth': -0.064, 'time': 15.61, 'pitch': 12.61, 'roll': -22.67}
{'lipoC2': 8.17, 'temp': 26.63, 'lipoC3S3': 12.7, 'rot1': 0, 'rot0': 0, 'rot3': 0, 'rot2': 0, 'state': 'normal', 'yaw': -41.99, 'datetime': '2018-10-12 15:16:49.565642', 'mgs': 0, 'depth': -0.064, 'time': 15.71, 'pitch': 12.96, 'roll': -23.47}
{'lipoC2': 8.17, 'temp': 26.63, 'lipoC3S3': 12.7, 'rot1': 0, 'rot0': 0, 'rot3': 0, 'rot2': 0, 'state': 'normal', 'yaw': -41.71, 'datetime': '2018-10-12 15:16:49.663747', 'mgs': 0, 'depth': -0.14, 'time': 15.81, 'pitch': 12.98, 'roll': -23.95}
{'lipoC2': 8.17, 'temp': 26.63, 'lipoC3S3': 12.7, 'rot1': 0, 'rot0': 0, 'rot3': 0, 'rot2': 0, 'state': 'normal', 'yaw': -41.4, 'datetime': '2018-10-12 15:16:49.760795', 'mgs': 0, 'depth': -0.064, 'time': 15.9, 'pitch': 12.54, 'roll': -23.7}
{'lipoC2': 8.17, 'temp': 26.69, 'lipoC3S3': 12.7, 'rot1': 0, 'rot0': 0, 'rot3': 0, 'rot2': 0, 'state': 'normal', 'yaw': -41.21, 'datetime': '2018-10-12 15:16:49.858301', 'mgs': 0, 'depth': -0.064, 'time': 16.0, 'pitch': 12.04, 'roll': -22.82}
{'lipoC2': 8.17, 'temp': 26.69, 'lipoC3S3': 12.7, 'rot1': 0, 'rot0': 0, 'rot3': 0, 'rot2': 0, 'state': 'normal', 'yaw': -41.39, 'datetime': '2018-10-12 15:16:49.956600', 'mgs': 0, 'depth': -0.14, 'time': 16.1, 'pitch': 11.91, 'roll': -21.99}
{'lipoC2': 8.17, 'temp': 26.69, 'lipoC3S3': 12.7, 'rot1': 0, 'rot0': 0, 'rot3': 0, 'rot2': 0, 'state': 'normal', 'yaw': -41.96, 'datetime': '2018-10-12 15:16:50.055125', 'mgs': 0, 'depth': -0.064, 'time': 16.2, 'pitch': 12.31, 'roll': -21.47}
{'lipoC2': 8.16, 'temp': 26.69, 'lipoC3S3': 12.7, 'rot1': 0, 'rot0': 0, 'rot3': 0, 'rot2': 0, 'state': 'normal', 'yaw': -42.75, 'datetime': '2018-10-12 15:16:50.152207', 'mgs': 0, 'depth': -0.14, 'time': 16.29, 'pitch': 12.71, 'roll': -21.72}
{'lipoC2': 8.17, 'temp': 26.69, 'lipoC3S3': 12.7, 'rot1': 0, 'rot0': 0, 'rot3': 0, 'rot2': 0, 'state': 'normal', 'yaw': -43.41, 'datetime': '2018-10-12 15:16:50.249419', 'mgs': 0, 'depth': -0.064, 'time': 16.39, 'pitch': 12.77, 'roll': -22.64}
{'lipoC2': 8.17, 'temp': 26.75, 'lipoC3S3': 12.7, 'rot1': 0, 'rot0': 0, 'rot3': 0, 'rot2': 0, 'state': 'normal', 'yaw': -43.77, 'datetime': '2018-10-12 15:16:50.347771', 'mgs': 0, 'depth': -0.064, 'time': 16.49, 'pitch': 12.42, 'roll': -23.49}
{'lipoC2': 8.17, 'temp': 26.75, 'lipoC3S3': 12.68, 'rot1': 0, 'rot0': 0, 'rot3': 0, 'rot2': 0, 'state': 'normal', 'yaw': -43.96, 'datetime': '2018-10-12 15:16:50.445088', 'mgs': 0, 'depth': -0.064, 'time': 16.59, 'pitch': 11.9, 'roll': -24.15}
{'lipoC2': 8.17, 'temp': 26.75, 'lipoC3S3': 12.68, 'rot1': 0, 'rot0': 0, 'rot3': 0, 'rot2': 0, 'state': 'normal', 'yaw': -44.12, 'datetime': '2018-10-12 15:16:50.542114', 'mgs': 0, 'depth': -0.064, 'time': 16.68, 'pitch': 11.62, 'roll': -24.42}
{'lipoC2': 8.17, 'temp': 26.63, 'lipoC3S3': 12.7, 'rot1': 0, 'rot0': 0, 'rot3': 0, 'rot2': 0, 'state': 'normal', 'yaw': -44.42, 'datetime': '2018-10-12 15:16:50.639517', 'mgs': 0, 'depth': -0.14, 'time': 16.78, 'pitch': 11.7, 'roll': -24.35}
{'lipoC2': 8.17, 'temp': 26.63, 'lipoC3S3': 12.7, 'rot1': 0, 'rot0': 0, 'rot3': 0, 'rot2': 0, 'state': 'normal', 'yaw': -44.73, 'datetime': '2018-10-12 15:16:50.736582', 'mgs': 0, 'depth': -0.064, 'time': 16.88, 'pitch': 11.94, 'roll': -24.31}
{'lipoC2': 8.17, 'temp': 26.69, 'lipoC3S3': 12.7, 'rot1': 0, 'rot0': 0, 'rot3': 0, 'rot2': 0, 'state': 'normal', 'yaw': -45.0, 'datetime': '2018-10-12 15:16:50.833705', 'mgs': 0, 'depth': -0.14, 'time': 16.98, 'pitch': 12.07, 'roll': -24.79}
{'lipoC2': 8.17, 'temp': 26.69, 'lipoC3S3': 12.7, 'rot1': 0, 'rot0': 0, 'rot3': 0, 'rot2': 0, 'state': 'normal', 'yaw': -45.22, 'datetime': '2018-10-12 15:16:50.930803', 'mgs': 0, 'depth': -0.14, 'time': 17.07, 'pitch': 11.99, 'roll': -25.82}
{'lipoC2': 8.16, 'temp': 26.69, 'lipoC3S3': 12.7, 'rot1': 0, 'rot0': 0, 'rot3': 0, 'rot2': 0, 'state': 'normal', 'yaw': -45.48, 'datetime': '2018-10-12 15:16:51.028031', 'mgs': 0, 'depth': -0.217, 'time': 17.17, 'pitch': 11.87, 'roll': -26.74}
{'lipoC2': 8.17, 'temp': 26.63, 'lipoC3S3': 12.68, 'rot1': 0, 'rot0': 0, 'rot3': 0, 'rot2': 0, 'state': 'normal', 'yaw': -45.72, 'datetime': '2018-10-12 15:16:51.125062', 'mgs': 0, 'depth': -0.064, 'time': 17.27, 'pitch': 11.64, 'roll': -27.25}
{'lipoC2': 8.17, 'temp': 26.63, 'lipoC3S3': 12.7, 'rot1': 0, 'rot0': 0, 'rot3': 0, 'rot2': 0, 'state': 'normal', 'yaw': -45.9, 'datetime': '2018-10-12 15:16:51.222971', 'mgs': 0, 'depth': -0.14, 'time': 17.37, 'pitch': 11.37, 'roll': -26.91}
{'lipoC2': 8.17, 'temp': 26.63, 'lipoC3S3': 12.7, 'rot1': 0, 'rot0': 0, 'rot3': 0, 'rot2': 0, 'state': 'normal', 'yaw': -46.11, 'datetime': '2018-10-12 15:16:51.320403', 'mgs': 0, 'depth': -0.064, 'time': 17.46, 'pitch': 11.31, 'roll': -25.82}
{'lipoC2': 8.17, 'temp': 26.63, 'lipoC3S3': 12.7, 'rot1': 0, 'rot0': 0, 'rot3': 0, 'rot2': 0, 'state': 'normal', 'yaw': -46.25, 'datetime': '2018-10-12 15:16:51.418222', 'mgs': 0, 'depth': -0.064, 'time': 17.56, 'pitch': 11.52, 'roll': -24.09}
{'lipoC2': 8.16, 'temp': 26.63, 'lipoC3S3': 12.7, 'rot1': 0, 'rot0': 0, 'rot3': 0, 'rot2': 0, 'state': 'normal', 'yaw': -46.2, 'datetime': '2018-10-12 15:16:51.516378', 'mgs': 0, 'depth': -0.14, 'time': 17.66, 'pitch': 11.84, 'roll': -22.95}
{'lipoC2': 8.16, 'temp': 26.69, 'lipoC3S3': 12.7, 'rot1': 0, 'rot0': 0, 'rot3': 0, 'rot2': 0, 'state': 'normal', 'yaw': -45.95, 'datetime': '2018-10-12 15:16:51.613585', 'mgs': 0, 'depth': -0.14, 'time': 17.76, 'pitch': 12.06, 'roll': -22.92}
{'lipoC2': 8.16, 'temp': 26.69, 'lipoC3S3': 12.7, 'rot1': 0, 'rot0': 0, 'rot3': 0, 'rot2': 0, 'state': 'normal', 'yaw': -45.66, 'datetime': '2018-10-12 15:16:51.710718', 'mgs': 0, 'depth': -0.064, 'time': 17.85, 'pitch': 12.1, 'roll': -23.72}
{'lipoC2': 8.17, 'temp': 26.63, 'lipoC3S3': 12.7, 'rot1': 0, 'rot0': 0, 'rot3': 0, 'rot2': 0, 'state': 'normal', 'yaw': -45.51, 'datetime': '2018-10-12 15:16:51.809083', 'mgs': 0, 'depth': 0.012, 'time': 17.95, 'pitch': 12.14, 'roll': -24.87}
{'lipoC2': 8.17, 'temp': 26.63, 'lipoC3S3': 12.7, 'rot1': 0, 'rot0': 0, 'rot3': 0, 'rot2': 0, 'state': 'normal', 'yaw': -45.38, 'datetime': '2018-10-12 15:16:51.907498', 'mgs': 0, 'depth': -0.14, 'time': 18.05, 'pitch': 12.27, 'roll': -25.94}
{'lipoC2': 8.16, 'temp': 26.63, 'lipoC3S3': 12.68, 'rot1': 0, 'rot0': 0, 'rot3': 0, 'rot2': 0, 'state': 'normal', 'yaw': -45.31, 'datetime': '2018-10-12 15:16:52.012610', 'mgs': 0, 'depth': -0.064, 'time': 18.15, 'pitch': 12.52, 'roll': -26.15}
{'lipoC2': 8.16, 'temp': 26.56, 'lipoC3S3': 12.7, 'rot1': 0, 'rot0': 0, 'rot3': 0, 'rot2': 0, 'state': 'normal', 'yaw': -45.41, 'datetime': '2018-10-12 15:16:52.109573', 'mgs': 0, 'depth': -0.14, 'time': 18.25, 'pitch': 12.96, 'roll': -25.5}
{'lipoC2': 8.17, 'temp': 26.56, 'lipoC3S3': 12.7, 'rot1': 0, 'rot0': 0, 'rot3': 0, 'rot2': 0, 'state': 'normal', 'yaw': -45.59, 'datetime': '2018-10-12 15:16:52.203132', 'mgs': 0, 'depth': -0.14, 'time': 18.34, 'pitch': 13.41, 'roll': -24.58}
{'lipoC2': 8.17, 'temp': 26.69, 'lipoC3S3': 12.7, 'rot1': 0, 'rot0': 0, 'rot3': 0, 'rot2': 0, 'state': 'normal', 'yaw': -45.84, 'datetime': '2018-10-12 15:16:52.300453', 'mgs': 0, 'depth': -0.14, 'time': 18.44, 'pitch': 13.74, 'roll': -24.35}
{'lipoC2': 8.17, 'temp': 26.69, 'lipoC3S3': 12.7, 'rot1': 0, 'rot0': 0, 'rot3': 0, 'rot2': 0, 'state': 'normal', 'yaw': -46.11, 'datetime': '2018-10-12 15:16:52.397859', 'mgs': 0, 'depth': -0.14, 'time': 18.54, 'pitch': 13.81, 'roll': -25.25}
{'lipoC2': 8.17, 'temp': 26.69, 'lipoC3S3': 12.7, 'rot1': 0, 'rot0': 0, 'rot3': 0, 'rot2': 0, 'state': 'normal', 'yaw': -46.5, 'datetime': '2018-10-12 15:16:52.494907', 'mgs': 0, 'depth': -0.14, 'time': 18.64, 'pitch': 13.82, 'roll': -26.86}
{'lipoC2': 8.17, 'temp': 26.63, 'lipoC3S3': 12.7, 'rot1': 0, 'rot0': 0, 'rot3': 0, 'rot2': 0, 'state': 'normal', 'yaw': -46.91, 'datetime': '2018-10-12 15:16:52.596969', 'mgs': 0, 'depth': -0.064, 'time': 18.73, 'pitch': 13.82, 'roll': -28.2}
{'lipoC2': 8.17, 'temp': 26.63, 'lipoC3S3': 12.68, 'rot1': 0, 'rot0': 0, 'rot3': 0, 'rot2': 0, 'state': 'normal', 'yaw': -47.33, 'datetime': '2018-10-12 15:16:52.694166', 'mgs': 0, 'depth': -0.064, 'time': 18.83, 'pitch': 13.65, 'roll': -28.86}
{'lipoC2': 8.17, 'temp': 26.69, 'lipoC3S3': 12.68, 'rot1': 0, 'rot0': 0, 'rot3': 0, 'rot2': 0, 'state': 'normal', 'yaw': -47.75, 'datetime': '2018-10-12 15:16:52.791315', 'mgs': 0, 'depth': -0.14, 'time': 18.93, 'pitch': 13.18, 'roll': -28.27}
{'lipoC2': 8.17, 'temp': 26.69, 'lipoC3S3': 12.68, 'rot1': 0, 'rot0': 0, 'rot3': 0, 'rot2': 0, 'state': 'normal', 'yaw': -48.21, 'datetime': '2018-10-12 15:16:52.888453', 'mgs': 0, 'depth': -0.14, 'time': 19.02, 'pitch': 12.74, 'roll': -26.88}
{'lipoC2': 8.16, 'temp': 26.69, 'lipoC3S3': 12.7, 'rot1': 0, 'rot0': 0, 'rot3': 0, 'rot2': 0, 'state': 'normal', 'yaw': -48.87, 'datetime': '2018-10-12 15:16:52.985623', 'mgs': 0, 'depth': -0.064, 'time': 19.12, 'pitch': 12.51, 'roll': -25.32}
{'lipoC2': 8.17, 'temp': 26.56, 'lipoC3S3': 12.7, 'rot1': 0, 'rot0': 0, 'rot3': 0, 'rot2': 0, 'state': 'normal', 'yaw': -49.56, 'datetime': '2018-10-12 15:16:53.082934', 'mgs': 0, 'depth': -0.064, 'time': 19.22, 'pitch': 12.8, 'roll': -25.04}
{'lipoC2': 8.17, 'temp': 26.56, 'lipoC3S3': 12.68, 'rot1': 0, 'rot0': 0, 'rot3': 0, 'rot2': 0, 'state': 'normal', 'yaw': -50.13, 'datetime': '2018-10-12 15:16:53.180769', 'mgs': 0, 'depth': -0.064, 'time': 19.32, 'pitch': 13.29, 'roll': -25.95}
{'lipoC2': 8.16, 'temp': 26.63, 'lipoC3S3': 12.7, 'rot1': 0, 'rot0': 0, 'rot3': 0, 'rot2': 0, 'state': 'normal', 'yaw': -50.61, 'datetime': '2018-10-12 15:16:53.279072', 'mgs': 0, 'depth': -0.064, 'time': 19.42, 'pitch': 13.56, 'roll': -27.52}
{'lipoC2': 8.17, 'temp': 26.63, 'lipoC3S3': 12.7, 'rot1': 0, 'rot0': 0, 'rot3': 0, 'rot2': 0, 'state': 'normal', 'yaw': -50.86, 'datetime': '2018-10-12 15:16:53.372347', 'mgs': 0, 'depth': 0.012, 'time': 19.51, 'pitch': 13.37, 'roll': -28.84}
{'lipoC2': 8.17, 'temp': 26.63, 'lipoC3S3': 12.7, 'rot1': 0, 'rot0': 0, 'rot3': 0, 'rot2': 0, 'state': 'normal', 'yaw': -50.91, 'datetime': '2018-10-12 15:16:53.469650', 'mgs': 0, 'depth': -0.064, 'time': 19.61, 'pitch': 12.91, 'roll': -29.53}
{'lipoC2': 8.16, 'temp': 26.63, 'lipoC3S3': 12.7, 'rot1': 0, 'rot0': 0, 'rot3': 0, 'rot2': 0, 'state': 'normal', 'yaw': -51.0, 'datetime': '2018-10-12 15:16:53.566687', 'mgs': 0, 'depth': -0.14, 'time': 19.71, 'pitch': 12.52, 'roll': -29.48}
{'lipoC2': 8.17, 'temp': 26.63, 'lipoC3S3': 12.7, 'rot1': 0, 'rot0': 0, 'rot3': 0, 'rot2': 0, 'state': 'normal', 'yaw': -51.25, 'datetime': '2018-10-12 15:16:53.665194', 'mgs': 0, 'depth': -0.064, 'time': 19.81, 'pitch': 12.43, 'roll': -29.02}
{'lipoC2': 8.16, 'temp': 26.63, 'lipoC3S3': 12.7, 'rot1': 0, 'rot0': 0, 'rot3': 0, 'rot2': 0, 'state': 'normal', 'yaw': -51.69, 'datetime': '2018-10-12 15:16:53.763613', 'mgs': 0, 'depth': -0.14, 'time': 19.91, 'pitch': 12.55, 'roll': -28.62}
{'lipoC2': 8.16, 'temp': 26.63, 'lipoC3S3': 12.7, 'rot1': 0, 'rot0': 0, 'rot3': 0, 'rot2': 0, 'state': 'normal', 'yaw': -52.28, 'datetime': '2018-10-12 15:16:53.860674', 'mgs': 0, 'depth': -0.064, 'time': 20.0, 'pitch': 12.94, 'roll': -28.56}
{'lipoC2': 8.17, 'temp': 26.63, 'lipoC3S3': 12.7, 'rot1': 0, 'rot0': 0, 'rot3': 0, 'rot2': 0, 'state': 'normal', 'yaw': -52.83, 'datetime': '2018-10-12 15:16:53.957846', 'mgs': 0, 'depth': -0.14, 'time': 20.1, 'pitch': 13.54, 'roll': -28.79}
{'lipoC2': 8.16, 'temp': 26.63, 'lipoC3S3': 12.7, 'rot1': 0, 'rot0': 0, 'rot3': 0, 'rot2': 0, 'state': 'normal', 'yaw': -53.11, 'datetime': '2018-10-12 15:16:54.056089', 'mgs': 0, 'depth': -0.14, 'time': 20.2, 'pitch': 13.81, 'roll': -29.28}
{'lipoC2': 8.17, 'temp': 26.63, 'lipoC3S3': 12.7, 'rot1': 0, 'rot0': 0, 'rot3': 0, 'rot2': 0, 'state': 'normal', 'yaw': -53.36, 'datetime': '2018-10-12 15:16:54.158643', 'mgs': 0, 'depth': -0.14, 'time': 20.3, 'pitch': 14.02, 'roll': -29.99}
{'lipoC2': 8.17, 'temp': 26.63, 'lipoC3S3': 12.7, 'rot1': 0, 'rot0': 0, 'rot3': 0, 'rot2': 0, 'state': 'normal', 'yaw': -53.57, 'datetime': '2018-10-12 15:16:54.255731', 'mgs': 0, 'depth': -0.064, 'time': 20.4, 'pitch': 14.06, 'roll': -30.34}
{'lipoC2': 8.16, 'temp': 26.63, 'lipoC3S3': 12.7, 'rot1': 0, 'rot0': 0, 'rot3': 0, 'rot2': 0, 'state': 'normal', 'yaw': -53.75, 'datetime': '2018-10-12 15:16:54.352927', 'mgs': 0, 'depth': -0.14, 'time': 20.49, 'pitch': 13.66, 'roll': -30.11}
{'lipoC2': 8.17, 'temp': 26.63, 'lipoC3S3': 12.7, 'rot1': 0, 'rot0': 0, 'rot3': 0, 'rot2': 0, 'state': 'normal', 'yaw': -53.94, 'datetime': '2018-10-12 15:16:54.450065', 'mgs': 0, 'depth': -0.217, 'time': 20.59, 'pitch': 12.88, 'roll': -29.5}
{'lipoC2': 8.17, 'temp': 26.63, 'lipoC3S3': 12.7, 'rot1': 0, 'rot0': 0, 'rot3': 0, 'rot2': 0, 'state': 'normal', 'yaw': -54.27, 'datetime': '2018-10-12 15:16:54.547414', 'mgs': 0, 'depth': -0.14, 'time': 20.69, 'pitch': 11.72, 'roll': -28.6}
{'lipoC2': 8.17, 'temp': 26.63, 'lipoC3S3': 12.68, 'rot1': 0, 'rot0': 0, 'rot3': 0, 'rot2': 0, 'state': 'normal', 'yaw': -54.97, 'datetime': '2018-10-12 15:16:54.644363', 'mgs': 0, 'depth': -0.14, 'time': 20.78, 'pitch': 10.74, 'roll': -27.93}
{'lipoC2': 8.17, 'temp': 26.63, 'lipoC3S3': 12.68, 'rot1': 0, 'rot0': 0, 'rot3': 0, 'rot2': 0, 'state': 'normal', 'yaw': -55.79, 'datetime': '2018-10-12 15:16:54.741452', 'mgs': 0, 'depth': -0.064, 'time': 20.88, 'pitch': 10.34, 'roll': -28.13}
{'lipoC2': 8.16, 'temp': 26.63, 'lipoC3S3': 12.68, 'rot1': 0, 'rot0': 0, 'rot3': 0, 'rot2': 0, 'state': 'normal', 'yaw': -56.88, 'datetime': '2018-10-12 15:16:54.838588', 'mgs': 0, 'depth': -0.14, 'time': 20.98, 'pitch': 10.26, 'roll': -29.41}
{'lipoC2': 8.17, 'temp': 26.63, 'lipoC3S3': 12.7, 'rot1': 0, 'rot0': 0, 'rot3': 0, 'rot2': 0, 'state': 'normal', 'yaw': -58.09, 'datetime': '2018-10-12 15:16:54.935825', 'mgs': 0, 'depth': -0.064, 'time': 21.07, 'pitch': 10.1, 'roll': -31.05}
{'lipoC2': 8.17, 'temp': 26.63, 'lipoC3S3': 12.7, 'rot1': 0, 'rot0': 0, 'rot3': 0, 'rot2': 0, 'state': 'normal', 'yaw': -59.19, 'datetime': '2018-10-12 15:16:55.033771', 'mgs': 0, 'depth': -0.064, 'time': 21.17, 'pitch': 9.65, 'roll': -32.08}
{'lipoC2': 8.17, 'temp': 26.63, 'lipoC3S3': 12.7, 'rot1': 0, 'rot0': 0, 'rot3': 0, 'rot2': 0, 'state': 'normal', 'yaw': -60.19, 'datetime': '2018-10-12 15:16:55.132162', 'mgs': 0, 'depth': -0.064, 'time': 21.27, 'pitch': 9.05, 'roll': -32.36}
{'lipoC2': 8.17, 'temp': 26.63, 'lipoC3S3': 12.68, 'rot1': 0, 'rot0': 0, 'rot3': 0, 'rot2': 0, 'state': 'normal', 'yaw': -60.73, 'datetime': '2018-10-12 15:16:55.230222', 'mgs': 0, 'depth': -0.14, 'time': 21.37, 'pitch': 8.39, 'roll': -31.61}
{'lipoC2': 8.17, 'temp': 26.63, 'lipoC3S3': 12.7, 'rot1': 0, 'rot0': 0, 'rot3': 0, 'rot2': 0, 'state': 'normal', 'yaw': -60.88, 'datetime': '2018-10-12 15:16:55.327234', 'mgs': 0, 'depth': -0.064, 'time': 21.47, 'pitch': 7.56, 'roll': -30.27}
{'lipoC2': 8.16, 'temp': 26.63, 'lipoC3S3': 12.7, 'rot1': 0, 'rot0': 0, 'rot3': 0, 'rot2': 0, 'state': 'normal', 'yaw': -60.8, 'datetime': '2018-10-12 15:16:55.419796', 'mgs': 0, 'depth': -0.064, 'time': 21.57, 'pitch': 6.86, 'roll': -29.31}
{'lipoC2': 8.17, 'temp': 26.69, 'lipoC3S3': 12.7, 'rot1': 0, 'rot0': 0, 'rot3': 0, 'rot2': 0, 'state': 'normal', 'yaw': -60.83, 'datetime': '2018-10-12 15:16:55.518247', 'mgs': 0, 'depth': -0.064, 'time': 21.66, 'pitch': 6.68, 'roll': -29.23}
{'lipoC2': 8.17, 'temp': 26.69, 'lipoC3S3': 12.7, 'rot1': 0, 'rot0': 0, 'rot3': 0, 'rot2': 0, 'state': 'normal', 'yaw': -61.15, 'datetime': '2018-10-12 15:16:55.616609', 'mgs': 0, 'depth': -0.064, 'time': 21.76, 'pitch': 7.0, 'roll': -29.88}
{'lipoC2': 8.17, 'temp': 26.63, 'lipoC3S3': 12.68, 'rot1': 0, 'rot0': 0, 'rot3': 0, 'rot2': 0, 'state': 'normal', 'yaw': -61.65, 'datetime': '2018-10-12 15:16:55.713746', 'mgs': 0, 'depth': -0.064, 'time': 21.86, 'pitch': 7.62, 'roll': -30.79}
{'lipoC2': 8.16, 'temp': 26.63, 'lipoC3S3': 12.7, 'rot1': 0, 'rot0': 0, 'rot3': 0, 'rot2': 0, 'state': 'normal', 'yaw': -62.02, 'datetime': '2018-10-12 15:16:55.810857', 'mgs': 0, 'depth': -0.064, 'time': 21.96, 'pitch': 8.23, 'roll': -31.63}
{'lipoC2': 8.16, 'temp': 26.63, 'lipoC3S3': 12.68, 'rot1': 0, 'rot0': 0, 'rot3': 0, 'rot2': 0, 'state': 'normal', 'yaw': -62.06, 'datetime': '2018-10-12 15:16:55.909285', 'mgs': 0, 'depth': -0.064, 'time': 22.05, 'pitch': 8.62, 'roll': -31.99}
{'lipoC2': 8.17, 'temp': 26.63, 'lipoC3S3': 12.68, 'rot1': 0, 'rot0': 0, 'rot3': 0, 'rot2': 0, 'state': 'normal', 'yaw': -61.57, 'datetime': '2018-10-12 15:16:56.011340', 'mgs': 0, 'depth': -0.064, 'time': 22.15, 'pitch': 8.85, 'roll': -31.68}
{'lipoC2': 8.17, 'temp': 26.63, 'lipoC3S3': 12.7, 'rot1': 0, 'rot0': 0, 'rot3': 0, 'rot2': 0, 'state': 'normal', 'yaw': -60.75, 'datetime': '2018-10-12 15:16:56.108207', 'mgs': 0, 'depth': 0.012, 'time': 22.25, 'pitch': 8.84, 'roll': -30.86}
{'lipoC2': 8.17, 'temp': 26.63, 'lipoC3S3': 12.7, 'rot1': 0, 'rot0': 0, 'rot3': 0, 'rot2': 0, 'state': 'normal', 'yaw': -60.1, 'datetime': '2018-10-12 15:16:56.205567', 'mgs': 0, 'depth': -0.064, 'time': 22.35, 'pitch': 8.82, 'roll': -30.23}
{'lipoC2': 8.16, 'temp': 26.63, 'lipoC3S3': 12.7, 'rot1': 0, 'rot0': 0, 'rot3': 0, 'rot2': 0, 'state': 'normal', 'yaw': -59.89, 'datetime': '2018-10-12 15:16:56.302704', 'mgs': 0, 'depth': -0.064, 'time': 22.44, 'pitch': 8.88, 'roll': -30.09}
{'lipoC2': 8.16, 'temp': 26.69, 'lipoC3S3': 12.7, 'rot1': 0, 'rot0': 0, 'rot3': 0, 'rot2': 0, 'state': 'normal', 'yaw': -60.2, 'datetime': '2018-10-12 15:16:56.398860', 'mgs': 0, 'depth': -0.064, 'time': 22.54, 'pitch': 9.16, 'roll': -30.5}
{'lipoC2': 8.17, 'temp': 26.69, 'lipoC3S3': 12.68, 'rot1': 0, 'rot0': 0, 'rot3': 0, 'rot2': 0, 'state': 'normal', 'yaw': -60.89, 'datetime': '2018-10-12 15:16:56.497040', 'mgs': 0, 'depth': -0.14, 'time': 22.64, 'pitch': 9.6, 'roll': -31.44}
{'lipoC2': 8.17, 'temp': 26.69, 'lipoC3S3': 12.7, 'rot1': 0, 'rot0': 0, 'rot3': 0, 'rot2': 0, 'state': 'normal', 'yaw': -61.62, 'datetime': '2018-10-12 15:16:56.594065', 'mgs': 0, 'depth': -0.064, 'time': 22.74, 'pitch': 10.0, 'roll': -32.45}
{'lipoC2': 8.17, 'temp': 26.63, 'lipoC3S3': 12.68, 'rot1': 0, 'rot0': 0, 'rot3': 0, 'rot2': 0, 'state': 'normal', 'yaw': -62.21, 'datetime': '2018-10-12 15:16:56.686329', 'mgs': 0, 'depth': -0.064, 'time': 22.83, 'pitch': 10.05, 'roll': -33.05}
{'lipoC2': 8.17, 'temp': 26.63, 'lipoC3S3': 12.7, 'rot1': 0, 'rot0': 0, 'rot3': 0, 'rot2': 0, 'state': 'normal', 'yaw': -62.44, 'datetime': '2018-10-12 15:16:56.783480', 'mgs': 0, 'depth': -0.14, 'time': 22.93, 'pitch': 9.6, 'roll': -32.73}
{'lipoC2': 8.16, 'temp': 26.69, 'lipoC3S3': 12.7, 'rot1': 0, 'rot0': 0, 'rot3': 0, 'rot2': 0, 'state': 'normal', 'yaw': -62.46, 'datetime': '2018-10-12 15:16:56.881649', 'mgs': 0, 'depth': -0.064, 'time': 23.03, 'pitch': 8.89, 'roll': -31.83}
{'lipoC2': 8.17, 'temp': 26.69, 'lipoC3S3': 12.7, 'rot1': 0, 'rot0': 0, 'rot3': 0, 'rot2': 0, 'state': 'normal', 'yaw': -62.54, 'datetime': '2018-10-12 15:16:56.980058', 'mgs': 0, 'depth': 0.012, 'time': 23.13, 'pitch': 8.27, 'roll': -30.92}
{'lipoC2': 8.17, 'temp': 26.69, 'lipoC3S3': 12.7, 'rot1': 0, 'rot0': 0, 'rot3': 0, 'rot2': 0, 'state': 'normal', 'yaw': -63.1, 'datetime': '2018-10-12 15:16:57.077663', 'mgs': 0, 'depth': 0.012, 'time': 23.22, 'pitch': 8.17, 'roll': -30.6}
{'lipoC2': 8.17, 'temp': 26.63, 'lipoC3S3': 12.68, 'rot1': 0, 'rot0': 0, 'rot3': 0, 'rot2': 0, 'state': 'normal', 'yaw': -64.13, 'datetime': '2018-10-12 15:16:57.174803', 'mgs': 0, 'depth': -0.064, 'time': 23.32, 'pitch': 8.54, 'roll': -30.88}
{'lipoC2': 8.17, 'temp': 26.63, 'lipoC3S3': 12.68, 'rot1': 0, 'rot0': 0, 'rot3': 0, 'rot2': 0, 'state': 'normal', 'yaw': -65.29, 'datetime': '2018-10-12 15:16:57.277441', 'mgs': 0, 'depth': 0.012, 'time': 23.42, 'pitch': 8.96, 'roll': -31.53}
{'lipoC2': 8.17, 'temp': 26.69, 'lipoC3S3': 12.7, 'rot1': 0, 'rot0': 0, 'rot3': 0, 'rot2': 0, 'state': 'normal', 'yaw': -66.37, 'datetime': '2018-10-12 15:16:57.375768', 'mgs': 0, 'depth': -0.064, 'time': 23.52, 'pitch': 9.15, 'roll': -32.32}
{'lipoC2': 8.17, 'temp': 26.69, 'lipoC3S3': 12.7, 'rot1': 0, 'rot0': 0, 'rot3': 0, 'rot2': 0, 'state': 'normal', 'yaw': -66.85, 'datetime': '2018-10-12 15:16:57.474200', 'mgs': 0, 'depth': -0.064, 'time': 23.62, 'pitch': 8.9, 'roll': -32.62}
{'lipoC2': 8.17, 'temp': 26.69, 'lipoC3S3': 12.7, 'rot1': 0, 'rot0': 0, 'rot3': 0, 'rot2': 0, 'state': 'normal', 'yaw': -66.55, 'datetime': '2018-10-12 15:16:57.571238', 'mgs': 0, 'depth': 0.012, 'time': 23.71, 'pitch': 8.43, 'roll': -32.28}
{'lipoC2': 8.16, 'temp': 26.63, 'lipoC3S3': 12.68, 'rot1': 0, 'rot0': 0, 'rot3': 0, 'rot2': 0, 'state': 'normal', 'yaw': -65.91, 'datetime': '2018-10-12 15:16:57.668320', 'mgs': 0, 'depth': 0.012, 'time': 23.81, 'pitch': 7.94, 'roll': -31.74}
{'lipoC2': 8.17, 'temp': 26.63, 'lipoC3S3': 12.7, 'rot1': 0, 'rot0': 0, 'rot3': 0, 'rot2': 0, 'state': 'normal', 'yaw': -65.36, 'datetime': '2018-10-12 15:16:57.766500', 'mgs': 0, 'depth': 0.012, 'time': 23.91, 'pitch': 7.63, 'roll': -31.47}
{'lipoC2': 8.17, 'temp': 26.69, 'lipoC3S3': 12.7, 'rot1': 0, 'rot0': 0, 'rot3': 0, 'rot2': 0, 'state': 'normal', 'yaw': -65.08, 'datetime': '2018-10-12 15:16:57.864512', 'mgs': 0, 'depth': 0.089, 'time': 24.01, 'pitch': 7.38, 'roll': -31.54}
{'lipoC2': 8.17, 'temp': 26.69, 'lipoC3S3': 12.7, 'rot1': 0, 'rot0': 0, 'rot3': 0, 'rot2': 0, 'state': 'normal', 'yaw': -65.32, 'datetime': '2018-10-12 15:16:57.961780', 'mgs': 0, 'depth': 0.089, 'time': 24.1, 'pitch': 7.14, 'roll': -31.86}
{'lipoC2': 8.17, 'temp': 26.69, 'lipoC3S3': 12.7, 'rot1': 0, 'rot0': 0, 'rot3': 0, 'rot2': 0, 'state': 'normal', 'yaw': -66.15, 'datetime': '2018-10-12 15:16:58.058710', 'mgs': 0, 'depth': 0.089, 'time': 24.2, 'pitch': 7.02, 'roll': -32.19}
{'lipoC2': 8.16, 'temp': 26.63, 'lipoC3S3': 12.7, 'rot1': 0, 'rot0': 0, 'rot3': 0, 'rot2': 0, 'state': 'normal', 'yaw': -67.17, 'datetime': '2018-10-12 15:16:58.155637', 'mgs': 0, 'depth': 0.012, 'time': 24.3, 'pitch': 7.09, 'roll': -32.38}
{'lipoC2': 8.17, 'temp': 26.63, 'lipoC3S3': 12.7, 'rot1': 0, 'rot0': 0, 'rot3': 0, 'rot2': 0, 'state': 'normal', 'yaw': -68.36, 'datetime': '2018-10-12 15:16:58.252634', 'mgs': 0, 'depth': 0.089, 'time': 24.4, 'pitch': 7.16, 'roll': -32.47}
{'lipoC2': 8.16, 'temp': 26.63, 'lipoC3S3': 12.68, 'rot1': 0, 'rot0': 0, 'rot3': 0, 'rot2': 0, 'state': 'normal', 'yaw': -69.35, 'datetime': '2018-10-12 15:16:58.349636', 'mgs': 0, 'depth': 0.012, 'time': 24.49, 'pitch': 7.1, 'roll': -32.42}
{'lipoC2': 8.16, 'temp': 26.63, 'lipoC3S3': 12.7, 'rot1': 0, 'rot0': 0, 'rot3': 0, 'rot2': 0, 'state': 'normal', 'yaw': -69.98, 'datetime': '2018-10-12 15:16:58.446746', 'mgs': 0, 'depth': 0.012, 'time': 24.59, 'pitch': 6.75, 'roll': -32.45}
{'lipoC2': 8.17, 'temp': 26.63, 'lipoC3S3': 12.7, 'rot1': 0, 'rot0': 0, 'rot3': 0, 'rot2': 0, 'state': 'normal', 'yaw': -70.39, 'datetime': '2018-10-12 15:16:58.543743', 'mgs': 0, 'depth': 0.089, 'time': 24.69, 'pitch': 6.21, 'roll': -32.65}
{'lipoC2': 8.16, 'temp': 26.63, 'lipoC3S3': 12.7, 'rot1': 0, 'rot0': 0, 'rot3': 0, 'rot2': 0, 'state': 'normal', 'yaw': -70.81, 'datetime': '2018-10-12 15:16:58.640776', 'mgs': 0, 'depth': 0.012, 'time': 24.78, 'pitch': 5.79, 'roll': -33.11}
{'lipoC2': 8.17, 'temp': 26.63, 'lipoC3S3': 12.68, 'rot1': 0, 'rot0': 0, 'rot3': 0, 'rot2': 0, 'state': 'normal', 'yaw': -71.34, 'datetime': '2018-10-12 15:16:58.739598', 'mgs': 0, 'depth': 0.012, 'time': 24.88, 'pitch': 5.71, 'roll': -33.81}
{'lipoC2': 8.17, 'temp': 26.75, 'lipoC3S3': 12.68, 'rot1': 0, 'rot0': 0, 'rot3': 0, 'rot2': 0, 'state': 'normal', 'yaw': -71.96, 'datetime': '2018-10-12 15:16:58.837304', 'mgs': 0, 'depth': 0.089, 'time': 24.98, 'pitch': 5.75, 'roll': -34.69}
{'lipoC2': 8.17, 'temp': 26.75, 'lipoC3S3': 12.68, 'rot1': 0, 'rot0': 0, 'rot3': 0, 'rot2': 0, 'state': 'normal', 'yaw': -72.52, 'datetime': '2018-10-12 15:16:58.935283', 'mgs': 0, 'depth': 0.089, 'time': 25.08, 'pitch': 5.56, 'roll': -35.17}
{'lipoC2': 8.16, 'temp': 26.75, 'lipoC3S3': 12.7, 'rot1': 0, 'rot0': 0, 'rot3': 0, 'rot2': 0, 'state': 'normal', 'yaw': -72.99, 'datetime': '2018-10-12 15:16:59.031902', 'mgs': 0, 'depth': 0.012, 'time': 25.18, 'pitch': 5.33, 'roll': -35.02}
{'lipoC2': 8.17, 'temp': 26.63, 'lipoC3S3': 12.7, 'rot1': 0, 'rot0': 0, 'rot3': 0, 'rot2': 0, 'state': 'normal', 'yaw': -73.18, 'datetime': '2018-10-12 15:16:59.129617', 'mgs': 0, 'depth': 0.012, 'time': 25.27, 'pitch': 4.7, 'roll': -34.05}
