{'lipoC2': 8.0, 'temp': 26.31, 'lipoC3S3': 12.48, 'rot1': 0, 'rot0': 0, 'rot3': 0, 'rot2': 0, 'state': 'normal', 'yaw': 0.0, 'datetime': '2018-10-12 15:50:18.847612', 'mgs': 0, 'depth': -0.751, 'time': 1.26, 'pitch': -1.08, 'roll': -8.44}
{'lipoC2': 8.0, 'temp': 26.31, 'lipoC3S3': 12.48, 'rot1': 0, 'rot0': 0, 'rot3': 0, 'rot2': 0, 'state': 'normal', 'yaw': 0.01, 'datetime': '2018-10-12 15:50:18.870145', 'mgs': 0, 'depth': -0.827, 'time': 1.36, 'pitch': -1.06, 'roll': -8.42}
{'lipoC2': 8.0, 'temp': 26.31, 'lipoC3S3': 12.5, 'rot1': 0, 'rot0': 0, 'rot3': 0, 'rot2': 0, 'state': 'normal', 'yaw': 0.03, 'datetime': '2018-10-12 15:50:18.889146', 'mgs': 0, 'depth': -0.751, 'time': 1.45, 'pitch': -1.05, 'roll': -8.42}
{'lipoC2': 8.0, 'temp': 26.25, 'lipoC3S3': 12.48, 'rot1': 0, 'rot0': 0, 'rot3': 0, 'rot2': 0, 'state': 'normal', 'yaw': 0.03, 'datetime': '2018-10-12 15:50:18.907949', 'mgs': 0, 'depth': -0.751, 'time': 1.55, 'pitch': -1.07, 'roll': -8.41}
{'lipoC2': 8.0, 'temp': 26.25, 'lipoC3S3': 12.5, 'rot1': 0, 'rot0': 0, 'rot3': 0, 'rot2': 0, 'state': 'normal', 'yaw': 0.03, 'datetime': '2018-10-12 15:50:18.932625', 'mgs': 0, 'depth': -0.751, 'time': 1.65, 'pitch': -1.07, 'roll': -8.4}
{'lipoC2': 8.0, 'temp': 26.31, 'lipoC3S3': 12.5, 'rot1': 0, 'rot0': 0, 'rot3': 0, 'rot2': 0, 'state': 'normal', 'yaw': 0.03, 'datetime': '2018-10-12 15:50:18.961357', 'mgs': 0, 'depth': -0.827, 'time': 1.75, 'pitch': -1.07, 'roll': -8.4}
{'lipoC2': 8.0, 'temp': 26.31, 'lipoC3S3': 12.5, 'rot1': 0, 'rot0': 0, 'rot3': 0, 'rot2': 0, 'state': 'normal', 'yaw': 0.03, 'datetime': '2018-10-12 15:50:18.972355', 'mgs': 0, 'depth': -0.751, 'time': 1.85, 'pitch': -1.07, 'roll': -8.4}
{'lipoC2': 8.0, 'temp': 26.25, 'lipoC3S3': 12.5, 'rot1': 0, 'rot0': 0, 'rot3': 0, 'rot2': 0, 'state': 'normal', 'yaw': 0.03, 'datetime': '2018-10-12 15:50:18.983291', 'mgs': 0, 'depth': -0.827, 'time': 1.94, 'pitch': -1.07, 'roll': -8.4}
{'lipoC2': 7.99, 'temp': 26.25, 'lipoC3S3': 12.5, 'rot1': 0, 'rot0': 0, 'rot3': 0, 'rot2': 0, 'state': 'normal', 'yaw': 0.03, 'datetime': '2018-10-12 15:50:18.994222', 'mgs': 0, 'depth': -0.827, 'time': 2.04, 'pitch': -1.07, 'roll': -8.4}
{'lipoC2': 8.0, 'temp': 26.25, 'lipoC3S3': 12.48, 'rot1': 0, 'rot0': 0, 'rot3': 0, 'rot2': 0, 'state': 'normal', 'yaw': 0.03, 'datetime': '2018-10-12 15:50:19.005193', 'mgs': 0, 'depth': -0.751, 'time': 2.14, 'pitch': -1.07, 'roll': -8.4}
{'lipoC2': 8.0, 'temp': 26.25, 'lipoC3S3': 12.5, 'rot1': 0, 'rot0': 0, 'rot3': 0, 'rot2': 0, 'state': 'normal', 'yaw': 0.03, 'datetime': '2018-10-12 15:50:19.016119', 'mgs': 0, 'depth': -0.751, 'time': 2.24, 'pitch': -1.07, 'roll': -8.4}
{'lipoC2': 8.0, 'temp': 26.25, 'lipoC3S3': 12.5, 'rot1': 0, 'rot0': 0, 'rot3': 0, 'rot2': 0, 'state': 'normal', 'yaw': 0.03, 'datetime': '2018-10-12 15:50:19.027202', 'mgs': 0, 'depth': -0.827, 'time': 2.33, 'pitch': -1.07, 'roll': -8.4}
{'lipoC2': 7.99, 'temp': 26.25, 'lipoC3S3': 12.5, 'rot1': 0, 'rot0': 0, 'rot3': 0, 'rot2': 0, 'state': 'normal', 'yaw': 0.03, 'datetime': '2018-10-12 15:50:19.038184', 'mgs': 0, 'depth': -0.827, 'time': 2.43, 'pitch': -1.07, 'roll': -8.4}
{'lipoC2': 7.99, 'temp': 26.25, 'lipoC3S3': 12.5, 'rot1': 0, 'rot0': 0, 'rot3': 0, 'rot2': 0, 'state': 'normal', 'yaw': 0.03, 'datetime': '2018-10-12 15:50:19.049863', 'mgs': 0, 'depth': -0.827, 'time': 2.53, 'pitch': -1.07, 'roll': -8.4}
{'lipoC2': 8.0, 'temp': 26.25, 'lipoC3S3': 12.5, 'rot1': 0, 'rot0': 0, 'rot3': 0, 'rot2': 0, 'state': 'normal', 'yaw': -0.01, 'datetime': '2018-10-12 15:50:19.061657', 'mgs': 0, 'depth': -0.827, 'time': 2.63, 'pitch': -1.07, 'roll': -8.36}
{'lipoC2': 7.99, 'temp': 26.25, 'lipoC3S3': 12.5, 'rot1': 0, 'rot0': 0, 'rot3': 0, 'rot2': 0, 'state': 'normal', 'yaw': -0.03, 'datetime': '2018-10-12 15:50:19.072630', 'mgs': 0, 'depth': -0.751, 'time': 2.72, 'pitch': -1.09, 'roll': -8.33}
{'lipoC2': 8.0, 'temp': 26.25, 'lipoC3S3': 12.48, 'rot1': 0, 'rot0': 0, 'rot3': 0, 'rot2': 0, 'state': 'normal', 'yaw': 0.0, 'datetime': '2018-10-12 15:50:19.083575', 'mgs': 0, 'depth': -0.674, 'time': 2.82, 'pitch': -1.06, 'roll': -8.37}
{'lipoC2': 8.0, 'temp': 26.25, 'lipoC3S3': 12.48, 'rot1': 0, 'rot0': 0, 'rot3': 0, 'rot2': 0, 'state': 'normal', 'yaw': 0.08, 'datetime': '2018-10-12 15:50:19.094498', 'mgs': 0, 'depth': -0.751, 'time': 2.92, 'pitch': -1.02, 'roll': -8.29}
{'lipoC2': 8.0, 'temp': 26.25, 'lipoC3S3': 12.5, 'rot1': 0, 'rot0': 0, 'rot3': 0, 'rot2': 0, 'state': 'normal', 'yaw': 0.19, 'datetime': '2018-10-12 15:50:19.105622', 'mgs': 0, 'depth': -0.751, 'time': 3.02, 'pitch': -1.01, 'roll': -8.31}
{'lipoC2': 8.0, 'temp': 26.25, 'lipoC3S3': 12.48, 'rot1': 0, 'rot0': 0, 'rot3': 0, 'rot2': 0, 'state': 'normal', 'yaw': 0.51, 'datetime': '2018-10-12 15:50:19.116586', 'mgs': 0, 'depth': -0.751, 'time': 3.12, 'pitch': -0.99, 'roll': -8.26}
{'lipoC2': 8.0, 'temp': 26.25, 'lipoC3S3': 12.48, 'rot1': 0, 'rot0': 0, 'rot3': 0, 'rot2': 0, 'state': 'normal', 'yaw': 1.1, 'datetime': '2018-10-12 15:50:19.127548', 'mgs': 0, 'depth': -0.751, 'time': 3.21, 'pitch': -0.96, 'roll': -8.28}
{'lipoC2': 8.0, 'temp': 26.25, 'lipoC3S3': 12.5, 'rot1': 0, 'rot0': 0, 'rot3': 0, 'rot2': 0, 'state': 'normal', 'yaw': 1.83, 'datetime': '2018-10-12 15:50:19.138484', 'mgs': 0, 'depth': -0.751, 'time': 3.31, 'pitch': -0.82, 'roll': -8.31}
{'lipoC2': 8.0, 'temp': 26.31, 'lipoC3S3': 12.5, 'rot1': 0, 'rot0': 0, 'rot3': 0, 'rot2': 0, 'state': 'normal', 'yaw': 2.21, 'datetime': '2018-10-12 15:50:19.150333', 'mgs': 0, 'depth': -0.751, 'time': 3.41, 'pitch': -0.76, 'roll': -8.36}
{'lipoC2': 7.99, 'temp': 26.31, 'lipoC3S3': 12.5, 'rot1': 0, 'rot0': 0, 'rot3': 0, 'rot2': 0, 'state': 'normal', 'yaw': 2.07, 'datetime': '2018-10-12 15:50:19.161225', 'mgs': 0, 'depth': -0.751, 'time': 3.51, 'pitch': -0.91, 'roll': -8.26}
{'lipoC2': 7.99, 'temp': 26.31, 'lipoC3S3': 12.48, 'rot1': 0, 'rot0': 0, 'rot3': 0, 'rot2': 0, 'state': 'normal', 'yaw': 1.86, 'datetime': '2018-10-12 15:50:19.172166', 'mgs': 0, 'depth': -0.751, 'time': 3.6, 'pitch': -0.86, 'roll': -8.26}
{'lipoC2': 8.0, 'temp': 26.31, 'lipoC3S3': 12.48, 'rot1': 0, 'rot0': 0, 'rot3': 0, 'rot2': 0, 'state': 'normal', 'yaw': 1.94, 'datetime': '2018-10-12 15:50:19.183086', 'mgs': 0, 'depth': -0.751, 'time': 3.7, 'pitch': -0.83, 'roll': -8.26}
{'lipoC2': 8.0, 'temp': 26.31, 'lipoC3S3': 12.5, 'rot1': 0, 'rot0': 0, 'rot3': 0, 'rot2': 0, 'state': 'normal', 'yaw': 1.97, 'datetime': '2018-10-12 15:50:19.194018', 'mgs': 0, 'depth': -0.827, 'time': 3.8, 'pitch': -0.84, 'roll': -8.24}
{'lipoC2': 8.0, 'temp': 26.25, 'lipoC3S3': 12.5, 'rot1': 0, 'rot0': 0, 'rot3': 0, 'rot2': 0, 'state': 'normal', 'yaw': 1.96, 'datetime': '2018-10-12 15:50:19.204954', 'mgs': 0, 'depth': -0.751, 'time': 3.9, 'pitch': -0.89, 'roll': -8.2}
{'lipoC2': 8.0, 'temp': 26.25, 'lipoC3S3': 12.48, 'rot1': 0, 'rot0': 0, 'rot3': 0, 'rot2': 0, 'state': 'normal', 'yaw': 2.0, 'datetime': '2018-10-12 15:50:19.215890', 'mgs': 0, 'depth': -0.674, 'time': 3.99, 'pitch': -0.91, 'roll': -8.21}
{'lipoC2': 8.0, 'temp': 26.25, 'lipoC3S3': 12.48, 'rot1': 0, 'rot0': 0, 'rot3': 0, 'rot2': 0, 'state': 'normal', 'yaw': 1.99, 'datetime': '2018-10-12 15:50:19.226874', 'mgs': 0, 'depth': -0.751, 'time': 4.09, 'pitch': -0.87, 'roll': -8.21}
{'lipoC2': 7.99, 'temp': 26.25, 'lipoC3S3': 12.48, 'rot1': 0, 'rot0': 0, 'rot3': 0, 'rot2': 0, 'state': 'normal', 'yaw': 1.95, 'datetime': '2018-10-12 15:50:19.235447', 'mgs': 0, 'depth': -0.751, 'time': 4.19, 'pitch': -0.93, 'roll': -8.14}
{'lipoC2': 8.0, 'temp': 26.25, 'lipoC3S3': 12.48, 'rot1': 0, 'rot0': 0, 'rot3': 0, 'rot2': 0, 'state': 'normal', 'yaw': 1.94, 'datetime': '2018-10-12 15:50:19.245801', 'mgs': 0, 'depth': -0.751, 'time': 4.29, 'pitch': -0.87, 'roll': -8.2}
{'lipoC2': 8.0, 'temp': 26.25, 'lipoC3S3': 12.48, 'rot1': 0, 'rot0': 0, 'rot3': 0, 'rot2': 0, 'state': 'normal', 'yaw': 1.94, 'datetime': '2018-10-12 15:50:19.256978', 'mgs': 0, 'depth': -0.751, 'time': 4.39, 'pitch': -0.92, 'roll': -8.08}
{'lipoC2': 8.0, 'temp': 26.25, 'lipoC3S3': 12.48, 'rot1': 0, 'rot0': 0, 'rot3': 0, 'rot2': 0, 'state': 'normal', 'yaw': 1.93, 'datetime': '2018-10-12 15:50:19.268112', 'mgs': 0, 'depth': -0.751, 'time': 4.48, 'pitch': -0.9, 'roll': -8.18}
{'lipoC2': 7.99, 'temp': 26.25, 'lipoC3S3': 12.48, 'rot1': 0, 'rot0': 0, 'rot3': 0, 'rot2': 0, 'state': 'normal', 'yaw': 1.95, 'datetime': '2018-10-12 15:50:19.279072', 'mgs': 0, 'depth': -0.751, 'time': 4.58, 'pitch': -0.98, 'roll': -8.06}
{'lipoC2': 8.0, 'temp': 26.31, 'lipoC3S3': 12.5, 'rot1': 0, 'rot0': 0, 'rot3': 0, 'rot2': 0, 'state': 'normal', 'yaw': 1.99, 'datetime': '2018-10-12 15:50:19.290163', 'mgs': 0, 'depth': -0.751, 'time': 4.68, 'pitch': -0.97, 'roll': -8.09}
{'lipoC2': 7.99, 'temp': 26.31, 'lipoC3S3': 12.48, 'rot1': 0, 'rot0': 0, 'rot3': 0, 'rot2': 0, 'state': 'normal', 'yaw': 1.96, 'datetime': '2018-10-12 15:50:19.301127', 'mgs': 0, 'depth': -0.751, 'time': 4.78, 'pitch': -0.93, 'roll': -8.11}
{'lipoC2': 7.99, 'temp': 26.31, 'lipoC3S3': 12.48, 'rot1': 0, 'rot0': 0, 'rot3': 0, 'rot2': 0, 'state': 'normal', 'yaw': 1.96, 'datetime': '2018-10-12 15:50:19.312069', 'mgs': 0, 'depth': -0.751, 'time': 4.87, 'pitch': -0.97, 'roll': -8.05}
{'lipoC2': 7.99, 'temp': 26.31, 'lipoC3S3': 12.5, 'rot1': 0, 'rot0': 0, 'rot3': 0, 'rot2': 0, 'state': 'normal', 'yaw': 1.96, 'datetime': '2018-10-12 15:50:19.322993', 'mgs': 0, 'depth': -0.827, 'time': 4.97, 'pitch': -0.96, 'roll': -8.13}
{'lipoC2': 8.0, 'temp': 26.31, 'lipoC3S3': 12.5, 'rot1': 0, 'rot0': 0, 'rot3': 0, 'rot2': 0, 'state': 'normal', 'yaw': 1.96, 'datetime': '2018-10-12 15:50:19.333958', 'mgs': 0, 'depth': -0.751, 'time': 5.07, 'pitch': -1.06, 'roll': -7.9}
{'lipoC2': 7.99, 'temp': 26.25, 'lipoC3S3': 12.48, 'rot1': 0, 'rot0': 0, 'rot3': 0, 'rot2': 0, 'state': 'normal', 'yaw': 1.91, 'datetime': '2018-10-12 15:50:19.346097', 'mgs': 0, 'depth': -0.751, 'time': 5.17, 'pitch': -1.05, 'roll': -8.09}
{'lipoC2': 8.0, 'temp': 26.25, 'lipoC3S3': 12.5, 'rot1': 0, 'rot0': 0, 'rot3': 0, 'rot2': 0, 'state': 'normal', 'yaw': 1.97, 'datetime': '2018-10-12 15:50:19.357269', 'mgs': 0, 'depth': -0.751, 'time': 5.26, 'pitch': -1.03, 'roll': -8.0}
{'lipoC2': 8.0, 'temp': 26.31, 'lipoC3S3': 12.5, 'rot1': 0, 'rot0': 0, 'rot3': 0, 'rot2': 0, 'state': 'normal', 'yaw': 1.96, 'datetime': '2018-10-12 15:50:19.368264', 'mgs': 0, 'depth': -0.751, 'time': 5.36, 'pitch': -1.04, 'roll': -8.01}
{'lipoC2': 8.0, 'temp': 26.31, 'lipoC3S3': 12.48, 'rot1': 0, 'rot0': 0, 'rot3': 0, 'rot2': 0, 'state': 'normal', 'yaw': 1.97, 'datetime': '2018-10-12 15:50:19.379229', 'mgs': 0, 'depth': -0.674, 'time': 5.46, 'pitch': -1.04, 'roll': -8.0}
{'lipoC2': 7.99, 'temp': 26.31, 'lipoC3S3': 12.5, 'rot1': 0, 'rot0': 0, 'rot3': 0, 'rot2': 0, 'state': 'normal', 'yaw': 1.97, 'datetime': '2018-10-12 15:50:19.387664', 'mgs': 0, 'depth': -0.751, 'time': 5.56, 'pitch': -1.07, 'roll': -7.99}
{'lipoC2': 8.0, 'temp': 26.25, 'lipoC3S3': 12.48, 'rot1': 0, 'rot0': 0, 'rot3': 0, 'rot2': 0, 'state': 'normal', 'yaw': 1.97, 'datetime': '2018-10-12 15:50:19.398437', 'mgs': 0, 'depth': -0.751, 'time': 5.65, 'pitch': -1.07, 'roll': -8.0}
{'lipoC2': 8.0, 'temp': 26.25, 'lipoC3S3': 12.5, 'rot1': 0, 'rot0': 0, 'rot3': 0, 'rot2': 0, 'state': 'normal', 'yaw': 1.98, 'datetime': '2018-10-12 15:50:19.409391', 'mgs': 0, 'depth': -0.751, 'time': 5.75, 'pitch': -1.07, 'roll': -7.99}
{'lipoC2': 7.99, 'temp': 26.25, 'lipoC3S3': 12.48, 'rot1': 0, 'rot0': 0, 'rot3': 0, 'rot2': 0, 'state': 'normal', 'yaw': 1.98, 'datetime': '2018-10-12 15:50:19.420359', 'mgs': 0, 'depth': -0.674, 'time': 5.85, 'pitch': -1.07, 'roll': -7.99}
{'lipoC2': 8.0, 'temp': 26.25, 'lipoC3S3': 12.48, 'rot1': 0, 'rot0': 0, 'rot3': 0, 'rot2': 0, 'state': 'normal', 'yaw': 1.98, 'datetime': '2018-10-12 15:50:19.428774', 'mgs': 0, 'depth': -0.751, 'time': 5.95, 'pitch': -1.07, 'roll': -7.99}
{'lipoC2': 8.0, 'temp': 26.25, 'lipoC3S3': 12.48, 'rot1': 0, 'rot0': 0, 'rot3': 0, 'rot2': 0, 'state': 'normal', 'yaw': 1.98, 'datetime': '2018-10-12 15:50:19.440242', 'mgs': 0, 'depth': -0.751, 'time': 6.05, 'pitch': -1.07, 'roll': -7.99}
{'lipoC2': 8.0, 'temp': 26.25, 'lipoC3S3': 12.48, 'rot1': 0, 'rot0': 0, 'rot3': 0, 'rot2': 0, 'state': 'normal', 'yaw': 1.98, 'datetime': '2018-10-12 15:50:19.451678', 'mgs': 0, 'depth': -0.751, 'time': 6.14, 'pitch': -1.07, 'roll': -7.99}
{'lipoC2': 8.0, 'temp': 26.25, 'lipoC3S3': 12.5, 'rot1': 0, 'rot0': 0, 'rot3': 0, 'rot2': 0, 'state': 'normal', 'yaw': 1.98, 'datetime': '2018-10-12 15:50:19.462691', 'mgs': 0, 'depth': -0.751, 'time': 6.24, 'pitch': -1.07, 'roll': -7.99}
{'lipoC2': 8.0, 'temp': 26.31, 'lipoC3S3': 12.48, 'rot1': 0, 'rot0': 0, 'rot3': 0, 'rot2': 0, 'state': 'normal', 'yaw': 2.02, 'datetime': '2018-10-12 15:50:19.471398', 'mgs': 0, 'depth': -0.751, 'time': 6.34, 'pitch': -1.08, 'roll': -7.99}
{'lipoC2': 7.99, 'temp': 26.31, 'lipoC3S3': 12.5, 'rot1': 0, 'rot0': 0, 'rot3': 0, 'rot2': 0, 'state': 'normal', 'yaw': 2.06, 'datetime': '2018-10-12 15:50:19.482164', 'mgs': 0, 'depth': -0.827, 'time': 6.44, 'pitch': -1.08, 'roll': -7.99}
{'lipoC2': 8.0, 'temp': 26.31, 'lipoC3S3': 12.48, 'rot1': 0, 'rot0': 0, 'rot3': 0, 'rot2': 0, 'state': 'normal', 'yaw': 2.06, 'datetime': '2018-10-12 15:50:19.491595', 'mgs': 0, 'depth': -0.751, 'time': 6.53, 'pitch': -1.11, 'roll': -7.99}
{'lipoC2': 8.0, 'temp': 26.25, 'lipoC3S3': 12.48, 'rot1': 0, 'rot0': 0, 'rot3': 0, 'rot2': 0, 'state': 'normal', 'yaw': 2.06, 'datetime': '2018-10-12 15:50:19.501282', 'mgs': 0, 'depth': -0.751, 'time': 6.63, 'pitch': -1.11, 'roll': -7.99}
{'lipoC2': 7.99, 'temp': 26.25, 'lipoC3S3': 12.48, 'rot1': 0, 'rot0': 0, 'rot3': 0, 'rot2': 0, 'state': 'normal', 'yaw': 2.06, 'datetime': '2018-10-12 15:50:19.509733', 'mgs': 0, 'depth': -0.674, 'time': 6.73, 'pitch': -1.11, 'roll': -7.99}
{'lipoC2': 7.99, 'temp': 26.31, 'lipoC3S3': 12.5, 'rot1': 0, 'rot0': 0, 'rot3': 0, 'rot2': 0, 'state': 'normal', 'yaw': 2.06, 'datetime': '2018-10-12 15:50:19.518014', 'mgs': 0, 'depth': -0.674, 'time': 6.83, 'pitch': -1.11, 'roll': -7.99}
{'lipoC2': 7.99, 'temp': 26.31, 'lipoC3S3': 12.5, 'rot1': 0, 'rot0': 0, 'rot3': 0, 'rot2': 0, 'state': 'normal', 'yaw': 2.06, 'datetime': '2018-10-12 15:50:19.528760', 'mgs': 0, 'depth': -0.751, 'time': 6.93, 'pitch': -1.11, 'roll': -7.99}
{'lipoC2': 8.0, 'temp': 26.31, 'lipoC3S3': 12.48, 'rot1': 0, 'rot0': 0, 'rot3': 0, 'rot2': 0, 'state': 'normal', 'yaw': 2.06, 'datetime': '2018-10-12 15:50:19.539671', 'mgs': 0, 'depth': -0.751, 'time': 7.03, 'pitch': -1.11, 'roll': -7.99}
{'lipoC2': 7.99, 'temp': 26.25, 'lipoC3S3': 12.48, 'rot1': 0, 'rot0': 0, 'rot3': 0, 'rot2': 0, 'state': 'normal', 'yaw': 2.06, 'datetime': '2018-10-12 15:50:19.551344', 'mgs': 0, 'depth': -0.827, 'time': 7.12, 'pitch': -1.11, 'roll': -7.99}
{'lipoC2': 7.99, 'temp': 26.25, 'lipoC3S3': 12.5, 'rot1': 0, 'rot0': 0, 'rot3': 0, 'rot2': 0, 'state': 'normal', 'yaw': 2.06, 'datetime': '2018-10-12 15:50:19.559790', 'mgs': 0, 'depth': -0.674, 'time': 7.22, 'pitch': -1.11, 'roll': -7.99}
{'lipoC2': 7.99, 'temp': 26.31, 'lipoC3S3': 12.5, 'rot1': 0, 'rot0': 0, 'rot3': 0, 'rot2': 0, 'state': 'normal', 'yaw': 2.06, 'datetime': '2018-10-12 15:50:19.570547', 'mgs': 0, 'depth': -0.751, 'time': 7.32, 'pitch': -1.11, 'roll': -7.99}
{'lipoC2': 7.99, 'temp': 26.31, 'lipoC3S3': 12.48, 'rot1': 0, 'rot0': 0, 'rot3': 0, 'rot2': 0, 'state': 'normal', 'yaw': 2.06, 'datetime': '2018-10-12 15:50:19.579148', 'mgs': 0, 'depth': -0.674, 'time': 7.41, 'pitch': -1.11, 'roll': -7.99}
{'lipoC2': 7.99, 'temp': 26.31, 'lipoC3S3': 12.48, 'rot1': 0, 'rot0': 0, 'rot3': 0, 'rot2': 0, 'state': 'normal', 'yaw': 2.06, 'datetime': '2018-10-12 15:50:19.589813', 'mgs': 0, 'depth': -0.751, 'time': 7.51, 'pitch': -1.11, 'roll': -7.99}
{'lipoC2': 7.99, 'temp': 26.31, 'lipoC3S3': 12.48, 'rot1': 0, 'rot0': 0, 'rot3': 0, 'rot2': 0, 'state': 'normal', 'yaw': 2.06, 'datetime': '2018-10-12 15:50:19.598337', 'mgs': 0, 'depth': -0.674, 'time': 7.61, 'pitch': -1.11, 'roll': -7.99}
{'lipoC2': 8.0, 'temp': 26.31, 'lipoC3S3': 12.5, 'rot1': 0, 'rot0': 0, 'rot3': 0, 'rot2': 0, 'state': 'normal', 'yaw': 2.06, 'datetime': '2018-10-12 15:50:19.609094', 'mgs': 0, 'depth': -0.827, 'time': 7.71, 'pitch': -1.11, 'roll': -7.99}
{'lipoC2': 7.99, 'temp': 26.31, 'lipoC3S3': 12.48, 'rot1': 0, 'rot0': 0, 'rot3': 0, 'rot2': 0, 'state': 'normal', 'yaw': 2.06, 'datetime': '2018-10-12 15:50:19.619264', 'mgs': 0, 'depth': -0.751, 'time': 7.81, 'pitch': -1.11, 'roll': -7.99}
{'lipoC2': 8.0, 'temp': 26.31, 'lipoC3S3': 12.48, 'rot1': 0, 'rot0': 0, 'rot3': 0, 'rot2': 0, 'state': 'normal', 'yaw': 2.06, 'datetime': '2018-10-12 15:50:19.629712', 'mgs': 0, 'depth': -0.751, 'time': 7.91, 'pitch': -1.12, 'roll': -7.99}
{'lipoC2': 7.99, 'temp': 26.31, 'lipoC3S3': 12.48, 'rot1': 0, 'rot0': 0, 'rot3': 0, 'rot2': 0, 'state': 'normal', 'yaw': 2.06, 'datetime': '2018-10-12 15:50:19.640703', 'mgs': 0, 'depth': -0.674, 'time': 8.0, 'pitch': -1.12, 'roll': -7.99}
{'lipoC2': 7.99, 'temp': 26.31, 'lipoC3S3': 12.48, 'rot1': 0, 'rot0': 0, 'rot3': 0, 'rot2': 0, 'state': 'normal', 'yaw': 2.07, 'datetime': '2018-10-12 15:50:19.649225', 'mgs': 0, 'depth': -0.751, 'time': 8.1, 'pitch': -1.13, 'roll': -7.98}
{'lipoC2': 7.99, 'temp': 26.31, 'lipoC3S3': 12.5, 'rot1': 0, 'rot0': 0, 'rot3': 0, 'rot2': 0, 'state': 'normal', 'yaw': 2.07, 'datetime': '2018-10-12 15:50:19.659999', 'mgs': 0, 'depth': -0.827, 'time': 8.2, 'pitch': -1.13, 'roll': -7.97}
{'lipoC2': 7.99, 'temp': 26.25, 'lipoC3S3': 12.48, 'rot1': 0, 'rot0': 0, 'rot3': 0, 'rot2': 0, 'state': 'normal', 'yaw': 2.07, 'datetime': '2018-10-12 15:50:19.670969', 'mgs': 0, 'depth': -0.674, 'time': 8.3, 'pitch': -1.13, 'roll': -7.97}
{'lipoC2': 8.0, 'temp': 26.25, 'lipoC3S3': 12.48, 'rot1': 0, 'rot0': 0, 'rot3': 0, 'rot2': 0, 'state': 'normal', 'yaw': 2.07, 'datetime': '2018-10-12 15:50:19.681914', 'mgs': 0, 'depth': -0.751, 'time': 8.4, 'pitch': -1.13, 'roll': -7.97}
{'lipoC2': 8.0, 'temp': 26.25, 'lipoC3S3': 12.48, 'rot1': 0, 'rot0': 0, 'rot3': 0, 'rot2': 0, 'state': 'normal', 'yaw': 2.07, 'datetime': '2018-10-12 15:50:19.692853', 'mgs': 0, 'depth': -0.751, 'time': 8.49, 'pitch': -1.13, 'roll': -7.97}
{'lipoC2': 7.99, 'temp': 26.25, 'lipoC3S3': 12.5, 'rot1': 0, 'rot0': 0, 'rot3': 0, 'rot2': 0, 'state': 'normal', 'yaw': 2.07, 'datetime': '2018-10-12 15:50:19.703847', 'mgs': 0, 'depth': -0.751, 'time': 8.59, 'pitch': -1.13, 'roll': -7.97}
{'lipoC2': 7.99, 'temp': 26.25, 'lipoC3S3': 12.5, 'rot1': 0, 'rot0': 0, 'rot3': 0, 'rot2': 0, 'state': 'normal', 'yaw': 2.07, 'datetime': '2018-10-12 15:50:19.714818', 'mgs': 0, 'depth': -0.674, 'time': 8.69, 'pitch': -1.13, 'roll': -7.97}
{'lipoC2': 7.99, 'temp': 26.25, 'lipoC3S3': 12.48, 'rot1': 0, 'rot0': 0, 'rot3': 0, 'rot2': 0, 'state': 'normal', 'yaw': 2.07, 'datetime': '2018-10-12 15:50:19.725795', 'mgs': 0, 'depth': -0.751, 'time': 8.79, 'pitch': -1.13, 'roll': -7.97}
{'lipoC2': 7.99, 'temp': 26.25, 'lipoC3S3': 12.5, 'rot1': 0, 'rot0': 0, 'rot3': 0, 'rot2': 0, 'state': 'normal', 'yaw': 2.07, 'datetime': '2018-10-12 15:50:19.734222', 'mgs': 0, 'depth': -0.674, 'time': 8.88, 'pitch': -1.13, 'roll': -7.97}
{'lipoC2': 7.99, 'temp': 26.25, 'lipoC3S3': 12.5, 'rot1': 0, 'rot0': 0, 'rot3': 0, 'rot2': 0, 'state': 'normal', 'yaw': 2.08, 'datetime': '2018-10-12 15:50:19.742341', 'mgs': 0, 'depth': -0.674, 'time': 8.98, 'pitch': -1.14, 'roll': -7.97}
{'lipoC2': 8.0, 'temp': 26.25, 'lipoC3S3': 12.5, 'rot1': 0, 'rot0': 0, 'rot3': 0, 'rot2': 0, 'state': 'normal', 'yaw': 2.09, 'datetime': '2018-10-12 15:50:19.750609', 'mgs': 0, 'depth': -0.751, 'time': 9.08, 'pitch': -1.16, 'roll': -7.97}
{'lipoC2': 8.0, 'temp': 26.25, 'lipoC3S3': 12.48, 'rot1': 0, 'rot0': 0, 'rot3': 0, 'rot2': 0, 'state': 'normal', 'yaw': 2.09, 'datetime': '2018-10-12 15:50:19.758798', 'mgs': 0, 'depth': -0.751, 'time': 9.18, 'pitch': -1.16, 'roll': -7.97}
{'lipoC2': 8.0, 'temp': 26.31, 'lipoC3S3': 12.48, 'rot1': 0, 'rot0': 0, 'rot3': 0, 'rot2': 0, 'state': 'normal', 'yaw': 2.04, 'datetime': '2018-10-12 15:50:19.767047', 'mgs': 0, 'depth': -0.751, 'time': 9.27, 'pitch': -1.2, 'roll': -7.98}
{'lipoC2': 7.99, 'temp': 26.31, 'lipoC3S3': 12.48, 'rot1': 0, 'rot0': 0, 'rot3': 0, 'rot2': 0, 'state': 'normal', 'yaw': 2.08, 'datetime': '2018-10-12 15:50:19.775258', 'mgs': 0, 'depth': -0.751, 'time': 9.37, 'pitch': -1.15, 'roll': -7.94}
{'lipoC2': 7.99, 'temp': 26.25, 'lipoC3S3': 12.48, 'rot1': 0, 'rot0': 0, 'rot3': 0, 'rot2': 0, 'state': 'normal', 'yaw': 2.01, 'datetime': '2018-10-12 15:50:19.783532', 'mgs': 0, 'depth': -0.751, 'time': 9.47, 'pitch': -1.17, 'roll': -7.94}
{'lipoC2': 7.99, 'temp': 26.25, 'lipoC3S3': 12.48, 'rot1': 0, 'rot0': 0, 'rot3': 0, 'rot2': 0, 'state': 'normal', 'yaw': 2.05, 'datetime': '2018-10-12 15:50:19.791738', 'mgs': 0, 'depth': -0.751, 'time': 9.57, 'pitch': -1.15, 'roll': -7.9}
{'lipoC2': 8.0, 'temp': 26.25, 'lipoC3S3': 12.48, 'rot1': 0, 'rot0': 0, 'rot3': 0, 'rot2': 0, 'state': 'normal', 'yaw': 2.03, 'datetime': '2018-10-12 15:50:19.800177', 'mgs': 0, 'depth': -0.751, 'time': 9.67, 'pitch': -1.2, 'roll': -7.88}
{'lipoC2': 7.99, 'temp': 26.31, 'lipoC3S3': 12.5, 'rot1': 0, 'rot0': 0, 'rot3': 0, 'rot2': 0, 'state': 'normal', 'yaw': 2.06, 'datetime': '2018-10-12 15:50:19.808368', 'mgs': 0, 'depth': -0.751, 'time': 9.76, 'pitch': -1.19, 'roll': -7.89}
{'lipoC2': 7.99, 'temp': 26.31, 'lipoC3S3': 12.48, 'rot1': 0, 'rot0': 0, 'rot3': 0, 'rot2': 0, 'state': 'normal', 'yaw': 2.06, 'datetime': '2018-10-12 15:50:19.816617', 'mgs': 0, 'depth': -0.751, 'time': 9.86, 'pitch': -1.24, 'roll': -7.88}
{'lipoC2': 8.0, 'temp': 26.31, 'lipoC3S3': 12.48, 'rot1': 0, 'rot0': 0, 'rot3': 0, 'rot2': 0, 'state': 'normal', 'yaw': 2.06, 'datetime': '2018-10-12 15:50:19.825203', 'mgs': 0, 'depth': -0.751, 'time': 9.96, 'pitch': -1.26, 'roll': -7.87}
{'lipoC2': 8.0, 'temp': 26.31, 'lipoC3S3': 12.5, 'rot1': 0, 'rot0': 0, 'rot3': 0, 'rot2': 0, 'state': 'normal', 'yaw': 2.06, 'datetime': '2018-10-12 15:50:19.836438', 'mgs': 0, 'depth': -0.751, 'time': 10.06, 'pitch': -1.26, 'roll': -7.86}
{'lipoC2': 8.0, 'temp': 26.31, 'lipoC3S3': 12.48, 'rot1': 0, 'rot0': 0, 'rot3': 0, 'rot2': 0, 'state': 'normal', 'yaw': 2.06, 'datetime': '2018-10-12 15:50:19.847805', 'mgs': 0, 'depth': -0.751, 'time': 10.16, 'pitch': -1.26, 'roll': -7.87}
{'lipoC2': 8.0, 'temp': 26.31, 'lipoC3S3': 12.48, 'rot1': 0, 'rot0': 0, 'rot3': 0, 'rot2': 0, 'state': 'normal', 'yaw': 2.06, 'datetime': '2018-10-12 15:50:19.858856', 'mgs': 0, 'depth': -0.751, 'time': 10.25, 'pitch': -1.26, 'roll': -7.85}
{'lipoC2': 7.99, 'temp': 26.31, 'lipoC3S3': 12.48, 'rot1': 0, 'rot0': 0, 'rot3': 0, 'rot2': 0, 'state': 'normal', 'yaw': 2.14, 'datetime': '2018-10-12 15:50:19.869822', 'mgs': 0, 'depth': -0.674, 'time': 10.35, 'pitch': -1.25, 'roll': -7.86}
{'lipoC2': 7.99, 'temp': 26.25, 'lipoC3S3': 12.5, 'rot1': 0, 'rot0': 0, 'rot3': 0, 'rot2': 0, 'state': 'normal', 'yaw': 2.34, 'datetime': '2018-10-12 15:50:19.880860', 'mgs': 0, 'depth': -0.751, 'time': 10.45, 'pitch': -1.23, 'roll': -7.77}
{'lipoC2': 7.99, 'temp': 26.25, 'lipoC3S3': 12.5, 'rot1': 0, 'rot0': 0, 'rot3': 0, 'rot2': 0, 'state': 'normal', 'yaw': 2.27, 'datetime': '2018-10-12 15:50:19.891816', 'mgs': 0, 'depth': -0.751, 'time': 10.55, 'pitch': -1.21, 'roll': -7.83}
{'lipoC2': 7.99, 'temp': 26.25, 'lipoC3S3': 12.5, 'rot1': 0, 'rot0': 0, 'rot3': 0, 'rot2': 0, 'state': 'normal', 'yaw': 2.15, 'datetime': '2018-10-12 15:50:19.902892', 'mgs': 0, 'depth': -0.751, 'time': 10.64, 'pitch': -1.3, 'roll': -7.78}
{'lipoC2': 8.0, 'temp': 26.31, 'lipoC3S3': 12.48, 'rot1': 0, 'rot0': 0, 'rot3': 0, 'rot2': 0, 'state': 'normal', 'yaw': 2.19, 'datetime': '2018-10-12 15:50:19.913872', 'mgs': 0, 'depth': -0.827, 'time': 10.74, 'pitch': -1.29, 'roll': -7.76}
{'lipoC2': 8.0, 'temp': 26.31, 'lipoC3S3': 12.5, 'rot1': 0, 'rot0': 0, 'rot3': 0, 'rot2': 0, 'state': 'normal', 'yaw': 2.2, 'datetime': '2018-10-12 15:50:19.925202', 'mgs': 0, 'depth': -0.751, 'time': 10.84, 'pitch': -1.3, 'roll': -7.69}
{'lipoC2': 7.99, 'temp': 26.25, 'lipoC3S3': 12.48, 'rot1': 0, 'rot0': 0, 'rot3': 0, 'rot2': 0, 'state': 'normal', 'yaw': 2.08, 'datetime': '2018-10-12 15:50:19.937335', 'mgs': 0, 'depth': -0.827, 'time': 10.94, 'pitch': -1.27, 'roll': -7.84}
{'lipoC2': 7.99, 'temp': 26.25, 'lipoC3S3': 12.48, 'rot1': 0, 'rot0': 0, 'rot3': 0, 'rot2': 0, 'state': 'normal', 'yaw': 2.24, 'datetime': '2018-10-12 15:50:19.948552', 'mgs': 0, 'depth': -0.751, 'time': 11.03, 'pitch': -1.36, 'roll': -7.65}
{'lipoC2': 7.99, 'temp': 26.25, 'lipoC3S3': 12.5, 'rot1': 0, 'rot0': 0, 'rot3': 0, 'rot2': 0, 'state': 'normal', 'yaw': 2.14, 'datetime': '2018-10-12 15:50:19.957489', 'mgs': 0, 'depth': -0.827, 'time': 11.13, 'pitch': -1.35, 'roll': -7.72}
{'lipoC2': 8.0, 'temp': 26.25, 'lipoC3S3': 12.48, 'rot1': 0, 'rot0': 0, 'rot3': 0, 'rot2': 0, 'state': 'normal', 'yaw': 2.11, 'datetime': '2018-10-12 15:50:19.968334', 'mgs': 0, 'depth': -0.751, 'time': 11.23, 'pitch': -1.38, 'roll': -7.67}
{'lipoC2': 7.99, 'temp': 26.25, 'lipoC3S3': 12.5, 'rot1': 0, 'rot0': 0, 'rot3': 0, 'rot2': 0, 'state': 'normal', 'yaw': 2.17, 'datetime': '2018-10-12 15:50:19.979442', 'mgs': 0, 'depth': -0.827, 'time': 11.33, 'pitch': -1.38, 'roll': -7.64}
{'lipoC2': 8.0, 'temp': 26.31, 'lipoC3S3': 12.5, 'rot1': 0, 'rot0': 0, 'rot3': 0, 'rot2': 0, 'state': 'normal', 'yaw': 2.12, 'datetime': '2018-10-12 15:50:19.990496', 'mgs': 0, 'depth': -0.751, 'time': 11.42, 'pitch': -1.39, 'roll': -7.69}
{'lipoC2': 7.99, 'temp': 26.31, 'lipoC3S3': 12.48, 'rot1': 0, 'rot0': 0, 'rot3': 0, 'rot2': 0, 'state': 'normal', 'yaw': 2.12, 'datetime': '2018-10-12 15:50:19.998767', 'mgs': 0, 'depth': -0.751, 'time': 11.52, 'pitch': -1.39, 'roll': -7.6}
{'lipoC2': 8.0, 'temp': 26.31, 'lipoC3S3': 12.5, 'rot1': 0, 'rot0': 0, 'rot3': 0, 'rot2': 0, 'state': 'normal', 'yaw': 2.13, 'datetime': '2018-10-12 15:50:20.007224', 'mgs': 0, 'depth': -0.674, 'time': 11.62, 'pitch': -1.42, 'roll': -7.62}
{'lipoC2': 7.99, 'temp': 26.25, 'lipoC3S3': 12.5, 'rot1': 0, 'rot0': 0, 'rot3': 0, 'rot2': 0, 'state': 'normal', 'yaw': 2.16, 'datetime': '2018-10-12 15:50:20.015421', 'mgs': 0, 'depth': -0.827, 'time': 11.72, 'pitch': -1.49, 'roll': -7.35}
{'lipoC2': 8.0, 'temp': 26.25, 'lipoC3S3': 12.48, 'rot1': 0, 'rot0': 0, 'rot3': 0, 'rot2': 0, 'state': 'normal', 'yaw': 2.13, 'datetime': '2018-10-12 15:50:20.024538', 'mgs': 0, 'depth': -0.674, 'time': 11.81, 'pitch': -1.39, 'roll': -7.64}
{'lipoC2': 7.99, 'temp': 26.31, 'lipoC3S3': 12.5, 'rot1': 0, 'rot0': 0, 'rot3': 0, 'rot2': 0, 'state': 'normal', 'yaw': 2.16, 'datetime': '2018-10-12 15:50:20.034222', 'mgs': 0, 'depth': -0.827, 'time': 11.91, 'pitch': -1.42, 'roll': -7.51}
{'lipoC2': 7.99, 'temp': 26.31, 'lipoC3S3': 12.48, 'rot1': 0, 'rot0': 0, 'rot3': 0, 'rot2': 0, 'state': 'normal', 'yaw': 2.14, 'datetime': '2018-10-12 15:50:20.042739', 'mgs': 0, 'depth': -0.751, 'time': 12.01, 'pitch': -1.47, 'roll': -7.51}
{'lipoC2': 8.0, 'temp': 26.31, 'lipoC3S3': 12.48, 'rot1': 0, 'rot0': 0, 'rot3': 0, 'rot2': 0, 'state': 'normal', 'yaw': 2.18, 'datetime': '2018-10-12 15:50:20.050737', 'mgs': 0, 'depth': -0.751, 'time': 12.11, 'pitch': -1.45, 'roll': -7.6}
{'lipoC2': 7.99, 'temp': 26.25, 'lipoC3S3': 12.5, 'rot1': 0, 'rot0': 0, 'rot3': 0, 'rot2': 0, 'state': 'normal', 'yaw': 2.18, 'datetime': '2018-10-12 15:50:20.058424', 'mgs': 0, 'depth': -0.827, 'time': 12.21, 'pitch': -1.5, 'roll': -7.43}
{'lipoC2': 8.0, 'temp': 26.25, 'lipoC3S3': 12.48, 'rot1': 0, 'rot0': 0, 'rot3': 0, 'rot2': 0, 'state': 'normal', 'yaw': 2.18, 'datetime': '2018-10-12 15:50:20.066080', 'mgs': 0, 'depth': -0.751, 'time': 12.31, 'pitch': -1.5, 'roll': -7.59}
{'lipoC2': 7.99, 'temp': 26.31, 'lipoC3S3': 12.5, 'rot1': 0, 'rot0': 0, 'rot3': 0, 'rot2': 0, 'state': 'normal', 'yaw': 2.18, 'datetime': '2018-10-12 15:50:20.073684', 'mgs': 0, 'depth': -0.827, 'time': 12.4, 'pitch': -1.5, 'roll': -7.52}
{'lipoC2': 8.0, 'temp': 26.31, 'lipoC3S3': 12.5, 'rot1': 0, 'rot0': 0, 'rot3': 0, 'rot2': 0, 'state': 'normal', 'yaw': 2.18, 'datetime': '2018-10-12 15:50:20.081529', 'mgs': 0, 'depth': -0.751, 'time': 12.5, 'pitch': -1.5, 'roll': -7.59}
{'lipoC2': 8.0, 'temp': 26.31, 'lipoC3S3': 12.5, 'rot1': 0, 'rot0': 0, 'rot3': 0, 'rot2': 0, 'state': 'normal', 'yaw': 2.18, 'datetime': '2018-10-12 15:50:20.089454', 'mgs': 0, 'depth': -0.751, 'time': 12.6, 'pitch': -1.5, 'roll': -7.55}
{'lipoC2': 8.0, 'temp': 26.31, 'lipoC3S3': 12.48, 'rot1': 0, 'rot0': 0, 'rot3': 0, 'rot2': 0, 'state': 'normal', 'yaw': 2.18, 'datetime': '2018-10-12 15:50:20.097260', 'mgs': 0, 'depth': -0.751, 'time': 12.7, 'pitch': -1.5, 'roll': -7.53}
{'lipoC2': 7.99, 'temp': 26.31, 'lipoC3S3': 12.51, 'rot1': 0, 'rot0': 0, 'rot3': 0, 'rot2': 0, 'state': 'normal', 'yaw': 2.18, 'datetime': '2018-10-12 15:50:20.105292', 'mgs': 0, 'depth': -0.751, 'time': 12.79, 'pitch': -1.5, 'roll': -7.54}
{'lipoC2': 8.0, 'temp': 26.25, 'lipoC3S3': 12.48, 'rot1': 0, 'rot0': 0, 'rot3': 0, 'rot2': 0, 'state': 'normal', 'yaw': 2.18, 'datetime': '2018-10-12 15:50:20.113236', 'mgs': 0, 'depth': -0.751, 'time': 12.89, 'pitch': -1.5, 'roll': -7.51}
{'lipoC2': 8.0, 'temp': 26.25, 'lipoC3S3': 12.5, 'rot1': 0, 'rot0': 0, 'rot3': 0, 'rot2': 0, 'state': 'normal', 'yaw': 2.18, 'datetime': '2018-10-12 15:50:20.122284', 'mgs': 0, 'depth': -0.751, 'time': 12.99, 'pitch': -1.49, 'roll': -7.54}
{'lipoC2': 8.0, 'temp': 26.25, 'lipoC3S3': 12.5, 'rot1': 0, 'rot0': 0, 'rot3': 0, 'rot2': 0, 'state': 'normal', 'yaw': 2.18, 'datetime': '2018-10-12 15:50:20.130083', 'mgs': 0, 'depth': -0.751, 'time': 13.09, 'pitch': -1.5, 'roll': -7.5}
{'lipoC2': 8.0, 'temp': 26.25, 'lipoC3S3': 12.5, 'rot1': 0, 'rot0': 0, 'rot3': 0, 'rot2': 0, 'state': 'normal', 'yaw': 2.18, 'datetime': '2018-10-12 15:50:20.138328', 'mgs': 0, 'depth': -0.674, 'time': 13.19, 'pitch': -1.5, 'roll': -7.51}
{'lipoC2': 7.99, 'temp': 26.25, 'lipoC3S3': 12.5, 'rot1': 0, 'rot0': 0, 'rot3': 0, 'rot2': 0, 'state': 'normal', 'yaw': 2.18, 'datetime': '2018-10-12 15:50:20.146149', 'mgs': 0, 'depth': -0.751, 'time': 13.28, 'pitch': -1.5, 'roll': -7.5}
{'lipoC2': 8.0, 'temp': 26.25, 'lipoC3S3': 12.5, 'rot1': 0, 'rot0': 0, 'rot3': 0, 'rot2': 0, 'state': 'normal', 'yaw': 2.18, 'datetime': '2018-10-12 15:50:20.154059', 'mgs': 0, 'depth': -0.751, 'time': 13.38, 'pitch': -1.5, 'roll': -7.5}
{'lipoC2': 8.0, 'temp': 26.25, 'lipoC3S3': 12.5, 'rot1': 0, 'rot0': 0, 'rot3': 0, 'rot2': 0, 'state': 'normal', 'yaw': 2.18, 'datetime': '2018-10-12 15:50:20.161896', 'mgs': 0, 'depth': -0.674, 'time': 13.48, 'pitch': -1.5, 'roll': -7.49}
{'lipoC2': 7.99, 'temp': 26.25, 'lipoC3S3': 12.5, 'rot1': 0, 'rot0': 0, 'rot3': 0, 'rot2': 0, 'state': 'normal', 'yaw': 2.18, 'datetime': '2018-10-12 15:50:20.169832', 'mgs': 0, 'depth': -0.751, 'time': 13.58, 'pitch': -1.5, 'roll': -7.49}
{'lipoC2': 8.0, 'temp': 26.25, 'lipoC3S3': 12.5, 'rot1': 0, 'rot0': 0, 'rot3': 0, 'rot2': 0, 'state': 'normal', 'yaw': 2.14, 'datetime': '2018-10-12 15:50:20.177728', 'mgs': 0, 'depth': -0.674, 'time': 13.67, 'pitch': -1.49, 'roll': -7.6}
{'lipoC2': 8.0, 'temp': 26.25, 'lipoC3S3': 12.48, 'rot1': 0, 'rot0': 0, 'rot3': 0, 'rot2': 0, 'state': 'normal', 'yaw': 2.14, 'datetime': '2018-10-12 15:50:20.232049', 'mgs': 0, 'depth': -0.751, 'time': 13.77, 'pitch': -1.51, 'roll': -7.6}
{'lipoC2': 7.99, 'temp': 26.25, 'lipoC3S3': 12.48, 'rot1': 0, 'rot0': 0, 'rot3': 0, 'rot2': 0, 'state': 'normal', 'yaw': 2.14, 'datetime': '2018-10-12 15:50:20.330372', 'mgs': 0, 'depth': -0.674, 'time': 13.87, 'pitch': -1.51, 'roll': -7.6}
{'lipoC2': 7.99, 'temp': 26.25, 'lipoC3S3': 12.48, 'rot1': 0, 'rot0': 0, 'rot3': 0, 'rot2': 0, 'state': 'normal', 'yaw': 2.15, 'datetime': '2018-10-12 15:50:20.427550', 'mgs': 0, 'depth': -0.751, 'time': 13.97, 'pitch': -1.52, 'roll': -7.7}
{'lipoC2': 7.99, 'temp': 26.25, 'lipoC3S3': 12.5, 'rot1': 0, 'rot0': 0, 'rot3': 0, 'rot2': 0, 'state': 'normal', 'yaw': 2.15, 'datetime': '2018-10-12 15:50:20.524605', 'mgs': 0, 'depth': -0.827, 'time': 14.06, 'pitch': -1.56, 'roll': -7.54}
{'lipoC2': 8.0, 'temp': 26.25, 'lipoC3S3': 12.5, 'rot1': 0, 'rot0': 0, 'rot3': 0, 'rot2': 0, 'state': 'normal', 'yaw': 2.19, 'datetime': '2018-10-12 15:50:20.623075', 'mgs': 0, 'depth': -0.751, 'time': 14.16, 'pitch': -1.57, 'roll': -7.63}
{'lipoC2': 8.0, 'temp': 26.25, 'lipoC3S3': 12.48, 'rot1': 0, 'rot0': 0, 'rot3': 0, 'rot2': 0, 'state': 'normal', 'yaw': 2.34, 'datetime': '2018-10-12 15:50:20.721429', 'mgs': 0, 'depth': -0.751, 'time': 14.26, 'pitch': -1.57, 'roll': -7.64}
{'lipoC2': 7.99, 'temp': 26.25, 'lipoC3S3': 12.5, 'rot1': 0, 'rot0': 0, 'rot3': 0, 'rot2': 0, 'state': 'normal', 'yaw': 2.37, 'datetime': '2018-10-12 15:50:20.819277', 'mgs': 0, 'depth': -0.827, 'time': 14.36, 'pitch': -1.51, 'roll': -7.67}
{'lipoC2': 7.99, 'temp': 26.25, 'lipoC3S3': 12.48, 'rot1': 0, 'rot0': 0, 'rot3': 0, 'rot2': 0, 'state': 'normal', 'yaw': 2.25, 'datetime': '2018-10-12 15:50:20.916324', 'mgs': 0, 'depth': -0.674, 'time': 14.46, 'pitch': -1.52, 'roll': -7.67}
{'lipoC2': 7.99, 'temp': 26.25, 'lipoC3S3': 12.48, 'rot1': 0, 'rot0': 0, 'rot3': 0, 'rot2': 0, 'state': 'normal', 'yaw': 2.18, 'datetime': '2018-10-12 15:50:21.013664', 'mgs': 0, 'depth': -0.827, 'time': 14.56, 'pitch': -1.58, 'roll': -7.71}
{'lipoC2': 8.0, 'temp': 26.25, 'lipoC3S3': 12.48, 'rot1': 0, 'rot0': 0, 'rot3': 0, 'rot2': 0, 'state': 'normal', 'yaw': 2.2, 'datetime': '2018-10-12 15:50:21.110732', 'mgs': 0, 'depth': -0.751, 'time': 14.65, 'pitch': -1.58, 'roll': -7.98}
{'lipoC2': 7.99, 'temp': 26.25, 'lipoC3S3': 12.5, 'rot1': 0, 'rot0': 0, 'rot3': 0, 'rot2': 0, 'state': 'normal', 'yaw': 2.49, 'datetime': '2018-10-12 15:50:21.213304', 'mgs': 0, 'depth': -0.751, 'time': 14.75, 'pitch': -1.79, 'roll': -8.02}
{'lipoC2': 8.0, 'temp': 26.25, 'lipoC3S3': 12.48, 'rot1': 0, 'rot0': 0, 'rot3': 0, 'rot2': 0, 'state': 'normal', 'yaw': 3.67, 'datetime': '2018-10-12 15:50:21.310429', 'mgs': 0, 'depth': -0.751, 'time': 14.85, 'pitch': -2.51, 'roll': -7.81}
{'lipoC2': 7.99, 'temp': 26.25, 'lipoC3S3': 12.48, 'rot1': 0, 'rot0': 0, 'rot3': 0, 'rot2': 0, 'state': 'normal', 'yaw': 4.57, 'datetime': '2018-10-12 15:50:21.407681', 'mgs': 0, 'depth': -0.827, 'time': 14.94, 'pitch': -2.89, 'roll': -7.47}
{'lipoC2': 7.99, 'temp': 26.31, 'lipoC3S3': 12.5, 'rot1': 0, 'rot0': 0, 'rot3': 0, 'rot2': 0, 'state': 'normal', 'yaw': 5.13, 'datetime': '2018-10-12 15:50:21.503233', 'mgs': 0, 'depth': -0.751, 'time': 15.04, 'pitch': -2.44, 'roll': -7.14}
{'lipoC2': 7.99, 'temp': 26.31, 'lipoC3S3': 12.48, 'rot1': 0, 'rot0': 0, 'rot3': 0, 'rot2': 0, 'state': 'normal', 'yaw': 4.46, 'datetime': '2018-10-12 15:50:21.601933', 'mgs': 0, 'depth': -0.751, 'time': 15.14, 'pitch': -1.71, 'roll': -6.56}
{'lipoC2': 7.99, 'temp': 26.31, 'lipoC3S3': 12.48, 'rot1': 0, 'rot0': 0, 'rot3': 0, 'rot2': 0, 'state': 'normal', 'yaw': 3.13, 'datetime': '2018-10-12 15:50:21.700517', 'mgs': 0, 'depth': -0.751, 'time': 15.24, 'pitch': -2.11, 'roll': -6.39}
{'lipoC2': 7.99, 'temp': 26.31, 'lipoC3S3': 12.48, 'rot1': 0, 'rot0': 0, 'rot3': 0, 'rot2': 0, 'state': 'normal', 'yaw': 1.85, 'datetime': '2018-10-12 15:50:21.798773', 'mgs': 0, 'depth': -0.674, 'time': 15.34, 'pitch': -2.04, 'roll': -6.54}
{'lipoC2': 7.99, 'temp': 26.31, 'lipoC3S3': 12.5, 'rot1': 0, 'rot0': 0, 'rot3': 0, 'rot2': 0, 'state': 'normal', 'yaw': 1.54, 'datetime': '2018-10-12 15:50:21.895886', 'mgs': 0, 'depth': -0.751, 'time': 15.43, 'pitch': -2.07, 'roll': -6.53}
{'lipoC2': 8.0, 'temp': 26.31, 'lipoC3S3': 12.5, 'rot1': 0, 'rot0': 0, 'rot3': 0, 'rot2': 0, 'state': 'normal', 'yaw': 1.73, 'datetime': '2018-10-12 15:50:21.993157', 'mgs': 0, 'depth': -0.751, 'time': 15.53, 'pitch': -2.06, 'roll': -6.52}
{'lipoC2': 7.99, 'temp': 26.31, 'lipoC3S3': 12.48, 'rot1': 0, 'rot0': 0, 'rot3': 0, 'rot2': 0, 'state': 'normal', 'yaw': 1.75, 'datetime': '2018-10-12 15:50:22.091087', 'mgs': 0, 'depth': -0.674, 'time': 15.63, 'pitch': -2.09, 'roll': -6.5}
{'lipoC2': 7.99, 'temp': 26.31, 'lipoC3S3': 12.5, 'rot1': 0, 'rot0': 0, 'rot3': 0, 'rot2': 0, 'state': 'normal', 'yaw': 1.67, 'datetime': '2018-10-12 15:50:22.189520', 'mgs': 0, 'depth': -0.751, 'time': 15.73, 'pitch': -2.03, 'roll': -6.46}
{'lipoC2': 8.0, 'temp': 26.31, 'lipoC3S3': 12.48, 'rot1': 0, 'rot0': 0, 'rot3': 0, 'rot2': 0, 'state': 'normal', 'yaw': 1.69, 'datetime': '2018-10-12 15:50:22.287582', 'mgs': 0, 'depth': -0.751, 'time': 15.82, 'pitch': -2.15, 'roll': -6.37}
{'lipoC2': 7.99, 'temp': 26.31, 'lipoC3S3': 12.48, 'rot1': 0, 'rot0': 0, 'rot3': 0, 'rot2': 0, 'state': 'normal', 'yaw': 1.62, 'datetime': '2018-10-12 15:50:22.384650', 'mgs': 0, 'depth': -0.827, 'time': 15.92, 'pitch': -2.15, 'roll': -6.35}
{'lipoC2': 8.0, 'temp': 26.25, 'lipoC3S3': 12.48, 'rot1': 0, 'rot0': 0, 'rot3': 0, 'rot2': 0, 'state': 'normal', 'yaw': 1.66, 'datetime': '2018-10-12 15:50:22.482130', 'mgs': 0, 'depth': -0.751, 'time': 16.02, 'pitch': -2.07, 'roll': -6.28}
{'lipoC2': 7.99, 'temp': 26.25, 'lipoC3S3': 12.5, 'rot1': 0, 'rot0': 0, 'rot3': 0, 'rot2': 0, 'state': 'normal', 'yaw': 1.89, 'datetime': '2018-10-12 15:50:22.580302', 'mgs': 0, 'depth': -0.827, 'time': 16.12, 'pitch': -2.15, 'roll': -6.4}
{'lipoC2': 7.99, 'temp': 26.25, 'lipoC3S3': 12.5, 'rot1': 0, 'rot0': 0, 'rot3': 0, 'rot2': 0, 'state': 'normal', 'yaw': 2.11, 'datetime': '2018-10-12 15:50:22.677635', 'mgs': 0, 'depth': -0.751, 'time': 16.22, 'pitch': -2.09, 'roll': -6.67}
{'lipoC2': 7.99, 'temp': 26.25, 'lipoC3S3': 12.48, 'rot1': 0, 'rot0': 0, 'rot3': 0, 'rot2': 0, 'state': 'normal', 'yaw': 2.1, 'datetime': '2018-10-12 15:50:22.774711', 'mgs': 0, 'depth': -0.751, 'time': 16.31, 'pitch': -1.94, 'roll': -6.99}
{'lipoC2': 8.0, 'temp': 26.25, 'lipoC3S3': 12.5, 'rot1': 0, 'rot0': 0, 'rot3': 0, 'rot2': 0, 'state': 'normal', 'yaw': 1.66, 'datetime': '2018-10-12 15:50:22.872124', 'mgs': 0, 'depth': -0.751, 'time': 16.41, 'pitch': -2.01, 'roll': -6.47}
{'lipoC2': 7.99, 'temp': 26.25, 'lipoC3S3': 12.48, 'rot1': 0, 'rot0': 0, 'rot3': 0, 'rot2': 0, 'state': 'normal', 'yaw': 1.38, 'datetime': '2018-10-12 15:50:22.969237', 'mgs': 0, 'depth': -0.674, 'time': 16.51, 'pitch': -1.92, 'roll': -8.6}
{'lipoC2': 7.99, 'temp': 26.25, 'lipoC3S3': 12.5, 'rot1': 0, 'rot0': 0, 'rot3': 0, 'rot2': 0, 'state': 'normal', 'yaw': 1.4, 'datetime': '2018-10-12 15:50:23.066612', 'mgs': 0, 'depth': -0.751, 'time': 16.6, 'pitch': -1.97, 'roll': -7.89}
{'lipoC2': 7.99, 'temp': 26.25, 'lipoC3S3': 12.5, 'rot1': 0, 'rot0': 0, 'rot3': 0, 'rot2': 0, 'state': 'normal', 'yaw': 1.74, 'datetime': '2018-10-12 15:50:23.163475', 'mgs': 0, 'depth': -0.751, 'time': 16.7, 'pitch': -1.83, 'roll': -8.53}
{'lipoC2': 7.99, 'temp': 26.25, 'lipoC3S3': 12.5, 'rot1': 0, 'rot0': 0, 'rot3': 0, 'rot2': 0, 'state': 'normal', 'yaw': 1.92, 'datetime': '2018-10-12 15:50:23.260455', 'mgs': 0, 'depth': -0.751, 'time': 16.8, 'pitch': -1.84, 'roll': -8.56}
{'lipoC2': 7.99, 'temp': 26.25, 'lipoC3S3': 12.5, 'rot1': 0, 'rot0': 0, 'rot3': 0, 'rot2': 0, 'state': 'normal', 'yaw': 1.61, 'datetime': '2018-10-12 15:50:23.357609', 'mgs': 0, 'depth': -0.751, 'time': 16.9, 'pitch': -1.74, 'roll': -9.11}
{'lipoC2': 7.99, 'temp': 26.25, 'lipoC3S3': 12.5, 'rot1': 0, 'rot0': 0, 'rot3': 0, 'rot2': 0, 'state': 'normal', 'yaw': 1.17, 'datetime': '2018-10-12 15:50:23.455414', 'mgs': 0, 'depth': -0.751, 'time': 16.99, 'pitch': -1.58, 'roll': -9.2}
{'lipoC2': 7.99, 'temp': 26.25, 'lipoC3S3': 12.5, 'rot1': 0, 'rot0': 0, 'rot3': 0, 'rot2': 0, 'state': 'normal', 'yaw': 0.9, 'datetime': '2018-10-12 15:50:23.553113', 'mgs': 0, 'depth': -0.674, 'time': 17.09, 'pitch': -1.44, 'roll': -9.18}
{'lipoC2': 7.99, 'temp': 26.25, 'lipoC3S3': 12.5, 'rot1': 0, 'rot0': 0, 'rot3': 0, 'rot2': 0, 'state': 'normal', 'yaw': 0.62, 'datetime': '2018-10-12 15:50:23.651490', 'mgs': 0, 'depth': -0.751, 'time': 17.19, 'pitch': -1.45, 'roll': -8.91}
{'lipoC2': 7.99, 'temp': 26.31, 'lipoC3S3': 12.5, 'rot1': 0, 'rot0': 0, 'rot3': 0, 'rot2': 0, 'state': 'normal', 'yaw': 0.24, 'datetime': '2018-10-12 15:50:23.749240', 'mgs': 0, 'depth': -0.751, 'time': 17.29, 'pitch': -1.57, 'roll': -8.55}
{'lipoC2': 8.0, 'temp': 26.31, 'lipoC3S3': 12.48, 'rot1': 0, 'rot0': 0, 'rot3': 0, 'rot2': 0, 'state': 'normal', 'yaw': 0.11, 'datetime': '2018-10-12 15:50:23.846326', 'mgs': 0, 'depth': -0.674, 'time': 17.39, 'pitch': -1.54, 'roll': -8.29}
{'lipoC2': 8.0, 'temp': 26.31, 'lipoC3S3': 12.5, 'rot1': 0, 'rot0': 0, 'rot3': 0, 'rot2': 0, 'state': 'normal', 'yaw': -0.12, 'datetime': '2018-10-12 15:50:23.944094', 'mgs': 0, 'depth': -0.751, 'time': 17.48, 'pitch': -1.79, 'roll': -8.04}
{'lipoC2': 7.99, 'temp': 26.31, 'lipoC3S3': 12.48, 'rot1': 0, 'rot0': 0, 'rot3': 0, 'rot2': 0, 'state': 'normal', 'yaw': -0.27, 'datetime': '2018-10-12 15:50:24.042482', 'mgs': 0, 'depth': -0.751, 'time': 17.58, 'pitch': -1.89, 'roll': -8.05}
{'lipoC2': 8.0, 'temp': 26.31, 'lipoC3S3': 12.48, 'rot1': 0, 'rot0': 0, 'rot3': 0, 'rot2': 0, 'state': 'normal', 'yaw': -0.32, 'datetime': '2018-10-12 15:50:24.140643', 'mgs': 0, 'depth': -0.751, 'time': 17.68, 'pitch': -1.96, 'roll': -7.95}
{'lipoC2': 7.99, 'temp': 26.31, 'lipoC3S3': 12.48, 'rot1': 0, 'rot0': 0, 'rot3': 0, 'rot2': 0, 'state': 'normal', 'yaw': -0.46, 'datetime': '2018-10-12 15:50:24.237868', 'mgs': 0, 'depth': -0.751, 'time': 17.78, 'pitch': -2.08, 'roll': -7.89}
{'lipoC2': 7.99, 'temp': 26.31, 'lipoC3S3': 12.5, 'rot1': 0, 'rot0': 0, 'rot3': 0, 'rot2': 0, 'state': 'normal', 'yaw': -1.13, 'datetime': '2018-10-12 15:50:24.335732', 'mgs': 0, 'depth': -0.674, 'time': 17.87, 'pitch': -2.28, 'roll': -7.79}
{'lipoC2': 8.0, 'temp': 26.31, 'lipoC3S3': 12.5, 'rot1': 0, 'rot0': 0, 'rot3': 0, 'rot2': 0, 'state': 'normal', 'yaw': -2.07, 'datetime': '2018-10-12 15:50:24.433479', 'mgs': 0, 'depth': -0.751, 'time': 17.97, 'pitch': -2.45, 'roll': -7.9}
{'lipoC2': 7.99, 'temp': 26.31, 'lipoC3S3': 12.5, 'rot1': 0, 'rot0': 0, 'rot3': 0, 'rot2': 0, 'state': 'normal', 'yaw': -2.93, 'datetime': '2018-10-12 15:50:24.530876', 'mgs': 0, 'depth': -0.751, 'time': 18.07, 'pitch': -2.32, 'roll': -8.03}
{'lipoC2': 7.99, 'temp': 26.31, 'lipoC3S3': 12.5, 'rot1': 0, 'rot0': 0, 'rot3': 0, 'rot2': 0, 'state': 'normal', 'yaw': -3.78, 'datetime': '2018-10-12 15:50:24.627889', 'mgs': 0, 'depth': -0.751, 'time': 18.17, 'pitch': -2.38, 'roll': -8.41}
{'lipoC2': 8.0, 'temp': 26.25, 'lipoC3S3': 12.5, 'rot1': 0, 'rot0': 0, 'rot3': 0, 'rot2': 0, 'state': 'normal', 'yaw': -4.48, 'datetime': '2018-10-12 15:50:24.725344', 'mgs': 0, 'depth': -0.751, 'time': 18.26, 'pitch': -2.32, 'roll': -8.81}
{'lipoC2': 7.99, 'temp': 26.25, 'lipoC3S3': 12.48, 'rot1': 0, 'rot0': 0, 'rot3': 0, 'rot2': 0, 'state': 'normal', 'yaw': -4.95, 'datetime': '2018-10-12 15:50:24.822132', 'mgs': 0, 'depth': -0.674, 'time': 18.36, 'pitch': -2.63, 'roll': -9.19}
{'lipoC2': 7.99, 'temp': 26.25, 'lipoC3S3': 12.5, 'rot1': 0, 'rot0': 0, 'rot3': 0, 'rot2': 0, 'state': 'normal', 'yaw': -5.18, 'datetime': '2018-10-12 15:50:24.920065', 'mgs': 0, 'depth': -0.827, 'time': 18.46, 'pitch': -2.62, 'roll': -9.67}
{'lipoC2': 7.99, 'temp': 26.25, 'lipoC3S3': 12.48, 'rot1': 0, 'rot0': 0, 'rot3': 0, 'rot2': 0, 'state': 'normal', 'yaw': -5.26, 'datetime': '2018-10-12 15:50:25.016350', 'mgs': 0, 'depth': -0.751, 'time': 18.56, 'pitch': -2.68, 'roll': -9.94}
{'lipoC2': 7.99, 'temp': 26.25, 'lipoC3S3': 12.48, 'rot1': 0, 'rot0': 0, 'rot3': 0, 'rot2': 0, 'state': 'normal', 'yaw': -5.77, 'datetime': '2018-10-12 15:50:25.113587', 'mgs': 0, 'depth': -0.751, 'time': 18.65, 'pitch': -2.91, 'roll': -10.0}
{'lipoC2': 7.99, 'temp': 26.25, 'lipoC3S3': 12.5, 'rot1': 0, 'rot0': 0, 'rot3': 0, 'rot2': 0, 'state': 'normal', 'yaw': -6.66, 'datetime': '2018-10-12 15:50:25.210672', 'mgs': 0, 'depth': -0.751, 'time': 18.75, 'pitch': -3.05, 'roll': -10.18}
{'lipoC2': 7.99, 'temp': 26.25, 'lipoC3S3': 12.5, 'rot1': 0, 'rot0': 0, 'rot3': 0, 'rot2': 0, 'state': 'normal', 'yaw': -7.67, 'datetime': '2018-10-12 15:50:25.308346', 'mgs': 0, 'depth': -0.751, 'time': 18.85, 'pitch': -2.97, 'roll': -9.84}
{'lipoC2': 7.99, 'temp': 26.31, 'lipoC3S3': 12.48, 'rot1': 0, 'rot0': 0, 'rot3': 0, 'rot2': 0, 'state': 'normal', 'yaw': -8.3, 'datetime': '2018-10-12 15:50:25.406145', 'mgs': 0, 'depth': -0.674, 'time': 18.95, 'pitch': -2.61, 'roll': -9.51}
{'lipoC2': 8.0, 'temp': 26.31, 'lipoC3S3': 12.5, 'rot1': 0, 'rot0': 0, 'rot3': 0, 'rot2': 0, 'state': 'normal', 'yaw': -8.9, 'datetime': '2018-10-12 15:50:25.504662', 'mgs': 0, 'depth': -0.674, 'time': 19.05, 'pitch': -2.61, 'roll': -9.11}
{'lipoC2': 7.99, 'temp': 26.31, 'lipoC3S3': 12.5, 'rot1': 0, 'rot0': 0, 'rot3': 0, 'rot2': 0, 'state': 'normal', 'yaw': -9.36, 'datetime': '2018-10-12 15:50:25.601705', 'mgs': 0, 'depth': -0.751, 'time': 19.14, 'pitch': -2.89, 'roll': -8.75}
{'lipoC2': 7.99, 'temp': 26.31, 'lipoC3S3': 12.48, 'rot1': 0, 'rot0': 0, 'rot3': 0, 'rot2': 0, 'state': 'normal', 'yaw': -9.53, 'datetime': '2018-10-12 15:50:25.698901', 'mgs': 0, 'depth': -0.674, 'time': 19.24, 'pitch': -2.96, 'roll': -8.41}
{'lipoC2': 8.0, 'temp': 26.31, 'lipoC3S3': 12.5, 'rot1': 0, 'rot0': 0, 'rot3': 0, 'rot2': 0, 'state': 'normal', 'yaw': -9.2, 'datetime': '2018-10-12 15:50:25.792242', 'mgs': 0, 'depth': -0.751, 'time': 19.34, 'pitch': -2.88, 'roll': -8.28}
{'lipoC2': 7.99, 'temp': 26.31, 'lipoC3S3': 12.5, 'rot1': 0, 'rot0': 0, 'rot3': 0, 'rot2': 0, 'state': 'normal', 'yaw': -8.72, 'datetime': '2018-10-12 15:50:25.894737', 'mgs': 0, 'depth': -0.751, 'time': 19.44, 'pitch': -3.09, 'roll': -8.08}
{'lipoC2': 7.99, 'temp': 26.31, 'lipoC3S3': 12.48, 'rot1': 0, 'rot0': 0, 'rot3': 0, 'rot2': 0, 'state': 'normal', 'yaw': -8.2, 'datetime': '2018-10-12 15:50:25.993941', 'mgs': 0, 'depth': -0.674, 'time': 19.53, 'pitch': -2.91, 'roll': -7.87}
{'lipoC2': 7.99, 'temp': 26.25, 'lipoC3S3': 12.48, 'rot1': 0, 'rot0': 0, 'rot3': 0, 'rot2': 0, 'state': 'normal', 'yaw': -7.67, 'datetime': '2018-10-12 15:50:26.090425', 'mgs': 0, 'depth': -0.751, 'time': 19.63, 'pitch': -2.96, 'roll': -7.77}
{'lipoC2': 8.0, 'temp': 26.25, 'lipoC3S3': 12.48, 'rot1': 0, 'rot0': 0, 'rot3': 0, 'rot2': 0, 'state': 'normal', 'yaw': -7.45, 'datetime': '2018-10-12 15:50:26.188024', 'mgs': 0, 'depth': -0.751, 'time': 19.73, 'pitch': -3.08, 'roll': -7.55}
{'lipoC2': 7.99, 'temp': 26.25, 'lipoC3S3': 12.5, 'rot1': 0, 'rot0': 0, 'rot3': 0, 'rot2': 0, 'state': 'normal', 'yaw': -7.17, 'datetime': '2018-10-12 15:50:26.286301', 'mgs': 0, 'depth': -0.751, 'time': 19.83, 'pitch': -3.17, 'roll': -7.6}
{'lipoC2': 7.99, 'temp': 26.31, 'lipoC3S3': 12.48, 'rot1': 0, 'rot0': 0, 'rot3': 0, 'rot2': 0, 'state': 'normal', 'yaw': -6.88, 'datetime': '2018-10-12 15:50:26.383395', 'mgs': 0, 'depth': -0.751, 'time': 19.92, 'pitch': -3.07, 'roll': -7.39}
{'lipoC2': 7.99, 'temp': 26.31, 'lipoC3S3': 12.5, 'rot1': 0, 'rot0': 0, 'rot3': 0, 'rot2': 0, 'state': 'normal', 'yaw': -6.12, 'datetime': '2018-10-12 15:50:26.478347', 'mgs': 0, 'depth': -0.751, 'time': 20.02, 'pitch': -3.04, 'roll': -7.49}
{'lipoC2': 8.0, 'temp': 26.31, 'lipoC3S3': 12.48, 'rot1': 0, 'rot0': 0, 'rot3': 0, 'rot2': 0, 'state': 'normal', 'yaw': -5.2, 'datetime': '2018-10-12 15:50:26.573086', 'mgs': 0, 'depth': -0.751, 'time': 20.12, 'pitch': -3.15, 'roll': -7.26}
{'lipoC2': 7.99, 'temp': 26.31, 'lipoC3S3': 12.48, 'rot1': 0, 'rot0': 0, 'rot3': 0, 'rot2': 0, 'state': 'normal', 'yaw': -3.92, 'datetime': '2018-10-12 15:50:26.670201', 'mgs': 0, 'depth': -0.751, 'time': 20.22, 'pitch': -2.73, 'roll': -7.42}
{'lipoC2': 7.99, 'temp': 26.31, 'lipoC3S3': 12.5, 'rot1': 0, 'rot0': 0, 'rot3': 0, 'rot2': 0, 'state': 'normal', 'yaw': -2.63, 'datetime': '2018-10-12 15:50:26.767291', 'mgs': 0, 'depth': -0.751, 'time': 20.31, 'pitch': -2.49, 'roll': -7.47}
{'lipoC2': 8.0, 'temp': 26.31, 'lipoC3S3': 12.48, 'rot1': 0, 'rot0': 0, 'rot3': 0, 'rot2': 0, 'state': 'normal', 'yaw': -1.85, 'datetime': '2018-10-12 15:50:26.864351', 'mgs': 0, 'depth': -0.751, 'time': 20.41, 'pitch': -2.72, 'roll': -7.32}
{'lipoC2': 7.99, 'temp': 26.31, 'lipoC3S3': 12.48, 'rot1': 0, 'rot0': 0, 'rot3': 0, 'rot2': 0, 'state': 'normal', 'yaw': -1.47, 'datetime': '2018-10-12 15:50:26.961486', 'mgs': 0, 'depth': -0.751, 'time': 20.51, 'pitch': -2.62, 'roll': -7.58}
{'lipoC2': 7.99, 'temp': 26.31, 'lipoC3S3': 12.5, 'rot1': 0, 'rot0': 0, 'rot3': 0, 'rot2': 0, 'state': 'normal', 'yaw': -1.4, 'datetime': '2018-10-12 15:50:27.058642', 'mgs': 0, 'depth': -0.827, 'time': 20.6, 'pitch': -2.89, 'roll': -7.42}
{'lipoC2': 8.0, 'temp': 26.31, 'lipoC3S3': 12.5, 'rot1': 0, 'rot0': 0, 'rot3': 0, 'rot2': 0, 'state': 'normal', 'yaw': -1.55, 'datetime': '2018-10-12 15:50:27.155706', 'mgs': 0, 'depth': -0.751, 'time': 20.7, 'pitch': -2.55, 'roll': -7.63}
{'lipoC2': 7.99, 'temp': 26.31, 'lipoC3S3': 12.48, 'rot1': 0, 'rot0': 0, 'rot3': 0, 'rot2': 0, 'state': 'normal', 'yaw': -1.47, 'datetime': '2018-10-12 15:50:27.254189', 'mgs': 0, 'depth': -0.751, 'time': 20.8, 'pitch': -3.15, 'roll': -7.18}
{'lipoC2': 7.99, 'temp': 26.31, 'lipoC3S3': 12.48, 'rot1': 0, 'rot0': 0, 'rot3': 0, 'rot2': 0, 'state': 'normal', 'yaw': -1.21, 'datetime': '2018-10-12 15:50:27.352645', 'mgs': 0, 'depth': -0.751, 'time': 20.9, 'pitch': -2.68, 'roll': -7.58}
{'lipoC2': 7.99, 'temp': 26.31, 'lipoC3S3': 12.48, 'rot1': 0, 'rot0': 0, 'rot3': 0, 'rot2': 0, 'state': 'normal', 'yaw': -1.04, 'datetime': '2018-10-12 15:50:27.450260', 'mgs': 0, 'depth': -0.751, 'time': 21.0, 'pitch': -2.95, 'roll': -7.24}
{'lipoC2': 7.99, 'temp': 26.31, 'lipoC3S3': 12.5, 'rot1': 0, 'rot0': 0, 'rot3': 0, 'rot2': 0, 'state': 'normal', 'yaw': -0.69, 'datetime': '2018-10-12 15:50:27.547423', 'mgs': 0, 'depth': -0.751, 'time': 21.09, 'pitch': -2.74, 'roll': -7.83}
{'lipoC2': 8.0, 'temp': 26.31, 'lipoC3S3': 12.48, 'rot1': 0, 'rot0': 0, 'rot3': 0, 'rot2': 0, 'state': 'normal', 'yaw': -0.49, 'datetime': '2018-10-12 15:50:27.645322', 'mgs': 0, 'depth': -0.751, 'time': 21.19, 'pitch': -3.05, 'roll': -7.73}
{'lipoC2': 7.99, 'temp': 26.31, 'lipoC3S3': 12.48, 'rot1': 0, 'rot0': 0, 'rot3': 0, 'rot2': 0, 'state': 'normal', 'yaw': -0.24, 'datetime': '2018-10-12 15:50:27.743694', 'mgs': 0, 'depth': -0.674, 'time': 21.29, 'pitch': -2.68, 'roll': -7.59}
{'lipoC2': 7.99, 'temp': 26.31, 'lipoC3S3': 12.48, 'rot1': 0, 'rot0': 0, 'rot3': 0, 'rot2': 0, 'state': 'normal', 'yaw': -0.06, 'datetime': '2018-10-12 15:50:27.841593', 'mgs': 0, 'depth': -0.674, 'time': 21.39, 'pitch': -2.4, 'roll': -7.69}
{'lipoC2': 7.99, 'temp': 26.31, 'lipoC3S3': 12.5, 'rot1': 0, 'rot0': 0, 'rot3': 0, 'rot2': 0, 'state': 'normal', 'yaw': -0.04, 'datetime': '2018-10-12 15:50:27.938772', 'mgs': 0, 'depth': -0.751, 'time': 21.49, 'pitch': -2.8, 'roll': -7.3}
{'lipoC2': 7.99, 'temp': 26.31, 'lipoC3S3': 12.48, 'rot1': 0, 'rot0': 0, 'rot3': 0, 'rot2': 0, 'state': 'normal', 'yaw': -0.02, 'datetime': '2018-10-12 15:50:28.036244', 'mgs': 0, 'depth': -0.751, 'time': 21.58, 'pitch': -2.72, 'roll': -7.46}
{'lipoC2': 7.99, 'temp': 26.31, 'lipoC3S3': 12.48, 'rot1': 0, 'rot0': 0, 'rot3': 0, 'rot2': 0, 'state': 'normal', 'yaw': 0.02, 'datetime': '2018-10-12 15:50:28.134673', 'mgs': 0, 'depth': -0.751, 'time': 21.68, 'pitch': -2.53, 'roll': -7.53}
{'lipoC2': 7.99, 'temp': 26.31, 'lipoC3S3': 12.48, 'rot1': 0, 'rot0': 0, 'rot3': 0, 'rot2': 0, 'state': 'normal', 'yaw': 0.19, 'datetime': '2018-10-12 15:50:28.231919', 'mgs': 0, 'depth': -0.751, 'time': 21.78, 'pitch': -2.69, 'roll': -7.56}
{'lipoC2': 7.99, 'temp': 26.31, 'lipoC3S3': 12.48, 'rot1': 0, 'rot0': 0, 'rot3': 0, 'rot2': 0, 'state': 'normal', 'yaw': 0.2, 'datetime': '2018-10-12 15:50:28.329043', 'mgs': 0, 'depth': -0.674, 'time': 21.88, 'pitch': -2.85, 'roll': -7.48}
{'lipoC2': 8.0, 'temp': 26.31, 'lipoC3S3': 12.5, 'rot1': 0, 'rot0': 0, 'rot3': 0, 'rot2': 0, 'state': 'normal', 'yaw': 0.25, 'datetime': '2018-10-12 15:50:28.426377', 'mgs': 0, 'depth': -0.751, 'time': 21.98, 'pitch': -2.69, 'roll': -7.74}
{'lipoC2': 7.99, 'temp': 26.31, 'lipoC3S3': 12.48, 'rot1': 0, 'rot0': 0, 'rot3': 0, 'rot2': 0, 'state': 'normal', 'yaw': -0.01, 'datetime': '2018-10-12 15:50:28.523477', 'mgs': 0, 'depth': -0.751, 'time': 22.07, 'pitch': -2.92, 'roll': -7.36}
{'lipoC2': 8.0, 'temp': 26.31, 'lipoC3S3': 12.5, 'rot1': 0, 'rot0': 0, 'rot3': 0, 'rot2': 0, 'state': 'normal', 'yaw': -0.15, 'datetime': '2018-10-12 15:50:28.620613', 'mgs': 0, 'depth': -0.751, 'time': 22.17, 'pitch': -2.92, 'roll': -7.83}
{'lipoC2': 7.99, 'temp': 26.31, 'lipoC3S3': 12.5, 'rot1': 0, 'rot0': 0, 'rot3': 0, 'rot2': 0, 'state': 'normal', 'yaw': -0.44, 'datetime': '2018-10-12 15:50:28.717786', 'mgs': 0, 'depth': -0.751, 'time': 22.26, 'pitch': -3.18, 'roll': -8.01}
{'lipoC2': 7.99, 'temp': 26.31, 'lipoC3S3': 12.48, 'rot1': 0, 'rot0': 0, 'rot3': 0, 'rot2': 0, 'state': 'normal', 'yaw': -0.72, 'datetime': '2018-10-12 15:50:28.814857', 'mgs': 0, 'depth': -0.674, 'time': 22.36, 'pitch': -2.98, 'roll': -7.73}
{'lipoC2': 7.99, 'temp': 26.31, 'lipoC3S3': 12.5, 'rot1': 0, 'rot0': 0, 'rot3': 0, 'rot2': 0, 'state': 'normal', 'yaw': -0.79, 'datetime': '2018-10-12 15:50:28.911965', 'mgs': 0, 'depth': -0.751, 'time': 22.46, 'pitch': -3.2, 'roll': -7.9}
{'lipoC2': 8.0, 'temp': 26.31, 'lipoC3S3': 12.48, 'rot1': 0, 'rot0': 0, 'rot3': 0, 'rot2': 0, 'state': 'normal', 'yaw': -0.82, 'datetime': '2018-10-12 15:50:29.009065', 'mgs': 0, 'depth': -0.751, 'time': 22.56, 'pitch': -2.95, 'roll': -7.66}
{'lipoC2': 7.99, 'temp': 26.31, 'lipoC3S3': 12.5, 'rot1': 0, 'rot0': 0, 'rot3': 0, 'rot2': 0, 'state': 'normal', 'yaw': -0.74, 'datetime': '2018-10-12 15:50:29.107658', 'mgs': 0, 'depth': -0.751, 'time': 22.66, 'pitch': -3.24, 'roll': -8.26}
{'lipoC2': 7.99, 'temp': 26.31, 'lipoC3S3': 12.48, 'rot1': 0, 'rot0': 0, 'rot3': 0, 'rot2': 0, 'state': 'normal', 'yaw': -0.91, 'datetime': '2018-10-12 15:50:29.205945', 'mgs': 0, 'depth': -0.827, 'time': 22.75, 'pitch': -3.24, 'roll': -7.59}
{'lipoC2': 7.99, 'temp': 26.31, 'lipoC3S3': 12.5, 'rot1': 0, 'rot0': 0, 'rot3': 0, 'rot2': 0, 'state': 'normal', 'yaw': -0.77, 'datetime': '2018-10-12 15:50:29.303019', 'mgs': 0, 'depth': -0.751, 'time': 22.85, 'pitch': -2.84, 'roll': -7.62}
{'lipoC2': 7.99, 'temp': 26.31, 'lipoC3S3': 12.48, 'rot1': 0, 'rot0': 0, 'rot3': 0, 'rot2': 0, 'state': 'normal', 'yaw': -0.66, 'datetime': '2018-10-12 15:50:29.400187', 'mgs': 0, 'depth': -0.674, 'time': 22.95, 'pitch': -3.2, 'roll': -7.23}
{'lipoC2': 7.99, 'temp': 26.31, 'lipoC3S3': 12.5, 'rot1': 0, 'rot0': 0, 'rot3': 0, 'rot2': 0, 'state': 'normal', 'yaw': -1.14, 'datetime': '2018-10-12 15:50:29.498123', 'mgs': 0, 'depth': -0.827, 'time': 23.05, 'pitch': -3.08, 'roll': -7.11}
{'lipoC2': 8.0, 'temp': 26.31, 'lipoC3S3': 12.48, 'rot1': 0, 'rot0': 0, 'rot3': 0, 'rot2': 0, 'state': 'normal', 'yaw': -1.93, 'datetime': '2018-10-12 15:50:29.596484', 'mgs': 0, 'depth': -0.751, 'time': 23.15, 'pitch': -3.46, 'roll': -7.2}
{'lipoC2': 7.99, 'temp': 26.31, 'lipoC3S3': 12.5, 'rot1': 0, 'rot0': 0, 'rot3': 0, 'rot2': 0, 'state': 'normal', 'yaw': -2.48, 'datetime': '2018-10-12 15:50:29.694330', 'mgs': 0, 'depth': -0.827, 'time': 23.24, 'pitch': -3.42, 'roll': -7.04}
{'lipoC2': 8.0, 'temp': 26.31, 'lipoC3S3': 12.48, 'rot1': 0, 'rot0': 0, 'rot3': 0, 'rot2': 0, 'state': 'normal', 'yaw': -2.29, 'datetime': '2018-10-12 15:50:29.791410', 'mgs': 0, 'depth': -0.751, 'time': 23.34, 'pitch': -3.31, 'roll': -7.25}
{'lipoC2': 7.99, 'temp': 26.31, 'lipoC3S3': 12.5, 'rot1': 0, 'rot0': 0, 'rot3': 0, 'rot2': 0, 'state': 'normal', 'yaw': -2.05, 'datetime': '2018-10-12 15:50:29.889113', 'mgs': 0, 'depth': -0.827, 'time': 23.44, 'pitch': -3.3, 'roll': -7.46}
{'lipoC2': 7.99, 'temp': 26.31, 'lipoC3S3': 12.48, 'rot1': 0, 'rot0': 0, 'rot3': 0, 'rot2': 0, 'state': 'normal', 'yaw': -1.8, 'datetime': '2018-10-12 15:50:29.987548', 'mgs': 0, 'depth': -0.674, 'time': 23.54, 'pitch': -3.34, 'roll': -7.62}
{'lipoC2': 8.0, 'temp': 26.31, 'lipoC3S3': 12.48, 'rot1': 0, 'rot0': 0, 'rot3': 0, 'rot2': 0, 'state': 'normal', 'yaw': -1.76, 'datetime': '2018-10-12 15:50:30.084621', 'mgs': 0, 'depth': -0.751, 'time': 23.63, 'pitch': -3.27, 'roll': -8.23}
{'lipoC2': 8.0, 'temp': 26.31, 'lipoC3S3': 12.48, 'rot1': 0, 'rot0': 0, 'rot3': 0, 'rot2': 0, 'state': 'normal', 'yaw': -1.7, 'datetime': '2018-10-12 15:50:30.181728', 'mgs': 0, 'depth': -0.751, 'time': 23.73, 'pitch': -2.87, 'roll': -8.12}
{'lipoC2': 8.0, 'temp': 26.31, 'lipoC3S3': 12.48, 'rot1': 0, 'rot0': 0, 'rot3': 0, 'rot2': 0, 'state': 'normal', 'yaw': -1.96, 'datetime': '2018-10-12 15:50:30.279013', 'mgs': 0, 'depth': -0.751, 'time': 23.83, 'pitch': -3.09, 'roll': -7.77}
{'lipoC2': 8.0, 'temp': 26.31, 'lipoC3S3': 12.5, 'rot1': 0, 'rot0': 0, 'rot3': 0, 'rot2': 0, 'state': 'normal', 'yaw': -2.53, 'datetime': '2018-10-12 15:50:30.376111', 'mgs': 0, 'depth': -0.751, 'time': 23.93, 'pitch': -3.29, 'roll': -7.89}
{'lipoC2': 7.99, 'temp': 26.25, 'lipoC3S3': 12.5, 'rot1': 0, 'rot0': 0, 'rot3': 0, 'rot2': 0, 'state': 'normal', 'yaw': -2.91, 'datetime': '2018-10-12 15:50:30.473261', 'mgs': 0, 'depth': -0.751, 'time': 24.02, 'pitch': -3.19, 'roll': -7.21}
{'lipoC2': 7.99, 'temp': 26.25, 'lipoC3S3': 12.5, 'rot1': 0, 'rot0': 0, 'rot3': 0, 'rot2': 0, 'state': 'normal', 'yaw': -3.09, 'datetime': '2018-10-12 15:50:30.570355', 'mgs': 0, 'depth': -0.827, 'time': 24.12, 'pitch': -3.42, 'roll': -7.42}
{'lipoC2': 7.99, 'temp': 26.25, 'lipoC3S3': 12.5, 'rot1': 0, 'rot0': 0, 'rot3': 0, 'rot2': 0, 'state': 'normal', 'yaw': -3.49, 'datetime': '2018-10-12 15:50:30.667578', 'mgs': 0, 'depth': -0.751, 'time': 24.22, 'pitch': -3.33, 'roll': -7.24}
{'lipoC2': 7.99, 'temp': 26.31, 'lipoC3S3': 12.5, 'rot1': 0, 'rot0': 0, 'rot3': 0, 'rot2': 0, 'state': 'normal', 'yaw': -3.66, 'datetime': '2018-10-12 15:50:30.764649', 'mgs': 0, 'depth': -0.751, 'time': 24.31, 'pitch': -3.22, 'roll': -7.37}
{'lipoC2': 7.99, 'temp': 26.31, 'lipoC3S3': 12.48, 'rot1': 0, 'rot0': 0, 'rot3': 0, 'rot2': 0, 'state': 'normal', 'yaw': -3.92, 'datetime': '2018-10-12 15:50:30.861723', 'mgs': 0, 'depth': -0.674, 'time': 24.41, 'pitch': -3.41, 'roll': -7.34}
{'lipoC2': 8.0, 'temp': 26.25, 'lipoC3S3': 12.48, 'rot1': 0, 'rot0': 0, 'rot3': 0, 'rot2': 0, 'state': 'normal', 'yaw': -4.38, 'datetime': '2018-10-12 15:50:30.960232', 'mgs': 0, 'depth': -0.674, 'time': 24.51, 'pitch': -3.49, 'roll': -7.7}
{'lipoC2': 7.99, 'temp': 26.25, 'lipoC3S3': 12.5, 'rot1': 0, 'rot0': 0, 'rot3': 0, 'rot2': 0, 'state': 'normal', 'yaw': -4.9, 'datetime': '2018-10-12 15:50:31.058679', 'mgs': 0, 'depth': -0.751, 'time': 24.61, 'pitch': -3.51, 'roll': -7.31}
{'lipoC2': 8.0, 'temp': 26.25, 'lipoC3S3': 12.5, 'rot1': 0, 'rot0': 0, 'rot3': 0, 'rot2': 0, 'state': 'normal', 'yaw': -5.01, 'datetime': '2018-10-12 15:50:31.156646', 'mgs': 0, 'depth': -0.751, 'time': 24.71, 'pitch': -3.57, 'roll': -7.24}
{'lipoC2': 7.99, 'temp': 26.31, 'lipoC3S3': 12.5, 'rot1': 0, 'rot0': 0, 'rot3': 0, 'rot2': 0, 'state': 'normal', 'yaw': -4.94, 'datetime': '2018-10-12 15:50:31.253768', 'mgs': 0, 'depth': -0.827, 'time': 24.81, 'pitch': -3.46, 'roll': -7.17}
{'lipoC2': 8.0, 'temp': 26.31, 'lipoC3S3': 12.48, 'rot1': 0, 'rot0': 0, 'rot3': 0, 'rot2': 0, 'state': 'normal', 'yaw': -4.75, 'datetime': '2018-10-12 15:50:31.351992', 'mgs': 0, 'depth': -0.751, 'time': 24.9, 'pitch': -3.3, 'roll': -7.25}
{'lipoC2': 8.0, 'temp': 26.31, 'lipoC3S3': 12.48, 'rot1': 0, 'rot0': 0, 'rot3': 0, 'rot2': 0, 'state': 'normal', 'yaw': -4.8, 'datetime': '2018-10-12 15:50:31.449914', 'mgs': 0, 'depth': -0.674, 'time': 25.0, 'pitch': -3.57, 'roll': -6.82}
{'lipoC2': 7.99, 'temp': 26.31, 'lipoC3S3': 12.48, 'rot1': 0, 'rot0': 0, 'rot3': 0, 'rot2': 0, 'state': 'normal', 'yaw': -5.03, 'datetime': '2018-10-12 15:50:31.548349', 'mgs': 0, 'depth': -0.674, 'time': 25.1, 'pitch': -3.49, 'roll': -6.93}
{'lipoC2': 7.99, 'temp': 26.31, 'lipoC3S3': 12.5, 'rot1': 0, 'rot0': 0, 'rot3': 0, 'rot2': 0, 'state': 'normal', 'yaw': -4.92, 'datetime': '2018-10-12 15:50:31.645435', 'mgs': 0, 'depth': -0.751, 'time': 25.2, 'pitch': -3.51, 'roll': -6.47}
{'lipoC2': 8.0, 'temp': 26.31, 'lipoC3S3': 12.48, 'rot1': 0, 'rot0': 0, 'rot3': 0, 'rot2': 0, 'state': 'normal', 'yaw': -4.84, 'datetime': '2018-10-12 15:50:31.742511', 'mgs': 0, 'depth': -0.751, 'time': 25.29, 'pitch': -3.66, 'roll': -6.77}
{'lipoC2': 7.99, 'temp': 26.31, 'lipoC3S3': 12.5, 'rot1': 0, 'rot0': 0, 'rot3': 0, 'rot2': 0, 'state': 'normal', 'yaw': -4.77, 'datetime': '2018-10-12 15:50:31.840906', 'mgs': 0, 'depth': -0.751, 'time': 25.39, 'pitch': -3.55, 'roll': -6.34}
{'lipoC2': 8.0, 'temp': 26.25, 'lipoC3S3': 12.5, 'rot1': 0, 'rot0': 0, 'rot3': 0, 'rot2': 0, 'state': 'normal', 'yaw': -4.81, 'datetime': '2018-10-12 15:50:31.938868', 'mgs': 0, 'depth': -0.751, 'time': 25.49, 'pitch': -3.71, 'roll': -6.61}
