{'lipoC2': 7.58, 'temp': 26.94, 'lipoC3S3': 11.9, 'rot1': 0, 'rot0': 0, 'rot3': 0, 'rot2': 0, 'state': 'normal', 'yaw': 0.0, 'datetime': '2018-10-12 18:08:07.398113', 'mgs': 0, 'depth': -1.056, 'time': 1.26, 'pitch': -0.53, 'roll': -6.2}
{'lipoC2': 7.58, 'temp': 26.94, 'lipoC3S3': 11.9, 'rot1': 0, 'rot0': 0, 'rot3': 0, 'rot2': 0, 'state': 'normal', 'yaw': -0.3, 'datetime': '2018-10-12 18:08:07.416324', 'mgs': 0, 'depth': -1.132, 'time': 1.36, 'pitch': -0.4, 'roll': -6.09}
{'lipoC2': 7.58, 'temp': 26.94, 'lipoC3S3': 11.9, 'rot1': 0, 'rot0': 0, 'rot3': 0, 'rot2': 0, 'state': 'normal', 'yaw': -0.75, 'datetime': '2018-10-12 18:08:07.434369', 'mgs': 0, 'depth': -1.132, 'time': 1.46, 'pitch': -0.37, 'roll': -5.53}
{'lipoC2': 7.58, 'temp': 26.94, 'lipoC3S3': 11.9, 'rot1': 0, 'rot0': 0, 'rot3': 0, 'rot2': 0, 'state': 'normal', 'yaw': -1.56, 'datetime': '2018-10-12 18:08:07.452379', 'mgs': 0, 'depth': -0.98, 'time': 1.55, 'pitch': -0.63, 'roll': -5.6}
{'lipoC2': 7.58, 'temp': 26.94, 'lipoC3S3': 11.9, 'rot1': 0, 'rot0': 0, 'rot3': 0, 'rot2': 0, 'state': 'normal', 'yaw': -2.8, 'datetime': '2018-10-12 18:08:07.470380', 'mgs': 0, 'depth': -0.98, 'time': 1.65, 'pitch': -0.58, 'roll': -5.34}
{'lipoC2': 7.58, 'temp': 26.88, 'lipoC3S3': 11.9, 'rot1': 0, 'rot0': 0, 'rot3': 0, 'rot2': 0, 'state': 'normal', 'yaw': -4.22, 'datetime': '2018-10-12 18:08:07.488300', 'mgs': 0, 'depth': -1.132, 'time': 1.75, 'pitch': -0.67, 'roll': -5.13}
{'lipoC2': 7.58, 'temp': 26.88, 'lipoC3S3': 11.9, 'rot1': 0, 'rot0': 0, 'rot3': 0, 'rot2': 0, 'state': 'normal', 'yaw': -5.34, 'datetime': '2018-10-12 18:08:07.503536', 'mgs': 0, 'depth': -1.056, 'time': 1.85, 'pitch': -0.92, 'roll': -5.04}
{'lipoC2': 7.58, 'temp': 26.94, 'lipoC3S3': 11.9, 'rot1': 0, 'rot0': 0, 'rot3': 0, 'rot2': 0, 'state': 'normal', 'yaw': -6.12, 'datetime': '2018-10-12 18:08:07.511354', 'mgs': 0, 'depth': -1.056, 'time': 1.94, 'pitch': -0.74, 'roll': -4.9}
{'lipoC2': 7.58, 'temp': 26.94, 'lipoC3S3': 11.9, 'rot1': 0, 'rot0': 0, 'rot3': 0, 'rot2': 0, 'state': 'normal', 'yaw': -6.24, 'datetime': '2018-10-12 18:08:07.519166', 'mgs': 0, 'depth': -1.056, 'time': 2.04, 'pitch': -0.61, 'roll': -4.93}
{'lipoC2': 7.58, 'temp': 26.94, 'lipoC3S3': 11.92, 'rot1': 0, 'rot0': 0, 'rot3': 0, 'rot2': 0, 'state': 'normal', 'yaw': -5.71, 'datetime': '2018-10-12 18:08:07.526924', 'mgs': 0, 'depth': -1.056, 'time': 2.14, 'pitch': -0.89, 'roll': -5.22}
{'lipoC2': 7.58, 'temp': 26.94, 'lipoC3S3': 11.9, 'rot1': 0, 'rot0': 0, 'rot3': 0, 'rot2': 0, 'state': 'normal', 'yaw': -4.77, 'datetime': '2018-10-12 18:08:07.534705', 'mgs': 0, 'depth': -0.98, 'time': 2.24, 'pitch': -0.86, 'roll': -4.97}
{'lipoC2': 7.58, 'temp': 26.94, 'lipoC3S3': 11.9, 'rot1': 0, 'rot0': 0, 'rot3': 0, 'rot2': 0, 'state': 'normal', 'yaw': -2.72, 'datetime': '2018-10-12 18:08:07.542498', 'mgs': 0, 'depth': -1.056, 'time': 2.33, 'pitch': -0.9, 'roll': -5.24}
{'lipoC2': 7.58, 'temp': 26.94, 'lipoC3S3': 11.9, 'rot1': 0, 'rot0': 0, 'rot3': 0, 'rot2': 0, 'state': 'normal', 'yaw': -0.59, 'datetime': '2018-10-12 18:08:07.550300', 'mgs': 0, 'depth': -1.056, 'time': 2.43, 'pitch': -0.6, 'roll': -4.96}
{'lipoC2': 7.58, 'temp': 26.94, 'lipoC3S3': 11.9, 'rot1': 0, 'rot0': 0, 'rot3': 0, 'rot2': 0, 'state': 'normal', 'yaw': 1.1, 'datetime': '2018-10-12 18:08:07.558097', 'mgs': 0, 'depth': -1.056, 'time': 2.53, 'pitch': -1.05, 'roll': -5.22}
{'lipoC2': 7.58, 'temp': 26.94, 'lipoC3S3': 11.9, 'rot1': 0, 'rot0': 0, 'rot3': 0, 'rot2': 0, 'state': 'normal', 'yaw': 2.04, 'datetime': '2018-10-12 18:08:07.565869', 'mgs': 0, 'depth': -1.132, 'time': 2.62, 'pitch': -0.53, 'roll': -5.35}
{'lipoC2': 7.58, 'temp': 26.94, 'lipoC3S3': 11.9, 'rot1': 0, 'rot0': 0, 'rot3': 0, 'rot2': 0, 'state': 'normal', 'yaw': 1.99, 'datetime': '2018-10-12 18:08:07.573701', 'mgs': 0, 'depth': -1.056, 'time': 2.72, 'pitch': -0.46, 'roll': -5.12}
{'lipoC2': 7.58, 'temp': 26.94, 'lipoC3S3': 11.9, 'rot1': 0, 'rot0': 0, 'rot3': 0, 'rot2': 0, 'state': 'normal', 'yaw': 1.29, 'datetime': '2018-10-12 18:08:07.581548', 'mgs': 0, 'depth': -1.056, 'time': 2.82, 'pitch': -0.79, 'roll': -5.06}
{'lipoC2': 7.58, 'temp': 26.94, 'lipoC3S3': 11.9, 'rot1': 0, 'rot0': 0, 'rot3': 0, 'rot2': 0, 'state': 'normal', 'yaw': 0.58, 'datetime': '2018-10-12 18:08:07.589327', 'mgs': 0, 'depth': -1.056, 'time': 2.92, 'pitch': -0.33, 'roll': -4.89}
{'lipoC2': 7.58, 'temp': 26.94, 'lipoC3S3': 11.9, 'rot1': 0, 'rot0': 0, 'rot3': 0, 'rot2': 0, 'state': 'normal', 'yaw': -0.54, 'datetime': '2018-10-12 18:08:07.597708', 'mgs': 0, 'depth': -1.056, 'time': 3.02, 'pitch': -0.79, 'roll': -5.41}
{'lipoC2': 7.58, 'temp': 26.94, 'lipoC3S3': 11.89, 'rot1': 0, 'rot0': 0, 'rot3': 0, 'rot2': 0, 'state': 'normal', 'yaw': -1.78, 'datetime': '2018-10-12 18:08:07.605600', 'mgs': 0, 'depth': -1.056, 'time': 3.11, 'pitch': -0.24, 'roll': -4.63}
{'lipoC2': 7.59, 'temp': 27.0, 'lipoC3S3': 11.9, 'rot1': 0, 'rot0': 0, 'rot3': 0, 'rot2': 0, 'state': 'normal', 'yaw': -2.33, 'datetime': '2018-10-12 18:08:07.613443', 'mgs': 0, 'depth': -0.98, 'time': 3.21, 'pitch': -0.71, 'roll': -4.98}
{'lipoC2': 7.59, 'temp': 27.0, 'lipoC3S3': 11.9, 'rot1': 0, 'rot0': 0, 'rot3': 0, 'rot2': 0, 'state': 'normal', 'yaw': -2.29, 'datetime': '2018-10-12 18:08:07.621287', 'mgs': 0, 'depth': -1.056, 'time': 3.31, 'pitch': -0.5, 'roll': -4.17}
{'lipoC2': 7.58, 'temp': 26.94, 'lipoC3S3': 11.92, 'rot1': 0, 'rot0': 0, 'rot3': 0, 'rot2': 0, 'state': 'normal', 'yaw': -2.55, 'datetime': '2018-10-12 18:08:07.629120', 'mgs': 0, 'depth': -1.132, 'time': 3.41, 'pitch': -0.5, 'roll': -5.15}
{'lipoC2': 7.58, 'temp': 26.94, 'lipoC3S3': 11.9, 'rot1': 0, 'rot0': 0, 'rot3': 0, 'rot2': 0, 'state': 'normal', 'yaw': -2.72, 'datetime': '2018-10-12 18:08:07.636912', 'mgs': 0, 'depth': -1.056, 'time': 3.51, 'pitch': -0.82, 'roll': -4.41}
{'lipoC2': 7.58, 'temp': 26.94, 'lipoC3S3': 11.9, 'rot1': 0, 'rot0': 0, 'rot3': 0, 'rot2': 0, 'state': 'normal', 'yaw': -3.13, 'datetime': '2018-10-12 18:08:07.644721', 'mgs': 0, 'depth': -1.208, 'time': 3.6, 'pitch': -0.2, 'roll': -4.48}
{'lipoC2': 7.59, 'temp': 26.88, 'lipoC3S3': 11.9, 'rot1': 0, 'rot0': 0, 'rot3': 0, 'rot2': 0, 'state': 'normal', 'yaw': -4.24, 'datetime': '2018-10-12 18:08:07.652512', 'mgs': 0, 'depth': -1.056, 'time': 3.7, 'pitch': -0.82, 'roll': -4.66}
{'lipoC2': 7.58, 'temp': 26.88, 'lipoC3S3': 11.9, 'rot1': 0, 'rot0': 0, 'rot3': 0, 'rot2': 0, 'state': 'normal', 'yaw': -5.08, 'datetime': '2018-10-12 18:08:07.660300', 'mgs': 0, 'depth': -1.132, 'time': 3.8, 'pitch': -0.36, 'roll': -4.64}
{'lipoC2': 7.58, 'temp': 26.94, 'lipoC3S3': 11.9, 'rot1': 0, 'rot0': 0, 'rot3': 0, 'rot2': 0, 'state': 'normal', 'yaw': -6.0, 'datetime': '2018-10-12 18:08:07.668077', 'mgs': 0, 'depth': -0.98, 'time': 3.9, 'pitch': -0.89, 'roll': -5.12}
{'lipoC2': 7.59, 'temp': 26.94, 'lipoC3S3': 11.9, 'rot1': 0, 'rot0': 0, 'rot3': 0, 'rot2': 0, 'state': 'normal', 'yaw': -6.01, 'datetime': '2018-10-12 18:08:07.675816', 'mgs': 0, 'depth': -1.056, 'time': 3.99, 'pitch': -0.8, 'roll': -4.92}
{'lipoC2': 7.58, 'temp': 26.94, 'lipoC3S3': 11.9, 'rot1': 0, 'rot0': 0, 'rot3': 0, 'rot2': 0, 'state': 'normal', 'yaw': -5.72, 'datetime': '2018-10-12 18:08:07.683608', 'mgs': 0, 'depth': -1.132, 'time': 4.09, 'pitch': -0.8, 'roll': -5.12}
{'lipoC2': 7.58, 'temp': 26.94, 'lipoC3S3': 11.9, 'rot1': 0, 'rot0': 0, 'rot3': 0, 'rot2': 0, 'state': 'normal', 'yaw': -5.65, 'datetime': '2018-10-12 18:08:07.691403', 'mgs': 0, 'depth': -1.056, 'time': 4.19, 'pitch': -0.95, 'roll': -5.67}
{'lipoC2': 7.58, 'temp': 26.94, 'lipoC3S3': 11.9, 'rot1': 0, 'rot0': 0, 'rot3': 0, 'rot2': 0, 'state': 'normal', 'yaw': -5.93, 'datetime': '2018-10-12 18:08:07.699194', 'mgs': 0, 'depth': -1.132, 'time': 4.28, 'pitch': -0.81, 'roll': -5.31}
{'lipoC2': 7.58, 'temp': 26.94, 'lipoC3S3': 11.9, 'rot1': 0, 'rot0': 0, 'rot3': 0, 'rot2': 0, 'state': 'normal', 'yaw': -5.61, 'datetime': '2018-10-12 18:08:07.706954', 'mgs': 0, 'depth': -1.056, 'time': 4.38, 'pitch': -0.82, 'roll': -5.75}
{'lipoC2': 7.58, 'temp': 26.94, 'lipoC3S3': 11.9, 'rot1': 0, 'rot0': 0, 'rot3': 0, 'rot2': 0, 'state': 'normal', 'yaw': -5.59, 'datetime': '2018-10-12 18:08:07.714787', 'mgs': 0, 'depth': -1.132, 'time': 4.48, 'pitch': -1.17, 'roll': -5.69}
{'lipoC2': 7.58, 'temp': 26.94, 'lipoC3S3': 11.9, 'rot1': 0, 'rot0': 0, 'rot3': 0, 'rot2': 0, 'state': 'normal', 'yaw': -5.92, 'datetime': '2018-10-12 18:08:07.722615', 'mgs': 0, 'depth': -1.056, 'time': 4.58, 'pitch': -0.95, 'roll': -5.62}
{'lipoC2': 7.58, 'temp': 26.94, 'lipoC3S3': 11.89, 'rot1': 0, 'rot0': 0, 'rot3': 0, 'rot2': 0, 'state': 'normal', 'yaw': -5.33, 'datetime': '2018-10-12 18:08:07.730840', 'mgs': 0, 'depth': -1.056, 'time': 4.67, 'pitch': -0.91, 'roll': -5.52}
{'lipoC2': 7.58, 'temp': 26.94, 'lipoC3S3': 11.92, 'rot1': 0, 'rot0': 0, 'rot3': 0, 'rot2': 0, 'state': 'normal', 'yaw': -3.76, 'datetime': '2018-10-12 18:08:07.738686', 'mgs': 0, 'depth': -1.132, 'time': 4.77, 'pitch': -0.79, 'roll': -5.25}
{'lipoC2': 7.58, 'temp': 26.94, 'lipoC3S3': 11.89, 'rot1': 0, 'rot0': 0, 'rot3': 0, 'rot2': 0, 'state': 'normal', 'yaw': -2.44, 'datetime': '2018-10-12 18:08:07.746435', 'mgs': 0, 'depth': -1.056, 'time': 4.87, 'pitch': -0.8, 'roll': -5.31}
{'lipoC2': 7.58, 'temp': 26.94, 'lipoC3S3': 11.9, 'rot1': 0, 'rot0': 0, 'rot3': 0, 'rot2': 0, 'state': 'normal', 'yaw': -1.68, 'datetime': '2018-10-12 18:08:07.754275', 'mgs': 0, 'depth': -1.056, 'time': 4.97, 'pitch': -0.65, 'roll': -4.75}
{'lipoC2': 7.58, 'temp': 26.94, 'lipoC3S3': 11.9, 'rot1': 0, 'rot0': 0, 'rot3': 0, 'rot2': 0, 'state': 'normal', 'yaw': -0.8, 'datetime': '2018-10-12 18:08:07.762109', 'mgs': 0, 'depth': -1.056, 'time': 5.07, 'pitch': -0.7, 'roll': -4.94}
{'lipoC2': 7.58, 'temp': 26.94, 'lipoC3S3': 11.9, 'rot1': 0, 'rot0': 0, 'rot3': 0, 'rot2': 0, 'state': 'normal', 'yaw': -0.07, 'datetime': '2018-10-12 18:08:07.769914', 'mgs': 0, 'depth': -1.132, 'time': 5.16, 'pitch': -0.54, 'roll': -4.87}
{'lipoC2': 7.59, 'temp': 26.94, 'lipoC3S3': 11.9, 'rot1': 0, 'rot0': 0, 'rot3': 0, 'rot2': 0, 'state': 'normal', 'yaw': 0.04, 'datetime': '2018-10-12 18:08:07.777692', 'mgs': 0, 'depth': -1.056, 'time': 5.26, 'pitch': -0.69, 'roll': -5.15}
{'lipoC2': 7.58, 'temp': 26.94, 'lipoC3S3': 11.9, 'rot1': 0, 'rot0': 0, 'rot3': 0, 'rot2': 0, 'state': 'normal', 'yaw': -0.38, 'datetime': '2018-10-12 18:08:07.785442', 'mgs': 0, 'depth': -1.132, 'time': 5.36, 'pitch': -0.94, 'roll': -4.98}
{'lipoC2': 7.58, 'temp': 26.94, 'lipoC3S3': 11.9, 'rot1': 0, 'rot0': 0, 'rot3': 0, 'rot2': 0, 'state': 'normal', 'yaw': -1.09, 'datetime': '2018-10-12 18:08:07.793241', 'mgs': 0, 'depth': -1.132, 'time': 5.46, 'pitch': -0.32, 'roll': -5.5}
{'lipoC2': 7.58, 'temp': 26.94, 'lipoC3S3': 11.9, 'rot1': 0, 'rot0': 0, 'rot3': 0, 'rot2': 0, 'state': 'normal', 'yaw': -1.96, 'datetime': '2018-10-12 18:08:07.801031', 'mgs': 0, 'depth': -1.132, 'time': 5.55, 'pitch': -0.81, 'roll': -5.77}
{'lipoC2': 7.58, 'temp': 26.94, 'lipoC3S3': 11.9, 'rot1': 0, 'rot0': 0, 'rot3': 0, 'rot2': 0, 'state': 'normal', 'yaw': -2.57, 'datetime': '2018-10-12 18:08:07.808810', 'mgs': 0, 'depth': -1.056, 'time': 5.65, 'pitch': -0.1, 'roll': -5.37}
{'lipoC2': 7.58, 'temp': 26.94, 'lipoC3S3': 11.9, 'rot1': 0, 'rot0': 0, 'rot3': 0, 'rot2': 0, 'state': 'normal', 'yaw': -3.68, 'datetime': '2018-10-12 18:08:07.816571', 'mgs': 0, 'depth': -1.056, 'time': 5.75, 'pitch': -0.73, 'roll': -5.13}
{'lipoC2': 7.58, 'temp': 26.94, 'lipoC3S3': 11.9, 'rot1': 0, 'rot0': 0, 'rot3': 0, 'rot2': 0, 'state': 'normal', 'yaw': -5.37, 'datetime': '2018-10-12 18:08:07.824364', 'mgs': 0, 'depth': -1.056, 'time': 5.85, 'pitch': -0.81, 'roll': -5.19}
{'lipoC2': 7.58, 'temp': 26.94, 'lipoC3S3': 11.9, 'rot1': 0, 'rot0': 0, 'rot3': 0, 'rot2': 0, 'state': 'normal', 'yaw': -7.04, 'datetime': '2018-10-12 18:08:07.832159', 'mgs': 0, 'depth': -1.132, 'time': 5.95, 'pitch': -0.92, 'roll': -4.81}
{'lipoC2': 7.58, 'temp': 26.94, 'lipoC3S3': 11.9, 'rot1': 0, 'rot0': 0, 'rot3': 0, 'rot2': 0, 'state': 'normal', 'yaw': -8.97, 'datetime': '2018-10-12 18:08:07.839965', 'mgs': 0, 'depth': -1.132, 'time': 6.04, 'pitch': -0.72, 'roll': -5.3}
{'lipoC2': 7.58, 'temp': 26.94, 'lipoC3S3': 11.9, 'rot1': 0, 'rot0': 0, 'rot3': 0, 'rot2': 0, 'state': 'normal', 'yaw': -11.09, 'datetime': '2018-10-12 18:08:07.847752', 'mgs': 0, 'depth': -0.98, 'time': 6.14, 'pitch': -0.97, 'roll': -5.09}
{'lipoC2': 7.58, 'temp': 26.94, 'lipoC3S3': 11.9, 'rot1': 0, 'rot0': 0, 'rot3': 0, 'rot2': 0, 'state': 'normal', 'yaw': -12.31, 'datetime': '2018-10-12 18:08:07.855519', 'mgs': 0, 'depth': -1.056, 'time': 6.24, 'pitch': -0.66, 'roll': -5.52}
{'lipoC2': 7.58, 'temp': 26.94, 'lipoC3S3': 11.9, 'rot1': 0, 'rot0': 0, 'rot3': 0, 'rot2': 0, 'state': 'normal', 'yaw': -12.62, 'datetime': '2018-10-12 18:08:07.863677', 'mgs': 0, 'depth': -1.132, 'time': 6.33, 'pitch': -0.78, 'roll': -5.22}
{'lipoC2': 7.58, 'temp': 26.94, 'lipoC3S3': 11.9, 'rot1': 0, 'rot0': 0, 'rot3': 0, 'rot2': 0, 'state': 'normal', 'yaw': -11.59, 'datetime': '2018-10-12 18:08:07.871505', 'mgs': 0, 'depth': -1.056, 'time': 6.43, 'pitch': -1.03, 'roll': -5.27}
{'lipoC2': 7.58, 'temp': 26.94, 'lipoC3S3': 11.9, 'rot1': 0, 'rot0': 0, 'rot3': 0, 'rot2': 0, 'state': 'normal', 'yaw': -9.82, 'datetime': '2018-10-12 18:08:07.879277', 'mgs': 0, 'depth': -0.98, 'time': 6.53, 'pitch': -0.97, 'roll': -5.17}
{'lipoC2': 7.58, 'temp': 27.0, 'lipoC3S3': 11.9, 'rot1': 0, 'rot0': 0, 'rot3': 0, 'rot2': 0, 'state': 'normal', 'yaw': -7.7, 'datetime': '2018-10-12 18:08:07.887040', 'mgs': 0, 'depth': -1.056, 'time': 6.63, 'pitch': -0.77, 'roll': -5.54}
{'lipoC2': 7.58, 'temp': 27.0, 'lipoC3S3': 11.9, 'rot1': 0, 'rot0': 0, 'rot3': 0, 'rot2': 0, 'state': 'normal', 'yaw': -5.55, 'datetime': '2018-10-12 18:08:07.894812', 'mgs': 0, 'depth': -1.056, 'time': 6.72, 'pitch': -0.73, 'roll': -5.31}
{'lipoC2': 7.58, 'temp': 26.94, 'lipoC3S3': 11.9, 'rot1': 0, 'rot0': 0, 'rot3': 0, 'rot2': 0, 'state': 'normal', 'yaw': -3.82, 'datetime': '2018-10-12 18:08:07.902596', 'mgs': 0, 'depth': -1.056, 'time': 6.82, 'pitch': -0.97, 'roll': -4.79}
{'lipoC2': 7.58, 'temp': 26.94, 'lipoC3S3': 11.9, 'rot1': 0, 'rot0': 0, 'rot3': 0, 'rot2': 0, 'state': 'normal', 'yaw': -2.34, 'datetime': '2018-10-12 18:08:07.910379', 'mgs': 0, 'depth': -1.056, 'time': 6.92, 'pitch': -0.45, 'roll': -5.09}
{'lipoC2': 7.58, 'temp': 26.94, 'lipoC3S3': 11.9, 'rot1': 0, 'rot0': 0, 'rot3': 0, 'rot2': 0, 'state': 'normal', 'yaw': -1.81, 'datetime': '2018-10-12 18:08:07.918154', 'mgs': 0, 'depth': -1.056, 'time': 7.02, 'pitch': -0.67, 'roll': -4.7}
{'lipoC2': 7.58, 'temp': 26.94, 'lipoC3S3': 11.9, 'rot1': 0, 'rot0': 0, 'rot3': 0, 'rot2': 0, 'state': 'normal', 'yaw': -1.34, 'datetime': '2018-10-12 18:08:07.925904', 'mgs': 0, 'depth': -1.132, 'time': 7.12, 'pitch': -0.3, 'roll': -4.91}
{'lipoC2': 7.58, 'temp': 26.94, 'lipoC3S3': 11.9, 'rot1': 0, 'rot0': 0, 'rot3': 0, 'rot2': 0, 'state': 'normal', 'yaw': -1.33, 'datetime': '2018-10-12 18:08:07.933667', 'mgs': 0, 'depth': -1.132, 'time': 7.21, 'pitch': -0.45, 'roll': -4.9}
{'lipoC2': 7.58, 'temp': 26.94, 'lipoC3S3': 11.9, 'rot1': 0, 'rot0': 0, 'rot3': 0, 'rot2': 0, 'state': 'normal', 'yaw': -1.84, 'datetime': '2018-10-12 18:08:07.941451', 'mgs': 0, 'depth': -1.132, 'time': 7.31, 'pitch': -0.44, 'roll': -4.07}
{'lipoC2': 7.58, 'temp': 26.94, 'lipoC3S3': 11.9, 'rot1': 0, 'rot0': 0, 'rot3': 0, 'rot2': 0, 'state': 'normal', 'yaw': -2.29, 'datetime': '2018-10-12 18:08:07.949248', 'mgs': 0, 'depth': -1.056, 'time': 7.41, 'pitch': -0.5, 'roll': -4.68}
{'lipoC2': 7.58, 'temp': 26.94, 'lipoC3S3': 11.89, 'rot1': 0, 'rot0': 0, 'rot3': 0, 'rot2': 0, 'state': 'normal', 'yaw': -2.64, 'datetime': '2018-10-12 18:08:07.957159', 'mgs': 0, 'depth': -1.056, 'time': 7.51, 'pitch': -0.58, 'roll': -4.15}
{'lipoC2': 7.58, 'temp': 26.94, 'lipoC3S3': 11.9, 'rot1': 0, 'rot0': 0, 'rot3': 0, 'rot2': 0, 'state': 'normal', 'yaw': -3.23, 'datetime': '2018-10-12 18:08:07.964955', 'mgs': 0, 'depth': -1.132, 'time': 7.61, 'pitch': -0.25, 'roll': -4.27}
{'lipoC2': 7.58, 'temp': 26.94, 'lipoC3S3': 11.89, 'rot1': 0, 'rot0': 0, 'rot3': 0, 'rot2': 0, 'state': 'normal', 'yaw': -3.76, 'datetime': '2018-10-12 18:08:07.972759', 'mgs': 0, 'depth': -1.056, 'time': 7.7, 'pitch': -0.3, 'roll': -3.74}
{'lipoC2': 7.58, 'temp': 26.94, 'lipoC3S3': 11.89, 'rot1': 0, 'rot0': 0, 'rot3': 0, 'rot2': 0, 'state': 'normal', 'yaw': -4.91, 'datetime': '2018-10-12 18:08:07.980542', 'mgs': 0, 'depth': -1.056, 'time': 7.8, 'pitch': -0.66, 'roll': -4.63}
{'lipoC2': 7.58, 'temp': 26.94, 'lipoC3S3': 11.92, 'rot1': 0, 'rot0': 0, 'rot3': 0, 'rot2': 0, 'state': 'normal', 'yaw': -6.43, 'datetime': '2018-10-12 18:08:07.988334', 'mgs': 0, 'depth': -1.056, 'time': 7.9, 'pitch': -0.44, 'roll': -4.46}
{'lipoC2': 7.58, 'temp': 26.94, 'lipoC3S3': 11.9, 'rot1': 0, 'rot0': 0, 'rot3': 0, 'rot2': 0, 'state': 'normal', 'yaw': -7.82, 'datetime': '2018-10-12 18:08:07.996392', 'mgs': 0, 'depth': -1.056, 'time': 7.99, 'pitch': -0.51, 'roll': -4.79}
{'lipoC2': 7.58, 'temp': 26.94, 'lipoC3S3': 11.9, 'rot1': 0, 'rot0': 0, 'rot3': 0, 'rot2': 0, 'state': 'normal', 'yaw': -8.59, 'datetime': '2018-10-12 18:08:08.004217', 'mgs': 0, 'depth': -1.056, 'time': 8.09, 'pitch': -0.52, 'roll': -4.28}
{'lipoC2': 7.58, 'temp': 26.94, 'lipoC3S3': 11.9, 'rot1': 0, 'rot0': 0, 'rot3': 0, 'rot2': 0, 'state': 'normal', 'yaw': -9.28, 'datetime': '2018-10-12 18:08:08.012050', 'mgs': 0, 'depth': -1.056, 'time': 8.19, 'pitch': -0.24, 'roll': -4.69}
{'lipoC2': 7.58, 'temp': 26.94, 'lipoC3S3': 11.9, 'rot1': 0, 'rot0': 0, 'rot3': 0, 'rot2': 0, 'state': 'normal', 'yaw': -9.5, 'datetime': '2018-10-12 18:08:08.019840', 'mgs': 0, 'depth': -1.056, 'time': 8.28, 'pitch': -0.57, 'roll': -4.2}
{'lipoC2': 7.58, 'temp': 26.94, 'lipoC3S3': 11.9, 'rot1': 0, 'rot0': 0, 'rot3': 0, 'rot2': 0, 'state': 'normal', 'yaw': -9.41, 'datetime': '2018-10-12 18:08:08.027594', 'mgs': 0, 'depth': -1.056, 'time': 8.38, 'pitch': -0.52, 'roll': -4.04}
{'lipoC2': 7.58, 'temp': 26.94, 'lipoC3S3': 11.9, 'rot1': 0, 'rot0': 0, 'rot3': 0, 'rot2': 0, 'state': 'normal', 'yaw': -9.58, 'datetime': '2018-10-12 18:08:08.035341', 'mgs': 0, 'depth': -0.98, 'time': 8.48, 'pitch': -0.05, 'roll': -4.16}
{'lipoC2': 7.58, 'temp': 26.94, 'lipoC3S3': 11.9, 'rot1': 0, 'rot0': 0, 'rot3': 0, 'rot2': 0, 'state': 'normal', 'yaw': -10.27, 'datetime': '2018-10-12 18:08:08.043121', 'mgs': 0, 'depth': -0.98, 'time': 8.58, 'pitch': -0.1, 'roll': -3.66}
{'lipoC2': 7.58, 'temp': 26.94, 'lipoC3S3': 11.9, 'rot1': 0, 'rot0': 0, 'rot3': 0, 'rot2': 0, 'state': 'normal', 'yaw': -10.9, 'datetime': '2018-10-12 18:08:08.050927', 'mgs': 0, 'depth': -1.056, 'time': 8.68, 'pitch': -0.66, 'roll': -3.79}
{'lipoC2': 7.58, 'temp': 26.94, 'lipoC3S3': 11.9, 'rot1': 0, 'rot0': 0, 'rot3': 0, 'rot2': 0, 'state': 'normal', 'yaw': -11.74, 'datetime': '2018-10-12 18:08:08.058717', 'mgs': 0, 'depth': -1.132, 'time': 8.77, 'pitch': -0.63, 'roll': -4.05}
{'lipoC2': 7.58, 'temp': 26.94, 'lipoC3S3': 11.9, 'rot1': 0, 'rot0': 0, 'rot3': 0, 'rot2': 0, 'state': 'normal', 'yaw': -12.06, 'datetime': '2018-10-12 18:08:08.066453', 'mgs': 0, 'depth': -1.056, 'time': 8.87, 'pitch': -0.22, 'roll': -3.58}
{'lipoC2': 7.58, 'temp': 26.94, 'lipoC3S3': 11.9, 'rot1': 0, 'rot0': 0, 'rot3': 0, 'rot2': 0, 'state': 'normal', 'yaw': -12.09, 'datetime': '2018-10-12 18:08:08.074231', 'mgs': 0, 'depth': -1.056, 'time': 8.97, 'pitch': -0.04, 'roll': -4.21}
{'lipoC2': 7.58, 'temp': 26.94, 'lipoC3S3': 11.9, 'rot1': 0, 'rot0': 0, 'rot3': 0, 'rot2': 0, 'state': 'normal', 'yaw': -10.82, 'datetime': '2018-10-12 18:08:08.082019', 'mgs': 0, 'depth': -1.132, 'time': 9.07, 'pitch': 0.0, 'roll': -3.82}
{'lipoC2': 7.58, 'temp': 26.94, 'lipoC3S3': 11.9, 'rot1': 0, 'rot0': 0, 'rot3': 0, 'rot2': 0, 'state': 'normal', 'yaw': -9.04, 'datetime': '2018-10-12 18:08:08.089914', 'mgs': 0, 'depth': -1.056, 'time': 9.17, 'pitch': 0.36, 'roll': -4.32}
{'lipoC2': 7.58, 'temp': 26.88, 'lipoC3S3': 11.9, 'rot1': 0, 'rot0': 0, 'rot3': 0, 'rot2': 0, 'state': 'normal', 'yaw': -7.68, 'datetime': '2018-10-12 18:08:08.098231', 'mgs': 0, 'depth': -1.056, 'time': 9.27, 'pitch': 0.15, 'roll': -4.14}
{'lipoC2': 7.58, 'temp': 26.88, 'lipoC3S3': 11.9, 'rot1': 0, 'rot0': 0, 'rot3': 0, 'rot2': 0, 'state': 'normal', 'yaw': -6.44, 'datetime': '2018-10-12 18:08:08.106098', 'mgs': 0, 'depth': -1.056, 'time': 9.36, 'pitch': 0.21, 'roll': -4.41}
{'lipoC2': 7.58, 'temp': 26.94, 'lipoC3S3': 11.9, 'rot1': 0, 'rot0': 0, 'rot3': 0, 'rot2': 0, 'state': 'normal', 'yaw': -5.76, 'datetime': '2018-10-12 18:08:08.113534', 'mgs': 0, 'depth': -1.056, 'time': 9.46, 'pitch': -0.15, 'roll': -4.15}
{'lipoC2': 7.58, 'temp': 26.94, 'lipoC3S3': 11.9, 'rot1': 0, 'rot0': 0, 'rot3': 0, 'rot2': 0, 'state': 'normal', 'yaw': -5.63, 'datetime': '2018-10-12 18:08:08.120898', 'mgs': 0, 'depth': -1.056, 'time': 9.56, 'pitch': 0.17, 'roll': -4.3}
{'lipoC2': 7.58, 'temp': 26.94, 'lipoC3S3': 11.9, 'rot1': 0, 'rot0': 0, 'rot3': 0, 'rot2': 0, 'state': 'normal', 'yaw': -5.65, 'datetime': '2018-10-12 18:08:08.128598', 'mgs': 0, 'depth': -1.132, 'time': 9.65, 'pitch': -0.18, 'roll': -3.9}
{'lipoC2': 7.58, 'temp': 26.94, 'lipoC3S3': 11.9, 'rot1': 0, 'rot0': 0, 'rot3': 0, 'rot2': 0, 'state': 'normal', 'yaw': -5.85, 'datetime': '2018-10-12 18:08:08.135934', 'mgs': 0, 'depth': -1.056, 'time': 9.75, 'pitch': -0.32, 'roll': -3.8}
{'lipoC2': 7.58, 'temp': 26.94, 'lipoC3S3': 11.9, 'rot1': 0, 'rot0': 0, 'rot3': 0, 'rot2': 0, 'state': 'normal', 'yaw': -5.8, 'datetime': '2018-10-12 18:08:08.143271', 'mgs': 0, 'depth': -1.056, 'time': 9.85, 'pitch': -0.15, 'roll': -3.75}
{'lipoC2': 7.58, 'temp': 26.94, 'lipoC3S3': 11.9, 'rot1': 0, 'rot0': 0, 'rot3': 0, 'rot2': 0, 'state': 'normal', 'yaw': -5.71, 'datetime': '2018-10-12 18:08:08.150600', 'mgs': 0, 'depth': -1.132, 'time': 9.95, 'pitch': -0.49, 'roll': -3.92}
{'lipoC2': 7.58, 'temp': 26.94, 'lipoC3S3': 11.89, 'rot1': 0, 'rot0': 0, 'rot3': 0, 'rot2': 0, 'state': 'normal', 'yaw': -5.14, 'datetime': '2018-10-12 18:08:08.157934', 'mgs': 0, 'depth': -1.056, 'time': 10.04, 'pitch': -0.05, 'roll': -3.99}
{'lipoC2': 7.58, 'temp': 26.94, 'lipoC3S3': 11.9, 'rot1': 0, 'rot0': 0, 'rot3': 0, 'rot2': 0, 'state': 'normal', 'yaw': -4.53, 'datetime': '2018-10-12 18:08:08.165210', 'mgs': 0, 'depth': -1.132, 'time': 10.14, 'pitch': -0.13, 'roll': -3.98}
{'lipoC2': 7.59, 'temp': 26.94, 'lipoC3S3': 11.9, 'rot1': 0, 'rot0': 0, 'rot3': 0, 'rot2': 0, 'state': 'normal', 'yaw': -3.86, 'datetime': '2018-10-12 18:08:08.172525', 'mgs': 0, 'depth': -1.056, 'time': 10.24, 'pitch': -0.25, 'roll': -3.87}
{'lipoC2': 7.58, 'temp': 26.94, 'lipoC3S3': 11.9, 'rot1': 0, 'rot0': 0, 'rot3': 0, 'rot2': 0, 'state': 'normal', 'yaw': -3.16, 'datetime': '2018-10-12 18:08:08.179886', 'mgs': 0, 'depth': -1.132, 'time': 10.34, 'pitch': -0.1, 'roll': -4.01}
{'lipoC2': 7.58, 'temp': 26.94, 'lipoC3S3': 11.9, 'rot1': 0, 'rot0': 0, 'rot3': 0, 'rot2': 0, 'state': 'normal', 'yaw': -2.26, 'datetime': '2018-10-12 18:08:08.187174', 'mgs': 0, 'depth': -1.208, 'time': 10.43, 'pitch': -0.03, 'roll': -4.14}
{'lipoC2': 7.59, 'temp': 26.94, 'lipoC3S3': 11.9, 'rot1': 0, 'rot0': 0, 'rot3': 0, 'rot2': 0, 'state': 'normal', 'yaw': -1.31, 'datetime': '2018-10-12 18:08:08.194507', 'mgs': 0, 'depth': -1.056, 'time': 10.53, 'pitch': -0.46, 'roll': -4.11}
{'lipoC2': 7.59, 'temp': 26.94, 'lipoC3S3': 11.89, 'rot1': 0, 'rot0': 0, 'rot3': 0, 'rot2': 0, 'state': 'normal', 'yaw': -0.46, 'datetime': '2018-10-12 18:08:08.201833', 'mgs': 0, 'depth': -1.056, 'time': 10.63, 'pitch': -0.18, 'roll': -4.1}
{'lipoC2': 7.58, 'temp': 26.88, 'lipoC3S3': 11.9, 'rot1': 0, 'rot0': 0, 'rot3': 0, 'rot2': 0, 'state': 'normal', 'yaw': 0.27, 'datetime': '2018-10-12 18:08:08.209187', 'mgs': 0, 'depth': -1.132, 'time': 10.73, 'pitch': -0.34, 'roll': -4.25}
{'lipoC2': 7.58, 'temp': 26.88, 'lipoC3S3': 11.9, 'rot1': 0, 'rot0': 0, 'rot3': 0, 'rot2': 0, 'state': 'normal', 'yaw': 0.88, 'datetime': '2018-10-12 18:08:08.216447', 'mgs': 0, 'depth': -1.132, 'time': 10.82, 'pitch': -0.17, 'roll': -3.93}
{'lipoC2': 7.58, 'temp': 26.94, 'lipoC3S3': 11.9, 'rot1': 0, 'rot0': 0, 'rot3': 0, 'rot2': 0, 'state': 'normal', 'yaw': 1.16, 'datetime': '2018-10-12 18:08:08.223844', 'mgs': 0, 'depth': -1.056, 'time': 10.92, 'pitch': -0.33, 'roll': -4.24}
{'lipoC2': 7.58, 'temp': 26.94, 'lipoC3S3': 11.9, 'rot1': 0, 'rot0': 0, 'rot3': 0, 'rot2': 0, 'state': 'normal', 'yaw': 1.26, 'datetime': '2018-10-12 18:08:08.231103', 'mgs': 0, 'depth': -1.132, 'time': 11.02, 'pitch': -0.18, 'roll': -4.16}
{'lipoC2': 7.58, 'temp': 26.94, 'lipoC3S3': 11.92, 'rot1': 0, 'rot0': 0, 'rot3': 0, 'rot2': 0, 'state': 'normal', 'yaw': 1.81, 'datetime': '2018-10-12 18:08:08.238363', 'mgs': 0, 'depth': -0.98, 'time': 11.12, 'pitch': 0.04, 'roll': -4.24}
{'lipoC2': 7.59, 'temp': 26.81, 'lipoC3S3': 11.92, 'rot1': 0, 'rot0': 0, 'rot3': 0, 'rot2': 0, 'state': 'normal', 'yaw': 2.05, 'datetime': '2018-10-12 18:08:08.245685', 'mgs': 0, 'depth': -1.056, 'time': 11.22, 'pitch': -0.13, 'roll': -4.18}
{'lipoC2': 7.58, 'temp': 26.81, 'lipoC3S3': 11.9, 'rot1': 0, 'rot0': 0, 'rot3': 0, 'rot2': 0, 'state': 'normal', 'yaw': 2.48, 'datetime': '2018-10-12 18:08:08.253462', 'mgs': 0, 'depth': -1.132, 'time': 11.31, 'pitch': 0.23, 'roll': -4.84}
{'lipoC2': 7.58, 'temp': 26.88, 'lipoC3S3': 11.9, 'rot1': 0, 'rot0': 0, 'rot3': 0, 'rot2': 0, 'state': 'normal', 'yaw': 2.78, 'datetime': '2018-10-12 18:08:08.260834', 'mgs': 0, 'depth': -0.98, 'time': 11.41, 'pitch': -0.13, 'roll': -4.23}
{'lipoC2': 7.58, 'temp': 26.88, 'lipoC3S3': 11.92, 'rot1': 0, 'rot0': 0, 'rot3': 0, 'rot2': 0, 'state': 'normal', 'yaw': 2.91, 'datetime': '2018-10-12 18:08:08.268202', 'mgs': 0, 'depth': -1.056, 'time': 11.51, 'pitch': -0.0, 'roll': -4.63}
{'lipoC2': 7.58, 'temp': 26.88, 'lipoC3S3': 11.9, 'rot1': 0, 'rot0': 0, 'rot3': 0, 'rot2': 0, 'state': 'normal', 'yaw': 3.22, 'datetime': '2018-10-12 18:08:08.297058', 'mgs': 0, 'depth': -1.056, 'time': 11.6, 'pitch': 0.09, 'roll': -5.0}
{'lipoC2': 7.58, 'temp': 26.81, 'lipoC3S3': 11.9, 'rot1': 0, 'rot0': 0, 'rot3': 0, 'rot2': 0, 'state': 'normal', 'yaw': 3.52, 'datetime': '2018-10-12 18:08:08.394382', 'mgs': 0, 'depth': -1.056, 'time': 11.7, 'pitch': -0.15, 'roll': -4.85}
{'lipoC2': 7.58, 'temp': 26.81, 'lipoC3S3': 11.9, 'rot1': 0, 'rot0': 0, 'rot3': 0, 'rot2': 0, 'state': 'normal', 'yaw': 3.72, 'datetime': '2018-10-12 18:08:08.491491', 'mgs': 0, 'depth': -1.132, 'time': 11.8, 'pitch': -0.04, 'roll': -4.75}
{'lipoC2': 7.58, 'temp': 26.94, 'lipoC3S3': 11.9, 'rot1': 0, 'rot0': 0, 'rot3': 0, 'rot2': 0, 'state': 'normal', 'yaw': 3.78, 'datetime': '2018-10-12 18:08:08.588664', 'mgs': 0, 'depth': -0.98, 'time': 11.9, 'pitch': -0.12, 'roll': -4.34}
{'lipoC2': 7.58, 'temp': 26.94, 'lipoC3S3': 11.89, 'rot1': 0, 'rot0': 0, 'rot3': 0, 'rot2': 0, 'state': 'normal', 'yaw': 3.74, 'datetime': '2018-10-12 18:08:08.685827', 'mgs': 0, 'depth': -1.056, 'time': 11.99, 'pitch': 0.6, 'roll': -4.48}
{'lipoC2': 7.58, 'temp': 26.94, 'lipoC3S3': 11.9, 'rot1': 0, 'rot0': 0, 'rot3': 0, 'rot2': 0, 'state': 'normal', 'yaw': 3.68, 'datetime': '2018-10-12 18:08:08.784231', 'mgs': 0, 'depth': -1.132, 'time': 12.09, 'pitch': -0.13, 'roll': -3.62}
{'lipoC2': 7.58, 'temp': 26.88, 'lipoC3S3': 11.9, 'rot1': 0, 'rot0': 0, 'rot3': 0, 'rot2': 0, 'state': 'normal', 'yaw': 3.76, 'datetime': '2018-10-12 18:08:08.882648', 'mgs': 0, 'depth': -1.132, 'time': 12.19, 'pitch': -0.79, 'roll': -2.72}
{'lipoC2': 7.58, 'temp': 26.88, 'lipoC3S3': 11.9, 'rot1': 0, 'rot0': 0, 'rot3': 0, 'rot2': 0, 'state': 'normal', 'yaw': 3.72, 'datetime': '2018-10-12 18:08:08.980331', 'mgs': 0, 'depth': -1.132, 'time': 12.29, 'pitch': -0.08, 'roll': -3.07}
{'lipoC2': 7.58, 'temp': 26.88, 'lipoC3S3': 11.9, 'rot1': 0, 'rot0': 0, 'rot3': 0, 'rot2': 0, 'state': 'normal', 'yaw': 3.75, 'datetime': '2018-10-12 18:08:09.077523', 'mgs': 0, 'depth': -1.132, 'time': 12.39, 'pitch': -0.57, 'roll': -2.98}
{'lipoC2': 7.58, 'temp': 26.88, 'lipoC3S3': 11.9, 'rot1': 0, 'rot0': 0, 'rot3': 0, 'rot2': 0, 'state': 'normal', 'yaw': 3.53, 'datetime': '2018-10-12 18:08:09.175828', 'mgs': 0, 'depth': -1.132, 'time': 12.48, 'pitch': -0.32, 'roll': -2.89}
{'lipoC2': 7.58, 'temp': 26.88, 'lipoC3S3': 11.9, 'rot1': 0, 'rot0': 0, 'rot3': 0, 'rot2': 0, 'state': 'normal', 'yaw': 2.92, 'datetime': '2018-10-12 18:08:09.274240', 'mgs': 0, 'depth': -1.132, 'time': 12.58, 'pitch': -0.22, 'roll': -2.97}
{'lipoC2': 7.58, 'temp': 26.94, 'lipoC3S3': 11.9, 'rot1': 0, 'rot0': 0, 'rot3': 0, 'rot2': 0, 'state': 'normal', 'yaw': 2.28, 'datetime': '2018-10-12 18:08:09.371341', 'mgs': 0, 'depth': -1.132, 'time': 12.68, 'pitch': -0.36, 'roll': -2.51}
{'lipoC2': 7.58, 'temp': 26.94, 'lipoC3S3': 11.9, 'rot1': 0, 'rot0': 0, 'rot3': 0, 'rot2': 0, 'state': 'normal', 'yaw': 1.53, 'datetime': '2018-10-12 18:08:09.468532', 'mgs': 0, 'depth': -1.056, 'time': 12.78, 'pitch': -0.51, 'roll': -3.14}
{'lipoC2': 7.58, 'temp': 26.94, 'lipoC3S3': 11.9, 'rot1': 0, 'rot0': 0, 'rot3': 0, 'rot2': 0, 'state': 'normal', 'yaw': 1.36, 'datetime': '2018-10-12 18:08:09.566767', 'mgs': 0, 'depth': -0.98, 'time': 12.88, 'pitch': -0.19, 'roll': -3.13}
{'lipoC2': 7.58, 'temp': 26.94, 'lipoC3S3': 11.9, 'rot1': 0, 'rot0': 0, 'rot3': 0, 'rot2': 0, 'state': 'normal', 'yaw': 0.97, 'datetime': '2018-10-12 18:08:09.668256', 'mgs': 0, 'depth': -1.132, 'time': 12.97, 'pitch': -0.6, 'roll': -3.75}
{'lipoC2': 7.58, 'temp': 26.94, 'lipoC3S3': 11.9, 'rot1': 0, 'rot0': 0, 'rot3': 0, 'rot2': 0, 'state': 'normal', 'yaw': 0.5, 'datetime': '2018-10-12 18:08:09.766655', 'mgs': 0, 'depth': -1.208, 'time': 13.07, 'pitch': -0.68, 'roll': -2.58}
{'lipoC2': 7.58, 'temp': 26.94, 'lipoC3S3': 11.9, 'rot1': 0, 'rot0': 0, 'rot3': 0, 'rot2': 0, 'state': 'normal', 'yaw': -0.26, 'datetime': '2018-10-12 18:08:09.863768', 'mgs': 0, 'depth': -1.056, 'time': 13.17, 'pitch': -0.69, 'roll': -2.83}
{'lipoC2': 7.58, 'temp': 26.94, 'lipoC3S3': 11.89, 'rot1': 0, 'rot0': 0, 'rot3': 0, 'rot2': 0, 'state': 'normal', 'yaw': -1.06, 'datetime': '2018-10-12 18:08:09.960834', 'mgs': 0, 'depth': -1.056, 'time': 13.26, 'pitch': -0.89, 'roll': -3.75}
{'lipoC2': 7.58, 'temp': 26.88, 'lipoC3S3': 11.9, 'rot1': 0, 'rot0': 0, 'rot3': 0, 'rot2': 0, 'state': 'normal', 'yaw': -1.84, 'datetime': '2018-10-12 18:08:10.058206', 'mgs': 0, 'depth': -1.056, 'time': 13.36, 'pitch': -1.34, 'roll': -2.98}
{'lipoC2': 7.58, 'temp': 26.88, 'lipoC3S3': 11.9, 'rot1': 0, 'rot0': 0, 'rot3': 0, 'rot2': 0, 'state': 'normal', 'yaw': -2.11, 'datetime': '2018-10-12 18:08:10.155234', 'mgs': 0, 'depth': -1.132, 'time': 13.46, 'pitch': -2.11, 'roll': -2.04}
{'lipoC2': 7.58, 'temp': 26.88, 'lipoC3S3': 11.9, 'rot1': 0, 'rot0': 0, 'rot3': 0, 'rot2': 0, 'state': 'normal', 'yaw': -2.01, 'datetime': '2018-10-12 18:08:10.252270', 'mgs': 0, 'depth': -1.132, 'time': 13.56, 'pitch': -2.34, 'roll': -2.12}
{'lipoC2': 7.58, 'temp': 26.94, 'lipoC3S3': 11.9, 'rot1': 0, 'rot0': 0, 'rot3': 0, 'rot2': 0, 'state': 'normal', 'yaw': -1.55, 'datetime': '2018-10-12 18:08:10.349361', 'mgs': 0, 'depth': -1.056, 'time': 13.65, 'pitch': -0.98, 'roll': -2.45}
{'lipoC2': 7.58, 'temp': 26.94, 'lipoC3S3': 11.9, 'rot1': 0, 'rot0': 0, 'rot3': 0, 'rot2': 0, 'state': 'normal', 'yaw': -1.36, 'datetime': '2018-10-12 18:08:10.446432', 'mgs': 0, 'depth': -1.056, 'time': 13.75, 'pitch': -0.43, 'roll': -1.88}
{'lipoC2': 7.58, 'temp': 26.94, 'lipoC3S3': 11.89, 'rot1': 0, 'rot0': 0, 'rot3': 0, 'rot2': 0, 'state': 'normal', 'yaw': -1.31, 'datetime': '2018-10-12 18:08:10.555143', 'mgs': 0, 'depth': -1.056, 'time': 13.85, 'pitch': -2.17, 'roll': -2.19}
{'lipoC2': 7.58, 'temp': 26.94, 'lipoC3S3': 11.92, 'rot1': 0, 'rot0': 0, 'rot3': 0, 'rot2': 0, 'state': 'normal', 'yaw': -1.55, 'datetime': '2018-10-12 18:08:10.637288', 'mgs': 0, 'depth': -1.056, 'time': 13.95, 'pitch': -1.9, 'roll': -3.71}
{'lipoC2': 7.58, 'temp': 26.94, 'lipoC3S3': 11.9, 'rot1': 0, 'rot0': 0, 'rot3': 0, 'rot2': 0, 'state': 'normal', 'yaw': -1.83, 'datetime': '2018-10-12 18:08:10.746544', 'mgs': 0, 'depth': -1.056, 'time': 14.05, 'pitch': -0.16, 'roll': -4.22}
{'lipoC2': 7.58, 'temp': 26.94, 'lipoC3S3': 11.9, 'rot1': 0, 'rot0': 0, 'rot3': 0, 'rot2': 0, 'state': 'normal', 'yaw': -1.94, 'datetime': '2018-10-12 18:08:10.832679', 'mgs': 0, 'depth': -1.056, 'time': 14.14, 'pitch': -1.12, 'roll': -4.17}
{'lipoC2': 7.58, 'temp': 26.94, 'lipoC3S3': 11.9, 'rot1': 0, 'rot0': 0, 'rot3': 0, 'rot2': 0, 'state': 'normal', 'yaw': -1.69, 'datetime': '2018-10-12 18:08:10.929463', 'mgs': 0, 'depth': -1.056, 'time': 14.24, 'pitch': -0.66, 'roll': -4.46}
{'lipoC2': 7.58, 'temp': 26.88, 'lipoC3S3': 11.9, 'rot1': 0, 'rot0': 0, 'rot3': 0, 'rot2': 0, 'state': 'normal', 'yaw': -1.81, 'datetime': '2018-10-12 18:08:11.038350', 'mgs': 0, 'depth': -1.132, 'time': 14.34, 'pitch': -1.07, 'roll': -4.66}
{'lipoC2': 7.58, 'temp': 26.88, 'lipoC3S3': 11.9, 'rot1': 0, 'rot0': 0, 'rot3': 0, 'rot2': 0, 'state': 'normal', 'yaw': -1.8, 'datetime': '2018-10-12 18:08:11.126131', 'mgs': 0, 'depth': -1.056, 'time': 14.44, 'pitch': -1.04, 'roll': -4.55}
{'lipoC2': 7.58, 'temp': 26.88, 'lipoC3S3': 11.89, 'rot1': 0, 'rot0': 0, 'rot3': 0, 'rot2': 0, 'state': 'normal', 'yaw': -2.11, 'datetime': '2018-10-12 18:08:11.223243', 'mgs': 0, 'depth': -0.98, 'time': 14.53, 'pitch': -1.34, 'roll': -4.92}
{'lipoC2': 7.58, 'temp': 26.88, 'lipoC3S3': 11.9, 'rot1': 0, 'rot0': 0, 'rot3': 0, 'rot2': 0, 'state': 'normal', 'yaw': -1.94, 'datetime': '2018-10-12 18:08:11.335070', 'mgs': 0, 'depth': -1.056, 'time': 14.63, 'pitch': -0.42, 'roll': -5.23}
{'lipoC2': 7.58, 'temp': 26.88, 'lipoC3S3': 11.9, 'rot1': 0, 'rot0': 0, 'rot3': 0, 'rot2': 0, 'state': 'normal', 'yaw': -1.8, 'datetime': '2018-10-12 18:08:11.419884', 'mgs': 0, 'depth': -1.056, 'time': 14.73, 'pitch': -1.11, 'roll': -4.75}
{'lipoC2': 7.58, 'temp': 26.94, 'lipoC3S3': 11.9, 'rot1': 0, 'rot0': 0, 'rot3': 0, 'rot2': 0, 'state': 'normal', 'yaw': -1.31, 'datetime': '2018-10-12 18:08:11.515877', 'mgs': 0, 'depth': -1.056, 'time': 14.83, 'pitch': -1.08, 'roll': -4.46}
{'lipoC2': 7.58, 'temp': 26.94, 'lipoC3S3': 11.9, 'rot1': 0, 'rot0': 0, 'rot3': 0, 'rot2': 0, 'state': 'normal', 'yaw': -0.8, 'datetime': '2018-10-12 18:08:11.613066', 'mgs': 0, 'depth': -0.98, 'time': 14.92, 'pitch': -0.86, 'roll': -5.54}
{'lipoC2': 7.58, 'temp': 26.94, 'lipoC3S3': 11.9, 'rot1': 0, 'rot0': 0, 'rot3': 0, 'rot2': 0, 'state': 'normal', 'yaw': -0.86, 'datetime': '2018-10-12 18:08:11.710280', 'mgs': 0, 'depth': -1.056, 'time': 15.02, 'pitch': -0.98, 'roll': -4.85}
{'lipoC2': 7.58, 'temp': 26.88, 'lipoC3S3': 11.9, 'rot1': 0, 'rot0': 0, 'rot3': 0, 'rot2': 0, 'state': 'normal', 'yaw': -1.45, 'datetime': '2018-10-12 18:08:11.817460', 'mgs': 0, 'depth': -1.132, 'time': 15.12, 'pitch': -1.17, 'roll': -4.94}
{'lipoC2': 7.58, 'temp': 26.88, 'lipoC3S3': 11.9, 'rot1': 0, 'rot0': 0, 'rot3': 0, 'rot2': 0, 'state': 'normal', 'yaw': -2.41, 'datetime': '2018-10-12 18:08:11.904503', 'mgs': 0, 'depth': -1.056, 'time': 15.22, 'pitch': -0.97, 'roll': -4.92}
{'lipoC2': 7.58, 'temp': 26.88, 'lipoC3S3': 11.9, 'rot1': 0, 'rot0': 0, 'rot3': 0, 'rot2': 0, 'state': 'normal', 'yaw': -3.33, 'datetime': '2018-10-12 18:08:12.001611', 'mgs': 0, 'depth': -1.056, 'time': 15.31, 'pitch': -1.34, 'roll': -5.3}
{'lipoC2': 7.58, 'temp': 26.88, 'lipoC3S3': 11.9, 'rot1': 0, 'rot0': 0, 'rot3': 0, 'rot2': 0, 'state': 'normal', 'yaw': -3.7, 'datetime': '2018-10-12 18:08:12.103851', 'mgs': 0, 'depth': -1.132, 'time': 15.41, 'pitch': -1.96, 'roll': -5.97}
{'lipoC2': 7.58, 'temp': 26.88, 'lipoC3S3': 11.9, 'rot1': 0, 'rot0': 0, 'rot3': 0, 'rot2': 0, 'state': 'normal', 'yaw': -3.6, 'datetime': '2018-10-12 18:08:12.201316', 'mgs': 0, 'depth': -1.056, 'time': 15.51, 'pitch': -2.54, 'roll': -6.23}
{'lipoC2': 7.58, 'temp': 26.88, 'lipoC3S3': 11.89, 'rot1': 0, 'rot0': 0, 'rot3': 0, 'rot2': 0, 'state': 'normal', 'yaw': -3.33, 'datetime': '2018-10-12 18:08:12.298481', 'mgs': 0, 'depth': -1.056, 'time': 15.6, 'pitch': -3.03, 'roll': -6.77}
{'lipoC2': 7.58, 'temp': 26.88, 'lipoC3S3': 11.89, 'rot1': 0, 'rot0': 0, 'rot3': 0, 'rot2': 0, 'state': 'normal', 'yaw': -3.33, 'datetime': '2018-10-12 18:08:12.397162', 'mgs': 0, 'depth': -1.056, 'time': 15.7, 'pitch': -3.32, 'roll': -6.41}
{'lipoC2': 7.58, 'temp': 26.88, 'lipoC3S3': 11.9, 'rot1': 0, 'rot0': 0, 'rot3': 0, 'rot2': 0, 'state': 'normal', 'yaw': -3.59, 'datetime': '2018-10-12 18:08:12.495469', 'mgs': 0, 'depth': -1.132, 'time': 15.8, 'pitch': -2.71, 'roll': -5.73}
{'lipoC2': 7.58, 'temp': 26.88, 'lipoC3S3': 11.9, 'rot1': 0, 'rot0': 0, 'rot3': 0, 'rot2': 0, 'state': 'normal', 'yaw': -4.1, 'datetime': '2018-10-12 18:08:12.593531', 'mgs': 0, 'depth': -0.98, 'time': 15.9, 'pitch': -1.66, 'roll': -5.88}
{'lipoC2': 7.58, 'temp': 26.94, 'lipoC3S3': 11.9, 'rot1': 0, 'rot0': 0, 'rot3': 0, 'rot2': 0, 'state': 'normal', 'yaw': -4.11, 'datetime': '2018-10-12 18:08:12.690823', 'mgs': 0, 'depth': -1.132, 'time': 16.0, 'pitch': -1.72, 'roll': -4.68}
{'lipoC2': 7.58, 'temp': 26.94, 'lipoC3S3': 11.9, 'rot1': 0, 'rot0': 0, 'rot3': 0, 'rot2': 0, 'state': 'normal', 'yaw': -3.58, 'datetime': '2018-10-12 18:08:12.788278', 'mgs': 0, 'depth': -1.056, 'time': 16.09, 'pitch': -1.71, 'roll': -5.09}
{'lipoC2': 7.58, 'temp': 26.94, 'lipoC3S3': 11.9, 'rot1': 0, 'rot0': 0, 'rot3': 0, 'rot2': 0, 'state': 'normal', 'yaw': -2.49, 'datetime': '2018-10-12 18:08:12.886737', 'mgs': 0, 'depth': -1.056, 'time': 16.19, 'pitch': -1.53, 'roll': -4.79}
{'lipoC2': 7.58, 'temp': 26.94, 'lipoC3S3': 11.9, 'rot1': 0, 'rot0': 0, 'rot3': 0, 'rot2': 0, 'state': 'normal', 'yaw': -0.89, 'datetime': '2018-10-12 18:08:12.985985', 'mgs': 0, 'depth': -1.056, 'time': 16.29, 'pitch': -1.88, 'roll': -4.86}
{'lipoC2': 7.58, 'temp': 26.94, 'lipoC3S3': 11.89, 'rot1': 0, 'rot0': 0, 'rot3': 0, 'rot2': 0, 'state': 'normal', 'yaw': 0.86, 'datetime': '2018-10-12 18:08:13.083197', 'mgs': 0, 'depth': -1.056, 'time': 16.39, 'pitch': -1.93, 'roll': -5.37}
{'lipoC2': 7.58, 'temp': 26.94, 'lipoC3S3': 11.9, 'rot1': 0, 'rot0': 0, 'rot3': 0, 'rot2': 0, 'state': 'normal', 'yaw': 2.32, 'datetime': '2018-10-12 18:08:13.179688', 'mgs': 0, 'depth': -1.056, 'time': 16.49, 'pitch': -1.69, 'roll': -5.8}
{'lipoC2': 7.58, 'temp': 26.94, 'lipoC3S3': 11.9, 'rot1': 0, 'rot0': 0, 'rot3': 0, 'rot2': 0, 'state': 'normal', 'yaw': 3.58, 'datetime': '2018-10-12 18:08:13.277978', 'mgs': 0, 'depth': -1.056, 'time': 16.58, 'pitch': -1.11, 'roll': -6.34}
{'lipoC2': 7.58, 'temp': 26.94, 'lipoC3S3': 11.9, 'rot1': 0, 'rot0': 0, 'rot3': 0, 'rot2': 0, 'state': 'normal', 'yaw': 4.32, 'datetime': '2018-10-12 18:08:13.375311', 'mgs': 0, 'depth': -1.056, 'time': 16.68, 'pitch': -0.63, 'roll': -6.88}
{'lipoC2': 7.58, 'temp': 26.94, 'lipoC3S3': 11.89, 'rot1': 0, 'rot0': 0, 'rot3': 0, 'rot2': 0, 'state': 'normal', 'yaw': 4.12, 'datetime': '2018-10-12 18:08:13.471989', 'mgs': 0, 'depth': -1.056, 'time': 16.78, 'pitch': -0.64, 'roll': -6.63}
{'lipoC2': 7.58, 'temp': 26.94, 'lipoC3S3': 11.9, 'rot1': 0, 'rot0': 0, 'rot3': 0, 'rot2': 0, 'state': 'normal', 'yaw': 3.31, 'datetime': '2018-10-12 18:08:13.569352', 'mgs': 0, 'depth': -1.056, 'time': 16.88, 'pitch': -0.57, 'roll': -6.85}
{'lipoC2': 7.59, 'temp': 26.94, 'lipoC3S3': 11.9, 'rot1': 0, 'rot0': 0, 'rot3': 0, 'rot2': 0, 'state': 'normal', 'yaw': 2.38, 'datetime': '2018-10-12 18:08:13.666601', 'mgs': 0, 'depth': -1.056, 'time': 16.97, 'pitch': -0.66, 'roll': -6.78}
{'lipoC2': 7.58, 'temp': 26.94, 'lipoC3S3': 11.9, 'rot1': 0, 'rot0': 0, 'rot3': 0, 'rot2': 0, 'state': 'normal', 'yaw': 1.99, 'datetime': '2018-10-12 18:08:13.763740', 'mgs': 0, 'depth': -1.132, 'time': 17.07, 'pitch': -0.31, 'roll': -6.75}
{'lipoC2': 7.58, 'temp': 26.94, 'lipoC3S3': 11.9, 'rot1': 0, 'rot0': 0, 'rot3': 0, 'rot2': 0, 'state': 'normal', 'yaw': 1.65, 'datetime': '2018-10-12 18:08:13.860566', 'mgs': 0, 'depth': -1.132, 'time': 17.17, 'pitch': -0.4, 'roll': -6.76}
{'lipoC2': 7.58, 'temp': 26.94, 'lipoC3S3': 11.9, 'rot1': 0, 'rot0': 0, 'rot3': 0, 'rot2': 0, 'state': 'normal', 'yaw': 1.82, 'datetime': '2018-10-12 18:08:13.957728', 'mgs': 0, 'depth': -1.056, 'time': 17.26, 'pitch': -0.32, 'roll': -6.71}
{'lipoC2': 7.58, 'temp': 26.94, 'lipoC3S3': 11.9, 'rot1': 0, 'rot0': 0, 'rot3': 0, 'rot2': 0, 'state': 'normal', 'yaw': 2.34, 'datetime': '2018-10-12 18:08:14.054804', 'mgs': 0, 'depth': -1.056, 'time': 17.36, 'pitch': -0.42, 'roll': -6.57}
{'lipoC2': 7.58, 'temp': 26.94, 'lipoC3S3': 11.89, 'rot1': 0, 'rot0': 0, 'rot3': 0, 'rot2': 0, 'state': 'normal', 'yaw': 3.15, 'datetime': '2018-10-12 18:08:14.153816', 'mgs': 0, 'depth': -1.056, 'time': 17.46, 'pitch': -0.42, 'roll': -6.68}
{'lipoC2': 7.58, 'temp': 26.94, 'lipoC3S3': 11.9, 'rot1': 0, 'rot0': 0, 'rot3': 0, 'rot2': 0, 'state': 'normal', 'yaw': 4.02, 'datetime': '2018-10-12 18:08:14.250615', 'mgs': 0, 'depth': -1.132, 'time': 17.56, 'pitch': -0.27, 'roll': -6.63}
{'lipoC2': 7.58, 'temp': 26.94, 'lipoC3S3': 11.9, 'rot1': 0, 'rot0': 0, 'rot3': 0, 'rot2': 0, 'state': 'normal', 'yaw': 4.73, 'datetime': '2018-10-12 18:08:14.348937', 'mgs': 0, 'depth': -1.132, 'time': 17.66, 'pitch': -0.36, 'roll': -6.51}
{'lipoC2': 7.58, 'temp': 26.94, 'lipoC3S3': 11.9, 'rot1': 0, 'rot0': 0, 'rot3': 0, 'rot2': 0, 'state': 'normal', 'yaw': 5.24, 'datetime': '2018-10-12 18:08:14.446063', 'mgs': 0, 'depth': -1.056, 'time': 17.75, 'pitch': -0.32, 'roll': -6.31}
{'lipoC2': 7.58, 'temp': 26.94, 'lipoC3S3': 11.9, 'rot1': 0, 'rot0': 0, 'rot3': 0, 'rot2': 0, 'state': 'normal', 'yaw': 5.83, 'datetime': '2018-10-12 18:08:14.543106', 'mgs': 0, 'depth': -1.056, 'time': 17.85, 'pitch': -0.22, 'roll': -5.46}
{'lipoC2': 7.58, 'temp': 26.94, 'lipoC3S3': 11.9, 'rot1': 0, 'rot0': 0, 'rot3': 0, 'rot2': 0, 'state': 'normal', 'yaw': 6.4, 'datetime': '2018-10-12 18:08:14.641563', 'mgs': 0, 'depth': -1.056, 'time': 17.95, 'pitch': -0.39, 'roll': -4.72}
{'lipoC2': 7.58, 'temp': 26.94, 'lipoC3S3': 11.9, 'rot1': 0, 'rot0': 0, 'rot3': 0, 'rot2': 0, 'state': 'normal', 'yaw': 6.84, 'datetime': '2018-10-12 18:08:14.739721', 'mgs': 0, 'depth': -1.132, 'time': 18.05, 'pitch': -0.15, 'roll': -4.37}
{'lipoC2': 7.58, 'temp': 26.94, 'lipoC3S3': 11.89, 'rot1': 0, 'rot0': 0, 'rot3': 0, 'rot2': 0, 'state': 'normal', 'yaw': 7.02, 'datetime': '2018-10-12 18:08:14.837183', 'mgs': 0, 'depth': -1.056, 'time': 18.15, 'pitch': -0.31, 'roll': -4.7}
{'lipoC2': 7.58, 'temp': 26.94, 'lipoC3S3': 11.9, 'rot1': 0, 'rot0': 0, 'rot3': 0, 'rot2': 0, 'state': 'normal', 'yaw': 6.91, 'datetime': '2018-10-12 18:08:14.934260', 'mgs': 0, 'depth': -1.056, 'time': 18.24, 'pitch': -0.39, 'roll': -4.42}
{'lipoC2': 7.58, 'temp': 26.94, 'lipoC3S3': 11.9, 'rot1': 0, 'rot0': 0, 'rot3': 0, 'rot2': 0, 'state': 'normal', 'yaw': 6.42, 'datetime': '2018-10-12 18:08:15.032171', 'mgs': 0, 'depth': -1.132, 'time': 18.34, 'pitch': -0.53, 'roll': -4.47}
{'lipoC2': 7.58, 'temp': 26.94, 'lipoC3S3': 11.9, 'rot1': 0, 'rot0': 0, 'rot3': 0, 'rot2': 0, 'state': 'normal', 'yaw': 5.54, 'datetime': '2018-10-12 18:08:15.130496', 'mgs': 0, 'depth': -1.056, 'time': 18.44, 'pitch': -0.33, 'roll': -4.62}
{'lipoC2': 7.58, 'temp': 26.94, 'lipoC3S3': 11.9, 'rot1': 0, 'rot0': 0, 'rot3': 0, 'rot2': 0, 'state': 'normal', 'yaw': 4.23, 'datetime': '2018-10-12 18:08:15.227623', 'mgs': 0, 'depth': -1.132, 'time': 18.54, 'pitch': -0.52, 'roll': -4.38}
{'lipoC2': 7.58, 'temp': 26.94, 'lipoC3S3': 11.9, 'rot1': 0, 'rot0': 0, 'rot3': 0, 'rot2': 0, 'state': 'normal', 'yaw': 2.99, 'datetime': '2018-10-12 18:08:15.324744', 'mgs': 0, 'depth': -1.132, 'time': 18.63, 'pitch': -0.59, 'roll': -4.68}
{'lipoC2': 7.58, 'temp': 26.94, 'lipoC3S3': 11.9, 'rot1': 0, 'rot0': 0, 'rot3': 0, 'rot2': 0, 'state': 'normal', 'yaw': 2.08, 'datetime': '2018-10-12 18:08:15.421842', 'mgs': 0, 'depth': -1.056, 'time': 18.73, 'pitch': -1.28, 'roll': -5.26}
{'lipoC2': 7.58, 'temp': 26.94, 'lipoC3S3': 11.89, 'rot1': 0, 'rot0': 0, 'rot3': 0, 'rot2': 0, 'state': 'normal', 'yaw': 1.69, 'datetime': '2018-10-12 18:08:15.518946', 'mgs': 0, 'depth': -1.056, 'time': 18.83, 'pitch': -1.48, 'roll': -5.09}
{'lipoC2': 7.58, 'temp': 26.94, 'lipoC3S3': 11.9, 'rot1': 0, 'rot0': 0, 'rot3': 0, 'rot2': 0, 'state': 'normal', 'yaw': 1.6, 'datetime': '2018-10-12 18:08:15.616028', 'mgs': 0, 'depth': -1.056, 'time': 18.92, 'pitch': -0.98, 'roll': -4.79}
{'lipoC2': 7.58, 'temp': 26.94, 'lipoC3S3': 11.89, 'rot1': 0, 'rot0': 0, 'rot3': 0, 'rot2': 0, 'state': 'normal', 'yaw': 1.66, 'datetime': '2018-10-12 18:08:15.713268', 'mgs': 0, 'depth': -1.056, 'time': 19.02, 'pitch': -0.66, 'roll': -4.76}
{'lipoC2': 7.58, 'temp': 26.94, 'lipoC3S3': 11.9, 'rot1': 0, 'rot0': 0, 'rot3': 0, 'rot2': 0, 'state': 'normal', 'yaw': 1.94, 'datetime': '2018-10-12 18:08:15.810404', 'mgs': 0, 'depth': -1.132, 'time': 19.12, 'pitch': -0.76, 'roll': -4.7}
{'lipoC2': 7.58, 'temp': 26.94, 'lipoC3S3': 11.9, 'rot1': 0, 'rot0': 0, 'rot3': 0, 'rot2': 0, 'state': 'normal', 'yaw': 2.01, 'datetime': '2018-10-12 18:08:15.907530', 'mgs': 0, 'depth': -1.056, 'time': 19.22, 'pitch': -1.07, 'roll': -5.02}
{'lipoC2': 7.58, 'temp': 26.94, 'lipoC3S3': 11.9, 'rot1': 0, 'rot0': 0, 'rot3': 0, 'rot2': 0, 'state': 'normal', 'yaw': 1.9, 'datetime': '2018-10-12 18:08:16.004619', 'mgs': 0, 'depth': -1.056, 'time': 19.31, 'pitch': -1.01, 'roll': -5.29}
{'lipoC2': 7.58, 'temp': 26.94, 'lipoC3S3': 11.9, 'rot1': 0, 'rot0': 0, 'rot3': 0, 'rot2': 0, 'state': 'normal', 'yaw': 1.91, 'datetime': '2018-10-12 18:08:16.103316', 'mgs': 0, 'depth': -1.056, 'time': 19.41, 'pitch': -0.86, 'roll': -4.96}
{'lipoC2': 7.58, 'temp': 26.94, 'lipoC3S3': 11.9, 'rot1': 0, 'rot0': 0, 'rot3': 0, 'rot2': 0, 'state': 'normal', 'yaw': 2.06, 'datetime': '2018-10-12 18:08:16.201465', 'mgs': 0, 'depth': -1.056, 'time': 19.51, 'pitch': -1.0, 'roll': -4.63}
{'lipoC2': 7.58, 'temp': 26.94, 'lipoC3S3': 11.9, 'rot1': 0, 'rot0': 0, 'rot3': 0, 'rot2': 0, 'state': 'normal', 'yaw': 2.08, 'datetime': '2018-10-12 18:08:16.298552', 'mgs': 0, 'depth': -1.056, 'time': 19.61, 'pitch': -1.44, 'roll': -4.4}
{'lipoC2': 7.58, 'temp': 26.88, 'lipoC3S3': 11.9, 'rot1': 0, 'rot0': 0, 'rot3': 0, 'rot2': 0, 'state': 'normal', 'yaw': 2.25, 'datetime': '2018-10-12 18:08:16.395633', 'mgs': 0, 'depth': -1.056, 'time': 19.7, 'pitch': -1.67, 'roll': -4.13}
{'lipoC2': 7.58, 'temp': 26.88, 'lipoC3S3': 11.9, 'rot1': 0, 'rot0': 0, 'rot3': 0, 'rot2': 0, 'state': 'normal', 'yaw': 2.44, 'datetime': '2018-10-12 18:08:16.493988', 'mgs': 0, 'depth': -0.903, 'time': 19.81, 'pitch': -1.61, 'roll': -4.67}
{'lipoC2': 7.58, 'temp': 26.94, 'lipoC3S3': 11.9, 'rot1': 0, 'rot0': 0, 'rot3': 0, 'rot2': 0, 'state': 'normal', 'yaw': 2.5, 'datetime': '2018-10-12 18:08:16.592442', 'mgs': 0, 'depth': -0.903, 'time': 19.9, 'pitch': -1.48, 'roll': -4.77}
{'lipoC2': 7.58, 'temp': 26.94, 'lipoC3S3': 11.9, 'rot1': 0, 'rot0': 0, 'rot3': 0, 'rot2': 0, 'state': 'normal', 'yaw': 2.27, 'datetime': '2018-10-12 18:08:16.689624', 'mgs': 0, 'depth': -0.827, 'time': 20.0, 'pitch': -1.49, 'roll': -5.21}
{'lipoC2': 7.58, 'temp': 26.94, 'lipoC3S3': 11.9, 'rot1': 0, 'rot0': 0, 'rot3': 0, 'rot2': 0, 'state': 'normal', 'yaw': 1.7, 'datetime': '2018-10-12 18:08:16.787696', 'mgs': 0, 'depth': -0.751, 'time': 20.1, 'pitch': -1.62, 'roll': -5.78}
{'lipoC2': 7.58, 'temp': 26.94, 'lipoC3S3': 11.9, 'rot1': 0, 'rot0': 0, 'rot3': 0, 'rot2': 0, 'state': 'normal', 'yaw': 1.06, 'datetime': '2018-10-12 18:08:16.883758', 'mgs': 0, 'depth': -0.598, 'time': 20.19, 'pitch': -1.67, 'roll': -6.24}
{'lipoC2': 7.58, 'temp': 26.94, 'lipoC3S3': 11.9, 'rot1': 0, 'rot0': 0, 'rot3': 0, 'rot2': 0, 'state': 'normal', 'yaw': 0.58, 'datetime': '2018-10-12 18:08:16.980859', 'mgs': 0, 'depth': -0.522, 'time': 20.29, 'pitch': -1.7, 'roll': -7.71}
{'lipoC2': 7.58, 'temp': 26.94, 'lipoC3S3': 11.9, 'rot1': 0, 'rot0': 0, 'rot3': 0, 'rot2': 0, 'state': 'normal', 'yaw': 0.25, 'datetime': '2018-10-12 18:08:17.078095', 'mgs': 0, 'depth': -0.293, 'time': 20.39, 'pitch': -1.39, 'roll': -8.57}
{'lipoC2': 7.58, 'temp': 26.94, 'lipoC3S3': 11.9, 'rot1': 0, 'rot0': 0, 'rot3': 0, 'rot2': 0, 'state': 'normal', 'yaw': 0.03, 'datetime': '2018-10-12 18:08:17.175060', 'mgs': 0, 'depth': -0.369, 'time': 20.49, 'pitch': -1.03, 'roll': -8.85}
{'lipoC2': 7.58, 'temp': 26.94, 'lipoC3S3': 11.9, 'rot1': 0, 'rot0': 0, 'rot3': 0, 'rot2': 0, 'state': 'normal', 'yaw': -0.42, 'datetime': '2018-10-12 18:08:17.272159', 'mgs': 0, 'depth': -0.522, 'time': 20.58, 'pitch': -0.9, 'roll': -7.91}
{'lipoC2': 7.58, 'temp': 26.94, 'lipoC3S3': 11.9, 'rot1': 0, 'rot0': 0, 'rot3': 0, 'rot2': 0, 'state': 'normal', 'yaw': -0.9, 'datetime': '2018-10-12 18:08:17.369606', 'mgs': 0, 'depth': -0.446, 'time': 20.68, 'pitch': -1.19, 'roll': -7.72}
{'lipoC2': 7.58, 'temp': 26.94, 'lipoC3S3': 11.9, 'rot1': 0, 'rot0': 0, 'rot3': 0, 'rot2': 0, 'state': 'normal', 'yaw': -1.1, 'datetime': '2018-10-12 18:08:17.465465', 'mgs': 0, 'depth': -0.446, 'time': 20.78, 'pitch': -1.36, 'roll': -7.67}
{'lipoC2': 7.58, 'temp': 26.88, 'lipoC3S3': 11.9, 'rot1': 0, 'rot0': 0, 'rot3': 0, 'rot2': 0, 'state': 'normal', 'yaw': -0.55, 'datetime': '2018-10-12 18:08:17.567159', 'mgs': 0, 'depth': -0.446, 'time': 20.88, 'pitch': -1.22, 'roll': -7.53}
{'lipoC2': 7.58, 'temp': 26.88, 'lipoC3S3': 11.9, 'rot1': 0, 'rot0': 0, 'rot3': 0, 'rot2': 0, 'state': 'normal', 'yaw': 0.44, 'datetime': '2018-10-12 18:08:17.660997', 'mgs': 0, 'depth': -0.446, 'time': 20.97, 'pitch': -1.1, 'roll': -7.3}
{'lipoC2': 7.58, 'temp': 26.88, 'lipoC3S3': 11.9, 'rot1': 0, 'rot0': 0, 'rot3': 0, 'rot2': 0, 'state': 'normal', 'yaw': 1.67, 'datetime': '2018-10-12 18:08:17.758006', 'mgs': 0, 'depth': -0.446, 'time': 21.07, 'pitch': -0.75, 'roll': -7.2}
{'lipoC2': 7.58, 'temp': 26.88, 'lipoC3S3': 11.9, 'rot1': 0, 'rot0': 0, 'rot3': 0, 'rot2': 0, 'state': 'normal', 'yaw': 2.78, 'datetime': '2018-10-12 18:08:17.856323', 'mgs': 0, 'depth': -0.446, 'time': 21.17, 'pitch': -0.5, 'roll': -7.12}
{'lipoC2': 7.58, 'temp': 26.88, 'lipoC3S3': 11.89, 'rot1': 0, 'rot0': 0, 'rot3': 0, 'rot2': 0, 'state': 'normal', 'yaw': 3.81, 'datetime': '2018-10-12 18:08:17.953495', 'mgs': 0, 'depth': -0.446, 'time': 21.26, 'pitch': -0.24, 'roll': -7.08}
{'lipoC2': 7.58, 'temp': 26.88, 'lipoC3S3': 11.89, 'rot1': 0, 'rot0': 0, 'rot3': 0, 'rot2': 0, 'state': 'normal', 'yaw': 4.65, 'datetime': '2018-10-12 18:08:18.050611', 'mgs': 0, 'depth': -0.446, 'time': 21.36, 'pitch': 0.06, 'roll': -6.89}
{'lipoC2': 7.58, 'temp': 26.88, 'lipoC3S3': 11.9, 'rot1': 0, 'rot0': 0, 'rot3': 0, 'rot2': 0, 'state': 'normal', 'yaw': 5.34, 'datetime': '2018-10-12 18:08:18.148103', 'mgs': 0, 'depth': -0.598, 'time': 21.46, 'pitch': 0.31, 'roll': -6.51}
{'lipoC2': 7.58, 'temp': 26.88, 'lipoC3S3': 11.9, 'rot1': 0, 'rot0': 0, 'rot3': 0, 'rot2': 0, 'state': 'normal', 'yaw': 6.02, 'datetime': '2018-10-12 18:08:18.246463', 'mgs': 0, 'depth': -0.522, 'time': 21.56, 'pitch': 0.61, 'roll': -5.81}
{'lipoC2': 7.58, 'temp': 26.94, 'lipoC3S3': 11.9, 'rot1': 0, 'rot0': 0, 'rot3': 0, 'rot2': 0, 'state': 'normal', 'yaw': 6.6, 'datetime': '2018-10-12 18:08:18.343779', 'mgs': 0, 'depth': -0.522, 'time': 21.66, 'pitch': 0.84, 'roll': -5.59}
{'lipoC2': 7.58, 'temp': 26.94, 'lipoC3S3': 11.9, 'rot1': 0, 'rot0': 0, 'rot3': 0, 'rot2': 0, 'state': 'normal', 'yaw': 6.99, 'datetime': '2018-10-12 18:08:18.440924', 'mgs': 0, 'depth': -0.598, 'time': 21.75, 'pitch': 1.04, 'roll': -6.05}
{'lipoC2': 7.58, 'temp': 26.88, 'lipoC3S3': 11.89, 'rot1': 0, 'rot0': 0, 'rot3': 0, 'rot2': 0, 'state': 'normal', 'yaw': 7.26, 'datetime': '2018-10-12 18:08:18.538629', 'mgs': 0, 'depth': -0.598, 'time': 21.85, 'pitch': 1.1, 'roll': -6.83}
{'lipoC2': 7.58, 'temp': 26.88, 'lipoC3S3': 11.9, 'rot1': 0, 'rot0': 0, 'rot3': 0, 'rot2': 0, 'state': 'normal', 'yaw': 7.68, 'datetime': '2018-10-12 18:08:18.637145', 'mgs': 0, 'depth': -0.598, 'time': 21.95, 'pitch': 0.67, 'roll': -7.97}
{'lipoC2': 7.58, 'temp': 26.88, 'lipoC3S3': 11.89, 'rot1': 0, 'rot0': 0, 'rot3': 0, 'rot2': 0, 'state': 'normal', 'yaw': 7.87, 'datetime': '2018-10-12 18:08:18.735436', 'mgs': 0, 'depth': -0.674, 'time': 22.05, 'pitch': 0.57, 'roll': -8.65}
{'lipoC2': 7.58, 'temp': 27.0, 'lipoC3S3': 11.9, 'rot1': 0, 'rot0': 0, 'rot3': 0, 'rot2': 0, 'state': 'normal', 'yaw': 7.94, 'datetime': '2018-10-12 18:08:18.832544', 'mgs': 0, 'depth': -0.674, 'time': 22.15, 'pitch': 0.58, 'roll': -8.3}
{'lipoC2': 7.58, 'temp': 27.0, 'lipoC3S3': 11.9, 'rot1': 0, 'rot0': 0, 'rot3': 0, 'rot2': 0, 'state': 'normal', 'yaw': 7.74, 'datetime': '2018-10-12 18:08:18.929669', 'mgs': 0, 'depth': -0.751, 'time': 22.24, 'pitch': 0.75, 'roll': -8.24}
{'lipoC2': 7.58, 'temp': 26.94, 'lipoC3S3': 11.9, 'rot1': 0, 'rot0': 0, 'rot3': 0, 'rot2': 0, 'state': 'normal', 'yaw': 7.44, 'datetime': '2018-10-12 18:08:19.026693', 'mgs': 0, 'depth': -0.827, 'time': 22.34, 'pitch': 0.83, 'roll': -8.41}
{'lipoC2': 7.58, 'temp': 26.94, 'lipoC3S3': 11.9, 'rot1': 0, 'rot0': 0, 'rot3': 0, 'rot2': 0, 'state': 'normal', 'yaw': 7.32, 'datetime': '2018-10-12 18:08:19.124118', 'mgs': 0, 'depth': -0.827, 'time': 22.44, 'pitch': 0.55, 'roll': -8.31}
{'lipoC2': 7.58, 'temp': 26.94, 'lipoC3S3': 11.9, 'rot1': 0, 'rot0': 0, 'rot3': 0, 'rot2': 0, 'state': 'normal', 'yaw': 7.24, 'datetime': '2018-10-12 18:08:19.221020', 'mgs': 0, 'depth': -0.827, 'time': 22.53, 'pitch': 0.56, 'roll': -8.34}
{'lipoC2': 7.58, 'temp': 26.94, 'lipoC3S3': 11.9, 'rot1': 0, 'rot0': 0, 'rot3': 0, 'rot2': 0, 'state': 'normal', 'yaw': 7.33, 'datetime': '2018-10-12 18:08:19.318115', 'mgs': 0, 'depth': -0.827, 'time': 22.63, 'pitch': 0.59, 'roll': -8.44}
{'lipoC2': 7.58, 'temp': 26.94, 'lipoC3S3': 11.89, 'rot1': 0, 'rot0': 0, 'rot3': 0, 'rot2': 0, 'state': 'normal', 'yaw': 7.46, 'datetime': '2018-10-12 18:08:19.415256', 'mgs': 0, 'depth': -0.751, 'time': 22.73, 'pitch': 0.6, 'roll': -8.67}
{'lipoC2': 7.58, 'temp': 26.94, 'lipoC3S3': 11.9, 'rot1': 0, 'rot0': 0, 'rot3': 0, 'rot2': 0, 'state': 'normal', 'yaw': 7.48, 'datetime': '2018-10-12 18:08:19.512384', 'mgs': 0, 'depth': -0.827, 'time': 22.83, 'pitch': 0.52, 'roll': -8.65}
{'lipoC2': 7.58, 'temp': 26.94, 'lipoC3S3': 11.9, 'rot1': 0, 'rot0': 0, 'rot3': 0, 'rot2': 0, 'state': 'normal', 'yaw': 7.38, 'datetime': '2018-10-12 18:08:19.610557', 'mgs': 0, 'depth': -0.827, 'time': 22.92, 'pitch': 0.48, 'roll': -8.68}
{'lipoC2': 7.58, 'temp': 26.94, 'lipoC3S3': 11.9, 'rot1': 0, 'rot0': 0, 'rot3': 0, 'rot2': 0, 'state': 'normal', 'yaw': 7.31, 'datetime': '2018-10-12 18:08:19.708966', 'mgs': 0, 'depth': -0.903, 'time': 23.02, 'pitch': 0.52, 'roll': -8.53}
{'lipoC2': 7.58, 'temp': 26.94, 'lipoC3S3': 11.9, 'rot1': 0, 'rot0': 0, 'rot3': 0, 'rot2': 0, 'state': 'normal', 'yaw': 7.32, 'datetime': '2018-10-12 18:08:19.806293', 'mgs': 0, 'depth': -0.903, 'time': 23.12, 'pitch': 0.49, 'roll': -8.69}
{'lipoC2': 7.58, 'temp': 26.94, 'lipoC3S3': 11.9, 'rot1': 0, 'rot0': 0, 'rot3': 0, 'rot2': 0, 'state': 'normal', 'yaw': 7.41, 'datetime': '2018-10-12 18:08:19.903355', 'mgs': 0, 'depth': -0.827, 'time': 23.22, 'pitch': 0.57, 'roll': -8.97}
{'lipoC2': 7.58, 'temp': 26.94, 'lipoC3S3': 11.9, 'rot1': 0, 'rot0': 0, 'rot3': 0, 'rot2': 0, 'state': 'normal', 'yaw': 7.48, 'datetime': '2018-10-12 18:08:20.001151', 'mgs': 0, 'depth': -0.751, 'time': 23.32, 'pitch': 0.67, 'roll': -8.97}
{'lipoC2': 7.58, 'temp': 26.94, 'lipoC3S3': 11.9, 'rot1': 0, 'rot0': 0, 'rot3': 0, 'rot2': 0, 'state': 'normal', 'yaw': 7.36, 'datetime': '2018-10-12 18:08:20.099477', 'mgs': 0, 'depth': -0.827, 'time': 23.41, 'pitch': 0.74, 'roll': -9.24}
{'lipoC2': 7.58, 'temp': 26.94, 'lipoC3S3': 11.89, 'rot1': 0, 'rot0': 0, 'rot3': 0, 'rot2': 0, 'state': 'normal', 'yaw': 6.98, 'datetime': '2018-10-12 18:08:20.196628', 'mgs': 0, 'depth': -0.751, 'time': 23.51, 'pitch': 0.44, 'roll': -9.24}
{'lipoC2': 7.58, 'temp': 26.94, 'lipoC3S3': 11.9, 'rot1': 0, 'rot0': 0, 'rot3': 0, 'rot2': 0, 'state': 'normal', 'yaw': 6.5, 'datetime': '2018-10-12 18:08:20.292044', 'mgs': 0, 'depth': -0.751, 'time': 23.61, 'pitch': 0.32, 'roll': -8.71}
{'lipoC2': 7.58, 'temp': 26.94, 'lipoC3S3': 11.9, 'rot1': 0, 'rot0': 0, 'rot3': 0, 'rot2': 0, 'state': 'normal', 'yaw': 6.06, 'datetime': '2018-10-12 18:08:20.392022', 'mgs': 0, 'depth': -0.751, 'time': 23.71, 'pitch': 0.39, 'roll': -9.17}
{'lipoC2': 7.59, 'temp': 26.88, 'lipoC3S3': 11.9, 'rot1': 0, 'rot0': 0, 'rot3': 0, 'rot2': 0, 'state': 'normal', 'yaw': 5.64, 'datetime': '2018-10-12 18:08:20.490049', 'mgs': 0, 'depth': -0.751, 'time': 23.8, 'pitch': 0.37, 'roll': -9.49}
{'lipoC2': 7.58, 'temp': 26.88, 'lipoC3S3': 11.9, 'rot1': 0, 'rot0': 0, 'rot3': 0, 'rot2': 0, 'state': 'normal', 'yaw': 5.29, 'datetime': '2018-10-12 18:08:20.588651', 'mgs': 0, 'depth': -0.751, 'time': 23.9, 'pitch': 0.14, 'roll': -9.13}
{'lipoC2': 7.58, 'temp': 26.94, 'lipoC3S3': 11.9, 'rot1': 0, 'rot0': 0, 'rot3': 0, 'rot2': 0, 'state': 'normal', 'yaw': 5.07, 'datetime': '2018-10-12 18:08:20.684257', 'mgs': 0, 'depth': -0.751, 'time': 24.0, 'pitch': 0.23, 'roll': -9.34}
{'lipoC2': 7.58, 'temp': 26.94, 'lipoC3S3': 11.9, 'rot1': 0, 'rot0': 0, 'rot3': 0, 'rot2': 0, 'state': 'normal', 'yaw': 4.93, 'datetime': '2018-10-12 18:08:20.781374', 'mgs': 0, 'depth': -0.751, 'time': 24.1, 'pitch': 0.25, 'roll': -9.61}
{'lipoC2': 7.58, 'temp': 26.94, 'lipoC3S3': 11.9, 'rot1': 0, 'rot0': 0, 'rot3': 0, 'rot2': 0, 'state': 'normal', 'yaw': 4.9, 'datetime': '2018-10-12 18:08:20.879398', 'mgs': 0, 'depth': -0.751, 'time': 24.19, 'pitch': 0.27, 'roll': -9.58}
{'lipoC2': 7.58, 'temp': 26.88, 'lipoC3S3': 11.9, 'rot1': 0, 'rot0': 0, 'rot3': 0, 'rot2': 0, 'state': 'normal', 'yaw': 4.99, 'datetime': '2018-10-12 18:08:20.976707', 'mgs': 0, 'depth': -0.827, 'time': 24.29, 'pitch': 0.38, 'roll': -9.63}
{'lipoC2': 7.58, 'temp': 26.88, 'lipoC3S3': 11.89, 'rot1': 0, 'rot0': 0, 'rot3': 0, 'rot2': 0, 'state': 'normal', 'yaw': 5.14, 'datetime': '2018-10-12 18:08:21.072089', 'mgs': 0, 'depth': -0.674, 'time': 24.39, 'pitch': 0.4, 'roll': -9.8}
{'lipoC2': 7.58, 'temp': 26.94, 'lipoC3S3': 11.9, 'rot1': 0, 'rot0': 0, 'rot3': 0, 'rot2': 0, 'state': 'normal', 'yaw': 5.23, 'datetime': '2018-10-12 18:08:21.171312', 'mgs': 0, 'depth': -0.674, 'time': 24.49, 'pitch': 0.37, 'roll': -10.02}
{'lipoC2': 7.58, 'temp': 26.94, 'lipoC3S3': 11.9, 'rot1': 0, 'rot0': 0, 'rot3': 0, 'rot2': 0, 'state': 'normal', 'yaw': 5.19, 'datetime': '2018-10-12 18:08:21.267985', 'mgs': 0, 'depth': -0.674, 'time': 24.58, 'pitch': 0.35, 'roll': -10.25}
{'lipoC2': 7.58, 'temp': 26.94, 'lipoC3S3': 11.9, 'rot1': 0, 'rot0': 0, 'rot3': 0, 'rot2': 0, 'state': 'normal', 'yaw': 5.01, 'datetime': '2018-10-12 18:08:21.365018', 'mgs': 0, 'depth': -0.598, 'time': 24.68, 'pitch': 0.3, 'roll': -10.34}
{'lipoC2': 7.58, 'temp': 26.94, 'lipoC3S3': 11.9, 'rot1': 0, 'rot0': 0, 'rot3': 0, 'rot2': 0, 'state': 'normal', 'yaw': 4.79, 'datetime': '2018-10-12 18:08:21.463629', 'mgs': 0, 'depth': -0.598, 'time': 24.78, 'pitch': 0.27, 'roll': -10.44}
{'lipoC2': 7.58, 'temp': 26.94, 'lipoC3S3': 11.89, 'rot1': 0, 'rot0': 0, 'rot3': 0, 'rot2': 0, 'state': 'normal', 'yaw': 4.63, 'datetime': '2018-10-12 18:08:21.561966', 'mgs': 0, 'depth': -0.598, 'time': 24.88, 'pitch': 0.27, 'roll': -10.53}
{'lipoC2': 7.58, 'temp': 26.88, 'lipoC3S3': 11.9, 'rot1': 0, 'rot0': 0, 'rot3': 0, 'rot2': 0, 'state': 'normal', 'yaw': 4.59, 'datetime': '2018-10-12 18:08:21.659123', 'mgs': 0, 'depth': -0.598, 'time': 24.98, 'pitch': 0.35, 'roll': -10.57}
{'lipoC2': 7.58, 'temp': 26.88, 'lipoC3S3': 11.9, 'rot1': 0, 'rot0': 0, 'rot3': 0, 'rot2': 0, 'state': 'normal', 'yaw': 4.78, 'datetime': '2018-10-12 18:08:21.756152', 'mgs': 0, 'depth': -0.598, 'time': 25.07, 'pitch': 0.49, 'roll': -10.45}
{'lipoC2': 7.58, 'temp': 26.88, 'lipoC3S3': 11.9, 'rot1': 0, 'rot0': 0, 'rot3': 0, 'rot2': 0, 'state': 'normal', 'yaw': 5.21, 'datetime': '2018-10-12 18:08:21.854592', 'mgs': 0, 'depth': -0.522, 'time': 25.17, 'pitch': 0.48, 'roll': -9.95}
{'lipoC2': 7.58, 'temp': 26.94, 'lipoC3S3': 11.89, 'rot1': 0, 'rot0': 0, 'rot3': 0, 'rot2': 0, 'state': 'normal', 'yaw': 5.86, 'datetime': '2018-10-12 18:08:21.952784', 'mgs': 0, 'depth': -0.446, 'time': 25.27, 'pitch': 0.6, 'roll': -9.34}
{'lipoC2': 7.58, 'temp': 26.94, 'lipoC3S3': 11.9, 'rot1': 0, 'rot0': 0, 'rot3': 0, 'rot2': 0, 'state': 'normal', 'yaw': 6.56, 'datetime': '2018-10-12 18:08:22.050270', 'mgs': 0, 'depth': -0.522, 'time': 25.37, 'pitch': 0.86, 'roll': -8.8}
{'lipoC2': 7.58, 'temp': 26.94, 'lipoC3S3': 11.89, 'rot1': 0, 'rot0': 0, 'rot3': 0, 'rot2': 0, 'state': 'normal', 'yaw': 7.12, 'datetime': '2018-10-12 18:08:22.147650', 'mgs': 0, 'depth': -0.446, 'time': 25.46, 'pitch': 0.54, 'roll': -8.79}
