{'lipoC2': 8.19, 'temp': 25.81, 'lipoC3S3': 0.0, 'state': 'normal', 'rot1': 0, 'rot0': 135, 'rot3': 0, 'rot2': 0, 'depth': -0.14, 'yaw': 0.0, 'datetime': '2018-10-26 09:51:39.986638', 'mgs': 0, 'flw2': 0.0, 'flw1': 0.0, 'flw0': 0.0, 'time': 1.36, 'pitch': -24.46, 'roll': 45.54}
{'lipoC2': 8.17, 'temp': 25.81, 'lipoC3S3': 0.0, 'state': 'normal', 'rot1': 0, 'rot0': 272, 'rot3': 0, 'rot2': 0, 'depth': -0.14, 'yaw': 0.0, 'datetime': '2018-10-26 09:51:43.512593', 'mgs': 0, 'flw2': 0.0, 'flw1': 0.0, 'flw0': 0.0, 'time': 1.47, 'pitch': -24.46, 'roll': 45.54}
{'lipoC2': 8.17, 'temp': 25.81, 'lipoC3S3': 0.0, 'state': 'normal', 'rot1': 0, 'rot0': 408, 'rot3': 0, 'rot2': 0, 'depth': -0.14, 'yaw': -0.01, 'datetime': '2018-10-26 09:51:43.557370', 'mgs': 0, 'flw2': 0.0, 'flw1': 0.0, 'flw0': 0.0, 'time': 1.57, 'pitch': -24.46, 'roll': 45.56}
{'lipoC2': 8.17, 'temp': 25.81, 'lipoC3S3': 0.0, 'state': 'normal', 'rot1': 0, 'rot0': 508, 'rot3': 0, 'rot2': 0, 'depth': -0.14, 'yaw': -0.02, 'datetime': '2018-10-26 09:51:43.600288', 'mgs': 0, 'flw2': 0.0, 'flw1': 0.0, 'flw0': 0.0, 'time': 1.67, 'pitch': -24.45, 'roll': 45.57}
{'lipoC2': 8.17, 'temp': 25.81, 'lipoC3S3': 0.0, 'state': 'normal', 'rot1': 0, 'rot0': 587, 'rot3': 0, 'rot2': 0, 'depth': -0.14, 'yaw': 0.0, 'datetime': '2018-10-26 09:51:43.627386', 'mgs': 0, 'flw2': 0.0, 'flw1': 0.0, 'flw0': 0.0, 'time': 1.78, 'pitch': -24.46, 'roll': 45.56}
{'lipoC2': 8.17, 'temp': 25.81, 'lipoC3S3': 0.0, 'state': 'normal', 'rot1': 0, 'rot0': 591, 'rot3': 0, 'rot2': 0, 'depth': -0.14, 'yaw': -0.01, 'datetime': '2018-10-26 09:51:43.650680', 'mgs': 0, 'flw2': 0.0, 'flw1': 0.0, 'flw0': 0.0, 'time': 1.88, 'pitch': -24.47, 'roll': 45.56}
{'lipoC2': 8.17, 'temp': 25.81, 'lipoC3S3': 0.0, 'state': 'normal', 'rot1': 0, 'rot0': 0, 'rot3': 0, 'rot2': 0, 'depth': -0.14, 'yaw': 0.0, 'datetime': '2018-10-26 09:51:43.674612', 'mgs': 0, 'flw2': 0.0, 'flw1': 0.0, 'flw0': 0.0, 'time': 1.26, 'pitch': -24.45, 'roll': 45.54}
{'lipoC2': 8.17, 'temp': 25.81, 'lipoC3S3': 0.0, 'state': 'normal', 'rot1': 0, 'rot0': 134, 'rot3': 0, 'rot2': 0, 'depth': -0.14, 'yaw': 0.08, 'datetime': '2018-10-26 09:51:43.698579', 'mgs': 0, 'flw2': 0.0, 'flw1': 0.0, 'flw0': 0.0, 'time': 1.36, 'pitch': -24.43, 'roll': 45.53}
{'lipoC2': 8.17, 'temp': 25.75, 'lipoC3S3': 0.0, 'state': 'normal', 'rot1': 0, 'rot0': 271, 'rot3': 0, 'rot2': 0, 'depth': -0.217, 'yaw': -0.01, 'datetime': '2018-10-26 09:51:43.722577', 'mgs': 0, 'flw2': 0.0, 'flw1': 0.0, 'flw0': 0.0, 'time': 1.47, 'pitch': -24.45, 'roll': 45.54}
{'lipoC2': 8.17, 'temp': 25.75, 'lipoC3S3': 0.0, 'state': 'normal', 'rot1': 0, 'rot0': 410, 'rot3': 0, 'rot2': 0, 'depth': -0.14, 'yaw': 0.11, 'datetime': '2018-10-26 09:51:43.746432', 'mgs': 0, 'flw2': 0.0, 'flw1': 0.0, 'flw0': 0.0, 'time': 1.57, 'pitch': -24.41, 'roll': 45.5}
{'lipoC2': 8.17, 'temp': 25.75, 'lipoC3S3': 0.0, 'state': 'normal', 'rot1': 0, 'rot0': 539, 'rot3': 0, 'rot2': 0, 'depth': -0.217, 'yaw': -0.0, 'datetime': '2018-10-26 09:51:43.767270', 'mgs': 0, 'flw2': 0.0, 'flw1': 0.0, 'flw0': 0.0, 'time': 1.67, 'pitch': -24.44, 'roll': 45.51}
{'lipoC2': 8.17, 'temp': 25.81, 'lipoC3S3': 0.0, 'state': 'normal', 'rot1': 0, 'rot0': 655, 'rot3': 0, 'rot2': 0, 'depth': -0.14, 'yaw': 0.06, 'datetime': '2018-10-26 09:51:43.788083', 'mgs': 0, 'flw2': 0.0, 'flw1': 0.0, 'flw0': 0.0, 'time': 1.78, 'pitch': -24.42, 'roll': 45.5}
{'lipoC2': 8.17, 'temp': 25.81, 'lipoC3S3': 0.0, 'state': 'normal', 'rot1': 0, 'rot0': 713, 'rot3': 0, 'rot2': 0, 'depth': -0.14, 'yaw': 0.06, 'datetime': '2018-10-26 09:51:43.808971', 'mgs': 0, 'flw2': 0.0, 'flw1': 0.0, 'flw0': 0.0, 'time': 1.88, 'pitch': -24.42, 'roll': 45.5}
{'lipoC2': 8.17, 'temp': 25.81, 'lipoC3S3': 0.0, 'state': 'normal', 'rot1': 0, 'rot0': 747, 'rot3': 0, 'rot2': 0, 'depth': -0.217, 'yaw': 0.06, 'datetime': '2018-10-26 09:51:43.829424', 'mgs': 0, 'flw2': 0.0, 'flw1': 0.0, 'flw0': 0.0, 'time': 1.98, 'pitch': -24.42, 'roll': 45.49}
{'lipoC2': 8.17, 'temp': 25.81, 'lipoC3S3': 0.0, 'state': 'normal', 'rot1': 0, 'rot0': 748, 'rot3': 0, 'rot2': 0, 'depth': -0.14, 'yaw': 0.06, 'datetime': '2018-10-26 09:51:43.850955', 'mgs': 0, 'flw2': 0.0, 'flw1': 0.0, 'flw0': 0.0, 'time': 2.09, 'pitch': -24.43, 'roll': 45.49}
{'lipoC2': 8.17, 'temp': 25.81, 'lipoC3S3': 0.0, 'state': 'normal', 'rot1': 0, 'rot0': 748, 'rot3': 0, 'rot2': 0, 'depth': -0.14, 'yaw': 0.06, 'datetime': '2018-10-26 09:51:43.871692', 'mgs': 0, 'flw2': 0.0, 'flw1': 0.0, 'flw0': 0.0, 'time': 2.19, 'pitch': -24.43, 'roll': 45.49}
{'lipoC2': 8.19, 'temp': 25.81, 'lipoC3S3': 0.0, 'state': 'normal', 'rot1': 0, 'rot0': 748, 'rot3': 0, 'rot2': 0, 'depth': -0.217, 'yaw': 0.09, 'datetime': '2018-10-26 09:51:43.892196', 'mgs': 0, 'flw2': 0.0, 'flw1': 0.0, 'flw0': 0.0, 'time': 2.29, 'pitch': -24.42, 'roll': 45.48}
{'lipoC2': 8.19, 'temp': 25.81, 'lipoC3S3': 0.0, 'state': 'normal', 'rot1': 0, 'rot0': 748, 'rot3': 0, 'rot2': 0, 'depth': -0.14, 'yaw': 0.06, 'datetime': '2018-10-26 09:51:43.912646', 'mgs': 0, 'flw2': 0.0, 'flw1': 0.0, 'flw0': 0.0, 'time': 2.4, 'pitch': -24.43, 'roll': 45.49}
{'lipoC2': 8.17, 'temp': 25.81, 'lipoC3S3': 0.0, 'state': 'normal', 'rot1': 0, 'rot0': 748, 'rot3': 0, 'rot2': 0, 'depth': -0.14, 'yaw': 0.06, 'datetime': '2018-10-26 09:51:43.933672', 'mgs': 0, 'flw2': 0.0, 'flw1': 0.0, 'flw0': 0.0, 'time': 2.5, 'pitch': -24.43, 'roll': 45.49}
{'lipoC2': 8.17, 'temp': 25.81, 'lipoC3S3': 0.0, 'state': 'normal', 'rot1': 0, 'rot0': 748, 'rot3': 0, 'rot2': 0, 'depth': -0.217, 'yaw': 0.06, 'datetime': '2018-10-26 09:51:43.955370', 'mgs': 0, 'flw2': 0.0, 'flw1': 0.0, 'flw0': 0.0, 'time': 2.6, 'pitch': -24.43, 'roll': 45.49}
{'lipoC2': 8.17, 'temp': 25.81, 'lipoC3S3': 0.0, 'state': 'normal', 'rot1': 0, 'rot0': 748, 'rot3': 0, 'rot2': 0, 'depth': -0.14, 'yaw': 0.07, 'datetime': '2018-10-26 09:51:43.975952', 'mgs': 0, 'flw2': 0.0, 'flw1': 0.0, 'flw0': 0.0, 'time': 2.7, 'pitch': -24.42, 'roll': 45.49}
{'lipoC2': 8.17, 'temp': 25.81, 'lipoC3S3': 0.0, 'state': 'normal', 'rot1': 0, 'rot0': 748, 'rot3': 0, 'rot2': 0, 'depth': -0.14, 'yaw': 0.07, 'datetime': '2018-10-26 09:51:43.996457', 'mgs': 0, 'flw2': 0.0, 'flw1': 0.0, 'flw0': 0.0, 'time': 2.81, 'pitch': -24.42, 'roll': 45.49}
{'lipoC2': 8.17, 'temp': 25.75, 'lipoC3S3': 0.0, 'state': 'normal', 'rot1': 0, 'rot0': 748, 'rot3': 0, 'rot2': 0, 'depth': -0.14, 'yaw': 0.07, 'datetime': '2018-10-26 09:51:44.016951', 'mgs': 0, 'flw2': 0.0, 'flw1': 0.0, 'flw0': 0.0, 'time': 2.91, 'pitch': -24.42, 'roll': 45.49}
{'lipoC2': 8.17, 'temp': 25.75, 'lipoC3S3': 0.0, 'state': 'normal', 'rot1': 0, 'rot0': 748, 'rot3': 0, 'rot2': 0, 'depth': -0.14, 'yaw': 0.07, 'datetime': '2018-10-26 09:51:44.038348', 'mgs': 0, 'flw2': 0.0, 'flw1': 0.0, 'flw0': 0.0, 'time': 3.01, 'pitch': -24.42, 'roll': 45.49}
{'lipoC2': 8.17, 'temp': 25.75, 'lipoC3S3': 0.0, 'state': 'normal', 'rot1': 0, 'rot0': 748, 'rot3': 0, 'rot2': 0, 'depth': -0.217, 'yaw': 0.07, 'datetime': '2018-10-26 09:51:44.059676', 'mgs': 0, 'flw2': 0.0, 'flw1': 0.0, 'flw0': 0.0, 'time': 3.12, 'pitch': -24.42, 'roll': 45.49}
{'lipoC2': 8.17, 'temp': 25.81, 'lipoC3S3': 0.0, 'state': 'normal', 'rot1': 0, 'rot0': 748, 'rot3': 0, 'rot2': 0, 'depth': -0.14, 'yaw': 0.06, 'datetime': '2018-10-26 09:51:44.080128', 'mgs': 0, 'flw2': 0.0, 'flw1': 0.0, 'flw0': 0.0, 'time': 3.22, 'pitch': -24.41, 'roll': 45.49}
{'lipoC2': 8.17, 'temp': 25.81, 'lipoC3S3': 0.0, 'state': 'normal', 'rot1': 0, 'rot0': 748, 'rot3': 0, 'rot2': 0, 'depth': -0.14, 'yaw': 0.06, 'datetime': '2018-10-26 09:51:44.100568', 'mgs': 0, 'flw2': 0.0, 'flw1': 0.0, 'flw0': 0.0, 'time': 3.32, 'pitch': -24.41, 'roll': 45.49}
{'lipoC2': 8.17, 'temp': 25.81, 'lipoC3S3': 0.0, 'state': 'normal', 'rot1': 0, 'rot0': 748, 'rot3': 0, 'rot2': 0, 'depth': -0.14, 'yaw': 0.06, 'datetime': '2018-10-26 09:51:44.121107', 'mgs': 0, 'flw2': 0.0, 'flw1': 0.0, 'flw0': 0.0, 'time': 3.43, 'pitch': -24.41, 'roll': 45.49}
{'lipoC2': 8.17, 'temp': 25.81, 'lipoC3S3': 0.0, 'state': 'normal', 'rot1': 0, 'rot0': 748, 'rot3': 0, 'rot2': 0, 'depth': -0.064, 'yaw': 0.06, 'datetime': '2018-10-26 09:51:44.142822', 'mgs': 0, 'flw2': 0.0, 'flw1': 0.0, 'flw0': 0.0, 'time': 3.53, 'pitch': -24.41, 'roll': 45.49}
{'lipoC2': 8.17, 'temp': 25.81, 'lipoC3S3': 0.0, 'state': 'normal', 'rot1': 0, 'rot0': 748, 'rot3': 0, 'rot2': 0, 'depth': -0.14, 'yaw': 0.06, 'datetime': '2018-10-26 09:51:44.163476', 'mgs': 0, 'flw2': 0.0, 'flw1': 0.0, 'flw0': 0.0, 'time': 3.63, 'pitch': -24.41, 'roll': 45.49}
{'lipoC2': 8.17, 'temp': 25.81, 'lipoC3S3': 0.0, 'state': 'normal', 'rot1': 0, 'rot0': 748, 'rot3': 0, 'rot2': 0, 'depth': -0.14, 'yaw': 0.06, 'datetime': '2018-10-26 09:51:44.186243', 'mgs': 0, 'flw2': 0.0, 'flw1': 0.0, 'flw0': 0.0, 'time': 3.74, 'pitch': -24.41, 'roll': 45.49}
{'lipoC2': 8.17, 'temp': 25.81, 'lipoC3S3': 0.0, 'state': 'normal', 'rot1': 0, 'rot0': 748, 'rot3': 0, 'rot2': 0, 'depth': -0.14, 'yaw': 0.07, 'datetime': '2018-10-26 09:51:44.206667', 'mgs': 0, 'flw2': 0.0, 'flw1': 0.0, 'flw0': 0.0, 'time': 3.84, 'pitch': -24.4, 'roll': 45.49}
{'lipoC2': 8.17, 'temp': 25.81, 'lipoC3S3': 0.0, 'state': 'normal', 'rot1': 0, 'rot0': 748, 'rot3': 0, 'rot2': 0, 'depth': -0.14, 'yaw': 0.02, 'datetime': '2018-10-26 09:51:44.226965', 'mgs': 0, 'flw2': 0.0, 'flw1': 0.0, 'flw0': 0.0, 'time': 3.94, 'pitch': -24.41, 'roll': 45.51}
{'lipoC2': 8.17, 'temp': 25.81, 'lipoC3S3': 0.0, 'state': 'normal', 'rot1': 0, 'rot0': 748, 'rot3': 0, 'rot2': 0, 'depth': -0.14, 'yaw': 0.08, 'datetime': '2018-10-26 09:51:44.247354', 'mgs': 0, 'flw2': 0.0, 'flw1': 0.0, 'flw0': 0.0, 'time': 4.05, 'pitch': -24.39, 'roll': 45.51}
{'lipoC2': 8.17, 'temp': 25.81, 'lipoC3S3': 0.0, 'state': 'normal', 'rot1': 0, 'rot0': 748, 'rot3': 0, 'rot2': 0, 'depth': -0.14, 'yaw': 0.05, 'datetime': '2018-10-26 09:51:44.268004', 'mgs': 0, 'flw2': 0.0, 'flw1': 0.0, 'flw0': 0.0, 'time': 4.15, 'pitch': -24.41, 'roll': 45.51}
{'lipoC2': 8.17, 'temp': 25.81, 'lipoC3S3': 0.0, 'state': 'normal', 'rot1': 0, 'rot0': 748, 'rot3': 0, 'rot2': 0, 'depth': -0.064, 'yaw': 0.05, 'datetime': '2018-10-26 09:51:44.364409', 'mgs': 0, 'flw2': 0.0, 'flw1': 0.0, 'flw0': 0.0, 'time': 4.25, 'pitch': -24.41, 'roll': 45.51}
{'lipoC2': 8.17, 'temp': 25.81, 'lipoC3S3': 0.0, 'state': 'normal', 'rot1': 0, 'rot0': 748, 'rot3': 0, 'rot2': 0, 'depth': -0.14, 'yaw': 0.05, 'datetime': '2018-10-26 09:51:44.466964', 'mgs': 0, 'flw2': 0.0, 'flw1': 0.0, 'flw0': 0.0, 'time': 4.36, 'pitch': -24.41, 'roll': 45.5}
{'lipoC2': 8.17, 'temp': 25.81, 'lipoC3S3': 0.0, 'state': 'normal', 'rot1': 0, 'rot0': 748, 'rot3': 0, 'rot2': 0, 'depth': -0.064, 'yaw': 0.05, 'datetime': '2018-10-26 09:51:44.569506', 'mgs': 0, 'flw2': 0.0, 'flw1': 0.0, 'flw0': 0.0, 'time': 4.46, 'pitch': -24.41, 'roll': 45.5}
{'lipoC2': 8.19, 'temp': 25.81, 'lipoC3S3': 0.0, 'state': 'normal', 'rot1': 0, 'rot0': 748, 'rot3': 0, 'rot2': 0, 'depth': -0.14, 'yaw': 0.05, 'datetime': '2018-10-26 09:51:44.672047', 'mgs': 0, 'flw2': 0.0, 'flw1': 0.0, 'flw0': 0.0, 'time': 4.56, 'pitch': -24.41, 'roll': 45.5}
{'lipoC2': 8.17, 'temp': 25.75, 'lipoC3S3': 0.0, 'state': 'normal', 'rot1': 0, 'rot0': 748, 'rot3': 0, 'rot2': 0, 'depth': -0.14, 'yaw': 0.05, 'datetime': '2018-10-26 09:51:44.775578', 'mgs': 0, 'flw2': 0.0, 'flw1': 0.0, 'flw0': 0.0, 'time': 4.66, 'pitch': -24.41, 'roll': 45.5}
{'lipoC2': 8.17, 'temp': 25.75, 'lipoC3S3': 0.0, 'state': 'normal', 'rot1': 0, 'rot0': 748, 'rot3': 0, 'rot2': 0, 'depth': -0.14, 'yaw': 0.05, 'datetime': '2018-10-26 09:51:44.878089', 'mgs': 0, 'flw2': 0.0, 'flw1': 0.0, 'flw0': 0.0, 'time': 4.77, 'pitch': -24.41, 'roll': 45.5}
{'lipoC2': 8.17, 'temp': 25.81, 'lipoC3S3': 0.0, 'state': 'normal', 'rot1': 0, 'rot0': 748, 'rot3': 0, 'rot2': 0, 'depth': -0.14, 'yaw': 0.05, 'datetime': '2018-10-26 09:51:44.981019', 'mgs': 0, 'flw2': 0.0, 'flw1': 0.0, 'flw0': 0.0, 'time': 4.87, 'pitch': -24.41, 'roll': 45.5}
{'lipoC2': 8.17, 'temp': 25.81, 'lipoC3S3': 0.0, 'state': 'normal', 'rot1': 0, 'rot0': 748, 'rot3': 0, 'rot2': 0, 'depth': -0.14, 'yaw': 0.05, 'datetime': '2018-10-26 09:51:45.090674', 'mgs': 0, 'flw2': 0.0, 'flw1': 0.0, 'flw0': 0.0, 'time': 4.97, 'pitch': -24.41, 'roll': 45.5}
{'lipoC2': 8.17, 'temp': 25.81, 'lipoC3S3': 0.0, 'state': 'normal', 'rot1': 0, 'rot0': 748, 'rot3': 0, 'rot2': 0, 'depth': -0.14, 'yaw': 0.05, 'datetime': '2018-10-26 09:51:45.193601', 'mgs': 0, 'flw2': 0.0, 'flw1': 0.0, 'flw0': 0.0, 'time': 5.08, 'pitch': -24.41, 'roll': 45.5}
{'lipoC2': 8.17, 'temp': 25.81, 'lipoC3S3': 0.0, 'state': 'normal', 'rot1': 0, 'rot0': 748, 'rot3': 0, 'rot2': 0, 'depth': -0.14, 'yaw': 0.06, 'datetime': '2018-10-26 09:51:45.296102', 'mgs': 0, 'flw2': 0.0, 'flw1': 0.0, 'flw0': 0.0, 'time': 5.18, 'pitch': -24.41, 'roll': 45.5}
{'lipoC2': 8.17, 'temp': 25.81, 'lipoC3S3': 0.0, 'state': 'normal', 'rot1': 0, 'rot0': 748, 'rot3': 0, 'rot2': 0, 'depth': -0.14, 'yaw': 0.04, 'datetime': '2018-10-26 09:51:45.399637', 'mgs': 0, 'flw2': 0.0, 'flw1': 0.0, 'flw0': 0.0, 'time': 5.28, 'pitch': -24.41, 'roll': 45.51}
{'lipoC2': 8.17, 'temp': 25.81, 'lipoC3S3': 0.0, 'state': 'normal', 'rot1': 0, 'rot0': 748, 'rot3': 0, 'rot2': 0, 'depth': -0.14, 'yaw': 0.07, 'datetime': '2018-10-26 09:51:45.503446', 'mgs': 0, 'flw2': 0.0, 'flw1': 0.0, 'flw0': 0.0, 'time': 5.39, 'pitch': -24.4, 'roll': 45.5}
{'lipoC2': 8.17, 'temp': 25.81, 'lipoC3S3': 0.0, 'state': 'normal', 'rot1': 0, 'rot0': 748, 'rot3': 0, 'rot2': 0, 'depth': -0.217, 'yaw': 0.04, 'datetime': '2018-10-26 09:51:45.605982', 'mgs': 0, 'flw2': 0.0, 'flw1': 0.0, 'flw0': 0.0, 'time': 5.49, 'pitch': -24.41, 'roll': 45.51}
{'lipoC2': 8.17, 'temp': 25.81, 'lipoC3S3': 0.0, 'state': 'normal', 'rot1': 0, 'rot0': 748, 'rot3': 0, 'rot2': 0, 'depth': -0.14, 'yaw': 0.05, 'datetime': '2018-10-26 09:51:45.710266', 'mgs': 0, 'flw2': 0.0, 'flw1': 0.0, 'flw0': 0.0, 'time': 5.59, 'pitch': -24.4, 'roll': 45.51}
{'lipoC2': 8.17, 'temp': 25.81, 'lipoC3S3': 0.0, 'state': 'normal', 'rot1': 0, 'rot0': 748, 'rot3': 0, 'rot2': 0, 'depth': -0.14, 'yaw': 0.05, 'datetime': '2018-10-26 09:51:45.812556', 'mgs': 0, 'flw2': 0.0, 'flw1': 0.0, 'flw0': 0.0, 'time': 5.7, 'pitch': -24.4, 'roll': 45.51}
{'lipoC2': 8.17, 'temp': 25.81, 'lipoC3S3': 0.0, 'state': 'normal', 'rot1': 0, 'rot0': 748, 'rot3': 0, 'rot2': 0, 'depth': -0.14, 'yaw': 0.03, 'datetime': '2018-10-26 09:51:45.915399', 'mgs': 0, 'flw2': 0.0, 'flw1': 0.0, 'flw0': 0.0, 'time': 5.8, 'pitch': -24.4, 'roll': 45.52}
{'lipoC2': 8.17, 'temp': 25.75, 'lipoC3S3': 0.0, 'state': 'normal', 'rot1': 0, 'rot0': 748, 'rot3': 0, 'rot2': 0, 'depth': -0.14, 'yaw': 0.06, 'datetime': '2018-10-26 09:51:46.017986', 'mgs': 0, 'flw2': 0.0, 'flw1': 0.0, 'flw0': 0.0, 'time': 5.9, 'pitch': -24.4, 'roll': 45.51}
{'lipoC2': 8.17, 'temp': 25.75, 'lipoC3S3': 0.0, 'state': 'normal', 'rot1': 0, 'rot0': 748, 'rot3': 0, 'rot2': 0, 'depth': -0.14, 'yaw': 0.04, 'datetime': '2018-10-26 09:51:46.120798', 'mgs': 0, 'flw2': 0.0, 'flw1': 0.0, 'flw0': 0.0, 'time': 6.01, 'pitch': -24.4, 'roll': 45.51}
{'lipoC2': 8.17, 'temp': 25.75, 'lipoC3S3': 0.0, 'state': 'normal', 'rot1': 0, 'rot0': 748, 'rot3': 0, 'rot2': 0, 'depth': -0.217, 'yaw': 0.05, 'datetime': '2018-10-26 09:51:46.225565', 'mgs': 0, 'flw2': 0.0, 'flw1': 0.0, 'flw0': 0.0, 'time': 6.11, 'pitch': -24.4, 'roll': 45.51}
{'lipoC2': 8.17, 'temp': 25.75, 'lipoC3S3': 0.0, 'state': 'normal', 'rot1': 0, 'rot0': 748, 'rot3': 0, 'rot2': 0, 'depth': -0.14, 'yaw': 0.04, 'datetime': '2018-10-26 09:51:46.328104', 'mgs': 0, 'flw2': 0.0, 'flw1': 0.0, 'flw0': 0.0, 'time': 6.21, 'pitch': -24.39, 'roll': 45.51}
{'lipoC2': 8.17, 'temp': 25.81, 'lipoC3S3': 0.0, 'state': 'normal', 'rot1': 0, 'rot0': 748, 'rot3': 0, 'rot2': 0, 'depth': -0.14, 'yaw': 0.04, 'datetime': '2018-10-26 09:51:46.430688', 'mgs': 0, 'flw2': 0.0, 'flw1': 0.0, 'flw0': 0.0, 'time': 6.32, 'pitch': -24.4, 'roll': 45.51}
{'lipoC2': 8.17, 'temp': 25.81, 'lipoC3S3': 0.0, 'state': 'normal', 'rot1': 0, 'rot0': 748, 'rot3': 0, 'rot2': 0, 'depth': -0.14, 'yaw': 0.04, 'datetime': '2018-10-26 09:51:46.533213', 'mgs': 0, 'flw2': 0.0, 'flw1': 0.0, 'flw0': 0.0, 'time': 6.42, 'pitch': -24.4, 'roll': 45.51}
{'lipoC2': 8.17, 'temp': 25.81, 'lipoC3S3': 0.0, 'state': 'normal', 'rot1': 0, 'rot0': 748, 'rot3': 0, 'rot2': 0, 'depth': -0.14, 'yaw': 0.04, 'datetime': '2018-10-26 09:51:46.636765', 'mgs': 0, 'flw2': 0.0, 'flw1': 0.0, 'flw0': 0.0, 'time': 6.52, 'pitch': -24.41, 'roll': 45.51}
{'lipoC2': 8.17, 'temp': 25.81, 'lipoC3S3': 0.0, 'state': 'normal', 'rot1': 0, 'rot0': 748, 'rot3': 0, 'rot2': 0, 'depth': -0.14, 'yaw': 0.03, 'datetime': '2018-10-26 09:51:46.738751', 'mgs': 0, 'flw2': 0.0, 'flw1': 0.0, 'flw0': 0.0, 'time': 6.62, 'pitch': -24.41, 'roll': 45.52}
{'lipoC2': 8.17, 'temp': 25.81, 'lipoC3S3': 0.0, 'state': 'normal', 'rot1': 0, 'rot0': 748, 'rot3': 0, 'rot2': 0, 'depth': -0.14, 'yaw': 0.03, 'datetime': '2018-10-26 09:51:46.842278', 'mgs': 0, 'flw2': 0.0, 'flw1': 0.0, 'flw0': 0.0, 'time': 6.73, 'pitch': -24.41, 'roll': 45.52}
{'lipoC2': 8.17, 'temp': 25.81, 'lipoC3S3': 0.0, 'state': 'normal', 'rot1': 0, 'rot0': 748, 'rot3': 0, 'rot2': 0, 'depth': -0.217, 'yaw': 0.03, 'datetime': '2018-10-26 09:51:46.946205', 'mgs': 0, 'flw2': 0.0, 'flw1': 0.0, 'flw0': 0.0, 'time': 6.83, 'pitch': -24.41, 'roll': 45.52}
{'lipoC2': 8.17, 'temp': 25.81, 'lipoC3S3': 0.0, 'state': 'normal', 'rot1': 0, 'rot0': 748, 'rot3': 0, 'rot2': 0, 'depth': -0.14, 'yaw': 0.03, 'datetime': '2018-10-26 09:51:47.048696', 'mgs': 0, 'flw2': 0.0, 'flw1': 0.0, 'flw0': 0.0, 'time': 6.93, 'pitch': -24.41, 'roll': 45.52}
{'lipoC2': 8.17, 'temp': 25.75, 'lipoC3S3': 0.0, 'state': 'normal', 'rot1': 0, 'rot0': 748, 'rot3': 0, 'rot2': 0, 'depth': -0.14, 'yaw': 0.03, 'datetime': '2018-10-26 09:51:47.151291', 'mgs': 0, 'flw2': 0.0, 'flw1': 0.0, 'flw0': 0.0, 'time': 7.04, 'pitch': -24.41, 'roll': 45.52}
{'lipoC2': 8.17, 'temp': 25.75, 'lipoC3S3': 0.0, 'state': 'normal', 'rot1': 0, 'rot0': 748, 'rot3': 0, 'rot2': 0, 'depth': -0.14, 'yaw': 0.03, 'datetime': '2018-10-26 09:51:47.255233', 'mgs': 0, 'flw2': 0.0, 'flw1': 0.0, 'flw0': 0.0, 'time': 7.14, 'pitch': -24.41, 'roll': 45.52}
{'lipoC2': 8.17, 'temp': 25.75, 'lipoC3S3': 0.0, 'state': 'normal', 'rot1': 0, 'rot0': 748, 'rot3': 0, 'rot2': 0, 'depth': -0.14, 'yaw': 0.03, 'datetime': '2018-10-26 09:51:47.358017', 'mgs': 0, 'flw2': 0.0, 'flw1': 0.0, 'flw0': 0.0, 'time': 7.24, 'pitch': -24.41, 'roll': 45.52}
{'lipoC2': 8.17, 'temp': 25.81, 'lipoC3S3': 0.0, 'state': 'normal', 'rot1': 0, 'rot0': 748, 'rot3': 0, 'rot2': 0, 'depth': -0.14, 'yaw': 0.02, 'datetime': '2018-10-26 09:51:47.460996', 'mgs': 0, 'flw2': 0.0, 'flw1': 0.0, 'flw0': 0.0, 'time': 7.35, 'pitch': -24.4, 'roll': 45.52}
{'lipoC2': 8.17, 'temp': 25.81, 'lipoC3S3': 0.0, 'state': 'normal', 'rot1': 0, 'rot0': 748, 'rot3': 0, 'rot2': 0, 'depth': -0.14, 'yaw': 0.03, 'datetime': '2018-10-26 09:51:47.563562', 'mgs': 0, 'flw2': 0.0, 'flw1': 0.0, 'flw0': 0.0, 'time': 7.45, 'pitch': -24.39, 'roll': 45.51}
{'lipoC2': 8.17, 'temp': 25.75, 'lipoC3S3': 0.0, 'state': 'normal', 'rot1': 0, 'rot0': 748, 'rot3': 0, 'rot2': 0, 'depth': -0.217, 'yaw': -0.03, 'datetime': '2018-10-26 09:51:47.667489', 'mgs': 0, 'flw2': 0.0, 'flw1': 0.0, 'flw0': 0.0, 'time': 7.55, 'pitch': -24.41, 'roll': 45.52}
{'lipoC2': 8.17, 'temp': 25.75, 'lipoC3S3': 0.0, 'state': 'normal', 'rot1': 0, 'rot0': 748, 'rot3': 0, 'rot2': 0, 'depth': -0.14, 'yaw': 0.01, 'datetime': '2018-10-26 09:51:47.770206', 'mgs': 0, 'flw2': 0.0, 'flw1': 0.0, 'flw0': 0.0, 'time': 7.66, 'pitch': -24.39, 'roll': 45.52}
{'lipoC2': 8.17, 'temp': 25.81, 'lipoC3S3': 0.0, 'state': 'normal', 'rot1': 0, 'rot0': 748, 'rot3': 0, 'rot2': 0, 'depth': -0.14, 'yaw': -0.03, 'datetime': '2018-10-26 09:51:47.872675', 'mgs': 0, 'flw2': 0.0, 'flw1': 0.0, 'flw0': 0.0, 'time': 7.76, 'pitch': -24.42, 'roll': 45.54}
{'lipoC2': 8.17, 'temp': 25.81, 'lipoC3S3': 0.0, 'state': 'normal', 'rot1': 0, 'rot0': 748, 'rot3': 0, 'rot2': 0, 'depth': -0.14, 'yaw': 0.0, 'datetime': '2018-10-26 09:51:47.975040', 'mgs': 0, 'flw2': 0.0, 'flw1': 0.0, 'flw0': 0.0, 'time': 7.86, 'pitch': -24.42, 'roll': 45.54}
{'lipoC2': 8.17, 'temp': 25.81, 'lipoC3S3': 0.0, 'state': 'normal', 'rot1': 0, 'rot0': 748, 'rot3': 0, 'rot2': 0, 'depth': -0.217, 'yaw': -0.0, 'datetime': '2018-10-26 09:51:48.080161', 'mgs': 0, 'flw2': 0.0, 'flw1': 0.0, 'flw0': 0.0, 'time': 7.97, 'pitch': -24.41, 'roll': 45.54}
{'lipoC2': 8.17, 'temp': 25.81, 'lipoC3S3': 0.0, 'state': 'normal', 'rot1': 0, 'rot0': 748, 'rot3': 0, 'rot2': 0, 'depth': -0.14, 'yaw': -0.0, 'datetime': '2018-10-26 09:51:48.182574', 'mgs': 0, 'flw2': 0.0, 'flw1': 0.0, 'flw0': 0.0, 'time': 8.07, 'pitch': -24.41, 'roll': 45.54}
{'lipoC2': 8.17, 'temp': 25.81, 'lipoC3S3': 0.0, 'state': 'normal', 'rot1': 0, 'rot0': 748, 'rot3': 0, 'rot2': 0, 'depth': -0.14, 'yaw': 0.02, 'datetime': '2018-10-26 09:51:48.285187', 'mgs': 0, 'flw2': 0.0, 'flw1': 0.0, 'flw0': 0.0, 'time': 8.17, 'pitch': -24.4, 'roll': 45.53}
{'lipoC2': 8.17, 'temp': 25.75, 'lipoC3S3': 0.0, 'state': 'normal', 'rot1': 0, 'rot0': 748, 'rot3': 0, 'rot2': 0, 'depth': -0.217, 'yaw': -0.01, 'datetime': '2018-10-26 09:51:48.387880', 'mgs': 0, 'flw2': 0.0, 'flw1': 0.0, 'flw0': 0.0, 'time': 8.27, 'pitch': -24.42, 'roll': 45.54}
{'lipoC2': 8.17, 'temp': 25.75, 'lipoC3S3': 0.0, 'state': 'normal', 'rot1': 0, 'rot0': 748, 'rot3': 0, 'rot2': 0, 'depth': -0.14, 'yaw': 0.02, 'datetime': '2018-10-26 09:51:48.489646', 'mgs': 0, 'flw2': 0.0, 'flw1': 0.0, 'flw0': 0.0, 'time': 8.38, 'pitch': -24.4, 'roll': 45.53}
{'lipoC2': 8.17, 'temp': 25.75, 'lipoC3S3': 0.0, 'state': 'normal', 'rot1': 0, 'rot0': 748, 'rot3': 0, 'rot2': 0, 'depth': -0.14, 'yaw': -0.01, 'datetime': '2018-10-26 09:51:48.593799', 'mgs': 0, 'flw2': 0.0, 'flw1': 0.0, 'flw0': 0.0, 'time': 8.48, 'pitch': -24.4, 'roll': 45.54}
{'lipoC2': 8.17, 'temp': 25.81, 'lipoC3S3': 0.0, 'state': 'normal', 'rot1': 0, 'rot0': 748, 'rot3': 0, 'rot2': 0, 'depth': -0.14, 'yaw': 0.01, 'datetime': '2018-10-26 09:51:48.697681', 'mgs': 0, 'flw2': 0.0, 'flw1': 0.0, 'flw0': 0.0, 'time': 8.58, 'pitch': -24.39, 'roll': 45.54}
{'lipoC2': 8.17, 'temp': 25.81, 'lipoC3S3': 0.0, 'state': 'normal', 'rot1': 0, 'rot0': 748, 'rot3': 0, 'rot2': 0, 'depth': -0.14, 'yaw': -0.02, 'datetime': '2018-10-26 09:51:48.800684', 'mgs': 0, 'flw2': 0.0, 'flw1': 0.0, 'flw0': 0.0, 'time': 8.69, 'pitch': -24.41, 'roll': 45.55}
{'lipoC2': 8.17, 'temp': 25.81, 'lipoC3S3': 0.0, 'state': 'normal', 'rot1': 0, 'rot0': 748, 'rot3': 0, 'rot2': 0, 'depth': -0.14, 'yaw': 0.0, 'datetime': '2018-10-26 09:51:48.903208', 'mgs': 0, 'flw2': 0.0, 'flw1': 0.0, 'flw0': 0.0, 'time': 8.79, 'pitch': -24.4, 'roll': 45.54}
{'lipoC2': 8.17, 'temp': 25.81, 'lipoC3S3': 0.0, 'state': 'normal', 'rot1': 0, 'rot0': 748, 'rot3': 0, 'rot2': 0, 'depth': -0.14, 'yaw': -0.01, 'datetime': '2018-10-26 09:51:49.005832', 'mgs': 0, 'flw2': 0.0, 'flw1': 0.0, 'flw0': 0.0, 'time': 8.89, 'pitch': -24.4, 'roll': 45.54}
{'lipoC2': 8.17, 'temp': 25.81, 'lipoC3S3': 0.0, 'state': 'normal', 'rot1': 0, 'rot0': 748, 'rot3': 0, 'rot2': 0, 'depth': -0.14, 'yaw': -0.01, 'datetime': '2018-10-26 09:51:49.109532', 'mgs': 0, 'flw2': 0.0, 'flw1': 0.0, 'flw0': 0.0, 'time': 9.0, 'pitch': -24.4, 'roll': 45.54}
{'lipoC2': 8.17, 'temp': 25.81, 'lipoC3S3': 0.0, 'state': 'normal', 'rot1': 0, 'rot0': 748, 'rot3': 0, 'rot2': 0, 'depth': -0.14, 'yaw': -0.03, 'datetime': '2018-10-26 09:51:49.212346', 'mgs': 0, 'flw2': 0.0, 'flw1': 0.0, 'flw0': 0.0, 'time': 9.1, 'pitch': -24.39, 'roll': 45.55}
{'lipoC2': 8.17, 'temp': 25.81, 'lipoC3S3': 0.0, 'state': 'normal', 'rot1': 0, 'rot0': 748, 'rot3': 0, 'rot2': 0, 'depth': -0.14, 'yaw': -0.02, 'datetime': '2018-10-26 09:51:49.315050', 'mgs': 0, 'flw2': 0.0, 'flw1': 0.0, 'flw0': 0.0, 'time': 9.2, 'pitch': -24.4, 'roll': 45.54}
{'lipoC2': 8.17, 'temp': 25.75, 'lipoC3S3': 0.0, 'state': 'normal', 'rot1': 0, 'rot0': 748, 'rot3': 0, 'rot2': 0, 'depth': -0.14, 'yaw': -0.03, 'datetime': '2018-10-26 09:51:49.418239', 'mgs': 0, 'flw2': 0.0, 'flw1': 0.0, 'flw0': 0.0, 'time': 9.31, 'pitch': -24.39, 'roll': 45.55}
{'lipoC2': 8.17, 'temp': 25.75, 'lipoC3S3': 0.0, 'state': 'normal', 'rot1': 0, 'rot0': 748, 'rot3': 0, 'rot2': 0, 'depth': -0.14, 'yaw': -0.02, 'datetime': '2018-10-26 09:51:49.522089', 'mgs': 0, 'flw2': 0.0, 'flw1': 0.0, 'flw0': 0.0, 'time': 9.41, 'pitch': -24.4, 'roll': 45.54}
{'lipoC2': 8.17, 'temp': 25.81, 'lipoC3S3': 0.0, 'state': 'normal', 'rot1': 0, 'rot0': 748, 'rot3': 0, 'rot2': 0, 'depth': -0.14, 'yaw': -0.03, 'datetime': '2018-10-26 09:51:49.624863', 'mgs': 0, 'flw2': 0.0, 'flw1': 0.0, 'flw0': 0.0, 'time': 9.51, 'pitch': -24.4, 'roll': 45.55}
{'lipoC2': 8.17, 'temp': 25.81, 'lipoC3S3': 0.0, 'state': 'normal', 'rot1': 0, 'rot0': 748, 'rot3': 0, 'rot2': 0, 'depth': -0.14, 'yaw': -0.03, 'datetime': '2018-10-26 09:51:49.727336', 'mgs': 0, 'flw2': 0.0, 'flw1': 0.0, 'flw0': 0.0, 'time': 9.61, 'pitch': -24.4, 'roll': 45.56}
{'lipoC2': 8.17, 'temp': 25.75, 'lipoC3S3': 0.0, 'state': 'normal', 'rot1': 0, 'rot0': 748, 'rot3': 0, 'rot2': 0, 'depth': -0.14, 'yaw': -0.04, 'datetime': '2018-10-26 09:51:49.831023', 'mgs': 0, 'flw2': 0.0, 'flw1': 0.0, 'flw0': 0.0, 'time': 9.72, 'pitch': -24.39, 'roll': 45.56}
{'lipoC2': 8.17, 'temp': 25.75, 'lipoC3S3': 0.0, 'state': 'normal', 'rot1': 0, 'rot0': 748, 'rot3': 0, 'rot2': 0, 'depth': -0.14, 'yaw': -0.02, 'datetime': '2018-10-26 09:51:49.935122', 'mgs': 0, 'flw2': 0.0, 'flw1': 0.0, 'flw0': 0.0, 'time': 9.82, 'pitch': -24.39, 'roll': 45.55}
{'lipoC2': 8.17, 'temp': 25.75, 'lipoC3S3': 0.0, 'state': 'normal', 'rot1': 0, 'rot0': 748, 'rot3': 0, 'rot2': 0, 'depth': -0.217, 'yaw': -0.03, 'datetime': '2018-10-26 09:51:50.037506', 'mgs': 0, 'flw2': 0.0, 'flw1': 0.0, 'flw0': 0.0, 'time': 9.93, 'pitch': -24.39, 'roll': 45.55}
{'lipoC2': 8.17, 'temp': 25.81, 'lipoC3S3': 0.0, 'state': 'normal', 'rot1': 0, 'rot0': 748, 'rot3': 0, 'rot2': 0, 'depth': -0.14, 'yaw': -0.05, 'datetime': '2018-10-26 09:51:50.140838', 'mgs': 0, 'flw2': 0.0, 'flw1': 0.0, 'flw0': 0.0, 'time': 10.03, 'pitch': -24.39, 'roll': 45.56}
{'lipoC2': 8.17, 'temp': 25.81, 'lipoC3S3': 0.0, 'state': 'normal', 'rot1': 0, 'rot0': 748, 'rot3': 0, 'rot2': 0, 'depth': -0.14, 'yaw': -0.03, 'datetime': '2018-10-26 09:51:50.242604', 'mgs': 0, 'flw2': 0.0, 'flw1': 0.0, 'flw0': 0.0, 'time': 10.13, 'pitch': -24.38, 'roll': 45.55}
{'lipoC2': 8.17, 'temp': 25.81, 'lipoC3S3': 0.0, 'state': 'normal', 'rot1': 0, 'rot0': 748, 'rot3': 0, 'rot2': 0, 'depth': -0.14, 'yaw': -0.03, 'datetime': '2018-10-26 09:51:50.346542', 'mgs': 0, 'flw2': 0.0, 'flw1': 0.0, 'flw0': 0.0, 'time': 10.23, 'pitch': -24.38, 'roll': 45.55}
{'lipoC2': 8.17, 'temp': 25.81, 'lipoC3S3': 0.0, 'state': 'normal', 'rot1': 0, 'rot0': 748, 'rot3': 0, 'rot2': 0, 'depth': -0.217, 'yaw': -0.02, 'datetime': '2018-10-26 09:51:50.448773', 'mgs': 0, 'flw2': 0.0, 'flw1': 0.0, 'flw0': 0.0, 'time': 10.34, 'pitch': -24.38, 'roll': 45.55}
{'lipoC2': 8.17, 'temp': 25.81, 'lipoC3S3': 0.0, 'state': 'normal', 'rot1': 0, 'rot0': 748, 'rot3': 0, 'rot2': 0, 'depth': -0.14, 'yaw': -0.03, 'datetime': '2018-10-26 09:51:50.551994', 'mgs': 0, 'flw2': 0.0, 'flw1': 0.0, 'flw0': 0.0, 'time': 10.44, 'pitch': -24.39, 'roll': 45.55}
{'lipoC2': 8.17, 'temp': 25.81, 'lipoC3S3': 0.0, 'state': 'normal', 'rot1': 0, 'rot0': 748, 'rot3': 0, 'rot2': 0, 'depth': -0.14, 'yaw': -0.03, 'datetime': '2018-10-26 09:51:50.655660', 'mgs': 0, 'flw2': 0.0, 'flw1': 0.0, 'flw0': 0.0, 'time': 10.54, 'pitch': -24.39, 'roll': 45.55}
{'lipoC2': 8.17, 'temp': 25.81, 'lipoC3S3': 0.0, 'state': 'normal', 'rot1': 0, 'rot0': 748, 'rot3': 0, 'rot2': 0, 'depth': -0.217, 'yaw': -0.04, 'datetime': '2018-10-26 09:51:50.757882', 'mgs': 0, 'flw2': 0.0, 'flw1': 0.0, 'flw0': 0.0, 'time': 10.65, 'pitch': -24.39, 'roll': 45.55}
{'lipoC2': 8.17, 'temp': 25.81, 'lipoC3S3': 0.0, 'state': 'normal', 'rot1': 0, 'rot0': 748, 'rot3': 0, 'rot2': 0, 'depth': -0.217, 'yaw': -0.03, 'datetime': '2018-10-26 09:51:50.860359', 'mgs': 0, 'flw2': 0.0, 'flw1': 0.0, 'flw0': 0.0, 'time': 10.75, 'pitch': -24.38, 'roll': 45.56}
{'lipoC2': 8.17, 'temp': 25.81, 'lipoC3S3': 0.0, 'state': 'normal', 'rot1': 0, 'rot0': 748, 'rot3': 0, 'rot2': 0, 'depth': -0.14, 'yaw': -0.06, 'datetime': '2018-10-26 09:51:50.964117', 'mgs': 0, 'flw2': 0.0, 'flw1': 0.0, 'flw0': 0.0, 'time': 10.85, 'pitch': -24.38, 'roll': 45.56}
{'lipoC2': 8.17, 'temp': 25.81, 'lipoC3S3': 0.0, 'state': 'normal', 'rot1': 0, 'rot0': 748, 'rot3': 0, 'rot2': 0, 'depth': -0.14, 'yaw': -0.07, 'datetime': '2018-10-26 09:51:51.067770', 'mgs': 0, 'flw2': 0.0, 'flw1': 0.0, 'flw0': 0.0, 'time': 10.96, 'pitch': -24.38, 'roll': 45.57}
{'lipoC2': 8.17, 'temp': 25.81, 'lipoC3S3': 0.0, 'state': 'normal', 'rot1': 0, 'rot0': 748, 'rot3': 0, 'rot2': 0, 'depth': -0.14, 'yaw': -0.07, 'datetime': '2018-10-26 09:51:51.170265', 'mgs': 0, 'flw2': 0.0, 'flw1': 0.0, 'flw0': 0.0, 'time': 11.06, 'pitch': -24.38, 'roll': 45.57}
{'lipoC2': 8.17, 'temp': 25.75, 'lipoC3S3': 0.0, 'state': 'normal', 'rot1': 0, 'rot0': 748, 'rot3': 0, 'rot2': 0, 'depth': -0.14, 'yaw': -0.07, 'datetime': '2018-10-26 09:51:51.273131', 'mgs': 0, 'flw2': 0.0, 'flw1': 0.0, 'flw0': 0.0, 'time': 11.16, 'pitch': -24.38, 'roll': 45.57}
{'lipoC2': 8.17, 'temp': 25.75, 'lipoC3S3': 0.0, 'state': 'normal', 'rot1': 0, 'rot0': 748, 'rot3': 0, 'rot2': 0, 'depth': -0.217, 'yaw': -0.07, 'datetime': '2018-10-26 09:51:51.377636', 'mgs': 0, 'flw2': 0.0, 'flw1': 0.0, 'flw0': 0.0, 'time': 11.27, 'pitch': -24.38, 'roll': 45.57}
{'lipoC2': 8.17, 'temp': 25.75, 'lipoC3S3': 0.0, 'state': 'normal', 'rot1': 0, 'rot0': 748, 'rot3': 0, 'rot2': 0, 'depth': -0.14, 'yaw': -0.07, 'datetime': '2018-10-26 09:51:51.479689', 'mgs': 0, 'flw2': 0.0, 'flw1': 0.0, 'flw0': 0.0, 'time': 11.37, 'pitch': -24.38, 'roll': 45.57}
{'lipoC2': 8.17, 'temp': 25.81, 'lipoC3S3': 0.0, 'state': 'normal', 'rot1': 0, 'rot0': 748, 'rot3': 0, 'rot2': 0, 'depth': -0.217, 'yaw': -0.05, 'datetime': '2018-10-26 09:51:51.581377', 'mgs': 0, 'flw2': 0.0, 'flw1': 0.0, 'flw0': 0.0, 'time': 11.47, 'pitch': -24.38, 'roll': 45.57}
{'lipoC2': 8.17, 'temp': 25.81, 'lipoC3S3': 0.0, 'state': 'normal', 'rot1': 0, 'rot0': 748, 'rot3': 0, 'rot2': 0, 'depth': -0.14, 'yaw': -0.05, 'datetime': '2018-10-26 09:51:51.685937', 'mgs': 0, 'flw2': 0.0, 'flw1': 0.0, 'flw0': 0.0, 'time': 11.57, 'pitch': -24.38, 'roll': 45.57}
{'lipoC2': 8.17, 'temp': 25.81, 'lipoC3S3': 0.0, 'state': 'normal', 'rot1': 0, 'rot0': 748, 'rot3': 0, 'rot2': 0, 'depth': -0.14, 'yaw': -0.04, 'datetime': '2018-10-26 09:51:51.789765', 'mgs': 0, 'flw2': 0.0, 'flw1': 0.0, 'flw0': 0.0, 'time': 11.68, 'pitch': -24.38, 'roll': 45.56}
{'lipoC2': 8.17, 'temp': 25.81, 'lipoC3S3': 0.0, 'state': 'normal', 'rot1': 0, 'rot0': 748, 'rot3': 0, 'rot2': 0, 'depth': -0.217, 'yaw': -0.04, 'datetime': '2018-10-26 09:51:51.892208', 'mgs': 0, 'flw2': 0.0, 'flw1': 0.0, 'flw0': 0.0, 'time': 11.78, 'pitch': -24.38, 'roll': 45.56}
{'lipoC2': 8.17, 'temp': 25.81, 'lipoC3S3': 0.0, 'state': 'normal', 'rot1': 0, 'rot0': 748, 'rot3': 0, 'rot2': 0, 'depth': -0.14, 'yaw': -0.04, 'datetime': '2018-10-26 09:51:51.993925', 'mgs': 0, 'flw2': 0.0, 'flw1': 0.0, 'flw0': 0.0, 'time': 11.88, 'pitch': -24.38, 'roll': 45.56}
{'lipoC2': 8.17, 'temp': 25.81, 'lipoC3S3': 0.0, 'state': 'normal', 'rot1': 0, 'rot0': 748, 'rot3': 0, 'rot2': 0, 'depth': -0.217, 'yaw': -0.04, 'datetime': '2018-10-26 09:51:52.097364', 'mgs': 0, 'flw2': 0.0, 'flw1': 0.0, 'flw0': 0.0, 'time': 11.99, 'pitch': -24.38, 'roll': 45.56}
{'lipoC2': 8.17, 'temp': 25.81, 'lipoC3S3': 0.0, 'state': 'normal', 'rot1': 0, 'rot0': 748, 'rot3': 0, 'rot2': 0, 'depth': -0.14, 'yaw': -0.04, 'datetime': '2018-10-26 09:51:52.200897', 'mgs': 0, 'flw2': 0.0, 'flw1': 0.0, 'flw0': 0.0, 'time': 12.09, 'pitch': -24.37, 'roll': 45.56}
{'lipoC2': 8.17, 'temp': 25.81, 'lipoC3S3': 0.0, 'state': 'normal', 'rot1': 0, 'rot0': 748, 'rot3': 0, 'rot2': 0, 'depth': -0.14, 'yaw': -0.04, 'datetime': '2018-10-26 09:51:52.303429', 'mgs': 0, 'flw2': 0.0, 'flw1': 0.0, 'flw0': 0.0, 'time': 12.19, 'pitch': -24.36, 'roll': 45.57}
{'lipoC2': 8.17, 'temp': 25.81, 'lipoC3S3': 0.0, 'state': 'normal', 'rot1': 0, 'rot0': 748, 'rot3': 0, 'rot2': 0, 'depth': -0.14, 'yaw': -0.05, 'datetime': '2018-10-26 09:51:52.406575', 'mgs': 0, 'flw2': 0.0, 'flw1': 0.0, 'flw0': 0.0, 'time': 12.3, 'pitch': -24.35, 'roll': 45.56}
{'lipoC2': 8.17, 'temp': 25.81, 'lipoC3S3': 0.0, 'state': 'normal', 'rot1': 0, 'rot0': 748, 'rot3': 0, 'rot2': 0, 'depth': -0.217, 'yaw': -0.05, 'datetime': '2018-10-26 09:51:52.510345', 'mgs': 0, 'flw2': 0.0, 'flw1': 0.0, 'flw0': 0.0, 'time': 12.4, 'pitch': -24.36, 'roll': 45.57}
{'lipoC2': 8.17, 'temp': 25.81, 'lipoC3S3': 0.0, 'state': 'normal', 'rot1': 0, 'rot0': 748, 'rot3': 0, 'rot2': 0, 'depth': -0.14, 'yaw': -0.03, 'datetime': '2018-10-26 09:51:52.612903', 'mgs': 0, 'flw2': 0.0, 'flw1': 0.0, 'flw0': 0.0, 'time': 12.5, 'pitch': -24.36, 'roll': 45.56}
{'lipoC2': 8.17, 'temp': 25.81, 'lipoC3S3': 0.0, 'state': 'normal', 'rot1': 0, 'rot0': 748, 'rot3': 0, 'rot2': 0, 'depth': -0.14, 'yaw': -0.04, 'datetime': '2018-10-26 09:51:52.715535', 'mgs': 0, 'flw2': 0.0, 'flw1': 0.0, 'flw0': 0.0, 'time': 12.61, 'pitch': -24.36, 'roll': 45.56}
{'lipoC2': 8.17, 'temp': 25.81, 'lipoC3S3': 0.0, 'state': 'normal', 'rot1': 0, 'rot0': 748, 'rot3': 0, 'rot2': 0, 'depth': -0.064, 'yaw': -0.05, 'datetime': '2018-10-26 09:51:52.819423', 'mgs': 0, 'flw2': 0.0, 'flw1': 0.0, 'flw0': 0.0, 'time': 12.71, 'pitch': -24.35, 'roll': 45.56}
{'lipoC2': 8.17, 'temp': 25.81, 'lipoC3S3': 0.0, 'state': 'normal', 'rot1': 0, 'rot0': 748, 'rot3': 0, 'rot2': 0, 'depth': -0.14, 'yaw': -0.05, 'datetime': '2018-10-26 09:51:52.922370', 'mgs': 0, 'flw2': 0.0, 'flw1': 0.0, 'flw0': 0.0, 'time': 12.81, 'pitch': -24.35, 'roll': 45.56}
{'lipoC2': 8.17, 'temp': 25.75, 'lipoC3S3': 0.0, 'state': 'normal', 'rot1': 0, 'rot0': 748, 'rot3': 0, 'rot2': 0, 'depth': -0.14, 'yaw': -0.05, 'datetime': '2018-10-26 09:51:53.019486', 'mgs': 0, 'flw2': 0.0, 'flw1': 0.0, 'flw0': 0.0, 'time': 12.91, 'pitch': -24.35, 'roll': 45.56}
{'lipoC2': 8.17, 'temp': 25.75, 'lipoC3S3': 0.0, 'state': 'normal', 'rot1': 0, 'rot0': 748, 'rot3': 0, 'rot2': 0, 'depth': -0.14, 'yaw': -0.05, 'datetime': '2018-10-26 09:51:53.122264', 'mgs': 0, 'flw2': 0.0, 'flw1': 0.0, 'flw0': 0.0, 'time': 13.02, 'pitch': -24.35, 'roll': 45.56}
{'lipoC2': 8.17, 'temp': 25.81, 'lipoC3S3': 0.0, 'state': 'normal', 'rot1': 0, 'rot0': 748, 'rot3': 0, 'rot2': 0, 'depth': -0.14, 'yaw': -0.05, 'datetime': '2018-10-26 09:51:53.229994', 'mgs': 0, 'flw2': 0.0, 'flw1': 0.0, 'flw0': 0.0, 'time': 13.12, 'pitch': -24.35, 'roll': 45.56}
{'lipoC2': 8.17, 'temp': 25.81, 'lipoC3S3': 0.0, 'state': 'normal', 'rot1': 0, 'rot0': 748, 'rot3': 0, 'rot2': 0, 'depth': -0.14, 'yaw': -0.05, 'datetime': '2018-10-26 09:51:53.334487', 'mgs': 0, 'flw2': 0.0, 'flw1': 0.0, 'flw0': 0.0, 'time': 13.23, 'pitch': -24.35, 'roll': 45.56}
{'lipoC2': 8.17, 'temp': 25.81, 'lipoC3S3': 0.0, 'state': 'normal', 'rot1': 0, 'rot0': 748, 'rot3': 0, 'rot2': 0, 'depth': -0.217, 'yaw': -0.05, 'datetime': '2018-10-26 09:51:53.434937', 'mgs': 0, 'flw2': 0.0, 'flw1': 0.0, 'flw0': 0.0, 'time': 13.33, 'pitch': -24.35, 'roll': 45.56}
{'lipoC2': 8.17, 'temp': 25.75, 'lipoC3S3': 0.0, 'state': 'normal', 'rot1': 0, 'rot0': 748, 'rot3': 0, 'rot2': 0, 'depth': -0.217, 'yaw': -0.04, 'datetime': '2018-10-26 09:51:53.540751', 'mgs': 0, 'flw2': 0.0, 'flw1': 0.0, 'flw0': 0.0, 'time': 13.43, 'pitch': -24.36, 'roll': 45.56}
{'lipoC2': 8.17, 'temp': 25.75, 'lipoC3S3': 0.0, 'state': 'normal', 'rot1': 0, 'rot0': 748, 'rot3': 0, 'rot2': 0, 'depth': -0.217, 'yaw': -0.06, 'datetime': '2018-10-26 09:51:53.644565', 'mgs': 0, 'flw2': 0.0, 'flw1': 0.0, 'flw0': 0.0, 'time': 13.54, 'pitch': -24.36, 'roll': 45.57}
{'lipoC2': 8.17, 'temp': 25.81, 'lipoC3S3': 0.0, 'state': 'normal', 'rot1': 0, 'rot0': 748, 'rot3': 0, 'rot2': 0, 'depth': -0.217, 'yaw': -0.04, 'datetime': '2018-10-26 09:51:53.747128', 'mgs': 0, 'flw2': 0.0, 'flw1': 0.0, 'flw0': 0.0, 'time': 13.64, 'pitch': -24.35, 'roll': 45.56}
{'lipoC2': 8.17, 'temp': 25.81, 'lipoC3S3': 0.0, 'state': 'normal', 'rot1': 0, 'rot0': 748, 'rot3': 0, 'rot2': 0, 'depth': -0.14, 'yaw': -0.05, 'datetime': '2018-10-26 09:51:53.849714', 'mgs': 0, 'flw2': 0.0, 'flw1': 0.0, 'flw0': 0.0, 'time': 13.74, 'pitch': -24.35, 'roll': 45.56}
{'lipoC2': 8.17, 'temp': 25.81, 'lipoC3S3': 0.0, 'state': 'normal', 'rot1': 0, 'rot0': 748, 'rot3': 0, 'rot2': 0, 'depth': -0.217, 'yaw': -0.04, 'datetime': '2018-10-26 09:51:53.952278', 'mgs': 0, 'flw2': 0.0, 'flw1': 0.0, 'flw0': 0.0, 'time': 13.84, 'pitch': -24.35, 'roll': 45.56}
{'lipoC2': 8.17, 'temp': 25.81, 'lipoC3S3': 0.0, 'state': 'normal', 'rot1': 0, 'rot0': 748, 'rot3': 0, 'rot2': 0, 'depth': -0.217, 'yaw': -0.05, 'datetime': '2018-10-26 09:51:54.055652', 'mgs': 0, 'flw2': 0.0, 'flw1': 0.0, 'flw0': 0.0, 'time': 13.95, 'pitch': -24.34, 'roll': 45.56}
{'lipoC2': 8.17, 'temp': 25.81, 'lipoC3S3': 0.0, 'state': 'normal', 'rot1': 0, 'rot0': 748, 'rot3': 0, 'rot2': 0, 'depth': -0.217, 'yaw': -0.05, 'datetime': '2018-10-26 09:51:54.158203', 'mgs': 0, 'flw2': 0.0, 'flw1': 0.0, 'flw0': 0.0, 'time': 14.05, 'pitch': -24.34, 'roll': 45.56}
{'lipoC2': 8.17, 'temp': 25.75, 'lipoC3S3': 0.0, 'state': 'normal', 'rot1': 0, 'rot0': 748, 'rot3': 0, 'rot2': 0, 'depth': -0.217, 'yaw': -0.05, 'datetime': '2018-10-26 09:51:54.261125', 'mgs': 0, 'flw2': 0.0, 'flw1': 0.0, 'flw0': 0.0, 'time': 14.15, 'pitch': -24.34, 'roll': 45.56}
{'lipoC2': 8.17, 'temp': 25.75, 'lipoC3S3': 0.0, 'state': 'normal', 'rot1': 0, 'rot0': 748, 'rot3': 0, 'rot2': 0, 'depth': -0.14, 'yaw': -0.05, 'datetime': '2018-10-26 09:51:54.358722', 'mgs': 0, 'flw2': 0.0, 'flw1': 0.0, 'flw0': 0.0, 'time': 14.26, 'pitch': -24.34, 'roll': 45.56}
{'lipoC2': 8.17, 'temp': 25.81, 'lipoC3S3': 0.0, 'state': 'normal', 'rot1': 0, 'rot0': 748, 'rot3': 0, 'rot2': 0, 'depth': -0.14, 'yaw': -0.05, 'datetime': '2018-10-26 09:51:54.461026', 'mgs': 0, 'flw2': 0.0, 'flw1': 0.0, 'flw0': 0.0, 'time': 14.36, 'pitch': -24.34, 'roll': 45.56}
{'lipoC2': 8.17, 'temp': 25.81, 'lipoC3S3': 0.0, 'state': 'normal', 'rot1': 0, 'rot0': 748, 'rot3': 0, 'rot2': 0, 'depth': -0.14, 'yaw': -0.05, 'datetime': '2018-10-26 09:51:54.563608', 'mgs': 0, 'flw2': 0.0, 'flw1': 0.0, 'flw0': 0.0, 'time': 14.46, 'pitch': -24.34, 'roll': 45.56}
{'lipoC2': 8.17, 'temp': 25.75, 'lipoC3S3': 0.0, 'state': 'normal', 'rot1': 0, 'rot0': 748, 'rot3': 0, 'rot2': 0, 'depth': -0.14, 'yaw': -0.05, 'datetime': '2018-10-26 09:51:54.667447', 'mgs': 0, 'flw2': 0.0, 'flw1': 0.0, 'flw0': 0.0, 'time': 14.57, 'pitch': -24.34, 'roll': 45.56}
{'lipoC2': 8.17, 'temp': 25.75, 'lipoC3S3': 0.0, 'state': 'normal', 'rot1': 0, 'rot0': 748, 'rot3': 0, 'rot2': 0, 'depth': -0.14, 'yaw': -0.05, 'datetime': '2018-10-26 09:51:54.771435', 'mgs': 0, 'flw2': 0.0, 'flw1': 0.0, 'flw0': 0.0, 'time': 14.67, 'pitch': -24.34, 'roll': 45.56}
{'lipoC2': 8.17, 'temp': 25.75, 'lipoC3S3': 0.0, 'state': 'normal', 'rot1': 0, 'rot0': 748, 'rot3': 0, 'rot2': 0, 'depth': -0.14, 'yaw': -0.05, 'datetime': '2018-10-26 09:51:54.873540', 'mgs': 0, 'flw2': 0.0, 'flw1': 0.0, 'flw0': 0.0, 'time': 14.77, 'pitch': -24.34, 'roll': 45.56}
{'lipoC2': 8.17, 'temp': 25.75, 'lipoC3S3': 0.0, 'state': 'normal', 'rot1': 0, 'rot0': 748, 'rot3': 0, 'rot2': 0, 'depth': -0.14, 'yaw': -0.05, 'datetime': '2018-10-26 09:51:54.976384', 'mgs': 0, 'flw2': 0.0, 'flw1': 0.0, 'flw0': 0.0, 'time': 14.88, 'pitch': -24.34, 'roll': 45.56}
{'lipoC2': 8.17, 'temp': 25.75, 'lipoC3S3': 0.0, 'state': 'normal', 'rot1': 0, 'rot0': 748, 'rot3': 0, 'rot2': 0, 'depth': -0.217, 'yaw': -0.05, 'datetime': '2018-10-26 09:51:55.086340', 'mgs': 0, 'flw2': 0.0, 'flw1': 0.0, 'flw0': 0.0, 'time': 14.98, 'pitch': -24.34, 'roll': 45.56}
{'lipoC2': 8.17, 'temp': 25.75, 'lipoC3S3': 0.0, 'state': 'normal', 'rot1': 0, 'rot0': 748, 'rot3': 0, 'rot2': 0, 'depth': -0.14, 'yaw': -0.05, 'datetime': '2018-10-26 09:51:55.188606', 'mgs': 0, 'flw2': 0.0, 'flw1': 0.0, 'flw0': 0.0, 'time': 15.08, 'pitch': -24.34, 'roll': 45.56}
{'lipoC2': 8.17, 'temp': 25.75, 'lipoC3S3': 0.0, 'state': 'normal', 'rot1': 0, 'rot0': 748, 'rot3': 0, 'rot2': 0, 'depth': -0.14, 'yaw': -0.06, 'datetime': '2018-10-26 09:51:55.291959', 'mgs': 0, 'flw2': 0.0, 'flw1': 0.0, 'flw0': 0.0, 'time': 15.18, 'pitch': -24.34, 'roll': 45.56}
{'lipoC2': 8.17, 'temp': 25.81, 'lipoC3S3': 0.0, 'state': 'normal', 'rot1': 0, 'rot0': 748, 'rot3': 0, 'rot2': 0, 'depth': -0.217, 'yaw': -0.06, 'datetime': '2018-10-26 09:51:55.395550', 'mgs': 0, 'flw2': 0.0, 'flw1': 0.0, 'flw0': 0.0, 'time': 15.29, 'pitch': -24.34, 'roll': 45.56}
{'lipoC2': 8.17, 'temp': 25.81, 'lipoC3S3': 0.0, 'state': 'normal', 'rot1': 0, 'rot0': 748, 'rot3': 0, 'rot2': 0, 'depth': -0.14, 'yaw': -0.06, 'datetime': '2018-10-26 09:51:55.499392', 'mgs': 0, 'flw2': 0.0, 'flw1': 0.0, 'flw0': 0.0, 'time': 15.39, 'pitch': -24.34, 'roll': 45.56}
{'lipoC2': 8.17, 'temp': 25.81, 'lipoC3S3': 0.0, 'state': 'normal', 'rot1': 0, 'rot0': 748, 'rot3': 0, 'rot2': 0, 'depth': -0.14, 'yaw': -0.06, 'datetime': '2018-10-26 09:51:55.597390', 'mgs': 0, 'flw2': 0.0, 'flw1': 0.0, 'flw0': 0.0, 'time': 15.49, 'pitch': -24.34, 'roll': 45.56}
{'lipoC2': 8.19, 'temp': 25.81, 'lipoC3S3': 0.0, 'state': 'normal', 'rot1': 0, 'rot0': 748, 'rot3': 0, 'rot2': 0, 'depth': -0.064, 'yaw': -0.06, 'datetime': '2018-10-26 09:51:55.702692', 'mgs': 0, 'flw2': 0.0, 'flw1': 0.0, 'flw0': 0.0, 'time': 15.6, 'pitch': -24.34, 'roll': 45.57}
{'lipoC2': 8.17, 'temp': 25.81, 'lipoC3S3': 0.0, 'state': 'normal', 'rot1': 0, 'rot0': 748, 'rot3': 0, 'rot2': 0, 'depth': -0.14, 'yaw': -0.06, 'datetime': '2018-10-26 09:51:55.806944', 'mgs': 0, 'flw2': 0.0, 'flw1': 0.0, 'flw0': 0.0, 'time': 15.7, 'pitch': -24.34, 'roll': 45.57}
{'lipoC2': 8.17, 'temp': 25.81, 'lipoC3S3': 0.0, 'state': 'normal', 'rot1': 0, 'rot0': 748, 'rot3': 0, 'rot2': 0, 'depth': -0.14, 'yaw': -0.06, 'datetime': '2018-10-26 09:51:55.908654', 'mgs': 0, 'flw2': 0.0, 'flw1': 0.0, 'flw0': 0.0, 'time': 15.8, 'pitch': -24.34, 'roll': 45.57}
{'lipoC2': 8.17, 'temp': 25.81, 'lipoC3S3': 0.0, 'state': 'normal', 'rot1': 0, 'rot0': 748, 'rot3': 0, 'rot2': 0, 'depth': -0.14, 'yaw': -0.06, 'datetime': '2018-10-26 09:51:56.012894', 'mgs': 0, 'flw2': 0.0, 'flw1': 0.0, 'flw0': 0.0, 'time': 15.91, 'pitch': -24.34, 'roll': 45.57}
{'lipoC2': 8.17, 'temp': 25.81, 'lipoC3S3': 0.0, 'state': 'normal', 'rot1': 0, 'rot0': 748, 'rot3': 0, 'rot2': 0, 'depth': -0.14, 'yaw': -0.06, 'datetime': '2018-10-26 09:51:56.116538', 'mgs': 0, 'flw2': 0.0, 'flw1': 0.0, 'flw0': 0.0, 'time': 16.01, 'pitch': -24.34, 'roll': 45.57}
{'lipoC2': 8.17, 'temp': 25.81, 'lipoC3S3': 0.0, 'state': 'normal', 'rot1': 0, 'rot0': 748, 'rot3': 0, 'rot2': 0, 'depth': -0.14, 'yaw': -0.06, 'datetime': '2018-10-26 09:51:56.220207', 'mgs': 0, 'flw2': 0.0, 'flw1': 0.0, 'flw0': 0.0, 'time': 16.11, 'pitch': -24.34, 'roll': 45.57}
{'lipoC2': 8.17, 'temp': 25.81, 'lipoC3S3': 0.0, 'state': 'normal', 'rot1': 0, 'rot0': 748, 'rot3': 0, 'rot2': 0, 'depth': -0.14, 'yaw': -0.06, 'datetime': '2018-10-26 09:51:56.322516', 'mgs': 0, 'flw2': 0.0, 'flw1': 0.0, 'flw0': 0.0, 'time': 16.22, 'pitch': -24.34, 'roll': 45.57}
{'lipoC2': 8.17, 'temp': 25.88, 'lipoC3S3': 0.0, 'state': 'normal', 'rot1': 0, 'rot0': 748, 'rot3': 0, 'rot2': 0, 'depth': -0.14, 'yaw': -0.06, 'datetime': '2018-10-26 09:51:56.424992', 'mgs': 0, 'flw2': 0.0, 'flw1': 0.0, 'flw0': 0.0, 'time': 16.32, 'pitch': -24.34, 'roll': 45.57}
{'lipoC2': 8.17, 'temp': 25.88, 'lipoC3S3': 0.0, 'state': 'normal', 'rot1': 0, 'rot0': 748, 'rot3': 0, 'rot2': 0, 'depth': -0.14, 'yaw': -0.06, 'datetime': '2018-10-26 09:51:56.529229', 'mgs': 0, 'flw2': 0.0, 'flw1': 0.0, 'flw0': 0.0, 'time': 16.42, 'pitch': -24.33, 'roll': 45.57}
{'lipoC2': 8.17, 'temp': 25.81, 'lipoC3S3': 0.0, 'state': 'normal', 'rot1': 0, 'rot0': 748, 'rot3': 0, 'rot2': 0, 'depth': -0.14, 'yaw': -0.06, 'datetime': '2018-10-26 09:51:56.632066', 'mgs': 0, 'flw2': 0.0, 'flw1': 0.0, 'flw0': 0.0, 'time': 16.53, 'pitch': -24.33, 'roll': 45.57}
{'lipoC2': 8.17, 'temp': 25.81, 'lipoC3S3': 0.0, 'state': 'normal', 'rot1': 0, 'rot0': 748, 'rot3': 0, 'rot2': 0, 'depth': -0.14, 'yaw': -0.06, 'datetime': '2018-10-26 09:51:56.734580', 'mgs': 0, 'flw2': 0.0, 'flw1': 0.0, 'flw0': 0.0, 'time': 16.63, 'pitch': -24.33, 'roll': 45.57}
{'lipoC2': 8.17, 'temp': 25.81, 'lipoC3S3': 0.0, 'state': 'normal', 'rot1': 0, 'rot0': 748, 'rot3': 0, 'rot2': 0, 'depth': -0.14, 'yaw': -0.06, 'datetime': '2018-10-26 09:51:56.837712', 'mgs': 0, 'flw2': 0.0, 'flw1': 0.0, 'flw0': 0.0, 'time': 16.73, 'pitch': -24.33, 'roll': 45.57}
{'lipoC2': 8.17, 'temp': 25.81, 'lipoC3S3': 0.0, 'state': 'normal', 'rot1': 0, 'rot0': 748, 'rot3': 0, 'rot2': 0, 'depth': -0.14, 'yaw': -0.06, 'datetime': '2018-10-26 09:51:56.941630', 'mgs': 0, 'flw2': 0.0, 'flw1': 0.0, 'flw0': 0.0, 'time': 16.84, 'pitch': -24.33, 'roll': 45.57}
{'lipoC2': 8.17, 'temp': 25.81, 'lipoC3S3': 0.0, 'state': 'normal', 'rot1': 0, 'rot0': 748, 'rot3': 0, 'rot2': 0, 'depth': -0.217, 'yaw': -0.07, 'datetime': '2018-10-26 09:51:57.043594', 'mgs': 0, 'flw2': 0.0, 'flw1': 0.0, 'flw0': 0.0, 'time': 16.94, 'pitch': -24.33, 'roll': 45.57}
{'lipoC2': 8.17, 'temp': 25.81, 'lipoC3S3': 0.0, 'state': 'normal', 'rot1': 0, 'rot0': 748, 'rot3': 0, 'rot2': 0, 'depth': -0.14, 'yaw': -0.07, 'datetime': '2018-10-26 09:51:57.146587', 'mgs': 0, 'flw2': 0.0, 'flw1': 0.0, 'flw0': 0.0, 'time': 17.04, 'pitch': -24.33, 'roll': 45.57}
{'lipoC2': 8.17, 'temp': 25.81, 'lipoC3S3': 0.0, 'state': 'normal', 'rot1': 0, 'rot0': 748, 'rot3': 0, 'rot2': 0, 'depth': -0.14, 'yaw': -0.08, 'datetime': '2018-10-26 09:51:57.250508', 'mgs': 0, 'flw2': 0.0, 'flw1': 0.0, 'flw0': 0.0, 'time': 17.15, 'pitch': -24.32, 'roll': 45.57}
{'lipoC2': 8.17, 'temp': 25.81, 'lipoC3S3': 0.0, 'state': 'normal', 'rot1': 0, 'rot0': 748, 'rot3': 0, 'rot2': 0, 'depth': -0.14, 'yaw': -0.08, 'datetime': '2018-10-26 09:51:57.353457', 'mgs': 0, 'flw2': 0.0, 'flw1': 0.0, 'flw0': 0.0, 'time': 17.25, 'pitch': -24.32, 'roll': 45.57}
{'lipoC2': 8.17, 'temp': 25.81, 'lipoC3S3': 0.0, 'state': 'normal', 'rot1': 0, 'rot0': 748, 'rot3': 0, 'rot2': 0, 'depth': -0.14, 'yaw': -0.08, 'datetime': '2018-10-26 09:51:57.456980', 'mgs': 0, 'flw2': 0.0, 'flw1': 0.0, 'flw0': 0.0, 'time': 17.35, 'pitch': -24.32, 'roll': 45.57}
{'lipoC2': 8.17, 'temp': 25.81, 'lipoC3S3': 0.0, 'state': 'normal', 'rot1': 0, 'rot0': 748, 'rot3': 0, 'rot2': 0, 'depth': -0.14, 'yaw': -0.08, 'datetime': '2018-10-26 09:51:57.559221', 'mgs': 0, 'flw2': 0.0, 'flw1': 0.0, 'flw0': 0.0, 'time': 17.45, 'pitch': -24.32, 'roll': 45.57}
{'lipoC2': 8.17, 'temp': 25.81, 'lipoC3S3': 0.0, 'state': 'normal', 'rot1': 0, 'rot0': 748, 'rot3': 0, 'rot2': 0, 'depth': -0.217, 'yaw': -0.07, 'datetime': '2018-10-26 09:51:57.660344', 'mgs': 0, 'flw2': 0.0, 'flw1': 0.0, 'flw0': 0.0, 'time': 17.56, 'pitch': -24.33, 'roll': 45.57}
{'lipoC2': 8.17, 'temp': 25.81, 'lipoC3S3': 0.0, 'state': 'normal', 'rot1': 0, 'rot0': 748, 'rot3': 0, 'rot2': 0, 'depth': -0.14, 'yaw': -0.08, 'datetime': '2018-10-26 09:51:57.765289', 'mgs': 0, 'flw2': 0.0, 'flw1': 0.0, 'flw0': 0.0, 'time': 17.66, 'pitch': -24.32, 'roll': 45.57}
{'lipoC2': 8.17, 'temp': 25.81, 'lipoC3S3': 0.0, 'state': 'normal', 'rot1': 0, 'rot0': 748, 'rot3': 0, 'rot2': 0, 'depth': -0.14, 'yaw': -0.08, 'datetime': '2018-10-26 09:51:57.867635', 'mgs': 0, 'flw2': 0.0, 'flw1': 0.0, 'flw0': 0.0, 'time': 17.76, 'pitch': -24.32, 'roll': 45.57}
{'lipoC2': 8.17, 'temp': 25.81, 'lipoC3S3': 0.0, 'state': 'normal', 'rot1': 0, 'rot0': 748, 'rot3': 0, 'rot2': 0, 'depth': -0.14, 'yaw': -0.08, 'datetime': '2018-10-26 09:51:57.970961', 'mgs': 0, 'flw2': 0.0, 'flw1': 0.0, 'flw0': 0.0, 'time': 17.87, 'pitch': -24.32, 'roll': 45.57}
{'lipoC2': 8.17, 'temp': 25.81, 'lipoC3S3': 0.0, 'state': 'normal', 'rot1': 0, 'rot0': 748, 'rot3': 0, 'rot2': 0, 'depth': -0.064, 'yaw': -0.08, 'datetime': '2018-10-26 09:51:58.074425', 'mgs': 0, 'flw2': 0.0, 'flw1': 0.0, 'flw0': 0.0, 'time': 17.97, 'pitch': -24.32, 'roll': 45.57}
{'lipoC2': 8.17, 'temp': 25.81, 'lipoC3S3': 0.0, 'state': 'normal', 'rot1': 0, 'rot0': 748, 'rot3': 0, 'rot2': 0, 'depth': -0.14, 'yaw': -0.08, 'datetime': '2018-10-26 09:51:58.175845', 'mgs': 0, 'flw2': 0.0, 'flw1': 0.0, 'flw0': 0.0, 'time': 18.07, 'pitch': -24.32, 'roll': 45.57}
{'lipoC2': 8.17, 'temp': 25.81, 'lipoC3S3': 0.0, 'state': 'normal', 'rot1': 0, 'rot0': 748, 'rot3': 0, 'rot2': 0, 'depth': -0.14, 'yaw': -0.08, 'datetime': '2018-10-26 09:51:58.279892', 'mgs': 0, 'flw2': 0.0, 'flw1': 0.0, 'flw0': 0.0, 'time': 18.18, 'pitch': -24.32, 'roll': 45.58}
{'lipoC2': 8.17, 'temp': 25.81, 'lipoC3S3': 0.0, 'state': 'normal', 'rot1': 0, 'rot0': 748, 'rot3': 0, 'rot2': 0, 'depth': -0.14, 'yaw': -0.08, 'datetime': '2018-10-26 09:51:58.383453', 'mgs': 0, 'flw2': 0.0, 'flw1': 0.0, 'flw0': 0.0, 'time': 18.28, 'pitch': -24.32, 'roll': 45.58}
{'lipoC2': 8.17, 'temp': 25.81, 'lipoC3S3': 0.0, 'state': 'normal', 'rot1': 0, 'rot0': 748, 'rot3': 0, 'rot2': 0, 'depth': -0.14, 'yaw': -0.08, 'datetime': '2018-10-26 09:51:58.486791', 'mgs': 0, 'flw2': 0.0, 'flw1': 0.0, 'flw0': 0.0, 'time': 18.38, 'pitch': -24.32, 'roll': 45.58}
{'lipoC2': 8.17, 'temp': 25.75, 'lipoC3S3': 0.0, 'state': 'normal', 'rot1': 0, 'rot0': 748, 'rot3': 0, 'rot2': 0, 'depth': -0.217, 'yaw': -0.08, 'datetime': '2018-10-26 09:51:58.589540', 'mgs': 0, 'flw2': 0.0, 'flw1': 0.0, 'flw0': 0.0, 'time': 18.49, 'pitch': -24.32, 'roll': 45.58}
{'lipoC2': 8.17, 'temp': 25.75, 'lipoC3S3': 0.0, 'state': 'normal', 'rot1': 0, 'rot0': 748, 'rot3': 0, 'rot2': 0, 'depth': -0.14, 'yaw': -0.08, 'datetime': '2018-10-26 09:51:58.692327', 'mgs': 0, 'flw2': 0.0, 'flw1': 0.0, 'flw0': 0.0, 'time': 18.59, 'pitch': -24.32, 'roll': 45.58}
{'lipoC2': 8.17, 'temp': 25.81, 'lipoC3S3': 0.0, 'state': 'normal', 'rot1': 0, 'rot0': 748, 'rot3': 0, 'rot2': 0, 'depth': -0.14, 'yaw': -0.08, 'datetime': '2018-10-26 09:51:58.796272', 'mgs': 0, 'flw2': 0.0, 'flw1': 0.0, 'flw0': 0.0, 'time': 18.69, 'pitch': -24.32, 'roll': 45.58}
{'lipoC2': 8.17, 'temp': 25.81, 'lipoC3S3': 0.0, 'state': 'normal', 'rot1': 0, 'rot0': 748, 'rot3': 0, 'rot2': 0, 'depth': -0.14, 'yaw': -0.08, 'datetime': '2018-10-26 09:51:58.899545', 'mgs': 0, 'flw2': 0.0, 'flw1': 0.0, 'flw0': 0.0, 'time': 18.8, 'pitch': -24.32, 'roll': 45.58}
{'lipoC2': 8.17, 'temp': 25.81, 'lipoC3S3': 0.0, 'state': 'normal', 'rot1': 0, 'rot0': 748, 'rot3': 0, 'rot2': 0, 'depth': -0.14, 'yaw': -0.08, 'datetime': '2018-10-26 09:51:58.995324', 'mgs': 0, 'flw2': 0.0, 'flw1': 0.0, 'flw0': 0.0, 'time': 18.9, 'pitch': -24.32, 'roll': 45.58}
{'lipoC2': 8.17, 'temp': 25.75, 'lipoC3S3': 0.0, 'state': 'normal', 'rot1': 0, 'rot0': 748, 'rot3': 0, 'rot2': 0, 'depth': -0.14, 'yaw': -0.08, 'datetime': '2018-10-26 09:51:59.099092', 'mgs': 0, 'flw2': 0.0, 'flw1': 0.0, 'flw0': 0.0, 'time': 19.0, 'pitch': -24.32, 'roll': 45.58}
{'lipoC2': 8.17, 'temp': 25.75, 'lipoC3S3': 0.0, 'state': 'normal', 'rot1': 0, 'rot0': 748, 'rot3': 0, 'rot2': 0, 'depth': -0.064, 'yaw': -0.08, 'datetime': '2018-10-26 09:51:59.202702', 'mgs': 0, 'flw2': 0.0, 'flw1': 0.0, 'flw0': 0.0, 'time': 19.1, 'pitch': -24.32, 'roll': 45.58}
{'lipoC2': 8.17, 'temp': 25.81, 'lipoC3S3': 0.0, 'state': 'normal', 'rot1': 0, 'rot0': 748, 'rot3': 0, 'rot2': 0, 'depth': -0.14, 'yaw': -0.08, 'datetime': '2018-10-26 09:51:59.305236', 'mgs': 0, 'flw2': 0.0, 'flw1': 0.0, 'flw0': 0.0, 'time': 19.21, 'pitch': -24.31, 'roll': 45.58}
{'lipoC2': 8.17, 'temp': 25.81, 'lipoC3S3': 0.0, 'state': 'normal', 'rot1': 0, 'rot0': 748, 'rot3': 0, 'rot2': 0, 'depth': -0.14, 'yaw': -0.08, 'datetime': '2018-10-26 09:51:59.407748', 'mgs': 0, 'flw2': 0.0, 'flw1': 0.0, 'flw0': 0.0, 'time': 19.31, 'pitch': -24.31, 'roll': 45.58}
{'lipoC2': 8.17, 'temp': 25.75, 'lipoC3S3': 0.0, 'state': 'normal', 'rot1': 0, 'rot0': 748, 'rot3': 0, 'rot2': 0, 'depth': -0.14, 'yaw': -0.08, 'datetime': '2018-10-26 09:51:59.510335', 'mgs': 0, 'flw2': 0.0, 'flw1': 0.0, 'flw0': 0.0, 'time': 19.41, 'pitch': -24.31, 'roll': 45.58}
{'lipoC2': 8.17, 'temp': 25.75, 'lipoC3S3': 0.0, 'state': 'normal', 'rot1': 0, 'rot0': 748, 'rot3': 0, 'rot2': 0, 'depth': -0.14, 'yaw': -0.08, 'datetime': '2018-10-26 09:51:59.613606', 'mgs': 0, 'flw2': 0.0, 'flw1': 0.0, 'flw0': 0.0, 'time': 19.52, 'pitch': -24.31, 'roll': 45.58}
{'lipoC2': 8.17, 'temp': 25.75, 'lipoC3S3': 0.0, 'state': 'normal', 'rot1': 0, 'rot0': 748, 'rot3': 0, 'rot2': 0, 'depth': -0.14, 'yaw': -0.08, 'datetime': '2018-10-26 09:51:59.719752', 'mgs': 0, 'flw2': 0.0, 'flw1': 0.0, 'flw0': 0.0, 'time': 19.62, 'pitch': -24.31, 'roll': 45.58}
{'lipoC2': 8.17, 'temp': 25.81, 'lipoC3S3': 0.0, 'state': 'normal', 'rot1': 0, 'rot0': 748, 'rot3': 0, 'rot2': 0, 'depth': -0.217, 'yaw': -0.08, 'datetime': '2018-10-26 09:51:59.822787', 'mgs': 0, 'flw2': 0.0, 'flw1': 0.0, 'flw0': 0.0, 'time': 19.72, 'pitch': -24.31, 'roll': 45.58}
{'lipoC2': 8.17, 'temp': 25.81, 'lipoC3S3': 0.0, 'state': 'normal', 'rot1': 0, 'rot0': 748, 'rot3': 0, 'rot2': 0, 'depth': -0.217, 'yaw': -0.08, 'datetime': '2018-10-26 09:51:59.926810', 'mgs': 0, 'flw2': 0.0, 'flw1': 0.0, 'flw0': 0.0, 'time': 19.83, 'pitch': -24.31, 'roll': 45.58}
{'lipoC2': 8.17, 'temp': 25.81, 'lipoC3S3': 0.0, 'state': 'normal', 'rot1': 0, 'rot0': 748, 'rot3': 0, 'rot2': 0, 'depth': -0.14, 'yaw': -0.08, 'datetime': '2018-10-26 09:52:00.029250', 'mgs': 0, 'flw2': 0.0, 'flw1': 0.0, 'flw0': 0.0, 'time': 19.93, 'pitch': -24.31, 'roll': 45.58}
{'lipoC2': 8.17, 'temp': 25.81, 'lipoC3S3': 0.0, 'state': 'normal', 'rot1': 0, 'rot0': 748, 'rot3': 0, 'rot2': 0, 'depth': -0.14, 'yaw': -0.08, 'datetime': '2018-10-26 09:52:00.131782', 'mgs': 0, 'flw2': 0.0, 'flw1': 0.0, 'flw0': 0.0, 'time': 20.03, 'pitch': -24.31, 'roll': 45.58}
{'lipoC2': 8.17, 'temp': 25.81, 'lipoC3S3': 0.0, 'state': 'normal', 'rot1': 0, 'rot0': 748, 'rot3': 0, 'rot2': 0, 'depth': -0.14, 'yaw': -0.08, 'datetime': '2018-10-26 09:52:00.235650', 'mgs': 0, 'flw2': 0.0, 'flw1': 0.0, 'flw0': 0.0, 'time': 20.14, 'pitch': -24.31, 'roll': 45.58}
{'lipoC2': 8.17, 'temp': 25.81, 'lipoC3S3': 0.0, 'state': 'normal', 'rot1': 0, 'rot0': 748, 'rot3': 0, 'rot2': 0, 'depth': -0.14, 'yaw': -0.08, 'datetime': '2018-10-26 09:52:00.338953', 'mgs': 0, 'flw2': 0.0, 'flw1': 0.0, 'flw0': 0.0, 'time': 20.24, 'pitch': -24.31, 'roll': 45.58}
{'lipoC2': 8.17, 'temp': 25.81, 'lipoC3S3': 0.0, 'state': 'normal', 'rot1': 0, 'rot0': 748, 'rot3': 0, 'rot2': 0, 'depth': -0.14, 'yaw': -0.08, 'datetime': '2018-10-26 09:52:00.441765', 'mgs': 0, 'flw2': 0.0, 'flw1': 0.0, 'flw0': 0.0, 'time': 20.34, 'pitch': -24.31, 'roll': 45.58}
{'lipoC2': 8.17, 'temp': 25.81, 'lipoC3S3': 0.0, 'state': 'normal', 'rot1': 0, 'rot0': 748, 'rot3': 0, 'rot2': 0, 'depth': -0.14, 'yaw': -0.08, 'datetime': '2018-10-26 09:52:00.544491', 'mgs': 0, 'flw2': 0.0, 'flw1': 0.0, 'flw0': 0.0, 'time': 20.45, 'pitch': -24.31, 'roll': 45.58}
{'lipoC2': 8.17, 'temp': 25.81, 'lipoC3S3': 0.0, 'state': 'normal', 'rot1': 0, 'rot0': 748, 'rot3': 0, 'rot2': 0, 'depth': -0.14, 'yaw': -0.08, 'datetime': '2018-10-26 09:52:00.648568', 'mgs': 0, 'flw2': 0.0, 'flw1': 0.0, 'flw0': 0.0, 'time': 20.55, 'pitch': -24.31, 'roll': 45.58}
{'lipoC2': 8.17, 'temp': 25.81, 'lipoC3S3': 0.0, 'state': 'normal', 'rot1': 0, 'rot0': 748, 'rot3': 0, 'rot2': 0, 'depth': -0.064, 'yaw': -0.08, 'datetime': '2018-10-26 09:52:00.751232', 'mgs': 0, 'flw2': 0.0, 'flw1': 0.0, 'flw0': 0.0, 'time': 20.65, 'pitch': -24.31, 'roll': 45.58}
{'lipoC2': 8.17, 'temp': 25.81, 'lipoC3S3': 0.0, 'state': 'normal', 'rot1': 0, 'rot0': 748, 'rot3': 0, 'rot2': 0, 'depth': -0.14, 'yaw': -0.09, 'datetime': '2018-10-26 09:52:00.853580', 'mgs': 0, 'flw2': 0.0, 'flw1': 0.0, 'flw0': 0.0, 'time': 20.75, 'pitch': -24.32, 'roll': 45.58}
{'lipoC2': 8.17, 'temp': 25.75, 'lipoC3S3': 0.0, 'state': 'normal', 'rot1': 0, 'rot0': 748, 'rot3': 0, 'rot2': 0, 'depth': -0.064, 'yaw': -0.09, 'datetime': '2018-10-26 09:52:00.957316', 'mgs': 0, 'flw2': 0.0, 'flw1': 0.0, 'flw0': 0.0, 'time': 20.86, 'pitch': -24.32, 'roll': 45.58}
{'lipoC2': 8.17, 'temp': 25.75, 'lipoC3S3': 0.0, 'state': 'normal', 'rot1': 0, 'rot0': 748, 'rot3': 0, 'rot2': 0, 'depth': -0.14, 'yaw': -0.09, 'datetime': '2018-10-26 09:52:01.061126', 'mgs': 0, 'flw2': 0.0, 'flw1': 0.0, 'flw0': 0.0, 'time': 20.96, 'pitch': -24.32, 'roll': 45.58}
{'lipoC2': 8.17, 'temp': 25.75, 'lipoC3S3': 0.0, 'state': 'normal', 'rot1': 0, 'rot0': 748, 'rot3': 0, 'rot2': 0, 'depth': -0.14, 'yaw': -0.09, 'datetime': '2018-10-26 09:52:01.163410', 'mgs': 0, 'flw2': 0.0, 'flw1': 0.0, 'flw0': 0.0, 'time': 21.07, 'pitch': -24.32, 'roll': 45.58}
{'lipoC2': 8.17, 'temp': 25.75, 'lipoC3S3': 0.0, 'state': 'normal', 'rot1': 0, 'rot0': 748, 'rot3': 0, 'rot2': 0, 'depth': -0.217, 'yaw': -0.09, 'datetime': '2018-10-26 09:52:01.266037', 'mgs': 0, 'flw2': 0.0, 'flw1': 0.0, 'flw0': 0.0, 'time': 21.17, 'pitch': -24.32, 'roll': 45.58}
{'lipoC2': 8.17, 'temp': 25.75, 'lipoC3S3': 0.0, 'state': 'normal', 'rot1': 0, 'rot0': 748, 'rot3': 0, 'rot2': 0, 'depth': -0.14, 'yaw': -0.09, 'datetime': '2018-10-26 09:52:01.368634', 'mgs': 0, 'flw2': 0.0, 'flw1': 0.0, 'flw0': 0.0, 'time': 21.27, 'pitch': -24.32, 'roll': 45.58}
{'lipoC2': 8.17, 'temp': 25.75, 'lipoC3S3': 0.0, 'state': 'normal', 'rot1': 0, 'rot0': 748, 'rot3': 0, 'rot2': 0, 'depth': -0.064, 'yaw': -0.09, 'datetime': '2018-10-26 09:52:01.471817', 'mgs': 0, 'flw2': 0.0, 'flw1': 0.0, 'flw0': 0.0, 'time': 21.37, 'pitch': -24.32, 'roll': 45.58}
{'lipoC2': 8.17, 'temp': 25.75, 'lipoC3S3': 0.0, 'state': 'normal', 'rot1': 0, 'rot0': 748, 'rot3': 0, 'rot2': 0, 'depth': -0.14, 'yaw': -0.09, 'datetime': '2018-10-26 09:52:01.574347', 'mgs': 0, 'flw2': 0.0, 'flw1': 0.0, 'flw0': 0.0, 'time': 21.48, 'pitch': -24.32, 'roll': 45.58}
{'lipoC2': 8.17, 'temp': 25.81, 'lipoC3S3': 0.0, 'state': 'normal', 'rot1': 0, 'rot0': 748, 'rot3': 0, 'rot2': 0, 'depth': -0.14, 'yaw': -0.09, 'datetime': '2018-10-26 09:52:01.677697', 'mgs': 0, 'flw2': 0.0, 'flw1': 0.0, 'flw0': 0.0, 'time': 21.58, 'pitch': -24.32, 'roll': 45.58}
{'lipoC2': 8.17, 'temp': 25.81, 'lipoC3S3': 0.0, 'state': 'normal', 'rot1': 0, 'rot0': 748, 'rot3': 0, 'rot2': 0, 'depth': -0.14, 'yaw': -0.09, 'datetime': '2018-10-26 09:52:01.781499', 'mgs': 0, 'flw2': 0.0, 'flw1': 0.0, 'flw0': 0.0, 'time': 21.68, 'pitch': -24.32, 'roll': 45.58}
{'lipoC2': 8.17, 'temp': 25.81, 'lipoC3S3': 0.0, 'state': 'normal', 'rot1': 0, 'rot0': 748, 'rot3': 0, 'rot2': 0, 'depth': -0.064, 'yaw': -0.09, 'datetime': '2018-10-26 09:52:01.883981', 'mgs': 0, 'flw2': 0.0, 'flw1': 0.0, 'flw0': 0.0, 'time': 21.79, 'pitch': -24.32, 'roll': 45.58}
{'lipoC2': 8.17, 'temp': 25.81, 'lipoC3S3': 0.0, 'state': 'normal', 'rot1': 0, 'rot0': 748, 'rot3': 0, 'rot2': 0, 'depth': -0.14, 'yaw': -0.09, 'datetime': '2018-10-26 09:52:01.986618', 'mgs': 0, 'flw2': 0.0, 'flw1': 0.0, 'flw0': 0.0, 'time': 21.89, 'pitch': -24.32, 'roll': 45.58}
{'lipoC2': 8.17, 'temp': 25.81, 'lipoC3S3': 0.0, 'state': 'normal', 'rot1': 0, 'rot0': 748, 'rot3': 0, 'rot2': 0, 'depth': -0.14, 'yaw': -0.1, 'datetime': '2018-10-26 09:52:02.090346', 'mgs': 0, 'flw2': 0.0, 'flw1': 0.0, 'flw0': 0.0, 'time': 21.99, 'pitch': -24.32, 'roll': 45.58}
{'lipoC2': 8.17, 'temp': 25.81, 'lipoC3S3': 0.0, 'state': 'normal', 'rot1': 0, 'rot0': 748, 'rot3': 0, 'rot2': 0, 'depth': -0.064, 'yaw': -0.09, 'datetime': '2018-10-26 09:52:02.193797', 'mgs': 0, 'flw2': 0.0, 'flw1': 0.0, 'flw0': 0.0, 'time': 22.1, 'pitch': -24.32, 'roll': 45.58}
{'lipoC2': 8.17, 'temp': 25.81, 'lipoC3S3': 0.0, 'state': 'normal', 'rot1': 0, 'rot0': 748, 'rot3': 0, 'rot2': 0, 'depth': -0.14, 'yaw': -0.09, 'datetime': '2018-10-26 09:52:02.296365', 'mgs': 0, 'flw2': 0.0, 'flw1': 0.0, 'flw0': 0.0, 'time': 22.2, 'pitch': -24.32, 'roll': 45.58}
{'lipoC2': 8.17, 'temp': 25.81, 'lipoC3S3': 0.0, 'state': 'normal', 'rot1': 0, 'rot0': 748, 'rot3': 0, 'rot2': 0, 'depth': -0.217, 'yaw': -0.09, 'datetime': '2018-10-26 09:52:02.399117', 'mgs': 0, 'flw2': 0.0, 'flw1': 0.0, 'flw0': 0.0, 'time': 22.3, 'pitch': -24.31, 'roll': 45.58}
{'lipoC2': 8.17, 'temp': 25.81, 'lipoC3S3': 0.0, 'state': 'normal', 'rot1': 0, 'rot0': 748, 'rot3': 0, 'rot2': 0, 'depth': -0.14, 'yaw': -0.09, 'datetime': '2018-10-26 09:52:02.502904', 'mgs': 0, 'flw2': 0.0, 'flw1': 0.0, 'flw0': 0.0, 'time': 22.41, 'pitch': -24.31, 'roll': 45.58}
{'lipoC2': 8.17, 'temp': 25.81, 'lipoC3S3': 0.0, 'state': 'normal', 'rot1': 0, 'rot0': 748, 'rot3': 0, 'rot2': 0, 'depth': -0.14, 'yaw': -0.09, 'datetime': '2018-10-26 09:52:02.605473', 'mgs': 0, 'flw2': 0.0, 'flw1': 0.0, 'flw0': 0.0, 'time': 22.51, 'pitch': -24.31, 'roll': 45.58}
