{'lipoC2': 7.79, 'temp': 23.56, 'lipoC3S3': 11.83, 'rot1': 0, 'rot0': 0, 'rot3': 0, 'rot2': 0, 'state': 'normal', 'yaw': 0.0, 'datetime': '2018-10-12 14:03:16.769326', 'mgs': 0, 'depth': 2.148, 'time': 1.26, 'pitch': -0.29, 'roll': -4.75}
{'lipoC2': 7.79, 'temp': 23.56, 'lipoC3S3': 11.81, 'rot1': 0, 'rot0': 0, 'rot3': 0, 'rot2': 0, 'state': 'normal', 'yaw': -0.04, 'datetime': '2018-10-12 14:03:16.786463', 'mgs': 0, 'depth': 2.148, 'time': 1.36, 'pitch': -0.01, 'roll': -5.02}
{'lipoC2': 7.78, 'temp': 23.56, 'lipoC3S3': 11.83, 'rot1': 0, 'rot0': 0, 'rot3': 0, 'rot2': 0, 'state': 'normal', 'yaw': -0.06, 'datetime': '2018-10-12 14:03:16.803727', 'mgs': 0, 'depth': 2.072, 'time': 1.46, 'pitch': 0.37, 'roll': -4.82}
{'lipoC2': 7.79, 'temp': 23.56, 'lipoC3S3': 11.83, 'rot1': 0, 'rot0': 0, 'rot3': 0, 'rot2': 0, 'state': 'normal', 'yaw': 0.06, 'datetime': '2018-10-12 14:03:16.820883', 'mgs': 0, 'depth': 2.148, 'time': 1.55, 'pitch': 0.8, 'roll': -4.19}
{'lipoC2': 7.79, 'temp': 23.56, 'lipoC3S3': 11.83, 'rot1': 0, 'rot0': 0, 'rot3': 0, 'rot2': 0, 'state': 'normal', 'yaw': 0.16, 'datetime': '2018-10-12 14:03:16.838021', 'mgs': 0, 'depth': 2.072, 'time': 1.65, 'pitch': 1.09, 'roll': -3.89}
{'lipoC2': 7.79, 'temp': 23.56, 'lipoC3S3': 11.83, 'rot1': 0, 'rot0': 0, 'rot3': 0, 'rot2': 0, 'state': 'normal', 'yaw': 0.13, 'datetime': '2018-10-12 14:03:16.855134', 'mgs': 0, 'depth': 2.072, 'time': 1.75, 'pitch': 1.27, 'roll': -4.26}
{'lipoC2': 7.79, 'temp': 23.56, 'lipoC3S3': 11.83, 'rot1': 0, 'rot0': 0, 'rot3': 0, 'rot2': 0, 'state': 'normal', 'yaw': -0.0, 'datetime': '2018-10-12 14:03:16.866493', 'mgs': 0, 'depth': 2.148, 'time': 1.85, 'pitch': 1.28, 'roll': -4.89}
{'lipoC2': 7.78, 'temp': 23.63, 'lipoC3S3': 11.83, 'rot1': 0, 'rot0': 0, 'rot3': 0, 'rot2': 0, 'state': 'normal', 'yaw': -0.05, 'datetime': '2018-10-12 14:03:16.873887', 'mgs': 0, 'depth': 2.072, 'time': 1.94, 'pitch': 1.29, 'roll': -5.25}
{'lipoC2': 7.78, 'temp': 23.63, 'lipoC3S3': 11.83, 'rot1': 0, 'rot0': 0, 'rot3': 0, 'rot2': 0, 'state': 'normal', 'yaw': 0.05, 'datetime': '2018-10-12 14:03:16.881426', 'mgs': 0, 'depth': 2.148, 'time': 2.04, 'pitch': 1.32, 'roll': -5.2}
{'lipoC2': 7.79, 'temp': 23.63, 'lipoC3S3': 11.83, 'rot1': 0, 'rot0': 0, 'rot3': 0, 'rot2': 0, 'state': 'normal', 'yaw': 0.32, 'datetime': '2018-10-12 14:03:16.888845', 'mgs': 0, 'depth': 2.072, 'time': 2.14, 'pitch': 1.35, 'roll': -5.08}
{'lipoC2': 7.78, 'temp': 23.56, 'lipoC3S3': 11.83, 'rot1': 0, 'rot0': 0, 'rot3': 0, 'rot2': 0, 'state': 'normal', 'yaw': 0.62, 'datetime': '2018-10-12 14:03:16.896273', 'mgs': 0, 'depth': 2.148, 'time': 2.23, 'pitch': 1.38, 'roll': -5.23}
{'lipoC2': 7.78, 'temp': 23.56, 'lipoC3S3': 11.83, 'rot1': 0, 'rot0': 0, 'rot3': 0, 'rot2': 0, 'state': 'normal', 'yaw': 0.87, 'datetime': '2018-10-12 14:03:16.903728', 'mgs': 0, 'depth': 2.148, 'time': 2.33, 'pitch': 1.34, 'roll': -5.54}
{'lipoC2': 7.79, 'temp': 23.63, 'lipoC3S3': 11.83, 'rot1': 0, 'rot0': 0, 'rot3': 0, 'rot2': 0, 'state': 'normal', 'yaw': 1.24, 'datetime': '2018-10-12 14:03:16.993048', 'mgs': 0, 'depth': 2.072, 'time': 2.43, 'pitch': 1.3, 'roll': -5.81}
{'lipoC2': 7.79, 'temp': 23.63, 'lipoC3S3': 11.83, 'rot1': 0, 'rot0': 0, 'rot3': 0, 'rot2': 0, 'state': 'normal', 'yaw': 1.77, 'datetime': '2018-10-12 14:03:17.090051', 'mgs': 0, 'depth': 2.072, 'time': 2.53, 'pitch': 1.31, 'roll': -5.72}
{'lipoC2': 7.79, 'temp': 23.63, 'lipoC3S3': 11.83, 'rot1': 0, 'rot0': 0, 'rot3': 0, 'rot2': 0, 'state': 'normal', 'yaw': 2.27, 'datetime': '2018-10-12 14:03:17.187048', 'mgs': 0, 'depth': 2.148, 'time': 2.62, 'pitch': 1.22, 'roll': -5.5}
{'lipoC2': 7.79, 'temp': 23.56, 'lipoC3S3': 11.83, 'rot1': 0, 'rot0': 0, 'rot3': 0, 'rot2': 0, 'state': 'normal', 'yaw': 2.7, 'datetime': '2018-10-12 14:03:17.284083', 'mgs': 0, 'depth': 2.072, 'time': 2.72, 'pitch': 0.93, 'roll': -5.26}
{'lipoC2': 7.79, 'temp': 23.56, 'lipoC3S3': 11.81, 'rot1': 0, 'rot0': 0, 'rot3': 0, 'rot2': 0, 'state': 'normal', 'yaw': 3.0, 'datetime': '2018-10-12 14:03:17.381099', 'mgs': 0, 'depth': 2.148, 'time': 2.82, 'pitch': 0.5, 'roll': -5.04}
{'lipoC2': 7.79, 'temp': 23.56, 'lipoC3S3': 11.83, 'rot1': 0, 'rot0': 0, 'rot3': 0, 'rot2': 0, 'state': 'normal', 'yaw': 3.32, 'datetime': '2018-10-12 14:03:17.479646', 'mgs': 0, 'depth': 2.148, 'time': 2.92, 'pitch': 0.1, 'roll': -4.77}
{'lipoC2': 7.78, 'temp': 23.56, 'lipoC3S3': 11.83, 'rot1': 0, 'rot0': 0, 'rot3': 0, 'rot2': 0, 'state': 'normal', 'yaw': 3.9, 'datetime': '2018-10-12 14:03:17.578557', 'mgs': 0, 'depth': 2.072, 'time': 3.01, 'pitch': -0.19, 'roll': -4.56}
{'lipoC2': 7.78, 'temp': 23.56, 'lipoC3S3': 11.83, 'rot1': 0, 'rot0': 0, 'rot3': 0, 'rot2': 0, 'state': 'normal', 'yaw': 4.48, 'datetime': '2018-10-12 14:03:17.675553', 'mgs': 0, 'depth': 2.072, 'time': 3.11, 'pitch': -0.43, 'roll': -4.53}
{'lipoC2': 7.78, 'temp': 23.56, 'lipoC3S3': 11.83, 'rot1': 0, 'rot0': 0, 'rot3': 0, 'rot2': 0, 'state': 'normal', 'yaw': 4.86, 'datetime': '2018-10-12 14:03:17.772564', 'mgs': 0, 'depth': 2.148, 'time': 3.21, 'pitch': -0.68, 'roll': -4.64}
{'lipoC2': 7.79, 'temp': 23.56, 'lipoC3S3': 11.83, 'rot1': 0, 'rot0': 0, 'rot3': 0, 'rot2': 0, 'state': 'normal', 'yaw': 5.11, 'datetime': '2018-10-12 14:03:17.870804', 'mgs': 0, 'depth': 2.148, 'time': 3.31, 'pitch': -0.84, 'roll': -4.49}
{'lipoC2': 7.79, 'temp': 23.56, 'lipoC3S3': 11.83, 'rot1': 0, 'rot0': 0, 'rot3': 0, 'rot2': 0, 'state': 'normal', 'yaw': 5.31, 'datetime': '2018-10-12 14:03:17.969083', 'mgs': 0, 'depth': 2.072, 'time': 3.4, 'pitch': -0.87, 'roll': -4.13}
{'lipoC2': 7.78, 'temp': 23.56, 'lipoC3S3': 11.83, 'rot1': 0, 'rot0': 0, 'rot3': 0, 'rot2': 0, 'state': 'normal', 'yaw': 5.44, 'datetime': '2018-10-12 14:03:18.066133', 'mgs': 0, 'depth': 2.072, 'time': 3.5, 'pitch': -0.85, 'roll': -3.96}
{'lipoC2': 7.79, 'temp': 23.56, 'lipoC3S3': 11.83, 'rot1': 0, 'rot0': 0, 'rot3': 0, 'rot2': 0, 'state': 'normal', 'yaw': 5.49, 'datetime': '2018-10-12 14:03:18.163174', 'mgs': 0, 'depth': 2.148, 'time': 3.6, 'pitch': -0.76, 'roll': -3.93}
{'lipoC2': 7.78, 'temp': 23.63, 'lipoC3S3': 11.83, 'rot1': 0, 'rot0': 0, 'rot3': 0, 'rot2': 0, 'state': 'normal', 'yaw': 5.41, 'datetime': '2018-10-12 14:03:18.261526', 'mgs': 0, 'depth': 2.072, 'time': 3.7, 'pitch': -0.69, 'roll': -3.9}
{'lipoC2': 7.78, 'temp': 23.63, 'lipoC3S3': 11.83, 'rot1': 0, 'rot0': 0, 'rot3': 0, 'rot2': 0, 'state': 'normal', 'yaw': 5.28, 'datetime': '2018-10-12 14:03:18.358515', 'mgs': 0, 'depth': 2.148, 'time': 3.79, 'pitch': -0.59, 'roll': -3.73}
{'lipoC2': 7.78, 'temp': 23.63, 'lipoC3S3': 11.83, 'rot1': 0, 'rot0': 0, 'rot3': 0, 'rot2': 0, 'state': 'normal', 'yaw': 5.14, 'datetime': '2018-10-12 14:03:18.455558', 'mgs': 0, 'depth': 2.072, 'time': 3.89, 'pitch': -0.44, 'roll': -3.41}
{'lipoC2': 7.78, 'temp': 23.63, 'lipoC3S3': 11.81, 'rot1': 0, 'rot0': 0, 'rot3': 0, 'rot2': 0, 'state': 'normal', 'yaw': 5.09, 'datetime': '2018-10-12 14:03:18.552758', 'mgs': 0, 'depth': 2.072, 'time': 3.99, 'pitch': -0.22, 'roll': -3.27}
{'lipoC2': 7.79, 'temp': 23.63, 'lipoC3S3': 11.81, 'rot1': 0, 'rot0': 0, 'rot3': 0, 'rot2': 0, 'state': 'normal', 'yaw': 5.08, 'datetime': '2018-10-12 14:03:18.649727', 'mgs': 0, 'depth': 2.072, 'time': 4.09, 'pitch': 0.13, 'roll': -3.37}
{'lipoC2': 7.79, 'temp': 23.63, 'lipoC3S3': 11.83, 'rot1': 0, 'rot0': 0, 'rot3': 0, 'rot2': 0, 'state': 'normal', 'yaw': 5.03, 'datetime': '2018-10-12 14:03:18.746728', 'mgs': 0, 'depth': 2.072, 'time': 4.18, 'pitch': 0.51, 'roll': -3.53}
{'lipoC2': 7.78, 'temp': 23.63, 'lipoC3S3': 11.83, 'rot1': 0, 'rot0': 0, 'rot3': 0, 'rot2': 0, 'state': 'normal', 'yaw': 4.87, 'datetime': '2018-10-12 14:03:18.843764', 'mgs': 0, 'depth': 1.996, 'time': 4.28, 'pitch': 0.84, 'roll': -3.47}
{'lipoC2': 7.79, 'temp': 23.63, 'lipoC3S3': 11.83, 'rot1': 0, 'rot0': 0, 'rot3': 0, 'rot2': 0, 'state': 'normal', 'yaw': 4.66, 'datetime': '2018-10-12 14:03:18.940817', 'mgs': 0, 'depth': 2.072, 'time': 4.38, 'pitch': 1.08, 'roll': -3.23}
{'lipoC2': 7.78, 'temp': 23.63, 'lipoC3S3': 11.83, 'rot1': 0, 'rot0': 0, 'rot3': 0, 'rot2': 0, 'state': 'normal', 'yaw': 4.45, 'datetime': '2018-10-12 14:03:19.037794', 'mgs': 0, 'depth': 2.072, 'time': 4.47, 'pitch': 1.31, 'roll': -3.07}
{'lipoC2': 7.79, 'temp': 23.63, 'lipoC3S3': 11.83, 'rot1': 0, 'rot0': 0, 'rot3': 0, 'rot2': 0, 'state': 'normal', 'yaw': 4.23, 'datetime': '2018-10-12 14:03:19.134954', 'mgs': 0, 'depth': 2.072, 'time': 4.57, 'pitch': 1.45, 'roll': -3.01}
{'lipoC2': 7.79, 'temp': 23.63, 'lipoC3S3': 11.83, 'rot1': 0, 'rot0': 0, 'rot3': 0, 'rot2': 0, 'state': 'normal', 'yaw': 4.18, 'datetime': '2018-10-12 14:03:19.237870', 'mgs': 0, 'depth': 2.148, 'time': 4.67, 'pitch': 1.54, 'roll': -2.85}
{'lipoC2': 7.79, 'temp': 23.63, 'lipoC3S3': 11.83, 'rot1': 0, 'rot0': 0, 'rot3': 0, 'rot2': 0, 'state': 'normal', 'yaw': 4.17, 'datetime': '2018-10-12 14:03:19.336375', 'mgs': 0, 'depth': 2.148, 'time': 4.77, 'pitch': 1.54, 'roll': -2.6}
{'lipoC2': 7.79, 'temp': 23.63, 'lipoC3S3': 11.83, 'rot1': 0, 'rot0': 0, 'rot3': 0, 'rot2': 0, 'state': 'normal', 'yaw': 4.16, 'datetime': '2018-10-12 14:03:19.433188', 'mgs': 0, 'depth': 2.148, 'time': 4.87, 'pitch': 1.27, 'roll': -2.48}
{'lipoC2': 7.79, 'temp': 23.63, 'lipoC3S3': 11.83, 'rot1': 0, 'rot0': 0, 'rot3': 0, 'rot2': 0, 'state': 'normal', 'yaw': 4.01, 'datetime': '2018-10-12 14:03:19.530218', 'mgs': 0, 'depth': 2.148, 'time': 4.96, 'pitch': 0.73, 'roll': -2.37}
{'lipoC2': 7.78, 'temp': 23.63, 'lipoC3S3': 11.83, 'rot1': 0, 'rot0': 0, 'rot3': 0, 'rot2': 0, 'state': 'normal', 'yaw': 3.77, 'datetime': '2018-10-12 14:03:19.628497', 'mgs': 0, 'depth': 2.301, 'time': 5.06, 'pitch': 0.11, 'roll': -2.15}
{'lipoC2': 7.79, 'temp': 23.56, 'lipoC3S3': 11.83, 'rot1': 0, 'rot0': 0, 'rot3': 0, 'rot2': 0, 'state': 'normal', 'yaw': 3.51, 'datetime': '2018-10-12 14:03:19.726775', 'mgs': 0, 'depth': 2.301, 'time': 5.16, 'pitch': -0.58, 'roll': -2.01}
{'lipoC2': 7.78, 'temp': 23.56, 'lipoC3S3': 11.83, 'rot1': 0, 'rot0': 0, 'rot3': 0, 'rot2': 0, 'state': 'normal', 'yaw': 3.39, 'datetime': '2018-10-12 14:03:19.823937', 'mgs': 0, 'depth': 2.301, 'time': 5.26, 'pitch': -1.16, 'roll': -2.31}
{'lipoC2': 7.79, 'temp': 23.63, 'lipoC3S3': 11.83, 'rot1': 0, 'rot0': 0, 'rot3': 0, 'rot2': 0, 'state': 'normal', 'yaw': 3.5, 'datetime': '2018-10-12 14:03:19.920882', 'mgs': 0, 'depth': 2.301, 'time': 5.35, 'pitch': -1.55, 'roll': -3.17}
{'lipoC2': 7.79, 'temp': 23.63, 'lipoC3S3': 11.83, 'rot1': 0, 'rot0': 0, 'rot3': 0, 'rot2': 0, 'state': 'normal', 'yaw': 3.78, 'datetime': '2018-10-12 14:03:20.019156', 'mgs': 0, 'depth': 2.377, 'time': 5.45, 'pitch': -1.68, 'roll': -4.4}
{'lipoC2': 7.78, 'temp': 23.63, 'lipoC3S3': 11.83, 'rot1': 0, 'rot0': 0, 'rot3': 0, 'rot2': 0, 'state': 'normal', 'yaw': 4.29, 'datetime': '2018-10-12 14:03:20.116193', 'mgs': 0, 'depth': 2.377, 'time': 5.55, 'pitch': -1.57, 'roll': -5.56}
{'lipoC2': 7.78, 'temp': 23.63, 'lipoC3S3': 11.83, 'rot1': 0, 'rot0': 0, 'rot3': 0, 'rot2': 0, 'state': 'normal', 'yaw': 4.7, 'datetime': '2018-10-12 14:03:20.213262', 'mgs': 0, 'depth': 2.377, 'time': 5.65, 'pitch': -1.53, 'roll': -6.5}
{'lipoC2': 7.78, 'temp': 23.63, 'lipoC3S3': 11.83, 'rot1': 0, 'rot0': 0, 'rot3': 0, 'rot2': 0, 'state': 'normal', 'yaw': 4.89, 'datetime': '2018-10-12 14:03:20.310466', 'mgs': 0, 'depth': 2.301, 'time': 5.74, 'pitch': -1.75, 'roll': -7.36}
{'lipoC2': 7.78, 'temp': 23.56, 'lipoC3S3': 11.83, 'rot1': 0, 'rot0': 0, 'rot3': 0, 'rot2': 0, 'state': 'normal', 'yaw': 4.97, 'datetime': '2018-10-12 14:03:20.407540', 'mgs': 0, 'depth': 2.377, 'time': 5.84, 'pitch': -2.04, 'roll': -8.15}
{'lipoC2': 7.78, 'temp': 23.56, 'lipoC3S3': 11.81, 'rot1': 0, 'rot0': 0, 'rot3': 0, 'rot2': 0, 'state': 'normal', 'yaw': 5.01, 'datetime': '2018-10-12 14:03:20.504591', 'mgs': 0, 'depth': 2.301, 'time': 5.94, 'pitch': -2.33, 'roll': -8.68}
{'lipoC2': 7.78, 'temp': 23.56, 'lipoC3S3': 11.83, 'rot1': 0, 'rot0': 0, 'rot3': 0, 'rot2': 0, 'state': 'normal', 'yaw': 4.92, 'datetime': '2018-10-12 14:03:20.601607', 'mgs': 0, 'depth': 2.301, 'time': 6.04, 'pitch': -2.42, 'roll': -8.86}
{'lipoC2': 7.79, 'temp': 23.56, 'lipoC3S3': 11.81, 'rot1': 0, 'rot0': 0, 'rot3': 0, 'rot2': 0, 'state': 'normal', 'yaw': 4.8, 'datetime': '2018-10-12 14:03:20.698869', 'mgs': 0, 'depth': 2.225, 'time': 6.13, 'pitch': -2.29, 'roll': -8.79}
{'lipoC2': 7.78, 'temp': 23.56, 'lipoC3S3': 11.83, 'rot1': 0, 'rot0': 0, 'rot3': 0, 'rot2': 0, 'state': 'normal', 'yaw': 4.73, 'datetime': '2018-10-12 14:03:20.795666', 'mgs': 0, 'depth': 2.301, 'time': 6.23, 'pitch': -1.86, 'roll': -8.31}
{'lipoC2': 7.78, 'temp': 23.63, 'lipoC3S3': 11.83, 'rot1': 0, 'rot0': 0, 'rot3': 0, 'rot2': 0, 'state': 'normal', 'yaw': 4.64, 'datetime': '2018-10-12 14:03:20.892693', 'mgs': 0, 'depth': 2.301, 'time': 6.33, 'pitch': -1.31, 'roll': -7.57}
{'lipoC2': 7.79, 'temp': 23.63, 'lipoC3S3': 11.83, 'rot1': 0, 'rot0': 0, 'rot3': 0, 'rot2': 0, 'state': 'normal', 'yaw': 4.44, 'datetime': '2018-10-12 14:03:20.991079', 'mgs': 0, 'depth': 2.072, 'time': 6.43, 'pitch': -0.82, 'roll': -6.93}
{'lipoC2': 7.78, 'temp': 23.63, 'lipoC3S3': 11.83, 'rot1': 0, 'rot0': 0, 'rot3': 0, 'rot2': 0, 'state': 'normal', 'yaw': 4.08, 'datetime': '2018-10-12 14:03:21.089301', 'mgs': 0, 'depth': 2.225, 'time': 6.52, 'pitch': -0.38, 'roll': -6.32}
{'lipoC2': 7.79, 'temp': 23.56, 'lipoC3S3': 11.81, 'rot1': 0, 'rot0': 0, 'rot3': 0, 'rot2': 0, 'state': 'normal', 'yaw': 3.57, 'datetime': '2018-10-12 14:03:21.186375', 'mgs': 0, 'depth': 2.072, 'time': 6.62, 'pitch': -0.05, 'roll': -5.86}
{'lipoC2': 7.78, 'temp': 23.56, 'lipoC3S3': 11.83, 'rot1': 0, 'rot0': 0, 'rot3': 0, 'rot2': 0, 'state': 'normal', 'yaw': 3.04, 'datetime': '2018-10-12 14:03:21.283444', 'mgs': 0, 'depth': 2.148, 'time': 6.72, 'pitch': 0.23, 'roll': -5.52}
{'lipoC2': 7.78, 'temp': 23.56, 'lipoC3S3': 11.83, 'rot1': 0, 'rot0': 0, 'rot3': 0, 'rot2': 0, 'state': 'normal', 'yaw': 2.62, 'datetime': '2018-10-12 14:03:21.381679', 'mgs': 0, 'depth': 2.148, 'time': 6.82, 'pitch': 0.5, 'roll': -5.26}
{'lipoC2': 7.79, 'temp': 23.56, 'lipoC3S3': 11.83, 'rot1': 0, 'rot0': 0, 'rot3': 0, 'rot2': 0, 'state': 'normal', 'yaw': 2.39, 'datetime': '2018-10-12 14:03:21.480073', 'mgs': 0, 'depth': 2.072, 'time': 6.91, 'pitch': 0.86, 'roll': -4.92}
{'lipoC2': 7.78, 'temp': 23.56, 'lipoC3S3': 11.83, 'rot1': 0, 'rot0': 0, 'rot3': 0, 'rot2': 0, 'state': 'normal', 'yaw': 2.49, 'datetime': '2018-10-12 14:03:21.576916', 'mgs': 0, 'depth': 2.072, 'time': 7.01, 'pitch': 1.21, 'roll': -4.71}
{'lipoC2': 7.78, 'temp': 23.63, 'lipoC3S3': 11.83, 'rot1': 0, 'rot0': 0, 'rot3': 0, 'rot2': 0, 'state': 'normal', 'yaw': 2.63, 'datetime': '2018-10-12 14:03:21.674009', 'mgs': 0, 'depth': 2.072, 'time': 7.11, 'pitch': 1.28, 'roll': -4.75}
{'lipoC2': 7.78, 'temp': 23.63, 'lipoC3S3': 11.83, 'rot1': 0, 'rot0': 0, 'rot3': 0, 'rot2': 0, 'state': 'normal', 'yaw': 2.77, 'datetime': '2018-10-12 14:03:21.772194', 'mgs': 0, 'depth': 2.072, 'time': 7.21, 'pitch': 1.13, 'roll': -5.16}
{'lipoC2': 7.79, 'temp': 23.56, 'lipoC3S3': 11.81, 'rot1': 0, 'rot0': 0, 'rot3': 0, 'rot2': 0, 'state': 'normal', 'yaw': 2.96, 'datetime': '2018-10-12 14:03:21.869219', 'mgs': 0, 'depth': 1.92, 'time': 7.3, 'pitch': 0.83, 'roll': -5.7}
{'lipoC2': 7.79, 'temp': 23.56, 'lipoC3S3': 11.83, 'rot1': 0, 'rot0': 0, 'rot3': 0, 'rot2': 0, 'state': 'normal', 'yaw': 2.95, 'datetime': '2018-10-12 14:03:21.966155', 'mgs': 0, 'depth': 1.996, 'time': 7.4, 'pitch': 0.3, 'roll': -6.22}
{'lipoC2': 7.78, 'temp': 23.56, 'lipoC3S3': 11.83, 'rot1': 0, 'rot0': 0, 'rot3': 0, 'rot2': 0, 'state': 'normal', 'yaw': 2.79, 'datetime': '2018-10-12 14:03:22.061680', 'mgs': 0, 'depth': 1.996, 'time': 7.5, 'pitch': -0.29, 'roll': -6.53}
{'lipoC2': 7.79, 'temp': 23.63, 'lipoC3S3': 11.83, 'rot1': 0, 'rot0': 0, 'rot3': 0, 'rot2': 0, 'state': 'normal', 'yaw': 2.58, 'datetime': '2018-10-12 14:03:22.160611', 'mgs': 0, 'depth': 1.996, 'time': 7.6, 'pitch': -0.84, 'roll': -6.53}
{'lipoC2': 7.78, 'temp': 23.63, 'lipoC3S3': 11.81, 'rot1': 0, 'rot0': 0, 'rot3': 0, 'rot2': 0, 'state': 'normal', 'yaw': 2.09, 'datetime': '2018-10-12 14:03:22.257468', 'mgs': 0, 'depth': 2.072, 'time': 7.69, 'pitch': -1.59, 'roll': -6.67}
{'lipoC2': 7.79, 'temp': 23.56, 'lipoC3S3': 11.83, 'rot1': 0, 'rot0': 0, 'rot3': 0, 'rot2': 0, 'state': 'normal', 'yaw': 1.61, 'datetime': '2018-10-12 14:03:22.354506', 'mgs': 0, 'depth': 2.072, 'time': 7.79, 'pitch': -2.25, 'roll': -7.07}
{'lipoC2': 7.78, 'temp': 23.56, 'lipoC3S3': 11.81, 'rot1': 0, 'rot0': 0, 'rot3': 0, 'rot2': 0, 'state': 'normal', 'yaw': 1.51, 'datetime': '2018-10-12 14:03:22.451590', 'mgs': 0, 'depth': 2.072, 'time': 7.89, 'pitch': -2.5, 'roll': -7.47}
{'lipoC2': 7.78, 'temp': 23.56, 'lipoC3S3': 11.83, 'rot1': 0, 'rot0': 0, 'rot3': 0, 'rot2': 0, 'state': 'normal', 'yaw': 1.56, 'datetime': '2018-10-12 14:03:22.548706', 'mgs': 0, 'depth': 2.072, 'time': 7.99, 'pitch': -2.54, 'roll': -7.96}
{'lipoC2': 7.78, 'temp': 23.56, 'lipoC3S3': 11.83, 'rot1': 0, 'rot0': 0, 'rot3': 0, 'rot2': 0, 'state': 'normal', 'yaw': 1.91, 'datetime': '2018-10-12 14:03:22.645551', 'mgs': 0, 'depth': 2.072, 'time': 8.08, 'pitch': -2.35, 'roll': -8.57}
{'lipoC2': 7.79, 'temp': 23.56, 'lipoC3S3': 11.83, 'rot1': 0, 'rot0': 0, 'rot3': 0, 'rot2': 0, 'state': 'normal', 'yaw': 2.37, 'datetime': '2018-10-12 14:03:22.744065', 'mgs': 0, 'depth': 2.072, 'time': 8.18, 'pitch': -2.03, 'roll': -9.07}
{'lipoC2': 7.79, 'temp': 23.56, 'lipoC3S3': 11.83, 'rot1': 0, 'rot0': 0, 'rot3': 0, 'rot2': 0, 'state': 'normal', 'yaw': 2.85, 'datetime': '2018-10-12 14:03:22.842380', 'mgs': 0, 'depth': 2.072, 'time': 8.28, 'pitch': -1.68, 'roll': -9.48}
{'lipoC2': 7.79, 'temp': 23.56, 'lipoC3S3': 11.83, 'rot1': 0, 'rot0': 0, 'rot3': 0, 'rot2': 0, 'state': 'normal', 'yaw': 3.16, 'datetime': '2018-10-12 14:03:22.939375', 'mgs': 0, 'depth': 2.072, 'time': 8.38, 'pitch': -1.39, 'roll': -9.83}
{'lipoC2': 7.78, 'temp': 23.56, 'lipoC3S3': 11.83, 'rot1': 0, 'rot0': 0, 'rot3': 0, 'rot2': 0, 'state': 'normal', 'yaw': 3.24, 'datetime': '2018-10-12 14:03:23.036414', 'mgs': 0, 'depth': 2.148, 'time': 8.47, 'pitch': -1.25, 'roll': -10.06}
{'lipoC2': 7.78, 'temp': 23.63, 'lipoC3S3': 11.83, 'rot1': 0, 'rot0': 0, 'rot3': 0, 'rot2': 0, 'state': 'normal', 'yaw': 3.15, 'datetime': '2018-10-12 14:03:23.134471', 'mgs': 0, 'depth': 2.072, 'time': 8.57, 'pitch': -1.27, 'roll': -10.22}
{'lipoC2': 7.78, 'temp': 23.63, 'lipoC3S3': 11.83, 'rot1': 0, 'rot0': 0, 'rot3': 0, 'rot2': 0, 'state': 'normal', 'yaw': 2.9, 'datetime': '2018-10-12 14:03:23.232753', 'mgs': 0, 'depth': 2.148, 'time': 8.67, 'pitch': -1.31, 'roll': -10.52}
{'lipoC2': 7.79, 'temp': 23.63, 'lipoC3S3': 11.83, 'rot1': 0, 'rot0': 0, 'rot3': 0, 'rot2': 0, 'state': 'normal', 'yaw': 2.62, 'datetime': '2018-10-12 14:03:23.329788', 'mgs': 0, 'depth': 2.072, 'time': 8.77, 'pitch': -1.36, 'roll': -10.93}
{'lipoC2': 7.78, 'temp': 23.63, 'lipoC3S3': 11.83, 'rot1': 0, 'rot0': 0, 'rot3': 0, 'rot2': 0, 'state': 'normal', 'yaw': 2.34, 'datetime': '2018-10-12 14:03:23.426860', 'mgs': 0, 'depth': 2.148, 'time': 8.86, 'pitch': -1.36, 'roll': -11.48}
{'lipoC2': 7.79, 'temp': 23.63, 'lipoC3S3': 11.83, 'rot1': 0, 'rot0': 0, 'rot3': 0, 'rot2': 0, 'state': 'normal', 'yaw': 2.19, 'datetime': '2018-10-12 14:03:23.524994', 'mgs': 0, 'depth': 2.072, 'time': 8.96, 'pitch': -1.2, 'roll': -11.94}
{'lipoC2': 7.78, 'temp': 23.63, 'lipoC3S3': 11.81, 'rot1': 0, 'rot0': 0, 'rot3': 0, 'rot2': 0, 'state': 'normal', 'yaw': 2.14, 'datetime': '2018-10-12 14:03:23.622224', 'mgs': 0, 'depth': 2.148, 'time': 9.06, 'pitch': -0.83, 'roll': -12.28}
{'lipoC2': 7.78, 'temp': 23.63, 'lipoC3S3': 11.83, 'rot1': 0, 'rot0': 0, 'rot3': 0, 'rot2': 0, 'state': 'normal', 'yaw': 2.16, 'datetime': '2018-10-12 14:03:23.718996', 'mgs': 0, 'depth': 2.148, 'time': 9.16, 'pitch': -0.35, 'roll': -12.53}
{'lipoC2': 7.79, 'temp': 23.56, 'lipoC3S3': 11.83, 'rot1': 0, 'rot0': 0, 'rot3': 0, 'rot2': 0, 'state': 'normal', 'yaw': 2.19, 'datetime': '2018-10-12 14:03:23.816352', 'mgs': 0, 'depth': 2.225, 'time': 9.25, 'pitch': 0.14, 'roll': -12.43}
{'lipoC2': 7.78, 'temp': 23.56, 'lipoC3S3': 11.83, 'rot1': 0, 'rot0': 0, 'rot3': 0, 'rot2': 0, 'state': 'normal', 'yaw': 2.21, 'datetime': '2018-10-12 14:03:23.913334', 'mgs': 0, 'depth': 2.225, 'time': 9.35, 'pitch': 0.52, 'roll': -12.07}
{'lipoC2': 7.79, 'temp': 23.56, 'lipoC3S3': 11.83, 'rot1': 0, 'rot0': 0, 'rot3': 0, 'rot2': 0, 'state': 'normal', 'yaw': 2.16, 'datetime': '2018-10-12 14:03:24.010472', 'mgs': 0, 'depth': 2.225, 'time': 9.45, 'pitch': 0.78, 'roll': -11.75}
{'lipoC2': 7.79, 'temp': 23.63, 'lipoC3S3': 11.83, 'rot1': 0, 'rot0': 0, 'rot3': 0, 'rot2': 0, 'state': 'normal', 'yaw': 2.08, 'datetime': '2018-10-12 14:03:24.107381', 'mgs': 0, 'depth': 2.148, 'time': 9.55, 'pitch': 0.86, 'roll': -11.7}
{'lipoC2': 7.79, 'temp': 23.63, 'lipoC3S3': 11.83, 'rot1': 0, 'rot0': 0, 'rot3': 0, 'rot2': 0, 'state': 'normal', 'yaw': 2.01, 'datetime': '2018-10-12 14:03:24.204458', 'mgs': 0, 'depth': 2.225, 'time': 9.64, 'pitch': 0.83, 'roll': -11.92}
{'lipoC2': 7.78, 'temp': 23.56, 'lipoC3S3': 11.83, 'rot1': 0, 'rot0': 0, 'rot3': 0, 'rot2': 0, 'state': 'normal', 'yaw': 1.94, 'datetime': '2018-10-12 14:03:24.301464', 'mgs': 0, 'depth': 2.301, 'time': 9.74, 'pitch': 0.68, 'roll': -12.37}
{'lipoC2': 7.78, 'temp': 23.56, 'lipoC3S3': 11.83, 'rot1': 0, 'rot0': 0, 'rot3': 0, 'rot2': 0, 'state': 'normal', 'yaw': 1.88, 'datetime': '2018-10-12 14:03:24.398474', 'mgs': 0, 'depth': 2.225, 'time': 9.84, 'pitch': 0.46, 'roll': -13.0}
{'lipoC2': 7.79, 'temp': 23.63, 'lipoC3S3': 11.83, 'rot1': 0, 'rot0': 0, 'rot3': 0, 'rot2': 0, 'state': 'normal', 'yaw': 1.8, 'datetime': '2018-10-12 14:03:24.497481', 'mgs': 0, 'depth': 2.225, 'time': 9.94, 'pitch': 0.2, 'roll': -13.56}
{'lipoC2': 7.79, 'temp': 23.63, 'lipoC3S3': 11.83, 'rot1': 0, 'rot0': 0, 'rot3': 0, 'rot2': 0, 'state': 'normal', 'yaw': 1.7, 'datetime': '2018-10-12 14:03:24.595229', 'mgs': 0, 'depth': 2.225, 'time': 10.03, 'pitch': -0.11, 'roll': -14.18}
{'lipoC2': 7.79, 'temp': 23.63, 'lipoC3S3': 11.83, 'rot1': 0, 'rot0': 0, 'rot3': 0, 'rot2': 0, 'state': 'normal', 'yaw': 1.64, 'datetime': '2018-10-12 14:03:24.692170', 'mgs': 0, 'depth': 2.225, 'time': 10.13, 'pitch': -0.38, 'roll': -14.54}
{'lipoC2': 7.79, 'temp': 23.56, 'lipoC3S3': 11.83, 'rot1': 0, 'rot0': 0, 'rot3': 0, 'rot2': 0, 'state': 'normal', 'yaw': 1.56, 'datetime': '2018-10-12 14:03:24.789228', 'mgs': 0, 'depth': 2.225, 'time': 10.23, 'pitch': -0.68, 'roll': -14.54}
{'lipoC2': 7.79, 'temp': 23.56, 'lipoC3S3': 11.83, 'rot1': 0, 'rot0': 0, 'rot3': 0, 'rot2': 0, 'state': 'normal', 'yaw': 1.48, 'datetime': '2018-10-12 14:03:24.887433', 'mgs': 0, 'depth': 2.225, 'time': 10.33, 'pitch': -0.95, 'roll': -14.36}
{'lipoC2': 7.79, 'temp': 23.63, 'lipoC3S3': 11.83, 'rot1': 0, 'rot0': 0, 'rot3': 0, 'rot2': 0, 'state': 'normal', 'yaw': 1.41, 'datetime': '2018-10-12 14:03:24.995718', 'mgs': 0, 'depth': 2.225, 'time': 10.43, 'pitch': -1.2, 'roll': -14.04}
{'lipoC2': 7.79, 'temp': 23.63, 'lipoC3S3': 11.83, 'rot1': 0, 'rot0': 0, 'rot3': 0, 'rot2': 0, 'state': 'normal', 'yaw': 1.35, 'datetime': '2018-10-12 14:03:25.077728', 'mgs': 0, 'depth': 2.301, 'time': 10.52, 'pitch': -1.41, 'roll': -13.67}
{'lipoC2': 7.79, 'temp': 23.63, 'lipoC3S3': 11.83, 'rot1': 0, 'rot0': 0, 'rot3': 0, 'rot2': 0, 'state': 'normal', 'yaw': 1.17, 'datetime': '2018-10-12 14:03:25.174789', 'mgs': 0, 'depth': 2.301, 'time': 10.62, 'pitch': -1.7, 'roll': -13.37}
{'lipoC2': 7.79, 'temp': 23.56, 'lipoC3S3': 11.83, 'rot1': 0, 'rot0': 0, 'rot3': 0, 'rot2': 0, 'state': 'normal', 'yaw': 0.96, 'datetime': '2018-10-12 14:03:25.273070', 'mgs': 0, 'depth': 2.301, 'time': 10.72, 'pitch': -1.95, 'roll': -13.26}
{'lipoC2': 7.78, 'temp': 23.56, 'lipoC3S3': 11.83, 'rot1': 0, 'rot0': 0, 'rot3': 0, 'rot2': 0, 'state': 'normal', 'yaw': 0.85, 'datetime': '2018-10-12 14:03:25.370145', 'mgs': 0, 'depth': 2.377, 'time': 10.81, 'pitch': -2.03, 'roll': -13.06}
{'lipoC2': 7.79, 'temp': 23.56, 'lipoC3S3': 11.83, 'rot1': 0, 'rot0': 0, 'rot3': 0, 'rot2': 0, 'state': 'normal', 'yaw': 0.82, 'datetime': '2018-10-12 14:03:25.467120', 'mgs': 0, 'depth': 2.225, 'time': 10.91, 'pitch': -1.9, 'roll': -12.78}
{'lipoC2': 7.78, 'temp': 23.56, 'lipoC3S3': 11.83, 'rot1': 0, 'rot0': 0, 'rot3': 0, 'rot2': 0, 'state': 'normal', 'yaw': 0.76, 'datetime': '2018-10-12 14:03:25.564307', 'mgs': 0, 'depth': 2.301, 'time': 11.01, 'pitch': -1.67, 'roll': -12.51}
{'lipoC2': 7.79, 'temp': 23.56, 'lipoC3S3': 11.83, 'rot1': 0, 'rot0': 0, 'rot3': 0, 'rot2': 0, 'state': 'normal', 'yaw': 0.51, 'datetime': '2018-10-12 14:03:25.661261', 'mgs': 0, 'depth': 2.301, 'time': 11.11, 'pitch': -1.44, 'roll': -12.18}
{'lipoC2': 7.78, 'temp': 23.63, 'lipoC3S3': 11.83, 'rot1': 0, 'rot0': 0, 'rot3': 0, 'rot2': 0, 'state': 'normal', 'yaw': -0.03, 'datetime': '2018-10-12 14:03:25.758919', 'mgs': 0, 'depth': 2.301, 'time': 11.2, 'pitch': -1.39, 'roll': -12.03}
{'lipoC2': 7.78, 'temp': 23.63, 'lipoC3S3': 11.83, 'rot1': 0, 'rot0': 0, 'rot3': 0, 'rot2': 0, 'state': 'normal', 'yaw': -0.72, 'datetime': '2018-10-12 14:03:25.858050', 'mgs': 0, 'depth': 2.148, 'time': 11.3, 'pitch': -1.46, 'roll': -12.04}
{'lipoC2': 7.78, 'temp': 23.56, 'lipoC3S3': 11.83, 'rot1': 0, 'rot0': 0, 'rot3': 0, 'rot2': 0, 'state': 'normal', 'yaw': -1.36, 'datetime': '2018-10-12 14:03:25.957824', 'mgs': 0, 'depth': 2.225, 'time': 11.4, 'pitch': -1.53, 'roll': -12.37}
{'lipoC2': 7.79, 'temp': 23.56, 'lipoC3S3': 11.83, 'rot1': 0, 'rot0': 0, 'rot3': 0, 'rot2': 0, 'state': 'normal', 'yaw': -2.0, 'datetime': '2018-10-12 14:03:26.054798', 'mgs': 0, 'depth': 2.225, 'time': 11.49, 'pitch': -1.54, 'roll': -12.89}
{'lipoC2': 7.79, 'temp': 23.56, 'lipoC3S3': 11.83, 'rot1': 0, 'rot0': 0, 'rot3': 0, 'rot2': 0, 'state': 'normal', 'yaw': -2.49, 'datetime': '2018-10-12 14:03:26.151854', 'mgs': 0, 'depth': 2.225, 'time': 11.59, 'pitch': -1.38, 'roll': -13.29}
{'lipoC2': 7.78, 'temp': 23.63, 'lipoC3S3': 11.83, 'rot1': 0, 'rot0': 0, 'rot3': 0, 'rot2': 0, 'state': 'normal', 'yaw': -2.79, 'datetime': '2018-10-12 14:03:26.250078', 'mgs': 0, 'depth': 2.072, 'time': 11.69, 'pitch': -1.11, 'roll': -13.45}
{'lipoC2': 7.78, 'temp': 23.63, 'lipoC3S3': 11.83, 'rot1': 0, 'rot0': 0, 'rot3': 0, 'rot2': 0, 'state': 'normal', 'yaw': -3.21, 'datetime': '2018-10-12 14:03:26.348463', 'mgs': 0, 'depth': 2.072, 'time': 11.79, 'pitch': -0.87, 'roll': -13.42}
{'lipoC2': 7.78, 'temp': 23.56, 'lipoC3S3': 11.83, 'rot1': 0, 'rot0': 0, 'rot3': 0, 'rot2': 0, 'state': 'normal', 'yaw': -3.47, 'datetime': '2018-10-12 14:03:26.445429', 'mgs': 0, 'depth': 2.148, 'time': 11.89, 'pitch': -0.51, 'roll': -13.21}
{'lipoC2': 7.79, 'temp': 23.56, 'lipoC3S3': 11.81, 'rot1': 0, 'rot0': 0, 'rot3': 0, 'rot2': 0, 'state': 'normal', 'yaw': -3.48, 'datetime': '2018-10-12 14:03:26.542719', 'mgs': 0, 'depth': 2.072, 'time': 11.98, 'pitch': 0.05, 'roll': -12.94}
{'lipoC2': 7.78, 'temp': 23.56, 'lipoC3S3': 11.83, 'rot1': 0, 'rot0': 0, 'rot3': 0, 'rot2': 0, 'state': 'normal', 'yaw': -3.33, 'datetime': '2018-10-12 14:03:26.643538', 'mgs': 0, 'depth': 2.148, 'time': 12.08, 'pitch': 0.57, 'roll': -12.61}
{'lipoC2': 7.79, 'temp': 23.56, 'lipoC3S3': 11.83, 'rot1': 0, 'rot0': 0, 'rot3': 0, 'rot2': 0, 'state': 'normal', 'yaw': -3.2, 'datetime': '2018-10-12 14:03:26.739183', 'mgs': 0, 'depth': 2.148, 'time': 12.18, 'pitch': 0.91, 'roll': -12.21}
{'lipoC2': 7.78, 'temp': 23.56, 'lipoC3S3': 11.83, 'rot1': 0, 'rot0': 0, 'rot3': 0, 'rot2': 0, 'state': 'normal', 'yaw': -3.18, 'datetime': '2018-10-12 14:03:26.836215', 'mgs': 0, 'depth': 2.148, 'time': 12.28, 'pitch': 0.91, 'roll': -11.85}
{'lipoC2': 7.78, 'temp': 23.56, 'lipoC3S3': 11.83, 'rot1': 0, 'rot0': 0, 'rot3': 0, 'rot2': 0, 'state': 'normal', 'yaw': -3.15, 'datetime': '2018-10-12 14:03:26.933250', 'mgs': 0, 'depth': 2.148, 'time': 12.37, 'pitch': 0.67, 'roll': -11.46}
{'lipoC2': 7.78, 'temp': 23.56, 'lipoC3S3': 11.83, 'rot1': 0, 'rot0': 0, 'rot3': 0, 'rot2': 0, 'state': 'normal', 'yaw': -3.02, 'datetime': '2018-10-12 14:03:27.031483', 'mgs': 0, 'depth': 2.072, 'time': 12.47, 'pitch': 0.42, 'roll': -10.78}
{'lipoC2': 7.78, 'temp': 23.56, 'lipoC3S3': 11.83, 'rot1': 0, 'rot0': 0, 'rot3': 0, 'rot2': 0, 'state': 'normal', 'yaw': -2.71, 'datetime': '2018-10-12 14:03:27.128598', 'mgs': 0, 'depth': 2.072, 'time': 12.57, 'pitch': 0.14, 'roll': -9.9}
{'lipoC2': 7.78, 'temp': 23.56, 'lipoC3S3': 11.83, 'rot1': 0, 'rot0': 0, 'rot3': 0, 'rot2': 0, 'state': 'normal', 'yaw': -2.61, 'datetime': '2018-10-12 14:03:27.225441', 'mgs': 0, 'depth': 2.148, 'time': 12.67, 'pitch': -0.39, 'roll': -9.28}
{'lipoC2': 7.79, 'temp': 23.56, 'lipoC3S3': 11.83, 'rot1': 0, 'rot0': 0, 'rot3': 0, 'rot2': 0, 'state': 'normal', 'yaw': -2.59, 'datetime': '2018-10-12 14:03:27.322804', 'mgs': 0, 'depth': 2.148, 'time': 12.76, 'pitch': -0.96, 'roll': -9.05}
{'lipoC2': 7.78, 'temp': 23.56, 'lipoC3S3': 11.83, 'rot1': 0, 'rot0': 0, 'rot3': 0, 'rot2': 0, 'state': 'normal', 'yaw': -2.58, 'datetime': '2018-10-12 14:03:27.419769', 'mgs': 0, 'depth': 2.148, 'time': 12.86, 'pitch': -1.56, 'roll': -9.11}
{'lipoC2': 7.79, 'temp': 23.56, 'lipoC3S3': 11.83, 'rot1': 0, 'rot0': 0, 'rot3': 0, 'rot2': 0, 'state': 'normal', 'yaw': -2.55, 'datetime': '2018-10-12 14:03:27.517016', 'mgs': 0, 'depth': 2.148, 'time': 12.96, 'pitch': -2.02, 'roll': -9.35}
{'lipoC2': 7.78, 'temp': 23.56, 'lipoC3S3': 11.83, 'rot1': 0, 'rot0': 0, 'rot3': 0, 'rot2': 0, 'state': 'normal', 'yaw': -2.41, 'datetime': '2018-10-12 14:03:27.613920', 'mgs': 0, 'depth': 2.225, 'time': 13.05, 'pitch': -2.24, 'roll': -9.46}
{'lipoC2': 7.79, 'temp': 23.56, 'lipoC3S3': 11.83, 'rot1': 0, 'rot0': 0, 'rot3': 0, 'rot2': 0, 'state': 'normal', 'yaw': -2.0, 'datetime': '2018-10-12 14:03:27.711123', 'mgs': 0, 'depth': 2.148, 'time': 13.15, 'pitch': -2.17, 'roll': -9.37}
{'lipoC2': 7.79, 'temp': 23.56, 'lipoC3S3': 11.83, 'rot1': 0, 'rot0': 0, 'rot3': 0, 'rot2': 0, 'state': 'normal', 'yaw': -1.44, 'datetime': '2018-10-12 14:03:27.807906', 'mgs': 0, 'depth': 2.148, 'time': 13.25, 'pitch': -1.87, 'roll': -9.43}
{'lipoC2': 7.79, 'temp': 23.5, 'lipoC3S3': 11.83, 'rot1': 0, 'rot0': 0, 'rot3': 0, 'rot2': 0, 'state': 'normal', 'yaw': -0.91, 'datetime': '2018-10-12 14:03:27.904918', 'mgs': 0, 'depth': 2.225, 'time': 13.35, 'pitch': -1.53, 'roll': -9.78}
{'lipoC2': 7.79, 'temp': 23.5, 'lipoC3S3': 11.83, 'rot1': 0, 'rot0': 0, 'rot3': 0, 'rot2': 0, 'state': 'normal', 'yaw': -0.7, 'datetime': '2018-10-12 14:03:28.000723', 'mgs': 0, 'depth': 2.225, 'time': 13.44, 'pitch': -1.43, 'roll': -10.3}
{'lipoC2': 7.78, 'temp': 23.5, 'lipoC3S3': 11.83, 'rot1': 0, 'rot0': 0, 'rot3': 0, 'rot2': 0, 'state': 'normal', 'yaw': -0.63, 'datetime': '2018-10-12 14:03:28.100098', 'mgs': 0, 'depth': 2.225, 'time': 13.54, 'pitch': -1.47, 'roll': -10.71}
{'lipoC2': 7.78, 'temp': 23.56, 'lipoC3S3': 11.83, 'rot1': 0, 'rot0': 0, 'rot3': 0, 'rot2': 0, 'state': 'normal', 'yaw': -0.58, 'datetime': '2018-10-12 14:03:28.195566', 'mgs': 0, 'depth': 2.225, 'time': 13.64, 'pitch': -1.65, 'roll': -10.74}
{'lipoC2': 7.78, 'temp': 23.56, 'lipoC3S3': 11.83, 'rot1': 0, 'rot0': 0, 'rot3': 0, 'rot2': 0, 'state': 'normal', 'yaw': -0.46, 'datetime': '2018-10-12 14:03:28.294485', 'mgs': 0, 'depth': 2.148, 'time': 13.74, 'pitch': -1.88, 'roll': -10.49}
{'lipoC2': 7.79, 'temp': 23.63, 'lipoC3S3': 11.83, 'rot1': 0, 'rot0': 0, 'rot3': 0, 'rot2': 0, 'state': 'normal', 'yaw': -0.31, 'datetime': '2018-10-12 14:03:28.394078', 'mgs': 0, 'depth': 2.148, 'time': 13.84, 'pitch': -2.1, 'roll': -10.28}
{'lipoC2': 7.78, 'temp': 23.63, 'lipoC3S3': 11.81, 'rot1': 0, 'rot0': 0, 'rot3': 0, 'rot2': 0, 'state': 'normal', 'yaw': -0.06, 'datetime': '2018-10-12 14:03:28.492435', 'mgs': 0, 'depth': 2.148, 'time': 13.93, 'pitch': -2.28, 'roll': -10.11}
{'lipoC2': 7.78, 'temp': 23.63, 'lipoC3S3': 11.83, 'rot1': 0, 'rot0': 0, 'rot3': 0, 'rot2': 0, 'state': 'normal', 'yaw': 0.3, 'datetime': '2018-10-12 14:03:28.589338', 'mgs': 0, 'depth': 2.225, 'time': 14.03, 'pitch': -2.4, 'roll': -9.99}
{'lipoC2': 7.79, 'temp': 23.56, 'lipoC3S3': 11.81, 'rot1': 0, 'rot0': 0, 'rot3': 0, 'rot2': 0, 'state': 'normal', 'yaw': 0.74, 'datetime': '2018-10-12 14:03:28.686390', 'mgs': 0, 'depth': 2.148, 'time': 14.13, 'pitch': -2.49, 'roll': -9.9}
{'lipoC2': 7.79, 'temp': 23.56, 'lipoC3S3': 11.81, 'rot1': 0, 'rot0': 0, 'rot3': 0, 'rot2': 0, 'state': 'normal', 'yaw': 1.18, 'datetime': '2018-10-12 14:03:28.784698', 'mgs': 0, 'depth': 2.148, 'time': 14.23, 'pitch': -2.55, 'roll': -9.82}
{'lipoC2': 7.79, 'temp': 23.56, 'lipoC3S3': 11.83, 'rot1': 0, 'rot0': 0, 'rot3': 0, 'rot2': 0, 'state': 'normal', 'yaw': 1.57, 'datetime': '2018-10-12 14:03:28.881859', 'mgs': 1, 'depth': 2.148, 'time': 14.32, 'pitch': -2.74, 'roll': -9.7}
{'lipoC2': 7.79, 'temp': 23.63, 'lipoC3S3': 11.83, 'rot1': 0, 'rot0': 0, 'rot3': 0, 'rot2': 0, 'state': 'normal', 'yaw': 0.0, 'datetime': '2018-10-12 14:03:30.401899', 'mgs': 0, 'depth': 1.996, 'time': 1.26, 'pitch': -3.6, 'roll': -8.83}
{'lipoC2': 7.79, 'temp': 23.63, 'lipoC3S3': 11.83, 'rot1': 0, 'rot0': 0, 'rot3': 0, 'rot2': 0, 'state': 'normal', 'yaw': 0.16, 'datetime': '2018-10-12 14:03:30.420124', 'mgs': 0, 'depth': 2.072, 'time': 1.36, 'pitch': -3.77, 'roll': -9.02}
{'lipoC2': 7.79, 'temp': 23.63, 'lipoC3S3': 11.81, 'rot1': 0, 'rot0': 0, 'rot3': 0, 'rot2': 0, 'state': 'normal', 'yaw': 0.42, 'datetime': '2018-10-12 14:03:30.444973', 'mgs': 0, 'depth': 1.92, 'time': 1.46, 'pitch': -3.88, 'roll': -9.19}
{'lipoC2': 7.79, 'temp': 23.56, 'lipoC3S3': 11.68, 'rot1': 0, 'rot0': 0, 'rot3': 0, 'rot2': 1, 'state': 'normal', 'yaw': 0.5, 'datetime': '2018-10-12 14:03:30.531313', 'mgs': 0, 'depth': 2.301, 'time': 1.55, 'pitch': -4.07, 'roll': -9.29}
{'lipoC2': 7.79, 'temp': 23.56, 'lipoC3S3': 11.72, 'rot1': 0, 'rot0': 0, 'rot3': 1, 'rot2': 1, 'state': 'normal', 'yaw': 0.55, 'datetime': '2018-10-12 14:03:30.630744', 'mgs': 0, 'depth': 2.072, 'time': 1.65, 'pitch': -3.99, 'roll': -9.56}
{'lipoC2': 7.78, 'temp': 23.5, 'lipoC3S3': 11.75, 'rot1': 0, 'rot0': 0, 'rot3': 1, 'rot2': 2, 'state': 'normal', 'yaw': 0.5, 'datetime': '2018-10-12 14:03:30.729461', 'mgs': 0, 'depth': 2.148, 'time': 1.75, 'pitch': -3.66, 'roll': -9.83}
{'lipoC2': 7.79, 'temp': 23.5, 'lipoC3S3': 11.73, 'rot1': 0, 'rot0': 0, 'rot3': 2, 'rot2': 2, 'state': 'normal', 'yaw': 0.29, 'datetime': '2018-10-12 14:03:30.826143', 'mgs': 0, 'depth': 2.072, 'time': 1.84, 'pitch': -3.3, 'roll': -9.92}
{'lipoC2': 7.79, 'temp': 23.5, 'lipoC3S3': 11.73, 'rot1': 0, 'rot0': 0, 'rot3': 3, 'rot2': 3, 'state': 'normal', 'yaw': 0.05, 'datetime': '2018-10-12 14:03:30.920651', 'mgs': 0, 'depth': 2.53, 'time': 1.94, 'pitch': -2.79, 'roll': -9.7}
{'lipoC2': 7.79, 'temp': 23.63, 'lipoC3S3': 11.76, 'rot1': 0, 'rot0': 0, 'rot3': 3, 'rot2': 4, 'state': 'normal', 'yaw': -0.06, 'datetime': '2018-10-12 14:03:31.016166', 'mgs': 0, 'depth': 2.377, 'time': 2.04, 'pitch': -2.18, 'roll': -9.28}
{'lipoC2': 7.79, 'temp': 23.63, 'lipoC3S3': 11.77, 'rot1': 0, 'rot0': 0, 'rot3': 4, 'rot2': 4, 'state': 'normal', 'yaw': -0.14, 'datetime': '2018-10-12 14:03:31.116218', 'mgs': 0, 'depth': 2.377, 'time': 2.13, 'pitch': -1.75, 'roll': -8.86}
{'lipoC2': 7.79, 'temp': 23.63, 'lipoC3S3': 11.72, 'rot1': 0, 'rot0': 0, 'rot3': 4, 'rot2': 5, 'state': 'normal', 'yaw': -0.19, 'datetime': '2018-10-12 14:03:31.212813', 'mgs': 0, 'depth': 2.454, 'time': 2.23, 'pitch': -1.38, 'roll': -8.52}
{'lipoC2': 7.79, 'temp': 23.63, 'lipoC3S3': 11.76, 'rot1': 0, 'rot0': 0, 'rot3': 5, 'rot2': 6, 'state': 'normal', 'yaw': -0.23, 'datetime': '2018-10-12 14:03:31.310008', 'mgs': 0, 'depth': 2.682, 'time': 2.33, 'pitch': -1.09, 'roll': -8.2}
{'lipoC2': 7.78, 'temp': 23.63, 'lipoC3S3': 11.75, 'rot1': 0, 'rot0': 0, 'rot3': 6, 'rot2': 6, 'state': 'normal', 'yaw': -0.26, 'datetime': '2018-10-12 14:03:31.408038', 'mgs': 0, 'depth': 2.53, 'time': 2.42, 'pitch': -0.89, 'roll': -7.81}
{'lipoC2': 7.78, 'temp': 23.63, 'lipoC3S3': 11.72, 'rot1': 0, 'rot0': 0, 'rot3': 6, 'rot2': 8, 'state': 'normal', 'yaw': -0.28, 'datetime': '2018-10-12 14:03:31.505057', 'mgs': 0, 'depth': 2.377, 'time': 2.52, 'pitch': -0.78, 'roll': -7.15}
{'lipoC2': 7.78, 'temp': 23.63, 'lipoC3S3': 11.75, 'rot1': 0, 'rot0': 0, 'rot3': 7, 'rot2': 8, 'state': 'normal', 'yaw': -0.28, 'datetime': '2018-10-12 14:03:31.601700', 'mgs': 0, 'depth': 2.606, 'time': 2.62, 'pitch': -0.72, 'roll': -6.35}
{'lipoC2': 7.78, 'temp': 23.63, 'lipoC3S3': 11.73, 'rot1': 0, 'rot0': 0, 'rot3': 7, 'rot2': 9, 'state': 'normal', 'yaw': -0.22, 'datetime': '2018-10-12 14:03:31.699611', 'mgs': 0, 'depth': 2.682, 'time': 2.72, 'pitch': -0.59, 'roll': -5.65}
{'lipoC2': 7.79, 'temp': 23.63, 'lipoC3S3': 11.76, 'rot1': 0, 'rot0': 0, 'rot3': 8, 'rot2': 10, 'state': 'normal', 'yaw': -0.12, 'datetime': '2018-10-12 14:03:31.797933', 'mgs': 0, 'depth': 2.988, 'time': 2.82, 'pitch': -0.44, 'roll': -5.01}
{'lipoC2': 7.79, 'temp': 23.56, 'lipoC3S3': 11.76, 'rot1': 0, 'rot0': 0, 'rot3': 9, 'rot2': 10, 'state': 'normal', 'yaw': -0.02, 'datetime': '2018-10-12 14:03:31.894526', 'mgs': 0, 'depth': 2.988, 'time': 2.91, 'pitch': -0.37, 'roll': -4.56}
{'lipoC2': 7.78, 'temp': 23.56, 'lipoC3S3': 11.77, 'rot1': 0, 'rot0': 0, 'rot3': 9, 'rot2': 11, 'state': 'normal', 'yaw': 0.11, 'datetime': '2018-10-12 14:03:31.991494', 'mgs': 0, 'depth': 3.14, 'time': 3.01, 'pitch': -0.36, 'roll': -4.27}
{'lipoC2': 7.78, 'temp': 23.56, 'lipoC3S3': 11.77, 'rot1': 0, 'rot0': 0, 'rot3': 10, 'rot2': 11, 'state': 'normal', 'yaw': 0.25, 'datetime': '2018-10-12 14:03:32.089724', 'mgs': 0, 'depth': 2.911, 'time': 3.11, 'pitch': -0.46, 'roll': -4.11}
{'lipoC2': 7.79, 'temp': 23.56, 'lipoC3S3': 11.77, 'rot1': 0, 'rot0': 0, 'rot3': 10, 'rot2': 12, 'state': 'normal', 'yaw': 0.37, 'datetime': '2018-10-12 14:03:32.187405', 'mgs': 0, 'depth': 2.988, 'time': 3.2, 'pitch': -0.7, 'roll': -4.04}
{'lipoC2': 7.79, 'temp': 23.56, 'lipoC3S3': 11.73, 'rot1': 0, 'rot0': 0, 'rot3': 11, 'rot2': 12, 'state': 'normal', 'yaw': 0.49, 'datetime': '2018-10-12 14:03:32.284328', 'mgs': 0, 'depth': 2.988, 'time': 3.3, 'pitch': -0.98, 'roll': -4.06}
{'lipoC2': 7.79, 'temp': 23.56, 'lipoC3S3': 11.76, 'rot1': 0, 'rot0': 0, 'rot3': 11, 'rot2': 13, 'state': 'normal', 'yaw': 0.59, 'datetime': '2018-10-12 14:03:32.381822', 'mgs': 0, 'depth': 3.369, 'time': 3.4, 'pitch': -1.25, 'roll': -4.19}
{'lipoC2': 7.79, 'temp': 23.56, 'lipoC3S3': 11.77, 'rot1': 0, 'rot0': 0, 'rot3': 12, 'rot2': 14, 'state': 'normal', 'yaw': 0.7, 'datetime': '2018-10-12 14:03:32.478685', 'mgs': 0, 'depth': 3.14, 'time': 3.5, 'pitch': -1.52, 'roll': -4.48}
{'lipoC2': 7.79, 'temp': 23.56, 'lipoC3S3': 11.73, 'rot1': 0, 'rot0': 0, 'rot3': 13, 'rot2': 14, 'state': 'normal', 'yaw': 0.84, 'datetime': '2018-10-12 14:03:32.575862', 'mgs': 0, 'depth': 3.217, 'time': 3.59, 'pitch': -1.74, 'roll': -4.92}
{'lipoC2': 7.79, 'temp': 23.56, 'lipoC3S3': 11.76, 'rot1': 0, 'rot0': 0, 'rot3': 13, 'rot2': 15, 'state': 'normal', 'yaw': 0.96, 'datetime': '2018-10-12 14:03:32.668683', 'mgs': 0, 'depth': 3.369, 'time': 3.69, 'pitch': -1.93, 'roll': -5.52}
{'lipoC2': 7.79, 'temp': 23.56, 'lipoC3S3': 11.77, 'rot1': 0, 'rot0': 0, 'rot3': 13, 'rot2': 15, 'state': 'normal', 'yaw': 1.09, 'datetime': '2018-10-12 14:03:32.769897', 'mgs': 0, 'depth': 3.369, 'time': 3.79, 'pitch': -2.08, 'roll': -6.14}
{'lipoC2': 7.78, 'temp': 23.56, 'lipoC3S3': 11.75, 'rot1': 0, 'rot0': 0, 'rot3': 14, 'rot2': 16, 'state': 'normal', 'yaw': 1.22, 'datetime': '2018-10-12 14:03:32.866816', 'mgs': 0, 'depth': 3.293, 'time': 3.89, 'pitch': -2.23, 'roll': -6.81}
{'lipoC2': 7.79, 'temp': 23.56, 'lipoC3S3': 11.75, 'rot1': 0, 'rot0': 0, 'rot3': 14, 'rot2': 16, 'state': 'normal', 'yaw': 1.31, 'datetime': '2018-10-12 14:03:32.964044', 'mgs': 0, 'depth': 3.445, 'time': 3.98, 'pitch': -2.37, 'roll': -7.44}
{'lipoC2': 7.78, 'temp': 23.56, 'lipoC3S3': 11.76, 'rot1': 0, 'rot0': 0, 'rot3': 15, 'rot2': 17, 'state': 'normal', 'yaw': 1.41, 'datetime': '2018-10-12 14:03:33.062337', 'mgs': 0, 'depth': 3.369, 'time': 4.08, 'pitch': -2.46, 'roll': -7.93}
{'lipoC2': 7.78, 'temp': 23.88, 'lipoC3S3': 11.79, 'rot1': 0, 'rot0': 0, 'rot3': 15, 'rot2': 18, 'state': 'normal', 'yaw': 1.53, 'datetime': '2018-10-12 14:03:33.160816', 'mgs': 0, 'depth': 3.827, 'time': 4.18, 'pitch': -2.47, 'roll': -8.36}
{'lipoC2': 7.79, 'temp': 23.88, 'lipoC3S3': 11.73, 'rot1': 0, 'rot0': 0, 'rot3': 16, 'rot2': 18, 'state': 'normal', 'yaw': 1.64, 'datetime': '2018-10-12 14:03:33.258031', 'mgs': 0, 'depth': 3.522, 'time': 4.28, 'pitch': -2.45, 'roll': -8.67}
{'lipoC2': 7.79, 'temp': 23.56, 'lipoC3S3': 11.77, 'rot1': 0, 'rot0': 0, 'rot3': 16, 'rot2': 19, 'state': 'normal', 'yaw': 1.73, 'datetime': '2018-10-12 14:03:33.355154', 'mgs': 0, 'depth': 3.674, 'time': 4.37, 'pitch': -2.38, 'roll': -8.87}
{'lipoC2': 7.78, 'temp': 23.56, 'lipoC3S3': 11.75, 'rot1': 0, 'rot0': 0, 'rot3': 17, 'rot2': 19, 'state': 'normal', 'yaw': 1.8, 'datetime': '2018-10-12 14:03:33.453339', 'mgs': 0, 'depth': 3.598, 'time': 4.47, 'pitch': -2.27, 'roll': -8.97}
{'lipoC2': 7.79, 'temp': 23.56, 'lipoC3S3': 11.77, 'rot1': 0, 'rot0': 0, 'rot3': 17, 'rot2': 20, 'state': 'normal', 'yaw': 1.9, 'datetime': '2018-10-12 14:03:33.551865', 'mgs': 0, 'depth': 3.598, 'time': 4.57, 'pitch': -2.12, 'roll': -8.97}
{'lipoC2': 7.78, 'temp': 23.63, 'lipoC3S3': 11.79, 'rot1': 0, 'rot0': 0, 'rot3': 18, 'rot2': 20, 'state': 'normal', 'yaw': 1.99, 'datetime': '2018-10-12 14:03:33.649294', 'mgs': 0, 'depth': 3.979, 'time': 4.67, 'pitch': -1.98, 'roll': -8.91}
{'lipoC2': 7.78, 'temp': 23.63, 'lipoC3S3': 11.75, 'rot1': 0, 'rot0': 0, 'rot3': 18, 'rot2': 20, 'state': 'normal', 'yaw': 2.1, 'datetime': '2018-10-12 14:03:33.746595', 'mgs': 0, 'depth': 3.674, 'time': 4.76, 'pitch': -1.86, 'roll': -8.73}
{'lipoC2': 7.78, 'temp': 23.38, 'lipoC3S3': 11.73, 'rot1': 0, 'rot0': 0, 'rot3': 18, 'rot2': 20, 'state': 'normal', 'yaw': 2.21, 'datetime': '2018-10-12 14:03:33.844374', 'mgs': 0, 'depth': 3.751, 'time': 4.86, 'pitch': -1.87, 'roll': -8.33}
{'lipoC2': 7.78, 'temp': 23.38, 'lipoC3S3': 11.81, 'rot1': 0, 'rot0': 0, 'rot3': 19, 'rot2': 20, 'state': 'normal', 'yaw': 2.31, 'datetime': '2018-10-12 14:03:33.942942', 'mgs': 0, 'depth': 3.827, 'time': 4.96, 'pitch': -1.98, 'roll': -7.63}
{'lipoC2': 7.79, 'temp': 23.38, 'lipoC3S3': 11.81, 'rot1': 0, 'rot0': 0, 'rot3': 19, 'rot2': 20, 'state': 'normal', 'yaw': 2.41, 'datetime': '2018-10-12 14:03:34.039801', 'mgs': 0, 'depth': 3.751, 'time': 5.06, 'pitch': -2.09, 'roll': -6.88}
{'lipoC2': 7.78, 'temp': 23.56, 'lipoC3S3': 11.81, 'rot1': 0, 'rot0': 0, 'rot3': 19, 'rot2': 21, 'state': 'normal', 'yaw': 2.43, 'datetime': '2018-10-12 14:03:34.136999', 'mgs': 0, 'depth': 3.827, 'time': 5.16, 'pitch': -2.22, 'roll': -6.14}
{'lipoC2': 7.78, 'temp': 23.56, 'lipoC3S3': 11.81, 'rot1': 0, 'rot0': 0, 'rot3': 19, 'rot2': 21, 'state': 'normal', 'yaw': 2.44, 'datetime': '2018-10-12 14:03:34.233993', 'mgs': 0, 'depth': 3.827, 'time': 5.25, 'pitch': -2.33, 'roll': -5.54}
{'lipoC2': 7.79, 'temp': 23.56, 'lipoC3S3': 11.81, 'rot1': 0, 'rot0': 0, 'rot3': 19, 'rot2': 21, 'state': 'normal', 'yaw': 2.46, 'datetime': '2018-10-12 14:03:34.331137', 'mgs': 0, 'depth': 3.827, 'time': 5.35, 'pitch': -2.44, 'roll': -4.98}
{'lipoC2': 7.79, 'temp': 23.56, 'lipoC3S3': 11.81, 'rot1': 0, 'rot0': 0, 'rot3': 19, 'rot2': 21, 'state': 'normal', 'yaw': 2.49, 'datetime': '2018-10-12 14:03:34.428103', 'mgs': 0, 'depth': 3.827, 'time': 5.45, 'pitch': -2.55, 'roll': -4.57}
{'lipoC2': 7.78, 'temp': 23.56, 'lipoC3S3': 11.81, 'rot1': 0, 'rot0': 0, 'rot3': 19, 'rot2': 21, 'state': 'normal', 'yaw': 2.52, 'datetime': '2018-10-12 14:03:34.525298', 'mgs': 0, 'depth': 3.903, 'time': 5.55, 'pitch': -2.64, 'roll': -4.35}
{'lipoC2': 7.79, 'temp': 23.56, 'lipoC3S3': 11.81, 'rot1': 0, 'rot0': 0, 'rot3': 19, 'rot2': 21, 'state': 'normal', 'yaw': 2.55, 'datetime': '2018-10-12 14:03:34.622301', 'mgs': 0, 'depth': 3.827, 'time': 5.64, 'pitch': -2.71, 'roll': -4.28}
{'lipoC2': 7.79, 'temp': 23.56, 'lipoC3S3': 11.81, 'rot1': 0, 'rot0': 0, 'rot3': 19, 'rot2': 21, 'state': 'normal', 'yaw': 2.59, 'datetime': '2018-10-12 14:03:34.719330', 'mgs': 0, 'depth': 3.827, 'time': 5.74, 'pitch': -2.72, 'roll': -4.35}
{'lipoC2': 7.79, 'temp': 23.38, 'lipoC3S3': 11.81, 'rot1': 0, 'rot0': 0, 'rot3': 19, 'rot2': 21, 'state': 'normal', 'yaw': 2.62, 'datetime': '2018-10-12 14:03:34.816787', 'mgs': 0, 'depth': 3.827, 'time': 5.84, 'pitch': -2.71, 'roll': -4.55}
{'lipoC2': 7.79, 'temp': 23.38, 'lipoC3S3': 11.81, 'rot1': 0, 'rot0': 0, 'rot3': 19, 'rot2': 21, 'state': 'normal', 'yaw': 2.66, 'datetime': '2018-10-12 14:03:34.915239', 'mgs': 0, 'depth': 3.827, 'time': 5.94, 'pitch': -2.71, 'roll': -4.8}
{'lipoC2': 7.79, 'temp': 23.38, 'lipoC3S3': 11.81, 'rot1': 0, 'rot0': 0, 'rot3': 19, 'rot2': 21, 'state': 'normal', 'yaw': 2.72, 'datetime': '2018-10-12 14:03:35.013522', 'mgs': 0, 'depth': 3.751, 'time': 6.03, 'pitch': -2.66, 'roll': -5.15}
{'lipoC2': 7.78, 'temp': 23.94, 'lipoC3S3': 11.81, 'rot1': 0, 'rot0': 0, 'rot3': 19, 'rot2': 21, 'state': 'normal', 'yaw': 2.78, 'datetime': '2018-10-12 14:03:35.110735', 'mgs': 0, 'depth': 3.827, 'time': 6.13, 'pitch': -2.56, 'roll': -5.54}
{'lipoC2': 7.79, 'temp': 23.94, 'lipoC3S3': 11.81, 'rot1': 0, 'rot0': 0, 'rot3': 19, 'rot2': 21, 'state': 'normal', 'yaw': 2.85, 'datetime': '2018-10-12 14:03:35.207549', 'mgs': 0, 'depth': 3.827, 'time': 6.23, 'pitch': -2.45, 'roll': -5.94}
{'lipoC2': 7.79, 'temp': 23.63, 'lipoC3S3': 11.81, 'rot1': 0, 'rot0': 0, 'rot3': 19, 'rot2': 21, 'state': 'normal', 'yaw': 2.9, 'datetime': '2018-10-12 14:03:35.306074', 'mgs': 0, 'depth': 3.751, 'time': 6.33, 'pitch': -2.34, 'roll': -6.29}
{'lipoC2': 7.78, 'temp': 23.63, 'lipoC3S3': 11.81, 'rot1': 0, 'rot0': 0, 'rot3': 19, 'rot2': 21, 'state': 'normal', 'yaw': 2.96, 'datetime': '2018-10-12 14:03:35.404442', 'mgs': 0, 'depth': 3.751, 'time': 6.43, 'pitch': -2.22, 'roll': -6.65}
{'lipoC2': 7.79, 'temp': 23.63, 'lipoC3S3': 11.81, 'rot1': 0, 'rot0': 0, 'rot3': 19, 'rot2': 21, 'state': 'normal', 'yaw': 3.01, 'datetime': '2018-10-12 14:03:35.501634', 'mgs': 0, 'depth': 3.674, 'time': 6.52, 'pitch': -2.11, 'roll': -6.97}
{'lipoC2': 7.78, 'temp': 23.63, 'lipoC3S3': 11.81, 'rot1': 0, 'rot0': 0, 'rot3': 19, 'rot2': 21, 'state': 'normal', 'yaw': 3.02, 'datetime': '2018-10-12 14:03:35.598420', 'mgs': 0, 'depth': 3.674, 'time': 6.62, 'pitch': -2.02, 'roll': -7.24}
{'lipoC2': 7.79, 'temp': 23.63, 'lipoC3S3': 11.77, 'rot1': 0, 'rot0': 0, 'rot3': 20, 'rot2': 21, 'state': 'normal', 'yaw': 3.05, 'datetime': '2018-10-12 14:03:35.697083', 'mgs': 0, 'depth': 3.751, 'time': 6.72, 'pitch': -1.98, 'roll': -7.43}
{'lipoC2': 7.79, 'temp': 23.56, 'lipoC3S3': 11.77, 'rot1': 0, 'rot0': 0, 'rot3': 20, 'rot2': 21, 'state': 'normal', 'yaw': 3.11, 'datetime': '2018-10-12 14:03:35.794677', 'mgs': 0, 'depth': 3.903, 'time': 6.82, 'pitch': -1.88, 'roll': -7.7}
{'lipoC2': 7.78, 'temp': 23.56, 'lipoC3S3': 11.81, 'rot1': 0, 'rot0': 0, 'rot3': 20, 'rot2': 21, 'state': 'normal', 'yaw': 3.17, 'datetime': '2018-10-12 14:03:35.891822', 'mgs': 0, 'depth': 3.674, 'time': 6.91, 'pitch': -1.77, 'roll': -8.01}
{'lipoC2': 7.78, 'temp': 23.56, 'lipoC3S3': 11.81, 'rot1': 0, 'rot0': 0, 'rot3': 20, 'rot2': 21, 'state': 'normal', 'yaw': 3.17, 'datetime': '2018-10-12 14:03:35.988921', 'mgs': 0, 'depth': 3.674, 'time': 7.01, 'pitch': -1.76, 'roll': -8.14}
{'lipoC2': 7.79, 'temp': 24.31, 'lipoC3S3': 11.77, 'rot1': 0, 'rot0': 0, 'rot3': 20, 'rot2': 22, 'state': 'normal', 'yaw': 3.17, 'datetime': '2018-10-12 14:03:36.087237', 'mgs': 0, 'depth': 3.598, 'time': 7.11, 'pitch': -1.76, 'roll': -8.13}
{'lipoC2': 7.79, 'temp': 24.31, 'lipoC3S3': 11.79, 'rot1': 0, 'rot0': 0, 'rot3': 21, 'rot2': 22, 'state': 'normal', 'yaw': 3.18, 'datetime': '2018-10-12 14:03:36.185553', 'mgs': 0, 'depth': 3.674, 'time': 7.21, 'pitch': -1.76, 'roll': -8.11}
{'lipoC2': 7.79, 'temp': 23.56, 'lipoC3S3': 11.79, 'rot1': 0, 'rot0': 0, 'rot3': 21, 'rot2': 23, 'state': 'normal', 'yaw': 3.2, 'datetime': '2018-10-12 14:03:36.282634', 'mgs': 0, 'depth': 3.979, 'time': 7.3, 'pitch': -1.76, 'roll': -8.11}
{'lipoC2': 7.78, 'temp': 23.56, 'lipoC3S3': 11.79, 'rot1': 0, 'rot0': 0, 'rot3': 21, 'rot2': 23, 'state': 'normal', 'yaw': 3.23, 'datetime': '2018-10-12 14:03:36.379642', 'mgs': 0, 'depth': 3.598, 'time': 7.4, 'pitch': -1.75, 'roll': -8.03}
{'lipoC2': 7.79, 'temp': 23.56, 'lipoC3S3': 11.75, 'rot1': 0, 'rot0': 0, 'rot3': 22, 'rot2': 23, 'state': 'normal', 'yaw': 3.28, 'datetime': '2018-10-12 14:03:36.478920', 'mgs': 0, 'depth': 3.522, 'time': 7.5, 'pitch': -1.74, 'roll': -7.93}
{'lipoC2': 7.79, 'temp': 23.56, 'lipoC3S3': 11.77, 'rot1': 0, 'rot0': 0, 'rot3': 22, 'rot2': 24, 'state': 'normal', 'yaw': 3.34, 'datetime': '2018-10-12 14:03:36.577263', 'mgs': 0, 'depth': 3.751, 'time': 7.6, 'pitch': -1.73, 'roll': -7.81}
{'lipoC2': 7.78, 'temp': 23.56, 'lipoC3S3': 11.81, 'rot1': 0, 'rot0': 0, 'rot3': 23, 'rot2': 24, 'state': 'normal', 'yaw': 3.35, 'datetime': '2018-10-12 14:03:36.674293', 'mgs': 0, 'depth': 3.522, 'time': 7.69, 'pitch': -1.74, 'roll': -7.66}
{'lipoC2': 7.78, 'temp': 23.56, 'lipoC3S3': 11.83, 'rot1': 0, 'rot0': 0, 'rot3': 23, 'rot2': 24, 'state': 'normal', 'yaw': 3.36, 'datetime': '2018-10-12 14:03:36.772445', 'mgs': 0, 'depth': 3.674, 'time': 7.79, 'pitch': -1.78, 'roll': -7.42}
{'lipoC2': 7.79, 'temp': 23.56, 'lipoC3S3': 11.77, 'rot1': 0, 'rot0': 0, 'rot3': 23, 'rot2': 25, 'state': 'normal', 'yaw': 3.37, 'datetime': '2018-10-12 14:03:36.870741', 'mgs': 0, 'depth': 3.674, 'time': 7.89, 'pitch': -1.87, 'roll': -7.04}
{'lipoC2': 7.79, 'temp': 23.56, 'lipoC3S3': 11.77, 'rot1': 0, 'rot0': 0, 'rot3': 23, 'rot2': 25, 'state': 'normal', 'yaw': 3.39, 'datetime': '2018-10-12 14:03:36.969094', 'mgs': 0, 'depth': 3.674, 'time': 7.99, 'pitch': -1.92, 'roll': -6.72}
{'lipoC2': 7.78, 'temp': 23.69, 'lipoC3S3': 11.77, 'rot1': 0, 'rot0': 0, 'rot3': 23, 'rot2': 25, 'state': 'normal', 'yaw': 3.43, 'datetime': '2018-10-12 14:03:37.066197', 'mgs': 0, 'depth': 3.903, 'time': 8.09, 'pitch': -1.91, 'roll': -6.51}
{'lipoC2': 7.78, 'temp': 23.69, 'lipoC3S3': 11.73, 'rot1': 0, 'rot0': 0, 'rot3': 24, 'rot2': 26, 'state': 'normal', 'yaw': 3.46, 'datetime': '2018-10-12 14:03:37.163846', 'mgs': 0, 'depth': 3.674, 'time': 8.18, 'pitch': -1.91, 'roll': -6.4}
{'lipoC2': 7.79, 'temp': 23.56, 'lipoC3S3': 11.79, 'rot1': 0, 'rot0': 0, 'rot3': 24, 'rot2': 26, 'state': 'normal', 'yaw': 3.52, 'datetime': '2018-10-12 14:03:37.261928', 'mgs': 0, 'depth': 3.598, 'time': 8.28, 'pitch': -1.9, 'roll': -6.38}
{'lipoC2': 7.78, 'temp': 23.56, 'lipoC3S3': 11.77, 'rot1': 0, 'rot0': 0, 'rot3': 25, 'rot2': 27, 'state': 'normal', 'yaw': 3.57, 'datetime': '2018-10-12 14:03:37.360287', 'mgs': 0, 'depth': 3.827, 'time': 8.38, 'pitch': -1.92, 'roll': -6.38}
{'lipoC2': 7.78, 'temp': 23.56, 'lipoC3S3': 11.8, 'rot1': 0, 'rot0': 0, 'rot3': 25, 'rot2': 27, 'state': 'normal', 'yaw': 3.66, 'datetime': '2018-10-12 14:03:37.457358', 'mgs': 0, 'depth': 3.598, 'time': 8.48, 'pitch': -1.97, 'roll': -6.47}
{'lipoC2': 7.78, 'temp': 23.69, 'lipoC3S3': 11.81, 'rot1': 0, 'rot0': 0, 'rot3': 25, 'rot2': 27, 'state': 'normal', 'yaw': 3.76, 'datetime': '2018-10-12 14:03:37.554301', 'mgs': 0, 'depth': 3.674, 'time': 8.57, 'pitch': -2.09, 'roll': -6.48}
{'lipoC2': 7.79, 'temp': 23.69, 'lipoC3S3': 11.77, 'rot1': 0, 'rot0': 0, 'rot3': 25, 'rot2': 27, 'state': 'normal', 'yaw': 3.85, 'datetime': '2018-10-12 14:03:37.652784', 'mgs': 0, 'depth': 3.598, 'time': 8.67, 'pitch': -2.21, 'roll': -6.48}
{'lipoC2': 7.79, 'temp': 23.56, 'lipoC3S3': 11.77, 'rot1': 0, 'rot0': 0, 'rot3': 26, 'rot2': 28, 'state': 'normal', 'yaw': 3.96, 'datetime': '2018-10-12 14:03:37.755962', 'mgs': 0, 'depth': 3.674, 'time': 8.77, 'pitch': -2.3, 'roll': -6.54}
{'lipoC2': 7.78, 'temp': 23.56, 'lipoC3S3': 11.79, 'rot1': 0, 'rot0': 0, 'rot3': 26, 'rot2': 28, 'state': 'normal', 'yaw': 4.08, 'datetime': '2018-10-12 14:03:37.857599', 'mgs': 0, 'depth': 3.903, 'time': 8.87, 'pitch': -2.3, 'roll': -6.72}
{'lipoC2': 7.78, 'temp': 23.63, 'lipoC3S3': 11.79, 'rot1': 0, 'rot0': 0, 'rot3': 26, 'rot2': 29, 'state': 'normal', 'yaw': 4.19, 'datetime': '2018-10-12 14:03:37.937350', 'mgs': 0, 'depth': 3.674, 'time': 8.97, 'pitch': -2.28, 'roll': -6.94}
{'lipoC2': 7.78, 'temp': 23.63, 'lipoC3S3': 11.72, 'rot1': 0, 'rot0': 0, 'rot3': 27, 'rot2': 29, 'state': 'normal', 'yaw': 4.29, 'datetime': '2018-10-12 14:03:38.034439', 'mgs': 0, 'depth': 3.674, 'time': 9.06, 'pitch': -2.22, 'roll': -7.13}
{'lipoC2': 7.79, 'temp': 23.63, 'lipoC3S3': 11.79, 'rot1': 0, 'rot0': 0, 'rot3': 27, 'rot2': 30, 'state': 'normal', 'yaw': 4.42, 'datetime': '2018-10-12 14:03:38.131457', 'mgs': 0, 'depth': 3.903, 'time': 9.16, 'pitch': -2.09, 'roll': -7.32}
{'lipoC2': 7.79, 'temp': 23.5, 'lipoC3S3': 11.81, 'rot1': 0, 'rot0': 0, 'rot3': 28, 'rot2': 30, 'state': 'normal', 'yaw': 4.58, 'datetime': '2018-10-12 14:03:38.228547', 'mgs': 0, 'depth': 3.598, 'time': 9.26, 'pitch': -1.94, 'roll': -7.51}
{'lipoC2': 7.78, 'temp': 23.5, 'lipoC3S3': 11.81, 'rot1': 0, 'rot0': 0, 'rot3': 28, 'rot2': 30, 'state': 'normal', 'yaw': 4.7, 'datetime': '2018-10-12 14:03:38.325571', 'mgs': 0, 'depth': 3.674, 'time': 9.35, 'pitch': -1.84, 'roll': -7.57}
{'lipoC2': 7.78, 'temp': 23.56, 'lipoC3S3': 11.76, 'rot1': 0, 'rot0': 0, 'rot3': 28, 'rot2': 30, 'state': 'normal', 'yaw': 4.82, 'datetime': '2018-10-12 14:03:38.422689', 'mgs': 0, 'depth': 3.827, 'time': 9.45, 'pitch': -1.74, 'roll': -7.57}
{'lipoC2': 7.78, 'temp': 23.56, 'lipoC3S3': 11.79, 'rot1': 0, 'rot0': 0, 'rot3': 28, 'rot2': 32, 'state': 'normal', 'yaw': 4.96, 'datetime': '2018-10-12 14:03:38.519798', 'mgs': 0, 'depth': 3.751, 'time': 9.55, 'pitch': -1.62, 'roll': -7.61}
{'lipoC2': 7.78, 'temp': 23.56, 'lipoC3S3': 11.81, 'rot1': 0, 'rot0': 0, 'rot3': 28, 'rot2': 32, 'state': 'normal', 'yaw': 5.1, 'datetime': '2018-10-12 14:03:38.620945', 'mgs': 0, 'depth': 3.598, 'time': 9.65, 'pitch': -1.5, 'roll': -7.7}
{'lipoC2': 7.79, 'temp': 23.56, 'lipoC3S3': 11.8, 'rot1': 0, 'rot0': 0, 'rot3': 28, 'rot2': 32, 'state': 'normal', 'yaw': 5.26, 'datetime': '2018-10-12 14:03:38.719569', 'mgs': 0, 'depth': 3.598, 'time': 9.75, 'pitch': -1.48, 'roll': -7.67}
{'lipoC2': 7.79, 'temp': 23.56, 'lipoC3S3': 11.77, 'rot1': 0, 'rot0': 0, 'rot3': 30, 'rot2': 32, 'state': 'normal', 'yaw': 5.43, 'datetime': '2018-10-12 14:03:38.817754', 'mgs': 0, 'depth': 3.751, 'time': 9.84, 'pitch': -1.46, 'roll': -7.51}
{'lipoC2': 7.78, 'temp': 23.56, 'lipoC3S3': 11.77, 'rot1': 0, 'rot0': 0, 'rot3': 30, 'rot2': 32, 'state': 'normal', 'yaw': 5.62, 'datetime': '2018-10-12 14:03:38.914787', 'mgs': 0, 'depth': 3.598, 'time': 9.94, 'pitch': -1.44, 'roll': -7.39}
{'lipoC2': 7.79, 'temp': 23.56, 'lipoC3S3': 11.73, 'rot1': 0, 'rot0': 0, 'rot3': 30, 'rot2': 33, 'state': 'normal', 'yaw': 5.8, 'datetime': '2018-10-12 14:03:39.011987', 'mgs': 0, 'depth': 3.598, 'time': 10.04, 'pitch': -1.41, 'roll': -7.35}
{'lipoC2': 7.78, 'temp': 23.56, 'lipoC3S3': 11.79, 'rot1': 0, 'rot0': 0, 'rot3': 31, 'rot2': 33, 'state': 'normal', 'yaw': 5.95, 'datetime': '2018-10-12 14:03:39.110480', 'mgs': 0, 'depth': 3.674, 'time': 10.14, 'pitch': -1.39, 'roll': -7.36}
{'lipoC2': 7.79, 'temp': 23.63, 'lipoC3S3': 11.77, 'rot1': 0, 'rot0': 0, 'rot3': 31, 'rot2': 34, 'state': 'normal', 'yaw': 6.1, 'datetime': '2018-10-12 14:03:39.208714', 'mgs': 0, 'depth': 3.751, 'time': 10.23, 'pitch': -1.37, 'roll': -7.37}
{'lipoC2': 7.79, 'temp': 23.63, 'lipoC3S3': 11.79, 'rot1': 0, 'rot0': 0, 'rot3': 32, 'rot2': 34, 'state': 'normal', 'yaw': 6.23, 'datetime': '2018-10-12 14:03:39.305729', 'mgs': 0, 'depth': 3.598, 'time': 10.33, 'pitch': -1.38, 'roll': -7.38}
{'lipoC2': 7.78, 'temp': 23.56, 'lipoC3S3': 11.76, 'rot1': 0, 'rot0': 0, 'rot3': 32, 'rot2': 35, 'state': 'normal', 'yaw': 6.36, 'datetime': '2018-10-12 14:03:39.402882', 'mgs': 0, 'depth': 3.674, 'time': 10.43, 'pitch': -1.44, 'roll': -7.4}
{'lipoC2': 7.79, 'temp': 23.56, 'lipoC3S3': 11.77, 'rot1': 0, 'rot0': 0, 'rot3': 32, 'rot2': 35, 'state': 'normal', 'yaw': 6.5, 'datetime': '2018-10-12 14:03:39.501139', 'mgs': 0, 'depth': 4.056, 'time': 10.53, 'pitch': -1.49, 'roll': -7.4}
{'lipoC2': 7.78, 'temp': 23.56, 'lipoC3S3': 11.76, 'rot1': 0, 'rot0': 0, 'rot3': 32, 'rot2': 37, 'state': 'normal', 'yaw': 6.66, 'datetime': '2018-10-12 14:03:39.598727', 'mgs': 0, 'depth': 4.056, 'time': 10.63, 'pitch': -1.54, 'roll': -7.4}
{'lipoC2': 7.79, 'temp': 23.56, 'lipoC3S3': 11.77, 'rot1': 0, 'rot0': 0, 'rot3': 32, 'rot2': 37, 'state': 'normal', 'yaw': 6.81, 'datetime': '2018-10-12 14:03:39.695800', 'mgs': 0, 'depth': 3.598, 'time': 10.72, 'pitch': -1.71, 'roll': -7.16}
{'lipoC2': 7.79, 'temp': 23.56, 'lipoC3S3': 11.69, 'rot1': 0, 'rot0': 0, 'rot3': 32, 'rot2': 37, 'state': 'normal', 'yaw': 6.91, 'datetime': '2018-10-12 14:03:39.793068', 'mgs': 0, 'depth': 3.674, 'time': 10.82, 'pitch': -1.92, 'roll': -6.78}
{'lipoC2': 7.78, 'temp': 23.56, 'lipoC3S3': 11.77, 'rot1': 0, 'rot0': 0, 'rot3': 32, 'rot2': 37, 'state': 'normal', 'yaw': 7.05, 'datetime': '2018-10-12 14:03:39.890069', 'mgs': 0, 'depth': 3.903, 'time': 10.92, 'pitch': -2.05, 'roll': -6.52}
{'lipoC2': 7.78, 'temp': 23.56, 'lipoC3S3': 11.8, 'rot1': 0, 'rot0': 0, 'rot3': 33, 'rot2': 38, 'state': 'normal', 'yaw': 7.19, 'datetime': '2018-10-12 14:03:39.987247', 'mgs': 0, 'depth': 3.598, 'time': 11.02, 'pitch': -2.12, 'roll': -6.48}
{'lipoC2': 7.78, 'temp': 23.56, 'lipoC3S3': 11.8, 'rot1': 0, 'rot0': 0, 'rot3': 33, 'rot2': 38, 'state': 'normal', 'yaw': 7.33, 'datetime': '2018-10-12 14:03:40.084207', 'mgs': 0, 'depth': 3.674, 'time': 11.11, 'pitch': -2.2, 'roll': -6.41}
{'lipoC2': 7.78, 'temp': 23.63, 'lipoC3S3': 11.77, 'rot1': 0, 'rot0': 0, 'rot3': 33, 'rot2': 38, 'state': 'normal', 'yaw': 7.43, 'datetime': '2018-10-12 14:03:40.182912', 'mgs': 0, 'depth': 3.674, 'time': 11.21, 'pitch': -2.25, 'roll': -6.33}
{'lipoC2': 7.78, 'temp': 23.63, 'lipoC3S3': 11.77, 'rot1': 0, 'rot0': 0, 'rot3': 33, 'rot2': 38, 'state': 'normal', 'yaw': 7.56, 'datetime': '2018-10-12 14:03:40.280288', 'mgs': 0, 'depth': 3.598, 'time': 11.31, 'pitch': -2.23, 'roll': -6.33}
{'lipoC2': 7.79, 'temp': 23.56, 'lipoC3S3': 11.72, 'rot1': 0, 'rot0': 0, 'rot3': 33, 'rot2': 39, 'state': 'normal', 'yaw': 7.69, 'datetime': '2018-10-12 14:03:40.376852', 'mgs': 0, 'depth': 3.674, 'time': 11.4, 'pitch': -2.16, 'roll': -6.47}
{'lipoC2': 7.78, 'temp': 23.56, 'lipoC3S3': 11.73, 'rot1': 0, 'rot0': 0, 'rot3': 34, 'rot2': 39, 'state': 'normal', 'yaw': 7.8, 'datetime': '2018-10-12 14:03:40.475156', 'mgs': 0, 'depth': 3.598, 'time': 11.5, 'pitch': -2.04, 'roll': -6.67}
{'lipoC2': 7.79, 'temp': 23.56, 'lipoC3S3': 11.79, 'rot1': 0, 'rot0': 0, 'rot3': 34, 'rot2': 40, 'state': 'normal', 'yaw': 7.92, 'datetime': '2018-10-12 14:03:40.572805', 'mgs': 0, 'depth': 3.674, 'time': 11.6, 'pitch': -1.88, 'roll': -6.93}
{'lipoC2': 7.78, 'temp': 23.56, 'lipoC3S3': 11.77, 'rot1': 0, 'rot0': 0, 'rot3': 35, 'rot2': 40, 'state': 'normal', 'yaw': 8.06, 'datetime': '2018-10-12 14:03:40.671132', 'mgs': 0, 'depth': 3.903, 'time': 11.7, 'pitch': -1.69, 'roll': -7.23}
{'lipoC2': 7.78, 'temp': 23.56, 'lipoC3S3': 11.8, 'rot1': 0, 'rot0': 0, 'rot3': 35, 'rot2': 41, 'state': 'normal', 'yaw': 8.18, 'datetime': '2018-10-12 14:03:40.769253', 'mgs': 0, 'depth': 3.598, 'time': 11.8, 'pitch': -1.49, 'roll': -7.5}
{'lipoC2': 7.78, 'temp': 23.69, 'lipoC3S3': 11.8, 'rot1': 0, 'rot0': 0, 'rot3': 35, 'rot2': 41, 'state': 'normal', 'yaw': 8.31, 'datetime': '2018-10-12 14:03:40.865236', 'mgs': 0, 'depth': 3.674, 'time': 11.89, 'pitch': -1.37, 'roll': -7.64}
{'lipoC2': 7.78, 'temp': 23.69, 'lipoC3S3': 11.77, 'rot1': 0, 'rot0': 0, 'rot3': 35, 'rot2': 41, 'state': 'normal', 'yaw': 8.43, 'datetime': '2018-10-12 14:03:40.963671', 'mgs': 0, 'depth': 3.751, 'time': 11.99, 'pitch': -1.32, 'roll': -7.63}
{'lipoC2': 7.79, 'temp': 23.69, 'lipoC3S3': 11.77, 'rot1': 0, 'rot0': 0, 'rot3': 35, 'rot2': 41, 'state': 'normal', 'yaw': 8.57, 'datetime': '2018-10-12 14:03:41.062004', 'mgs': 0, 'depth': 3.674, 'time': 12.09, 'pitch': -1.22, 'roll': -7.64}
{'lipoC2': 7.79, 'temp': 23.56, 'lipoC3S3': 11.77, 'rot1': 0, 'rot0': 0, 'rot3': 36, 'rot2': 42, 'state': 'normal', 'yaw': 8.71, 'datetime': '2018-10-12 14:03:41.159131', 'mgs': 0, 'depth': 3.903, 'time': 12.19, 'pitch': -1.13, 'roll': -7.67}
{'lipoC2': 7.78, 'temp': 23.56, 'lipoC3S3': 11.77, 'rot1': 0, 'rot0': 0, 'rot3': 36, 'rot2': 42, 'state': 'normal', 'yaw': 8.82, 'datetime': '2018-10-12 14:03:41.256151', 'mgs': 0, 'depth': 3.598, 'time': 12.28, 'pitch': -1.1, 'roll': -7.73}
