{'lipoC2': 7.88, 'temp': 24.38, 'lipoC3S3': 11.85, 'rot1': 0, 'rot0': 0, 'rot3': 0, 'rot2': 0, 'state': 'normal', 'yaw': 0.0, 'datetime': '2018-10-12 13:40:36.877256', 'mgs': 0, 'depth': 1.996, 'time': 1.26, 'pitch': -3.9, 'roll': -14.54}
{'lipoC2': 7.88, 'temp': 24.38, 'lipoC3S3': 11.85, 'rot1': 0, 'rot0': 0, 'rot3': 0, 'rot2': 0, 'state': 'normal', 'yaw': 1.15, 'datetime': '2018-10-12 13:40:36.915956', 'mgs': 0, 'depth': 1.92, 'time': 1.36, 'pitch': -3.85, 'roll': -14.6}
{'lipoC2': 7.87, 'temp': 24.38, 'lipoC3S3': 11.87, 'rot1': 0, 'rot0': 0, 'rot3': 0, 'rot2': 0, 'state': 'normal', 'yaw': 2.51, 'datetime': '2018-10-12 13:40:36.943892', 'mgs': 0, 'depth': 1.92, 'time': 1.46, 'pitch': -3.76, 'roll': -14.4}
{'lipoC2': 7.87, 'temp': 24.38, 'lipoC3S3': 11.85, 'rot1': 0, 'rot0': 0, 'rot3': 0, 'rot2': 0, 'state': 'normal', 'yaw': 3.81, 'datetime': '2018-10-12 13:40:36.951673', 'mgs': 0, 'depth': 1.92, 'time': 1.55, 'pitch': -3.79, 'roll': -13.98}
{'lipoC2': 7.87, 'temp': 24.38, 'lipoC3S3': 11.85, 'rot1': 0, 'rot0': 0, 'rot3': 0, 'rot2': 0, 'state': 'normal', 'yaw': 4.91, 'datetime': '2018-10-12 13:40:36.959439', 'mgs': 0, 'depth': 1.92, 'time': 1.65, 'pitch': -4.33, 'roll': -13.28}
{'lipoC2': 7.88, 'temp': 24.31, 'lipoC3S3': 11.85, 'rot1': 0, 'rot0': 0, 'rot3': 0, 'rot2': 0, 'state': 'normal', 'yaw': 5.51, 'datetime': '2018-10-12 13:40:36.967233', 'mgs': 0, 'depth': 1.767, 'time': 1.75, 'pitch': -5.35, 'roll': -12.74}
{'lipoC2': 7.87, 'temp': 24.31, 'lipoC3S3': 11.85, 'rot1': 0, 'rot0': 0, 'rot3': 0, 'rot2': 0, 'state': 'normal', 'yaw': 5.8, 'datetime': '2018-10-12 13:40:36.974909', 'mgs': 0, 'depth': 1.843, 'time': 1.84, 'pitch': -6.54, 'roll': -12.67}
{'lipoC2': 7.87, 'temp': 24.31, 'lipoC3S3': 11.85, 'rot1': 0, 'rot0': 0, 'rot3': 0, 'rot2': 0, 'state': 'normal', 'yaw': 6.05, 'datetime': '2018-10-12 13:40:36.982522', 'mgs': 0, 'depth': 1.92, 'time': 1.94, 'pitch': -7.36, 'roll': -12.69}
{'lipoC2': 7.87, 'temp': 24.31, 'lipoC3S3': 11.87, 'rot1': 0, 'rot0': 0, 'rot3': 0, 'rot2': 0, 'state': 'normal', 'yaw': 6.49, 'datetime': '2018-10-12 13:40:36.990220', 'mgs': 0, 'depth': 1.767, 'time': 2.04, 'pitch': -7.71, 'roll': -12.63}
{'lipoC2': 7.88, 'temp': 24.31, 'lipoC3S3': 11.85, 'rot1': 0, 'rot0': 0, 'rot3': 0, 'rot2': 0, 'state': 'normal', 'yaw': 6.93, 'datetime': '2018-10-12 13:40:36.998042', 'mgs': 0, 'depth': 1.767, 'time': 2.13, 'pitch': -7.59, 'roll': -12.67}
{'lipoC2': 7.87, 'temp': 24.38, 'lipoC3S3': 11.87, 'rot1': 0, 'rot0': 0, 'rot3': 0, 'rot2': 0, 'state': 'normal', 'yaw': 7.22, 'datetime': '2018-10-12 13:40:37.005808', 'mgs': 0, 'depth': 1.767, 'time': 2.23, 'pitch': -7.23, 'roll': -12.91}
{'lipoC2': 7.87, 'temp': 24.38, 'lipoC3S3': 11.85, 'rot1': 0, 'rot0': 0, 'rot3': 0, 'rot2': 0, 'state': 'normal', 'yaw': 7.34, 'datetime': '2018-10-12 13:40:37.013580', 'mgs': 0, 'depth': 1.691, 'time': 2.33, 'pitch': -6.71, 'roll': -13.21}
{'lipoC2': 7.87, 'temp': 24.31, 'lipoC3S3': 11.85, 'rot1': 0, 'rot0': 0, 'rot3': 0, 'rot2': 0, 'state': 'normal', 'yaw': 7.28, 'datetime': '2018-10-12 13:40:37.021249', 'mgs': 0, 'depth': 1.691, 'time': 2.43, 'pitch': -6.14, 'roll': -13.3}
{'lipoC2': 7.88, 'temp': 24.31, 'lipoC3S3': 11.85, 'rot1': 0, 'rot0': 0, 'rot3': 0, 'rot2': 0, 'state': 'normal', 'yaw': 7.12, 'datetime': '2018-10-12 13:40:37.028910', 'mgs': 0, 'depth': 1.614, 'time': 2.53, 'pitch': -5.59, 'roll': -13.12}
{'lipoC2': 7.87, 'temp': 24.31, 'lipoC3S3': 11.87, 'rot1': 0, 'rot0': 0, 'rot3': 0, 'rot2': 0, 'state': 'normal', 'yaw': 7.0, 'datetime': '2018-10-12 13:40:37.036683', 'mgs': 0, 'depth': 1.691, 'time': 2.63, 'pitch': -5.04, 'roll': -13.11}
{'lipoC2': 7.87, 'temp': 24.31, 'lipoC3S3': 11.87, 'rot1': 0, 'rot0': 0, 'rot3': 0, 'rot2': 0, 'state': 'normal', 'yaw': 6.8, 'datetime': '2018-10-12 13:40:37.044477', 'mgs': 0, 'depth': 1.614, 'time': 2.72, 'pitch': -4.56, 'roll': -13.36}
{'lipoC2': 7.87, 'temp': 24.31, 'lipoC3S3': 11.85, 'rot1': 0, 'rot0': 0, 'rot3': 0, 'rot2': 0, 'state': 'normal', 'yaw': 6.3, 'datetime': '2018-10-12 13:40:37.052219', 'mgs': 0, 'depth': 1.691, 'time': 2.82, 'pitch': -4.54, 'roll': -13.56}
{'lipoC2': 7.88, 'temp': 24.31, 'lipoC3S3': 11.87, 'rot1': 0, 'rot0': 0, 'rot3': 0, 'rot2': 0, 'state': 'normal', 'yaw': 5.82, 'datetime': '2018-10-12 13:40:37.059715', 'mgs': 0, 'depth': 1.614, 'time': 2.92, 'pitch': -4.63, 'roll': -13.54}
{'lipoC2': 7.87, 'temp': 24.31, 'lipoC3S3': 11.87, 'rot1': 0, 'rot0': 0, 'rot3': 0, 'rot2': 0, 'state': 'normal', 'yaw': 5.82, 'datetime': '2018-10-12 13:40:37.067557', 'mgs': 0, 'depth': 1.691, 'time': 3.02, 'pitch': -4.35, 'roll': -13.56}
{'lipoC2': 7.87, 'temp': 24.31, 'lipoC3S3': 11.85, 'rot1': 0, 'rot0': 0, 'rot3': 0, 'rot2': 0, 'state': 'normal', 'yaw': 6.24, 'datetime': '2018-10-12 13:40:37.075421', 'mgs': 0, 'depth': 1.691, 'time': 3.12, 'pitch': -3.77, 'roll': -13.9}
{'lipoC2': 7.87, 'temp': 24.38, 'lipoC3S3': 11.85, 'rot1': 0, 'rot0': 0, 'rot3': 0, 'rot2': 0, 'state': 'normal', 'yaw': 6.79, 'datetime': '2018-10-12 13:40:37.083211', 'mgs': 0, 'depth': 1.691, 'time': 3.21, 'pitch': -3.34, 'roll': -14.62}
{'lipoC2': 7.88, 'temp': 24.38, 'lipoC3S3': 11.87, 'rot1': 0, 'rot0': 0, 'rot3': 0, 'rot2': 0, 'state': 'normal', 'yaw': 6.93, 'datetime': '2018-10-12 13:40:37.090999', 'mgs': 0, 'depth': 1.691, 'time': 3.31, 'pitch': -3.59, 'roll': -14.89}
{'lipoC2': 7.87, 'temp': 24.31, 'lipoC3S3': 11.85, 'rot1': 0, 'rot0': 0, 'rot3': 0, 'rot2': 0, 'state': 'normal', 'yaw': 7.39, 'datetime': '2018-10-12 13:40:37.098285', 'mgs': 0, 'depth': 1.767, 'time': 3.4, 'pitch': -3.69, 'roll': -15.02}
{'lipoC2': 7.88, 'temp': 24.31, 'lipoC3S3': 11.87, 'rot1': 0, 'rot0': 0, 'rot3': 0, 'rot2': 0, 'state': 'normal', 'yaw': 8.19, 'datetime': '2018-10-12 13:40:37.105867', 'mgs': 0, 'depth': 1.691, 'time': 3.5, 'pitch': -3.69, 'roll': -15.0}
{'lipoC2': 7.87, 'temp': 24.31, 'lipoC3S3': 11.85, 'rot1': 0, 'rot0': 0, 'rot3': 0, 'rot2': 0, 'state': 'normal', 'yaw': 8.49, 'datetime': '2018-10-12 13:40:37.113688', 'mgs': 0, 'depth': 1.767, 'time': 3.6, 'pitch': -4.26, 'roll': -14.99}
{'lipoC2': 7.87, 'temp': 24.38, 'lipoC3S3': 11.85, 'rot1': 0, 'rot0': 0, 'rot3': 0, 'rot2': 0, 'state': 'normal', 'yaw': 8.54, 'datetime': '2018-10-12 13:40:37.121474', 'mgs': 0, 'depth': 1.767, 'time': 3.7, 'pitch': -4.96, 'roll': -15.63}
{'lipoC2': 7.87, 'temp': 24.38, 'lipoC3S3': 11.87, 'rot1': 0, 'rot0': 0, 'rot3': 0, 'rot2': 0, 'state': 'normal', 'yaw': 8.32, 'datetime': '2018-10-12 13:40:37.129228', 'mgs': 0, 'depth': 1.767, 'time': 3.79, 'pitch': -5.92, 'roll': -16.27}
{'lipoC2': 7.87, 'temp': 24.38, 'lipoC3S3': 11.87, 'rot1': 0, 'rot0': 0, 'rot3': 0, 'rot2': 0, 'state': 'normal', 'yaw': 8.51, 'datetime': '2018-10-12 13:40:37.136870', 'mgs': 0, 'depth': 1.843, 'time': 3.89, 'pitch': -6.38, 'roll': -16.74}
{'lipoC2': 7.87, 'temp': 24.38, 'lipoC3S3': 11.87, 'rot1': 0, 'rot0': 0, 'rot3': 0, 'rot2': 0, 'state': 'normal', 'yaw': 9.13, 'datetime': '2018-10-12 13:40:37.144489', 'mgs': 0, 'depth': 1.767, 'time': 3.99, 'pitch': -6.28, 'roll': -17.16}
{'lipoC2': 7.87, 'temp': 24.38, 'lipoC3S3': 11.87, 'rot1': 0, 'rot0': 0, 'rot3': 0, 'rot2': 0, 'state': 'normal', 'yaw': 9.58, 'datetime': '2018-10-12 13:40:37.152227', 'mgs': 0, 'depth': 1.843, 'time': 4.09, 'pitch': -6.23, 'roll': -17.4}
{'lipoC2': 7.87, 'temp': 24.38, 'lipoC3S3': 11.87, 'rot1': 0, 'rot0': 0, 'rot3': 0, 'rot2': 0, 'state': 'normal', 'yaw': 10.02, 'datetime': '2018-10-12 13:40:37.159560', 'mgs': 0, 'depth': 1.767, 'time': 4.19, 'pitch': -6.12, 'roll': -17.7}
{'lipoC2': 7.87, 'temp': 24.38, 'lipoC3S3': 11.87, 'rot1': 0, 'rot0': 0, 'rot3': 0, 'rot2': 0, 'state': 'normal', 'yaw': 10.35, 'datetime': '2018-10-12 13:40:37.166909', 'mgs': 0, 'depth': 1.843, 'time': 4.28, 'pitch': -5.99, 'roll': -18.09}
{'lipoC2': 7.87, 'temp': 24.38, 'lipoC3S3': 11.87, 'rot1': 0, 'rot0': 0, 'rot3': 0, 'rot2': 0, 'state': 'normal', 'yaw': 10.35, 'datetime': '2018-10-12 13:40:37.174281', 'mgs': 0, 'depth': 1.843, 'time': 4.38, 'pitch': -6.0, 'roll': -18.41}
{'lipoC2': 7.87, 'temp': 24.38, 'lipoC3S3': 11.87, 'rot1': 0, 'rot0': 0, 'rot3': 0, 'rot2': 0, 'state': 'normal', 'yaw': 10.2, 'datetime': '2018-10-12 13:40:37.181624', 'mgs': 0, 'depth': 1.843, 'time': 4.48, 'pitch': -6.05, 'roll': -18.64}
{'lipoC2': 7.88, 'temp': 24.38, 'lipoC3S3': 11.85, 'rot1': 0, 'rot0': 0, 'rot3': 0, 'rot2': 0, 'state': 'normal', 'yaw': 10.09, 'datetime': '2018-10-12 13:40:37.188944', 'mgs': 0, 'depth': 1.92, 'time': 4.58, 'pitch': -6.06, 'roll': -18.82}
{'lipoC2': 7.88, 'temp': 24.31, 'lipoC3S3': 11.87, 'rot1': 0, 'rot0': 0, 'rot3': 0, 'rot2': 0, 'state': 'normal', 'yaw': 10.21, 'datetime': '2018-10-12 13:40:37.196468', 'mgs': 0, 'depth': 1.843, 'time': 4.67, 'pitch': -5.84, 'roll': -18.82}
{'lipoC2': 7.87, 'temp': 24.31, 'lipoC3S3': 11.87, 'rot1': 0, 'rot0': 0, 'rot3': 0, 'rot2': 0, 'state': 'normal', 'yaw': 10.45, 'datetime': '2018-10-12 13:40:37.203859', 'mgs': 0, 'depth': 1.843, 'time': 4.77, 'pitch': -5.65, 'roll': -18.56}
{'lipoC2': 7.88, 'temp': 24.31, 'lipoC3S3': 11.85, 'rot1': 0, 'rot0': 0, 'rot3': 0, 'rot2': 0, 'state': 'normal', 'yaw': 10.48, 'datetime': '2018-10-12 13:40:37.211237', 'mgs': 0, 'depth': 1.92, 'time': 4.87, 'pitch': -5.72, 'roll': -18.28}
{'lipoC2': 7.87, 'temp': 24.31, 'lipoC3S3': 11.85, 'rot1': 0, 'rot0': 0, 'rot3': 0, 'rot2': 0, 'state': 'normal', 'yaw': 10.51, 'datetime': '2018-10-12 13:40:37.218607', 'mgs': 0, 'depth': 1.843, 'time': 4.97, 'pitch': -5.83, 'roll': -18.4}
{'lipoC2': 7.87, 'temp': 24.31, 'lipoC3S3': 11.87, 'rot1': 0, 'rot0': 0, 'rot3': 0, 'rot2': 0, 'state': 'normal', 'yaw': 10.77, 'datetime': '2018-10-12 13:40:37.225973', 'mgs': 0, 'depth': 1.843, 'time': 5.06, 'pitch': -5.62, 'roll': -19.11}
{'lipoC2': 7.87, 'temp': 24.31, 'lipoC3S3': 11.87, 'rot1': 0, 'rot0': 0, 'rot3': 0, 'rot2': 0, 'state': 'normal', 'yaw': 11.11, 'datetime': '2018-10-12 13:40:37.233354', 'mgs': 0, 'depth': 1.843, 'time': 5.16, 'pitch': -5.32, 'roll': -19.72}
{'lipoC2': 7.87, 'temp': 24.31, 'lipoC3S3': 11.87, 'rot1': 0, 'rot0': 0, 'rot3': 0, 'rot2': 0, 'state': 'normal', 'yaw': 11.36, 'datetime': '2018-10-12 13:40:37.240719', 'mgs': 0, 'depth': 1.843, 'time': 5.26, 'pitch': -5.29, 'roll': -19.87}
{'lipoC2': 7.87, 'temp': 24.38, 'lipoC3S3': 11.87, 'rot1': 0, 'rot0': 0, 'rot3': 0, 'rot2': 0, 'state': 'normal', 'yaw': 11.51, 'datetime': '2018-10-12 13:40:37.248084', 'mgs': 0, 'depth': 1.92, 'time': 5.36, 'pitch': -5.59, 'roll': -19.52}
{'lipoC2': 7.88, 'temp': 24.38, 'lipoC3S3': 11.87, 'rot1': 0, 'rot0': 0, 'rot3': 0, 'rot2': 0, 'state': 'normal', 'yaw': 11.91, 'datetime': '2018-10-12 13:40:37.255441', 'mgs': 0, 'depth': 1.92, 'time': 5.45, 'pitch': -5.83, 'roll': -19.36}
{'lipoC2': 7.87, 'temp': 24.38, 'lipoC3S3': 11.87, 'rot1': 0, 'rot0': 0, 'rot3': 0, 'rot2': 0, 'state': 'normal', 'yaw': 12.33, 'datetime': '2018-10-12 13:40:37.262813', 'mgs': 0, 'depth': 1.843, 'time': 5.55, 'pitch': -6.07, 'roll': -19.53}
{'lipoC2': 7.87, 'temp': 24.31, 'lipoC3S3': 11.87, 'rot1': 0, 'rot0': 0, 'rot3': 0, 'rot2': 0, 'state': 'normal', 'yaw': 12.79, 'datetime': '2018-10-12 13:40:37.270138', 'mgs': 0, 'depth': 1.92, 'time': 5.65, 'pitch': -6.36, 'roll': -19.96}
{'lipoC2': 7.88, 'temp': 24.31, 'lipoC3S3': 11.85, 'rot1': 0, 'rot0': 0, 'rot3': 0, 'rot2': 0, 'state': 'normal', 'yaw': 13.25, 'datetime': '2018-10-12 13:40:37.277511', 'mgs': 0, 'depth': 1.92, 'time': 5.74, 'pitch': -6.57, 'roll': -20.59}
{'lipoC2': 7.87, 'temp': 24.31, 'lipoC3S3': 11.87, 'rot1': 0, 'rot0': 0, 'rot3': 0, 'rot2': 0, 'state': 'normal', 'yaw': 13.61, 'datetime': '2018-10-12 13:40:37.284872', 'mgs': 0, 'depth': 1.92, 'time': 5.84, 'pitch': -6.68, 'roll': -21.06}
{'lipoC2': 7.88, 'temp': 24.31, 'lipoC3S3': 11.87, 'rot1': 0, 'rot0': 0, 'rot3': 0, 'rot2': 0, 'state': 'normal', 'yaw': 13.94, 'datetime': '2018-10-12 13:40:37.292244', 'mgs': 0, 'depth': 1.92, 'time': 5.94, 'pitch': -6.74, 'roll': -21.27}
{'lipoC2': 7.87, 'temp': 24.31, 'lipoC3S3': 11.88, 'rot1': 0, 'rot0': 0, 'rot3': 0, 'rot2': 0, 'state': 'normal', 'yaw': 14.24, 'datetime': '2018-10-12 13:40:37.299579', 'mgs': 0, 'depth': 1.92, 'time': 6.04, 'pitch': -6.67, 'roll': -21.21}
{'lipoC2': 7.87, 'temp': 24.38, 'lipoC3S3': 11.87, 'rot1': 0, 'rot0': 0, 'rot3': 0, 'rot2': 0, 'state': 'normal', 'yaw': 14.42, 'datetime': '2018-10-12 13:40:37.307126', 'mgs': 0, 'depth': 1.92, 'time': 6.14, 'pitch': -6.6, 'roll': -20.99}
{'lipoC2': 7.87, 'temp': 24.38, 'lipoC3S3': 11.87, 'rot1': 0, 'rot0': 0, 'rot3': 0, 'rot2': 0, 'state': 'normal', 'yaw': 14.57, 'datetime': '2018-10-12 13:40:37.314572', 'mgs': 0, 'depth': 1.92, 'time': 6.24, 'pitch': -6.55, 'roll': -20.91}
{'lipoC2': 7.88, 'temp': 24.19, 'lipoC3S3': 11.87, 'rot1': 0, 'rot0': 0, 'rot3': 0, 'rot2': 0, 'state': 'normal', 'yaw': 14.77, 'datetime': '2018-10-12 13:40:37.327741', 'mgs': 0, 'depth': 1.92, 'time': 6.33, 'pitch': -6.36, 'roll': -20.86}
{'lipoC2': 7.87, 'temp': 24.19, 'lipoC3S3': 11.87, 'rot1': 0, 'rot0': 0, 'rot3': 0, 'rot2': 0, 'state': 'normal', 'yaw': 15.02, 'datetime': '2018-10-12 13:40:37.425689', 'mgs': 0, 'depth': 1.843, 'time': 6.43, 'pitch': -5.99, 'roll': -20.88}
{'lipoC2': 7.87, 'temp': 24.19, 'lipoC3S3': 11.87, 'rot1': 0, 'rot0': 0, 'rot3': 0, 'rot2': 0, 'state': 'normal', 'yaw': 15.13, 'datetime': '2018-10-12 13:40:37.522744', 'mgs': 0, 'depth': 1.767, 'time': 6.53, 'pitch': -5.7, 'roll': -20.9}
{'lipoC2': 7.87, 'temp': 24.31, 'lipoC3S3': 11.87, 'rot1': 0, 'rot0': 0, 'rot3': 0, 'rot2': 0, 'state': 'normal', 'yaw': 15.08, 'datetime': '2018-10-12 13:40:37.620175', 'mgs': 0, 'depth': 1.843, 'time': 6.63, 'pitch': -5.57, 'roll': -20.97}
{'lipoC2': 7.87, 'temp': 24.31, 'lipoC3S3': 11.87, 'rot1': 0, 'rot0': 0, 'rot3': 0, 'rot2': 0, 'state': 'normal', 'yaw': 15.13, 'datetime': '2018-10-12 13:40:37.718493', 'mgs': 0, 'depth': 1.767, 'time': 6.72, 'pitch': -5.29, 'roll': -21.25}
{'lipoC2': 7.88, 'temp': 24.31, 'lipoC3S3': 11.87, 'rot1': 0, 'rot0': 0, 'rot3': 0, 'rot2': 0, 'state': 'normal', 'yaw': 15.32, 'datetime': '2018-10-12 13:40:37.815542', 'mgs': 0, 'depth': 1.767, 'time': 6.82, 'pitch': -4.87, 'roll': -21.39}
{'lipoC2': 7.88, 'temp': 24.31, 'lipoC3S3': 11.87, 'rot1': 0, 'rot0': 0, 'rot3': 0, 'rot2': 0, 'state': 'normal', 'yaw': 15.36, 'datetime': '2018-10-12 13:40:37.912557', 'mgs': 0, 'depth': 1.767, 'time': 6.92, 'pitch': -4.62, 'roll': -21.09}
{'lipoC2': 7.87, 'temp': 24.31, 'lipoC3S3': 11.87, 'rot1': 0, 'rot0': 0, 'rot3': 0, 'rot2': 0, 'state': 'normal', 'yaw': 15.31, 'datetime': '2018-10-12 13:40:38.009572', 'mgs': 0, 'depth': 1.767, 'time': 7.01, 'pitch': -4.48, 'roll': -20.76}
{'lipoC2': 7.87, 'temp': 24.25, 'lipoC3S3': 11.87, 'rot1': 0, 'rot0': 0, 'rot3': 0, 'rot2': 0, 'state': 'normal', 'yaw': 15.39, 'datetime': '2018-10-12 13:40:38.106614', 'mgs': 0, 'depth': 1.767, 'time': 7.11, 'pitch': -4.18, 'roll': -20.73}
{'lipoC2': 7.87, 'temp': 24.25, 'lipoC3S3': 11.87, 'rot1': 0, 'rot0': 0, 'rot3': 0, 'rot2': 0, 'state': 'normal', 'yaw': 15.57, 'datetime': '2018-10-12 13:40:38.203659', 'mgs': 0, 'depth': 1.767, 'time': 7.21, 'pitch': -3.83, 'roll': -20.92}
{'lipoC2': 7.88, 'temp': 24.31, 'lipoC3S3': 11.87, 'rot1': 0, 'rot0': 0, 'rot3': 0, 'rot2': 0, 'state': 'normal', 'yaw': 15.64, 'datetime': '2018-10-12 13:40:38.301317', 'mgs': 0, 'depth': 1.767, 'time': 7.31, 'pitch': -3.69, 'roll': -20.94}
{'lipoC2': 7.87, 'temp': 24.31, 'lipoC3S3': 11.87, 'rot1': 0, 'rot0': 0, 'rot3': 0, 'rot2': 0, 'state': 'normal', 'yaw': 15.57, 'datetime': '2018-10-12 13:40:38.398921', 'mgs': 0, 'depth': 1.691, 'time': 7.41, 'pitch': -3.73, 'roll': -20.73}
{'lipoC2': 7.87, 'temp': 24.31, 'lipoC3S3': 11.85, 'rot1': 0, 'rot0': 0, 'rot3': 0, 'rot2': 0, 'state': 'normal', 'yaw': 15.5, 'datetime': '2018-10-12 13:40:38.495983', 'mgs': 0, 'depth': 1.767, 'time': 7.5, 'pitch': -3.81, 'roll': -20.4}
{'lipoC2': 7.88, 'temp': 24.31, 'lipoC3S3': 11.87, 'rot1': 0, 'rot0': 0, 'rot3': 0, 'rot2': 0, 'state': 'normal', 'yaw': 15.63, 'datetime': '2018-10-12 13:40:38.593047', 'mgs': 0, 'depth': 1.691, 'time': 7.6, 'pitch': -3.77, 'roll': -20.24}
{'lipoC2': 7.87, 'temp': 24.31, 'lipoC3S3': 11.87, 'rot1': 0, 'rot0': 0, 'rot3': 0, 'rot2': 0, 'state': 'normal', 'yaw': 15.92, 'datetime': '2018-10-12 13:40:38.691433', 'mgs': 0, 'depth': 1.767, 'time': 7.7, 'pitch': -3.66, 'roll': -20.43}
{'lipoC2': 7.88, 'temp': 24.31, 'lipoC3S3': 11.87, 'rot1': 0, 'rot0': 0, 'rot3': 0, 'rot2': 0, 'state': 'normal', 'yaw': 16.33, 'datetime': '2018-10-12 13:40:38.789766', 'mgs': 0, 'depth': 1.691, 'time': 7.8, 'pitch': -3.72, 'roll': -20.92}
{'lipoC2': 7.87, 'temp': 24.31, 'lipoC3S3': 11.87, 'rot1': 0, 'rot0': 0, 'rot3': 0, 'rot2': 0, 'state': 'normal', 'yaw': 16.5, 'datetime': '2018-10-12 13:40:38.886805', 'mgs': 0, 'depth': 1.691, 'time': 7.89, 'pitch': -4.35, 'roll': -21.32}
{'lipoC2': 7.87, 'temp': 24.31, 'lipoC3S3': 11.87, 'rot1': 0, 'rot0': 0, 'rot3': 0, 'rot2': 0, 'state': 'normal', 'yaw': 16.53, 'datetime': '2018-10-12 13:40:38.983894', 'mgs': 0, 'depth': 1.767, 'time': 7.99, 'pitch': -5.27, 'roll': -21.31}
{'lipoC2': 7.87, 'temp': 24.31, 'lipoC3S3': 11.87, 'rot1': 0, 'rot0': 0, 'rot3': 0, 'rot2': 0, 'state': 'normal', 'yaw': 16.66, 'datetime': '2018-10-12 13:40:39.082222', 'mgs': 0, 'depth': 1.691, 'time': 8.09, 'pitch': -5.91, 'roll': -21.08}
{'lipoC2': 7.87, 'temp': 24.31, 'lipoC3S3': 11.87, 'rot1': 0, 'rot0': 0, 'rot3': 0, 'rot2': 0, 'state': 'normal', 'yaw': 16.71, 'datetime': '2018-10-12 13:40:39.180625', 'mgs': 0, 'depth': 1.691, 'time': 8.19, 'pitch': -6.44, 'roll': -20.74}
{'lipoC2': 7.87, 'temp': 24.31, 'lipoC3S3': 11.87, 'rot1': 0, 'rot0': 0, 'rot3': 0, 'rot2': 0, 'state': 'normal', 'yaw': 16.39, 'datetime': '2018-10-12 13:40:39.277643', 'mgs': 0, 'depth': 1.767, 'time': 8.28, 'pitch': -6.94, 'roll': -20.48}
{'lipoC2': 7.87, 'temp': 24.31, 'lipoC3S3': 11.87, 'rot1': 0, 'rot0': 0, 'rot3': 0, 'rot2': 0, 'state': 'normal', 'yaw': 15.84, 'datetime': '2018-10-12 13:40:39.374737', 'mgs': 0, 'depth': 1.691, 'time': 8.38, 'pitch': -7.24, 'roll': -20.2}
{'lipoC2': 7.87, 'temp': 24.31, 'lipoC3S3': 11.87, 'rot1': 0, 'rot0': 0, 'rot3': 0, 'rot2': 0, 'state': 'normal', 'yaw': 15.4, 'datetime': '2018-10-12 13:40:39.473030', 'mgs': 0, 'depth': 1.691, 'time': 8.48, 'pitch': -7.16, 'roll': -19.85}
{'lipoC2': 7.88, 'temp': 24.38, 'lipoC3S3': 11.87, 'rot1': 0, 'rot0': 0, 'rot3': 0, 'rot2': 0, 'state': 'normal', 'yaw': 14.93, 'datetime': '2018-10-12 13:40:39.570692', 'mgs': 0, 'depth': 1.691, 'time': 8.58, 'pitch': -6.89, 'roll': -19.46}
{'lipoC2': 7.88, 'temp': 24.38, 'lipoC3S3': 11.87, 'rot1': 0, 'rot0': 0, 'rot3': 0, 'rot2': 0, 'state': 'normal', 'yaw': 14.46, 'datetime': '2018-10-12 13:40:39.667655', 'mgs': 0, 'depth': 1.614, 'time': 8.68, 'pitch': -6.74, 'roll': -19.31}
{'lipoC2': 7.87, 'temp': 24.31, 'lipoC3S3': 11.87, 'rot1': 0, 'rot0': 0, 'rot3': 0, 'rot2': 0, 'state': 'normal', 'yaw': 14.08, 'datetime': '2018-10-12 13:40:39.764746', 'mgs': 0, 'depth': 1.691, 'time': 8.77, 'pitch': -6.72, 'roll': -19.47}
{'lipoC2': 7.87, 'temp': 24.31, 'lipoC3S3': 11.87, 'rot1': 0, 'rot0': 0, 'rot3': 0, 'rot2': 0, 'state': 'normal', 'yaw': 13.91, 'datetime': '2018-10-12 13:40:39.861851', 'mgs': 0, 'depth': 1.614, 'time': 8.87, 'pitch': -6.71, 'roll': -19.66}
{'lipoC2': 7.87, 'temp': 24.31, 'lipoC3S3': 11.87, 'rot1': 0, 'rot0': 0, 'rot3': 0, 'rot2': 0, 'state': 'normal', 'yaw': 13.88, 'datetime': '2018-10-12 13:40:39.959244', 'mgs': 0, 'depth': 1.691, 'time': 8.97, 'pitch': -6.7, 'roll': -19.71}
{'lipoC2': 7.88, 'temp': 24.31, 'lipoC3S3': 11.87, 'rot1': 0, 'rot0': 0, 'rot3': 0, 'rot2': 0, 'state': 'normal', 'yaw': 13.97, 'datetime': '2018-10-12 13:40:40.056324', 'mgs': 0, 'depth': 1.614, 'time': 9.06, 'pitch': -6.67, 'roll': -19.72}
{'lipoC2': 7.87, 'temp': 24.31, 'lipoC3S3': 11.87, 'rot1': 0, 'rot0': 0, 'rot3': 0, 'rot2': 0, 'state': 'normal', 'yaw': 14.09, 'datetime': '2018-10-12 13:40:40.153339', 'mgs': 0, 'depth': 1.691, 'time': 9.16, 'pitch': -6.67, 'roll': -19.82}
{'lipoC2': 7.87, 'temp': 24.31, 'lipoC3S3': 11.87, 'rot1': 0, 'rot0': 0, 'rot3': 0, 'rot2': 0, 'state': 'normal', 'yaw': 14.21, 'datetime': '2018-10-12 13:40:40.250475', 'mgs': 0, 'depth': 1.614, 'time': 9.26, 'pitch': -6.78, 'roll': -19.97}
{'lipoC2': 7.87, 'temp': 24.31, 'lipoC3S3': 11.87, 'rot1': 0, 'rot0': 0, 'rot3': 0, 'rot2': 0, 'state': 'normal', 'yaw': 14.32, 'datetime': '2018-10-12 13:40:40.347455', 'mgs': 0, 'depth': 1.691, 'time': 9.35, 'pitch': -6.94, 'roll': -19.97}
{'lipoC2': 7.87, 'temp': 24.31, 'lipoC3S3': 11.88, 'rot1': 0, 'rot0': 0, 'rot3': 0, 'rot2': 0, 'state': 'normal', 'yaw': 14.47, 'datetime': '2018-10-12 13:40:40.445347', 'mgs': 0, 'depth': 1.614, 'time': 9.45, 'pitch': -7.11, 'roll': -19.97}
{'lipoC2': 7.87, 'temp': 24.31, 'lipoC3S3': 11.88, 'rot1': 0, 'rot0': 0, 'rot3': 0, 'rot2': 0, 'state': 'normal', 'yaw': 14.66, 'datetime': '2018-10-12 13:40:40.543666', 'mgs': 0, 'depth': 1.691, 'time': 9.55, 'pitch': -7.25, 'roll': -20.14}
{'lipoC2': 7.88, 'temp': 24.31, 'lipoC3S3': 11.87, 'rot1': 0, 'rot0': 0, 'rot3': 0, 'rot2': 0, 'state': 'normal', 'yaw': 14.79, 'datetime': '2018-10-12 13:40:40.641854', 'mgs': 0, 'depth': 1.691, 'time': 9.65, 'pitch': -7.45, 'roll': -20.44}
{'lipoC2': 7.87, 'temp': 24.31, 'lipoC3S3': 11.87, 'rot1': 0, 'rot0': 0, 'rot3': 0, 'rot2': 0, 'state': 'normal', 'yaw': 14.83, 'datetime': '2018-10-12 13:40:40.738830', 'mgs': 0, 'depth': 1.691, 'time': 9.75, 'pitch': -7.65, 'roll': -20.78}
{'lipoC2': 7.87, 'temp': 24.31, 'lipoC3S3': 11.87, 'rot1': 0, 'rot0': 0, 'rot3': 0, 'rot2': 0, 'state': 'normal', 'yaw': 14.77, 'datetime': '2018-10-12 13:40:40.836189', 'mgs': 0, 'depth': 1.691, 'time': 9.84, 'pitch': -7.75, 'roll': -21.0}
{'lipoC2': 7.88, 'temp': 24.31, 'lipoC3S3': 11.87, 'rot1': 0, 'rot0': 0, 'rot3': 0, 'rot2': 0, 'state': 'normal', 'yaw': 14.72, 'datetime': '2018-10-12 13:40:40.935154', 'mgs': 0, 'depth': 1.691, 'time': 9.94, 'pitch': -7.67, 'roll': -21.09}
{'lipoC2': 7.88, 'temp': 24.31, 'lipoC3S3': 11.87, 'rot1': 0, 'rot0': 0, 'rot3': 0, 'rot2': 0, 'state': 'normal', 'yaw': 14.63, 'datetime': '2018-10-12 13:40:41.032870', 'mgs': 0, 'depth': 1.691, 'time': 10.04, 'pitch': -7.45, 'roll': -21.14}
{'lipoC2': 7.88, 'temp': 24.31, 'lipoC3S3': 11.87, 'rot1': 0, 'rot0': 0, 'rot3': 0, 'rot2': 0, 'state': 'normal', 'yaw': 14.48, 'datetime': '2018-10-12 13:40:41.129837', 'mgs': 1, 'depth': 1.691, 'time': 10.14, 'pitch': -7.21, 'roll': -21.32}
{'lipoC2': 7.87, 'temp': 24.31, 'lipoC3S3': 11.87, 'rot1': 0, 'rot0': 0, 'rot3': 0, 'rot2': 0, 'state': 'normal', 'yaw': 0.0, 'datetime': '2018-10-12 13:40:42.649522', 'mgs': 0, 'depth': 1.767, 'time': 1.26, 'pitch': -2.74, 'roll': -12.7}
{'lipoC2': 7.87, 'temp': 24.31, 'lipoC3S3': 11.87, 'rot1': 0, 'rot0': 0, 'rot3': 0, 'rot2': 0, 'state': 'normal', 'yaw': -0.17, 'datetime': '2018-10-12 13:40:42.675169', 'mgs': 0, 'depth': 1.767, 'time': 1.36, 'pitch': -2.34, 'roll': -12.04}
{'lipoC2': 7.88, 'temp': 24.31, 'lipoC3S3': 11.87, 'rot1': 0, 'rot0': 0, 'rot3': 0, 'rot2': 0, 'state': 'normal', 'yaw': -0.3, 'datetime': '2018-10-12 13:40:42.692209', 'mgs': 0, 'depth': 1.767, 'time': 1.46, 'pitch': -2.08, 'roll': -11.7}
{'lipoC2': 7.88, 'temp': 24.31, 'lipoC3S3': 11.79, 'rot1': 0, 'rot0': 0, 'rot3': 0, 'rot2': 0, 'state': 'normal', 'yaw': -0.33, 'datetime': '2018-10-12 13:40:42.784280', 'mgs': 0, 'depth': 1.767, 'time': 1.55, 'pitch': -1.88, 'roll': -11.5}
{'lipoC2': 7.87, 'temp': 24.31, 'lipoC3S3': 11.71, 'rot1': 0, 'rot0': 0, 'rot3': 0, 'rot2': 1, 'state': 'normal', 'yaw': -0.28, 'datetime': '2018-10-12 13:40:42.882249', 'mgs': 0, 'depth': 2.606, 'time': 1.65, 'pitch': -1.8, 'roll': -11.31}
{'lipoC2': 7.88, 'temp': 24.38, 'lipoC3S3': 11.72, 'rot1': 1, 'rot0': 1, 'rot3': 1, 'rot2': 1, 'state': 'normal', 'yaw': -0.17, 'datetime': '2018-10-12 13:40:42.978931', 'mgs': 0, 'depth': 2.148, 'time': 1.75, 'pitch': -1.68, 'roll': -10.28}
{'lipoC2': 7.88, 'temp': 24.38, 'lipoC3S3': 11.72, 'rot1': 2, 'rot0': 2, 'rot3': 1, 'rot2': 2, 'state': 'normal', 'yaw': 0.08, 'datetime': '2018-10-12 13:40:43.075616', 'mgs': 0, 'depth': 1.843, 'time': 1.84, 'pitch': -1.43, 'roll': -8.75}
{'lipoC2': 7.88, 'temp': 24.31, 'lipoC3S3': 11.71, 'rot1': 4, 'rot0': 3, 'rot3': 2, 'rot2': 2, 'state': 'normal', 'yaw': 0.14, 'datetime': '2018-10-12 13:40:43.172253', 'mgs': 0, 'depth': 1.767, 'time': 1.94, 'pitch': -1.38, 'roll': -7.47}
{'lipoC2': 7.88, 'temp': 24.31, 'lipoC3S3': 11.63, 'rot1': 5, 'rot0': 4, 'rot3': 2, 'rot2': 3, 'state': 'normal', 'yaw': -0.03, 'datetime': '2018-10-12 13:40:43.268945', 'mgs': 0, 'depth': 1.767, 'time': 2.04, 'pitch': -1.78, 'roll': -6.08}
{'lipoC2': 7.88, 'temp': 24.31, 'lipoC3S3': 11.65, 'rot1': 6, 'rot0': 5, 'rot3': 2, 'rot2': 4, 'state': 'normal', 'yaw': -0.07, 'datetime': '2018-10-12 13:40:43.365621', 'mgs': 0, 'depth': 1.843, 'time': 2.13, 'pitch': -2.22, 'roll': -4.5}
{'lipoC2': 7.88, 'temp': 24.31, 'lipoC3S3': 11.69, 'rot1': 7, 'rot0': 6, 'rot3': 3, 'rot2': 4, 'state': 'normal', 'yaw': -0.03, 'datetime': '2018-10-12 13:40:43.462346', 'mgs': 0, 'depth': 1.843, 'time': 2.23, 'pitch': -2.55, 'roll': -2.92}
{'lipoC2': 7.87, 'temp': 24.31, 'lipoC3S3': 11.76, 'rot1': 8, 'rot0': 7, 'rot3': 3, 'rot2': 5, 'state': 'normal', 'yaw': 0.07, 'datetime': '2018-10-12 13:40:43.558977', 'mgs': 0, 'depth': 1.767, 'time': 2.33, 'pitch': -2.75, 'roll': -1.09}
{'lipoC2': 7.87, 'temp': 24.31, 'lipoC3S3': 11.79, 'rot1': 9, 'rot0': 8, 'rot3': 4, 'rot2': 5, 'state': 'normal', 'yaw': 0.21, 'datetime': '2018-10-12 13:40:43.655618', 'mgs': 0, 'depth': 1.767, 'time': 2.42, 'pitch': -2.82, 'roll': 0.54}
{'lipoC2': 7.87, 'temp': 24.31, 'lipoC3S3': 11.8, 'rot1': 10, 'rot0': 10, 'rot3': 4, 'rot2': 6, 'state': 'normal', 'yaw': 0.37, 'datetime': '2018-10-12 13:40:43.752674', 'mgs': 0, 'depth': 1.767, 'time': 2.52, 'pitch': -2.82, 'roll': 1.67}
{'lipoC2': 7.88, 'temp': 24.31, 'lipoC3S3': 11.6, 'rot1': 11, 'rot0': 11, 'rot3': 5, 'rot2': 7, 'state': 'normal', 'yaw': 0.57, 'datetime': '2018-10-12 13:40:43.849747', 'mgs': 0, 'depth': 1.767, 'time': 2.62, 'pitch': -2.78, 'roll': 2.6}
{'lipoC2': 7.88, 'temp': 24.31, 'lipoC3S3': 11.76, 'rot1': 12, 'rot0': 12, 'rot3': 5, 'rot2': 7, 'state': 'normal', 'yaw': 0.79, 'datetime': '2018-10-12 13:40:43.946746', 'mgs': 0, 'depth': 2.759, 'time': 2.71, 'pitch': -2.75, 'roll': 3.18}
{'lipoC2': 7.88, 'temp': 24.31, 'lipoC3S3': 11.73, 'rot1': 13, 'rot0': 13, 'rot3': 6, 'rot2': 8, 'state': 'normal', 'yaw': 0.94, 'datetime': '2018-10-12 13:40:44.045313', 'mgs': 0, 'depth': 2.454, 'time': 2.81, 'pitch': -2.72, 'roll': 3.49}
{'lipoC2': 7.87, 'temp': 24.31, 'lipoC3S3': 11.68, 'rot1': 14, 'rot0': 14, 'rot3': 6, 'rot2': 9, 'state': 'normal', 'yaw': 1.05, 'datetime': '2018-10-12 13:40:44.143610', 'mgs': 0, 'depth': 1.843, 'time': 2.91, 'pitch': -2.68, 'roll': 3.65}
{'lipoC2': 7.9, 'temp': 24.31, 'lipoC3S3': 11.71, 'rot1': 15, 'rot0': 15, 'rot3': 7, 'rot2': 9, 'state': 'normal', 'yaw': 1.15, 'datetime': '2018-10-12 13:40:44.240828', 'mgs': 0, 'depth': 2.148, 'time': 3.01, 'pitch': -2.6, 'roll': 3.62}
{'lipoC2': 7.87, 'temp': 24.31, 'lipoC3S3': 11.77, 'rot1': 16, 'rot0': 16, 'rot3': 7, 'rot2': 10, 'state': 'normal', 'yaw': 1.23, 'datetime': '2018-10-12 13:40:44.337819', 'mgs': 0, 'depth': 2.072, 'time': 3.11, 'pitch': -2.46, 'roll': 3.41}
{'lipoC2': 7.88, 'temp': 24.31, 'lipoC3S3': 11.73, 'rot1': 17, 'rot0': 17, 'rot3': 8, 'rot2': 11, 'state': 'normal', 'yaw': 1.14, 'datetime': '2018-10-12 13:40:44.436103', 'mgs': 0, 'depth': 1.767, 'time': 3.2, 'pitch': -2.33, 'roll': 3.03}
{'lipoC2': 7.87, 'temp': 24.31, 'lipoC3S3': 11.64, 'rot1': 18, 'rot0': 18, 'rot3': 8, 'rot2': 11, 'state': 'normal', 'yaw': 0.79, 'datetime': '2018-10-12 13:40:44.534618', 'mgs': 0, 'depth': 1.767, 'time': 3.3, 'pitch': -2.24, 'roll': 2.45}
{'lipoC2': 7.88, 'temp': 24.31, 'lipoC3S3': 11.76, 'rot1': 19, 'rot0': 19, 'rot3': 9, 'rot2': 12, 'state': 'normal', 'yaw': 0.21, 'datetime': '2018-10-12 13:40:44.631819', 'mgs': 0, 'depth': 1.385, 'time': 3.4, 'pitch': -2.2, 'roll': 1.9}
{'lipoC2': 7.87, 'temp': 24.31, 'lipoC3S3': 11.67, 'rot1': 20, 'rot0': 20, 'rot3': 9, 'rot2': 12, 'state': 'normal', 'yaw': -0.32, 'datetime': '2018-10-12 13:40:44.728986', 'mgs': 0, 'depth': 1.843, 'time': 3.5, 'pitch': -2.2, 'roll': 1.6}
{'lipoC2': 7.87, 'temp': 24.31, 'lipoC3S3': 11.61, 'rot1': 21, 'rot0': 21, 'rot3': 10, 'rot2': 13, 'state': 'normal', 'yaw': -0.69, 'datetime': '2018-10-12 13:40:44.826993', 'mgs': 0, 'depth': 1.843, 'time': 3.6, 'pitch': -2.22, 'roll': 1.59}
{'lipoC2': 7.87, 'temp': 24.31, 'lipoC3S3': 11.77, 'rot1': 22, 'rot0': 22, 'rot3': 11, 'rot2': 14, 'state': 'normal', 'yaw': -0.98, 'datetime': '2018-10-12 13:40:44.924414', 'mgs': 0, 'depth': 2.072, 'time': 3.69, 'pitch': -2.35, 'roll': 1.72}
{'lipoC2': 7.87, 'temp': 24.31, 'lipoC3S3': 11.76, 'rot1': 23, 'rot0': 23, 'rot3': 11, 'rot2': 14, 'state': 'normal', 'yaw': -1.16, 'datetime': '2018-10-12 13:40:45.021805', 'mgs': 0, 'depth': 3.14, 'time': 3.79, 'pitch': -2.57, 'roll': 1.8}
{'lipoC2': 7.88, 'temp': 24.31, 'lipoC3S3': 11.69, 'rot1': 24, 'rot0': 25, 'rot3': 11, 'rot2': 15, 'state': 'normal', 'yaw': -1.27, 'datetime': '2018-10-12 13:40:45.119343', 'mgs': 0, 'depth': 1.843, 'time': 3.89, 'pitch': -2.8, 'roll': 1.75}
{'lipoC2': 7.87, 'temp': 24.31, 'lipoC3S3': 11.77, 'rot1': 25, 'rot0': 26, 'rot3': 12, 'rot2': 16, 'state': 'normal', 'yaw': -1.3, 'datetime': '2018-10-12 13:40:45.216674', 'mgs': 0, 'depth': 2.072, 'time': 3.99, 'pitch': -2.98, 'roll': 1.49}
{'lipoC2': 7.87, 'temp': 24.31, 'lipoC3S3': 11.73, 'rot1': 26, 'rot0': 26, 'rot3': 13, 'rot2': 16, 'state': 'normal', 'yaw': -1.05, 'datetime': '2018-10-12 13:40:45.314103', 'mgs': 0, 'depth': 1.996, 'time': 4.08, 'pitch': -3.03, 'roll': 0.9}
{'lipoC2': 7.88, 'temp': 24.31, 'lipoC3S3': 11.73, 'rot1': 27, 'rot0': 27, 'rot3': 13, 'rot2': 17, 'state': 'normal', 'yaw': -0.41, 'datetime': '2018-10-12 13:40:45.411536', 'mgs': 0, 'depth': 2.377, 'time': 4.18, 'pitch': -2.97, 'roll': 0.12}
{'lipoC2': 7.87, 'temp': 24.31, 'lipoC3S3': 11.63, 'rot1': 28, 'rot0': 28, 'rot3': 14, 'rot2': 18, 'state': 'normal', 'yaw': 0.55, 'datetime': '2018-10-12 13:40:45.508907', 'mgs': 0, 'depth': 1.843, 'time': 4.28, 'pitch': -2.82, 'roll': -0.66}
{'lipoC2': 7.87, 'temp': 24.31, 'lipoC3S3': 11.76, 'rot1': 29, 'rot0': 29, 'rot3': 14, 'rot2': 18, 'state': 'normal', 'yaw': 1.32, 'datetime': '2018-10-12 13:40:45.606318', 'mgs': 0, 'depth': 1.996, 'time': 4.38, 'pitch': -2.71, 'roll': -1.14}
{'lipoC2': 7.87, 'temp': 24.31, 'lipoC3S3': 11.71, 'rot1': 31, 'rot0': 30, 'rot3': 15, 'rot2': 19, 'state': 'normal', 'yaw': 1.95, 'datetime': '2018-10-12 13:40:45.703754', 'mgs': 0, 'depth': 2.835, 'time': 4.47, 'pitch': -2.56, 'roll': -1.36}
{'lipoC2': 7.88, 'temp': 24.31, 'lipoC3S3': 11.76, 'rot1': 31, 'rot0': 31, 'rot3': 15, 'rot2': 20, 'state': 'normal', 'yaw': 2.52, 'datetime': '2018-10-12 13:40:45.801225', 'mgs': 0, 'depth': 1.767, 'time': 4.57, 'pitch': -2.4, 'roll': -1.38}
{'lipoC2': 7.88, 'temp': 24.38, 'lipoC3S3': 11.76, 'rot1': 32, 'rot0': 32, 'rot3': 16, 'rot2': 20, 'state': 'normal', 'yaw': 2.83, 'datetime': '2018-10-12 13:40:45.899133', 'mgs': 0, 'depth': 2.454, 'time': 4.67, 'pitch': -2.31, 'roll': -1.37}
{'lipoC2': 7.87, 'temp': 24.38, 'lipoC3S3': 11.76, 'rot1': 33, 'rot0': 34, 'rot3': 16, 'rot2': 21, 'state': 'normal', 'yaw': 2.85, 'datetime': '2018-10-12 13:40:45.997913', 'mgs': 0, 'depth': 1.996, 'time': 4.77, 'pitch': -2.28, 'roll': -1.37}
{'lipoC2': 7.87, 'temp': 24.31, 'lipoC3S3': 11.77, 'rot1': 34, 'rot0': 35, 'rot3': 17, 'rot2': 21, 'state': 'normal', 'yaw': 2.53, 'datetime': '2018-10-12 13:40:46.096735', 'mgs': 0, 'depth': 1.996, 'time': 4.87, 'pitch': -2.44, 'roll': -1.42}
{'lipoC2': 7.87, 'temp': 24.31, 'lipoC3S3': 11.75, 'rot1': 35, 'rot0': 36, 'rot3': 17, 'rot2': 22, 'state': 'normal', 'yaw': 1.96, 'datetime': '2018-10-12 13:40:46.194183', 'mgs': 0, 'depth': 2.454, 'time': 4.96, 'pitch': -2.74, 'roll': -1.47}
{'lipoC2': 7.88, 'temp': 24.31, 'lipoC3S3': 11.72, 'rot1': 36, 'rot0': 37, 'rot3': 18, 'rot2': 23, 'state': 'normal', 'yaw': 1.24, 'datetime': '2018-10-12 13:40:46.291606', 'mgs': 0, 'depth': 1.92, 'time': 5.06, 'pitch': -3.06, 'roll': -1.5}
{'lipoC2': 7.87, 'temp': 24.31, 'lipoC3S3': 11.77, 'rot1': 37, 'rot0': 38, 'rot3': 18, 'rot2': 23, 'state': 'normal', 'yaw': 0.5, 'datetime': '2018-10-12 13:40:46.389586', 'mgs': 0, 'depth': 1.462, 'time': 5.16, 'pitch': -3.35, 'roll': -1.48}
{'lipoC2': 7.88, 'temp': 24.31, 'lipoC3S3': 11.76, 'rot1': 37, 'rot0': 39, 'rot3': 19, 'rot2': 24, 'state': 'normal', 'yaw': -0.43, 'datetime': '2018-10-12 13:40:46.488288', 'mgs': 0, 'depth': 2.072, 'time': 5.26, 'pitch': -3.74, 'roll': -1.43}
{'lipoC2': 7.87, 'temp': 24.31, 'lipoC3S3': 11.68, 'rot1': 38, 'rot0': 41, 'rot3': 20, 'rot2': 25, 'state': 'normal', 'yaw': -1.41, 'datetime': '2018-10-12 13:40:46.586439', 'mgs': 0, 'depth': 1.843, 'time': 5.36, 'pitch': -4.16, 'roll': -1.34}
{'lipoC2': 7.87, 'temp': 24.31, 'lipoC3S3': 11.77, 'rot1': 39, 'rot0': 42, 'rot3': 20, 'rot2': 25, 'state': 'normal', 'yaw': -2.37, 'datetime': '2018-10-12 13:40:46.683892', 'mgs': 0, 'depth': 2.148, 'time': 5.45, 'pitch': -4.63, 'roll': -1.29}
{'lipoC2': 7.87, 'temp': 24.31, 'lipoC3S3': 11.84, 'rot1': 40, 'rot0': 42, 'rot3': 20, 'rot2': 26, 'state': 'normal', 'yaw': -2.94, 'datetime': '2018-10-12 13:40:46.781315', 'mgs': 0, 'depth': 1.92, 'time': 5.55, 'pitch': -5.02, 'roll': -1.39}
{'lipoC2': 7.88, 'temp': 24.31, 'lipoC3S3': 11.84, 'rot1': 40, 'rot0': 42, 'rot3': 20, 'rot2': 26, 'state': 'normal', 'yaw': -3.29, 'datetime': '2018-10-12 13:40:46.878713', 'mgs': 0, 'depth': 1.92, 'time': 5.65, 'pitch': -5.29, 'roll': -1.98}
{'lipoC2': 7.87, 'temp': 24.31, 'lipoC3S3': 11.79, 'rot1': 40, 'rot0': 42, 'rot3': 20, 'rot2': 26, 'state': 'normal', 'yaw': -3.65, 'datetime': '2018-10-12 13:40:46.976097', 'mgs': 0, 'depth': 2.377, 'time': 5.75, 'pitch': -5.62, 'roll': -3.02}
{'lipoC2': 7.87, 'temp': 24.31, 'lipoC3S3': 11.72, 'rot1': 40, 'rot0': 43, 'rot3': 20, 'rot2': 27, 'state': 'normal', 'yaw': -3.98, 'datetime': '2018-10-12 13:40:47.073544', 'mgs': 0, 'depth': 2.072, 'time': 5.84, 'pitch': -5.75, 'roll': -4.34}
{'lipoC2': 7.88, 'temp': 24.31, 'lipoC3S3': 11.72, 'rot1': 41, 'rot0': 44, 'rot3': 21, 'rot2': 27, 'state': 'normal', 'yaw': -4.13, 'datetime': '2018-10-12 13:40:47.171181', 'mgs': 0, 'depth': 3.293, 'time': 5.94, 'pitch': -5.5, 'roll': -4.95}
{'lipoC2': 7.88, 'temp': 24.31, 'lipoC3S3': 11.67, 'rot1': 43, 'rot0': 46, 'rot3': 21, 'rot2': 28, 'state': 'normal', 'yaw': -4.03, 'datetime': '2018-10-12 13:40:47.268529', 'mgs': 0, 'depth': 1.996, 'time': 6.04, 'pitch': -5.01, 'roll': -4.78}
{'lipoC2': 7.88, 'temp': 24.31, 'lipoC3S3': 11.69, 'rot1': 44, 'rot0': 47, 'rot3': 21, 'rot2': 29, 'state': 'normal', 'yaw': -3.7, 'datetime': '2018-10-12 13:40:47.365958', 'mgs': 0, 'depth': 2.072, 'time': 6.14, 'pitch': -4.36, 'roll': -4.17}
{'lipoC2': 7.88, 'temp': 24.31, 'lipoC3S3': 11.73, 'rot1': 46, 'rot0': 48, 'rot3': 22, 'rot2': 29, 'state': 'normal', 'yaw': -3.22, 'datetime': '2018-10-12 13:40:47.463348', 'mgs': 0, 'depth': 2.072, 'time': 6.24, 'pitch': -3.74, 'roll': -3.47}
{'lipoC2': 7.87, 'temp': 24.31, 'lipoC3S3': 11.71, 'rot1': 47, 'rot0': 49, 'rot3': 22, 'rot2': 30, 'state': 'normal', 'yaw': -2.72, 'datetime': '2018-10-12 13:40:47.561035', 'mgs': 0, 'depth': 3.369, 'time': 6.33, 'pitch': -3.22, 'roll': -2.84}
{'lipoC2': 7.88, 'temp': 24.31, 'lipoC3S3': 11.59, 'rot1': 49, 'rot0': 51, 'rot3': 23, 'rot2': 30, 'state': 'normal', 'yaw': -2.08, 'datetime': '2018-10-12 13:40:47.658420', 'mgs': 0, 'depth': 2.301, 'time': 6.43, 'pitch': -2.67, 'roll': -2.23}
{'lipoC2': 7.87, 'temp': 24.31, 'lipoC3S3': 11.63, 'rot1': 50, 'rot0': 52, 'rot3': 23, 'rot2': 31, 'state': 'normal', 'yaw': -1.38, 'datetime': '2018-10-12 13:40:47.755831', 'mgs': 0, 'depth': 2.377, 'time': 6.53, 'pitch': -2.16, 'roll': -1.56}
{'lipoC2': 7.87, 'temp': 24.31, 'lipoC3S3': 11.73, 'rot1': 52, 'rot0': 53, 'rot3': 24, 'rot2': 31, 'state': 'normal', 'yaw': -0.62, 'datetime': '2018-10-12 13:40:47.853220', 'mgs': 0, 'depth': 3.369, 'time': 6.63, 'pitch': -1.63, 'roll': -0.73}
{'lipoC2': 7.87, 'temp': 24.31, 'lipoC3S3': 11.69, 'rot1': 54, 'rot0': 55, 'rot3': 24, 'rot2': 32, 'state': 'normal', 'yaw': 0.08, 'datetime': '2018-10-12 13:40:47.951900', 'mgs': 0, 'depth': 2.682, 'time': 6.72, 'pitch': -1.17, 'roll': 0.2}
{'lipoC2': 7.88, 'temp': 24.31, 'lipoC3S3': 11.71, 'rot1': 55, 'rot0': 56, 'rot3': 24, 'rot2': 32, 'state': 'normal', 'yaw': 0.58, 'datetime': '2018-10-12 13:40:48.050638', 'mgs': 0, 'depth': 2.148, 'time': 6.82, 'pitch': -0.76, 'roll': 1.51}
{'lipoC2': 7.87, 'temp': 24.31, 'lipoC3S3': 11.64, 'rot1': 56, 'rot0': 57, 'rot3': 25, 'rot2': 33, 'state': 'normal', 'yaw': 0.81, 'datetime': '2018-10-12 13:40:48.152276', 'mgs': 0, 'depth': 2.835, 'time': 6.92, 'pitch': -0.51, 'roll': 2.88}
{'lipoC2': 7.87, 'temp': 24.31, 'lipoC3S3': 11.67, 'rot1': 58, 'rot0': 59, 'rot3': 26, 'rot2': 34, 'state': 'normal', 'yaw': 0.82, 'datetime': '2018-10-12 13:40:48.250657', 'mgs': 0, 'depth': 2.377, 'time': 7.02, 'pitch': -0.34, 'roll': 4.21}
{'lipoC2': 7.88, 'temp': 24.44, 'lipoC3S3': 11.46, 'rot1': 59, 'rot0': 60, 'rot3': 26, 'rot2': 34, 'state': 'normal', 'yaw': 0.68, 'datetime': '2018-10-12 13:40:48.348250', 'mgs': 0, 'depth': 3.522, 'time': 7.11, 'pitch': -0.29, 'roll': 5.42}
{'lipoC2': 7.9, 'temp': 24.44, 'lipoC3S3': 11.67, 'rot1': 60, 'rot0': 62, 'rot3': 26, 'rot2': 35, 'state': 'normal', 'yaw': 0.44, 'datetime': '2018-10-12 13:40:48.446780', 'mgs': 0, 'depth': 3.827, 'time': 7.22, 'pitch': -0.3, 'roll': 6.37}
{'lipoC2': 7.88, 'temp': 24.31, 'lipoC3S3': 11.68, 'rot1': 62, 'rot0': 64, 'rot3': 27, 'rot2': 35, 'state': 'normal', 'yaw': 0.14, 'datetime': '2018-10-12 13:40:48.545526', 'mgs': 0, 'depth': 4.59, 'time': 7.31, 'pitch': -0.38, 'roll': 7.35}
{'lipoC2': 7.88, 'temp': 24.31, 'lipoC3S3': 11.51, 'rot1': 63, 'rot0': 65, 'rot3': 27, 'rot2': 36, 'state': 'normal', 'yaw': -0.19, 'datetime': '2018-10-12 13:40:48.642895', 'mgs': 0, 'depth': 3.14, 'time': 7.41, 'pitch': -0.61, 'roll': 8.17}
{'lipoC2': 7.87, 'temp': 24.31, 'lipoC3S3': 11.67, 'rot1': 65, 'rot0': 66, 'rot3': 28, 'rot2': 36, 'state': 'normal', 'yaw': -0.58, 'datetime': '2018-10-12 13:40:48.740464', 'mgs': 0, 'depth': 3.293, 'time': 7.51, 'pitch': -0.91, 'roll': 8.77}
{'lipoC2': 7.87, 'temp': 24.31, 'lipoC3S3': 11.69, 'rot1': 66, 'rot0': 68, 'rot3': 28, 'rot2': 37, 'state': 'normal', 'yaw': -0.97, 'datetime': '2018-10-12 13:40:48.838028', 'mgs': 0, 'depth': 3.369, 'time': 7.61, 'pitch': -1.13, 'roll': 9.17}
{'lipoC2': 7.88, 'temp': 24.31, 'lipoC3S3': 11.68, 'rot1': 68, 'rot0': 69, 'rot3': 29, 'rot2': 37, 'state': 'normal', 'yaw': -1.48, 'datetime': '2018-10-12 13:40:48.935426', 'mgs': 0, 'depth': 5.582, 'time': 7.7, 'pitch': -1.32, 'roll': 9.5}
{'lipoC2': 7.88, 'temp': 24.31, 'lipoC3S3': 11.54, 'rot1': 69, 'rot0': 71, 'rot3': 29, 'rot2': 38, 'state': 'normal', 'yaw': -2.06, 'datetime': '2018-10-12 13:40:49.032892', 'mgs': 0, 'depth': 3.751, 'time': 7.8, 'pitch': -1.42, 'roll': 9.73}
{'lipoC2': 7.87, 'temp': 24.31, 'lipoC3S3': 11.68, 'rot1': 71, 'rot0': 72, 'rot3': 29, 'rot2': 38, 'state': 'normal', 'yaw': -2.59, 'datetime': '2018-10-12 13:40:49.130261', 'mgs': 0, 'depth': 3.445, 'time': 7.9, 'pitch': -1.48, 'roll': 9.91}
{'lipoC2': 7.87, 'temp': 24.88, 'lipoC3S3': 11.75, 'rot1': 72, 'rot0': 73, 'rot3': 29, 'rot2': 38, 'state': 'normal', 'yaw': -2.82, 'datetime': '2018-10-12 13:40:49.227593', 'mgs': 0, 'depth': 3.14, 'time': 8.0, 'pitch': -1.59, 'roll': 9.9}
{'lipoC2': 7.88, 'temp': 24.88, 'lipoC3S3': 11.67, 'rot1': 74, 'rot0': 75, 'rot3': 29, 'rot2': 38, 'state': 'normal', 'yaw': -2.77, 'datetime': '2018-10-12 13:40:49.325327', 'mgs': 0, 'depth': 4.285, 'time': 8.09, 'pitch': -1.75, 'roll': 9.66}
{'lipoC2': 7.88, 'temp': 24.88, 'lipoC3S3': 11.54, 'rot1': 75, 'rot0': 76, 'rot3': 29, 'rot2': 38, 'state': 'normal', 'yaw': -2.4, 'datetime': '2018-10-12 13:40:49.422568', 'mgs': 0, 'depth': 3.369, 'time': 8.19, 'pitch': -1.93, 'roll': 9.1}
{'lipoC2': 7.87, 'temp': 24.38, 'lipoC3S3': 11.72, 'rot1': 77, 'rot0': 77, 'rot3': 30, 'rot2': 39, 'state': 'normal', 'yaw': -1.78, 'datetime': '2018-10-12 13:40:49.519918', 'mgs': 0, 'depth': 3.369, 'time': 8.29, 'pitch': -2.05, 'roll': 8.33}
{'lipoC2': 7.87, 'temp': 24.38, 'lipoC3S3': 11.71, 'rot1': 78, 'rot0': 78, 'rot3': 30, 'rot2': 39, 'state': 'normal', 'yaw': -1.1, 'datetime': '2018-10-12 13:40:49.617378', 'mgs': 0, 'depth': 4.208, 'time': 8.39, 'pitch': -2.07, 'roll': 7.55}
{'lipoC2': 7.88, 'temp': 24.38, 'lipoC3S3': 11.73, 'rot1': 80, 'rot0': 80, 'rot3': 31, 'rot2': 40, 'state': 'normal', 'yaw': -0.24, 'datetime': '2018-10-12 13:40:49.714819', 'mgs': 0, 'depth': 3.903, 'time': 8.48, 'pitch': -1.97, 'roll': 6.66}
{'lipoC2': 7.87, 'temp': 24.38, 'lipoC3S3': 11.64, 'rot1': 81, 'rot0': 81, 'rot3': 31, 'rot2': 40, 'state': 'normal', 'yaw': 0.75, 'datetime': '2018-10-12 13:40:49.810539', 'mgs': 0, 'depth': 3.293, 'time': 8.58, 'pitch': -1.8, 'roll': 5.84}
{'lipoC2': 7.87, 'temp': 24.38, 'lipoC3S3': 11.68, 'rot1': 82, 'rot0': 82, 'rot3': 32, 'rot2': 41, 'state': 'normal', 'yaw': 1.76, 'datetime': '2018-10-12 13:40:49.905382', 'mgs': 0, 'depth': 4.132, 'time': 8.68, 'pitch': -1.64, 'roll': 5.2}
{'lipoC2': 7.9, 'temp': 24.31, 'lipoC3S3': 11.67, 'rot1': 84, 'rot0': 83, 'rot3': 32, 'rot2': 42, 'state': 'normal', 'yaw': 2.92, 'datetime': '2018-10-12 13:40:50.007048', 'mgs': 0, 'depth': 4.132, 'time': 8.78, 'pitch': -1.42, 'roll': 4.63}
{'lipoC2': 7.88, 'temp': 24.31, 'lipoC3S3': 11.73, 'rot1': 84, 'rot0': 84, 'rot3': 32, 'rot2': 42, 'state': 'normal', 'yaw': 3.58, 'datetime': '2018-10-12 13:40:54.061130', 'mgs': 0, 'depth': 3.674, 'time': 8.88, 'pitch': -1.23, 'roll': 4.22}
{'lipoC2': 7.87, 'temp': 24.38, 'lipoC3S3': 11.73, 'rot1': 84, 'rot0': 84, 'rot3': 32, 'rot2': 43, 'state': 'normal', 'yaw': 3.97, 'datetime': '2018-10-12 13:40:54.084970', 'mgs': 0, 'depth': 3.293, 'time': 8.98, 'pitch': -1.12, 'roll': 3.42}
{'lipoC2': 7.88, 'temp': 24.38, 'lipoC3S3': 11.79, 'rot1': 84, 'rot0': 84, 'rot3': 33, 'rot2': 43, 'state': 'normal', 'yaw': 4.24, 'datetime': '2018-10-12 13:40:54.110195', 'mgs': 0, 'depth': 3.293, 'time': 9.07, 'pitch': -1.1, 'roll': 2.31}
{'lipoC2': 7.88, 'temp': 24.38, 'lipoC3S3': 11.73, 'rot1': 84, 'rot0': 84, 'rot3': 33, 'rot2': 44, 'state': 'normal', 'yaw': 4.39, 'datetime': '2018-10-12 13:40:54.118094', 'mgs': 0, 'depth': 3.064, 'time': 9.17, 'pitch': -1.19, 'roll': 1.18}
{'lipoC2': 7.87, 'temp': 24.38, 'lipoC3S3': 11.75, 'rot1': 84, 'rot0': 84, 'rot3': 33, 'rot2': 44, 'state': 'normal', 'yaw': 4.48, 'datetime': '2018-10-12 13:40:54.137361', 'mgs': 0, 'depth': 3.293, 'time': 9.27, 'pitch': -1.39, 'roll': -0.08}
{'lipoC2': 7.87, 'temp': 24.38, 'lipoC3S3': 11.79, 'rot1': 84, 'rot0': 84, 'rot3': 34, 'rot2': 45, 'state': 'normal', 'yaw': 4.53, 'datetime': '2018-10-12 13:40:54.145186', 'mgs': 0, 'depth': 3.369, 'time': 9.37, 'pitch': -1.66, 'roll': -1.24}
{'lipoC2': 7.88, 'temp': 24.31, 'lipoC3S3': 11.77, 'rot1': 84, 'rot0': 84, 'rot3': 34, 'rot2': 46, 'state': 'normal', 'yaw': 4.53, 'datetime': '2018-10-12 13:40:54.164371', 'mgs': 0, 'depth': 3.217, 'time': 9.46, 'pitch': -1.96, 'roll': -2.23}
{'lipoC2': 7.87, 'temp': 24.31, 'lipoC3S3': 11.73, 'rot1': 84, 'rot0': 84, 'rot3': 35, 'rot2': 46, 'state': 'normal', 'yaw': 4.55, 'datetime': '2018-10-12 13:40:54.172172', 'mgs': 0, 'depth': 3.064, 'time': 9.56, 'pitch': -2.18, 'roll': -3.05}
{'lipoC2': 7.88, 'temp': 24.31, 'lipoC3S3': 11.75, 'rot1': 84, 'rot0': 84, 'rot3': 35, 'rot2': 47, 'state': 'normal', 'yaw': 4.56, 'datetime': '2018-10-12 13:40:54.191419', 'mgs': 0, 'depth': 2.911, 'time': 9.66, 'pitch': -2.31, 'roll': -3.65}
{'lipoC2': 7.87, 'temp': 24.25, 'lipoC3S3': 11.8, 'rot1': 84, 'rot0': 84, 'rot3': 36, 'rot2': 48, 'state': 'normal', 'yaw': 4.56, 'datetime': '2018-10-12 13:40:54.199249', 'mgs': 0, 'depth': 2.835, 'time': 9.76, 'pitch': -2.38, 'roll': -4.14}
{'lipoC2': 7.87, 'temp': 24.25, 'lipoC3S3': 11.77, 'rot1': 84, 'rot0': 84, 'rot3': 36, 'rot2': 48, 'state': 'normal', 'yaw': 4.52, 'datetime': '2018-10-12 13:40:54.218549', 'mgs': 0, 'depth': 3.14, 'time': 9.86, 'pitch': -2.37, 'roll': -4.46}
{'lipoC2': 7.87, 'temp': 24.31, 'lipoC3S3': 11.73, 'rot1': 84, 'rot0': 84, 'rot3': 36, 'rot2': 49, 'state': 'normal', 'yaw': 4.43, 'datetime': '2018-10-12 13:40:54.226419', 'mgs': 0, 'depth': 2.911, 'time': 9.95, 'pitch': -2.34, 'roll': -4.66}
{'lipoC2': 7.88, 'temp': 24.31, 'lipoC3S3': 11.73, 'rot1': 84, 'rot0': 84, 'rot3': 37, 'rot2': 49, 'state': 'normal', 'yaw': 4.34, 'datetime': '2018-10-12 13:40:54.245704', 'mgs': 0, 'depth': 2.835, 'time': 10.05, 'pitch': -2.34, 'roll': -4.73}
{'lipoC2': 7.87, 'temp': 24.31, 'lipoC3S3': 11.76, 'rot1': 84, 'rot0': 84, 'rot3': 37, 'rot2': 50, 'state': 'normal', 'yaw': 4.22, 'datetime': '2018-10-12 13:40:54.253552', 'mgs': 0, 'depth': 2.682, 'time': 10.15, 'pitch': -2.37, 'roll': -4.69}
{'lipoC2': 7.87, 'temp': 24.38, 'lipoC3S3': 11.77, 'rot1': 84, 'rot0': 84, 'rot3': 38, 'rot2': 51, 'state': 'normal', 'yaw': 4.08, 'datetime': '2018-10-12 13:40:54.272837', 'mgs': 0, 'depth': 2.988, 'time': 10.25, 'pitch': -2.43, 'roll': -4.48}
{'lipoC2': 7.87, 'temp': 24.38, 'lipoC3S3': 11.77, 'rot1': 84, 'rot0': 84, 'rot3': 38, 'rot2': 51, 'state': 'normal', 'yaw': 3.92, 'datetime': '2018-10-12 13:40:54.280688', 'mgs': 0, 'depth': 2.835, 'time': 10.34, 'pitch': -2.46, 'roll': -4.12}
{'lipoC2': 7.87, 'temp': 24.31, 'lipoC3S3': 11.76, 'rot1': 84, 'rot0': 84, 'rot3': 39, 'rot2': 52, 'state': 'normal', 'yaw': 3.77, 'datetime': '2018-10-12 13:40:54.299904', 'mgs': 0, 'depth': 2.454, 'time': 10.44, 'pitch': -2.48, 'roll': -3.72}
{'lipoC2': 7.87, 'temp': 24.31, 'lipoC3S3': 11.79, 'rot1': 84, 'rot0': 84, 'rot3': 39, 'rot2': 52, 'state': 'normal', 'yaw': 3.59, 'datetime': '2018-10-12 13:40:54.308891', 'mgs': 0, 'depth': 2.53, 'time': 10.54, 'pitch': -2.53, 'roll': -3.26}
{'lipoC2': 7.87, 'temp': 24.31, 'lipoC3S3': 11.79, 'rot1': 84, 'rot0': 84, 'rot3': 40, 'rot2': 53, 'state': 'normal', 'yaw': 3.41, 'datetime': '2018-10-12 13:40:54.328119', 'mgs': 0, 'depth': 2.835, 'time': 10.64, 'pitch': -2.62, 'roll': -2.86}
{'lipoC2': 7.87, 'temp': 24.31, 'lipoC3S3': 11.79, 'rot1': 84, 'rot0': 84, 'rot3': 40, 'rot2': 54, 'state': 'normal', 'yaw': 3.22, 'datetime': '2018-10-12 13:40:54.335998', 'mgs': 0, 'depth': 2.377, 'time': 10.73, 'pitch': -2.7, 'roll': -2.48}
{'lipoC2': 7.87, 'temp': 24.31, 'lipoC3S3': 11.79, 'rot1': 84, 'rot0': 84, 'rot3': 40, 'rot2': 54, 'state': 'normal', 'yaw': 3.03, 'datetime': '2018-10-12 13:40:54.355219', 'mgs': 0, 'depth': 2.377, 'time': 10.83, 'pitch': -2.8, 'roll': -2.15}
{'lipoC2': 7.87, 'temp': 24.31, 'lipoC3S3': 11.77, 'rot1': 84, 'rot0': 84, 'rot3': 41, 'rot2': 55, 'state': 'normal', 'yaw': 2.82, 'datetime': '2018-10-12 13:40:54.363093', 'mgs': 0, 'depth': 2.301, 'time': 10.93, 'pitch': -2.97, 'roll': -1.77}
{'lipoC2': 7.87, 'temp': 24.31, 'lipoC3S3': 11.79, 'rot1': 84, 'rot0': 84, 'rot3': 42, 'rot2': 56, 'state': 'normal', 'yaw': 2.59, 'datetime': '2018-10-12 13:40:54.382339', 'mgs': 0, 'depth': 2.606, 'time': 11.03, 'pitch': -3.12, 'roll': -1.33}
{'lipoC2': 7.88, 'temp': 24.31, 'lipoC3S3': 11.79, 'rot1': 84, 'rot0': 84, 'rot3': 42, 'rot2': 56, 'state': 'normal', 'yaw': 2.36, 'datetime': '2018-10-12 13:40:54.390003', 'mgs': 0, 'depth': 2.377, 'time': 11.13, 'pitch': -3.21, 'roll': -0.85}
{'lipoC2': 7.87, 'temp': 24.38, 'lipoC3S3': 11.79, 'rot1': 84, 'rot0': 84, 'rot3': 42, 'rot2': 57, 'state': 'normal', 'yaw': 2.15, 'datetime': '2018-10-12 13:40:54.409057', 'mgs': 0, 'depth': 2.072, 'time': 11.23, 'pitch': -3.25, 'roll': -0.51}
{'lipoC2': 7.87, 'temp': 24.38, 'lipoC3S3': 11.79, 'rot1': 84, 'rot0': 84, 'rot3': 43, 'rot2': 57, 'state': 'normal', 'yaw': 1.91, 'datetime': '2018-10-12 13:40:54.416506', 'mgs': 0, 'depth': 2.072, 'time': 11.32, 'pitch': -3.21, 'roll': -0.24}
{'lipoC2': 7.87, 'temp': 24.31, 'lipoC3S3': 11.79, 'rot1': 84, 'rot0': 84, 'rot3': 43, 'rot2': 58, 'state': 'normal', 'yaw': 1.64, 'datetime': '2018-10-12 13:40:54.435364', 'mgs': 0, 'depth': 2.225, 'time': 11.42, 'pitch': -3.16, 'roll': -0.16}
{'lipoC2': 7.87, 'temp': 24.31, 'lipoC3S3': 11.75, 'rot1': 84, 'rot0': 84, 'rot3': 44, 'rot2': 59, 'state': 'normal', 'yaw': 1.35, 'datetime': '2018-10-12 13:40:54.442786', 'mgs': 0, 'depth': 2.072, 'time': 11.52, 'pitch': -3.12, 'roll': -0.23}
{'lipoC2': 7.88, 'temp': 24.31, 'lipoC3S3': 11.77, 'rot1': 84, 'rot0': 84, 'rot3': 44, 'rot2': 59, 'state': 'normal', 'yaw': 1.08, 'datetime': '2018-10-12 13:40:54.461644', 'mgs': 0, 'depth': 1.843, 'time': 11.62, 'pitch': -3.05, 'roll': -0.44}
{'lipoC2': 7.87, 'temp': 24.38, 'lipoC3S3': 11.79, 'rot1': 84, 'rot0': 84, 'rot3': 45, 'rot2': 60, 'state': 'normal', 'yaw': 0.88, 'datetime': '2018-10-12 13:40:54.469028', 'mgs': 0, 'depth': 2.225, 'time': 11.72, 'pitch': -2.98, 'roll': -0.77}
{'lipoC2': 7.87, 'temp': 24.38, 'lipoC3S3': 11.76, 'rot1': 84, 'rot0': 84, 'rot3': 45, 'rot2': 60, 'state': 'normal', 'yaw': 0.69, 'datetime': '2018-10-12 13:40:54.487833', 'mgs': 0, 'depth': 1.92, 'time': 11.81, 'pitch': -2.81, 'roll': -1.23}
{'lipoC2': 7.87, 'temp': 24.31, 'lipoC3S3': 11.77, 'rot1': 84, 'rot0': 84, 'rot3': 46, 'rot2': 61, 'state': 'normal', 'yaw': 0.53, 'datetime': '2018-10-12 13:40:54.495275', 'mgs': 0, 'depth': 1.767, 'time': 11.91, 'pitch': -2.69, 'roll': -1.72}
{'lipoC2': 7.87, 'temp': 24.31, 'lipoC3S3': 11.8, 'rot1': 84, 'rot0': 84, 'rot3': 46, 'rot2': 62, 'state': 'normal', 'yaw': 0.39, 'datetime': '2018-10-12 13:40:54.514132', 'mgs': 0, 'depth': 1.767, 'time': 12.01, 'pitch': -2.65, 'roll': -2.16}
{'lipoC2': 7.88, 'temp': 24.31, 'lipoC3S3': 11.79, 'rot1': 84, 'rot0': 84, 'rot3': 47, 'rot2': 62, 'state': 'normal', 'yaw': 0.28, 'datetime': '2018-10-12 13:40:54.521949', 'mgs': 0, 'depth': 1.92, 'time': 12.1, 'pitch': -2.72, 'roll': -2.47}
{'lipoC2': 7.87, 'temp': 24.31, 'lipoC3S3': 11.77, 'rot1': 84, 'rot0': 84, 'rot3': 47, 'rot2': 63, 'state': 'normal', 'yaw': 0.15, 'datetime': '2018-10-12 13:40:54.540834', 'mgs': 0, 'depth': 1.691, 'time': 12.2, 'pitch': -2.81, 'roll': -2.72}
{'lipoC2': 7.87, 'temp': 24.31, 'lipoC3S3': 11.79, 'rot1': 84, 'rot0': 84, 'rot3': 48, 'rot2': 64, 'state': 'normal', 'yaw': 0.08, 'datetime': '2018-10-12 13:40:54.548216', 'mgs': 0, 'depth': 1.691, 'time': 12.3, 'pitch': -2.88, 'roll': -2.95}
{'lipoC2': 7.87, 'temp': 24.38, 'lipoC3S3': 11.79, 'rot1': 84, 'rot0': 84, 'rot3': 48, 'rot2': 64, 'state': 'normal', 'yaw': 0.09, 'datetime': '2018-10-12 13:40:54.567060', 'mgs': 0, 'depth': 1.92, 'time': 12.4, 'pitch': -2.92, 'roll': -3.13}
{'lipoC2': 7.87, 'temp': 24.38, 'lipoC3S3': 11.79, 'rot1': 84, 'rot0': 84, 'rot3': 49, 'rot2': 65, 'state': 'normal', 'yaw': 0.09, 'datetime': '2018-10-12 13:40:54.574495', 'mgs': 0, 'depth': 1.767, 'time': 12.49, 'pitch': -2.93, 'roll': -3.31}
{'lipoC2': 7.87, 'temp': 24.38, 'lipoC3S3': 11.76, 'rot1': 84, 'rot0': 84, 'rot3': 49, 'rot2': 66, 'state': 'normal', 'yaw': 0.09, 'datetime': '2018-10-12 13:40:54.593353', 'mgs': 0, 'depth': 1.767, 'time': 12.59, 'pitch': -2.99, 'roll': -3.51}
{'lipoC2': 7.87, 'temp': 24.31, 'lipoC3S3': 11.8, 'rot1': 84, 'rot0': 84, 'rot3': 50, 'rot2': 66, 'state': 'normal', 'yaw': 0.07, 'datetime': '2018-10-12 13:40:54.600808', 'mgs': 0, 'depth': 1.691, 'time': 12.69, 'pitch': -3.08, 'roll': -3.75}
{'lipoC2': 7.87, 'temp': 24.31, 'lipoC3S3': 11.8, 'rot1': 84, 'rot0': 84, 'rot3': 50, 'rot2': 67, 'state': 'normal', 'yaw': 0.03, 'datetime': '2018-10-12 13:40:54.619604', 'mgs': 0, 'depth': 1.996, 'time': 12.79, 'pitch': -3.18, 'roll': -3.98}
{'lipoC2': 7.87, 'temp': 24.31, 'lipoC3S3': 11.84, 'rot1': 84, 'rot0': 84, 'rot3': 51, 'rot2': 67, 'state': 'normal', 'yaw': 0.03, 'datetime': '2018-10-12 13:40:54.627032', 'mgs': 0, 'depth': 1.767, 'time': 12.89, 'pitch': -3.29, 'roll': -4.17}
{'lipoC2': 7.87, 'temp': 24.31, 'lipoC3S3': 11.72, 'rot1': 85, 'rot0': 84, 'rot3': 51, 'rot2': 68, 'state': 'normal', 'yaw': 0.12, 'datetime': '2018-10-12 13:40:54.645897', 'mgs': 0, 'depth': 2.148, 'time': 12.99, 'pitch': -3.32, 'roll': -4.22}
{'lipoC2': 7.88, 'temp': 24.31, 'lipoC3S3': 11.76, 'rot1': 86, 'rot0': 85, 'rot3': 51, 'rot2': 69, 'state': 'normal', 'yaw': 0.82, 'datetime': '2018-10-12 13:40:54.653328', 'mgs': 0, 'depth': 1.843, 'time': 13.08, 'pitch': -3.14, 'roll': -3.98}
{'lipoC2': 7.88, 'temp': 24.31, 'lipoC3S3': 11.75, 'rot1': 86, 'rot0': 86, 'rot3': 52, 'rot2': 69, 'state': 'normal', 'yaw': 2.08, 'datetime': '2018-10-12 13:40:54.672152', 'mgs': 0, 'depth': 2.072, 'time': 13.18, 'pitch': -2.8, 'roll': -3.43}
{'lipoC2': 7.87, 'temp': 24.31, 'lipoC3S3': 11.72, 'rot1': 87, 'rot0': 87, 'rot3': 52, 'rot2': 70, 'state': 'normal', 'yaw': 3.61, 'datetime': '2018-10-12 13:40:54.679569', 'mgs': 0, 'depth': 1.691, 'time': 13.28, 'pitch': -2.45, 'roll': -2.81}
{'lipoC2': 7.87, 'temp': 24.31, 'lipoC3S3': 11.68, 'rot1': 88, 'rot0': 88, 'rot3': 53, 'rot2': 71, 'state': 'normal', 'yaw': 5.77, 'datetime': '2018-10-12 13:40:54.698396', 'mgs': 0, 'depth': 1.767, 'time': 13.38, 'pitch': -1.99, 'roll': -2.12}
{'lipoC2': 7.87, 'temp': 24.31, 'lipoC3S3': 11.67, 'rot1': 89, 'rot0': 89, 'rot3': 53, 'rot2': 71, 'state': 'normal', 'yaw': 8.36, 'datetime': '2018-10-12 13:40:54.705864', 'mgs': 0, 'depth': 1.691, 'time': 13.48, 'pitch': -1.56, 'roll': -1.59}
{'lipoC2': 7.87, 'temp': 24.31, 'lipoC3S3': 11.77, 'rot1': 89, 'rot0': 89, 'rot3': 54, 'rot2': 72, 'state': 'normal', 'yaw': 11.29, 'datetime': '2018-10-12 13:40:54.794590', 'mgs': 0, 'depth': 1.996, 'time': 13.57, 'pitch': -1.24, 'roll': -1.3}
{'lipoC2': 7.87, 'temp': 24.31, 'lipoC3S3': 11.77, 'rot1': 90, 'rot0': 90, 'rot3': 54, 'rot2': 73, 'state': 'normal', 'yaw': 14.52, 'datetime': '2018-10-12 13:40:54.892100', 'mgs': 0, 'depth': 1.92, 'time': 13.67, 'pitch': -1.04, 'roll': -1.24}
{'lipoC2': 7.88, 'temp': 24.31, 'lipoC3S3': 11.72, 'rot1': 91, 'rot0': 91, 'rot3': 55, 'rot2': 73, 'state': 'normal', 'yaw': 17.66, 'datetime': '2018-10-12 13:40:54.989501', 'mgs': 0, 'depth': 1.767, 'time': 13.77, 'pitch': -0.93, 'roll': -1.29}
{'lipoC2': 7.87, 'temp': 24.38, 'lipoC3S3': 11.71, 'rot1': 92, 'rot0': 92, 'rot3': 55, 'rot2': 74, 'state': 'normal', 'yaw': 21.38, 'datetime': '2018-10-12 13:40:55.086904', 'mgs': 0, 'depth': 1.767, 'time': 13.87, 'pitch': -0.9, 'roll': -1.37}
{'lipoC2': 7.87, 'temp': 24.38, 'lipoC3S3': 11.76, 'rot1': 93, 'rot0': 93, 'rot3': 56, 'rot2': 75, 'state': 'normal', 'yaw': 25.28, 'datetime': '2018-10-12 13:40:55.184328', 'mgs': 0, 'depth': 2.148, 'time': 13.96, 'pitch': -0.91, 'roll': -1.34}
{'lipoC2': 7.87, 'temp': 24.31, 'lipoC3S3': 11.76, 'rot1': 93, 'rot0': 93, 'rot3': 56, 'rot2': 75, 'state': 'normal', 'yaw': 28.94, 'datetime': '2018-10-12 13:40:55.281973', 'mgs': 0, 'depth': 2.072, 'time': 14.06, 'pitch': -0.95, 'roll': -1.2}
{'lipoC2': 7.88, 'temp': 24.31, 'lipoC3S3': 11.72, 'rot1': 94, 'rot0': 94, 'rot3': 57, 'rot2': 76, 'state': 'normal', 'yaw': 33.14, 'datetime': '2018-10-12 13:40:55.379400', 'mgs': 0, 'depth': 2.301, 'time': 14.16, 'pitch': -1.02, 'roll': -1.02}
{'lipoC2': 7.87, 'temp': 24.31, 'lipoC3S3': 11.65, 'rot1': 95, 'rot0': 95, 'rot3': 57, 'rot2': 76, 'state': 'normal', 'yaw': 37.46, 'datetime': '2018-10-12 13:40:55.476773', 'mgs': 0, 'depth': 1.843, 'time': 14.26, 'pitch': -1.12, 'roll': -0.93}
{'lipoC2': 7.88, 'temp': 24.38, 'lipoC3S3': 11.76, 'rot1': 96, 'rot0': 96, 'rot3': 58, 'rot2': 77, 'state': 'normal', 'yaw': 41.85, 'datetime': '2018-10-12 13:40:55.574770', 'mgs': 0, 'depth': 2.072, 'time': 14.35, 'pitch': -1.29, 'roll': -1.0}
{'lipoC2': 7.87, 'temp': 24.38, 'lipoC3S3': 11.72, 'rot1': 97, 'rot0': 97, 'rot3': 58, 'rot2': 78, 'state': 'normal', 'yaw': 45.85, 'datetime': '2018-10-12 13:40:55.672135', 'mgs': 0, 'depth': 2.606, 'time': 14.45, 'pitch': -1.44, 'roll': -1.21}
{'lipoC2': 7.87, 'temp': 24.38, 'lipoC3S3': 11.73, 'rot1': 97, 'rot0': 98, 'rot3': 59, 'rot2': 78, 'state': 'normal', 'yaw': 50.4, 'datetime': '2018-10-12 13:40:55.769519', 'mgs': 0, 'depth': 1.767, 'time': 14.55, 'pitch': -1.52, 'roll': -1.54}
{'lipoC2': 7.87, 'temp': 24.38, 'lipoC3S3': 11.76, 'rot1': 98, 'rot0': 98, 'rot3': 59, 'rot2': 79, 'state': 'normal', 'yaw': 55.03, 'datetime': '2018-10-12 13:40:55.866958', 'mgs': 0, 'depth': 2.072, 'time': 14.65, 'pitch': -1.53, 'roll': -1.92}
{'lipoC2': 7.88, 'temp': 24.38, 'lipoC3S3': 11.77, 'rot1': 99, 'rot0': 99, 'rot3': 60, 'rot2': 80, 'state': 'normal', 'yaw': 59.73, 'datetime': '2018-10-12 13:40:55.964626', 'mgs': 0, 'depth': 1.996, 'time': 14.74, 'pitch': -1.51, 'roll': -2.25}
{'lipoC2': 7.87, 'temp': 24.38, 'lipoC3S3': 11.77, 'rot1': 100, 'rot0': 100, 'rot3': 61, 'rot2': 80, 'state': 'normal', 'yaw': 64.0, 'datetime': '2018-10-12 13:40:56.063474', 'mgs': 0, 'depth': 2.072, 'time': 14.84, 'pitch': -1.46, 'roll': -2.51}
{'lipoC2': 7.87, 'temp': 24.38, 'lipoC3S3': 11.73, 'rot1': 101, 'rot0': 101, 'rot3': 61, 'rot2': 81, 'state': 'normal', 'yaw': 68.8, 'datetime': '2018-10-12 13:40:56.162449', 'mgs': 0, 'depth': 1.691, 'time': 14.94, 'pitch': -1.41, 'roll': -2.77}
{'lipoC2': 7.88, 'temp': 24.38, 'lipoC3S3': 11.73, 'rot1': 102, 'rot0': 102, 'rot3': 62, 'rot2': 82, 'state': 'normal', 'yaw': 73.61, 'datetime': '2018-10-12 13:40:56.260209', 'mgs': 0, 'depth': 1.691, 'time': 15.04, 'pitch': -1.39, 'roll': -2.97}
{'lipoC2': 7.87, 'temp': 24.38, 'lipoC3S3': 11.72, 'rot1': 103, 'rot0': 103, 'rot3': 62, 'rot2': 82, 'state': 'normal', 'yaw': 78.44, 'datetime': '2018-10-12 13:40:56.357811', 'mgs': 0, 'depth': 1.767, 'time': 15.14, 'pitch': -1.39, 'roll': -3.15}
{'lipoC2': 7.87, 'temp': 24.38, 'lipoC3S3': 11.73, 'rot1': 103, 'rot0': 103, 'rot3': 63, 'rot2': 83, 'state': 'normal', 'yaw': 83.34, 'datetime': '2018-10-12 13:40:56.455428', 'mgs': 0, 'depth': 1.767, 'time': 15.24, 'pitch': -1.35, 'roll': -3.31}
{'lipoC2': 7.87, 'temp': 24.31, 'lipoC3S3': 11.73, 'rot1': 104, 'rot0': 104, 'rot3': 63, 'rot2': 83, 'state': 'normal', 'yaw': 87.79, 'datetime': '2018-10-12 13:40:56.554315', 'mgs': 0, 'depth': 2.148, 'time': 15.34, 'pitch': -1.32, 'roll': -3.43}
{'lipoC2': 7.87, 'temp': 24.31, 'lipoC3S3': 11.76, 'rot1': 105, 'rot0': 105, 'rot3': 64, 'rot2': 84, 'state': 'normal', 'yaw': 92.78, 'datetime': '2018-10-12 13:40:56.653179', 'mgs': 0, 'depth': 1.996, 'time': 15.43, 'pitch': -1.27, 'roll': -3.59}
{'lipoC2': 7.88, 'temp': 24.31, 'lipoC3S3': 11.76, 'rot1': 106, 'rot0': 106, 'rot3': 64, 'rot2': 85, 'state': 'normal', 'yaw': 97.85, 'datetime': '2018-10-12 13:40:56.751457', 'mgs': 0, 'depth': 1.843, 'time': 15.53, 'pitch': -1.17, 'roll': -3.7}
{'lipoC2': 7.87, 'temp': 24.31, 'lipoC3S3': 11.76, 'rot1': 107, 'rot0': 107, 'rot3': 65, 'rot2': 85, 'state': 'normal', 'yaw': 103.0, 'datetime': '2018-10-12 13:40:56.848534', 'mgs': 0, 'depth': 1.996, 'time': 15.63, 'pitch': -0.98, 'roll': -3.71}
{'lipoC2': 7.87, 'temp': 24.31, 'lipoC3S3': 11.77, 'rot1': 108, 'rot0': 107, 'rot3': 65, 'rot2': 86, 'state': 'normal', 'yaw': 108.23, 'datetime': '2018-10-12 13:40:56.946153', 'mgs': 0, 'depth': 1.92, 'time': 15.73, 'pitch': -0.78, 'roll': -3.6}
{'lipoC2': 7.87, 'temp': 24.31, 'lipoC3S3': 11.72, 'rot1': 108, 'rot0': 108, 'rot3': 66, 'rot2': 87, 'state': 'normal', 'yaw': 112.96, 'datetime': '2018-10-12 13:40:57.043739', 'mgs': 0, 'depth': 2.454, 'time': 15.82, 'pitch': -0.62, 'roll': -3.46}
{'lipoC2': 7.87, 'temp': 24.31, 'lipoC3S3': 11.73, 'rot1': 109, 'rot0': 109, 'rot3': 66, 'rot2': 87, 'state': 'normal', 'yaw': 118.22, 'datetime': '2018-10-12 13:40:57.141364', 'mgs': 0, 'depth': 1.92, 'time': 15.92, 'pitch': -0.38, 'roll': -3.36}
{'lipoC2': 7.87, 'temp': 24.31, 'lipoC3S3': 11.83, 'rot1': 110, 'rot0': 109, 'rot3': 66, 'rot2': 88, 'state': 'normal', 'yaw': 123.44, 'datetime': '2018-10-12 13:40:57.238933', 'mgs': 0, 'depth': 1.691, 'time': 16.02, 'pitch': -0.13, 'roll': -3.28}
{'lipoC2': 7.87, 'temp': 24.31, 'lipoC3S3': 11.83, 'rot1': 110, 'rot0': 109, 'rot3': 67, 'rot2': 88, 'state': 'normal', 'yaw': 128.2, 'datetime': '2018-10-12 13:40:57.336669', 'mgs': 0, 'depth': 1.691, 'time': 16.12, 'pitch': -0.0, 'roll': -3.42}
{'lipoC2': 7.87, 'temp': 24.31, 'lipoC3S3': 11.72, 'rot1': 110, 'rot0': 109, 'rot3': 68, 'rot2': 88, 'state': 'normal', 'yaw': 132.08, 'datetime': '2018-10-12 13:40:57.434232', 'mgs': 0, 'depth': 1.843, 'time': 16.22, 'pitch': -0.04, 'roll': -3.65}
{'lipoC2': 7.87, 'temp': 24.38, 'lipoC3S3': 11.61, 'rot1': 110, 'rot0': 110, 'rot3': 68, 'rot2': 89, 'state': 'normal', 'yaw': 136.08, 'datetime': '2018-10-12 13:40:57.531829', 'mgs': 0, 'depth': 1.767, 'time': 16.31, 'pitch': -0.07, 'roll': -4.28}
