{'lipoC2': 7.51, 'temp': 24.13, 'lipoC3S3': 11.48, 'rot1': 0, 'rot0': 0, 'rot3': 0, 'rot2': 0, 'state': 'normal', 'yaw': 0.0, 'datetime': '2018-10-17 10:06:53.562923', 'mgs': 0, 'depth': 0.394, 'time': 1.26, 'pitch': 0.55, 'roll': -5.6}
{'lipoC2': 7.5, 'temp': 24.13, 'lipoC3S3': 11.47, 'rot1': 0, 'rot0': 0, 'rot3': 0, 'rot2': 0, 'state': 'normal', 'yaw': 0.11, 'datetime': '2018-10-17 10:06:57.086894', 'mgs': 0, 'depth': 0.47, 'time': 1.36, 'pitch': 0.64, 'roll': -5.47}
{'lipoC2': 7.5, 'temp': 24.13, 'lipoC3S3': 11.47, 'rot1': 0, 'rot0': 0, 'rot3': 0, 'rot2': 0, 'state': 'normal', 'yaw': 0.17, 'datetime': '2018-10-17 10:06:57.105465', 'mgs': 0, 'depth': 0.394, 'time': 1.46, 'pitch': 0.75, 'roll': -5.33}
{'lipoC2': 7.5, 'temp': 24.13, 'lipoC3S3': 11.47, 'rot1': 0, 'rot0': 0, 'rot3': 0, 'rot2': 0, 'state': 'normal', 'yaw': 0.17, 'datetime': '2018-10-17 10:06:57.124437', 'mgs': 0, 'depth': 0.47, 'time': 1.55, 'pitch': 0.74, 'roll': -5.17}
{'lipoC2': 7.5, 'temp': 24.13, 'lipoC3S3': 11.47, 'rot1': 0, 'rot0': 0, 'rot3': 0, 'rot2': 0, 'state': 'normal', 'yaw': 0.17, 'datetime': '2018-10-17 10:06:57.146190', 'mgs': 0, 'depth': 0.546, 'time': 1.65, 'pitch': 0.71, 'roll': -5.04}
{'lipoC2': 7.51, 'temp': 24.13, 'lipoC3S3': 11.47, 'rot1': 0, 'rot0': 0, 'rot3': 0, 'rot2': 0, 'state': 'normal', 'yaw': 0.17, 'datetime': '2018-10-17 10:06:57.172980', 'mgs': 0, 'depth': 0.47, 'time': 1.75, 'pitch': 0.71, 'roll': -4.91}
{'lipoC2': 7.5, 'temp': 24.13, 'lipoC3S3': 11.47, 'rot1': 0, 'rot0': 0, 'rot3': 0, 'rot2': 0, 'state': 'normal', 'yaw': 0.17, 'datetime': '2018-10-17 10:06:57.198287', 'mgs': 0, 'depth': 0.394, 'time': 1.85, 'pitch': 0.71, 'roll': -4.83}
{'lipoC2': 7.5, 'temp': 24.13, 'lipoC3S3': 11.47, 'rot1': 0, 'rot0': 0, 'rot3': 0, 'rot2': 0, 'state': 'normal', 'yaw': 0.17, 'datetime': '2018-10-17 10:06:57.206542', 'mgs': 0, 'depth': 0.47, 'time': 1.94, 'pitch': 0.76, 'roll': -4.78}
{'lipoC2': 7.51, 'temp': 24.13, 'lipoC3S3': 11.47, 'rot1': 0, 'rot0': 0, 'rot3': 0, 'rot2': 0, 'state': 'normal', 'yaw': 0.18, 'datetime': '2018-10-17 10:06:57.216131', 'mgs': 0, 'depth': 0.47, 'time': 2.04, 'pitch': 0.79, 'roll': -4.77}
{'lipoC2': 7.5, 'temp': 24.13, 'lipoC3S3': 11.47, 'rot1': 0, 'rot0': 0, 'rot3': 0, 'rot2': 0, 'state': 'normal', 'yaw': 0.14, 'datetime': '2018-10-17 10:06:57.230020', 'mgs': 0, 'depth': 0.47, 'time': 2.14, 'pitch': 0.85, 'roll': -4.88}
{'lipoC2': 7.5, 'temp': 24.13, 'lipoC3S3': 11.46, 'rot1': 0, 'rot0': 0, 'rot3': 0, 'rot2': 0, 'state': 'normal', 'yaw': 0.05, 'datetime': '2018-10-17 10:06:57.244334', 'mgs': 0, 'depth': 0.47, 'time': 2.24, 'pitch': 1.07, 'roll': -4.86}
{'lipoC2': 7.51, 'temp': 24.13, 'lipoC3S3': 11.47, 'rot1': 0, 'rot0': 0, 'rot3': 0, 'rot2': 0, 'state': 'normal', 'yaw': -0.08, 'datetime': '2018-10-17 10:06:57.253312', 'mgs': 0, 'depth': 0.47, 'time': 2.34, 'pitch': 1.25, 'roll': -4.82}
{'lipoC2': 7.51, 'temp': 24.13, 'lipoC3S3': 11.47, 'rot1': 0, 'rot0': 0, 'rot3': 0, 'rot2': 0, 'state': 'normal', 'yaw': -0.24, 'datetime': '2018-10-17 10:06:57.263118', 'mgs': 0, 'depth': 0.47, 'time': 2.43, 'pitch': 1.27, 'roll': -4.77}
{'lipoC2': 7.5, 'temp': 24.13, 'lipoC3S3': 11.47, 'rot1': 0, 'rot0': 0, 'rot3': 0, 'rot2': 0, 'state': 'normal', 'yaw': -0.36, 'datetime': '2018-10-17 10:06:57.276984', 'mgs': 0, 'depth': 0.47, 'time': 2.53, 'pitch': 1.16, 'roll': -4.72}
{'lipoC2': 7.5, 'temp': 24.13, 'lipoC3S3': 11.47, 'rot1': 0, 'rot0': 0, 'rot3': 0, 'rot2': 0, 'state': 'normal', 'yaw': -0.26, 'datetime': '2018-10-17 10:06:57.290953', 'mgs': 0, 'depth': 0.394, 'time': 2.63, 'pitch': 1.14, 'roll': -4.58}
{'lipoC2': 7.5, 'temp': 24.13, 'lipoC3S3': 11.47, 'rot1': 0, 'rot0': 0, 'rot3': 0, 'rot2': 0, 'state': 'normal', 'yaw': 0.02, 'datetime': '2018-10-17 10:06:57.299042', 'mgs': 0, 'depth': 0.394, 'time': 2.72, 'pitch': 1.21, 'roll': -4.51}
{'lipoC2': 7.5, 'temp': 24.13, 'lipoC3S3': 11.47, 'rot1': 0, 'rot0': 0, 'rot3': 0, 'rot2': 0, 'state': 'normal', 'yaw': 0.38, 'datetime': '2018-10-17 10:06:57.308728', 'mgs': 0, 'depth': 0.394, 'time': 2.82, 'pitch': 1.3, 'roll': -4.54}
{'lipoC2': 7.5, 'temp': 24.13, 'lipoC3S3': 11.47, 'rot1': 0, 'rot0': 0, 'rot3': 0, 'rot2': 0, 'state': 'normal', 'yaw': 0.74, 'datetime': '2018-10-17 10:06:57.322557', 'mgs': 0, 'depth': 0.47, 'time': 2.92, 'pitch': 1.31, 'roll': -4.74}
{'lipoC2': 7.51, 'temp': 24.13, 'lipoC3S3': 11.47, 'rot1': 0, 'rot0': 0, 'rot3': 0, 'rot2': 0, 'state': 'normal', 'yaw': 1.04, 'datetime': '2018-10-17 10:06:57.336914', 'mgs': 0, 'depth': 0.47, 'time': 3.02, 'pitch': 1.19, 'roll': -4.96}
{'lipoC2': 7.5, 'temp': 24.13, 'lipoC3S3': 11.47, 'rot1': 0, 'rot0': 0, 'rot3': 0, 'rot2': 0, 'state': 'normal', 'yaw': 1.31, 'datetime': '2018-10-17 10:06:57.345851', 'mgs': 0, 'depth': 0.47, 'time': 3.12, 'pitch': 1.03, 'roll': -5.13}
{'lipoC2': 7.5, 'temp': 24.06, 'lipoC3S3': 11.47, 'rot1': 0, 'rot0': 0, 'rot3': 0, 'rot2': 0, 'state': 'normal', 'yaw': 1.54, 'datetime': '2018-10-17 10:06:57.355652', 'mgs': 0, 'depth': 0.394, 'time': 3.21, 'pitch': 0.94, 'roll': -5.17}
{'lipoC2': 7.5, 'temp': 24.06, 'lipoC3S3': 11.47, 'rot1': 0, 'rot0': 0, 'rot3': 0, 'rot2': 0, 'state': 'normal', 'yaw': 1.73, 'datetime': '2018-10-17 10:06:57.369522', 'mgs': 0, 'depth': 0.47, 'time': 3.31, 'pitch': 0.94, 'roll': -5.12}
{'lipoC2': 7.51, 'temp': 24.06, 'lipoC3S3': 11.47, 'rot1': 0, 'rot0': 0, 'rot3': 0, 'rot2': 0, 'state': 'normal', 'yaw': 1.76, 'datetime': '2018-10-17 10:06:57.383371', 'mgs': 0, 'depth': 0.394, 'time': 3.41, 'pitch': 0.95, 'roll': -4.99}
{'lipoC2': 7.51, 'temp': 24.06, 'lipoC3S3': 11.46, 'rot1': 0, 'rot0': 0, 'rot3': 0, 'rot2': 0, 'state': 'normal', 'yaw': 1.69, 'datetime': '2018-10-17 10:06:57.391725', 'mgs': 0, 'depth': 0.47, 'time': 3.51, 'pitch': 0.94, 'roll': -4.85}
{'lipoC2': 7.5, 'temp': 24.06, 'lipoC3S3': 11.47, 'rot1': 0, 'rot0': 0, 'rot3': 0, 'rot2': 0, 'state': 'normal', 'yaw': 0.0, 'datetime': '2018-10-17 10:06:57.401445', 'mgs': 0, 'depth': 0.47, 'time': 1.26, 'pitch': 0.93, 'roll': -4.61}
{'lipoC2': 7.51, 'temp': 24.06, 'lipoC3S3': 11.47, 'rot1': 0, 'rot0': 0, 'rot3': 0, 'rot2': 0, 'state': 'normal', 'yaw': -0.01, 'datetime': '2018-10-17 10:06:57.415265', 'mgs': 0, 'depth': 0.47, 'time': 1.36, 'pitch': 1.07, 'roll': -4.72}
{'lipoC2': 7.5, 'temp': 24.06, 'lipoC3S3': 11.47, 'rot1': 0, 'rot0': 0, 'rot3': 0, 'rot2': 0, 'state': 'normal', 'yaw': -0.02, 'datetime': '2018-10-17 10:06:57.429213', 'mgs': 0, 'depth': 0.47, 'time': 1.46, 'pitch': 1.18, 'roll': -4.75}
{'lipoC2': 7.5, 'temp': 24.13, 'lipoC3S3': 11.47, 'rot1': 0, 'rot0': 0, 'rot3': 0, 'rot2': 0, 'state': 'normal', 'yaw': -0.03, 'datetime': '2018-10-17 10:06:57.438122', 'mgs': 0, 'depth': 0.546, 'time': 1.55, 'pitch': 1.19, 'roll': -4.75}
{'lipoC2': 7.5, 'temp': 24.13, 'lipoC3S3': 11.48, 'rot1': 0, 'rot0': 0, 'rot3': 0, 'rot2': 0, 'state': 'normal', 'yaw': -0.02, 'datetime': '2018-10-17 10:06:57.448248', 'mgs': 0, 'depth': 0.546, 'time': 1.65, 'pitch': 1.14, 'roll': -4.8}
{'lipoC2': 7.5, 'temp': 24.13, 'lipoC3S3': 11.48, 'rot1': 0, 'rot0': 0, 'rot3': 0, 'rot2': 0, 'state': 'normal', 'yaw': 0.05, 'datetime': '2018-10-17 10:06:57.462126', 'mgs': 0, 'depth': 0.47, 'time': 1.75, 'pitch': 1.06, 'roll': -4.87}
{'lipoC2': 7.5, 'temp': 24.13, 'lipoC3S3': 11.47, 'rot1': 0, 'rot0': 0, 'rot3': 0, 'rot2': 0, 'state': 'normal', 'yaw': 0.15, 'datetime': '2018-10-17 10:06:57.475481', 'mgs': 0, 'depth': 0.546, 'time': 1.84, 'pitch': 1.0, 'roll': -4.83}
{'lipoC2': 7.5, 'temp': 24.06, 'lipoC3S3': 11.48, 'rot1': 0, 'rot0': 0, 'rot3': 0, 'rot2': 0, 'state': 'normal', 'yaw': 0.23, 'datetime': '2018-10-17 10:06:57.483287', 'mgs': 0, 'depth': 0.546, 'time': 1.94, 'pitch': 0.98, 'roll': -4.75}
{'lipoC2': 7.5, 'temp': 24.06, 'lipoC3S3': 11.48, 'rot1': 0, 'rot0': 0, 'rot3': 0, 'rot2': 0, 'state': 'normal', 'yaw': 0.3, 'datetime': '2018-10-17 10:06:57.492438', 'mgs': 0, 'depth': 0.47, 'time': 2.04, 'pitch': 0.98, 'roll': -4.76}
{'lipoC2': 7.5, 'temp': 24.06, 'lipoC3S3': 11.47, 'rot1': 0, 'rot0': 0, 'rot3': 0, 'rot2': 0, 'state': 'normal', 'yaw': 0.32, 'datetime': '2018-10-17 10:06:57.505830', 'mgs': 0, 'depth': 0.546, 'time': 2.14, 'pitch': 0.98, 'roll': -4.73}
{'lipoC2': 7.51, 'temp': 24.13, 'lipoC3S3': 11.47, 'rot1': 0, 'rot0': 0, 'rot3': 0, 'rot2': 0, 'state': 'normal', 'yaw': 0.33, 'datetime': '2018-10-17 10:06:57.519249', 'mgs': 0, 'depth': 0.546, 'time': 2.23, 'pitch': 0.98, 'roll': -4.59}
{'lipoC2': 7.5, 'temp': 24.13, 'lipoC3S3': 11.47, 'rot1': 0, 'rot0': 0, 'rot3': 0, 'rot2': 0, 'state': 'normal', 'yaw': 0.32, 'datetime': '2018-10-17 10:06:57.527183', 'mgs': 0, 'depth': 0.546, 'time': 2.33, 'pitch': 0.98, 'roll': -4.55}
{'lipoC2': 7.5, 'temp': 24.13, 'lipoC3S3': 11.48, 'rot1': 0, 'rot0': 0, 'rot3': 0, 'rot2': 0, 'state': 'normal', 'yaw': 0.33, 'datetime': '2018-10-17 10:06:57.537078', 'mgs': 0, 'depth': 0.546, 'time': 2.43, 'pitch': 0.98, 'roll': -4.64}
{'lipoC2': 7.5, 'temp': 24.13, 'lipoC3S3': 11.47, 'rot1': 0, 'rot0': 0, 'rot3': 0, 'rot2': 0, 'state': 'normal', 'yaw': 0.32, 'datetime': '2018-10-17 10:06:57.550667', 'mgs': 0, 'depth': 0.546, 'time': 2.53, 'pitch': 0.97, 'roll': -4.72}
{'lipoC2': 7.5, 'temp': 24.13, 'lipoC3S3': 11.47, 'rot1': 0, 'rot0': 0, 'rot3': 0, 'rot2': 0, 'state': 'normal', 'yaw': 0.32, 'datetime': '2018-10-17 10:06:57.564073', 'mgs': 0, 'depth': 0.546, 'time': 2.62, 'pitch': 0.96, 'roll': -4.74}
{'lipoC2': 7.5, 'temp': 24.13, 'lipoC3S3': 11.47, 'rot1': 0, 'rot0': 0, 'rot3': 0, 'rot2': 0, 'state': 'normal', 'yaw': 0.32, 'datetime': '2018-10-17 10:06:57.571888', 'mgs': 0, 'depth': 0.47, 'time': 2.72, 'pitch': 0.96, 'roll': -4.75}
{'lipoC2': 7.5, 'temp': 24.13, 'lipoC3S3': 11.47, 'rot1': 0, 'rot0': 0, 'rot3': 0, 'rot2': 0, 'state': 'normal', 'yaw': 0.31, 'datetime': '2018-10-17 10:06:57.581030', 'mgs': 0, 'depth': 0.546, 'time': 2.82, 'pitch': 1.01, 'roll': -4.73}
{'lipoC2': 7.5, 'temp': 24.13, 'lipoC3S3': 11.48, 'rot1': 0, 'rot0': 0, 'rot3': 0, 'rot2': 0, 'state': 'normal', 'yaw': 0.31, 'datetime': '2018-10-17 10:06:57.594432', 'mgs': 0, 'depth': 0.47, 'time': 2.91, 'pitch': 1.02, 'roll': -4.74}
{'lipoC2': 7.5, 'temp': 24.13, 'lipoC3S3': 11.48, 'rot1': 0, 'rot0': 0, 'rot3': 0, 'rot2': 0, 'state': 'normal', 'yaw': 0.32, 'datetime': '2018-10-17 10:06:57.607796', 'mgs': 0, 'depth': 0.546, 'time': 3.01, 'pitch': 0.99, 'roll': -4.81}
{'lipoC2': 7.5, 'temp': 24.13, 'lipoC3S3': 11.48, 'rot1': 0, 'rot0': 0, 'rot3': 0, 'rot2': 0, 'state': 'normal', 'yaw': 0.39, 'datetime': '2018-10-17 10:06:57.615600', 'mgs': 0, 'depth': 0.546, 'time': 3.11, 'pitch': 0.91, 'roll': -4.82}
{'lipoC2': 7.5, 'temp': 24.06, 'lipoC3S3': 11.48, 'rot1': 0, 'rot0': 0, 'rot3': 0, 'rot2': 0, 'state': 'normal', 'yaw': 0.46, 'datetime': '2018-10-17 10:06:57.624844', 'mgs': 0, 'depth': 0.546, 'time': 3.21, 'pitch': 0.8, 'roll': -4.78}
{'lipoC2': 7.5, 'temp': 24.06, 'lipoC3S3': 11.47, 'rot1': 0, 'rot0': 0, 'rot3': 0, 'rot2': 0, 'state': 'normal', 'yaw': 0.53, 'datetime': '2018-10-17 10:06:57.639156', 'mgs': 0, 'depth': 0.546, 'time': 3.3, 'pitch': 0.67, 'roll': -4.73}
{'lipoC2': 7.5, 'temp': 24.13, 'lipoC3S3': 11.48, 'rot1': 0, 'rot0': 0, 'rot3': 0, 'rot2': 0, 'state': 'normal', 'yaw': 0.55, 'datetime': '2018-10-17 10:06:57.652603', 'mgs': 0, 'depth': 0.47, 'time': 3.4, 'pitch': 0.57, 'roll': -4.78}
{'lipoC2': 7.5, 'temp': 24.13, 'lipoC3S3': 11.48, 'rot1': 0, 'rot0': 0, 'rot3': 0, 'rot2': 0, 'state': 'normal', 'yaw': 0.56, 'datetime': '2018-10-17 10:06:57.660409', 'mgs': 0, 'depth': 0.546, 'time': 3.5, 'pitch': 0.53, 'roll': -4.89}
{'lipoC2': 7.5, 'temp': 24.13, 'lipoC3S3': 11.29, 'rot1': 0, 'rot0': 0, 'rot3': 0, 'rot2': 1, 'state': 'normal', 'yaw': 0.55, 'datetime': '2018-10-17 10:06:57.669551', 'mgs': 0, 'depth': 0.623, 'time': 3.6, 'pitch': 0.54, 'roll': -4.98}
{'lipoC2': 7.51, 'temp': 24.13, 'lipoC3S3': 11.31, 'rot1': 1, 'rot0': 1, 'rot3': 0, 'rot2': 1, 'state': 'normal', 'yaw': 0.47, 'datetime': '2018-10-17 10:06:57.682933', 'mgs': 0, 'depth': 1.004, 'time': 3.69, 'pitch': 0.66, 'roll': -4.76}
{'lipoC2': 7.51, 'temp': 24.13, 'lipoC3S3': 11.3, 'rot1': 2, 'rot0': 2, 'rot3': 1, 'rot2': 1, 'state': 'normal', 'yaw': 0.31, 'datetime': '2018-10-17 10:06:57.696512', 'mgs': 0, 'depth': 2.225, 'time': 3.79, 'pitch': 0.72, 'roll': -4.26}
{'lipoC2': 7.51, 'temp': 24.06, 'lipoC3S3': 11.29, 'rot1': 3, 'rot0': 3, 'rot3': 1, 'rot2': 2, 'state': 'normal', 'yaw': 0.03, 'datetime': '2018-10-17 10:06:57.704524', 'mgs': 0, 'depth': 1.691, 'time': 3.89, 'pitch': 0.68, 'roll': -3.78}
{'lipoC2': 7.52, 'temp': 24.06, 'lipoC3S3': 11.22, 'rot1': 4, 'rot0': 4, 'rot3': 2, 'rot2': 2, 'state': 'normal', 'yaw': -0.19, 'datetime': '2018-10-17 10:06:57.714082', 'mgs': 0, 'depth': 0.623, 'time': 3.98, 'pitch': 0.52, 'roll': -3.72}
{'lipoC2': 7.51, 'temp': 24.06, 'lipoC3S3': 11.14, 'rot1': 5, 'rot0': 5, 'rot3': 2, 'rot2': 3, 'state': 'normal', 'yaw': -0.25, 'datetime': '2018-10-17 10:06:57.737599', 'mgs': 0, 'depth': 0.775, 'time': 4.08, 'pitch': 0.38, 'roll': -4.13}
{'lipoC2': 7.5, 'temp': 24.06, 'lipoC3S3': 11.26, 'rot1': 6, 'rot0': 6, 'rot3': 2, 'rot2': 3, 'state': 'normal', 'yaw': -0.17, 'datetime': '2018-10-17 10:06:57.834266', 'mgs': 0, 'depth': 0.775, 'time': 4.18, 'pitch': 0.17, 'roll': -4.82}
{'lipoC2': 7.5, 'temp': 24.06, 'lipoC3S3': 11.31, 'rot1': 7, 'rot0': 7, 'rot3': 3, 'rot2': 4, 'state': 'normal', 'yaw': 0.01, 'datetime': '2018-10-17 10:06:57.930930', 'mgs': 0, 'depth': 0.851, 'time': 4.27, 'pitch': -0.04, 'roll': -5.45}
{'lipoC2': 7.52, 'temp': 24.13, 'lipoC3S3': 11.22, 'rot1': 8, 'rot0': 8, 'rot3': 3, 'rot2': 4, 'state': 'normal', 'yaw': 0.16, 'datetime': '2018-10-17 10:06:58.028149', 'mgs': 0, 'depth': 1.233, 'time': 4.37, 'pitch': -0.12, 'roll': -5.81}
{'lipoC2': 7.5, 'temp': 24.13, 'lipoC3S3': 11.3, 'rot1': 9, 'rot0': 9, 'rot3': 3, 'rot2': 5, 'state': 'normal', 'yaw': 0.2, 'datetime': '2018-10-17 10:06:58.126117', 'mgs': 0, 'depth': 2.454, 'time': 4.47, 'pitch': -0.13, 'roll': -5.92}
{'lipoC2': 7.51, 'temp': 24.13, 'lipoC3S3': 11.14, 'rot1': 10, 'rot0': 10, 'rot3': 4, 'rot2': 5, 'state': 'normal', 'yaw': 0.2, 'datetime': '2018-10-17 10:06:58.223793', 'mgs': 0, 'depth': 0.928, 'time': 4.57, 'pitch': -0.11, 'roll': -5.74}
{'lipoC2': 7.52, 'temp': 24.13, 'lipoC3S3': 11.29, 'rot1': 11, 'rot0': 12, 'rot3': 4, 'rot2': 6, 'state': 'normal', 'yaw': 0.14, 'datetime': '2018-10-17 10:06:58.320770', 'mgs': 0, 'depth': 1.538, 'time': 4.66, 'pitch': -0.07, 'roll': -5.35}
{'lipoC2': 7.51, 'temp': 24.13, 'lipoC3S3': 11.29, 'rot1': 12, 'rot0': 13, 'rot3': 5, 'rot2': 6, 'state': 'normal', 'yaw': 0.0, 'datetime': '2018-10-17 10:06:58.418605', 'mgs': 0, 'depth': 2.377, 'time': 4.76, 'pitch': -0.05, 'roll': -4.88}
{'lipoC2': 7.5, 'temp': 24.06, 'lipoC3S3': 11.29, 'rot1': 13, 'rot0': 14, 'rot3': 5, 'rot2': 7, 'state': 'normal', 'yaw': -0.18, 'datetime': '2018-10-17 10:06:58.516918', 'mgs': 0, 'depth': 1.157, 'time': 4.86, 'pitch': -0.06, 'roll': -4.35}
{'lipoC2': 7.51, 'temp': 24.06, 'lipoC3S3': 11.32, 'rot1': 14, 'rot0': 15, 'rot3': 5, 'rot2': 7, 'state': 'normal', 'yaw': -0.43, 'datetime': '2018-10-17 10:06:58.614632', 'mgs': 0, 'depth': 1.309, 'time': 4.96, 'pitch': -0.08, 'roll': -3.76}
{'lipoC2': 7.5, 'temp': 24.06, 'lipoC3S3': 11.34, 'rot1': 15, 'rot0': 16, 'rot3': 5, 'rot2': 7, 'state': 'normal', 'yaw': -0.71, 'datetime': '2018-10-17 10:06:58.713867', 'mgs': 0, 'depth': 2.454, 'time': 5.05, 'pitch': -0.1, 'roll': -3.08}
{'lipoC2': 7.5, 'temp': 24.13, 'lipoC3S3': 11.36, 'rot1': 16, 'rot0': 17, 'rot3': 5, 'rot2': 7, 'state': 'normal', 'yaw': -0.98, 'datetime': '2018-10-17 10:06:58.812161', 'mgs': 0, 'depth': 1.385, 'time': 5.15, 'pitch': -0.11, 'roll': -2.41}
{'lipoC2': 7.5, 'temp': 24.13, 'lipoC3S3': 11.18, 'rot1': 17, 'rot0': 18, 'rot3': 5, 'rot2': 7, 'state': 'normal', 'yaw': -1.29, 'datetime': '2018-10-17 10:06:58.911489', 'mgs': 0, 'depth': 1.614, 'time': 5.25, 'pitch': -0.13, 'roll': -1.59}
{'lipoC2': 7.51, 'temp': 24.06, 'lipoC3S3': 11.25, 'rot1': 18, 'rot0': 19, 'rot3': 5, 'rot2': 7, 'state': 'normal', 'yaw': -1.58, 'datetime': '2018-10-17 10:06:59.006841', 'mgs': 0, 'depth': 1.462, 'time': 5.35, 'pitch': -0.13, 'roll': -0.82}
{'lipoC2': 7.51, 'temp': 24.06, 'lipoC3S3': 11.32, 'rot1': 19, 'rot0': 20, 'rot3': 6, 'rot2': 8, 'state': 'normal', 'yaw': -1.64, 'datetime': '2018-10-17 10:06:59.103772', 'mgs': 0, 'depth': 2.53, 'time': 5.44, 'pitch': -0.14, 'roll': -0.28}
{'lipoC2': 7.5, 'temp': 24.06, 'lipoC3S3': 11.32, 'rot1': 20, 'rot0': 21, 'rot3': 6, 'rot2': 8, 'state': 'normal', 'yaw': -1.48, 'datetime': '2018-10-17 10:06:59.200892', 'mgs': 0, 'depth': 1.92, 'time': 5.54, 'pitch': -0.13, 'roll': 0.02}
{'lipoC2': 7.5, 'temp': 24.13, 'lipoC3S3': 11.35, 'rot1': 21, 'rot0': 22, 'rot3': 6, 'rot2': 9, 'state': 'normal', 'yaw': -1.17, 'datetime': '2018-10-17 10:06:59.297819', 'mgs': 0, 'depth': 1.843, 'time': 5.64, 'pitch': -0.13, 'roll': 0.11}
{'lipoC2': 7.51, 'temp': 24.13, 'lipoC3S3': 11.3, 'rot1': 22, 'rot0': 22, 'rot3': 6, 'rot2': 9, 'state': 'normal', 'yaw': -0.76, 'datetime': '2018-10-17 10:06:59.394789', 'mgs': 0, 'depth': 2.072, 'time': 5.74, 'pitch': -0.12, 'roll': 0.11}
{'lipoC2': 7.51, 'temp': 24.13, 'lipoC3S3': 11.38, 'rot1': 23, 'rot0': 23, 'rot3': 6, 'rot2': 9, 'state': 'normal', 'yaw': -0.29, 'datetime': '2018-10-17 10:06:59.491728', 'mgs': 0, 'depth': 2.682, 'time': 5.83, 'pitch': -0.13, 'roll': 0.08}
{'lipoC2': 7.5, 'temp': 24.13, 'lipoC3S3': 11.38, 'rot1': 24, 'rot0': 24, 'rot3': 6, 'rot2': 9, 'state': 'normal', 'yaw': 0.34, 'datetime': '2018-10-17 10:06:59.588766', 'mgs': 0, 'depth': 2.225, 'time': 5.93, 'pitch': -0.13, 'roll': -0.08}
{'lipoC2': 7.5, 'temp': 24.13, 'lipoC3S3': 11.38, 'rot1': 25, 'rot0': 25, 'rot3': 6, 'rot2': 9, 'state': 'normal', 'yaw': 1.13, 'datetime': '2018-10-17 10:06:59.685712', 'mgs': 0, 'depth': 2.225, 'time': 6.03, 'pitch': -0.13, 'roll': -0.25}
{'lipoC2': 7.51, 'temp': 24.13, 'lipoC3S3': 11.35, 'rot1': 26, 'rot0': 26, 'rot3': 6, 'rot2': 9, 'state': 'normal', 'yaw': 1.92, 'datetime': '2018-10-17 10:06:59.783981', 'mgs': 0, 'depth': 2.606, 'time': 6.12, 'pitch': -0.13, 'roll': -0.42}
{'lipoC2': 7.5, 'temp': 24.13, 'lipoC3S3': 11.36, 'rot1': 27, 'rot0': 27, 'rot3': 6, 'rot2': 9, 'state': 'normal', 'yaw': 2.44, 'datetime': '2018-10-17 10:06:59.882236', 'mgs': 0, 'depth': 2.301, 'time': 6.22, 'pitch': -0.21, 'roll': -0.6}
{'lipoC2': 7.5, 'temp': 24.13, 'lipoC3S3': 11.3, 'rot1': 27, 'rot0': 28, 'rot3': 6, 'rot2': 9, 'state': 'normal', 'yaw': 2.5, 'datetime': '2018-10-17 10:06:59.980097', 'mgs': 0, 'depth': 2.377, 'time': 6.32, 'pitch': -0.36, 'roll': -0.76}
{'lipoC2': 7.51, 'temp': 24.13, 'lipoC3S3': 11.35, 'rot1': 28, 'rot0': 29, 'rot3': 6, 'rot2': 9, 'state': 'normal', 'yaw': 2.22, 'datetime': '2018-10-17 10:07:00.077133', 'mgs': 0, 'depth': 2.682, 'time': 6.42, 'pitch': -0.52, 'roll': -0.92}
{'lipoC2': 7.51, 'temp': 24.13, 'lipoC3S3': 11.27, 'rot1': 29, 'rot0': 30, 'rot3': 6, 'rot2': 9, 'state': 'normal', 'yaw': 1.71, 'datetime': '2018-10-17 10:07:00.174757', 'mgs': 0, 'depth': 2.606, 'time': 6.51, 'pitch': -0.65, 'roll': -1.07}
{'lipoC2': 7.5, 'temp': 24.06, 'lipoC3S3': 11.38, 'rot1': 30, 'rot0': 31, 'rot3': 6, 'rot2': 9, 'state': 'normal', 'yaw': 0.93, 'datetime': '2018-10-17 10:07:00.273089', 'mgs': 0, 'depth': 2.682, 'time': 6.61, 'pitch': -0.77, 'roll': -1.22}
{'lipoC2': 7.5, 'temp': 24.06, 'lipoC3S3': 11.36, 'rot1': 30, 'rot0': 32, 'rot3': 6, 'rot2': 9, 'state': 'normal', 'yaw': -0.03, 'datetime': '2018-10-17 10:07:00.370703', 'mgs': 0, 'depth': 2.759, 'time': 6.71, 'pitch': -0.88, 'roll': -1.36}
{'lipoC2': 7.5, 'temp': 24.13, 'lipoC3S3': 11.31, 'rot1': 31, 'rot0': 33, 'rot3': 6, 'rot2': 10, 'state': 'normal', 'yaw': -1.13, 'datetime': '2018-10-17 10:07:00.467870', 'mgs': 0, 'depth': 2.759, 'time': 6.81, 'pitch': -0.98, 'roll': -1.4}
{'lipoC2': 7.5, 'temp': 24.13, 'lipoC3S3': 11.26, 'rot1': 32, 'rot0': 34, 'rot3': 6, 'rot2': 10, 'state': 'normal', 'yaw': -2.24, 'datetime': '2018-10-17 10:07:00.565849', 'mgs': 0, 'depth': 2.835, 'time': 6.91, 'pitch': -1.12, 'roll': -1.31}
{'lipoC2': 7.5, 'temp': 24.13, 'lipoC3S3': 11.32, 'rot1': 33, 'rot0': 35, 'rot3': 7, 'rot2': 10, 'state': 'normal', 'yaw': -3.17, 'datetime': '2018-10-17 10:07:00.664909', 'mgs': 0, 'depth': 2.988, 'time': 7.01, 'pitch': -1.18, 'roll': -1.1}
{'lipoC2': 7.52, 'temp': 24.06, 'lipoC3S3': 11.25, 'rot1': 34, 'rot0': 36, 'rot3': 7, 'rot2': 11, 'state': 'normal', 'yaw': -3.66, 'datetime': '2018-10-17 10:07:00.761523', 'mgs': 0, 'depth': 2.835, 'time': 7.1, 'pitch': -1.19, 'roll': -0.81}
{'lipoC2': 7.5, 'temp': 24.06, 'lipoC3S3': 11.31, 'rot1': 35, 'rot0': 36, 'rot3': 7, 'rot2': 11, 'state': 'normal', 'yaw': -3.77, 'datetime': '2018-10-17 10:07:00.858814', 'mgs': 0, 'depth': 2.988, 'time': 7.2, 'pitch': -1.2, 'roll': -0.46}
{'lipoC2': 7.5, 'temp': 24.06, 'lipoC3S3': 11.3, 'rot1': 36, 'rot0': 37, 'rot3': 8, 'rot2': 12, 'state': 'normal', 'yaw': -3.61, 'datetime': '2018-10-17 10:07:00.956148', 'mgs': 0, 'depth': 3.751, 'time': 7.3, 'pitch': -1.19, 'roll': -0.11}
{'lipoC2': 7.5, 'temp': 24.06, 'lipoC3S3': 11.32, 'rot1': 37, 'rot0': 38, 'rot3': 8, 'rot2': 12, 'state': 'normal', 'yaw': -3.27, 'datetime': '2018-10-17 10:07:01.053570', 'mgs': 0, 'depth': 3.064, 'time': 7.39, 'pitch': -1.19, 'roll': 0.31}
{'lipoC2': 7.52, 'temp': 24.06, 'lipoC3S3': 11.25, 'rot1': 38, 'rot0': 39, 'rot3': 8, 'rot2': 13, 'state': 'normal', 'yaw': -2.77, 'datetime': '2018-10-17 10:07:01.150457', 'mgs': 0, 'depth': 2.911, 'time': 7.49, 'pitch': -1.2, 'roll': 0.75}
{'lipoC2': 7.5, 'temp': 24.13, 'lipoC3S3': 11.31, 'rot1': 39, 'rot0': 40, 'rot3': 9, 'rot2': 14, 'state': 'normal', 'yaw': -2.16, 'datetime': '2018-10-17 10:07:01.247906', 'mgs': 0, 'depth': 3.522, 'time': 7.59, 'pitch': -1.21, 'roll': 1.18}
{'lipoC2': 7.51, 'temp': 24.13, 'lipoC3S3': 11.21, 'rot1': 40, 'rot0': 40, 'rot3': 9, 'rot2': 14, 'state': 'normal', 'yaw': -1.53, 'datetime': '2018-10-17 10:07:01.345012', 'mgs': 0, 'depth': 3.064, 'time': 7.69, 'pitch': -1.22, 'roll': 1.54}
{'lipoC2': 7.5, 'temp': 24.13, 'lipoC3S3': 11.31, 'rot1': 41, 'rot0': 41, 'rot3': 9, 'rot2': 15, 'state': 'normal', 'yaw': -0.77, 'datetime': '2018-10-17 10:07:01.442024', 'mgs': 0, 'depth': 3.445, 'time': 7.78, 'pitch': -1.25, 'roll': 1.87}
{'lipoC2': 7.5, 'temp': 24.13, 'lipoC3S3': 11.27, 'rot1': 42, 'rot0': 42, 'rot3': 10, 'rot2': 15, 'state': 'normal', 'yaw': 0.04, 'datetime': '2018-10-17 10:07:01.539500', 'mgs': 0, 'depth': 3.064, 'time': 7.88, 'pitch': -1.26, 'roll': 2.15}
{'lipoC2': 7.5, 'temp': 24.13, 'lipoC3S3': 11.3, 'rot1': 43, 'rot0': 43, 'rot3': 10, 'rot2': 16, 'state': 'normal', 'yaw': 0.84, 'datetime': '2018-10-17 10:07:01.637818', 'mgs': 0, 'depth': 3.445, 'time': 7.98, 'pitch': -1.28, 'roll': 2.37}
{'lipoC2': 7.51, 'temp': 24.13, 'lipoC3S3': 11.27, 'rot1': 44, 'rot0': 44, 'rot3': 10, 'rot2': 16, 'state': 'normal', 'yaw': 1.82, 'datetime': '2018-10-17 10:07:01.736449', 'mgs': 0, 'depth': 3.445, 'time': 8.08, 'pitch': -1.31, 'roll': 2.6}
{'lipoC2': 7.5, 'temp': 24.13, 'lipoC3S3': 11.27, 'rot1': 45, 'rot0': 45, 'rot3': 11, 'rot2': 17, 'state': 'normal', 'yaw': 2.68, 'datetime': '2018-10-17 10:07:01.835220', 'mgs': 0, 'depth': 3.522, 'time': 8.18, 'pitch': -1.35, 'roll': 2.94}
{'lipoC2': 7.51, 'temp': 24.13, 'lipoC3S3': 11.26, 'rot1': 46, 'rot0': 46, 'rot3': 11, 'rot2': 17, 'state': 'normal', 'yaw': 3.32, 'datetime': '2018-10-17 10:07:01.932943', 'mgs': 0, 'depth': 4.132, 'time': 8.27, 'pitch': -1.39, 'roll': 3.39}
{'lipoC2': 7.5, 'temp': 24.13, 'lipoC3S3': 11.14, 'rot1': 47, 'rot0': 47, 'rot3': 12, 'rot2': 18, 'state': 'normal', 'yaw': 3.82, 'datetime': '2018-10-17 10:07:02.030308', 'mgs': 0, 'depth': 3.064, 'time': 8.37, 'pitch': -1.42, 'roll': 3.93}
{'lipoC2': 7.51, 'temp': 24.13, 'lipoC3S3': 11.29, 'rot1': 48, 'rot0': 48, 'rot3': 12, 'rot2': 18, 'state': 'normal', 'yaw': 4.14, 'datetime': '2018-10-17 10:07:02.128377', 'mgs': 0, 'depth': 3.903, 'time': 8.47, 'pitch': -1.44, 'roll': 4.49}
{'lipoC2': 7.5, 'temp': 24.13, 'lipoC3S3': 11.29, 'rot1': 49, 'rot0': 49, 'rot3': 12, 'rot2': 19, 'state': 'normal', 'yaw': 4.22, 'datetime': '2018-10-17 10:07:02.227031', 'mgs': 0, 'depth': 3.827, 'time': 8.57, 'pitch': -1.49, 'roll': 5.08}
{'lipoC2': 7.5, 'temp': 24.13, 'lipoC3S3': 11.13, 'rot1': 49, 'rot0': 50, 'rot3': 13, 'rot2': 19, 'state': 'normal', 'yaw': 3.92, 'datetime': '2018-10-17 10:07:02.325415', 'mgs': 0, 'depth': 2.988, 'time': 8.67, 'pitch': -1.57, 'roll': 5.58}
{'lipoC2': 7.5, 'temp': 24.13, 'lipoC3S3': 11.3, 'rot1': 50, 'rot0': 51, 'rot3': 13, 'rot2': 20, 'state': 'normal', 'yaw': 3.3, 'datetime': '2018-10-17 10:07:02.422835', 'mgs': 0, 'depth': 2.988, 'time': 8.77, 'pitch': -1.68, 'roll': 5.97}
{'lipoC2': 7.51, 'temp': 24.13, 'lipoC3S3': 11.27, 'rot1': 51, 'rot0': 53, 'rot3': 14, 'rot2': 20, 'state': 'normal', 'yaw': 2.39, 'datetime': '2018-10-17 10:07:02.520448', 'mgs': 0, 'depth': 4.285, 'time': 8.86, 'pitch': -1.8, 'roll': 6.23}
{'lipoC2': 7.52, 'temp': 24.13, 'lipoC3S3': 11.22, 'rot1': 52, 'rot0': 54, 'rot3': 14, 'rot2': 21, 'state': 'normal', 'yaw': 1.37, 'datetime': '2018-10-17 10:07:02.618781', 'mgs': 0, 'depth': 3.064, 'time': 8.96, 'pitch': -1.9, 'roll': 6.41}
{'lipoC2': 7.52, 'temp': 24.19, 'lipoC3S3': 11.22, 'rot1': 52, 'rot0': 55, 'rot3': 14, 'rot2': 21, 'state': 'normal', 'yaw': 0.02, 'datetime': '2018-10-17 10:07:02.717714', 'mgs': 0, 'depth': 3.369, 'time': 9.06, 'pitch': -1.98, 'roll': 6.48}
{'lipoC2': 7.5, 'temp': 24.19, 'lipoC3S3': 11.23, 'rot1': 53, 'rot0': 56, 'rot3': 15, 'rot2': 22, 'state': 'normal', 'yaw': -1.5, 'datetime': '2018-10-17 10:07:02.814973', 'mgs': 0, 'depth': 2.835, 'time': 9.16, 'pitch': -2.05, 'roll': 6.42}
{'lipoC2': 7.5, 'temp': 24.13, 'lipoC3S3': 11.3, 'rot1': 54, 'rot0': 57, 'rot3': 15, 'rot2': 22, 'state': 'normal', 'yaw': -3.09, 'datetime': '2018-10-17 10:07:02.912322', 'mgs': 0, 'depth': 3.217, 'time': 9.26, 'pitch': -2.13, 'roll': 6.26}
{'lipoC2': 7.51, 'temp': 24.13, 'lipoC3S3': 11.29, 'rot1': 55, 'rot0': 58, 'rot3': 16, 'rot2': 23, 'state': 'normal', 'yaw': -4.17, 'datetime': '2018-10-17 10:07:03.009880', 'mgs': 0, 'depth': 3.445, 'time': 9.35, 'pitch': -2.21, 'roll': 6.02}
{'lipoC2': 7.51, 'temp': 24.06, 'lipoC3S3': 11.25, 'rot1': 56, 'rot0': 59, 'rot3': 16, 'rot2': 23, 'state': 'normal', 'yaw': -4.95, 'datetime': '2018-10-17 10:07:03.107391', 'mgs': 0, 'depth': 2.606, 'time': 9.45, 'pitch': -2.3, 'roll': 5.72}
{'lipoC2': 7.5, 'temp': 24.06, 'lipoC3S3': 11.31, 'rot1': 57, 'rot0': 59, 'rot3': 16, 'rot2': 24, 'state': 'normal', 'yaw': -5.35, 'datetime': '2018-10-17 10:07:03.204794', 'mgs': 0, 'depth': 2.53, 'time': 9.55, 'pitch': -2.37, 'roll': 5.4}
{'lipoC2': 7.49, 'temp': 24.06, 'lipoC3S3': 11.29, 'rot1': 58, 'rot0': 60, 'rot3': 17, 'rot2': 24, 'state': 'normal', 'yaw': -5.44, 'datetime': '2018-10-17 10:07:03.302181', 'mgs': 0, 'depth': 3.369, 'time': 9.65, 'pitch': -2.38, 'roll': 5.06}
{'lipoC2': 7.51, 'temp': 24.13, 'lipoC3S3': 11.29, 'rot1': 59, 'rot0': 61, 'rot3': 17, 'rot2': 25, 'state': 'normal', 'yaw': -5.31, 'datetime': '2018-10-17 10:07:03.399826', 'mgs': 0, 'depth': 3.369, 'time': 9.74, 'pitch': -2.39, 'roll': 4.71}
{'lipoC2': 7.5, 'temp': 24.13, 'lipoC3S3': 11.22, 'rot1': 60, 'rot0': 62, 'rot3': 18, 'rot2': 25, 'state': 'normal', 'yaw': -4.98, 'datetime': '2018-10-17 10:07:03.497379', 'mgs': 0, 'depth': 2.301, 'time': 9.84, 'pitch': -2.42, 'roll': 4.27}
{'lipoC2': 7.5, 'temp': 24.13, 'lipoC3S3': 11.35, 'rot1': 61, 'rot0': 62, 'rot3': 18, 'rot2': 26, 'state': 'normal', 'yaw': -4.46, 'datetime': '2018-10-17 10:07:03.594736', 'mgs': 0, 'depth': 2.225, 'time': 9.94, 'pitch': -2.4, 'roll': 3.81}
{'lipoC2': 7.5, 'temp': 24.13, 'lipoC3S3': 11.34, 'rot1': 62, 'rot0': 63, 'rot3': 18, 'rot2': 26, 'state': 'normal', 'yaw': -3.79, 'datetime': '2018-10-17 10:07:03.692096', 'mgs': 0, 'depth': 3.217, 'time': 10.04, 'pitch': -2.23, 'roll': 3.23}
{'lipoC2': 7.5, 'temp': 24.13, 'lipoC3S3': 11.35, 'rot1': 63, 'rot0': 64, 'rot3': 18, 'rot2': 26, 'state': 'normal', 'yaw': -3.1, 'datetime': '2018-10-17 10:07:03.790796', 'mgs': 0, 'depth': 3.369, 'time': 10.14, 'pitch': -2.0, 'roll': 2.57}
{'lipoC2': 7.5, 'temp': 24.19, 'lipoC3S3': 11.35, 'rot1': 64, 'rot0': 65, 'rot3': 18, 'rot2': 26, 'state': 'normal', 'yaw': -2.25, 'datetime': '2018-10-17 10:07:03.889611', 'mgs': 0, 'depth': 2.454, 'time': 10.23, 'pitch': -1.67, 'roll': 1.77}
{'lipoC2': 7.51, 'temp': 24.19, 'lipoC3S3': 11.29, 'rot1': 65, 'rot0': 65, 'rot3': 18, 'rot2': 26, 'state': 'normal', 'yaw': -1.29, 'datetime': '2018-10-17 10:07:03.988449', 'mgs': 0, 'depth': 3.217, 'time': 10.33, 'pitch': -1.34, 'roll': 0.97}
{'lipoC2': 7.5, 'temp': 24.13, 'lipoC3S3': 11.19, 'rot1': 66, 'rot0': 66, 'rot3': 18, 'rot2': 26, 'state': 'normal', 'yaw': -0.23, 'datetime': '2018-10-17 10:07:04.092859', 'mgs': 0, 'depth': 2.072, 'time': 10.43, 'pitch': -1.11, 'roll': 0.31}
{'lipoC2': 7.5, 'temp': 24.13, 'lipoC3S3': 11.32, 'rot1': 67, 'rot0': 67, 'rot3': 19, 'rot2': 27, 'state': 'normal', 'yaw': 0.97, 'datetime': '2018-10-17 10:07:04.180248', 'mgs': 0, 'depth': 1.996, 'time': 10.53, 'pitch': -0.93, 'roll': -0.17}
{'lipoC2': 7.51, 'temp': 24.13, 'lipoC3S3': 11.31, 'rot1': 68, 'rot0': 68, 'rot3': 19, 'rot2': 27, 'state': 'normal', 'yaw': 2.13, 'datetime': '2018-10-17 10:07:04.278521', 'mgs': 0, 'depth': 2.759, 'time': 10.63, 'pitch': -0.8, 'roll': -0.46}
{'lipoC2': 7.51, 'temp': 24.06, 'lipoC3S3': 11.29, 'rot1': 69, 'rot0': 68, 'rot3': 20, 'rot2': 28, 'state': 'normal', 'yaw': 3.48, 'datetime': '2018-10-17 10:07:04.377261', 'mgs': 0, 'depth': 2.911, 'time': 10.73, 'pitch': -0.7, 'roll': -0.67}
{'lipoC2': 7.5, 'temp': 24.06, 'lipoC3S3': 11.3, 'rot1': 70, 'rot0': 69, 'rot3': 20, 'rot2': 28, 'state': 'normal', 'yaw': 4.83, 'datetime': '2018-10-17 10:07:04.475983', 'mgs': 0, 'depth': 1.996, 'time': 10.82, 'pitch': -0.68, 'roll': -0.75}
{'lipoC2': 7.52, 'temp': 24.13, 'lipoC3S3': 11.23, 'rot1': 71, 'rot0': 70, 'rot3': 20, 'rot2': 29, 'state': 'normal', 'yaw': 5.69, 'datetime': '2018-10-17 10:07:04.573311', 'mgs': 0, 'depth': 1.843, 'time': 10.92, 'pitch': -0.78, 'roll': -0.75}
{'lipoC2': 7.5, 'temp': 24.13, 'lipoC3S3': 11.32, 'rot1': 72, 'rot0': 72, 'rot3': 21, 'rot2': 29, 'state': 'normal', 'yaw': 6.0, 'datetime': '2018-10-17 10:07:04.670769', 'mgs': 0, 'depth': 1.92, 'time': 11.02, 'pitch': -0.97, 'roll': -0.64}
{'lipoC2': 7.5, 'temp': 24.13, 'lipoC3S3': 11.35, 'rot1': 72, 'rot0': 73, 'rot3': 21, 'rot2': 30, 'state': 'normal', 'yaw': 5.89, 'datetime': '2018-10-17 10:07:04.769305', 'mgs': 0, 'depth': 1.767, 'time': 11.12, 'pitch': -1.2, 'roll': -0.49}
{'lipoC2': 7.5, 'temp': 24.13, 'lipoC3S3': 11.36, 'rot1': 73, 'rot0': 74, 'rot3': 21, 'rot2': 30, 'state': 'normal', 'yaw': 5.41, 'datetime': '2018-10-17 10:07:04.868010', 'mgs': 0, 'depth': 1.767, 'time': 11.22, 'pitch': -1.43, 'roll': -0.4}
{'lipoC2': 7.5, 'temp': 24.13, 'lipoC3S3': 11.35, 'rot1': 74, 'rot0': 75, 'rot3': 21, 'rot2': 30, 'state': 'normal', 'yaw': 4.61, 'datetime': '2018-10-17 10:07:04.973391', 'mgs': 0, 'depth': 2.53, 'time': 11.31, 'pitch': -1.69, 'roll': -0.37}
{'lipoC2': 7.5, 'temp': 24.13, 'lipoC3S3': 11.25, 'rot1': 75, 'rot0': 76, 'rot3': 21, 'rot2': 30, 'state': 'normal', 'yaw': 3.54, 'datetime': '2018-10-17 10:07:05.070823', 'mgs': 0, 'depth': 1.843, 'time': 11.41, 'pitch': -1.99, 'roll': -0.33}
{'lipoC2': 7.5, 'temp': 24.13, 'lipoC3S3': 11.31, 'rot1': 75, 'rot0': 77, 'rot3': 21, 'rot2': 30, 'state': 'normal', 'yaw': 2.41, 'datetime': '2018-10-17 10:07:05.168496', 'mgs': 0, 'depth': 1.691, 'time': 11.51, 'pitch': -2.3, 'roll': -0.34}
{'lipoC2': 7.5, 'temp': 24.13, 'lipoC3S3': 11.36, 'rot1': 76, 'rot0': 78, 'rot3': 21, 'rot2': 30, 'state': 'normal', 'yaw': 1.06, 'datetime': '2018-10-17 10:07:05.265936', 'mgs': 0, 'depth': 1.767, 'time': 11.61, 'pitch': -2.63, 'roll': -0.36}
{'lipoC2': 7.51, 'temp': 24.13, 'lipoC3S3': 11.34, 'rot1': 77, 'rot0': 79, 'rot3': 21, 'rot2': 30, 'state': 'normal', 'yaw': -0.38, 'datetime': '2018-10-17 10:07:05.363335', 'mgs': 0, 'depth': 2.072, 'time': 11.7, 'pitch': -2.91, 'roll': -0.38}
{'lipoC2': 7.5, 'temp': 24.13, 'lipoC3S3': 11.32, 'rot1': 78, 'rot0': 80, 'rot3': 21, 'rot2': 30, 'state': 'normal', 'yaw': -1.9, 'datetime': '2018-10-17 10:07:05.460689', 'mgs': 0, 'depth': 1.767, 'time': 11.8, 'pitch': -3.12, 'roll': -0.4}
{'lipoC2': 7.5, 'temp': 24.13, 'lipoC3S3': 11.36, 'rot1': 78, 'rot0': 81, 'rot3': 21, 'rot2': 30, 'state': 'normal', 'yaw': -3.34, 'datetime': '2018-10-17 10:07:05.558457', 'mgs': 0, 'depth': 1.92, 'time': 11.9, 'pitch': -3.27, 'roll': -0.37}
{'lipoC2': 7.5, 'temp': 24.13, 'lipoC3S3': 11.36, 'rot1': 79, 'rot0': 82, 'rot3': 21, 'rot2': 30, 'state': 'normal', 'yaw': -5.02, 'datetime': '2018-10-17 10:07:05.655773', 'mgs': 0, 'depth': 1.614, 'time': 12.0, 'pitch': -3.39, 'roll': -0.35}
{'lipoC2': 7.51, 'temp': 24.13, 'lipoC3S3': 11.26, 'rot1': 80, 'rot0': 83, 'rot3': 21, 'rot2': 30, 'state': 'normal', 'yaw': -6.35, 'datetime': '2018-10-17 10:07:05.753412', 'mgs': 0, 'depth': 1.843, 'time': 12.09, 'pitch': -3.4, 'roll': -0.45}
{'lipoC2': 7.5, 'temp': 24.13, 'lipoC3S3': 11.36, 'rot1': 81, 'rot0': 84, 'rot3': 21, 'rot2': 30, 'state': 'normal', 'yaw': -7.15, 'datetime': '2018-10-17 10:07:05.850724', 'mgs': 0, 'depth': 1.92, 'time': 12.19, 'pitch': -3.28, 'roll': -0.66}
{'lipoC2': 7.5, 'temp': 24.13, 'lipoC3S3': 11.36, 'rot1': 82, 'rot0': 84, 'rot3': 21, 'rot2': 30, 'state': 'normal', 'yaw': -7.49, 'datetime': '2018-10-17 10:07:05.949329', 'mgs': 0, 'depth': 1.92, 'time': 12.29, 'pitch': -3.08, 'roll': -0.93}
{'lipoC2': 7.5, 'temp': 24.13, 'lipoC3S3': 11.36, 'rot1': 83, 'rot0': 85, 'rot3': 21, 'rot2': 30, 'state': 'normal', 'yaw': -7.52, 'datetime': '2018-10-17 10:07:06.048097', 'mgs': 0, 'depth': 1.92, 'time': 12.39, 'pitch': -2.78, 'roll': -1.28}
{'lipoC2': 7.5, 'temp': 24.13, 'lipoC3S3': 11.38, 'rot1': 84, 'rot0': 86, 'rot3': 21, 'rot2': 30, 'state': 'normal', 'yaw': -7.29, 'datetime': '2018-10-17 10:07:06.146897', 'mgs': 0, 'depth': 1.92, 'time': 12.49, 'pitch': -2.4, 'roll': -1.63}
{'lipoC2': 7.5, 'temp': 24.13, 'lipoC3S3': 11.35, 'rot1': 85, 'rot0': 87, 'rot3': 21, 'rot2': 30, 'state': 'normal', 'yaw': -6.86, 'datetime': '2018-10-17 10:07:06.244046', 'mgs': 0, 'depth': 1.691, 'time': 12.59, 'pitch': -2.0, 'roll': -1.95}
{'lipoC2': 7.51, 'temp': 24.13, 'lipoC3S3': 11.29, 'rot1': 86, 'rot0': 87, 'rot3': 21, 'rot2': 30, 'state': 'normal', 'yaw': -6.26, 'datetime': '2018-10-17 10:07:06.341572', 'mgs': 0, 'depth': 1.996, 'time': 12.68, 'pitch': -1.54, 'roll': -2.2}
{'lipoC2': 7.5, 'temp': 24.13, 'lipoC3S3': 11.38, 'rot1': 87, 'rot0': 88, 'rot3': 21, 'rot2': 30, 'state': 'normal', 'yaw': -5.64, 'datetime': '2018-10-17 10:07:06.439949', 'mgs': 0, 'depth': 2.072, 'time': 12.78, 'pitch': -1.13, 'roll': -2.38}
{'lipoC2': 7.5, 'temp': 24.13, 'lipoC3S3': 11.36, 'rot1': 88, 'rot0': 89, 'rot3': 21, 'rot2': 30, 'state': 'normal', 'yaw': -4.88, 'datetime': '2018-10-17 10:07:06.538690', 'mgs': 0, 'depth': 2.072, 'time': 12.88, 'pitch': -0.7, 'roll': -2.57}
{'lipoC2': 7.5, 'temp': 24.13, 'lipoC3S3': 11.29, 'rot1': 90, 'rot0': 90, 'rot3': 21, 'rot2': 30, 'state': 'normal', 'yaw': -4.07, 'datetime': '2018-10-17 10:07:06.636628', 'mgs': 0, 'depth': 2.148, 'time': 12.98, 'pitch': -0.31, 'roll': -2.78}
{'lipoC2': 7.5, 'temp': 24.13, 'lipoC3S3': 11.36, 'rot1': 91, 'rot0': 91, 'rot3': 21, 'rot2': 30, 'state': 'normal', 'yaw': -3.19, 'datetime': '2018-10-17 10:07:06.743034', 'mgs': 0, 'depth': 2.148, 'time': 13.08, 'pitch': -0.02, 'roll': -3.02}
{'lipoC2': 7.5, 'temp': 24.13, 'lipoC3S3': 11.35, 'rot1': 92, 'rot0': 92, 'rot3': 21, 'rot2': 30, 'state': 'normal', 'yaw': -2.23, 'datetime': '2018-10-17 10:07:06.831502', 'mgs': 0, 'depth': 2.988, 'time': 13.17, 'pitch': 0.2, 'roll': -3.27}
{'lipoC2': 7.5, 'temp': 24.13, 'lipoC3S3': 11.44, 'rot1': 92, 'rot0': 92, 'rot3': 21, 'rot2': 30, 'state': 'normal', 'yaw': -1.33, 'datetime': '2018-10-17 10:07:06.930235', 'mgs': 0, 'depth': 2.225, 'time': 13.27, 'pitch': 0.3, 'roll': -3.47}
{'lipoC2': 7.5, 'temp': 24.13, 'lipoC3S3': 11.44, 'rot1': 92, 'rot0': 92, 'rot3': 21, 'rot2': 30, 'state': 'normal', 'yaw': -0.45, 'datetime': '2018-10-17 10:07:07.028006', 'mgs': 0, 'depth': 2.225, 'time': 13.37, 'pitch': 0.3, 'roll': -4.02}
{'lipoC2': 7.51, 'temp': 24.13, 'lipoC3S3': 11.22, 'rot1': 92, 'rot0': 92, 'rot3': 21, 'rot2': 30, 'state': 'normal', 'yaw': 0.36, 'datetime': '2018-10-17 10:07:07.125416', 'mgs': 0, 'depth': 2.682, 'time': 13.47, 'pitch': 0.14, 'roll': -4.86}
{'lipoC2': 7.5, 'temp': 24.13, 'lipoC3S3': 11.31, 'rot1': 93, 'rot0': 93, 'rot3': 21, 'rot2': 30, 'state': 'normal', 'yaw': 1.49, 'datetime': '2018-10-17 10:07:07.223063', 'mgs': 0, 'depth': 2.301, 'time': 13.56, 'pitch': -0.1, 'roll': -5.74}
{'lipoC2': 7.51, 'temp': 24.13, 'lipoC3S3': 11.31, 'rot1': 94, 'rot0': 94, 'rot3': 21, 'rot2': 31, 'state': 'normal', 'yaw': 2.86, 'datetime': '2018-10-17 10:07:07.320293', 'mgs': 0, 'depth': 2.759, 'time': 13.66, 'pitch': -0.32, 'roll': -6.44}
{'lipoC2': 7.51, 'temp': 24.13, 'lipoC3S3': 11.26, 'rot1': 95, 'rot0': 94, 'rot3': 22, 'rot2': 31, 'state': 'normal', 'yaw': 4.65, 'datetime': '2018-10-17 10:07:07.417726', 'mgs': 0, 'depth': 2.377, 'time': 13.76, 'pitch': -0.53, 'roll': -7.05}
{'lipoC2': 7.5, 'temp': 24.19, 'lipoC3S3': 11.36, 'rot1': 95, 'rot0': 95, 'rot3': 22, 'rot2': 32, 'state': 'normal', 'yaw': 6.66, 'datetime': '2018-10-17 10:07:07.515115', 'mgs': 0, 'depth': 2.454, 'time': 13.86, 'pitch': -0.72, 'roll': -7.51}
{'lipoC2': 7.51, 'temp': 24.19, 'lipoC3S3': 11.31, 'rot1': 96, 'rot0': 96, 'rot3': 23, 'rot2': 32, 'state': 'normal', 'yaw': 8.64, 'datetime': '2018-10-17 10:07:07.612543', 'mgs': 0, 'depth': 2.835, 'time': 13.96, 'pitch': -0.84, 'roll': -7.83}
{'lipoC2': 7.52, 'temp': 24.13, 'lipoC3S3': 11.25, 'rot1': 97, 'rot0': 97, 'rot3': 23, 'rot2': 33, 'state': 'normal', 'yaw': 11.03, 'datetime': '2018-10-17 10:07:07.709957', 'mgs': 0, 'depth': 2.53, 'time': 14.05, 'pitch': -0.91, 'roll': -8.08}
{'lipoC2': 7.5, 'temp': 24.13, 'lipoC3S3': 11.3, 'rot1': 98, 'rot0': 98, 'rot3': 23, 'rot2': 34, 'state': 'normal', 'yaw': 13.6, 'datetime': '2018-10-17 10:07:07.807480', 'mgs': 0, 'depth': 2.53, 'time': 14.15, 'pitch': -0.9, 'roll': -8.24}
{'lipoC2': 7.5, 'temp': 24.13, 'lipoC3S3': 11.31, 'rot1': 98, 'rot0': 98, 'rot3': 24, 'rot2': 34, 'state': 'normal', 'yaw': 16.37, 'datetime': '2018-10-17 10:07:07.904901', 'mgs': 0, 'depth': 2.911, 'time': 14.25, 'pitch': -0.86, 'roll': -8.3}
{'lipoC2': 7.51, 'temp': 24.13, 'lipoC3S3': 11.27, 'rot1': 99, 'rot0': 99, 'rot3': 24, 'rot2': 35, 'state': 'normal', 'yaw': 19.0, 'datetime': '2018-10-17 10:07:08.003047', 'mgs': 0, 'depth': 2.606, 'time': 14.35, 'pitch': -0.77, 'roll': -8.31}
{'lipoC2': 7.51, 'temp': 24.13, 'lipoC3S3': 11.26, 'rot1': 100, 'rot0': 100, 'rot3': 25, 'rot2': 35, 'state': 'normal', 'yaw': 22.04, 'datetime': '2018-10-17 10:07:08.102118', 'mgs': 0, 'depth': 2.606, 'time': 14.44, 'pitch': -0.6, 'roll': -8.21}
{'lipoC2': 7.51, 'temp': 24.13, 'lipoC3S3': 11.25, 'rot1': 101, 'rot0': 101, 'rot3': 25, 'rot2': 36, 'state': 'normal', 'yaw': 25.23, 'datetime': '2018-10-17 10:07:08.200873', 'mgs': 0, 'depth': 3.445, 'time': 14.54, 'pitch': -0.35, 'roll': -8.03}
{'lipoC2': 7.5, 'temp': 24.13, 'lipoC3S3': 11.21, 'rot1': 101, 'rot0': 102, 'rot3': 26, 'rot2': 36, 'state': 'normal', 'yaw': 28.56, 'datetime': '2018-10-17 10:07:08.299390', 'mgs': 0, 'depth': 2.606, 'time': 14.64, 'pitch': -0.04, 'roll': -7.77}
{'lipoC2': 7.5, 'temp': 24.13, 'lipoC3S3': 11.34, 'rot1': 102, 'rot0': 102, 'rot3': 26, 'rot2': 37, 'state': 'normal', 'yaw': 32.05, 'datetime': '2018-10-17 10:07:08.396954', 'mgs': 0, 'depth': 2.682, 'time': 14.74, 'pitch': 0.35, 'roll': -7.41}
{'lipoC2': 7.5, 'temp': 24.19, 'lipoC3S3': 11.32, 'rot1': 103, 'rot0': 103, 'rot3': 26, 'rot2': 38, 'state': 'normal', 'yaw': 35.68, 'datetime': '2018-10-17 10:07:08.494525', 'mgs': 0, 'depth': 3.14, 'time': 14.84, 'pitch': 0.76, 'roll': -6.95}
{'lipoC2': 7.5, 'temp': 24.19, 'lipoC3S3': 11.25, 'rot1': 104, 'rot0': 104, 'rot3': 27, 'rot2': 38, 'state': 'normal', 'yaw': 39.05, 'datetime': '2018-10-17 10:07:08.593485', 'mgs': 0, 'depth': 2.606, 'time': 14.94, 'pitch': 1.14, 'roll': -6.5}
{'lipoC2': 7.51, 'temp': 24.19, 'lipoC3S3': 11.27, 'rot1': 105, 'rot0': 105, 'rot3': 27, 'rot2': 39, 'state': 'normal', 'yaw': 42.93, 'datetime': '2018-10-17 10:07:08.696715', 'mgs': 0, 'depth': 2.682, 'time': 15.04, 'pitch': 1.5, 'roll': -6.03}
{'lipoC2': 7.51, 'temp': 24.19, 'lipoC3S3': 11.25, 'rot1': 105, 'rot0': 105, 'rot3': 28, 'rot2': 39, 'state': 'normal', 'yaw': 46.89, 'datetime': '2018-10-17 10:07:08.791173', 'mgs': 0, 'depth': 3.674, 'time': 15.14, 'pitch': 1.77, 'roll': -5.64}
{'lipoC2': 7.52, 'temp': 24.19, 'lipoC3S3': 11.25, 'rot1': 106, 'rot0': 106, 'rot3': 28, 'rot2': 40, 'state': 'normal', 'yaw': 50.96, 'datetime': '2018-10-17 10:07:08.888824', 'mgs': 0, 'depth': 2.53, 'time': 15.23, 'pitch': 1.98, 'roll': -5.41}
{'lipoC2': 7.51, 'temp': 24.19, 'lipoC3S3': 11.26, 'rot1': 107, 'rot0': 107, 'rot3': 29, 'rot2': 41, 'state': 'normal', 'yaw': 55.1, 'datetime': '2018-10-17 10:07:08.986560', 'mgs': 0, 'depth': 2.759, 'time': 15.33, 'pitch': 2.1, 'roll': -5.25}
{'lipoC2': 7.5, 'temp': 24.19, 'lipoC3S3': 11.31, 'rot1': 108, 'rot0': 108, 'rot3': 29, 'rot2': 41, 'state': 'normal', 'yaw': 58.83, 'datetime': '2018-10-17 10:07:09.084763', 'mgs': 0, 'depth': 3.293, 'time': 15.43, 'pitch': 2.12, 'roll': -5.23}
{'lipoC2': 7.5, 'temp': 24.13, 'lipoC3S3': 11.27, 'rot1': 108, 'rot0': 108, 'rot3': 29, 'rot2': 42, 'state': 'normal', 'yaw': 62.99, 'datetime': '2018-10-17 10:07:09.183734', 'mgs': 0, 'depth': 2.759, 'time': 15.53, 'pitch': 2.11, 'roll': -5.32}
{'lipoC2': 7.51, 'temp': 24.13, 'lipoC3S3': 11.27, 'rot1': 109, 'rot0': 109, 'rot3': 30, 'rot2': 42, 'state': 'normal', 'yaw': 67.19, 'datetime': '2018-10-17 10:07:09.281692', 'mgs': 0, 'depth': 2.835, 'time': 15.63, 'pitch': 2.12, 'roll': -5.5}
{'lipoC2': 7.5, 'temp': 24.13, 'lipoC3S3': 11.27, 'rot1': 110, 'rot0': 110, 'rot3': 30, 'rot2': 43, 'state': 'normal', 'yaw': 71.42, 'datetime': '2018-10-17 10:07:09.379256', 'mgs': 0, 'depth': 2.835, 'time': 15.72, 'pitch': 2.17, 'roll': -5.8}
{'lipoC2': 7.5, 'temp': 24.19, 'lipoC3S3': 11.26, 'rot1': 111, 'rot0': 111, 'rot3': 30, 'rot2': 43, 'state': 'normal', 'yaw': 75.7, 'datetime': '2018-10-17 10:07:09.476939', 'mgs': 0, 'depth': 2.835, 'time': 15.82, 'pitch': 2.27, 'roll': -6.18}
{'lipoC2': 7.5, 'temp': 24.19, 'lipoC3S3': 11.31, 'rot1': 111, 'rot0': 112, 'rot3': 31, 'rot2': 44, 'state': 'normal', 'yaw': 79.59, 'datetime': '2018-10-17 10:07:09.574572', 'mgs': 0, 'depth': 2.835, 'time': 15.92, 'pitch': 2.41, 'roll': -6.57}
{'lipoC2': 7.5, 'temp': 24.19, 'lipoC3S3': 11.31, 'rot1': 112, 'rot0': 112, 'rot3': 31, 'rot2': 45, 'state': 'normal', 'yaw': 83.94, 'datetime': '2018-10-17 10:07:09.672200', 'mgs': 0, 'depth': 3.293, 'time': 16.02, 'pitch': 2.63, 'roll': -7.05}
{'lipoC2': 7.5, 'temp': 24.19, 'lipoC3S3': 11.3, 'rot1': 113, 'rot0': 113, 'rot3': 32, 'rot2': 45, 'state': 'normal', 'yaw': 88.31, 'datetime': '2018-10-17 10:07:09.769899', 'mgs': 0, 'depth': 3.293, 'time': 16.11, 'pitch': 2.88, 'roll': -7.54}
{'lipoC2': 7.51, 'temp': 24.19, 'lipoC3S3': 11.3, 'rot1': 114, 'rot0': 114, 'rot3': 32, 'rot2': 46, 'state': 'normal', 'yaw': 92.69, 'datetime': '2018-10-17 10:07:09.867500', 'mgs': 0, 'depth': 3.14, 'time': 16.21, 'pitch': 3.18, 'roll': -8.01}
{'lipoC2': 7.51, 'temp': 24.13, 'lipoC3S3': 11.23, 'rot1': 115, 'rot0': 115, 'rot3': 33, 'rot2': 46, 'state': 'normal', 'yaw': 96.61, 'datetime': '2018-10-17 10:07:09.964922', 'mgs': 0, 'depth': 3.903, 'time': 16.31, 'pitch': 3.49, 'roll': -8.37}
{'lipoC2': 7.5, 'temp': 24.13, 'lipoC3S3': 11.23, 'rot1': 115, 'rot0': 116, 'rot3': 33, 'rot2': 47, 'state': 'normal', 'yaw': 100.96, 'datetime': '2018-10-17 10:07:10.062645', 'mgs': 0, 'depth': 3.293, 'time': 16.41, 'pitch': 3.86, 'roll': -8.7}
{'lipoC2': 7.52, 'temp': 24.13, 'lipoC3S3': 11.25, 'rot1': 116, 'rot0': 117, 'rot3': 33, 'rot2': 48, 'state': 'normal', 'yaw': 105.31, 'datetime': '2018-10-17 10:07:10.160260', 'mgs': 0, 'depth': 2.835, 'time': 16.5, 'pitch': 4.25, 'roll': -8.94}
{'lipoC2': 7.5, 'temp': 24.13, 'lipoC3S3': 11.29, 'rot1': 117, 'rot0': 117, 'rot3': 34, 'rot2': 48, 'state': 'normal', 'yaw': 109.67, 'datetime': '2018-10-17 10:07:10.258087', 'mgs': 0, 'depth': 2.835, 'time': 16.6, 'pitch': 4.66, 'roll': -9.07}
{'lipoC2': 7.5, 'temp': 24.13, 'lipoC3S3': 11.43, 'rot1': 117, 'rot0': 118, 'rot3': 34, 'rot2': 49, 'state': 'normal', 'yaw': 113.6, 'datetime': '2018-10-17 10:07:10.356965', 'mgs': 0, 'depth': 2.911, 'time': 16.7, 'pitch': 5.04, 'roll': -9.12}
{'lipoC2': 7.5, 'temp': 24.13, 'lipoC3S3': 11.43, 'rot1': 117, 'rot0': 118, 'rot3': 34, 'rot2': 49, 'state': 'normal', 'yaw': 117.64, 'datetime': '2018-10-17 10:07:10.455726', 'mgs': 0, 'depth': 2.835, 'time': 16.8, 'pitch': 5.41, 'roll': -9.34}
{'lipoC2': 7.5, 'temp': 24.13, 'lipoC3S3': 11.44, 'rot1': 117, 'rot0': 118, 'rot3': 34, 'rot2': 49, 'state': 'normal', 'yaw': 121.38, 'datetime': '2018-10-17 10:07:10.554703', 'mgs': 0, 'depth': 2.911, 'time': 16.9, 'pitch': 5.7, 'roll': -9.66}
{'lipoC2': 7.5, 'temp': 24.19, 'lipoC3S3': 11.31, 'rot1': 117, 'rot0': 118, 'rot3': 34, 'rot2': 49, 'state': 'normal', 'yaw': 124.91, 'datetime': '2018-10-17 10:07:10.652718', 'mgs': 0, 'depth': 2.911, 'time': 17.0, 'pitch': 5.89, 'roll': -10.0}
{'lipoC2': 7.5, 'temp': 24.19, 'lipoC3S3': 11.19, 'rot1': 118, 'rot0': 118, 'rot3': 34, 'rot2': 49, 'state': 'normal', 'yaw': 128.27, 'datetime': '2018-10-17 10:07:10.750400', 'mgs': 0, 'depth': 2.911, 'time': 17.1, 'pitch': 5.94, 'roll': -10.26}
{'lipoC2': 7.51, 'temp': 24.19, 'lipoC3S3': 11.22, 'rot1': 118, 'rot0': 119, 'rot3': 35, 'rot2': 50, 'state': 'normal', 'yaw': 131.22, 'datetime': '2018-10-17 10:07:10.848991', 'mgs': 0, 'depth': 2.988, 'time': 17.19, 'pitch': 5.73, 'roll': -10.04}
{'lipoC2': 7.51, 'temp': 24.19, 'lipoC3S3': 11.27, 'rot1': 119, 'rot0': 121, 'rot3': 35, 'rot2': 51, 'state': 'normal', 'yaw': 133.43, 'datetime': '2018-10-17 10:07:10.947397', 'mgs': 0, 'depth': 4.285, 'time': 17.29, 'pitch': 5.37, 'roll': -9.39}
{'lipoC2': 7.5, 'temp': 24.19, 'lipoC3S3': 11.27, 'rot1': 120, 'rot0': 122, 'rot3': 36, 'rot2': 51, 'state': 'normal', 'yaw': 135.43, 'datetime': '2018-10-17 10:07:11.046168', 'mgs': 0, 'depth': 3.522, 'time': 17.39, 'pitch': 4.83, 'roll': -8.32}
{'lipoC2': 7.5, 'temp': 24.13, 'lipoC3S3': 11.29, 'rot1': 121, 'rot0': 123, 'rot3': 36, 'rot2': 52, 'state': 'normal', 'yaw': 137.02, 'datetime': '2018-10-17 10:07:11.143930', 'mgs': 0, 'depth': 3.217, 'time': 17.49, 'pitch': 4.17, 'roll': -6.99}
{'lipoC2': 7.5, 'temp': 24.13, 'lipoC3S3': 11.27, 'rot1': 122, 'rot0': 124, 'rot3': 36, 'rot2': 52, 'state': 'normal', 'yaw': 138.22, 'datetime': '2018-10-17 10:07:11.241583', 'mgs': 0, 'depth': 3.674, 'time': 17.59, 'pitch': 3.42, 'roll': -5.47}
{'lipoC2': 7.51, 'temp': 24.13, 'lipoC3S3': 11.26, 'rot1': 122, 'rot0': 125, 'rot3': 37, 'rot2': 53, 'state': 'normal', 'yaw': 139.05, 'datetime': '2018-10-17 10:07:11.339238', 'mgs': 0, 'depth': 3.827, 'time': 17.69, 'pitch': 2.66, 'roll': -3.87}
{'lipoC2': 7.5, 'temp': 24.13, 'lipoC3S3': 11.3, 'rot1': 123, 'rot0': 126, 'rot3': 37, 'rot2': 53, 'state': 'normal', 'yaw': 139.54, 'datetime': '2018-10-17 10:07:11.438228', 'mgs': 0, 'depth': 3.445, 'time': 17.78, 'pitch': 2.03, 'roll': -2.42}
{'lipoC2': 7.5, 'temp': 24.13, 'lipoC3S3': 11.29, 'rot1': 124, 'rot0': 127, 'rot3': 38, 'rot2': 54, 'state': 'normal', 'yaw': 139.8, 'datetime': '2018-10-17 10:07:11.537164', 'mgs': 0, 'depth': 3.598, 'time': 17.88, 'pitch': 1.43, 'roll': -0.86}
{'lipoC2': 7.51, 'temp': 24.19, 'lipoC3S3': 11.22, 'rot1': 125, 'rot0': 128, 'rot3': 38, 'rot2': 55, 'state': 'normal', 'yaw': 139.82, 'datetime': '2018-10-17 10:07:11.635596', 'mgs': 0, 'depth': 3.598, 'time': 17.98, 'pitch': 1.01, 'roll': 0.53}
{'lipoC2': 7.5, 'temp': 24.19, 'lipoC3S3': 11.29, 'rot1': 125, 'rot0': 129, 'rot3': 39, 'rot2': 55, 'state': 'normal', 'yaw': 139.7, 'datetime': '2018-10-17 10:07:11.729484', 'mgs': 0, 'depth': 3.674, 'time': 18.08, 'pitch': 0.73, 'roll': 1.76}
{'lipoC2': 7.5, 'temp': 24.13, 'lipoC3S3': 11.29, 'rot1': 126, 'rot0': 131, 'rot3': 39, 'rot2': 56, 'state': 'normal', 'yaw': 139.48, 'datetime': '2018-10-17 10:07:11.828381', 'mgs': 0, 'depth': 4.208, 'time': 18.18, 'pitch': 0.57, 'roll': 2.83}
{'lipoC2': 7.5, 'temp': 24.13, 'lipoC3S3': 11.29, 'rot1': 127, 'rot0': 132, 'rot3': 39, 'rot2': 56, 'state': 'normal', 'yaw': 139.18, 'datetime': '2018-10-17 10:07:11.925876', 'mgs': 0, 'depth': 4.208, 'time': 18.28, 'pitch': 0.57, 'roll': 3.68}
{'lipoC2': 7.51, 'temp': 24.13, 'lipoC3S3': 11.26, 'rot1': 128, 'rot0': 133, 'rot3': 40, 'rot2': 57, 'state': 'normal', 'yaw': 138.72, 'datetime': '2018-10-17 10:07:12.023428', 'mgs': 0, 'depth': 4.361, 'time': 18.37, 'pitch': 0.6, 'roll': 4.49}
{'lipoC2': 7.51, 'temp': 24.13, 'lipoC3S3': 11.21, 'rot1': 128, 'rot0': 134, 'rot3': 40, 'rot2': 57, 'state': 'normal', 'yaw': 138.13, 'datetime': '2018-10-17 10:07:12.121355', 'mgs': 0, 'depth': 4.437, 'time': 18.47, 'pitch': 0.64, 'roll': 5.16}
{'lipoC2': 7.51, 'temp': 24.13, 'lipoC3S3': 11.19, 'rot1': 129, 'rot0': 135, 'rot3': 41, 'rot2': 58, 'state': 'normal', 'yaw': 137.41, 'datetime': '2018-10-17 10:07:12.218775', 'mgs': 0, 'depth': 3.827, 'time': 18.57, 'pitch': 0.72, 'roll': 5.65}
{'lipoC2': 7.51, 'temp': 24.13, 'lipoC3S3': 11.14, 'rot1': 130, 'rot0': 136, 'rot3': 41, 'rot2': 59, 'state': 'normal', 'yaw': 136.67, 'datetime': '2018-10-17 10:07:12.316334', 'mgs': 0, 'depth': 3.979, 'time': 18.67, 'pitch': 0.8, 'roll': 5.97}
{'lipoC2': 7.5, 'temp': 24.13, 'lipoC3S3': 11.23, 'rot1': 131, 'rot0': 137, 'rot3': 41, 'rot2': 59, 'state': 'normal', 'yaw': 135.77, 'datetime': '2018-10-17 10:07:12.413917', 'mgs': 0, 'depth': 3.903, 'time': 18.76, 'pitch': 0.89, 'roll': 6.17}
{'lipoC2': 7.5, 'temp': 24.13, 'lipoC3S3': 11.27, 'rot1': 132, 'rot0': 138, 'rot3': 42, 'rot2': 60, 'state': 'normal', 'yaw': 134.83, 'datetime': '2018-10-17 10:07:12.511548', 'mgs': 0, 'depth': 3.674, 'time': 18.86, 'pitch': 0.97, 'roll': 6.24}
{'lipoC2': 7.5, 'temp': 24.13, 'lipoC3S3': 11.27, 'rot1': 132, 'rot0': 139, 'rot3': 42, 'rot2': 60, 'state': 'normal', 'yaw': 133.86, 'datetime': '2018-10-17 10:07:12.609093', 'mgs': 0, 'depth': 4.437, 'time': 18.96, 'pitch': 1.0, 'roll': 6.22}
{'lipoC2': 7.5, 'temp': 24.13, 'lipoC3S3': 11.15, 'rot1': 133, 'rot0': 141, 'rot3': 43, 'rot2': 61, 'state': 'normal', 'yaw': 132.98, 'datetime': '2018-10-17 10:07:12.708182', 'mgs': 0, 'depth': 3.979, 'time': 19.06, 'pitch': 1.01, 'roll': 6.12}
{'lipoC2': 7.52, 'temp': 24.13, 'lipoC3S3': 11.21, 'rot1': 134, 'rot0': 142, 'rot3': 43, 'rot2': 61, 'state': 'normal', 'yaw': 131.99, 'datetime': '2018-10-17 10:07:12.807071', 'mgs': 0, 'depth': 4.056, 'time': 19.16, 'pitch': 1.04, 'roll': 5.97}
{'lipoC2': 7.51, 'temp': 24.13, 'lipoC3S3': 11.26, 'rot1': 134, 'rot0': 143, 'rot3': 43, 'rot2': 62, 'state': 'normal', 'yaw': 131.0, 'datetime': '2018-10-17 10:07:12.905931', 'mgs': 0, 'depth': 4.895, 'time': 19.26, 'pitch': 1.06, 'roll': 5.81}
{'lipoC2': 7.51, 'temp': 24.13, 'lipoC3S3': 11.26, 'rot1': 135, 'rot0': 144, 'rot3': 44, 'rot2': 63, 'state': 'normal', 'yaw': 129.96, 'datetime': '2018-10-17 10:07:13.003884', 'mgs': 0, 'depth': 4.437, 'time': 19.35, 'pitch': 1.09, 'roll': 5.64}
{'lipoC2': 7.51, 'temp': 24.13, 'lipoC3S3': 11.25, 'rot1': 136, 'rot0': 145, 'rot3': 44, 'rot2': 63, 'state': 'normal', 'yaw': 128.9, 'datetime': '2018-10-17 10:07:13.101485', 'mgs': 0, 'depth': 4.437, 'time': 19.45, 'pitch': 1.13, 'roll': 5.5}
{'lipoC2': 7.51, 'temp': 24.13, 'lipoC3S3': 11.26, 'rot1': 137, 'rot0': 146, 'rot3': 45, 'rot2': 64, 'state': 'normal', 'yaw': 127.79, 'datetime': '2018-10-17 10:07:13.199579', 'mgs': 0, 'depth': 4.437, 'time': 19.55, 'pitch': 1.14, 'roll': 5.44}
{'lipoC2': 7.5, 'temp': 24.13, 'lipoC3S3': 11.17, 'rot1': 137, 'rot0': 147, 'rot3': 45, 'rot2': 64, 'state': 'normal', 'yaw': 126.76, 'datetime': '2018-10-17 10:07:13.298312', 'mgs': 0, 'depth': 4.056, 'time': 19.65, 'pitch': 1.17, 'roll': 5.42}
{'lipoC2': 7.52, 'temp': 24.13, 'lipoC3S3': 11.19, 'rot1': 138, 'rot0': 148, 'rot3': 46, 'rot2': 65, 'state': 'normal', 'yaw': 125.51, 'datetime': '2018-10-17 10:07:13.397306', 'mgs': 0, 'depth': 3.903, 'time': 19.75, 'pitch': 1.2, 'roll': 5.41}
{'lipoC2': 7.51, 'temp': 24.13, 'lipoC3S3': 11.11, 'rot1': 139, 'rot0': 149, 'rot3': 46, 'rot2': 65, 'state': 'normal', 'yaw': 124.19, 'datetime': '2018-10-17 10:07:13.495803', 'mgs': 0, 'depth': 3.903, 'time': 19.85, 'pitch': 1.27, 'roll': 5.48}
{'lipoC2': 7.5, 'temp': 24.19, 'lipoC3S3': 11.15, 'rot1': 140, 'rot0': 150, 'rot3': 46, 'rot2': 66, 'state': 'normal', 'yaw': 122.79, 'datetime': '2018-10-17 10:07:13.593425', 'mgs': 0, 'depth': 3.903, 'time': 19.94, 'pitch': 1.41, 'roll': 5.58}
{'lipoC2': 7.5, 'temp': 24.19, 'lipoC3S3': 11.26, 'rot1': 141, 'rot0': 152, 'rot3': 47, 'rot2': 67, 'state': 'normal', 'yaw': 121.35, 'datetime': '2018-10-17 10:07:13.691030', 'mgs': 0, 'depth': 3.903, 'time': 20.04, 'pitch': 1.54, 'roll': 5.66}
{'lipoC2': 7.5, 'temp': 24.13, 'lipoC3S3': 11.29, 'rot1': 141, 'rot0': 153, 'rot3': 47, 'rot2': 67, 'state': 'normal', 'yaw': 120.01, 'datetime': '2018-10-17 10:07:13.789680', 'mgs': 0, 'depth': 3.903, 'time': 20.14, 'pitch': 1.68, 'roll': 5.73}
{'lipoC2': 7.5, 'temp': 24.13, 'lipoC3S3': 11.17, 'rot1': 142, 'rot0': 154, 'rot3': 48, 'rot2': 68, 'state': 'normal', 'yaw': 118.48, 'datetime': '2018-10-17 10:07:13.888656', 'mgs': 0, 'depth': 3.979, 'time': 20.24, 'pitch': 1.83, 'roll': 5.76}
{'lipoC2': 7.52, 'temp': 24.13, 'lipoC3S3': 11.19, 'rot1': 143, 'rot0': 155, 'rot3': 48, 'rot2': 68, 'state': 'normal', 'yaw': 116.91, 'datetime': '2018-10-17 10:07:13.986605', 'mgs': 0, 'depth': 3.827, 'time': 20.34, 'pitch': 2.01, 'roll': 5.72}
{'lipoC2': 7.51, 'temp': 24.19, 'lipoC3S3': 11.17, 'rot1': 143, 'rot0': 156, 'rot3': 48, 'rot2': 69, 'state': 'normal', 'yaw': 115.32, 'datetime': '2018-10-17 10:07:14.084051', 'mgs': 0, 'depth': 3.903, 'time': 20.43, 'pitch': 2.17, 'roll': 5.66}
{'lipoC2': 7.5, 'temp': 24.19, 'lipoC3S3': 11.18, 'rot1': 144, 'rot0': 157, 'rot3': 49, 'rot2': 69, 'state': 'normal', 'yaw': 113.73, 'datetime': '2018-10-17 10:07:14.181655', 'mgs': 0, 'depth': 3.903, 'time': 20.53, 'pitch': 2.32, 'roll': 5.52}
{'lipoC2': 7.51, 'temp': 24.13, 'lipoC3S3': 11.26, 'rot1': 145, 'rot0': 158, 'rot3': 49, 'rot2': 70, 'state': 'normal', 'yaw': 112.26, 'datetime': '2018-10-17 10:07:14.279291', 'mgs': 0, 'depth': 3.903, 'time': 20.63, 'pitch': 2.46, 'roll': 5.34}
{'lipoC2': 7.5, 'temp': 24.13, 'lipoC3S3': 11.26, 'rot1': 146, 'rot0': 160, 'rot3': 50, 'rot2': 71, 'state': 'normal', 'yaw': 110.6, 'datetime': '2018-10-17 10:07:14.373823', 'mgs': 0, 'depth': 4.285, 'time': 20.73, 'pitch': 2.6, 'roll': 5.39}
{'lipoC2': 7.5, 'temp': 24.13, 'lipoC3S3': 11.25, 'rot1': 146, 'rot0': 161, 'rot3': 50, 'rot2': 71, 'state': 'normal', 'yaw': 109.24, 'datetime': '2018-10-17 10:07:14.474479', 'mgs': 0, 'depth': 4.285, 'time': 20.83, 'pitch': 2.82, 'roll': 5.46}
{'lipoC2': 7.51, 'temp': 24.13, 'lipoC3S3': 11.23, 'rot1': 147, 'rot0': 162, 'rot3': 51, 'rot2': 72, 'state': 'normal', 'yaw': 108.64, 'datetime': '2018-10-17 10:07:14.572172', 'mgs': 0, 'depth': 4.59, 'time': 20.92, 'pitch': 3.4, 'roll': 4.89}
{'lipoC2': 7.52, 'temp': 24.13, 'lipoC3S3': 11.19, 'rot1': 148, 'rot0': 163, 'rot3': 51, 'rot2': 72, 'state': 'normal', 'yaw': 108.99, 'datetime': '2018-10-17 10:07:14.669697', 'mgs': 0, 'depth': 4.437, 'time': 21.02, 'pitch': 4.31, 'roll': 3.95}
{'lipoC2': 7.51, 'temp': 24.13, 'lipoC3S3': 11.19, 'rot1': 149, 'rot0': 164, 'rot3': 52, 'rot2': 73, 'state': 'normal', 'yaw': 110.97, 'datetime': '2018-10-17 10:07:14.767659', 'mgs': 0, 'depth': 3.674, 'time': 21.12, 'pitch': 6.03, 'roll': 2.91}
{'lipoC2': 7.5, 'temp': 24.13, 'lipoC3S3': 11.19, 'rot1': 149, 'rot0': 165, 'rot3': 52, 'rot2': 73, 'state': 'normal', 'yaw': 114.44, 'datetime': '2018-10-17 10:07:14.865014', 'mgs': 0, 'depth': 3.522, 'time': 21.22, 'pitch': 8.29, 'roll': 2.3}
{'lipoC2': 7.52, 'temp': 24.13, 'lipoC3S3': 11.22, 'rot1': 150, 'rot0': 166, 'rot3': 52, 'rot2': 74, 'state': 'normal', 'yaw': 118.64, 'datetime': '2018-10-17 10:07:14.962831', 'mgs': 0, 'depth': 3.293, 'time': 21.32, 'pitch': 10.46, 'roll': 1.69}
{'lipoC2': 7.5, 'temp': 24.19, 'lipoC3S3': 11.27, 'rot1': 151, 'rot0': 167, 'rot3': 53, 'rot2': 75, 'state': 'normal', 'yaw': 122.64, 'datetime': '2018-10-17 10:07:15.061998', 'mgs': 0, 'depth': 3.903, 'time': 21.41, 'pitch': 12.05, 'roll': 1.07}
{'lipoC2': 7.5, 'temp': 24.19, 'lipoC3S3': 11.23, 'rot1': 152, 'rot0': 168, 'rot3': 53, 'rot2': 75, 'state': 'normal', 'yaw': 127.24, 'datetime': '2018-10-17 10:07:15.160954', 'mgs': 0, 'depth': 3.369, 'time': 21.51, 'pitch': 13.37, 'roll': 0.41}
{'lipoC2': 7.51, 'temp': 24.19, 'lipoC3S3': 11.21, 'rot1': 152, 'rot0': 169, 'rot3': 54, 'rot2': 76, 'state': 'normal', 'yaw': 131.67, 'datetime': '2018-10-17 10:07:15.259792', 'mgs': 0, 'depth': 3.293, 'time': 21.61, 'pitch': 13.98, 'roll': -0.2}
{'lipoC2': 7.5, 'temp': 24.19, 'lipoC3S3': 11.19, 'rot1': 153, 'rot0': 170, 'rot3': 54, 'rot2': 76, 'state': 'normal', 'yaw': 135.86, 'datetime': '2018-10-17 10:07:15.357462', 'mgs': 0, 'depth': 3.14, 'time': 21.71, 'pitch': 13.73, 'roll': -1.02}
{'lipoC2': 7.5, 'temp': 24.13, 'lipoC3S3': 11.23, 'rot1': 154, 'rot0': 171, 'rot3': 55, 'rot2': 77, 'state': 'normal', 'yaw': 140.07, 'datetime': '2018-10-17 10:07:15.455460', 'mgs': 0, 'depth': 3.14, 'time': 21.81, 'pitch': 12.97, 'roll': -2.47}
{'lipoC2': 7.51, 'temp': 24.13, 'lipoC3S3': 11.26, 'rot1': 155, 'rot0': 173, 'rot3': 55, 'rot2': 77, 'state': 'normal', 'yaw': 143.86, 'datetime': '2018-10-17 10:07:15.553194', 'mgs': 0, 'depth': 3.827, 'time': 21.91, 'pitch': 12.14, 'roll': -4.06}
{'lipoC2': 7.5, 'temp': 24.13, 'lipoC3S3': 11.27, 'rot1': 155, 'rot0': 174, 'rot3': 55, 'rot2': 78, 'state': 'normal', 'yaw': 147.7, 'datetime': '2018-10-17 10:07:15.652126', 'mgs': 0, 'depth': 3.445, 'time': 22.0, 'pitch': 11.18, 'roll': -6.06}
{'lipoC2': 7.5, 'temp': 24.19, 'lipoC3S3': 11.25, 'rot1': 156, 'rot0': 175, 'rot3': 56, 'rot2': 78, 'state': 'normal', 'yaw': 150.94, 'datetime': '2018-10-17 10:07:15.751142', 'mgs': 0, 'depth': 2.911, 'time': 22.1, 'pitch': 10.24, 'roll': -8.26}
{'lipoC2': 7.5, 'temp': 24.19, 'lipoC3S3': 11.27, 'rot1': 157, 'rot0': 176, 'rot3': 56, 'rot2': 79, 'state': 'normal', 'yaw': 153.43, 'datetime': '2018-10-17 10:07:15.848736', 'mgs': 0, 'depth': 3.064, 'time': 22.2, 'pitch': 9.13, 'roll': -10.11}
{'lipoC2': 7.5, 'temp': 24.13, 'lipoC3S3': 11.27, 'rot1': 158, 'rot0': 177, 'rot3': 57, 'rot2': 79, 'state': 'normal', 'yaw': 155.27, 'datetime': '2018-10-17 10:07:15.946444', 'mgs': 0, 'depth': 3.445, 'time': 22.3, 'pitch': 7.8, 'roll': -10.95}
{'lipoC2': 7.5, 'temp': 24.13, 'lipoC3S3': 11.26, 'rot1': 158, 'rot0': 178, 'rot3': 57, 'rot2': 80, 'state': 'normal', 'yaw': 156.57, 'datetime': '2018-10-17 10:07:16.044391', 'mgs': 0, 'depth': 2.988, 'time': 22.4, 'pitch': 6.32, 'roll': -10.91}
{'lipoC2': 7.52, 'temp': 24.13, 'lipoC3S3': 11.22, 'rot1': 159, 'rot0': 179, 'rot3': 57, 'rot2': 81, 'state': 'normal', 'yaw': 157.36, 'datetime': '2018-10-17 10:07:16.143264', 'mgs': 0, 'depth': 3.064, 'time': 22.5, 'pitch': 4.91, 'roll': -10.27}
{'lipoC2': 7.5, 'temp': 24.19, 'lipoC3S3': 11.29, 'rot1': 160, 'rot0': 180, 'rot3': 58, 'rot2': 81, 'state': 'normal', 'yaw': 157.9, 'datetime': '2018-10-17 10:07:16.241867', 'mgs': 0, 'depth': 3.14, 'time': 22.6, 'pitch': 3.4, 'roll': -8.99}
{'lipoC2': 7.5, 'temp': 24.19, 'lipoC3S3': 11.29, 'rot1': 161, 'rot0': 181, 'rot3': 58, 'rot2': 82, 'state': 'normal', 'yaw': 158.12, 'datetime': '2018-10-17 10:07:16.339217', 'mgs': 0, 'depth': 3.217, 'time': 22.69, 'pitch': 1.99, 'roll': -7.25}
{'lipoC2': 7.5, 'temp': 24.13, 'lipoC3S3': 11.27, 'rot1': 162, 'rot0': 182, 'rot3': 59, 'rot2': 82, 'state': 'normal', 'yaw': 158.08, 'datetime': '2018-10-17 10:07:16.436852', 'mgs': 0, 'depth': 3.674, 'time': 22.79, 'pitch': 0.8, 'roll': -5.18}
{'lipoC2': 7.5, 'temp': 24.13, 'lipoC3S3': 11.29, 'rot1': 162, 'rot0': 183, 'rot3': 59, 'rot2': 83, 'state': 'normal', 'yaw': 157.89, 'datetime': '2018-10-17 10:07:16.534664', 'mgs': 0, 'depth': 3.14, 'time': 22.89, 'pitch': -0.02, 'roll': -3.16}
{'lipoC2': 7.5, 'temp': 24.13, 'lipoC3S3': 11.27, 'rot1': 163, 'rot0': 184, 'rot3': 59, 'rot2': 83, 'state': 'normal', 'yaw': 157.51, 'datetime': '2018-10-17 10:07:16.632343', 'mgs': 0, 'depth': 3.674, 'time': 22.99, 'pitch': -0.67, 'roll': -0.81}
