{'lipoC2': 7.56, 'temp': 27.5, 'lipoC3S3': 11.76, 'rot1': 0, 'rot0': 0, 'rot3': 0, 'rot2': 0, 'state': 'normal', 'yaw': 0.0, 'datetime': '2018-10-12 18:20:30.575436', 'mgs': 0, 'depth': -0.446, 'time': 1.26, 'pitch': -4.5, 'roll': 0.76}
{'lipoC2': 7.56, 'temp': 27.5, 'lipoC3S3': 11.76, 'rot1': 0, 'rot0': 0, 'rot3': 0, 'rot2': 0, 'state': 'normal', 'yaw': -0.12, 'datetime': '2018-10-12 18:20:30.594184', 'mgs': 0, 'depth': -0.446, 'time': 1.36, 'pitch': -4.44, 'roll': -0.65}
{'lipoC2': 7.56, 'temp': 27.5, 'lipoC3S3': 11.76, 'rot1': 0, 'rot0': 0, 'rot3': 0, 'rot2': 0, 'state': 'normal', 'yaw': 0.43, 'datetime': '2018-10-12 18:20:30.614077', 'mgs': 0, 'depth': -0.446, 'time': 1.46, 'pitch': -4.14, 'roll': -2.5}
{'lipoC2': 7.56, 'temp': 27.5, 'lipoC3S3': 11.77, 'rot1': 0, 'rot0': 0, 'rot3': 0, 'rot2': 0, 'state': 'normal', 'yaw': 1.2, 'datetime': '2018-10-12 18:20:30.632105', 'mgs': 0, 'depth': -0.598, 'time': 1.55, 'pitch': -3.26, 'roll': -4.05}
{'lipoC2': 7.56, 'temp': 27.5, 'lipoC3S3': 11.77, 'rot1': 0, 'rot0': 0, 'rot3': 0, 'rot2': 0, 'state': 'normal', 'yaw': 1.79, 'datetime': '2018-10-12 18:20:30.649946', 'mgs': 0, 'depth': -0.522, 'time': 1.65, 'pitch': -2.22, 'roll': -4.45}
{'lipoC2': 7.56, 'temp': 27.5, 'lipoC3S3': 11.77, 'rot1': 0, 'rot0': 0, 'rot3': 0, 'rot2': 0, 'state': 'normal', 'yaw': 2.4, 'datetime': '2018-10-12 18:20:30.667961', 'mgs': 0, 'depth': -0.522, 'time': 1.75, 'pitch': -1.35, 'roll': -3.26}
{'lipoC2': 7.56, 'temp': 27.5, 'lipoC3S3': 11.77, 'rot1': 0, 'rot0': 0, 'rot3': 0, 'rot2': 0, 'state': 'normal', 'yaw': 3.03, 'datetime': '2018-10-12 18:20:30.685853', 'mgs': 0, 'depth': -0.522, 'time': 1.85, 'pitch': -0.41, 'roll': -1.07}
{'lipoC2': 7.56, 'temp': 27.5, 'lipoC3S3': 11.76, 'rot1': 0, 'rot0': 0, 'rot3': 0, 'rot2': 0, 'state': 'normal', 'yaw': 3.5, 'datetime': '2018-10-12 18:20:30.706765', 'mgs': 0, 'depth': -0.522, 'time': 1.94, 'pitch': 0.77, 'roll': 0.39}
{'lipoC2': 7.56, 'temp': 27.5, 'lipoC3S3': 11.76, 'rot1': 0, 'rot0': 0, 'rot3': 0, 'rot2': 0, 'state': 'normal', 'yaw': 3.97, 'datetime': '2018-10-12 18:20:30.715730', 'mgs': 0, 'depth': -0.522, 'time': 2.04, 'pitch': 2.24, 'roll': 0.71}
{'lipoC2': 7.56, 'temp': 27.5, 'lipoC3S3': 11.77, 'rot1': 0, 'rot0': 0, 'rot3': 0, 'rot2': 0, 'state': 'normal', 'yaw': 4.39, 'datetime': '2018-10-12 18:20:30.723459', 'mgs': 0, 'depth': -0.674, 'time': 2.14, 'pitch': 3.49, 'roll': -0.21}
{'lipoC2': 7.56, 'temp': 27.5, 'lipoC3S3': 11.77, 'rot1': 0, 'rot0': 0, 'rot3': 0, 'rot2': 0, 'state': 'normal', 'yaw': 4.93, 'datetime': '2018-10-12 18:20:30.731071', 'mgs': 0, 'depth': -0.598, 'time': 2.23, 'pitch': 4.07, 'roll': -1.83}
{'lipoC2': 7.56, 'temp': 27.5, 'lipoC3S3': 11.77, 'rot1': 0, 'rot0': 0, 'rot3': 0, 'rot2': 0, 'state': 'normal', 'yaw': 5.54, 'datetime': '2018-10-12 18:20:30.800301', 'mgs': 0, 'depth': -0.598, 'time': 2.33, 'pitch': 3.93, 'roll': -3.1}
{'lipoC2': 7.56, 'temp': 27.44, 'lipoC3S3': 11.77, 'rot1': 0, 'rot0': 0, 'rot3': 0, 'rot2': 0, 'state': 'normal', 'yaw': 6.04, 'datetime': '2018-10-12 18:20:30.897445', 'mgs': 0, 'depth': -0.598, 'time': 2.43, 'pitch': 3.03, 'roll': -3.56}
{'lipoC2': 7.56, 'temp': 27.44, 'lipoC3S3': 11.76, 'rot1': 0, 'rot0': 0, 'rot3': 0, 'rot2': 0, 'state': 'normal', 'yaw': 6.5, 'datetime': '2018-10-12 18:20:30.994487', 'mgs': 0, 'depth': -0.522, 'time': 2.53, 'pitch': 1.68, 'roll': -2.96}
{'lipoC2': 7.56, 'temp': 27.44, 'lipoC3S3': 11.77, 'rot1': 0, 'rot0': 0, 'rot3': 0, 'rot2': 0, 'state': 'normal', 'yaw': 6.96, 'datetime': '2018-10-12 18:20:31.091599', 'mgs': 0, 'depth': -0.598, 'time': 2.62, 'pitch': 0.51, 'roll': -2.01}
{'lipoC2': 7.56, 'temp': 27.44, 'lipoC3S3': 11.77, 'rot1': 0, 'rot0': 0, 'rot3': 0, 'rot2': 0, 'state': 'normal', 'yaw': 7.45, 'datetime': '2018-10-12 18:20:31.188707', 'mgs': 0, 'depth': -0.598, 'time': 2.72, 'pitch': -0.28, 'roll': -1.21}
{'lipoC2': 7.56, 'temp': 27.44, 'lipoC3S3': 11.76, 'rot1': 0, 'rot0': 0, 'rot3': 0, 'rot2': 0, 'state': 'normal', 'yaw': 8.09, 'datetime': '2018-10-12 18:20:31.285817', 'mgs': 0, 'depth': -0.598, 'time': 2.82, 'pitch': -0.4, 'roll': -0.96}
{'lipoC2': 7.56, 'temp': 27.5, 'lipoC3S3': 11.77, 'rot1': 0, 'rot0': 0, 'rot3': 0, 'rot2': 0, 'state': 'normal', 'yaw': 8.84, 'datetime': '2018-10-12 18:20:31.383819', 'mgs': 0, 'depth': -0.522, 'time': 2.92, 'pitch': -0.03, 'roll': -1.36}
{'lipoC2': 7.56, 'temp': 27.5, 'lipoC3S3': 11.76, 'rot1': 0, 'rot0': 0, 'rot3': 0, 'rot2': 0, 'state': 'normal', 'yaw': 9.31, 'datetime': '2018-10-12 18:20:31.485710', 'mgs': 0, 'depth': -0.522, 'time': 3.01, 'pitch': 0.56, 'roll': -2.22}
{'lipoC2': 7.56, 'temp': 27.5, 'lipoC3S3': 11.77, 'rot1': 0, 'rot0': 0, 'rot3': 0, 'rot2': 0, 'state': 'normal', 'yaw': 9.25, 'datetime': '2018-10-12 18:20:31.582439', 'mgs': 0, 'depth': -0.598, 'time': 3.11, 'pitch': 1.0, 'roll': -2.95}
{'lipoC2': 7.56, 'temp': 27.56, 'lipoC3S3': 11.76, 'rot1': 0, 'rot0': 0, 'rot3': 0, 'rot2': 0, 'state': 'normal', 'yaw': 8.72, 'datetime': '2018-10-12 18:20:31.679331', 'mgs': 0, 'depth': -0.598, 'time': 3.21, 'pitch': 1.23, 'roll': -3.25}
{'lipoC2': 7.56, 'temp': 27.56, 'lipoC3S3': 11.77, 'rot1': 0, 'rot0': 0, 'rot3': 0, 'rot2': 0, 'state': 'normal', 'yaw': 8.07, 'datetime': '2018-10-12 18:20:31.777425', 'mgs': 0, 'depth': -0.598, 'time': 3.31, 'pitch': 0.96, 'roll': -3.36}
{'lipoC2': 7.56, 'temp': 27.5, 'lipoC3S3': 11.76, 'rot1': 0, 'rot0': 0, 'rot3': 0, 'rot2': 0, 'state': 'normal', 'yaw': 7.4, 'datetime': '2018-10-12 18:20:31.875888', 'mgs': 0, 'depth': -0.522, 'time': 3.4, 'pitch': 0.28, 'roll': -3.61}
{'lipoC2': 7.57, 'temp': 27.5, 'lipoC3S3': 11.76, 'rot1': 0, 'rot0': 0, 'rot3': 0, 'rot2': 0, 'state': 'normal', 'yaw': 7.19, 'datetime': '2018-10-12 18:20:31.973019', 'mgs': 0, 'depth': -0.598, 'time': 3.5, 'pitch': -0.18, 'roll': -4.06}
{'lipoC2': 7.56, 'temp': 27.5, 'lipoC3S3': 11.77, 'rot1': 0, 'rot0': 0, 'rot3': 0, 'rot2': 0, 'state': 'normal', 'yaw': 7.27, 'datetime': '2018-10-12 18:20:32.070023', 'mgs': 0, 'depth': -0.522, 'time': 3.6, 'pitch': -0.3, 'roll': -4.42}
{'lipoC2': 7.56, 'temp': 27.5, 'lipoC3S3': 11.77, 'rot1': 0, 'rot0': 0, 'rot3': 0, 'rot2': 0, 'state': 'normal', 'yaw': 7.44, 'datetime': '2018-10-12 18:20:32.167989', 'mgs': 0, 'depth': -0.674, 'time': 3.7, 'pitch': -0.18, 'roll': -4.34}
{'lipoC2': 7.56, 'temp': 27.5, 'lipoC3S3': 11.77, 'rot1': 0, 'rot0': 0, 'rot3': 0, 'rot2': 0, 'state': 'normal', 'yaw': 7.67, 'datetime': '2018-10-12 18:20:32.270006', 'mgs': 0, 'depth': -0.598, 'time': 3.8, 'pitch': 0.17, 'roll': -3.84}
{'lipoC2': 7.56, 'temp': 27.44, 'lipoC3S3': 11.77, 'rot1': 0, 'rot0': 0, 'rot3': 0, 'rot2': 0, 'state': 'normal', 'yaw': 7.68, 'datetime': '2018-10-12 18:20:32.367013', 'mgs': 0, 'depth': -0.522, 'time': 3.89, 'pitch': 0.52, 'roll': -3.27}
{'lipoC2': 7.56, 'temp': 27.44, 'lipoC3S3': 11.76, 'rot1': 0, 'rot0': 0, 'rot3': 0, 'rot2': 0, 'state': 'normal', 'yaw': 7.54, 'datetime': '2018-10-12 18:20:32.464168', 'mgs': 0, 'depth': -0.598, 'time': 3.99, 'pitch': 0.76, 'roll': -2.93}
{'lipoC2': 7.56, 'temp': 27.44, 'lipoC3S3': 11.77, 'rot1': 0, 'rot0': 0, 'rot3': 0, 'rot2': 0, 'state': 'normal', 'yaw': 7.37, 'datetime': '2018-10-12 18:20:32.561263', 'mgs': 0, 'depth': -0.598, 'time': 4.09, 'pitch': 0.92, 'roll': -2.98}
{'lipoC2': 7.56, 'temp': 27.5, 'lipoC3S3': 11.76, 'rot1': 0, 'rot0': 0, 'rot3': 0, 'rot2': 0, 'state': 'normal', 'yaw': 7.12, 'datetime': '2018-10-12 18:20:32.658616', 'mgs': 0, 'depth': -0.598, 'time': 4.18, 'pitch': 1.31, 'roll': -3.55}
{'lipoC2': 7.56, 'temp': 27.5, 'lipoC3S3': 11.77, 'rot1': 0, 'rot0': 0, 'rot3': 0, 'rot2': 0, 'state': 'normal', 'yaw': 6.66, 'datetime': '2018-10-12 18:20:32.755565', 'mgs': 0, 'depth': -0.674, 'time': 4.28, 'pitch': 1.67, 'roll': -3.96}
{'lipoC2': 7.56, 'temp': 27.5, 'lipoC3S3': 11.77, 'rot1': 0, 'rot0': 0, 'rot3': 0, 'rot2': 0, 'state': 'normal', 'yaw': 6.21, 'datetime': '2018-10-12 18:20:32.847707', 'mgs': 0, 'depth': -0.598, 'time': 4.38, 'pitch': 1.91, 'roll': -3.86}
{'lipoC2': 7.56, 'temp': 27.5, 'lipoC3S3': 11.76, 'rot1': 0, 'rot0': 0, 'rot3': 0, 'rot2': 0, 'state': 'normal', 'yaw': 6.09, 'datetime': '2018-10-12 18:20:32.944749', 'mgs': 0, 'depth': -0.522, 'time': 4.47, 'pitch': 2.06, 'roll': -3.21}
{'lipoC2': 7.56, 'temp': 27.5, 'lipoC3S3': 11.76, 'rot1': 0, 'rot0': 0, 'rot3': 0, 'rot2': 0, 'state': 'normal', 'yaw': 6.32, 'datetime': '2018-10-12 18:20:33.042144', 'mgs': 0, 'depth': -0.522, 'time': 4.57, 'pitch': 2.26, 'roll': -2.3}
{'lipoC2': 7.56, 'temp': 27.5, 'lipoC3S3': 11.77, 'rot1': 0, 'rot0': 0, 'rot3': 0, 'rot2': 0, 'state': 'normal', 'yaw': 6.51, 'datetime': '2018-10-12 18:20:33.140024', 'mgs': 0, 'depth': -0.598, 'time': 4.67, 'pitch': 2.7, 'roll': -1.62}
{'lipoC2': 7.56, 'temp': 27.5, 'lipoC3S3': 11.77, 'rot1': 0, 'rot0': 0, 'rot3': 0, 'rot2': 0, 'state': 'normal', 'yaw': 6.84, 'datetime': '2018-10-12 18:20:33.238329', 'mgs': 0, 'depth': -0.598, 'time': 4.77, 'pitch': 3.38, 'roll': -1.29}
{'lipoC2': 7.56, 'temp': 27.44, 'lipoC3S3': 11.76, 'rot1': 0, 'rot0': 0, 'rot3': 0, 'rot2': 0, 'state': 'normal', 'yaw': 7.48, 'datetime': '2018-10-12 18:20:33.335573', 'mgs': 0, 'depth': -0.522, 'time': 4.87, 'pitch': 3.92, 'roll': -1.51}
{'lipoC2': 7.57, 'temp': 27.44, 'lipoC3S3': 11.76, 'rot1': 0, 'rot0': 0, 'rot3': 0, 'rot2': 0, 'state': 'normal', 'yaw': 8.08, 'datetime': '2018-10-12 18:20:33.432534', 'mgs': 0, 'depth': -0.598, 'time': 4.96, 'pitch': 3.76, 'roll': -2.15}
{'lipoC2': 7.56, 'temp': 27.44, 'lipoC3S3': 11.77, 'rot1': 0, 'rot0': 0, 'rot3': 0, 'rot2': 0, 'state': 'normal', 'yaw': 8.42, 'datetime': '2018-10-12 18:20:33.530403', 'mgs': 0, 'depth': -0.598, 'time': 5.06, 'pitch': 3.17, 'roll': -2.65}
{'lipoC2': 7.56, 'temp': 27.5, 'lipoC3S3': 11.76, 'rot1': 0, 'rot0': 0, 'rot3': 0, 'rot2': 0, 'state': 'normal', 'yaw': 8.56, 'datetime': '2018-10-12 18:20:33.628751', 'mgs': 0, 'depth': -0.598, 'time': 5.16, 'pitch': 2.21, 'roll': -2.78}
{'lipoC2': 7.56, 'temp': 27.5, 'lipoC3S3': 11.76, 'rot1': 0, 'rot0': 0, 'rot3': 0, 'rot2': 0, 'state': 'normal', 'yaw': 8.37, 'datetime': '2018-10-12 18:20:33.730780', 'mgs': 0, 'depth': -0.446, 'time': 5.26, 'pitch': 1.07, 'roll': -2.57}
{'lipoC2': 7.56, 'temp': 27.5, 'lipoC3S3': 11.76, 'rot1': 0, 'rot0': 0, 'rot3': 0, 'rot2': 0, 'state': 'normal', 'yaw': 7.92, 'datetime': '2018-10-12 18:20:33.827907', 'mgs': 0, 'depth': -0.598, 'time': 5.36, 'pitch': 0.17, 'roll': -2.16}
{'lipoC2': 7.56, 'temp': 27.5, 'lipoC3S3': 11.77, 'rot1': 0, 'rot0': 0, 'rot3': 0, 'rot2': 0, 'state': 'normal', 'yaw': 7.43, 'datetime': '2018-10-12 18:20:33.925337', 'mgs': 0, 'depth': -0.522, 'time': 5.45, 'pitch': -0.1, 'roll': -1.81}
{'lipoC2': 7.56, 'temp': 27.5, 'lipoC3S3': 11.77, 'rot1': 0, 'rot0': 0, 'rot3': 0, 'rot2': 0, 'state': 'normal', 'yaw': 6.95, 'datetime': '2018-10-12 18:20:34.022438', 'mgs': 0, 'depth': -0.522, 'time': 5.55, 'pitch': 0.21, 'roll': -1.64}
{'lipoC2': 7.57, 'temp': 27.5, 'lipoC3S3': 11.76, 'rot1': 0, 'rot0': 0, 'rot3': 0, 'rot2': 0, 'state': 'normal', 'yaw': 6.82, 'datetime': '2018-10-12 18:20:34.119492', 'mgs': 0, 'depth': -0.598, 'time': 5.65, 'pitch': 0.91, 'roll': -1.78}
{'lipoC2': 7.56, 'temp': 27.5, 'lipoC3S3': 11.76, 'rot1': 0, 'rot0': 0, 'rot3': 0, 'rot2': 0, 'state': 'normal', 'yaw': 7.16, 'datetime': '2018-10-12 18:20:34.216566', 'mgs': 0, 'depth': -0.522, 'time': 5.74, 'pitch': 1.68, 'roll': -2.12}
{'lipoC2': 7.56, 'temp': 27.5, 'lipoC3S3': 11.76, 'rot1': 0, 'rot0': 0, 'rot3': 0, 'rot2': 0, 'state': 'normal', 'yaw': 7.82, 'datetime': '2018-10-12 18:20:34.313682', 'mgs': 0, 'depth': -0.598, 'time': 5.84, 'pitch': 2.17, 'roll': -2.35}
{'lipoC2': 7.56, 'temp': 27.5, 'lipoC3S3': 11.77, 'rot1': 0, 'rot0': 0, 'rot3': 0, 'rot2': 0, 'state': 'normal', 'yaw': 8.64, 'datetime': '2018-10-12 18:20:34.410793', 'mgs': 0, 'depth': -0.598, 'time': 5.94, 'pitch': 2.44, 'roll': -2.65}
{'lipoC2': 7.56, 'temp': 27.5, 'lipoC3S3': 11.77, 'rot1': 0, 'rot0': 0, 'rot3': 0, 'rot2': 0, 'state': 'normal', 'yaw': 9.36, 'datetime': '2018-10-12 18:20:34.508212', 'mgs': 0, 'depth': -0.598, 'time': 6.03, 'pitch': 2.28, 'roll': -2.68}
{'lipoC2': 7.56, 'temp': 27.44, 'lipoC3S3': 11.76, 'rot1': 0, 'rot0': 0, 'rot3': 0, 'rot2': 0, 'state': 'normal', 'yaw': 9.72, 'datetime': '2018-10-12 18:20:34.605073', 'mgs': 0, 'depth': -0.674, 'time': 6.13, 'pitch': 1.79, 'roll': -2.13}
{'lipoC2': 7.56, 'temp': 27.44, 'lipoC3S3': 11.77, 'rot1': 0, 'rot0': 0, 'rot3': 0, 'rot2': 0, 'state': 'normal', 'yaw': 10.13, 'datetime': '2018-10-12 18:20:34.702207', 'mgs': 0, 'depth': -0.598, 'time': 6.23, 'pitch': 0.99, 'roll': -1.31}
{'lipoC2': 7.56, 'temp': 27.5, 'lipoC3S3': 11.76, 'rot1': 0, 'rot0': 0, 'rot3': 0, 'rot2': 0, 'state': 'normal', 'yaw': 10.58, 'datetime': '2018-10-12 18:20:34.799366', 'mgs': 0, 'depth': -0.598, 'time': 6.33, 'pitch': 0.15, 'roll': -0.63}
{'lipoC2': 7.57, 'temp': 27.5, 'lipoC3S3': 11.76, 'rot1': 0, 'rot0': 0, 'rot3': 0, 'rot2': 0, 'state': 'normal', 'yaw': 10.69, 'datetime': '2018-10-12 18:20:34.897545', 'mgs': 0, 'depth': -0.598, 'time': 6.43, 'pitch': -0.51, 'roll': -0.4}
{'lipoC2': 7.56, 'temp': 27.5, 'lipoC3S3': 11.77, 'rot1': 0, 'rot0': 0, 'rot3': 0, 'rot2': 0, 'state': 'normal', 'yaw': 10.37, 'datetime': '2018-10-12 18:20:34.990850', 'mgs': 0, 'depth': -0.598, 'time': 6.52, 'pitch': -1.11, 'roll': -0.79}
{'lipoC2': 7.56, 'temp': 27.44, 'lipoC3S3': 11.76, 'rot1': 0, 'rot0': 0, 'rot3': 0, 'rot2': 0, 'state': 'normal', 'yaw': 9.59, 'datetime': '2018-10-12 18:20:35.092966', 'mgs': 0, 'depth': -0.598, 'time': 6.62, 'pitch': -1.18, 'roll': -1.71}
{'lipoC2': 7.56, 'temp': 27.44, 'lipoC3S3': 11.76, 'rot1': 0, 'rot0': 0, 'rot3': 0, 'rot2': 0, 'state': 'normal', 'yaw': 8.72, 'datetime': '2018-10-12 18:20:35.190003', 'mgs': 0, 'depth': -0.598, 'time': 6.72, 'pitch': -1.04, 'roll': -2.6}
{'lipoC2': 7.56, 'temp': 27.5, 'lipoC3S3': 11.76, 'rot1': 0, 'rot0': 0, 'rot3': 0, 'rot2': 0, 'state': 'normal', 'yaw': 8.36, 'datetime': '2018-10-12 18:20:35.287879', 'mgs': 0, 'depth': -0.598, 'time': 6.82, 'pitch': -0.67, 'roll': -3.16}
{'lipoC2': 7.56, 'temp': 27.5, 'lipoC3S3': 11.77, 'rot1': 0, 'rot0': 0, 'rot3': 0, 'rot2': 0, 'state': 'normal', 'yaw': 8.13, 'datetime': '2018-10-12 18:20:35.386181', 'mgs': 0, 'depth': -0.598, 'time': 6.91, 'pitch': -0.05, 'roll': -3.45}
{'lipoC2': 7.56, 'temp': 27.5, 'lipoC3S3': 11.76, 'rot1': 0, 'rot0': 0, 'rot3': 0, 'rot2': 0, 'state': 'normal', 'yaw': 7.91, 'datetime': '2018-10-12 18:20:35.483279', 'mgs': 0, 'depth': -0.674, 'time': 7.01, 'pitch': 0.64, 'roll': -3.31}
{'lipoC2': 7.56, 'temp': 27.5, 'lipoC3S3': 11.77, 'rot1': 0, 'rot0': 0, 'rot3': 0, 'rot2': 0, 'state': 'normal', 'yaw': 7.84, 'datetime': '2018-10-12 18:20:35.580412', 'mgs': 0, 'depth': -0.674, 'time': 7.11, 'pitch': 1.32, 'roll': -3.03}
{'lipoC2': 7.56, 'temp': 27.5, 'lipoC3S3': 11.76, 'rot1': 0, 'rot0': 0, 'rot3': 0, 'rot2': 0, 'state': 'normal', 'yaw': 7.82, 'datetime': '2018-10-12 18:20:35.678314', 'mgs': 0, 'depth': -0.598, 'time': 7.21, 'pitch': 1.71, 'roll': -2.95}
{'lipoC2': 7.56, 'temp': 27.5, 'lipoC3S3': 11.76, 'rot1': 0, 'rot0': 0, 'rot3': 0, 'rot2': 0, 'state': 'normal', 'yaw': 7.79, 'datetime': '2018-10-12 18:20:35.775346', 'mgs': 0, 'depth': -0.751, 'time': 7.3, 'pitch': 1.92, 'roll': -3.22}
{'lipoC2': 7.57, 'temp': 27.5, 'lipoC3S3': 11.76, 'rot1': 0, 'rot0': 0, 'rot3': 0, 'rot2': 0, 'state': 'normal', 'yaw': 7.98, 'datetime': '2018-10-12 18:20:35.872654', 'mgs': 0, 'depth': -0.598, 'time': 7.4, 'pitch': 2.01, 'roll': -3.69}
{'lipoC2': 7.56, 'temp': 27.5, 'lipoC3S3': 11.76, 'rot1': 0, 'rot0': 0, 'rot3': 0, 'rot2': 0, 'state': 'normal', 'yaw': 8.44, 'datetime': '2018-10-12 18:20:35.969722', 'mgs': 0, 'depth': -0.598, 'time': 7.5, 'pitch': 1.99, 'roll': -3.89}
{'lipoC2': 7.56, 'temp': 27.5, 'lipoC3S3': 11.77, 'rot1': 0, 'rot0': 0, 'rot3': 0, 'rot2': 0, 'state': 'normal', 'yaw': 9.03, 'datetime': '2018-10-12 18:20:36.066900', 'mgs': 0, 'depth': -0.674, 'time': 7.6, 'pitch': 1.94, 'roll': -3.73}
{'lipoC2': 7.57, 'temp': 27.5, 'lipoC3S3': 11.76, 'rot1': 0, 'rot0': 0, 'rot3': 0, 'rot2': 0, 'state': 'normal', 'yaw': 9.76, 'datetime': '2018-10-12 18:20:36.163800', 'mgs': 0, 'depth': -0.598, 'time': 7.69, 'pitch': 1.9, 'roll': -3.34}
{'lipoC2': 7.56, 'temp': 27.44, 'lipoC3S3': 11.77, 'rot1': 0, 'rot0': 0, 'rot3': 0, 'rot2': 0, 'state': 'normal', 'yaw': 10.34, 'datetime': '2018-10-12 18:20:36.260930', 'mgs': 0, 'depth': -0.598, 'time': 7.79, 'pitch': 1.57, 'roll': -3.12}
{'lipoC2': 7.56, 'temp': 27.44, 'lipoC3S3': 11.76, 'rot1': 0, 'rot0': 0, 'rot3': 0, 'rot2': 0, 'state': 'normal', 'yaw': 10.68, 'datetime': '2018-10-12 18:20:36.358048', 'mgs': 0, 'depth': -0.674, 'time': 7.89, 'pitch': 0.97, 'roll': -3.22}
{'lipoC2': 7.56, 'temp': 27.44, 'lipoC3S3': 11.77, 'rot1': 0, 'rot0': 0, 'rot3': 0, 'rot2': 0, 'state': 'normal', 'yaw': 10.95, 'datetime': '2018-10-12 18:20:36.455434', 'mgs': 0, 'depth': -0.674, 'time': 7.99, 'pitch': 0.15, 'roll': -3.58}
{'lipoC2': 7.56, 'temp': 27.44, 'lipoC3S3': 11.76, 'rot1': 0, 'rot0': 0, 'rot3': 0, 'rot2': 0, 'state': 'normal', 'yaw': 11.15, 'datetime': '2018-10-12 18:20:36.547446', 'mgs': 0, 'depth': -0.598, 'time': 8.08, 'pitch': -0.54, 'roll': -3.6}
{'lipoC2': 7.56, 'temp': 27.44, 'lipoC3S3': 11.77, 'rot1': 0, 'rot0': 0, 'rot3': 0, 'rot2': 0, 'state': 'normal', 'yaw': 11.2, 'datetime': '2018-10-12 18:20:36.650418', 'mgs': 0, 'depth': -0.522, 'time': 8.18, 'pitch': -0.9, 'roll': -3.14}
{'lipoC2': 7.56, 'temp': 27.5, 'lipoC3S3': 11.77, 'rot1': 0, 'rot0': 0, 'rot3': 0, 'rot2': 0, 'state': 'normal', 'yaw': 11.42, 'datetime': '2018-10-12 18:20:36.748655', 'mgs': 0, 'depth': -0.522, 'time': 8.28, 'pitch': -1.37, 'roll': -2.31}
{'lipoC2': 7.57, 'temp': 27.5, 'lipoC3S3': 11.76, 'rot1': 0, 'rot0': 0, 'rot3': 0, 'rot2': 0, 'state': 'normal', 'yaw': 12.02, 'datetime': '2018-10-12 18:20:36.845840', 'mgs': 0, 'depth': -0.522, 'time': 8.38, 'pitch': -1.91, 'roll': -1.97}
{'lipoC2': 7.56, 'temp': 27.5, 'lipoC3S3': 11.76, 'rot1': 0, 'rot0': 0, 'rot3': 0, 'rot2': 0, 'state': 'normal', 'yaw': 12.14, 'datetime': '2018-10-12 18:20:36.943009', 'mgs': 0, 'depth': -0.674, 'time': 8.47, 'pitch': -1.92, 'roll': -2.42}
{'lipoC2': 7.56, 'temp': 27.5, 'lipoC3S3': 11.77, 'rot1': 0, 'rot0': 0, 'rot3': 0, 'rot2': 0, 'state': 'normal', 'yaw': 12.0, 'datetime': '2018-10-12 18:20:37.040766', 'mgs': 0, 'depth': -0.598, 'time': 8.57, 'pitch': -1.35, 'roll': -3.42}
{'lipoC2': 7.56, 'temp': 27.5, 'lipoC3S3': 11.77, 'rot1': 0, 'rot0': 0, 'rot3': 0, 'rot2': 0, 'state': 'normal', 'yaw': 12.13, 'datetime': '2018-10-12 18:20:37.139182', 'mgs': 0, 'depth': -0.598, 'time': 8.67, 'pitch': -0.24, 'roll': -4.2}
{'lipoC2': 7.56, 'temp': 27.5, 'lipoC3S3': 11.76, 'rot1': 0, 'rot0': 0, 'rot3': 0, 'rot2': 0, 'state': 'normal', 'yaw': 12.33, 'datetime': '2018-10-12 18:20:37.236191', 'mgs': 0, 'depth': -0.598, 'time': 8.77, 'pitch': 0.76, 'roll': -4.02}
{'lipoC2': 7.57, 'temp': 27.5, 'lipoC3S3': 11.76, 'rot1': 0, 'rot0': 0, 'rot3': 0, 'rot2': 0, 'state': 'normal', 'yaw': 12.44, 'datetime': '2018-10-12 18:20:37.333233', 'mgs': 0, 'depth': -0.522, 'time': 8.86, 'pitch': 1.33, 'roll': -3.5}
{'lipoC2': 7.56, 'temp': 27.5, 'lipoC3S3': 11.76, 'rot1': 0, 'rot0': 0, 'rot3': 0, 'rot2': 0, 'state': 'normal', 'yaw': 12.75, 'datetime': '2018-10-12 18:20:37.430463', 'mgs': 0, 'depth': -0.674, 'time': 8.96, 'pitch': 1.8, 'roll': -3.54}
{'lipoC2': 7.56, 'temp': 27.5, 'lipoC3S3': 11.76, 'rot1': 0, 'rot0': 0, 'rot3': 0, 'rot2': 0, 'state': 'normal', 'yaw': 13.19, 'datetime': '2018-10-12 18:20:37.522788', 'mgs': 0, 'depth': -0.598, 'time': 9.06, 'pitch': 2.1, 'roll': -4.11}
{'lipoC2': 7.56, 'temp': 27.5, 'lipoC3S3': 11.77, 'rot1': 0, 'rot0': 0, 'rot3': 0, 'rot2': 0, 'state': 'normal', 'yaw': 13.92, 'datetime': '2018-10-12 18:20:37.619893', 'mgs': 0, 'depth': -0.598, 'time': 9.15, 'pitch': 2.09, 'roll': -4.58}
{'lipoC2': 7.56, 'temp': 27.5, 'lipoC3S3': 11.76, 'rot1': 0, 'rot0': 0, 'rot3': 0, 'rot2': 0, 'state': 'normal', 'yaw': 14.75, 'datetime': '2018-10-12 18:20:37.717797', 'mgs': 0, 'depth': -0.598, 'time': 9.25, 'pitch': 1.83, 'roll': -4.38}
{'lipoC2': 7.56, 'temp': 27.5, 'lipoC3S3': 11.77, 'rot1': 0, 'rot0': 0, 'rot3': 0, 'rot2': 0, 'state': 'normal', 'yaw': 15.18, 'datetime': '2018-10-12 18:20:37.814094', 'mgs': 0, 'depth': -0.598, 'time': 9.35, 'pitch': 1.35, 'roll': -3.5}
{'lipoC2': 7.56, 'temp': 27.5, 'lipoC3S3': 11.77, 'rot1': 0, 'rot0': 0, 'rot3': 0, 'rot2': 0, 'state': 'normal', 'yaw': 15.22, 'datetime': '2018-10-12 18:20:37.911148', 'mgs': 0, 'depth': -0.522, 'time': 9.45, 'pitch': 0.96, 'roll': -2.9}
{'lipoC2': 7.56, 'temp': 27.5, 'lipoC3S3': 11.76, 'rot1': 0, 'rot0': 0, 'rot3': 0, 'rot2': 0, 'state': 'normal', 'yaw': 15.64, 'datetime': '2018-10-12 18:20:38.008324', 'mgs': 0, 'depth': -0.522, 'time': 9.54, 'pitch': 1.07, 'roll': -2.88}
{'lipoC2': 7.56, 'temp': 27.5, 'lipoC3S3': 11.76, 'rot1': 0, 'rot0': 0, 'rot3': 0, 'rot2': 0, 'state': 'normal', 'yaw': 16.34, 'datetime': '2018-10-12 18:20:38.105426', 'mgs': 0, 'depth': -0.598, 'time': 9.64, 'pitch': 1.57, 'roll': -3.02}
{'lipoC2': 7.56, 'temp': 27.5, 'lipoC3S3': 11.76, 'rot1': 0, 'rot0': 0, 'rot3': 0, 'rot2': 0, 'state': 'normal', 'yaw': 17.0, 'datetime': '2018-10-12 18:20:38.202551', 'mgs': 0, 'depth': -0.598, 'time': 9.74, 'pitch': 2.24, 'roll': -3.03}
{'lipoC2': 7.56, 'temp': 27.5, 'lipoC3S3': 11.76, 'rot1': 0, 'rot0': 0, 'rot3': 0, 'rot2': 0, 'state': 'normal', 'yaw': 17.52, 'datetime': '2018-10-12 18:20:38.299623', 'mgs': 0, 'depth': -0.674, 'time': 9.84, 'pitch': 2.86, 'roll': -2.83}
{'lipoC2': 7.56, 'temp': 27.5, 'lipoC3S3': 11.77, 'rot1': 0, 'rot0': 0, 'rot3': 0, 'rot2': 0, 'state': 'normal', 'yaw': 17.66, 'datetime': '2018-10-12 18:20:38.398120', 'mgs': 0, 'depth': -0.522, 'time': 9.93, 'pitch': 3.09, 'roll': -2.64}
{'lipoC2': 7.56, 'temp': 27.5, 'lipoC3S3': 11.76, 'rot1': 0, 'rot0': 0, 'rot3': 0, 'rot2': 0, 'state': 'normal', 'yaw': 17.73, 'datetime': '2018-10-12 18:20:38.496468', 'mgs': 0, 'depth': -0.522, 'time': 10.03, 'pitch': 2.85, 'roll': -2.95}
{'lipoC2': 7.56, 'temp': 27.5, 'lipoC3S3': 11.76, 'rot1': 0, 'rot0': 0, 'rot3': 0, 'rot2': 0, 'state': 'normal', 'yaw': 18.16, 'datetime': '2018-10-12 18:20:38.598536', 'mgs': 0, 'depth': -0.522, 'time': 10.13, 'pitch': 2.07, 'roll': -3.88}
{'lipoC2': 7.56, 'temp': 27.5, 'lipoC3S3': 11.77, 'rot1': 0, 'rot0': 0, 'rot3': 0, 'rot2': 0, 'state': 'normal', 'yaw': 18.65, 'datetime': '2018-10-12 18:20:38.695603', 'mgs': 0, 'depth': -0.522, 'time': 10.23, 'pitch': 1.07, 'roll': -4.87}
{'lipoC2': 7.56, 'temp': 27.5, 'lipoC3S3': 11.77, 'rot1': 0, 'rot0': 0, 'rot3': 0, 'rot2': 0, 'state': 'normal', 'yaw': 18.88, 'datetime': '2018-10-12 18:20:38.793665', 'mgs': 0, 'depth': -0.522, 'time': 10.33, 'pitch': 0.43, 'roll': -4.99}
{'lipoC2': 7.56, 'temp': 27.5, 'lipoC3S3': 11.77, 'rot1': 0, 'rot0': 0, 'rot3': 0, 'rot2': 0, 'state': 'normal', 'yaw': 19.02, 'datetime': '2018-10-12 18:20:38.892086', 'mgs': 0, 'depth': -0.522, 'time': 10.42, 'pitch': 0.2, 'roll': -4.34}
{'lipoC2': 7.56, 'temp': 27.5, 'lipoC3S3': 11.76, 'rot1': 0, 'rot0': 0, 'rot3': 0, 'rot2': 0, 'state': 'normal', 'yaw': 19.3, 'datetime': '2018-10-12 18:20:38.989283', 'mgs': 0, 'depth': -0.522, 'time': 10.52, 'pitch': 0.33, 'roll': -3.51}
{'lipoC2': 7.56, 'temp': 27.5, 'lipoC3S3': 11.77, 'rot1': 0, 'rot0': 0, 'rot3': 0, 'rot2': 0, 'state': 'normal', 'yaw': 19.29, 'datetime': '2018-10-12 18:20:39.086078', 'mgs': 0, 'depth': -0.522, 'time': 10.62, 'pitch': 0.68, 'roll': -3.13}
{'lipoC2': 7.56, 'temp': 27.5, 'lipoC3S3': 11.76, 'rot1': 0, 'rot0': 0, 'rot3': 0, 'rot2': 0, 'state': 'normal', 'yaw': 18.81, 'datetime': '2018-10-12 18:20:39.184366', 'mgs': 0, 'depth': -0.446, 'time': 10.72, 'pitch': 0.79, 'roll': -3.57}
{'lipoC2': 7.56, 'temp': 27.5, 'lipoC3S3': 11.76, 'rot1': 0, 'rot0': 0, 'rot3': 0, 'rot2': 0, 'state': 'normal', 'yaw': 18.32, 'datetime': '2018-10-12 18:20:39.282655', 'mgs': 0, 'depth': -0.446, 'time': 10.81, 'pitch': 0.55, 'roll': -4.42}
{'lipoC2': 7.56, 'temp': 27.5, 'lipoC3S3': 11.76, 'rot1': 0, 'rot0': 0, 'rot3': 0, 'rot2': 0, 'state': 'normal', 'yaw': 17.96, 'datetime': '2018-10-12 18:20:39.379899', 'mgs': 0, 'depth': -0.446, 'time': 10.91, 'pitch': 0.17, 'roll': -4.81}
{'lipoC2': 7.56, 'temp': 27.5, 'lipoC3S3': 11.77, 'rot1': 0, 'rot0': 0, 'rot3': 0, 'rot2': 0, 'state': 'normal', 'yaw': 17.71, 'datetime': '2018-10-12 18:20:39.476937', 'mgs': 0, 'depth': -0.446, 'time': 11.01, 'pitch': -0.03, 'roll': -4.39}
{'lipoC2': 7.56, 'temp': 27.5, 'lipoC3S3': 11.76, 'rot1': 0, 'rot0': 0, 'rot3': 0, 'rot2': 0, 'state': 'normal', 'yaw': 17.48, 'datetime': '2018-10-12 18:20:39.573885', 'mgs': 0, 'depth': -0.522, 'time': 11.11, 'pitch': 0.07, 'roll': -3.49}
{'lipoC2': 7.56, 'temp': 27.5, 'lipoC3S3': 11.76, 'rot1': 0, 'rot0': 0, 'rot3': 0, 'rot2': 0, 'state': 'normal', 'yaw': 17.13, 'datetime': '2018-10-12 18:20:39.671110', 'mgs': 0, 'depth': -0.446, 'time': 11.2, 'pitch': 0.49, 'roll': -2.36}
{'lipoC2': 7.56, 'temp': 27.5, 'lipoC3S3': 11.76, 'rot1': 0, 'rot0': 0, 'rot3': 0, 'rot2': 0, 'state': 'normal', 'yaw': 16.58, 'datetime': '2018-10-12 18:20:39.768142', 'mgs': 0, 'depth': -0.522, 'time': 11.3, 'pitch': 0.84, 'roll': -1.63}
{'lipoC2': 7.56, 'temp': 27.5, 'lipoC3S3': 11.77, 'rot1': 0, 'rot0': 0, 'rot3': 0, 'rot2': 0, 'state': 'normal', 'yaw': 15.91, 'datetime': '2018-10-12 18:20:39.865421', 'mgs': 0, 'depth': -0.522, 'time': 11.4, 'pitch': 0.97, 'roll': -1.55}
{'lipoC2': 7.56, 'temp': 27.5, 'lipoC3S3': 11.77, 'rot1': 0, 'rot0': 0, 'rot3': 0, 'rot2': 0, 'state': 'normal', 'yaw': 15.2, 'datetime': '2018-10-12 18:20:39.962508', 'mgs': 0, 'depth': -0.446, 'time': 11.49, 'pitch': 0.9, 'roll': -1.88}
{'lipoC2': 7.56, 'temp': 27.5, 'lipoC3S3': 11.76, 'rot1': 0, 'rot0': 0, 'rot3': 0, 'rot2': 0, 'state': 'normal', 'yaw': 14.54, 'datetime': '2018-10-12 18:20:40.059785', 'mgs': 0, 'depth': -0.446, 'time': 11.59, 'pitch': 0.72, 'roll': -2.63}
{'lipoC2': 7.56, 'temp': 27.5, 'lipoC3S3': 11.77, 'rot1': 0, 'rot0': 0, 'rot3': 0, 'rot2': 0, 'state': 'normal', 'yaw': 14.25, 'datetime': '2018-10-12 18:20:40.156957', 'mgs': 0, 'depth': -0.446, 'time': 11.69, 'pitch': 0.53, 'roll': -3.39}
{'lipoC2': 7.56, 'temp': 27.5, 'lipoC3S3': 11.76, 'rot1': 0, 'rot0': 0, 'rot3': 0, 'rot2': 0, 'state': 'normal', 'yaw': 14.21, 'datetime': '2018-10-12 18:20:40.255472', 'mgs': 0, 'depth': -0.522, 'time': 11.79, 'pitch': 0.47, 'roll': -3.46}
{'lipoC2': 7.56, 'temp': 27.5, 'lipoC3S3': 11.77, 'rot1': 0, 'rot0': 0, 'rot3': 0, 'rot2': 0, 'state': 'normal', 'yaw': 13.73, 'datetime': '2018-10-12 18:20:40.353029', 'mgs': 0, 'depth': -0.446, 'time': 11.89, 'pitch': 0.49, 'roll': -2.84}
{'lipoC2': 7.56, 'temp': 27.5, 'lipoC3S3': 11.76, 'rot1': 0, 'rot0': 0, 'rot3': 0, 'rot2': 0, 'state': 'normal', 'yaw': 12.85, 'datetime': '2018-10-12 18:20:40.450240', 'mgs': 0, 'depth': -0.522, 'time': 11.98, 'pitch': 0.53, 'roll': -1.81}
{'lipoC2': 7.56, 'temp': 27.5, 'lipoC3S3': 11.76, 'rot1': 0, 'rot0': 0, 'rot3': 0, 'rot2': 0, 'state': 'normal', 'yaw': 11.97, 'datetime': '2018-10-12 18:20:40.547565', 'mgs': 0, 'depth': -0.522, 'time': 12.08, 'pitch': 0.44, 'roll': -0.76}
{'lipoC2': 7.56, 'temp': 27.5, 'lipoC3S3': 11.76, 'rot1': 0, 'rot0': 0, 'rot3': 0, 'rot2': 0, 'state': 'normal', 'yaw': 11.25, 'datetime': '2018-10-12 18:20:40.645620', 'mgs': 0, 'depth': -0.522, 'time': 12.18, 'pitch': 0.22, 'roll': -0.55}
{'lipoC2': 7.56, 'temp': 27.5, 'lipoC3S3': 11.77, 'rot1': 0, 'rot0': 0, 'rot3': 0, 'rot2': 0, 'state': 'normal', 'yaw': 10.73, 'datetime': '2018-10-12 18:20:40.743191', 'mgs': 0, 'depth': -0.522, 'time': 12.28, 'pitch': -0.06, 'roll': -1.56}
{'lipoC2': 7.56, 'temp': 27.5, 'lipoC3S3': 11.77, 'rot1': 0, 'rot0': 0, 'rot3': 0, 'rot2': 0, 'state': 'normal', 'yaw': 10.4, 'datetime': '2018-10-12 18:20:40.840362', 'mgs': 0, 'depth': -0.446, 'time': 12.37, 'pitch': -0.42, 'roll': -2.85}
{'lipoC2': 7.56, 'temp': 27.5, 'lipoC3S3': 11.76, 'rot1': 0, 'rot0': 0, 'rot3': 0, 'rot2': 0, 'state': 'normal', 'yaw': 10.26, 'datetime': '2018-10-12 18:20:40.937725', 'mgs': 0, 'depth': -0.446, 'time': 12.47, 'pitch': -0.76, 'roll': -3.4}
{'lipoC2': 7.56, 'temp': 27.5, 'lipoC3S3': 11.77, 'rot1': 0, 'rot0': 0, 'rot3': 0, 'rot2': 0, 'state': 'normal', 'yaw': 10.44, 'datetime': '2018-10-12 18:20:41.034779', 'mgs': 0, 'depth': -0.446, 'time': 12.57, 'pitch': -0.89, 'roll': -3.24}
{'lipoC2': 7.56, 'temp': 27.5, 'lipoC3S3': 11.77, 'rot1': 0, 'rot0': 0, 'rot3': 0, 'rot2': 0, 'state': 'normal', 'yaw': 10.8, 'datetime': '2018-10-12 18:20:41.132033', 'mgs': 0, 'depth': -0.446, 'time': 12.67, 'pitch': -0.49, 'roll': -2.67}
{'lipoC2': 7.56, 'temp': 27.5, 'lipoC3S3': 11.77, 'rot1': 0, 'rot0': 0, 'rot3': 0, 'rot2': 0, 'state': 'normal', 'yaw': 11.11, 'datetime': '2018-10-12 18:20:41.229129', 'mgs': 0, 'depth': -0.446, 'time': 12.76, 'pitch': 0.51, 'roll': -1.93}
{'lipoC2': 7.56, 'temp': 27.5, 'lipoC3S3': 11.76, 'rot1': 0, 'rot0': 0, 'rot3': 0, 'rot2': 0, 'state': 'normal', 'yaw': 11.16, 'datetime': '2018-10-12 18:20:41.326128', 'mgs': 0, 'depth': -0.522, 'time': 12.86, 'pitch': 1.57, 'roll': -1.31}
{'lipoC2': 7.56, 'temp': 27.5, 'lipoC3S3': 11.76, 'rot1': 0, 'rot0': 0, 'rot3': 0, 'rot2': 0, 'state': 'normal', 'yaw': 10.91, 'datetime': '2018-10-12 18:20:41.423582', 'mgs': 0, 'depth': -0.446, 'time': 12.96, 'pitch': 2.28, 'roll': -0.85}
{'lipoC2': 7.56, 'temp': 27.5, 'lipoC3S3': 11.77, 'rot1': 0, 'rot0': 0, 'rot3': 0, 'rot2': 0, 'state': 'normal', 'yaw': 10.57, 'datetime': '2018-10-12 18:20:41.520497', 'mgs': 0, 'depth': -0.522, 'time': 13.05, 'pitch': 2.34, 'roll': -0.58}
{'lipoC2': 7.56, 'temp': 27.44, 'lipoC3S3': 11.76, 'rot1': 0, 'rot0': 0, 'rot3': 0, 'rot2': 0, 'state': 'normal', 'yaw': 10.31, 'datetime': '2018-10-12 18:20:41.612588', 'mgs': 0, 'depth': -0.446, 'time': 13.15, 'pitch': 2.05, 'roll': -0.67}
{'lipoC2': 7.56, 'temp': 27.44, 'lipoC3S3': 11.76, 'rot1': 0, 'rot0': 0, 'rot3': 0, 'rot2': 0, 'state': 'normal', 'yaw': 10.35, 'datetime': '2018-10-12 18:20:41.709787', 'mgs': 0, 'depth': -0.446, 'time': 13.25, 'pitch': 1.5, 'roll': -1.24}
{'lipoC2': 7.56, 'temp': 27.5, 'lipoC3S3': 11.77, 'rot1': 0, 'rot0': 0, 'rot3': 0, 'rot2': 0, 'state': 'normal', 'yaw': 10.76, 'datetime': '2018-10-12 18:20:41.806880', 'mgs': 0, 'depth': -0.446, 'time': 13.35, 'pitch': 0.93, 'roll': -2.04}
{'lipoC2': 7.56, 'temp': 27.5, 'lipoC3S3': 11.77, 'rot1': 0, 'rot0': 0, 'rot3': 0, 'rot2': 0, 'state': 'normal', 'yaw': 10.99, 'datetime': '2018-10-12 18:20:41.904907', 'mgs': 0, 'depth': -0.446, 'time': 13.44, 'pitch': 0.74, 'roll': -2.52}
{'lipoC2': 7.56, 'temp': 27.5, 'lipoC3S3': 11.77, 'rot1': 0, 'rot0': 0, 'rot3': 0, 'rot2': 0, 'state': 'normal', 'yaw': 10.82, 'datetime': '2018-10-12 18:20:42.003566', 'mgs': 0, 'depth': -0.446, 'time': 13.54, 'pitch': 0.96, 'roll': -2.37}
{'lipoC2': 7.56, 'temp': 27.5, 'lipoC3S3': 11.76, 'rot1': 0, 'rot0': 0, 'rot3': 0, 'rot2': 0, 'state': 'normal', 'yaw': 10.47, 'datetime': '2018-10-12 18:20:42.100583', 'mgs': 0, 'depth': -0.369, 'time': 13.64, 'pitch': 1.38, 'roll': -1.83}
{'lipoC2': 7.56, 'temp': 27.5, 'lipoC3S3': 11.76, 'rot1': 0, 'rot0': 0, 'rot3': 0, 'rot2': 0, 'state': 'normal', 'yaw': 10.23, 'datetime': '2018-10-12 18:20:42.197637', 'mgs': 0, 'depth': -0.369, 'time': 13.74, 'pitch': 1.91, 'roll': -1.19}
{'lipoC2': 7.56, 'temp': 27.5, 'lipoC3S3': 11.76, 'rot1': 0, 'rot0': 0, 'rot3': 0, 'rot2': 0, 'state': 'normal', 'yaw': 10.01, 'datetime': '2018-10-12 18:20:42.295337', 'mgs': 0, 'depth': -0.369, 'time': 13.84, 'pitch': 2.37, 'roll': -0.7}
{'lipoC2': 7.56, 'temp': 27.5, 'lipoC3S3': 11.76, 'rot1': 0, 'rot0': 0, 'rot3': 0, 'rot2': 0, 'state': 'normal', 'yaw': 10.08, 'datetime': '2018-10-12 18:20:42.398814', 'mgs': 0, 'depth': -0.446, 'time': 13.93, 'pitch': 2.54, 'roll': -0.59}
{'lipoC2': 7.56, 'temp': 27.5, 'lipoC3S3': 11.76, 'rot1': 0, 'rot0': 0, 'rot3': 0, 'rot2': 0, 'state': 'normal', 'yaw': 10.58, 'datetime': '2018-10-12 18:20:42.491027', 'mgs': 0, 'depth': -0.446, 'time': 14.03, 'pitch': 2.25, 'roll': -0.79}
{'lipoC2': 7.56, 'temp': 27.5, 'lipoC3S3': 11.76, 'rot1': 0, 'rot0': 0, 'rot3': 0, 'rot2': 0, 'state': 'normal', 'yaw': 10.87, 'datetime': '2018-10-12 18:20:42.593131', 'mgs': 0, 'depth': -0.446, 'time': 14.13, 'pitch': 1.75, 'roll': -1.24}
{'lipoC2': 7.56, 'temp': 27.5, 'lipoC3S3': 11.77, 'rot1': 0, 'rot0': 0, 'rot3': 0, 'rot2': 0, 'state': 'normal', 'yaw': 10.87, 'datetime': '2018-10-12 18:20:42.690744', 'mgs': 0, 'depth': -0.446, 'time': 14.23, 'pitch': 1.2, 'roll': -1.83}
{'lipoC2': 7.56, 'temp': 27.5, 'lipoC3S3': 11.76, 'rot1': 0, 'rot0': 0, 'rot3': 0, 'rot2': 0, 'state': 'normal', 'yaw': 10.9, 'datetime': '2018-10-12 18:20:42.787772', 'mgs': 0, 'depth': -0.446, 'time': 14.32, 'pitch': 0.54, 'roll': -2.47}
{'lipoC2': 7.56, 'temp': 27.5, 'lipoC3S3': 11.76, 'rot1': 0, 'rot0': 0, 'rot3': 0, 'rot2': 0, 'state': 'normal', 'yaw': 11.17, 'datetime': '2018-10-12 18:20:42.884922', 'mgs': 0, 'depth': -0.446, 'time': 14.42, 'pitch': 0.26, 'roll': -3.02}
{'lipoC2': 7.56, 'temp': 27.5, 'lipoC3S3': 11.76, 'rot1': 0, 'rot0': 0, 'rot3': 0, 'rot2': 0, 'state': 'normal', 'yaw': 11.59, 'datetime': '2018-10-12 18:20:42.982034', 'mgs': 0, 'depth': -0.522, 'time': 14.52, 'pitch': 0.49, 'roll': -3.48}
{'lipoC2': 7.56, 'temp': 27.44, 'lipoC3S3': 11.76, 'rot1': 0, 'rot0': 0, 'rot3': 0, 'rot2': 0, 'state': 'normal', 'yaw': 11.95, 'datetime': '2018-10-12 18:20:43.079263', 'mgs': 0, 'depth': -0.446, 'time': 14.61, 'pitch': 0.84, 'roll': -3.85}
{'lipoC2': 7.56, 'temp': 27.44, 'lipoC3S3': 11.76, 'rot1': 0, 'rot0': 0, 'rot3': 0, 'rot2': 0, 'state': 'normal', 'yaw': 12.18, 'datetime': '2018-10-12 18:20:43.176225', 'mgs': 0, 'depth': -0.446, 'time': 14.71, 'pitch': 1.0, 'roll': -3.98}
{'lipoC2': 7.56, 'temp': 27.5, 'lipoC3S3': 11.76, 'rot1': 0, 'rot0': 0, 'rot3': 0, 'rot2': 0, 'state': 'normal', 'yaw': 12.23, 'datetime': '2018-10-12 18:20:43.273228', 'mgs': 0, 'depth': -0.446, 'time': 14.81, 'pitch': 0.66, 'roll': -3.63}
{'lipoC2': 7.56, 'temp': 27.5, 'lipoC3S3': 11.76, 'rot1': 0, 'rot0': 0, 'rot3': 0, 'rot2': 0, 'state': 'normal', 'yaw': 12.39, 'datetime': '2018-10-12 18:20:43.370322', 'mgs': 0, 'depth': -0.446, 'time': 14.91, 'pitch': 0.19, 'roll': -3.22}
{'lipoC2': 7.56, 'temp': 27.5, 'lipoC3S3': 11.76, 'rot1': 0, 'rot0': 0, 'rot3': 0, 'rot2': 0, 'state': 'normal', 'yaw': 12.82, 'datetime': '2018-10-12 18:20:43.467446', 'mgs': 0, 'depth': -0.369, 'time': 15.0, 'pitch': -0.3, 'roll': -3.12}
{'lipoC2': 7.56, 'temp': 27.5, 'lipoC3S3': 11.76, 'rot1': 0, 'rot0': 0, 'rot3': 0, 'rot2': 0, 'state': 'normal', 'yaw': 13.27, 'datetime': '2018-10-12 18:20:43.564819', 'mgs': 0, 'depth': -0.369, 'time': 15.1, 'pitch': -0.54, 'roll': -3.51}
{'lipoC2': 7.56, 'temp': 27.5, 'lipoC3S3': 11.76, 'rot1': 0, 'rot0': 0, 'rot3': 0, 'rot2': 0, 'state': 'normal', 'yaw': 13.83, 'datetime': '2018-10-12 18:20:43.662554', 'mgs': 0, 'depth': -0.446, 'time': 15.2, 'pitch': -0.41, 'roll': -4.05}
{'lipoC2': 7.56, 'temp': 27.5, 'lipoC3S3': 11.76, 'rot1': 0, 'rot0': 0, 'rot3': 0, 'rot2': 0, 'state': 'normal', 'yaw': 14.71, 'datetime': '2018-10-12 18:20:43.760974', 'mgs': 0, 'depth': -0.369, 'time': 15.3, 'pitch': 0.03, 'roll': -4.35}
{'lipoC2': 7.56, 'temp': 27.5, 'lipoC3S3': 11.76, 'rot1': 0, 'rot0': 0, 'rot3': 0, 'rot2': 0, 'state': 'normal', 'yaw': 15.58, 'datetime': '2018-10-12 18:20:43.858092', 'mgs': 0, 'depth': -0.369, 'time': 15.39, 'pitch': 0.52, 'roll': -4.0}
{'lipoC2': 7.56, 'temp': 27.5, 'lipoC3S3': 11.76, 'rot1': 0, 'rot0': 0, 'rot3': 0, 'rot2': 0, 'state': 'normal', 'yaw': 16.1, 'datetime': '2018-10-12 18:20:43.955131', 'mgs': 0, 'depth': -0.446, 'time': 15.49, 'pitch': 0.82, 'roll': -3.05}
{'lipoC2': 7.56, 'temp': 27.5, 'lipoC3S3': 11.76, 'rot1': 0, 'rot0': 0, 'rot3': 0, 'rot2': 0, 'state': 'normal', 'yaw': 16.34, 'datetime': '2018-10-12 18:20:44.053012', 'mgs': 0, 'depth': -0.369, 'time': 15.59, 'pitch': 0.88, 'roll': -2.03}
{'lipoC2': 7.56, 'temp': 27.5, 'lipoC3S3': 11.77, 'rot1': 0, 'rot0': 0, 'rot3': 0, 'rot2': 0, 'state': 'normal', 'yaw': 16.52, 'datetime': '2018-10-12 18:20:44.151391', 'mgs': 0, 'depth': -0.446, 'time': 15.69, 'pitch': 0.82, 'roll': -1.26}
{'lipoC2': 7.56, 'temp': 27.44, 'lipoC3S3': 11.76, 'rot1': 0, 'rot0': 0, 'rot3': 0, 'rot2': 0, 'state': 'normal', 'yaw': 16.65, 'datetime': '2018-10-12 18:20:44.248555', 'mgs': 0, 'depth': -0.446, 'time': 15.78, 'pitch': 0.67, 'roll': -1.23}
{'lipoC2': 7.56, 'temp': 27.44, 'lipoC3S3': 11.76, 'rot1': 0, 'rot0': 0, 'rot3': 0, 'rot2': 0, 'state': 'normal', 'yaw': 16.92, 'datetime': '2018-10-12 18:20:44.345614', 'mgs': 0, 'depth': -0.369, 'time': 15.88, 'pitch': 0.54, 'roll': -1.83}
{'lipoC2': 7.56, 'temp': 27.44, 'lipoC3S3': 11.77, 'rot1': 0, 'rot0': 0, 'rot3': 0, 'rot2': 0, 'state': 'normal', 'yaw': 17.16, 'datetime': '2018-10-12 18:20:44.443220', 'mgs': 0, 'depth': -0.369, 'time': 15.98, 'pitch': 0.46, 'roll': -2.3}
{'lipoC2': 7.56, 'temp': 27.5, 'lipoC3S3': 11.77, 'rot1': 0, 'rot0': 0, 'rot3': 0, 'rot2': 0, 'state': 'normal', 'yaw': 17.2, 'datetime': '2018-10-12 18:20:44.535566', 'mgs': 0, 'depth': -0.446, 'time': 16.08, 'pitch': 0.4, 'roll': -2.27}
{'lipoC2': 7.56, 'temp': 27.5, 'lipoC3S3': 11.76, 'rot1': 0, 'rot0': 0, 'rot3': 0, 'rot2': 0, 'state': 'normal', 'yaw': 16.98, 'datetime': '2018-10-12 18:20:44.632687', 'mgs': 0, 'depth': -0.446, 'time': 16.17, 'pitch': 0.41, 'roll': -1.6}
{'lipoC2': 7.56, 'temp': 27.5, 'lipoC3S3': 11.77, 'rot1': 0, 'rot0': 0, 'rot3': 0, 'rot2': 0, 'state': 'normal', 'yaw': 16.82, 'datetime': '2018-10-12 18:20:44.729845', 'mgs': 0, 'depth': -0.369, 'time': 16.27, 'pitch': 0.57, 'roll': -0.88}
{'lipoC2': 7.56, 'temp': 27.5, 'lipoC3S3': 11.76, 'rot1': 0, 'rot0': 0, 'rot3': 0, 'rot2': 0, 'state': 'normal', 'yaw': 16.86, 'datetime': '2018-10-12 18:20:44.826908', 'mgs': 0, 'depth': -0.369, 'time': 16.37, 'pitch': 0.86, 'roll': -0.68}
{'lipoC2': 7.56, 'temp': 27.5, 'lipoC3S3': 11.77, 'rot1': 0, 'rot0': 0, 'rot3': 0, 'rot2': 0, 'state': 'normal', 'yaw': 16.97, 'datetime': '2018-10-12 18:20:44.924053', 'mgs': 0, 'depth': -0.446, 'time': 16.47, 'pitch': 1.13, 'roll': -1.06}
{'lipoC2': 7.56, 'temp': 27.5, 'lipoC3S3': 11.76, 'rot1': 0, 'rot0': 0, 'rot3': 0, 'rot2': 0, 'state': 'normal', 'yaw': 16.99, 'datetime': '2018-10-12 18:20:45.021405', 'mgs': 0, 'depth': -0.369, 'time': 16.56, 'pitch': 1.33, 'roll': -1.94}
{'lipoC2': 7.56, 'temp': 27.5, 'lipoC3S3': 11.77, 'rot1': 0, 'rot0': 0, 'rot3': 0, 'rot2': 0, 'state': 'normal', 'yaw': 16.78, 'datetime': '2018-10-12 18:20:45.118236', 'mgs': 0, 'depth': -0.369, 'time': 16.66, 'pitch': 1.29, 'roll': -2.84}
{'lipoC2': 7.56, 'temp': 27.44, 'lipoC3S3': 11.76, 'rot1': 0, 'rot0': 0, 'rot3': 0, 'rot2': 0, 'state': 'normal', 'yaw': 16.25, 'datetime': '2018-10-12 18:20:45.220290', 'mgs': 0, 'depth': -0.369, 'time': 16.76, 'pitch': 0.9, 'roll': -3.56}
{'lipoC2': 7.56, 'temp': 27.44, 'lipoC3S3': 11.76, 'rot1': 0, 'rot0': 0, 'rot3': 0, 'rot2': 0, 'state': 'normal', 'yaw': 15.8, 'datetime': '2018-10-12 18:20:45.317292', 'mgs': 0, 'depth': -0.446, 'time': 16.86, 'pitch': 0.3, 'roll': -3.69}
{'lipoC2': 7.56, 'temp': 27.44, 'lipoC3S3': 11.76, 'rot1': 0, 'rot0': 0, 'rot3': 0, 'rot2': 0, 'state': 'normal', 'yaw': 15.7, 'datetime': '2018-10-12 18:20:45.415425', 'mgs': 0, 'depth': -0.369, 'time': 16.95, 'pitch': -0.21, 'roll': -3.3}
{'lipoC2': 7.56, 'temp': 27.5, 'lipoC3S3': 11.76, 'rot1': 0, 'rot0': 0, 'rot3': 0, 'rot2': 0, 'state': 'normal', 'yaw': 15.95, 'datetime': '2018-10-12 18:20:45.513736', 'mgs': 0, 'depth': -0.369, 'time': 17.05, 'pitch': -0.5, 'roll': -2.66}
{'lipoC2': 7.56, 'temp': 27.5, 'lipoC3S3': 11.76, 'rot1': 0, 'rot0': 0, 'rot3': 0, 'rot2': 0, 'state': 'normal', 'yaw': 16.2, 'datetime': '2018-10-12 18:20:45.610851', 'mgs': 0, 'depth': -0.369, 'time': 17.15, 'pitch': -0.41, 'roll': -2.3}
{'lipoC2': 7.56, 'temp': 27.44, 'lipoC3S3': 11.77, 'rot1': 0, 'rot0': 0, 'rot3': 0, 'rot2': 0, 'state': 'normal', 'yaw': 16.14, 'datetime': '2018-10-12 18:20:45.708024', 'mgs': 0, 'depth': -0.446, 'time': 17.25, 'pitch': -0.04, 'roll': -2.22}
{'lipoC2': 7.56, 'temp': 27.44, 'lipoC3S3': 11.76, 'rot1': 0, 'rot0': 0, 'rot3': 0, 'rot2': 0, 'state': 'normal', 'yaw': 15.75, 'datetime': '2018-10-12 18:20:45.805906', 'mgs': 0, 'depth': -0.446, 'time': 17.34, 'pitch': 0.4, 'roll': -2.25}
{'lipoC2': 7.57, 'temp': 27.44, 'lipoC3S3': 11.76, 'rot1': 0, 'rot0': 0, 'rot3': 0, 'rot2': 0, 'state': 'normal', 'yaw': 15.03, 'datetime': '2018-10-12 18:20:45.904321', 'mgs': 0, 'depth': -0.369, 'time': 17.44, 'pitch': 0.76, 'roll': -2.22}
{'lipoC2': 7.56, 'temp': 27.44, 'lipoC3S3': 11.77, 'rot1': 0, 'rot0': 0, 'rot3': 0, 'rot2': 0, 'state': 'normal', 'yaw': 14.31, 'datetime': '2018-10-12 18:20:46.001529', 'mgs': 0, 'depth': -0.446, 'time': 17.54, 'pitch': 0.8, 'roll': -2.16}
{'lipoC2': 7.56, 'temp': 27.44, 'lipoC3S3': 11.77, 'rot1': 0, 'rot0': 0, 'rot3': 0, 'rot2': 0, 'state': 'normal', 'yaw': 13.84, 'datetime': '2018-10-12 18:20:46.098540', 'mgs': 0, 'depth': -0.446, 'time': 17.64, 'pitch': 0.47, 'roll': -2.24}
{'lipoC2': 7.56, 'temp': 27.44, 'lipoC3S3': 11.76, 'rot1': 0, 'rot0': 0, 'rot3': 0, 'rot2': 0, 'state': 'normal', 'yaw': 13.57, 'datetime': '2018-10-12 18:20:46.196760', 'mgs': 0, 'depth': -0.369, 'time': 17.74, 'pitch': -0.03, 'roll': -2.37}
{'lipoC2': 7.56, 'temp': 27.44, 'lipoC3S3': 11.76, 'rot1': 0, 'rot0': 0, 'rot3': 0, 'rot2': 0, 'state': 'normal', 'yaw': 13.34, 'datetime': '2018-10-12 18:20:46.293672', 'mgs': 0, 'depth': -0.369, 'time': 17.83, 'pitch': -0.58, 'roll': -2.41}
{'lipoC2': 7.56, 'temp': 27.44, 'lipoC3S3': 11.77, 'rot1': 0, 'rot0': 0, 'rot3': 0, 'rot2': 0, 'state': 'normal', 'yaw': 13.16, 'datetime': '2018-10-12 18:20:46.390804', 'mgs': 0, 'depth': -0.522, 'time': 17.93, 'pitch': -0.94, 'roll': -2.34}
{'lipoC2': 7.56, 'temp': 27.44, 'lipoC3S3': 11.76, 'rot1': 0, 'rot0': 0, 'rot3': 0, 'rot2': 0, 'state': 'normal', 'yaw': 12.89, 'datetime': '2018-10-12 18:20:46.488227', 'mgs': 0, 'depth': -0.369, 'time': 18.03, 'pitch': -0.95, 'roll': -2.29}
{'lipoC2': 7.56, 'temp': 27.44, 'lipoC3S3': 11.76, 'rot1': 0, 'rot0': 0, 'rot3': 0, 'rot2': 0, 'state': 'normal', 'yaw': 12.81, 'datetime': '2018-10-12 18:20:46.585041', 'mgs': 0, 'depth': -0.446, 'time': 18.12, 'pitch': -0.51, 'roll': -2.39}
{'lipoC2': 7.56, 'temp': 27.5, 'lipoC3S3': 11.76, 'rot1': 0, 'rot0': 0, 'rot3': 0, 'rot2': 0, 'state': 'normal', 'yaw': 13.06, 'datetime': '2018-10-12 18:20:46.682106', 'mgs': 0, 'depth': -0.369, 'time': 18.22, 'pitch': 0.23, 'roll': -2.7}
{'lipoC2': 7.56, 'temp': 27.5, 'lipoC3S3': 11.76, 'rot1': 0, 'rot0': 0, 'rot3': 0, 'rot2': 0, 'state': 'normal', 'yaw': 13.55, 'datetime': '2018-10-12 18:20:46.779266', 'mgs': 0, 'depth': -0.369, 'time': 18.32, 'pitch': 0.98, 'roll': -3.0}
{'lipoC2': 7.56, 'temp': 27.5, 'lipoC3S3': 11.76, 'rot1': 0, 'rot0': 0, 'rot3': 0, 'rot2': 0, 'state': 'normal', 'yaw': 14.02, 'datetime': '2018-10-12 18:20:46.876284', 'mgs': 0, 'depth': -0.446, 'time': 18.42, 'pitch': 1.46, 'roll': -3.06}
{'lipoC2': 7.56, 'temp': 27.5, 'lipoC3S3': 11.76, 'rot1': 0, 'rot0': 0, 'rot3': 0, 'rot2': 0, 'state': 'normal', 'yaw': 14.32, 'datetime': '2018-10-12 18:20:46.973476', 'mgs': 0, 'depth': -0.369, 'time': 18.51, 'pitch': 1.55, 'roll': -2.73}
{'lipoC2': 7.56, 'temp': 27.5, 'lipoC3S3': 11.76, 'rot1': 0, 'rot0': 0, 'rot3': 0, 'rot2': 0, 'state': 'normal', 'yaw': 14.36, 'datetime': '2018-10-12 18:20:47.070453', 'mgs': 0, 'depth': -0.369, 'time': 18.61, 'pitch': 1.06, 'roll': -2.09}
{'lipoC2': 7.56, 'temp': 27.44, 'lipoC3S3': 11.77, 'rot1': 0, 'rot0': 0, 'rot3': 0, 'rot2': 0, 'state': 'normal', 'yaw': 14.39, 'datetime': '2018-10-12 18:20:47.168598', 'mgs': 0, 'depth': -0.369, 'time': 18.71, 'pitch': 0.32, 'roll': -1.6}
{'lipoC2': 7.56, 'temp': 27.44, 'lipoC3S3': 11.76, 'rot1': 0, 'rot0': 0, 'rot3': 0, 'rot2': 0, 'state': 'normal', 'yaw': 14.55, 'datetime': '2018-10-12 18:20:47.266973', 'mgs': 0, 'depth': -0.446, 'time': 18.81, 'pitch': -0.42, 'roll': -1.45}
{'lipoC2': 7.56, 'temp': 27.5, 'lipoC3S3': 11.76, 'rot1': 0, 'rot0': 0, 'rot3': 0, 'rot2': 0, 'state': 'normal', 'yaw': 14.9, 'datetime': '2018-10-12 18:20:47.359224', 'mgs': 0, 'depth': -0.369, 'time': 18.91, 'pitch': -0.79, 'roll': -1.95}
{'lipoC2': 7.56, 'temp': 27.5, 'lipoC3S3': 11.76, 'rot1': 0, 'rot0': 0, 'rot3': 0, 'rot2': 0, 'state': 'normal', 'yaw': 15.48, 'datetime': '2018-10-12 18:20:47.461234', 'mgs': 0, 'depth': -0.369, 'time': 19.0, 'pitch': -0.74, 'roll': -2.88}
{'lipoC2': 7.56, 'temp': 27.5, 'lipoC3S3': 11.76, 'rot1': 0, 'rot0': 0, 'rot3': 0, 'rot2': 0, 'state': 'normal', 'yaw': 16.16, 'datetime': '2018-10-12 18:20:47.559087', 'mgs': 0, 'depth': -0.446, 'time': 19.1, 'pitch': -0.37, 'roll': -3.66}
{'lipoC2': 7.56, 'temp': 27.5, 'lipoC3S3': 11.76, 'rot1': 0, 'rot0': 0, 'rot3': 0, 'rot2': 0, 'state': 'normal', 'yaw': 16.89, 'datetime': '2018-10-12 18:20:47.657668', 'mgs': 0, 'depth': -0.446, 'time': 19.2, 'pitch': 0.18, 'roll': -4.01}
{'lipoC2': 7.56, 'temp': 27.5, 'lipoC3S3': 11.76, 'rot1': 0, 'rot0': 0, 'rot3': 0, 'rot2': 0, 'state': 'normal', 'yaw': 17.21, 'datetime': '2018-10-12 18:20:47.755294', 'mgs': 0, 'depth': -0.446, 'time': 19.3, 'pitch': 0.53, 'roll': -3.83}
{'lipoC2': 7.56, 'temp': 27.5, 'lipoC3S3': 11.76, 'rot1': 0, 'rot0': 0, 'rot3': 0, 'rot2': 0, 'state': 'normal', 'yaw': 17.06, 'datetime': '2018-10-12 18:20:47.852478', 'mgs': 0, 'depth': -0.446, 'time': 19.39, 'pitch': 0.57, 'roll': -3.37}
{'lipoC2': 7.56, 'temp': 27.5, 'lipoC3S3': 11.77, 'rot1': 0, 'rot0': 0, 'rot3': 0, 'rot2': 0, 'state': 'normal', 'yaw': 16.7, 'datetime': '2018-10-12 18:20:47.950079', 'mgs': 0, 'depth': -0.446, 'time': 19.49, 'pitch': 0.44, 'roll': -2.96}
{'lipoC2': 7.56, 'temp': 27.5, 'lipoC3S3': 11.77, 'rot1': 0, 'rot0': 0, 'rot3': 0, 'rot2': 0, 'state': 'normal', 'yaw': 16.16, 'datetime': '2018-10-12 18:20:48.047312', 'mgs': 0, 'depth': -0.446, 'time': 19.59, 'pitch': 0.3, 'roll': -2.9}
{'lipoC2': 7.56, 'temp': 27.5, 'lipoC3S3': 11.76, 'rot1': 0, 'rot0': 0, 'rot3': 0, 'rot2': 0, 'state': 'normal', 'yaw': 15.81, 'datetime': '2018-10-12 18:20:48.144176', 'mgs': 0, 'depth': -0.446, 'time': 19.68, 'pitch': 0.26, 'roll': -3.27}
{'lipoC2': 7.56, 'temp': 27.5, 'lipoC3S3': 11.76, 'rot1': 0, 'rot0': 0, 'rot3': 0, 'rot2': 0, 'state': 'normal', 'yaw': 15.91, 'datetime': '2018-10-12 18:20:48.241321', 'mgs': 0, 'depth': -0.446, 'time': 19.78, 'pitch': -0.03, 'roll': -3.81}
{'lipoC2': 7.56, 'temp': 27.5, 'lipoC3S3': 11.76, 'rot1': 0, 'rot0': 0, 'rot3': 0, 'rot2': 0, 'state': 'normal', 'yaw': 16.12, 'datetime': '2018-10-12 18:20:48.338477', 'mgs': 0, 'depth': -0.522, 'time': 19.88, 'pitch': -0.01, 'roll': -4.46}
{'lipoC2': 7.56, 'temp': 27.5, 'lipoC3S3': 11.76, 'rot1': 0, 'rot0': 0, 'rot3': 0, 'rot2': 0, 'state': 'normal', 'yaw': 16.38, 'datetime': '2018-10-12 18:20:48.435426', 'mgs': 0, 'depth': -0.522, 'time': 19.98, 'pitch': 0.27, 'roll': -5.09}
{'lipoC2': 7.56, 'temp': 27.5, 'lipoC3S3': 11.77, 'rot1': 0, 'rot0': 0, 'rot3': 0, 'rot2': 0, 'state': 'normal', 'yaw': 16.78, 'datetime': '2018-10-12 18:20:48.532542', 'mgs': 0, 'depth': -0.369, 'time': 20.07, 'pitch': 0.51, 'roll': -5.39}
{'lipoC2': 7.56, 'temp': 27.5, 'lipoC3S3': 11.76, 'rot1': 0, 'rot0': 0, 'rot3': 0, 'rot2': 0, 'state': 'normal', 'yaw': 17.16, 'datetime': '2018-10-12 18:20:48.629606', 'mgs': 0, 'depth': -0.369, 'time': 20.17, 'pitch': 0.43, 'roll': -5.15}
{'lipoC2': 7.56, 'temp': 27.5, 'lipoC3S3': 11.76, 'rot1': 0, 'rot0': 0, 'rot3': 0, 'rot2': 0, 'state': 'normal', 'yaw': 17.44, 'datetime': '2018-10-12 18:20:48.726732', 'mgs': 0, 'depth': -0.369, 'time': 20.27, 'pitch': 0.08, 'roll': -4.44}
{'lipoC2': 7.57, 'temp': 27.5, 'lipoC3S3': 11.76, 'rot1': 0, 'rot0': 0, 'rot3': 0, 'rot2': 0, 'state': 'normal', 'yaw': 18.08, 'datetime': '2018-10-12 18:20:48.818973', 'mgs': 0, 'depth': -0.446, 'time': 20.37, 'pitch': -0.01, 'roll': -3.57}
{'lipoC2': 7.56, 'temp': 27.5, 'lipoC3S3': 11.76, 'rot1': 0, 'rot0': 0, 'rot3': 0, 'rot2': 0, 'state': 'normal', 'yaw': 18.83, 'datetime': '2018-10-12 18:20:48.916925', 'mgs': 0, 'depth': -0.446, 'time': 20.46, 'pitch': 0.5, 'roll': -3.26}
{'lipoC2': 7.56, 'temp': 27.5, 'lipoC3S3': 11.77, 'rot1': 0, 'rot0': 0, 'rot3': 0, 'rot2': 0, 'state': 'normal', 'yaw': 19.53, 'datetime': '2018-10-12 18:20:49.015267', 'mgs': 0, 'depth': -0.446, 'time': 20.56, 'pitch': 1.56, 'roll': -3.97}
{'lipoC2': 7.57, 'temp': 27.44, 'lipoC3S3': 11.76, 'rot1': 0, 'rot0': 0, 'rot3': 0, 'rot2': 0, 'state': 'normal', 'yaw': 19.96, 'datetime': '2018-10-12 18:20:49.112657', 'mgs': 0, 'depth': -0.446, 'time': 20.66, 'pitch': 2.62, 'roll': -5.07}
{'lipoC2': 7.56, 'temp': 27.44, 'lipoC3S3': 11.77, 'rot1': 0, 'rot0': 0, 'rot3': 0, 'rot2': 0, 'state': 'normal', 'yaw': 20.01, 'datetime': '2018-10-12 18:20:49.209676', 'mgs': 0, 'depth': -0.522, 'time': 20.76, 'pitch': 3.35, 'roll': -5.56}
{'lipoC2': 7.56, 'temp': 27.5, 'lipoC3S3': 11.76, 'rot1': 0, 'rot0': 0, 'rot3': 0, 'rot2': 0, 'state': 'normal', 'yaw': 19.79, 'datetime': '2018-10-12 18:20:49.307268', 'mgs': 0, 'depth': -0.446, 'time': 20.85, 'pitch': 3.34, 'roll': -5.14}
{'lipoC2': 7.56, 'temp': 27.5, 'lipoC3S3': 11.76, 'rot1': 0, 'rot0': 0, 'rot3': 0, 'rot2': 0, 'state': 'normal', 'yaw': 19.57, 'datetime': '2018-10-12 18:20:49.405731', 'mgs': 0, 'depth': -0.446, 'time': 20.95, 'pitch': 2.89, 'roll': -4.25}
{'lipoC2': 7.56, 'temp': 27.5, 'lipoC3S3': 11.77, 'rot1': 0, 'rot0': 0, 'rot3': 0, 'rot2': 0, 'state': 'normal', 'yaw': 19.37, 'datetime': '2018-10-12 18:20:49.503516', 'mgs': 0, 'depth': -0.522, 'time': 21.05, 'pitch': 2.49, 'roll': -3.38}
{'lipoC2': 7.56, 'temp': 27.5, 'lipoC3S3': 11.76, 'rot1': 0, 'rot0': 0, 'rot3': 0, 'rot2': 0, 'state': 'normal', 'yaw': 19.45, 'datetime': '2018-10-12 18:20:49.600448', 'mgs': 0, 'depth': -0.446, 'time': 21.15, 'pitch': 2.65, 'roll': -3.21}
{'lipoC2': 7.56, 'temp': 27.5, 'lipoC3S3': 11.77, 'rot1': 0, 'rot0': 0, 'rot3': 0, 'rot2': 0, 'state': 'normal', 'yaw': 19.6, 'datetime': '2018-10-12 18:20:49.698052', 'mgs': 0, 'depth': -0.446, 'time': 21.25, 'pitch': 3.16, 'roll': -3.89}
{'lipoC2': 7.57, 'temp': 27.44, 'lipoC3S3': 11.76, 'rot1': 0, 'rot0': 0, 'rot3': 0, 'rot2': 0, 'state': 'normal', 'yaw': 19.74, 'datetime': '2018-10-12 18:20:49.800079', 'mgs': 0, 'depth': -0.446, 'time': 21.34, 'pitch': 3.59, 'roll': -5.0}
{'lipoC2': 7.57, 'temp': 27.44, 'lipoC3S3': 11.76, 'rot1': 0, 'rot0': 0, 'rot3': 0, 'rot2': 0, 'state': 'normal', 'yaw': 19.92, 'datetime': '2018-10-12 18:20:49.897155', 'mgs': 0, 'depth': -0.369, 'time': 21.44, 'pitch': 3.52, 'roll': -5.59}
{'lipoC2': 7.56, 'temp': 27.44, 'lipoC3S3': 11.76, 'rot1': 0, 'rot0': 0, 'rot3': 0, 'rot2': 0, 'state': 'normal', 'yaw': 20.12, 'datetime': '2018-10-12 18:20:49.994271', 'mgs': 0, 'depth': -0.369, 'time': 21.54, 'pitch': 2.62, 'roll': -5.28}
{'lipoC2': 7.56, 'temp': 27.44, 'lipoC3S3': 11.77, 'rot1': 0, 'rot0': 0, 'rot3': 0, 'rot2': 0, 'state': 'normal', 'yaw': 20.25, 'datetime': '2018-10-12 18:20:50.086520', 'mgs': 0, 'depth': -0.293, 'time': 21.64, 'pitch': 1.5, 'roll': -4.3}
{'lipoC2': 7.56, 'temp': 27.44, 'lipoC3S3': 11.77, 'rot1': 0, 'rot0': 0, 'rot3': 0, 'rot2': 0, 'state': 'normal', 'yaw': 20.27, 'datetime': '2018-10-12 18:20:50.188566', 'mgs': 0, 'depth': -0.293, 'time': 21.73, 'pitch': 0.58, 'roll': -2.7}
{'lipoC2': 7.56, 'temp': 27.5, 'lipoC3S3': 11.76, 'rot1': 0, 'rot0': 0, 'rot3': 0, 'rot2': 0, 'state': 'normal', 'yaw': 20.12, 'datetime': '2018-10-12 18:20:50.285549', 'mgs': 0, 'depth': -0.293, 'time': 21.83, 'pitch': 0.48, 'roll': -0.88}
{'lipoC2': 7.56, 'temp': 27.5, 'lipoC3S3': 11.76, 'rot1': 0, 'rot0': 0, 'rot3': 0, 'rot2': 0, 'state': 'normal', 'yaw': 19.97, 'datetime': '2018-10-12 18:20:50.382730', 'mgs': 0, 'depth': -0.217, 'time': 21.92, 'pitch': 0.79, 'roll': -0.24}
{'lipoC2': 7.56, 'temp': 27.5, 'lipoC3S3': 11.76, 'rot1': 0, 'rot0': 0, 'rot3': 0, 'rot2': 0, 'state': 'normal', 'yaw': 19.95, 'datetime': '2018-10-12 18:20:50.479840', 'mgs': 0, 'depth': -0.293, 'time': 22.02, 'pitch': 0.94, 'roll': -0.54}
{'lipoC2': 7.56, 'temp': 27.5, 'lipoC3S3': 11.76, 'rot1': 0, 'rot0': 0, 'rot3': 0, 'rot2': 0, 'state': 'normal', 'yaw': 19.71, 'datetime': '2018-10-12 18:20:50.576762', 'mgs': 0, 'depth': -0.293, 'time': 22.12, 'pitch': 0.79, 'roll': -1.03}
{'lipoC2': 7.56, 'temp': 27.5, 'lipoC3S3': 11.76, 'rot1': 0, 'rot0': 0, 'rot3': 0, 'rot2': 0, 'state': 'normal', 'yaw': 19.33, 'datetime': '2018-10-12 18:20:50.674907', 'mgs': 0, 'depth': -0.217, 'time': 22.22, 'pitch': 0.55, 'roll': -1.86}
{'lipoC2': 7.56, 'temp': 27.44, 'lipoC3S3': 11.76, 'rot1': 0, 'rot0': 0, 'rot3': 0, 'rot2': 0, 'state': 'normal', 'yaw': 18.88, 'datetime': '2018-10-12 18:20:50.773039', 'mgs': 0, 'depth': -0.14, 'time': 22.32, 'pitch': 0.24, 'roll': -2.01}
{'lipoC2': 7.56, 'temp': 27.44, 'lipoC3S3': 11.76, 'rot1': 0, 'rot0': 0, 'rot3': 0, 'rot2': 0, 'state': 'normal', 'yaw': 18.39, 'datetime': '2018-10-12 18:20:50.871159', 'mgs': 0, 'depth': -0.14, 'time': 22.41, 'pitch': 0.45, 'roll': -1.42}
{'lipoC2': 7.56, 'temp': 27.44, 'lipoC3S3': 11.76, 'rot1': 0, 'rot0': 0, 'rot3': 0, 'rot2': 0, 'state': 'normal', 'yaw': 17.84, 'datetime': '2018-10-12 18:20:50.967651', 'mgs': 0, 'depth': -0.217, 'time': 22.51, 'pitch': 1.19, 'roll': -0.47}
{'lipoC2': 7.56, 'temp': 27.5, 'lipoC3S3': 11.76, 'rot1': 0, 'rot0': 0, 'rot3': 0, 'rot2': 0, 'state': 'normal', 'yaw': 17.22, 'datetime': '2018-10-12 18:20:51.065523', 'mgs': 0, 'depth': -0.217, 'time': 22.61, 'pitch': 2.07, 'roll': -0.08}
{'lipoC2': 7.56, 'temp': 27.5, 'lipoC3S3': 11.77, 'rot1': 0, 'rot0': 0, 'rot3': 0, 'rot2': 0, 'state': 'normal', 'yaw': 16.25, 'datetime': '2018-10-12 18:20:51.163797', 'mgs': 0, 'depth': -0.217, 'time': 22.71, 'pitch': 2.8, 'roll': -0.51}
{'lipoC2': 7.56, 'temp': 27.44, 'lipoC3S3': 11.77, 'rot1': 0, 'rot0': 0, 'rot3': 0, 'rot2': 0, 'state': 'normal', 'yaw': 15.21, 'datetime': '2018-10-12 18:20:51.261470', 'mgs': 0, 'depth': -0.293, 'time': 22.81, 'pitch': 3.17, 'roll': -1.24}
{'lipoC2': 7.56, 'temp': 27.44, 'lipoC3S3': 11.76, 'rot1': 0, 'rot0': 0, 'rot3': 0, 'rot2': 0, 'state': 'normal', 'yaw': 14.24, 'datetime': '2018-10-12 18:20:51.358067', 'mgs': 0, 'depth': -0.217, 'time': 22.9, 'pitch': 3.34, 'roll': -1.75}
{'lipoC2': 7.56, 'temp': 27.44, 'lipoC3S3': 11.76, 'rot1': 0, 'rot0': 0, 'rot3': 0, 'rot2': 0, 'state': 'normal', 'yaw': 13.5, 'datetime': '2018-10-12 18:20:51.455627', 'mgs': 0, 'depth': -0.293, 'time': 23.0, 'pitch': 3.53, 'roll': -1.79}
{'lipoC2': 7.56, 'temp': 27.5, 'lipoC3S3': 11.76, 'rot1': 0, 'rot0': 0, 'rot3': 0, 'rot2': 0, 'state': 'normal', 'yaw': 13.02, 'datetime': '2018-10-12 18:20:51.552540', 'mgs': 0, 'depth': -0.293, 'time': 23.1, 'pitch': 3.89, 'roll': -1.23}
{'lipoC2': 7.56, 'temp': 27.5, 'lipoC3S3': 11.77, 'rot1': 0, 'rot0': 0, 'rot3': 0, 'rot2': 0, 'state': 'normal', 'yaw': 12.91, 'datetime': '2018-10-12 18:20:51.649588', 'mgs': 0, 'depth': -0.369, 'time': 23.19, 'pitch': 4.41, 'roll': -0.26}
{'lipoC2': 7.56, 'temp': 27.44, 'lipoC3S3': 11.76, 'rot1': 0, 'rot0': 0, 'rot3': 0, 'rot2': 0, 'state': 'normal', 'yaw': 13.19, 'datetime': '2018-10-12 18:20:51.746798', 'mgs': 0, 'depth': -0.369, 'time': 23.29, 'pitch': 4.87, 'roll': 0.48}
{'lipoC2': 7.56, 'temp': 27.44, 'lipoC3S3': 11.77, 'rot1': 0, 'rot0': 0, 'rot3': 0, 'rot2': 0, 'state': 'normal', 'yaw': 13.7, 'datetime': '2018-10-12 18:20:51.843894', 'mgs': 0, 'depth': -0.369, 'time': 23.39, 'pitch': 5.01, 'roll': 0.64}
{'lipoC2': 7.56, 'temp': 27.44, 'lipoC3S3': 11.76, 'rot1': 0, 'rot0': 0, 'rot3': 0, 'rot2': 0, 'state': 'normal', 'yaw': 14.3, 'datetime': '2018-10-12 18:20:51.941110', 'mgs': 0, 'depth': -0.446, 'time': 23.49, 'pitch': 4.5, 'roll': 0.18}
{'lipoC2': 7.56, 'temp': 27.44, 'lipoC3S3': 11.77, 'rot1': 0, 'rot0': 0, 'rot3': 0, 'rot2': 0, 'state': 'normal', 'yaw': 14.89, 'datetime': '2018-10-12 18:20:52.038139', 'mgs': 0, 'depth': -0.446, 'time': 23.58, 'pitch': 3.27, 'roll': -0.64}
{'lipoC2': 7.56, 'temp': 27.44, 'lipoC3S3': 11.76, 'rot1': 0, 'rot0': 0, 'rot3': 0, 'rot2': 0, 'state': 'normal', 'yaw': 15.32, 'datetime': '2018-10-12 18:20:52.135148', 'mgs': 0, 'depth': -0.369, 'time': 23.68, 'pitch': 1.57, 'roll': -1.38}
{'lipoC2': 7.56, 'temp': 27.44, 'lipoC3S3': 11.77, 'rot1': 0, 'rot0': 0, 'rot3': 0, 'rot2': 0, 'state': 'normal', 'yaw': 15.6, 'datetime': '2018-10-12 18:20:52.232425', 'mgs': 0, 'depth': -0.369, 'time': 23.78, 'pitch': -0.56, 'roll': -1.68}
{'lipoC2': 7.56, 'temp': 27.44, 'lipoC3S3': 11.76, 'rot1': 0, 'rot0': 0, 'rot3': 0, 'rot2': 0, 'state': 'normal', 'yaw': 15.64, 'datetime': '2018-10-12 18:20:52.329499', 'mgs': 0, 'depth': -0.217, 'time': 23.87, 'pitch': -2.34, 'roll': -1.38}
{'lipoC2': 7.56, 'temp': 27.44, 'lipoC3S3': 11.76, 'rot1': 0, 'rot0': 0, 'rot3': 0, 'rot2': 0, 'state': 'normal', 'yaw': 15.57, 'datetime': '2018-10-12 18:20:52.428403', 'mgs': 0, 'depth': -0.217, 'time': 23.97, 'pitch': -3.25, 'roll': -0.73}
{'lipoC2': 7.56, 'temp': 27.44, 'lipoC3S3': 11.76, 'rot1': 0, 'rot0': 0, 'rot3': 0, 'rot2': 0, 'state': 'normal', 'yaw': 15.62, 'datetime': '2018-10-12 18:20:52.526248', 'mgs': 0, 'depth': -0.14, 'time': 24.07, 'pitch': -3.17, 'roll': -0.12}
{'lipoC2': 7.56, 'temp': 27.44, 'lipoC3S3': 11.77, 'rot1': 0, 'rot0': 0, 'rot3': 0, 'rot2': 0, 'state': 'normal', 'yaw': 15.91, 'datetime': '2018-10-12 18:20:52.623416', 'mgs': 0, 'depth': -0.14, 'time': 24.17, 'pitch': -2.38, 'roll': 0.36}
{'lipoC2': 7.56, 'temp': 27.44, 'lipoC3S3': 11.77, 'rot1': 0, 'rot0': 0, 'rot3': 0, 'rot2': 0, 'state': 'normal', 'yaw': 16.29, 'datetime': '2018-10-12 18:20:52.720427', 'mgs': 0, 'depth': -0.14, 'time': 24.27, 'pitch': -1.21, 'roll': 0.59}
{'lipoC2': 7.56, 'temp': 27.44, 'lipoC3S3': 11.77, 'rot1': 0, 'rot0': 0, 'rot3': 0, 'rot2': 0, 'state': 'normal', 'yaw': 16.52, 'datetime': '2018-10-12 18:20:52.818308', 'mgs': 0, 'depth': -0.14, 'time': 24.36, 'pitch': -0.33, 'roll': 0.59}
{'lipoC2': 7.56, 'temp': 27.44, 'lipoC3S3': 11.76, 'rot1': 0, 'rot0': 0, 'rot3': 0, 'rot2': 0, 'state': 'normal', 'yaw': 16.76, 'datetime': '2018-10-12 18:20:52.917076', 'mgs': 0, 'depth': -0.14, 'time': 24.46, 'pitch': 0.28, 'roll': 0.68}
{'lipoC2': 7.56, 'temp': 27.56, 'lipoC3S3': 11.76, 'rot1': 0, 'rot0': 0, 'rot3': 0, 'rot2': 0, 'state': 'normal', 'yaw': 17.13, 'datetime': '2018-10-12 18:20:53.013747', 'mgs': 0, 'depth': -0.064, 'time': 24.56, 'pitch': 0.61, 'roll': 0.95}
{'lipoC2': 7.56, 'temp': 27.56, 'lipoC3S3': 11.77, 'rot1': 0, 'rot0': 0, 'rot3': 0, 'rot2': 0, 'state': 'normal', 'yaw': 17.7, 'datetime': '2018-10-12 18:20:53.110777', 'mgs': 0, 'depth': -0.14, 'time': 24.66, 'pitch': 0.81, 'roll': 1.46}
{'lipoC2': 7.56, 'temp': 27.44, 'lipoC3S3': 11.77, 'rot1': 0, 'rot0': 0, 'rot3': 0, 'rot2': 0, 'state': 'normal', 'yaw': 18.31, 'datetime': '2018-10-12 18:20:53.208539', 'mgs': 0, 'depth': -0.14, 'time': 24.75, 'pitch': 0.83, 'roll': 2.16}
{'lipoC2': 7.57, 'temp': 27.44, 'lipoC3S3': 11.77, 'rot1': 0, 'rot0': 0, 'rot3': 0, 'rot2': 0, 'state': 'normal', 'yaw': 18.86, 'datetime': '2018-10-12 18:20:53.305523', 'mgs': 0, 'depth': -0.14, 'time': 24.85, 'pitch': 0.66, 'roll': 3.06}
{'lipoC2': 7.56, 'temp': 27.44, 'lipoC3S3': 11.76, 'rot1': 0, 'rot0': 0, 'rot3': 0, 'rot2': 0, 'state': 'normal', 'yaw': 19.25, 'datetime': '2018-10-12 18:20:53.402690', 'mgs': 0, 'depth': -0.064, 'time': 24.95, 'pitch': 0.47, 'roll': 3.72}
{'lipoC2': 7.56, 'temp': 27.5, 'lipoC3S3': 11.76, 'rot1': 0, 'rot0': 0, 'rot3': 0, 'rot2': 0, 'state': 'normal', 'yaw': 19.49, 'datetime': '2018-10-12 18:20:53.499921', 'mgs': 0, 'depth': -0.064, 'time': 25.05, 'pitch': 0.39, 'roll': 3.94}
{'lipoC2': 7.56, 'temp': 27.5, 'lipoC3S3': 11.76, 'rot1': 0, 'rot0': 0, 'rot3': 0, 'rot2': 0, 'state': 'normal', 'yaw': 19.64, 'datetime': '2018-10-12 18:20:53.597043', 'mgs': 0, 'depth': -0.064, 'time': 25.14, 'pitch': 0.35, 'roll': 3.83}
{'lipoC2': 7.56, 'temp': 27.44, 'lipoC3S3': 11.76, 'rot1': 0, 'rot0': 0, 'rot3': 0, 'rot2': 0, 'state': 'normal', 'yaw': 19.8, 'datetime': '2018-10-12 18:20:53.693873', 'mgs': 0, 'depth': 0.012, 'time': 25.24, 'pitch': 0.04, 'roll': 3.4}
{'lipoC2': 7.56, 'temp': 27.44, 'lipoC3S3': 11.77, 'rot1': 0, 'rot0': 0, 'rot3': 0, 'rot2': 0, 'state': 'normal', 'yaw': 19.9, 'datetime': '2018-10-12 18:20:53.790937', 'mgs': 0, 'depth': 0.012, 'time': 25.34, 'pitch': -0.73, 'roll': 2.86}
{'lipoC2': 7.56, 'temp': 27.44, 'lipoC3S3': 11.77, 'rot1': 0, 'rot0': 0, 'rot3': 0, 'rot2': 0, 'state': 'normal', 'yaw': 19.94, 'datetime': '2018-10-12 18:20:53.888062', 'mgs': 0, 'depth': 0.012, 'time': 25.43, 'pitch': -1.67, 'roll': 2.44}
