{'lipoC2': 7.88, 'temp': 24.38, 'lipoC3S3': 11.9, 'rot1': 0, 'rot0': 0, 'rot3': 0, 'rot2': 0, 'state': 'normal', 'yaw': 0.0, 'datetime': '2018-10-12 13:38:25.423969', 'mgs': 0, 'depth': 1.92, 'time': 1.26, 'pitch': -3.12, 'roll': -14.5}
{'lipoC2': 7.9, 'temp': 24.38, 'lipoC3S3': 11.9, 'rot1': 0, 'rot0': 0, 'rot3': 0, 'rot2': 0, 'state': 'normal', 'yaw': -0.29, 'datetime': '2018-10-12 13:38:25.440665', 'mgs': 0, 'depth': 1.92, 'time': 1.36, 'pitch': -2.79, 'roll': -14.58}
{'lipoC2': 7.9, 'temp': 24.38, 'lipoC3S3': 11.9, 'rot1': 0, 'rot0': 0, 'rot3': 0, 'rot2': 0, 'state': 'normal', 'yaw': -0.88, 'datetime': '2018-10-12 13:38:25.458001', 'mgs': 0, 'depth': 1.92, 'time': 1.45, 'pitch': -2.41, 'roll': -14.79}
{'lipoC2': 7.88, 'temp': 24.44, 'lipoC3S3': 11.9, 'rot1': 0, 'rot0': 0, 'rot3': 0, 'rot2': 0, 'state': 'normal', 'yaw': -1.32, 'datetime': '2018-10-12 13:38:25.480470', 'mgs': 0, 'depth': 1.843, 'time': 1.55, 'pitch': -1.83, 'roll': -15.01}
{'lipoC2': 7.88, 'temp': 24.44, 'lipoC3S3': 11.9, 'rot1': 0, 'rot0': 0, 'rot3': 0, 'rot2': 0, 'state': 'normal', 'yaw': -1.5, 'datetime': '2018-10-12 13:38:25.498073', 'mgs': 0, 'depth': 1.92, 'time': 1.65, 'pitch': -0.94, 'roll': -15.21}
{'lipoC2': 7.88, 'temp': 24.38, 'lipoC3S3': 11.9, 'rot1': 0, 'rot0': 0, 'rot3': 0, 'rot2': 0, 'state': 'normal', 'yaw': -1.57, 'datetime': '2018-10-12 13:38:25.513609', 'mgs': 0, 'depth': 1.843, 'time': 1.74, 'pitch': -0.3, 'roll': -15.3}
{'lipoC2': 7.88, 'temp': 24.38, 'lipoC3S3': 11.9, 'rot1': 0, 'rot0': 0, 'rot3': 0, 'rot2': 0, 'state': 'normal', 'yaw': -1.78, 'datetime': '2018-10-12 13:38:25.521240', 'mgs': 0, 'depth': 1.843, 'time': 1.84, 'pitch': -0.29, 'roll': -15.3}
{'lipoC2': 7.88, 'temp': 24.44, 'lipoC3S3': 11.9, 'rot1': 0, 'rot0': 0, 'rot3': 0, 'rot2': 0, 'state': 'normal', 'yaw': -1.9, 'datetime': '2018-10-12 13:38:25.528819', 'mgs': 0, 'depth': 1.843, 'time': 1.94, 'pitch': -0.7, 'roll': -15.39}
{'lipoC2': 7.9, 'temp': 24.44, 'lipoC3S3': 11.9, 'rot1': 0, 'rot0': 0, 'rot3': 0, 'rot2': 0, 'state': 'normal', 'yaw': -1.65, 'datetime': '2018-10-12 13:38:25.536428', 'mgs': 0, 'depth': 1.843, 'time': 2.04, 'pitch': -1.16, 'roll': -15.36}
{'lipoC2': 7.88, 'temp': 24.44, 'lipoC3S3': 11.9, 'rot1': 0, 'rot0': 0, 'rot3': 0, 'rot2': 0, 'state': 'normal', 'yaw': -1.05, 'datetime': '2018-10-12 13:38:25.544043', 'mgs': 0, 'depth': 1.767, 'time': 2.14, 'pitch': -1.61, 'roll': -15.03}
{'lipoC2': 7.88, 'temp': 24.44, 'lipoC3S3': 11.9, 'rot1': 0, 'rot0': 0, 'rot3': 0, 'rot2': 0, 'state': 'normal', 'yaw': -0.5, 'datetime': '2018-10-12 13:38:25.551667', 'mgs': 0, 'depth': 1.843, 'time': 2.23, 'pitch': -2.23, 'roll': -14.76}
{'lipoC2': 7.88, 'temp': 24.44, 'lipoC3S3': 11.9, 'rot1': 0, 'rot0': 0, 'rot3': 0, 'rot2': 0, 'state': 'normal', 'yaw': -0.08, 'datetime': '2018-10-12 13:38:25.559234', 'mgs': 0, 'depth': 1.843, 'time': 2.33, 'pitch': -3.19, 'roll': -14.72}
{'lipoC2': 7.88, 'temp': 24.44, 'lipoC3S3': 11.9, 'rot1': 0, 'rot0': 0, 'rot3': 0, 'rot2': 0, 'state': 'normal', 'yaw': 0.32, 'datetime': '2018-10-12 13:38:25.567693', 'mgs': 0, 'depth': 1.843, 'time': 2.43, 'pitch': -4.03, 'roll': -14.97}
{'lipoC2': 7.88, 'temp': 24.44, 'lipoC3S3': 11.9, 'rot1': 0, 'rot0': 0, 'rot3': 0, 'rot2': 0, 'state': 'normal', 'yaw': 0.81, 'datetime': '2018-10-12 13:38:25.575165', 'mgs': 0, 'depth': 1.843, 'time': 2.53, 'pitch': -4.46, 'roll': -14.9}
{'lipoC2': 7.9, 'temp': 24.44, 'lipoC3S3': 11.9, 'rot1': 0, 'rot0': 0, 'rot3': 0, 'rot2': 0, 'state': 'normal', 'yaw': 1.22, 'datetime': '2018-10-12 13:38:25.583315', 'mgs': 0, 'depth': 1.843, 'time': 2.63, 'pitch': -4.58, 'roll': -14.6}
{'lipoC2': 7.88, 'temp': 24.38, 'lipoC3S3': 11.9, 'rot1': 0, 'rot0': 0, 'rot3': 0, 'rot2': 0, 'state': 'normal', 'yaw': 1.4, 'datetime': '2018-10-12 13:38:25.590706', 'mgs': 0, 'depth': 1.843, 'time': 2.72, 'pitch': -4.65, 'roll': -14.88}
{'lipoC2': 7.9, 'temp': 24.38, 'lipoC3S3': 11.9, 'rot1': 0, 'rot0': 0, 'rot3': 0, 'rot2': 0, 'state': 'normal', 'yaw': 1.36, 'datetime': '2018-10-12 13:38:25.598270', 'mgs': 0, 'depth': 1.767, 'time': 2.82, 'pitch': -4.71, 'roll': -15.52}
{'lipoC2': 7.88, 'temp': 24.38, 'lipoC3S3': 11.9, 'rot1': 0, 'rot0': 0, 'rot3': 0, 'rot2': 0, 'state': 'normal', 'yaw': 1.24, 'datetime': '2018-10-12 13:38:25.605961', 'mgs': 0, 'depth': 1.843, 'time': 2.92, 'pitch': -4.68, 'roll': -15.79}
{'lipoC2': 7.88, 'temp': 24.38, 'lipoC3S3': 11.9, 'rot1': 0, 'rot0': 0, 'rot3': 0, 'rot2': 0, 'state': 'normal', 'yaw': 1.09, 'datetime': '2018-10-12 13:38:25.614033', 'mgs': 0, 'depth': 1.843, 'time': 3.01, 'pitch': -4.46, 'roll': -15.48}
{'lipoC2': 7.9, 'temp': 24.38, 'lipoC3S3': 11.9, 'rot1': 0, 'rot0': 0, 'rot3': 0, 'rot2': 0, 'state': 'normal', 'yaw': 1.01, 'datetime': '2018-10-12 13:38:25.621688', 'mgs': 0, 'depth': 1.767, 'time': 3.11, 'pitch': -4.08, 'roll': -15.4}
{'lipoC2': 7.88, 'temp': 24.44, 'lipoC3S3': 11.9, 'rot1': 0, 'rot0': 0, 'rot3': 0, 'rot2': 0, 'state': 'normal', 'yaw': 0.77, 'datetime': '2018-10-12 13:38:25.629262', 'mgs': 0, 'depth': 1.767, 'time': 3.21, 'pitch': -3.85, 'roll': -15.73}
{'lipoC2': 7.88, 'temp': 24.44, 'lipoC3S3': 11.9, 'rot1': 0, 'rot0': 0, 'rot3': 0, 'rot2': 0, 'state': 'normal', 'yaw': 0.42, 'datetime': '2018-10-12 13:38:25.636864', 'mgs': 0, 'depth': 1.691, 'time': 3.31, 'pitch': -3.82, 'roll': -15.73}
{'lipoC2': 7.9, 'temp': 24.38, 'lipoC3S3': 11.92, 'rot1': 0, 'rot0': 0, 'rot3': 0, 'rot2': 0, 'state': 'normal', 'yaw': 0.34, 'datetime': '2018-10-12 13:38:25.644506', 'mgs': 0, 'depth': 1.843, 'time': 3.4, 'pitch': -3.63, 'roll': -15.48}
{'lipoC2': 7.88, 'temp': 24.38, 'lipoC3S3': 11.9, 'rot1': 0, 'rot0': 0, 'rot3': 0, 'rot2': 0, 'state': 'normal', 'yaw': 0.69, 'datetime': '2018-10-12 13:38:25.676644', 'mgs': 0, 'depth': 1.691, 'time': 3.5, 'pitch': -3.25, 'roll': -15.23}
{'lipoC2': 7.9, 'temp': 24.38, 'lipoC3S3': 11.9, 'rot1': 0, 'rot0': 0, 'rot3': 0, 'rot2': 0, 'state': 'normal', 'yaw': 1.04, 'datetime': '2018-10-12 13:38:25.774989', 'mgs': 0, 'depth': 1.767, 'time': 3.6, 'pitch': -3.12, 'roll': -15.19}
{'lipoC2': 7.88, 'temp': 24.38, 'lipoC3S3': 11.9, 'rot1': 0, 'rot0': 0, 'rot3': 0, 'rot2': 0, 'state': 'normal', 'yaw': 1.21, 'datetime': '2018-10-12 13:38:25.873004', 'mgs': 0, 'depth': 1.767, 'time': 3.7, 'pitch': -3.37, 'roll': -15.34}
{'lipoC2': 7.88, 'temp': 24.38, 'lipoC3S3': 11.92, 'rot1': 0, 'rot0': 0, 'rot3': 0, 'rot2': 0, 'state': 'normal', 'yaw': 1.34, 'datetime': '2018-10-12 13:38:25.970041', 'mgs': 0, 'depth': 1.843, 'time': 3.79, 'pitch': -3.81, 'roll': -15.49}
{'lipoC2': 7.9, 'temp': 24.38, 'lipoC3S3': 11.9, 'rot1': 0, 'rot0': 0, 'rot3': 0, 'rot2': 0, 'state': 'normal', 'yaw': 1.69, 'datetime': '2018-10-12 13:38:26.067077', 'mgs': 0, 'depth': 1.767, 'time': 3.89, 'pitch': -4.07, 'roll': -15.51}
{'lipoC2': 7.9, 'temp': 24.38, 'lipoC3S3': 11.9, 'rot1': 0, 'rot0': 0, 'rot3': 0, 'rot2': 0, 'state': 'normal', 'yaw': 2.12, 'datetime': '2018-10-12 13:38:26.165454', 'mgs': 0, 'depth': 1.843, 'time': 3.99, 'pitch': -4.11, 'roll': -15.6}
{'lipoC2': 7.88, 'temp': 24.38, 'lipoC3S3': 11.9, 'rot1': 0, 'rot0': 0, 'rot3': 0, 'rot2': 0, 'state': 'normal', 'yaw': 2.43, 'datetime': '2018-10-12 13:38:26.268829', 'mgs': 0, 'depth': 1.843, 'time': 4.09, 'pitch': -4.2, 'roll': -15.84}
{'lipoC2': 7.9, 'temp': 24.38, 'lipoC3S3': 11.9, 'rot1': 0, 'rot0': 0, 'rot3': 0, 'rot2': 0, 'state': 'normal', 'yaw': 2.54, 'datetime': '2018-10-12 13:38:26.365873', 'mgs': 0, 'depth': 1.843, 'time': 4.18, 'pitch': -4.33, 'roll': -16.1}
{'lipoC2': 7.88, 'temp': 24.38, 'lipoC3S3': 11.9, 'rot1': 0, 'rot0': 0, 'rot3': 0, 'rot2': 0, 'state': 'normal', 'yaw': 2.73, 'datetime': '2018-10-12 13:38:26.462811', 'mgs': 0, 'depth': 1.843, 'time': 4.28, 'pitch': -4.23, 'roll': -16.31}
{'lipoC2': 7.88, 'temp': 24.44, 'lipoC3S3': 11.9, 'rot1': 0, 'rot0': 0, 'rot3': 0, 'rot2': 0, 'state': 'normal', 'yaw': 2.93, 'datetime': '2018-10-12 13:38:26.561241', 'mgs': 0, 'depth': 1.691, 'time': 4.38, 'pitch': -4.01, 'roll': -16.4}
{'lipoC2': 7.88, 'temp': 24.44, 'lipoC3S3': 11.9, 'rot1': 0, 'rot0': 0, 'rot3': 0, 'rot2': 0, 'state': 'normal', 'yaw': 3.01, 'datetime': '2018-10-12 13:38:26.658122', 'mgs': 0, 'depth': 1.767, 'time': 4.48, 'pitch': -3.81, 'roll': -16.5}
{'lipoC2': 7.88, 'temp': 24.44, 'lipoC3S3': 11.9, 'rot1': 0, 'rot0': 0, 'rot3': 0, 'rot2': 0, 'state': 'normal', 'yaw': 2.93, 'datetime': '2018-10-12 13:38:26.754409', 'mgs': 0, 'depth': 1.767, 'time': 4.57, 'pitch': -3.72, 'roll': -16.44}
{'lipoC2': 7.88, 'temp': 24.44, 'lipoC3S3': 11.9, 'rot1': 0, 'rot0': 0, 'rot3': 0, 'rot2': 0, 'state': 'normal', 'yaw': 2.84, 'datetime': '2018-10-12 13:38:26.848780', 'mgs': 0, 'depth': 1.767, 'time': 4.67, 'pitch': -3.61, 'roll': -16.33}
{'lipoC2': 7.88, 'temp': 24.44, 'lipoC3S3': 11.9, 'rot1': 0, 'rot0': 0, 'rot3': 0, 'rot2': 0, 'state': 'normal', 'yaw': 2.84, 'datetime': '2018-10-12 13:38:26.945780', 'mgs': 0, 'depth': 1.843, 'time': 4.77, 'pitch': -3.39, 'roll': -16.32}
{'lipoC2': 7.88, 'temp': 24.44, 'lipoC3S3': 11.9, 'rot1': 0, 'rot0': 0, 'rot3': 0, 'rot2': 0, 'state': 'normal', 'yaw': 2.84, 'datetime': '2018-10-12 13:38:27.042862', 'mgs': 0, 'depth': 1.767, 'time': 4.87, 'pitch': -3.19, 'roll': -16.37}
{'lipoC2': 7.9, 'temp': 24.44, 'lipoC3S3': 11.9, 'rot1': 0, 'rot0': 0, 'rot3': 0, 'rot2': 0, 'state': 'normal', 'yaw': 2.82, 'datetime': '2018-10-12 13:38:27.139892', 'mgs': 0, 'depth': 1.767, 'time': 4.96, 'pitch': -3.1, 'roll': -16.68}
{'lipoC2': 7.88, 'temp': 24.44, 'lipoC3S3': 11.9, 'rot1': 0, 'rot0': 0, 'rot3': 0, 'rot2': 0, 'state': 'normal', 'yaw': 2.81, 'datetime': '2018-10-12 13:38:27.236950', 'mgs': 0, 'depth': 1.767, 'time': 5.06, 'pitch': -3.1, 'roll': -17.09}
{'lipoC2': 7.88, 'temp': 24.38, 'lipoC3S3': 11.9, 'rot1': 0, 'rot0': 0, 'rot3': 0, 'rot2': 0, 'state': 'normal', 'yaw': 2.82, 'datetime': '2018-10-12 13:38:27.333958', 'mgs': 0, 'depth': 1.767, 'time': 5.16, 'pitch': -3.1, 'roll': -17.28}
{'lipoC2': 7.88, 'temp': 24.38, 'lipoC3S3': 11.9, 'rot1': 0, 'rot0': 0, 'rot3': 0, 'rot2': 0, 'state': 'normal', 'yaw': 2.81, 'datetime': '2018-10-12 13:38:27.431018', 'mgs': 0, 'depth': 1.843, 'time': 5.26, 'pitch': -3.1, 'roll': -17.1}
{'lipoC2': 7.88, 'temp': 24.44, 'lipoC3S3': 11.9, 'rot1': 0, 'rot0': 0, 'rot3': 0, 'rot2': 0, 'state': 'normal', 'yaw': 2.83, 'datetime': '2018-10-12 13:38:27.529342', 'mgs': 0, 'depth': 1.843, 'time': 5.35, 'pitch': -3.1, 'roll': -17.02}
{'lipoC2': 7.9, 'temp': 24.44, 'lipoC3S3': 11.9, 'rot1': 0, 'rot0': 0, 'rot3': 0, 'rot2': 0, 'state': 'normal', 'yaw': 2.83, 'datetime': '2018-10-12 13:38:27.627643', 'mgs': 0, 'depth': 1.843, 'time': 5.45, 'pitch': -3.11, 'roll': -17.04}
{'lipoC2': 7.88, 'temp': 24.44, 'lipoC3S3': 11.9, 'rot1': 0, 'rot0': 0, 'rot3': 0, 'rot2': 0, 'state': 'normal', 'yaw': 2.78, 'datetime': '2018-10-12 13:38:27.725303', 'mgs': 0, 'depth': 1.843, 'time': 5.55, 'pitch': -3.21, 'roll': -17.12}
{'lipoC2': 7.88, 'temp': 24.38, 'lipoC3S3': 11.9, 'rot1': 0, 'rot0': 0, 'rot3': 0, 'rot2': 0, 'state': 'normal', 'yaw': 2.8, 'datetime': '2018-10-12 13:38:27.822447', 'mgs': 0, 'depth': 1.843, 'time': 5.65, 'pitch': -3.22, 'roll': -17.22}
{'lipoC2': 7.88, 'temp': 24.38, 'lipoC3S3': 11.92, 'rot1': 0, 'rot0': 0, 'rot3': 0, 'rot2': 0, 'state': 'normal', 'yaw': 2.89, 'datetime': '2018-10-12 13:38:27.920110', 'mgs': 0, 'depth': 1.843, 'time': 5.74, 'pitch': -3.22, 'roll': -17.22}
{'lipoC2': 7.88, 'temp': 24.44, 'lipoC3S3': 11.9, 'rot1': 0, 'rot0': 0, 'rot3': 0, 'rot2': 0, 'state': 'normal', 'yaw': 3.04, 'datetime': '2018-10-12 13:38:28.018464', 'mgs': 0, 'depth': 1.843, 'time': 5.84, 'pitch': -3.28, 'roll': -17.2}
{'lipoC2': 7.88, 'temp': 24.44, 'lipoC3S3': 11.9, 'rot1': 0, 'rot0': 0, 'rot3': 0, 'rot2': 0, 'state': 'normal', 'yaw': 3.23, 'datetime': '2018-10-12 13:38:28.116622', 'mgs': 0, 'depth': 1.767, 'time': 5.94, 'pitch': -3.35, 'roll': -17.32}
{'lipoC2': 7.88, 'temp': 24.44, 'lipoC3S3': 11.9, 'rot1': 0, 'rot0': 0, 'rot3': 0, 'rot2': 0, 'state': 'normal', 'yaw': 3.42, 'datetime': '2018-10-12 13:38:28.213631', 'mgs': 0, 'depth': 1.767, 'time': 6.04, 'pitch': -3.38, 'roll': -17.53}
{'lipoC2': 7.9, 'temp': 24.44, 'lipoC3S3': 11.9, 'rot1': 0, 'rot0': 0, 'rot3': 0, 'rot2': 0, 'state': 'normal', 'yaw': 3.57, 'datetime': '2018-10-12 13:38:28.311083', 'mgs': 0, 'depth': 1.767, 'time': 6.14, 'pitch': -3.33, 'roll': -17.53}
{'lipoC2': 7.9, 'temp': 24.44, 'lipoC3S3': 11.9, 'rot1': 0, 'rot0': 0, 'rot3': 0, 'rot2': 0, 'state': 'normal', 'yaw': 3.78, 'datetime': '2018-10-12 13:38:28.409392', 'mgs': 0, 'depth': 1.767, 'time': 6.24, 'pitch': -3.24, 'roll': -17.41}
{'lipoC2': 7.9, 'temp': 24.38, 'lipoC3S3': 11.9, 'rot1': 0, 'rot0': 0, 'rot3': 0, 'rot2': 0, 'state': 'normal', 'yaw': 4.01, 'datetime': '2018-10-12 13:38:28.509329', 'mgs': 0, 'depth': 1.767, 'time': 6.33, 'pitch': -3.08, 'roll': -17.18}
{'lipoC2': 7.9, 'temp': 24.38, 'lipoC3S3': 11.9, 'rot1': 0, 'rot0': 0, 'rot3': 0, 'rot2': 0, 'state': 'normal', 'yaw': 4.12, 'datetime': '2018-10-12 13:38:28.607906', 'mgs': 0, 'depth': 1.767, 'time': 6.43, 'pitch': -3.04, 'roll': -16.95}
{'lipoC2': 7.88, 'temp': 24.38, 'lipoC3S3': 11.9, 'rot1': 0, 'rot0': 0, 'rot3': 0, 'rot2': 0, 'state': 'normal', 'yaw': 4.15, 'datetime': '2018-10-12 13:38:28.704898', 'mgs': 0, 'depth': 1.843, 'time': 6.53, 'pitch': -3.13, 'roll': -16.85}
{'lipoC2': 7.88, 'temp': 24.44, 'lipoC3S3': 11.92, 'rot1': 0, 'rot0': 0, 'rot3': 0, 'rot2': 0, 'state': 'normal', 'yaw': 4.36, 'datetime': '2018-10-12 13:38:28.801246', 'mgs': 0, 'depth': 1.843, 'time': 6.62, 'pitch': -3.14, 'roll': -16.79}
{'lipoC2': 7.88, 'temp': 24.44, 'lipoC3S3': 11.92, 'rot1': 0, 'rot0': 0, 'rot3': 0, 'rot2': 0, 'state': 'normal', 'yaw': 4.76, 'datetime': '2018-10-12 13:38:28.898964', 'mgs': 0, 'depth': 1.843, 'time': 6.72, 'pitch': -3.02, 'roll': -16.81}
{'lipoC2': 7.88, 'temp': 24.38, 'lipoC3S3': 11.9, 'rot1': 0, 'rot0': 0, 'rot3': 0, 'rot2': 0, 'state': 'normal', 'yaw': 5.08, 'datetime': '2018-10-12 13:38:28.996244', 'mgs': 0, 'depth': 1.843, 'time': 6.82, 'pitch': -2.94, 'roll': -16.89}
{'lipoC2': 7.9, 'temp': 24.38, 'lipoC3S3': 11.9, 'rot1': 0, 'rot0': 0, 'rot3': 0, 'rot2': 0, 'state': 'normal', 'yaw': 5.24, 'datetime': '2018-10-12 13:38:29.093339', 'mgs': 0, 'depth': 1.843, 'time': 6.91, 'pitch': -3.07, 'roll': -17.05}
{'lipoC2': 7.88, 'temp': 24.38, 'lipoC3S3': 11.9, 'rot1': 0, 'rot0': 0, 'rot3': 0, 'rot2': 0, 'state': 'normal', 'yaw': 5.32, 'datetime': '2018-10-12 13:38:29.190370', 'mgs': 0, 'depth': 1.767, 'time': 7.01, 'pitch': -3.34, 'roll': -16.94}
{'lipoC2': 7.88, 'temp': 24.38, 'lipoC3S3': 11.9, 'rot1': 0, 'rot0': 0, 'rot3': 0, 'rot2': 0, 'state': 'normal', 'yaw': 5.43, 'datetime': '2018-10-12 13:38:29.287640', 'mgs': 0, 'depth': 1.843, 'time': 7.11, 'pitch': -3.54, 'roll': -16.76}
{'lipoC2': 7.9, 'temp': 24.38, 'lipoC3S3': 11.9, 'rot1': 0, 'rot0': 0, 'rot3': 0, 'rot2': 0, 'state': 'normal', 'yaw': 5.65, 'datetime': '2018-10-12 13:38:29.385984', 'mgs': 0, 'depth': 1.767, 'time': 7.21, 'pitch': -3.58, 'roll': -16.91}
{'lipoC2': 7.88, 'temp': 24.38, 'lipoC3S3': 11.9, 'rot1': 0, 'rot0': 0, 'rot3': 0, 'rot2': 0, 'state': 'normal', 'yaw': 5.83, 'datetime': '2018-10-12 13:38:29.483817', 'mgs': 0, 'depth': 1.843, 'time': 7.31, 'pitch': -3.65, 'roll': -17.23}
{'lipoC2': 7.88, 'temp': 24.38, 'lipoC3S3': 11.9, 'rot1': 0, 'rot0': 0, 'rot3': 0, 'rot2': 0, 'state': 'normal', 'yaw': 5.85, 'datetime': '2018-10-12 13:38:29.580996', 'mgs': 0, 'depth': 1.843, 'time': 7.4, 'pitch': -3.86, 'roll': -17.34}
{'lipoC2': 7.9, 'temp': 24.38, 'lipoC3S3': 11.9, 'rot1': 0, 'rot0': 0, 'rot3': 0, 'rot2': 0, 'state': 'normal', 'yaw': 5.77, 'datetime': '2018-10-12 13:38:29.678165', 'mgs': 0, 'depth': 1.767, 'time': 7.5, 'pitch': -4.11, 'roll': -17.32}
{'lipoC2': 7.88, 'temp': 24.38, 'lipoC3S3': 11.92, 'rot1': 0, 'rot0': 0, 'rot3': 0, 'rot2': 0, 'state': 'normal', 'yaw': 5.81, 'datetime': '2018-10-12 13:38:29.776454', 'mgs': 0, 'depth': 1.843, 'time': 7.6, 'pitch': -4.26, 'roll': -17.24}
{'lipoC2': 7.88, 'temp': 24.38, 'lipoC3S3': 11.92, 'rot1': 0, 'rot0': 0, 'rot3': 0, 'rot2': 0, 'state': 'normal', 'yaw': 5.86, 'datetime': '2018-10-12 13:38:29.874992', 'mgs': 0, 'depth': 1.767, 'time': 7.7, 'pitch': -4.49, 'roll': -17.23}
{'lipoC2': 7.88, 'temp': 24.38, 'lipoC3S3': 11.92, 'rot1': 0, 'rot0': 0, 'rot3': 0, 'rot2': 0, 'state': 'normal', 'yaw': 5.9, 'datetime': '2018-10-12 13:38:29.971919', 'mgs': 0, 'depth': 1.767, 'time': 7.79, 'pitch': -4.85, 'roll': -17.24}
{'lipoC2': 7.88, 'temp': 24.38, 'lipoC3S3': 11.9, 'rot1': 0, 'rot0': 0, 'rot3': 0, 'rot2': 0, 'state': 'normal', 'yaw': 6.05, 'datetime': '2018-10-12 13:38:30.068832', 'mgs': 1, 'depth': 1.767, 'time': 7.89, 'pitch': -5.17, 'roll': -17.34}
{'lipoC2': 7.9, 'temp': 24.44, 'lipoC3S3': 11.9, 'rot1': 0, 'rot0': 0, 'rot3': 0, 'rot2': 0, 'state': 'normal', 'yaw': 0.0, 'datetime': '2018-10-12 13:38:31.588768', 'mgs': 0, 'depth': 1.767, 'time': 1.26, 'pitch': -1.35, 'roll': -8.08}
{'lipoC2': 7.88, 'temp': 24.44, 'lipoC3S3': 11.92, 'rot1': 0, 'rot0': 0, 'rot3': 0, 'rot2': 0, 'state': 'normal', 'yaw': 0.22, 'datetime': '2018-10-12 13:38:31.619696', 'mgs': 0, 'depth': 1.767, 'time': 1.36, 'pitch': -1.31, 'roll': -7.49}
{'lipoC2': 7.88, 'temp': 24.44, 'lipoC3S3': 11.92, 'rot1': 0, 'rot0': 0, 'rot3': 0, 'rot2': 0, 'state': 'normal', 'yaw': 0.48, 'datetime': '2018-10-12 13:38:31.636381', 'mgs': 0, 'depth': 1.843, 'time': 1.45, 'pitch': -1.34, 'roll': -6.84}
{'lipoC2': 7.88, 'temp': 24.44, 'lipoC3S3': 11.79, 'rot1': 0, 'rot0': 0, 'rot3': 0, 'rot2': 0, 'state': 'normal', 'yaw': 0.67, 'datetime': '2018-10-12 13:38:31.722941', 'mgs': 0, 'depth': 1.996, 'time': 1.55, 'pitch': -1.41, 'roll': -6.43}
{'lipoC2': 7.9, 'temp': 24.44, 'lipoC3S3': 11.81, 'rot1': 0, 'rot0': 0, 'rot3': 0, 'rot2': 1, 'state': 'normal', 'yaw': 0.86, 'datetime': '2018-10-12 13:38:31.820944', 'mgs': 0, 'depth': 1.92, 'time': 1.65, 'pitch': -1.65, 'roll': -6.51}
{'lipoC2': 7.9, 'temp': 24.44, 'lipoC3S3': 11.81, 'rot1': 1, 'rot0': 1, 'rot3': 1, 'rot2': 1, 'state': 'normal', 'yaw': 1.05, 'datetime': '2018-10-12 13:38:31.917320', 'mgs': 0, 'depth': 2.072, 'time': 1.75, 'pitch': -1.92, 'roll': -5.73}
{'lipoC2': 7.9, 'temp': 24.44, 'lipoC3S3': 11.81, 'rot1': 2, 'rot0': 2, 'rot3': 1, 'rot2': 2, 'state': 'normal', 'yaw': 1.53, 'datetime': '2018-10-12 13:38:32.014074', 'mgs': 0, 'depth': 1.996, 'time': 1.84, 'pitch': -1.99, 'roll': -4.15}
{'lipoC2': 7.9, 'temp': 24.44, 'lipoC3S3': 11.77, 'rot1': 3, 'rot0': 3, 'rot3': 2, 'rot2': 3, 'state': 'normal', 'yaw': 2.22, 'datetime': '2018-10-12 13:38:32.110393', 'mgs': 0, 'depth': 1.08, 'time': 1.94, 'pitch': -1.91, 'roll': -3.31}
{'lipoC2': 7.88, 'temp': 24.44, 'lipoC3S3': 11.79, 'rot1': 4, 'rot0': 4, 'rot3': 2, 'rot2': 4, 'state': 'normal', 'yaw': 2.55, 'datetime': '2018-10-12 13:38:32.207389', 'mgs': 0, 'depth': 2.072, 'time': 2.04, 'pitch': -2.06, 'roll': -2.73}
{'lipoC2': 7.88, 'temp': 24.44, 'lipoC3S3': 11.83, 'rot1': 5, 'rot0': 6, 'rot3': 3, 'rot2': 4, 'state': 'normal', 'yaw': 2.38, 'datetime': '2018-10-12 13:38:32.304249', 'mgs': 0, 'depth': 1.92, 'time': 2.13, 'pitch': -2.41, 'roll': -2.19}
{'lipoC2': 7.9, 'temp': 24.38, 'lipoC3S3': 11.79, 'rot1': 5, 'rot0': 7, 'rot3': 3, 'rot2': 5, 'state': 'normal', 'yaw': 1.98, 'datetime': '2018-10-12 13:38:32.401671', 'mgs': 0, 'depth': 2.301, 'time': 2.23, 'pitch': -2.72, 'roll': -2.04}
{'lipoC2': 7.9, 'temp': 24.38, 'lipoC3S3': 11.79, 'rot1': 6, 'rot0': 8, 'rot3': 4, 'rot2': 6, 'state': 'normal', 'yaw': 1.52, 'datetime': '2018-10-12 13:38:32.497630', 'mgs': 0, 'depth': 2.148, 'time': 2.33, 'pitch': -2.82, 'roll': -1.95}
{'lipoC2': 7.9, 'temp': 24.38, 'lipoC3S3': 11.81, 'rot1': 7, 'rot0': 9, 'rot3': 4, 'rot2': 7, 'state': 'normal', 'yaw': 1.08, 'datetime': '2018-10-12 13:38:32.594507', 'mgs': 0, 'depth': 1.996, 'time': 2.42, 'pitch': -2.69, 'roll': -1.64}
{'lipoC2': 7.9, 'temp': 24.38, 'lipoC3S3': 11.84, 'rot1': 8, 'rot0': 10, 'rot3': 5, 'rot2': 7, 'state': 'normal', 'yaw': 0.59, 'datetime': '2018-10-12 13:38:32.691553', 'mgs': 0, 'depth': 1.92, 'time': 2.52, 'pitch': -2.33, 'roll': -1.24}
{'lipoC2': 7.9, 'temp': 24.38, 'lipoC3S3': 11.81, 'rot1': 9, 'rot0': 11, 'rot3': 5, 'rot2': 8, 'state': 'normal', 'yaw': -0.1, 'datetime': '2018-10-12 13:38:32.788372', 'mgs': 0, 'depth': 1.996, 'time': 2.62, 'pitch': -1.99, 'roll': -0.65}
{'lipoC2': 7.88, 'temp': 24.38, 'lipoC3S3': 11.79, 'rot1': 9, 'rot0': 12, 'rot3': 6, 'rot2': 9, 'state': 'normal', 'yaw': -0.87, 'datetime': '2018-10-12 13:38:32.885751', 'mgs': 0, 'depth': 2.606, 'time': 2.71, 'pitch': -1.81, 'roll': -0.09}
{'lipoC2': 7.88, 'temp': 24.38, 'lipoC3S3': 11.81, 'rot1': 10, 'rot0': 14, 'rot3': 7, 'rot2': 9, 'state': 'normal', 'yaw': -1.87, 'datetime': '2018-10-12 13:38:32.984070', 'mgs': 0, 'depth': 1.996, 'time': 2.81, 'pitch': -1.82, 'roll': 0.42}
{'lipoC2': 7.88, 'temp': 24.44, 'lipoC3S3': 11.64, 'rot1': 11, 'rot0': 15, 'rot3': 7, 'rot2': 10, 'state': 'normal', 'yaw': -2.76, 'datetime': '2018-10-12 13:38:33.081542', 'mgs': 0, 'depth': 1.767, 'time': 2.91, 'pitch': -1.94, 'roll': 0.8}
{'lipoC2': 7.9, 'temp': 24.44, 'lipoC3S3': 11.81, 'rot1': 12, 'rot0': 16, 'rot3': 8, 'rot2': 11, 'state': 'normal', 'yaw': -3.46, 'datetime': '2018-10-12 13:38:33.178468', 'mgs': 0, 'depth': 1.996, 'time': 3.01, 'pitch': -2.14, 'roll': 1.04}
{'lipoC2': 7.88, 'temp': 24.44, 'lipoC3S3': 11.84, 'rot1': 13, 'rot0': 17, 'rot3': 8, 'rot2': 11, 'state': 'normal', 'yaw': -3.94, 'datetime': '2018-10-12 13:38:33.276533', 'mgs': 0, 'depth': 1.538, 'time': 3.11, 'pitch': -2.36, 'roll': 1.08}
{'lipoC2': 7.88, 'temp': 24.38, 'lipoC3S3': 11.83, 'rot1': 15, 'rot0': 18, 'rot3': 9, 'rot2': 12, 'state': 'normal', 'yaw': -4.09, 'datetime': '2018-10-12 13:38:33.374021', 'mgs': 0, 'depth': 1.996, 'time': 3.2, 'pitch': -2.56, 'roll': 0.83}
{'lipoC2': 7.9, 'temp': 24.38, 'lipoC3S3': 11.79, 'rot1': 16, 'rot0': 18, 'rot3': 9, 'rot2': 13, 'state': 'normal', 'yaw': -3.85, 'datetime': '2018-10-12 13:38:33.472366', 'mgs': 0, 'depth': 1.767, 'time': 3.3, 'pitch': -2.74, 'roll': 0.41}
{'lipoC2': 7.88, 'temp': 24.44, 'lipoC3S3': 11.83, 'rot1': 17, 'rot0': 19, 'rot3': 10, 'rot2': 14, 'state': 'normal', 'yaw': -3.3, 'datetime': '2018-10-12 13:38:33.569659', 'mgs': 0, 'depth': 1.996, 'time': 3.4, 'pitch': -2.85, 'roll': 0.06}
{'lipoC2': 7.88, 'temp': 24.44, 'lipoC3S3': 11.76, 'rot1': 18, 'rot0': 20, 'rot3': 10, 'rot2': 14, 'state': 'normal', 'yaw': -2.57, 'datetime': '2018-10-12 13:38:33.667678', 'mgs': 0, 'depth': 1.767, 'time': 3.5, 'pitch': -2.89, 'roll': -0.11}
{'lipoC2': 7.88, 'temp': 24.44, 'lipoC3S3': 11.83, 'rot1': 19, 'rot0': 21, 'rot3': 11, 'rot2': 15, 'state': 'normal', 'yaw': -1.58, 'datetime': '2018-10-12 13:38:33.765100', 'mgs': 0, 'depth': 2.148, 'time': 3.6, 'pitch': -2.84, 'roll': -0.16}
{'lipoC2': 7.88, 'temp': 24.38, 'lipoC3S3': 11.79, 'rot1': 20, 'rot0': 21, 'rot3': 11, 'rot2': 16, 'state': 'normal', 'yaw': -0.4, 'datetime': '2018-10-12 13:38:33.862490', 'mgs': 0, 'depth': 2.454, 'time': 3.69, 'pitch': -2.78, 'roll': -0.21}
{'lipoC2': 7.9, 'temp': 24.38, 'lipoC3S3': 11.77, 'rot1': 21, 'rot0': 22, 'rot3': 12, 'rot2': 16, 'state': 'normal', 'yaw': 0.98, 'datetime': '2018-10-12 13:38:33.959857', 'mgs': 0, 'depth': 1.843, 'time': 3.79, 'pitch': -2.66, 'roll': -0.19}
{'lipoC2': 7.88, 'temp': 24.44, 'lipoC3S3': 11.77, 'rot1': 22, 'rot0': 23, 'rot3': 12, 'rot2': 17, 'state': 'normal', 'yaw': 2.33, 'datetime': '2018-10-12 13:38:34.056469', 'mgs': 0, 'depth': 1.843, 'time': 3.89, 'pitch': -2.52, 'roll': -0.22}
{'lipoC2': 7.9, 'temp': 24.44, 'lipoC3S3': 11.81, 'rot1': 23, 'rot0': 24, 'rot3': 13, 'rot2': 17, 'state': 'normal', 'yaw': 3.88, 'datetime': '2018-10-12 13:38:34.153899', 'mgs': 0, 'depth': 1.996, 'time': 3.98, 'pitch': -2.37, 'roll': -0.26}
{'lipoC2': 7.9, 'temp': 24.44, 'lipoC3S3': 11.8, 'rot1': 24, 'rot0': 25, 'rot3': 14, 'rot2': 18, 'state': 'normal', 'yaw': 5.05, 'datetime': '2018-10-12 13:38:34.252419', 'mgs': 0, 'depth': 2.072, 'time': 4.08, 'pitch': -2.32, 'roll': -0.3}
{'lipoC2': 7.88, 'temp': 24.44, 'lipoC3S3': 11.79, 'rot1': 25, 'rot0': 26, 'rot3': 14, 'rot2': 19, 'state': 'normal', 'yaw': 5.77, 'datetime': '2018-10-12 13:38:34.349739', 'mgs': 0, 'depth': 2.072, 'time': 4.18, 'pitch': -2.31, 'roll': -0.33}
{'lipoC2': 7.88, 'temp': 24.44, 'lipoC3S3': 11.73, 'rot1': 25, 'rot0': 27, 'rot3': 15, 'rot2': 19, 'state': 'normal', 'yaw': 6.14, 'datetime': '2018-10-12 13:38:34.447195', 'mgs': 0, 'depth': 1.843, 'time': 4.28, 'pitch': -2.37, 'roll': -0.42}
{'lipoC2': 7.88, 'temp': 24.38, 'lipoC3S3': 11.81, 'rot1': 26, 'rot0': 28, 'rot3': 15, 'rot2': 20, 'state': 'normal', 'yaw': 6.2, 'datetime': '2018-10-12 13:38:34.544641', 'mgs': 0, 'depth': 2.072, 'time': 4.38, 'pitch': -2.43, 'roll': -0.51}
{'lipoC2': 7.88, 'temp': 24.38, 'lipoC3S3': 11.79, 'rot1': 27, 'rot0': 30, 'rot3': 16, 'rot2': 21, 'state': 'normal', 'yaw': 5.98, 'datetime': '2018-10-12 13:38:34.642064', 'mgs': 0, 'depth': 2.454, 'time': 4.47, 'pitch': -2.48, 'roll': -0.59}
{'lipoC2': 7.88, 'temp': 24.38, 'lipoC3S3': 11.81, 'rot1': 28, 'rot0': 31, 'rot3': 16, 'rot2': 21, 'state': 'normal', 'yaw': 5.61, 'datetime': '2018-10-12 13:38:34.740153', 'mgs': 0, 'depth': 1.92, 'time': 4.57, 'pitch': -2.57, 'roll': -0.68}
{'lipoC2': 7.9, 'temp': 24.38, 'lipoC3S3': 11.8, 'rot1': 29, 'rot0': 32, 'rot3': 17, 'rot2': 22, 'state': 'normal', 'yaw': 5.11, 'datetime': '2018-10-12 13:38:34.838693', 'mgs': 0, 'depth': 2.148, 'time': 4.67, 'pitch': -2.71, 'roll': -0.73}
{'lipoC2': 7.88, 'temp': 24.38, 'lipoC3S3': 11.81, 'rot1': 29, 'rot0': 33, 'rot3': 17, 'rot2': 23, 'state': 'normal', 'yaw': 4.4, 'datetime': '2018-10-12 13:38:34.937411', 'mgs': 0, 'depth': 2.148, 'time': 4.77, 'pitch': -2.99, 'roll': -0.73}
{'lipoC2': 7.88, 'temp': 24.38, 'lipoC3S3': 11.76, 'rot1': 30, 'rot0': 34, 'rot3': 18, 'rot2': 24, 'state': 'normal', 'yaw': 3.54, 'datetime': '2018-10-12 13:38:35.034859', 'mgs': 0, 'depth': 2.454, 'time': 4.87, 'pitch': -3.41, 'roll': -0.66}
{'lipoC2': 7.9, 'temp': 24.38, 'lipoC3S3': 11.76, 'rot1': 31, 'rot0': 35, 'rot3': 18, 'rot2': 24, 'state': 'normal', 'yaw': 2.59, 'datetime': '2018-10-12 13:38:35.132324', 'mgs': 0, 'depth': 1.843, 'time': 4.96, 'pitch': -3.86, 'roll': -0.59}
{'lipoC2': 7.88, 'temp': 24.38, 'lipoC3S3': 11.8, 'rot1': 32, 'rot0': 36, 'rot3': 19, 'rot2': 25, 'state': 'normal', 'yaw': 1.64, 'datetime': '2018-10-12 13:38:35.230344', 'mgs': 0, 'depth': 2.072, 'time': 5.06, 'pitch': -4.22, 'roll': -0.51}
{'lipoC2': 7.88, 'temp': 24.44, 'lipoC3S3': 11.8, 'rot1': 33, 'rot0': 37, 'rot3': 19, 'rot2': 26, 'state': 'normal', 'yaw': 0.54, 'datetime': '2018-10-12 13:38:35.329038', 'mgs': 0, 'depth': 2.148, 'time': 5.16, 'pitch': -4.52, 'roll': -0.41}
{'lipoC2': 7.9, 'temp': 24.44, 'lipoC3S3': 11.68, 'rot1': 33, 'rot0': 38, 'rot3': 20, 'rot2': 26, 'state': 'normal', 'yaw': -0.62, 'datetime': '2018-10-12 13:38:35.427114', 'mgs': 0, 'depth': 1.843, 'time': 5.26, 'pitch': -4.75, 'roll': -0.41}
{'lipoC2': 7.88, 'temp': 24.38, 'lipoC3S3': 11.8, 'rot1': 34, 'rot0': 39, 'rot3': 20, 'rot2': 27, 'state': 'normal', 'yaw': -1.82, 'datetime': '2018-10-12 13:38:35.524612', 'mgs': 0, 'depth': 2.148, 'time': 5.36, 'pitch': -4.92, 'roll': -0.48}
{'lipoC2': 7.9, 'temp': 24.38, 'lipoC3S3': 11.77, 'rot1': 35, 'rot0': 40, 'rot3': 21, 'rot2': 28, 'state': 'normal', 'yaw': -3.07, 'datetime': '2018-10-12 13:38:35.622041', 'mgs': 0, 'depth': 2.454, 'time': 5.45, 'pitch': -5.07, 'roll': -0.62}
{'lipoC2': 7.9, 'temp': 24.38, 'lipoC3S3': 11.88, 'rot1': 36, 'rot0': 41, 'rot3': 21, 'rot2': 28, 'state': 'normal', 'yaw': -3.83, 'datetime': '2018-10-12 13:38:35.720599', 'mgs': 0, 'depth': 1.92, 'time': 5.55, 'pitch': -5.2, 'roll': -0.88}
{'lipoC2': 7.88, 'temp': 24.44, 'lipoC3S3': 11.88, 'rot1': 36, 'rot0': 41, 'rot3': 21, 'rot2': 28, 'state': 'normal', 'yaw': -4.46, 'datetime': '2018-10-12 13:38:35.817840', 'mgs': 0, 'depth': 1.92, 'time': 5.65, 'pitch': -5.3, 'roll': -1.69}
{'lipoC2': 7.88, 'temp': 24.44, 'lipoC3S3': 11.83, 'rot1': 36, 'rot0': 41, 'rot3': 21, 'rot2': 28, 'state': 'normal', 'yaw': -5.03, 'datetime': '2018-10-12 13:38:35.915345', 'mgs': 0, 'depth': 2.377, 'time': 5.75, 'pitch': -5.4, 'roll': -2.85}
{'lipoC2': 7.9, 'temp': 24.38, 'lipoC3S3': 11.8, 'rot1': 36, 'rot0': 41, 'rot3': 21, 'rot2': 29, 'state': 'normal', 'yaw': -5.56, 'datetime': '2018-10-12 13:38:36.012846', 'mgs': 0, 'depth': 1.92, 'time': 5.84, 'pitch': -5.39, 'roll': -4.1}
{'lipoC2': 7.9, 'temp': 24.38, 'lipoC3S3': 11.75, 'rot1': 37, 'rot0': 42, 'rot3': 21, 'rot2': 29, 'state': 'normal', 'yaw': -5.87, 'datetime': '2018-10-12 13:38:36.110207', 'mgs': 0, 'depth': 2.072, 'time': 5.94, 'pitch': -5.17, 'roll': -4.82}
{'lipoC2': 7.88, 'temp': 24.38, 'lipoC3S3': 11.72, 'rot1': 38, 'rot0': 43, 'rot3': 22, 'rot2': 30, 'state': 'normal', 'yaw': -5.89, 'datetime': '2018-10-12 13:38:36.207009', 'mgs': 0, 'depth': 1.996, 'time': 6.04, 'pitch': -4.66, 'roll': -5.06}
{'lipoC2': 7.88, 'temp': 24.38, 'lipoC3S3': 11.81, 'rot1': 39, 'rot0': 44, 'rot3': 22, 'rot2': 30, 'state': 'normal', 'yaw': -5.6, 'datetime': '2018-10-12 13:38:36.303170', 'mgs': 0, 'depth': 2.377, 'time': 6.14, 'pitch': -4.04, 'roll': -5.0}
{'lipoC2': 7.88, 'temp': 24.38, 'lipoC3S3': 11.8, 'rot1': 41, 'rot0': 45, 'rot3': 23, 'rot2': 31, 'state': 'normal', 'yaw': -5.06, 'datetime': '2018-10-12 13:38:36.402660', 'mgs': 0, 'depth': 2.377, 'time': 6.24, 'pitch': -3.43, 'roll': -4.92}
{'lipoC2': 7.9, 'temp': 24.44, 'lipoC3S3': 11.76, 'rot1': 42, 'rot0': 45, 'rot3': 23, 'rot2': 31, 'state': 'normal', 'yaw': -4.42, 'datetime': '2018-10-12 13:38:36.500025', 'mgs': 0, 'depth': 2.454, 'time': 6.33, 'pitch': -2.91, 'roll': -4.86}
{'lipoC2': 7.88, 'temp': 24.44, 'lipoC3S3': 11.69, 'rot1': 43, 'rot0': 46, 'rot3': 24, 'rot2': 32, 'state': 'normal', 'yaw': -3.67, 'datetime': '2018-10-12 13:38:36.597479', 'mgs': 0, 'depth': 2.225, 'time': 6.43, 'pitch': -2.41, 'roll': -4.79}
{'lipoC2': 7.9, 'temp': 24.44, 'lipoC3S3': 11.81, 'rot1': 44, 'rot0': 47, 'rot3': 24, 'rot2': 33, 'state': 'normal', 'yaw': -2.86, 'datetime': '2018-10-12 13:38:36.694892', 'mgs': 0, 'depth': 2.225, 'time': 6.53, 'pitch': -2.0, 'roll': -4.7}
{'lipoC2': 7.9, 'temp': 24.44, 'lipoC3S3': 11.76, 'rot1': 45, 'rot0': 48, 'rot3': 25, 'rot2': 33, 'state': 'normal', 'yaw': -2.07, 'datetime': '2018-10-12 13:38:36.793167', 'mgs': 0, 'depth': 2.606, 'time': 6.63, 'pitch': -1.65, 'roll': -4.53}
{'lipoC2': 7.88, 'temp': 24.44, 'lipoC3S3': 11.75, 'rot1': 46, 'rot0': 48, 'rot3': 25, 'rot2': 34, 'state': 'normal', 'yaw': -1.13, 'datetime': '2018-10-12 13:38:36.891761', 'mgs': 0, 'depth': 3.14, 'time': 6.72, 'pitch': -1.33, 'roll': -4.19}
{'lipoC2': 7.88, 'temp': 24.38, 'lipoC3S3': 11.81, 'rot1': 47, 'rot0': 49, 'rot3': 25, 'rot2': 34, 'state': 'normal', 'yaw': -0.15, 'datetime': '2018-10-12 13:38:36.989929', 'mgs': 0, 'depth': 2.606, 'time': 6.82, 'pitch': -1.02, 'roll': -3.64}
{'lipoC2': 7.88, 'temp': 24.38, 'lipoC3S3': 11.81, 'rot1': 48, 'rot0': 50, 'rot3': 26, 'rot2': 35, 'state': 'normal', 'yaw': 0.88, 'datetime': '2018-10-12 13:38:37.083758', 'mgs': 0, 'depth': 2.911, 'time': 6.92, 'pitch': -0.73, 'roll': -2.99}
{'lipoC2': 7.9, 'temp': 24.38, 'lipoC3S3': 11.75, 'rot1': 49, 'rot0': 51, 'rot3': 26, 'rot2': 35, 'state': 'normal', 'yaw': 1.97, 'datetime': '2018-10-12 13:38:37.183269', 'mgs': 0, 'depth': 2.911, 'time': 7.02, 'pitch': -0.54, 'roll': -2.27}
{'lipoC2': 7.9, 'temp': 24.13, 'lipoC3S3': 11.72, 'rot1': 50, 'rot0': 52, 'rot3': 27, 'rot2': 36, 'state': 'normal', 'yaw': 2.82, 'datetime': '2018-10-12 13:38:37.283306', 'mgs': 0, 'depth': 2.835, 'time': 7.12, 'pitch': -0.51, 'roll': -1.55}
{'lipoC2': 7.9, 'temp': 24.13, 'lipoC3S3': 11.81, 'rot1': 52, 'rot0': 53, 'rot3': 27, 'rot2': 36, 'state': 'normal', 'yaw': 3.57, 'datetime': '2018-10-12 13:38:37.382111', 'mgs': 0, 'depth': 3.369, 'time': 7.22, 'pitch': -0.6, 'roll': -0.72}
{'lipoC2': 7.9, 'temp': 24.75, 'lipoC3S3': 11.73, 'rot1': 53, 'rot0': 54, 'rot3': 27, 'rot2': 36, 'state': 'normal', 'yaw': 4.09, 'datetime': '2018-10-12 13:38:37.479392', 'mgs': 0, 'depth': 2.988, 'time': 7.31, 'pitch': -0.81, 'roll': 0.09}
{'lipoC2': 7.88, 'temp': 24.75, 'lipoC3S3': 11.84, 'rot1': 53, 'rot0': 55, 'rot3': 27, 'rot2': 36, 'state': 'normal', 'yaw': 4.27, 'datetime': '2018-10-12 13:38:37.576877', 'mgs': 0, 'depth': 3.14, 'time': 7.41, 'pitch': -1.09, 'roll': 0.74}
{'lipoC2': 7.88, 'temp': 24.75, 'lipoC3S3': 11.84, 'rot1': 54, 'rot0': 56, 'rot3': 27, 'rot2': 36, 'state': 'normal', 'yaw': 4.14, 'datetime': '2018-10-12 13:38:37.674695', 'mgs': 0, 'depth': 3.064, 'time': 7.51, 'pitch': -1.35, 'roll': 1.15}
{'lipoC2': 7.88, 'temp': 24.44, 'lipoC3S3': 11.84, 'rot1': 55, 'rot0': 58, 'rot3': 27, 'rot2': 36, 'state': 'normal', 'yaw': 3.75, 'datetime': '2018-10-12 13:38:37.772184', 'mgs': 0, 'depth': 2.988, 'time': 7.61, 'pitch': -1.63, 'roll': 1.45}
{'lipoC2': 7.9, 'temp': 24.44, 'lipoC3S3': 11.83, 'rot1': 56, 'rot0': 59, 'rot3': 27, 'rot2': 36, 'state': 'normal', 'yaw': 3.19, 'datetime': '2018-10-12 13:38:37.869425', 'mgs': 0, 'depth': 3.369, 'time': 7.7, 'pitch': -1.89, 'roll': 1.69}
{'lipoC2': 7.88, 'temp': 24.44, 'lipoC3S3': 11.79, 'rot1': 57, 'rot0': 60, 'rot3': 27, 'rot2': 36, 'state': 'normal', 'yaw': 2.51, 'datetime': '2018-10-12 13:38:37.966901', 'mgs': 0, 'depth': 3.293, 'time': 7.8, 'pitch': -2.14, 'roll': 1.89}
{'lipoC2': 7.88, 'temp': 24.44, 'lipoC3S3': 11.84, 'rot1': 58, 'rot0': 61, 'rot3': 27, 'rot2': 36, 'state': 'normal', 'yaw': 1.8, 'datetime': '2018-10-12 13:38:38.064637', 'mgs': 0, 'depth': 3.293, 'time': 7.9, 'pitch': -2.35, 'roll': 2.06}
{'lipoC2': 7.88, 'temp': 24.44, 'lipoC3S3': 11.84, 'rot1': 58, 'rot0': 62, 'rot3': 27, 'rot2': 36, 'state': 'normal', 'yaw': 0.9, 'datetime': '2018-10-12 13:38:38.160052', 'mgs': 0, 'depth': 2.988, 'time': 8.0, 'pitch': -2.55, 'roll': 2.22}
{'lipoC2': 7.9, 'temp': 24.44, 'lipoC3S3': 11.84, 'rot1': 59, 'rot0': 63, 'rot3': 27, 'rot2': 36, 'state': 'normal', 'yaw': -0.11, 'datetime': '2018-10-12 13:38:38.259292', 'mgs': 0, 'depth': 3.522, 'time': 8.09, 'pitch': -2.71, 'roll': 2.37}
{'lipoC2': 7.88, 'temp': 24.44, 'lipoC3S3': 11.77, 'rot1': 60, 'rot0': 64, 'rot3': 27, 'rot2': 36, 'state': 'normal', 'yaw': -1.26, 'datetime': '2018-10-12 13:38:38.356706', 'mgs': 0, 'depth': 3.445, 'time': 8.19, 'pitch': -2.83, 'roll': 2.5}
{'lipoC2': 7.88, 'temp': 24.94, 'lipoC3S3': 11.83, 'rot1': 61, 'rot0': 65, 'rot3': 27, 'rot2': 36, 'state': 'normal', 'yaw': -2.25, 'datetime': '2018-10-12 13:38:38.454066', 'mgs': 0, 'depth': 3.598, 'time': 8.29, 'pitch': -2.86, 'roll': 2.69}
{'lipoC2': 7.9, 'temp': 24.94, 'lipoC3S3': 11.81, 'rot1': 62, 'rot0': 67, 'rot3': 27, 'rot2': 36, 'state': 'normal', 'yaw': -3.22, 'datetime': '2018-10-12 13:38:38.551641', 'mgs': 0, 'depth': 4.132, 'time': 8.39, 'pitch': -2.8, 'roll': 2.99}
{'lipoC2': 7.88, 'temp': 24.44, 'lipoC3S3': 11.73, 'rot1': 63, 'rot0': 68, 'rot3': 27, 'rot2': 36, 'state': 'normal', 'yaw': -3.99, 'datetime': '2018-10-12 13:38:38.648921', 'mgs': 0, 'depth': 3.598, 'time': 8.48, 'pitch': -2.74, 'roll': 3.36}
{'lipoC2': 7.88, 'temp': 24.44, 'lipoC3S3': 11.83, 'rot1': 64, 'rot0': 68, 'rot3': 27, 'rot2': 36, 'state': 'normal', 'yaw': -4.4, 'datetime': '2018-10-12 13:38:38.746738', 'mgs': 0, 'depth': 3.598, 'time': 8.58, 'pitch': -2.66, 'roll': 3.61}
{'lipoC2': 7.9, 'temp': 24.44, 'lipoC3S3': 11.84, 'rot1': 65, 'rot0': 69, 'rot3': 27, 'rot2': 36, 'state': 'normal', 'yaw': -4.51, 'datetime': '2018-10-12 13:38:38.845599', 'mgs': 0, 'depth': 4.132, 'time': 8.68, 'pitch': -2.56, 'roll': 3.7}
{'lipoC2': 7.88, 'temp': 24.44, 'lipoC3S3': 11.83, 'rot1': 66, 'rot0': 70, 'rot3': 27, 'rot2': 36, 'state': 'normal', 'yaw': -4.4, 'datetime': '2018-10-12 13:38:38.944258', 'mgs': 0, 'depth': 4.208, 'time': 8.78, 'pitch': -2.46, 'roll': 3.69}
{'lipoC2': 7.9, 'temp': 24.44, 'lipoC3S3': 11.76, 'rot1': 68, 'rot0': 71, 'rot3': 27, 'rot2': 36, 'state': 'normal', 'yaw': -4.09, 'datetime': '2018-10-12 13:38:39.041777', 'mgs': 0, 'depth': 3.598, 'time': 8.88, 'pitch': -2.33, 'roll': 3.57}
{'lipoC2': 7.88, 'temp': 24.44, 'lipoC3S3': 11.84, 'rot1': 69, 'rot0': 72, 'rot3': 27, 'rot2': 36, 'state': 'normal', 'yaw': -3.62, 'datetime': '2018-10-12 13:38:39.139109', 'mgs': 0, 'depth': 3.598, 'time': 8.98, 'pitch': -2.14, 'roll': 3.37}
{'lipoC2': 7.9, 'temp': 24.44, 'lipoC3S3': 11.83, 'rot1': 70, 'rot0': 73, 'rot3': 27, 'rot2': 36, 'state': 'normal', 'yaw': -3.09, 'datetime': '2018-10-12 13:38:39.237391', 'mgs': 0, 'depth': 3.674, 'time': 9.07, 'pitch': -1.95, 'roll': 3.14}
{'lipoC2': 7.88, 'temp': 24.44, 'lipoC3S3': 11.83, 'rot1': 71, 'rot0': 73, 'rot3': 27, 'rot2': 36, 'state': 'normal', 'yaw': -2.35, 'datetime': '2018-10-12 13:38:39.335795', 'mgs': 0, 'depth': 3.598, 'time': 9.17, 'pitch': -1.73, 'roll': 2.82}
{'lipoC2': 7.9, 'temp': 24.5, 'lipoC3S3': 11.84, 'rot1': 72, 'rot0': 74, 'rot3': 27, 'rot2': 36, 'state': 'normal', 'yaw': -1.45, 'datetime': '2018-10-12 13:38:39.434004', 'mgs': 0, 'depth': 3.598, 'time': 9.27, 'pitch': -1.55, 'roll': 2.46}
{'lipoC2': 7.9, 'temp': 24.5, 'lipoC3S3': 11.83, 'rot1': 73, 'rot0': 75, 'rot3': 27, 'rot2': 36, 'state': 'normal', 'yaw': -0.45, 'datetime': '2018-10-12 13:38:39.531418', 'mgs': 0, 'depth': 3.903, 'time': 9.37, 'pitch': -1.4, 'roll': 2.1}
{'lipoC2': 7.88, 'temp': 24.44, 'lipoC3S3': 11.76, 'rot1': 74, 'rot0': 76, 'rot3': 27, 'rot2': 36, 'state': 'normal', 'yaw': 0.64, 'datetime': '2018-10-12 13:38:39.628736', 'mgs': 0, 'depth': 3.522, 'time': 9.46, 'pitch': -1.37, 'roll': 1.75}
{'lipoC2': 7.88, 'temp': 24.44, 'lipoC3S3': 11.85, 'rot1': 76, 'rot0': 76, 'rot3': 27, 'rot2': 36, 'state': 'normal', 'yaw': 1.71, 'datetime': '2018-10-12 13:38:39.726119', 'mgs': 0, 'depth': 3.522, 'time': 9.56, 'pitch': -1.34, 'roll': 1.45}
{'lipoC2': 7.88, 'temp': 24.44, 'lipoC3S3': 11.83, 'rot1': 76, 'rot0': 77, 'rot3': 27, 'rot2': 36, 'state': 'normal', 'yaw': 2.94, 'datetime': '2018-10-12 13:38:39.823530', 'mgs': 0, 'depth': 4.056, 'time': 9.66, 'pitch': -1.33, 'roll': 1.15}
{'lipoC2': 7.9, 'temp': 24.38, 'lipoC3S3': 11.77, 'rot1': 77, 'rot0': 78, 'rot3': 27, 'rot2': 36, 'state': 'normal', 'yaw': 3.75, 'datetime': '2018-10-12 13:38:39.920969', 'mgs': 0, 'depth': 3.522, 'time': 9.76, 'pitch': -1.42, 'roll': 0.94}
{'lipoC2': 7.88, 'temp': 24.38, 'lipoC3S3': 11.84, 'rot1': 78, 'rot0': 79, 'rot3': 27, 'rot2': 36, 'state': 'normal', 'yaw': 4.05, 'datetime': '2018-10-12 13:38:40.018479', 'mgs': 0, 'depth': 3.522, 'time': 9.85, 'pitch': -1.58, 'roll': 0.77}
{'lipoC2': 7.88, 'temp': 24.38, 'lipoC3S3': 11.84, 'rot1': 79, 'rot0': 81, 'rot3': 27, 'rot2': 36, 'state': 'normal', 'yaw': 3.99, 'datetime': '2018-10-12 13:38:40.115986', 'mgs': 0, 'depth': 3.445, 'time': 9.95, 'pitch': -1.78, 'roll': 0.63}
{'lipoC2': 7.9, 'temp': 24.38, 'lipoC3S3': 11.76, 'rot1': 79, 'rot0': 81, 'rot3': 27, 'rot2': 36, 'state': 'normal', 'yaw': 3.68, 'datetime': '2018-10-12 13:38:44.169394', 'mgs': 0, 'depth': 3.598, 'time': 10.05, 'pitch': -2.01, 'roll': 0.47}
{'lipoC2': 7.88, 'temp': 24.38, 'lipoC3S3': 11.81, 'rot1': 79, 'rot0': 81, 'rot3': 27, 'rot2': 36, 'state': 'normal', 'yaw': 3.36, 'datetime': '2018-10-12 13:38:44.192757', 'mgs': 0, 'depth': 3.522, 'time': 10.15, 'pitch': -2.29, 'roll': 0.01}
{'lipoC2': 7.88, 'temp': 24.5, 'lipoC3S3': 11.83, 'rot1': 79, 'rot0': 81, 'rot3': 28, 'rot2': 37, 'state': 'normal', 'yaw': 3.11, 'datetime': '2018-10-12 13:38:44.230369', 'mgs': 0, 'depth': 3.369, 'time': 10.25, 'pitch': -2.54, 'roll': -0.54}
{'lipoC2': 7.88, 'temp': 24.5, 'lipoC3S3': 11.83, 'rot1': 79, 'rot0': 81, 'rot3': 28, 'rot2': 38, 'state': 'normal', 'yaw': 2.86, 'datetime': '2018-10-12 13:38:44.249617', 'mgs': 0, 'depth': 3.674, 'time': 10.34, 'pitch': -2.82, 'roll': -1.17}
{'lipoC2': 7.9, 'temp': 24.44, 'lipoC3S3': 11.79, 'rot1': 79, 'rot0': 81, 'rot3': 28, 'rot2': 38, 'state': 'normal', 'yaw': 2.61, 'datetime': '2018-10-12 13:38:44.271207', 'mgs': 0, 'depth': 3.445, 'time': 10.44, 'pitch': -3.09, 'roll': -1.76}
{'lipoC2': 7.88, 'temp': 24.44, 'lipoC3S3': 11.81, 'rot1': 79, 'rot0': 81, 'rot3': 29, 'rot2': 39, 'state': 'normal', 'yaw': 2.36, 'datetime': '2018-10-12 13:38:44.281377', 'mgs': 0, 'depth': 3.293, 'time': 10.54, 'pitch': -3.34, 'roll': -2.3}
{'lipoC2': 7.88, 'temp': 24.44, 'lipoC3S3': 11.83, 'rot1': 79, 'rot0': 81, 'rot3': 29, 'rot2': 40, 'state': 'normal', 'yaw': 2.12, 'datetime': '2018-10-12 13:38:44.302129', 'mgs': 0, 'depth': 3.293, 'time': 10.64, 'pitch': -3.55, 'roll': -2.73}
{'lipoC2': 7.88, 'temp': 24.44, 'lipoC3S3': 11.83, 'rot1': 79, 'rot0': 81, 'rot3': 30, 'rot2': 40, 'state': 'normal', 'yaw': 1.85, 'datetime': '2018-10-12 13:38:44.311723', 'mgs': 0, 'depth': 3.14, 'time': 10.73, 'pitch': -3.75, 'roll': -3.13}
{'lipoC2': 7.9, 'temp': 24.44, 'lipoC3S3': 11.85, 'rot1': 79, 'rot0': 81, 'rot3': 30, 'rot2': 41, 'state': 'normal', 'yaw': 1.58, 'datetime': '2018-10-12 13:38:44.330965', 'mgs': 0, 'depth': 3.369, 'time': 10.83, 'pitch': -3.89, 'roll': -3.44}
{'lipoC2': 7.88, 'temp': 24.38, 'lipoC3S3': 11.81, 'rot1': 79, 'rot0': 81, 'rot3': 31, 'rot2': 41, 'state': 'normal', 'yaw': 1.3, 'datetime': '2018-10-12 13:38:44.338712', 'mgs': 0, 'depth': 2.988, 'time': 10.93, 'pitch': -3.96, 'roll': -3.64}
{'lipoC2': 7.88, 'temp': 24.38, 'lipoC3S3': 11.85, 'rot1': 79, 'rot0': 81, 'rot3': 31, 'rot2': 42, 'state': 'normal', 'yaw': 1.03, 'datetime': '2018-10-12 13:38:44.357781', 'mgs': 0, 'depth': 2.911, 'time': 11.03, 'pitch': -3.98, 'roll': -3.76}
{'lipoC2': 7.88, 'temp': 24.38, 'lipoC3S3': 11.84, 'rot1': 79, 'rot0': 81, 'rot3': 32, 'rot2': 43, 'state': 'normal', 'yaw': 0.8, 'datetime': '2018-10-12 13:38:44.365862', 'mgs': 0, 'depth': 2.835, 'time': 11.13, 'pitch': -3.98, 'roll': -3.81}
{'lipoC2': 7.88, 'temp': 24.44, 'lipoC3S3': 11.84, 'rot1': 79, 'rot0': 81, 'rot3': 32, 'rot2': 43, 'state': 'normal', 'yaw': 0.53, 'datetime': '2018-10-12 13:38:44.385079', 'mgs': 0, 'depth': 2.759, 'time': 11.23, 'pitch': -3.95, 'roll': -3.81}
{'lipoC2': 7.88, 'temp': 24.44, 'lipoC3S3': 11.84, 'rot1': 79, 'rot0': 81, 'rot3': 33, 'rot2': 44, 'state': 'normal', 'yaw': 0.29, 'datetime': '2018-10-12 13:38:44.392855', 'mgs': 0, 'depth': 3.064, 'time': 11.32, 'pitch': -3.86, 'roll': -3.79}
{'lipoC2': 7.88, 'temp': 24.56, 'lipoC3S3': 11.79, 'rot1': 79, 'rot0': 81, 'rot3': 33, 'rot2': 45, 'state': 'normal', 'yaw': 0.07, 'datetime': '2018-10-12 13:38:44.414868', 'mgs': 0, 'depth': 2.835, 'time': 11.42, 'pitch': -3.69, 'roll': -3.66}
{'lipoC2': 7.88, 'temp': 24.56, 'lipoC3S3': 11.84, 'rot1': 79, 'rot0': 81, 'rot3': 33, 'rot2': 45, 'state': 'normal', 'yaw': -0.12, 'datetime': '2018-10-12 13:38:44.425069', 'mgs': 0, 'depth': 2.911, 'time': 11.52, 'pitch': -3.56, 'roll': -3.46}
{'lipoC2': 7.9, 'temp': 24.56, 'lipoC3S3': 11.77, 'rot1': 79, 'rot0': 81, 'rot3': 34, 'rot2': 46, 'state': 'normal', 'yaw': -0.35, 'datetime': '2018-10-12 13:38:44.446600', 'mgs': 0, 'depth': 2.682, 'time': 11.62, 'pitch': -3.42, 'roll': -3.12}
{'lipoC2': 7.88, 'temp': 24.44, 'lipoC3S3': 11.8, 'rot1': 79, 'rot0': 81, 'rot3': 34, 'rot2': 46, 'state': 'normal', 'yaw': -0.59, 'datetime': '2018-10-12 13:38:44.456788', 'mgs': 0, 'depth': 2.454, 'time': 11.71, 'pitch': -3.28, 'roll': -2.71}
{'lipoC2': 7.88, 'temp': 24.44, 'lipoC3S3': 11.83, 'rot1': 79, 'rot0': 81, 'rot3': 35, 'rot2': 47, 'state': 'normal', 'yaw': -0.85, 'datetime': '2018-10-12 13:38:44.478310', 'mgs': 0, 'depth': 1.92, 'time': 11.81, 'pitch': -3.16, 'roll': -2.29}
{'lipoC2': 7.9, 'temp': 24.44, 'lipoC3S3': 11.84, 'rot1': 79, 'rot0': 81, 'rot3': 35, 'rot2': 48, 'state': 'normal', 'yaw': -1.11, 'datetime': '2018-10-12 13:38:44.488498', 'mgs': 0, 'depth': 2.606, 'time': 11.91, 'pitch': -3.1, 'roll': -1.94}
{'lipoC2': 7.88, 'temp': 24.44, 'lipoC3S3': 11.79, 'rot1': 79, 'rot0': 81, 'rot3': 36, 'rot2': 48, 'state': 'normal', 'yaw': -1.43, 'datetime': '2018-10-12 13:38:44.508650', 'mgs': 0, 'depth': 2.225, 'time': 12.01, 'pitch': -3.07, 'roll': -1.61}
{'lipoC2': 7.88, 'temp': 24.44, 'lipoC3S3': 11.81, 'rot1': 79, 'rot0': 81, 'rot3': 36, 'rot2': 49, 'state': 'normal', 'yaw': -1.73, 'datetime': '2018-10-12 13:38:44.516442', 'mgs': 0, 'depth': 2.148, 'time': 12.1, 'pitch': -3.04, 'roll': -1.37}
{'lipoC2': 7.88, 'temp': 24.38, 'lipoC3S3': 11.84, 'rot1': 79, 'rot0': 81, 'rot3': 37, 'rot2': 50, 'state': 'normal', 'yaw': -2.04, 'datetime': '2018-10-12 13:38:44.535582', 'mgs': 0, 'depth': 2.377, 'time': 12.2, 'pitch': -3.01, 'roll': -1.17}
{'lipoC2': 7.88, 'temp': 24.38, 'lipoC3S3': 11.77, 'rot1': 79, 'rot0': 81, 'rot3': 37, 'rot2': 50, 'state': 'normal', 'yaw': -2.35, 'datetime': '2018-10-12 13:38:44.543384', 'mgs': 0, 'depth': 2.225, 'time': 12.3, 'pitch': -3.0, 'roll': -1.08}
{'lipoC2': 7.9, 'temp': 24.38, 'lipoC3S3': 11.8, 'rot1': 79, 'rot0': 81, 'rot3': 37, 'rot2': 51, 'state': 'normal', 'yaw': -2.69, 'datetime': '2018-10-12 13:38:44.562253', 'mgs': 0, 'depth': 1.92, 'time': 12.4, 'pitch': -2.98, 'roll': -1.02}
{'lipoC2': 7.88, 'temp': 24.38, 'lipoC3S3': 11.84, 'rot1': 79, 'rot0': 81, 'rot3': 38, 'rot2': 51, 'state': 'normal', 'yaw': -2.97, 'datetime': '2018-10-12 13:38:44.569544', 'mgs': 0, 'depth': 1.767, 'time': 12.49, 'pitch': -2.96, 'roll': -1.06}
{'lipoC2': 7.9, 'temp': 24.38, 'lipoC3S3': 11.83, 'rot1': 79, 'rot0': 81, 'rot3': 39, 'rot2': 52, 'state': 'normal', 'yaw': -3.15, 'datetime': '2018-10-12 13:38:44.588233', 'mgs': 0, 'depth': 1.843, 'time': 12.59, 'pitch': -2.83, 'roll': -1.2}
{'lipoC2': 7.88, 'temp': 24.44, 'lipoC3S3': 11.83, 'rot1': 79, 'rot0': 81, 'rot3': 39, 'rot2': 53, 'state': 'normal', 'yaw': -3.26, 'datetime': '2018-10-12 13:38:44.595591', 'mgs': 0, 'depth': 1.843, 'time': 12.69, 'pitch': -2.66, 'roll': -1.38}
{'lipoC2': 7.88, 'temp': 24.44, 'lipoC3S3': 11.81, 'rot1': 79, 'rot0': 81, 'rot3': 39, 'rot2': 53, 'state': 'normal', 'yaw': -3.4, 'datetime': '2018-10-12 13:38:44.614699', 'mgs': 0, 'depth': 1.843, 'time': 12.79, 'pitch': -2.6, 'roll': -1.64}
{'lipoC2': 7.9, 'temp': 24.44, 'lipoC3S3': 11.84, 'rot1': 79, 'rot0': 81, 'rot3': 40, 'rot2': 54, 'state': 'normal', 'yaw': -3.54, 'datetime': '2018-10-12 13:38:44.622101', 'mgs': 0, 'depth': 2.072, 'time': 12.89, 'pitch': -2.64, 'roll': -1.94}
{'lipoC2': 7.9, 'temp': 24.44, 'lipoC3S3': 11.84, 'rot1': 79, 'rot0': 81, 'rot3': 40, 'rot2': 55, 'state': 'normal', 'yaw': -3.7, 'datetime': '2018-10-12 13:38:44.640805', 'mgs': 0, 'depth': 1.92, 'time': 12.98, 'pitch': -2.78, 'roll': -2.26}
{'lipoC2': 7.88, 'temp': 24.44, 'lipoC3S3': 11.84, 'rot1': 79, 'rot0': 81, 'rot3': 41, 'rot2': 55, 'state': 'normal', 'yaw': -3.81, 'datetime': '2018-10-12 13:38:44.648164', 'mgs': 0, 'depth': 1.767, 'time': 13.08, 'pitch': -2.89, 'roll': -2.56}
{'lipoC2': 7.88, 'temp': 24.44, 'lipoC3S3': 11.84, 'rot1': 79, 'rot0': 81, 'rot3': 41, 'rot2': 56, 'state': 'normal', 'yaw': -3.85, 'datetime': '2018-10-12 13:38:44.666811', 'mgs': 0, 'depth': 1.691, 'time': 13.18, 'pitch': -2.96, 'roll': -2.82}
{'lipoC2': 7.88, 'temp': 24.44, 'lipoC3S3': 11.84, 'rot1': 79, 'rot0': 81, 'rot3': 42, 'rot2': 57, 'state': 'normal', 'yaw': -3.9, 'datetime': '2018-10-12 13:38:44.674134', 'mgs': 0, 'depth': 2.072, 'time': 13.28, 'pitch': -3.03, 'roll': -2.96}
{'lipoC2': 7.9, 'temp': 24.38, 'lipoC3S3': 11.84, 'rot1': 79, 'rot0': 81, 'rot3': 42, 'rot2': 57, 'state': 'normal', 'yaw': -3.98, 'datetime': '2018-10-12 13:38:44.692839', 'mgs': 0, 'depth': 1.92, 'time': 13.38, 'pitch': -3.02, 'roll': -3.03}
{'lipoC2': 7.9, 'temp': 24.38, 'lipoC3S3': 11.81, 'rot1': 79, 'rot0': 81, 'rot3': 43, 'rot2': 58, 'state': 'normal', 'yaw': -4.03, 'datetime': '2018-10-12 13:38:44.700300', 'mgs': 0, 'depth': 1.767, 'time': 13.48, 'pitch': -3.0, 'roll': -3.09}
{'lipoC2': 7.88, 'temp': 24.44, 'lipoC3S3': 11.84, 'rot1': 79, 'rot0': 81, 'rot3': 43, 'rot2': 59, 'state': 'normal', 'yaw': -4.04, 'datetime': '2018-10-12 13:38:44.719103', 'mgs': 0, 'depth': 1.996, 'time': 13.57, 'pitch': -2.97, 'roll': -3.2}
{'lipoC2': 7.88, 'temp': 24.44, 'lipoC3S3': 11.8, 'rot1': 79, 'rot0': 81, 'rot3': 44, 'rot2': 59, 'state': 'normal', 'yaw': -4.05, 'datetime': '2018-10-12 13:38:44.726481', 'mgs': 0, 'depth': 1.843, 'time': 13.67, 'pitch': -2.96, 'roll': -3.32}
{'lipoC2': 7.88, 'temp': 24.44, 'lipoC3S3': 11.83, 'rot1': 79, 'rot0': 81, 'rot3': 45, 'rot2': 60, 'state': 'normal', 'yaw': -4.04, 'datetime': '2018-10-12 13:38:44.745183', 'mgs': 0, 'depth': 1.767, 'time': 13.77, 'pitch': -3.05, 'roll': -3.46}
{'lipoC2': 7.88, 'temp': 24.38, 'lipoC3S3': 11.84, 'rot1': 79, 'rot0': 81, 'rot3': 45, 'rot2': 60, 'state': 'normal', 'yaw': -4.04, 'datetime': '2018-10-12 13:38:44.752552', 'mgs': 0, 'depth': 1.996, 'time': 13.87, 'pitch': -3.15, 'roll': -3.47}
{'lipoC2': 7.9, 'temp': 24.38, 'lipoC3S3': 11.77, 'rot1': 79, 'rot0': 81, 'rot3': 45, 'rot2': 61, 'state': 'normal', 'yaw': -4.03, 'datetime': '2018-10-12 13:38:44.771273', 'mgs': 0, 'depth': 1.92, 'time': 13.96, 'pitch': -3.2, 'roll': -3.33}
{'lipoC2': 7.88, 'temp': 24.44, 'lipoC3S3': 11.88, 'rot1': 79, 'rot0': 81, 'rot3': 46, 'rot2': 62, 'state': 'normal', 'yaw': -4.03, 'datetime': '2018-10-12 13:38:44.778609', 'mgs': 0, 'depth': 1.691, 'time': 14.06, 'pitch': -3.15, 'roll': -3.02}
{'lipoC2': 7.9, 'temp': 24.44, 'lipoC3S3': 11.79, 'rot1': 80, 'rot0': 82, 'rot3': 46, 'rot2': 62, 'state': 'normal', 'yaw': -3.92, 'datetime': '2018-10-12 13:38:44.798756', 'mgs': 0, 'depth': 2.072, 'time': 14.16, 'pitch': -2.94, 'roll': -2.69}
{'lipoC2': 7.9, 'temp': 24.44, 'lipoC3S3': 11.77, 'rot1': 81, 'rot0': 83, 'rot3': 47, 'rot2': 63, 'state': 'normal', 'yaw': -3.28, 'datetime': '2018-10-12 13:38:44.806200', 'mgs': 0, 'depth': 2.072, 'time': 14.26, 'pitch': -2.55, 'roll': -2.36}
{'lipoC2': 7.9, 'temp': 24.44, 'lipoC3S3': 11.79, 'rot1': 81, 'rot0': 84, 'rot3': 47, 'rot2': 64, 'state': 'normal', 'yaw': -2.01, 'datetime': '2018-10-12 13:38:44.824890', 'mgs': 0, 'depth': 2.454, 'time': 14.35, 'pitch': -2.03, 'roll': -1.94}
{'lipoC2': 7.88, 'temp': 24.44, 'lipoC3S3': 11.8, 'rot1': 82, 'rot0': 84, 'rot3': 48, 'rot2': 65, 'state': 'normal', 'yaw': -0.26, 'datetime': '2018-10-12 13:38:44.832530', 'mgs': 0, 'depth': 1.767, 'time': 14.45, 'pitch': -1.57, 'roll': -1.56}
{'lipoC2': 7.88, 'temp': 24.38, 'lipoC3S3': 11.83, 'rot1': 83, 'rot0': 85, 'rot3': 49, 'rot2': 65, 'state': 'normal', 'yaw': 1.92, 'datetime': '2018-10-12 13:38:44.851239', 'mgs': 0, 'depth': 2.072, 'time': 14.55, 'pitch': -1.24, 'roll': -1.24}
{'lipoC2': 7.88, 'temp': 24.38, 'lipoC3S3': 11.77, 'rot1': 84, 'rot0': 86, 'rot3': 49, 'rot2': 66, 'state': 'normal', 'yaw': 4.19, 'datetime': '2018-10-12 13:38:44.858564', 'mgs': 0, 'depth': 2.225, 'time': 14.65, 'pitch': -1.09, 'roll': -1.06}
{'lipoC2': 7.88, 'temp': 24.38, 'lipoC3S3': 11.77, 'rot1': 85, 'rot0': 87, 'rot3': 50, 'rot2': 67, 'state': 'normal', 'yaw': 7.03, 'datetime': '2018-10-12 13:38:44.899982', 'mgs': 0, 'depth': 2.454, 'time': 14.75, 'pitch': -1.07, 'roll': -1.06}
{'lipoC2': 7.9, 'temp': 24.38, 'lipoC3S3': 11.75, 'rot1': 86, 'rot0': 88, 'rot3': 50, 'rot2': 67, 'state': 'normal', 'yaw': 10.16, 'datetime': '2018-10-12 13:38:44.998275', 'mgs': 0, 'depth': 1.462, 'time': 14.84, 'pitch': -1.2, 'roll': -1.15}
{'lipoC2': 7.88, 'temp': 24.38, 'lipoC3S3': 11.81, 'rot1': 87, 'rot0': 89, 'rot3': 51, 'rot2': 68, 'state': 'normal', 'yaw': 13.6, 'datetime': '2018-10-12 13:38:45.095681', 'mgs': 0, 'depth': 1.92, 'time': 14.94, 'pitch': -1.47, 'roll': -1.32}
{'lipoC2': 7.9, 'temp': 24.38, 'lipoC3S3': 11.77, 'rot1': 88, 'rot0': 89, 'rot3': 51, 'rot2': 69, 'state': 'normal', 'yaw': 17.36, 'datetime': '2018-10-12 13:38:45.193051', 'mgs': 0, 'depth': 2.225, 'time': 15.04, 'pitch': -1.82, 'roll': -1.57}
{'lipoC2': 7.88, 'temp': 24.38, 'lipoC3S3': 11.72, 'rot1': 88, 'rot0': 90, 'rot3': 52, 'rot2': 69, 'state': 'normal', 'yaw': 20.95, 'datetime': '2018-10-12 13:38:45.291504', 'mgs': 0, 'depth': 1.767, 'time': 15.14, 'pitch': -2.09, 'roll': -1.83}
{'lipoC2': 7.9, 'temp': 24.38, 'lipoC3S3': 11.71, 'rot1': 89, 'rot0': 91, 'rot3': 52, 'rot2': 70, 'state': 'normal', 'yaw': 25.11, 'datetime': '2018-10-12 13:38:45.390143', 'mgs': 0, 'depth': 1.767, 'time': 15.24, 'pitch': -2.32, 'roll': -2.15}
{'lipoC2': 7.9, 'temp': 24.44, 'lipoC3S3': 11.81, 'rot1': 90, 'rot0': 92, 'rot3': 53, 'rot2': 71, 'state': 'normal', 'yaw': 29.41, 'datetime': '2018-10-12 13:38:45.487580', 'mgs': 0, 'depth': 1.996, 'time': 15.34, 'pitch': -2.37, 'roll': -2.43}
{'lipoC2': 7.88, 'temp': 24.44, 'lipoC3S3': 11.77, 'rot1': 91, 'rot0': 93, 'rot3': 54, 'rot2': 71, 'state': 'normal', 'yaw': 33.81, 'datetime': '2018-10-12 13:38:45.585018', 'mgs': 0, 'depth': 2.53, 'time': 15.43, 'pitch': -2.28, 'roll': -2.65}
{'lipoC2': 7.88, 'temp': 24.44, 'lipoC3S3': 11.76, 'rot1': 92, 'rot0': 94, 'rot3': 54, 'rot2': 72, 'state': 'normal', 'yaw': 38.27, 'datetime': '2018-10-12 13:38:45.683326', 'mgs': 0, 'depth': 2.606, 'time': 15.53, 'pitch': -2.03, 'roll': -2.79}
{'lipoC2': 7.88, 'temp': 24.44, 'lipoC3S3': 11.77, 'rot1': 93, 'rot0': 94, 'rot3': 55, 'rot2': 73, 'state': 'normal', 'yaw': 42.32, 'datetime': '2018-10-12 13:38:45.783051', 'mgs': 0, 'depth': 1.843, 'time': 15.63, 'pitch': -1.81, 'roll': -2.92}
{'lipoC2': 7.88, 'temp': 24.44, 'lipoC3S3': 11.81, 'rot1': 93, 'rot0': 95, 'rot3': 55, 'rot2': 73, 'state': 'normal', 'yaw': 46.89, 'datetime': '2018-10-12 13:38:45.882727', 'mgs': 0, 'depth': 1.843, 'time': 15.73, 'pitch': -1.6, 'roll': -3.01}
{'lipoC2': 7.9, 'temp': 24.44, 'lipoC3S3': 11.76, 'rot1': 94, 'rot0': 96, 'rot3': 56, 'rot2': 74, 'state': 'normal', 'yaw': 51.57, 'datetime': '2018-10-12 13:38:45.980057', 'mgs': 0, 'depth': 1.92, 'time': 15.82, 'pitch': -1.46, 'roll': -3.11}
{'lipoC2': 7.88, 'temp': 24.44, 'lipoC3S3': 11.77, 'rot1': 95, 'rot0': 97, 'rot3': 56, 'rot2': 75, 'state': 'normal', 'yaw': 55.85, 'datetime': '2018-10-12 13:38:46.077777', 'mgs': 0, 'depth': 2.53, 'time': 15.92, 'pitch': -1.41, 'roll': -3.15}
{'lipoC2': 7.9, 'temp': 24.38, 'lipoC3S3': 11.77, 'rot1': 96, 'rot0': 98, 'rot3': 57, 'rot2': 75, 'state': 'normal', 'yaw': 60.67, 'datetime': '2018-10-12 13:38:46.175169', 'mgs': 0, 'depth': 1.691, 'time': 16.02, 'pitch': -1.43, 'roll': -3.17}
{'lipoC2': 7.88, 'temp': 24.38, 'lipoC3S3': 11.81, 'rot1': 97, 'rot0': 98, 'rot3': 57, 'rot2': 76, 'state': 'normal', 'yaw': 65.53, 'datetime': '2018-10-12 13:38:46.272625', 'mgs': 0, 'depth': 1.996, 'time': 16.11, 'pitch': -1.43, 'roll': -3.2}
{'lipoC2': 7.88, 'temp': 24.38, 'lipoC3S3': 11.77, 'rot1': 97, 'rot0': 99, 'rot3': 58, 'rot2': 77, 'state': 'normal', 'yaw': 70.5, 'datetime': '2018-10-12 13:38:46.369961', 'mgs': 0, 'depth': 1.92, 'time': 16.21, 'pitch': -1.4, 'roll': -3.23}
{'lipoC2': 7.9, 'temp': 24.38, 'lipoC3S3': 11.79, 'rot1': 98, 'rot0': 100, 'rot3': 58, 'rot2': 77, 'state': 'normal', 'yaw': 75.04, 'datetime': '2018-10-12 13:38:46.467491', 'mgs': 0, 'depth': 1.767, 'time': 16.31, 'pitch': -1.4, 'roll': -3.19}
{'lipoC2': 7.88, 'temp': 24.38, 'lipoC3S3': 11.79, 'rot1': 99, 'rot0': 101, 'rot3': 59, 'rot2': 78, 'state': 'normal', 'yaw': 80.16, 'datetime': '2018-10-12 13:38:46.564893', 'mgs': 0, 'depth': 1.691, 'time': 16.41, 'pitch': -1.42, 'roll': -3.12}
{'lipoC2': 7.88, 'temp': 24.38, 'lipoC3S3': 11.8, 'rot1': 100, 'rot0': 102, 'rot3': 60, 'rot2': 79, 'state': 'normal', 'yaw': 85.33, 'datetime': '2018-10-12 13:38:46.662682', 'mgs': 0, 'depth': 1.843, 'time': 16.5, 'pitch': -1.37, 'roll': -3.08}
{'lipoC2': 7.9, 'temp': 24.38, 'lipoC3S3': 11.8, 'rot1': 101, 'rot0': 102, 'rot3': 60, 'rot2': 79, 'state': 'normal', 'yaw': 90.6, 'datetime': '2018-10-12 13:38:46.760409', 'mgs': 0, 'depth': 1.996, 'time': 16.6, 'pitch': -1.25, 'roll': -3.07}
{'lipoC2': 7.88, 'temp': 24.38, 'lipoC3S3': 11.77, 'rot1': 101, 'rot0': 103, 'rot3': 61, 'rot2': 80, 'state': 'normal', 'yaw': 95.38, 'datetime': '2018-10-12 13:38:46.859340', 'mgs': 0, 'depth': 1.92, 'time': 16.7, 'pitch': -1.06, 'roll': -3.14}
{'lipoC2': 7.88, 'temp': 24.44, 'lipoC3S3': 11.77, 'rot1': 102, 'rot0': 104, 'rot3': 61, 'rot2': 81, 'state': 'normal', 'yaw': 100.73, 'datetime': '2018-10-12 13:38:46.958054', 'mgs': 0, 'depth': 1.691, 'time': 16.8, 'pitch': -0.79, 'roll': -3.3}
{'lipoC2': 7.9, 'temp': 24.44, 'lipoC3S3': 11.8, 'rot1': 103, 'rot0': 105, 'rot3': 62, 'rot2': 81, 'state': 'normal', 'yaw': 106.17, 'datetime': '2018-10-12 13:38:47.056148', 'mgs': 0, 'depth': 1.996, 'time': 16.9, 'pitch': -0.46, 'roll': -3.45}
{'lipoC2': 7.88, 'temp': 24.38, 'lipoC3S3': 11.75, 'rot1': 104, 'rot0': 106, 'rot3': 62, 'rot2': 82, 'state': 'normal', 'yaw': 111.71, 'datetime': '2018-10-12 13:38:47.152350', 'mgs': 0, 'depth': 1.996, 'time': 17.0, 'pitch': -0.18, 'roll': -3.54}
{'lipoC2': 7.9, 'temp': 24.38, 'lipoC3S3': 11.77, 'rot1': 105, 'rot0': 106, 'rot3': 63, 'rot2': 83, 'state': 'normal', 'yaw': 117.31, 'datetime': '2018-10-12 13:38:47.251620', 'mgs': 0, 'depth': 2.53, 'time': 17.09, 'pitch': -0.04, 'roll': -3.64}
{'lipoC2': 7.88, 'temp': 24.38, 'lipoC3S3': 11.87, 'rot1': 105, 'rot0': 107, 'rot3': 63, 'rot2': 83, 'state': 'normal', 'yaw': 122.28, 'datetime': '2018-10-12 13:38:47.350059', 'mgs': 0, 'depth': 1.614, 'time': 17.19, 'pitch': -0.02, 'roll': -3.74}
{'lipoC2': 7.88, 'temp': 24.38, 'lipoC3S3': 11.87, 'rot1': 105, 'rot0': 107, 'rot3': 63, 'rot2': 83, 'state': 'normal', 'yaw': 127.34, 'datetime': '2018-10-12 13:38:47.448862', 'mgs': 0, 'depth': 1.767, 'time': 17.29, 'pitch': -0.11, 'roll': -3.95}
{'lipoC2': 7.88, 'temp': 24.38, 'lipoC3S3': 11.81, 'rot1': 105, 'rot0': 107, 'rot3': 63, 'rot2': 83, 'state': 'normal', 'yaw': 131.91, 'datetime': '2018-10-12 13:38:47.548329', 'mgs': 0, 'depth': 2.072, 'time': 17.39, 'pitch': -0.26, 'roll': -4.28}
{'lipoC2': 7.88, 'temp': 24.44, 'lipoC3S3': 11.79, 'rot1': 105, 'rot0': 107, 'rot3': 63, 'rot2': 83, 'state': 'normal', 'yaw': 136.07, 'datetime': '2018-10-12 13:38:47.641106', 'mgs': 0, 'depth': 2.148, 'time': 17.49, 'pitch': -0.35, 'roll': -4.93}
{'lipoC2': 7.88, 'temp': 24.44, 'lipoC3S3': 11.79, 'rot1': 106, 'rot0': 108, 'rot3': 64, 'rot2': 84, 'state': 'normal', 'yaw': 140.04, 'datetime': '2018-10-12 13:38:47.742014', 'mgs': 0, 'depth': 2.072, 'time': 17.59, 'pitch': -0.4, 'roll': -5.11}
{'lipoC2': 7.88, 'temp': 24.44, 'lipoC3S3': 11.72, 'rot1': 108, 'rot0': 109, 'rot3': 64, 'rot2': 85, 'state': 'normal', 'yaw': 143.61, 'datetime': '2018-10-12 13:38:47.841327', 'mgs': 0, 'depth': 1.92, 'time': 17.68, 'pitch': -0.36, 'roll': -4.82}
{'lipoC2': 7.88, 'temp': 24.38, 'lipoC3S3': 11.8, 'rot1': 109, 'rot0': 109, 'rot3': 65, 'rot2': 85, 'state': 'normal', 'yaw': 147.52, 'datetime': '2018-10-12 13:38:47.938819', 'mgs': 0, 'depth': 1.92, 'time': 17.78, 'pitch': -0.13, 'roll': -4.4}
{'lipoC2': 7.88, 'temp': 24.38, 'lipoC3S3': 11.8, 'rot1': 110, 'rot0': 110, 'rot3': 65, 'rot2': 86, 'state': 'normal', 'yaw': 151.41, 'datetime': '2018-10-12 13:38:48.036607', 'mgs': 0, 'depth': 2.301, 'time': 17.88, 'pitch': 0.14, 'roll': -3.99}
{'lipoC2': 7.9, 'temp': 24.38, 'lipoC3S3': 11.8, 'rot1': 111, 'rot0': 111, 'rot3': 66, 'rot2': 86, 'state': 'normal', 'yaw': 155.24, 'datetime': '2018-10-12 13:38:48.134169', 'mgs': 0, 'depth': 2.377, 'time': 17.98, 'pitch': 0.47, 'roll': -3.6}
{'lipoC2': 7.88, 'temp': 24.38, 'lipoC3S3': 11.8, 'rot1': 112, 'rot0': 112, 'rot3': 66, 'rot2': 87, 'state': 'normal', 'yaw': 158.62, 'datetime': '2018-10-12 13:38:48.232174', 'mgs': 0, 'depth': 2.148, 'time': 18.08, 'pitch': 0.72, 'roll': -3.27}
{'lipoC2': 7.88, 'temp': 24.38, 'lipoC3S3': 11.8, 'rot1': 113, 'rot0': 112, 'rot3': 67, 'rot2': 87, 'state': 'normal', 'yaw': 162.29, 'datetime': '2018-10-12 13:38:48.329594', 'mgs': 0, 'depth': 2.377, 'time': 18.17, 'pitch': 0.92, 'roll': -2.89}
{'lipoC2': 7.88, 'temp': 24.38, 'lipoC3S3': 11.8, 'rot1': 114, 'rot0': 113, 'rot3': 67, 'rot2': 88, 'state': 'normal', 'yaw': 165.89, 'datetime': '2018-10-12 13:38:48.423662', 'mgs': 0, 'depth': 2.53, 'time': 18.27, 'pitch': 1.1, 'roll': -2.49}
{'lipoC2': 7.88, 'temp': 24.38, 'lipoC3S3': 11.79, 'rot1': 115, 'rot0': 114, 'rot3': 67, 'rot2': 88, 'state': 'normal', 'yaw': 169.44, 'datetime': '2018-10-12 13:38:48.524355', 'mgs': 0, 'depth': 2.53, 'time': 18.37, 'pitch': 1.29, 'roll': -2.02}
{'lipoC2': 7.88, 'temp': 24.38, 'lipoC3S3': 11.8, 'rot1': 116, 'rot0': 115, 'rot3': 68, 'rot2': 89, 'state': 'normal', 'yaw': 172.92, 'datetime': '2018-10-12 13:38:48.622744', 'mgs': 0, 'depth': 2.606, 'time': 18.47, 'pitch': 1.52, 'roll': -1.45}
{'lipoC2': 7.88, 'temp': 24.38, 'lipoC3S3': 11.8, 'rot1': 117, 'rot0': 115, 'rot3': 68, 'rot2': 90, 'state': 'normal', 'yaw': 176.03, 'datetime': '2018-10-12 13:38:48.720346', 'mgs': 0, 'depth': 2.682, 'time': 18.57, 'pitch': 1.73, 'roll': -0.89}
