{'lipoC2': 7.76, 'temp': 23.63, 'lipoC3S3': 11.69, 'rot1': 0, 'rot0': 0, 'rot3': 0, 'rot2': 0, 'state': 'normal', 'yaw': 0.25, 'datetime': '2018-10-12 14:13:37.799951', 'mgs': 0, 'depth': 2.072, 'time': 1.36, 'pitch': -2.13, 'roll': -18.6}
{'lipoC2': 7.75, 'temp': 23.63, 'lipoC3S3': 11.71, 'rot1': 0, 'rot0': 0, 'rot3': 0, 'rot2': 0, 'state': 'normal', 'yaw': 0.5, 'datetime': '2018-10-12 14:13:37.817048', 'mgs': 0, 'depth': 2.148, 'time': 1.45, 'pitch': -2.35, 'roll': -18.57}
{'lipoC2': 7.75, 'temp': 23.63, 'lipoC3S3': 11.71, 'rot1': 0, 'rot0': 0, 'rot3': 0, 'rot2': 0, 'state': 'normal', 'yaw': 0.76, 'datetime': '2018-10-12 14:13:37.834096', 'mgs': 0, 'depth': 2.072, 'time': 1.55, 'pitch': -2.59, 'roll': -18.61}
{'lipoC2': 7.75, 'temp': 23.63, 'lipoC3S3': 11.69, 'rot1': 0, 'rot0': 0, 'rot3': 0, 'rot2': 0, 'state': 'normal', 'yaw': 0.99, 'datetime': '2018-10-12 14:13:37.851405', 'mgs': 0, 'depth': 2.072, 'time': 1.65, 'pitch': -2.84, 'roll': -18.65}
{'lipoC2': 7.76, 'temp': 23.63, 'lipoC3S3': 11.69, 'rot1': 0, 'rot0': 0, 'rot3': 0, 'rot2': 0, 'state': 'normal', 'yaw': 1.2, 'datetime': '2018-10-12 14:13:37.868473', 'mgs': 0, 'depth': 1.996, 'time': 1.75, 'pitch': -3.06, 'roll': -18.7}
{'lipoC2': 7.75, 'temp': 23.63, 'lipoC3S3': 11.71, 'rot1': 0, 'rot0': 0, 'rot3': 0, 'rot2': 0, 'state': 'normal', 'yaw': 1.43, 'datetime': '2018-10-12 14:13:37.877948', 'mgs': 0, 'depth': 1.996, 'time': 1.85, 'pitch': -3.24, 'roll': -18.66}
{'lipoC2': 7.75, 'temp': 23.56, 'lipoC3S3': 11.69, 'rot1': 0, 'rot0': 0, 'rot3': 0, 'rot2': 0, 'state': 'normal', 'yaw': 1.64, 'datetime': '2018-10-12 14:13:37.885332', 'mgs': 0, 'depth': 2.072, 'time': 1.94, 'pitch': -3.44, 'roll': -18.57}
{'lipoC2': 7.76, 'temp': 23.56, 'lipoC3S3': 11.71, 'rot1': 0, 'rot0': 0, 'rot3': 0, 'rot2': 0, 'state': 'normal', 'yaw': 1.84, 'datetime': '2018-10-12 14:13:37.892754', 'mgs': 0, 'depth': 2.148, 'time': 2.04, 'pitch': -3.74, 'roll': -18.45}
{'lipoC2': 7.75, 'temp': 23.56, 'lipoC3S3': 11.69, 'rot1': 0, 'rot0': 0, 'rot3': 0, 'rot2': 0, 'state': 'normal', 'yaw': 2.03, 'datetime': '2018-10-12 14:13:37.947496', 'mgs': 0, 'depth': 2.148, 'time': 2.14, 'pitch': -4.03, 'roll': -18.3}
{'lipoC2': 7.75, 'temp': 23.63, 'lipoC3S3': 11.69, 'rot1': 0, 'rot0': 0, 'rot3': 0, 'rot2': 0, 'state': 'normal', 'yaw': 2.17, 'datetime': '2018-10-12 14:13:38.044652', 'mgs': 0, 'depth': 2.072, 'time': 2.24, 'pitch': -4.26, 'roll': -18.19}
{'lipoC2': 7.76, 'temp': 23.63, 'lipoC3S3': 11.69, 'rot1': 0, 'rot0': 0, 'rot3': 0, 'rot2': 0, 'state': 'normal', 'yaw': 2.23, 'datetime': '2018-10-12 14:13:38.142984', 'mgs': 0, 'depth': 2.072, 'time': 2.33, 'pitch': -4.42, 'roll': -18.15}
{'lipoC2': 7.75, 'temp': 23.63, 'lipoC3S3': 11.71, 'rot1': 0, 'rot0': 0, 'rot3': 0, 'rot2': 0, 'state': 'normal', 'yaw': 2.26, 'datetime': '2018-10-12 14:13:38.241291', 'mgs': 0, 'depth': 2.072, 'time': 2.43, 'pitch': -4.51, 'roll': -18.06}
{'lipoC2': 7.75, 'temp': 23.63, 'lipoC3S3': 11.71, 'rot1': 0, 'rot0': 0, 'rot3': 0, 'rot2': 0, 'state': 'normal', 'yaw': 2.26, 'datetime': '2018-10-12 14:13:38.338330', 'mgs': 0, 'depth': 2.072, 'time': 2.53, 'pitch': -4.49, 'roll': -18.05}
{'lipoC2': 7.76, 'temp': 23.63, 'lipoC3S3': 11.71, 'rot1': 0, 'rot0': 0, 'rot3': 0, 'rot2': 0, 'state': 'normal', 'yaw': 2.22, 'datetime': '2018-10-12 14:13:38.435389', 'mgs': 0, 'depth': 2.072, 'time': 2.63, 'pitch': -4.38, 'roll': -18.1}
{'lipoC2': 7.75, 'temp': 23.63, 'lipoC3S3': 11.69, 'rot1': 0, 'rot0': 0, 'rot3': 0, 'rot2': 0, 'state': 'normal', 'yaw': 2.17, 'datetime': '2018-10-12 14:13:38.532423', 'mgs': 0, 'depth': 2.072, 'time': 2.72, 'pitch': -4.24, 'roll': -18.12}
{'lipoC2': 7.75, 'temp': 23.63, 'lipoC3S3': 11.69, 'rot1': 0, 'rot0': 0, 'rot3': 0, 'rot2': 0, 'state': 'normal', 'yaw': 2.09, 'datetime': '2018-10-12 14:13:38.634894', 'mgs': 0, 'depth': 2.148, 'time': 2.82, 'pitch': -4.04, 'roll': -18.08}
{'lipoC2': 7.75, 'temp': 23.63, 'lipoC3S3': 11.71, 'rot1': 0, 'rot0': 0, 'rot3': 0, 'rot2': 0, 'state': 'normal', 'yaw': 1.94, 'datetime': '2018-10-12 14:13:38.732155', 'mgs': 0, 'depth': 2.072, 'time': 2.92, 'pitch': -3.84, 'roll': -18.04}
{'lipoC2': 7.75, 'temp': 23.63, 'lipoC3S3': 11.71, 'rot1': 0, 'rot0': 0, 'rot3': 0, 'rot2': 0, 'state': 'normal', 'yaw': 1.79, 'datetime': '2018-10-12 14:13:38.829036', 'mgs': 0, 'depth': 1.996, 'time': 3.02, 'pitch': -3.66, 'roll': -18.06}
{'lipoC2': 7.75, 'temp': 23.63, 'lipoC3S3': 11.71, 'rot1': 0, 'rot0': 0, 'rot3': 0, 'rot2': 0, 'state': 'normal', 'yaw': 1.6, 'datetime': '2018-10-12 14:13:38.926189', 'mgs': 0, 'depth': 2.072, 'time': 3.11, 'pitch': -3.42, 'roll': -18.05}
{'lipoC2': 7.75, 'temp': 23.56, 'lipoC3S3': 11.71, 'rot1': 0, 'rot0': 0, 'rot3': 0, 'rot2': 0, 'state': 'normal', 'yaw': 1.41, 'datetime': '2018-10-12 14:13:39.023255', 'mgs': 0, 'depth': 2.072, 'time': 3.21, 'pitch': -3.12, 'roll': -17.94}
{'lipoC2': 7.75, 'temp': 23.56, 'lipoC3S3': 11.69, 'rot1': 0, 'rot0': 0, 'rot3': 0, 'rot2': 0, 'state': 'normal', 'yaw': 1.21, 'datetime': '2018-10-12 14:13:39.121551', 'mgs': 0, 'depth': 2.072, 'time': 3.31, 'pitch': -2.83, 'roll': -17.78}
{'lipoC2': 7.75, 'temp': 23.63, 'lipoC3S3': 11.69, 'rot1': 0, 'rot0': 0, 'rot3': 0, 'rot2': 0, 'state': 'normal', 'yaw': 0.92, 'datetime': '2018-10-12 14:13:39.219859', 'mgs': 0, 'depth': 2.072, 'time': 3.41, 'pitch': -2.48, 'roll': -17.56}
{'lipoC2': 7.75, 'temp': 23.63, 'lipoC3S3': 11.69, 'rot1': 0, 'rot0': 0, 'rot3': 0, 'rot2': 0, 'state': 'normal', 'yaw': 0.66, 'datetime': '2018-10-12 14:13:39.317468', 'mgs': 0, 'depth': 2.072, 'time': 3.51, 'pitch': -2.03, 'roll': -17.5}
{'lipoC2': 7.75, 'temp': 23.63, 'lipoC3S3': 11.69, 'rot1': 0, 'rot0': 0, 'rot3': 0, 'rot2': 0, 'state': 'normal', 'yaw': 0.44, 'datetime': '2018-10-12 14:13:39.414473', 'mgs': 0, 'depth': 2.072, 'time': 3.6, 'pitch': -1.54, 'roll': -17.52}
{'lipoC2': 7.76, 'temp': 23.63, 'lipoC3S3': 11.71, 'rot1': 0, 'rot0': 0, 'rot3': 0, 'rot2': 0, 'state': 'normal', 'yaw': 0.21, 'datetime': '2018-10-12 14:13:39.512348', 'mgs': 0, 'depth': 1.92, 'time': 3.7, 'pitch': -1.22, 'roll': -17.61}
{'lipoC2': 7.76, 'temp': 23.63, 'lipoC3S3': 11.71, 'rot1': 0, 'rot0': 0, 'rot3': 0, 'rot2': 0, 'state': 'normal', 'yaw': -0.02, 'datetime': '2018-10-12 14:13:39.610703', 'mgs': 0, 'depth': 1.996, 'time': 3.8, 'pitch': -0.98, 'roll': -17.77}
{'lipoC2': 7.75, 'temp': 23.56, 'lipoC3S3': 11.71, 'rot1': 0, 'rot0': 0, 'rot3': 0, 'rot2': 0, 'state': 'normal', 'yaw': -0.06, 'datetime': '2018-10-12 14:13:39.708729', 'mgs': 0, 'depth': 1.996, 'time': 3.9, 'pitch': -0.81, 'roll': -17.89}
{'lipoC2': 7.75, 'temp': 23.56, 'lipoC3S3': 11.71, 'rot1': 0, 'rot0': 0, 'rot3': 0, 'rot2': 0, 'state': 'normal', 'yaw': -0.01, 'datetime': '2018-10-12 14:13:39.805799', 'mgs': 0, 'depth': 1.996, 'time': 3.99, 'pitch': -0.81, 'roll': -17.89}
{'lipoC2': 7.75, 'temp': 23.56, 'lipoC3S3': 11.69, 'rot1': 0, 'rot0': 0, 'rot3': 0, 'rot2': 0, 'state': 'normal', 'yaw': 0.07, 'datetime': '2018-10-12 14:13:39.903387', 'mgs': 0, 'depth': 1.996, 'time': 4.09, 'pitch': -1.01, 'roll': -17.83}
{'lipoC2': 7.75, 'temp': 23.56, 'lipoC3S3': 11.69, 'rot1': 0, 'rot0': 0, 'rot3': 0, 'rot2': 0, 'state': 'normal', 'yaw': 0.34, 'datetime': '2018-10-12 14:13:40.001785', 'mgs': 0, 'depth': 2.072, 'time': 4.19, 'pitch': -1.24, 'roll': -17.73}
{'lipoC2': 7.76, 'temp': 23.56, 'lipoC3S3': 11.69, 'rot1': 0, 'rot0': 0, 'rot3': 0, 'rot2': 0, 'state': 'normal', 'yaw': 0.74, 'datetime': '2018-10-12 14:13:40.098687', 'mgs': 0, 'depth': 1.996, 'time': 4.29, 'pitch': -1.42, 'roll': -17.66}
{'lipoC2': 7.75, 'temp': 23.63, 'lipoC3S3': 11.71, 'rot1': 0, 'rot0': 0, 'rot3': 0, 'rot2': 0, 'state': 'normal', 'yaw': 1.11, 'datetime': '2018-10-12 14:13:40.195743', 'mgs': 0, 'depth': 2.072, 'time': 4.38, 'pitch': -1.62, 'roll': -17.64}
{'lipoC2': 7.75, 'temp': 23.63, 'lipoC3S3': 11.69, 'rot1': 0, 'rot0': 0, 'rot3': 0, 'rot2': 0, 'state': 'normal', 'yaw': 1.36, 'datetime': '2018-10-12 14:13:40.292778', 'mgs': 0, 'depth': 2.072, 'time': 4.48, 'pitch': -1.85, 'roll': -17.65}
{'lipoC2': 7.75, 'temp': 23.63, 'lipoC3S3': 11.69, 'rot1': 0, 'rot0': 0, 'rot3': 0, 'rot2': 0, 'state': 'normal', 'yaw': 1.69, 'datetime': '2018-10-12 14:13:40.389801', 'mgs': 0, 'depth': 1.996, 'time': 4.58, 'pitch': -2.09, 'roll': -17.65}
{'lipoC2': 7.76, 'temp': 23.56, 'lipoC3S3': 11.71, 'rot1': 0, 'rot0': 0, 'rot3': 0, 'rot2': 0, 'state': 'normal', 'yaw': 2.11, 'datetime': '2018-10-12 14:13:40.487024', 'mgs': 0, 'depth': 2.072, 'time': 4.68, 'pitch': -2.29, 'roll': -17.68}
{'lipoC2': 7.75, 'temp': 23.56, 'lipoC3S3': 11.69, 'rot1': 0, 'rot0': 0, 'rot3': 0, 'rot2': 0, 'state': 'normal', 'yaw': 2.46, 'datetime': '2018-10-12 14:13:40.584143', 'mgs': 0, 'depth': 2.072, 'time': 4.77, 'pitch': -2.54, 'roll': -17.69}
{'lipoC2': 7.75, 'temp': 23.63, 'lipoC3S3': 11.69, 'rot1': 0, 'rot0': 0, 'rot3': 0, 'rot2': 0, 'state': 'normal', 'yaw': 2.78, 'datetime': '2018-10-12 14:13:40.681164', 'mgs': 0, 'depth': 2.072, 'time': 4.87, 'pitch': -2.89, 'roll': -17.79}
{'lipoC2': 7.76, 'temp': 23.63, 'lipoC3S3': 11.69, 'rot1': 0, 'rot0': 0, 'rot3': 0, 'rot2': 0, 'state': 'normal', 'yaw': 3.08, 'datetime': '2018-10-12 14:13:40.778158', 'mgs': 0, 'depth': 2.072, 'time': 4.97, 'pitch': -3.13, 'roll': -17.92}
{'lipoC2': 7.76, 'temp': 23.63, 'lipoC3S3': 11.69, 'rot1': 0, 'rot0': 0, 'rot3': 0, 'rot2': 0, 'state': 'normal', 'yaw': 3.37, 'datetime': '2018-10-12 14:13:40.875460', 'mgs': 0, 'depth': 2.072, 'time': 5.06, 'pitch': -3.18, 'roll': -18.11}
{'lipoC2': 7.75, 'temp': 23.63, 'lipoC3S3': 11.71, 'rot1': 0, 'rot0': 0, 'rot3': 0, 'rot2': 0, 'state': 'normal', 'yaw': 3.53, 'datetime': '2018-10-12 14:13:40.973783', 'mgs': 0, 'depth': 2.072, 'time': 5.16, 'pitch': -3.15, 'roll': -18.24}
{'lipoC2': 7.75, 'temp': 23.63, 'lipoC3S3': 11.71, 'rot1': 0, 'rot0': 0, 'rot3': 0, 'rot2': 0, 'state': 'normal', 'yaw': 3.55, 'datetime': '2018-10-12 14:13:41.072193', 'mgs': 0, 'depth': 1.996, 'time': 5.26, 'pitch': -3.14, 'roll': -18.25}
{'lipoC2': 7.75, 'temp': 23.63, 'lipoC3S3': 11.69, 'rot1': 0, 'rot0': 0, 'rot3': 0, 'rot2': 0, 'state': 'normal', 'yaw': 3.52, 'datetime': '2018-10-12 14:13:41.169204', 'mgs': 0, 'depth': 2.148, 'time': 5.36, 'pitch': -3.07, 'roll': -18.25}
{'lipoC2': 7.75, 'temp': 23.63, 'lipoC3S3': 11.69, 'rot1': 0, 'rot0': 0, 'rot3': 0, 'rot2': 0, 'state': 'normal', 'yaw': 3.45, 'datetime': '2018-10-12 14:13:41.266189', 'mgs': 0, 'depth': 2.072, 'time': 5.45, 'pitch': -2.88, 'roll': -18.34}
{'lipoC2': 7.75, 'temp': 23.63, 'lipoC3S3': 11.69, 'rot1': 0, 'rot0': 0, 'rot3': 0, 'rot2': 0, 'state': 'normal', 'yaw': 3.38, 'datetime': '2018-10-12 14:13:41.362993', 'mgs': 0, 'depth': 2.148, 'time': 5.55, 'pitch': -2.7, 'roll': -18.45}
{'lipoC2': 7.75, 'temp': 23.56, 'lipoC3S3': 11.69, 'rot1': 0, 'rot0': 0, 'rot3': 0, 'rot2': 0, 'state': 'normal', 'yaw': 3.21, 'datetime': '2018-10-12 14:13:41.462903', 'mgs': 0, 'depth': 2.072, 'time': 5.65, 'pitch': -2.5, 'roll': -18.58}
{'lipoC2': 7.75, 'temp': 23.56, 'lipoC3S3': 11.69, 'rot1': 0, 'rot0': 0, 'rot3': 0, 'rot2': 0, 'state': 'normal', 'yaw': 3.07, 'datetime': '2018-10-12 14:13:41.559886', 'mgs': 0, 'depth': 2.148, 'time': 5.75, 'pitch': -2.17, 'roll': -18.72}
{'lipoC2': 7.75, 'temp': 23.56, 'lipoC3S3': 11.69, 'rot1': 0, 'rot0': 0, 'rot3': 0, 'rot2': 0, 'state': 'normal', 'yaw': 2.91, 'datetime': '2018-10-12 14:13:41.657028', 'mgs': 0, 'depth': 2.072, 'time': 5.85, 'pitch': -1.75, 'roll': -18.81}
{'lipoC2': 7.75, 'temp': 23.56, 'lipoC3S3': 11.71, 'rot1': 0, 'rot0': 0, 'rot3': 0, 'rot2': 0, 'state': 'normal', 'yaw': 2.69, 'datetime': '2018-10-12 14:13:41.755276', 'mgs': 0, 'depth': 2.072, 'time': 5.95, 'pitch': -1.41, 'roll': -18.81}
{'lipoC2': 7.75, 'temp': 23.56, 'lipoC3S3': 11.69, 'rot1': 0, 'rot0': 0, 'rot3': 0, 'rot2': 0, 'state': 'normal', 'yaw': 2.45, 'datetime': '2018-10-12 14:13:41.853330', 'mgs': 0, 'depth': 2.148, 'time': 6.04, 'pitch': -1.09, 'roll': -18.8}
{'lipoC2': 7.76, 'temp': 23.63, 'lipoC3S3': 11.71, 'rot1': 0, 'rot0': 0, 'rot3': 0, 'rot2': 0, 'state': 'normal', 'yaw': 2.29, 'datetime': '2018-10-12 14:13:41.950360', 'mgs': 0, 'depth': 2.072, 'time': 6.14, 'pitch': -0.79, 'roll': -18.83}
{'lipoC2': 7.76, 'temp': 23.63, 'lipoC3S3': 11.69, 'rot1': 0, 'rot0': 0, 'rot3': 0, 'rot2': 0, 'state': 'normal', 'yaw': 2.22, 'datetime': '2018-10-12 14:13:42.047620', 'mgs': 0, 'depth': 2.072, 'time': 6.24, 'pitch': -0.58, 'roll': -18.99}
{'lipoC2': 7.76, 'temp': 23.56, 'lipoC3S3': 11.69, 'rot1': 0, 'rot0': 0, 'rot3': 0, 'rot2': 0, 'state': 'normal', 'yaw': 2.2, 'datetime': '2018-10-12 14:13:42.144542', 'mgs': 0, 'depth': 2.072, 'time': 6.33, 'pitch': -0.53, 'roll': -19.25}
{'lipoC2': 7.75, 'temp': 23.56, 'lipoC3S3': 11.71, 'rot1': 0, 'rot0': 0, 'rot3': 0, 'rot2': 0, 'state': 'normal', 'yaw': 2.2, 'datetime': '2018-10-12 14:13:42.241500', 'mgs': 0, 'depth': 2.072, 'time': 6.43, 'pitch': -0.53, 'roll': -19.58}
{'lipoC2': 7.75, 'temp': 23.56, 'lipoC3S3': 11.71, 'rot1': 0, 'rot0': 0, 'rot3': 0, 'rot2': 0, 'state': 'normal', 'yaw': 2.27, 'datetime': '2018-10-12 14:13:42.338437', 'mgs': 0, 'depth': 2.148, 'time': 6.53, 'pitch': -0.51, 'roll': -19.8}
{'lipoC2': 7.76, 'temp': 23.56, 'lipoC3S3': 11.69, 'rot1': 0, 'rot0': 0, 'rot3': 0, 'rot2': 0, 'state': 'normal', 'yaw': 2.41, 'datetime': '2018-10-12 14:13:42.435443', 'mgs': 0, 'depth': 2.072, 'time': 6.63, 'pitch': -0.49, 'roll': -19.93}
{'lipoC2': 7.76, 'temp': 23.56, 'lipoC3S3': 11.71, 'rot1': 0, 'rot0': 0, 'rot3': 0, 'rot2': 0, 'state': 'normal', 'yaw': 2.65, 'datetime': '2018-10-12 14:13:42.532519', 'mgs': 0, 'depth': 2.072, 'time': 6.72, 'pitch': -0.55, 'roll': -19.94}
{'lipoC2': 7.75, 'temp': 23.63, 'lipoC3S3': 11.71, 'rot1': 0, 'rot0': 0, 'rot3': 0, 'rot2': 0, 'state': 'normal', 'yaw': 2.95, 'datetime': '2018-10-12 14:13:42.629555', 'mgs': 0, 'depth': 2.072, 'time': 6.82, 'pitch': -0.75, 'roll': -19.88}
{'lipoC2': 7.75, 'temp': 23.63, 'lipoC3S3': 11.69, 'rot1': 0, 'rot0': 0, 'rot3': 0, 'rot2': 0, 'state': 'normal', 'yaw': 3.28, 'datetime': '2018-10-12 14:13:42.727844', 'mgs': 0, 'depth': 2.148, 'time': 6.92, 'pitch': -1.01, 'roll': -19.86}
{'lipoC2': 7.75, 'temp': 23.63, 'lipoC3S3': 11.71, 'rot1': 0, 'rot0': 0, 'rot3': 0, 'rot2': 0, 'state': 'normal', 'yaw': 3.72, 'datetime': '2018-10-12 14:13:42.826095', 'mgs': 0, 'depth': 2.148, 'time': 7.02, 'pitch': -1.33, 'roll': -19.92}
{'lipoC2': 7.75, 'temp': 23.63, 'lipoC3S3': 11.69, 'rot1': 0, 'rot0': 0, 'rot3': 0, 'rot2': 0, 'state': 'normal', 'yaw': 4.16, 'datetime': '2018-10-12 14:13:42.923659', 'mgs': 0, 'depth': 2.072, 'time': 7.11, 'pitch': -1.7, 'roll': -20.1}
{'lipoC2': 7.75, 'temp': 23.63, 'lipoC3S3': 11.69, 'rot1': 0, 'rot0': 0, 'rot3': 0, 'rot2': 0, 'state': 'normal', 'yaw': 4.54, 'datetime': '2018-10-12 14:13:43.020828', 'mgs': 0, 'depth': 2.148, 'time': 7.21, 'pitch': -2.08, 'roll': -20.38}
{'lipoC2': 7.76, 'temp': 23.63, 'lipoC3S3': 11.69, 'rot1': 0, 'rot0': 0, 'rot3': 0, 'rot2': 0, 'state': 'normal', 'yaw': 4.83, 'datetime': '2018-10-12 14:13:43.118601', 'mgs': 0, 'depth': 2.225, 'time': 7.31, 'pitch': -2.38, 'roll': -20.63}
{'lipoC2': 7.75, 'temp': 23.63, 'lipoC3S3': 11.69, 'rot1': 0, 'rot0': 0, 'rot3': 0, 'rot2': 0, 'state': 'normal', 'yaw': 5.1, 'datetime': '2018-10-12 14:13:43.214482', 'mgs': 0, 'depth': 2.148, 'time': 7.41, 'pitch': -2.61, 'roll': -20.68}
{'lipoC2': 7.76, 'temp': 23.63, 'lipoC3S3': 11.69, 'rot1': 0, 'rot0': 0, 'rot3': 0, 'rot2': 0, 'state': 'normal', 'yaw': 5.25, 'datetime': '2018-10-12 14:13:43.315151', 'mgs': 0, 'depth': 2.148, 'time': 7.51, 'pitch': -2.76, 'roll': -20.69}
{'lipoC2': 7.75, 'temp': 23.63, 'lipoC3S3': 11.71, 'rot1': 0, 'rot0': 0, 'rot3': 0, 'rot2': 0, 'state': 'normal', 'yaw': 5.26, 'datetime': '2018-10-12 14:13:43.412191', 'mgs': 0, 'depth': 2.225, 'time': 7.6, 'pitch': -2.8, 'roll': -20.75}
{'lipoC2': 7.75, 'temp': 23.63, 'lipoC3S3': 11.69, 'rot1': 0, 'rot0': 0, 'rot3': 0, 'rot2': 0, 'state': 'normal', 'yaw': 5.24, 'datetime': '2018-10-12 14:13:43.509723', 'mgs': 0, 'depth': 2.225, 'time': 7.7, 'pitch': -2.75, 'roll': -20.75}
{'lipoC2': 7.75, 'temp': 23.63, 'lipoC3S3': 11.71, 'rot1': 0, 'rot0': 0, 'rot3': 0, 'rot2': 0, 'state': 'normal', 'yaw': 5.19, 'datetime': '2018-10-12 14:13:43.608005', 'mgs': 0, 'depth': 2.148, 'time': 7.8, 'pitch': -2.62, 'roll': -20.85}
{'lipoC2': 7.76, 'temp': 23.63, 'lipoC3S3': 11.69, 'rot1': 0, 'rot0': 0, 'rot3': 0, 'rot2': 0, 'state': 'normal', 'yaw': 5.06, 'datetime': '2018-10-12 14:13:43.705101', 'mgs': 0, 'depth': 2.225, 'time': 7.9, 'pitch': -2.46, 'roll': -21.0}
{'lipoC2': 7.75, 'temp': 23.63, 'lipoC3S3': 11.69, 'rot1': 0, 'rot0': 0, 'rot3': 0, 'rot2': 0, 'state': 'normal', 'yaw': 4.89, 'datetime': '2018-10-12 14:13:43.801958', 'mgs': 0, 'depth': 2.148, 'time': 7.99, 'pitch': -2.27, 'roll': -21.1}
{'lipoC2': 7.75, 'temp': 23.56, 'lipoC3S3': 11.69, 'rot1': 0, 'rot0': 0, 'rot3': 0, 'rot2': 0, 'state': 'normal', 'yaw': 4.78, 'datetime': '2018-10-12 14:13:43.899228', 'mgs': 0, 'depth': 2.225, 'time': 8.09, 'pitch': -2.04, 'roll': -21.17}
{'lipoC2': 7.75, 'temp': 23.56, 'lipoC3S3': 11.69, 'rot1': 0, 'rot0': 0, 'rot3': 0, 'rot2': 0, 'state': 'normal', 'yaw': 4.64, 'datetime': '2018-10-12 14:13:43.996182', 'mgs': 0, 'depth': 2.225, 'time': 8.19, 'pitch': -1.83, 'roll': -21.18}
{'lipoC2': 7.75, 'temp': 23.63, 'lipoC3S3': 11.71, 'rot1': 0, 'rot0': 0, 'rot3': 0, 'rot2': 0, 'state': 'normal', 'yaw': 4.5, 'datetime': '2018-10-12 14:13:44.093247', 'mgs': 0, 'depth': 2.225, 'time': 8.28, 'pitch': -1.73, 'roll': -21.15}
{'lipoC2': 7.75, 'temp': 23.63, 'lipoC3S3': 11.69, 'rot1': 0, 'rot0': 0, 'rot3': 0, 'rot2': 0, 'state': 'normal', 'yaw': 4.46, 'datetime': '2018-10-12 14:13:44.190847', 'mgs': 0, 'depth': 2.225, 'time': 8.38, 'pitch': -1.72, 'roll': -21.07}
{'lipoC2': 7.75, 'temp': 23.63, 'lipoC3S3': 11.69, 'rot1': 0, 'rot0': 0, 'rot3': 0, 'rot2': 0, 'state': 'normal', 'yaw': 4.46, 'datetime': '2018-10-12 14:13:44.286610', 'mgs': 0, 'depth': 2.225, 'time': 8.48, 'pitch': -1.71, 'roll': -21.03}
{'lipoC2': 7.75, 'temp': 23.63, 'lipoC3S3': 11.69, 'rot1': 0, 'rot0': 0, 'rot3': 0, 'rot2': 0, 'state': 'normal', 'yaw': 4.46, 'datetime': '2018-10-12 14:13:44.384913', 'mgs': 0, 'depth': 2.148, 'time': 8.58, 'pitch': -1.71, 'roll': -21.03}
{'lipoC2': 7.75, 'temp': 23.63, 'lipoC3S3': 11.69, 'rot1': 0, 'rot0': 0, 'rot3': 0, 'rot2': 0, 'state': 'normal', 'yaw': 4.46, 'datetime': '2018-10-12 14:13:44.481992', 'mgs': 0, 'depth': 2.148, 'time': 8.67, 'pitch': -1.72, 'roll': -21.03}
{'lipoC2': 7.75, 'temp': 23.63, 'lipoC3S3': 11.69, 'rot1': 0, 'rot0': 0, 'rot3': 0, 'rot2': 0, 'state': 'normal', 'yaw': 4.49, 'datetime': '2018-10-12 14:13:44.580185', 'mgs': 0, 'depth': 2.148, 'time': 8.77, 'pitch': -1.71, 'roll': -21.06}
{'lipoC2': 7.75, 'temp': 23.63, 'lipoC3S3': 11.69, 'rot1': 0, 'rot0': 0, 'rot3': 0, 'rot2': 0, 'state': 'normal', 'yaw': 4.58, 'datetime': '2018-10-12 14:13:44.678650', 'mgs': 0, 'depth': 2.225, 'time': 8.87, 'pitch': -1.7, 'roll': -21.07}
{'lipoC2': 7.76, 'temp': 23.63, 'lipoC3S3': 11.69, 'rot1': 0, 'rot0': 0, 'rot3': 0, 'rot2': 0, 'state': 'normal', 'yaw': 4.7, 'datetime': '2018-10-12 14:13:44.775722', 'mgs': 0, 'depth': 2.225, 'time': 8.97, 'pitch': -1.79, 'roll': -21.07}
{'lipoC2': 7.75, 'temp': 23.63, 'lipoC3S3': 11.71, 'rot1': 0, 'rot0': 0, 'rot3': 0, 'rot2': 0, 'state': 'normal', 'yaw': 4.86, 'datetime': '2018-10-12 14:13:44.872671', 'mgs': 0, 'depth': 2.225, 'time': 9.06, 'pitch': -1.96, 'roll': -21.08}
{'lipoC2': 7.75, 'temp': 23.63, 'lipoC3S3': 11.69, 'rot1': 0, 'rot0': 0, 'rot3': 0, 'rot2': 0, 'state': 'normal', 'yaw': 5.06, 'datetime': '2018-10-12 14:13:44.971242', 'mgs': 0, 'depth': 2.148, 'time': 9.16, 'pitch': -2.14, 'roll': -21.09}
{'lipoC2': 7.75, 'temp': 23.63, 'lipoC3S3': 11.71, 'rot1': 0, 'rot0': 0, 'rot3': 0, 'rot2': 0, 'state': 'normal', 'yaw': 5.28, 'datetime': '2018-10-12 14:13:45.069406', 'mgs': 0, 'depth': 2.148, 'time': 9.26, 'pitch': -2.33, 'roll': -21.03}
{'lipoC2': 7.76, 'temp': 23.63, 'lipoC3S3': 11.69, 'rot1': 0, 'rot0': 0, 'rot3': 0, 'rot2': 0, 'state': 'normal', 'yaw': 5.47, 'datetime': '2018-10-12 14:13:45.166370', 'mgs': 0, 'depth': 2.148, 'time': 9.36, 'pitch': -2.46, 'roll': -20.87}
{'lipoC2': 7.75, 'temp': 23.63, 'lipoC3S3': 11.71, 'rot1': 0, 'rot0': 0, 'rot3': 0, 'rot2': 0, 'state': 'normal', 'yaw': 5.62, 'datetime': '2018-10-12 14:13:45.263497', 'mgs': 0, 'depth': 2.148, 'time': 9.46, 'pitch': -2.56, 'roll': -20.68}
{'lipoC2': 7.75, 'temp': 23.63, 'lipoC3S3': 11.71, 'rot1': 0, 'rot0': 0, 'rot3': 0, 'rot2': 0, 'state': 'normal', 'yaw': 5.75, 'datetime': '2018-10-12 14:13:45.359652', 'mgs': 0, 'depth': 2.225, 'time': 9.55, 'pitch': -2.63, 'roll': -20.5}
{'lipoC2': 7.75, 'temp': 23.63, 'lipoC3S3': 11.71, 'rot1': 0, 'rot0': 0, 'rot3': 0, 'rot2': 0, 'state': 'normal', 'yaw': 5.91, 'datetime': '2018-10-12 14:13:45.459684', 'mgs': 0, 'depth': 2.148, 'time': 9.65, 'pitch': -2.72, 'roll': -20.37}
{'lipoC2': 7.75, 'temp': 23.63, 'lipoC3S3': 11.69, 'rot1': 0, 'rot0': 0, 'rot3': 0, 'rot2': 0, 'state': 'normal', 'yaw': 6.02, 'datetime': '2018-10-12 14:13:45.556707', 'mgs': 0, 'depth': 2.225, 'time': 9.75, 'pitch': -2.89, 'roll': -20.27}
{'lipoC2': 7.75, 'temp': 23.63, 'lipoC3S3': 11.69, 'rot1': 0, 'rot0': 0, 'rot3': 0, 'rot2': 0, 'state': 'normal', 'yaw': 6.09, 'datetime': '2018-10-12 14:13:45.653723', 'mgs': 0, 'depth': 2.225, 'time': 9.85, 'pitch': -3.07, 'roll': -20.26}
{'lipoC2': 7.76, 'temp': 23.63, 'lipoC3S3': 11.69, 'rot1': 0, 'rot0': 0, 'rot3': 0, 'rot2': 0, 'state': 'normal', 'yaw': 6.14, 'datetime': '2018-10-12 14:13:45.752310', 'mgs': 1, 'depth': 2.148, 'time': 9.95, 'pitch': -3.22, 'roll': -20.27}
{'lipoC2': 7.75, 'temp': 23.56, 'lipoC3S3': 11.71, 'rot1': 0, 'rot0': 0, 'rot3': 0, 'rot2': 0, 'state': 'normal', 'yaw': 0.0, 'datetime': '2018-10-12 14:13:47.273206', 'mgs': 0, 'depth': 2.072, 'time': 1.26, 'pitch': -2.06, 'roll': -20.02}
{'lipoC2': 7.75, 'temp': 23.56, 'lipoC3S3': 11.69, 'rot1': 0, 'rot0': 0, 'rot3': 0, 'rot2': 0, 'state': 'normal', 'yaw': 0.13, 'datetime': '2018-10-12 14:13:47.304738', 'mgs': 0, 'depth': 2.072, 'time': 1.36, 'pitch': -2.38, 'roll': -19.98}
{'lipoC2': 7.76, 'temp': 23.56, 'lipoC3S3': 11.69, 'rot1': 0, 'rot0': 0, 'rot3': 0, 'rot2': 0, 'state': 'normal', 'yaw': 0.29, 'datetime': '2018-10-12 14:13:47.321978', 'mgs': 0, 'depth': 2.072, 'time': 1.45, 'pitch': -2.68, 'roll': -19.89}
{'lipoC2': 7.75, 'temp': 23.56, 'lipoC3S3': 11.69, 'rot1': 0, 'rot0': 0, 'rot3': 0, 'rot2': 0, 'state': 'normal', 'yaw': 0.45, 'datetime': '2018-10-12 14:13:47.399763', 'mgs': 0, 'depth': 2.148, 'time': 1.55, 'pitch': -2.93, 'roll': -19.82}
{'lipoC2': 7.75, 'temp': 23.56, 'lipoC3S3': 11.56, 'rot1': 0, 'rot0': 0, 'rot3': 0, 'rot2': 0, 'state': 'normal', 'yaw': 0.65, 'datetime': '2018-10-12 14:13:47.496396', 'mgs': 0, 'depth': 2.072, 'time': 1.65, 'pitch': -3.17, 'roll': -19.82}
{'lipoC2': 7.75, 'temp': 23.63, 'lipoC3S3': 11.65, 'rot1': 1, 'rot0': 1, 'rot3': 0, 'rot2': 0, 'state': 'normal', 'yaw': 0.88, 'datetime': '2018-10-12 14:13:47.593073', 'mgs': 0, 'depth': 2.072, 'time': 1.74, 'pitch': -3.41, 'roll': -19.57}
{'lipoC2': 7.75, 'temp': 23.63, 'lipoC3S3': 11.67, 'rot1': 1, 'rot0': 2, 'rot3': 0, 'rot2': 0, 'state': 'normal', 'yaw': 1.09, 'datetime': '2018-10-12 14:13:47.689783', 'mgs': 0, 'depth': 2.072, 'time': 1.84, 'pitch': -3.66, 'roll': -19.33}
{'lipoC2': 7.75, 'temp': 23.63, 'lipoC3S3': 11.68, 'rot1': 2, 'rot0': 3, 'rot3': 0, 'rot2': 0, 'state': 'normal', 'yaw': 1.31, 'datetime': '2018-10-12 14:13:47.786480', 'mgs': 0, 'depth': 2.072, 'time': 1.94, 'pitch': -3.95, 'roll': -19.28}
{'lipoC2': 7.75, 'temp': 23.63, 'lipoC3S3': 11.68, 'rot1': 3, 'rot0': 4, 'rot3': 0, 'rot2': 0, 'state': 'normal', 'yaw': 1.42, 'datetime': '2018-10-12 14:13:47.883128', 'mgs': 0, 'depth': 2.148, 'time': 2.03, 'pitch': -4.3, 'roll': -19.2}
{'lipoC2': 7.75, 'temp': 23.63, 'lipoC3S3': 11.68, 'rot1': 3, 'rot0': 4, 'rot3': 0, 'rot2': 0, 'state': 'normal', 'yaw': 1.36, 'datetime': '2018-10-12 14:13:47.981184', 'mgs': 0, 'depth': 2.225, 'time': 2.13, 'pitch': -4.65, 'roll': -18.72}
{'lipoC2': 7.75, 'temp': 23.56, 'lipoC3S3': 11.68, 'rot1': 4, 'rot0': 5, 'rot3': 0, 'rot2': 0, 'state': 'normal', 'yaw': 1.1, 'datetime': '2018-10-12 14:13:48.078603', 'mgs': 0, 'depth': 2.225, 'time': 2.23, 'pitch': -5.01, 'roll': -17.69}
{'lipoC2': 7.75, 'temp': 23.56, 'lipoC3S3': 11.68, 'rot1': 4, 'rot0': 6, 'rot3': 0, 'rot2': 0, 'state': 'normal', 'yaw': 0.65, 'datetime': '2018-10-12 14:13:48.175279', 'mgs': 0, 'depth': 2.606, 'time': 2.33, 'pitch': -5.29, 'roll': -16.23}
{'lipoC2': 7.76, 'temp': 23.56, 'lipoC3S3': 11.67, 'rot1': 5, 'rot0': 7, 'rot3': 0, 'rot2': 0, 'state': 'normal', 'yaw': 0.11, 'datetime': '2018-10-12 14:13:48.272944', 'mgs': 0, 'depth': 2.682, 'time': 2.42, 'pitch': -5.45, 'roll': -14.71}
{'lipoC2': 7.76, 'temp': 23.63, 'lipoC3S3': 11.64, 'rot1': 5, 'rot0': 7, 'rot3': 0, 'rot2': 0, 'state': 'normal', 'yaw': -0.61, 'datetime': '2018-10-12 14:13:48.370961', 'mgs': 0, 'depth': 2.606, 'time': 2.52, 'pitch': -5.62, 'roll': -12.78}
{'lipoC2': 7.76, 'temp': 23.63, 'lipoC3S3': 11.64, 'rot1': 6, 'rot0': 8, 'rot3': 1, 'rot2': 1, 'state': 'normal', 'yaw': -1.29, 'datetime': '2018-10-12 14:13:48.467629', 'mgs': 0, 'depth': 2.454, 'time': 2.62, 'pitch': -5.73, 'roll': -10.62}
{'lipoC2': 7.75, 'temp': 23.63, 'lipoC3S3': 11.67, 'rot1': 7, 'rot0': 9, 'rot3': 1, 'rot2': 1, 'state': 'normal', 'yaw': -1.89, 'datetime': '2018-10-12 14:13:48.564323', 'mgs': 0, 'depth': 2.988, 'time': 2.72, 'pitch': -5.75, 'roll': -8.29}
{'lipoC2': 7.75, 'temp': 23.63, 'lipoC3S3': 11.68, 'rot1': 8, 'rot0': 10, 'rot3': 1, 'rot2': 1, 'state': 'normal', 'yaw': -2.33, 'datetime': '2018-10-12 14:13:48.662181', 'mgs': 0, 'depth': 2.759, 'time': 2.81, 'pitch': -5.69, 'roll': -6.3}
{'lipoC2': 7.75, 'temp': 23.63, 'lipoC3S3': 11.68, 'rot1': 9, 'rot0': 10, 'rot3': 1, 'rot2': 1, 'state': 'normal', 'yaw': -2.55, 'datetime': '2018-10-12 14:13:48.759031', 'mgs': 0, 'depth': 2.606, 'time': 2.91, 'pitch': -5.48, 'roll': -4.5}
{'lipoC2': 7.75, 'temp': 23.63, 'lipoC3S3': 11.64, 'rot1': 9, 'rot0': 11, 'rot3': 1, 'rot2': 1, 'state': 'normal', 'yaw': -2.51, 'datetime': '2018-10-12 14:13:48.855904', 'mgs': 0, 'depth': 2.988, 'time': 3.01, 'pitch': -5.18, 'roll': -3.23}
{'lipoC2': 7.76, 'temp': 23.63, 'lipoC3S3': 11.64, 'rot1': 10, 'rot0': 11, 'rot3': 2, 'rot2': 2, 'state': 'normal', 'yaw': -2.31, 'datetime': '2018-10-12 14:13:48.952923', 'mgs': 0, 'depth': 2.606, 'time': 3.11, 'pitch': -4.9, 'roll': -2.51}
{'lipoC2': 7.75, 'temp': 23.63, 'lipoC3S3': 11.65, 'rot1': 11, 'rot0': 12, 'rot3': 2, 'rot2': 2, 'state': 'normal', 'yaw': -1.92, 'datetime': '2018-10-12 14:13:49.049934', 'mgs': 0, 'depth': 2.454, 'time': 3.2, 'pitch': -4.57, 'roll': -2.07}
{'lipoC2': 7.75, 'temp': 23.63, 'lipoC3S3': 11.61, 'rot1': 12, 'rot0': 13, 'rot3': 2, 'rot2': 3, 'state': 'normal', 'yaw': -1.39, 'datetime': '2018-10-12 14:13:49.146935', 'mgs': 0, 'depth': 2.301, 'time': 3.3, 'pitch': -4.27, 'roll': -1.9}
{'lipoC2': 7.76, 'temp': 23.56, 'lipoC3S3': 11.68, 'rot1': 13, 'rot0': 13, 'rot3': 2, 'rot2': 3, 'state': 'normal', 'yaw': -0.82, 'datetime': '2018-10-12 14:13:49.243978', 'mgs': 0, 'depth': 2.377, 'time': 3.4, 'pitch': -3.99, 'roll': -2.03}
{'lipoC2': 7.76, 'temp': 23.56, 'lipoC3S3': 11.68, 'rot1': 14, 'rot0': 14, 'rot3': 2, 'rot2': 3, 'state': 'normal', 'yaw': -0.07, 'datetime': '2018-10-12 14:13:49.341099', 'mgs': 0, 'depth': 2.301, 'time': 3.49, 'pitch': -3.71, 'roll': -2.55}
{'lipoC2': 7.75, 'temp': 23.56, 'lipoC3S3': 11.68, 'rot1': 14, 'rot0': 14, 'rot3': 2, 'rot2': 3, 'state': 'normal', 'yaw': 0.82, 'datetime': '2018-10-12 14:13:49.438053', 'mgs': 0, 'depth': 2.377, 'time': 3.59, 'pitch': -3.48, 'roll': -3.45}
{'lipoC2': 7.76, 'temp': 23.63, 'lipoC3S3': 11.65, 'rot1': 15, 'rot0': 15, 'rot3': 2, 'rot2': 3, 'state': 'normal', 'yaw': 1.71, 'datetime': '2018-10-12 14:13:49.535984', 'mgs': 0, 'depth': 2.301, 'time': 3.69, 'pitch': -3.31, 'roll': -4.51}
{'lipoC2': 7.75, 'temp': 23.63, 'lipoC3S3': 11.67, 'rot1': 16, 'rot0': 16, 'rot3': 2, 'rot2': 3, 'state': 'normal', 'yaw': 2.63, 'datetime': '2018-10-12 14:13:49.634275', 'mgs': 0, 'depth': 2.225, 'time': 3.79, 'pitch': -3.12, 'roll': -5.72}
{'lipoC2': 7.75, 'temp': 23.63, 'lipoC3S3': 11.67, 'rot1': 17, 'rot0': 16, 'rot3': 2, 'rot2': 3, 'state': 'normal', 'yaw': 3.44, 'datetime': '2018-10-12 14:13:49.732294', 'mgs': 0, 'depth': 2.301, 'time': 3.89, 'pitch': -2.93, 'roll': -6.74}
{'lipoC2': 7.75, 'temp': 23.63, 'lipoC3S3': 11.63, 'rot1': 17, 'rot0': 17, 'rot3': 2, 'rot2': 3, 'state': 'normal', 'yaw': 4.14, 'datetime': '2018-10-12 14:13:49.829317', 'mgs': 0, 'depth': 2.225, 'time': 3.98, 'pitch': -2.72, 'roll': -7.52}
{'lipoC2': 7.75, 'temp': 23.63, 'lipoC3S3': 11.68, 'rot1': 18, 'rot0': 18, 'rot3': 2, 'rot2': 3, 'state': 'normal', 'yaw': 4.56, 'datetime': '2018-10-12 14:13:49.926895', 'mgs': 0, 'depth': 2.225, 'time': 4.08, 'pitch': -2.61, 'roll': -8.11}
{'lipoC2': 7.75, 'temp': 23.63, 'lipoC3S3': 11.67, 'rot1': 19, 'rot0': 19, 'rot3': 2, 'rot2': 3, 'state': 'normal', 'yaw': 4.78, 'datetime': '2018-10-12 14:13:50.025208', 'mgs': 0, 'depth': 2.606, 'time': 4.18, 'pitch': -2.57, 'roll': -8.83}
{'lipoC2': 7.75, 'temp': 23.63, 'lipoC3S3': 11.68, 'rot1': 19, 'rot0': 19, 'rot3': 2, 'rot2': 3, 'state': 'normal', 'yaw': 4.79, 'datetime': '2018-10-12 14:13:50.123391', 'mgs': 0, 'depth': 2.225, 'time': 4.28, 'pitch': -2.64, 'roll': -9.63}
{'lipoC2': 7.75, 'temp': 23.63, 'lipoC3S3': 11.67, 'rot1': 20, 'rot0': 20, 'rot3': 2, 'rot2': 3, 'state': 'normal', 'yaw': 4.61, 'datetime': '2018-10-12 14:13:50.220467', 'mgs': 0, 'depth': 2.225, 'time': 4.37, 'pitch': -2.83, 'roll': -10.36}
{'lipoC2': 7.75, 'temp': 23.63, 'lipoC3S3': 11.67, 'rot1': 20, 'rot0': 21, 'rot3': 2, 'rot2': 3, 'state': 'normal', 'yaw': 4.26, 'datetime': '2018-10-12 14:13:50.317718', 'mgs': 0, 'depth': 2.301, 'time': 4.47, 'pitch': -3.09, 'roll': -11.01}
{'lipoC2': 7.76, 'temp': 23.63, 'lipoC3S3': 11.67, 'rot1': 21, 'rot0': 22, 'rot3': 2, 'rot2': 3, 'state': 'normal', 'yaw': 3.85, 'datetime': '2018-10-12 14:13:50.416079', 'mgs': 0, 'depth': 2.225, 'time': 4.57, 'pitch': -3.3, 'roll': -11.48}
{'lipoC2': 7.76, 'temp': 23.56, 'lipoC3S3': 11.68, 'rot1': 22, 'rot0': 23, 'rot3': 2, 'rot2': 3, 'state': 'normal', 'yaw': 3.58, 'datetime': '2018-10-12 14:13:50.513071', 'mgs': 0, 'depth': 2.377, 'time': 4.67, 'pitch': -3.2, 'roll': -11.81}
{'lipoC2': 7.75, 'temp': 23.56, 'lipoC3S3': 11.68, 'rot1': 22, 'rot0': 23, 'rot3': 2, 'rot2': 3, 'state': 'normal', 'yaw': 4.22, 'datetime': '2018-10-12 14:13:50.610126', 'mgs': 0, 'depth': 2.454, 'time': 4.76, 'pitch': -2.47, 'roll': -11.52}
{'lipoC2': 7.75, 'temp': 23.56, 'lipoC3S3': 11.68, 'rot1': 23, 'rot0': 24, 'rot3': 2, 'rot2': 3, 'state': 'normal', 'yaw': 6.09, 'datetime': '2018-10-12 14:13:50.707938', 'mgs': 0, 'depth': 2.454, 'time': 4.86, 'pitch': -1.04, 'roll': -10.56}
{'lipoC2': 7.75, 'temp': 23.56, 'lipoC3S3': 11.67, 'rot1': 23, 'rot0': 25, 'rot3': 2, 'rot2': 3, 'state': 'normal', 'yaw': 9.53, 'datetime': '2018-10-12 14:13:50.806221', 'mgs': 0, 'depth': 2.759, 'time': 4.96, 'pitch': 1.52, 'roll': -9.12}
{'lipoC2': 7.75, 'temp': 23.56, 'lipoC3S3': 11.64, 'rot1': 24, 'rot0': 26, 'rot3': 2, 'rot2': 3, 'state': 'normal', 'yaw': 13.91, 'datetime': '2018-10-12 14:13:50.903313', 'mgs': 0, 'depth': 2.759, 'time': 5.06, 'pitch': 4.89, 'roll': -7.62}
{'lipoC2': 7.76, 'temp': 23.63, 'lipoC3S3': 11.6, 'rot1': 24, 'rot0': 26, 'rot3': 3, 'rot2': 3, 'state': 'normal', 'yaw': 18.04, 'datetime': '2018-10-12 14:13:51.000470', 'mgs': 0, 'depth': 2.454, 'time': 5.15, 'pitch': 8.26, 'roll': -6.57}
{'lipoC2': 7.76, 'temp': 23.63, 'lipoC3S3': 11.6, 'rot1': 25, 'rot0': 27, 'rot3': 3, 'rot2': 4, 'state': 'normal', 'yaw': 20.81, 'datetime': '2018-10-12 14:13:51.097401', 'mgs': 0, 'depth': 2.454, 'time': 5.25, 'pitch': 10.47, 'roll': -6.02}
{'lipoC2': 7.75, 'temp': 23.63, 'lipoC3S3': 11.67, 'rot1': 25, 'rot0': 28, 'rot3': 3, 'rot2': 4, 'state': 'normal', 'yaw': 22.93, 'datetime': '2018-10-12 14:13:51.194474', 'mgs': 0, 'depth': 2.53, 'time': 5.35, 'pitch': 11.96, 'roll': -5.78}
{'lipoC2': 7.75, 'temp': 23.63, 'lipoC3S3': 11.67, 'rot1': 26, 'rot0': 29, 'rot3': 3, 'rot2': 4, 'state': 'normal', 'yaw': 24.18, 'datetime': '2018-10-12 14:13:51.291598', 'mgs': 0, 'depth': 2.53, 'time': 5.45, 'pitch': 12.59, 'roll': -5.92}
{'lipoC2': 7.75, 'temp': 23.63, 'lipoC3S3': 11.6, 'rot1': 27, 'rot0': 29, 'rot3': 3, 'rot2': 4, 'state': 'normal', 'yaw': 24.75, 'datetime': '2018-10-12 14:13:51.389499', 'mgs': 0, 'depth': 2.606, 'time': 5.54, 'pitch': 12.44, 'roll': -6.36}
{'lipoC2': 7.75, 'temp': 23.63, 'lipoC3S3': 11.64, 'rot1': 27, 'rot0': 30, 'rot3': 4, 'rot2': 4, 'state': 'normal', 'yaw': 24.93, 'datetime': '2018-10-12 14:13:51.487874', 'mgs': 0, 'depth': 2.911, 'time': 5.64, 'pitch': 11.65, 'roll': -7.12}
{'lipoC2': 7.75, 'temp': 23.63, 'lipoC3S3': 11.56, 'rot1': 28, 'rot0': 31, 'rot3': 4, 'rot2': 5, 'state': 'normal', 'yaw': 24.78, 'datetime': '2018-10-12 14:13:51.585938', 'mgs': 0, 'depth': 2.53, 'time': 5.74, 'pitch': 10.28, 'roll': -8.03}
{'lipoC2': 7.75, 'temp': 23.44, 'lipoC3S3': 11.59, 'rot1': 28, 'rot0': 32, 'rot3': 4, 'rot2': 5, 'state': 'normal', 'yaw': 24.38, 'datetime': '2018-10-12 14:13:51.683022', 'mgs': 0, 'depth': 2.835, 'time': 5.84, 'pitch': 8.53, 'roll': -8.87}
{'lipoC2': 7.76, 'temp': 23.44, 'lipoC3S3': 11.65, 'rot1': 29, 'rot0': 32, 'rot3': 5, 'rot2': 6, 'state': 'normal', 'yaw': 23.79, 'datetime': '2018-10-12 14:13:51.780403', 'mgs': 0, 'depth': 2.606, 'time': 5.94, 'pitch': 6.51, 'roll': -9.56}
{'lipoC2': 7.75, 'temp': 23.44, 'lipoC3S3': 11.64, 'rot1': 29, 'rot0': 33, 'rot3': 5, 'rot2': 6, 'state': 'normal', 'yaw': 23.1, 'datetime': '2018-10-12 14:13:51.878661', 'mgs': 0, 'depth': 2.759, 'time': 6.03, 'pitch': 4.57, 'roll': -10.03}
{'lipoC2': 7.75, 'temp': 23.31, 'lipoC3S3': 11.65, 'rot1': 30, 'rot0': 34, 'rot3': 6, 'rot2': 7, 'state': 'normal', 'yaw': 22.17, 'datetime': '2018-10-12 14:13:51.976764', 'mgs': 0, 'depth': 2.682, 'time': 6.13, 'pitch': 2.36, 'roll': -10.46}
{'lipoC2': 7.76, 'temp': 23.31, 'lipoC3S3': 11.6, 'rot1': 30, 'rot0': 35, 'rot3': 6, 'rot2': 7, 'state': 'normal', 'yaw': 21.09, 'datetime': '2018-10-12 14:13:52.073908', 'mgs': 0, 'depth': 2.682, 'time': 6.23, 'pitch': 0.26, 'roll': -10.77}
{'lipoC2': 7.75, 'temp': 23.56, 'lipoC3S3': 11.65, 'rot1': 31, 'rot0': 36, 'rot3': 7, 'rot2': 8, 'state': 'normal', 'yaw': 19.88, 'datetime': '2018-10-12 14:13:52.171229', 'mgs': 0, 'depth': 2.988, 'time': 6.33, 'pitch': -1.68, 'roll': -10.84}
{'lipoC2': 7.75, 'temp': 23.56, 'lipoC3S3': 11.58, 'rot1': 31, 'rot0': 36, 'rot3': 7, 'rot2': 8, 'state': 'normal', 'yaw': 18.7, 'datetime': '2018-10-12 14:13:52.271371', 'mgs': 0, 'depth': 2.682, 'time': 6.43, 'pitch': -3.26, 'roll': -10.65}
{'lipoC2': 7.75, 'temp': 23.56, 'lipoC3S3': 11.64, 'rot1': 32, 'rot0': 37, 'rot3': 8, 'rot2': 9, 'state': 'normal', 'yaw': 17.27, 'datetime': '2018-10-12 14:13:52.371383', 'mgs': 0, 'depth': 3.064, 'time': 6.52, 'pitch': -4.81, 'roll': -10.23}
{'lipoC2': 7.75, 'temp': 23.56, 'lipoC3S3': 11.64, 'rot1': 33, 'rot0': 38, 'rot3': 8, 'rot2': 9, 'state': 'normal', 'yaw': 15.76, 'datetime': '2018-10-12 14:13:52.468292', 'mgs': 0, 'depth': 2.988, 'time': 6.62, 'pitch': -6.09, 'roll': -9.73}
{'lipoC2': 7.75, 'temp': 23.56, 'lipoC3S3': 11.64, 'rot1': 33, 'rot0': 39, 'rot3': 9, 'rot2': 10, 'state': 'normal', 'yaw': 14.32, 'datetime': '2018-10-12 14:13:52.565862', 'mgs': 0, 'depth': 2.682, 'time': 6.72, 'pitch': -6.98, 'roll': -9.3}
{'lipoC2': 7.75, 'temp': 23.63, 'lipoC3S3': 11.64, 'rot1': 34, 'rot0': 40, 'rot3': 9, 'rot2': 10, 'state': 'normal', 'yaw': 12.65, 'datetime': '2018-10-12 14:13:52.660793', 'mgs': 0, 'depth': 3.217, 'time': 6.81, 'pitch': -7.71, 'roll': -8.86}
{'lipoC2': 7.75, 'temp': 23.63, 'lipoC3S3': 11.65, 'rot1': 34, 'rot0': 40, 'rot3': 9, 'rot2': 11, 'state': 'normal', 'yaw': 10.92, 'datetime': '2018-10-12 14:13:52.756886', 'mgs': 0, 'depth': 2.682, 'time': 6.91, 'pitch': -8.16, 'roll': -8.37}
{'lipoC2': 7.75, 'temp': 23.63, 'lipoC3S3': 11.69, 'rot1': 34, 'rot0': 41, 'rot3': 10, 'rot2': 11, 'state': 'normal', 'yaw': 9.19, 'datetime': '2018-10-12 14:13:52.857884', 'mgs': 0, 'depth': 2.759, 'time': 7.01, 'pitch': -8.33, 'roll': -7.85}
{'lipoC2': 7.75, 'temp': 23.56, 'lipoC3S3': 11.68, 'rot1': 34, 'rot0': 41, 'rot3': 10, 'rot2': 11, 'state': 'normal', 'yaw': 7.74, 'datetime': '2018-10-12 14:13:52.955341', 'mgs': 0, 'depth': 2.682, 'time': 7.11, 'pitch': -8.19, 'roll': -7.72}
{'lipoC2': 7.75, 'temp': 23.56, 'lipoC3S3': 11.59, 'rot1': 34, 'rot0': 41, 'rot3': 10, 'rot2': 11, 'state': 'normal', 'yaw': 6.19, 'datetime': '2018-10-12 14:13:53.052798', 'mgs': 0, 'depth': 2.988, 'time': 7.2, 'pitch': -7.85, 'roll': -8.01}
{'lipoC2': 7.75, 'temp': 23.63, 'lipoC3S3': 11.47, 'rot1': 35, 'rot0': 41, 'rot3': 11, 'rot2': 12, 'state': 'normal', 'yaw': 4.58, 'datetime': '2018-10-12 14:13:53.150265', 'mgs': 0, 'depth': 3.217, 'time': 7.3, 'pitch': -7.35, 'roll': -8.84}
{'lipoC2': 7.76, 'temp': 23.63, 'lipoC3S3': 11.38, 'rot1': 36, 'rot0': 43, 'rot3': 11, 'rot2': 12, 'state': 'normal', 'yaw': 2.42, 'datetime': '2018-10-12 14:13:53.248519', 'mgs': 0, 'depth': 2.53, 'time': 7.4, 'pitch': -7.2, 'roll': -9.19}
{'lipoC2': 7.76, 'temp': 23.63, 'lipoC3S3': 11.46, 'rot1': 37, 'rot0': 44, 'rot3': 12, 'rot2': 13, 'state': 'normal', 'yaw': -1.11, 'datetime': '2018-10-12 14:13:53.347322', 'mgs': 0, 'depth': 2.606, 'time': 7.5, 'pitch': -7.74, 'roll': -8.72}
{'lipoC2': 7.76, 'temp': 23.63, 'lipoC3S3': 11.34, 'rot1': 38, 'rot0': 46, 'rot3': 13, 'rot2': 14, 'state': 'normal', 'yaw': -5.61, 'datetime': '2018-10-12 14:13:53.446032', 'mgs': 0, 'depth': 2.606, 'time': 7.6, 'pitch': -8.9, 'roll': -7.66}
{'lipoC2': 7.75, 'temp': 23.63, 'lipoC3S3': 11.55, 'rot1': 40, 'rot0': 47, 'rot3': 13, 'rot2': 14, 'state': 'normal', 'yaw': -10.25, 'datetime': '2018-10-12 14:13:53.543398', 'mgs': 0, 'depth': 3.064, 'time': 7.7, 'pitch': -10.16, 'roll': -6.45}
{'lipoC2': 7.76, 'temp': 23.63, 'lipoC3S3': 11.48, 'rot1': 41, 'rot0': 48, 'rot3': 14, 'rot2': 15, 'state': 'normal', 'yaw': -14.16, 'datetime': '2018-10-12 14:13:53.640913', 'mgs': 0, 'depth': 3.293, 'time': 7.79, 'pitch': -10.98, 'roll': -5.27}
{'lipoC2': 7.75, 'temp': 23.63, 'lipoC3S3': 11.43, 'rot1': 42, 'rot0': 49, 'rot3': 14, 'rot2': 16, 'state': 'normal', 'yaw': -16.82, 'datetime': '2018-10-12 14:13:53.739197', 'mgs': 0, 'depth': 2.911, 'time': 7.89, 'pitch': -11.24, 'roll': -4.38}
{'lipoC2': 7.75, 'temp': 23.63, 'lipoC3S3': 11.51, 'rot1': 44, 'rot0': 50, 'rot3': 15, 'rot2': 16, 'state': 'normal', 'yaw': -18.95, 'datetime': '2018-10-12 14:13:53.837894', 'mgs': 0, 'depth': 2.988, 'time': 7.99, 'pitch': -11.15, 'roll': -3.52}
{'lipoC2': 7.75, 'temp': 23.38, 'lipoC3S3': 11.48, 'rot1': 45, 'rot0': 52, 'rot3': 15, 'rot2': 17, 'state': 'normal', 'yaw': -20.44, 'datetime': '2018-10-12 14:13:53.936679', 'mgs': 0, 'depth': 2.988, 'time': 8.09, 'pitch': -10.76, 'roll': -2.74}
{'lipoC2': 7.75, 'temp': 23.38, 'lipoC3S3': 11.56, 'rot1': 47, 'rot0': 53, 'rot3': 16, 'rot2': 17, 'state': 'normal', 'yaw': -21.4, 'datetime': '2018-10-12 14:13:54.034183', 'mgs': 0, 'depth': 3.217, 'time': 8.19, 'pitch': -10.09, 'roll': -2.08}
{'lipoC2': 7.76, 'temp': 23.94, 'lipoC3S3': 11.48, 'rot1': 48, 'rot0': 54, 'rot3': 16, 'rot2': 18, 'state': 'normal', 'yaw': -21.89, 'datetime': '2018-10-12 14:13:54.131375', 'mgs': 0, 'depth': 4.132, 'time': 8.28, 'pitch': -9.2, 'roll': -1.6}
{'lipoC2': 7.76, 'temp': 23.94, 'lipoC3S3': 11.38, 'rot1': 49, 'rot0': 55, 'rot3': 17, 'rot2': 19, 'state': 'normal', 'yaw': -22.09, 'datetime': '2018-10-12 14:13:54.229705', 'mgs': 0, 'depth': 3.064, 'time': 8.38, 'pitch': -8.25, 'roll': -1.27}
{'lipoC2': 7.76, 'temp': 23.94, 'lipoC3S3': 11.46, 'rot1': 51, 'rot0': 57, 'rot3': 17, 'rot2': 19, 'state': 'normal', 'yaw': -22.03, 'datetime': '2018-10-12 14:13:54.328511', 'mgs': 0, 'depth': 3.064, 'time': 8.48, 'pitch': -7.26, 'roll': -1.01}
{'lipoC2': 7.75, 'temp': 23.56, 'lipoC3S3': 11.56, 'rot1': 52, 'rot0': 58, 'rot3': 18, 'rot2': 20, 'state': 'normal', 'yaw': -21.74, 'datetime': '2018-10-12 14:13:54.425957', 'mgs': 0, 'depth': 3.369, 'time': 8.58, 'pitch': -6.31, 'roll': -0.88}
{'lipoC2': 7.76, 'temp': 23.56, 'lipoC3S3': 11.5, 'rot1': 54, 'rot0': 59, 'rot3': 18, 'rot2': 20, 'state': 'normal', 'yaw': -21.27, 'datetime': '2018-10-12 14:13:54.523232', 'mgs': 0, 'depth': 4.132, 'time': 8.68, 'pitch': -5.4, 'roll': -0.99}
{'lipoC2': 7.76, 'temp': 23.63, 'lipoC3S3': 11.4, 'rot1': 55, 'rot0': 60, 'rot3': 19, 'rot2': 21, 'state': 'normal', 'yaw': -20.71, 'datetime': '2018-10-12 14:13:54.620931', 'mgs': 0, 'depth': 3.598, 'time': 8.77, 'pitch': -4.59, 'roll': -1.31}
{'lipoC2': 7.75, 'temp': 23.63, 'lipoC3S3': 11.47, 'rot1': 56, 'rot0': 61, 'rot3': 19, 'rot2': 22, 'state': 'normal', 'yaw': -20.01, 'datetime': '2018-10-12 14:13:54.718240', 'mgs': 0, 'depth': 3.14, 'time': 8.87, 'pitch': -3.79, 'roll': -1.84}
{'lipoC2': 7.75, 'temp': 23.63, 'lipoC3S3': 11.54, 'rot1': 58, 'rot0': 62, 'rot3': 20, 'rot2': 22, 'state': 'normal', 'yaw': -19.12, 'datetime': '2018-10-12 14:13:54.815805', 'mgs': 0, 'depth': 3.903, 'time': 8.97, 'pitch': -3.05, 'roll': -2.47}
{'lipoC2': 7.76, 'temp': 23.63, 'lipoC3S3': 11.48, 'rot1': 59, 'rot0': 63, 'rot3': 20, 'rot2': 23, 'state': 'normal', 'yaw': -17.84, 'datetime': '2018-10-12 14:13:54.913216', 'mgs': 0, 'depth': 3.369, 'time': 9.07, 'pitch': -2.23, 'roll': -3.31}
{'lipoC2': 7.75, 'temp': 23.63, 'lipoC3S3': 11.51, 'rot1': 60, 'rot0': 65, 'rot3': 21, 'rot2': 23, 'state': 'normal', 'yaw': -16.23, 'datetime': '2018-10-12 14:13:55.010552', 'mgs': 0, 'depth': 3.293, 'time': 9.16, 'pitch': -1.26, 'roll': -4.28}
{'lipoC2': 7.75, 'temp': 23.63, 'lipoC3S3': 11.47, 'rot1': 62, 'rot0': 66, 'rot3': 21, 'rot2': 24, 'state': 'normal', 'yaw': -14.08, 'datetime': '2018-10-12 14:13:55.107828', 'mgs': 0, 'depth': 4.666, 'time': 9.26, 'pitch': 0.0, 'roll': -5.5}
{'lipoC2': 7.76, 'temp': 23.63, 'lipoC3S3': 11.42, 'rot1': 63, 'rot0': 67, 'rot3': 22, 'rot2': 25, 'state': 'normal', 'yaw': -11.94, 'datetime': '2018-10-12 14:13:55.205254', 'mgs': 0, 'depth': 3.14, 'time': 9.36, 'pitch': 1.15, 'roll': -6.47}
{'lipoC2': 7.75, 'temp': 23.63, 'lipoC3S3': 11.55, 'rot1': 65, 'rot0': 68, 'rot3': 23, 'rot2': 25, 'state': 'normal', 'yaw': -10.05, 'datetime': '2018-10-12 14:13:55.302747', 'mgs': 0, 'depth': 3.445, 'time': 9.46, 'pitch': 1.92, 'roll': -6.98}
{'lipoC2': 7.75, 'temp': 23.63, 'lipoC3S3': 11.39, 'rot1': 66, 'rot0': 69, 'rot3': 23, 'rot2': 26, 'state': 'normal', 'yaw': -8.55, 'datetime': '2018-10-12 14:13:55.401689', 'mgs': 0, 'depth': 3.217, 'time': 9.56, 'pitch': 2.28, 'roll': -7.17}
{'lipoC2': 7.76, 'temp': 23.63, 'lipoC3S3': 11.34, 'rot1': 68, 'rot0': 71, 'rot3': 23, 'rot2': 26, 'state': 'normal', 'yaw': -7.13, 'datetime': '2018-10-12 14:13:55.500718', 'mgs': 0, 'depth': 3.217, 'time': 9.65, 'pitch': 2.37, 'roll': -7.25}
{'lipoC2': 7.75, 'temp': 23.63, 'lipoC3S3': 11.44, 'rot1': 69, 'rot0': 72, 'rot3': 24, 'rot2': 27, 'state': 'normal', 'yaw': -5.93, 'datetime': '2018-10-12 14:13:55.599013', 'mgs': 0, 'depth': 3.293, 'time': 9.75, 'pitch': 2.19, 'roll': -7.21}
{'lipoC2': 7.76, 'temp': 23.63, 'lipoC3S3': 11.54, 'rot1': 71, 'rot0': 73, 'rot3': 25, 'rot2': 28, 'state': 'normal', 'yaw': -4.96, 'datetime': '2018-10-12 14:13:55.696332', 'mgs': 0, 'depth': 4.514, 'time': 9.85, 'pitch': 1.85, 'roll': -7.08}
{'lipoC2': 7.77, 'temp': 23.63, 'lipoC3S3': 11.47, 'rot1': 73, 'rot0': 74, 'rot3': 25, 'rot2': 28, 'state': 'normal', 'yaw': -4.18, 'datetime': '2018-10-12 14:13:55.793794', 'mgs': 0, 'depth': 4.208, 'time': 9.95, 'pitch': 1.4, 'roll': -6.86}
{'lipoC2': 7.76, 'temp': 23.63, 'lipoC3S3': 11.47, 'rot1': 74, 'rot0': 76, 'rot3': 26, 'rot2': 29, 'state': 'normal', 'yaw': -3.56, 'datetime': '2018-10-12 14:13:55.892644', 'mgs': 0, 'depth': 4.514, 'time': 10.05, 'pitch': 1.07, 'roll': -6.57}
{'lipoC2': 7.76, 'temp': 23.63, 'lipoC3S3': 11.48, 'rot1': 75, 'rot0': 77, 'rot3': 26, 'rot2': 29, 'state': 'normal', 'yaw': -2.86, 'datetime': '2018-10-12 14:13:55.991269', 'mgs': 0, 'depth': 4.514, 'time': 10.15, 'pitch': 0.69, 'roll': -6.11}
{'lipoC2': 7.76, 'temp': 23.88, 'lipoC3S3': 11.47, 'rot1': 77, 'rot0': 78, 'rot3': 27, 'rot2': 30, 'state': 'normal', 'yaw': -2.14, 'datetime': '2018-10-12 14:13:56.089818', 'mgs': 0, 'depth': 3.751, 'time': 10.24, 'pitch': 0.28, 'roll': -5.56}
{'lipoC2': 7.75, 'temp': 23.88, 'lipoC3S3': 11.52, 'rot1': 79, 'rot0': 79, 'rot3': 27, 'rot2': 30, 'state': 'normal', 'yaw': -1.34, 'datetime': '2018-10-12 14:13:56.187166', 'mgs': 0, 'depth': 3.751, 'time': 10.34, 'pitch': -0.14, 'roll': -4.97}
{'lipoC2': 7.76, 'temp': 23.63, 'lipoC3S3': 11.54, 'rot1': 80, 'rot0': 80, 'rot3': 28, 'rot2': 31, 'state': 'normal', 'yaw': -0.45, 'datetime': '2018-10-12 14:13:56.284548', 'mgs': 0, 'depth': 4.819, 'time': 10.44, 'pitch': -0.6, 'roll': -4.4}
{'lipoC2': 7.75, 'temp': 23.63, 'lipoC3S3': 11.5, 'rot1': 81, 'rot0': 81, 'rot3': 28, 'rot2': 32, 'state': 'normal', 'yaw': 0.34, 'datetime': '2018-10-12 14:13:56.383298', 'mgs': 0, 'depth': 5.124, 'time': 10.54, 'pitch': -0.92, 'roll': -3.94}
{'lipoC2': 7.76, 'temp': 23.63, 'lipoC3S3': 11.56, 'rot1': 82, 'rot0': 82, 'rot3': 28, 'rot2': 32, 'state': 'normal', 'yaw': 0.95, 'datetime': '2018-10-12 14:14:00.436995', 'mgs': 0, 'depth': 4.285, 'time': 10.64, 'pitch': -1.28, 'roll': -3.49}
{'lipoC2': 7.75, 'temp': 23.63, 'lipoC3S3': 11.58, 'rot1': 82, 'rot0': 82, 'rot3': 28, 'rot2': 33, 'state': 'normal', 'yaw': 1.37, 'datetime': '2018-10-12 14:14:00.455387', 'mgs': 0, 'depth': 3.903, 'time': 10.73, 'pitch': -1.81, 'roll': -3.62}
{'lipoC2': 7.75, 'temp': 23.63, 'lipoC3S3': 11.61, 'rot1': 82, 'rot0': 82, 'rot3': 28, 'rot2': 33, 'state': 'normal', 'yaw': 1.7, 'datetime': '2018-10-12 14:14:00.496037', 'mgs': 0, 'depth': 4.285, 'time': 10.83, 'pitch': -2.53, 'roll': -4.29}
{'lipoC2': 7.75, 'temp': 23.69, 'lipoC3S3': 11.55, 'rot1': 82, 'rot0': 82, 'rot3': 29, 'rot2': 34, 'state': 'normal', 'yaw': 1.9, 'datetime': '2018-10-12 14:14:00.514496', 'mgs': 0, 'depth': 4.208, 'time': 10.93, 'pitch': -3.27, 'roll': -5.2}
{'lipoC2': 7.75, 'temp': 23.69, 'lipoC3S3': 11.59, 'rot1': 82, 'rot0': 82, 'rot3': 29, 'rot2': 34, 'state': 'normal', 'yaw': 2.02, 'datetime': '2018-10-12 14:14:00.546575', 'mgs': 0, 'depth': 3.903, 'time': 11.03, 'pitch': -4.22, 'roll': -6.33}
{'lipoC2': 7.76, 'temp': 23.69, 'lipoC3S3': 11.61, 'rot1': 82, 'rot0': 82, 'rot3': 30, 'rot2': 35, 'state': 'normal', 'yaw': 2.12, 'datetime': '2018-10-12 14:14:00.565077', 'mgs': 0, 'depth': 4.285, 'time': 11.12, 'pitch': -5.21, 'roll': -7.46}
{'lipoC2': 7.76, 'temp': 23.56, 'lipoC3S3': 11.64, 'rot1': 82, 'rot0': 82, 'rot3': 30, 'rot2': 35, 'state': 'normal', 'yaw': 2.18, 'datetime': '2018-10-12 14:14:00.588443', 'mgs': 0, 'depth': 4.056, 'time': 11.22, 'pitch': -6.05, 'roll': -8.4}
{'lipoC2': 7.75, 'temp': 23.56, 'lipoC3S3': 11.58, 'rot1': 82, 'rot0': 82, 'rot3': 31, 'rot2': 36, 'state': 'normal', 'yaw': 2.22, 'datetime': '2018-10-12 14:14:00.596405', 'mgs': 0, 'depth': 3.979, 'time': 11.32, 'pitch': -6.86, 'roll': -9.37}
{'lipoC2': 7.75, 'temp': 23.63, 'lipoC3S3': 11.61, 'rot1': 82, 'rot0': 82, 'rot3': 31, 'rot2': 37, 'state': 'normal', 'yaw': 2.26, 'datetime': '2018-10-12 14:14:00.615711', 'mgs': 0, 'depth': 4.208, 'time': 11.42, 'pitch': -7.47, 'roll': -10.28}
{'lipoC2': 7.76, 'temp': 23.63, 'lipoC3S3': 11.61, 'rot1': 82, 'rot0': 82, 'rot3': 31, 'rot2': 37, 'state': 'normal', 'yaw': 2.3, 'datetime': '2018-10-12 14:14:00.623659', 'mgs': 0, 'depth': 3.827, 'time': 11.51, 'pitch': -7.86, 'roll': -11.13}
{'lipoC2': 7.75, 'temp': 23.63, 'lipoC3S3': 11.6, 'rot1': 82, 'rot0': 82, 'rot3': 32, 'rot2': 38, 'state': 'normal', 'yaw': 2.34, 'datetime': '2018-10-12 14:14:00.642965', 'mgs': 0, 'depth': 3.827, 'time': 11.61, 'pitch': -8.06, 'roll': -11.79}
{'lipoC2': 7.75, 'temp': 23.69, 'lipoC3S3': 11.6, 'rot1': 82, 'rot0': 82, 'rot3': 32, 'rot2': 38, 'state': 'normal', 'yaw': 2.36, 'datetime': '2018-10-12 14:14:00.650965', 'mgs': 0, 'depth': 3.751, 'time': 11.71, 'pitch': -8.14, 'roll': -12.44}
{'lipoC2': 7.75, 'temp': 23.69, 'lipoC3S3': 11.59, 'rot1': 82, 'rot0': 82, 'rot3': 33, 'rot2': 39, 'state': 'normal', 'yaw': 2.37, 'datetime': '2018-10-12 14:14:00.670199', 'mgs': 0, 'depth': 3.674, 'time': 11.81, 'pitch': -8.1, 'roll': -12.97}
{'lipoC2': 7.75, 'temp': 23.63, 'lipoC3S3': 11.63, 'rot1': 82, 'rot0': 82, 'rot3': 33, 'rot2': 40, 'state': 'normal', 'yaw': 2.4, 'datetime': '2018-10-12 14:14:00.678153', 'mgs': 0, 'depth': 3.827, 'time': 11.91, 'pitch': -7.89, 'roll': -13.39}
{'lipoC2': 7.76, 'temp': 23.63, 'lipoC3S3': 11.6, 'rot1': 82, 'rot0': 82, 'rot3': 34, 'rot2': 40, 'state': 'normal', 'yaw': 2.41, 'datetime': '2018-10-12 14:14:00.697420', 'mgs': 0, 'depth': 3.522, 'time': 12.01, 'pitch': -7.55, 'roll': -13.71}
{'lipoC2': 7.75, 'temp': 23.63, 'lipoC3S3': 11.58, 'rot1': 82, 'rot0': 82, 'rot3': 34, 'rot2': 41, 'state': 'normal', 'yaw': 2.46, 'datetime': '2018-10-12 14:14:00.705375', 'mgs': 0, 'depth': 3.445, 'time': 12.1, 'pitch': -7.17, 'roll': -13.9}
{'lipoC2': 7.75, 'temp': 23.63, 'lipoC3S3': 11.59, 'rot1': 82, 'rot0': 82, 'rot3': 35, 'rot2': 41, 'state': 'normal', 'yaw': 2.54, 'datetime': '2018-10-12 14:14:00.724733', 'mgs': 0, 'depth': 3.445, 'time': 12.2, 'pitch': -6.7, 'roll': -13.99}
{'lipoC2': 7.76, 'temp': 23.63, 'lipoC3S3': 11.59, 'rot1': 82, 'rot0': 82, 'rot3': 35, 'rot2': 42, 'state': 'normal', 'yaw': 2.66, 'datetime': '2018-10-12 14:14:00.732714', 'mgs': 0, 'depth': 3.369, 'time': 12.3, 'pitch': -6.25, 'roll': -13.95}
{'lipoC2': 7.75, 'temp': 23.81, 'lipoC3S3': 11.59, 'rot1': 82, 'rot0': 82, 'rot3': 36, 'rot2': 43, 'state': 'normal', 'yaw': 2.8, 'datetime': '2018-10-12 14:14:00.752337', 'mgs': 0, 'depth': 3.445, 'time': 12.4, 'pitch': -5.78, 'roll': -13.81}
{'lipoC2': 7.75, 'temp': 23.81, 'lipoC3S3': 11.6, 'rot1': 82, 'rot0': 82, 'rot3': 36, 'rot2': 43, 'state': 'normal', 'yaw': 2.98, 'datetime': '2018-10-12 14:14:00.760358', 'mgs': 0, 'depth': 3.293, 'time': 12.5, 'pitch': -5.29, 'roll': -13.62}
{'lipoC2': 7.75, 'temp': 23.81, 'lipoC3S3': 11.58, 'rot1': 82, 'rot0': 82, 'rot3': 36, 'rot2': 44, 'state': 'normal', 'yaw': 3.19, 'datetime': '2018-10-12 14:14:00.782897', 'mgs': 0, 'depth': 3.369, 'time': 12.6, 'pitch': -4.86, 'roll': -13.43}
{'lipoC2': 7.75, 'temp': 23.69, 'lipoC3S3': 11.58, 'rot1': 82, 'rot0': 82, 'rot3': 37, 'rot2': 44, 'state': 'normal', 'yaw': 3.43, 'datetime': '2018-10-12 14:14:00.793266', 'mgs': 0, 'depth': 3.293, 'time': 12.69, 'pitch': -4.43, 'roll': -13.17}
{'lipoC2': 7.75, 'temp': 23.69, 'lipoC3S3': 11.58, 'rot1': 82, 'rot0': 82, 'rot3': 37, 'rot2': 45, 'state': 'normal', 'yaw': 3.72, 'datetime': '2018-10-12 14:14:00.814960', 'mgs': 0, 'depth': 3.14, 'time': 12.79, 'pitch': -4.06, 'roll': -12.85}
{'lipoC2': 7.75, 'temp': 23.63, 'lipoC3S3': 11.6, 'rot1': 82, 'rot0': 82, 'rot3': 38, 'rot2': 46, 'state': 'normal', 'yaw': 4.02, 'datetime': '2018-10-12 14:14:00.825310', 'mgs': 0, 'depth': 2.988, 'time': 12.89, 'pitch': -3.78, 'roll': -12.46}
{'lipoC2': 7.76, 'temp': 23.63, 'lipoC3S3': 11.61, 'rot1': 82, 'rot0': 82, 'rot3': 38, 'rot2': 46, 'state': 'normal', 'yaw': 4.33, 'datetime': '2018-10-12 14:14:00.845444', 'mgs': 0, 'depth': 3.217, 'time': 12.99, 'pitch': -3.64, 'roll': -12.03}
{'lipoC2': 7.76, 'temp': 23.63, 'lipoC3S3': 11.58, 'rot1': 82, 'rot0': 82, 'rot3': 39, 'rot2': 47, 'state': 'normal', 'yaw': 4.58, 'datetime': '2018-10-12 14:14:00.852992', 'mgs': 0, 'depth': 2.988, 'time': 13.08, 'pitch': -3.59, 'roll': -11.71}
{'lipoC2': 7.76, 'temp': 23.63, 'lipoC3S3': 11.6, 'rot1': 82, 'rot0': 82, 'rot3': 39, 'rot2': 47, 'state': 'normal', 'yaw': 4.88, 'datetime': '2018-10-12 14:14:00.873375', 'mgs': 0, 'depth': 2.835, 'time': 13.18, 'pitch': -3.61, 'roll': -11.52}
{'lipoC2': 7.75, 'temp': 23.63, 'lipoC3S3': 11.61, 'rot1': 82, 'rot0': 82, 'rot3': 40, 'rot2': 48, 'state': 'normal', 'yaw': 5.2, 'datetime': '2018-10-12 14:14:00.881732', 'mgs': 0, 'depth': 3.064, 'time': 13.28, 'pitch': -3.7, 'roll': -11.52}
{'lipoC2': 7.75, 'temp': 23.63, 'lipoC3S3': 11.61, 'rot1': 82, 'rot0': 82, 'rot3': 40, 'rot2': 49, 'state': 'normal', 'yaw': 5.48, 'datetime': '2018-10-12 14:14:00.900631', 'mgs': 0, 'depth': 2.911, 'time': 13.38, 'pitch': -3.82, 'roll': -11.62}
{'lipoC2': 7.75, 'temp': 23.63, 'lipoC3S3': 11.58, 'rot1': 82, 'rot0': 82, 'rot3': 41, 'rot2': 49, 'state': 'normal', 'yaw': 5.8, 'datetime': '2018-10-12 14:14:00.908305', 'mgs': 0, 'depth': 2.682, 'time': 13.47, 'pitch': -3.96, 'roll': -11.68}
{'lipoC2': 7.76, 'temp': 23.63, 'lipoC3S3': 11.6, 'rot1': 82, 'rot0': 82, 'rot3': 41, 'rot2': 50, 'state': 'normal', 'yaw': 6.09, 'datetime': '2018-10-12 14:14:00.927220', 'mgs': 0, 'depth': 2.606, 'time': 13.57, 'pitch': -4.05, 'roll': -11.58}
{'lipoC2': 7.75, 'temp': 23.63, 'lipoC3S3': 11.61, 'rot1': 82, 'rot0': 82, 'rot3': 42, 'rot2': 50, 'state': 'normal', 'yaw': 6.36, 'datetime': '2018-10-12 14:14:00.934786', 'mgs': 0, 'depth': 2.835, 'time': 13.67, 'pitch': -4.11, 'roll': -11.3}
{'lipoC2': 7.75, 'temp': 23.63, 'lipoC3S3': 11.59, 'rot1': 82, 'rot0': 82, 'rot3': 42, 'rot2': 51, 'state': 'normal', 'yaw': 6.59, 'datetime': '2018-10-12 14:14:00.953686', 'mgs': 0, 'depth': 2.53, 'time': 13.77, 'pitch': -4.14, 'roll': -10.99}
{'lipoC2': 7.75, 'temp': 23.69, 'lipoC3S3': 11.58, 'rot1': 82, 'rot0': 82, 'rot3': 42, 'rot2': 52, 'state': 'normal', 'yaw': 6.85, 'datetime': '2018-10-12 14:14:00.961725', 'mgs': 0, 'depth': 2.606, 'time': 13.87, 'pitch': -4.15, 'roll': -10.74}
{'lipoC2': 7.76, 'temp': 23.69, 'lipoC3S3': 11.58, 'rot1': 82, 'rot0': 82, 'rot3': 43, 'rot2': 52, 'state': 'normal', 'yaw': 7.13, 'datetime': '2018-10-12 14:14:00.981258', 'mgs': 0, 'depth': 2.454, 'time': 13.97, 'pitch': -4.18, 'roll': -10.67}
{'lipoC2': 7.76, 'temp': 23.75, 'lipoC3S3': 11.58, 'rot1': 82, 'rot0': 82, 'rot3': 43, 'rot2': 53, 'state': 'normal', 'yaw': 7.37, 'datetime': '2018-10-12 14:14:00.989102', 'mgs': 0, 'depth': 2.225, 'time': 14.06, 'pitch': -4.24, 'roll': -10.71}
{'lipoC2': 7.75, 'temp': 23.75, 'lipoC3S3': 11.61, 'rot1': 82, 'rot0': 82, 'rot3': 44, 'rot2': 54, 'state': 'normal', 'yaw': 7.59, 'datetime': '2018-10-12 14:14:01.015468', 'mgs': 0, 'depth': 2.148, 'time': 14.16, 'pitch': -4.34, 'roll': -10.91}
{'lipoC2': 7.75, 'temp': 23.75, 'lipoC3S3': 11.58, 'rot1': 82, 'rot0': 82, 'rot3': 44, 'rot2': 54, 'state': 'normal', 'yaw': 7.79, 'datetime': '2018-10-12 14:14:01.023086', 'mgs': 0, 'depth': 2.225, 'time': 14.26, 'pitch': -4.42, 'roll': -11.19}
{'lipoC2': 7.75, 'temp': 23.69, 'lipoC3S3': 11.58, 'rot1': 82, 'rot0': 82, 'rot3': 45, 'rot2': 55, 'state': 'normal', 'yaw': 8.04, 'datetime': '2018-10-12 14:14:01.041991', 'mgs': 0, 'depth': 2.225, 'time': 14.36, 'pitch': -4.4, 'roll': -11.49}
{'lipoC2': 7.76, 'temp': 23.69, 'lipoC3S3': 11.61, 'rot1': 82, 'rot0': 82, 'rot3': 45, 'rot2': 55, 'state': 'normal', 'yaw': 8.32, 'datetime': '2018-10-12 14:14:01.049492', 'mgs': 0, 'depth': 2.225, 'time': 14.46, 'pitch': -4.35, 'roll': -11.67}
{'lipoC2': 7.76, 'temp': 23.63, 'lipoC3S3': 11.6, 'rot1': 82, 'rot0': 82, 'rot3': 46, 'rot2': 56, 'state': 'normal', 'yaw': 8.63, 'datetime': '2018-10-12 14:14:01.069893', 'mgs': 0, 'depth': 1.996, 'time': 14.55, 'pitch': -4.28, 'roll': -11.84}
{'lipoC2': 7.75, 'temp': 23.63, 'lipoC3S3': 11.67, 'rot1': 82, 'rot0': 82, 'rot3': 46, 'rot2': 57, 'state': 'normal', 'yaw': 8.94, 'datetime': '2018-10-12 14:14:01.077528', 'mgs': 0, 'depth': 1.996, 'time': 14.65, 'pitch': -4.22, 'roll': -12.12}
{'lipoC2': 7.76, 'temp': 23.63, 'lipoC3S3': 11.6, 'rot1': 83, 'rot0': 83, 'rot3': 47, 'rot2': 57, 'state': 'normal', 'yaw': 9.25, 'datetime': '2018-10-12 14:14:01.096403', 'mgs': 0, 'depth': 2.148, 'time': 14.75, 'pitch': -3.97, 'roll': -12.53}
{'lipoC2': 7.76, 'temp': 23.69, 'lipoC3S3': 11.56, 'rot1': 83, 'rot0': 84, 'rot3': 47, 'rot2': 58, 'state': 'normal', 'yaw': 10.12, 'datetime': '2018-10-12 14:14:01.103927', 'mgs': 0, 'depth': 1.767, 'time': 14.85, 'pitch': -3.27, 'roll': -12.98}
{'lipoC2': 7.76, 'temp': 23.69, 'lipoC3S3': 11.59, 'rot1': 84, 'rot0': 84, 'rot3': 48, 'rot2': 58, 'state': 'normal', 'yaw': 11.49, 'datetime': '2018-10-12 14:14:01.122781', 'mgs': 0, 'depth': 1.92, 'time': 14.95, 'pitch': -2.37, 'roll': -13.25}
{'lipoC2': 7.75, 'temp': 23.56, 'lipoC3S3': 11.61, 'rot1': 85, 'rot0': 85, 'rot3': 48, 'rot2': 59, 'state': 'normal', 'yaw': 13.34, 'datetime': '2018-10-12 14:14:01.130296', 'mgs': 0, 'depth': 2.148, 'time': 15.04, 'pitch': -1.45, 'roll': -13.19}
{'lipoC2': 7.76, 'temp': 23.56, 'lipoC3S3': 11.6, 'rot1': 86, 'rot0': 86, 'rot3': 48, 'rot2': 60, 'state': 'normal', 'yaw': 15.47, 'datetime': '2018-10-12 14:14:01.149131', 'mgs': 0, 'depth': 2.148, 'time': 15.14, 'pitch': -0.75, 'roll': -12.9}
{'lipoC2': 7.76, 'temp': 23.56, 'lipoC3S3': 11.63, 'rot1': 86, 'rot0': 87, 'rot3': 49, 'rot2': 60, 'state': 'normal', 'yaw': 18.28, 'datetime': '2018-10-12 14:14:01.156690', 'mgs': 0, 'depth': 1.996, 'time': 15.24, 'pitch': -0.2, 'roll': -12.53}
{'lipoC2': 7.76, 'temp': 23.56, 'lipoC3S3': 11.61, 'rot1': 87, 'rot0': 88, 'rot3': 49, 'rot2': 60, 'state': 'normal', 'yaw': 21.42, 'datetime': '2018-10-12 14:14:01.176190', 'mgs': 0, 'depth': 1.92, 'time': 15.34, 'pitch': 0.23, 'roll': -12.43}
{'lipoC2': 7.75, 'temp': 23.56, 'lipoC3S3': 11.64, 'rot1': 88, 'rot0': 88, 'rot3': 49, 'rot2': 60, 'state': 'normal', 'yaw': 24.72, 'datetime': '2018-10-12 14:14:01.268542', 'mgs': 0, 'depth': 1.92, 'time': 15.43, 'pitch': 0.61, 'roll': -12.65}
{'lipoC2': 7.75, 'temp': 23.63, 'lipoC3S3': 11.64, 'rot1': 89, 'rot0': 89, 'rot3': 49, 'rot2': 60, 'state': 'normal', 'yaw': 27.84, 'datetime': '2018-10-12 14:14:01.365990', 'mgs': 0, 'depth': 2.225, 'time': 15.53, 'pitch': 1.09, 'roll': -12.97}
{'lipoC2': 7.75, 'temp': 23.63, 'lipoC3S3': 11.59, 'rot1': 90, 'rot0': 90, 'rot3': 49, 'rot2': 60, 'state': 'normal', 'yaw': 31.5, 'datetime': '2018-10-12 14:14:01.463408', 'mgs': 0, 'depth': 2.072, 'time': 15.63, 'pitch': 1.83, 'roll': -13.21}
{'lipoC2': 7.76, 'temp': 23.63, 'lipoC3S3': 11.63, 'rot1': 91, 'rot0': 91, 'rot3': 49, 'rot2': 60, 'state': 'normal', 'yaw': 35.45, 'datetime': '2018-10-12 14:14:01.560906', 'mgs': 0, 'depth': 2.072, 'time': 15.73, 'pitch': 2.67, 'roll': -13.22}
{'lipoC2': 7.75, 'temp': 23.63, 'lipoC3S3': 11.64, 'rot1': 91, 'rot0': 92, 'rot3': 49, 'rot2': 60, 'state': 'normal', 'yaw': 39.63, 'datetime': '2018-10-12 14:14:01.658531', 'mgs': 0, 'depth': 2.454, 'time': 15.82, 'pitch': 3.57, 'roll': -13.06}
{'lipoC2': 7.75, 'temp': 23.63, 'lipoC3S3': 11.6, 'rot1': 92, 'rot0': 93, 'rot3': 49, 'rot2': 60, 'state': 'normal', 'yaw': 43.52, 'datetime': '2018-10-12 14:14:01.757242', 'mgs': 0, 'depth': 2.377, 'time': 15.92, 'pitch': 4.39, 'roll': -12.86}
{'lipoC2': 7.76, 'temp': 23.56, 'lipoC3S3': 11.6, 'rot1': 93, 'rot0': 93, 'rot3': 49, 'rot2': 61, 'state': 'normal', 'yaw': 47.94, 'datetime': '2018-10-12 14:14:01.856002', 'mgs': 0, 'depth': 2.377, 'time': 16.02, 'pitch': 5.2, 'roll': -12.51}
{'lipoC2': 7.76, 'temp': 23.56, 'lipoC3S3': 11.61, 'rot1': 94, 'rot0': 94, 'rot3': 50, 'rot2': 61, 'state': 'normal', 'yaw': 52.42, 'datetime': '2018-10-12 14:14:01.954827', 'mgs': 0, 'depth': 2.148, 'time': 16.12, 'pitch': 5.94, 'roll': -12.0}
{'lipoC2': 7.76, 'temp': 23.56, 'lipoC3S3': 11.6, 'rot1': 95, 'rot0': 95, 'rot3': 50, 'rot2': 62, 'state': 'normal', 'yaw': 56.92, 'datetime': '2018-10-12 14:14:02.052242', 'mgs': 0, 'depth': 3.064, 'time': 16.22, 'pitch': 6.62, 'roll': -11.25}
{'lipoC2': 7.76, 'temp': 23.63, 'lipoC3S3': 11.56, 'rot1': 96, 'rot0': 96, 'rot3': 51, 'rot2': 62, 'state': 'normal', 'yaw': 61.47, 'datetime': '2018-10-12 14:14:02.155242', 'mgs': 0, 'depth': 2.148, 'time': 16.32, 'pitch': 7.24, 'roll': -10.28}
{'lipoC2': 7.75, 'temp': 23.63, 'lipoC3S3': 11.61, 'rot1': 96, 'rot0': 97, 'rot3': 51, 'rot2': 63, 'state': 'normal', 'yaw': 65.64, 'datetime': '2018-10-12 14:14:02.253765', 'mgs': 0, 'depth': 2.225, 'time': 16.41, 'pitch': 7.72, 'roll': -9.24}
{'lipoC2': 7.76, 'temp': 23.63, 'lipoC3S3': 11.64, 'rot1': 97, 'rot0': 98, 'rot3': 52, 'rot2': 63, 'state': 'normal', 'yaw': 70.35, 'datetime': '2018-10-12 14:14:02.352375', 'mgs': 0, 'depth': 2.225, 'time': 16.51, 'pitch': 8.15, 'roll': -8.05}
{'lipoC2': 7.75, 'temp': 23.63, 'lipoC3S3': 11.63, 'rot1': 98, 'rot0': 99, 'rot3': 52, 'rot2': 63, 'state': 'normal', 'yaw': 75.02, 'datetime': '2018-10-12 14:14:02.450968', 'mgs': 0, 'depth': 2.225, 'time': 16.61, 'pitch': 8.45, 'roll': -7.08}
