{'lipoC2': 7.77, 'temp': 23.56, 'lipoC3S3': 11.76, 'rot1': 0, 'rot0': 0, 'rot3': 0, 'rot2': 0, 'state': 'normal', 'yaw': 0.0, 'datetime': '2018-10-12 14:07:40.941119', 'mgs': 0, 'depth': 2.225, 'time': 1.26, 'pitch': -0.3, 'roll': -6.85}
{'lipoC2': 7.77, 'temp': 23.56, 'lipoC3S3': 11.76, 'rot1': 0, 'rot0': 0, 'rot3': 0, 'rot2': 0, 'state': 'normal', 'yaw': -0.0, 'datetime': '2018-10-12 14:07:40.957805', 'mgs': 0, 'depth': 2.148, 'time': 1.36, 'pitch': -0.19, 'roll': -6.75}
{'lipoC2': 7.77, 'temp': 23.56, 'lipoC3S3': 11.75, 'rot1': 0, 'rot0': 0, 'rot3': 0, 'rot2': 0, 'state': 'normal', 'yaw': -0.15, 'datetime': '2018-10-12 14:07:40.974455', 'mgs': 0, 'depth': 2.148, 'time': 1.46, 'pitch': -0.21, 'roll': -7.3}
{'lipoC2': 7.77, 'temp': 23.56, 'lipoC3S3': 11.76, 'rot1': 0, 'rot0': 0, 'rot3': 0, 'rot2': 0, 'state': 'normal', 'yaw': -0.32, 'datetime': '2018-10-12 14:07:40.991167', 'mgs': 0, 'depth': 2.148, 'time': 1.55, 'pitch': -0.37, 'roll': -8.15}
{'lipoC2': 7.77, 'temp': 23.56, 'lipoC3S3': 11.75, 'rot1': 0, 'rot0': 0, 'rot3': 0, 'rot2': 0, 'state': 'normal', 'yaw': -0.33, 'datetime': '2018-10-12 14:07:41.062375', 'mgs': 0, 'depth': 2.148, 'time': 1.65, 'pitch': -0.48, 'roll': -8.51}
{'lipoC2': 7.77, 'temp': 23.56, 'lipoC3S3': 11.75, 'rot1': 0, 'rot0': 0, 'rot3': 0, 'rot2': 0, 'state': 'normal', 'yaw': -0.26, 'datetime': '2018-10-12 14:07:41.163681', 'mgs': 0, 'depth': 2.225, 'time': 1.75, 'pitch': -0.58, 'roll': -8.57}
{'lipoC2': 7.77, 'temp': 23.56, 'lipoC3S3': 11.75, 'rot1': 0, 'rot0': 0, 'rot3': 0, 'rot2': 0, 'state': 'normal', 'yaw': -0.08, 'datetime': '2018-10-12 14:07:41.262095', 'mgs': 0, 'depth': 2.148, 'time': 1.85, 'pitch': -0.69, 'roll': -8.53}
{'lipoC2': 7.77, 'temp': 23.56, 'lipoC3S3': 11.75, 'rot1': 0, 'rot0': 0, 'rot3': 0, 'rot2': 0, 'state': 'normal', 'yaw': 0.19, 'datetime': '2018-10-12 14:07:41.359033', 'mgs': 0, 'depth': 2.148, 'time': 1.94, 'pitch': -0.86, 'roll': -8.49}
{'lipoC2': 7.77, 'temp': 23.56, 'lipoC3S3': 11.75, 'rot1': 0, 'rot0': 0, 'rot3': 0, 'rot2': 0, 'state': 'normal', 'yaw': 0.37, 'datetime': '2018-10-12 14:07:41.456934', 'mgs': 0, 'depth': 2.148, 'time': 2.04, 'pitch': -1.13, 'roll': -8.62}
{'lipoC2': 7.77, 'temp': 23.56, 'lipoC3S3': 11.75, 'rot1': 0, 'rot0': 0, 'rot3': 0, 'rot2': 0, 'state': 'normal', 'yaw': 0.55, 'datetime': '2018-10-12 14:07:41.553966', 'mgs': 0, 'depth': 2.225, 'time': 2.14, 'pitch': -1.52, 'roll': -8.97}
{'lipoC2': 7.77, 'temp': 23.56, 'lipoC3S3': 11.75, 'rot1': 0, 'rot0': 0, 'rot3': 0, 'rot2': 0, 'state': 'normal', 'yaw': 0.75, 'datetime': '2018-10-12 14:07:41.651008', 'mgs': 0, 'depth': 2.225, 'time': 2.24, 'pitch': -1.91, 'roll': -9.3}
{'lipoC2': 7.77, 'temp': 23.56, 'lipoC3S3': 11.75, 'rot1': 0, 'rot0': 0, 'rot3': 0, 'rot2': 0, 'state': 'normal', 'yaw': 0.94, 'datetime': '2018-10-12 14:07:41.743590', 'mgs': 0, 'depth': 2.301, 'time': 2.33, 'pitch': -2.24, 'roll': -9.38}
{'lipoC2': 7.77, 'temp': 23.56, 'lipoC3S3': 11.75, 'rot1': 0, 'rot0': 0, 'rot3': 0, 'rot2': 0, 'state': 'normal', 'yaw': 1.24, 'datetime': '2018-10-12 14:07:41.840684', 'mgs': 0, 'depth': 2.301, 'time': 2.43, 'pitch': -2.48, 'roll': -9.16}
{'lipoC2': 7.77, 'temp': 23.56, 'lipoC3S3': 11.75, 'rot1': 0, 'rot0': 0, 'rot3': 0, 'rot2': 0, 'state': 'normal', 'yaw': 1.57, 'datetime': '2018-10-12 14:07:41.937645', 'mgs': 0, 'depth': 2.301, 'time': 2.53, 'pitch': -2.57, 'roll': -8.81}
{'lipoC2': 7.77, 'temp': 23.56, 'lipoC3S3': 11.75, 'rot1': 0, 'rot0': 0, 'rot3': 0, 'rot2': 0, 'state': 'normal', 'yaw': 1.68, 'datetime': '2018-10-12 14:07:42.038649', 'mgs': 0, 'depth': 2.377, 'time': 2.62, 'pitch': -2.71, 'roll': -8.84}
{'lipoC2': 7.77, 'temp': 23.56, 'lipoC3S3': 11.75, 'rot1': 0, 'rot0': 0, 'rot3': 0, 'rot2': 0, 'state': 'normal', 'yaw': 1.61, 'datetime': '2018-10-12 14:07:42.136250', 'mgs': 0, 'depth': 2.377, 'time': 2.72, 'pitch': -2.9, 'roll': -9.24}
{'lipoC2': 7.77, 'temp': 23.56, 'lipoC3S3': 11.75, 'rot1': 0, 'rot0': 0, 'rot3': 0, 'rot2': 0, 'state': 'normal', 'yaw': 1.55, 'datetime': '2018-10-12 14:07:42.233319', 'mgs': 0, 'depth': 2.454, 'time': 2.82, 'pitch': -2.95, 'roll': -9.61}
{'lipoC2': 7.77, 'temp': 23.56, 'lipoC3S3': 11.76, 'rot1': 0, 'rot0': 0, 'rot3': 0, 'rot2': 0, 'state': 'normal', 'yaw': 1.7, 'datetime': '2018-10-12 14:07:42.330682', 'mgs': 0, 'depth': 2.301, 'time': 2.92, 'pitch': -2.74, 'roll': -9.7}
{'lipoC2': 7.77, 'temp': 23.56, 'lipoC3S3': 11.75, 'rot1': 0, 'rot0': 0, 'rot3': 0, 'rot2': 0, 'state': 'normal', 'yaw': 1.76, 'datetime': '2018-10-12 14:07:42.429229', 'mgs': 0, 'depth': 2.377, 'time': 3.01, 'pitch': -2.52, 'roll': -9.77}
{'lipoC2': 7.77, 'temp': 23.56, 'lipoC3S3': 11.75, 'rot1': 0, 'rot0': 0, 'rot3': 0, 'rot2': 0, 'state': 'normal', 'yaw': 1.64, 'datetime': '2018-10-12 14:07:42.527266', 'mgs': 0, 'depth': 2.454, 'time': 3.11, 'pitch': -2.28, 'roll': -9.87}
{'lipoC2': 7.78, 'temp': 23.56, 'lipoC3S3': 11.75, 'rot1': 0, 'rot0': 0, 'rot3': 0, 'rot2': 0, 'state': 'normal', 'yaw': 1.37, 'datetime': '2018-10-12 14:07:42.624087', 'mgs': 0, 'depth': 2.377, 'time': 3.21, 'pitch': -2.08, 'roll': -10.06}
{'lipoC2': 7.77, 'temp': 23.56, 'lipoC3S3': 11.75, 'rot1': 0, 'rot0': 0, 'rot3': 0, 'rot2': 0, 'state': 'normal', 'yaw': 1.11, 'datetime': '2018-10-12 14:07:42.721132', 'mgs': 0, 'depth': 2.377, 'time': 3.31, 'pitch': -1.84, 'roll': -10.71}
{'lipoC2': 7.77, 'temp': 23.56, 'lipoC3S3': 11.75, 'rot1': 0, 'rot0': 0, 'rot3': 0, 'rot2': 0, 'state': 'normal', 'yaw': 0.96, 'datetime': '2018-10-12 14:07:42.819494', 'mgs': 0, 'depth': 2.454, 'time': 3.4, 'pitch': -1.57, 'roll': -11.26}
{'lipoC2': 7.77, 'temp': 23.56, 'lipoC3S3': 11.75, 'rot1': 0, 'rot0': 0, 'rot3': 0, 'rot2': 0, 'state': 'normal', 'yaw': 0.78, 'datetime': '2018-10-12 14:07:42.917450', 'mgs': 0, 'depth': 2.377, 'time': 3.5, 'pitch': -1.33, 'roll': -11.38}
{'lipoC2': 7.77, 'temp': 23.56, 'lipoC3S3': 11.75, 'rot1': 0, 'rot0': 0, 'rot3': 0, 'rot2': 0, 'state': 'normal', 'yaw': 0.74, 'datetime': '2018-10-12 14:07:43.014433', 'mgs': 0, 'depth': 2.377, 'time': 3.6, 'pitch': -1.01, 'roll': -11.36}
{'lipoC2': 7.77, 'temp': 23.5, 'lipoC3S3': 11.75, 'rot1': 0, 'rot0': 0, 'rot3': 0, 'rot2': 0, 'state': 'normal', 'yaw': 0.79, 'datetime': '2018-10-12 14:07:43.111807', 'mgs': 0, 'depth': 2.301, 'time': 3.7, 'pitch': -0.63, 'roll': -11.18}
{'lipoC2': 7.77, 'temp': 23.5, 'lipoC3S3': 11.75, 'rot1': 0, 'rot0': 0, 'rot3': 0, 'rot2': 0, 'state': 'normal', 'yaw': 0.75, 'datetime': '2018-10-12 14:07:43.208870', 'mgs': 0, 'depth': 2.377, 'time': 3.8, 'pitch': -0.41, 'roll': -11.08}
{'lipoC2': 7.77, 'temp': 23.56, 'lipoC3S3': 11.75, 'rot1': 0, 'rot0': 0, 'rot3': 0, 'rot2': 0, 'state': 'normal', 'yaw': 0.64, 'datetime': '2018-10-12 14:07:43.303043', 'mgs': 0, 'depth': 2.377, 'time': 3.89, 'pitch': -0.32, 'roll': -10.89}
{'lipoC2': 7.77, 'temp': 23.56, 'lipoC3S3': 11.75, 'rot1': 0, 'rot0': 0, 'rot3': 0, 'rot2': 0, 'state': 'normal', 'yaw': 0.37, 'datetime': '2018-10-12 14:07:43.402915', 'mgs': 0, 'depth': 2.225, 'time': 3.99, 'pitch': -0.43, 'roll': -10.86}
{'lipoC2': 7.77, 'temp': 23.56, 'lipoC3S3': 11.75, 'rot1': 0, 'rot0': 0, 'rot3': 0, 'rot2': 0, 'state': 'normal', 'yaw': 0.24, 'datetime': '2018-10-12 14:07:43.499954', 'mgs': 0, 'depth': 2.301, 'time': 4.09, 'pitch': -0.47, 'roll': -11.03}
{'lipoC2': 7.77, 'temp': 23.56, 'lipoC3S3': 11.75, 'rot1': 0, 'rot0': 0, 'rot3': 0, 'rot2': 0, 'state': 'normal', 'yaw': 0.31, 'datetime': '2018-10-12 14:07:43.596883', 'mgs': 0, 'depth': 2.301, 'time': 4.18, 'pitch': -0.42, 'roll': -11.09}
{'lipoC2': 7.77, 'temp': 23.56, 'lipoC3S3': 11.75, 'rot1': 0, 'rot0': 0, 'rot3': 0, 'rot2': 0, 'state': 'normal', 'yaw': 0.58, 'datetime': '2018-10-12 14:07:43.694014', 'mgs': 0, 'depth': 2.148, 'time': 4.28, 'pitch': -0.29, 'roll': -10.85}
{'lipoC2': 7.77, 'temp': 23.56, 'lipoC3S3': 11.76, 'rot1': 0, 'rot0': 0, 'rot3': 0, 'rot2': 0, 'state': 'normal', 'yaw': 0.84, 'datetime': '2018-10-12 14:07:43.790965', 'mgs': 0, 'depth': 2.225, 'time': 4.38, 'pitch': -0.23, 'roll': -10.57}
{'lipoC2': 7.77, 'temp': 23.56, 'lipoC3S3': 11.76, 'rot1': 0, 'rot0': 0, 'rot3': 0, 'rot2': 0, 'state': 'normal', 'yaw': 1.05, 'datetime': '2018-10-12 14:07:43.887961', 'mgs': 0, 'depth': 2.225, 'time': 4.47, 'pitch': -0.36, 'roll': -10.43}
{'lipoC2': 7.77, 'temp': 23.56, 'lipoC3S3': 11.75, 'rot1': 0, 'rot0': 0, 'rot3': 0, 'rot2': 0, 'state': 'normal', 'yaw': 1.29, 'datetime': '2018-10-12 14:07:43.985081', 'mgs': 1, 'depth': 2.225, 'time': 4.57, 'pitch': -0.64, 'roll': -10.22}
{'lipoC2': 7.77, 'temp': 23.56, 'lipoC3S3': 11.75, 'rot1': 0, 'rot0': 0, 'rot3': 0, 'rot2': 0, 'state': 'normal', 'yaw': 0.0, 'datetime': '2018-10-12 14:07:45.504928', 'mgs': 0, 'depth': 1.996, 'time': 1.26, 'pitch': 2.12, 'roll': -7.2}
{'lipoC2': 7.77, 'temp': 23.56, 'lipoC3S3': 11.76, 'rot1': 0, 'rot0': 0, 'rot3': 0, 'rot2': 0, 'state': 'normal', 'yaw': 0.14, 'datetime': '2018-10-12 14:07:45.535880', 'mgs': 0, 'depth': 1.996, 'time': 1.36, 'pitch': 2.23, 'roll': -6.78}
{'lipoC2': 7.77, 'temp': 23.56, 'lipoC3S3': 11.75, 'rot1': 0, 'rot0': 0, 'rot3': 0, 'rot2': 0, 'state': 'normal', 'yaw': 0.33, 'datetime': '2018-10-12 14:07:45.552491', 'mgs': 0, 'depth': 1.996, 'time': 1.45, 'pitch': 2.03, 'roll': -6.44}
{'lipoC2': 7.77, 'temp': 23.56, 'lipoC3S3': 11.75, 'rot1': 0, 'rot0': 0, 'rot3': 0, 'rot2': 0, 'state': 'normal', 'yaw': 0.54, 'datetime': '2018-10-12 14:07:45.638246', 'mgs': 0, 'depth': 1.92, 'time': 1.55, 'pitch': 1.54, 'roll': -6.07}
{'lipoC2': 7.77, 'temp': 23.56, 'lipoC3S3': 11.69, 'rot1': 0, 'rot0': 0, 'rot3': 0, 'rot2': 0, 'state': 'normal', 'yaw': 0.76, 'datetime': '2018-10-12 14:07:45.734949', 'mgs': 0, 'depth': 1.843, 'time': 1.65, 'pitch': 0.88, 'roll': -5.78}
{'lipoC2': 7.78, 'temp': 23.56, 'lipoC3S3': 11.68, 'rot1': 1, 'rot0': 1, 'rot3': 0, 'rot2': 0, 'state': 'normal', 'yaw': 0.92, 'datetime': '2018-10-12 14:07:45.832046', 'mgs': 0, 'depth': 2.377, 'time': 1.74, 'pitch': 0.27, 'roll': -5.05}
{'lipoC2': 7.77, 'temp': 23.56, 'lipoC3S3': 11.61, 'rot1': 2, 'rot0': 2, 'rot3': 0, 'rot2': 0, 'state': 'normal', 'yaw': 1.11, 'datetime': '2018-10-12 14:07:45.924258', 'mgs': 0, 'depth': 2.072, 'time': 1.84, 'pitch': -0.29, 'roll': -3.95}
{'lipoC2': 7.77, 'temp': 23.56, 'lipoC3S3': 11.65, 'rot1': 3, 'rot0': 3, 'rot3': 0, 'rot2': 0, 'state': 'normal', 'yaw': 1.28, 'datetime': '2018-10-12 14:07:46.020983', 'mgs': 0, 'depth': 2.148, 'time': 1.94, 'pitch': -0.74, 'roll': -2.88}
{'lipoC2': 7.77, 'temp': 23.5, 'lipoC3S3': 11.63, 'rot1': 4, 'rot0': 5, 'rot3': 0, 'rot2': 0, 'state': 'normal', 'yaw': 1.27, 'datetime': '2018-10-12 14:07:46.117837', 'mgs': 0, 'depth': 2.072, 'time': 2.04, 'pitch': -1.11, 'roll': -1.99}
{'lipoC2': 7.77, 'temp': 23.5, 'lipoC3S3': 11.67, 'rot1': 5, 'rot0': 6, 'rot3': 0, 'rot2': 0, 'state': 'normal', 'yaw': 1.27, 'datetime': '2018-10-12 14:07:46.214485', 'mgs': 0, 'depth': 2.148, 'time': 2.13, 'pitch': -1.29, 'roll': -1.81}
{'lipoC2': 7.77, 'temp': 23.56, 'lipoC3S3': 11.71, 'rot1': 5, 'rot0': 7, 'rot3': 0, 'rot2': 0, 'state': 'normal', 'yaw': 1.12, 'datetime': '2018-10-12 14:07:46.311227', 'mgs': 0, 'depth': 2.072, 'time': 2.23, 'pitch': -1.33, 'roll': -2.3}
{'lipoC2': 7.77, 'temp': 23.56, 'lipoC3S3': 11.71, 'rot1': 6, 'rot0': 8, 'rot3': 0, 'rot2': 0, 'state': 'normal', 'yaw': 0.76, 'datetime': '2018-10-12 14:07:46.407960', 'mgs': 0, 'depth': 2.072, 'time': 2.33, 'pitch': -1.35, 'roll': -2.71}
{'lipoC2': 7.77, 'temp': 23.56, 'lipoC3S3': 11.71, 'rot1': 7, 'rot0': 9, 'rot3': 0, 'rot2': 0, 'state': 'normal', 'yaw': 0.11, 'datetime': '2018-10-12 14:07:46.504620', 'mgs': 0, 'depth': 2.148, 'time': 2.42, 'pitch': -1.38, 'roll': -2.64}
{'lipoC2': 7.77, 'temp': 23.56, 'lipoC3S3': 11.68, 'rot1': 8, 'rot0': 10, 'rot3': 0, 'rot2': 0, 'state': 'normal', 'yaw': -0.74, 'datetime': '2018-10-12 14:07:46.601472', 'mgs': 0, 'depth': 2.911, 'time': 2.52, 'pitch': -1.37, 'roll': -2.27}
{'lipoC2': 7.77, 'temp': 23.56, 'lipoC3S3': 11.69, 'rot1': 9, 'rot0': 11, 'rot3': 0, 'rot2': 0, 'state': 'normal', 'yaw': -1.47, 'datetime': '2018-10-12 14:07:46.699345', 'mgs': 0, 'depth': 2.148, 'time': 2.62, 'pitch': -1.26, 'roll': -1.7}
{'lipoC2': 7.77, 'temp': 23.5, 'lipoC3S3': 11.65, 'rot1': 10, 'rot0': 12, 'rot3': 0, 'rot2': 0, 'state': 'normal', 'yaw': -2.16, 'datetime': '2018-10-12 14:07:46.797731', 'mgs': 0, 'depth': 2.225, 'time': 2.71, 'pitch': -1.1, 'roll': -0.86}
{'lipoC2': 7.77, 'temp': 23.5, 'lipoC3S3': 11.68, 'rot1': 11, 'rot0': 13, 'rot3': 0, 'rot2': 0, 'state': 'normal', 'yaw': -2.73, 'datetime': '2018-10-12 14:07:46.894702', 'mgs': 0, 'depth': 2.225, 'time': 2.81, 'pitch': -0.94, 'roll': 0.08}
{'lipoC2': 7.77, 'temp': 23.63, 'lipoC3S3': 11.71, 'rot1': 12, 'rot0': 14, 'rot3': 0, 'rot2': 0, 'state': 'normal', 'yaw': -2.95, 'datetime': '2018-10-12 14:07:46.991686', 'mgs': 0, 'depth': 2.759, 'time': 2.91, 'pitch': -0.8, 'roll': 0.95}
{'lipoC2': 7.77, 'temp': 23.63, 'lipoC3S3': 11.68, 'rot1': 13, 'rot0': 15, 'rot3': 0, 'rot2': 0, 'state': 'normal', 'yaw': -2.85, 'datetime': '2018-10-12 14:07:47.089737', 'mgs': 0, 'depth': 2.301, 'time': 3.01, 'pitch': -0.69, 'roll': 1.65}
{'lipoC2': 7.78, 'temp': 23.63, 'lipoC3S3': 11.61, 'rot1': 14, 'rot0': 16, 'rot3': 0, 'rot2': 1, 'state': 'normal', 'yaw': -2.49, 'datetime': '2018-10-12 14:07:47.188019', 'mgs': 0, 'depth': 2.454, 'time': 3.11, 'pitch': -0.6, 'roll': 2.35}
{'lipoC2': 7.77, 'temp': 23.56, 'lipoC3S3': 11.67, 'rot1': 16, 'rot0': 17, 'rot3': 1, 'rot2': 1, 'state': 'normal', 'yaw': -1.95, 'datetime': '2018-10-12 14:07:47.285026', 'mgs': 0, 'depth': 3.369, 'time': 3.2, 'pitch': -0.53, 'roll': 3.07}
{'lipoC2': 7.77, 'temp': 23.56, 'lipoC3S3': 11.68, 'rot1': 17, 'rot0': 17, 'rot3': 1, 'rot2': 2, 'state': 'normal', 'yaw': -1.28, 'datetime': '2018-10-12 14:07:47.382111', 'mgs': 0, 'depth': 2.759, 'time': 3.3, 'pitch': -0.44, 'roll': 3.95}
{'lipoC2': 7.77, 'temp': 23.56, 'lipoC3S3': 11.56, 'rot1': 18, 'rot0': 18, 'rot3': 1, 'rot2': 2, 'state': 'normal', 'yaw': -0.59, 'datetime': '2018-10-12 14:07:47.480300', 'mgs': 0, 'depth': 2.377, 'time': 3.4, 'pitch': -0.43, 'roll': 4.85}
{'lipoC2': 7.78, 'temp': 23.56, 'lipoC3S3': 11.6, 'rot1': 19, 'rot0': 19, 'rot3': 2, 'rot2': 3, 'state': 'normal', 'yaw': 0.23, 'datetime': '2018-10-12 14:07:47.577298', 'mgs': 0, 'depth': 2.988, 'time': 3.49, 'pitch': -0.5, 'roll': 5.75}
{'lipoC2': 7.77, 'temp': 23.56, 'lipoC3S3': 11.67, 'rot1': 20, 'rot0': 20, 'rot3': 2, 'rot2': 3, 'state': 'normal', 'yaw': 1.08, 'datetime': '2018-10-12 14:07:47.674291', 'mgs': 0, 'depth': 2.301, 'time': 3.59, 'pitch': -0.57, 'roll': 6.36}
{'lipoC2': 7.77, 'temp': 23.56, 'lipoC3S3': 11.58, 'rot1': 21, 'rot0': 21, 'rot3': 3, 'rot2': 4, 'state': 'normal', 'yaw': 2.02, 'datetime': '2018-10-12 14:07:47.775092', 'mgs': 0, 'depth': 2.454, 'time': 3.69, 'pitch': -0.62, 'roll': 6.62}
{'lipoC2': 7.78, 'temp': 23.56, 'lipoC3S3': 11.61, 'rot1': 22, 'rot0': 22, 'rot3': 3, 'rot2': 4, 'state': 'normal', 'yaw': 2.53, 'datetime': '2018-10-12 14:07:47.868596', 'mgs': 0, 'depth': 2.377, 'time': 3.79, 'pitch': -0.63, 'roll': 6.57}
{'lipoC2': 7.77, 'temp': 23.56, 'lipoC3S3': 11.69, 'rot1': 22, 'rot0': 23, 'rot3': 4, 'rot2': 5, 'state': 'normal', 'yaw': 2.61, 'datetime': '2018-10-12 14:07:47.965559', 'mgs': 0, 'depth': 3.064, 'time': 3.88, 'pitch': -0.57, 'roll': 6.34}
{'lipoC2': 7.77, 'temp': 23.56, 'lipoC3S3': 11.69, 'rot1': 23, 'rot0': 24, 'rot3': 4, 'rot2': 5, 'state': 'normal', 'yaw': 2.34, 'datetime': '2018-10-12 14:07:48.062578', 'mgs': 0, 'depth': 2.301, 'time': 3.98, 'pitch': -0.48, 'roll': 5.83}
{'lipoC2': 7.77, 'temp': 23.56, 'lipoC3S3': 11.71, 'rot1': 24, 'rot0': 25, 'rot3': 4, 'rot2': 5, 'state': 'normal', 'yaw': 1.83, 'datetime': '2018-10-12 14:07:48.159537', 'mgs': 0, 'depth': 2.301, 'time': 4.08, 'pitch': -0.43, 'roll': 5.05}
{'lipoC2': 7.77, 'temp': 23.56, 'lipoC3S3': 11.59, 'rot1': 25, 'rot0': 26, 'rot3': 4, 'rot2': 5, 'state': 'normal', 'yaw': 1.02, 'datetime': '2018-10-12 14:07:48.256558', 'mgs': 0, 'depth': 2.301, 'time': 4.18, 'pitch': -0.38, 'roll': 3.93}
{'lipoC2': 7.78, 'temp': 23.56, 'lipoC3S3': 11.68, 'rot1': 26, 'rot0': 28, 'rot3': 4, 'rot2': 5, 'state': 'normal', 'yaw': -0.02, 'datetime': '2018-10-12 14:07:48.353527', 'mgs': 0, 'depth': 2.377, 'time': 4.27, 'pitch': -0.45, 'roll': 2.86}
{'lipoC2': 7.77, 'temp': 23.56, 'lipoC3S3': 11.58, 'rot1': 26, 'rot0': 29, 'rot3': 4, 'rot2': 5, 'state': 'normal', 'yaw': -1.05, 'datetime': '2018-10-12 14:07:48.452034', 'mgs': 0, 'depth': 2.301, 'time': 4.37, 'pitch': -0.56, 'roll': 2.12}
{'lipoC2': 7.77, 'temp': 23.56, 'lipoC3S3': 11.69, 'rot1': 27, 'rot0': 30, 'rot3': 4, 'rot2': 5, 'state': 'normal', 'yaw': -2.28, 'datetime': '2018-10-12 14:07:48.550396', 'mgs': 0, 'depth': 2.301, 'time': 4.47, 'pitch': -0.73, 'roll': 1.56}
{'lipoC2': 7.77, 'temp': 23.56, 'lipoC3S3': 11.71, 'rot1': 28, 'rot0': 31, 'rot3': 4, 'rot2': 5, 'state': 'normal', 'yaw': -3.54, 'datetime': '2018-10-12 14:07:48.647362', 'mgs': 0, 'depth': 2.301, 'time': 4.57, 'pitch': -0.89, 'roll': 1.07}
{'lipoC2': 7.77, 'temp': 23.56, 'lipoC3S3': 11.61, 'rot1': 29, 'rot0': 31, 'rot3': 4, 'rot2': 5, 'state': 'normal', 'yaw': -4.36, 'datetime': '2018-10-12 14:07:48.744353', 'mgs': 0, 'depth': 2.301, 'time': 4.66, 'pitch': -1.0, 'roll': 0.63}
{'lipoC2': 7.77, 'temp': 23.56, 'lipoC3S3': 11.71, 'rot1': 30, 'rot0': 32, 'rot3': 4, 'rot2': 5, 'state': 'normal', 'yaw': -4.68, 'datetime': '2018-10-12 14:07:48.842759', 'mgs': 0, 'depth': 2.225, 'time': 4.76, 'pitch': -1.1, 'roll': 0.23}
{'lipoC2': 7.78, 'temp': 23.56, 'lipoC3S3': 11.68, 'rot1': 31, 'rot0': 33, 'rot3': 4, 'rot2': 5, 'state': 'normal', 'yaw': -4.67, 'datetime': '2018-10-12 14:07:48.941069', 'mgs': 0, 'depth': 2.301, 'time': 4.86, 'pitch': -1.24, 'roll': -0.31}
{'lipoC2': 7.77, 'temp': 23.56, 'lipoC3S3': 11.69, 'rot1': 32, 'rot0': 34, 'rot3': 4, 'rot2': 5, 'state': 'normal', 'yaw': -4.37, 'datetime': '2018-10-12 14:07:49.038035', 'mgs': 0, 'depth': 2.301, 'time': 4.96, 'pitch': -1.34, 'roll': -0.79}
{'lipoC2': 7.77, 'temp': 23.56, 'lipoC3S3': 11.69, 'rot1': 33, 'rot0': 35, 'rot3': 4, 'rot2': 5, 'state': 'normal', 'yaw': -3.8, 'datetime': '2018-10-12 14:07:49.135069', 'mgs': 0, 'depth': 2.454, 'time': 5.05, 'pitch': -1.45, 'roll': -1.07}
{'lipoC2': 7.77, 'temp': 23.56, 'lipoC3S3': 11.71, 'rot1': 34, 'rot0': 35, 'rot3': 4, 'rot2': 5, 'state': 'normal', 'yaw': -3.07, 'datetime': '2018-10-12 14:07:49.233335', 'mgs': 0, 'depth': 2.454, 'time': 5.15, 'pitch': -1.54, 'roll': -1.19}
{'lipoC2': 7.76, 'temp': 23.56, 'lipoC3S3': 11.68, 'rot1': 36, 'rot0': 36, 'rot3': 4, 'rot2': 5, 'state': 'normal', 'yaw': -2.07, 'datetime': '2018-10-12 14:07:49.330394', 'mgs': 0, 'depth': 2.988, 'time': 5.25, 'pitch': -1.59, 'roll': -1.13}
{'lipoC2': 7.77, 'temp': 23.56, 'lipoC3S3': 11.67, 'rot1': 37, 'rot0': 37, 'rot3': 4, 'rot2': 5, 'state': 'normal', 'yaw': -0.93, 'datetime': '2018-10-12 14:07:49.427292', 'mgs': 0, 'depth': 2.759, 'time': 5.35, 'pitch': -1.58, 'roll': -0.8}
{'lipoC2': 7.77, 'temp': 23.56, 'lipoC3S3': 11.55, 'rot1': 38, 'rot0': 38, 'rot3': 4, 'rot2': 5, 'state': 'normal', 'yaw': 0.29, 'datetime': '2018-10-12 14:07:49.524528', 'mgs': 0, 'depth': 2.454, 'time': 5.45, 'pitch': -1.57, 'roll': -0.24}
{'lipoC2': 7.78, 'temp': 23.56, 'lipoC3S3': 11.59, 'rot1': 39, 'rot0': 39, 'rot3': 4, 'rot2': 6, 'state': 'normal', 'yaw': 1.21, 'datetime': '2018-10-12 14:07:49.621552', 'mgs': 0, 'depth': 2.53, 'time': 5.54, 'pitch': -1.59, 'roll': 0.47}
{'lipoC2': 7.77, 'temp': 23.56, 'lipoC3S3': 11.67, 'rot1': 40, 'rot0': 40, 'rot3': 5, 'rot2': 6, 'state': 'normal', 'yaw': 2.0, 'datetime': '2018-10-12 14:07:49.718543', 'mgs': 0, 'depth': 3.293, 'time': 5.64, 'pitch': -1.64, 'roll': 1.42}
{'lipoC2': 7.77, 'temp': 23.56, 'lipoC3S3': 11.69, 'rot1': 41, 'rot0': 41, 'rot3': 5, 'rot2': 6, 'state': 'normal', 'yaw': 2.58, 'datetime': '2018-10-12 14:07:49.815544', 'mgs': 0, 'depth': 2.682, 'time': 5.74, 'pitch': -1.66, 'roll': 2.25}
{'lipoC2': 7.77, 'temp': 23.56, 'lipoC3S3': 11.73, 'rot1': 41, 'rot0': 42, 'rot3': 5, 'rot2': 6, 'state': 'normal', 'yaw': 2.79, 'datetime': '2018-10-12 14:07:49.912575', 'mgs': 0, 'depth': 2.759, 'time': 5.83, 'pitch': -1.66, 'roll': 2.69}
{'lipoC2': 7.77, 'temp': 23.56, 'lipoC3S3': 11.73, 'rot1': 41, 'rot0': 42, 'rot3': 5, 'rot2': 6, 'state': 'normal', 'yaw': 2.92, 'datetime': '2018-10-12 14:07:50.009511', 'mgs': 0, 'depth': 2.682, 'time': 5.93, 'pitch': -1.66, 'roll': 2.48}
{'lipoC2': 7.77, 'temp': 23.56, 'lipoC3S3': 11.6, 'rot1': 41, 'rot0': 42, 'rot3': 6, 'rot2': 6, 'state': 'normal', 'yaw': 3.02, 'datetime': '2018-10-12 14:07:50.106556', 'mgs': 0, 'depth': 2.835, 'time': 6.03, 'pitch': -1.67, 'roll': 1.74}
{'lipoC2': 7.78, 'temp': 23.56, 'lipoC3S3': 11.43, 'rot1': 42, 'rot0': 42, 'rot3': 6, 'rot2': 7, 'state': 'normal', 'yaw': 3.1, 'datetime': '2018-10-12 14:07:50.205125', 'mgs': 0, 'depth': 2.682, 'time': 6.13, 'pitch': -1.5, 'roll': 0.71}
{'lipoC2': 7.78, 'temp': 23.56, 'lipoC3S3': 11.58, 'rot1': 43, 'rot0': 44, 'rot3': 6, 'rot2': 7, 'state': 'normal', 'yaw': 2.74, 'datetime': '2018-10-12 14:07:50.304090', 'mgs': 0, 'depth': 3.598, 'time': 6.22, 'pitch': -1.24, 'roll': 0.13}
{'lipoC2': 7.77, 'temp': 23.56, 'lipoC3S3': 11.6, 'rot1': 44, 'rot0': 46, 'rot3': 7, 'rot2': 8, 'state': 'normal', 'yaw': 1.89, 'datetime': '2018-10-12 14:07:50.400473', 'mgs': 0, 'depth': 2.911, 'time': 6.32, 'pitch': -0.96, 'roll': 0.39}
{'lipoC2': 7.77, 'temp': 23.56, 'lipoC3S3': 11.44, 'rot1': 45, 'rot0': 47, 'rot3': 7, 'rot2': 9, 'state': 'normal', 'yaw': 0.66, 'datetime': '2018-10-12 14:07:50.497407', 'mgs': 0, 'depth': 2.759, 'time': 6.42, 'pitch': -0.77, 'roll': 1.05}
{'lipoC2': 7.78, 'temp': 23.56, 'lipoC3S3': 11.5, 'rot1': 46, 'rot0': 49, 'rot3': 8, 'rot2': 9, 'state': 'normal', 'yaw': -0.71, 'datetime': '2018-10-12 14:07:50.595604', 'mgs': 0, 'depth': 4.132, 'time': 6.52, 'pitch': -0.64, 'roll': 1.66}
{'lipoC2': 7.77, 'temp': 23.56, 'lipoC3S3': 11.5, 'rot1': 47, 'rot0': 50, 'rot3': 8, 'rot2': 10, 'state': 'normal', 'yaw': -2.42, 'datetime': '2018-10-12 14:07:50.694079', 'mgs': 0, 'depth': 2.911, 'time': 6.62, 'pitch': -0.55, 'roll': 2.15}
{'lipoC2': 7.77, 'temp': 23.56, 'lipoC3S3': 11.56, 'rot1': 48, 'rot0': 52, 'rot3': 9, 'rot2': 10, 'state': 'normal', 'yaw': -4.26, 'datetime': '2018-10-12 14:07:50.791350', 'mgs': 0, 'depth': 3.064, 'time': 6.71, 'pitch': -0.47, 'roll': 2.57}
{'lipoC2': 7.77, 'temp': 23.25, 'lipoC3S3': 11.6, 'rot1': 50, 'rot0': 53, 'rot3': 9, 'rot2': 11, 'state': 'normal', 'yaw': -5.59, 'datetime': '2018-10-12 14:07:50.888463', 'mgs': 0, 'depth': 2.835, 'time': 6.81, 'pitch': -0.41, 'roll': 2.97}
{'lipoC2': 7.77, 'temp': 23.25, 'lipoC3S3': 11.51, 'rot1': 51, 'rot0': 54, 'rot3': 10, 'rot2': 12, 'state': 'normal', 'yaw': -6.29, 'datetime': '2018-10-12 14:07:50.986535', 'mgs': 0, 'depth': 2.682, 'time': 6.91, 'pitch': -0.37, 'roll': 3.39}
{'lipoC2': 7.77, 'temp': 23.25, 'lipoC3S3': 11.56, 'rot1': 53, 'rot0': 55, 'rot3': 10, 'rot2': 12, 'state': 'normal', 'yaw': -6.57, 'datetime': '2018-10-12 14:07:51.083947', 'mgs': 0, 'depth': 3.903, 'time': 7.01, 'pitch': -0.23, 'roll': 3.9}
{'lipoC2': 7.78, 'temp': 24.0, 'lipoC3S3': 11.44, 'rot1': 54, 'rot0': 56, 'rot3': 11, 'rot2': 13, 'state': 'normal', 'yaw': -6.52, 'datetime': '2018-10-12 14:07:51.181300', 'mgs': 0, 'depth': 3.217, 'time': 7.1, 'pitch': -0.01, 'roll': 4.44}
{'lipoC2': 7.77, 'temp': 24.0, 'lipoC3S3': 11.59, 'rot1': 55, 'rot0': 58, 'rot3': 11, 'rot2': 13, 'state': 'normal', 'yaw': -6.21, 'datetime': '2018-10-12 14:07:51.278658', 'mgs': 0, 'depth': 3.674, 'time': 7.2, 'pitch': 0.36, 'roll': 4.95}
{'lipoC2': 7.78, 'temp': 23.56, 'lipoC3S3': 11.55, 'rot1': 57, 'rot0': 59, 'rot3': 12, 'rot2': 14, 'state': 'normal', 'yaw': -5.79, 'datetime': '2018-10-12 14:07:51.376108', 'mgs': 0, 'depth': 4.285, 'time': 7.3, 'pitch': 0.76, 'roll': 5.37}
{'lipoC2': 7.77, 'temp': 23.56, 'lipoC3S3': 11.48, 'rot1': 58, 'rot0': 60, 'rot3': 12, 'rot2': 15, 'state': 'normal', 'yaw': -5.16, 'datetime': '2018-10-12 14:07:51.473465', 'mgs': 0, 'depth': 3.445, 'time': 7.4, 'pitch': 1.2, 'roll': 5.75}
{'lipoC2': 7.77, 'temp': 23.56, 'lipoC3S3': 11.58, 'rot1': 60, 'rot0': 61, 'rot3': 13, 'rot2': 15, 'state': 'normal', 'yaw': -4.42, 'datetime': '2018-10-12 14:07:51.570921', 'mgs': 0, 'depth': 4.361, 'time': 7.49, 'pitch': 1.55, 'roll': 6.05}
{'lipoC2': 7.78, 'temp': 23.56, 'lipoC3S3': 11.54, 'rot1': 61, 'rot0': 62, 'rot3': 13, 'rot2': 16, 'state': 'normal', 'yaw': -3.69, 'datetime': '2018-10-12 14:07:51.668491', 'mgs': 0, 'depth': 4.666, 'time': 7.59, 'pitch': 1.77, 'roll': 6.23}
{'lipoC2': 7.77, 'temp': 23.56, 'lipoC3S3': 11.51, 'rot1': 63, 'rot0': 64, 'rot3': 14, 'rot2': 16, 'state': 'normal', 'yaw': -2.85, 'datetime': '2018-10-12 14:07:51.765977', 'mgs': 0, 'depth': 3.598, 'time': 7.69, 'pitch': 1.95, 'roll': 6.25}
{'lipoC2': 7.77, 'temp': 23.56, 'lipoC3S3': 11.59, 'rot1': 64, 'rot0': 65, 'rot3': 14, 'rot2': 17, 'state': 'normal', 'yaw': -1.97, 'datetime': '2018-10-12 14:07:51.863332', 'mgs': 0, 'depth': 3.827, 'time': 7.79, 'pitch': 2.1, 'roll': 6.08}
{'lipoC2': 7.77, 'temp': 23.56, 'lipoC3S3': 11.54, 'rot1': 66, 'rot0': 66, 'rot3': 15, 'rot2': 18, 'state': 'normal', 'yaw': -1.04, 'datetime': '2018-10-12 14:07:51.960766', 'mgs': 0, 'depth': 4.437, 'time': 7.88, 'pitch': 2.23, 'roll': 5.76}
{'lipoC2': 7.77, 'temp': 23.56, 'lipoC3S3': 11.5, 'rot1': 67, 'rot0': 67, 'rot3': 15, 'rot2': 18, 'state': 'normal', 'yaw': -0.13, 'datetime': '2018-10-12 14:07:52.059013', 'mgs': 0, 'depth': 3.674, 'time': 7.98, 'pitch': 2.3, 'roll': 5.4}
{'lipoC2': 7.77, 'temp': 23.56, 'lipoC3S3': 11.5, 'rot1': 68, 'rot0': 69, 'rot3': 16, 'rot2': 19, 'state': 'normal', 'yaw': 1.0, 'datetime': '2018-10-12 14:07:52.157738', 'mgs': 0, 'depth': 3.674, 'time': 8.08, 'pitch': 2.37, 'roll': 4.99}
{'lipoC2': 7.77, 'temp': 23.56, 'lipoC3S3': 11.47, 'rot1': 70, 'rot0': 70, 'rot3': 16, 'rot2': 19, 'state': 'normal', 'yaw': 2.2, 'datetime': '2018-10-12 14:07:52.256535', 'mgs': 0, 'depth': 3.674, 'time': 8.18, 'pitch': 2.43, 'roll': 4.62}
{'lipoC2': 7.77, 'temp': 23.56, 'lipoC3S3': 11.56, 'rot1': 71, 'rot0': 72, 'rot3': 17, 'rot2': 20, 'state': 'normal', 'yaw': 3.17, 'datetime': '2018-10-12 14:07:52.354010', 'mgs': 0, 'depth': 3.369, 'time': 8.28, 'pitch': 2.51, 'roll': 4.4}
{'lipoC2': 7.78, 'temp': 23.56, 'lipoC3S3': 11.26, 'rot1': 73, 'rot0': 74, 'rot3': 17, 'rot2': 21, 'state': 'normal', 'yaw': 3.84, 'datetime': '2018-10-12 14:07:52.451371', 'mgs': 0, 'depth': 4.285, 'time': 8.38, 'pitch': 2.56, 'roll': 4.34}
{'lipoC2': 7.77, 'temp': 23.56, 'lipoC3S3': 11.58, 'rot1': 74, 'rot0': 75, 'rot3': 18, 'rot2': 21, 'state': 'normal', 'yaw': 4.25, 'datetime': '2018-10-12 14:07:52.549559', 'mgs': 0, 'depth': 4.132, 'time': 8.47, 'pitch': 2.57, 'roll': 4.38}
{'lipoC2': 7.77, 'temp': 23.56, 'lipoC3S3': 11.56, 'rot1': 75, 'rot0': 77, 'rot3': 18, 'rot2': 22, 'state': 'normal', 'yaw': 4.23, 'datetime': '2018-10-12 14:07:52.648252', 'mgs': 0, 'depth': 4.056, 'time': 8.57, 'pitch': 2.55, 'roll': 4.43}
{'lipoC2': 7.78, 'temp': 23.56, 'lipoC3S3': 11.5, 'rot1': 76, 'rot0': 78, 'rot3': 19, 'rot2': 22, 'state': 'normal', 'yaw': 3.76, 'datetime': '2018-10-12 14:07:52.746583', 'mgs': 0, 'depth': 4.666, 'time': 8.67, 'pitch': 2.44, 'roll': 4.47}
{'lipoC2': 7.77, 'temp': 23.56, 'lipoC3S3': 11.43, 'rot1': 77, 'rot0': 80, 'rot3': 19, 'rot2': 23, 'state': 'normal', 'yaw': 2.94, 'datetime': '2018-10-12 14:07:52.844010', 'mgs': 0, 'depth': 3.903, 'time': 8.77, 'pitch': 2.31, 'roll': 4.6}
{'lipoC2': 7.76, 'temp': 23.56, 'lipoC3S3': 11.56, 'rot1': 78, 'rot0': 81, 'rot3': 20, 'rot2': 24, 'state': 'normal', 'yaw': 1.85, 'datetime': '2018-10-12 14:07:52.941443', 'mgs': 0, 'depth': 4.819, 'time': 8.86, 'pitch': 2.2, 'roll': 4.77}
{'lipoC2': 7.77, 'temp': 23.56, 'lipoC3S3': 11.56, 'rot1': 80, 'rot0': 83, 'rot3': 20, 'rot2': 24, 'state': 'normal', 'yaw': 0.66, 'datetime': '2018-10-12 14:07:53.040029', 'mgs': 0, 'depth': 4.895, 'time': 8.96, 'pitch': 2.05, 'roll': 5.01}
{'lipoC2': 7.78, 'temp': 23.56, 'lipoC3S3': 11.51, 'rot1': 81, 'rot0': 85, 'rot3': 21, 'rot2': 25, 'state': 'normal', 'yaw': -0.8, 'datetime': '2018-10-12 14:07:53.137440', 'mgs': 0, 'depth': 3.979, 'time': 9.06, 'pitch': 1.82, 'roll': 5.42}
{'lipoC2': 7.77, 'temp': 23.56, 'lipoC3S3': 11.64, 'rot1': 81, 'rot0': 85, 'rot3': 21, 'rot2': 25, 'state': 'normal', 'yaw': -2.09, 'datetime': '2018-10-12 14:07:57.191969', 'mgs': 0, 'depth': 3.751, 'time': 9.16, 'pitch': 1.56, 'roll': 5.87}
{'lipoC2': 7.77, 'temp': 23.44, 'lipoC3S3': 11.59, 'rot1': 81, 'rot0': 85, 'rot3': 21, 'rot2': 25, 'state': 'normal', 'yaw': -3.21, 'datetime': '2018-10-12 14:07:57.209908', 'mgs': 0, 'depth': 4.285, 'time': 9.26, 'pitch': 1.22, 'roll': 5.69}
{'lipoC2': 7.77, 'temp': 23.44, 'lipoC3S3': 11.64, 'rot1': 81, 'rot0': 85, 'rot3': 22, 'rot2': 26, 'state': 'normal', 'yaw': -4.07, 'datetime': '2018-10-12 14:07:57.241982', 'mgs': 0, 'depth': 4.056, 'time': 9.35, 'pitch': 0.79, 'roll': 5.07}
{'lipoC2': 7.77, 'temp': 23.56, 'lipoC3S3': 11.65, 'rot1': 81, 'rot0': 85, 'rot3': 22, 'rot2': 27, 'state': 'normal', 'yaw': -4.94, 'datetime': '2018-10-12 14:07:57.251505', 'mgs': 0, 'depth': 4.208, 'time': 9.45, 'pitch': 0.26, 'roll': 4.07}
{'lipoC2': 7.77, 'temp': 23.56, 'lipoC3S3': 11.61, 'rot1': 81, 'rot0': 85, 'rot3': 23, 'rot2': 27, 'state': 'normal', 'yaw': -5.77, 'datetime': '2018-10-12 14:07:57.271036', 'mgs': 0, 'depth': 3.979, 'time': 9.55, 'pitch': -0.23, 'roll': 2.89}
{'lipoC2': 7.77, 'temp': 23.56, 'lipoC3S3': 11.65, 'rot1': 81, 'rot0': 85, 'rot3': 23, 'rot2': 28, 'state': 'normal', 'yaw': -6.44, 'datetime': '2018-10-12 14:07:57.278884', 'mgs': 0, 'depth': 3.903, 'time': 9.65, 'pitch': -0.67, 'roll': 1.73}
{'lipoC2': 7.77, 'temp': 23.56, 'lipoC3S3': 11.65, 'rot1': 81, 'rot0': 85, 'rot3': 24, 'rot2': 28, 'state': 'normal', 'yaw': -7.08, 'datetime': '2018-10-12 14:07:57.298058', 'mgs': 0, 'depth': 4.132, 'time': 9.74, 'pitch': -1.06, 'roll': 0.41}
{'lipoC2': 7.77, 'temp': 23.56, 'lipoC3S3': 11.63, 'rot1': 81, 'rot0': 85, 'rot3': 24, 'rot2': 29, 'state': 'normal', 'yaw': -7.64, 'datetime': '2018-10-12 14:07:57.305903', 'mgs': 0, 'depth': 3.827, 'time': 9.84, 'pitch': -1.31, 'roll': -0.86}
{'lipoC2': 7.77, 'temp': 23.56, 'lipoC3S3': 11.67, 'rot1': 81, 'rot0': 85, 'rot3': 24, 'rot2': 30, 'state': 'normal', 'yaw': -8.12, 'datetime': '2018-10-12 14:07:57.325096', 'mgs': 0, 'depth': 3.751, 'time': 9.94, 'pitch': -1.48, 'roll': -2.02}
{'lipoC2': 7.77, 'temp': 23.56, 'lipoC3S3': 11.61, 'rot1': 81, 'rot0': 85, 'rot3': 25, 'rot2': 30, 'state': 'normal', 'yaw': -8.51, 'datetime': '2018-10-12 14:07:57.332923', 'mgs': 0, 'depth': 3.751, 'time': 10.04, 'pitch': -1.58, 'roll': -2.94}
{'lipoC2': 7.78, 'temp': 23.56, 'lipoC3S3': 11.63, 'rot1': 81, 'rot0': 85, 'rot3': 25, 'rot2': 31, 'state': 'normal', 'yaw': -8.9, 'datetime': '2018-10-12 14:07:57.352154', 'mgs': 0, 'depth': 3.674, 'time': 10.14, 'pitch': -1.65, 'roll': -3.79}
{'lipoC2': 7.77, 'temp': 23.63, 'lipoC3S3': 11.65, 'rot1': 81, 'rot0': 85, 'rot3': 26, 'rot2': 32, 'state': 'normal', 'yaw': -9.27, 'datetime': '2018-10-12 14:07:57.359938', 'mgs': 0, 'depth': 3.903, 'time': 10.23, 'pitch': -1.7, 'roll': -4.45}
{'lipoC2': 7.77, 'temp': 23.63, 'lipoC3S3': 11.61, 'rot1': 81, 'rot0': 85, 'rot3': 26, 'rot2': 32, 'state': 'normal', 'yaw': -9.63, 'datetime': '2018-10-12 14:07:57.379108', 'mgs': 0, 'depth': 3.598, 'time': 10.33, 'pitch': -1.76, 'roll': -4.97}
{'lipoC2': 7.77, 'temp': 23.56, 'lipoC3S3': 11.65, 'rot1': 81, 'rot0': 85, 'rot3': 27, 'rot2': 33, 'state': 'normal', 'yaw': -10.01, 'datetime': '2018-10-12 14:07:57.386947', 'mgs': 0, 'depth': 3.445, 'time': 10.43, 'pitch': -1.79, 'roll': -5.37}
{'lipoC2': 7.77, 'temp': 23.56, 'lipoC3S3': 11.67, 'rot1': 81, 'rot0': 85, 'rot3': 27, 'rot2': 33, 'state': 'normal', 'yaw': -10.35, 'datetime': '2018-10-12 14:07:57.406166', 'mgs': 0, 'depth': 3.674, 'time': 10.53, 'pitch': -1.82, 'roll': -5.57}
{'lipoC2': 7.77, 'temp': 23.56, 'lipoC3S3': 11.67, 'rot1': 81, 'rot0': 85, 'rot3': 28, 'rot2': 34, 'state': 'normal', 'yaw': -10.73, 'datetime': '2018-10-12 14:07:57.414010', 'mgs': 0, 'depth': 3.674, 'time': 10.63, 'pitch': -1.85, 'roll': -5.59}
{'lipoC2': 7.77, 'temp': 23.63, 'lipoC3S3': 11.67, 'rot1': 81, 'rot0': 85, 'rot3': 28, 'rot2': 35, 'state': 'normal', 'yaw': -11.07, 'datetime': '2018-10-12 14:07:57.433171', 'mgs': 0, 'depth': 3.598, 'time': 10.73, 'pitch': -1.82, 'roll': -5.38}
{'lipoC2': 7.77, 'temp': 23.63, 'lipoC3S3': 11.61, 'rot1': 81, 'rot0': 85, 'rot3': 28, 'rot2': 35, 'state': 'normal', 'yaw': -11.39, 'datetime': '2018-10-12 14:07:57.441168', 'mgs': 0, 'depth': 3.369, 'time': 10.82, 'pitch': -1.77, 'roll': -5.03}
{'lipoC2': 7.77, 'temp': 23.56, 'lipoC3S3': 11.63, 'rot1': 81, 'rot0': 85, 'rot3': 29, 'rot2': 36, 'state': 'normal', 'yaw': -11.7, 'datetime': '2018-10-12 14:07:57.460382', 'mgs': 0, 'depth': 2.911, 'time': 10.92, 'pitch': -1.75, 'roll': -4.63}
{'lipoC2': 7.77, 'temp': 23.56, 'lipoC3S3': 11.63, 'rot1': 81, 'rot0': 85, 'rot3': 29, 'rot2': 36, 'state': 'normal', 'yaw': -11.98, 'datetime': '2018-10-12 14:07:57.468218', 'mgs': 0, 'depth': 2.988, 'time': 11.02, 'pitch': -1.77, 'roll': -4.28}
{'lipoC2': 7.77, 'temp': 23.56, 'lipoC3S3': 11.67, 'rot1': 81, 'rot0': 85, 'rot3': 30, 'rot2': 37, 'state': 'normal', 'yaw': -12.27, 'datetime': '2018-10-12 14:07:57.487591', 'mgs': 0, 'depth': 2.988, 'time': 11.11, 'pitch': -1.79, 'roll': -3.91}
{'lipoC2': 7.77, 'temp': 23.69, 'lipoC3S3': 11.65, 'rot1': 81, 'rot0': 85, 'rot3': 30, 'rot2': 38, 'state': 'normal', 'yaw': -12.53, 'datetime': '2018-10-12 14:07:57.495435', 'mgs': 0, 'depth': 3.064, 'time': 11.21, 'pitch': -1.79, 'roll': -3.48}
{'lipoC2': 7.77, 'temp': 23.69, 'lipoC3S3': 11.61, 'rot1': 81, 'rot0': 85, 'rot3': 31, 'rot2': 38, 'state': 'normal', 'yaw': -12.75, 'datetime': '2018-10-12 14:07:57.514623', 'mgs': 0, 'depth': 2.911, 'time': 11.31, 'pitch': -1.76, 'roll': -3.04}
{'lipoC2': 7.77, 'temp': 23.56, 'lipoC3S3': 11.67, 'rot1': 81, 'rot0': 85, 'rot3': 31, 'rot2': 39, 'state': 'normal', 'yaw': -13.01, 'datetime': '2018-10-12 14:07:57.522286', 'mgs': 0, 'depth': 2.759, 'time': 11.41, 'pitch': -1.67, 'roll': -2.59}
{'lipoC2': 7.77, 'temp': 23.56, 'lipoC3S3': 11.67, 'rot1': 81, 'rot0': 85, 'rot3': 31, 'rot2': 39, 'state': 'normal', 'yaw': -13.25, 'datetime': '2018-10-12 14:07:57.541256', 'mgs': 0, 'depth': 2.988, 'time': 11.51, 'pitch': -1.57, 'roll': -2.24}
{'lipoC2': 7.77, 'temp': 23.56, 'lipoC3S3': 11.63, 'rot1': 81, 'rot0': 85, 'rot3': 32, 'rot2': 40, 'state': 'normal', 'yaw': -13.46, 'datetime': '2018-10-12 14:07:57.548622', 'mgs': 0, 'depth': 2.606, 'time': 11.6, 'pitch': -1.49, 'roll': -2.01}
{'lipoC2': 7.77, 'temp': 23.56, 'lipoC3S3': 11.67, 'rot1': 81, 'rot0': 85, 'rot3': 32, 'rot2': 41, 'state': 'normal', 'yaw': -13.61, 'datetime': '2018-10-12 14:07:57.567357', 'mgs': 0, 'depth': 2.53, 'time': 11.7, 'pitch': -1.44, 'roll': -1.83}
{'lipoC2': 7.77, 'temp': 23.56, 'lipoC3S3': 11.65, 'rot1': 81, 'rot0': 85, 'rot3': 33, 'rot2': 41, 'state': 'normal', 'yaw': -13.77, 'datetime': '2018-10-12 14:07:57.574761', 'mgs': 0, 'depth': 2.682, 'time': 11.8, 'pitch': -1.44, 'roll': -1.59}
{'lipoC2': 7.77, 'temp': 23.56, 'lipoC3S3': 11.64, 'rot1': 81, 'rot0': 85, 'rot3': 33, 'rot2': 42, 'state': 'normal', 'yaw': -13.92, 'datetime': '2018-10-12 14:07:57.593516', 'mgs': 0, 'depth': 2.377, 'time': 11.9, 'pitch': -1.44, 'roll': -1.29}
{'lipoC2': 7.77, 'temp': 23.56, 'lipoC3S3': 11.68, 'rot1': 81, 'rot0': 85, 'rot3': 34, 'rot2': 43, 'state': 'normal', 'yaw': -14.08, 'datetime': '2018-10-12 14:07:57.600917', 'mgs': 0, 'depth': 2.301, 'time': 11.99, 'pitch': -1.41, 'roll': -0.93}
{'lipoC2': 7.77, 'temp': 23.56, 'lipoC3S3': 11.67, 'rot1': 81, 'rot0': 85, 'rot3': 34, 'rot2': 43, 'state': 'normal', 'yaw': -14.23, 'datetime': '2018-10-12 14:07:57.619622', 'mgs': 0, 'depth': 2.148, 'time': 12.09, 'pitch': -1.28, 'roll': -0.65}
{'lipoC2': 7.77, 'temp': 23.56, 'lipoC3S3': 11.67, 'rot1': 81, 'rot0': 85, 'rot3': 35, 'rot2': 44, 'state': 'normal', 'yaw': -14.38, 'datetime': '2018-10-12 14:07:57.626981', 'mgs': 0, 'depth': 2.454, 'time': 12.19, 'pitch': -1.04, 'roll': -0.48}
{'lipoC2': 7.77, 'temp': 23.56, 'lipoC3S3': 11.61, 'rot1': 81, 'rot0': 85, 'rot3': 35, 'rot2': 44, 'state': 'normal', 'yaw': -14.51, 'datetime': '2018-10-12 14:07:57.645641', 'mgs': 0, 'depth': 2.301, 'time': 12.29, 'pitch': -0.77, 'roll': -0.59}
{'lipoC2': 7.77, 'temp': 23.56, 'lipoC3S3': 11.65, 'rot1': 81, 'rot0': 85, 'rot3': 36, 'rot2': 45, 'state': 'normal', 'yaw': -14.61, 'datetime': '2018-10-12 14:07:57.652966', 'mgs': 0, 'depth': 1.996, 'time': 12.39, 'pitch': -0.55, 'roll': -1.02}
{'lipoC2': 7.78, 'temp': 23.56, 'lipoC3S3': 11.64, 'rot1': 81, 'rot0': 85, 'rot3': 36, 'rot2': 46, 'state': 'normal', 'yaw': -14.75, 'datetime': '2018-10-12 14:07:57.671590', 'mgs': 0, 'depth': 2.148, 'time': 12.48, 'pitch': -0.49, 'roll': -1.72}
{'lipoC2': 7.77, 'temp': 23.56, 'lipoC3S3': 11.64, 'rot1': 81, 'rot0': 85, 'rot3': 37, 'rot2': 46, 'state': 'normal', 'yaw': -14.94, 'datetime': '2018-10-12 14:07:57.678877', 'mgs': 0, 'depth': 2.072, 'time': 12.58, 'pitch': -0.59, 'roll': -2.6}
{'lipoC2': 7.77, 'temp': 23.56, 'lipoC3S3': 11.65, 'rot1': 81, 'rot0': 85, 'rot3': 37, 'rot2': 47, 'state': 'normal', 'yaw': -15.09, 'datetime': '2018-10-12 14:07:57.697487', 'mgs': 0, 'depth': 1.92, 'time': 12.68, 'pitch': -0.8, 'roll': -3.29}
{'lipoC2': 7.77, 'temp': 23.56, 'lipoC3S3': 11.67, 'rot1': 81, 'rot0': 85, 'rot3': 37, 'rot2': 48, 'state': 'normal', 'yaw': -15.19, 'datetime': '2018-10-12 14:07:57.704989', 'mgs': 0, 'depth': 2.225, 'time': 12.78, 'pitch': -1.03, 'roll': -3.67}
{'lipoC2': 7.77, 'temp': 23.56, 'lipoC3S3': 11.64, 'rot1': 81, 'rot0': 85, 'rot3': 38, 'rot2': 48, 'state': 'normal', 'yaw': -15.32, 'datetime': '2018-10-12 14:07:57.723691', 'mgs': 0, 'depth': 1.996, 'time': 12.88, 'pitch': -1.2, 'roll': -3.77}
{'lipoC2': 7.77, 'temp': 23.56, 'lipoC3S3': 11.67, 'rot1': 81, 'rot0': 85, 'rot3': 38, 'rot2': 49, 'state': 'normal', 'yaw': -15.49, 'datetime': '2018-10-12 14:07:57.731025', 'mgs': 0, 'depth': 1.996, 'time': 12.98, 'pitch': -1.27, 'roll': -3.76}
{'lipoC2': 7.77, 'temp': 23.56, 'lipoC3S3': 11.68, 'rot1': 81, 'rot0': 85, 'rot3': 39, 'rot2': 50, 'state': 'normal', 'yaw': -15.67, 'datetime': '2018-10-12 14:07:57.749634', 'mgs': 0, 'depth': 1.92, 'time': 13.07, 'pitch': -1.29, 'roll': -3.75}
{'lipoC2': 7.78, 'temp': 23.56, 'lipoC3S3': 11.65, 'rot1': 81, 'rot0': 85, 'rot3': 39, 'rot2': 50, 'state': 'normal', 'yaw': -15.87, 'datetime': '2018-10-12 14:07:57.757011', 'mgs': 0, 'depth': 2.301, 'time': 13.17, 'pitch': -1.3, 'roll': -3.84}
{'lipoC2': 7.78, 'temp': 23.56, 'lipoC3S3': 11.61, 'rot1': 82, 'rot0': 86, 'rot3': 40, 'rot2': 51, 'state': 'normal', 'yaw': -15.91, 'datetime': '2018-10-12 14:07:57.775703', 'mgs': 0, 'depth': 1.996, 'time': 13.27, 'pitch': -1.23, 'roll': -4.03}
{'lipoC2': 7.77, 'temp': 23.63, 'lipoC3S3': 11.67, 'rot1': 83, 'rot0': 87, 'rot3': 40, 'rot2': 51, 'state': 'normal', 'yaw': -15.39, 'datetime': '2018-10-12 14:07:57.783061', 'mgs': 0, 'depth': 2.072, 'time': 13.36, 'pitch': -1.0, 'roll': -4.12}
{'lipoC2': 7.77, 'temp': 23.63, 'lipoC3S3': 11.65, 'rot1': 84, 'rot0': 88, 'rot3': 41, 'rot2': 52, 'state': 'normal', 'yaw': -14.3, 'datetime': '2018-10-12 14:07:57.801748', 'mgs': 0, 'depth': 2.072, 'time': 13.46, 'pitch': -0.65, 'roll': -3.96}
{'lipoC2': 7.77, 'temp': 23.63, 'lipoC3S3': 11.65, 'rot1': 84, 'rot0': 89, 'rot3': 41, 'rot2': 52, 'state': 'normal', 'yaw': -12.72, 'datetime': '2018-10-12 14:07:57.809047', 'mgs': 0, 'depth': 1.996, 'time': 13.56, 'pitch': -0.24, 'roll': -3.58}
{'lipoC2': 7.77, 'temp': 23.5, 'lipoC3S3': 11.69, 'rot1': 85, 'rot0': 89, 'rot3': 41, 'rot2': 53, 'state': 'normal', 'yaw': -10.94, 'datetime': '2018-10-12 14:07:57.827701', 'mgs': 0, 'depth': 1.92, 'time': 13.66, 'pitch': 0.11, 'roll': -3.17}
{'lipoC2': 7.78, 'temp': 23.5, 'lipoC3S3': 11.68, 'rot1': 86, 'rot0': 90, 'rot3': 41, 'rot2': 53, 'state': 'normal', 'yaw': -8.59, 'datetime': '2018-10-12 14:07:57.835046', 'mgs': 0, 'depth': 2.301, 'time': 13.76, 'pitch': 0.49, 'roll': -2.72}
{'lipoC2': 7.77, 'temp': 23.56, 'lipoC3S3': 11.67, 'rot1': 87, 'rot0': 91, 'rot3': 41, 'rot2': 53, 'state': 'normal', 'yaw': -5.86, 'datetime': '2018-10-12 14:07:57.922843', 'mgs': 0, 'depth': 1.996, 'time': 13.85, 'pitch': 0.8, 'roll': -2.36}
{'lipoC2': 7.76, 'temp': 23.56, 'lipoC3S3': 11.68, 'rot1': 88, 'rot0': 92, 'rot3': 41, 'rot2': 53, 'state': 'normal', 'yaw': -2.81, 'datetime': '2018-10-12 14:07:58.020259', 'mgs': 0, 'depth': 2.148, 'time': 13.95, 'pitch': 1.04, 'roll': -2.19}
{'lipoC2': 7.76, 'temp': 23.56, 'lipoC3S3': 11.59, 'rot1': 89, 'rot0': 93, 'rot3': 41, 'rot2': 53, 'state': 'normal', 'yaw': 0.16, 'datetime': '2018-10-12 14:07:58.118446', 'mgs': 0, 'depth': 2.148, 'time': 14.05, 'pitch': 1.21, 'roll': -2.27}
{'lipoC2': 7.77, 'temp': 23.56, 'lipoC3S3': 11.61, 'rot1': 89, 'rot0': 94, 'rot3': 41, 'rot2': 53, 'state': 'normal', 'yaw': 3.7, 'datetime': '2018-10-12 14:07:58.217129', 'mgs': 0, 'depth': 2.072, 'time': 14.15, 'pitch': 1.36, 'roll': -2.52}
{'lipoC2': 7.77, 'temp': 23.56, 'lipoC3S3': 11.69, 'rot1': 90, 'rot0': 94, 'rot3': 41, 'rot2': 53, 'state': 'normal', 'yaw': 7.48, 'datetime': '2018-10-12 14:07:58.315505', 'mgs': 0, 'depth': 2.072, 'time': 14.24, 'pitch': 1.55, 'roll': -2.76}
{'lipoC2': 7.77, 'temp': 23.56, 'lipoC3S3': 11.68, 'rot1': 91, 'rot0': 95, 'rot3': 41, 'rot2': 53, 'state': 'normal', 'yaw': 11.48, 'datetime': '2018-10-12 14:07:58.412825', 'mgs': 0, 'depth': 2.225, 'time': 14.34, 'pitch': 1.81, 'roll': -2.9}
{'lipoC2': 7.77, 'temp': 23.56, 'lipoC3S3': 11.69, 'rot1': 92, 'rot0': 96, 'rot3': 41, 'rot2': 53, 'state': 'normal', 'yaw': 15.68, 'datetime': '2018-10-12 14:07:58.510301', 'mgs': 0, 'depth': 2.148, 'time': 14.44, 'pitch': 2.06, 'roll': -2.89}
{'lipoC2': 7.77, 'temp': 23.63, 'lipoC3S3': 11.69, 'rot1': 93, 'rot0': 97, 'rot3': 41, 'rot2': 53, 'state': 'normal', 'yaw': 19.6, 'datetime': '2018-10-12 14:07:58.608819', 'mgs': 0, 'depth': 2.148, 'time': 14.54, 'pitch': 2.24, 'roll': -2.84}
{'lipoC2': 7.77, 'temp': 23.63, 'lipoC3S3': 11.69, 'rot1': 94, 'rot0': 98, 'rot3': 41, 'rot2': 53, 'state': 'normal', 'yaw': 24.07, 'datetime': '2018-10-12 14:07:58.707518', 'mgs': 0, 'depth': 2.148, 'time': 14.64, 'pitch': 2.45, 'roll': -2.85}
{'lipoC2': 7.77, 'temp': 23.63, 'lipoC3S3': 11.68, 'rot1': 95, 'rot0': 98, 'rot3': 41, 'rot2': 53, 'state': 'normal', 'yaw': 28.65, 'datetime': '2018-10-12 14:07:58.805568', 'mgs': 0, 'depth': 2.606, 'time': 14.74, 'pitch': 2.64, 'roll': -2.98}
{'lipoC2': 7.76, 'temp': 23.56, 'lipoC3S3': 11.58, 'rot1': 95, 'rot0': 99, 'rot3': 42, 'rot2': 53, 'state': 'normal', 'yaw': 33.35, 'datetime': '2018-10-12 14:07:58.906955', 'mgs': 0, 'depth': 2.225, 'time': 14.83, 'pitch': 2.73, 'roll': -3.25}
{'lipoC2': 7.77, 'temp': 23.56, 'lipoC3S3': 11.64, 'rot1': 96, 'rot0': 100, 'rot3': 42, 'rot2': 53, 'state': 'normal', 'yaw': 38.11, 'datetime': '2018-10-12 14:07:59.005323', 'mgs': 0, 'depth': 2.225, 'time': 14.93, 'pitch': 2.68, 'roll': -3.41}
{'lipoC2': 7.77, 'temp': 23.63, 'lipoC3S3': 11.69, 'rot1': 97, 'rot0': 101, 'rot3': 42, 'rot2': 54, 'state': 'normal', 'yaw': 42.43, 'datetime': '2018-10-12 14:07:59.102886', 'mgs': 0, 'depth': 2.301, 'time': 15.03, 'pitch': 2.55, 'roll': -3.36}
{'lipoC2': 7.77, 'temp': 23.63, 'lipoC3S3': 11.69, 'rot1': 98, 'rot0': 102, 'rot3': 42, 'rot2': 54, 'state': 'normal', 'yaw': 47.24, 'datetime': '2018-10-12 14:07:59.200314', 'mgs': 0, 'depth': 2.911, 'time': 15.13, 'pitch': 2.42, 'roll': -3.27}
{'lipoC2': 7.77, 'temp': 23.63, 'lipoC3S3': 11.6, 'rot1': 99, 'rot0': 102, 'rot3': 42, 'rot2': 54, 'state': 'normal', 'yaw': 52.09, 'datetime': '2018-10-12 14:07:59.298104', 'mgs': 0, 'depth': 2.301, 'time': 15.22, 'pitch': 2.3, 'roll': -3.2}
{'lipoC2': 7.77, 'temp': 23.56, 'lipoC3S3': 11.63, 'rot1': 100, 'rot0': 103, 'rot3': 43, 'rot2': 54, 'state': 'normal', 'yaw': 56.51, 'datetime': '2018-10-12 14:07:59.395609', 'mgs': 0, 'depth': 2.301, 'time': 15.32, 'pitch': 2.12, 'roll': -3.12}
{'lipoC2': 7.77, 'temp': 23.56, 'lipoC3S3': 11.67, 'rot1': 100, 'rot0': 104, 'rot3': 43, 'rot2': 55, 'state': 'normal', 'yaw': 61.46, 'datetime': '2018-10-12 14:07:59.493379', 'mgs': 0, 'depth': 2.377, 'time': 15.42, 'pitch': 1.86, 'roll': -2.96}
{'lipoC2': 7.77, 'temp': 23.63, 'lipoC3S3': 11.69, 'rot1': 101, 'rot0': 105, 'rot3': 43, 'rot2': 55, 'state': 'normal', 'yaw': 66.4, 'datetime': '2018-10-12 14:07:59.590870', 'mgs': 0, 'depth': 2.377, 'time': 15.52, 'pitch': 1.63, 'roll': -2.93}
{'lipoC2': 7.77, 'temp': 23.63, 'lipoC3S3': 11.67, 'rot1': 102, 'rot0': 106, 'rot3': 43, 'rot2': 55, 'state': 'normal', 'yaw': 71.39, 'datetime': '2018-10-12 14:07:59.688540', 'mgs': 0, 'depth': 2.682, 'time': 15.61, 'pitch': 1.44, 'roll': -2.99}
{'lipoC2': 7.77, 'temp': 23.63, 'lipoC3S3': 11.67, 'rot1': 103, 'rot0': 107, 'rot3': 43, 'rot2': 55, 'state': 'normal', 'yaw': 75.95, 'datetime': '2018-10-12 14:07:59.788957', 'mgs': 0, 'depth': 2.225, 'time': 15.71, 'pitch': 1.3, 'roll': -2.97}
{'lipoC2': 7.77, 'temp': 23.56, 'lipoC3S3': 11.69, 'rot1': 104, 'rot0': 107, 'rot3': 44, 'rot2': 56, 'state': 'normal', 'yaw': 81.06, 'datetime': '2018-10-12 14:07:59.879404', 'mgs': 0, 'depth': 2.454, 'time': 15.81, 'pitch': 1.18, 'roll': -2.83}
{'lipoC2': 7.77, 'temp': 23.56, 'lipoC3S3': 11.69, 'rot1': 104, 'rot0': 108, 'rot3': 44, 'rot2': 56, 'state': 'normal', 'yaw': 86.2, 'datetime': '2018-10-12 14:07:59.980639', 'mgs': 0, 'depth': 2.988, 'time': 15.91, 'pitch': 1.12, 'roll': -2.75}
{'lipoC2': 7.78, 'temp': 23.56, 'lipoC3S3': 11.59, 'rot1': 105, 'rot0': 109, 'rot3': 44, 'rot2': 56, 'state': 'normal', 'yaw': 91.38, 'datetime': '2018-10-12 14:08:00.074648', 'mgs': 0, 'depth': 2.377, 'time': 16.01, 'pitch': 1.11, 'roll': -2.77}
{'lipoC2': 7.77, 'temp': 23.56, 'lipoC3S3': 11.64, 'rot1': 106, 'rot0': 110, 'rot3': 44, 'rot2': 56, 'state': 'normal', 'yaw': 96.06, 'datetime': '2018-10-12 14:08:00.173026', 'mgs': 0, 'depth': 2.301, 'time': 16.1, 'pitch': 1.03, 'roll': -2.78}
{'lipoC2': 7.78, 'temp': 23.56, 'lipoC3S3': 11.68, 'rot1': 107, 'rot0': 111, 'rot3': 44, 'rot2': 57, 'state': 'normal', 'yaw': 101.27, 'datetime': '2018-10-12 14:08:00.271906', 'mgs': 0, 'depth': 2.377, 'time': 16.2, 'pitch': 0.86, 'roll': -2.77}
{'lipoC2': 7.77, 'temp': 23.56, 'lipoC3S3': 11.71, 'rot1': 108, 'rot0': 111, 'rot3': 44, 'rot2': 57, 'state': 'normal', 'yaw': 106.45, 'datetime': '2018-10-12 14:08:00.370892', 'mgs': 0, 'depth': 2.377, 'time': 16.3, 'pitch': 0.72, 'roll': -2.83}
{'lipoC2': 7.77, 'temp': 23.56, 'lipoC3S3': 11.72, 'rot1': 108, 'rot0': 111, 'rot3': 44, 'rot2': 57, 'state': 'normal', 'yaw': 111.19, 'datetime': '2018-10-12 14:08:00.468403', 'mgs': 0, 'depth': 2.377, 'time': 16.4, 'pitch': 0.52, 'roll': -3.07}
{'lipoC2': 7.77, 'temp': 23.63, 'lipoC3S3': 11.6, 'rot1': 108, 'rot0': 111, 'rot3': 44, 'rot2': 57, 'state': 'normal', 'yaw': 115.58, 'datetime': '2018-10-12 14:08:00.566053', 'mgs': 0, 'depth': 2.454, 'time': 16.5, 'pitch': 0.4, 'roll': -3.46}
{'lipoC2': 7.78, 'temp': 23.63, 'lipoC3S3': 11.43, 'rot1': 108, 'rot0': 111, 'rot3': 44, 'rot2': 58, 'state': 'normal', 'yaw': 119.67, 'datetime': '2018-10-12 14:08:00.663983', 'mgs': 0, 'depth': 2.53, 'time': 16.59, 'pitch': 0.4, 'roll': -3.98}
{'lipoC2': 7.77, 'temp': 23.63, 'lipoC3S3': 11.52, 'rot1': 110, 'rot0': 113, 'rot3': 45, 'rot2': 59, 'state': 'normal', 'yaw': 123.23, 'datetime': '2018-10-12 14:08:00.762870', 'mgs': 0, 'depth': 3.979, 'time': 16.69, 'pitch': 0.58, 'roll': -3.86}
{'lipoC2': 7.77, 'temp': 23.63, 'lipoC3S3': 11.59, 'rot1': 112, 'rot0': 114, 'rot3': 45, 'rot2': 59, 'state': 'normal', 'yaw': 127.11, 'datetime': '2018-10-12 14:08:00.861776', 'mgs': 0, 'depth': 3.674, 'time': 16.79, 'pitch': 0.92, 'roll': -2.96}
{'lipoC2': 7.78, 'temp': 23.63, 'lipoC3S3': 11.58, 'rot1': 113, 'rot0': 115, 'rot3': 46, 'rot2': 60, 'state': 'normal', 'yaw': 130.81, 'datetime': '2018-10-12 14:08:00.959391', 'mgs': 0, 'depth': 2.988, 'time': 16.89, 'pitch': 1.23, 'roll': -1.62}
{'lipoC2': 7.78, 'temp': 23.56, 'lipoC3S3': 11.52, 'rot1': 114, 'rot0': 116, 'rot3': 46, 'rot2': 60, 'state': 'normal', 'yaw': 134.42, 'datetime': '2018-10-12 14:08:01.057074', 'mgs': 0, 'depth': 3.369, 'time': 16.99, 'pitch': 1.45, 'roll': -0.18}
{'lipoC2': 7.77, 'temp': 23.56, 'lipoC3S3': 11.56, 'rot1': 116, 'rot0': 117, 'rot3': 47, 'rot2': 61, 'state': 'normal', 'yaw': 137.95, 'datetime': '2018-10-12 14:08:01.154957', 'mgs': 0, 'depth': 3.979, 'time': 17.09, 'pitch': 1.56, 'roll': 1.14}
{'lipoC2': 7.78, 'temp': 23.56, 'lipoC3S3': 11.52, 'rot1': 117, 'rot0': 118, 'rot3': 47, 'rot2': 62, 'state': 'normal', 'yaw': 141.11, 'datetime': '2018-10-12 14:08:01.252541', 'mgs': 0, 'depth': 3.827, 'time': 17.18, 'pitch': 1.58, 'roll': 2.22}
{'lipoC2': 7.78, 'temp': 23.56, 'lipoC3S3': 11.43, 'rot1': 119, 'rot0': 119, 'rot3': 47, 'rot2': 62, 'state': 'normal', 'yaw': 144.52, 'datetime': '2018-10-12 14:08:01.350216', 'mgs': 0, 'depth': 3.369, 'time': 17.28, 'pitch': 1.62, 'roll': 3.37}
{'lipoC2': 7.77, 'temp': 23.56, 'lipoC3S3': 11.39, 'rot1': 120, 'rot0': 120, 'rot3': 48, 'rot2': 63, 'state': 'normal', 'yaw': 147.83, 'datetime': '2018-10-12 14:08:01.447799', 'mgs': 0, 'depth': 2.911, 'time': 17.38, 'pitch': 1.7, 'roll': 4.48}
{'lipoC2': 7.78, 'temp': 23.44, 'lipoC3S3': 11.51, 'rot1': 121, 'rot0': 122, 'rot3': 48, 'rot2': 64, 'state': 'normal', 'yaw': 151.05, 'datetime': '2018-10-12 14:08:01.545668', 'mgs': 0, 'depth': 3.217, 'time': 17.48, 'pitch': 1.84, 'roll': 5.59}
{'lipoC2': 7.78, 'temp': 23.44, 'lipoC3S3': 11.4, 'rot1': 123, 'rot0': 123, 'rot3': 49, 'rot2': 64, 'state': 'normal', 'yaw': 153.83, 'datetime': '2018-10-12 14:08:01.643251', 'mgs': 0, 'depth': 2.988, 'time': 17.58, 'pitch': 1.99, 'roll': 6.43}
{'lipoC2': 7.77, 'temp': 23.44, 'lipoC3S3': 11.44, 'rot1': 124, 'rot0': 124, 'rot3': 50, 'rot2': 65, 'state': 'normal', 'yaw': 156.82, 'datetime': '2018-10-12 14:08:01.741282', 'mgs': 0, 'depth': 2.988, 'time': 17.67, 'pitch': 2.17, 'roll': 7.15}
{'lipoC2': 7.77, 'temp': 24.19, 'lipoC3S3': 11.55, 'rot1': 126, 'rot0': 125, 'rot3': 50, 'rot2': 65, 'state': 'normal', 'yaw': 159.72, 'datetime': '2018-10-12 14:08:01.838519', 'mgs': 0, 'depth': 3.293, 'time': 17.77, 'pitch': 2.41, 'roll': 7.57}
{'lipoC2': 7.77, 'temp': 24.19, 'lipoC3S3': 11.5, 'rot1': 127, 'rot0': 126, 'rot3': 50, 'rot2': 66, 'state': 'normal', 'yaw': 162.51, 'datetime': '2018-10-12 14:08:01.936349', 'mgs': 0, 'depth': 2.988, 'time': 17.87, 'pitch': 2.67, 'roll': 7.71}
{'lipoC2': 7.77, 'temp': 23.56, 'lipoC3S3': 11.54, 'rot1': 129, 'rot0': 127, 'rot3': 51, 'rot2': 67, 'state': 'normal', 'yaw': 164.95, 'datetime': '2018-10-12 14:08:02.033983', 'mgs': 0, 'depth': 3.369, 'time': 17.97, 'pitch': 2.9, 'roll': 7.63}
{'lipoC2': 7.77, 'temp': 23.56, 'lipoC3S3': 11.58, 'rot1': 130, 'rot0': 128, 'rot3': 51, 'rot2': 67, 'state': 'normal', 'yaw': 167.56, 'datetime': '2018-10-12 14:08:02.131653', 'mgs': 0, 'depth': 3.445, 'time': 18.07, 'pitch': 3.17, 'roll': 7.34}
{'lipoC2': 7.78, 'temp': 23.56, 'lipoC3S3': 11.58, 'rot1': 132, 'rot0': 130, 'rot3': 52, 'rot2': 68, 'state': 'normal', 'yaw': 170.16, 'datetime': '2018-10-12 14:08:02.229258', 'mgs': 0, 'depth': 3.14, 'time': 18.16, 'pitch': 3.45, 'roll': 6.88}
{'lipoC2': 7.77, 'temp': 23.38, 'lipoC3S3': 11.48, 'rot1': 133, 'rot0': 131, 'rot3': 52, 'rot2': 69, 'state': 'normal', 'yaw': 172.79, 'datetime': '2018-10-12 14:08:02.327402', 'mgs': 0, 'depth': 3.293, 'time': 18.26, 'pitch': 3.76, 'roll': 6.35}
{'lipoC2': 7.77, 'temp': 23.38, 'lipoC3S3': 11.51, 'rot1': 135, 'rot0': 132, 'rot3': 53, 'rot2': 69, 'state': 'normal', 'yaw': 175.2, 'datetime': '2018-10-12 14:08:02.426496', 'mgs': 0, 'depth': 4.361, 'time': 18.36, 'pitch': 4.06, 'roll': 5.86}
{'lipoC2': 7.78, 'temp': 24.13, 'lipoC3S3': 11.56, 'rot1': 136, 'rot0': 133, 'rot3': 54, 'rot2': 70, 'state': 'normal', 'yaw': 177.88, 'datetime': '2018-10-12 14:08:02.525340', 'mgs': 0, 'depth': 3.445, 'time': 18.46, 'pitch': 4.37, 'roll': 5.39}
{'lipoC2': 7.77, 'temp': 24.13, 'lipoC3S3': 11.58, 'rot1': 138, 'rot0': 135, 'rot3': 54, 'rot2': 70, 'state': 'normal', 'yaw': -179.51, 'datetime': '2018-10-12 14:08:02.624222', 'mgs': 0, 'depth': 3.445, 'time': 18.56, 'pitch': 4.63, 'roll': 4.98}
{'lipoC2': 7.77, 'temp': 24.13, 'lipoC3S3': 11.54, 'rot1': 139, 'rot0': 136, 'rot3': 55, 'rot2': 71, 'state': 'normal', 'yaw': -177.02, 'datetime': '2018-10-12 14:08:02.721965', 'mgs': 0, 'depth': 3.293, 'time': 18.66, 'pitch': 4.86, 'roll': 4.72}
{'lipoC2': 7.78, 'temp': 23.56, 'lipoC3S3': 11.51, 'rot1': 141, 'rot0': 138, 'rot3': 55, 'rot2': 72, 'state': 'normal', 'yaw': -174.9, 'datetime': '2018-10-12 14:08:02.819715', 'mgs': 0, 'depth': 4.666, 'time': 18.75, 'pitch': 4.94, 'roll': 4.69}
{'lipoC2': 7.78, 'temp': 23.56, 'lipoC3S3': 11.34, 'rot1': 142, 'rot0': 139, 'rot3': 55, 'rot2': 72, 'state': 'normal', 'yaw': -173.34, 'datetime': '2018-10-12 14:08:02.917983', 'mgs': 0, 'depth': 3.293, 'time': 18.85, 'pitch': 4.87, 'roll': 4.87}
{'lipoC2': 7.78, 'temp': 23.56, 'lipoC3S3': 11.54, 'rot1': 143, 'rot0': 141, 'rot3': 56, 'rot2': 73, 'state': 'normal', 'yaw': -171.9, 'datetime': '2018-10-12 14:08:03.016973', 'mgs': 0, 'depth': 4.361, 'time': 18.95, 'pitch': 4.62, 'roll': 5.25}
{'lipoC2': 7.77, 'temp': 23.56, 'lipoC3S3': 11.56, 'rot1': 145, 'rot0': 143, 'rot3': 57, 'rot2': 73, 'state': 'normal', 'yaw': -171.03, 'datetime': '2018-10-12 14:08:03.115904', 'mgs': 0, 'depth': 3.674, 'time': 19.05, 'pitch': 4.29, 'roll': 5.54}
{'lipoC2': 7.77, 'temp': 23.56, 'lipoC3S3': 11.55, 'rot1': 146, 'rot0': 144, 'rot3': 57, 'rot2': 74, 'state': 'normal', 'yaw': -170.72, 'datetime': '2018-10-12 14:08:03.213640', 'mgs': 0, 'depth': 3.827, 'time': 19.15, 'pitch': 3.89, 'roll': 5.77}
{'lipoC2': 7.77, 'temp': 23.56, 'lipoC3S3': 11.55, 'rot1': 147, 'rot0': 146, 'rot3': 57, 'rot2': 75, 'state': 'normal', 'yaw': -170.76, 'datetime': '2018-10-12 14:08:03.311414', 'mgs': 0, 'depth': 3.14, 'time': 19.25, 'pitch': 3.45, 'roll': 5.95}
{'lipoC2': 7.77, 'temp': 23.56, 'lipoC3S3': 11.54, 'rot1': 148, 'rot0': 147, 'rot3': 58, 'rot2': 75, 'state': 'normal', 'yaw': -171.1, 'datetime': '2018-10-12 14:08:03.409294', 'mgs': 0, 'depth': 3.445, 'time': 19.34, 'pitch': 2.99, 'roll': 6.13}
{'lipoC2': 7.77, 'temp': 23.56, 'lipoC3S3': 11.56, 'rot1': 149, 'rot0': 149, 'rot3': 58, 'rot2': 76, 'state': 'normal', 'yaw': -171.65, 'datetime': '2018-10-12 14:08:03.507040', 'mgs': 0, 'depth': 3.827, 'time': 19.44, 'pitch': 2.57, 'roll': 6.25}
{'lipoC2': 7.77, 'temp': 23.56, 'lipoC3S3': 11.56, 'rot1': 151, 'rot0': 150, 'rot3': 59, 'rot2': 76, 'state': 'normal', 'yaw': -172.49, 'datetime': '2018-10-12 14:08:03.607813', 'mgs': 0, 'depth': 3.751, 'time': 19.54, 'pitch': 2.14, 'roll': 6.37}
{'lipoC2': 7.76, 'temp': 23.75, 'lipoC3S3': 11.55, 'rot1': 152, 'rot0': 152, 'rot3': 59, 'rot2': 77, 'state': 'normal', 'yaw': -173.51, 'datetime': '2018-10-12 14:08:03.707022', 'mgs': 0, 'depth': 3.903, 'time': 19.64, 'pitch': 1.77, 'roll': 6.59}
{'lipoC2': 7.77, 'temp': 23.75, 'lipoC3S3': 11.55, 'rot1': 153, 'rot0': 153, 'rot3': 60, 'rot2': 78, 'state': 'normal', 'yaw': -174.69, 'datetime': '2018-10-12 14:08:03.804751', 'mgs': 0, 'depth': 3.445, 'time': 19.74, 'pitch': 1.44, 'roll': 6.93}
{'lipoC2': 7.77, 'temp': 23.75, 'lipoC3S3': 11.55, 'rot1': 154, 'rot0': 155, 'rot3': 60, 'rot2': 78, 'state': 'normal', 'yaw': -175.83, 'datetime': '2018-10-12 14:08:03.902518', 'mgs': 0, 'depth': 4.514, 'time': 19.83, 'pitch': 1.14, 'roll': 7.31}
{'lipoC2': 7.77, 'temp': 23.63, 'lipoC3S3': 11.54, 'rot1': 155, 'rot0': 157, 'rot3': 61, 'rot2': 79, 'state': 'normal', 'yaw': -177.12, 'datetime': '2018-10-12 14:08:04.000176', 'mgs': 0, 'depth': 4.514, 'time': 19.93, 'pitch': 0.88, 'roll': 7.77}
{'lipoC2': 7.77, 'temp': 23.63, 'lipoC3S3': 11.55, 'rot1': 156, 'rot0': 158, 'rot3': 61, 'rot2': 79, 'state': 'normal', 'yaw': -178.49, 'datetime': '2018-10-12 14:08:04.097847', 'mgs': 0, 'depth': 4.59, 'time': 20.03, 'pitch': 0.7, 'roll': 8.18}
{'lipoC2': 7.77, 'temp': 23.56, 'lipoC3S3': 11.54, 'rot1': 158, 'rot0': 160, 'rot3': 62, 'rot2': 80, 'state': 'normal', 'yaw': -179.97, 'datetime': '2018-10-12 14:08:04.195608', 'mgs': 0, 'depth': 4.742, 'time': 20.13, 'pitch': 0.53, 'roll': 8.45}
{'lipoC2': 7.77, 'temp': 23.56, 'lipoC3S3': 11.52, 'rot1': 159, 'rot0': 161, 'rot3': 62, 'rot2': 81, 'state': 'normal', 'yaw': 178.65, 'datetime': '2018-10-12 14:08:04.293507', 'mgs': 0, 'depth': 4.514, 'time': 20.22, 'pitch': 0.41, 'roll': 8.53}
{'lipoC2': 7.78, 'temp': 23.56, 'lipoC3S3': 11.47, 'rot1': 160, 'rot0': 163, 'rot3': 63, 'rot2': 81, 'state': 'normal', 'yaw': 177.06, 'datetime': '2018-10-12 14:08:04.389255', 'mgs': 0, 'depth': 4.514, 'time': 20.32, 'pitch': 0.26, 'roll': 8.5}
{'lipoC2': 7.78, 'temp': 23.63, 'lipoC3S3': 11.5, 'rot1': 161, 'rot0': 164, 'rot3': 63, 'rot2': 82, 'state': 'normal', 'yaw': 175.46, 'datetime': '2018-10-12 14:08:04.488458', 'mgs': 0, 'depth': 4.132, 'time': 20.42, 'pitch': 0.17, 'roll': 8.33}
{'lipoC2': 7.78, 'temp': 23.63, 'lipoC3S3': 11.42, 'rot1': 162, 'rot0': 165, 'rot3': 64, 'rot2': 82, 'state': 'normal', 'yaw': 174.44, 'datetime': '2018-10-12 14:08:04.586019', 'mgs': 0, 'depth': 4.056, 'time': 20.52, 'pitch': 0.05, 'roll': 7.97}
{'lipoC2': 7.77, 'temp': 23.56, 'lipoC3S3': 11.58, 'rot1': 164, 'rot0': 166, 'rot3': 64, 'rot2': 83, 'state': 'normal', 'yaw': 174.08, 'datetime': '2018-10-12 14:08:04.685253', 'mgs': 0, 'depth': 3.979, 'time': 20.62, 'pitch': 0.0, 'roll': 7.47}
{'lipoC2': 7.77, 'temp': 23.56, 'lipoC3S3': 11.52, 'rot1': 165, 'rot0': 168, 'rot3': 65, 'rot2': 84, 'state': 'normal', 'yaw': 174.12, 'datetime': '2018-10-12 14:08:04.784217', 'mgs': 0, 'depth': 3.674, 'time': 20.72, 'pitch': 0.01, 'roll': 6.76}
{'lipoC2': 7.78, 'temp': 23.56, 'lipoC3S3': 11.43, 'rot1': 167, 'rot0': 169, 'rot3': 65, 'rot2': 84, 'state': 'normal', 'yaw': 174.5, 'datetime': '2018-10-12 14:08:04.882185', 'mgs': 0, 'depth': 4.132, 'time': 20.81, 'pitch': 0.14, 'roll': 6.0}
{'lipoC2': 7.77, 'temp': 23.63, 'lipoC3S3': 11.42, 'rot1': 168, 'rot0': 170, 'rot3': 66, 'rot2': 85, 'state': 'normal', 'yaw': 175.16, 'datetime': '2018-10-12 14:08:04.979779', 'mgs': 0, 'depth': 3.674, 'time': 20.91, 'pitch': 0.32, 'roll': 5.27}
{'lipoC2': 7.76, 'temp': 23.63, 'lipoC3S3': 11.54, 'rot1': 169, 'rot0': 171, 'rot3': 66, 'rot2': 85, 'state': 'normal', 'yaw': 176.05, 'datetime': '2018-10-12 14:08:05.077930', 'mgs': 0, 'depth': 3.751, 'time': 21.01, 'pitch': 0.6, 'roll': 4.57}
{'lipoC2': 7.77, 'temp': 23.63, 'lipoC3S3': 11.55, 'rot1': 171, 'rot0': 173, 'rot3': 67, 'rot2': 86, 'state': 'normal', 'yaw': 176.96, 'datetime': '2018-10-12 14:08:05.176039', 'mgs': 0, 'depth': 3.751, 'time': 21.11, 'pitch': 0.88, 'roll': 3.98}
{'lipoC2': 7.77, 'temp': 23.63, 'lipoC3S3': 11.4, 'rot1': 172, 'rot0': 174, 'rot3': 67, 'rot2': 87, 'state': 'normal', 'yaw': 178.09, 'datetime': '2018-10-12 14:08:05.275092', 'mgs': 0, 'depth': 3.674, 'time': 21.21, 'pitch': 1.19, 'roll': 3.43}
{'lipoC2': 7.77, 'temp': 23.63, 'lipoC3S3': 11.54, 'rot1': 173, 'rot0': 175, 'rot3': 68, 'rot2': 87, 'state': 'normal', 'yaw': 179.29, 'datetime': '2018-10-12 14:08:05.373313', 'mgs': 0, 'depth': 4.437, 'time': 21.31, 'pitch': 1.49, 'roll': 3.04}
{'lipoC2': 7.76, 'temp': 23.63, 'lipoC3S3': 11.48, 'rot1': 175, 'rot0': 176, 'rot3': 68, 'rot2': 88, 'state': 'normal', 'yaw': -179.49, 'datetime': '2018-10-12 14:08:05.470999', 'mgs': 0, 'depth': 4.666, 'time': 21.4, 'pitch': 1.83, 'roll': 2.77}
{'lipoC2': 7.77, 'temp': 23.63, 'lipoC3S3': 11.5, 'rot1': 176, 'rot0': 178, 'rot3': 69, 'rot2': 88, 'state': 'normal', 'yaw': -178.25, 'datetime': '2018-10-12 14:08:05.568689', 'mgs': 0, 'depth': 4.666, 'time': 21.5, 'pitch': 2.14, 'roll': 2.57}
{'lipoC2': 7.77, 'temp': 23.5, 'lipoC3S3': 11.55, 'rot1': 178, 'rot0': 179, 'rot3': 69, 'rot2': 89, 'state': 'normal', 'yaw': -177.16, 'datetime': '2018-10-12 14:08:05.666810', 'mgs': 0, 'depth': 3.827, 'time': 21.6, 'pitch': 2.27, 'roll': 2.46}
{'lipoC2': 7.77, 'temp': 23.5, 'lipoC3S3': 11.44, 'rot1': 179, 'rot0': 181, 'rot3': 70, 'rot2': 90, 'state': 'normal', 'yaw': -176.53, 'datetime': '2018-10-12 14:08:05.764830', 'mgs': 0, 'depth': 3.903, 'time': 21.7, 'pitch': 2.26, 'roll': 2.43}
{'lipoC2': 7.77, 'temp': 23.5, 'lipoC3S3': 11.46, 'rot1': 180, 'rot0': 182, 'rot3': 70, 'rot2': 90, 'state': 'normal', 'yaw': -176.5, 'datetime': '2018-10-12 14:08:05.862923', 'mgs': 0, 'depth': 3.979, 'time': 21.79, 'pitch': 2.24, 'roll': 2.47}
