{'lipoC2': 8.08, 'temp': 30.69, 'lipoC3S3': 12.43, 'rot1': 0, 'rot0': 0, 'rot3': 0, 'rot2': 0, 'state': 'normal', 'yaw': 0.0, 'datetime': '2018-10-12 19:51:05.203947', 'mgs': 0, 'depth': -0.98, 'time': 1.26, 'pitch': 4.11, 'roll': 0.96}
{'lipoC2': 8.07, 'temp': 30.69, 'lipoC3S3': 12.43, 'rot1': 0, 'rot0': 0, 'rot3': 0, 'rot2': 0, 'state': 'normal', 'yaw': 0.95, 'datetime': '2018-10-12 19:51:05.222311', 'mgs': 0, 'depth': -1.132, 'time': 1.36, 'pitch': 2.98, 'roll': 1.1}
{'lipoC2': 8.07, 'temp': 30.69, 'lipoC3S3': 12.43, 'rot1': 0, 'rot0': 0, 'rot3': 0, 'rot2': 0, 'state': 'normal', 'yaw': 1.79, 'datetime': '2018-10-12 19:51:05.240439', 'mgs': 0, 'depth': -1.132, 'time': 1.46, 'pitch': 1.22, 'roll': 1.82}
{'lipoC2': 8.07, 'temp': 30.69, 'lipoC3S3': 12.43, 'rot1': 0, 'rot0': 0, 'rot3': 0, 'rot2': 0, 'state': 'normal', 'yaw': 2.33, 'datetime': '2018-10-12 19:51:05.258114', 'mgs': 0, 'depth': -1.132, 'time': 1.55, 'pitch': -0.5, 'roll': 2.51}
{'lipoC2': 8.08, 'temp': 30.69, 'lipoC3S3': 12.43, 'rot1': 0, 'rot0': 0, 'rot3': 0, 'rot2': 0, 'state': 'normal', 'yaw': 2.64, 'datetime': '2018-10-12 19:51:05.271786', 'mgs': 0, 'depth': -1.056, 'time': 1.65, 'pitch': -1.89, 'roll': 3.03}
{'lipoC2': 8.07, 'temp': 30.75, 'lipoC3S3': 12.43, 'rot1': 0, 'rot0': 0, 'rot3': 0, 'rot2': 0, 'state': 'normal', 'yaw': 2.87, 'datetime': '2018-10-12 19:51:05.279895', 'mgs': 0, 'depth': -0.98, 'time': 1.75, 'pitch': -2.15, 'roll': 3.83}
{'lipoC2': 8.08, 'temp': 30.75, 'lipoC3S3': 12.43, 'rot1': 0, 'rot0': 0, 'rot3': 0, 'rot2': 0, 'state': 'normal', 'yaw': 3.19, 'datetime': '2018-10-12 19:51:05.287469', 'mgs': 0, 'depth': -1.056, 'time': 1.85, 'pitch': -1.4, 'roll': 4.94}
{'lipoC2': 8.07, 'temp': 30.75, 'lipoC3S3': 12.43, 'rot1': 0, 'rot0': 0, 'rot3': 0, 'rot2': 0, 'state': 'normal', 'yaw': 3.62, 'datetime': '2018-10-12 19:51:05.294961', 'mgs': 0, 'depth': -1.132, 'time': 1.94, 'pitch': -0.4, 'roll': 5.11}
{'lipoC2': 8.08, 'temp': 30.75, 'lipoC3S3': 12.43, 'rot1': 0, 'rot0': 0, 'rot3': 0, 'rot2': 0, 'state': 'normal', 'yaw': 3.91, 'datetime': '2018-10-12 19:51:05.302489', 'mgs': 0, 'depth': -1.056, 'time': 2.04, 'pitch': 0.72, 'roll': 4.19}
{'lipoC2': 8.07, 'temp': 30.75, 'lipoC3S3': 12.43, 'rot1': 0, 'rot0': 0, 'rot3': 0, 'rot2': 0, 'state': 'normal', 'yaw': 3.9, 'datetime': '2018-10-12 19:51:05.309995', 'mgs': 0, 'depth': -1.056, 'time': 2.14, 'pitch': 1.86, 'roll': 3.26}
{'lipoC2': 8.07, 'temp': 30.69, 'lipoC3S3': 12.43, 'rot1': 0, 'rot0': 0, 'rot3': 0, 'rot2': 0, 'state': 'normal', 'yaw': 3.91, 'datetime': '2018-10-12 19:51:05.317555', 'mgs': 0, 'depth': -1.132, 'time': 2.24, 'pitch': 2.45, 'roll': 3.12}
{'lipoC2': 8.07, 'temp': 30.69, 'lipoC3S3': 12.43, 'rot1': 0, 'rot0': 0, 'rot3': 0, 'rot2': 0, 'state': 'normal', 'yaw': 4.12, 'datetime': '2018-10-12 19:51:05.325064', 'mgs': 0, 'depth': -1.056, 'time': 2.33, 'pitch': 3.04, 'roll': 2.96}
{'lipoC2': 8.07, 'temp': 30.75, 'lipoC3S3': 12.45, 'rot1': 0, 'rot0': 0, 'rot3': 0, 'rot2': 0, 'state': 'normal', 'yaw': 4.17, 'datetime': '2018-10-12 19:51:05.332591', 'mgs': 0, 'depth': -1.056, 'time': 2.43, 'pitch': 3.45, 'roll': 2.9}
{'lipoC2': 8.08, 'temp': 30.75, 'lipoC3S3': 12.43, 'rot1': 0, 'rot0': 0, 'rot3': 0, 'rot2': 0, 'state': 'normal', 'yaw': 4.16, 'datetime': '2018-10-12 19:51:05.340094', 'mgs': 0, 'depth': -1.056, 'time': 2.53, 'pitch': 3.46, 'roll': 3.12}
{'lipoC2': 8.07, 'temp': 30.75, 'lipoC3S3': 12.43, 'rot1': 0, 'rot0': 0, 'rot3': 0, 'rot2': 0, 'state': 'normal', 'yaw': 4.13, 'datetime': '2018-10-12 19:51:05.347654', 'mgs': 0, 'depth': -1.056, 'time': 2.63, 'pitch': 3.5, 'roll': 2.97}
{'lipoC2': 8.08, 'temp': 30.69, 'lipoC3S3': 12.43, 'rot1': 0, 'rot0': 0, 'rot3': 0, 'rot2': 0, 'state': 'normal', 'yaw': 4.14, 'datetime': '2018-10-12 19:51:05.355157', 'mgs': 0, 'depth': -1.056, 'time': 2.72, 'pitch': 3.47, 'roll': 3.1}
{'lipoC2': 8.08, 'temp': 30.69, 'lipoC3S3': 12.43, 'rot1': 0, 'rot0': 0, 'rot3': 0, 'rot2': 0, 'state': 'normal', 'yaw': 4.14, 'datetime': '2018-10-12 19:51:05.362824', 'mgs': 0, 'depth': -1.056, 'time': 2.82, 'pitch': 3.48, 'roll': 3.08}
{'lipoC2': 8.07, 'temp': 30.75, 'lipoC3S3': 12.43, 'rot1': 0, 'rot0': 0, 'rot3': 0, 'rot2': 0, 'state': 'normal', 'yaw': 4.14, 'datetime': '2018-10-12 19:51:05.370974', 'mgs': 0, 'depth': -1.056, 'time': 2.92, 'pitch': 3.49, 'roll': 3.11}
{'lipoC2': 8.08, 'temp': 30.75, 'lipoC3S3': 12.43, 'rot1': 0, 'rot0': 0, 'rot3': 0, 'rot2': 0, 'state': 'normal', 'yaw': 4.14, 'datetime': '2018-10-12 19:51:05.384889', 'mgs': 0, 'depth': -0.98, 'time': 3.02, 'pitch': 3.45, 'roll': 3.03}
{'lipoC2': 8.08, 'temp': 30.75, 'lipoC3S3': 12.45, 'rot1': 0, 'rot0': 0, 'rot3': 0, 'rot2': 0, 'state': 'normal', 'yaw': 4.14, 'datetime': '2018-10-12 19:51:05.392383', 'mgs': 0, 'depth': -1.056, 'time': 3.11, 'pitch': 3.46, 'roll': 3.06}
{'lipoC2': 8.08, 'temp': 30.75, 'lipoC3S3': 12.43, 'rot1': 0, 'rot0': 0, 'rot3': 0, 'rot2': 0, 'state': 'normal', 'yaw': 4.14, 'datetime': '2018-10-12 19:51:05.399933', 'mgs': 0, 'depth': -1.132, 'time': 3.21, 'pitch': 3.38, 'roll': 3.01}
{'lipoC2': 8.08, 'temp': 30.75, 'lipoC3S3': 12.43, 'rot1': 0, 'rot0': 0, 'rot3': 0, 'rot2': 0, 'state': 'normal', 'yaw': 4.14, 'datetime': '2018-10-12 19:51:05.407415', 'mgs': 0, 'depth': -1.056, 'time': 3.31, 'pitch': 3.35, 'roll': 3.03}
{'lipoC2': 8.08, 'temp': 30.75, 'lipoC3S3': 12.43, 'rot1': 0, 'rot0': 0, 'rot3': 0, 'rot2': 0, 'state': 'normal', 'yaw': 4.14, 'datetime': '2018-10-12 19:51:05.414971', 'mgs': 0, 'depth': -0.98, 'time': 3.41, 'pitch': 3.34, 'roll': 3.0}
{'lipoC2': 8.08, 'temp': 30.75, 'lipoC3S3': 12.45, 'rot1': 0, 'rot0': 0, 'rot3': 0, 'rot2': 0, 'state': 'normal', 'yaw': 4.14, 'datetime': '2018-10-12 19:51:05.422472', 'mgs': 0, 'depth': -1.056, 'time': 3.51, 'pitch': 3.26, 'roll': 3.01}
{'lipoC2': 8.07, 'temp': 30.75, 'lipoC3S3': 12.43, 'rot1': 0, 'rot0': 0, 'rot3': 0, 'rot2': 0, 'state': 'normal', 'yaw': 4.15, 'datetime': '2018-10-12 19:51:05.475452', 'mgs': 0, 'depth': -1.056, 'time': 3.6, 'pitch': 3.02, 'roll': 2.98}
{'lipoC2': 8.07, 'temp': 30.69, 'lipoC3S3': 12.45, 'rot1': 0, 'rot0': 0, 'rot3': 0, 'rot2': 0, 'state': 'normal', 'yaw': 4.15, 'datetime': '2018-10-12 19:51:05.572587', 'mgs': 0, 'depth': -1.132, 'time': 3.7, 'pitch': 2.96, 'roll': 2.99}
{'lipoC2': 8.07, 'temp': 30.69, 'lipoC3S3': 12.45, 'rot1': 0, 'rot0': 0, 'rot3': 0, 'rot2': 0, 'state': 'normal', 'yaw': 4.14, 'datetime': '2018-10-12 19:51:05.670290', 'mgs': 0, 'depth': -1.056, 'time': 3.8, 'pitch': 2.86, 'roll': 2.98}
{'lipoC2': 8.07, 'temp': 30.69, 'lipoC3S3': 12.43, 'rot1': 0, 'rot0': 0, 'rot3': 0, 'rot2': 0, 'state': 'normal', 'yaw': 4.14, 'datetime': '2018-10-12 19:51:05.768693', 'mgs': 0, 'depth': -1.056, 'time': 3.9, 'pitch': 2.81, 'roll': 2.97}
{'lipoC2': 8.07, 'temp': 30.69, 'lipoC3S3': 12.45, 'rot1': 0, 'rot0': 0, 'rot3': 0, 'rot2': 0, 'state': 'normal', 'yaw': 4.14, 'datetime': '2018-10-12 19:51:05.867061', 'mgs': 0, 'depth': -0.98, 'time': 3.99, 'pitch': 2.75, 'roll': 2.97}
{'lipoC2': 8.08, 'temp': 30.69, 'lipoC3S3': 12.43, 'rot1': 0, 'rot0': 0, 'rot3': 0, 'rot2': 0, 'state': 'normal', 'yaw': 4.14, 'datetime': '2018-10-12 19:51:05.964225', 'mgs': 0, 'depth': -0.98, 'time': 4.09, 'pitch': 2.67, 'roll': 2.97}
{'lipoC2': 8.08, 'temp': 30.69, 'lipoC3S3': 12.43, 'rot1': 0, 'rot0': 0, 'rot3': 0, 'rot2': 0, 'state': 'normal', 'yaw': 4.14, 'datetime': '2018-10-12 19:51:06.064318', 'mgs': 0, 'depth': -0.98, 'time': 4.19, 'pitch': 2.62, 'roll': 2.96}
{'lipoC2': 8.08, 'temp': 30.69, 'lipoC3S3': 12.43, 'rot1': 0, 'rot0': 0, 'rot3': 0, 'rot2': 0, 'state': 'normal', 'yaw': 4.14, 'datetime': '2018-10-12 19:51:06.162571', 'mgs': 0, 'depth': -1.056, 'time': 4.29, 'pitch': 2.45, 'roll': 2.93}
{'lipoC2': 8.08, 'temp': 30.75, 'lipoC3S3': 12.43, 'rot1': 0, 'rot0': 0, 'rot3': 0, 'rot2': 0, 'state': 'normal', 'yaw': 4.15, 'datetime': '2018-10-12 19:51:06.265569', 'mgs': 0, 'depth': -0.98, 'time': 4.39, 'pitch': 2.33, 'roll': 2.92}
{'lipoC2': 8.07, 'temp': 30.75, 'lipoC3S3': 12.43, 'rot1': 0, 'rot0': 0, 'rot3': 0, 'rot2': 0, 'state': 'normal', 'yaw': 4.14, 'datetime': '2018-10-12 19:51:06.362599', 'mgs': 0, 'depth': -1.056, 'time': 4.48, 'pitch': 2.27, 'roll': 2.91}
{'lipoC2': 8.07, 'temp': 30.75, 'lipoC3S3': 12.45, 'rot1': 0, 'rot0': 0, 'rot3': 0, 'rot2': 0, 'state': 'normal', 'yaw': 4.14, 'datetime': '2018-10-12 19:51:06.459927', 'mgs': 0, 'depth': -1.132, 'time': 4.58, 'pitch': 2.16, 'roll': 2.91}
{'lipoC2': 8.08, 'temp': 30.75, 'lipoC3S3': 12.43, 'rot1': 0, 'rot0': 0, 'rot3': 0, 'rot2': 0, 'state': 'normal', 'yaw': 4.14, 'datetime': '2018-10-12 19:51:06.556959', 'mgs': 0, 'depth': -1.056, 'time': 4.68, 'pitch': 2.06, 'roll': 2.88}
{'lipoC2': 8.07, 'temp': 30.75, 'lipoC3S3': 12.43, 'rot1': 0, 'rot0': 0, 'rot3': 0, 'rot2': 0, 'state': 'normal', 'yaw': 4.14, 'datetime': '2018-10-12 19:51:06.653933', 'mgs': 0, 'depth': -1.056, 'time': 4.77, 'pitch': 1.97, 'roll': 2.9}
{'lipoC2': 8.08, 'temp': 30.69, 'lipoC3S3': 12.45, 'rot1': 0, 'rot0': 0, 'rot3': 0, 'rot2': 0, 'state': 'normal', 'yaw': 4.14, 'datetime': '2018-10-12 19:51:06.762387', 'mgs': 0, 'depth': -1.056, 'time': 4.87, 'pitch': 1.9, 'roll': 2.88}
{'lipoC2': 8.08, 'temp': 30.69, 'lipoC3S3': 12.45, 'rot1': 0, 'rot0': 0, 'rot3': 0, 'rot2': 0, 'state': 'normal', 'yaw': 4.14, 'datetime': '2018-10-12 19:51:06.841719', 'mgs': 0, 'depth': -1.056, 'time': 4.97, 'pitch': 1.84, 'roll': 2.9}
{'lipoC2': 8.08, 'temp': 30.69, 'lipoC3S3': 12.43, 'rot1': 0, 'rot0': 0, 'rot3': 0, 'rot2': 0, 'state': 'normal', 'yaw': 4.14, 'datetime': '2018-10-12 19:51:06.940072', 'mgs': 0, 'depth': -0.98, 'time': 5.07, 'pitch': 1.78, 'roll': 2.87}
{'lipoC2': 8.08, 'temp': 30.75, 'lipoC3S3': 12.43, 'rot1': 0, 'rot0': 0, 'rot3': 0, 'rot2': 0, 'state': 'normal', 'yaw': 4.14, 'datetime': '2018-10-12 19:51:07.037217', 'mgs': 0, 'depth': -0.98, 'time': 5.17, 'pitch': 1.74, 'roll': 2.89}
{'lipoC2': 8.07, 'temp': 30.75, 'lipoC3S3': 12.45, 'rot1': 0, 'rot0': 0, 'rot3': 0, 'rot2': 0, 'state': 'normal', 'yaw': 4.15, 'datetime': '2018-10-12 19:51:07.134295', 'mgs': 0, 'depth': -1.056, 'time': 5.26, 'pitch': 1.71, 'roll': 2.88}
{'lipoC2': 8.08, 'temp': 30.69, 'lipoC3S3': 12.45, 'rot1': 0, 'rot0': 0, 'rot3': 0, 'rot2': 0, 'state': 'normal', 'yaw': 4.11, 'datetime': '2018-10-12 19:51:07.232321', 'mgs': 0, 'depth': -1.056, 'time': 5.36, 'pitch': 1.72, 'roll': 2.86}
{'lipoC2': 8.07, 'temp': 30.69, 'lipoC3S3': 12.45, 'rot1': 0, 'rot0': 0, 'rot3': 0, 'rot2': 0, 'state': 'normal', 'yaw': 4.14, 'datetime': '2018-10-12 19:51:07.330685', 'mgs': 0, 'depth': -1.056, 'time': 5.46, 'pitch': 1.72, 'roll': 2.92}
{'lipoC2': 8.07, 'temp': 30.69, 'lipoC3S3': 12.45, 'rot1': 0, 'rot0': 0, 'rot3': 0, 'rot2': 0, 'state': 'normal', 'yaw': 4.15, 'datetime': '2018-10-12 19:51:07.428842', 'mgs': 0, 'depth': -1.056, 'time': 5.56, 'pitch': 1.71, 'roll': 2.85}
{'lipoC2': 8.08, 'temp': 30.69, 'lipoC3S3': 12.43, 'rot1': 0, 'rot0': 0, 'rot3': 0, 'rot2': 0, 'state': 'normal', 'yaw': 4.13, 'datetime': '2018-10-12 19:51:07.525934', 'mgs': 0, 'depth': -1.056, 'time': 5.66, 'pitch': 1.71, 'roll': 2.92}
{'lipoC2': 8.08, 'temp': 30.69, 'lipoC3S3': 12.43, 'rot1': 0, 'rot0': 0, 'rot3': 0, 'rot2': 0, 'state': 'normal', 'yaw': 4.14, 'datetime': '2018-10-12 19:51:07.631271', 'mgs': 0, 'depth': -1.056, 'time': 5.75, 'pitch': 1.7, 'roll': 2.87}
{'lipoC2': 8.07, 'temp': 30.69, 'lipoC3S3': 12.45, 'rot1': 0, 'rot0': 0, 'rot3': 0, 'rot2': 0, 'state': 'normal', 'yaw': 4.15, 'datetime': '2018-10-12 19:51:07.729736', 'mgs': 0, 'depth': -1.056, 'time': 5.85, 'pitch': 1.69, 'roll': 2.93}
{'lipoC2': 8.07, 'temp': 30.69, 'lipoC3S3': 12.45, 'rot1': 0, 'rot0': 0, 'rot3': 0, 'rot2': 0, 'state': 'normal', 'yaw': 4.15, 'datetime': '2018-10-12 19:51:07.828108', 'mgs': 0, 'depth': -1.056, 'time': 5.95, 'pitch': 1.7, 'roll': 2.88}
{'lipoC2': 8.08, 'temp': 30.69, 'lipoC3S3': 12.45, 'rot1': 0, 'rot0': 0, 'rot3': 0, 'rot2': 0, 'state': 'normal', 'yaw': 4.15, 'datetime': '2018-10-12 19:51:07.925292', 'mgs': 0, 'depth': -1.056, 'time': 6.05, 'pitch': 1.69, 'roll': 2.93}
{'lipoC2': 8.08, 'temp': 30.69, 'lipoC3S3': 12.43, 'rot1': 0, 'rot0': 0, 'rot3': 0, 'rot2': 0, 'state': 'normal', 'yaw': 4.14, 'datetime': '2018-10-12 19:51:08.022331', 'mgs': 1, 'depth': -1.056, 'time': 6.14, 'pitch': 1.69, 'roll': 2.89}
{'lipoC2': 8.07, 'temp': 30.75, 'lipoC3S3': 12.43, 'rot1': 0, 'rot0': 0, 'rot3': 0, 'rot2': 0, 'state': 'normal', 'yaw': 0.0, 'datetime': '2018-10-12 19:51:11.547868', 'mgs': 0, 'depth': -0.98, 'time': 1.26, 'pitch': 1.55, 'roll': 2.91}
{'lipoC2': 8.07, 'temp': 30.75, 'lipoC3S3': 12.45, 'rot1': 0, 'rot0': 0, 'rot3': 0, 'rot2': 0, 'state': 'normal', 'yaw': -0.0, 'datetime': '2018-10-12 19:51:11.575402', 'mgs': 0, 'depth': -1.056, 'time': 1.36, 'pitch': 1.52, 'roll': 2.87}
{'lipoC2': 8.08, 'temp': 30.75, 'lipoC3S3': 12.43, 'rot1': 0, 'rot0': 0, 'rot3': 0, 'rot2': 0, 'state': 'normal', 'yaw': -0.0, 'datetime': '2018-10-12 19:51:11.593095', 'mgs': 0, 'depth': -0.98, 'time': 1.45, 'pitch': 1.49, 'roll': 2.89}
{'lipoC2': 8.07, 'temp': 30.75, 'lipoC3S3': 12.43, 'rot1': 0, 'rot0': 0, 'rot3': 0, 'rot2': 0, 'state': 'normal', 'yaw': -0.0, 'datetime': '2018-10-12 19:51:11.620500', 'mgs': 0, 'depth': -1.056, 'time': 1.55, 'pitch': 1.47, 'roll': 2.87}
{'lipoC2': 8.07, 'temp': 30.75, 'lipoC3S3': 12.43, 'rot1': 0, 'rot0': 0, 'rot3': 0, 'rot2': 0, 'state': 'normal', 'yaw': 0.0, 'datetime': '2018-10-12 19:51:11.639910', 'mgs': 0, 'depth': -1.056, 'time': 1.65, 'pitch': 1.44, 'roll': 2.88}
{'lipoC2': 8.07, 'temp': 30.75, 'lipoC3S3': 12.43, 'rot1': 0, 'rot0': 0, 'rot3': 0, 'rot2': 0, 'state': 'normal', 'yaw': 0.01, 'datetime': '2018-10-12 19:51:11.647764', 'mgs': 0, 'depth': -1.056, 'time': 1.75, 'pitch': 1.41, 'roll': 2.86}
{'lipoC2': 8.07, 'temp': 30.75, 'lipoC3S3': 12.45, 'rot1': 0, 'rot0': 0, 'rot3': 0, 'rot2': 0, 'state': 'normal', 'yaw': 0.0, 'datetime': '2018-10-12 19:51:11.661292', 'mgs': 0, 'depth': -1.056, 'time': 1.84, 'pitch': 1.4, 'roll': 2.87}
{'lipoC2': 8.08, 'temp': 30.75, 'lipoC3S3': 12.43, 'rot1': 0, 'rot0': 0, 'rot3': 0, 'rot2': 0, 'state': 'normal', 'yaw': 0.0, 'datetime': '2018-10-12 19:51:11.674889', 'mgs': 0, 'depth': -0.98, 'time': 1.94, 'pitch': 1.38, 'roll': 2.85}
{'lipoC2': 8.07, 'temp': 30.75, 'lipoC3S3': 12.45, 'rot1': 0, 'rot0': 0, 'rot3': 0, 'rot2': 0, 'state': 'normal', 'yaw': 0.0, 'datetime': '2018-10-12 19:51:11.682653', 'mgs': 0, 'depth': -1.056, 'time': 2.04, 'pitch': 1.36, 'roll': 2.86}
{'lipoC2': 8.07, 'temp': 30.75, 'lipoC3S3': 12.45, 'rot1': 0, 'rot0': 0, 'rot3': 0, 'rot2': 0, 'state': 'normal', 'yaw': 0.0, 'datetime': '2018-10-12 19:51:11.696430', 'mgs': 0, 'depth': -1.056, 'time': 2.13, 'pitch': 1.35, 'roll': 2.85}
{'lipoC2': 8.08, 'temp': 30.75, 'lipoC3S3': 12.43, 'rot1': 0, 'rot0': 0, 'rot3': 0, 'rot2': 0, 'state': 'normal', 'yaw': 0.0, 'datetime': '2018-10-12 19:51:11.710634', 'mgs': 0, 'depth': -1.056, 'time': 2.23, 'pitch': 1.33, 'roll': 2.85}
{'lipoC2': 8.07, 'temp': 30.75, 'lipoC3S3': 12.45, 'rot1': 0, 'rot0': 0, 'rot3': 0, 'rot2': 0, 'state': 'normal', 'yaw': 0.0, 'datetime': '2018-10-12 19:51:11.718494', 'mgs': 0, 'depth': -1.056, 'time': 2.33, 'pitch': 1.32, 'roll': 2.85}
{'lipoC2': 8.08, 'temp': 30.75, 'lipoC3S3': 12.45, 'rot1': 0, 'rot0': 0, 'rot3': 0, 'rot2': 0, 'state': 'normal', 'yaw': 0.0, 'datetime': '2018-10-12 19:51:11.732008', 'mgs': 0, 'depth': -1.056, 'time': 2.43, 'pitch': 1.3, 'roll': 2.85}
{'lipoC2': 8.08, 'temp': 30.75, 'lipoC3S3': 12.43, 'rot1': 0, 'rot0': 0, 'rot3': 0, 'rot2': 0, 'state': 'normal', 'yaw': 0.0, 'datetime': '2018-10-12 19:51:11.745518', 'mgs': 0, 'depth': -1.056, 'time': 2.53, 'pitch': 1.3, 'roll': 2.85}
{'lipoC2': 8.08, 'temp': 30.75, 'lipoC3S3': 12.45, 'rot1': 0, 'rot0': 0, 'rot3': 0, 'rot2': 0, 'state': 'normal', 'yaw': 0.0, 'datetime': '2018-10-12 19:51:11.753360', 'mgs': 0, 'depth': -1.056, 'time': 2.62, 'pitch': 1.3, 'roll': 2.85}
{'lipoC2': 8.07, 'temp': 30.75, 'lipoC3S3': 12.43, 'rot1': 0, 'rot0': 0, 'rot3': 0, 'rot2': 0, 'state': 'normal', 'yaw': 0.0, 'datetime': '2018-10-12 19:51:11.766915', 'mgs': 0, 'depth': -0.98, 'time': 2.72, 'pitch': 1.3, 'roll': 2.85}
{'lipoC2': 8.07, 'temp': 30.75, 'lipoC3S3': 12.43, 'rot1': 0, 'rot0': 0, 'rot3': 0, 'rot2': 0, 'state': 'normal', 'yaw': 0.0, 'datetime': '2018-10-12 19:51:11.780416', 'mgs': 0, 'depth': -1.056, 'time': 2.82, 'pitch': 1.3, 'roll': 2.85}
{'lipoC2': 8.07, 'temp': 30.75, 'lipoC3S3': 12.45, 'rot1': 0, 'rot0': 0, 'rot3': 0, 'rot2': 0, 'state': 'normal', 'yaw': 0.0, 'datetime': '2018-10-12 19:51:11.788284', 'mgs': 0, 'depth': -1.056, 'time': 2.91, 'pitch': 1.3, 'roll': 2.85}
{'lipoC2': 8.07, 'temp': 30.75, 'lipoC3S3': 12.43, 'rot1': 0, 'rot0': 0, 'rot3': 0, 'rot2': 0, 'state': 'normal', 'yaw': 0.0, 'datetime': '2018-10-12 19:51:11.802588', 'mgs': 0, 'depth': -0.98, 'time': 3.01, 'pitch': 1.3, 'roll': 2.85}
{'lipoC2': 8.07, 'temp': 30.75, 'lipoC3S3': 12.43, 'rot1': 0, 'rot0': 0, 'rot3': 0, 'rot2': 0, 'state': 'normal', 'yaw': 0.0, 'datetime': '2018-10-12 19:51:11.816228', 'mgs': 0, 'depth': -0.98, 'time': 3.11, 'pitch': 1.3, 'roll': 2.85}
{'lipoC2': 8.07, 'temp': 30.75, 'lipoC3S3': 12.45, 'rot1': 0, 'rot0': 0, 'rot3': 0, 'rot2': 0, 'state': 'normal', 'yaw': 0.0, 'datetime': '2018-10-12 19:51:11.824034', 'mgs': 0, 'depth': -0.98, 'time': 3.21, 'pitch': 1.3, 'roll': 2.85}
{'lipoC2': 8.08, 'temp': 30.75, 'lipoC3S3': 12.43, 'rot1': 0, 'rot0': 0, 'rot3': 0, 'rot2': 0, 'state': 'normal', 'yaw': 0.0, 'datetime': '2018-10-12 19:51:11.837599', 'mgs': 0, 'depth': -1.056, 'time': 3.3, 'pitch': 1.3, 'roll': 2.85}
{'lipoC2': 8.08, 'temp': 30.75, 'lipoC3S3': 12.43, 'rot1': 0, 'rot0': 0, 'rot3': 0, 'rot2': 0, 'state': 'normal', 'yaw': 0.0, 'datetime': '2018-10-12 19:51:11.851136', 'mgs': 0, 'depth': -1.056, 'time': 3.4, 'pitch': 1.3, 'roll': 2.85}
{'lipoC2': 8.07, 'temp': 30.75, 'lipoC3S3': 12.45, 'rot1': 0, 'rot0': 0, 'rot3': 0, 'rot2': 0, 'state': 'normal', 'yaw': 0.0, 'datetime': '2018-10-12 19:51:11.858983', 'mgs': 0, 'depth': -1.056, 'time': 3.5, 'pitch': 1.3, 'roll': 2.85}
{'lipoC2': 8.07, 'temp': 30.75, 'lipoC3S3': 12.42, 'rot1': 5, 'rot0': 1, 'rot3': 0, 'rot2': 0, 'state': 'normal', 'yaw': 0.0, 'datetime': '2018-10-12 19:51:11.872468', 'mgs': 0, 'depth': -1.056, 'time': 3.6, 'pitch': 1.3, 'roll': 2.85}
{'lipoC2': 8.07, 'temp': 30.75, 'lipoC3S3': 12.42, 'rot1': 20, 'rot0': 3, 'rot3': 0, 'rot2': 0, 'state': 'normal', 'yaw': 0.0, 'datetime': '2018-10-12 19:51:11.886094', 'mgs': 0, 'depth': -0.903, 'time': 3.69, 'pitch': 1.3, 'roll': 2.85}
{'lipoC2': 8.07, 'temp': 30.75, 'lipoC3S3': 12.43, 'rot1': 37, 'rot0': 5, 'rot3': 0, 'rot2': 0, 'state': 'normal', 'yaw': 0.01, 'datetime': '2018-10-12 19:51:11.905058', 'mgs': 0, 'depth': -1.132, 'time': 3.79, 'pitch': 1.29, 'roll': 2.8}
{'lipoC2': 8.08, 'temp': 30.69, 'lipoC3S3': 12.38, 'rot1': 55, 'rot0': 6, 'rot3': 0, 'rot2': 0, 'state': 'normal', 'yaw': 0.01, 'datetime': '2018-10-12 19:51:12.002768', 'mgs': 0, 'depth': -0.98, 'time': 3.89, 'pitch': 1.28, 'roll': 2.82}
{'lipoC2': 8.07, 'temp': 30.69, 'lipoC3S3': 12.42, 'rot1': 72, 'rot0': 8, 'rot3': 0, 'rot2': 0, 'state': 'normal', 'yaw': -0.0, 'datetime': '2018-10-12 19:51:12.100983', 'mgs': 0, 'depth': -0.98, 'time': 3.99, 'pitch': 1.27, 'roll': 2.81}
{'lipoC2': 8.07, 'temp': 30.69, 'lipoC3S3': 12.33, 'rot1': 89, 'rot0': 10, 'rot3': 0, 'rot2': 0, 'state': 'normal', 'yaw': 0.03, 'datetime': '2018-10-12 19:51:12.198116', 'mgs': 0, 'depth': -0.98, 'time': 4.08, 'pitch': 1.26, 'roll': 2.82}
{'lipoC2': 8.08, 'temp': 30.75, 'lipoC3S3': 12.42, 'rot1': 106, 'rot0': 12, 'rot3': 0, 'rot2': 0, 'state': 'normal', 'yaw': 0.04, 'datetime': '2018-10-12 19:51:12.295310', 'mgs': 0, 'depth': -0.903, 'time': 4.18, 'pitch': 1.27, 'roll': 2.82}
{'lipoC2': 8.09, 'temp': 30.75, 'lipoC3S3': 12.41, 'rot1': 123, 'rot0': 13, 'rot3': 0, 'rot2': 0, 'state': 'normal', 'yaw': 0.01, 'datetime': '2018-10-12 19:51:12.396563', 'mgs': 0, 'depth': -1.208, 'time': 4.28, 'pitch': 1.28, 'roll': 2.83}
{'lipoC2': 8.07, 'temp': 30.75, 'lipoC3S3': 12.45, 'rot1': 139, 'rot0': 15, 'rot3': 0, 'rot2': 0, 'state': 'normal', 'yaw': 0.04, 'datetime': '2018-10-12 19:51:12.493711', 'mgs': 0, 'depth': -1.056, 'time': 4.38, 'pitch': 1.26, 'roll': 2.83}
{'lipoC2': 8.07, 'temp': 30.75, 'lipoC3S3': 12.42, 'rot1': 156, 'rot0': 17, 'rot3': 0, 'rot2': 0, 'state': 'normal', 'yaw': 0.02, 'datetime': '2018-10-12 19:51:12.590881', 'mgs': 0, 'depth': 0.165, 'time': 4.47, 'pitch': 1.26, 'roll': 2.83}
{'lipoC2': 8.07, 'temp': 30.75, 'lipoC3S3': 12.35, 'rot1': 172, 'rot0': 19, 'rot3': 0, 'rot2': 0, 'state': 'normal', 'yaw': 0.02, 'datetime': '2018-10-12 19:51:12.688035', 'mgs': 0, 'depth': -0.98, 'time': 4.57, 'pitch': 1.26, 'roll': 2.82}
{'lipoC2': 8.07, 'temp': 30.75, 'lipoC3S3': 12.37, 'rot1': 188, 'rot0': 21, 'rot3': 0, 'rot2': 0, 'state': 'normal', 'yaw': 0.03, 'datetime': '2018-10-12 19:51:12.787268', 'mgs': 0, 'depth': -1.056, 'time': 4.67, 'pitch': 1.24, 'roll': 2.83}
{'lipoC2': 8.07, 'temp': 30.75, 'lipoC3S3': 12.39, 'rot1': 204, 'rot0': 22, 'rot3': 0, 'rot2': 0, 'state': 'normal', 'yaw': 0.02, 'datetime': '2018-10-12 19:51:12.890055', 'mgs': 0, 'depth': -1.056, 'time': 4.77, 'pitch': 1.22, 'roll': 2.82}
{'lipoC2': 8.08, 'temp': 30.75, 'lipoC3S3': 12.39, 'rot1': 220, 'rot0': 24, 'rot3': 0, 'rot2': 0, 'state': 'normal', 'yaw': 0.0, 'datetime': '2018-10-12 19:51:12.987788', 'mgs': 0, 'depth': -1.056, 'time': 4.87, 'pitch': 1.21, 'roll': 2.84}
{'lipoC2': 8.07, 'temp': 30.75, 'lipoC3S3': 12.42, 'rot1': 235, 'rot0': 26, 'rot3': 0, 'rot2': 0, 'state': 'normal', 'yaw': 0.03, 'datetime': '2018-10-12 19:51:13.085048', 'mgs': 0, 'depth': -0.98, 'time': 4.96, 'pitch': 1.2, 'roll': 2.84}
{'lipoC2': 8.09, 'temp': 30.75, 'lipoC3S3': 12.41, 'rot1': 250, 'rot0': 28, 'rot3': 0, 'rot2': 0, 'state': 'normal', 'yaw': 0.0, 'datetime': '2018-10-12 19:51:13.182930', 'mgs': 0, 'depth': -0.903, 'time': 5.06, 'pitch': 1.18, 'roll': 2.84}
{'lipoC2': 8.09, 'temp': 30.75, 'lipoC3S3': 12.41, 'rot1': 263, 'rot0': 30, 'rot3': 0, 'rot2': 0, 'state': 'normal', 'yaw': 0.03, 'datetime': '2018-10-12 19:51:13.281486', 'mgs': 0, 'depth': -1.056, 'time': 5.16, 'pitch': 1.17, 'roll': 2.83}
{'lipoC2': 8.09, 'temp': 30.75, 'lipoC3S3': 12.41, 'rot1': 277, 'rot0': 31, 'rot3': 0, 'rot2': 0, 'state': 'normal', 'yaw': 0.04, 'datetime': '2018-10-12 19:51:13.379877', 'mgs': 0, 'depth': -0.98, 'time': 5.26, 'pitch': 1.16, 'roll': 2.83}
{'lipoC2': 8.07, 'temp': 30.81, 'lipoC3S3': 12.42, 'rot1': 291, 'rot0': 33, 'rot3': 0, 'rot2': 0, 'state': 'normal', 'yaw': 0.01, 'datetime': '2018-10-12 19:51:13.477289', 'mgs': 0, 'depth': -1.056, 'time': 5.36, 'pitch': 1.16, 'roll': 2.75}
{'lipoC2': 8.07, 'temp': 30.81, 'lipoC3S3': 12.42, 'rot1': 306, 'rot0': 35, 'rot3': 0, 'rot2': 0, 'state': 'normal', 'yaw': 0.11, 'datetime': '2018-10-12 19:51:13.574466', 'mgs': 0, 'depth': -0.903, 'time': 5.45, 'pitch': 1.11, 'roll': 2.84}
{'lipoC2': 8.07, 'temp': 30.81, 'lipoC3S3': 12.42, 'rot1': 319, 'rot0': 37, 'rot3': 0, 'rot2': 0, 'state': 'normal', 'yaw': 0.31, 'datetime': '2018-10-12 19:51:13.672769', 'mgs': 0, 'depth': -1.132, 'time': 5.55, 'pitch': 1.04, 'roll': 3.19}
{'lipoC2': 8.07, 'temp': 30.81, 'lipoC3S3': 12.42, 'rot1': 333, 'rot0': 39, 'rot3': 0, 'rot2': 0, 'state': 'normal', 'yaw': 1.6, 'datetime': '2018-10-12 19:51:13.770435', 'mgs': 0, 'depth': -1.056, 'time': 5.65, 'pitch': 0.67, 'roll': 4.01}
{'lipoC2': 8.07, 'temp': 30.81, 'lipoC3S3': 12.43, 'rot1': 343, 'rot0': 40, 'rot3': 0, 'rot2': 0, 'state': 'normal', 'yaw': 4.07, 'datetime': '2018-10-12 19:51:13.867698', 'mgs': 0, 'depth': -1.056, 'time': 5.75, 'pitch': -0.71, 'roll': 4.55}
{'lipoC2': 8.07, 'temp': 30.75, 'lipoC3S3': 12.43, 'rot1': 352, 'rot0': 42, 'rot3': 0, 'rot2': 0, 'state': 'normal', 'yaw': 6.69, 'datetime': '2018-10-12 19:51:13.964866', 'mgs': 0, 'depth': -1.056, 'time': 5.84, 'pitch': -2.2, 'roll': 5.18}
{'lipoC2': 8.07, 'temp': 30.75, 'lipoC3S3': 12.42, 'rot1': 359, 'rot0': 44, 'rot3': 0, 'rot2': 0, 'state': 'normal', 'yaw': 9.63, 'datetime': '2018-10-12 19:51:14.062145', 'mgs': 0, 'depth': -0.369, 'time': 5.94, 'pitch': -3.3, 'roll': 5.87}
{'lipoC2': 8.07, 'temp': 30.75, 'lipoC3S3': 12.37, 'rot1': 364, 'rot0': 46, 'rot3': 0, 'rot2': 0, 'state': 'normal', 'yaw': 12.35, 'datetime': '2018-10-12 19:51:14.159445', 'mgs': 0, 'depth': -1.132, 'time': 6.04, 'pitch': -3.34, 'roll': 5.94}
{'lipoC2': 8.07, 'temp': 30.81, 'lipoC3S3': 12.42, 'rot1': 368, 'rot0': 48, 'rot3': 0, 'rot2': 0, 'state': 'normal', 'yaw': 15.04, 'datetime': '2018-10-12 19:51:14.256478', 'mgs': 0, 'depth': -1.056, 'time': 6.14, 'pitch': -2.68, 'roll': 5.09}
{'lipoC2': 8.07, 'temp': 30.81, 'lipoC3S3': 12.42, 'rot1': 373, 'rot0': 50, 'rot3': 0, 'rot2': 0, 'state': 'normal', 'yaw': 17.42, 'datetime': '2018-10-12 19:51:14.353743', 'mgs': 0, 'depth': -0.446, 'time': 6.23, 'pitch': -1.77, 'roll': 4.11}
{'lipoC2': 8.08, 'temp': 30.75, 'lipoC3S3': 12.38, 'rot1': 377, 'rot0': 52, 'rot3': 0, 'rot2': 0, 'state': 'normal', 'yaw': 19.75, 'datetime': '2018-10-12 19:51:14.450953', 'mgs': 0, 'depth': -1.056, 'time': 6.33, 'pitch': -1.14, 'roll': 3.48}
{'lipoC2': 8.07, 'temp': 30.75, 'lipoC3S3': 12.42, 'rot1': 382, 'rot0': 53, 'rot3': 0, 'rot2': 0, 'state': 'normal', 'yaw': 21.39, 'datetime': '2018-10-12 19:51:14.548319', 'mgs': 0, 'depth': -0.98, 'time': 6.43, 'pitch': -1.24, 'roll': 3.39}
{'lipoC2': 8.07, 'temp': 30.75, 'lipoC3S3': 12.39, 'rot1': 387, 'rot0': 55, 'rot3': 0, 'rot2': 0, 'state': 'normal', 'yaw': 22.05, 'datetime': '2018-10-12 19:51:14.646133', 'mgs': 0, 'depth': -1.132, 'time': 6.53, 'pitch': -1.49, 'roll': 3.73}
{'lipoC2': 8.08, 'temp': 30.75, 'lipoC3S3': 12.39, 'rot1': 391, 'rot0': 57, 'rot3': 0, 'rot2': 0, 'state': 'normal', 'yaw': 21.72, 'datetime': '2018-10-12 19:51:14.744518', 'mgs': 0, 'depth': -1.056, 'time': 6.62, 'pitch': -1.58, 'roll': 4.05}
{'lipoC2': 8.07, 'temp': 30.75, 'lipoC3S3': 12.37, 'rot1': 396, 'rot0': 59, 'rot3': 0, 'rot2': 0, 'state': 'normal', 'yaw': 19.71, 'datetime': '2018-10-12 19:51:14.842055', 'mgs': 0, 'depth': -1.132, 'time': 6.72, 'pitch': -1.07, 'roll': 4.06}
{'lipoC2': 8.07, 'temp': 30.75, 'lipoC3S3': 12.42, 'rot1': 400, 'rot0': 61, 'rot3': 0, 'rot2': 0, 'state': 'normal', 'yaw': 15.83, 'datetime': '2018-10-12 19:51:14.939293', 'mgs': 0, 'depth': -1.056, 'time': 6.82, 'pitch': -0.19, 'roll': 3.88}
{'lipoC2': 8.07, 'temp': 30.75, 'lipoC3S3': 12.42, 'rot1': 406, 'rot0': 62, 'rot3': 0, 'rot2': 0, 'state': 'normal', 'yaw': 10.69, 'datetime': '2018-10-12 19:51:15.036788', 'mgs': 0, 'depth': -0.98, 'time': 6.92, 'pitch': 0.46, 'roll': 3.45}
{'lipoC2': 8.07, 'temp': 30.75, 'lipoC3S3': 12.42, 'rot1': 415, 'rot0': 64, 'rot3': 0, 'rot2': 0, 'state': 'normal', 'yaw': 5.74, 'datetime': '2018-10-12 19:51:15.135332', 'mgs': 0, 'depth': -0.903, 'time': 7.01, 'pitch': 0.82, 'roll': 3.09}
{'lipoC2': 8.07, 'temp': 30.75, 'lipoC3S3': 12.43, 'rot1': 425, 'rot0': 66, 'rot3': 0, 'rot2': 0, 'state': 'normal', 'yaw': 0.52, 'datetime': '2018-10-12 19:51:15.228220', 'mgs': 0, 'depth': -1.056, 'time': 7.11, 'pitch': 1.21, 'roll': 2.79}
{'lipoC2': 8.08, 'temp': 30.75, 'lipoC3S3': 12.41, 'rot1': 438, 'rot0': 68, 'rot3': 0, 'rot2': 0, 'state': 'normal', 'yaw': -3.98, 'datetime': '2018-10-12 19:51:15.325373', 'mgs': 0, 'depth': 0.241, 'time': 7.21, 'pitch': 1.44, 'roll': 2.46}
{'lipoC2': 8.07, 'temp': 30.75, 'lipoC3S3': 12.31, 'rot1': 452, 'rot0': 69, 'rot3': 0, 'rot2': 0, 'state': 'normal', 'yaw': -7.78, 'datetime': '2018-10-12 19:51:15.422536', 'mgs': 0, 'depth': -1.056, 'time': 7.31, 'pitch': 1.72, 'roll': 2.43}
{'lipoC2': 8.07, 'temp': 30.75, 'lipoC3S3': 12.41, 'rot1': 466, 'rot0': 71, 'rot3': 0, 'rot2': 0, 'state': 'normal', 'yaw': -10.67, 'datetime': '2018-10-12 19:51:15.519719', 'mgs': 0, 'depth': -1.132, 'time': 7.41, 'pitch': 2.0, 'roll': 2.42}
{'lipoC2': 8.08, 'temp': 30.75, 'lipoC3S3': 12.42, 'rot1': 480, 'rot0': 73, 'rot3': 0, 'rot2': 0, 'state': 'normal', 'yaw': -12.93, 'datetime': '2018-10-12 19:51:15.617020', 'mgs': 0, 'depth': -0.369, 'time': 7.5, 'pitch': 2.12, 'roll': 2.31}
{'lipoC2': 8.07, 'temp': 30.75, 'lipoC3S3': 12.35, 'rot1': 493, 'rot0': 74, 'rot3': 0, 'rot2': 0, 'state': 'normal', 'yaw': -14.01, 'datetime': '2018-10-12 19:51:15.714259', 'mgs': 0, 'depth': -1.056, 'time': 7.6, 'pitch': 2.14, 'roll': 2.47}
{'lipoC2': 8.07, 'temp': 30.75, 'lipoC3S3': 12.42, 'rot1': 507, 'rot0': 75, 'rot3': 0, 'rot2': 0, 'state': 'normal', 'yaw': -14.12, 'datetime': '2018-10-12 19:51:15.811430', 'mgs': 0, 'depth': -1.056, 'time': 7.7, 'pitch': 2.08, 'roll': 2.64}
{'lipoC2': 8.08, 'temp': 30.75, 'lipoC3S3': 12.41, 'rot1': 521, 'rot0': 76, 'rot3': 0, 'rot2': 0, 'state': 'normal', 'yaw': -13.42, 'datetime': '2018-10-12 19:51:15.908637', 'mgs': 0, 'depth': -1.132, 'time': 7.79, 'pitch': 1.88, 'roll': 2.76}
{'lipoC2': 8.07, 'temp': 30.75, 'lipoC3S3': 12.42, 'rot1': 535, 'rot0': 77, 'rot3': 0, 'rot2': 0, 'state': 'normal', 'yaw': -11.93, 'datetime': '2018-10-12 19:51:16.005741', 'mgs': 0, 'depth': -1.056, 'time': 7.89, 'pitch': 1.69, 'roll': 2.94}
{'lipoC2': 8.07, 'temp': 30.75, 'lipoC3S3': 12.42, 'rot1': 548, 'rot0': 79, 'rot3': 0, 'rot2': 0, 'state': 'normal', 'yaw': -10.07, 'datetime': '2018-10-12 19:51:16.103388', 'mgs': 0, 'depth': -0.98, 'time': 7.99, 'pitch': 1.57, 'roll': 3.06}
{'lipoC2': 8.08, 'temp': 30.75, 'lipoC3S3': 12.41, 'rot1': 563, 'rot0': 80, 'rot3': 0, 'rot2': 0, 'state': 'normal', 'yaw': -7.59, 'datetime': '2018-10-12 19:51:16.200435', 'mgs': 0, 'depth': -0.446, 'time': 8.09, 'pitch': 1.6, 'roll': 3.04}
{'lipoC2': 8.07, 'temp': 30.75, 'lipoC3S3': 12.35, 'rot1': 580, 'rot0': 81, 'rot3': 0, 'rot2': 0, 'state': 'normal', 'yaw': -5.03, 'datetime': '2018-10-12 19:51:16.297622', 'mgs': 0, 'depth': -0.98, 'time': 8.18, 'pitch': 1.57, 'roll': 2.87}
{'lipoC2': 8.07, 'temp': 30.75, 'lipoC3S3': 12.42, 'rot1': 594, 'rot0': 82, 'rot3': 0, 'rot2': 0, 'state': 'normal', 'yaw': -2.54, 'datetime': '2018-10-12 19:51:16.394862', 'mgs': 0, 'depth': -0.98, 'time': 8.28, 'pitch': 1.38, 'roll': 3.14}
{'lipoC2': 8.07, 'temp': 30.75, 'lipoC3S3': 12.42, 'rot1': 608, 'rot0': 83, 'rot3': 0, 'rot2': 0, 'state': 'normal', 'yaw': -0.7, 'datetime': '2018-10-12 19:51:16.493455', 'mgs': 0, 'depth': -1.056, 'time': 8.38, 'pitch': 1.0, 'roll': 3.21}
{'lipoC2': 8.07, 'temp': 30.75, 'lipoC3S3': 12.42, 'rot1': 623, 'rot0': 85, 'rot3': 0, 'rot2': 0, 'state': 'normal', 'yaw': 0.68, 'datetime': '2018-10-12 19:51:16.591930', 'mgs': 0, 'depth': -1.056, 'time': 8.48, 'pitch': 0.65, 'roll': 3.35}
{'lipoC2': 8.07, 'temp': 30.75, 'lipoC3S3': 12.35, 'rot1': 635, 'rot0': 86, 'rot3': 0, 'rot2': 0, 'state': 'normal', 'yaw': 1.41, 'datetime': '2018-10-12 19:51:16.689817', 'mgs': 0, 'depth': -1.056, 'time': 8.58, 'pitch': 0.6, 'roll': 3.31}
{'lipoC2': 8.07, 'temp': 30.75, 'lipoC3S3': 12.42, 'rot1': 648, 'rot0': 87, 'rot3': 0, 'rot2': 0, 'state': 'normal', 'yaw': 1.68, 'datetime': '2018-10-12 19:51:16.787078', 'mgs': 0, 'depth': -1.056, 'time': 8.67, 'pitch': 0.65, 'roll': 2.81}
{'lipoC2': 8.08, 'temp': 30.75, 'lipoC3S3': 12.42, 'rot1': 657, 'rot0': 89, 'rot3': 0, 'rot2': 0, 'state': 'normal', 'yaw': 1.83, 'datetime': '2018-10-12 19:51:16.884984', 'mgs': 0, 'depth': -1.056, 'time': 8.77, 'pitch': 0.76, 'roll': 2.46}
{'lipoC2': 8.08, 'temp': 30.75, 'lipoC3S3': 12.42, 'rot1': 666, 'rot0': 91, 'rot3': 0, 'rot2': 0, 'state': 'normal', 'yaw': 2.07, 'datetime': '2018-10-12 19:51:16.983211', 'mgs': 0, 'depth': -1.056, 'time': 8.87, 'pitch': 0.76, 'roll': 2.43}
{'lipoC2': 8.07, 'temp': 30.75, 'lipoC3S3': 12.42, 'rot1': 676, 'rot0': 92, 'rot3': 0, 'rot2': 0, 'state': 'normal', 'yaw': 2.18, 'datetime': '2018-10-12 19:51:17.081615', 'mgs': 0, 'depth': -1.132, 'time': 8.97, 'pitch': 0.51, 'roll': 2.67}
{'lipoC2': 8.08, 'temp': 30.75, 'lipoC3S3': 12.41, 'rot1': 684, 'rot0': 94, 'rot3': 0, 'rot2': 0, 'state': 'normal', 'yaw': 1.93, 'datetime': '2018-10-12 19:51:17.183874', 'mgs': 0, 'depth': -0.446, 'time': 9.06, 'pitch': 0.21, 'roll': 2.98}
{'lipoC2': 8.07, 'temp': 30.75, 'lipoC3S3': 12.38, 'rot1': 694, 'rot0': 96, 'rot3': 0, 'rot2': 0, 'state': 'normal', 'yaw': 1.43, 'datetime': '2018-10-12 19:51:17.280917', 'mgs': 0, 'depth': -1.056, 'time': 9.16, 'pitch': 0.04, 'roll': 3.38}
{'lipoC2': 8.07, 'temp': 30.75, 'lipoC3S3': 12.38, 'rot1': 703, 'rot0': 98, 'rot3': 0, 'rot2': 0, 'state': 'normal', 'yaw': 1.04, 'datetime': '2018-10-12 19:51:17.379520', 'mgs': 0, 'depth': -1.056, 'time': 9.26, 'pitch': 0.15, 'roll': 3.09}
{'lipoC2': 8.07, 'temp': 30.75, 'lipoC3S3': 12.42, 'rot1': 712, 'rot0': 100, 'rot3': 0, 'rot2': 0, 'state': 'normal', 'yaw': 1.07, 'datetime': '2018-10-12 19:51:17.478097', 'mgs': 0, 'depth': -1.056, 'time': 9.36, 'pitch': 1.06, 'roll': 2.61}
{'lipoC2': 8.08, 'temp': 30.75, 'lipoC3S3': 12.41, 'rot1': 721, 'rot0': 101, 'rot3': 0, 'rot2': 0, 'state': 'normal', 'yaw': 1.13, 'datetime': '2018-10-12 19:51:17.575575', 'mgs': 0, 'depth': -0.98, 'time': 9.46, 'pitch': 0.94, 'roll': 2.91}
{'lipoC2': 8.07, 'temp': 30.75, 'lipoC3S3': 12.42, 'rot1': 731, 'rot0': 103, 'rot3': 0, 'rot2': 0, 'state': 'normal', 'yaw': 1.1, 'datetime': '2018-10-12 19:51:17.672698', 'mgs': 0, 'depth': -0.598, 'time': 9.55, 'pitch': 0.95, 'roll': 2.77}
{'lipoC2': 8.07, 'temp': 30.75, 'lipoC3S3': 12.37, 'rot1': 740, 'rot0': 105, 'rot3': 0, 'rot2': 0, 'state': 'normal', 'yaw': 1.11, 'datetime': '2018-10-12 19:51:17.769980', 'mgs': 0, 'depth': -1.132, 'time': 9.65, 'pitch': 0.97, 'roll': 3.0}
{'lipoC2': 8.08, 'temp': 30.75, 'lipoC3S3': 12.41, 'rot1': 749, 'rot0': 107, 'rot3': 0, 'rot2': 0, 'state': 'normal', 'yaw': 1.11, 'datetime': '2018-10-12 19:51:17.868642', 'mgs': 0, 'depth': -1.056, 'time': 9.75, 'pitch': 0.97, 'roll': 2.82}
{'lipoC2': 8.07, 'temp': 30.75, 'lipoC3S3': 12.48, 'rot1': 759, 'rot0': 109, 'rot3': 0, 'rot2': 0, 'state': 'normal', 'yaw': 1.11, 'datetime': '2018-10-12 19:51:17.966777', 'mgs': 0, 'depth': -1.056, 'time': 9.85, 'pitch': 0.96, 'roll': 3.0}
{'lipoC2': 8.07, 'temp': 30.75, 'lipoC3S3': 12.42, 'rot1': 770, 'rot0': 111, 'rot3': 0, 'rot2': 0, 'state': 'normal', 'yaw': 1.1, 'datetime': '2018-10-12 19:51:18.064081', 'mgs': 0, 'depth': -0.98, 'time': 9.95, 'pitch': 0.96, 'roll': 2.82}
{'lipoC2': 8.07, 'temp': 30.75, 'lipoC3S3': 12.42, 'rot1': 782, 'rot0': 112, 'rot3': 0, 'rot2': 0, 'state': 'normal', 'yaw': 1.1, 'datetime': '2018-10-12 19:51:18.161717', 'mgs': 0, 'depth': -1.056, 'time': 10.04, 'pitch': 0.97, 'roll': 2.98}
{'lipoC2': 8.07, 'temp': 30.75, 'lipoC3S3': 12.42, 'rot1': 793, 'rot0': 114, 'rot3': 0, 'rot2': 0, 'state': 'normal', 'yaw': 1.1, 'datetime': '2018-10-12 19:51:18.259342', 'mgs': 0, 'depth': -0.98, 'time': 10.14, 'pitch': 0.96, 'roll': 2.83}
{'lipoC2': 8.07, 'temp': 30.75, 'lipoC3S3': 12.42, 'rot1': 803, 'rot0': 116, 'rot3': 0, 'rot2': 0, 'state': 'normal', 'yaw': 1.1, 'datetime': '2018-10-12 19:51:18.356630', 'mgs': 0, 'depth': -0.446, 'time': 10.24, 'pitch': 0.96, 'roll': 2.96}
{'lipoC2': 8.08, 'temp': 30.75, 'lipoC3S3': 12.42, 'rot1': 815, 'rot0': 118, 'rot3': 0, 'rot2': 0, 'state': 'normal', 'yaw': 1.11, 'datetime': '2018-10-12 19:51:18.453970', 'mgs': 0, 'depth': -0.98, 'time': 10.34, 'pitch': 0.96, 'roll': 2.83}
{'lipoC2': 8.07, 'temp': 30.81, 'lipoC3S3': 12.37, 'rot1': 828, 'rot0': 119, 'rot3': 0, 'rot2': 0, 'state': 'normal', 'yaw': 1.11, 'datetime': '2018-10-12 19:51:18.552219', 'mgs': 0, 'depth': -1.056, 'time': 10.44, 'pitch': 0.96, 'roll': 2.95}
{'lipoC2': 8.07, 'temp': 30.81, 'lipoC3S3': 12.38, 'rot1': 838, 'rot0': 121, 'rot3': 0, 'rot2': 0, 'state': 'normal', 'yaw': 1.11, 'datetime': '2018-10-12 19:51:18.650866', 'mgs': 0, 'depth': -1.056, 'time': 10.53, 'pitch': 0.96, 'roll': 2.85}
{'lipoC2': 8.08, 'temp': 30.81, 'lipoC3S3': 12.41, 'rot1': 848, 'rot0': 123, 'rot3': 0, 'rot2': 0, 'state': 'normal', 'yaw': 1.12, 'datetime': '2018-10-12 19:51:18.749368', 'mgs': 0, 'depth': -1.056, 'time': 10.63, 'pitch': 0.96, 'roll': 2.94}
{'lipoC2': 8.07, 'temp': 30.81, 'lipoC3S3': 12.43, 'rot1': 859, 'rot0': 125, 'rot3': 0, 'rot2': 0, 'state': 'normal', 'yaw': 1.13, 'datetime': '2018-10-12 19:51:18.846712', 'mgs': 0, 'depth': -0.98, 'time': 10.73, 'pitch': 0.96, 'roll': 2.85}
{'lipoC2': 8.07, 'temp': 30.81, 'lipoC3S3': 12.42, 'rot1': 868, 'rot0': 127, 'rot3': 0, 'rot2': 0, 'state': 'normal', 'yaw': 1.13, 'datetime': '2018-10-12 19:51:18.943949', 'mgs': 0, 'depth': -1.056, 'time': 10.83, 'pitch': 0.96, 'roll': 2.9}
{'lipoC2': 8.07, 'temp': 30.75, 'lipoC3S3': 12.42, 'rot1': 877, 'rot0': 128, 'rot3': 0, 'rot2': 0, 'state': 'normal', 'yaw': 1.13, 'datetime': '2018-10-12 19:51:19.042664', 'mgs': 0, 'depth': -1.056, 'time': 10.93, 'pitch': 0.96, 'roll': 2.85}
{'lipoC2': 8.07, 'temp': 30.75, 'lipoC3S3': 12.42, 'rot1': 888, 'rot0': 130, 'rot3': 0, 'rot2': 0, 'state': 'normal', 'yaw': 1.13, 'datetime': '2018-10-12 19:51:19.141121', 'mgs': 0, 'depth': -0.98, 'time': 11.02, 'pitch': 0.96, 'roll': 2.87}
{'lipoC2': 8.07, 'temp': 30.75, 'lipoC3S3': 12.41, 'rot1': 899, 'rot0': 132, 'rot3': 0, 'rot2': 0, 'state': 'normal', 'yaw': 1.12, 'datetime': '2018-10-12 19:51:19.239249', 'mgs': 0, 'depth': -0.674, 'time': 11.12, 'pitch': 0.96, 'roll': 2.83}
{'lipoC2': 8.08, 'temp': 30.75, 'lipoC3S3': 12.41, 'rot1': 909, 'rot0': 134, 'rot3': 0, 'rot2': 0, 'state': 'normal', 'yaw': 1.13, 'datetime': '2018-10-12 19:51:19.332912', 'mgs': 0, 'depth': -1.056, 'time': 11.22, 'pitch': 0.96, 'roll': 2.86}
{'lipoC2': 8.08, 'temp': 30.75, 'lipoC3S3': 12.39, 'rot1': 919, 'rot0': 136, 'rot3': 0, 'rot2': 0, 'state': 'normal', 'yaw': 1.13, 'datetime': '2018-10-12 19:51:19.434254', 'mgs': 0, 'depth': -1.132, 'time': 11.32, 'pitch': 0.96, 'roll': 2.85}
{'lipoC2': 8.08, 'temp': 30.75, 'lipoC3S3': 12.42, 'rot1': 927, 'rot0': 137, 'rot3': 0, 'rot2': 0, 'state': 'normal', 'yaw': 1.13, 'datetime': '2018-10-12 19:51:19.532696', 'mgs': 0, 'depth': -1.056, 'time': 11.42, 'pitch': 0.96, 'roll': 2.86}
{'lipoC2': 8.07, 'temp': 30.75, 'lipoC3S3': 12.42, 'rot1': 936, 'rot0': 139, 'rot3': 0, 'rot2': 0, 'state': 'normal', 'yaw': 1.13, 'datetime': '2018-10-12 19:51:19.631423', 'mgs': 0, 'depth': -0.369, 'time': 11.52, 'pitch': 0.96, 'roll': 2.86}
{'lipoC2': 8.08, 'temp': 30.75, 'lipoC3S3': 12.41, 'rot1': 944, 'rot0': 141, 'rot3': 0, 'rot2': 0, 'state': 'normal', 'yaw': 1.13, 'datetime': '2018-10-12 19:51:19.729179', 'mgs': 0, 'depth': -1.056, 'time': 11.61, 'pitch': 0.96, 'roll': 2.87}
{'lipoC2': 8.07, 'temp': 30.75, 'lipoC3S3': 12.42, 'rot1': 952, 'rot0': 143, 'rot3': 0, 'rot2': 0, 'state': 'normal', 'yaw': 1.13, 'datetime': '2018-10-12 19:51:19.826467', 'mgs': 0, 'depth': -0.217, 'time': 11.71, 'pitch': 0.96, 'roll': 2.87}
{'lipoC2': 8.08, 'temp': 30.75, 'lipoC3S3': 12.42, 'rot1': 960, 'rot0': 145, 'rot3': 0, 'rot2': 0, 'state': 'normal', 'yaw': 1.13, 'datetime': '2018-10-12 19:51:19.924058', 'mgs': 0, 'depth': -0.217, 'time': 11.81, 'pitch': 0.96, 'roll': 2.87}
{'lipoC2': 8.07, 'temp': 30.75, 'lipoC3S3': 12.41, 'rot1': 968, 'rot0': 147, 'rot3': 0, 'rot2': 0, 'state': 'normal', 'yaw': 1.13, 'datetime': '2018-10-12 19:51:20.022409', 'mgs': 0, 'depth': -0.522, 'time': 11.91, 'pitch': 0.96, 'roll': 2.87}
{'lipoC2': 8.07, 'temp': 30.75, 'lipoC3S3': 12.42, 'rot1': 976, 'rot0': 148, 'rot3': 0, 'rot2': 0, 'state': 'normal', 'yaw': 1.13, 'datetime': '2018-10-12 19:51:20.120294', 'mgs': 0, 'depth': -0.98, 'time': 12.01, 'pitch': 0.96, 'roll': 2.86}
{'lipoC2': 8.07, 'temp': 30.75, 'lipoC3S3': 12.41, 'rot1': 984, 'rot0': 150, 'rot3': 0, 'rot2': 0, 'state': 'normal', 'yaw': 1.13, 'datetime': '2018-10-12 19:51:20.217659', 'mgs': 0, 'depth': -0.522, 'time': 12.1, 'pitch': 0.96, 'roll': 2.87}
{'lipoC2': 8.07, 'temp': 30.75, 'lipoC3S3': 12.42, 'rot1': 992, 'rot0': 152, 'rot3': 0, 'rot2': 0, 'state': 'normal', 'yaw': 1.13, 'datetime': '2018-10-12 19:51:20.315419', 'mgs': 0, 'depth': -0.903, 'time': 12.2, 'pitch': 0.96, 'roll': 2.89}
{'lipoC2': 8.07, 'temp': 30.75, 'lipoC3S3': 12.43, 'rot1': 1000, 'rot0': 154, 'rot3': 0, 'rot2': 0, 'state': 'normal', 'yaw': 1.13, 'datetime': '2018-10-12 19:51:20.413231', 'mgs': 0, 'depth': -1.056, 'time': 12.3, 'pitch': 0.96, 'roll': 2.9}
{'lipoC2': 8.07, 'temp': 30.75, 'lipoC3S3': 12.42, 'rot1': 1008, 'rot0': 156, 'rot3': 0, 'rot2': 0, 'state': 'normal', 'yaw': 1.13, 'datetime': '2018-10-12 19:51:20.503545', 'mgs': 0, 'depth': -1.056, 'time': 12.4, 'pitch': 0.96, 'roll': 2.88}
{'lipoC2': 8.07, 'temp': 30.75, 'lipoC3S3': 12.41, 'rot1': 1016, 'rot0': 157, 'rot3': 0, 'rot2': 0, 'state': 'normal', 'yaw': 1.13, 'datetime': '2018-10-12 19:51:20.605623', 'mgs': 0, 'depth': -0.903, 'time': 12.49, 'pitch': 0.96, 'roll': 2.9}
{'lipoC2': 8.07, 'temp': 30.75, 'lipoC3S3': 12.41, 'rot1': 1023, 'rot0': 159, 'rot3': 0, 'rot2': 0, 'state': 'normal', 'yaw': 1.13, 'datetime': '2018-10-12 19:51:20.703622', 'mgs': 0, 'depth': -1.208, 'time': 12.59, 'pitch': 0.96, 'roll': 2.88}
{'lipoC2': 8.07, 'temp': 30.75, 'lipoC3S3': 12.42, 'rot1': 1032, 'rot0': 161, 'rot3': 0, 'rot2': 0, 'state': 'normal', 'yaw': 1.13, 'datetime': '2018-10-12 19:51:20.802281', 'mgs': 0, 'depth': -0.674, 'time': 12.69, 'pitch': 0.95, 'roll': 2.9}
{'lipoC2': 8.07, 'temp': 30.75, 'lipoC3S3': 12.42, 'rot1': 1040, 'rot0': 163, 'rot3': 0, 'rot2': 0, 'state': 'normal', 'yaw': 1.13, 'datetime': '2018-10-12 19:51:20.900958', 'mgs': 0, 'depth': -0.98, 'time': 12.79, 'pitch': 0.96, 'roll': 2.88}
{'lipoC2': 8.07, 'temp': 30.75, 'lipoC3S3': 12.41, 'rot1': 1048, 'rot0': 165, 'rot3': 0, 'rot2': 0, 'state': 'normal', 'yaw': 1.13, 'datetime': '2018-10-12 19:51:20.998633', 'mgs': 0, 'depth': -0.217, 'time': 12.89, 'pitch': 0.96, 'roll': 2.87}
{'lipoC2': 8.07, 'temp': 30.75, 'lipoC3S3': 12.41, 'rot1': 1056, 'rot0': 167, 'rot3': 0, 'rot2': 0, 'state': 'normal', 'yaw': 1.13, 'datetime': '2018-10-12 19:51:21.096801', 'mgs': 0, 'depth': -1.208, 'time': 12.98, 'pitch': 0.96, 'roll': 2.88}
{'lipoC2': 8.07, 'temp': 30.75, 'lipoC3S3': 12.41, 'rot1': 1064, 'rot0': 168, 'rot3': 0, 'rot2': 0, 'state': 'normal', 'yaw': 1.13, 'datetime': '2018-10-12 19:51:21.194431', 'mgs': 0, 'depth': -0.14, 'time': 13.08, 'pitch': 0.96, 'roll': 2.92}
{'lipoC2': 8.07, 'temp': 30.75, 'lipoC3S3': 12.41, 'rot1': 1072, 'rot0': 170, 'rot3': 0, 'rot2': 0, 'state': 'normal', 'yaw': 1.13, 'datetime': '2018-10-12 19:51:21.293091', 'mgs': 0, 'depth': -0.903, 'time': 13.18, 'pitch': 0.97, 'roll': 2.92}
{'lipoC2': 8.08, 'temp': 30.75, 'lipoC3S3': 12.41, 'rot1': 1080, 'rot0': 172, 'rot3': 0, 'rot2': 0, 'state': 'normal', 'yaw': 1.13, 'datetime': '2018-10-12 19:51:21.391801', 'mgs': 0, 'depth': -1.056, 'time': 13.28, 'pitch': 0.97, 'roll': 2.93}
{'lipoC2': 8.08, 'temp': 30.81, 'lipoC3S3': 12.42, 'rot1': 1088, 'rot0': 174, 'rot3': 0, 'rot2': 0, 'state': 'normal', 'yaw': 1.13, 'datetime': '2018-10-12 19:51:21.489108', 'mgs': 0, 'depth': -0.98, 'time': 13.38, 'pitch': 0.97, 'roll': 2.92}
{'lipoC2': 8.07, 'temp': 30.81, 'lipoC3S3': 12.41, 'rot1': 1096, 'rot0': 176, 'rot3': 0, 'rot2': 0, 'state': 'normal', 'yaw': 1.13, 'datetime': '2018-10-12 19:51:21.586622', 'mgs': 0, 'depth': -0.217, 'time': 13.47, 'pitch': 0.96, 'roll': 2.93}
{'lipoC2': 8.07, 'temp': 30.81, 'lipoC3S3': 12.35, 'rot1': 1104, 'rot0': 177, 'rot3': 0, 'rot2': 0, 'state': 'normal', 'yaw': 1.13, 'datetime': '2018-10-12 19:51:21.684854', 'mgs': 0, 'depth': -0.98, 'time': 13.57, 'pitch': 0.96, 'roll': 2.89}
{'lipoC2': 8.08, 'temp': 30.81, 'lipoC3S3': 12.41, 'rot1': 1112, 'rot0': 179, 'rot3': 0, 'rot2': 0, 'state': 'normal', 'yaw': 1.13, 'datetime': '2018-10-12 19:51:21.783421', 'mgs': 0, 'depth': -0.98, 'time': 13.67, 'pitch': 0.96, 'roll': 2.91}
{'lipoC2': 8.08, 'temp': 30.81, 'lipoC3S3': 12.42, 'rot1': 1121, 'rot0': 181, 'rot3': 0, 'rot2': 0, 'state': 'normal', 'yaw': 1.13, 'datetime': '2018-10-12 19:51:21.882104', 'mgs': 0, 'depth': -0.446, 'time': 13.77, 'pitch': 0.96, 'roll': 2.91}
{'lipoC2': 8.08, 'temp': 30.81, 'lipoC3S3': 12.41, 'rot1': 1128, 'rot0': 183, 'rot3': 0, 'rot2': 0, 'state': 'normal', 'yaw': 1.13, 'datetime': '2018-10-12 19:51:21.979491', 'mgs': 0, 'depth': -0.751, 'time': 13.87, 'pitch': 0.95, 'roll': 2.93}
{'lipoC2': 8.07, 'temp': 30.81, 'lipoC3S3': 12.41, 'rot1': 1137, 'rot0': 185, 'rot3': 0, 'rot2': 0, 'state': 'normal', 'yaw': 1.13, 'datetime': '2018-10-12 19:51:22.077077', 'mgs': 0, 'depth': -1.056, 'time': 13.97, 'pitch': 0.96, 'roll': 2.91}
{'lipoC2': 8.07, 'temp': 30.81, 'lipoC3S3': 12.37, 'rot1': 1145, 'rot0': 186, 'rot3': 0, 'rot2': 0, 'state': 'normal', 'yaw': 1.13, 'datetime': '2018-10-12 19:51:22.175437', 'mgs': 0, 'depth': -0.98, 'time': 14.06, 'pitch': 0.96, 'roll': 2.95}
{'lipoC2': 8.08, 'temp': 30.81, 'lipoC3S3': 12.41, 'rot1': 1153, 'rot0': 188, 'rot3': 0, 'rot2': 0, 'state': 'normal', 'yaw': 1.13, 'datetime': '2018-10-12 19:51:22.274119', 'mgs': 0, 'depth': -0.598, 'time': 14.16, 'pitch': 0.96, 'roll': 2.94}
{'lipoC2': 8.08, 'temp': 30.81, 'lipoC3S3': 12.41, 'rot1': 1162, 'rot0': 190, 'rot3': 0, 'rot2': 0, 'state': 'normal', 'yaw': 1.13, 'datetime': '2018-10-12 19:51:22.370501', 'mgs': 0, 'depth': -1.132, 'time': 14.26, 'pitch': 0.96, 'roll': 2.94}
{'lipoC2': 8.07, 'temp': 30.75, 'lipoC3S3': 12.37, 'rot1': 1170, 'rot0': 192, 'rot3': 0, 'rot2': 0, 'state': 'normal', 'yaw': 1.13, 'datetime': '2018-10-12 19:51:22.469102', 'mgs': 0, 'depth': -1.056, 'time': 14.36, 'pitch': 0.96, 'roll': 2.91}
{'lipoC2': 8.07, 'temp': 30.75, 'lipoC3S3': 12.41, 'rot1': 1178, 'rot0': 194, 'rot3': 0, 'rot2': 0, 'state': 'normal', 'yaw': 1.13, 'datetime': '2018-10-12 19:51:22.566863', 'mgs': 0, 'depth': -0.217, 'time': 14.46, 'pitch': 0.95, 'roll': 2.93}
{'lipoC2': 8.08, 'temp': 30.81, 'lipoC3S3': 12.41, 'rot1': 1186, 'rot0': 195, 'rot3': 0, 'rot2': 0, 'state': 'normal', 'yaw': 1.13, 'datetime': '2018-10-12 19:51:22.664337', 'mgs': 0, 'depth': -1.59, 'time': 14.55, 'pitch': 0.95, 'roll': 2.93}
{'lipoC2': 8.08, 'temp': 30.81, 'lipoC3S3': 12.35, 'rot1': 1194, 'rot0': 197, 'rot3': 0, 'rot2': 0, 'state': 'normal', 'yaw': 1.13, 'datetime': '2018-10-12 19:51:22.761657', 'mgs': 0, 'depth': -1.056, 'time': 14.65, 'pitch': 0.96, 'roll': 2.95}
{'lipoC2': 8.07, 'temp': 30.81, 'lipoC3S3': 12.45, 'rot1': 1202, 'rot0': 199, 'rot3': 0, 'rot2': 0, 'state': 'normal', 'yaw': 1.13, 'datetime': '2018-10-12 19:51:22.859064', 'mgs': 0, 'depth': -1.056, 'time': 14.75, 'pitch': 0.96, 'roll': 2.94}
{'lipoC2': 8.07, 'temp': 30.75, 'lipoC3S3': 12.42, 'rot1': 1210, 'rot0': 201, 'rot3': 0, 'rot2': 0, 'state': 'normal', 'yaw': 1.13, 'datetime': '2018-10-12 19:51:22.957357', 'mgs': 0, 'depth': -1.056, 'time': 14.85, 'pitch': 0.96, 'roll': 2.95}
{'lipoC2': 8.07, 'temp': 30.75, 'lipoC3S3': 12.42, 'rot1': 1218, 'rot0': 203, 'rot3': 0, 'rot2': 0, 'state': 'normal', 'yaw': 1.13, 'datetime': '2018-10-12 19:51:23.055977', 'mgs': 0, 'depth': -1.056, 'time': 14.95, 'pitch': 0.96, 'roll': 2.94}
{'lipoC2': 8.07, 'temp': 30.75, 'lipoC3S3': 12.42, 'rot1': 1226, 'rot0': 205, 'rot3': 0, 'rot2': 0, 'state': 'normal', 'yaw': 1.13, 'datetime': '2018-10-12 19:51:23.154482', 'mgs': 0, 'depth': -1.056, 'time': 15.04, 'pitch': 0.96, 'roll': 2.95}
{'lipoC2': 8.07, 'temp': 30.75, 'lipoC3S3': 12.42, 'rot1': 1234, 'rot0': 207, 'rot3': 0, 'rot2': 0, 'state': 'normal', 'yaw': 1.13, 'datetime': '2018-10-12 19:51:23.251768', 'mgs': 0, 'depth': -1.056, 'time': 15.14, 'pitch': 0.96, 'roll': 2.94}
{'lipoC2': 8.08, 'temp': 30.75, 'lipoC3S3': 12.41, 'rot1': 1241, 'rot0': 209, 'rot3': 0, 'rot2': 0, 'state': 'normal', 'yaw': 1.13, 'datetime': '2018-10-12 19:51:23.349179', 'mgs': 0, 'depth': -0.446, 'time': 15.24, 'pitch': 0.96, 'roll': 2.94}
{'lipoC2': 8.07, 'temp': 30.75, 'lipoC3S3': 12.42, 'rot1': 1250, 'rot0': 211, 'rot3': 0, 'rot2': 0, 'state': 'normal', 'yaw': 1.13, 'datetime': '2018-10-12 19:51:23.447878', 'mgs': 0, 'depth': -0.522, 'time': 15.34, 'pitch': 0.96, 'roll': 2.93}
{'lipoC2': 8.07, 'temp': 30.75, 'lipoC3S3': 12.42, 'rot1': 1258, 'rot0': 212, 'rot3': 0, 'rot2': 0, 'state': 'normal', 'yaw': 1.13, 'datetime': '2018-10-12 19:51:23.546556', 'mgs': 0, 'depth': -0.98, 'time': 15.44, 'pitch': 0.96, 'roll': 2.93}
{'lipoC2': 8.07, 'temp': 30.81, 'lipoC3S3': 12.35, 'rot1': 1266, 'rot0': 214, 'rot3': 0, 'rot2': 0, 'state': 'normal', 'yaw': 1.13, 'datetime': '2018-10-12 19:51:23.644401', 'mgs': 0, 'depth': -1.056, 'time': 15.53, 'pitch': 0.96, 'roll': 2.92}
{'lipoC2': 8.07, 'temp': 30.81, 'lipoC3S3': 12.45, 'rot1': 1274, 'rot0': 216, 'rot3': 0, 'rot2': 0, 'state': 'normal', 'yaw': 1.13, 'datetime': '2018-10-12 19:51:23.741669', 'mgs': 0, 'depth': -0.98, 'time': 15.63, 'pitch': 0.96, 'roll': 2.92}
{'lipoC2': 8.07, 'temp': 30.81, 'lipoC3S3': 12.42, 'rot1': 1282, 'rot0': 218, 'rot3': 0, 'rot2': 0, 'state': 'normal', 'yaw': 1.13, 'datetime': '2018-10-12 19:51:23.839100', 'mgs': 0, 'depth': -0.98, 'time': 15.73, 'pitch': 0.96, 'roll': 2.92}
{'lipoC2': 8.08, 'temp': 30.81, 'lipoC3S3': 12.37, 'rot1': 1290, 'rot0': 219, 'rot3': 0, 'rot2': 0, 'state': 'normal', 'yaw': 1.13, 'datetime': '2018-10-12 19:51:23.937779', 'mgs': 0, 'depth': -1.056, 'time': 15.83, 'pitch': 0.96, 'roll': 2.92}
{'lipoC2': 8.08, 'temp': 30.81, 'lipoC3S3': 12.41, 'rot1': 1298, 'rot0': 221, 'rot3': 0, 'rot2': 0, 'state': 'normal', 'yaw': 1.13, 'datetime': '2018-10-12 19:51:24.036621', 'mgs': 0, 'depth': -0.98, 'time': 15.93, 'pitch': 0.96, 'roll': 2.92}
{'lipoC2': 8.07, 'temp': 30.81, 'lipoC3S3': 12.34, 'rot1': 1306, 'rot0': 223, 'rot3': 0, 'rot2': 0, 'state': 'normal', 'yaw': 1.13, 'datetime': '2018-10-12 19:51:24.134119', 'mgs': 0, 'depth': -1.056, 'time': 16.02, 'pitch': 0.96, 'roll': 2.92}
{'lipoC2': 8.07, 'temp': 30.81, 'lipoC3S3': 12.46, 'rot1': 1314, 'rot0': 225, 'rot3': 0, 'rot2': 0, 'state': 'normal', 'yaw': 1.13, 'datetime': '2018-10-12 19:51:24.231245', 'mgs': 0, 'depth': -1.056, 'time': 16.12, 'pitch': 0.96, 'roll': 2.92}
{'lipoC2': 8.08, 'temp': 30.81, 'lipoC3S3': 12.41, 'rot1': 1322, 'rot0': 227, 'rot3': 0, 'rot2': 0, 'state': 'normal', 'yaw': 1.13, 'datetime': '2018-10-12 19:51:24.329380', 'mgs': 0, 'depth': -0.446, 'time': 16.22, 'pitch': 0.96, 'roll': 2.92}
{'lipoC2': 8.07, 'temp': 30.75, 'lipoC3S3': 12.41, 'rot1': 1330, 'rot0': 228, 'rot3': 0, 'rot2': 0, 'state': 'normal', 'yaw': 1.13, 'datetime': '2018-10-12 19:51:24.428076', 'mgs': 0, 'depth': -1.056, 'time': 16.32, 'pitch': 0.96, 'roll': 2.92}
{'lipoC2': 8.08, 'temp': 30.75, 'lipoC3S3': 12.39, 'rot1': 1338, 'rot0': 230, 'rot3': 0, 'rot2': 0, 'state': 'normal', 'yaw': 1.13, 'datetime': '2018-10-12 19:51:24.526144', 'mgs': 0, 'depth': -1.056, 'time': 16.42, 'pitch': 0.96, 'roll': 2.92}
{'lipoC2': 8.08, 'temp': 30.75, 'lipoC3S3': 12.37, 'rot1': 1346, 'rot0': 232, 'rot3': 0, 'rot2': 0, 'state': 'normal', 'yaw': 1.13, 'datetime': '2018-10-12 19:51:24.623864', 'mgs': 0, 'depth': -1.056, 'time': 16.51, 'pitch': 0.96, 'roll': 2.92}
{'lipoC2': 8.07, 'temp': 30.75, 'lipoC3S3': 12.42, 'rot1': 1354, 'rot0': 234, 'rot3': 0, 'rot2': 0, 'state': 'normal', 'yaw': 1.13, 'datetime': '2018-10-12 19:51:24.720953', 'mgs': 0, 'depth': -0.98, 'time': 16.61, 'pitch': 0.96, 'roll': 2.92}
{'lipoC2': 8.07, 'temp': 30.75, 'lipoC3S3': 12.41, 'rot1': 1363, 'rot0': 236, 'rot3': 0, 'rot2': 0, 'state': 'normal', 'yaw': 1.13, 'datetime': '2018-10-12 19:51:24.819208', 'mgs': 0, 'depth': -0.217, 'time': 16.71, 'pitch': 0.96, 'roll': 2.92}
{'lipoC2': 8.08, 'temp': 30.81, 'lipoC3S3': 12.41, 'rot1': 1370, 'rot0': 238, 'rot3': 0, 'rot2': 0, 'state': 'normal', 'yaw': 1.13, 'datetime': '2018-10-12 19:51:24.916524', 'mgs': 0, 'depth': -0.446, 'time': 16.81, 'pitch': 0.96, 'roll': 2.92}
{'lipoC2': 8.08, 'temp': 30.81, 'lipoC3S3': 12.41, 'rot1': 1378, 'rot0': 239, 'rot3': 0, 'rot2': 0, 'state': 'normal', 'yaw': 1.13, 'datetime': '2018-10-12 19:51:25.013966', 'mgs': 0, 'depth': -0.98, 'time': 16.91, 'pitch': 0.96, 'roll': 2.92}
{'lipoC2': 8.07, 'temp': 30.75, 'lipoC3S3': 12.41, 'rot1': 1386, 'rot0': 241, 'rot3': 0, 'rot2': 0, 'state': 'normal', 'yaw': 1.13, 'datetime': '2018-10-12 19:51:25.111865', 'mgs': 0, 'depth': -0.446, 'time': 17.0, 'pitch': 0.96, 'roll': 2.92}
{'lipoC2': 8.07, 'temp': 30.75, 'lipoC3S3': 12.41, 'rot1': 1395, 'rot0': 243, 'rot3': 0, 'rot2': 0, 'state': 'normal', 'yaw': 1.13, 'datetime': '2018-10-12 19:51:25.210399', 'mgs': 0, 'depth': -1.056, 'time': 17.1, 'pitch': 0.96, 'roll': 2.92}
{'lipoC2': 8.08, 'temp': 30.75, 'lipoC3S3': 12.42, 'rot1': 1400, 'rot0': 245, 'rot3': 0, 'rot2': 0, 'state': 'normal', 'yaw': 1.13, 'datetime': '2018-10-12 19:51:25.309083', 'mgs': 0, 'depth': -1.056, 'time': 17.2, 'pitch': 0.96, 'roll': 2.92}
{'lipoC2': 8.08, 'temp': 30.81, 'lipoC3S3': 12.41, 'rot1': 1406, 'rot0': 247, 'rot3': 0, 'rot2': 0, 'state': 'normal', 'yaw': 1.13, 'datetime': '2018-10-12 19:51:25.407283', 'mgs': 0, 'depth': -1.132, 'time': 17.3, 'pitch': 0.96, 'roll': 2.92}
{'lipoC2': 8.07, 'temp': 30.81, 'lipoC3S3': 12.37, 'rot1': 1412, 'rot0': 249, 'rot3': 0, 'rot2': 0, 'state': 'normal', 'yaw': 1.13, 'datetime': '2018-10-12 19:51:25.504339', 'mgs': 0, 'depth': -0.98, 'time': 17.4, 'pitch': 0.96, 'roll': 2.92}
{'lipoC2': 8.08, 'temp': 30.75, 'lipoC3S3': 12.41, 'rot1': 1417, 'rot0': 251, 'rot3': 0, 'rot2': 0, 'state': 'normal', 'yaw': 1.13, 'datetime': '2018-10-12 19:51:25.602500', 'mgs': 0, 'depth': -1.056, 'time': 17.5, 'pitch': 0.96, 'roll': 2.92}
{'lipoC2': 8.07, 'temp': 30.75, 'lipoC3S3': 12.42, 'rot1': 1421, 'rot0': 252, 'rot3': 0, 'rot2': 0, 'state': 'normal', 'yaw': 1.13, 'datetime': '2018-10-12 19:51:25.700935', 'mgs': 0, 'depth': -1.132, 'time': 17.59, 'pitch': 0.96, 'roll': 2.92}
{'lipoC2': 8.07, 'temp': 30.75, 'lipoC3S3': 12.43, 'rot1': 1421, 'rot0': 252, 'rot3': 0, 'rot2': 0, 'state': 'normal', 'yaw': 1.13, 'datetime': '2018-10-12 19:51:25.799482', 'mgs': 0, 'depth': -1.056, 'time': 17.69, 'pitch': 0.96, 'roll': 2.92}
{'lipoC2': 8.09, 'temp': 30.81, 'lipoC3S3': 12.37, 'rot1': 1421, 'rot0': 252, 'rot3': 1, 'rot2': 0, 'state': 'normal', 'yaw': 1.13, 'datetime': '2018-10-12 19:51:25.897055', 'mgs': 0, 'depth': -0.369, 'time': 17.79, 'pitch': 0.96, 'roll': 2.92}
{'lipoC2': 8.07, 'temp': 30.81, 'lipoC3S3': 12.31, 'rot1': 1427, 'rot0': 257, 'rot3': 1, 'rot2': 1, 'state': 'normal', 'yaw': 1.13, 'datetime': '2018-10-12 19:51:25.994332', 'mgs': 0, 'depth': 0.928, 'time': 17.89, 'pitch': 0.96, 'roll': 2.92}
{'lipoC2': 8.09, 'temp': 30.75, 'lipoC3S3': 12.3, 'rot1': 1435, 'rot0': 260, 'rot3': 2, 'rot2': 2, 'state': 'normal', 'yaw': 1.13, 'datetime': '2018-10-12 19:51:26.092774', 'mgs': 0, 'depth': -1.208, 'time': 17.99, 'pitch': 0.96, 'roll': 2.92}
{'lipoC2': 8.09, 'temp': 30.75, 'lipoC3S3': 12.33, 'rot1': 1445, 'rot0': 263, 'rot3': 2, 'rot2': 3, 'state': 'normal', 'yaw': 1.12, 'datetime': '2018-10-12 19:51:26.191239', 'mgs': 0, 'depth': 0.089, 'time': 18.08, 'pitch': 0.96, 'roll': 2.92}
{'lipoC2': 8.08, 'temp': 30.81, 'lipoC3S3': 12.37, 'rot1': 1455, 'rot0': 266, 'rot3': 3, 'rot2': 4, 'state': 'normal', 'yaw': 1.1, 'datetime': '2018-10-12 19:51:26.289956', 'mgs': 0, 'depth': -0.14, 'time': 18.18, 'pitch': 0.97, 'roll': 2.91}
{'lipoC2': 8.08, 'temp': 30.81, 'lipoC3S3': 12.33, 'rot1': 1465, 'rot0': 269, 'rot3': 4, 'rot2': 5, 'state': 'normal', 'yaw': 1.1, 'datetime': '2018-10-12 19:51:26.387262', 'mgs': 0, 'depth': 0.012, 'time': 18.28, 'pitch': 0.97, 'roll': 2.91}
{'lipoC2': 8.08, 'temp': 30.81, 'lipoC3S3': 12.3, 'rot1': 1474, 'rot0': 272, 'rot3': 4, 'rot2': 6, 'state': 'normal', 'yaw': 1.12, 'datetime': '2018-10-12 19:51:26.484728', 'mgs': 0, 'depth': -1.743, 'time': 18.38, 'pitch': 0.97, 'roll': 2.94}
{'lipoC2': 8.09, 'temp': 30.75, 'lipoC3S3': 12.31, 'rot1': 1484, 'rot0': 275, 'rot3': 5, 'rot2': 7, 'state': 'normal', 'yaw': 1.12, 'datetime': '2018-10-12 19:51:26.583408', 'mgs': 0, 'depth': 0.241, 'time': 18.48, 'pitch': 0.97, 'roll': 2.96}
{'lipoC2': 8.08, 'temp': 30.75, 'lipoC3S3': 12.37, 'rot1': 1494, 'rot0': 278, 'rot3': 6, 'rot2': 8, 'state': 'normal', 'yaw': 1.13, 'datetime': '2018-10-12 19:51:26.682020', 'mgs': 0, 'depth': -0.293, 'time': 18.58, 'pitch': 0.96, 'roll': 2.94}
{'lipoC2': 8.07, 'temp': 30.81, 'lipoC3S3': 12.38, 'rot1': 1503, 'rot0': 281, 'rot3': 6, 'rot2': 9, 'state': 'normal', 'yaw': 1.13, 'datetime': '2018-10-12 19:51:26.780708', 'mgs': 0, 'depth': -0.598, 'time': 18.67, 'pitch': 0.96, 'roll': 2.95}
{'lipoC2': 8.07, 'temp': 30.81, 'lipoC3S3': 12.37, 'rot1': 1513, 'rot0': 284, 'rot3': 7, 'rot2': 10, 'state': 'normal', 'yaw': 1.13, 'datetime': '2018-10-12 19:51:26.878369', 'mgs': 0, 'depth': -0.064, 'time': 18.77, 'pitch': 0.96, 'roll': 2.98}
{'lipoC2': 8.08, 'temp': 30.81, 'lipoC3S3': 12.37, 'rot1': 1522, 'rot0': 287, 'rot3': 7, 'rot2': 11, 'state': 'normal', 'yaw': 1.12, 'datetime': '2018-10-12 19:51:26.973926', 'mgs': 0, 'depth': -0.14, 'time': 18.87, 'pitch': 0.96, 'roll': 2.97}
{'lipoC2': 8.07, 'temp': 30.81, 'lipoC3S3': 12.38, 'rot1': 1531, 'rot0': 290, 'rot3': 8, 'rot2': 12, 'state': 'normal', 'yaw': 1.11, 'datetime': '2018-10-12 19:51:27.073239', 'mgs': 0, 'depth': -0.522, 'time': 18.97, 'pitch': 0.96, 'roll': 2.96}
{'lipoC2': 8.07, 'temp': 30.81, 'lipoC3S3': 12.46, 'rot1': 1540, 'rot0': 293, 'rot3': 9, 'rot2': 13, 'state': 'normal', 'yaw': 1.11, 'datetime': '2018-10-12 19:51:27.172274', 'mgs': 0, 'depth': -0.674, 'time': 19.07, 'pitch': 0.96, 'roll': 2.95}
{'lipoC2': 8.07, 'temp': 30.81, 'lipoC3S3': 12.42, 'rot1': 1549, 'rot0': 297, 'rot3': 9, 'rot2': 13, 'state': 'normal', 'yaw': 1.12, 'datetime': '2018-10-12 19:51:27.265903', 'mgs': 0, 'depth': -0.522, 'time': 19.16, 'pitch': 0.96, 'roll': 2.97}
{'lipoC2': 8.08, 'temp': 30.81, 'lipoC3S3': 12.41, 'rot1': 1559, 'rot0': 300, 'rot3': 10, 'rot2': 14, 'state': 'normal', 'yaw': 1.11, 'datetime': '2018-10-12 19:51:27.367005', 'mgs': 0, 'depth': -1.056, 'time': 19.26, 'pitch': 0.96, 'roll': 2.98}
{'lipoC2': 8.07, 'temp': 30.81, 'lipoC3S3': 12.38, 'rot1': 1569, 'rot0': 303, 'rot3': 11, 'rot2': 15, 'state': 'normal', 'yaw': 1.1, 'datetime': '2018-10-12 19:51:27.466264', 'mgs': 0, 'depth': -1.056, 'time': 19.36, 'pitch': 0.95, 'roll': 2.97}
{'lipoC2': 8.08, 'temp': 30.81, 'lipoC3S3': 12.37, 'rot1': 1578, 'rot0': 306, 'rot3': 11, 'rot2': 16, 'state': 'normal', 'yaw': 1.1, 'datetime': '2018-10-12 19:51:27.565256', 'mgs': 0, 'depth': -0.217, 'time': 19.46, 'pitch': 0.95, 'roll': 2.98}
{'lipoC2': 8.07, 'temp': 30.81, 'lipoC3S3': 12.3, 'rot1': 1587, 'rot0': 309, 'rot3': 12, 'rot2': 17, 'state': 'normal', 'yaw': 1.11, 'datetime': '2018-10-12 19:51:27.664874', 'mgs': 0, 'depth': -2.048, 'time': 19.56, 'pitch': 0.95, 'roll': 2.97}
{'lipoC2': 8.08, 'temp': 30.81, 'lipoC3S3': 12.37, 'rot1': 1596, 'rot0': 312, 'rot3': 12, 'rot2': 18, 'state': 'normal', 'yaw': 1.11, 'datetime': '2018-10-12 19:51:27.763364', 'mgs': 0, 'depth': -0.598, 'time': 19.66, 'pitch': 0.95, 'roll': 2.95}
{'lipoC2': 8.07, 'temp': 30.81, 'lipoC3S3': 12.3, 'rot1': 1604, 'rot0': 315, 'rot3': 13, 'rot2': 19, 'state': 'normal', 'yaw': 1.11, 'datetime': '2018-10-12 19:51:27.861836', 'mgs': 0, 'depth': -0.98, 'time': 19.76, 'pitch': 0.95, 'roll': 2.96}
{'lipoC2': 8.08, 'temp': 30.81, 'lipoC3S3': 12.33, 'rot1': 1614, 'rot0': 318, 'rot3': 14, 'rot2': 20, 'state': 'normal', 'yaw': 1.13, 'datetime': '2018-10-12 19:51:27.959129', 'mgs': 0, 'depth': -0.293, 'time': 19.85, 'pitch': 0.95, 'roll': 2.97}
{'lipoC2': 8.07, 'temp': 30.81, 'lipoC3S3': 12.3, 'rot1': 1623, 'rot0': 321, 'rot3': 14, 'rot2': 21, 'state': 'normal', 'yaw': 1.13, 'datetime': '2018-10-12 19:51:28.057550', 'mgs': 0, 'depth': -1.056, 'time': 19.95, 'pitch': 0.95, 'roll': 2.98}
{'lipoC2': 8.07, 'temp': 30.81, 'lipoC3S3': 12.37, 'rot1': 1632, 'rot0': 324, 'rot3': 15, 'rot2': 22, 'state': 'normal', 'yaw': 1.12, 'datetime': '2018-10-12 19:51:28.156472', 'mgs': 0, 'depth': -0.751, 'time': 20.05, 'pitch': 0.95, 'roll': 2.99}
{'lipoC2': 8.09, 'temp': 30.81, 'lipoC3S3': 12.33, 'rot1': 1641, 'rot0': 327, 'rot3': 16, 'rot2': 23, 'state': 'normal', 'yaw': 1.1, 'datetime': '2018-10-12 19:51:28.255534', 'mgs': 0, 'depth': -0.903, 'time': 20.15, 'pitch': 0.95, 'roll': 3.0}
{'lipoC2': 8.08, 'temp': 30.81, 'lipoC3S3': 12.33, 'rot1': 1650, 'rot0': 330, 'rot3': 16, 'rot2': 24, 'state': 'normal', 'yaw': 1.13, 'datetime': '2018-10-12 19:51:28.354168', 'mgs': 0, 'depth': 0.089, 'time': 20.25, 'pitch': 0.94, 'roll': 2.97}
{'lipoC2': 8.07, 'temp': 30.81, 'lipoC3S3': 12.39, 'rot1': 1658, 'rot0': 333, 'rot3': 17, 'rot2': 25, 'state': 'normal', 'yaw': 1.14, 'datetime': '2018-10-12 19:51:28.452185', 'mgs': 0, 'depth': -0.98, 'time': 20.35, 'pitch': 0.95, 'roll': 2.99}
{'lipoC2': 8.08, 'temp': 30.75, 'lipoC3S3': 12.31, 'rot1': 1667, 'rot0': 336, 'rot3': 18, 'rot2': 26, 'state': 'normal', 'yaw': 1.16, 'datetime': '2018-10-12 19:51:28.549924', 'mgs': 0, 'depth': -2.277, 'time': 20.44, 'pitch': 0.95, 'roll': 3.0}
