{'lipoC2': 7.9, 'temp': 24.56, 'lipoC3S3': 11.93, 'rot1': 0, 'rot0': 0, 'rot3': 0, 'rot2': 0, 'state': 'normal', 'yaw': 0.0, 'datetime': '2018-10-12 13:35:53.749025', 'mgs': 0, 'depth': 1.767, 'time': 1.26, 'pitch': -3.76, 'roll': -3.26}
{'lipoC2': 7.9, 'temp': 24.56, 'lipoC3S3': 11.93, 'rot1': 0, 'rot0': 0, 'rot3': 0, 'rot2': 0, 'state': 'normal', 'yaw': 0.03, 'datetime': '2018-10-12 13:35:53.765844', 'mgs': 0, 'depth': 1.691, 'time': 1.36, 'pitch': -4.06, 'roll': -3.97}
{'lipoC2': 7.91, 'temp': 24.56, 'lipoC3S3': 11.93, 'rot1': 0, 'rot0': 0, 'rot3': 0, 'rot2': 0, 'state': 'normal', 'yaw': 0.04, 'datetime': '2018-10-12 13:35:53.782693', 'mgs': 0, 'depth': 1.843, 'time': 1.45, 'pitch': -4.14, 'roll': -4.47}
{'lipoC2': 7.9, 'temp': 24.56, 'lipoC3S3': 11.94, 'rot1': 0, 'rot0': 0, 'rot3': 0, 'rot2': 0, 'state': 'normal', 'yaw': 0.08, 'datetime': '2018-10-12 13:35:53.799411', 'mgs': 0, 'depth': 1.691, 'time': 1.55, 'pitch': -3.97, 'roll': -3.92}
{'lipoC2': 7.9, 'temp': 24.56, 'lipoC3S3': 11.93, 'rot1': 0, 'rot0': 0, 'rot3': 0, 'rot2': 0, 'state': 'normal', 'yaw': 0.18, 'datetime': '2018-10-12 13:35:53.816154', 'mgs': 0, 'depth': 1.767, 'time': 1.65, 'pitch': -3.69, 'roll': -3.68}
{'lipoC2': 7.91, 'temp': 24.56, 'lipoC3S3': 11.93, 'rot1': 0, 'rot0': 0, 'rot3': 0, 'rot2': 0, 'state': 'normal', 'yaw': 0.07, 'datetime': '2018-10-12 13:35:53.832989', 'mgs': 0, 'depth': 1.767, 'time': 1.74, 'pitch': -3.49, 'roll': -3.93}
{'lipoC2': 7.9, 'temp': 24.56, 'lipoC3S3': 11.94, 'rot1': 0, 'rot0': 0, 'rot3': 0, 'rot2': 0, 'state': 'normal', 'yaw': -0.19, 'datetime': '2018-10-12 13:35:53.882247', 'mgs': 0, 'depth': 1.691, 'time': 1.84, 'pitch': -3.39, 'roll': -4.53}
{'lipoC2': 7.9, 'temp': 24.56, 'lipoC3S3': 11.93, 'rot1': 0, 'rot0': 0, 'rot3': 0, 'rot2': 0, 'state': 'normal', 'yaw': -0.55, 'datetime': '2018-10-12 13:35:53.975423', 'mgs': 0, 'depth': 1.767, 'time': 1.94, 'pitch': -3.27, 'roll': -5.08}
{'lipoC2': 7.91, 'temp': 24.56, 'lipoC3S3': 11.93, 'rot1': 0, 'rot0': 0, 'rot3': 0, 'rot2': 0, 'state': 'normal', 'yaw': -0.84, 'datetime': '2018-10-12 13:35:54.072383', 'mgs': 0, 'depth': 1.767, 'time': 2.04, 'pitch': -3.01, 'roll': -4.8}
{'lipoC2': 7.9, 'temp': 24.56, 'lipoC3S3': 11.94, 'rot1': 0, 'rot0': 0, 'rot3': 0, 'rot2': 0, 'state': 'normal', 'yaw': -1.04, 'datetime': '2018-10-12 13:35:54.170713', 'mgs': 0, 'depth': 1.767, 'time': 2.13, 'pitch': -2.67, 'roll': -4.41}
{'lipoC2': 7.9, 'temp': 24.56, 'lipoC3S3': 11.93, 'rot1': 0, 'rot0': 0, 'rot3': 0, 'rot2': 0, 'state': 'normal', 'yaw': -1.31, 'datetime': '2018-10-12 13:35:54.268982', 'mgs': 0, 'depth': 1.767, 'time': 2.23, 'pitch': -2.26, 'roll': -4.25}
{'lipoC2': 7.9, 'temp': 24.56, 'lipoC3S3': 11.94, 'rot1': 0, 'rot0': 0, 'rot3': 0, 'rot2': 0, 'state': 'normal', 'yaw': -1.66, 'datetime': '2018-10-12 13:35:54.365998', 'mgs': 0, 'depth': 1.614, 'time': 2.33, 'pitch': -1.89, 'roll': -4.14}
{'lipoC2': 7.9, 'temp': 24.56, 'lipoC3S3': 11.93, 'rot1': 0, 'rot0': 0, 'rot3': 0, 'rot2': 0, 'state': 'normal', 'yaw': -2.02, 'datetime': '2018-10-12 13:35:54.463000', 'mgs': 0, 'depth': 1.767, 'time': 2.43, 'pitch': -1.6, 'roll': -4.25}
{'lipoC2': 7.9, 'temp': 24.56, 'lipoC3S3': 11.94, 'rot1': 0, 'rot0': 0, 'rot3': 0, 'rot2': 0, 'state': 'normal', 'yaw': -2.29, 'datetime': '2018-10-12 13:35:54.561312', 'mgs': 0, 'depth': 1.691, 'time': 2.53, 'pitch': -1.38, 'roll': -4.4}
{'lipoC2': 7.9, 'temp': 24.56, 'lipoC3S3': 11.93, 'rot1': 0, 'rot0': 0, 'rot3': 0, 'rot2': 0, 'state': 'normal', 'yaw': -2.5, 'datetime': '2018-10-12 13:35:54.664623', 'mgs': 0, 'depth': 1.767, 'time': 2.62, 'pitch': -1.15, 'roll': -4.31}
{'lipoC2': 7.9, 'temp': 24.5, 'lipoC3S3': 11.93, 'rot1': 0, 'rot0': 0, 'rot3': 0, 'rot2': 0, 'state': 'normal', 'yaw': -2.61, 'datetime': '2018-10-12 13:35:54.761655', 'mgs': 0, 'depth': 1.691, 'time': 2.72, 'pitch': -0.98, 'roll': -4.17}
{'lipoC2': 7.91, 'temp': 24.5, 'lipoC3S3': 11.93, 'rot1': 0, 'rot0': 0, 'rot3': 0, 'rot2': 0, 'state': 'normal', 'yaw': -2.75, 'datetime': '2018-10-12 13:35:54.858541', 'mgs': 0, 'depth': 1.691, 'time': 2.82, 'pitch': -1.01, 'roll': -4.31}
{'lipoC2': 7.9, 'temp': 24.56, 'lipoC3S3': 11.94, 'rot1': 0, 'rot0': 0, 'rot3': 0, 'rot2': 0, 'state': 'normal', 'yaw': -2.89, 'datetime': '2018-10-12 13:35:54.956912', 'mgs': 0, 'depth': 1.767, 'time': 2.92, 'pitch': -1.2, 'roll': -4.54}
{'lipoC2': 7.9, 'temp': 24.56, 'lipoC3S3': 11.93, 'rot1': 0, 'rot0': 0, 'rot3': 0, 'rot2': 0, 'state': 'normal', 'yaw': -2.96, 'datetime': '2018-10-12 13:35:55.054674', 'mgs': 0, 'depth': 1.691, 'time': 3.01, 'pitch': -1.51, 'roll': -4.54}
{'lipoC2': 7.9, 'temp': 24.56, 'lipoC3S3': 11.93, 'rot1': 0, 'rot0': 0, 'rot3': 0, 'rot2': 0, 'state': 'normal', 'yaw': -2.88, 'datetime': '2018-10-12 13:35:55.151697', 'mgs': 0, 'depth': 1.767, 'time': 3.11, 'pitch': -1.92, 'roll': -4.61}
{'lipoC2': 7.91, 'temp': 24.56, 'lipoC3S3': 11.93, 'rot1': 0, 'rot0': 0, 'rot3': 0, 'rot2': 0, 'state': 'normal', 'yaw': -2.68, 'datetime': '2018-10-12 13:35:55.248732', 'mgs': 0, 'depth': 1.691, 'time': 3.21, 'pitch': -2.4, 'roll': -4.51}
{'lipoC2': 7.9, 'temp': 24.56, 'lipoC3S3': 11.93, 'rot1': 0, 'rot0': 0, 'rot3': 0, 'rot2': 0, 'state': 'normal', 'yaw': -2.37, 'datetime': '2018-10-12 13:35:55.345770', 'mgs': 0, 'depth': 1.691, 'time': 3.31, 'pitch': -2.79, 'roll': -4.37}
{'lipoC2': 7.91, 'temp': 24.56, 'lipoC3S3': 11.94, 'rot1': 0, 'rot0': 0, 'rot3': 0, 'rot2': 0, 'state': 'normal', 'yaw': -1.89, 'datetime': '2018-10-12 13:35:55.442735', 'mgs': 0, 'depth': 1.767, 'time': 3.4, 'pitch': -3.13, 'roll': -4.78}
{'lipoC2': 7.91, 'temp': 24.56, 'lipoC3S3': 11.94, 'rot1': 0, 'rot0': 0, 'rot3': 0, 'rot2': 0, 'state': 'normal', 'yaw': -1.55, 'datetime': '2018-10-12 13:35:55.539822', 'mgs': 0, 'depth': 1.767, 'time': 3.5, 'pitch': -3.4, 'roll': -5.37}
{'lipoC2': 7.91, 'temp': 24.56, 'lipoC3S3': 11.93, 'rot1': 0, 'rot0': 0, 'rot3': 0, 'rot2': 0, 'state': 'normal', 'yaw': -1.32, 'datetime': '2018-10-12 13:35:55.636886', 'mgs': 0, 'depth': 1.767, 'time': 3.6, 'pitch': -3.55, 'roll': -5.62}
{'lipoC2': 7.91, 'temp': 24.56, 'lipoC3S3': 11.93, 'rot1': 0, 'rot0': 0, 'rot3': 0, 'rot2': 0, 'state': 'normal', 'yaw': -1.11, 'datetime': '2018-10-12 13:35:55.733863', 'mgs': 0, 'depth': 1.691, 'time': 3.69, 'pitch': -3.58, 'roll': -5.8}
{'lipoC2': 7.9, 'temp': 24.56, 'lipoC3S3': 11.93, 'rot1': 0, 'rot0': 0, 'rot3': 0, 'rot2': 0, 'state': 'normal', 'yaw': -0.83, 'datetime': '2018-10-12 13:35:55.830795', 'mgs': 0, 'depth': 1.767, 'time': 3.79, 'pitch': -3.58, 'roll': -6.04}
{'lipoC2': 7.9, 'temp': 24.56, 'lipoC3S3': 11.93, 'rot1': 0, 'rot0': 0, 'rot3': 0, 'rot2': 0, 'state': 'normal', 'yaw': -0.61, 'datetime': '2018-10-12 13:35:55.929187', 'mgs': 0, 'depth': 1.691, 'time': 3.89, 'pitch': -3.7, 'roll': -6.06}
{'lipoC2': 7.91, 'temp': 24.56, 'lipoC3S3': 11.93, 'rot1': 0, 'rot0': 0, 'rot3': 0, 'rot2': 0, 'state': 'normal', 'yaw': -0.45, 'datetime': '2018-10-12 13:35:56.027538', 'mgs': 0, 'depth': 1.767, 'time': 3.99, 'pitch': -3.95, 'roll': -5.76}
{'lipoC2': 7.9, 'temp': 24.56, 'lipoC3S3': 11.94, 'rot1': 0, 'rot0': 0, 'rot3': 0, 'rot2': 0, 'state': 'normal', 'yaw': -0.33, 'datetime': '2018-10-12 13:35:56.124974', 'mgs': 0, 'depth': 1.691, 'time': 4.09, 'pitch': -4.16, 'roll': -5.46}
{'lipoC2': 7.9, 'temp': 24.56, 'lipoC3S3': 11.94, 'rot1': 0, 'rot0': 0, 'rot3': 0, 'rot2': 0, 'state': 'normal', 'yaw': -0.29, 'datetime': '2018-10-12 13:35:56.221910', 'mgs': 0, 'depth': 1.691, 'time': 4.18, 'pitch': -4.2, 'roll': -5.43}
{'lipoC2': 7.9, 'temp': 24.56, 'lipoC3S3': 11.94, 'rot1': 0, 'rot0': 0, 'rot3': 0, 'rot2': 0, 'state': 'normal', 'yaw': -0.26, 'datetime': '2018-10-12 13:35:56.317460', 'mgs': 0, 'depth': 1.614, 'time': 4.28, 'pitch': -4.01, 'roll': -5.53}
{'lipoC2': 7.9, 'temp': 24.56, 'lipoC3S3': 11.93, 'rot1': 0, 'rot0': 0, 'rot3': 0, 'rot2': 0, 'state': 'normal', 'yaw': -0.18, 'datetime': '2018-10-12 13:35:56.418293', 'mgs': 0, 'depth': 1.691, 'time': 4.38, 'pitch': -3.6, 'roll': -5.61}
{'lipoC2': 7.9, 'temp': 24.56, 'lipoC3S3': 11.93, 'rot1': 0, 'rot0': 0, 'rot3': 0, 'rot2': 0, 'state': 'normal', 'yaw': -0.08, 'datetime': '2018-10-12 13:35:56.515226', 'mgs': 0, 'depth': 1.691, 'time': 4.48, 'pitch': -3.13, 'roll': -5.61}
{'lipoC2': 7.9, 'temp': 24.56, 'lipoC3S3': 11.93, 'rot1': 0, 'rot0': 0, 'rot3': 0, 'rot2': 0, 'state': 'normal', 'yaw': -0.0, 'datetime': '2018-10-12 13:35:56.612252', 'mgs': 0, 'depth': 1.767, 'time': 4.57, 'pitch': -2.78, 'roll': -5.46}
{'lipoC2': 7.9, 'temp': 24.56, 'lipoC3S3': 11.93, 'rot1': 0, 'rot0': 0, 'rot3': 0, 'rot2': 0, 'state': 'normal', 'yaw': 0.09, 'datetime': '2018-10-12 13:35:56.710502', 'mgs': 0, 'depth': 1.691, 'time': 4.67, 'pitch': -2.63, 'roll': -5.28}
{'lipoC2': 7.91, 'temp': 24.56, 'lipoC3S3': 11.93, 'rot1': 0, 'rot0': 0, 'rot3': 0, 'rot2': 0, 'state': 'normal', 'yaw': 0.26, 'datetime': '2018-10-12 13:35:56.808874', 'mgs': 0, 'depth': 1.691, 'time': 4.77, 'pitch': -2.65, 'roll': -5.15}
{'lipoC2': 7.91, 'temp': 24.5, 'lipoC3S3': 11.93, 'rot1': 0, 'rot0': 0, 'rot3': 0, 'rot2': 0, 'state': 'normal', 'yaw': 0.51, 'datetime': '2018-10-12 13:35:56.905889', 'mgs': 0, 'depth': 1.767, 'time': 4.87, 'pitch': -2.83, 'roll': -5.09}
{'lipoC2': 7.9, 'temp': 24.5, 'lipoC3S3': 11.94, 'rot1': 0, 'rot0': 0, 'rot3': 0, 'rot2': 0, 'state': 'normal', 'yaw': 0.82, 'datetime': '2018-10-12 13:35:57.002906', 'mgs': 0, 'depth': 1.614, 'time': 4.96, 'pitch': -3.04, 'roll': -4.97}
{'lipoC2': 7.9, 'temp': 24.5, 'lipoC3S3': 11.93, 'rot1': 0, 'rot0': 0, 'rot3': 0, 'rot2': 0, 'state': 'normal', 'yaw': 1.13, 'datetime': '2018-10-12 13:35:57.099845', 'mgs': 0, 'depth': 1.767, 'time': 5.06, 'pitch': -3.16, 'roll': -4.91}
{'lipoC2': 7.91, 'temp': 24.56, 'lipoC3S3': 11.93, 'rot1': 0, 'rot0': 0, 'rot3': 0, 'rot2': 0, 'state': 'normal', 'yaw': 1.42, 'datetime': '2018-10-12 13:35:57.196995', 'mgs': 0, 'depth': 1.614, 'time': 5.16, 'pitch': -3.17, 'roll': -5.02}
{'lipoC2': 7.9, 'temp': 24.56, 'lipoC3S3': 11.93, 'rot1': 0, 'rot0': 0, 'rot3': 0, 'rot2': 0, 'state': 'normal', 'yaw': 1.65, 'datetime': '2018-10-12 13:35:57.293875', 'mgs': 0, 'depth': 1.691, 'time': 5.26, 'pitch': -3.04, 'roll': -5.24}
{'lipoC2': 7.9, 'temp': 24.56, 'lipoC3S3': 11.94, 'rot1': 0, 'rot0': 0, 'rot3': 0, 'rot2': 0, 'state': 'normal', 'yaw': 1.8, 'datetime': '2018-10-12 13:35:57.390900', 'mgs': 0, 'depth': 1.691, 'time': 5.35, 'pitch': -2.77, 'roll': -5.47}
{'lipoC2': 7.9, 'temp': 24.56, 'lipoC3S3': 11.94, 'rot1': 0, 'rot0': 0, 'rot3': 0, 'rot2': 0, 'state': 'normal', 'yaw': 1.88, 'datetime': '2018-10-12 13:35:57.487860', 'mgs': 0, 'depth': 1.691, 'time': 5.45, 'pitch': -2.35, 'roll': -5.74}
{'lipoC2': 7.91, 'temp': 24.56, 'lipoC3S3': 11.94, 'rot1': 0, 'rot0': 0, 'rot3': 0, 'rot2': 0, 'state': 'normal', 'yaw': 1.83, 'datetime': '2018-10-12 13:35:57.584898', 'mgs': 0, 'depth': 1.691, 'time': 5.55, 'pitch': -1.87, 'roll': -5.96}
{'lipoC2': 7.9, 'temp': 24.56, 'lipoC3S3': 11.93, 'rot1': 0, 'rot0': 0, 'rot3': 0, 'rot2': 0, 'state': 'normal', 'yaw': 1.79, 'datetime': '2018-10-12 13:35:57.683021', 'mgs': 0, 'depth': 1.691, 'time': 5.64, 'pitch': -1.56, 'roll': -6.05}
{'lipoC2': 7.9, 'temp': 24.56, 'lipoC3S3': 11.94, 'rot1': 0, 'rot0': 0, 'rot3': 0, 'rot2': 0, 'state': 'normal', 'yaw': 1.79, 'datetime': '2018-10-12 13:35:57.781239', 'mgs': 0, 'depth': 1.691, 'time': 5.74, 'pitch': -1.51, 'roll': -6.14}
{'lipoC2': 7.9, 'temp': 24.56, 'lipoC3S3': 11.94, 'rot1': 0, 'rot0': 0, 'rot3': 0, 'rot2': 0, 'state': 'normal', 'yaw': 1.81, 'datetime': '2018-10-12 13:35:57.874775', 'mgs': 0, 'depth': 1.614, 'time': 5.84, 'pitch': -1.79, 'roll': -6.14}
{'lipoC2': 7.91, 'temp': 24.56, 'lipoC3S3': 11.94, 'rot1': 0, 'rot0': 0, 'rot3': 0, 'rot2': 0, 'state': 'normal', 'yaw': 1.95, 'datetime': '2018-10-12 13:35:57.971863', 'mgs': 0, 'depth': 1.691, 'time': 5.94, 'pitch': -2.23, 'roll': -6.03}
{'lipoC2': 7.9, 'temp': 24.56, 'lipoC3S3': 11.94, 'rot1': 0, 'rot0': 0, 'rot3': 0, 'rot2': 0, 'state': 'normal', 'yaw': 2.16, 'datetime': '2018-10-12 13:35:58.069438', 'mgs': 0, 'depth': 1.691, 'time': 6.04, 'pitch': -2.57, 'roll': -5.99}
{'lipoC2': 7.9, 'temp': 24.5, 'lipoC3S3': 11.93, 'rot1': 0, 'rot0': 0, 'rot3': 0, 'rot2': 0, 'state': 'normal', 'yaw': 2.46, 'datetime': '2018-10-12 13:35:58.170389', 'mgs': 0, 'depth': 1.767, 'time': 6.13, 'pitch': -2.89, 'roll': -6.29}
{'lipoC2': 7.9, 'temp': 24.5, 'lipoC3S3': 11.93, 'rot1': 0, 'rot0': 0, 'rot3': 0, 'rot2': 0, 'state': 'normal', 'yaw': 2.65, 'datetime': '2018-10-12 13:35:58.270201', 'mgs': 0, 'depth': 1.767, 'time': 6.23, 'pitch': -3.09, 'roll': -6.87}
{'lipoC2': 7.9, 'temp': 24.56, 'lipoC3S3': 11.94, 'rot1': 0, 'rot0': 0, 'rot3': 0, 'rot2': 0, 'state': 'normal', 'yaw': 2.68, 'datetime': '2018-10-12 13:35:58.367241', 'mgs': 0, 'depth': 1.691, 'time': 6.33, 'pitch': -3.12, 'roll': -7.55}
{'lipoC2': 7.9, 'temp': 24.56, 'lipoC3S3': 11.94, 'rot1': 0, 'rot0': 0, 'rot3': 0, 'rot2': 0, 'state': 'normal', 'yaw': 2.66, 'datetime': '2018-10-12 13:35:58.464891', 'mgs': 0, 'depth': 1.843, 'time': 6.43, 'pitch': -3.09, 'roll': -8.3}
{'lipoC2': 7.9, 'temp': 24.56, 'lipoC3S3': 11.93, 'rot1': 0, 'rot0': 0, 'rot3': 0, 'rot2': 0, 'state': 'normal', 'yaw': 2.62, 'datetime': '2018-10-12 13:35:58.563166', 'mgs': 0, 'depth': 1.767, 'time': 6.53, 'pitch': -3.0, 'roll': -9.17}
{'lipoC2': 7.9, 'temp': 24.56, 'lipoC3S3': 11.93, 'rot1': 0, 'rot0': 0, 'rot3': 0, 'rot2': 0, 'state': 'normal', 'yaw': 2.55, 'datetime': '2018-10-12 13:35:58.660401', 'mgs': 0, 'depth': 1.843, 'time': 6.62, 'pitch': -2.99, 'roll': -9.99}
{'lipoC2': 7.9, 'temp': 24.56, 'lipoC3S3': 11.93, 'rot1': 0, 'rot0': 0, 'rot3': 0, 'rot2': 0, 'state': 'normal', 'yaw': 2.47, 'datetime': '2018-10-12 13:35:58.757219', 'mgs': 0, 'depth': 1.843, 'time': 6.72, 'pitch': -3.08, 'roll': -10.49}
{'lipoC2': 7.91, 'temp': 24.56, 'lipoC3S3': 11.93, 'rot1': 0, 'rot0': 0, 'rot3': 0, 'rot2': 0, 'state': 'normal', 'yaw': 2.4, 'datetime': '2018-10-12 13:35:58.854274', 'mgs': 0, 'depth': 1.92, 'time': 6.82, 'pitch': -3.28, 'roll': -10.64}
{'lipoC2': 7.9, 'temp': 24.56, 'lipoC3S3': 11.93, 'rot1': 0, 'rot0': 0, 'rot3': 0, 'rot2': 0, 'state': 'normal', 'yaw': 2.36, 'datetime': '2018-10-12 13:35:58.951255', 'mgs': 0, 'depth': 1.996, 'time': 6.91, 'pitch': -3.56, 'roll': -10.51}
{'lipoC2': 7.9, 'temp': 24.56, 'lipoC3S3': 11.93, 'rot1': 0, 'rot0': 0, 'rot3': 0, 'rot2': 0, 'state': 'normal', 'yaw': 2.3, 'datetime': '2018-10-12 13:35:59.048337', 'mgs': 0, 'depth': 1.92, 'time': 7.01, 'pitch': -3.86, 'roll': -10.25}
{'lipoC2': 7.9, 'temp': 24.56, 'lipoC3S3': 11.93, 'rot1': 0, 'rot0': 0, 'rot3': 0, 'rot2': 0, 'state': 'normal', 'yaw': 2.32, 'datetime': '2018-10-12 13:35:59.145449', 'mgs': 0, 'depth': 1.92, 'time': 7.11, 'pitch': -4.05, 'roll': -10.42}
{'lipoC2': 7.9, 'temp': 24.56, 'lipoC3S3': 11.93, 'rot1': 0, 'rot0': 0, 'rot3': 0, 'rot2': 0, 'state': 'normal', 'yaw': 2.5, 'datetime': '2018-10-12 13:35:59.242581', 'mgs': 0, 'depth': 2.072, 'time': 7.21, 'pitch': -4.17, 'roll': -10.86}
{'lipoC2': 7.9, 'temp': 24.56, 'lipoC3S3': 11.93, 'rot1': 0, 'rot0': 0, 'rot3': 0, 'rot2': 0, 'state': 'normal', 'yaw': 2.74, 'datetime': '2018-10-12 13:35:59.339582', 'mgs': 0, 'depth': 1.996, 'time': 7.3, 'pitch': -4.32, 'roll': -11.12}
{'lipoC2': 7.9, 'temp': 24.56, 'lipoC3S3': 11.93, 'rot1': 0, 'rot0': 0, 'rot3': 0, 'rot2': 0, 'state': 'normal', 'yaw': 2.89, 'datetime': '2018-10-12 13:35:59.436946', 'mgs': 0, 'depth': 1.996, 'time': 7.4, 'pitch': -4.64, 'roll': -11.08}
{'lipoC2': 7.9, 'temp': 24.56, 'lipoC3S3': 11.94, 'rot1': 0, 'rot0': 0, 'rot3': 0, 'rot2': 0, 'state': 'normal', 'yaw': 2.95, 'datetime': '2018-10-12 13:35:59.535398', 'mgs': 0, 'depth': 1.996, 'time': 7.5, 'pitch': -5.13, 'roll': -11.11}
{'lipoC2': 7.91, 'temp': 24.56, 'lipoC3S3': 11.93, 'rot1': 0, 'rot0': 0, 'rot3': 0, 'rot2': 0, 'state': 'normal', 'yaw': 3.12, 'datetime': '2018-10-12 13:35:59.631317', 'mgs': 0, 'depth': 1.996, 'time': 7.6, 'pitch': -5.68, 'roll': -11.27}
{'lipoC2': 7.9, 'temp': 24.56, 'lipoC3S3': 11.94, 'rot1': 0, 'rot0': 0, 'rot3': 0, 'rot2': 0, 'state': 'normal', 'yaw': 3.4, 'datetime': '2018-10-12 13:35:59.730693', 'mgs': 0, 'depth': 1.996, 'time': 7.7, 'pitch': -6.16, 'roll': -11.34}
{'lipoC2': 7.9, 'temp': 24.5, 'lipoC3S3': 11.93, 'rot1': 0, 'rot0': 0, 'rot3': 0, 'rot2': 0, 'state': 'normal', 'yaw': 3.53, 'datetime': '2018-10-12 13:35:59.826867', 'mgs': 0, 'depth': 1.92, 'time': 7.79, 'pitch': -6.67, 'roll': -10.94}
{'lipoC2': 7.9, 'temp': 24.5, 'lipoC3S3': 11.94, 'rot1': 0, 'rot0': 0, 'rot3': 0, 'rot2': 0, 'state': 'normal', 'yaw': 3.56, 'datetime': '2018-10-12 13:35:59.925960', 'mgs': 0, 'depth': 1.92, 'time': 7.89, 'pitch': -7.08, 'roll': -10.36}
{'lipoC2': 7.9, 'temp': 24.5, 'lipoC3S3': 11.93, 'rot1': 0, 'rot0': 0, 'rot3': 0, 'rot2': 0, 'state': 'normal', 'yaw': 3.58, 'datetime': '2018-10-12 13:36:00.024126', 'mgs': 0, 'depth': 1.843, 'time': 7.99, 'pitch': -7.27, 'roll': -9.76}
{'lipoC2': 7.91, 'temp': 24.56, 'lipoC3S3': 11.93, 'rot1': 0, 'rot0': 0, 'rot3': 0, 'rot2': 0, 'state': 'normal', 'yaw': 3.63, 'datetime': '2018-10-12 13:36:00.121203', 'mgs': 0, 'depth': 1.843, 'time': 8.09, 'pitch': -7.13, 'roll': -9.28}
{'lipoC2': 7.9, 'temp': 24.56, 'lipoC3S3': 11.94, 'rot1': 0, 'rot0': 0, 'rot3': 0, 'rot2': 0, 'state': 'normal', 'yaw': 3.67, 'datetime': '2018-10-12 13:36:00.218241', 'mgs': 0, 'depth': 1.843, 'time': 8.18, 'pitch': -6.66, 'roll': -8.79}
{'lipoC2': 7.91, 'temp': 24.56, 'lipoC3S3': 11.93, 'rot1': 0, 'rot0': 0, 'rot3': 0, 'rot2': 0, 'state': 'normal', 'yaw': 3.6, 'datetime': '2018-10-12 13:36:00.316393', 'mgs': 0, 'depth': 1.767, 'time': 8.28, 'pitch': -6.1, 'roll': -8.44}
{'lipoC2': 7.91, 'temp': 24.56, 'lipoC3S3': 11.93, 'rot1': 0, 'rot0': 0, 'rot3': 0, 'rot2': 0, 'state': 'normal', 'yaw': 3.5, 'datetime': '2018-10-12 13:36:00.413454', 'mgs': 0, 'depth': 1.767, 'time': 8.38, 'pitch': -5.44, 'roll': -8.13}
{'lipoC2': 7.9, 'temp': 24.56, 'lipoC3S3': 11.93, 'rot1': 0, 'rot0': 0, 'rot3': 0, 'rot2': 0, 'state': 'normal', 'yaw': 3.43, 'datetime': '2018-10-12 13:36:00.510506', 'mgs': 0, 'depth': 1.767, 'time': 8.48, 'pitch': -4.85, 'roll': -7.75}
{'lipoC2': 7.91, 'temp': 24.56, 'lipoC3S3': 11.94, 'rot1': 0, 'rot0': 0, 'rot3': 0, 'rot2': 0, 'state': 'normal', 'yaw': 3.38, 'datetime': '2018-10-12 13:36:00.607658', 'mgs': 0, 'depth': 1.691, 'time': 8.57, 'pitch': -4.51, 'roll': -7.39}
{'lipoC2': 7.91, 'temp': 24.56, 'lipoC3S3': 11.93, 'rot1': 0, 'rot0': 0, 'rot3': 0, 'rot2': 0, 'state': 'normal', 'yaw': 3.37, 'datetime': '2018-10-12 13:36:00.704667', 'mgs': 0, 'depth': 1.691, 'time': 8.67, 'pitch': -4.41, 'roll': -7.12}
{'lipoC2': 7.91, 'temp': 24.5, 'lipoC3S3': 11.94, 'rot1': 0, 'rot0': 0, 'rot3': 0, 'rot2': 0, 'state': 'normal', 'yaw': 3.42, 'datetime': '2018-10-12 13:36:00.800747', 'mgs': 0, 'depth': 1.691, 'time': 8.77, 'pitch': -4.62, 'roll': -6.97}
{'lipoC2': 7.9, 'temp': 24.5, 'lipoC3S3': 11.94, 'rot1': 0, 'rot0': 0, 'rot3': 0, 'rot2': 0, 'state': 'normal', 'yaw': 3.56, 'datetime': '2018-10-12 13:36:00.898962', 'mgs': 0, 'depth': 1.691, 'time': 8.86, 'pitch': -5.01, 'roll': -6.72}
{'lipoC2': 7.9, 'temp': 24.5, 'lipoC3S3': 11.93, 'rot1': 0, 'rot0': 0, 'rot3': 0, 'rot2': 0, 'state': 'normal', 'yaw': 3.87, 'datetime': '2018-10-12 13:36:00.995980', 'mgs': 0, 'depth': 1.691, 'time': 8.96, 'pitch': -5.55, 'roll': -6.39}
{'lipoC2': 7.91, 'temp': 24.56, 'lipoC3S3': 11.93, 'rot1': 0, 'rot0': 0, 'rot3': 0, 'rot2': 0, 'state': 'normal', 'yaw': 4.3, 'datetime': '2018-10-12 13:36:01.093249', 'mgs': 0, 'depth': 1.614, 'time': 9.06, 'pitch': -6.05, 'roll': -6.29}
{'lipoC2': 7.9, 'temp': 24.56, 'lipoC3S3': 11.94, 'rot1': 0, 'rot0': 0, 'rot3': 0, 'rot2': 0, 'state': 'normal', 'yaw': 4.74, 'datetime': '2018-10-12 13:36:01.190010', 'mgs': 0, 'depth': 1.614, 'time': 9.15, 'pitch': -6.44, 'roll': -6.44}
{'lipoC2': 7.91, 'temp': 24.5, 'lipoC3S3': 11.93, 'rot1': 0, 'rot0': 0, 'rot3': 0, 'rot2': 0, 'state': 'normal', 'yaw': 5.08, 'datetime': '2018-10-12 13:36:01.288352', 'mgs': 0, 'depth': 1.614, 'time': 9.25, 'pitch': -6.68, 'roll': -6.63}
{'lipoC2': 7.9, 'temp': 24.5, 'lipoC3S3': 11.94, 'rot1': 0, 'rot0': 0, 'rot3': 0, 'rot2': 0, 'state': 'normal', 'yaw': 5.33, 'datetime': '2018-10-12 13:36:01.386587', 'mgs': 0, 'depth': 1.691, 'time': 9.35, 'pitch': -6.84, 'roll': -6.8}
{'lipoC2': 7.9, 'temp': 24.56, 'lipoC3S3': 11.93, 'rot1': 0, 'rot0': 0, 'rot3': 0, 'rot2': 0, 'state': 'normal', 'yaw': 5.5, 'datetime': '2018-10-12 13:36:01.483741', 'mgs': 0, 'depth': 1.614, 'time': 9.45, 'pitch': -6.86, 'roll': -6.96}
{'lipoC2': 7.9, 'temp': 24.56, 'lipoC3S3': 11.94, 'rot1': 0, 'rot0': 0, 'rot3': 0, 'rot2': 0, 'state': 'normal', 'yaw': 5.64, 'datetime': '2018-10-12 13:36:01.580832', 'mgs': 0, 'depth': 1.691, 'time': 9.55, 'pitch': -6.79, 'roll': -7.13}
{'lipoC2': 7.9, 'temp': 24.56, 'lipoC3S3': 11.94, 'rot1': 0, 'rot0': 0, 'rot3': 0, 'rot2': 0, 'state': 'normal', 'yaw': 5.76, 'datetime': '2018-10-12 13:36:01.679300', 'mgs': 1, 'depth': 1.691, 'time': 9.65, 'pitch': -6.76, 'roll': -7.28}
{'lipoC2': 7.9, 'temp': 24.56, 'lipoC3S3': 11.93, 'rot1': 0, 'rot0': 0, 'rot3': 0, 'rot2': 0, 'state': 'normal', 'yaw': 0.0, 'datetime': '2018-10-12 13:36:03.198626', 'mgs': 0, 'depth': 1.767, 'time': 1.26, 'pitch': -4.75, 'roll': -5.11}
{'lipoC2': 7.9, 'temp': 24.56, 'lipoC3S3': 11.93, 'rot1': 0, 'rot0': 0, 'rot3': 0, 'rot2': 0, 'state': 'normal', 'yaw': 0.01, 'datetime': '2018-10-12 13:36:03.224237', 'mgs': 0, 'depth': 1.691, 'time': 1.36, 'pitch': -4.49, 'roll': -4.87}
{'lipoC2': 7.9, 'temp': 24.56, 'lipoC3S3': 11.94, 'rot1': 0, 'rot0': 0, 'rot3': 0, 'rot2': 0, 'state': 'normal', 'yaw': 0.16, 'datetime': '2018-10-12 13:36:03.241778', 'mgs': 0, 'depth': 1.767, 'time': 1.45, 'pitch': -4.15, 'roll': -4.73}
{'lipoC2': 7.91, 'temp': 24.56, 'lipoC3S3': 11.84, 'rot1': 0, 'rot0': 0, 'rot3': 1, 'rot2': 0, 'state': 'normal', 'yaw': 0.41, 'datetime': '2018-10-12 13:36:03.331273', 'mgs': 0, 'depth': 1.691, 'time': 1.55, 'pitch': -3.73, 'roll': -4.8}
{'lipoC2': 7.91, 'temp': 24.56, 'lipoC3S3': 11.64, 'rot1': 0, 'rot0': 0, 'rot3': 1, 'rot2': 1, 'state': 'normal', 'yaw': 0.59, 'datetime': '2018-10-12 13:36:03.429491', 'mgs': 0, 'depth': 1.614, 'time': 1.65, 'pitch': -3.53, 'roll': -4.78}
{'lipoC2': 7.91, 'temp': 24.56, 'lipoC3S3': 11.75, 'rot1': 1, 'rot0': 1, 'rot3': 2, 'rot2': 1, 'state': 'normal', 'yaw': 0.55, 'datetime': '2018-10-12 13:36:03.526080', 'mgs': 0, 'depth': 1.691, 'time': 1.74, 'pitch': -3.45, 'roll': -3.8}
{'lipoC2': 7.91, 'temp': 24.56, 'lipoC3S3': 11.81, 'rot1': 2, 'rot0': 2, 'rot3': 2, 'rot2': 2, 'state': 'normal', 'yaw': 0.47, 'datetime': '2018-10-12 13:36:03.622778', 'mgs': 0, 'depth': 1.767, 'time': 1.84, 'pitch': -3.37, 'roll': -2.97}
{'lipoC2': 7.9, 'temp': 24.56, 'lipoC3S3': 11.87, 'rot1': 3, 'rot0': 3, 'rot3': 3, 'rot2': 3, 'state': 'normal', 'yaw': 0.47, 'datetime': '2018-10-12 13:36:03.719364', 'mgs': 0, 'depth': 1.691, 'time': 1.94, 'pitch': -3.51, 'roll': -1.71}
{'lipoC2': 7.9, 'temp': 24.56, 'lipoC3S3': 11.87, 'rot1': 4, 'rot0': 4, 'rot3': 3, 'rot2': 3, 'state': 'normal', 'yaw': 0.59, 'datetime': '2018-10-12 13:36:03.816077', 'mgs': 0, 'depth': 1.996, 'time': 2.04, 'pitch': -3.59, 'roll': -0.49}
{'lipoC2': 7.9, 'temp': 24.56, 'lipoC3S3': 11.85, 'rot1': 5, 'rot0': 6, 'rot3': 4, 'rot2': 4, 'state': 'normal', 'yaw': 0.65, 'datetime': '2018-10-12 13:36:03.912751', 'mgs': 0, 'depth': 1.92, 'time': 2.13, 'pitch': -3.6, 'roll': 0.47}
{'lipoC2': 7.9, 'temp': 24.5, 'lipoC3S3': 11.85, 'rot1': 6, 'rot0': 7, 'rot3': 4, 'rot2': 5, 'state': 'normal', 'yaw': 0.71, 'datetime': '2018-10-12 13:36:04.009470', 'mgs': 0, 'depth': 1.996, 'time': 2.23, 'pitch': -3.63, 'roll': 1.01}
{'lipoC2': 7.9, 'temp': 24.5, 'lipoC3S3': 11.87, 'rot1': 7, 'rot0': 8, 'rot3': 5, 'rot2': 5, 'state': 'normal', 'yaw': 0.79, 'datetime': '2018-10-12 13:36:04.106387', 'mgs': 0, 'depth': 1.767, 'time': 2.33, 'pitch': -3.6, 'roll': 1.2}
{'lipoC2': 7.9, 'temp': 24.5, 'lipoC3S3': 11.85, 'rot1': 8, 'rot0': 9, 'rot3': 5, 'rot2': 6, 'state': 'normal', 'yaw': 0.88, 'datetime': '2018-10-12 13:36:04.203084', 'mgs': 0, 'depth': 2.148, 'time': 2.42, 'pitch': -3.53, 'roll': 1.26}
{'lipoC2': 7.9, 'temp': 24.5, 'lipoC3S3': 11.85, 'rot1': 10, 'rot0': 10, 'rot3': 5, 'rot2': 6, 'state': 'normal', 'yaw': 1.01, 'datetime': '2018-10-12 13:36:04.300125', 'mgs': 0, 'depth': 2.072, 'time': 2.52, 'pitch': -3.34, 'roll': 1.37}
{'lipoC2': 7.91, 'temp': 24.5, 'lipoC3S3': 11.85, 'rot1': 11, 'rot0': 11, 'rot3': 6, 'rot2': 7, 'state': 'normal', 'yaw': 1.2, 'datetime': '2018-10-12 13:36:04.397519', 'mgs': 0, 'depth': 2.911, 'time': 2.62, 'pitch': -3.06, 'roll': 1.52}
{'lipoC2': 7.9, 'temp': 24.56, 'lipoC3S3': 11.67, 'rot1': 12, 'rot0': 12, 'rot3': 7, 'rot2': 8, 'state': 'normal', 'yaw': 1.41, 'datetime': '2018-10-12 13:36:04.495916', 'mgs': 0, 'depth': 1.843, 'time': 2.71, 'pitch': -2.84, 'roll': 1.63}
{'lipoC2': 7.9, 'temp': 24.56, 'lipoC3S3': 11.85, 'rot1': 13, 'rot0': 13, 'rot3': 7, 'rot2': 9, 'state': 'normal', 'yaw': 1.61, 'datetime': '2018-10-12 13:36:04.593326', 'mgs': 0, 'depth': 1.996, 'time': 2.81, 'pitch': -2.71, 'roll': 1.72}
{'lipoC2': 7.91, 'temp': 24.56, 'lipoC3S3': 11.84, 'rot1': 14, 'rot0': 14, 'rot3': 8, 'rot2': 9, 'state': 'normal', 'yaw': 1.57, 'datetime': '2018-10-12 13:36:04.690449', 'mgs': 0, 'depth': 1.843, 'time': 2.91, 'pitch': -2.72, 'roll': 1.58}
{'lipoC2': 7.91, 'temp': 24.56, 'lipoC3S3': 11.79, 'rot1': 14, 'rot0': 15, 'rot3': 8, 'rot2': 10, 'state': 'normal', 'yaw': 1.28, 'datetime': '2018-10-12 13:36:04.788076', 'mgs': 0, 'depth': 1.843, 'time': 3.01, 'pitch': -2.81, 'roll': 1.27}
{'lipoC2': 7.9, 'temp': 24.56, 'lipoC3S3': 11.83, 'rot1': 15, 'rot0': 16, 'rot3': 9, 'rot2': 11, 'state': 'normal', 'yaw': 0.76, 'datetime': '2018-10-12 13:36:04.886521', 'mgs': 0, 'depth': 1.843, 'time': 3.11, 'pitch': -2.93, 'roll': 0.84}
{'lipoC2': 7.9, 'temp': 24.56, 'lipoC3S3': 11.85, 'rot1': 16, 'rot0': 17, 'rot3': 9, 'rot2': 11, 'state': 'normal', 'yaw': 0.08, 'datetime': '2018-10-12 13:36:04.984163', 'mgs': 0, 'depth': 2.072, 'time': 3.2, 'pitch': -3.12, 'roll': 0.4}
{'lipoC2': 7.91, 'temp': 24.56, 'lipoC3S3': 11.8, 'rot1': 17, 'rot0': 19, 'rot3': 10, 'rot2': 12, 'state': 'normal', 'yaw': -0.73, 'datetime': '2018-10-12 13:36:05.081542', 'mgs': 0, 'depth': 2.072, 'time': 3.3, 'pitch': -3.34, 'roll': -0.02}
{'lipoC2': 7.9, 'temp': 24.56, 'lipoC3S3': 11.85, 'rot1': 18, 'rot0': 20, 'rot3': 10, 'rot2': 13, 'state': 'normal', 'yaw': -1.63, 'datetime': '2018-10-12 13:36:05.179188', 'mgs': 0, 'depth': 1.843, 'time': 3.4, 'pitch': -3.57, 'roll': -0.36}
{'lipoC2': 7.9, 'temp': 24.56, 'lipoC3S3': 11.84, 'rot1': 19, 'rot0': 21, 'rot3': 11, 'rot2': 13, 'state': 'normal', 'yaw': -2.33, 'datetime': '2018-10-12 13:36:05.276436', 'mgs': 0, 'depth': 2.072, 'time': 3.5, 'pitch': -3.7, 'roll': -0.52}
{'lipoC2': 7.91, 'temp': 24.56, 'lipoC3S3': 11.83, 'rot1': 20, 'rot0': 22, 'rot3': 11, 'rot2': 14, 'state': 'normal', 'yaw': -2.88, 'datetime': '2018-10-12 13:36:05.373997', 'mgs': 0, 'depth': 1.92, 'time': 3.59, 'pitch': -3.75, 'roll': -0.56}
{'lipoC2': 7.91, 'temp': 24.56, 'lipoC3S3': 11.8, 'rot1': 21, 'rot0': 23, 'rot3': 12, 'rot2': 15, 'state': 'normal', 'yaw': -3.27, 'datetime': '2018-10-12 13:36:05.471625', 'mgs': 0, 'depth': 2.301, 'time': 3.69, 'pitch': -3.73, 'roll': -0.61}
{'lipoC2': 7.91, 'temp': 24.56, 'lipoC3S3': 11.81, 'rot1': 22, 'rot0': 24, 'rot3': 12, 'rot2': 15, 'state': 'normal', 'yaw': -3.32, 'datetime': '2018-10-12 13:36:05.569092', 'mgs': 0, 'depth': 1.843, 'time': 3.79, 'pitch': -3.71, 'roll': -0.84}
{'lipoC2': 7.9, 'temp': 24.56, 'lipoC3S3': 11.83, 'rot1': 23, 'rot0': 24, 'rot3': 13, 'rot2': 16, 'state': 'normal', 'yaw': -3.08, 'datetime': '2018-10-12 13:36:05.666475', 'mgs': 0, 'depth': 1.92, 'time': 3.89, 'pitch': -3.66, 'roll': -1.31}
{'lipoC2': 7.91, 'temp': 24.56, 'lipoC3S3': 11.85, 'rot1': 24, 'rot0': 25, 'rot3': 13, 'rot2': 17, 'state': 'normal', 'yaw': -2.59, 'datetime': '2018-10-12 13:36:05.763849', 'mgs': 0, 'depth': 1.996, 'time': 3.98, 'pitch': -3.64, 'roll': -1.89}
{'lipoC2': 7.91, 'temp': 24.56, 'lipoC3S3': 11.8, 'rot1': 25, 'rot0': 26, 'rot3': 13, 'rot2': 17, 'state': 'normal', 'yaw': -1.87, 'datetime': '2018-10-12 13:36:05.861267', 'mgs': 0, 'depth': 2.454, 'time': 4.08, 'pitch': -3.65, 'roll': -2.43}
{'lipoC2': 7.9, 'temp': 24.56, 'lipoC3S3': 11.8, 'rot1': 26, 'rot0': 27, 'rot3': 14, 'rot2': 18, 'state': 'normal', 'yaw': -1.05, 'datetime': '2018-10-12 13:36:05.958653', 'mgs': 0, 'depth': 1.92, 'time': 4.18, 'pitch': -3.68, 'roll': -2.76}
{'lipoC2': 7.9, 'temp': 24.56, 'lipoC3S3': 11.84, 'rot1': 27, 'rot0': 27, 'rot3': 15, 'rot2': 18, 'state': 'normal', 'yaw': -0.02, 'datetime': '2018-10-12 13:36:06.055999', 'mgs': 0, 'depth': 2.148, 'time': 4.28, 'pitch': -3.71, 'roll': -2.94}
{'lipoC2': 7.9, 'temp': 24.56, 'lipoC3S3': 11.83, 'rot1': 29, 'rot0': 28, 'rot3': 15, 'rot2': 19, 'state': 'normal', 'yaw': 1.11, 'datetime': '2018-10-12 13:36:06.153597', 'mgs': 0, 'depth': 2.454, 'time': 4.37, 'pitch': -3.69, 'roll': -2.96}
{'lipoC2': 7.9, 'temp': 24.56, 'lipoC3S3': 11.84, 'rot1': 30, 'rot0': 29, 'rot3': 16, 'rot2': 20, 'state': 'normal', 'yaw': 2.33, 'datetime': '2018-10-12 13:36:06.251274', 'mgs': 0, 'depth': 1.767, 'time': 4.47, 'pitch': -3.64, 'roll': -2.89}
{'lipoC2': 7.9, 'temp': 24.56, 'lipoC3S3': 11.83, 'rot1': 31, 'rot0': 30, 'rot3': 16, 'rot2': 21, 'state': 'normal', 'yaw': 3.48, 'datetime': '2018-10-12 13:36:06.349823', 'mgs': 0, 'depth': 2.148, 'time': 4.57, 'pitch': -3.56, 'roll': -2.8}
{'lipoC2': 7.91, 'temp': 24.56, 'lipoC3S3': 11.84, 'rot1': 31, 'rot0': 31, 'rot3': 17, 'rot2': 21, 'state': 'normal', 'yaw': 4.33, 'datetime': '2018-10-12 13:36:06.448624', 'mgs': 0, 'depth': 2.072, 'time': 4.67, 'pitch': -3.69, 'roll': -2.74}
{'lipoC2': 7.9, 'temp': 24.56, 'lipoC3S3': 11.79, 'rot1': 32, 'rot0': 32, 'rot3': 17, 'rot2': 22, 'state': 'normal', 'yaw': 4.7, 'datetime': '2018-10-12 13:36:06.553069', 'mgs': 0, 'depth': 2.606, 'time': 4.77, 'pitch': -3.96, 'roll': -2.74}
{'lipoC2': 7.91, 'temp': 24.56, 'lipoC3S3': 11.76, 'rot1': 33, 'rot0': 34, 'rot3': 18, 'rot2': 23, 'state': 'normal', 'yaw': 4.73, 'datetime': '2018-10-12 13:36:06.639283', 'mgs': 0, 'depth': 1.843, 'time': 4.86, 'pitch': -4.31, 'roll': -2.7}
{'lipoC2': 7.91, 'temp': 24.56, 'lipoC3S3': 11.8, 'rot1': 34, 'rot0': 35, 'rot3': 18, 'rot2': 24, 'state': 'normal', 'yaw': 4.53, 'datetime': '2018-10-12 13:36:06.742866', 'mgs': 0, 'depth': 2.072, 'time': 4.96, 'pitch': -4.61, 'roll': -2.65}
{'lipoC2': 7.91, 'temp': 24.56, 'lipoC3S3': 11.84, 'rot1': 35, 'rot0': 36, 'rot3': 18, 'rot2': 24, 'state': 'normal', 'yaw': 4.09, 'datetime': '2018-10-12 13:36:06.834997', 'mgs': 0, 'depth': 2.53, 'time': 5.06, 'pitch': -4.97, 'roll': -2.59}
{'lipoC2': 7.91, 'temp': 24.56, 'lipoC3S3': 11.79, 'rot1': 35, 'rot0': 37, 'rot3': 19, 'rot2': 25, 'state': 'normal', 'yaw': 3.47, 'datetime': '2018-10-12 13:36:06.940982', 'mgs': 0, 'depth': 1.92, 'time': 5.16, 'pitch': -5.37, 'roll': -2.39}
{'lipoC2': 7.9, 'temp': 24.56, 'lipoC3S3': 11.79, 'rot1': 36, 'rot0': 38, 'rot3': 20, 'rot2': 25, 'state': 'normal', 'yaw': 2.69, 'datetime': '2018-10-12 13:36:07.029827', 'mgs': 0, 'depth': 1.996, 'time': 5.26, 'pitch': -5.78, 'roll': -2.17}
{'lipoC2': 7.9, 'temp': 24.5, 'lipoC3S3': 11.84, 'rot1': 37, 'rot0': 39, 'rot3': 20, 'rot2': 26, 'state': 'normal', 'yaw': 1.75, 'datetime': '2018-10-12 13:36:07.127345', 'mgs': 0, 'depth': 2.225, 'time': 5.35, 'pitch': -6.22, 'roll': -1.93}
{'lipoC2': 7.91, 'temp': 24.5, 'lipoC3S3': 11.83, 'rot1': 38, 'rot0': 40, 'rot3': 21, 'rot2': 27, 'state': 'normal', 'yaw': 0.8, 'datetime': '2018-10-12 13:36:07.224745', 'mgs': 0, 'depth': 2.759, 'time': 5.45, 'pitch': -6.55, 'roll': -1.72}
{'lipoC2': 7.9, 'temp': 24.5, 'lipoC3S3': 11.9, 'rot1': 38, 'rot0': 41, 'rot3': 21, 'rot2': 27, 'state': 'normal', 'yaw': -0.32, 'datetime': '2018-10-12 13:36:07.322120', 'mgs': 0, 'depth': 1.92, 'time': 5.55, 'pitch': -6.9, 'roll': -1.63}
{'lipoC2': 7.9, 'temp': 24.56, 'lipoC3S3': 11.9, 'rot1': 38, 'rot0': 41, 'rot3': 21, 'rot2': 27, 'state': 'normal', 'yaw': -1.27, 'datetime': '2018-10-12 13:36:07.423440', 'mgs': 0, 'depth': 1.996, 'time': 5.65, 'pitch': -7.23, 'roll': -2.3}
{'lipoC2': 7.9, 'temp': 24.56, 'lipoC3S3': 11.87, 'rot1': 38, 'rot0': 41, 'rot3': 21, 'rot2': 27, 'state': 'normal', 'yaw': -2.05, 'datetime': '2018-10-12 13:36:07.522339', 'mgs': 0, 'depth': 1.843, 'time': 5.74, 'pitch': -7.5, 'roll': -3.41}
{'lipoC2': 7.9, 'temp': 24.56, 'lipoC3S3': 11.83, 'rot1': 39, 'rot0': 41, 'rot3': 22, 'rot2': 27, 'state': 'normal', 'yaw': -2.85, 'datetime': '2018-10-12 13:36:07.619725', 'mgs': 0, 'depth': 3.217, 'time': 5.84, 'pitch': -7.66, 'roll': -4.98}
{'lipoC2': 7.91, 'temp': 24.56, 'lipoC3S3': 11.77, 'rot1': 40, 'rot0': 42, 'rot3': 22, 'rot2': 28, 'state': 'normal', 'yaw': -3.44, 'datetime': '2018-10-12 13:36:07.717246', 'mgs': 0, 'depth': 2.377, 'time': 5.94, 'pitch': -7.5, 'roll': -6.12}
{'lipoC2': 7.9, 'temp': 24.56, 'lipoC3S3': 11.75, 'rot1': 41, 'rot0': 43, 'rot3': 22, 'rot2': 29, 'state': 'normal', 'yaw': -3.7, 'datetime': '2018-10-12 13:36:07.814627', 'mgs': 0, 'depth': 1.996, 'time': 6.04, 'pitch': -6.93, 'roll': -6.61}
{'lipoC2': 7.9, 'temp': 24.5, 'lipoC3S3': 11.84, 'rot1': 42, 'rot0': 44, 'rot3': 23, 'rot2': 29, 'state': 'normal', 'yaw': -3.72, 'datetime': '2018-10-12 13:36:07.912010', 'mgs': 0, 'depth': 2.072, 'time': 6.13, 'pitch': -6.16, 'roll': -6.69}
{'lipoC2': 7.91, 'temp': 24.5, 'lipoC3S3': 11.83, 'rot1': 43, 'rot0': 44, 'rot3': 23, 'rot2': 30, 'state': 'normal', 'yaw': -3.51, 'datetime': '2018-10-12 13:36:08.009445', 'mgs': 0, 'depth': 2.682, 'time': 6.23, 'pitch': -5.14, 'roll': -6.63}
{'lipoC2': 7.91, 'temp': 24.5, 'lipoC3S3': 11.79, 'rot1': 44, 'rot0': 45, 'rot3': 23, 'rot2': 30, 'state': 'normal', 'yaw': -3.08, 'datetime': '2018-10-12 13:36:08.106827', 'mgs': 0, 'depth': 2.225, 'time': 6.33, 'pitch': -4.07, 'roll': -6.45}
{'lipoC2': 7.91, 'temp': 24.5, 'lipoC3S3': 11.71, 'rot1': 45, 'rot0': 46, 'rot3': 24, 'rot2': 31, 'state': 'normal', 'yaw': -2.53, 'datetime': '2018-10-12 13:36:08.204400', 'mgs': 0, 'depth': 2.301, 'time': 6.43, 'pitch': -3.09, 'roll': -6.24}
{'lipoC2': 7.9, 'temp': 24.5, 'lipoC3S3': 11.76, 'rot1': 46, 'rot0': 47, 'rot3': 24, 'rot2': 31, 'state': 'normal', 'yaw': -1.98, 'datetime': '2018-10-12 13:36:08.303051', 'mgs': 0, 'depth': 2.301, 'time': 6.53, 'pitch': -2.32, 'roll': -5.93}
{'lipoC2': 7.91, 'temp': 24.56, 'lipoC3S3': 11.77, 'rot1': 48, 'rot0': 47, 'rot3': 25, 'rot2': 32, 'state': 'normal', 'yaw': -1.33, 'datetime': '2018-10-12 13:36:08.401860', 'mgs': 0, 'depth': 2.454, 'time': 6.63, 'pitch': -1.52, 'roll': -5.36}
{'lipoC2': 7.9, 'temp': 24.56, 'lipoC3S3': 11.87, 'rot1': 49, 'rot0': 48, 'rot3': 25, 'rot2': 32, 'state': 'normal', 'yaw': -0.67, 'datetime': '2018-10-12 13:36:08.499110', 'mgs': 0, 'depth': 2.454, 'time': 6.72, 'pitch': -0.76, 'roll': -4.49}
{'lipoC2': 7.9, 'temp': 24.5, 'lipoC3S3': 11.84, 'rot1': 50, 'rot0': 49, 'rot3': 26, 'rot2': 33, 'state': 'normal', 'yaw': 0.01, 'datetime': '2018-10-12 13:36:08.596552', 'mgs': 0, 'depth': 2.759, 'time': 6.82, 'pitch': -0.1, 'roll': -3.36}
{'lipoC2': 7.9, 'temp': 24.5, 'lipoC3S3': 11.8, 'rot1': 51, 'rot0': 50, 'rot3': 26, 'rot2': 33, 'state': 'normal', 'yaw': 0.65, 'datetime': '2018-10-12 13:36:08.694509', 'mgs': 0, 'depth': 2.606, 'time': 6.92, 'pitch': 0.39, 'roll': -2.25}
{'lipoC2': 7.9, 'temp': 24.5, 'lipoC3S3': 11.73, 'rot1': 52, 'rot0': 51, 'rot3': 26, 'rot2': 34, 'state': 'normal', 'yaw': 1.37, 'datetime': '2018-10-12 13:36:08.793190', 'mgs': 0, 'depth': 2.759, 'time': 7.02, 'pitch': 0.78, 'roll': -1.15}
{'lipoC2': 7.91, 'temp': 24.25, 'lipoC3S3': 11.81, 'rot1': 53, 'rot0': 52, 'rot3': 27, 'rot2': 34, 'state': 'normal', 'yaw': 1.88, 'datetime': '2018-10-12 13:36:08.891377', 'mgs': 0, 'depth': 3.827, 'time': 7.11, 'pitch': 0.95, 'roll': -0.25}
{'lipoC2': 7.91, 'temp': 24.25, 'lipoC3S3': 11.6, 'rot1': 54, 'rot0': 53, 'rot3': 27, 'rot2': 35, 'state': 'normal', 'yaw': 2.13, 'datetime': '2018-10-12 13:36:08.988632', 'mgs': 0, 'depth': 2.911, 'time': 7.21, 'pitch': 0.95, 'roll': 0.46}
{'lipoC2': 7.9, 'temp': 24.88, 'lipoC3S3': 11.85, 'rot1': 55, 'rot0': 54, 'rot3': 27, 'rot2': 36, 'state': 'normal', 'yaw': 2.2, 'datetime': '2018-10-12 13:36:09.086158', 'mgs': 0, 'depth': 2.988, 'time': 7.31, 'pitch': 0.65, 'roll': 1.2}
{'lipoC2': 7.9, 'temp': 24.88, 'lipoC3S3': 11.83, 'rot1': 56, 'rot0': 55, 'rot3': 28, 'rot2': 36, 'state': 'normal', 'yaw': 1.99, 'datetime': '2018-10-12 13:36:09.183630', 'mgs': 0, 'depth': 3.217, 'time': 7.41, 'pitch': 0.25, 'roll': 1.94}
{'lipoC2': 7.91, 'temp': 24.88, 'lipoC3S3': 11.85, 'rot1': 57, 'rot0': 56, 'rot3': 28, 'rot2': 37, 'state': 'normal', 'yaw': 1.48, 'datetime': '2018-10-12 13:36:09.280947', 'mgs': 0, 'depth': 3.293, 'time': 7.5, 'pitch': -0.33, 'roll': 2.75}
{'lipoC2': 7.9, 'temp': 24.5, 'lipoC3S3': 11.8, 'rot1': 58, 'rot0': 57, 'rot3': 28, 'rot2': 37, 'state': 'normal', 'yaw': 0.76, 'datetime': '2018-10-12 13:36:09.378372', 'mgs': 0, 'depth': 3.14, 'time': 7.6, 'pitch': -0.96, 'roll': 3.42}
{'lipoC2': 7.9, 'temp': 24.5, 'lipoC3S3': 11.87, 'rot1': 59, 'rot0': 58, 'rot3': 28, 'rot2': 37, 'state': 'normal', 'yaw': -0.04, 'datetime': '2018-10-12 13:36:09.475859', 'mgs': 0, 'depth': 3.217, 'time': 7.7, 'pitch': -1.49, 'roll': 3.86}
{'lipoC2': 7.9, 'temp': 24.56, 'lipoC3S3': 11.87, 'rot1': 59, 'rot0': 60, 'rot3': 28, 'rot2': 37, 'state': 'normal', 'yaw': -1.01, 'datetime': '2018-10-12 13:36:09.573256', 'mgs': 0, 'depth': 3.598, 'time': 7.8, 'pitch': -2.06, 'roll': 4.14}
{'lipoC2': 7.9, 'temp': 24.56, 'lipoC3S3': 11.85, 'rot1': 60, 'rot0': 61, 'rot3': 28, 'rot2': 37, 'state': 'normal', 'yaw': -2.04, 'datetime': '2018-10-12 13:36:09.670769', 'mgs': 0, 'depth': 3.217, 'time': 7.89, 'pitch': -2.6, 'roll': 4.2}
{'lipoC2': 7.9, 'temp': 24.56, 'lipoC3S3': 11.83, 'rot1': 61, 'rot0': 61, 'rot3': 28, 'rot2': 37, 'state': 'normal', 'yaw': -2.71, 'datetime': '2018-10-12 13:36:09.768178', 'mgs': 0, 'depth': 3.293, 'time': 7.99, 'pitch': -3.03, 'roll': 4.06}
{'lipoC2': 7.91, 'temp': 24.19, 'lipoC3S3': 11.87, 'rot1': 63, 'rot0': 62, 'rot3': 28, 'rot2': 37, 'state': 'normal', 'yaw': -2.88, 'datetime': '2018-10-12 13:36:09.865518', 'mgs': 0, 'depth': 3.217, 'time': 8.09, 'pitch': -3.31, 'roll': 3.8}
{'lipoC2': 7.91, 'temp': 24.19, 'lipoC3S3': 11.87, 'rot1': 64, 'rot0': 63, 'rot3': 28, 'rot2': 37, 'state': 'normal', 'yaw': -2.75, 'datetime': '2018-10-12 13:36:09.962915', 'mgs': 0, 'depth': 3.751, 'time': 8.19, 'pitch': -3.47, 'roll': 3.44}
{'lipoC2': 7.91, 'temp': 24.94, 'lipoC3S3': 11.73, 'rot1': 65, 'rot0': 64, 'rot3': 28, 'rot2': 37, 'state': 'normal', 'yaw': -2.31, 'datetime': '2018-10-12 13:36:10.060401', 'mgs': 0, 'depth': 3.217, 'time': 8.28, 'pitch': -3.47, 'roll': 3.04}
{'lipoC2': 7.91, 'temp': 24.94, 'lipoC3S3': 11.87, 'rot1': 66, 'rot0': 64, 'rot3': 28, 'rot2': 37, 'state': 'normal', 'yaw': -1.67, 'datetime': '2018-10-12 13:36:10.157773', 'mgs': 0, 'depth': 3.217, 'time': 8.38, 'pitch': -3.31, 'roll': 2.62}
{'lipoC2': 7.9, 'temp': 24.56, 'lipoC3S3': 11.84, 'rot1': 67, 'rot0': 65, 'rot3': 28, 'rot2': 37, 'state': 'normal', 'yaw': -0.93, 'datetime': '2018-10-12 13:36:10.256433', 'mgs': 0, 'depth': 3.293, 'time': 8.48, 'pitch': -3.05, 'roll': 2.25}
{'lipoC2': 7.9, 'temp': 24.56, 'lipoC3S3': 11.8, 'rot1': 68, 'rot0': 66, 'rot3': 28, 'rot2': 37, 'state': 'normal', 'yaw': 0.04, 'datetime': '2018-10-12 13:36:10.355096', 'mgs': 0, 'depth': 3.217, 'time': 8.58, 'pitch': -2.69, 'roll': 1.9}
{'lipoC2': 7.9, 'temp': 24.56, 'lipoC3S3': 11.88, 'rot1': 69, 'rot0': 67, 'rot3': 28, 'rot2': 37, 'state': 'normal', 'yaw': 1.08, 'datetime': '2018-10-12 13:36:10.452565', 'mgs': 0, 'depth': 3.217, 'time': 8.68, 'pitch': -2.28, 'roll': 1.64}
{'lipoC2': 7.9, 'temp': 24.56, 'lipoC3S3': 11.87, 'rot1': 70, 'rot0': 68, 'rot3': 28, 'rot2': 37, 'state': 'normal', 'yaw': 2.16, 'datetime': '2018-10-12 13:36:10.549977', 'mgs': 0, 'depth': 3.522, 'time': 8.77, 'pitch': -1.87, 'roll': 1.48}
{'lipoC2': 7.9, 'temp': 24.56, 'lipoC3S3': 11.87, 'rot1': 71, 'rot0': 69, 'rot3': 28, 'rot2': 37, 'state': 'normal', 'yaw': 2.72, 'datetime': '2018-10-12 13:36:10.648216', 'mgs': 0, 'depth': 3.14, 'time': 8.87, 'pitch': -1.59, 'roll': 1.41}
{'lipoC2': 7.9, 'temp': 24.63, 'lipoC3S3': 11.87, 'rot1': 72, 'rot0': 70, 'rot3': 28, 'rot2': 37, 'state': 'normal', 'yaw': 2.84, 'datetime': '2018-10-12 13:36:10.746745', 'mgs': 0, 'depth': 3.217, 'time': 8.97, 'pitch': -1.37, 'roll': 1.42}
{'lipoC2': 7.9, 'temp': 24.63, 'lipoC3S3': 11.87, 'rot1': 73, 'rot0': 71, 'rot3': 28, 'rot2': 37, 'state': 'normal', 'yaw': 2.54, 'datetime': '2018-10-12 13:36:10.844071', 'mgs': 0, 'depth': 3.217, 'time': 9.07, 'pitch': -1.25, 'roll': 1.47}
{'lipoC2': 7.91, 'temp': 24.63, 'lipoC3S3': 11.85, 'rot1': 73, 'rot0': 72, 'rot3': 28, 'rot2': 37, 'state': 'normal', 'yaw': 1.93, 'datetime': '2018-10-12 13:36:10.941500', 'mgs': 0, 'depth': 3.522, 'time': 9.17, 'pitch': -1.17, 'roll': 1.55}
{'lipoC2': 7.91, 'temp': 24.56, 'lipoC3S3': 11.77, 'rot1': 74, 'rot0': 73, 'rot3': 28, 'rot2': 37, 'state': 'normal', 'yaw': 1.07, 'datetime': '2018-10-12 13:36:11.038978', 'mgs': 0, 'depth': 3.14, 'time': 9.27, 'pitch': -1.2, 'roll': 1.66}
{'lipoC2': 7.9, 'temp': 24.56, 'lipoC3S3': 11.85, 'rot1': 75, 'rot0': 74, 'rot3': 28, 'rot2': 37, 'state': 'normal', 'yaw': 0.1, 'datetime': '2018-10-12 13:36:11.136327', 'mgs': 0, 'depth': 3.064, 'time': 9.36, 'pitch': -1.32, 'roll': 1.84}
{'lipoC2': 7.9, 'temp': 24.56, 'lipoC3S3': 11.84, 'rot1': 76, 'rot0': 75, 'rot3': 29, 'rot2': 38, 'state': 'normal', 'yaw': -1.16, 'datetime': '2018-10-12 13:36:11.233732', 'mgs': 0, 'depth': 3.445, 'time': 9.46, 'pitch': -1.54, 'roll': 2.09}
{'lipoC2': 7.9, 'temp': 24.56, 'lipoC3S3': 11.77, 'rot1': 77, 'rot0': 77, 'rot3': 29, 'rot2': 38, 'state': 'normal', 'yaw': -2.52, 'datetime': '2018-10-12 13:36:11.331163', 'mgs': 0, 'depth': 3.293, 'time': 9.56, 'pitch': -1.84, 'roll': 2.41}
{'lipoC2': 7.91, 'temp': 24.56, 'lipoC3S3': 11.79, 'rot1': 77, 'rot0': 78, 'rot3': 30, 'rot2': 39, 'state': 'normal', 'yaw': -3.81, 'datetime': '2018-10-12 13:36:11.428783', 'mgs': 0, 'depth': 2.988, 'time': 9.65, 'pitch': -2.09, 'roll': 2.77}
{'lipoC2': 7.9, 'temp': 24.56, 'lipoC3S3': 11.83, 'rot1': 79, 'rot0': 78, 'rot3': 30, 'rot2': 40, 'state': 'normal', 'yaw': -4.86, 'datetime': '2018-10-12 13:36:11.526183', 'mgs': 0, 'depth': 2.988, 'time': 9.75, 'pitch': -2.33, 'roll': 3.19}
{'lipoC2': 7.9, 'temp': 24.56, 'lipoC3S3': 11.87, 'rot1': 80, 'rot0': 79, 'rot3': 30, 'rot2': 40, 'state': 'normal', 'yaw': -5.46, 'datetime': '2018-10-12 13:36:11.621032', 'mgs': 0, 'depth': 2.988, 'time': 9.85, 'pitch': -2.49, 'roll': 3.62}
{'lipoC2': 7.91, 'temp': 24.56, 'lipoC3S3': 11.87, 'rot1': 81, 'rot0': 80, 'rot3': 30, 'rot2': 40, 'state': 'normal', 'yaw': -5.66, 'datetime': '2018-10-12 13:36:11.716496', 'mgs': 0, 'depth': 3.445, 'time': 9.95, 'pitch': -2.56, 'roll': 3.89}
{'lipoC2': 7.9, 'temp': 24.56, 'lipoC3S3': 11.85, 'rot1': 82, 'rot0': 81, 'rot3': 30, 'rot2': 40, 'state': 'normal', 'yaw': -5.54, 'datetime': '2018-10-12 13:36:11.817444', 'mgs': 0, 'depth': 2.835, 'time': 10.05, 'pitch': -2.54, 'roll': 3.96}
{'lipoC2': 7.9, 'temp': 24.56, 'lipoC3S3': 11.87, 'rot1': 83, 'rot0': 81, 'rot3': 30, 'rot2': 40, 'state': 'normal', 'yaw': -5.14, 'datetime': '2018-10-12 13:36:11.915869', 'mgs': 0, 'depth': 2.835, 'time': 10.14, 'pitch': -2.47, 'roll': 3.92}
{'lipoC2': 7.9, 'temp': 24.5, 'lipoC3S3': 11.84, 'rot1': 84, 'rot0': 82, 'rot3': 30, 'rot2': 41, 'state': 'normal', 'yaw': -4.54, 'datetime': '2018-10-12 13:36:12.013408', 'mgs': 0, 'depth': 3.064, 'time': 10.24, 'pitch': -2.37, 'roll': 3.68}
{'lipoC2': 7.9, 'temp': 24.5, 'lipoC3S3': 11.83, 'rot1': 85, 'rot0': 83, 'rot3': 30, 'rot2': 41, 'state': 'normal', 'yaw': -3.83, 'datetime': '2018-10-12 13:36:16.069447', 'mgs': 0, 'depth': 3.064, 'time': 10.34, 'pitch': -2.3, 'roll': 3.19}
{'lipoC2': 7.9, 'temp': 24.56, 'lipoC3S3': 11.87, 'rot1': 85, 'rot0': 83, 'rot3': 30, 'rot2': 42, 'state': 'normal', 'yaw': -3.3, 'datetime': '2018-10-12 13:36:16.092947', 'mgs': 0, 'depth': 2.911, 'time': 10.44, 'pitch': -2.28, 'roll': 2.45}
{'lipoC2': 7.91, 'temp': 24.56, 'lipoC3S3': 11.87, 'rot1': 85, 'rot0': 83, 'rot3': 30, 'rot2': 42, 'state': 'normal', 'yaw': -2.9, 'datetime': '2018-10-12 13:36:16.118797', 'mgs': 0, 'depth': 2.377, 'time': 10.53, 'pitch': -2.26, 'roll': 1.44}
{'lipoC2': 7.9, 'temp': 24.56, 'lipoC3S3': 11.85, 'rot1': 85, 'rot0': 83, 'rot3': 31, 'rot2': 43, 'state': 'normal', 'yaw': -2.66, 'datetime': '2018-10-12 13:36:16.127460', 'mgs': 0, 'depth': 2.682, 'time': 10.63, 'pitch': -2.29, 'roll': 0.34}
{'lipoC2': 7.91, 'temp': 24.56, 'lipoC3S3': 11.81, 'rot1': 85, 'rot0': 83, 'rot3': 31, 'rot2': 43, 'state': 'normal', 'yaw': -2.57, 'datetime': '2018-10-12 13:36:16.146729', 'mgs': 0, 'depth': 2.301, 'time': 10.73, 'pitch': -2.41, 'roll': -0.71}
{'lipoC2': 7.91, 'temp': 24.56, 'lipoC3S3': 11.85, 'rot1': 85, 'rot0': 83, 'rot3': 31, 'rot2': 44, 'state': 'normal', 'yaw': -2.57, 'datetime': '2018-10-12 13:36:16.154610', 'mgs': 0, 'depth': 2.53, 'time': 10.83, 'pitch': -2.56, 'roll': -1.53}
{'lipoC2': 7.9, 'temp': 24.56, 'lipoC3S3': 11.87, 'rot1': 85, 'rot0': 83, 'rot3': 32, 'rot2': 45, 'state': 'normal', 'yaw': -2.64, 'datetime': '2018-10-12 13:36:16.173887', 'mgs': 0, 'depth': 2.454, 'time': 10.93, 'pitch': -2.78, 'roll': -2.32}
{'lipoC2': 7.9, 'temp': 24.56, 'lipoC3S3': 11.85, 'rot1': 85, 'rot0': 83, 'rot3': 32, 'rot2': 45, 'state': 'normal', 'yaw': -2.79, 'datetime': '2018-10-12 13:36:16.181776', 'mgs': 0, 'depth': 2.148, 'time': 11.02, 'pitch': -2.99, 'roll': -3.05}
{'lipoC2': 7.9, 'temp': 24.56, 'lipoC3S3': 11.85, 'rot1': 85, 'rot0': 83, 'rot3': 33, 'rot2': 46, 'state': 'normal', 'yaw': -2.99, 'datetime': '2018-10-12 13:36:16.206577', 'mgs': 0, 'depth': 2.301, 'time': 11.12, 'pitch': -3.12, 'roll': -3.74}
{'lipoC2': 7.91, 'temp': 24.56, 'lipoC3S3': 11.8, 'rot1': 85, 'rot0': 83, 'rot3': 33, 'rot2': 46, 'state': 'normal', 'yaw': -3.27, 'datetime': '2018-10-12 13:36:16.214521', 'mgs': 0, 'depth': 2.148, 'time': 11.22, 'pitch': -3.16, 'roll': -4.38}
{'lipoC2': 7.9, 'temp': 24.56, 'lipoC3S3': 11.81, 'rot1': 85, 'rot0': 83, 'rot3': 33, 'rot2': 47, 'state': 'normal', 'yaw': -3.54, 'datetime': '2018-10-12 13:36:16.233832', 'mgs': 0, 'depth': 1.92, 'time': 11.32, 'pitch': -3.17, 'roll': -4.88}
{'lipoC2': 7.91, 'temp': 24.56, 'lipoC3S3': 11.84, 'rot1': 85, 'rot0': 83, 'rot3': 34, 'rot2': 48, 'state': 'normal', 'yaw': -3.9, 'datetime': '2018-10-12 13:36:16.241722', 'mgs': 0, 'depth': 1.843, 'time': 11.42, 'pitch': -3.23, 'roll': -5.29}
{'lipoC2': 7.9, 'temp': 24.56, 'lipoC3S3': 11.85, 'rot1': 85, 'rot0': 83, 'rot3': 34, 'rot2': 48, 'state': 'normal', 'yaw': -4.27, 'datetime': '2018-10-12 13:36:16.261019', 'mgs': 0, 'depth': 2.148, 'time': 11.51, 'pitch': -3.38, 'roll': -5.49}
{'lipoC2': 7.91, 'temp': 24.56, 'lipoC3S3': 11.81, 'rot1': 85, 'rot0': 83, 'rot3': 34, 'rot2': 49, 'state': 'normal', 'yaw': -4.6, 'datetime': '2018-10-12 13:36:16.268898', 'mgs': 0, 'depth': 1.92, 'time': 11.61, 'pitch': -3.46, 'roll': -5.54}
{'lipoC2': 7.9, 'temp': 24.5, 'lipoC3S3': 11.84, 'rot1': 85, 'rot0': 83, 'rot3': 35, 'rot2': 50, 'state': 'normal', 'yaw': -4.87, 'datetime': '2018-10-12 13:36:16.288132', 'mgs': 0, 'depth': 1.767, 'time': 11.71, 'pitch': -3.44, 'roll': -5.5}
{'lipoC2': 7.9, 'temp': 24.5, 'lipoC3S3': 11.88, 'rot1': 85, 'rot0': 83, 'rot3': 35, 'rot2': 50, 'state': 'normal', 'yaw': -5.11, 'datetime': '2018-10-12 13:36:16.296006', 'mgs': 0, 'depth': 1.767, 'time': 11.81, 'pitch': -3.31, 'roll': -5.39}
{'lipoC2': 7.9, 'temp': 24.56, 'lipoC3S3': 11.85, 'rot1': 85, 'rot0': 83, 'rot3': 36, 'rot2': 51, 'state': 'normal', 'yaw': -5.31, 'datetime': '2018-10-12 13:36:16.315277', 'mgs': 0, 'depth': 1.996, 'time': 11.9, 'pitch': -3.13, 'roll': -5.17}
{'lipoC2': 7.9, 'temp': 24.56, 'lipoC3S3': 11.87, 'rot1': 85, 'rot0': 83, 'rot3': 37, 'rot2': 51, 'state': 'normal', 'yaw': -5.53, 'datetime': '2018-10-12 13:36:16.323147', 'mgs': 0, 'depth': 1.996, 'time': 12.0, 'pitch': -3.06, 'roll': -4.95}
{'lipoC2': 7.91, 'temp': 24.56, 'lipoC3S3': 11.84, 'rot1': 85, 'rot0': 83, 'rot3': 37, 'rot2': 52, 'state': 'normal', 'yaw': -5.85, 'datetime': '2018-10-12 13:36:16.342424', 'mgs': 0, 'depth': 1.767, 'time': 12.1, 'pitch': -3.11, 'roll': -4.72}
{'lipoC2': 7.9, 'temp': 24.56, 'lipoC3S3': 11.88, 'rot1': 85, 'rot0': 83, 'rot3': 37, 'rot2': 53, 'state': 'normal', 'yaw': -6.21, 'datetime': '2018-10-12 13:36:16.350299', 'mgs': 0, 'depth': 1.767, 'time': 12.2, 'pitch': -3.29, 'roll': -4.59}
{'lipoC2': 7.9, 'temp': 24.56, 'lipoC3S3': 11.87, 'rot1': 85, 'rot0': 83, 'rot3': 38, 'rot2': 53, 'state': 'normal', 'yaw': -6.56, 'datetime': '2018-10-12 13:36:16.369548', 'mgs': 0, 'depth': 2.072, 'time': 12.3, 'pitch': -3.56, 'roll': -4.57}
{'lipoC2': 7.91, 'temp': 24.63, 'lipoC3S3': 11.81, 'rot1': 85, 'rot0': 83, 'rot3': 38, 'rot2': 54, 'state': 'normal', 'yaw': -6.84, 'datetime': '2018-10-12 13:36:16.377414', 'mgs': 0, 'depth': 1.92, 'time': 12.39, 'pitch': -3.87, 'roll': -4.67}
{'lipoC2': 7.9, 'temp': 24.63, 'lipoC3S3': 11.84, 'rot1': 85, 'rot0': 83, 'rot3': 39, 'rot2': 55, 'state': 'normal', 'yaw': -7.14, 'datetime': '2018-10-12 13:36:16.396703', 'mgs': 0, 'depth': 1.843, 'time': 12.49, 'pitch': -4.23, 'roll': -4.83}
{'lipoC2': 7.91, 'temp': 24.63, 'lipoC3S3': 11.83, 'rot1': 85, 'rot0': 83, 'rot3': 39, 'rot2': 55, 'state': 'normal', 'yaw': -7.38, 'datetime': '2018-10-12 13:36:16.404576', 'mgs': 0, 'depth': 1.843, 'time': 12.59, 'pitch': -4.56, 'roll': -4.95}
{'lipoC2': 7.91, 'temp': 24.63, 'lipoC3S3': 11.87, 'rot1': 85, 'rot0': 83, 'rot3': 40, 'rot2': 56, 'state': 'normal', 'yaw': -7.56, 'datetime': '2018-10-12 13:36:16.423842', 'mgs': 0, 'depth': 1.843, 'time': 12.69, 'pitch': -4.81, 'roll': -4.93}
{'lipoC2': 7.91, 'temp': 24.63, 'lipoC3S3': 11.87, 'rot1': 85, 'rot0': 83, 'rot3': 40, 'rot2': 57, 'state': 'normal', 'yaw': -7.7, 'datetime': '2018-10-12 13:36:16.431340', 'mgs': 0, 'depth': 2.072, 'time': 12.78, 'pitch': -5.0, 'roll': -4.78}
{'lipoC2': 7.9, 'temp': 24.56, 'lipoC3S3': 11.87, 'rot1': 85, 'rot0': 83, 'rot3': 40, 'rot2': 57, 'state': 'normal', 'yaw': -7.86, 'datetime': '2018-10-12 13:36:16.450126', 'mgs': 0, 'depth': 2.072, 'time': 12.88, 'pitch': -5.18, 'roll': -4.54}
{'lipoC2': 7.9, 'temp': 24.56, 'lipoC3S3': 11.87, 'rot1': 85, 'rot0': 83, 'rot3': 41, 'rot2': 58, 'state': 'normal', 'yaw': -8.04, 'datetime': '2018-10-12 13:36:16.457600', 'mgs': 0, 'depth': 2.072, 'time': 12.98, 'pitch': -5.41, 'roll': -4.24}
{'lipoC2': 7.91, 'temp': 24.56, 'lipoC3S3': 11.83, 'rot1': 85, 'rot0': 83, 'rot3': 41, 'rot2': 58, 'state': 'normal', 'yaw': -8.21, 'datetime': '2018-10-12 13:36:16.476433', 'mgs': 0, 'depth': 1.843, 'time': 13.08, 'pitch': -5.68, 'roll': -3.92}
{'lipoC2': 7.9, 'temp': 24.56, 'lipoC3S3': 11.87, 'rot1': 85, 'rot0': 83, 'rot3': 42, 'rot2': 59, 'state': 'normal', 'yaw': -8.36, 'datetime': '2018-10-12 13:36:16.483902', 'mgs': 0, 'depth': 1.92, 'time': 13.18, 'pitch': -5.96, 'roll': -3.66}
{'lipoC2': 7.9, 'temp': 24.56, 'lipoC3S3': 11.85, 'rot1': 85, 'rot0': 83, 'rot3': 42, 'rot2': 60, 'state': 'normal', 'yaw': -8.47, 'datetime': '2018-10-12 13:36:16.502739', 'mgs': 0, 'depth': 1.92, 'time': 13.28, 'pitch': -6.2, 'roll': -3.49}
{'lipoC2': 7.9, 'temp': 24.56, 'lipoC3S3': 11.87, 'rot1': 85, 'rot0': 83, 'rot3': 43, 'rot2': 60, 'state': 'normal', 'yaw': -8.57, 'datetime': '2018-10-12 13:36:16.510330', 'mgs': 0, 'depth': 2.148, 'time': 13.37, 'pitch': -6.43, 'roll': -3.41}
{'lipoC2': 7.91, 'temp': 24.56, 'lipoC3S3': 11.85, 'rot1': 85, 'rot0': 83, 'rot3': 43, 'rot2': 61, 'state': 'normal', 'yaw': -8.69, 'datetime': '2018-10-12 13:36:16.529179', 'mgs': 0, 'depth': 2.148, 'time': 13.47, 'pitch': -6.65, 'roll': -3.39}
{'lipoC2': 7.9, 'temp': 24.56, 'lipoC3S3': 11.84, 'rot1': 85, 'rot0': 83, 'rot3': 44, 'rot2': 62, 'state': 'normal', 'yaw': -8.8, 'datetime': '2018-10-12 13:36:16.536655', 'mgs': 0, 'depth': 1.92, 'time': 13.57, 'pitch': -6.87, 'roll': -3.42}
{'lipoC2': 7.91, 'temp': 24.56, 'lipoC3S3': 11.87, 'rot1': 85, 'rot0': 83, 'rot3': 44, 'rot2': 62, 'state': 'normal', 'yaw': -8.86, 'datetime': '2018-10-12 13:36:16.555489', 'mgs': 0, 'depth': 2.072, 'time': 13.67, 'pitch': -7.05, 'roll': -3.42}
{'lipoC2': 7.9, 'temp': 24.56, 'lipoC3S3': 11.87, 'rot1': 85, 'rot0': 83, 'rot3': 45, 'rot2': 63, 'state': 'normal', 'yaw': -8.9, 'datetime': '2018-10-12 13:36:16.562952', 'mgs': 0, 'depth': 2.225, 'time': 13.77, 'pitch': -7.22, 'roll': -3.38}
{'lipoC2': 7.9, 'temp': 24.56, 'lipoC3S3': 11.85, 'rot1': 85, 'rot0': 83, 'rot3': 45, 'rot2': 64, 'state': 'normal', 'yaw': -8.92, 'datetime': '2018-10-12 13:36:16.581793', 'mgs': 0, 'depth': 1.996, 'time': 13.86, 'pitch': -7.32, 'roll': -3.33}
{'lipoC2': 7.9, 'temp': 24.56, 'lipoC3S3': 11.87, 'rot1': 85, 'rot0': 83, 'rot3': 46, 'rot2': 64, 'state': 'normal', 'yaw': -8.92, 'datetime': '2018-10-12 13:36:16.589236', 'mgs': 0, 'depth': 2.225, 'time': 13.96, 'pitch': -7.34, 'roll': -3.29}
{'lipoC2': 7.91, 'temp': 24.56, 'lipoC3S3': 11.85, 'rot1': 85, 'rot0': 83, 'rot3': 46, 'rot2': 65, 'state': 'normal', 'yaw': -8.92, 'datetime': '2018-10-12 13:36:16.608076', 'mgs': 0, 'depth': 2.148, 'time': 14.06, 'pitch': -7.3, 'roll': -3.25}
{'lipoC2': 7.9, 'temp': 24.56, 'lipoC3S3': 11.84, 'rot1': 85, 'rot0': 83, 'rot3': 47, 'rot2': 66, 'state': 'normal', 'yaw': -8.86, 'datetime': '2018-10-12 13:36:16.615551', 'mgs': 0, 'depth': 1.538, 'time': 14.15, 'pitch': -7.28, 'roll': -3.27}
{'lipoC2': 7.91, 'temp': 24.56, 'lipoC3S3': 11.87, 'rot1': 85, 'rot0': 83, 'rot3': 47, 'rot2': 66, 'state': 'normal', 'yaw': -8.78, 'datetime': '2018-10-12 13:36:16.634500', 'mgs': 0, 'depth': 1.92, 'time': 14.25, 'pitch': -7.24, 'roll': -3.41}
{'lipoC2': 7.9, 'temp': 24.56, 'lipoC3S3': 11.9, 'rot1': 85, 'rot0': 83, 'rot3': 47, 'rot2': 67, 'state': 'normal', 'yaw': -8.69, 'datetime': '2018-10-12 13:36:16.642304', 'mgs': 0, 'depth': 1.92, 'time': 14.35, 'pitch': -7.24, 'roll': -3.67}
{'lipoC2': 7.91, 'temp': 24.56, 'lipoC3S3': 11.8, 'rot1': 85, 'rot0': 83, 'rot3': 48, 'rot2': 67, 'state': 'normal', 'yaw': -8.52, 'datetime': '2018-10-12 13:36:16.661171', 'mgs': 0, 'depth': 1.92, 'time': 14.45, 'pitch': -7.18, 'roll': -4.03}
{'lipoC2': 7.91, 'temp': 24.44, 'lipoC3S3': 11.81, 'rot1': 86, 'rot0': 84, 'rot3': 48, 'rot2': 68, 'state': 'normal', 'yaw': -7.74, 'datetime': '2018-10-12 13:36:16.668626', 'mgs': 0, 'depth': 1.92, 'time': 14.55, 'pitch': -6.83, 'roll': -4.43}
{'lipoC2': 7.91, 'temp': 24.44, 'lipoC3S3': 11.81, 'rot1': 87, 'rot0': 85, 'rot3': 49, 'rot2': 69, 'state': 'normal', 'yaw': -6.36, 'datetime': '2018-10-12 13:36:16.687477', 'mgs': 0, 'depth': 1.92, 'time': 14.65, 'pitch': -6.33, 'roll': -4.65}
{'lipoC2': 7.9, 'temp': 24.44, 'lipoC3S3': 11.85, 'rot1': 88, 'rot0': 86, 'rot3': 49, 'rot2': 69, 'state': 'normal', 'yaw': -4.46, 'datetime': '2018-10-12 13:36:16.694977', 'mgs': 0, 'depth': 2.225, 'time': 14.74, 'pitch': -5.78, 'roll': -4.71}
{'lipoC2': 7.91, 'temp': 24.56, 'lipoC3S3': 11.79, 'rot1': 88, 'rot0': 87, 'rot3': 50, 'rot2': 70, 'state': 'normal', 'yaw': -2.1, 'datetime': '2018-10-12 13:36:16.713819', 'mgs': 0, 'depth': 2.148, 'time': 14.84, 'pitch': -5.23, 'roll': -4.59}
{'lipoC2': 7.91, 'temp': 24.56, 'lipoC3S3': 11.81, 'rot1': 89, 'rot0': 87, 'rot3': 50, 'rot2': 71, 'state': 'normal', 'yaw': 0.38, 'datetime': '2018-10-12 13:36:16.721317', 'mgs': 0, 'depth': 1.843, 'time': 14.94, 'pitch': -4.81, 'roll': -4.46}
{'lipoC2': 7.91, 'temp': 24.5, 'lipoC3S3': 11.8, 'rot1': 90, 'rot0': 88, 'rot3': 51, 'rot2': 71, 'state': 'normal', 'yaw': 3.5, 'datetime': '2018-10-12 13:36:16.802068', 'mgs': 0, 'depth': 1.92, 'time': 15.04, 'pitch': -4.43, 'roll': -4.4}
{'lipoC2': 7.91, 'temp': 24.5, 'lipoC3S3': 11.8, 'rot1': 91, 'rot0': 89, 'rot3': 51, 'rot2': 72, 'state': 'normal', 'yaw': 6.89, 'datetime': '2018-10-12 13:36:16.899955', 'mgs': 0, 'depth': 2.606, 'time': 15.14, 'pitch': -4.11, 'roll': -4.46}
{'lipoC2': 7.9, 'temp': 24.5, 'lipoC3S3': 11.81, 'rot1': 92, 'rot0': 90, 'rot3': 52, 'rot2': 72, 'state': 'normal', 'yaw': 10.56, 'datetime': '2018-10-12 13:36:16.997379', 'mgs': 0, 'depth': 1.843, 'time': 15.23, 'pitch': -3.76, 'roll': -4.63}
{'lipoC2': 7.9, 'temp': 24.5, 'lipoC3S3': 11.84, 'rot1': 93, 'rot0': 91, 'rot3': 52, 'rot2': 73, 'state': 'normal', 'yaw': 14.45, 'datetime': '2018-10-12 13:36:17.094759', 'mgs': 0, 'depth': 2.072, 'time': 15.33, 'pitch': -3.48, 'roll': -4.82}
{'lipoC2': 7.91, 'temp': 24.5, 'lipoC3S3': 11.85, 'rot1': 93, 'rot0': 91, 'rot3': 53, 'rot2': 74, 'state': 'normal', 'yaw': 18.09, 'datetime': '2018-10-12 13:36:17.192193', 'mgs': 0, 'depth': 1.996, 'time': 15.43, 'pitch': -3.28, 'roll': -4.98}
{'lipoC2': 7.91, 'temp': 24.56, 'lipoC3S3': 11.81, 'rot1': 94, 'rot0': 92, 'rot3': 53, 'rot2': 74, 'state': 'normal', 'yaw': 22.28, 'datetime': '2018-10-12 13:36:17.289605', 'mgs': 0, 'depth': 1.843, 'time': 15.53, 'pitch': -3.13, 'roll': -5.14}
{'lipoC2': 7.91, 'temp': 24.56, 'lipoC3S3': 11.79, 'rot1': 95, 'rot0': 93, 'rot3': 54, 'rot2': 75, 'state': 'normal', 'yaw': 26.61, 'datetime': '2018-10-12 13:36:17.387019', 'mgs': 0, 'depth': 1.843, 'time': 15.62, 'pitch': -3.12, 'roll': -5.32}
{'lipoC2': 7.9, 'temp': 24.56, 'lipoC3S3': 11.83, 'rot1': 96, 'rot0': 94, 'rot3': 54, 'rot2': 76, 'state': 'normal', 'yaw': 30.62, 'datetime': '2018-10-12 13:36:17.484642', 'mgs': 0, 'depth': 1.843, 'time': 15.72, 'pitch': -3.23, 'roll': -5.45}
{'lipoC2': 7.9, 'temp': 24.56, 'lipoC3S3': 11.84, 'rot1': 97, 'rot0': 95, 'rot3': 54, 'rot2': 76, 'state': 'normal', 'yaw': 35.21, 'datetime': '2018-10-12 13:36:17.587201', 'mgs': 0, 'depth': 2.072, 'time': 15.82, 'pitch': -3.5, 'roll': -5.5}
{'lipoC2': 7.91, 'temp': 24.56, 'lipoC3S3': 11.81, 'rot1': 97, 'rot0': 95, 'rot3': 55, 'rot2': 77, 'state': 'normal', 'yaw': 39.9, 'datetime': '2018-10-12 13:36:17.684655', 'mgs': 0, 'depth': 2.377, 'time': 15.92, 'pitch': -3.81, 'roll': -5.49}
{'lipoC2': 7.9, 'temp': 24.63, 'lipoC3S3': 11.8, 'rot1': 98, 'rot0': 96, 'rot3': 55, 'rot2': 78, 'state': 'normal', 'yaw': 44.69, 'datetime': '2018-10-12 13:36:17.782124', 'mgs': 0, 'depth': 1.767, 'time': 16.01, 'pitch': -4.0, 'roll': -5.5}
{'lipoC2': 7.9, 'temp': 24.63, 'lipoC3S3': 11.84, 'rot1': 99, 'rot0': 97, 'rot3': 56, 'rot2': 78, 'state': 'normal', 'yaw': 49.08, 'datetime': '2018-10-12 13:36:17.879961', 'mgs': 0, 'depth': 2.148, 'time': 16.11, 'pitch': -4.06, 'roll': -5.57}
{'lipoC2': 7.91, 'temp': 24.63, 'lipoC3S3': 11.83, 'rot1': 100, 'rot0': 98, 'rot3': 56, 'rot2': 79, 'state': 'normal', 'yaw': 54.04, 'datetime': '2018-10-12 13:36:17.977102', 'mgs': 0, 'depth': 2.072, 'time': 16.21, 'pitch': -3.99, 'roll': -5.74}
{'lipoC2': 7.9, 'temp': 24.56, 'lipoC3S3': 11.79, 'rot1': 101, 'rot0': 99, 'rot3': 57, 'rot2': 80, 'state': 'normal', 'yaw': 59.08, 'datetime': '2018-10-12 13:36:18.074601', 'mgs': 0, 'depth': 2.835, 'time': 16.31, 'pitch': -3.87, 'roll': -5.95}
{'lipoC2': 7.9, 'temp': 24.56, 'lipoC3S3': 11.8, 'rot1': 101, 'rot0': 100, 'rot3': 57, 'rot2': 80, 'state': 'normal', 'yaw': 64.24, 'datetime': '2018-10-12 13:36:18.172471', 'mgs': 0, 'depth': 2.072, 'time': 16.41, 'pitch': -3.74, 'roll': -6.1}
{'lipoC2': 7.91, 'temp': 24.63, 'lipoC3S3': 11.83, 'rot1': 102, 'rot0': 100, 'rot3': 58, 'rot2': 81, 'state': 'normal', 'yaw': 68.98, 'datetime': '2018-10-12 13:36:18.271409', 'mgs': 0, 'depth': 1.996, 'time': 16.5, 'pitch': -3.66, 'roll': -6.15}
{'lipoC2': 7.91, 'temp': 24.63, 'lipoC3S3': 11.79, 'rot1': 103, 'rot0': 101, 'rot3': 58, 'rot2': 82, 'state': 'normal', 'yaw': 74.38, 'datetime': '2018-10-12 13:36:18.370345', 'mgs': 0, 'depth': 1.767, 'time': 16.6, 'pitch': -3.54, 'roll': -6.12}
{'lipoC2': 7.91, 'temp': 24.63, 'lipoC3S3': 11.84, 'rot1': 104, 'rot0': 102, 'rot3': 59, 'rot2': 82, 'state': 'normal', 'yaw': 79.86, 'datetime': '2018-10-12 13:36:18.468596', 'mgs': 0, 'depth': 1.996, 'time': 16.7, 'pitch': -3.42, 'roll': -5.99}
{'lipoC2': 7.9, 'temp': 24.56, 'lipoC3S3': 11.83, 'rot1': 105, 'rot0': 103, 'rot3': 60, 'rot2': 83, 'state': 'normal', 'yaw': 85.39, 'datetime': '2018-10-12 13:36:18.566320', 'mgs': 0, 'depth': 2.072, 'time': 16.8, 'pitch': -3.28, 'roll': -5.8}
{'lipoC2': 7.91, 'temp': 24.56, 'lipoC3S3': 11.83, 'rot1': 106, 'rot0': 104, 'rot3': 60, 'rot2': 84, 'state': 'normal', 'yaw': 90.95, 'datetime': '2018-10-12 13:36:18.663849', 'mgs': 0, 'depth': 1.996, 'time': 16.9, 'pitch': -3.11, 'roll': -5.59}
