{'lipoC2': 8.38, 'temp': 27.31, 'lipoC3S3': 12.68, 'rot1': 0, 'rot0': 0, 'rot3': 0, 'rot2': 0, 'state': 'normal', 'yaw': 0.0, 'datetime': '2018-10-12 18:44:51.881630', 'mgs': 0, 'depth': -0.064, 'time': 1.26, 'pitch': 0.9, 'roll': -3.92}
{'lipoC2': 8.39, 'temp': 27.31, 'lipoC3S3': 12.68, 'rot1': 0, 'rot0': 0, 'rot3': 0, 'rot2': 0, 'state': 'normal', 'yaw': 0.0, 'datetime': '2018-10-12 18:44:51.899321', 'mgs': 0, 'depth': -0.14, 'time': 1.36, 'pitch': 0.9, 'roll': -3.92}
{'lipoC2': 8.38, 'temp': 27.31, 'lipoC3S3': 12.68, 'rot1': 0, 'rot0': 0, 'rot3': 0, 'rot2': 0, 'state': 'normal', 'yaw': 0.0, 'datetime': '2018-10-12 18:44:51.918014', 'mgs': 0, 'depth': -0.14, 'time': 1.46, 'pitch': 0.9, 'roll': -3.92}
{'lipoC2': 8.38, 'temp': 27.31, 'lipoC3S3': 12.68, 'rot1': 0, 'rot0': 0, 'rot3': 0, 'rot2': 0, 'state': 'normal', 'yaw': 0.0, 'datetime': '2018-10-12 18:44:51.936516', 'mgs': 0, 'depth': -0.14, 'time': 1.55, 'pitch': 0.9, 'roll': -3.92}
{'lipoC2': 8.38, 'temp': 27.31, 'lipoC3S3': 12.7, 'rot1': 0, 'rot0': 0, 'rot3': 0, 'rot2': 0, 'state': 'normal', 'yaw': 0.0, 'datetime': '2018-10-12 18:44:51.958665', 'mgs': 0, 'depth': -0.064, 'time': 1.65, 'pitch': 0.9, 'roll': -3.92}
{'lipoC2': 8.38, 'temp': 27.31, 'lipoC3S3': 12.68, 'rot1': 0, 'rot0': 0, 'rot3': 0, 'rot2': 0, 'state': 'normal', 'yaw': 0.0, 'datetime': '2018-10-12 18:44:51.976049', 'mgs': 0, 'depth': -0.064, 'time': 1.75, 'pitch': 0.9, 'roll': -3.92}
{'lipoC2': 8.38, 'temp': 27.31, 'lipoC3S3': 12.68, 'rot1': 0, 'rot0': 0, 'rot3': 0, 'rot2': 0, 'state': 'normal', 'yaw': 0.0, 'datetime': '2018-10-12 18:44:51.983470', 'mgs': 0, 'depth': -0.14, 'time': 1.85, 'pitch': 0.9, 'roll': -3.92}
{'lipoC2': 8.39, 'temp': 27.31, 'lipoC3S3': 12.7, 'rot1': 0, 'rot0': 0, 'rot3': 0, 'rot2': 0, 'state': 'normal', 'yaw': 0.0, 'datetime': '2018-10-12 18:44:51.990861', 'mgs': 0, 'depth': -0.14, 'time': 1.94, 'pitch': 0.9, 'roll': -3.92}
{'lipoC2': 8.39, 'temp': 27.31, 'lipoC3S3': 12.68, 'rot1': 0, 'rot0': 0, 'rot3': 0, 'rot2': 0, 'state': 'normal', 'yaw': 0.0, 'datetime': '2018-10-12 18:44:52.066078', 'mgs': 0, 'depth': 0.012, 'time': 2.04, 'pitch': 0.9, 'roll': -3.92}
{'lipoC2': 8.39, 'temp': 27.31, 'lipoC3S3': 12.7, 'rot1': 0, 'rot0': 0, 'rot3': 0, 'rot2': 0, 'state': 'normal', 'yaw': 0.0, 'datetime': '2018-10-12 18:44:52.164476', 'mgs': 0, 'depth': -0.064, 'time': 2.14, 'pitch': 0.9, 'roll': -3.92}
{'lipoC2': 8.38, 'temp': 27.25, 'lipoC3S3': 12.7, 'rot1': 0, 'rot0': 0, 'rot3': 0, 'rot2': 0, 'state': 'normal', 'yaw': 0.0, 'datetime': '2018-10-12 18:44:52.262507', 'mgs': 0, 'depth': -0.064, 'time': 2.24, 'pitch': 0.9, 'roll': -3.92}
{'lipoC2': 8.39, 'temp': 27.25, 'lipoC3S3': 12.68, 'rot1': 0, 'rot0': 0, 'rot3': 0, 'rot2': 0, 'state': 'normal', 'yaw': 0.0, 'datetime': '2018-10-12 18:44:52.359619', 'mgs': 0, 'depth': -0.14, 'time': 2.34, 'pitch': 0.9, 'roll': -3.92}
{'lipoC2': 8.39, 'temp': 27.31, 'lipoC3S3': 12.7, 'rot1': 0, 'rot0': 0, 'rot3': 0, 'rot2': 0, 'state': 'normal', 'yaw': 0.0, 'datetime': '2018-10-12 18:44:52.457264', 'mgs': 0, 'depth': -0.064, 'time': 2.43, 'pitch': 0.9, 'roll': -3.92}
{'lipoC2': 8.38, 'temp': 27.31, 'lipoC3S3': 12.68, 'rot1': 0, 'rot0': 0, 'rot3': 0, 'rot2': 0, 'state': 'normal', 'yaw': 0.0, 'datetime': '2018-10-12 18:44:52.555660', 'mgs': 0, 'depth': -0.064, 'time': 2.53, 'pitch': 0.9, 'roll': -3.92}
{'lipoC2': 8.39, 'temp': 27.31, 'lipoC3S3': 12.68, 'rot1': 0, 'rot0': 0, 'rot3': 0, 'rot2': 0, 'state': 'normal', 'yaw': 0.0, 'datetime': '2018-10-12 18:44:52.654046', 'mgs': 0, 'depth': -0.064, 'time': 2.63, 'pitch': 0.9, 'roll': -3.92}
{'lipoC2': 8.39, 'temp': 27.25, 'lipoC3S3': 12.68, 'rot1': 0, 'rot0': 0, 'rot3': 0, 'rot2': 0, 'state': 'normal', 'yaw': 0.0, 'datetime': '2018-10-12 18:44:52.751719', 'mgs': 0, 'depth': -0.064, 'time': 2.73, 'pitch': 0.9, 'roll': -3.92}
{'lipoC2': 8.39, 'temp': 27.25, 'lipoC3S3': 12.68, 'rot1': 0, 'rot0': 0, 'rot3': 0, 'rot2': 0, 'state': 'normal', 'yaw': 0.0, 'datetime': '2018-10-12 18:44:52.848857', 'mgs': 0, 'depth': -0.064, 'time': 2.83, 'pitch': 0.9, 'roll': -3.92}
{'lipoC2': 8.39, 'temp': 27.38, 'lipoC3S3': 12.68, 'rot1': 0, 'rot0': 0, 'rot3': 0, 'rot2': 0, 'state': 'normal', 'yaw': 0.0, 'datetime': '2018-10-12 18:44:52.946471', 'mgs': 0, 'depth': -0.14, 'time': 2.92, 'pitch': 0.9, 'roll': -3.92}
{'lipoC2': 8.38, 'temp': 27.38, 'lipoC3S3': 12.7, 'rot1': 0, 'rot0': 0, 'rot3': 0, 'rot2': 0, 'state': 'normal', 'yaw': 0.0, 'datetime': '2018-10-12 18:44:53.043597', 'mgs': 0, 'depth': -0.064, 'time': 3.02, 'pitch': 0.9, 'roll': -3.92}
{'lipoC2': 8.38, 'temp': 27.38, 'lipoC3S3': 12.68, 'rot1': 0, 'rot0': 0, 'rot3': 0, 'rot2': 0, 'state': 'normal', 'yaw': 0.0, 'datetime': '2018-10-12 18:44:53.140682', 'mgs': 0, 'depth': -0.064, 'time': 3.12, 'pitch': 0.9, 'roll': -3.92}
{'lipoC2': 8.39, 'temp': 27.31, 'lipoC3S3': 12.68, 'rot1': 0, 'rot0': 0, 'rot3': 0, 'rot2': 0, 'state': 'normal', 'yaw': 0.0, 'datetime': '2018-10-12 18:44:53.238922', 'mgs': 0, 'depth': -0.14, 'time': 3.22, 'pitch': 0.9, 'roll': -3.92}
{'lipoC2': 8.39, 'temp': 27.31, 'lipoC3S3': 12.68, 'rot1': 0, 'rot0': 0, 'rot3': 0, 'rot2': 0, 'state': 'normal', 'yaw': 0.0, 'datetime': '2018-10-12 18:44:53.337277', 'mgs': 0, 'depth': -0.14, 'time': 3.31, 'pitch': 0.9, 'roll': -3.92}
{'lipoC2': 8.38, 'temp': 27.31, 'lipoC3S3': 12.68, 'rot1': 0, 'rot0': 0, 'rot3': 0, 'rot2': 0, 'state': 'normal', 'yaw': 0.0, 'datetime': '2018-10-12 18:44:53.435715', 'mgs': 0, 'depth': -0.064, 'time': 3.41, 'pitch': 0.9, 'roll': -3.92}
{'lipoC2': 8.39, 'temp': 27.31, 'lipoC3S3': 12.68, 'rot1': 0, 'rot0': 0, 'rot3': 0, 'rot2': 0, 'state': 'normal', 'yaw': 0.0, 'datetime': '2018-10-12 18:44:53.532839', 'mgs': 0, 'depth': -0.064, 'time': 3.51, 'pitch': 0.9, 'roll': -3.92}
{'lipoC2': 8.38, 'temp': 27.31, 'lipoC3S3': 12.7, 'rot1': 0, 'rot0': 0, 'rot3': 0, 'rot2': 0, 'state': 'normal', 'yaw': 0.0, 'datetime': '2018-10-12 18:44:53.630033', 'mgs': 0, 'depth': -0.064, 'time': 3.61, 'pitch': 0.9, 'roll': -3.92}
{'lipoC2': 8.38, 'temp': 27.31, 'lipoC3S3': 12.68, 'rot1': 0, 'rot0': 0, 'rot3': 0, 'rot2': 0, 'state': 'normal', 'yaw': 0.0, 'datetime': '2018-10-12 18:44:53.728469', 'mgs': 0, 'depth': -0.14, 'time': 3.7, 'pitch': 0.9, 'roll': -3.92}
{'lipoC2': 8.39, 'temp': 27.31, 'lipoC3S3': 12.7, 'rot1': 0, 'rot0': 0, 'rot3': 0, 'rot2': 0, 'state': 'normal', 'yaw': 0.0, 'datetime': '2018-10-12 18:44:53.826836', 'mgs': 0, 'depth': -0.14, 'time': 3.81, 'pitch': 0.9, 'roll': -3.92}
{'lipoC2': 8.38, 'temp': 27.25, 'lipoC3S3': 12.7, 'rot1': 0, 'rot0': 0, 'rot3': 0, 'rot2': 0, 'state': 'normal', 'yaw': 0.0, 'datetime': '2018-10-12 18:44:53.923986', 'mgs': 0, 'depth': -0.064, 'time': 3.9, 'pitch': 0.9, 'roll': -3.92}
{'lipoC2': 8.38, 'temp': 27.25, 'lipoC3S3': 12.68, 'rot1': 0, 'rot0': 0, 'rot3': 0, 'rot2': 0, 'state': 'normal', 'yaw': 0.0, 'datetime': '2018-10-12 18:44:54.021066', 'mgs': 0, 'depth': -0.064, 'time': 4.0, 'pitch': 0.9, 'roll': -3.91}
{'lipoC2': 8.39, 'temp': 27.25, 'lipoC3S3': 12.7, 'rot1': 0, 'rot0': 0, 'rot3': 0, 'rot2': 0, 'state': 'normal', 'yaw': 0.0, 'datetime': '2018-10-12 18:44:54.119410', 'mgs': 0, 'depth': -0.14, 'time': 4.1, 'pitch': 0.9, 'roll': -3.91}
{'lipoC2': 8.38, 'temp': 27.31, 'lipoC3S3': 12.68, 'rot1': 0, 'rot0': 0, 'rot3': 0, 'rot2': 0, 'state': 'normal', 'yaw': 0.0, 'datetime': '2018-10-12 18:44:54.217799', 'mgs': 0, 'depth': -0.064, 'time': 4.2, 'pitch': 0.9, 'roll': -3.91}
{'lipoC2': 8.39, 'temp': 27.31, 'lipoC3S3': 12.68, 'rot1': 0, 'rot0': 0, 'rot3': 0, 'rot2': 0, 'state': 'normal', 'yaw': 0.0, 'datetime': '2018-10-12 18:44:54.315226', 'mgs': 0, 'depth': -0.064, 'time': 4.29, 'pitch': 0.9, 'roll': -3.91}
{'lipoC2': 8.38, 'temp': 27.31, 'lipoC3S3': 12.7, 'rot1': 0, 'rot0': 0, 'rot3': 0, 'rot2': 0, 'state': 'normal', 'yaw': 0.0, 'datetime': '2018-10-12 18:44:54.412357', 'mgs': 0, 'depth': -0.064, 'time': 4.39, 'pitch': 0.9, 'roll': -3.91}
{'lipoC2': 8.39, 'temp': 27.31, 'lipoC3S3': 12.68, 'rot1': 0, 'rot0': 0, 'rot3': 0, 'rot2': 0, 'state': 'normal', 'yaw': 0.0, 'datetime': '2018-10-12 18:44:54.510484', 'mgs': 0, 'depth': 0.012, 'time': 4.49, 'pitch': 0.9, 'roll': -3.91}
{'lipoC2': 8.39, 'temp': 27.31, 'lipoC3S3': 12.7, 'rot1': 0, 'rot0': 0, 'rot3': 0, 'rot2': 0, 'state': 'normal', 'yaw': 0.0, 'datetime': '2018-10-12 18:44:54.608802', 'mgs': 0, 'depth': -0.14, 'time': 4.59, 'pitch': 0.9, 'roll': -3.91}
{'lipoC2': 8.38, 'temp': 27.31, 'lipoC3S3': 12.7, 'rot1': 0, 'rot0': 0, 'rot3': 0, 'rot2': 0, 'state': 'normal', 'yaw': 0.0, 'datetime': '2018-10-12 18:44:54.706202', 'mgs': 0, 'depth': -0.064, 'time': 4.68, 'pitch': 0.9, 'roll': -3.91}
{'lipoC2': 8.38, 'temp': 27.31, 'lipoC3S3': 12.7, 'rot1': 0, 'rot0': 0, 'rot3': 0, 'rot2': 0, 'state': 'normal', 'yaw': 0.0, 'datetime': '2018-10-12 18:44:54.803328', 'mgs': 0, 'depth': -0.14, 'time': 4.78, 'pitch': 0.9, 'roll': -3.91}
{'lipoC2': 8.38, 'temp': 27.31, 'lipoC3S3': 12.7, 'rot1': 0, 'rot0': 0, 'rot3': 0, 'rot2': 0, 'state': 'normal', 'yaw': 0.0, 'datetime': '2018-10-12 18:44:54.901270', 'mgs': 1, 'depth': -0.064, 'time': 4.88, 'pitch': 0.9, 'roll': -3.91}
{'lipoC2': 8.38, 'temp': 27.25, 'lipoC3S3': 12.7, 'rot1': 0, 'rot0': 0, 'rot3': 0, 'rot2': 0, 'state': 'normal', 'yaw': 0.0, 'datetime': '2018-10-12 18:44:58.424080', 'mgs': 0, 'depth': -0.064, 'time': 1.26, 'pitch': 0.89, 'roll': -3.88}
{'lipoC2': 8.38, 'temp': 27.25, 'lipoC3S3': 12.7, 'rot1': 0, 'rot0': 0, 'rot3': 0, 'rot2': 0, 'state': 'normal', 'yaw': 0.0, 'datetime': '2018-10-12 18:44:58.450818', 'mgs': 0, 'depth': -0.14, 'time': 1.36, 'pitch': 0.88, 'roll': -3.87}
{'lipoC2': 8.38, 'temp': 27.25, 'lipoC3S3': 12.7, 'rot1': 0, 'rot0': 0, 'rot3': 0, 'rot2': 0, 'state': 'normal', 'yaw': 0.0, 'datetime': '2018-10-12 18:44:58.467605', 'mgs': 0, 'depth': -0.064, 'time': 1.45, 'pitch': 0.88, 'roll': -3.88}
{'lipoC2': 8.39, 'temp': 27.31, 'lipoC3S3': 12.7, 'rot1': 0, 'rot0': 0, 'rot3': 0, 'rot2': 0, 'state': 'normal', 'yaw': 0.0, 'datetime': '2018-10-12 18:44:58.491447', 'mgs': 0, 'depth': -0.14, 'time': 1.55, 'pitch': 0.88, 'roll': -3.87}
{'lipoC2': 8.38, 'temp': 27.31, 'lipoC3S3': 12.7, 'rot1': 0, 'rot0': 0, 'rot3': 0, 'rot2': 0, 'state': 'normal', 'yaw': 0.0, 'datetime': '2018-10-12 18:44:58.513114', 'mgs': 0, 'depth': -0.064, 'time': 1.65, 'pitch': 0.88, 'roll': -3.87}
{'lipoC2': 8.39, 'temp': 27.31, 'lipoC3S3': 12.7, 'rot1': 0, 'rot0': 0, 'rot3': 0, 'rot2': 0, 'state': 'normal', 'yaw': 0.0, 'datetime': '2018-10-12 18:44:58.520494', 'mgs': 0, 'depth': -0.14, 'time': 1.75, 'pitch': 0.88, 'roll': -3.87}
{'lipoC2': 8.38, 'temp': 27.31, 'lipoC3S3': 12.7, 'rot1': 0, 'rot0': 0, 'rot3': 0, 'rot2': 0, 'state': 'normal', 'yaw': 0.0, 'datetime': '2018-10-12 18:44:58.533618', 'mgs': 0, 'depth': -0.064, 'time': 1.84, 'pitch': 0.88, 'roll': -3.88}
{'lipoC2': 8.38, 'temp': 27.31, 'lipoC3S3': 12.71, 'rot1': 0, 'rot0': 0, 'rot3': 0, 'rot2': 0, 'state': 'normal', 'yaw': -0.0, 'datetime': '2018-10-12 18:44:58.546637', 'mgs': 0, 'depth': 0.012, 'time': 1.94, 'pitch': 0.9, 'roll': -3.9}
{'lipoC2': 8.38, 'temp': 27.31, 'lipoC3S3': 12.7, 'rot1': 0, 'rot0': 0, 'rot3': 0, 'rot2': 0, 'state': 'normal', 'yaw': 0.0, 'datetime': '2018-10-12 18:44:58.553997', 'mgs': 0, 'depth': -0.064, 'time': 2.04, 'pitch': 0.88, 'roll': -3.85}
{'lipoC2': 8.38, 'temp': 27.31, 'lipoC3S3': 12.7, 'rot1': 0, 'rot0': 0, 'rot3': 0, 'rot2': 0, 'state': 'normal', 'yaw': -0.0, 'datetime': '2018-10-12 18:44:58.567068', 'mgs': 0, 'depth': -0.064, 'time': 2.14, 'pitch': 0.89, 'roll': -3.87}
{'lipoC2': 8.38, 'temp': 27.31, 'lipoC3S3': 12.7, 'rot1': 0, 'rot0': 0, 'rot3': 0, 'rot2': 0, 'state': 'normal', 'yaw': 0.0, 'datetime': '2018-10-12 18:44:58.580092', 'mgs': 0, 'depth': -0.064, 'time': 2.23, 'pitch': 0.89, 'roll': -3.8}
{'lipoC2': 8.39, 'temp': 27.31, 'lipoC3S3': 12.7, 'rot1': 0, 'rot0': 0, 'rot3': 0, 'rot2': 0, 'state': 'normal', 'yaw': 0.0, 'datetime': '2018-10-12 18:44:58.587426', 'mgs': 0, 'depth': -0.064, 'time': 2.33, 'pitch': 0.89, 'roll': -3.8}
{'lipoC2': 8.39, 'temp': 27.31, 'lipoC3S3': 12.7, 'rot1': 0, 'rot0': 0, 'rot3': 0, 'rot2': 0, 'state': 'normal', 'yaw': 0.0, 'datetime': '2018-10-12 18:44:58.600602', 'mgs': 0, 'depth': -0.064, 'time': 2.43, 'pitch': 0.88, 'roll': -3.78}
{'lipoC2': 8.39, 'temp': 27.31, 'lipoC3S3': 12.7, 'rot1': 0, 'rot0': 0, 'rot3': 0, 'rot2': 0, 'state': 'normal', 'yaw': 0.0, 'datetime': '2018-10-12 18:44:58.613779', 'mgs': 0, 'depth': -0.14, 'time': 2.53, 'pitch': 0.88, 'roll': -3.78}
{'lipoC2': 8.39, 'temp': 27.31, 'lipoC3S3': 12.7, 'rot1': 0, 'rot0': 0, 'rot3': 0, 'rot2': 0, 'state': 'normal', 'yaw': 0.0, 'datetime': '2018-10-12 18:44:58.621350', 'mgs': 0, 'depth': -0.064, 'time': 2.62, 'pitch': 0.89, 'roll': -3.78}
{'lipoC2': 8.38, 'temp': 27.31, 'lipoC3S3': 12.7, 'rot1': 0, 'rot0': 0, 'rot3': 0, 'rot2': 0, 'state': 'normal', 'yaw': 0.0, 'datetime': '2018-10-12 18:44:58.634595', 'mgs': 0, 'depth': -0.064, 'time': 2.72, 'pitch': 0.88, 'roll': -3.77}
{'lipoC2': 8.38, 'temp': 27.31, 'lipoC3S3': 12.7, 'rot1': 0, 'rot0': 0, 'rot3': 0, 'rot2': 0, 'state': 'normal', 'yaw': 0.0, 'datetime': '2018-10-12 18:44:58.647900', 'mgs': 0, 'depth': -0.064, 'time': 2.82, 'pitch': 0.88, 'roll': -3.76}
{'lipoC2': 8.38, 'temp': 27.31, 'lipoC3S3': 12.7, 'rot1': 0, 'rot0': 0, 'rot3': 0, 'rot2': 0, 'state': 'normal', 'yaw': 0.0, 'datetime': '2018-10-12 18:44:58.655336', 'mgs': 0, 'depth': -0.064, 'time': 2.91, 'pitch': 0.88, 'roll': -3.77}
{'lipoC2': 8.38, 'temp': 27.31, 'lipoC3S3': 12.7, 'rot1': 0, 'rot0': 0, 'rot3': 0, 'rot2': 0, 'state': 'normal', 'yaw': 0.0, 'datetime': '2018-10-12 18:44:58.668486', 'mgs': 0, 'depth': -0.064, 'time': 3.01, 'pitch': 0.88, 'roll': -3.76}
{'lipoC2': 8.38, 'temp': 27.31, 'lipoC3S3': 12.7, 'rot1': 0, 'rot0': 0, 'rot3': 0, 'rot2': 0, 'state': 'normal', 'yaw': 0.0, 'datetime': '2018-10-12 18:44:58.681690', 'mgs': 0, 'depth': -0.064, 'time': 3.11, 'pitch': 0.88, 'roll': -3.77}
{'lipoC2': 8.39, 'temp': 27.31, 'lipoC3S3': 12.7, 'rot1': 0, 'rot0': 0, 'rot3': 0, 'rot2': 0, 'state': 'normal', 'yaw': 0.0, 'datetime': '2018-10-12 18:44:58.689169', 'mgs': 0, 'depth': -0.064, 'time': 3.21, 'pitch': 0.88, 'roll': -3.76}
{'lipoC2': 8.38, 'temp': 27.31, 'lipoC3S3': 12.7, 'rot1': 0, 'rot0': 0, 'rot3': 0, 'rot2': 0, 'state': 'normal', 'yaw': 0.0, 'datetime': '2018-10-12 18:44:58.702460', 'mgs': 0, 'depth': -0.064, 'time': 3.31, 'pitch': 0.88, 'roll': -3.77}
{'lipoC2': 8.38, 'temp': 27.31, 'lipoC3S3': 12.7, 'rot1': 0, 'rot0': 0, 'rot3': 0, 'rot2': 0, 'state': 'normal', 'yaw': 0.0, 'datetime': '2018-10-12 18:44:58.715597', 'mgs': 0, 'depth': -0.064, 'time': 3.4, 'pitch': 0.89, 'roll': -3.77}
{'lipoC2': 8.38, 'temp': 27.31, 'lipoC3S3': 12.7, 'rot1': 0, 'rot0': 0, 'rot3': 0, 'rot2': 0, 'state': 'normal', 'yaw': 0.0, 'datetime': '2018-10-12 18:44:58.723021', 'mgs': 0, 'depth': -0.064, 'time': 3.5, 'pitch': 0.89, 'roll': -3.77}
{'lipoC2': 8.38, 'temp': 27.31, 'lipoC3S3': 12.67, 'rot1': 1, 'rot0': 2, 'rot3': 0, 'rot2': 0, 'state': 'normal', 'yaw': 0.0, 'datetime': '2018-10-12 18:44:58.736205', 'mgs': 0, 'depth': -0.064, 'time': 3.6, 'pitch': 0.89, 'roll': -3.77}
{'lipoC2': 8.39, 'temp': 27.38, 'lipoC3S3': 12.67, 'rot1': 3, 'rot0': 4, 'rot3': 0, 'rot2': 0, 'state': 'normal', 'yaw': 0.0, 'datetime': '2018-10-12 18:44:58.749380', 'mgs': 0, 'depth': -0.064, 'time': 3.69, 'pitch': 0.89, 'roll': -3.77}
{'lipoC2': 8.38, 'temp': 27.38, 'lipoC3S3': 12.67, 'rot1': 5, 'rot0': 5, 'rot3': 0, 'rot2': 0, 'state': 'normal', 'yaw': 0.0, 'datetime': '2018-10-12 18:44:58.791201', 'mgs': 0, 'depth': 0.012, 'time': 3.79, 'pitch': 0.87, 'roll': -3.77}
{'lipoC2': 8.39, 'temp': 27.25, 'lipoC3S3': 12.67, 'rot1': 6, 'rot0': 7, 'rot3': 0, 'rot2': 0, 'state': 'normal', 'yaw': 0.0, 'datetime': '2018-10-12 18:44:58.888746', 'mgs': 0, 'depth': 0.623, 'time': 3.89, 'pitch': 0.87, 'roll': -3.77}
{'lipoC2': 8.39, 'temp': 27.25, 'lipoC3S3': 12.67, 'rot1': 8, 'rot0': 9, 'rot3': 0, 'rot2': 0, 'state': 'normal', 'yaw': 0.03, 'datetime': '2018-10-12 18:44:58.985425', 'mgs': 0, 'depth': 0.47, 'time': 3.98, 'pitch': 0.87, 'roll': -3.79}
{'lipoC2': 8.39, 'temp': 27.25, 'lipoC3S3': 12.66, 'rot1': 10, 'rot0': 11, 'rot3': 0, 'rot2': 0, 'state': 'normal', 'yaw': 0.57, 'datetime': '2018-10-12 18:44:59.082445', 'mgs': 0, 'depth': 0.47, 'time': 4.08, 'pitch': 0.9, 'roll': -3.8}
{'lipoC2': 8.38, 'temp': 27.31, 'lipoC3S3': 12.71, 'rot1': 12, 'rot0': 13, 'rot3': 0, 'rot2': 0, 'state': 'normal', 'yaw': 1.74, 'datetime': '2018-10-12 18:44:59.179743', 'mgs': 0, 'depth': -0.064, 'time': 4.18, 'pitch': 0.9, 'roll': -3.79}
{'lipoC2': 8.39, 'temp': 27.31, 'lipoC3S3': 12.68, 'rot1': 13, 'rot0': 14, 'rot3': 0, 'rot2': 0, 'state': 'normal', 'yaw': 3.61, 'datetime': '2018-10-12 18:44:59.277436', 'mgs': 0, 'depth': -0.293, 'time': 4.28, 'pitch': 0.92, 'roll': -3.78}
{'lipoC2': 8.38, 'temp': 27.31, 'lipoC3S3': 12.67, 'rot1': 14, 'rot0': 16, 'rot3': 0, 'rot2': 0, 'state': 'normal', 'yaw': 5.73, 'datetime': '2018-10-12 18:44:59.374514', 'mgs': 0, 'depth': -0.064, 'time': 4.37, 'pitch': 0.91, 'roll': -3.77}
{'lipoC2': 8.37, 'temp': 27.31, 'lipoC3S3': 12.66, 'rot1': 15, 'rot0': 18, 'rot3': 0, 'rot2': 0, 'state': 'normal', 'yaw': 7.49, 'datetime': '2018-10-12 18:44:59.471611', 'mgs': 0, 'depth': -0.064, 'time': 4.47, 'pitch': 0.91, 'roll': -3.75}
{'lipoC2': 8.38, 'temp': 27.31, 'lipoC3S3': 12.68, 'rot1': 17, 'rot0': 20, 'rot3': 0, 'rot2': 0, 'state': 'normal', 'yaw': 8.44, 'datetime': '2018-10-12 18:44:59.570073', 'mgs': 0, 'depth': -0.14, 'time': 4.57, 'pitch': 0.93, 'roll': -3.73}
{'lipoC2': 8.38, 'temp': 27.38, 'lipoC3S3': 12.68, 'rot1': 18, 'rot0': 22, 'rot3': 0, 'rot2': 0, 'state': 'normal', 'yaw': 8.68, 'datetime': '2018-10-12 18:44:59.668449', 'mgs': 0, 'depth': -0.064, 'time': 4.67, 'pitch': 0.94, 'roll': -3.74}
{'lipoC2': 8.39, 'temp': 27.38, 'lipoC3S3': 12.6, 'rot1': 19, 'rot0': 24, 'rot3': 0, 'rot2': 0, 'state': 'normal', 'yaw': 8.68, 'datetime': '2018-10-12 18:44:59.765581', 'mgs': 0, 'depth': -0.14, 'time': 4.76, 'pitch': 0.94, 'roll': -3.74}
{'lipoC2': 8.38, 'temp': 27.31, 'lipoC3S3': 12.67, 'rot1': 20, 'rot0': 25, 'rot3': 0, 'rot2': 0, 'state': 'normal', 'yaw': 8.68, 'datetime': '2018-10-12 18:44:59.862602', 'mgs': 0, 'depth': 0.394, 'time': 4.86, 'pitch': 0.94, 'roll': -3.76}
{'lipoC2': 8.37, 'temp': 27.31, 'lipoC3S3': 12.63, 'rot1': 21, 'rot0': 27, 'rot3': 0, 'rot2': 0, 'state': 'normal', 'yaw': 8.68, 'datetime': '2018-10-12 18:44:59.960937', 'mgs': 0, 'depth': -0.064, 'time': 4.96, 'pitch': 0.94, 'roll': -3.76}
{'lipoC2': 8.38, 'temp': 27.31, 'lipoC3S3': 12.67, 'rot1': 22, 'rot0': 29, 'rot3': 0, 'rot2': 0, 'state': 'normal', 'yaw': 8.68, 'datetime': '2018-10-12 18:45:00.059336', 'mgs': 0, 'depth': -0.064, 'time': 5.06, 'pitch': 0.94, 'roll': -3.76}
{'lipoC2': 8.39, 'temp': 27.31, 'lipoC3S3': 12.66, 'rot1': 24, 'rot0': 31, 'rot3': 0, 'rot2': 0, 'state': 'normal', 'yaw': 8.69, 'datetime': '2018-10-12 18:45:00.157444', 'mgs': 0, 'depth': 0.241, 'time': 5.16, 'pitch': 0.94, 'roll': -3.76}
{'lipoC2': 8.39, 'temp': 27.31, 'lipoC3S3': 12.67, 'rot1': 25, 'rot0': 33, 'rot3': 0, 'rot2': 0, 'state': 'normal', 'yaw': 8.82, 'datetime': '2018-10-12 18:45:00.254536', 'mgs': 0, 'depth': -0.14, 'time': 5.26, 'pitch': 0.94, 'roll': -3.79}
{'lipoC2': 8.38, 'temp': 27.38, 'lipoC3S3': 12.67, 'rot1': 26, 'rot0': 35, 'rot3': 0, 'rot2': 0, 'state': 'normal', 'yaw': 9.25, 'datetime': '2018-10-12 18:45:00.352080', 'mgs': 0, 'depth': 0.012, 'time': 5.35, 'pitch': 0.91, 'roll': -3.76}
{'lipoC2': 8.39, 'temp': 27.38, 'lipoC3S3': 12.67, 'rot1': 27, 'rot0': 37, 'rot3': 0, 'rot2': 0, 'state': 'normal', 'yaw': 9.35, 'datetime': '2018-10-12 18:45:00.450497', 'mgs': 0, 'depth': -0.14, 'time': 5.45, 'pitch': 0.92, 'roll': -3.76}
{'lipoC2': 8.38, 'temp': 27.38, 'lipoC3S3': 12.67, 'rot1': 28, 'rot0': 38, 'rot3': 0, 'rot2': 0, 'state': 'normal', 'yaw': 9.67, 'datetime': '2018-10-12 18:45:00.547501', 'mgs': 0, 'depth': 0.012, 'time': 5.55, 'pitch': 0.93, 'roll': -3.78}
{'lipoC2': 8.38, 'temp': 27.31, 'lipoC3S3': 12.64, 'rot1': 30, 'rot0': 40, 'rot3': 0, 'rot2': 0, 'state': 'normal', 'yaw': 11.62, 'datetime': '2018-10-12 18:45:00.644603', 'mgs': 0, 'depth': -0.064, 'time': 5.64, 'pitch': 0.93, 'roll': -3.77}
{'lipoC2': 8.38, 'temp': 27.31, 'lipoC3S3': 12.67, 'rot1': 31, 'rot0': 42, 'rot3': 0, 'rot2': 0, 'state': 'normal', 'yaw': 13.7, 'datetime': '2018-10-12 18:45:00.741621', 'mgs': 0, 'depth': 0.623, 'time': 5.74, 'pitch': 0.94, 'roll': -3.74}
{'lipoC2': 8.38, 'temp': 27.31, 'lipoC3S3': 12.68, 'rot1': 32, 'rot0': 44, 'rot3': 0, 'rot2': 0, 'state': 'normal', 'yaw': 14.88, 'datetime': '2018-10-12 18:45:00.838721', 'mgs': 0, 'depth': -0.064, 'time': 5.84, 'pitch': 0.95, 'roll': -3.72}
{'lipoC2': 8.38, 'temp': 27.31, 'lipoC3S3': 12.63, 'rot1': 33, 'rot0': 46, 'rot3': 0, 'rot2': 0, 'state': 'normal', 'yaw': 14.87, 'datetime': '2018-10-12 18:45:00.936524', 'mgs': 0, 'depth': -0.064, 'time': 5.94, 'pitch': 0.99, 'roll': -3.78}
{'lipoC2': 8.38, 'temp': 27.31, 'lipoC3S3': 12.68, 'rot1': 34, 'rot0': 48, 'rot3': 0, 'rot2': 0, 'state': 'normal', 'yaw': 14.69, 'datetime': '2018-10-12 18:45:01.033112', 'mgs': 0, 'depth': 0.012, 'time': 6.03, 'pitch': 0.94, 'roll': -3.73}
{'lipoC2': 8.38, 'temp': 27.31, 'lipoC3S3': 12.62, 'rot1': 35, 'rot0': 49, 'rot3': 0, 'rot2': 0, 'state': 'normal', 'yaw': 14.46, 'datetime': '2018-10-12 18:45:01.130210', 'mgs': 0, 'depth': -0.064, 'time': 6.13, 'pitch': 0.93, 'roll': -3.78}
{'lipoC2': 8.38, 'temp': 27.31, 'lipoC3S3': 12.67, 'rot1': 36, 'rot0': 51, 'rot3': 0, 'rot2': 0, 'state': 'normal', 'yaw': 14.45, 'datetime': '2018-10-12 18:45:01.227165', 'mgs': 0, 'depth': 0.623, 'time': 6.23, 'pitch': 0.95, 'roll': -3.75}
{'lipoC2': 8.38, 'temp': 27.31, 'lipoC3S3': 12.68, 'rot1': 38, 'rot0': 53, 'rot3': 0, 'rot2': 0, 'state': 'normal', 'yaw': 14.29, 'datetime': '2018-10-12 18:45:01.324267', 'mgs': 0, 'depth': -0.064, 'time': 6.33, 'pitch': 0.97, 'roll': -3.77}
{'lipoC2': 8.38, 'temp': 27.31, 'lipoC3S3': 12.67, 'rot1': 39, 'rot0': 55, 'rot3': 0, 'rot2': 0, 'state': 'normal', 'yaw': 13.48, 'datetime': '2018-10-12 18:45:01.422559', 'mgs': 0, 'depth': 0.47, 'time': 6.42, 'pitch': 0.96, 'roll': -3.78}
{'lipoC2': 8.38, 'temp': 27.31, 'lipoC3S3': 12.67, 'rot1': 40, 'rot0': 57, 'rot3': 0, 'rot2': 0, 'state': 'normal', 'yaw': 11.25, 'datetime': '2018-10-12 18:45:01.519702', 'mgs': 0, 'depth': -0.064, 'time': 6.52, 'pitch': 0.96, 'roll': -3.79}
{'lipoC2': 8.39, 'temp': 27.31, 'lipoC3S3': 12.67, 'rot1': 41, 'rot0': 58, 'rot3': 0, 'rot2': 0, 'state': 'normal', 'yaw': 8.04, 'datetime': '2018-10-12 18:45:01.616789', 'mgs': 0, 'depth': -0.064, 'time': 6.62, 'pitch': 0.94, 'roll': -3.79}
{'lipoC2': 8.39, 'temp': 27.31, 'lipoC3S3': 12.67, 'rot1': 42, 'rot0': 60, 'rot3': 0, 'rot2': 0, 'state': 'normal', 'yaw': 5.11, 'datetime': '2018-10-12 18:45:01.714439', 'mgs': 0, 'depth': -0.064, 'time': 6.72, 'pitch': 0.92, 'roll': -3.82}
{'lipoC2': 8.38, 'temp': 27.31, 'lipoC3S3': 12.66, 'rot1': 44, 'rot0': 62, 'rot3': 0, 'rot2': 0, 'state': 'normal', 'yaw': 2.44, 'datetime': '2018-10-12 18:45:01.812871', 'mgs': 0, 'depth': -0.064, 'time': 6.81, 'pitch': 0.92, 'roll': -3.85}
{'lipoC2': 8.38, 'temp': 27.31, 'lipoC3S3': 12.67, 'rot1': 45, 'rot0': 64, 'rot3': 0, 'rot2': 0, 'state': 'normal', 'yaw': 0.5, 'datetime': '2018-10-12 18:45:01.910432', 'mgs': 0, 'depth': -0.064, 'time': 6.91, 'pitch': 0.89, 'roll': -3.88}
{'lipoC2': 8.39, 'temp': 27.31, 'lipoC3S3': 12.68, 'rot1': 46, 'rot0': 66, 'rot3': 0, 'rot2': 0, 'state': 'normal', 'yaw': -0.98, 'datetime': '2018-10-12 18:45:02.007462', 'mgs': 0, 'depth': -0.064, 'time': 7.01, 'pitch': 0.88, 'roll': -3.91}
{'lipoC2': 8.38, 'temp': 27.31, 'lipoC3S3': 12.68, 'rot1': 47, 'rot0': 68, 'rot3': 0, 'rot2': 0, 'state': 'normal', 'yaw': -2.14, 'datetime': '2018-10-12 18:45:02.104901', 'mgs': 0, 'depth': -0.064, 'time': 7.11, 'pitch': 0.86, 'roll': -3.92}
{'lipoC2': 8.39, 'temp': 27.31, 'lipoC3S3': 12.67, 'rot1': 48, 'rot0': 70, 'rot3': 0, 'rot2': 0, 'state': 'normal', 'yaw': -3.37, 'datetime': '2018-10-12 18:45:02.202004', 'mgs': 0, 'depth': -0.293, 'time': 7.2, 'pitch': 0.84, 'roll': -3.93}
{'lipoC2': 8.38, 'temp': 27.31, 'lipoC3S3': 12.67, 'rot1': 50, 'rot0': 71, 'rot3': 0, 'rot2': 0, 'state': 'normal', 'yaw': -4.64, 'datetime': '2018-10-12 18:45:02.299046', 'mgs': 0, 'depth': -0.064, 'time': 7.3, 'pitch': 0.8, 'roll': -3.94}
{'lipoC2': 8.39, 'temp': 27.31, 'lipoC3S3': 12.63, 'rot1': 52, 'rot0': 72, 'rot3': 0, 'rot2': 0, 'state': 'normal', 'yaw': -5.58, 'datetime': '2018-10-12 18:45:02.396189', 'mgs': 0, 'depth': -0.14, 'time': 7.4, 'pitch': 0.77, 'roll': -3.94}
{'lipoC2': 8.38, 'temp': 27.31, 'lipoC3S3': 12.67, 'rot1': 54, 'rot0': 73, 'rot3': 0, 'rot2': 0, 'state': 'normal', 'yaw': -5.98, 'datetime': '2018-10-12 18:45:02.493242', 'mgs': 0, 'depth': 0.165, 'time': 7.5, 'pitch': 0.76, 'roll': -3.94}
{'lipoC2': 8.39, 'temp': 27.31, 'lipoC3S3': 12.62, 'rot1': 55, 'rot0': 75, 'rot3': 0, 'rot2': 0, 'state': 'normal', 'yaw': -5.99, 'datetime': '2018-10-12 18:45:02.591522', 'mgs': 0, 'depth': -0.064, 'time': 7.59, 'pitch': 0.75, 'roll': -3.94}
{'lipoC2': 8.38, 'temp': 27.31, 'lipoC3S3': 12.67, 'rot1': 57, 'rot0': 76, 'rot3': 0, 'rot2': 0, 'state': 'normal', 'yaw': -5.99, 'datetime': '2018-10-12 18:45:02.688506', 'mgs': 0, 'depth': 0.089, 'time': 7.69, 'pitch': 0.76, 'roll': -3.96}
{'lipoC2': 8.38, 'temp': 27.31, 'lipoC3S3': 12.63, 'rot1': 59, 'rot0': 77, 'rot3': 0, 'rot2': 0, 'state': 'normal', 'yaw': -5.99, 'datetime': '2018-10-12 18:45:02.785953', 'mgs': 0, 'depth': -0.064, 'time': 7.79, 'pitch': 0.76, 'roll': -3.96}
{'lipoC2': 8.38, 'temp': 27.31, 'lipoC3S3': 12.67, 'rot1': 61, 'rot0': 78, 'rot3': 0, 'rot2': 0, 'state': 'normal', 'yaw': -5.9, 'datetime': '2018-10-12 18:45:02.882924', 'mgs': 0, 'depth': 0.546, 'time': 7.89, 'pitch': 0.77, 'roll': -4.0}
{'lipoC2': 8.38, 'temp': 27.31, 'lipoC3S3': 12.67, 'rot1': 62, 'rot0': 79, 'rot3': 0, 'rot2': 0, 'state': 'normal', 'yaw': -5.76, 'datetime': '2018-10-12 18:45:02.980254', 'mgs': 0, 'depth': -0.064, 'time': 7.98, 'pitch': 0.79, 'roll': -4.03}
{'lipoC2': 8.39, 'temp': 27.31, 'lipoC3S3': 12.67, 'rot1': 64, 'rot0': 81, 'rot3': 0, 'rot2': 0, 'state': 'normal', 'yaw': -5.75, 'datetime': '2018-10-12 18:45:03.077206', 'mgs': 0, 'depth': -0.064, 'time': 8.08, 'pitch': 0.78, 'roll': -3.95}
{'lipoC2': 8.39, 'temp': 27.31, 'lipoC3S3': 12.66, 'rot1': 66, 'rot0': 82, 'rot3': 0, 'rot2': 0, 'state': 'normal', 'yaw': -5.75, 'datetime': '2018-10-12 18:45:03.175779', 'mgs': 0, 'depth': -0.064, 'time': 8.18, 'pitch': 0.77, 'roll': -3.94}
{'lipoC2': 8.38, 'temp': 27.31, 'lipoC3S3': 12.68, 'rot1': 68, 'rot0': 83, 'rot3': 0, 'rot2': 0, 'state': 'normal', 'yaw': -5.75, 'datetime': '2018-10-12 18:45:03.274164', 'mgs': 0, 'depth': -0.064, 'time': 8.28, 'pitch': 0.8, 'roll': -3.94}
{'lipoC2': 8.39, 'temp': 27.31, 'lipoC3S3': 12.67, 'rot1': 69, 'rot0': 84, 'rot3': 0, 'rot2': 0, 'state': 'normal', 'yaw': -5.75, 'datetime': '2018-10-12 18:45:03.371173', 'mgs': 0, 'depth': 0.012, 'time': 8.38, 'pitch': 0.8, 'roll': -3.93}
{'lipoC2': 8.38, 'temp': 27.31, 'lipoC3S3': 12.67, 'rot1': 71, 'rot0': 85, 'rot3': 0, 'rot2': 0, 'state': 'normal', 'yaw': -5.75, 'datetime': '2018-10-12 18:45:03.468239', 'mgs': 0, 'depth': -0.064, 'time': 8.47, 'pitch': 0.8, 'roll': -3.92}
{'lipoC2': 8.38, 'temp': 27.31, 'lipoC3S3': 12.67, 'rot1': 73, 'rot0': 87, 'rot3': 0, 'rot2': 0, 'state': 'normal', 'yaw': -5.75, 'datetime': '2018-10-12 18:45:03.566456', 'mgs': 0, 'depth': -0.064, 'time': 8.57, 'pitch': 0.8, 'roll': -3.91}
{'lipoC2': 8.38, 'temp': 27.31, 'lipoC3S3': 12.68, 'rot1': 75, 'rot0': 88, 'rot3': 0, 'rot2': 0, 'state': 'normal', 'yaw': -5.75, 'datetime': '2018-10-12 18:45:03.664872', 'mgs': 0, 'depth': -0.14, 'time': 8.67, 'pitch': 0.8, 'roll': -3.91}
{'lipoC2': 8.39, 'temp': 27.31, 'lipoC3S3': 12.67, 'rot1': 77, 'rot0': 89, 'rot3': 0, 'rot2': 0, 'state': 'normal', 'yaw': -5.75, 'datetime': '2018-10-12 18:45:03.761897', 'mgs': 0, 'depth': -0.293, 'time': 8.77, 'pitch': 0.8, 'roll': -3.9}
{'lipoC2': 8.38, 'temp': 27.31, 'lipoC3S3': 12.67, 'rot1': 78, 'rot0': 90, 'rot3': 0, 'rot2': 0, 'state': 'normal', 'yaw': -5.75, 'datetime': '2018-10-12 18:45:03.859034', 'mgs': 0, 'depth': -0.064, 'time': 8.86, 'pitch': 0.8, 'roll': -3.9}
{'lipoC2': 8.38, 'temp': 27.31, 'lipoC3S3': 12.63, 'rot1': 80, 'rot0': 92, 'rot3': 0, 'rot2': 0, 'state': 'normal', 'yaw': -5.75, 'datetime': '2018-10-12 18:45:03.957102', 'mgs': 0, 'depth': -0.064, 'time': 8.96, 'pitch': 0.79, 'roll': -3.91}
{'lipoC2': 8.38, 'temp': 27.31, 'lipoC3S3': 12.67, 'rot1': 82, 'rot0': 93, 'rot3': 0, 'rot2': 0, 'state': 'normal', 'yaw': -5.75, 'datetime': '2018-10-12 18:45:04.055529', 'mgs': 0, 'depth': -0.14, 'time': 9.06, 'pitch': 0.79, 'roll': -3.91}
{'lipoC2': 8.38, 'temp': 27.31, 'lipoC3S3': 12.63, 'rot1': 84, 'rot0': 94, 'rot3': 0, 'rot2': 0, 'state': 'normal', 'yaw': -5.75, 'datetime': '2018-10-12 18:45:04.153391', 'mgs': 0, 'depth': -0.14, 'time': 9.16, 'pitch': 0.8, 'roll': -3.91}
{'lipoC2': 8.38, 'temp': 27.31, 'lipoC3S3': 12.67, 'rot1': 85, 'rot0': 95, 'rot3': 0, 'rot2': 0, 'state': 'normal', 'yaw': -5.75, 'datetime': '2018-10-12 18:45:04.250503', 'mgs': 0, 'depth': 0.623, 'time': 9.25, 'pitch': 0.8, 'roll': -3.89}
{'lipoC2': 8.38, 'temp': 27.31, 'lipoC3S3': 12.67, 'rot1': 87, 'rot0': 96, 'rot3': 0, 'rot2': 0, 'state': 'normal', 'yaw': -5.75, 'datetime': '2018-10-12 18:45:04.347987', 'mgs': 0, 'depth': 0.775, 'time': 9.35, 'pitch': 0.8, 'roll': -3.89}
{'lipoC2': 8.38, 'temp': 27.31, 'lipoC3S3': 12.63, 'rot1': 89, 'rot0': 98, 'rot3': 0, 'rot2': 0, 'state': 'normal', 'yaw': -5.75, 'datetime': '2018-10-12 18:45:04.446454', 'mgs': 0, 'depth': -0.064, 'time': 9.45, 'pitch': 0.8, 'roll': -3.9}
{'lipoC2': 8.39, 'temp': 27.38, 'lipoC3S3': 12.74, 'rot1': 91, 'rot0': 99, 'rot3': 0, 'rot2': 0, 'state': 'normal', 'yaw': -5.73, 'datetime': '2018-10-12 18:45:04.544826', 'mgs': 0, 'depth': -0.064, 'time': 9.55, 'pitch': 0.81, 'roll': -3.89}
{'lipoC2': 8.38, 'temp': 27.38, 'lipoC3S3': 12.66, 'rot1': 92, 'rot0': 100, 'rot3': 0, 'rot2': 0, 'state': 'normal', 'yaw': -5.68, 'datetime': '2018-10-12 18:45:04.642016', 'mgs': 0, 'depth': -0.217, 'time': 9.65, 'pitch': 0.81, 'roll': -4.0}
{'lipoC2': 8.38, 'temp': 27.31, 'lipoC3S3': 12.67, 'rot1': 94, 'rot0': 101, 'rot3': 0, 'rot2': 0, 'state': 'normal', 'yaw': -4.93, 'datetime': '2018-10-12 18:45:04.739221', 'mgs': 0, 'depth': -0.14, 'time': 9.74, 'pitch': 0.82, 'roll': -4.01}
{'lipoC2': 8.39, 'temp': 27.31, 'lipoC3S3': 12.67, 'rot1': 96, 'rot0': 102, 'rot3': 0, 'rot2': 0, 'state': 'normal', 'yaw': -3.48, 'datetime': '2018-10-12 18:45:04.836395', 'mgs': 0, 'depth': -0.14, 'time': 9.84, 'pitch': 0.82, 'roll': -3.95}
{'lipoC2': 8.38, 'temp': 27.31, 'lipoC3S3': 12.67, 'rot1': 98, 'rot0': 104, 'rot3': 0, 'rot2': 0, 'state': 'normal', 'yaw': -1.02, 'datetime': '2018-10-12 18:45:04.933575', 'mgs': 0, 'depth': -0.064, 'time': 9.94, 'pitch': 0.84, 'roll': -3.93}
{'lipoC2': 8.38, 'temp': 27.31, 'lipoC3S3': 12.67, 'rot1': 100, 'rot0': 105, 'rot3': 0, 'rot2': 0, 'state': 'normal', 'yaw': 1.73, 'datetime': '2018-10-12 18:45:05.030876', 'mgs': 0, 'depth': -0.217, 'time': 10.04, 'pitch': 0.85, 'roll': -3.91}
{'lipoC2': 8.38, 'temp': 27.31, 'lipoC3S3': 12.67, 'rot1': 101, 'rot0': 106, 'rot3': 0, 'rot2': 0, 'state': 'normal', 'yaw': 4.19, 'datetime': '2018-10-12 18:45:05.129188', 'mgs': 0, 'depth': -0.064, 'time': 10.13, 'pitch': 0.85, 'roll': -3.91}
{'lipoC2': 8.38, 'temp': 27.31, 'lipoC3S3': 12.68, 'rot1': 102, 'rot0': 108, 'rot3': 0, 'rot2': 0, 'state': 'normal', 'yaw': 6.57, 'datetime': '2018-10-12 18:45:05.227767', 'mgs': 0, 'depth': -0.14, 'time': 10.23, 'pitch': 0.86, 'roll': -3.89}
{'lipoC2': 8.39, 'temp': 27.31, 'lipoC3S3': 12.67, 'rot1': 104, 'rot0': 110, 'rot3': 0, 'rot2': 0, 'state': 'normal', 'yaw': 8.51, 'datetime': '2018-10-12 18:45:05.325818', 'mgs': 0, 'depth': -0.217, 'time': 10.33, 'pitch': 0.87, 'roll': -3.89}
{'lipoC2': 8.38, 'temp': 27.31, 'lipoC3S3': 12.7, 'rot1': 105, 'rot0': 112, 'rot3': 0, 'rot2': 0, 'state': 'normal', 'yaw': 10.19, 'datetime': '2018-10-12 18:45:05.423098', 'mgs': 0, 'depth': -0.064, 'time': 10.43, 'pitch': 0.88, 'roll': -3.86}
{'lipoC2': 8.39, 'temp': 27.31, 'lipoC3S3': 12.67, 'rot1': 106, 'rot0': 114, 'rot3': 0, 'rot2': 0, 'state': 'normal', 'yaw': 11.61, 'datetime': '2018-10-12 18:45:05.520341', 'mgs': 0, 'depth': 0.546, 'time': 10.53, 'pitch': 0.88, 'roll': -3.84}
{'lipoC2': 8.39, 'temp': 27.31, 'lipoC3S3': 12.67, 'rot1': 107, 'rot0': 116, 'rot3': 0, 'rot2': 0, 'state': 'normal', 'yaw': 12.72, 'datetime': '2018-10-12 18:45:05.618751', 'mgs': 0, 'depth': 0.165, 'time': 10.63, 'pitch': 0.88, 'roll': -3.83}
{'lipoC2': 8.39, 'temp': 27.38, 'lipoC3S3': 12.66, 'rot1': 108, 'rot0': 117, 'rot3': 0, 'rot2': 0, 'state': 'normal', 'yaw': 13.97, 'datetime': '2018-10-12 18:45:05.717345', 'mgs': 0, 'depth': -0.064, 'time': 10.72, 'pitch': 0.89, 'roll': -3.82}
{'lipoC2': 8.39, 'temp': 27.38, 'lipoC3S3': 12.63, 'rot1': 109, 'rot0': 119, 'rot3': 0, 'rot2': 0, 'state': 'normal', 'yaw': 15.44, 'datetime': '2018-10-12 18:45:05.814907', 'mgs': 0, 'depth': -0.14, 'time': 10.82, 'pitch': 0.88, 'roll': -3.8}
{'lipoC2': 8.38, 'temp': 27.31, 'lipoC3S3': 12.68, 'rot1': 110, 'rot0': 121, 'rot3': 0, 'rot2': 0, 'state': 'normal', 'yaw': 16.42, 'datetime': '2018-10-12 18:45:05.912257', 'mgs': 0, 'depth': -0.14, 'time': 10.92, 'pitch': 0.89, 'roll': -3.78}
{'lipoC2': 8.38, 'temp': 27.31, 'lipoC3S3': 12.63, 'rot1': 112, 'rot0': 123, 'rot3': 0, 'rot2': 0, 'state': 'normal', 'yaw': 16.47, 'datetime': '2018-10-12 18:45:06.010302', 'mgs': 0, 'depth': -0.14, 'time': 11.02, 'pitch': 0.87, 'roll': -3.78}
{'lipoC2': 8.38, 'temp': 27.31, 'lipoC3S3': 12.62, 'rot1': 113, 'rot0': 125, 'rot3': 0, 'rot2': 0, 'state': 'normal', 'yaw': 16.47, 'datetime': '2018-10-12 18:45:06.108812', 'mgs': 0, 'depth': -0.064, 'time': 11.11, 'pitch': 0.86, 'roll': -3.75}
{'lipoC2': 8.39, 'temp': 27.31, 'lipoC3S3': 12.66, 'rot1': 114, 'rot0': 126, 'rot3': 0, 'rot2': 0, 'state': 'normal', 'yaw': 16.47, 'datetime': '2018-10-12 18:45:06.206640', 'mgs': 0, 'depth': -0.064, 'time': 11.21, 'pitch': 0.87, 'roll': -3.75}
{'lipoC2': 8.38, 'temp': 27.31, 'lipoC3S3': 12.67, 'rot1': 115, 'rot0': 128, 'rot3': 0, 'rot2': 0, 'state': 'normal', 'yaw': 16.47, 'datetime': '2018-10-12 18:45:06.303989', 'mgs': 0, 'depth': -0.064, 'time': 11.31, 'pitch': 0.87, 'roll': -3.76}
{'lipoC2': 8.38, 'temp': 27.31, 'lipoC3S3': 12.67, 'rot1': 116, 'rot0': 130, 'rot3': 0, 'rot2': 0, 'state': 'normal', 'yaw': 16.47, 'datetime': '2018-10-12 18:45:06.401339', 'mgs': 0, 'depth': 0.012, 'time': 11.41, 'pitch': 0.89, 'roll': -3.78}
{'lipoC2': 8.38, 'temp': 27.31, 'lipoC3S3': 12.67, 'rot1': 118, 'rot0': 132, 'rot3': 0, 'rot2': 0, 'state': 'normal', 'yaw': 16.47, 'datetime': '2018-10-12 18:45:06.499929', 'mgs': 0, 'depth': 0.394, 'time': 11.51, 'pitch': 0.89, 'roll': -3.78}
{'lipoC2': 8.39, 'temp': 27.31, 'lipoC3S3': 12.67, 'rot1': 119, 'rot0': 134, 'rot3': 0, 'rot2': 0, 'state': 'normal', 'yaw': 16.47, 'datetime': '2018-10-12 18:45:06.598380', 'mgs': 0, 'depth': 0.241, 'time': 11.6, 'pitch': 0.89, 'roll': -3.78}
{'lipoC2': 8.38, 'temp': 27.31, 'lipoC3S3': 12.67, 'rot1': 120, 'rot0': 136, 'rot3': 0, 'rot2': 0, 'state': 'normal', 'yaw': 16.47, 'datetime': '2018-10-12 18:45:06.696119', 'mgs': 0, 'depth': 0.775, 'time': 11.7, 'pitch': 0.89, 'roll': -3.78}
{'lipoC2': 8.38, 'temp': 27.31, 'lipoC3S3': 12.67, 'rot1': 121, 'rot0': 138, 'rot3': 0, 'rot2': 0, 'state': 'normal', 'yaw': 16.47, 'datetime': '2018-10-12 18:45:06.793393', 'mgs': 0, 'depth': -0.14, 'time': 11.8, 'pitch': 0.89, 'roll': -3.78}
{'lipoC2': 8.38, 'temp': 27.31, 'lipoC3S3': 12.67, 'rot1': 122, 'rot0': 139, 'rot3': 0, 'rot2': 0, 'state': 'normal', 'yaw': 16.47, 'datetime': '2018-10-12 18:45:06.891440', 'mgs': 0, 'depth': 0.394, 'time': 11.9, 'pitch': 0.9, 'roll': -3.79}
{'lipoC2': 8.38, 'temp': 27.31, 'lipoC3S3': 12.64, 'rot1': 123, 'rot0': 141, 'rot3': 0, 'rot2': 0, 'state': 'normal', 'yaw': 16.47, 'datetime': '2018-10-12 18:45:06.989175', 'mgs': 0, 'depth': -0.064, 'time': 12.0, 'pitch': 0.91, 'roll': -3.79}
{'lipoC2': 8.38, 'temp': 27.31, 'lipoC3S3': 12.68, 'rot1': 125, 'rot0': 143, 'rot3': 0, 'rot2': 0, 'state': 'normal', 'yaw': 16.47, 'datetime': '2018-10-12 18:45:07.086111', 'mgs': 0, 'depth': -0.064, 'time': 12.09, 'pitch': 0.92, 'roll': -3.8}
{'lipoC2': 8.39, 'temp': 27.38, 'lipoC3S3': 12.67, 'rot1': 126, 'rot0': 145, 'rot3': 0, 'rot2': 0, 'state': 'normal', 'yaw': 16.47, 'datetime': '2018-10-12 18:45:07.183420', 'mgs': 0, 'depth': -0.293, 'time': 12.19, 'pitch': 0.92, 'roll': -3.8}
{'lipoC2': 8.38, 'temp': 27.38, 'lipoC3S3': 12.67, 'rot1': 127, 'rot0': 147, 'rot3': 0, 'rot2': 0, 'state': 'normal', 'yaw': 16.47, 'datetime': '2018-10-12 18:45:07.281972', 'mgs': 0, 'depth': 0.165, 'time': 12.29, 'pitch': 0.92, 'roll': -3.8}
{'lipoC2': 8.39, 'temp': 27.31, 'lipoC3S3': 12.66, 'rot1': 128, 'rot0': 149, 'rot3': 0, 'rot2': 0, 'state': 'normal', 'yaw': 16.47, 'datetime': '2018-10-12 18:45:07.383283', 'mgs': 0, 'depth': -0.14, 'time': 12.39, 'pitch': 0.92, 'roll': -3.8}
{'lipoC2': 8.39, 'temp': 27.31, 'lipoC3S3': 12.67, 'rot1': 129, 'rot0': 151, 'rot3': 0, 'rot2': 0, 'state': 'normal', 'yaw': 16.47, 'datetime': '2018-10-12 18:45:07.482821', 'mgs': 0, 'depth': -0.14, 'time': 12.49, 'pitch': 0.94, 'roll': -3.81}
{'lipoC2': 8.38, 'temp': 27.31, 'lipoC3S3': 12.68, 'rot1': 131, 'rot0': 152, 'rot3': 0, 'rot2': 0, 'state': 'normal', 'yaw': 16.47, 'datetime': '2018-10-12 18:45:07.579958', 'mgs': 0, 'depth': 0.012, 'time': 12.58, 'pitch': 0.95, 'roll': -3.81}
{'lipoC2': 8.39, 'temp': 27.31, 'lipoC3S3': 12.67, 'rot1': 132, 'rot0': 154, 'rot3': 0, 'rot2': 0, 'state': 'normal', 'yaw': 16.47, 'datetime': '2018-10-12 18:45:07.677729', 'mgs': 0, 'depth': -0.14, 'time': 12.68, 'pitch': 0.94, 'roll': -3.82}
{'lipoC2': 8.39, 'temp': 27.31, 'lipoC3S3': 12.67, 'rot1': 133, 'rot0': 156, 'rot3': 0, 'rot2': 0, 'state': 'normal', 'yaw': 16.47, 'datetime': '2018-10-12 18:45:07.776367', 'mgs': 0, 'depth': -0.064, 'time': 12.78, 'pitch': 0.95, 'roll': -3.83}
{'lipoC2': 8.38, 'temp': 27.31, 'lipoC3S3': 12.67, 'rot1': 134, 'rot0': 158, 'rot3': 0, 'rot2': 0, 'state': 'normal', 'yaw': 16.47, 'datetime': '2018-10-12 18:45:07.874872', 'mgs': 0, 'depth': -0.064, 'time': 12.88, 'pitch': 0.95, 'roll': -3.82}
{'lipoC2': 8.39, 'temp': 27.31, 'lipoC3S3': 12.66, 'rot1': 135, 'rot0': 160, 'rot3': 0, 'rot2': 0, 'state': 'normal', 'yaw': 16.28, 'datetime': '2018-10-12 18:45:07.972238', 'mgs': 0, 'depth': -0.064, 'time': 12.98, 'pitch': 0.94, 'roll': -3.8}
{'lipoC2': 8.38, 'temp': 27.31, 'lipoC3S3': 12.67, 'rot1': 136, 'rot0': 162, 'rot3': 0, 'rot2': 0, 'state': 'normal', 'yaw': 15.79, 'datetime': '2018-10-12 18:45:08.069617', 'mgs': 0, 'depth': -0.064, 'time': 13.07, 'pitch': 0.93, 'roll': -3.8}
{'lipoC2': 8.38, 'temp': 27.38, 'lipoC3S3': 12.67, 'rot1': 137, 'rot0': 164, 'rot3': 0, 'rot2': 0, 'state': 'normal', 'yaw': 14.68, 'datetime': '2018-10-12 18:45:08.167731', 'mgs': 0, 'depth': 0.241, 'time': 13.17, 'pitch': 0.91, 'roll': -3.81}
{'lipoC2': 8.38, 'temp': 27.38, 'lipoC3S3': 12.64, 'rot1': 139, 'rot0': 165, 'rot3': 0, 'rot2': 0, 'state': 'normal', 'yaw': 12.16, 'datetime': '2018-10-12 18:45:08.265064', 'mgs': 0, 'depth': -0.064, 'time': 13.27, 'pitch': 0.91, 'roll': -3.84}
{'lipoC2': 8.38, 'temp': 27.31, 'lipoC3S3': 12.67, 'rot1': 140, 'rot0': 167, 'rot3': 0, 'rot2': 0, 'state': 'normal', 'yaw': 8.96, 'datetime': '2018-10-12 18:45:08.362386', 'mgs': 0, 'depth': -0.064, 'time': 13.37, 'pitch': 0.9, 'roll': -3.86}
{'lipoC2': 8.39, 'temp': 27.31, 'lipoC3S3': 12.66, 'rot1': 141, 'rot0': 169, 'rot3': 0, 'rot2': 0, 'state': 'normal', 'yaw': 5.71, 'datetime': '2018-10-12 18:45:08.459749', 'mgs': 0, 'depth': -0.064, 'time': 13.46, 'pitch': 0.89, 'roll': -3.88}
{'lipoC2': 8.38, 'temp': 27.31, 'lipoC3S3': 12.67, 'rot1': 142, 'rot0': 171, 'rot3': 0, 'rot2': 0, 'state': 'normal', 'yaw': 2.93, 'datetime': '2018-10-12 18:45:08.557154', 'mgs': 0, 'depth': -0.064, 'time': 13.56, 'pitch': 0.88, 'roll': -3.88}
{'lipoC2': 8.38, 'temp': 27.31, 'lipoC3S3': 12.67, 'rot1': 143, 'rot0': 173, 'rot3': 0, 'rot2': 0, 'state': 'normal', 'yaw': -0.1, 'datetime': '2018-10-12 18:45:08.654370', 'mgs': 0, 'depth': 0.775, 'time': 13.66, 'pitch': 0.85, 'roll': -3.87}
{'lipoC2': 8.38, 'temp': 27.31, 'lipoC3S3': 12.67, 'rot1': 144, 'rot0': 175, 'rot3': 0, 'rot2': 0, 'state': 'normal', 'yaw': -3.15, 'datetime': '2018-10-12 18:45:08.751482', 'mgs': 0, 'depth': -0.14, 'time': 13.76, 'pitch': 0.82, 'roll': -3.89}
{'lipoC2': 8.38, 'temp': 27.31, 'lipoC3S3': 12.67, 'rot1': 146, 'rot0': 176, 'rot3': 0, 'rot2': 0, 'state': 'normal', 'yaw': -5.7, 'datetime': '2018-10-12 18:45:08.849004', 'mgs': 0, 'depth': -0.064, 'time': 13.85, 'pitch': 0.81, 'roll': -3.89}
{'lipoC2': 8.38, 'temp': 27.31, 'lipoC3S3': 12.66, 'rot1': 147, 'rot0': 178, 'rot3': 0, 'rot2': 0, 'state': 'normal', 'yaw': -7.97, 'datetime': '2018-10-12 18:45:08.946262', 'mgs': 0, 'depth': -0.217, 'time': 13.95, 'pitch': 0.8, 'roll': -3.91}
{'lipoC2': 8.38, 'temp': 27.31, 'lipoC3S3': 12.71, 'rot1': 149, 'rot0': 179, 'rot3': 0, 'rot2': 0, 'state': 'normal', 'yaw': -9.36, 'datetime': '2018-10-12 18:45:09.043536', 'mgs': 0, 'depth': -0.064, 'time': 14.05, 'pitch': 0.78, 'roll': -3.9}
{'lipoC2': 8.38, 'temp': 27.31, 'lipoC3S3': 12.66, 'rot1': 151, 'rot0': 181, 'rot3': 0, 'rot2': 0, 'state': 'normal', 'yaw': -9.91, 'datetime': '2018-10-12 18:45:09.140687', 'mgs': 0, 'depth': 0.47, 'time': 14.15, 'pitch': 0.78, 'roll': -3.89}
{'lipoC2': 8.38, 'temp': 27.31, 'lipoC3S3': 12.67, 'rot1': 152, 'rot0': 182, 'rot3': 0, 'rot2': 0, 'state': 'normal', 'yaw': -10.03, 'datetime': '2018-10-12 18:45:09.239344', 'mgs': 0, 'depth': 0.699, 'time': 14.24, 'pitch': 0.78, 'roll': -3.89}
{'lipoC2': 8.4, 'temp': 27.31, 'lipoC3S3': 12.66, 'rot1': 154, 'rot0': 183, 'rot3': 0, 'rot2': 0, 'state': 'normal', 'yaw': -10.15, 'datetime': '2018-10-12 18:45:09.337764', 'mgs': 0, 'depth': -0.446, 'time': 14.34, 'pitch': 0.78, 'roll': -3.86}
{'lipoC2': 8.38, 'temp': 27.31, 'lipoC3S3': 12.67, 'rot1': 156, 'rot0': 184, 'rot3': 0, 'rot2': 0, 'state': 'normal', 'yaw': -10.15, 'datetime': '2018-10-12 18:45:09.435594', 'mgs': 0, 'depth': 0.165, 'time': 14.44, 'pitch': 0.78, 'roll': -3.86}
{'lipoC2': 8.39, 'temp': 27.31, 'lipoC3S3': 12.67, 'rot1': 158, 'rot0': 185, 'rot3': 0, 'rot2': 0, 'state': 'normal', 'yaw': -10.15, 'datetime': '2018-10-12 18:45:09.533047', 'mgs': 0, 'depth': -0.064, 'time': 14.54, 'pitch': 0.8, 'roll': -3.86}
{'lipoC2': 8.38, 'temp': 27.31, 'lipoC3S3': 12.67, 'rot1': 159, 'rot0': 187, 'rot3': 0, 'rot2': 0, 'state': 'normal', 'yaw': -10.16, 'datetime': '2018-10-12 18:45:09.630500', 'mgs': 0, 'depth': -0.064, 'time': 14.64, 'pitch': 0.79, 'roll': -3.85}
{'lipoC2': 8.38, 'temp': 27.31, 'lipoC3S3': 12.67, 'rot1': 161, 'rot0': 188, 'rot3': 0, 'rot2': 0, 'state': 'normal', 'yaw': -10.16, 'datetime': '2018-10-12 18:45:09.729091', 'mgs': 0, 'depth': -0.064, 'time': 14.73, 'pitch': 0.79, 'roll': -3.85}
{'lipoC2': 8.38, 'temp': 27.38, 'lipoC3S3': 12.68, 'rot1': 163, 'rot0': 189, 'rot3': 0, 'rot2': 0, 'state': 'normal', 'yaw': -10.16, 'datetime': '2018-10-12 18:45:09.827617', 'mgs': 0, 'depth': 0.012, 'time': 14.83, 'pitch': 0.79, 'roll': -3.85}
{'lipoC2': 8.38, 'temp': 27.38, 'lipoC3S3': 12.67, 'rot1': 165, 'rot0': 190, 'rot3': 0, 'rot2': 0, 'state': 'normal', 'yaw': -10.15, 'datetime': '2018-10-12 18:45:09.925250', 'mgs': 0, 'depth': -0.064, 'time': 14.93, 'pitch': 0.8, 'roll': -3.83}
{'lipoC2': 8.39, 'temp': 27.31, 'lipoC3S3': 12.66, 'rot1': 167, 'rot0': 192, 'rot3': 0, 'rot2': 0, 'state': 'normal', 'yaw': -10.15, 'datetime': '2018-10-12 18:45:10.022784', 'mgs': 0, 'depth': -0.598, 'time': 15.03, 'pitch': 0.79, 'roll': -3.82}
{'lipoC2': 8.38, 'temp': 27.31, 'lipoC3S3': 12.67, 'rot1': 168, 'rot0': 193, 'rot3': 0, 'rot2': 0, 'state': 'normal', 'yaw': -10.15, 'datetime': '2018-10-12 18:45:10.120827', 'mgs': 0, 'depth': -0.064, 'time': 15.13, 'pitch': 0.78, 'roll': -3.82}
{'lipoC2': 8.38, 'temp': 27.31, 'lipoC3S3': 12.67, 'rot1': 170, 'rot0': 194, 'rot3': 0, 'rot2': 0, 'state': 'normal', 'yaw': -10.15, 'datetime': '2018-10-12 18:45:10.219263', 'mgs': 0, 'depth': -0.064, 'time': 15.23, 'pitch': 0.79, 'roll': -3.8}
{'lipoC2': 8.39, 'temp': 27.31, 'lipoC3S3': 12.67, 'rot1': 172, 'rot0': 195, 'rot3': 0, 'rot2': 0, 'state': 'normal', 'yaw': -10.15, 'datetime': '2018-10-12 18:45:10.317862', 'mgs': 0, 'depth': -0.293, 'time': 15.32, 'pitch': 0.78, 'roll': -3.81}
{'lipoC2': 8.38, 'temp': 27.31, 'lipoC3S3': 12.63, 'rot1': 174, 'rot0': 197, 'rot3': 0, 'rot2': 0, 'state': 'normal', 'yaw': -10.15, 'datetime': '2018-10-12 18:45:10.415152', 'mgs': 0, 'depth': -0.064, 'time': 15.42, 'pitch': 0.78, 'roll': -3.81}
{'lipoC2': 8.38, 'temp': 27.31, 'lipoC3S3': 12.67, 'rot1': 176, 'rot0': 198, 'rot3': 0, 'rot2': 0, 'state': 'normal', 'yaw': -9.92, 'datetime': '2018-10-12 18:45:10.512416', 'mgs': 0, 'depth': -0.064, 'time': 15.52, 'pitch': 0.8, 'roll': -3.92}
{'lipoC2': 8.39, 'temp': 27.31, 'lipoC3S3': 12.66, 'rot1': 177, 'rot0': 199, 'rot3': 0, 'rot2': 0, 'state': 'normal', 'yaw': -9.34, 'datetime': '2018-10-12 18:45:10.609777', 'mgs': 0, 'depth': -0.751, 'time': 15.62, 'pitch': 0.84, 'roll': -4.01}
{'lipoC2': 8.38, 'temp': 27.31, 'lipoC3S3': 12.67, 'rot1': 179, 'rot0': 200, 'rot3': 0, 'rot2': 0, 'state': 'normal', 'yaw': -7.61, 'datetime': '2018-10-12 18:45:10.707018', 'mgs': 0, 'depth': -0.064, 'time': 15.71, 'pitch': 0.86, 'roll': -3.94}
{'lipoC2': 8.38, 'temp': 27.31, 'lipoC3S3': 12.67, 'rot1': 181, 'rot0': 201, 'rot3': 0, 'rot2': 0, 'state': 'normal', 'yaw': -4.83, 'datetime': '2018-10-12 18:45:10.804180', 'mgs': 0, 'depth': 0.623, 'time': 15.81, 'pitch': 0.87, 'roll': -3.88}
{'lipoC2': 8.38, 'temp': 27.31, 'lipoC3S3': 12.62, 'rot1': 183, 'rot0': 203, 'rot3': 0, 'rot2': 0, 'state': 'normal', 'yaw': -2.05, 'datetime': '2018-10-12 18:45:10.901679', 'mgs': 0, 'depth': -0.14, 'time': 15.91, 'pitch': 0.88, 'roll': -3.86}
{'lipoC2': 8.38, 'temp': 27.31, 'lipoC3S3': 12.67, 'rot1': 185, 'rot0': 204, 'rot3': 0, 'rot2': 0, 'state': 'normal', 'yaw': 1.09, 'datetime': '2018-10-12 18:45:10.999010', 'mgs': 0, 'depth': -0.064, 'time': 16.01, 'pitch': 0.89, 'roll': -3.84}
{'lipoC2': 8.39, 'temp': 27.31, 'lipoC3S3': 12.66, 'rot1': 186, 'rot0': 205, 'rot3': 0, 'rot2': 0, 'state': 'normal', 'yaw': 3.94, 'datetime': '2018-10-12 18:45:11.096232', 'mgs': 0, 'depth': -0.14, 'time': 16.1, 'pitch': 0.9, 'roll': -3.82}
{'lipoC2': 8.38, 'temp': 27.31, 'lipoC3S3': 12.67, 'rot1': 188, 'rot0': 206, 'rot3': 0, 'rot2': 0, 'state': 'normal', 'yaw': 6.55, 'datetime': '2018-10-12 18:45:11.193596', 'mgs': 0, 'depth': -0.064, 'time': 16.2, 'pitch': 0.91, 'roll': -3.8}
{'lipoC2': 8.38, 'temp': 27.31, 'lipoC3S3': 12.67, 'rot1': 190, 'rot0': 208, 'rot3': 0, 'rot2': 0, 'state': 'normal', 'yaw': 8.68, 'datetime': '2018-10-12 18:45:11.292292', 'mgs': 0, 'depth': -0.064, 'time': 16.3, 'pitch': 0.92, 'roll': -3.8}
{'lipoC2': 8.38, 'temp': 27.31, 'lipoC3S3': 12.68, 'rot1': 191, 'rot0': 209, 'rot3': 0, 'rot2': 0, 'state': 'normal', 'yaw': 10.58, 'datetime': '2018-10-12 18:45:11.390914', 'mgs': 0, 'depth': -0.064, 'time': 16.4, 'pitch': 0.93, 'roll': -3.77}
{'lipoC2': 8.39, 'temp': 27.31, 'lipoC3S3': 12.66, 'rot1': 192, 'rot0': 211, 'rot3': 0, 'rot2': 0, 'state': 'normal', 'yaw': 11.56, 'datetime': '2018-10-12 18:45:11.489070', 'mgs': 0, 'depth': -0.14, 'time': 16.5, 'pitch': 0.95, 'roll': -3.77}
{'lipoC2': 8.38, 'temp': 27.31, 'lipoC3S3': 12.74, 'rot1': 193, 'rot0': 213, 'rot3': 0, 'rot2': 0, 'state': 'normal', 'yaw': 11.58, 'datetime': '2018-10-12 18:45:11.586277', 'mgs': 0, 'depth': -0.14, 'time': 16.59, 'pitch': 0.92, 'roll': -3.79}
{'lipoC2': 8.38, 'temp': 27.31, 'lipoC3S3': 12.67, 'rot1': 194, 'rot0': 215, 'rot3': 0, 'rot2': 0, 'state': 'normal', 'yaw': 11.58, 'datetime': '2018-10-12 18:45:11.683423', 'mgs': 0, 'depth': 0.394, 'time': 16.69, 'pitch': 0.91, 'roll': -3.78}
{'lipoC2': 8.39, 'temp': 27.31, 'lipoC3S3': 12.66, 'rot1': 196, 'rot0': 217, 'rot3': 0, 'rot2': 0, 'state': 'normal', 'yaw': 11.58, 'datetime': '2018-10-12 18:45:11.781968', 'mgs': 0, 'depth': 0.317, 'time': 16.79, 'pitch': 0.92, 'roll': -3.78}
{'lipoC2': 8.39, 'temp': 27.31, 'lipoC3S3': 12.66, 'rot1': 197, 'rot0': 218, 'rot3': 0, 'rot2': 0, 'state': 'normal', 'yaw': 11.58, 'datetime': '2018-10-12 18:45:11.880680', 'mgs': 0, 'depth': -0.064, 'time': 16.89, 'pitch': 0.92, 'roll': -3.79}
{'lipoC2': 8.38, 'temp': 27.38, 'lipoC3S3': 12.67, 'rot1': 198, 'rot0': 220, 'rot3': 0, 'rot2': 0, 'state': 'normal', 'yaw': 11.58, 'datetime': '2018-10-12 18:45:11.977874', 'mgs': 0, 'depth': -0.14, 'time': 16.99, 'pitch': 0.93, 'roll': -3.79}
{'lipoC2': 8.38, 'temp': 27.38, 'lipoC3S3': 12.67, 'rot1': 199, 'rot0': 222, 'rot3': 0, 'rot2': 0, 'state': 'normal', 'yaw': 11.47, 'datetime': '2018-10-12 18:45:12.075177', 'mgs': 0, 'depth': 0.47, 'time': 17.08, 'pitch': 0.92, 'roll': -3.77}
{'lipoC2': 8.38, 'temp': 27.38, 'lipoC3S3': 12.7, 'rot1': 200, 'rot0': 225, 'rot3': 0, 'rot2': 0, 'state': 'normal', 'yaw': 10.55, 'datetime': '2018-10-12 18:45:12.173635', 'mgs': 0, 'depth': -0.064, 'time': 17.18, 'pitch': 0.88, 'roll': -3.74}
{'lipoC2': 8.38, 'temp': 27.38, 'lipoC3S3': 12.67, 'rot1': 202, 'rot0': 226, 'rot3': 0, 'rot2': 0, 'state': 'normal', 'yaw': 8.07, 'datetime': '2018-10-12 18:45:12.270580', 'mgs': 0, 'depth': 0.47, 'time': 17.28, 'pitch': 0.9, 'roll': -3.74}
{'lipoC2': 8.38, 'temp': 27.38, 'lipoC3S3': 12.66, 'rot1': 203, 'rot0': 228, 'rot3': 0, 'rot2': 0, 'state': 'normal', 'yaw': 4.37, 'datetime': '2018-10-12 18:45:12.367879', 'mgs': 0, 'depth': -0.064, 'time': 17.38, 'pitch': 0.9, 'roll': -3.75}
{'lipoC2': 8.38, 'temp': 27.31, 'lipoC3S3': 12.67, 'rot1': 204, 'rot0': 230, 'rot3': 0, 'rot2': 0, 'state': 'normal', 'yaw': 0.39, 'datetime': '2018-10-12 18:45:12.465051', 'mgs': 0, 'depth': 0.012, 'time': 17.47, 'pitch': 0.88, 'roll': -3.74}
{'lipoC2': 8.38, 'temp': 27.31, 'lipoC3S3': 12.63, 'rot1': 205, 'rot0': 232, 'rot3': 0, 'rot2': 0, 'state': 'normal', 'yaw': -2.89, 'datetime': '2018-10-12 18:45:12.562356', 'mgs': 0, 'depth': -0.14, 'time': 17.57, 'pitch': 0.87, 'roll': -3.74}
{'lipoC2': 8.38, 'temp': 27.31, 'lipoC3S3': 12.68, 'rot1': 206, 'rot0': 234, 'rot3': 0, 'rot2': 0, 'state': 'normal', 'yaw': -5.99, 'datetime': '2018-10-12 18:45:12.659643', 'mgs': 0, 'depth': 0.012, 'time': 17.67, 'pitch': 0.86, 'roll': -3.75}
{'lipoC2': 8.38, 'temp': 27.38, 'lipoC3S3': 12.64, 'rot1': 208, 'rot0': 235, 'rot3': 0, 'rot2': 0, 'state': 'normal', 'yaw': -8.73, 'datetime': '2018-10-12 18:45:12.756862', 'mgs': 0, 'depth': -0.064, 'time': 17.76, 'pitch': 0.85, 'roll': -3.77}
{'lipoC2': 8.38, 'temp': 27.38, 'lipoC3S3': 12.63, 'rot1': 210, 'rot0': 236, 'rot3': 0, 'rot2': 0, 'state': 'normal', 'yaw': -10.49, 'datetime': '2018-10-12 18:45:12.854239', 'mgs': 0, 'depth': 0.012, 'time': 17.86, 'pitch': 0.87, 'roll': -3.76}
{'lipoC2': 8.38, 'temp': 27.38, 'lipoC3S3': 12.67, 'rot1': 211, 'rot0': 238, 'rot3': 0, 'rot2': 0, 'state': 'normal', 'yaw': -11.12, 'datetime': '2018-10-12 18:45:12.951522', 'mgs': 0, 'depth': 0.623, 'time': 17.96, 'pitch': 0.9, 'roll': -3.74}
{'lipoC2': 8.38, 'temp': 27.38, 'lipoC3S3': 12.63, 'rot1': 213, 'rot0': 239, 'rot3': 0, 'rot2': 0, 'state': 'normal', 'yaw': -11.1, 'datetime': '2018-10-12 18:45:13.048975', 'mgs': 0, 'depth': -0.064, 'time': 18.06, 'pitch': 0.9, 'roll': -3.71}
{'lipoC2': 8.38, 'temp': 27.38, 'lipoC3S3': 12.67, 'rot1': 215, 'rot0': 240, 'rot3': 0, 'rot2': 0, 'state': 'normal', 'yaw': -11.1, 'datetime': '2018-10-12 18:45:13.145961', 'mgs': 0, 'depth': 0.012, 'time': 18.16, 'pitch': 0.91, 'roll': -3.73}
{'lipoC2': 8.38, 'temp': 27.31, 'lipoC3S3': 12.67, 'rot1': 217, 'rot0': 242, 'rot3': 0, 'rot2': 0, 'state': 'normal', 'yaw': -11.1, 'datetime': '2018-10-12 18:45:13.244499', 'mgs': 0, 'depth': 0.089, 'time': 18.25, 'pitch': 0.91, 'roll': -3.73}
{'lipoC2': 8.39, 'temp': 27.31, 'lipoC3S3': 12.67, 'rot1': 218, 'rot0': 243, 'rot3': 0, 'rot2': 0, 'state': 'normal', 'yaw': -11.03, 'datetime': '2018-10-12 18:45:13.342974', 'mgs': 0, 'depth': 0.089, 'time': 18.35, 'pitch': 0.92, 'roll': -3.75}
{'lipoC2': 8.38, 'temp': 27.31, 'lipoC3S3': 12.67, 'rot1': 220, 'rot0': 244, 'rot3': 0, 'rot2': 0, 'state': 'normal', 'yaw': -10.87, 'datetime': '2018-10-12 18:45:13.440351', 'mgs': 0, 'depth': -0.064, 'time': 18.45, 'pitch': 0.93, 'roll': -3.73}
{'lipoC2': 8.38, 'temp': 27.31, 'lipoC3S3': 12.67, 'rot1': 222, 'rot0': 245, 'rot3': 0, 'rot2': 0, 'state': 'normal', 'yaw': -10.28, 'datetime': '2018-10-12 18:45:13.537523', 'mgs': 0, 'depth': 0.928, 'time': 18.55, 'pitch': 0.96, 'roll': -3.78}
{'lipoC2': 8.38, 'temp': 27.31, 'lipoC3S3': 12.7, 'rot1': 224, 'rot0': 246, 'rot3': 0, 'rot2': 0, 'state': 'normal', 'yaw': -8.9, 'datetime': '2018-10-12 18:45:13.635800', 'mgs': 0, 'depth': -0.064, 'time': 18.64, 'pitch': 0.98, 'roll': -3.85}
{'lipoC2': 8.38, 'temp': 27.38, 'lipoC3S3': 12.67, 'rot1': 226, 'rot0': 248, 'rot3': 0, 'rot2': 0, 'state': 'normal', 'yaw': -6.2, 'datetime': '2018-10-12 18:45:13.734485', 'mgs': 0, 'depth': -0.064, 'time': 18.74, 'pitch': 0.97, 'roll': -3.84}
{'lipoC2': 8.38, 'temp': 27.38, 'lipoC3S3': 12.67, 'rot1': 227, 'rot0': 249, 'rot3': 0, 'rot2': 0, 'state': 'normal', 'yaw': -3.24, 'datetime': '2018-10-12 18:45:13.831833', 'mgs': 0, 'depth': -0.064, 'time': 18.84, 'pitch': 0.98, 'roll': -3.82}
{'lipoC2': 8.38, 'temp': 27.31, 'lipoC3S3': 12.66, 'rot1': 229, 'rot0': 250, 'rot3': 0, 'rot2': 0, 'state': 'normal', 'yaw': -0.61, 'datetime': '2018-10-12 18:45:13.929097', 'mgs': 0, 'depth': -0.064, 'time': 18.94, 'pitch': 0.99, 'roll': -3.83}
{'lipoC2': 8.39, 'temp': 27.31, 'lipoC3S3': 12.68, 'rot1': 230, 'rot0': 251, 'rot3': 0, 'rot2': 0, 'state': 'normal', 'yaw': 1.01, 'datetime': '2018-10-12 18:45:14.026691', 'mgs': 0, 'depth': -0.064, 'time': 19.04, 'pitch': 1.0, 'roll': -3.8}
{'lipoC2': 8.39, 'temp': 27.31, 'lipoC3S3': 12.68, 'rot1': 230, 'rot0': 251, 'rot3': 0, 'rot2': 0, 'state': 'normal', 'yaw': 1.58, 'datetime': '2018-10-12 18:45:14.125219', 'mgs': 0, 'depth': -0.14, 'time': 19.14, 'pitch': 1.02, 'roll': -3.8}
{'lipoC2': 8.38, 'temp': 27.31, 'lipoC3S3': 12.62, 'rot1': 230, 'rot0': 251, 'rot3': 0, 'rot2': 0, 'state': 'normal', 'yaw': 1.58, 'datetime': '2018-10-12 18:45:14.223723', 'mgs': 0, 'depth': 0.012, 'time': 19.23, 'pitch': 0.97, 'roll': -3.72}
{'lipoC2': 8.38, 'temp': 27.31, 'lipoC3S3': 12.56, 'rot1': 232, 'rot0': 256, 'rot3': 1, 'rot2': 1, 'state': 'normal', 'yaw': 1.58, 'datetime': '2018-10-12 18:45:14.320989', 'mgs': 0, 'depth': 0.623, 'time': 19.33, 'pitch': 0.98, 'roll': -3.77}
{'lipoC2': 8.37, 'temp': 27.38, 'lipoC3S3': 12.58, 'rot1': 234, 'rot0': 259, 'rot3': 2, 'rot2': 2, 'state': 'normal', 'yaw': 1.6, 'datetime': '2018-10-12 18:45:14.418232', 'mgs': 0, 'depth': -0.064, 'time': 19.43, 'pitch': 1.01, 'roll': -3.8}
{'lipoC2': 8.38, 'temp': 27.38, 'lipoC3S3': 12.64, 'rot1': 236, 'rot0': 262, 'rot3': 2, 'rot2': 3, 'state': 'normal', 'yaw': 1.62, 'datetime': '2018-10-12 18:45:14.517034', 'mgs': 0, 'depth': -0.064, 'time': 19.53, 'pitch': 0.97, 'roll': -3.7}
{'lipoC2': 8.38, 'temp': 27.38, 'lipoC3S3': 12.68, 'rot1': 238, 'rot0': 265, 'rot3': 3, 'rot2': 4, 'state': 'normal', 'yaw': 1.61, 'datetime': '2018-10-12 18:45:14.615329', 'mgs': 0, 'depth': 0.165, 'time': 19.63, 'pitch': 0.97, 'roll': -3.75}
{'lipoC2': 8.39, 'temp': 27.38, 'lipoC3S3': 12.58, 'rot1': 240, 'rot0': 268, 'rot3': 3, 'rot2': 5, 'state': 'normal', 'yaw': 1.59, 'datetime': '2018-10-12 18:45:14.712425', 'mgs': 0, 'depth': 0.165, 'time': 19.72, 'pitch': 0.96, 'roll': -3.74}
{'lipoC2': 8.38, 'temp': 27.38, 'lipoC3S3': 12.68, 'rot1': 242, 'rot0': 271, 'rot3': 4, 'rot2': 6, 'state': 'normal', 'yaw': 1.6, 'datetime': '2018-10-12 18:45:14.809869', 'mgs': 0, 'depth': -0.217, 'time': 19.82, 'pitch': 0.96, 'roll': -3.77}
{'lipoC2': 8.38, 'temp': 27.38, 'lipoC3S3': 12.63, 'rot1': 244, 'rot0': 274, 'rot3': 5, 'rot2': 6, 'state': 'normal', 'yaw': 1.6, 'datetime': '2018-10-12 18:45:14.907234', 'mgs': 0, 'depth': 0.012, 'time': 19.92, 'pitch': 0.97, 'roll': -3.81}
{'lipoC2': 8.38, 'temp': 27.38, 'lipoC3S3': 12.55, 'rot1': 246, 'rot0': 277, 'rot3': 5, 'rot2': 7, 'state': 'normal', 'yaw': 1.61, 'datetime': '2018-10-12 18:45:15.004566', 'mgs': 0, 'depth': -1.132, 'time': 20.02, 'pitch': 0.95, 'roll': -3.74}
{'lipoC2': 8.38, 'temp': 27.38, 'lipoC3S3': 12.63, 'rot1': 248, 'rot0': 281, 'rot3': 6, 'rot2': 8, 'state': 'normal', 'yaw': 1.6, 'datetime': '2018-10-12 18:45:15.101825', 'mgs': 0, 'depth': 0.317, 'time': 20.11, 'pitch': 0.96, 'roll': -3.81}
{'lipoC2': 8.39, 'temp': 27.31, 'lipoC3S3': 12.55, 'rot1': 250, 'rot0': 284, 'rot3': 7, 'rot2': 9, 'state': 'normal', 'yaw': 1.61, 'datetime': '2018-10-12 18:45:15.199039', 'mgs': 0, 'depth': -0.369, 'time': 20.21, 'pitch': 0.96, 'roll': -3.76}
{'lipoC2': 8.38, 'temp': 27.31, 'lipoC3S3': 12.56, 'rot1': 252, 'rot0': 287, 'rot3': 7, 'rot2': 10, 'state': 'normal', 'yaw': 1.62, 'datetime': '2018-10-12 18:45:15.297794', 'mgs': 0, 'depth': -0.064, 'time': 20.31, 'pitch': 0.96, 'roll': -3.81}
{'lipoC2': 8.38, 'temp': 27.38, 'lipoC3S3': 12.55, 'rot1': 254, 'rot0': 290, 'rot3': 8, 'rot2': 11, 'state': 'normal', 'yaw': 1.63, 'datetime': '2018-10-12 18:45:15.396610', 'mgs': 0, 'depth': -0.446, 'time': 20.41, 'pitch': 0.96, 'roll': -3.81}
{'lipoC2': 8.39, 'temp': 27.38, 'lipoC3S3': 12.59, 'rot1': 256, 'rot0': 293, 'rot3': 9, 'rot2': 12, 'state': 'normal', 'yaw': 1.63, 'datetime': '2018-10-12 18:45:15.495254', 'mgs': 0, 'depth': 0.394, 'time': 20.51, 'pitch': 0.97, 'roll': -3.81}
{'lipoC2': 8.38, 'temp': 27.38, 'lipoC3S3': 12.55, 'rot1': 258, 'rot0': 296, 'rot3': 9, 'rot2': 13, 'state': 'normal', 'yaw': 1.63, 'datetime': '2018-10-12 18:45:15.592804', 'mgs': 0, 'depth': -0.064, 'time': 20.6, 'pitch': 0.98, 'roll': -3.83}
{'lipoC2': 8.38, 'temp': 27.38, 'lipoC3S3': 12.67, 'rot1': 260, 'rot0': 300, 'rot3': 10, 'rot2': 13, 'state': 'normal', 'yaw': 1.65, 'datetime': '2018-10-12 18:45:15.690517', 'mgs': 0, 'depth': -0.293, 'time': 20.7, 'pitch': 0.98, 'roll': -3.81}
{'lipoC2': 8.39, 'temp': 27.38, 'lipoC3S3': 12.59, 'rot1': 262, 'rot0': 303, 'rot3': 10, 'rot2': 14, 'state': 'normal', 'yaw': 1.65, 'datetime': '2018-10-12 18:45:15.789782', 'mgs': 0, 'depth': -0.064, 'time': 20.8, 'pitch': 0.98, 'roll': -3.86}
{'lipoC2': 8.39, 'temp': 27.31, 'lipoC3S3': 12.58, 'rot1': 264, 'rot0': 306, 'rot3': 11, 'rot2': 15, 'state': 'normal', 'yaw': 1.65, 'datetime': '2018-10-12 18:45:15.888168', 'mgs': 0, 'depth': 0.47, 'time': 20.9, 'pitch': 0.98, 'roll': -3.81}
{'lipoC2': 8.38, 'temp': 27.31, 'lipoC3S3': 12.62, 'rot1': 266, 'rot0': 309, 'rot3': 12, 'rot2': 16, 'state': 'normal', 'yaw': 1.65, 'datetime': '2018-10-12 18:45:15.987239', 'mgs': 0, 'depth': 0.165, 'time': 21.0, 'pitch': 0.97, 'roll': -3.85}
{'lipoC2': 8.4, 'temp': 27.38, 'lipoC3S3': 12.58, 'rot1': 268, 'rot0': 312, 'rot3': 12, 'rot2': 17, 'state': 'normal', 'yaw': 1.65, 'datetime': '2018-10-12 18:45:16.085593', 'mgs': 0, 'depth': 1.157, 'time': 21.1, 'pitch': 0.97, 'roll': -3.84}
{'lipoC2': 8.39, 'temp': 27.38, 'lipoC3S3': 12.59, 'rot1': 270, 'rot0': 316, 'rot3': 13, 'rot2': 18, 'state': 'normal', 'yaw': 1.66, 'datetime': '2018-10-12 18:45:16.183189', 'mgs': 0, 'depth': 0.47, 'time': 21.19, 'pitch': 0.98, 'roll': -3.85}
{'lipoC2': 8.4, 'temp': 27.38, 'lipoC3S3': 12.56, 'rot1': 272, 'rot0': 319, 'rot3': 14, 'rot2': 19, 'state': 'normal', 'yaw': 1.67, 'datetime': '2018-10-12 18:45:16.280826', 'mgs': 0, 'depth': 0.165, 'time': 21.29, 'pitch': 0.98, 'roll': -3.85}
{'lipoC2': 8.39, 'temp': 27.38, 'lipoC3S3': 12.62, 'rot1': 274, 'rot0': 322, 'rot3': 14, 'rot2': 20, 'state': 'normal', 'yaw': 1.67, 'datetime': '2018-10-12 18:45:16.379788', 'mgs': 0, 'depth': 0.775, 'time': 21.39, 'pitch': 0.98, 'roll': -3.85}
