{'lipoC2': 8.19, 'temp': 28.25, 'lipoC3S3': 12.48, 'rot1': 4, 'rot0': 0, 'rot3': 6, 'rot2': 8, 'state': 'normal', 'yaw': 2.14, 'datetime': '2018-10-12 19:28:09.417474', 'mgs': 0, 'depth': -0.064, 'time': 78.12, 'pitch': 1.54, 'roll': -1.32}
{'lipoC2': 8.19, 'temp': 28.25, 'lipoC3S3': 12.47, 'rot1': 4, 'rot0': 0, 'rot3': 6, 'rot2': 8, 'state': 'normal', 'yaw': 2.14, 'datetime': '2018-10-12 19:28:09.440094', 'mgs': 0, 'depth': -0.064, 'time': 78.22, 'pitch': 1.54, 'roll': -1.32}
{'lipoC2': 8.19, 'temp': 28.25, 'lipoC3S3': 12.47, 'rot1': 4, 'rot0': 0, 'rot3': 6, 'rot2': 8, 'state': 'normal', 'yaw': 2.14, 'datetime': '2018-10-12 19:28:09.457513', 'mgs': 0, 'depth': 0.012, 'time': 78.32, 'pitch': 1.54, 'roll': -1.32}
{'lipoC2': 8.19, 'temp': 28.25, 'lipoC3S3': 12.47, 'rot1': 4, 'rot0': 0, 'rot3': 6, 'rot2': 8, 'state': 'normal', 'yaw': 2.14, 'datetime': '2018-10-12 19:28:09.474892', 'mgs': 0, 'depth': 0.012, 'time': 78.41, 'pitch': 1.54, 'roll': -1.32}
{'lipoC2': 8.19, 'temp': 28.25, 'lipoC3S3': 12.47, 'rot1': 4, 'rot0': 0, 'rot3': 6, 'rot2': 8, 'state': 'normal', 'yaw': 2.14, 'datetime': '2018-10-12 19:28:09.492142', 'mgs': 0, 'depth': 0.012, 'time': 78.51, 'pitch': 1.54, 'roll': -1.32}
{'lipoC2': 8.19, 'temp': 28.25, 'lipoC3S3': 12.46, 'rot1': 0, 'rot0': 0, 'rot3': 0, 'rot2': 0, 'state': 'normal', 'yaw': 0.0, 'datetime': '2018-10-12 19:28:09.509568', 'mgs': 0, 'depth': -0.064, 'time': 1.26, 'pitch': 1.54, 'roll': -1.32}
{'lipoC2': 8.19, 'temp': 28.25, 'lipoC3S3': 12.46, 'rot1': 0, 'rot0': 0, 'rot3': 0, 'rot2': 0, 'state': 'normal', 'yaw': 0.0, 'datetime': '2018-10-12 19:28:09.531376', 'mgs': 0, 'depth': -0.14, 'time': 1.36, 'pitch': 1.54, 'roll': -1.32}
{'lipoC2': 8.19, 'temp': 28.25, 'lipoC3S3': 12.46, 'rot1': 0, 'rot0': 0, 'rot3': 0, 'rot2': 0, 'state': 'normal', 'yaw': 0.0, 'datetime': '2018-10-12 19:28:09.547489', 'mgs': 0, 'depth': -0.064, 'time': 1.45, 'pitch': 1.54, 'roll': -1.32}
{'lipoC2': 8.19, 'temp': 28.25, 'lipoC3S3': 12.47, 'rot1': 0, 'rot0': 0, 'rot3': 0, 'rot2': 0, 'state': 'normal', 'yaw': 0.0, 'datetime': '2018-10-12 19:28:09.555017', 'mgs': 0, 'depth': -0.064, 'time': 1.55, 'pitch': 1.54, 'roll': -1.32}
{'lipoC2': 8.19, 'temp': 28.25, 'lipoC3S3': 12.46, 'rot1': 0, 'rot0': 0, 'rot3': 0, 'rot2': 0, 'state': 'normal', 'yaw': 0.0, 'datetime': '2018-10-12 19:28:09.562707', 'mgs': 0, 'depth': -0.14, 'time': 1.65, 'pitch': 1.54, 'roll': -1.32}
{'lipoC2': 8.19, 'temp': 28.25, 'lipoC3S3': 12.47, 'rot1': 0, 'rot0': 0, 'rot3': 0, 'rot2': 0, 'state': 'normal', 'yaw': 0.0, 'datetime': '2018-10-12 19:28:09.570378', 'mgs': 0, 'depth': -0.064, 'time': 1.75, 'pitch': 1.54, 'roll': -1.32}
{'lipoC2': 8.19, 'temp': 28.25, 'lipoC3S3': 12.46, 'rot1': 0, 'rot0': 0, 'rot3': 0, 'rot2': 0, 'state': 'normal', 'yaw': 0.0, 'datetime': '2018-10-12 19:28:09.577874', 'mgs': 0, 'depth': -0.064, 'time': 1.85, 'pitch': 1.54, 'roll': -1.32}
{'lipoC2': 8.19, 'temp': 28.25, 'lipoC3S3': 12.47, 'rot1': 0, 'rot0': 0, 'rot3': 0, 'rot2': 0, 'state': 'normal', 'yaw': 0.0, 'datetime': '2018-10-12 19:28:09.585358', 'mgs': 0, 'depth': -0.064, 'time': 1.94, 'pitch': 1.54, 'roll': -1.32}
{'lipoC2': 8.17, 'temp': 28.25, 'lipoC3S3': 12.46, 'rot1': 0, 'rot0': 0, 'rot3': 0, 'rot2': 0, 'state': 'normal', 'yaw': 0.0, 'datetime': '2018-10-12 19:28:09.592778', 'mgs': 0, 'depth': -0.064, 'time': 2.04, 'pitch': 1.54, 'roll': -1.32}
{'lipoC2': 8.19, 'temp': 28.25, 'lipoC3S3': 12.46, 'rot1': 0, 'rot0': 0, 'rot3': 0, 'rot2': 0, 'state': 'normal', 'yaw': 0.0, 'datetime': '2018-10-12 19:28:09.600256', 'mgs': 0, 'depth': -0.064, 'time': 2.14, 'pitch': 1.54, 'roll': -1.32}
{'lipoC2': 8.19, 'temp': 28.25, 'lipoC3S3': 12.46, 'rot1': 0, 'rot0': 0, 'rot3': 0, 'rot2': 0, 'state': 'normal', 'yaw': 0.0, 'datetime': '2018-10-12 19:28:09.607708', 'mgs': 0, 'depth': -0.064, 'time': 2.24, 'pitch': 1.54, 'roll': -1.32}
{'lipoC2': 8.19, 'temp': 28.25, 'lipoC3S3': 12.46, 'rot1': 0, 'rot0': 0, 'rot3': 0, 'rot2': 0, 'state': 'normal', 'yaw': 0.0, 'datetime': '2018-10-12 19:28:09.615300', 'mgs': 0, 'depth': -0.064, 'time': 2.33, 'pitch': 1.54, 'roll': -1.32}
{'lipoC2': 8.17, 'temp': 28.25, 'lipoC3S3': 12.46, 'rot1': 0, 'rot0': 0, 'rot3': 0, 'rot2': 0, 'state': 'normal', 'yaw': 0.0, 'datetime': '2018-10-12 19:28:09.622789', 'mgs': 0, 'depth': -0.064, 'time': 2.43, 'pitch': 1.54, 'roll': -1.32}
{'lipoC2': 8.17, 'temp': 28.25, 'lipoC3S3': 12.46, 'rot1': 0, 'rot0': 0, 'rot3': 0, 'rot2': 0, 'state': 'normal', 'yaw': 0.0, 'datetime': '2018-10-12 19:28:09.636784', 'mgs': 0, 'depth': -0.064, 'time': 2.53, 'pitch': 1.54, 'roll': -1.32}
{'lipoC2': 8.19, 'temp': 28.25, 'lipoC3S3': 12.47, 'rot1': 0, 'rot0': 0, 'rot3': 0, 'rot2': 0, 'state': 'normal', 'yaw': 0.0, 'datetime': '2018-10-12 19:28:09.644143', 'mgs': 0, 'depth': -0.064, 'time': 2.63, 'pitch': 1.54, 'roll': -1.32}
{'lipoC2': 8.19, 'temp': 28.25, 'lipoC3S3': 12.46, 'rot1': 0, 'rot0': 0, 'rot3': 0, 'rot2': 0, 'state': 'normal', 'yaw': -0.0, 'datetime': '2018-10-12 19:28:09.651666', 'mgs': 0, 'depth': -0.064, 'time': 2.72, 'pitch': 1.56, 'roll': -1.31}
{'lipoC2': 8.19, 'temp': 28.25, 'lipoC3S3': 12.47, 'rot1': 0, 'rot0': 0, 'rot3': 0, 'rot2': 0, 'state': 'normal', 'yaw': -0.0, 'datetime': '2018-10-12 19:28:09.659358', 'mgs': 0, 'depth': -0.064, 'time': 2.82, 'pitch': 1.55, 'roll': -1.31}
{'lipoC2': 8.17, 'temp': 28.25, 'lipoC3S3': 12.47, 'rot1': 0, 'rot0': 0, 'rot3': 0, 'rot2': 0, 'state': 'normal', 'yaw': -0.0, 'datetime': '2018-10-12 19:28:09.667048', 'mgs': 0, 'depth': -0.064, 'time': 2.92, 'pitch': 1.56, 'roll': -1.3}
{'lipoC2': 8.19, 'temp': 28.25, 'lipoC3S3': 12.46, 'rot1': 0, 'rot0': 0, 'rot3': 0, 'rot2': 0, 'state': 'normal', 'yaw': 0.0, 'datetime': '2018-10-12 19:28:09.730369', 'mgs': 0, 'depth': -0.064, 'time': 3.02, 'pitch': 1.52, 'roll': -1.31}
{'lipoC2': 8.19, 'temp': 28.25, 'lipoC3S3': 12.47, 'rot1': 0, 'rot0': 0, 'rot3': 0, 'rot2': 0, 'state': 'normal', 'yaw': 0.0, 'datetime': '2018-10-12 19:28:09.828687', 'mgs': 0, 'depth': -0.064, 'time': 3.12, 'pitch': 1.53, 'roll': -1.3}
{'lipoC2': 8.19, 'temp': 28.25, 'lipoC3S3': 12.47, 'rot1': 0, 'rot0': 0, 'rot3': 0, 'rot2': 0, 'state': 'normal', 'yaw': 0.0, 'datetime': '2018-10-12 19:28:09.926839', 'mgs': 0, 'depth': -0.064, 'time': 3.21, 'pitch': 1.53, 'roll': -1.31}
{'lipoC2': 8.19, 'temp': 28.25, 'lipoC3S3': 12.47, 'rot1': 0, 'rot0': 0, 'rot3': 0, 'rot2': 0, 'state': 'normal', 'yaw': 0.0, 'datetime': '2018-10-12 19:28:10.023949', 'mgs': 0, 'depth': -0.064, 'time': 3.31, 'pitch': 1.54, 'roll': -1.31}
{'lipoC2': 8.19, 'temp': 28.25, 'lipoC3S3': 12.46, 'rot1': 0, 'rot0': 0, 'rot3': 0, 'rot2': 0, 'state': 'normal', 'yaw': 0.0, 'datetime': '2018-10-12 19:28:10.120898', 'mgs': 0, 'depth': 0.012, 'time': 3.41, 'pitch': 1.53, 'roll': -1.31}
{'lipoC2': 8.19, 'temp': 28.25, 'lipoC3S3': 12.47, 'rot1': 0, 'rot0': 0, 'rot3': 0, 'rot2': 0, 'state': 'normal', 'yaw': 0.0, 'datetime': '2018-10-12 19:28:10.219288', 'mgs': 0, 'depth': -0.064, 'time': 3.51, 'pitch': 1.54, 'roll': -1.31}
{'lipoC2': 8.19, 'temp': 28.25, 'lipoC3S3': 12.46, 'rot1': 0, 'rot0': 0, 'rot3': 0, 'rot2': 0, 'state': 'normal', 'yaw': 0.0, 'datetime': '2018-10-12 19:28:10.322255', 'mgs': 0, 'depth': -0.14, 'time': 3.61, 'pitch': 1.52, 'roll': -1.31}
{'lipoC2': 8.19, 'temp': 28.25, 'lipoC3S3': 12.47, 'rot1': 0, 'rot0': 0, 'rot3': 0, 'rot2': 0, 'state': 'normal', 'yaw': 0.0, 'datetime': '2018-10-12 19:28:10.419019', 'mgs': 0, 'depth': 0.012, 'time': 3.7, 'pitch': 1.53, 'roll': -1.31}
{'lipoC2': 8.17, 'temp': 28.25, 'lipoC3S3': 12.46, 'rot1': 0, 'rot0': 0, 'rot3': 0, 'rot2': 0, 'state': 'normal', 'yaw': 0.0, 'datetime': '2018-10-12 19:28:10.516334', 'mgs': 0, 'depth': -0.064, 'time': 3.8, 'pitch': 1.53, 'roll': -1.31}
{'lipoC2': 8.19, 'temp': 28.25, 'lipoC3S3': 12.47, 'rot1': 0, 'rot0': 0, 'rot3': 0, 'rot2': 0, 'state': 'normal', 'yaw': 0.0, 'datetime': '2018-10-12 19:28:10.614601', 'mgs': 0, 'depth': 0.012, 'time': 3.9, 'pitch': 1.53, 'roll': -1.31}
{'lipoC2': 8.19, 'temp': 28.25, 'lipoC3S3': 12.46, 'rot1': 0, 'rot0': 0, 'rot3': 0, 'rot2': 0, 'state': 'normal', 'yaw': 0.0, 'datetime': '2018-10-12 19:28:10.711812', 'mgs': 0, 'depth': 0.012, 'time': 3.99, 'pitch': 1.53, 'roll': -1.31}
{'lipoC2': 8.19, 'temp': 28.25, 'lipoC3S3': 12.46, 'rot1': 0, 'rot0': 0, 'rot3': 0, 'rot2': 0, 'state': 'normal', 'yaw': 0.0, 'datetime': '2018-10-12 19:28:10.806473', 'mgs': 0, 'depth': 0.012, 'time': 4.09, 'pitch': 1.53, 'roll': -1.31}
{'lipoC2': 8.17, 'temp': 28.25, 'lipoC3S3': 12.46, 'rot1': 0, 'rot0': 0, 'rot3': 0, 'rot2': 0, 'state': 'normal', 'yaw': 0.0, 'datetime': '2018-10-12 19:28:10.906638', 'mgs': 0, 'depth': -0.14, 'time': 4.19, 'pitch': 1.52, 'roll': -1.31}
{'lipoC2': 8.19, 'temp': 28.25, 'lipoC3S3': 12.47, 'rot1': 0, 'rot0': 0, 'rot3': 0, 'rot2': 0, 'state': 'normal', 'yaw': 0.0, 'datetime': '2018-10-12 19:28:11.005092', 'mgs': 0, 'depth': -0.064, 'time': 4.29, 'pitch': 1.52, 'roll': -1.31}
{'lipoC2': 8.19, 'temp': 28.25, 'lipoC3S3': 12.47, 'rot1': 0, 'rot0': 0, 'rot3': 0, 'rot2': 0, 'state': 'normal', 'yaw': 0.0, 'datetime': '2018-10-12 19:28:11.102417', 'mgs': 0, 'depth': -0.064, 'time': 4.39, 'pitch': 1.51, 'roll': -1.32}
{'lipoC2': 8.19, 'temp': 28.25, 'lipoC3S3': 12.46, 'rot1': 0, 'rot0': 0, 'rot3': 0, 'rot2': 0, 'state': 'normal', 'yaw': 0.0, 'datetime': '2018-10-12 19:28:11.199463', 'mgs': 0, 'depth': -0.14, 'time': 4.48, 'pitch': 1.52, 'roll': -1.31}
{'lipoC2': 8.19, 'temp': 28.25, 'lipoC3S3': 12.46, 'rot1': 0, 'rot0': 0, 'rot3': 0, 'rot2': 0, 'state': 'normal', 'yaw': 0.0, 'datetime': '2018-10-12 19:28:11.297137', 'mgs': 0, 'depth': 0.012, 'time': 4.58, 'pitch': 1.52, 'roll': -1.31}
{'lipoC2': 8.19, 'temp': 28.31, 'lipoC3S3': 12.46, 'rot1': 0, 'rot0': 0, 'rot3': 0, 'rot2': 0, 'state': 'normal', 'yaw': 0.0, 'datetime': '2018-10-12 19:28:11.394273', 'mgs': 0, 'depth': -0.064, 'time': 4.68, 'pitch': 1.52, 'roll': -1.31}
{'lipoC2': 8.19, 'temp': 28.31, 'lipoC3S3': 12.46, 'rot1': 0, 'rot0': 0, 'rot3': 0, 'rot2': 0, 'state': 'normal', 'yaw': 0.0, 'datetime': '2018-10-12 19:28:11.491130', 'mgs': 0, 'depth': 0.012, 'time': 4.78, 'pitch': 1.52, 'roll': -1.31}
{'lipoC2': 8.19, 'temp': 28.31, 'lipoC3S3': 12.46, 'rot1': 0, 'rot0': 0, 'rot3': 0, 'rot2': 0, 'state': 'normal', 'yaw': 0.0, 'datetime': '2018-10-12 19:28:11.588407', 'mgs': 0, 'depth': 0.012, 'time': 4.87, 'pitch': 1.52, 'roll': -1.31}
{'lipoC2': 8.19, 'temp': 28.31, 'lipoC3S3': 12.47, 'rot1': 0, 'rot0': 0, 'rot3': 0, 'rot2': 0, 'state': 'normal', 'yaw': 0.0, 'datetime': '2018-10-12 19:28:11.686776', 'mgs': 0, 'depth': -0.064, 'time': 4.97, 'pitch': 1.52, 'roll': -1.31}
{'lipoC2': 8.19, 'temp': 28.31, 'lipoC3S3': 12.47, 'rot1': 0, 'rot0': 0, 'rot3': 0, 'rot2': 0, 'state': 'normal', 'yaw': 0.0, 'datetime': '2018-10-12 19:28:11.785092', 'mgs': 0, 'depth': 0.012, 'time': 5.07, 'pitch': 1.52, 'roll': -1.32}
{'lipoC2': 8.19, 'temp': 28.25, 'lipoC3S3': 12.46, 'rot1': 0, 'rot0': 0, 'rot3': 0, 'rot2': 0, 'state': 'normal', 'yaw': 0.0, 'datetime': '2018-10-12 19:28:11.882128', 'mgs': 0, 'depth': -0.064, 'time': 5.17, 'pitch': 1.51, 'roll': -1.29}
{'lipoC2': 8.19, 'temp': 28.25, 'lipoC3S3': 12.46, 'rot1': 0, 'rot0': 0, 'rot3': 0, 'rot2': 0, 'state': 'normal', 'yaw': -0.01, 'datetime': '2018-10-12 19:28:11.979178', 'mgs': 0, 'depth': -0.064, 'time': 5.26, 'pitch': 1.52, 'roll': -1.42}
{'lipoC2': 8.19, 'temp': 28.25, 'lipoC3S3': 12.47, 'rot1': 0, 'rot0': 0, 'rot3': 0, 'rot2': 0, 'state': 'normal', 'yaw': -0.01, 'datetime': '2018-10-12 19:28:12.077547', 'mgs': 0, 'depth': -0.064, 'time': 5.36, 'pitch': 1.52, 'roll': -1.27}
{'lipoC2': 8.19, 'temp': 28.25, 'lipoC3S3': 12.47, 'rot1': 0, 'rot0': 0, 'rot3': 0, 'rot2': 0, 'state': 'normal', 'yaw': -0.01, 'datetime': '2018-10-12 19:28:12.175984', 'mgs': 0, 'depth': -0.064, 'time': 5.46, 'pitch': 1.51, 'roll': -1.27}
{'lipoC2': 8.19, 'temp': 28.25, 'lipoC3S3': 12.46, 'rot1': 0, 'rot0': 0, 'rot3': 0, 'rot2': 0, 'state': 'normal', 'yaw': -0.01, 'datetime': '2018-10-12 19:28:12.273175', 'mgs': 0, 'depth': -0.064, 'time': 5.56, 'pitch': 1.53, 'roll': -1.28}
{'lipoC2': 8.19, 'temp': 28.25, 'lipoC3S3': 12.46, 'rot1': 0, 'rot0': 0, 'rot3': 0, 'rot2': 0, 'state': 'normal', 'yaw': -0.01, 'datetime': '2018-10-12 19:28:12.369946', 'mgs': 0, 'depth': 0.012, 'time': 5.66, 'pitch': 1.53, 'roll': -1.32}
{'lipoC2': 8.17, 'temp': 28.25, 'lipoC3S3': 12.46, 'rot1': 0, 'rot0': 0, 'rot3': 0, 'rot2': 0, 'state': 'normal', 'yaw': -0.01, 'datetime': '2018-10-12 19:28:12.468382', 'mgs': 0, 'depth': -0.064, 'time': 5.75, 'pitch': 1.53, 'roll': -1.34}
{'lipoC2': 8.19, 'temp': 28.25, 'lipoC3S3': 12.46, 'rot1': 0, 'rot0': 0, 'rot3': 0, 'rot2': 0, 'state': 'normal', 'yaw': -0.01, 'datetime': '2018-10-12 19:28:12.566793', 'mgs': 0, 'depth': -0.064, 'time': 5.85, 'pitch': 1.52, 'roll': -1.25}
{'lipoC2': 8.19, 'temp': 28.25, 'lipoC3S3': 12.47, 'rot1': 0, 'rot0': 0, 'rot3': 0, 'rot2': 0, 'state': 'normal', 'yaw': -0.01, 'datetime': '2018-10-12 19:28:12.664037', 'mgs': 0, 'depth': -0.064, 'time': 5.95, 'pitch': 1.51, 'roll': -1.32}
{'lipoC2': 8.19, 'temp': 28.25, 'lipoC3S3': 12.46, 'rot1': 0, 'rot0': 0, 'rot3': 0, 'rot2': 0, 'state': 'normal', 'yaw': -0.01, 'datetime': '2018-10-12 19:28:12.760927', 'mgs': 0, 'depth': -0.064, 'time': 6.05, 'pitch': 1.52, 'roll': -1.25}
{'lipoC2': 8.19, 'temp': 28.25, 'lipoC3S3': 12.46, 'rot1': 0, 'rot0': 0, 'rot3': 0, 'rot2': 0, 'state': 'normal', 'yaw': -0.01, 'datetime': '2018-10-12 19:28:12.859192', 'mgs': 0, 'depth': 0.012, 'time': 6.14, 'pitch': 1.51, 'roll': -1.3}
{'lipoC2': 8.19, 'temp': 28.25, 'lipoC3S3': 12.46, 'rot1': 0, 'rot0': 0, 'rot3': 0, 'rot2': 0, 'state': 'normal', 'yaw': -0.01, 'datetime': '2018-10-12 19:28:12.957606', 'mgs': 0, 'depth': -0.064, 'time': 6.24, 'pitch': 1.51, 'roll': -1.27}
{'lipoC2': 8.19, 'temp': 28.25, 'lipoC3S3': 12.46, 'rot1': 0, 'rot0': 0, 'rot3': 0, 'rot2': 0, 'state': 'normal', 'yaw': -0.01, 'datetime': '2018-10-12 19:28:13.054931', 'mgs': 0, 'depth': 0.012, 'time': 6.34, 'pitch': 1.51, 'roll': -1.29}
{'lipoC2': 8.19, 'temp': 28.25, 'lipoC3S3': 12.46, 'rot1': 0, 'rot0': 0, 'rot3': 0, 'rot2': 0, 'state': 'normal', 'yaw': -0.01, 'datetime': '2018-10-12 19:28:13.151955', 'mgs': 0, 'depth': -0.064, 'time': 6.44, 'pitch': 1.51, 'roll': -1.29}
{'lipoC2': 8.19, 'temp': 28.25, 'lipoC3S3': 12.46, 'rot1': 0, 'rot0': 0, 'rot3': 0, 'rot2': 0, 'state': 'normal', 'yaw': -0.01, 'datetime': '2018-10-12 19:28:13.244999', 'mgs': 0, 'depth': -0.064, 'time': 6.53, 'pitch': 1.51, 'roll': -1.27}
{'lipoC2': 8.19, 'temp': 28.25, 'lipoC3S3': 12.46, 'rot1': 0, 'rot0': 0, 'rot3': 0, 'rot2': 0, 'state': 'normal', 'yaw': -0.01, 'datetime': '2018-10-12 19:28:13.346605', 'mgs': 0, 'depth': -0.064, 'time': 6.63, 'pitch': 1.51, 'roll': -1.31}
{'lipoC2': 8.17, 'temp': 28.25, 'lipoC3S3': 12.46, 'rot1': 0, 'rot0': 0, 'rot3': 0, 'rot2': 0, 'state': 'normal', 'yaw': -0.01, 'datetime': '2018-10-12 19:28:13.443531', 'mgs': 0, 'depth': -0.064, 'time': 6.73, 'pitch': 1.51, 'roll': -1.24}
{'lipoC2': 8.19, 'temp': 28.25, 'lipoC3S3': 12.47, 'rot1': 0, 'rot0': 0, 'rot3': 0, 'rot2': 0, 'state': 'normal', 'yaw': -0.01, 'datetime': '2018-10-12 19:28:13.541348', 'mgs': 0, 'depth': -0.064, 'time': 6.83, 'pitch': 1.51, 'roll': -1.27}
{'lipoC2': 8.19, 'temp': 28.25, 'lipoC3S3': 12.46, 'rot1': 0, 'rot0': 0, 'rot3': 0, 'rot2': 0, 'state': 'normal', 'yaw': -0.01, 'datetime': '2018-10-12 19:28:13.639617', 'mgs': 0, 'depth': 0.012, 'time': 6.93, 'pitch': 1.51, 'roll': -1.25}
{'lipoC2': 8.19, 'temp': 28.25, 'lipoC3S3': 12.46, 'rot1': 0, 'rot0': 0, 'rot3': 0, 'rot2': 0, 'state': 'normal', 'yaw': -0.01, 'datetime': '2018-10-12 19:28:13.735413', 'mgs': 0, 'depth': -0.14, 'time': 7.02, 'pitch': 1.5, 'roll': -1.27}
{'lipoC2': 8.19, 'temp': 28.31, 'lipoC3S3': 12.46, 'rot1': 0, 'rot0': 0, 'rot3': 0, 'rot2': 0, 'state': 'normal', 'yaw': -0.01, 'datetime': '2018-10-12 19:28:13.834306', 'mgs': 0, 'depth': 0.012, 'time': 7.12, 'pitch': 1.51, 'roll': -1.25}
{'lipoC2': 8.19, 'temp': 28.31, 'lipoC3S3': 12.46, 'rot1': 0, 'rot0': 0, 'rot3': 0, 'rot2': 0, 'state': 'normal', 'yaw': -0.01, 'datetime': '2018-10-12 19:28:13.932066', 'mgs': 0, 'depth': -0.064, 'time': 7.22, 'pitch': 1.51, 'roll': -1.25}
{'lipoC2': 8.17, 'temp': 28.25, 'lipoC3S3': 12.46, 'rot1': 0, 'rot0': 0, 'rot3': 0, 'rot2': 0, 'state': 'normal', 'yaw': -0.01, 'datetime': '2018-10-12 19:28:14.030347', 'mgs': 0, 'depth': -0.064, 'time': 7.32, 'pitch': 1.51, 'roll': -1.27}
{'lipoC2': 8.19, 'temp': 28.25, 'lipoC3S3': 12.46, 'rot1': 0, 'rot0': 0, 'rot3': 0, 'rot2': 0, 'state': 'normal', 'yaw': -0.01, 'datetime': '2018-10-12 19:28:14.127426', 'mgs': 0, 'depth': 0.012, 'time': 7.41, 'pitch': 1.51, 'roll': -1.23}
{'lipoC2': 8.19, 'temp': 28.25, 'lipoC3S3': 12.46, 'rot1': 0, 'rot0': 0, 'rot3': 0, 'rot2': 0, 'state': 'normal', 'yaw': -0.01, 'datetime': '2018-10-12 19:28:14.224455', 'mgs': 0, 'depth': 0.012, 'time': 7.51, 'pitch': 1.51, 'roll': -1.27}
{'lipoC2': 8.19, 'temp': 28.25, 'lipoC3S3': 12.47, 'rot1': 0, 'rot0': 0, 'rot3': 0, 'rot2': 0, 'state': 'normal', 'yaw': -0.01, 'datetime': '2018-10-12 19:28:14.322533', 'mgs': 0, 'depth': -0.064, 'time': 7.61, 'pitch': 1.51, 'roll': -1.23}
{'lipoC2': 8.19, 'temp': 28.25, 'lipoC3S3': 12.46, 'rot1': 0, 'rot0': 0, 'rot3': 0, 'rot2': 0, 'state': 'normal', 'yaw': -0.01, 'datetime': '2018-10-12 19:28:14.420848', 'mgs': 0, 'depth': -0.064, 'time': 7.71, 'pitch': 1.52, 'roll': -1.27}
{'lipoC2': 8.17, 'temp': 28.25, 'lipoC3S3': 12.46, 'rot1': 0, 'rot0': 0, 'rot3': 0, 'rot2': 0, 'state': 'normal', 'yaw': -0.01, 'datetime': '2018-10-12 19:28:14.518161', 'mgs': 0, 'depth': -0.064, 'time': 7.8, 'pitch': 1.51, 'roll': -1.25}
{'lipoC2': 8.19, 'temp': 28.25, 'lipoC3S3': 12.46, 'rot1': 0, 'rot0': 0, 'rot3': 0, 'rot2': 0, 'state': 'normal', 'yaw': -0.01, 'datetime': '2018-10-12 19:28:14.614957', 'mgs': 0, 'depth': 0.012, 'time': 7.9, 'pitch': 1.52, 'roll': -1.27}
{'lipoC2': 8.19, 'temp': 28.25, 'lipoC3S3': 12.46, 'rot1': 0, 'rot0': 0, 'rot3': 0, 'rot2': 0, 'state': 'normal', 'yaw': -0.01, 'datetime': '2018-10-12 19:28:14.712939', 'mgs': 0, 'depth': 0.012, 'time': 8.0, 'pitch': 1.51, 'roll': -1.27}
{'lipoC2': 8.19, 'temp': 28.25, 'lipoC3S3': 12.46, 'rot1': 0, 'rot0': 0, 'rot3': 0, 'rot2': 0, 'state': 'normal', 'yaw': -0.01, 'datetime': '2018-10-12 19:28:14.811400', 'mgs': 1, 'depth': -0.064, 'time': 8.1, 'pitch': 1.53, 'roll': -1.27}
{'lipoC2': 8.17, 'temp': 28.25, 'lipoC3S3': 12.46, 'rot1': 0, 'rot0': 0, 'rot3': 0, 'rot2': 0, 'state': 'normal', 'yaw': 0.0, 'datetime': '2018-10-12 19:28:18.334768', 'mgs': 0, 'depth': 0.012, 'time': 1.26, 'pitch': 1.52, 'roll': -1.27}
{'lipoC2': 8.19, 'temp': 28.25, 'lipoC3S3': 12.46, 'rot1': 0, 'rot0': 0, 'rot3': 0, 'rot2': 0, 'state': 'normal', 'yaw': 0.0, 'datetime': '2018-10-12 19:28:18.361062', 'mgs': 0, 'depth': -0.064, 'time': 1.36, 'pitch': 1.52, 'roll': -1.27}
{'lipoC2': 8.19, 'temp': 28.25, 'lipoC3S3': 12.46, 'rot1': 0, 'rot0': 0, 'rot3': 0, 'rot2': 0, 'state': 'normal', 'yaw': 0.0, 'datetime': '2018-10-12 19:28:18.377885', 'mgs': 0, 'depth': -0.064, 'time': 1.46, 'pitch': 1.52, 'roll': -1.27}
{'lipoC2': 8.19, 'temp': 28.25, 'lipoC3S3': 12.47, 'rot1': 0, 'rot0': 0, 'rot3': 0, 'rot2': 0, 'state': 'normal', 'yaw': 0.0, 'datetime': '2018-10-12 19:28:18.401679', 'mgs': 0, 'depth': -0.064, 'time': 1.55, 'pitch': 1.52, 'roll': -1.27}
{'lipoC2': 8.19, 'temp': 28.25, 'lipoC3S3': 12.47, 'rot1': 0, 'rot0': 0, 'rot3': 0, 'rot2': 0, 'state': 'normal', 'yaw': 0.0, 'datetime': '2018-10-12 19:28:18.420000', 'mgs': 0, 'depth': -0.064, 'time': 1.65, 'pitch': 1.52, 'roll': -1.27}
{'lipoC2': 8.17, 'temp': 28.25, 'lipoC3S3': 12.46, 'rot1': 0, 'rot0': 0, 'rot3': 0, 'rot2': 0, 'state': 'normal', 'yaw': 0.0, 'datetime': '2018-10-12 19:28:18.427403', 'mgs': 0, 'depth': 0.012, 'time': 1.75, 'pitch': 1.52, 'roll': -1.27}
{'lipoC2': 8.19, 'temp': 28.25, 'lipoC3S3': 12.47, 'rot1': 0, 'rot0': 0, 'rot3': 0, 'rot2': 0, 'state': 'normal', 'yaw': 0.0, 'datetime': '2018-10-12 19:28:18.440572', 'mgs': 0, 'depth': 0.012, 'time': 1.84, 'pitch': 1.52, 'roll': -1.27}
{'lipoC2': 8.17, 'temp': 28.25, 'lipoC3S3': 12.46, 'rot1': 0, 'rot0': 0, 'rot3': 0, 'rot2': 0, 'state': 'normal', 'yaw': 0.0, 'datetime': '2018-10-12 19:28:18.453695', 'mgs': 0, 'depth': -0.064, 'time': 1.94, 'pitch': 1.52, 'roll': -1.27}
{'lipoC2': 8.17, 'temp': 28.25, 'lipoC3S3': 12.47, 'rot1': 0, 'rot0': 0, 'rot3': 0, 'rot2': 0, 'state': 'normal', 'yaw': 0.0, 'datetime': '2018-10-12 19:28:18.461138', 'mgs': 0, 'depth': -0.064, 'time': 2.04, 'pitch': 1.52, 'roll': -1.27}
{'lipoC2': 8.17, 'temp': 28.25, 'lipoC3S3': 12.46, 'rot1': 0, 'rot0': 0, 'rot3': 0, 'rot2': 0, 'state': 'normal', 'yaw': 0.0, 'datetime': '2018-10-12 19:28:18.474317', 'mgs': 0, 'depth': -0.064, 'time': 2.13, 'pitch': 1.52, 'roll': -1.27}
{'lipoC2': 8.17, 'temp': 28.25, 'lipoC3S3': 12.47, 'rot1': 0, 'rot0': 0, 'rot3': 0, 'rot2': 0, 'state': 'normal', 'yaw': 0.0, 'datetime': '2018-10-12 19:28:18.487612', 'mgs': 0, 'depth': -0.064, 'time': 2.23, 'pitch': 1.52, 'roll': -1.27}
{'lipoC2': 8.19, 'temp': 28.25, 'lipoC3S3': 12.47, 'rot1': 0, 'rot0': 0, 'rot3': 0, 'rot2': 0, 'state': 'normal', 'yaw': 0.0, 'datetime': '2018-10-12 19:28:18.495088', 'mgs': 0, 'depth': -0.064, 'time': 2.33, 'pitch': 1.52, 'roll': -1.27}
{'lipoC2': 8.17, 'temp': 28.31, 'lipoC3S3': 12.47, 'rot1': 0, 'rot0': 0, 'rot3': 0, 'rot2': 0, 'state': 'normal', 'yaw': 0.0, 'datetime': '2018-10-12 19:28:18.508715', 'mgs': 0, 'depth': -0.064, 'time': 2.43, 'pitch': 1.52, 'roll': -1.27}
{'lipoC2': 8.19, 'temp': 28.31, 'lipoC3S3': 12.46, 'rot1': 0, 'rot0': 0, 'rot3': 0, 'rot2': 0, 'state': 'normal', 'yaw': 0.0, 'datetime': '2018-10-12 19:28:18.521909', 'mgs': 0, 'depth': -0.14, 'time': 2.53, 'pitch': 1.52, 'roll': -1.27}
{'lipoC2': 8.19, 'temp': 28.31, 'lipoC3S3': 12.46, 'rot1': 0, 'rot0': 0, 'rot3': 0, 'rot2': 0, 'state': 'normal', 'yaw': 0.0, 'datetime': '2018-10-12 19:28:18.529345', 'mgs': 0, 'depth': -0.14, 'time': 2.62, 'pitch': 1.52, 'roll': -1.27}
{'lipoC2': 8.19, 'temp': 28.31, 'lipoC3S3': 12.46, 'rot1': 0, 'rot0': 0, 'rot3': 0, 'rot2': 0, 'state': 'normal', 'yaw': 0.0, 'datetime': '2018-10-12 19:28:18.542487', 'mgs': 0, 'depth': -0.064, 'time': 2.72, 'pitch': 1.52, 'roll': -1.27}
{'lipoC2': 8.19, 'temp': 28.31, 'lipoC3S3': 12.46, 'rot1': 0, 'rot0': 0, 'rot3': 0, 'rot2': 0, 'state': 'normal', 'yaw': 0.0, 'datetime': '2018-10-12 19:28:18.555585', 'mgs': 0, 'depth': 0.012, 'time': 2.82, 'pitch': 1.52, 'roll': -1.27}
{'lipoC2': 8.19, 'temp': 28.31, 'lipoC3S3': 12.47, 'rot1': 0, 'rot0': 0, 'rot3': 0, 'rot2': 0, 'state': 'normal', 'yaw': 0.0, 'datetime': '2018-10-12 19:28:18.562918', 'mgs': 0, 'depth': -0.064, 'time': 2.91, 'pitch': 1.52, 'roll': -1.27}
{'lipoC2': 8.17, 'temp': 28.31, 'lipoC3S3': 12.47, 'rot1': 0, 'rot0': 0, 'rot3': 0, 'rot2': 0, 'state': 'normal', 'yaw': 0.0, 'datetime': '2018-10-12 19:28:18.576097', 'mgs': 0, 'depth': -0.064, 'time': 3.01, 'pitch': 1.52, 'roll': -1.27}
{'lipoC2': 8.19, 'temp': 28.31, 'lipoC3S3': 12.47, 'rot1': 0, 'rot0': 0, 'rot3': 0, 'rot2': 0, 'state': 'normal', 'yaw': 0.0, 'datetime': '2018-10-12 19:28:18.589237', 'mgs': 0, 'depth': -0.064, 'time': 3.11, 'pitch': 1.52, 'roll': -1.27}
{'lipoC2': 8.17, 'temp': 28.25, 'lipoC3S3': 12.46, 'rot1': 0, 'rot0': 0, 'rot3': 0, 'rot2': 0, 'state': 'normal', 'yaw': 0.0, 'datetime': '2018-10-12 19:28:18.596663', 'mgs': 0, 'depth': -0.064, 'time': 3.21, 'pitch': 1.52, 'roll': -1.27}
{'lipoC2': 8.17, 'temp': 28.25, 'lipoC3S3': 12.47, 'rot1': 0, 'rot0': 0, 'rot3': 0, 'rot2': 0, 'state': 'normal', 'yaw': 0.0, 'datetime': '2018-10-12 19:28:18.609836', 'mgs': 0, 'depth': -0.064, 'time': 3.31, 'pitch': 1.52, 'roll': -1.27}
{'lipoC2': 8.19, 'temp': 28.31, 'lipoC3S3': 12.47, 'rot1': 0, 'rot0': 0, 'rot3': 0, 'rot2': 0, 'state': 'normal', 'yaw': 0.0, 'datetime': '2018-10-12 19:28:18.622946', 'mgs': 0, 'depth': -0.14, 'time': 3.4, 'pitch': 1.52, 'roll': -1.27}
{'lipoC2': 8.19, 'temp': 28.31, 'lipoC3S3': 12.47, 'rot1': 0, 'rot0': 0, 'rot3': 0, 'rot2': 0, 'state': 'normal', 'yaw': 0.0, 'datetime': '2018-10-12 19:28:18.630380', 'mgs': 0, 'depth': -0.14, 'time': 3.5, 'pitch': 1.52, 'roll': -1.27}
{'lipoC2': 8.19, 'temp': 28.31, 'lipoC3S3': 12.43, 'rot1': 7, 'rot0': 1, 'rot3': 0, 'rot2': 0, 'state': 'normal', 'yaw': 0.0, 'datetime': '2018-10-12 19:28:18.643472', 'mgs': 0, 'depth': 1.614, 'time': 3.6, 'pitch': 1.52, 'roll': -1.27}
{'lipoC2': 8.19, 'temp': 28.31, 'lipoC3S3': 12.45, 'rot1': 24, 'rot0': 3, 'rot3': 0, 'rot2': 0, 'state': 'normal', 'yaw': 0.0, 'datetime': '2018-10-12 19:28:18.656645', 'mgs': 0, 'depth': 0.699, 'time': 3.69, 'pitch': 1.52, 'roll': -1.27}
{'lipoC2': 8.19, 'temp': 28.31, 'lipoC3S3': 12.45, 'rot1': 43, 'rot0': 5, 'rot3': 0, 'rot2': 0, 'state': 'normal', 'yaw': 0.0, 'datetime': '2018-10-12 19:28:18.697702', 'mgs': 0, 'depth': 1.08, 'time': 3.79, 'pitch': 1.52, 'roll': -1.27}
{'lipoC2': 8.19, 'temp': 28.25, 'lipoC3S3': 12.45, 'rot1': 59, 'rot0': 7, 'rot3': 0, 'rot2': 0, 'state': 'normal', 'yaw': 0.0, 'datetime': '2018-10-12 19:28:18.795615', 'mgs': 0, 'depth': 0.089, 'time': 3.89, 'pitch': 1.52, 'roll': -1.27}
{'lipoC2': 8.19, 'temp': 28.25, 'lipoC3S3': 12.39, 'rot1': 75, 'rot0': 9, 'rot3': 0, 'rot2': 0, 'state': 'normal', 'yaw': 0.0, 'datetime': '2018-10-12 19:28:18.893682', 'mgs': 0, 'depth': 0.012, 'time': 3.99, 'pitch': 1.52, 'roll': -1.27}
{'lipoC2': 8.16, 'temp': 28.25, 'lipoC3S3': 12.38, 'rot1': 91, 'rot0': 10, 'rot3': 0, 'rot2': 0, 'state': 'normal', 'yaw': 0.0, 'datetime': '2018-10-12 19:28:18.991642', 'mgs': 0, 'depth': -0.064, 'time': 4.09, 'pitch': 1.52, 'roll': -1.27}
{'lipoC2': 8.19, 'temp': 28.31, 'lipoC3S3': 12.43, 'rot1': 107, 'rot0': 12, 'rot3': 0, 'rot2': 0, 'state': 'normal', 'yaw': 0.0, 'datetime': '2018-10-12 19:28:19.088711', 'mgs': 0, 'depth': 0.623, 'time': 4.18, 'pitch': 1.52, 'roll': -1.27}
{'lipoC2': 8.19, 'temp': 28.31, 'lipoC3S3': 12.43, 'rot1': 122, 'rot0': 14, 'rot3': 0, 'rot2': 0, 'state': 'normal', 'yaw': -0.01, 'datetime': '2018-10-12 19:28:19.187264', 'mgs': 0, 'depth': -0.369, 'time': 4.28, 'pitch': 1.52, 'roll': -1.27}
{'lipoC2': 8.19, 'temp': 28.31, 'lipoC3S3': 12.43, 'rot1': 138, 'rot0': 16, 'rot3': 0, 'rot2': 0, 'state': 'normal', 'yaw': 0.0, 'datetime': '2018-10-12 19:28:19.285554', 'mgs': 0, 'depth': 0.47, 'time': 4.38, 'pitch': 1.52, 'roll': -1.27}
{'lipoC2': 8.19, 'temp': 28.31, 'lipoC3S3': 12.37, 'rot1': 155, 'rot0': 18, 'rot3': 0, 'rot2': 0, 'state': 'normal', 'yaw': -0.01, 'datetime': '2018-10-12 19:28:19.384159', 'mgs': 0, 'depth': -0.064, 'time': 4.48, 'pitch': 1.52, 'roll': -1.27}
{'lipoC2': 8.19, 'temp': 28.31, 'lipoC3S3': 12.43, 'rot1': 171, 'rot0': 20, 'rot3': 0, 'rot2': 0, 'state': 'normal', 'yaw': -0.01, 'datetime': '2018-10-12 19:28:19.481175', 'mgs': 0, 'depth': 0.012, 'time': 4.57, 'pitch': 1.52, 'roll': -1.27}
{'lipoC2': 8.19, 'temp': 28.25, 'lipoC3S3': 12.41, 'rot1': 186, 'rot0': 21, 'rot3': 0, 'rot2': 0, 'state': 'normal', 'yaw': -0.02, 'datetime': '2018-10-12 19:28:19.578419', 'mgs': 0, 'depth': -0.064, 'time': 4.67, 'pitch': 1.52, 'roll': -1.27}
{'lipoC2': 8.17, 'temp': 28.25, 'lipoC3S3': 12.5, 'rot1': 202, 'rot0': 23, 'rot3': 0, 'rot2': 0, 'state': 'normal', 'yaw': -0.01, 'datetime': '2018-10-12 19:28:19.676941', 'mgs': 0, 'depth': -0.064, 'time': 4.77, 'pitch': 1.52, 'roll': -1.27}
{'lipoC2': 8.19, 'temp': 28.31, 'lipoC3S3': 12.45, 'rot1': 218, 'rot0': 25, 'rot3': 0, 'rot2': 0, 'state': 'normal', 'yaw': -0.03, 'datetime': '2018-10-12 19:28:19.775415', 'mgs': 0, 'depth': 0.012, 'time': 4.87, 'pitch': 1.52, 'roll': -1.27}
{'lipoC2': 8.17, 'temp': 28.31, 'lipoC3S3': 12.37, 'rot1': 236, 'rot0': 27, 'rot3': 0, 'rot2': 0, 'state': 'normal', 'yaw': -0.03, 'datetime': '2018-10-12 19:28:19.872536', 'mgs': 0, 'depth': -0.064, 'time': 4.97, 'pitch': 1.52, 'roll': -1.27}
{'lipoC2': 8.19, 'temp': 28.31, 'lipoC3S3': 12.45, 'rot1': 257, 'rot0': 29, 'rot3': 0, 'rot2': 0, 'state': 'normal', 'yaw': -0.02, 'datetime': '2018-10-12 19:28:19.969687', 'mgs': 0, 'depth': 0.089, 'time': 5.06, 'pitch': 1.53, 'roll': -1.27}
{'lipoC2': 8.19, 'temp': 28.31, 'lipoC3S3': 12.45, 'rot1': 274, 'rot0': 31, 'rot3': 0, 'rot2': 0, 'state': 'normal', 'yaw': -0.02, 'datetime': '2018-10-12 19:28:20.068143', 'mgs': 0, 'depth': 0.165, 'time': 5.16, 'pitch': 1.53, 'roll': -1.27}
{'lipoC2': 8.19, 'temp': 28.31, 'lipoC3S3': 12.45, 'rot1': 291, 'rot0': 32, 'rot3': 0, 'rot2': 0, 'state': 'normal', 'yaw': 0.11, 'datetime': '2018-10-12 19:28:20.165285', 'mgs': 0, 'depth': -0.064, 'time': 5.26, 'pitch': 1.52, 'roll': -1.29}
{'lipoC2': 8.2, 'temp': 28.31, 'lipoC3S3': 12.42, 'rot1': 309, 'rot0': 34, 'rot3': 0, 'rot2': 0, 'state': 'normal', 'yaw': 0.62, 'datetime': '2018-10-12 19:28:20.262514', 'mgs': 0, 'depth': -0.064, 'time': 5.36, 'pitch': 1.53, 'roll': -1.27}
{'lipoC2': 8.17, 'temp': 28.31, 'lipoC3S3': 12.45, 'rot1': 326, 'rot0': 36, 'rot3': 0, 'rot2': 0, 'state': 'normal', 'yaw': 1.91, 'datetime': '2018-10-12 19:28:20.359586', 'mgs': 0, 'depth': 0.012, 'time': 5.45, 'pitch': 1.47, 'roll': -1.24}
{'lipoC2': 8.17, 'temp': 28.31, 'lipoC3S3': 12.38, 'rot1': 341, 'rot0': 38, 'rot3': 0, 'rot2': 0, 'state': 'normal', 'yaw': 3.35, 'datetime': '2018-10-12 19:28:20.456701', 'mgs': 0, 'depth': 0.012, 'time': 5.55, 'pitch': 1.4, 'roll': -1.21}
{'lipoC2': 8.19, 'temp': 28.31, 'lipoC3S3': 12.45, 'rot1': 353, 'rot0': 40, 'rot3': 0, 'rot2': 0, 'state': 'normal', 'yaw': 4.97, 'datetime': '2018-10-12 19:28:20.553855', 'mgs': 0, 'depth': 0.775, 'time': 5.65, 'pitch': 1.33, 'roll': -1.16}
{'lipoC2': 8.17, 'temp': 28.31, 'lipoC3S3': 12.45, 'rot1': 362, 'rot0': 42, 'rot3': 0, 'rot2': 0, 'state': 'normal', 'yaw': 6.35, 'datetime': '2018-10-12 19:28:20.651020', 'mgs': 0, 'depth': -0.064, 'time': 5.74, 'pitch': 1.27, 'roll': -1.13}
{'lipoC2': 8.17, 'temp': 28.31, 'lipoC3S3': 12.45, 'rot1': 368, 'rot0': 44, 'rot3': 0, 'rot2': 0, 'state': 'normal', 'yaw': 7.35, 'datetime': '2018-10-12 19:28:20.749595', 'mgs': 0, 'depth': -0.064, 'time': 5.84, 'pitch': 1.26, 'roll': -1.11}
{'lipoC2': 8.19, 'temp': 28.31, 'lipoC3S3': 12.45, 'rot1': 374, 'rot0': 46, 'rot3': 0, 'rot2': 0, 'state': 'normal', 'yaw': 8.21, 'datetime': '2018-10-12 19:28:20.848027', 'mgs': 0, 'depth': 0.012, 'time': 5.94, 'pitch': 1.23, 'roll': -1.1}
{'lipoC2': 8.19, 'temp': 28.31, 'lipoC3S3': 12.43, 'rot1': 380, 'rot0': 47, 'rot3': 0, 'rot2': 0, 'state': 'normal', 'yaw': 8.69, 'datetime': '2018-10-12 19:28:20.946397', 'mgs': 0, 'depth': -0.064, 'time': 6.04, 'pitch': 1.22, 'roll': -1.07}
{'lipoC2': 8.19, 'temp': 28.31, 'lipoC3S3': 12.45, 'rot1': 386, 'rot0': 49, 'rot3': 0, 'rot2': 0, 'state': 'normal', 'yaw': 8.77, 'datetime': '2018-10-12 19:28:21.043567', 'mgs': 0, 'depth': -0.064, 'time': 6.14, 'pitch': 1.22, 'roll': -1.06}
{'lipoC2': 8.19, 'temp': 28.31, 'lipoC3S3': 12.45, 'rot1': 392, 'rot0': 51, 'rot3': 0, 'rot2': 0, 'state': 'normal', 'yaw': 8.77, 'datetime': '2018-10-12 19:28:21.140975', 'mgs': 0, 'depth': 0.623, 'time': 6.24, 'pitch': 1.22, 'roll': -1.06}
{'lipoC2': 8.19, 'temp': 28.31, 'lipoC3S3': 12.45, 'rot1': 398, 'rot0': 53, 'rot3': 0, 'rot2': 0, 'state': 'normal', 'yaw': 8.77, 'datetime': '2018-10-12 19:28:21.242204', 'mgs': 0, 'depth': 0.012, 'time': 6.34, 'pitch': 1.22, 'roll': -1.05}
{'lipoC2': 8.17, 'temp': 28.31, 'lipoC3S3': 12.48, 'rot1': 403, 'rot0': 55, 'rot3': 0, 'rot2': 0, 'state': 'normal', 'yaw': 8.77, 'datetime': '2018-10-12 19:28:21.340182', 'mgs': 0, 'depth': 0.012, 'time': 6.43, 'pitch': 1.22, 'roll': -1.06}
{'lipoC2': 8.19, 'temp': 28.31, 'lipoC3S3': 12.45, 'rot1': 409, 'rot0': 57, 'rot3': 0, 'rot2': 0, 'state': 'normal', 'yaw': 8.77, 'datetime': '2018-10-12 19:28:21.437375', 'mgs': 0, 'depth': -0.217, 'time': 6.53, 'pitch': 1.22, 'roll': -1.06}
{'lipoC2': 8.19, 'temp': 28.31, 'lipoC3S3': 12.45, 'rot1': 415, 'rot0': 58, 'rot3': 0, 'rot2': 0, 'state': 'normal', 'yaw': 8.77, 'datetime': '2018-10-12 19:28:21.534591', 'mgs': 0, 'depth': 0.012, 'time': 6.63, 'pitch': 1.22, 'roll': -1.06}
{'lipoC2': 8.19, 'temp': 28.31, 'lipoC3S3': 12.45, 'rot1': 421, 'rot0': 60, 'rot3': 0, 'rot2': 0, 'state': 'normal', 'yaw': 8.77, 'datetime': '2018-10-12 19:28:21.632905', 'mgs': 0, 'depth': 0.165, 'time': 6.73, 'pitch': 1.22, 'roll': -1.06}
{'lipoC2': 8.2, 'temp': 28.31, 'lipoC3S3': 12.43, 'rot1': 427, 'rot0': 62, 'rot3': 0, 'rot2': 0, 'state': 'normal', 'yaw': 8.77, 'datetime': '2018-10-12 19:28:21.731442', 'mgs': 0, 'depth': -0.064, 'time': 6.82, 'pitch': 1.22, 'roll': -1.06}
{'lipoC2': 8.17, 'temp': 28.31, 'lipoC3S3': 12.45, 'rot1': 433, 'rot0': 64, 'rot3': 0, 'rot2': 0, 'state': 'normal', 'yaw': 8.77, 'datetime': '2018-10-12 19:28:21.829329', 'mgs': 0, 'depth': 0.546, 'time': 6.92, 'pitch': 1.22, 'roll': -1.06}
{'lipoC2': 8.17, 'temp': 28.31, 'lipoC3S3': 12.47, 'rot1': 438, 'rot0': 66, 'rot3': 0, 'rot2': 0, 'state': 'normal', 'yaw': 8.77, 'datetime': '2018-10-12 19:28:21.926464', 'mgs': 0, 'depth': -0.064, 'time': 7.02, 'pitch': 1.22, 'roll': -1.06}
{'lipoC2': 8.19, 'temp': 28.31, 'lipoC3S3': 12.39, 'rot1': 444, 'rot0': 68, 'rot3': 0, 'rot2': 0, 'state': 'normal', 'yaw': 8.77, 'datetime': '2018-10-12 19:28:22.024409', 'mgs': 0, 'depth': -0.064, 'time': 7.12, 'pitch': 1.22, 'roll': -1.06}
{'lipoC2': 8.17, 'temp': 28.31, 'lipoC3S3': 12.46, 'rot1': 450, 'rot0': 69, 'rot3': 0, 'rot2': 0, 'state': 'normal', 'yaw': 8.77, 'datetime': '2018-10-12 19:28:22.122851', 'mgs': 0, 'depth': -0.064, 'time': 7.22, 'pitch': 1.22, 'roll': -1.06}
{'lipoC2': 8.19, 'temp': 28.31, 'lipoC3S3': 12.45, 'rot1': 456, 'rot0': 71, 'rot3': 0, 'rot2': 0, 'state': 'normal', 'yaw': 8.77, 'datetime': '2018-10-12 19:28:22.221338', 'mgs': 0, 'depth': -0.064, 'time': 7.32, 'pitch': 1.22, 'roll': -1.06}
{'lipoC2': 8.2, 'temp': 28.31, 'lipoC3S3': 12.43, 'rot1': 462, 'rot0': 73, 'rot3': 0, 'rot2': 0, 'state': 'normal', 'yaw': 8.76, 'datetime': '2018-10-12 19:28:22.318480', 'mgs': 0, 'depth': 0.012, 'time': 7.41, 'pitch': 1.22, 'roll': -1.07}
{'lipoC2': 8.17, 'temp': 28.31, 'lipoC3S3': 12.45, 'rot1': 467, 'rot0': 75, 'rot3': 0, 'rot2': 0, 'state': 'normal', 'yaw': 8.76, 'datetime': '2018-10-12 19:28:22.415653', 'mgs': 0, 'depth': -0.064, 'time': 7.51, 'pitch': 1.22, 'roll': -1.07}
{'lipoC2': 8.19, 'temp': 28.31, 'lipoC3S3': 12.38, 'rot1': 473, 'rot0': 77, 'rot3': 0, 'rot2': 0, 'state': 'normal', 'yaw': 8.76, 'datetime': '2018-10-12 19:28:22.513858', 'mgs': 0, 'depth': -0.064, 'time': 7.61, 'pitch': 1.22, 'roll': -1.1}
{'lipoC2': 8.17, 'temp': 28.31, 'lipoC3S3': 12.45, 'rot1': 479, 'rot0': 79, 'rot3': 0, 'rot2': 0, 'state': 'normal', 'yaw': 8.66, 'datetime': '2018-10-12 19:28:22.611050', 'mgs': 0, 'depth': -0.14, 'time': 7.7, 'pitch': 1.21, 'roll': -1.1}
{'lipoC2': 8.19, 'temp': 28.25, 'lipoC3S3': 12.42, 'rot1': 484, 'rot0': 81, 'rot3': 0, 'rot2': 0, 'state': 'normal', 'yaw': 8.41, 'datetime': '2018-10-12 19:28:22.708228', 'mgs': 0, 'depth': -0.14, 'time': 7.8, 'pitch': 1.21, 'roll': -1.13}
{'lipoC2': 8.2, 'temp': 28.25, 'lipoC3S3': 12.43, 'rot1': 490, 'rot0': 82, 'rot3': 0, 'rot2': 0, 'state': 'normal', 'yaw': 7.82, 'datetime': '2018-10-12 19:28:22.806210', 'mgs': 0, 'depth': 0.012, 'time': 7.9, 'pitch': 1.2, 'roll': -1.15}
{'lipoC2': 8.19, 'temp': 28.31, 'lipoC3S3': 12.43, 'rot1': 499, 'rot0': 84, 'rot3': 0, 'rot2': 0, 'state': 'normal', 'yaw': 5.94, 'datetime': '2018-10-12 19:28:22.904421', 'mgs': 0, 'depth': 0.012, 'time': 8.0, 'pitch': 1.29, 'roll': -1.16}
{'lipoC2': 8.17, 'temp': 28.31, 'lipoC3S3': 12.45, 'rot1': 510, 'rot0': 86, 'rot3': 0, 'rot2': 0, 'state': 'normal', 'yaw': 3.0, 'datetime': '2018-10-12 19:28:23.002776', 'mgs': 0, 'depth': 0.012, 'time': 8.1, 'pitch': 1.42, 'roll': -1.2}
{'lipoC2': 8.17, 'temp': 28.31, 'lipoC3S3': 12.38, 'rot1': 520, 'rot0': 88, 'rot3': 0, 'rot2': 0, 'state': 'normal', 'yaw': -0.07, 'datetime': '2018-10-12 19:28:23.099968', 'mgs': 0, 'depth': -0.064, 'time': 8.19, 'pitch': 1.55, 'roll': -1.27}
{'lipoC2': 8.19, 'temp': 28.31, 'lipoC3S3': 12.45, 'rot1': 530, 'rot0': 89, 'rot3': 0, 'rot2': 0, 'state': 'normal', 'yaw': -2.67, 'datetime': '2018-10-12 19:28:23.197059', 'mgs': 0, 'depth': 0.623, 'time': 8.29, 'pitch': 1.67, 'roll': -1.34}
{'lipoC2': 8.19, 'temp': 28.31, 'lipoC3S3': 12.43, 'rot1': 541, 'rot0': 91, 'rot3': 0, 'rot2': 0, 'state': 'normal', 'yaw': -4.59, 'datetime': '2018-10-12 19:28:23.295554', 'mgs': 0, 'depth': -0.064, 'time': 8.39, 'pitch': 1.75, 'roll': -1.39}
{'lipoC2': 8.19, 'temp': 28.31, 'lipoC3S3': 12.37, 'rot1': 554, 'rot0': 92, 'rot3': 0, 'rot2': 0, 'state': 'normal', 'yaw': -6.41, 'datetime': '2018-10-12 19:28:23.393894', 'mgs': 0, 'depth': 0.012, 'time': 8.49, 'pitch': 1.81, 'roll': -1.45}
{'lipoC2': 8.19, 'temp': 28.31, 'lipoC3S3': 12.43, 'rot1': 568, 'rot0': 93, 'rot3': 0, 'rot2': 0, 'state': 'normal', 'yaw': -8.03, 'datetime': '2018-10-12 19:28:23.490933', 'mgs': 0, 'depth': 0.317, 'time': 8.59, 'pitch': 1.88, 'roll': -1.51}
{'lipoC2': 8.17, 'temp': 28.31, 'lipoC3S3': 12.45, 'rot1': 582, 'rot0': 94, 'rot3': 0, 'rot2': 0, 'state': 'normal', 'yaw': -9.06, 'datetime': '2018-10-12 19:28:23.588251', 'mgs': 0, 'depth': -0.064, 'time': 8.68, 'pitch': 1.92, 'roll': -1.52}
{'lipoC2': 8.19, 'temp': 28.31, 'lipoC3S3': 12.45, 'rot1': 595, 'rot0': 96, 'rot3': 0, 'rot2': 0, 'state': 'normal', 'yaw': -9.16, 'datetime': '2018-10-12 19:28:23.686722', 'mgs': 0, 'depth': -0.064, 'time': 8.78, 'pitch': 1.92, 'roll': -1.53}
{'lipoC2': 8.17, 'temp': 28.31, 'lipoC3S3': 12.45, 'rot1': 609, 'rot0': 97, 'rot3': 0, 'rot2': 0, 'state': 'normal', 'yaw': -9.15, 'datetime': '2018-10-12 19:28:23.785285', 'mgs': 0, 'depth': 0.012, 'time': 8.88, 'pitch': 1.92, 'roll': -1.53}
{'lipoC2': 8.19, 'temp': 28.31, 'lipoC3S3': 12.45, 'rot1': 623, 'rot0': 98, 'rot3': 0, 'rot2': 0, 'state': 'normal', 'yaw': -9.16, 'datetime': '2018-10-12 19:28:23.883210', 'mgs': 0, 'depth': 0.012, 'time': 8.98, 'pitch': 1.92, 'roll': -1.53}
{'lipoC2': 8.2, 'temp': 28.31, 'lipoC3S3': 12.43, 'rot1': 636, 'rot0': 99, 'rot3': 0, 'rot2': 0, 'state': 'normal', 'yaw': -9.16, 'datetime': '2018-10-12 19:28:23.980324', 'mgs': 0, 'depth': 0.089, 'time': 9.08, 'pitch': 1.92, 'roll': -1.53}
{'lipoC2': 8.2, 'temp': 28.31, 'lipoC3S3': 12.43, 'rot1': 650, 'rot0': 101, 'rot3': 0, 'rot2': 0, 'state': 'normal', 'yaw': -9.16, 'datetime': '2018-10-12 19:28:24.078553', 'mgs': 0, 'depth': 0.012, 'time': 9.17, 'pitch': 1.92, 'roll': -1.53}
{'lipoC2': 8.19, 'temp': 28.31, 'lipoC3S3': 12.39, 'rot1': 664, 'rot0': 102, 'rot3': 0, 'rot2': 0, 'state': 'normal', 'yaw': -9.16, 'datetime': '2018-10-12 19:28:24.176724', 'mgs': 0, 'depth': -0.064, 'time': 9.27, 'pitch': 1.92, 'roll': -1.53}
{'lipoC2': 8.17, 'temp': 28.31, 'lipoC3S3': 12.41, 'rot1': 678, 'rot0': 103, 'rot3': 0, 'rot2': 0, 'state': 'normal', 'yaw': -9.16, 'datetime': '2018-10-12 19:28:24.275537', 'mgs': 0, 'depth': -0.064, 'time': 9.37, 'pitch': 1.92, 'roll': -1.53}
{'lipoC2': 8.17, 'temp': 28.38, 'lipoC3S3': 12.43, 'rot1': 691, 'rot0': 104, 'rot3': 0, 'rot2': 0, 'state': 'normal', 'yaw': -9.16, 'datetime': '2018-10-12 19:28:24.372669', 'mgs': 0, 'depth': -0.064, 'time': 9.47, 'pitch': 1.92, 'roll': -1.53}
{'lipoC2': 8.2, 'temp': 28.38, 'lipoC3S3': 12.43, 'rot1': 705, 'rot0': 105, 'rot3': 0, 'rot2': 0, 'state': 'normal', 'yaw': -9.16, 'datetime': '2018-10-12 19:28:24.469889', 'mgs': 0, 'depth': -0.522, 'time': 9.57, 'pitch': 1.92, 'roll': -1.53}
{'lipoC2': 8.19, 'temp': 28.38, 'lipoC3S3': 12.45, 'rot1': 719, 'rot0': 107, 'rot3': 0, 'rot2': 0, 'state': 'normal', 'yaw': -9.16, 'datetime': '2018-10-12 19:28:24.568337', 'mgs': 0, 'depth': 0.012, 'time': 9.66, 'pitch': 1.92, 'roll': -1.53}
{'lipoC2': 8.19, 'temp': 28.31, 'lipoC3S3': 12.43, 'rot1': 732, 'rot0': 108, 'rot3': 0, 'rot2': 0, 'state': 'normal', 'yaw': -9.16, 'datetime': '2018-10-12 19:28:24.665918', 'mgs': 0, 'depth': 0.699, 'time': 9.76, 'pitch': 1.92, 'roll': -1.53}
{'lipoC2': 8.19, 'temp': 28.31, 'lipoC3S3': 12.47, 'rot1': 746, 'rot0': 109, 'rot3': 0, 'rot2': 0, 'state': 'normal', 'yaw': -9.16, 'datetime': '2018-10-12 19:28:24.762709', 'mgs': 0, 'depth': -0.064, 'time': 9.86, 'pitch': 1.92, 'roll': -1.52}
{'lipoC2': 8.17, 'temp': 28.31, 'lipoC3S3': 12.43, 'rot1': 759, 'rot0': 110, 'rot3': 0, 'rot2': 0, 'state': 'normal', 'yaw': -9.06, 'datetime': '2018-10-12 19:28:24.859982', 'mgs': 0, 'depth': 0.623, 'time': 9.96, 'pitch': 1.92, 'roll': -1.5}
{'lipoC2': 8.19, 'temp': 28.31, 'lipoC3S3': 12.43, 'rot1': 773, 'rot0': 111, 'rot3': 0, 'rot2': 0, 'state': 'normal', 'yaw': -8.81, 'datetime': '2018-10-12 19:28:24.958581', 'mgs': 0, 'depth': 0.012, 'time': 10.06, 'pitch': 1.92, 'roll': -1.49}
{'lipoC2': 8.19, 'temp': 28.31, 'lipoC3S3': 12.38, 'rot1': 788, 'rot0': 112, 'rot3': 0, 'rot2': 0, 'state': 'normal', 'yaw': -7.84, 'datetime': '2018-10-12 19:28:25.057013', 'mgs': 0, 'depth': -0.064, 'time': 10.15, 'pitch': 1.92, 'roll': -1.51}
{'lipoC2': 8.17, 'temp': 28.31, 'lipoC3S3': 12.38, 'rot1': 801, 'rot0': 114, 'rot3': 0, 'rot2': 0, 'state': 'normal', 'yaw': -5.6, 'datetime': '2018-10-12 19:28:25.155065', 'mgs': 0, 'depth': -0.064, 'time': 10.25, 'pitch': 1.83, 'roll': -1.43}
{'lipoC2': 8.17, 'temp': 28.31, 'lipoC3S3': 12.45, 'rot1': 815, 'rot0': 115, 'rot3': 0, 'rot2': 0, 'state': 'normal', 'yaw': -2.56, 'datetime': '2018-10-12 19:28:25.251878', 'mgs': 0, 'depth': 0.012, 'time': 10.35, 'pitch': 1.71, 'roll': -1.34}
{'lipoC2': 8.19, 'temp': 28.31, 'lipoC3S3': 12.45, 'rot1': 833, 'rot0': 116, 'rot3': 0, 'rot2': 0, 'state': 'normal', 'yaw': 0.01, 'datetime': '2018-10-12 19:28:25.349983', 'mgs': 0, 'depth': -0.064, 'time': 10.45, 'pitch': 1.59, 'roll': -1.26}
{'lipoC2': 8.17, 'temp': 28.31, 'lipoC3S3': 12.45, 'rot1': 850, 'rot0': 117, 'rot3': 0, 'rot2': 0, 'state': 'normal', 'yaw': 1.55, 'datetime': '2018-10-12 19:28:25.448439', 'mgs': 0, 'depth': -0.064, 'time': 10.55, 'pitch': 1.53, 'roll': -1.22}
{'lipoC2': 8.19, 'temp': 28.31, 'lipoC3S3': 12.43, 'rot1': 868, 'rot0': 118, 'rot3': 0, 'rot2': 0, 'state': 'normal', 'yaw': 1.62, 'datetime': '2018-10-12 19:28:25.546886', 'mgs': 0, 'depth': 0.012, 'time': 10.64, 'pitch': 1.53, 'roll': -1.26}
{'lipoC2': 8.17, 'temp': 28.31, 'lipoC3S3': 12.41, 'rot1': 883, 'rot0': 120, 'rot3': 0, 'rot2': 0, 'state': 'normal', 'yaw': 1.62, 'datetime': '2018-10-12 19:28:25.644185', 'mgs': 0, 'depth': -0.064, 'time': 10.74, 'pitch': 1.52, 'roll': -1.23}
{'lipoC2': 8.17, 'temp': 28.31, 'lipoC3S3': 12.45, 'rot1': 894, 'rot0': 122, 'rot3': 0, 'rot2': 0, 'state': 'normal', 'yaw': 1.62, 'datetime': '2018-10-12 19:28:25.741539', 'mgs': 0, 'depth': 0.012, 'time': 10.84, 'pitch': 1.52, 'roll': -1.17}
{'lipoC2': 8.17, 'temp': 28.25, 'lipoC3S3': 12.45, 'rot1': 906, 'rot0': 124, 'rot3': 0, 'rot2': 0, 'state': 'normal', 'yaw': 1.62, 'datetime': '2018-10-12 19:28:25.839915', 'mgs': 0, 'depth': 0.394, 'time': 10.94, 'pitch': 1.52, 'roll': -1.17}
{'lipoC2': 8.2, 'temp': 28.25, 'lipoC3S3': 12.43, 'rot1': 918, 'rot0': 126, 'rot3': 0, 'rot2': 0, 'state': 'normal', 'yaw': 1.62, 'datetime': '2018-10-12 19:28:25.938600', 'mgs': 0, 'depth': 0.012, 'time': 11.04, 'pitch': 1.52, 'roll': -1.17}
{'lipoC2': 8.19, 'temp': 28.25, 'lipoC3S3': 12.43, 'rot1': 930, 'rot0': 127, 'rot3': 0, 'rot2': 0, 'state': 'normal', 'yaw': 1.62, 'datetime': '2018-10-12 19:28:26.036222', 'mgs': 0, 'depth': 0.317, 'time': 11.13, 'pitch': 1.52, 'roll': -1.2}
{'lipoC2': 8.17, 'temp': 28.31, 'lipoC3S3': 12.45, 'rot1': 941, 'rot0': 129, 'rot3': 0, 'rot2': 0, 'state': 'normal', 'yaw': 1.62, 'datetime': '2018-10-12 19:28:26.133524', 'mgs': 0, 'depth': -0.064, 'time': 11.23, 'pitch': 1.52, 'roll': -1.2}
{'lipoC2': 8.17, 'temp': 28.31, 'lipoC3S3': 12.41, 'rot1': 952, 'rot0': 131, 'rot3': 0, 'rot2': 0, 'state': 'normal', 'yaw': 1.62, 'datetime': '2018-10-12 19:28:26.231347', 'mgs': 0, 'depth': -0.064, 'time': 11.33, 'pitch': 1.52, 'roll': -1.2}
{'lipoC2': 8.17, 'temp': 28.31, 'lipoC3S3': 12.41, 'rot1': 964, 'rot0': 133, 'rot3': 0, 'rot2': 0, 'state': 'normal', 'yaw': 1.62, 'datetime': '2018-10-12 19:28:26.329917', 'mgs': 0, 'depth': -0.064, 'time': 11.43, 'pitch': 1.52, 'roll': -1.2}
{'lipoC2': 8.17, 'temp': 28.31, 'lipoC3S3': 12.47, 'rot1': 976, 'rot0': 135, 'rot3': 0, 'rot2': 0, 'state': 'normal', 'yaw': 1.62, 'datetime': '2018-10-12 19:28:26.428513', 'mgs': 0, 'depth': -0.064, 'time': 11.53, 'pitch': 1.52, 'roll': -1.2}
{'lipoC2': 8.17, 'temp': 28.31, 'lipoC3S3': 12.43, 'rot1': 988, 'rot0': 136, 'rot3': 0, 'rot2': 0, 'state': 'normal', 'yaw': 1.6, 'datetime': '2018-10-12 19:28:26.525909', 'mgs': 0, 'depth': -0.064, 'time': 11.62, 'pitch': 1.52, 'roll': -1.2}
{'lipoC2': 8.19, 'temp': 28.31, 'lipoC3S3': 12.39, 'rot1': 999, 'rot0': 138, 'rot3': 0, 'rot2': 0, 'state': 'normal', 'yaw': 1.44, 'datetime': '2018-10-12 19:28:26.623278', 'mgs': 0, 'depth': -0.064, 'time': 11.72, 'pitch': 1.52, 'roll': -1.21}
{'lipoC2': 8.17, 'temp': 28.31, 'lipoC3S3': 12.45, 'rot1': 1011, 'rot0': 140, 'rot3': 0, 'rot2': 0, 'state': 'normal', 'yaw': 1.21, 'datetime': '2018-10-12 19:28:26.720569', 'mgs': 0, 'depth': -0.064, 'time': 11.82, 'pitch': 1.51, 'roll': -1.27}
{'lipoC2': 8.19, 'temp': 28.31, 'lipoC3S3': 12.45, 'rot1': 1022, 'rot0': 142, 'rot3': 0, 'rot2': 0, 'state': 'normal', 'yaw': 0.63, 'datetime': '2018-10-12 19:28:26.817834', 'mgs': 0, 'depth': 0.546, 'time': 11.92, 'pitch': 1.51, 'roll': -1.26}
{'lipoC2': 8.17, 'temp': 28.31, 'lipoC3S3': 12.43, 'rot1': 1034, 'rot0': 143, 'rot3': 0, 'rot2': 0, 'state': 'normal', 'yaw': -0.18, 'datetime': '2018-10-12 19:28:26.915210', 'mgs': 0, 'depth': 0.012, 'time': 12.01, 'pitch': 1.52, 'roll': -1.26}
{'lipoC2': 8.19, 'temp': 28.31, 'lipoC3S3': 12.42, 'rot1': 1045, 'rot0': 145, 'rot3': 0, 'rot2': 0, 'state': 'normal', 'yaw': -0.36, 'datetime': '2018-10-12 19:28:27.012894', 'mgs': 0, 'depth': 0.012, 'time': 12.11, 'pitch': 1.53, 'roll': -1.21}
{'lipoC2': 8.17, 'temp': 28.31, 'lipoC3S3': 12.43, 'rot1': 1056, 'rot0': 147, 'rot3': 0, 'rot2': 0, 'state': 'normal', 'yaw': -0.36, 'datetime': '2018-10-12 19:28:27.111584', 'mgs': 0, 'depth': -0.064, 'time': 12.21, 'pitch': 1.55, 'roll': -1.1}
{'lipoC2': 8.17, 'temp': 28.31, 'lipoC3S3': 12.46, 'rot1': 1071, 'rot0': 149, 'rot3': 0, 'rot2': 0, 'state': 'normal', 'yaw': -0.36, 'datetime': '2018-10-12 19:28:27.210233', 'mgs': 0, 'depth': -0.064, 'time': 12.31, 'pitch': 1.55, 'roll': -1.23}
{'lipoC2': 8.19, 'temp': 28.31, 'lipoC3S3': 12.43, 'rot1': 1087, 'rot0': 151, 'rot3': 0, 'rot2': 0, 'state': 'normal', 'yaw': -0.36, 'datetime': '2018-10-12 19:28:27.308680', 'mgs': 0, 'depth': 0.012, 'time': 12.41, 'pitch': 1.56, 'roll': -1.15}
{'lipoC2': 8.19, 'temp': 28.31, 'lipoC3S3': 12.43, 'rot1': 1102, 'rot0': 153, 'rot3': 0, 'rot2': 0, 'state': 'normal', 'yaw': -0.35, 'datetime': '2018-10-12 19:28:27.405846', 'mgs': 0, 'depth': -0.064, 'time': 12.51, 'pitch': 1.56, 'roll': -1.19}
{'lipoC2': 8.17, 'temp': 28.31, 'lipoC3S3': 12.35, 'rot1': 1117, 'rot0': 154, 'rot3': 0, 'rot2': 0, 'state': 'normal', 'yaw': -0.36, 'datetime': '2018-10-12 19:28:27.503478', 'mgs': 0, 'depth': -0.064, 'time': 12.6, 'pitch': 1.56, 'roll': -1.19}
{'lipoC2': 8.17, 'temp': 28.31, 'lipoC3S3': 12.33, 'rot1': 1131, 'rot0': 156, 'rot3': 0, 'rot2': 0, 'state': 'normal', 'yaw': -0.34, 'datetime': '2018-10-12 19:28:27.602266', 'mgs': 0, 'depth': -0.064, 'time': 12.7, 'pitch': 1.56, 'roll': -1.15}
{'lipoC2': 8.19, 'temp': 28.31, 'lipoC3S3': 12.34, 'rot1': 1146, 'rot0': 158, 'rot3': 0, 'rot2': 0, 'state': 'normal', 'yaw': -0.35, 'datetime': '2018-10-12 19:28:27.700923', 'mgs': 0, 'depth': 0.012, 'time': 12.8, 'pitch': 1.56, 'roll': -1.19}
{'lipoC2': 8.17, 'temp': 28.31, 'lipoC3S3': 12.43, 'rot1': 1160, 'rot0': 160, 'rot3': 0, 'rot2': 0, 'state': 'normal', 'yaw': -0.37, 'datetime': '2018-10-12 19:28:27.799294', 'mgs': 0, 'depth': -0.064, 'time': 12.9, 'pitch': 1.56, 'roll': -1.12}
{'lipoC2': 8.21, 'temp': 28.31, 'lipoC3S3': 12.43, 'rot1': 1175, 'rot0': 162, 'rot3': 0, 'rot2': 0, 'state': 'normal', 'yaw': -0.37, 'datetime': '2018-10-12 19:28:27.896603', 'mgs': 0, 'depth': -0.064, 'time': 13.0, 'pitch': 1.56, 'roll': -1.16}
{'lipoC2': 8.2, 'temp': 28.31, 'lipoC3S3': 12.43, 'rot1': 1189, 'rot0': 164, 'rot3': 0, 'rot2': 0, 'state': 'normal', 'yaw': -0.38, 'datetime': '2018-10-12 19:28:27.994186', 'mgs': 0, 'depth': -0.217, 'time': 13.09, 'pitch': 1.56, 'roll': -1.12}
{'lipoC2': 8.2, 'temp': 28.31, 'lipoC3S3': 12.42, 'rot1': 1205, 'rot0': 165, 'rot3': 0, 'rot2': 0, 'state': 'normal', 'yaw': -0.38, 'datetime': '2018-10-12 19:28:28.092785', 'mgs': 0, 'depth': -0.217, 'time': 13.19, 'pitch': 1.56, 'roll': -1.14}
{'lipoC2': 8.2, 'temp': 28.31, 'lipoC3S3': 12.43, 'rot1': 1220, 'rot0': 167, 'rot3': 0, 'rot2': 0, 'state': 'normal', 'yaw': -0.38, 'datetime': '2018-10-12 19:28:28.191432', 'mgs': 0, 'depth': 0.089, 'time': 13.29, 'pitch': 1.56, 'roll': -1.13}
{'lipoC2': 8.19, 'temp': 28.31, 'lipoC3S3': 12.43, 'rot1': 1235, 'rot0': 169, 'rot3': 0, 'rot2': 0, 'state': 'normal', 'yaw': -0.38, 'datetime': '2018-10-12 19:28:28.289335', 'mgs': 0, 'depth': 0.089, 'time': 13.39, 'pitch': 1.56, 'roll': -1.14}
{'lipoC2': 8.19, 'temp': 28.31, 'lipoC3S3': 12.42, 'rot1': 1250, 'rot0': 171, 'rot3': 0, 'rot2': 0, 'state': 'normal', 'yaw': -0.39, 'datetime': '2018-10-12 19:28:28.386778', 'mgs': 0, 'depth': -0.064, 'time': 13.49, 'pitch': 1.56, 'roll': -1.14}
{'lipoC2': 8.17, 'temp': 28.31, 'lipoC3S3': 12.42, 'rot1': 1265, 'rot0': 173, 'rot3': 0, 'rot2': 0, 'state': 'normal', 'yaw': -0.41, 'datetime': '2018-10-12 19:28:28.484517', 'mgs': 0, 'depth': 1.233, 'time': 13.59, 'pitch': 1.56, 'roll': -1.13}
{'lipoC2': 8.19, 'temp': 28.31, 'lipoC3S3': 12.43, 'rot1': 1280, 'rot0': 174, 'rot3': 0, 'rot2': 0, 'state': 'normal', 'yaw': -0.41, 'datetime': '2018-10-12 19:28:28.583430', 'mgs': 0, 'depth': 0.851, 'time': 13.68, 'pitch': 1.56, 'roll': -1.14}
{'lipoC2': 8.17, 'temp': 28.31, 'lipoC3S3': 12.43, 'rot1': 1294, 'rot0': 176, 'rot3': 0, 'rot2': 0, 'state': 'normal', 'yaw': -0.4, 'datetime': '2018-10-12 19:28:28.681775', 'mgs': 0, 'depth': 0.394, 'time': 13.78, 'pitch': 1.56, 'roll': -1.13}
{'lipoC2': 8.17, 'temp': 28.31, 'lipoC3S3': 12.43, 'rot1': 1309, 'rot0': 178, 'rot3': 0, 'rot2': 0, 'state': 'normal', 'yaw': -0.4, 'datetime': '2018-10-12 19:28:28.780057', 'mgs': 0, 'depth': -0.064, 'time': 13.88, 'pitch': 1.56, 'roll': -1.13}
{'lipoC2': 8.2, 'temp': 28.31, 'lipoC3S3': 12.42, 'rot1': 1323, 'rot0': 180, 'rot3': 0, 'rot2': 0, 'state': 'normal', 'yaw': -0.43, 'datetime': '2018-10-12 19:28:28.877190', 'mgs': 0, 'depth': -0.14, 'time': 13.98, 'pitch': 1.56, 'roll': -1.13}
{'lipoC2': 8.19, 'temp': 28.31, 'lipoC3S3': 12.43, 'rot1': 1338, 'rot0': 181, 'rot3': 0, 'rot2': 0, 'state': 'normal', 'yaw': -0.41, 'datetime': '2018-10-12 19:28:28.975215', 'mgs': 0, 'depth': 0.012, 'time': 14.08, 'pitch': 1.56, 'roll': -1.13}
{'lipoC2': 8.2, 'temp': 28.31, 'lipoC3S3': 12.43, 'rot1': 1353, 'rot0': 183, 'rot3': 0, 'rot2': 0, 'state': 'normal', 'yaw': -0.43, 'datetime': '2018-10-12 19:28:29.072487', 'mgs': 0, 'depth': -0.522, 'time': 14.17, 'pitch': 1.56, 'roll': -1.13}
{'lipoC2': 8.17, 'temp': 28.31, 'lipoC3S3': 12.45, 'rot1': 1367, 'rot0': 185, 'rot3': 0, 'rot2': 0, 'state': 'normal', 'yaw': -0.44, 'datetime': '2018-10-12 19:28:29.169875', 'mgs': 0, 'depth': 0.012, 'time': 14.27, 'pitch': 1.56, 'roll': -1.13}
{'lipoC2': 8.19, 'temp': 28.31, 'lipoC3S3': 12.43, 'rot1': 1382, 'rot0': 187, 'rot3': 0, 'rot2': 0, 'state': 'normal', 'yaw': -0.45, 'datetime': '2018-10-12 19:28:29.272301', 'mgs': 0, 'depth': 1.385, 'time': 14.37, 'pitch': 1.56, 'roll': -1.12}
{'lipoC2': 8.2, 'temp': 28.31, 'lipoC3S3': 12.39, 'rot1': 1398, 'rot0': 189, 'rot3': 0, 'rot2': 0, 'state': 'normal', 'yaw': -0.45, 'datetime': '2018-10-12 19:28:29.370703', 'mgs': 0, 'depth': 1.157, 'time': 14.47, 'pitch': 1.56, 'roll': -1.12}
{'lipoC2': 8.21, 'temp': 28.31, 'lipoC3S3': 12.39, 'rot1': 1415, 'rot0': 190, 'rot3': 0, 'rot2': 1, 'state': 'normal', 'yaw': -0.45, 'datetime': '2018-10-12 19:28:29.469337', 'mgs': 0, 'depth': 0.241, 'time': 14.57, 'pitch': 1.56, 'roll': -1.12}
{'lipoC2': 8.2, 'temp': 28.31, 'lipoC3S3': 12.37, 'rot1': 1430, 'rot0': 192, 'rot3': 0, 'rot2': 1, 'state': 'normal', 'yaw': -0.45, 'datetime': '2018-10-12 19:28:29.567999', 'mgs': 0, 'depth': -0.751, 'time': 14.66, 'pitch': 1.56, 'roll': -1.12}
{'lipoC2': 8.19, 'temp': 28.31, 'lipoC3S3': 12.43, 'rot1': 1445, 'rot0': 194, 'rot3': 1, 'rot2': 2, 'state': 'normal', 'yaw': -0.45, 'datetime': '2018-10-12 19:28:29.665264', 'mgs': 0, 'depth': 0.012, 'time': 14.76, 'pitch': 1.56, 'roll': -1.12}
{'lipoC2': 8.17, 'temp': 28.31, 'lipoC3S3': 12.43, 'rot1': 1459, 'rot0': 196, 'rot3': 1, 'rot2': 2, 'state': 'normal', 'yaw': -0.45, 'datetime': '2018-10-12 19:28:29.762504', 'mgs': 0, 'depth': 1.385, 'time': 14.86, 'pitch': 1.56, 'roll': -1.12}
{'lipoC2': 8.17, 'temp': 28.31, 'lipoC3S3': 12.43, 'rot1': 1473, 'rot0': 198, 'rot3': 1, 'rot2': 2, 'state': 'normal', 'yaw': -0.45, 'datetime': '2018-10-12 19:28:29.861146', 'mgs': 0, 'depth': 0.851, 'time': 14.96, 'pitch': 1.56, 'roll': -1.12}
{'lipoC2': 8.17, 'temp': 28.38, 'lipoC3S3': 12.42, 'rot1': 1487, 'rot0': 200, 'rot3': 1, 'rot2': 2, 'state': 'normal', 'yaw': -0.46, 'datetime': '2018-10-12 19:28:29.959693', 'mgs': 0, 'depth': 0.775, 'time': 15.06, 'pitch': 1.56, 'roll': -1.12}
{'lipoC2': 8.17, 'temp': 28.38, 'lipoC3S3': 12.37, 'rot1': 1501, 'rot0': 202, 'rot3': 1, 'rot2': 2, 'state': 'normal', 'yaw': -0.46, 'datetime': '2018-10-12 19:28:30.058250', 'mgs': 0, 'depth': -0.064, 'time': 15.15, 'pitch': 1.56, 'roll': -1.12}
{'lipoC2': 8.19, 'temp': 28.38, 'lipoC3S3': 12.43, 'rot1': 1516, 'rot0': 204, 'rot3': 1, 'rot2': 2, 'state': 'normal', 'yaw': -0.47, 'datetime': '2018-10-12 19:28:30.155641', 'mgs': 0, 'depth': -0.064, 'time': 15.25, 'pitch': 1.56, 'roll': -1.12}
{'lipoC2': 8.17, 'temp': 28.31, 'lipoC3S3': 12.43, 'rot1': 1530, 'rot0': 206, 'rot3': 1, 'rot2': 2, 'state': 'normal', 'yaw': -0.49, 'datetime': '2018-10-12 19:28:30.253052', 'mgs': 0, 'depth': 1.233, 'time': 15.35, 'pitch': 1.56, 'roll': -1.12}
{'lipoC2': 8.19, 'temp': 28.31, 'lipoC3S3': 12.43, 'rot1': 1544, 'rot0': 207, 'rot3': 1, 'rot2': 2, 'state': 'normal', 'yaw': -0.49, 'datetime': '2018-10-12 19:28:30.351565', 'mgs': 0, 'depth': 0.851, 'time': 15.45, 'pitch': 1.56, 'roll': -1.12}
{'lipoC2': 8.19, 'temp': 28.31, 'lipoC3S3': 12.42, 'rot1': 1557, 'rot0': 209, 'rot3': 1, 'rot2': 2, 'state': 'normal', 'yaw': -0.5, 'datetime': '2018-10-12 19:28:30.450133', 'mgs': 0, 'depth': 1.004, 'time': 15.55, 'pitch': 1.55, 'roll': -1.12}
{'lipoC2': 8.17, 'temp': 28.31, 'lipoC3S3': 12.35, 'rot1': 1571, 'rot0': 211, 'rot3': 1, 'rot2': 2, 'state': 'normal', 'yaw': -0.5, 'datetime': '2018-10-12 19:28:30.548452', 'mgs': 0, 'depth': 0.012, 'time': 15.65, 'pitch': 1.55, 'roll': -1.12}
{'lipoC2': 8.19, 'temp': 28.31, 'lipoC3S3': 12.43, 'rot1': 1585, 'rot0': 213, 'rot3': 1, 'rot2': 2, 'state': 'normal', 'yaw': -0.51, 'datetime': '2018-10-12 19:28:30.645851', 'mgs': 0, 'depth': -0.14, 'time': 15.74, 'pitch': 1.55, 'roll': -1.12}
{'lipoC2': 8.17, 'temp': 28.31, 'lipoC3S3': 12.43, 'rot1': 1599, 'rot0': 214, 'rot3': 1, 'rot2': 2, 'state': 'normal', 'yaw': -0.51, 'datetime': '2018-10-12 19:28:30.743303', 'mgs': 0, 'depth': 0.012, 'time': 15.84, 'pitch': 1.55, 'roll': -1.12}
{'lipoC2': 8.19, 'temp': 28.31, 'lipoC3S3': 12.43, 'rot1': 1613, 'rot0': 216, 'rot3': 1, 'rot2': 2, 'state': 'normal', 'yaw': -0.51, 'datetime': '2018-10-12 19:28:30.836968', 'mgs': 0, 'depth': 0.089, 'time': 15.94, 'pitch': 1.55, 'roll': -1.11}
{'lipoC2': 8.19, 'temp': 28.31, 'lipoC3S3': 12.43, 'rot1': 1627, 'rot0': 218, 'rot3': 1, 'rot2': 2, 'state': 'normal', 'yaw': -0.51, 'datetime': '2018-10-12 19:28:30.935548', 'mgs': 0, 'depth': 1.385, 'time': 16.04, 'pitch': 1.55, 'roll': -1.11}
{'lipoC2': 8.17, 'temp': 28.31, 'lipoC3S3': 12.43, 'rot1': 1640, 'rot0': 220, 'rot3': 1, 'rot2': 2, 'state': 'normal', 'yaw': -0.51, 'datetime': '2018-10-12 19:28:31.038217', 'mgs': 0, 'depth': 1.233, 'time': 16.14, 'pitch': 1.55, 'roll': -1.11}
{'lipoC2': 8.17, 'temp': 28.31, 'lipoC3S3': 12.35, 'rot1': 1654, 'rot0': 222, 'rot3': 1, 'rot2': 2, 'state': 'normal', 'yaw': -0.51, 'datetime': '2018-10-12 19:28:31.135739', 'mgs': 0, 'depth': -0.064, 'time': 16.23, 'pitch': 1.55, 'roll': -1.11}
{'lipoC2': 8.19, 'temp': 28.38, 'lipoC3S3': 12.43, 'rot1': 1668, 'rot0': 224, 'rot3': 1, 'rot2': 2, 'state': 'normal', 'yaw': -0.51, 'datetime': '2018-10-12 19:28:31.233660', 'mgs': 0, 'depth': 0.012, 'time': 16.33, 'pitch': 1.55, 'roll': -1.11}
{'lipoC2': 8.17, 'temp': 28.38, 'lipoC3S3': 12.43, 'rot1': 1682, 'rot0': 225, 'rot3': 1, 'rot2': 2, 'state': 'normal', 'yaw': -0.52, 'datetime': '2018-10-12 19:28:31.331191', 'mgs': 0, 'depth': 0.699, 'time': 16.43, 'pitch': 1.55, 'roll': -1.11}
{'lipoC2': 8.17, 'temp': 28.38, 'lipoC3S3': 12.42, 'rot1': 1695, 'rot0': 227, 'rot3': 1, 'rot2': 2, 'state': 'normal', 'yaw': -0.52, 'datetime': '2018-10-12 19:28:31.428685', 'mgs': 0, 'depth': -0.064, 'time': 16.53, 'pitch': 1.55, 'roll': -1.11}
{'lipoC2': 8.19, 'temp': 28.38, 'lipoC3S3': 12.43, 'rot1': 1710, 'rot0': 229, 'rot3': 1, 'rot2': 2, 'state': 'normal', 'yaw': -0.52, 'datetime': '2018-10-12 19:28:31.525975', 'mgs': 0, 'depth': 0.012, 'time': 16.62, 'pitch': 1.55, 'roll': -1.11}
{'lipoC2': 8.17, 'temp': 28.31, 'lipoC3S3': 12.43, 'rot1': 1723, 'rot0': 231, 'rot3': 1, 'rot2': 2, 'state': 'normal', 'yaw': -0.54, 'datetime': '2018-10-12 19:28:31.624555', 'mgs': 0, 'depth': 0.012, 'time': 16.72, 'pitch': 1.55, 'roll': -1.11}
{'lipoC2': 8.17, 'temp': 28.31, 'lipoC3S3': 12.43, 'rot1': 1738, 'rot0': 232, 'rot3': 1, 'rot2': 2, 'state': 'normal', 'yaw': -0.54, 'datetime': '2018-10-12 19:28:31.723100', 'mgs': 0, 'depth': -0.14, 'time': 16.82, 'pitch': 1.55, 'roll': -1.11}
{'lipoC2': 8.17, 'temp': 28.31, 'lipoC3S3': 12.43, 'rot1': 1751, 'rot0': 234, 'rot3': 1, 'rot2': 2, 'state': 'normal', 'yaw': -0.54, 'datetime': '2018-10-12 19:28:31.821923', 'mgs': 0, 'depth': -0.14, 'time': 16.92, 'pitch': 1.55, 'roll': -1.11}
{'lipoC2': 8.2, 'temp': 28.31, 'lipoC3S3': 12.41, 'rot1': 1765, 'rot0': 236, 'rot3': 1, 'rot2': 2, 'state': 'normal', 'yaw': -0.54, 'datetime': '2018-10-12 19:28:31.919203', 'mgs': 0, 'depth': 0.012, 'time': 17.02, 'pitch': 1.55, 'roll': -1.11}
{'lipoC2': 8.19, 'temp': 28.31, 'lipoC3S3': 12.45, 'rot1': 1779, 'rot0': 238, 'rot3': 1, 'rot2': 2, 'state': 'normal', 'yaw': -0.54, 'datetime': '2018-10-12 19:28:32.016494', 'mgs': 0, 'depth': 0.012, 'time': 17.12, 'pitch': 1.55, 'roll': -1.11}
{'lipoC2': 8.19, 'temp': 28.38, 'lipoC3S3': 12.42, 'rot1': 1793, 'rot0': 240, 'rot3': 1, 'rot2': 2, 'state': 'normal', 'yaw': -0.54, 'datetime': '2018-10-12 19:28:32.114938', 'mgs': 0, 'depth': 0.089, 'time': 17.21, 'pitch': 1.55, 'roll': -1.11}
{'lipoC2': 8.19, 'temp': 28.38, 'lipoC3S3': 12.43, 'rot1': 1807, 'rot0': 242, 'rot3': 1, 'rot2': 2, 'state': 'normal', 'yaw': -0.54, 'datetime': '2018-10-12 19:28:32.214071', 'mgs': 0, 'depth': 0.012, 'time': 17.31, 'pitch': 1.55, 'roll': -1.11}
{'lipoC2': 8.19, 'temp': 28.38, 'lipoC3S3': 12.43, 'rot1': 1821, 'rot0': 243, 'rot3': 1, 'rot2': 2, 'state': 'normal', 'yaw': -0.54, 'datetime': '2018-10-12 19:28:32.312049', 'mgs': 0, 'depth': 1.233, 'time': 17.41, 'pitch': 1.55, 'roll': -1.11}
{'lipoC2': 8.17, 'temp': 28.31, 'lipoC3S3': 12.35, 'rot1': 1835, 'rot0': 245, 'rot3': 1, 'rot2': 2, 'state': 'normal', 'yaw': -0.54, 'datetime': '2018-10-12 19:28:32.409548', 'mgs': 0, 'depth': -0.064, 'time': 17.51, 'pitch': 1.55, 'roll': -1.11}
{'lipoC2': 8.17, 'temp': 28.31, 'lipoC3S3': 12.43, 'rot1': 1848, 'rot0': 247, 'rot3': 1, 'rot2': 2, 'state': 'normal', 'yaw': -0.56, 'datetime': '2018-10-12 19:28:32.501686', 'mgs': 0, 'depth': 0.012, 'time': 17.61, 'pitch': 1.55, 'roll': -1.11}
{'lipoC2': 8.17, 'temp': 28.31, 'lipoC3S3': 12.43, 'rot1': 1862, 'rot0': 249, 'rot3': 1, 'rot2': 2, 'state': 'normal', 'yaw': -0.56, 'datetime': '2018-10-12 19:28:32.600434', 'mgs': 0, 'depth': -0.064, 'time': 17.7, 'pitch': 1.55, 'roll': -1.11}
{'lipoC2': 8.17, 'temp': 28.31, 'lipoC3S3': 12.43, 'rot1': 1876, 'rot0': 250, 'rot3': 1, 'rot2': 2, 'state': 'normal', 'yaw': -0.58, 'datetime': '2018-10-12 19:28:32.699197', 'mgs': 0, 'depth': -0.064, 'time': 17.8, 'pitch': 1.55, 'roll': -1.11}
{'lipoC2': 8.19, 'temp': 28.31, 'lipoC3S3': 12.45, 'rot1': 1884, 'rot0': 251, 'rot3': 1, 'rot2': 2, 'state': 'normal', 'yaw': -0.57, 'datetime': '2018-10-12 19:28:32.802462', 'mgs': 0, 'depth': -0.064, 'time': 17.9, 'pitch': 1.55, 'roll': -1.11}
