{'lipoC2': 7.93, 'temp': 25.44, 'lipoC3S3': 11.98, 'rot1': 0, 'rot0': 0, 'rot3': 0, 'rot2': 0, 'state': 'normal', 'yaw': 0.0, 'datetime': '2018-10-12 13:29:58.344858', 'mgs': 0, 'depth': 1.843, 'time': 1.26, 'pitch': -0.43, 'roll': -7.85}
{'lipoC2': 7.93, 'temp': 25.44, 'lipoC3S3': 11.98, 'rot1': 0, 'rot0': 0, 'rot3': 0, 'rot2': 0, 'state': 'normal', 'yaw': 0.01, 'datetime': '2018-10-12 13:29:58.361666', 'mgs': 0, 'depth': 1.92, 'time': 1.36, 'pitch': -0.4, 'roll': -7.29}
{'lipoC2': 7.93, 'temp': 25.44, 'lipoC3S3': 11.98, 'rot1': 0, 'rot0': 0, 'rot3': 0, 'rot2': 0, 'state': 'normal', 'yaw': 0.0, 'datetime': '2018-10-12 13:29:58.378410', 'mgs': 0, 'depth': 1.92, 'time': 1.45, 'pitch': -0.42, 'roll': -6.51}
{'lipoC2': 7.93, 'temp': 25.38, 'lipoC3S3': 11.98, 'rot1': 0, 'rot0': 0, 'rot3': 0, 'rot2': 0, 'state': 'normal', 'yaw': 0.0, 'datetime': '2018-10-12 13:29:58.395202', 'mgs': 0, 'depth': 1.92, 'time': 1.55, 'pitch': -0.44, 'roll': -5.43}
{'lipoC2': 7.93, 'temp': 25.38, 'lipoC3S3': 11.98, 'rot1': 0, 'rot0': 0, 'rot3': 0, 'rot2': 0, 'state': 'normal', 'yaw': 0.0, 'datetime': '2018-10-12 13:29:58.412204', 'mgs': 0, 'depth': 1.92, 'time': 1.65, 'pitch': -0.45, 'roll': -4.25}
{'lipoC2': 7.93, 'temp': 25.44, 'lipoC3S3': 11.97, 'rot1': 0, 'rot0': 0, 'rot3': 0, 'rot2': 0, 'state': 'normal', 'yaw': -0.06, 'datetime': '2018-10-12 13:29:58.424520', 'mgs': 0, 'depth': 1.92, 'time': 1.75, 'pitch': -0.51, 'roll': -3.5}
{'lipoC2': 7.93, 'temp': 25.44, 'lipoC3S3': 11.97, 'rot1': 0, 'rot0': 0, 'rot3': 0, 'rot2': 0, 'state': 'normal', 'yaw': -0.16, 'datetime': '2018-10-12 13:29:58.431853', 'mgs': 0, 'depth': 1.843, 'time': 1.84, 'pitch': -0.58, 'roll': -3.85}
{'lipoC2': 7.93, 'temp': 25.44, 'lipoC3S3': 11.98, 'rot1': 0, 'rot0': 0, 'rot3': 0, 'rot2': 0, 'state': 'normal', 'yaw': -0.22, 'datetime': '2018-10-12 13:29:58.439090', 'mgs': 0, 'depth': 1.92, 'time': 1.94, 'pitch': -0.57, 'roll': -4.9}
{'lipoC2': 7.92, 'temp': 25.44, 'lipoC3S3': 11.97, 'rot1': 0, 'rot0': 0, 'rot3': 0, 'rot2': 0, 'state': 'normal', 'yaw': -0.31, 'datetime': '2018-10-12 13:29:58.446355', 'mgs': 0, 'depth': 1.92, 'time': 2.04, 'pitch': -0.51, 'roll': -5.73}
{'lipoC2': 7.93, 'temp': 25.44, 'lipoC3S3': 11.98, 'rot1': 0, 'rot0': 0, 'rot3': 0, 'rot2': 0, 'state': 'normal', 'yaw': -0.39, 'datetime': '2018-10-12 13:29:58.453665', 'mgs': 0, 'depth': 1.92, 'time': 2.13, 'pitch': -0.46, 'roll': -6.14}
{'lipoC2': 7.93, 'temp': 25.44, 'lipoC3S3': 11.98, 'rot1': 0, 'rot0': 0, 'rot3': 0, 'rot2': 0, 'state': 'normal', 'yaw': -0.47, 'datetime': '2018-10-12 13:29:58.460958', 'mgs': 0, 'depth': 1.92, 'time': 2.23, 'pitch': -0.48, 'roll': -6.2}
{'lipoC2': 7.93, 'temp': 25.44, 'lipoC3S3': 11.97, 'rot1': 0, 'rot0': 0, 'rot3': 0, 'rot2': 0, 'state': 'normal', 'yaw': -0.47, 'datetime': '2018-10-12 13:29:58.525588', 'mgs': 0, 'depth': 1.92, 'time': 2.33, 'pitch': -0.48, 'roll': -5.94}
{'lipoC2': 7.93, 'temp': 25.38, 'lipoC3S3': 11.97, 'rot1': 0, 'rot0': 0, 'rot3': 0, 'rot2': 0, 'state': 'normal', 'yaw': -0.48, 'datetime': '2018-10-12 13:29:58.623230', 'mgs': 0, 'depth': 1.92, 'time': 2.43, 'pitch': -0.47, 'roll': -5.79}
{'lipoC2': 7.93, 'temp': 25.38, 'lipoC3S3': 11.98, 'rot1': 0, 'rot0': 0, 'rot3': 0, 'rot2': 0, 'state': 'normal', 'yaw': -0.32, 'datetime': '2018-10-12 13:29:58.720263', 'mgs': 0, 'depth': 1.92, 'time': 2.52, 'pitch': -0.34, 'roll': -6.12}
{'lipoC2': 7.93, 'temp': 25.38, 'lipoC3S3': 11.98, 'rot1': 0, 'rot0': 0, 'rot3': 0, 'rot2': 0, 'state': 'normal', 'yaw': 0.3, 'datetime': '2018-10-12 13:29:58.817286', 'mgs': 0, 'depth': 1.92, 'time': 2.62, 'pitch': 0.09, 'roll': -6.98}
{'lipoC2': 7.93, 'temp': 25.38, 'lipoC3S3': 11.98, 'rot1': 0, 'rot0': 0, 'rot3': 0, 'rot2': 0, 'state': 'normal', 'yaw': 1.1, 'datetime': '2018-10-12 13:29:58.914329', 'mgs': 0, 'depth': 1.92, 'time': 2.72, 'pitch': 0.57, 'roll': -7.75}
{'lipoC2': 7.93, 'temp': 25.38, 'lipoC3S3': 12.0, 'rot1': 0, 'rot0': 0, 'rot3': 0, 'rot2': 0, 'state': 'normal', 'yaw': 1.83, 'datetime': '2018-10-12 13:29:59.012639', 'mgs': 0, 'depth': 1.843, 'time': 2.82, 'pitch': 0.89, 'roll': -8.02}
{'lipoC2': 7.93, 'temp': 25.44, 'lipoC3S3': 11.98, 'rot1': 0, 'rot0': 0, 'rot3': 0, 'rot2': 0, 'state': 'normal', 'yaw': 3.29, 'datetime': '2018-10-12 13:29:59.110354', 'mgs': 0, 'depth': 1.92, 'time': 2.91, 'pitch': 1.42, 'roll': -8.34}
{'lipoC2': 7.93, 'temp': 25.44, 'lipoC3S3': 11.97, 'rot1': 0, 'rot0': 0, 'rot3': 0, 'rot2': 0, 'state': 'normal', 'yaw': 6.12, 'datetime': '2018-10-12 13:29:59.212706', 'mgs': 0, 'depth': 1.767, 'time': 3.01, 'pitch': 2.98, 'roll': -9.35}
{'lipoC2': 7.93, 'temp': 25.44, 'lipoC3S3': 11.98, 'rot1': 0, 'rot0': 0, 'rot3': 0, 'rot2': 0, 'state': 'normal', 'yaw': 9.36, 'datetime': '2018-10-12 13:29:59.309832', 'mgs': 0, 'depth': 1.843, 'time': 3.11, 'pitch': 4.6, 'roll': -10.85}
{'lipoC2': 7.93, 'temp': 25.38, 'lipoC3S3': 11.98, 'rot1': 0, 'rot0': 0, 'rot3': 0, 'rot2': 0, 'state': 'normal', 'yaw': 12.39, 'datetime': '2018-10-12 13:29:59.408151', 'mgs': 0, 'depth': 1.691, 'time': 3.21, 'pitch': 5.9, 'roll': -11.75}
{'lipoC2': 7.92, 'temp': 25.38, 'lipoC3S3': 11.97, 'rot1': 0, 'rot0': 0, 'rot3': 0, 'rot2': 0, 'state': 'normal', 'yaw': 15.59, 'datetime': '2018-10-12 13:29:59.505478', 'mgs': 0, 'depth': 1.767, 'time': 3.3, 'pitch': 6.89, 'roll': -12.04}
{'lipoC2': 7.93, 'temp': 25.44, 'lipoC3S3': 11.98, 'rot1': 0, 'rot0': 0, 'rot3': 0, 'rot2': 0, 'state': 'normal', 'yaw': 18.53, 'datetime': '2018-10-12 13:29:59.602540', 'mgs': 0, 'depth': 1.691, 'time': 3.4, 'pitch': 7.33, 'roll': -11.69}
{'lipoC2': 7.93, 'temp': 25.44, 'lipoC3S3': 11.98, 'rot1': 0, 'rot0': 0, 'rot3': 0, 'rot2': 0, 'state': 'normal', 'yaw': 20.75, 'datetime': '2018-10-12 13:29:59.700304', 'mgs': 0, 'depth': 1.691, 'time': 3.5, 'pitch': 7.12, 'roll': -11.11}
{'lipoC2': 7.92, 'temp': 25.44, 'lipoC3S3': 11.98, 'rot1': 0, 'rot0': 0, 'rot3': 0, 'rot2': 0, 'state': 'normal', 'yaw': 22.9, 'datetime': '2018-10-12 13:29:59.797270', 'mgs': 0, 'depth': 1.691, 'time': 3.6, 'pitch': 6.54, 'roll': -10.29}
{'lipoC2': 7.93, 'temp': 25.44, 'lipoC3S3': 11.97, 'rot1': 0, 'rot0': 0, 'rot3': 0, 'rot2': 0, 'state': 'normal', 'yaw': 24.74, 'datetime': '2018-10-12 13:29:59.894338', 'mgs': 0, 'depth': 1.691, 'time': 3.69, 'pitch': 5.75, 'roll': -9.33}
{'lipoC2': 7.93, 'temp': 25.44, 'lipoC3S3': 11.97, 'rot1': 0, 'rot0': 0, 'rot3': 0, 'rot2': 0, 'state': 'normal', 'yaw': 26.32, 'datetime': '2018-10-12 13:29:59.991574', 'mgs': 0, 'depth': 1.691, 'time': 3.79, 'pitch': 4.93, 'roll': -8.35}
{'lipoC2': 7.93, 'temp': 25.38, 'lipoC3S3': 11.98, 'rot1': 0, 'rot0': 0, 'rot3': 0, 'rot2': 0, 'state': 'normal', 'yaw': 27.53, 'datetime': '2018-10-12 13:30:00.088451', 'mgs': 0, 'depth': 1.614, 'time': 3.89, 'pitch': 4.25, 'roll': -7.5}
{'lipoC2': 7.93, 'temp': 25.38, 'lipoC3S3': 11.98, 'rot1': 0, 'rot0': 0, 'rot3': 0, 'rot2': 0, 'state': 'normal', 'yaw': 28.65, 'datetime': '2018-10-12 13:30:00.185523', 'mgs': 0, 'depth': 1.691, 'time': 3.98, 'pitch': 3.65, 'roll': -6.67}
{'lipoC2': 7.93, 'temp': 25.38, 'lipoC3S3': 11.98, 'rot1': 0, 'rot0': 0, 'rot3': 0, 'rot2': 0, 'state': 'normal', 'yaw': 29.48, 'datetime': '2018-10-12 13:30:00.282483', 'mgs': 0, 'depth': 1.691, 'time': 4.08, 'pitch': 3.19, 'roll': -6.01}
{'lipoC2': 7.93, 'temp': 25.44, 'lipoC3S3': 11.97, 'rot1': 0, 'rot0': 0, 'rot3': 0, 'rot2': 0, 'state': 'normal', 'yaw': 29.95, 'datetime': '2018-10-12 13:30:00.379467', 'mgs': 0, 'depth': 1.614, 'time': 4.18, 'pitch': 2.9, 'roll': -5.6}
{'lipoC2': 7.93, 'temp': 25.44, 'lipoC3S3': 11.97, 'rot1': 0, 'rot0': 0, 'rot3': 0, 'rot2': 0, 'state': 'normal', 'yaw': 30.28, 'datetime': '2018-10-12 13:30:00.476521', 'mgs': 0, 'depth': 1.614, 'time': 4.28, 'pitch': 2.73, 'roll': -5.23}
{'lipoC2': 7.93, 'temp': 25.44, 'lipoC3S3': 11.98, 'rot1': 0, 'rot0': 0, 'rot3': 0, 'rot2': 0, 'state': 'normal', 'yaw': 30.5, 'datetime': '2018-10-12 13:30:00.568920', 'mgs': 0, 'depth': 1.614, 'time': 4.37, 'pitch': 2.62, 'roll': -5.09}
{'lipoC2': 7.93, 'temp': 25.44, 'lipoC3S3': 11.98, 'rot1': 0, 'rot0': 0, 'rot3': 0, 'rot2': 0, 'state': 'normal', 'yaw': 30.56, 'datetime': '2018-10-12 13:30:00.666892', 'mgs': 0, 'depth': 1.538, 'time': 4.47, 'pitch': 2.32, 'roll': -5.04}
{'lipoC2': 7.93, 'temp': 25.44, 'lipoC3S3': 11.98, 'rot1': 0, 'rot0': 0, 'rot3': 0, 'rot2': 0, 'state': 'normal', 'yaw': 30.62, 'datetime': '2018-10-12 13:30:00.765213', 'mgs': 0, 'depth': 1.614, 'time': 4.57, 'pitch': 1.76, 'roll': -5.09}
{'lipoC2': 7.93, 'temp': 25.44, 'lipoC3S3': 11.98, 'rot1': 0, 'rot0': 0, 'rot3': 0, 'rot2': 0, 'state': 'normal', 'yaw': 30.6, 'datetime': '2018-10-12 13:30:00.862249', 'mgs': 0, 'depth': 1.538, 'time': 4.67, 'pitch': 1.06, 'roll': -4.96}
{'lipoC2': 7.93, 'temp': 25.44, 'lipoC3S3': 11.98, 'rot1': 0, 'rot0': 0, 'rot3': 0, 'rot2': 0, 'state': 'normal', 'yaw': 30.26, 'datetime': '2018-10-12 13:30:00.959249', 'mgs': 0, 'depth': 1.614, 'time': 4.76, 'pitch': 0.14, 'roll': -4.92}
{'lipoC2': 7.93, 'temp': 25.44, 'lipoC3S3': 11.98, 'rot1': 0, 'rot0': 0, 'rot3': 0, 'rot2': 0, 'state': 'normal', 'yaw': 29.59, 'datetime': '2018-10-12 13:30:01.060035', 'mgs': 0, 'depth': 1.691, 'time': 4.86, 'pitch': -0.99, 'roll': -4.92}
{'lipoC2': 7.93, 'temp': 25.44, 'lipoC3S3': 11.98, 'rot1': 0, 'rot0': 0, 'rot3': 0, 'rot2': 0, 'state': 'normal', 'yaw': 29.37, 'datetime': '2018-10-12 13:30:01.160122', 'mgs': 0, 'depth': 1.614, 'time': 4.96, 'pitch': -2.04, 'roll': -4.45}
{'lipoC2': 7.93, 'temp': 25.44, 'lipoC3S3': 11.98, 'rot1': 0, 'rot0': 0, 'rot3': 0, 'rot2': 0, 'state': 'normal', 'yaw': 29.18, 'datetime': '2018-10-12 13:30:01.257135', 'mgs': 0, 'depth': 1.691, 'time': 5.06, 'pitch': -2.79, 'roll': -4.21}
{'lipoC2': 7.93, 'temp': 25.44, 'lipoC3S3': 11.98, 'rot1': 0, 'rot0': 0, 'rot3': 0, 'rot2': 0, 'state': 'normal', 'yaw': 28.58, 'datetime': '2018-10-12 13:30:01.354144', 'mgs': 0, 'depth': 1.691, 'time': 5.16, 'pitch': -3.46, 'roll': -4.34}
{'lipoC2': 7.93, 'temp': 25.44, 'lipoC3S3': 11.98, 'rot1': 0, 'rot0': 0, 'rot3': 0, 'rot2': 0, 'state': 'normal', 'yaw': 27.94, 'datetime': '2018-10-12 13:30:01.451749', 'mgs': 0, 'depth': 1.691, 'time': 5.25, 'pitch': -3.85, 'roll': -3.99}
{'lipoC2': 7.93, 'temp': 25.44, 'lipoC3S3': 11.98, 'rot1': 0, 'rot0': 0, 'rot3': 0, 'rot2': 0, 'state': 'normal', 'yaw': 27.19, 'datetime': '2018-10-12 13:30:01.548606', 'mgs': 0, 'depth': 1.691, 'time': 5.35, 'pitch': -3.96, 'roll': -3.49}
{'lipoC2': 7.93, 'temp': 25.44, 'lipoC3S3': 11.98, 'rot1': 0, 'rot0': 0, 'rot3': 0, 'rot2': 0, 'state': 'normal', 'yaw': 26.27, 'datetime': '2018-10-12 13:30:01.645591', 'mgs': 0, 'depth': 1.691, 'time': 5.45, 'pitch': -3.75, 'roll': -3.46}
{'lipoC2': 7.93, 'temp': 25.44, 'lipoC3S3': 11.98, 'rot1': 0, 'rot0': 0, 'rot3': 0, 'rot2': 0, 'state': 'normal', 'yaw': 25.38, 'datetime': '2018-10-12 13:30:01.742916', 'mgs': 0, 'depth': 1.691, 'time': 5.54, 'pitch': -3.23, 'roll': -3.6}
{'lipoC2': 7.92, 'temp': 25.38, 'lipoC3S3': 11.97, 'rot1': 0, 'rot0': 0, 'rot3': 0, 'rot2': 0, 'state': 'normal', 'yaw': 24.38, 'datetime': '2018-10-12 13:30:01.839779', 'mgs': 0, 'depth': 1.691, 'time': 5.64, 'pitch': -2.21, 'roll': -3.93}
{'lipoC2': 7.93, 'temp': 25.38, 'lipoC3S3': 11.98, 'rot1': 0, 'rot0': 0, 'rot3': 0, 'rot2': 0, 'state': 'normal', 'yaw': 23.26, 'datetime': '2018-10-12 13:30:01.936832', 'mgs': 0, 'depth': 1.614, 'time': 5.74, 'pitch': -0.92, 'roll': -4.24}
{'lipoC2': 7.93, 'temp': 25.38, 'lipoC3S3': 11.97, 'rot1': 0, 'rot0': 0, 'rot3': 0, 'rot2': 0, 'state': 'normal', 'yaw': 21.76, 'datetime': '2018-10-12 13:30:02.033812', 'mgs': 0, 'depth': 1.691, 'time': 5.84, 'pitch': 0.33, 'roll': -4.55}
{'lipoC2': 7.93, 'temp': 25.38, 'lipoC3S3': 11.97, 'rot1': 0, 'rot0': 0, 'rot3': 0, 'rot2': 0, 'state': 'normal', 'yaw': 20.11, 'datetime': '2018-10-12 13:30:02.130840', 'mgs': 0, 'depth': 1.691, 'time': 5.93, 'pitch': 1.23, 'roll': -4.92}
{'lipoC2': 7.93, 'temp': 25.38, 'lipoC3S3': 11.98, 'rot1': 0, 'rot0': 0, 'rot3': 0, 'rot2': 0, 'state': 'normal', 'yaw': 18.31, 'datetime': '2018-10-12 13:30:02.227824', 'mgs': 0, 'depth': 1.614, 'time': 6.03, 'pitch': 2.02, 'roll': -5.19}
{'lipoC2': 7.92, 'temp': 25.44, 'lipoC3S3': 11.97, 'rot1': 0, 'rot0': 0, 'rot3': 0, 'rot2': 0, 'state': 'normal', 'yaw': 16.79, 'datetime': '2018-10-12 13:30:02.324902', 'mgs': 0, 'depth': 1.691, 'time': 6.13, 'pitch': 2.65, 'roll': -5.73}
{'lipoC2': 7.93, 'temp': 25.44, 'lipoC3S3': 11.98, 'rot1': 0, 'rot0': 0, 'rot3': 0, 'rot2': 0, 'state': 'normal', 'yaw': 15.58, 'datetime': '2018-10-12 13:30:02.422293', 'mgs': 0, 'depth': 1.691, 'time': 6.22, 'pitch': 2.92, 'roll': -6.26}
{'lipoC2': 7.93, 'temp': 25.38, 'lipoC3S3': 11.98, 'rot1': 0, 'rot0': 0, 'rot3': 0, 'rot2': 0, 'state': 'normal', 'yaw': 14.07, 'datetime': '2018-10-12 13:30:02.521194', 'mgs': 0, 'depth': 1.614, 'time': 6.32, 'pitch': 2.76, 'roll': -6.71}
{'lipoC2': 7.93, 'temp': 25.38, 'lipoC3S3': 11.98, 'rot1': 0, 'rot0': 0, 'rot3': 0, 'rot2': 0, 'state': 'normal', 'yaw': 12.34, 'datetime': '2018-10-12 13:30:02.618190', 'mgs': 0, 'depth': 1.767, 'time': 6.42, 'pitch': 1.93, 'roll': -6.82}
{'lipoC2': 7.93, 'temp': 25.38, 'lipoC3S3': 11.98, 'rot1': 0, 'rot0': 0, 'rot3': 0, 'rot2': 0, 'state': 'normal', 'yaw': 10.5, 'datetime': '2018-10-12 13:30:02.710626', 'mgs': 0, 'depth': 1.767, 'time': 6.52, 'pitch': 0.67, 'roll': -6.32}
{'lipoC2': 7.93, 'temp': 25.44, 'lipoC3S3': 11.98, 'rot1': 0, 'rot0': 0, 'rot3': 0, 'rot2': 0, 'state': 'normal', 'yaw': 8.77, 'datetime': '2018-10-12 13:30:02.808899', 'mgs': 0, 'depth': 1.843, 'time': 6.62, 'pitch': -0.69, 'roll': -5.74}
{'lipoC2': 7.93, 'temp': 25.44, 'lipoC3S3': 11.98, 'rot1': 0, 'rot0': 0, 'rot3': 0, 'rot2': 0, 'state': 'normal', 'yaw': 7.06, 'datetime': '2018-10-12 13:30:02.906555', 'mgs': 0, 'depth': 1.843, 'time': 6.71, 'pitch': -1.96, 'roll': -5.14}
{'lipoC2': 7.93, 'temp': 25.38, 'lipoC3S3': 11.98, 'rot1': 0, 'rot0': 0, 'rot3': 0, 'rot2': 0, 'state': 'normal', 'yaw': 5.78, 'datetime': '2018-10-12 13:30:03.003657', 'mgs': 0, 'depth': 1.843, 'time': 6.81, 'pitch': -2.58, 'roll': -5.3}
{'lipoC2': 7.93, 'temp': 25.38, 'lipoC3S3': 11.98, 'rot1': 0, 'rot0': 0, 'rot3': 0, 'rot2': 0, 'state': 'normal', 'yaw': 5.28, 'datetime': '2018-10-12 13:30:03.100878', 'mgs': 0, 'depth': 1.92, 'time': 6.91, 'pitch': -2.38, 'roll': -5.59}
{'lipoC2': 7.93, 'temp': 25.38, 'lipoC3S3': 11.97, 'rot1': 0, 'rot0': 0, 'rot3': 0, 'rot2': 0, 'state': 'normal', 'yaw': 5.08, 'datetime': '2018-10-12 13:30:03.197905', 'mgs': 0, 'depth': 1.843, 'time': 7.01, 'pitch': -1.7, 'roll': -5.75}
{'lipoC2': 7.93, 'temp': 25.38, 'lipoC3S3': 11.98, 'rot1': 0, 'rot0': 0, 'rot3': 0, 'rot2': 0, 'state': 'normal', 'yaw': 4.69, 'datetime': '2018-10-12 13:30:03.294923', 'mgs': 0, 'depth': 1.767, 'time': 7.1, 'pitch': -0.86, 'roll': -5.64}
{'lipoC2': 7.93, 'temp': 25.38, 'lipoC3S3': 11.97, 'rot1': 0, 'rot0': 0, 'rot3': 0, 'rot2': 0, 'state': 'normal', 'yaw': 3.8, 'datetime': '2018-10-12 13:30:03.391935', 'mgs': 0, 'depth': 1.767, 'time': 7.2, 'pitch': -0.25, 'roll': -5.21}
{'lipoC2': 7.92, 'temp': 25.38, 'lipoC3S3': 11.98, 'rot1': 0, 'rot0': 0, 'rot3': 0, 'rot2': 0, 'state': 'normal', 'yaw': 2.89, 'datetime': '2018-10-12 13:30:03.488967', 'mgs': 0, 'depth': 1.691, 'time': 7.3, 'pitch': 0.25, 'roll': -4.59}
{'lipoC2': 7.93, 'temp': 25.38, 'lipoC3S3': 11.98, 'rot1': 0, 'rot0': 0, 'rot3': 0, 'rot2': 0, 'state': 'normal', 'yaw': 2.28, 'datetime': '2018-10-12 13:30:03.585963', 'mgs': 0, 'depth': 1.614, 'time': 7.39, 'pitch': 1.09, 'roll': -4.14}
{'lipoC2': 7.93, 'temp': 25.38, 'lipoC3S3': 11.98, 'rot1': 0, 'rot0': 0, 'rot3': 0, 'rot2': 0, 'state': 'normal', 'yaw': 2.18, 'datetime': '2018-10-12 13:30:03.683017', 'mgs': 0, 'depth': 1.614, 'time': 7.49, 'pitch': 2.14, 'roll': -3.8}
{'lipoC2': 7.93, 'temp': 25.38, 'lipoC3S3': 11.98, 'rot1': 0, 'rot0': 0, 'rot3': 0, 'rot2': 0, 'state': 'normal', 'yaw': 2.24, 'datetime': '2018-10-12 13:30:03.780042', 'mgs': 0, 'depth': 1.614, 'time': 7.59, 'pitch': 2.92, 'roll': -3.31}
{'lipoC2': 7.92, 'temp': 25.38, 'lipoC3S3': 11.98, 'rot1': 0, 'rot0': 0, 'rot3': 0, 'rot2': 0, 'state': 'normal', 'yaw': 2.24, 'datetime': '2018-10-12 13:30:03.877074', 'mgs': 0, 'depth': 1.614, 'time': 7.68, 'pitch': 3.09, 'roll': -2.64}
{'lipoC2': 7.93, 'temp': 25.38, 'lipoC3S3': 11.97, 'rot1': 0, 'rot0': 0, 'rot3': 0, 'rot2': 0, 'state': 'normal', 'yaw': 2.34, 'datetime': '2018-10-12 13:30:03.974101', 'mgs': 0, 'depth': 1.538, 'time': 7.78, 'pitch': 2.5, 'roll': -1.82}
{'lipoC2': 7.93, 'temp': 25.38, 'lipoC3S3': 11.98, 'rot1': 0, 'rot0': 0, 'rot3': 0, 'rot2': 0, 'state': 'normal', 'yaw': 2.54, 'datetime': '2018-10-12 13:30:04.071968', 'mgs': 0, 'depth': 1.538, 'time': 7.88, 'pitch': 1.56, 'roll': -1.41}
{'lipoC2': 7.93, 'temp': 25.38, 'lipoC3S3': 11.98, 'rot1': 0, 'rot0': 0, 'rot3': 0, 'rot2': 0, 'state': 'normal', 'yaw': 2.88, 'datetime': '2018-10-12 13:30:04.170304', 'mgs': 0, 'depth': 1.462, 'time': 7.98, 'pitch': 0.32, 'roll': -1.43}
{'lipoC2': 7.93, 'temp': 25.31, 'lipoC3S3': 11.97, 'rot1': 0, 'rot0': 0, 'rot3': 0, 'rot2': 0, 'state': 'normal', 'yaw': 3.39, 'datetime': '2018-10-12 13:30:04.267255', 'mgs': 0, 'depth': 1.538, 'time': 8.08, 'pitch': -0.87, 'roll': -1.61}
{'lipoC2': 7.92, 'temp': 25.31, 'lipoC3S3': 11.98, 'rot1': 0, 'rot0': 0, 'rot3': 0, 'rot2': 0, 'state': 'normal', 'yaw': 3.68, 'datetime': '2018-10-12 13:30:04.364264', 'mgs': 0, 'depth': 1.538, 'time': 8.17, 'pitch': -1.87, 'roll': -1.8}
{'lipoC2': 7.93, 'temp': 25.38, 'lipoC3S3': 11.98, 'rot1': 0, 'rot0': 0, 'rot3': 0, 'rot2': 0, 'state': 'normal', 'yaw': 3.67, 'datetime': '2018-10-12 13:30:04.462298', 'mgs': 0, 'depth': 1.462, 'time': 8.27, 'pitch': -2.45, 'roll': -1.82}
{'lipoC2': 7.92, 'temp': 25.38, 'lipoC3S3': 11.98, 'rot1': 0, 'rot0': 0, 'rot3': 0, 'rot2': 0, 'state': 'normal', 'yaw': 3.59, 'datetime': '2018-10-12 13:30:04.560640', 'mgs': 0, 'depth': 1.538, 'time': 8.37, 'pitch': -2.55, 'roll': -2.04}
{'lipoC2': 7.92, 'temp': 25.38, 'lipoC3S3': 11.98, 'rot1': 0, 'rot0': 0, 'rot3': 0, 'rot2': 0, 'state': 'normal', 'yaw': 3.66, 'datetime': '2018-10-12 13:30:04.657620', 'mgs': 0, 'depth': 1.462, 'time': 8.47, 'pitch': -2.18, 'roll': -2.39}
{'lipoC2': 7.93, 'temp': 25.31, 'lipoC3S3': 11.98, 'rot1': 0, 'rot0': 0, 'rot3': 0, 'rot2': 0, 'state': 'normal', 'yaw': 3.79, 'datetime': '2018-10-12 13:30:04.754625', 'mgs': 0, 'depth': 1.462, 'time': 8.56, 'pitch': -1.77, 'roll': -2.59}
{'lipoC2': 7.93, 'temp': 25.31, 'lipoC3S3': 11.98, 'rot1': 0, 'rot0': 0, 'rot3': 0, 'rot2': 0, 'state': 'normal', 'yaw': 3.8, 'datetime': '2018-10-12 13:30:04.852753', 'mgs': 0, 'depth': 1.462, 'time': 8.66, 'pitch': -1.61, 'roll': -2.6}
{'lipoC2': 7.93, 'temp': 25.44, 'lipoC3S3': 11.98, 'rot1': 0, 'rot0': 0, 'rot3': 0, 'rot2': 0, 'state': 'normal', 'yaw': 3.79, 'datetime': '2018-10-12 13:30:04.949820', 'mgs': 0, 'depth': 1.462, 'time': 8.76, 'pitch': -1.76, 'roll': -2.53}
{'lipoC2': 7.93, 'temp': 25.44, 'lipoC3S3': 11.98, 'rot1': 0, 'rot0': 0, 'rot3': 0, 'rot2': 0, 'state': 'normal', 'yaw': 3.86, 'datetime': '2018-10-12 13:30:05.046794', 'mgs': 0, 'depth': 1.538, 'time': 8.86, 'pitch': -2.08, 'roll': -2.44}
{'lipoC2': 7.93, 'temp': 25.44, 'lipoC3S3': 11.98, 'rot1': 0, 'rot0': 0, 'rot3': 0, 'rot2': 0, 'state': 'normal', 'yaw': 4.04, 'datetime': '2018-10-12 13:30:05.143878', 'mgs': 1, 'depth': 1.462, 'time': 8.95, 'pitch': -2.46, 'roll': -2.46}
{'lipoC2': 7.93, 'temp': 25.38, 'lipoC3S3': 11.98, 'rot1': 0, 'rot0': 0, 'rot3': 0, 'rot2': 0, 'state': 'normal', 'yaw': 0.0, 'datetime': '2018-10-12 13:30:06.663029', 'mgs': 0, 'depth': 1.614, 'time': 1.26, 'pitch': -3.09, 'roll': -3.66}
{'lipoC2': 7.93, 'temp': 25.38, 'lipoC3S3': 11.98, 'rot1': 0, 'rot0': 0, 'rot3': 0, 'rot2': 0, 'state': 'normal', 'yaw': -0.19, 'datetime': '2018-10-12 13:30:06.689207', 'mgs': 0, 'depth': 1.614, 'time': 1.36, 'pitch': -2.79, 'roll': -4.16}
{'lipoC2': 7.92, 'temp': 25.38, 'lipoC3S3': 11.98, 'rot1': 0, 'rot0': 0, 'rot3': 0, 'rot2': 0, 'state': 'normal', 'yaw': -0.26, 'datetime': '2018-10-12 13:30:06.706247', 'mgs': 0, 'depth': 1.691, 'time': 1.45, 'pitch': -2.4, 'roll': -4.76}
{'lipoC2': 7.92, 'temp': 25.38, 'lipoC3S3': 11.93, 'rot1': 0, 'rot0': 0, 'rot3': 1, 'rot2': 0, 'state': 'normal', 'yaw': -0.22, 'datetime': '2018-10-12 13:30:06.796091', 'mgs': 0, 'depth': 1.996, 'time': 1.55, 'pitch': -1.93, 'roll': -5.08}
{'lipoC2': 7.93, 'temp': 25.38, 'lipoC3S3': 11.89, 'rot1': 0, 'rot0': 0, 'rot3': 1, 'rot2': 1, 'state': 'normal', 'yaw': -0.16, 'datetime': '2018-10-12 13:30:06.892730', 'mgs': 0, 'depth': 1.843, 'time': 1.65, 'pitch': -1.5, 'roll': -5.17}
{'lipoC2': 7.93, 'temp': 25.38, 'lipoC3S3': 11.89, 'rot1': 1, 'rot0': 1, 'rot3': 1, 'rot2': 1, 'state': 'normal', 'yaw': -0.14, 'datetime': '2018-10-12 13:30:06.989374', 'mgs': 0, 'depth': 1.767, 'time': 1.74, 'pitch': -1.12, 'roll': -4.33}
{'lipoC2': 7.93, 'temp': 25.38, 'lipoC3S3': 11.89, 'rot1': 2, 'rot0': 3, 'rot3': 2, 'rot2': 2, 'state': 'normal', 'yaw': -0.24, 'datetime': '2018-10-12 13:30:07.086075', 'mgs': 0, 'depth': 2.835, 'time': 1.84, 'pitch': -0.99, 'roll': -3.17}
{'lipoC2': 7.93, 'temp': 25.38, 'lipoC3S3': 11.89, 'rot1': 3, 'rot0': 4, 'rot3': 3, 'rot2': 3, 'state': 'normal', 'yaw': -0.37, 'datetime': '2018-10-12 13:30:07.182712', 'mgs': 0, 'depth': 2.759, 'time': 1.94, 'pitch': -1.04, 'roll': -1.66}
{'lipoC2': 7.93, 'temp': 25.38, 'lipoC3S3': 11.88, 'rot1': 4, 'rot0': 5, 'rot3': 3, 'rot2': 3, 'state': 'normal', 'yaw': -0.46, 'datetime': '2018-10-12 13:30:07.279361', 'mgs': 0, 'depth': 2.759, 'time': 2.03, 'pitch': -1.12, 'roll': -0.06}
{'lipoC2': 7.93, 'temp': 25.38, 'lipoC3S3': 11.84, 'rot1': 5, 'rot0': 6, 'rot3': 4, 'rot2': 4, 'state': 'normal', 'yaw': -0.5, 'datetime': '2018-10-12 13:30:07.376008', 'mgs': 0, 'depth': 2.759, 'time': 2.13, 'pitch': -1.18, 'roll': 1.22}
{'lipoC2': 7.93, 'temp': 25.44, 'lipoC3S3': 11.84, 'rot1': 6, 'rot0': 7, 'rot3': 4, 'rot2': 5, 'state': 'normal', 'yaw': -0.56, 'datetime': '2018-10-12 13:30:07.472734', 'mgs': 0, 'depth': 2.53, 'time': 2.23, 'pitch': -1.29, 'roll': 2.34}
{'lipoC2': 7.93, 'temp': 25.44, 'lipoC3S3': 11.89, 'rot1': 8, 'rot0': 8, 'rot3': 5, 'rot2': 6, 'state': 'normal', 'yaw': -0.57, 'datetime': '2018-10-12 13:30:07.569689', 'mgs': 0, 'depth': 1.92, 'time': 2.32, 'pitch': -1.49, 'roll': 3.19}
{'lipoC2': 7.93, 'temp': 25.44, 'lipoC3S3': 11.76, 'rot1': 9, 'rot0': 9, 'rot3': 6, 'rot2': 6, 'state': 'normal', 'yaw': -0.59, 'datetime': '2018-10-12 13:30:07.667641', 'mgs': 0, 'depth': 1.767, 'time': 2.42, 'pitch': -1.64, 'roll': 3.84}
{'lipoC2': 7.92, 'temp': 25.38, 'lipoC3S3': 11.79, 'rot1': 10, 'rot0': 10, 'rot3': 6, 'rot2': 7, 'state': 'normal', 'yaw': -0.6, 'datetime': '2018-10-12 13:30:07.764651', 'mgs': 0, 'depth': 1.767, 'time': 2.52, 'pitch': -1.76, 'roll': 4.45}
{'lipoC2': 7.93, 'temp': 25.38, 'lipoC3S3': 11.84, 'rot1': 11, 'rot0': 11, 'rot3': 7, 'rot2': 8, 'state': 'normal', 'yaw': -0.51, 'datetime': '2018-10-12 13:30:07.861655', 'mgs': 0, 'depth': 2.377, 'time': 2.62, 'pitch': -1.79, 'roll': 4.86}
{'lipoC2': 7.93, 'temp': 25.38, 'lipoC3S3': 11.89, 'rot1': 12, 'rot0': 12, 'rot3': 7, 'rot2': 8, 'state': 'normal', 'yaw': -0.37, 'datetime': '2018-10-12 13:30:07.959718', 'mgs': 0, 'depth': 1.996, 'time': 2.71, 'pitch': -1.76, 'roll': 5.03}
{'lipoC2': 7.93, 'temp': 25.38, 'lipoC3S3': 11.89, 'rot1': 13, 'rot0': 13, 'rot3': 8, 'rot2': 9, 'state': 'normal', 'yaw': -0.17, 'datetime': '2018-10-12 13:30:08.058068', 'mgs': 0, 'depth': 2.225, 'time': 2.81, 'pitch': -1.73, 'roll': 4.89}
{'lipoC2': 7.93, 'temp': 25.38, 'lipoC3S3': 11.89, 'rot1': 14, 'rot0': 15, 'rot3': 9, 'rot2': 10, 'state': 'normal', 'yaw': 0.05, 'datetime': '2018-10-12 13:30:08.155244', 'mgs': 0, 'depth': 1.996, 'time': 2.91, 'pitch': -1.7, 'roll': 4.42}
{'lipoC2': 7.92, 'temp': 25.38, 'lipoC3S3': 11.83, 'rot1': 15, 'rot0': 16, 'rot3': 9, 'rot2': 10, 'state': 'normal', 'yaw': 0.29, 'datetime': '2018-10-12 13:30:08.252441', 'mgs': 0, 'depth': 2.301, 'time': 3.01, 'pitch': -1.7, 'roll': 3.73}
{'lipoC2': 7.93, 'temp': 25.38, 'lipoC3S3': 11.87, 'rot1': 16, 'rot0': 17, 'rot3': 10, 'rot2': 11, 'state': 'normal', 'yaw': 0.48, 'datetime': '2018-10-12 13:30:08.350853', 'mgs': 0, 'depth': 1.691, 'time': 3.11, 'pitch': -1.74, 'roll': 3.06}
{'lipoC2': 7.93, 'temp': 25.38, 'lipoC3S3': 11.83, 'rot1': 18, 'rot0': 18, 'rot3': 10, 'rot2': 12, 'state': 'normal', 'yaw': 0.68, 'datetime': '2018-10-12 13:30:08.449448', 'mgs': 0, 'depth': 1.691, 'time': 3.2, 'pitch': -1.81, 'roll': 2.36}
{'lipoC2': 7.93, 'temp': 25.38, 'lipoC3S3': 11.89, 'rot1': 19, 'rot0': 19, 'rot3': 11, 'rot2': 13, 'state': 'normal', 'yaw': 0.86, 'datetime': '2018-10-12 13:30:08.549267', 'mgs': 0, 'depth': 1.996, 'time': 3.3, 'pitch': -1.88, 'roll': 1.79}
{'lipoC2': 7.93, 'temp': 25.38, 'lipoC3S3': 11.83, 'rot1': 20, 'rot0': 20, 'rot3': 12, 'rot2': 13, 'state': 'normal', 'yaw': 1.02, 'datetime': '2018-10-12 13:30:08.649072', 'mgs': 0, 'depth': 2.454, 'time': 3.4, 'pitch': -1.93, 'roll': 1.34}
{'lipoC2': 7.94, 'temp': 25.38, 'lipoC3S3': 11.81, 'rot1': 21, 'rot0': 21, 'rot3': 12, 'rot2': 14, 'state': 'normal', 'yaw': 1.2, 'datetime': '2018-10-12 13:30:08.746722', 'mgs': 0, 'depth': 2.225, 'time': 3.5, 'pitch': -1.9, 'roll': 1.03}
{'lipoC2': 7.93, 'temp': 25.38, 'lipoC3S3': 11.8, 'rot1': 22, 'rot0': 22, 'rot3': 13, 'rot2': 15, 'state': 'normal', 'yaw': 1.36, 'datetime': '2018-10-12 13:30:08.844087', 'mgs': 0, 'depth': 1.691, 'time': 3.6, 'pitch': -1.88, 'roll': 0.81}
{'lipoC2': 7.92, 'temp': 25.38, 'lipoC3S3': 11.89, 'rot1': 23, 'rot0': 23, 'rot3': 13, 'rot2': 15, 'state': 'normal', 'yaw': 1.56, 'datetime': '2018-10-12 13:30:08.941811', 'mgs': 0, 'depth': 1.996, 'time': 3.69, 'pitch': -1.91, 'roll': 0.59}
{'lipoC2': 7.93, 'temp': 25.38, 'lipoC3S3': 11.88, 'rot1': 23, 'rot0': 25, 'rot3': 14, 'rot2': 16, 'state': 'normal', 'yaw': 1.45, 'datetime': '2018-10-12 13:30:09.037981', 'mgs': 0, 'depth': 1.92, 'time': 3.79, 'pitch': -2.1, 'roll': 0.19}
{'lipoC2': 7.93, 'temp': 25.38, 'lipoC3S3': 11.88, 'rot1': 24, 'rot0': 26, 'rot3': 14, 'rot2': 16, 'state': 'normal', 'yaw': 1.05, 'datetime': '2018-10-12 13:30:09.131751', 'mgs': 0, 'depth': 2.301, 'time': 3.89, 'pitch': -2.36, 'roll': -0.3}
{'lipoC2': 7.93, 'temp': 25.38, 'lipoC3S3': 11.85, 'rot1': 25, 'rot0': 27, 'rot3': 15, 'rot2': 17, 'state': 'normal', 'yaw': 0.31, 'datetime': '2018-10-12 13:30:09.231800', 'mgs': 0, 'depth': 1.309, 'time': 3.98, 'pitch': -2.72, 'roll': -0.91}
{'lipoC2': 7.93, 'temp': 25.38, 'lipoC3S3': 11.84, 'rot1': 25, 'rot0': 28, 'rot3': 16, 'rot2': 18, 'state': 'normal', 'yaw': -0.68, 'datetime': '2018-10-12 13:30:09.331275', 'mgs': 0, 'depth': 1.691, 'time': 4.08, 'pitch': -3.08, 'roll': -1.48}
{'lipoC2': 7.93, 'temp': 25.38, 'lipoC3S3': 11.89, 'rot1': 26, 'rot0': 29, 'rot3': 16, 'rot2': 18, 'state': 'normal', 'yaw': -1.84, 'datetime': '2018-10-12 13:30:09.423907', 'mgs': 0, 'depth': 2.072, 'time': 4.18, 'pitch': -3.47, 'roll': -1.86}
{'lipoC2': 7.92, 'temp': 25.38, 'lipoC3S3': 11.9, 'rot1': 27, 'rot0': 30, 'rot3': 17, 'rot2': 19, 'state': 'normal', 'yaw': -3.01, 'datetime': '2018-10-12 13:30:09.522602', 'mgs': 0, 'depth': 2.072, 'time': 4.28, 'pitch': -3.79, 'roll': -2.03}
{'lipoC2': 7.93, 'temp': 25.38, 'lipoC3S3': 11.9, 'rot1': 28, 'rot0': 31, 'rot3': 17, 'rot2': 20, 'state': 'normal', 'yaw': -3.79, 'datetime': '2018-10-12 13:30:09.621373', 'mgs': 0, 'depth': 1.767, 'time': 4.38, 'pitch': -3.95, 'roll': -2.07}
{'lipoC2': 7.93, 'temp': 25.38, 'lipoC3S3': 11.83, 'rot1': 29, 'rot0': 32, 'rot3': 18, 'rot2': 20, 'state': 'normal', 'yaw': -3.8, 'datetime': '2018-10-12 13:30:09.722443', 'mgs': 0, 'depth': 1.691, 'time': 4.47, 'pitch': -3.96, 'roll': -2.06}
{'lipoC2': 7.92, 'temp': 25.38, 'lipoC3S3': 11.92, 'rot1': 30, 'rot0': 32, 'rot3': 18, 'rot2': 21, 'state': 'normal', 'yaw': -3.32, 'datetime': '2018-10-12 13:30:09.821399', 'mgs': 0, 'depth': 1.996, 'time': 4.57, 'pitch': -3.91, 'roll': -2.06}
{'lipoC2': 7.93, 'temp': 25.38, 'lipoC3S3': 11.89, 'rot1': 31, 'rot0': 33, 'rot3': 19, 'rot2': 22, 'state': 'normal', 'yaw': -2.48, 'datetime': '2018-10-12 13:30:09.918925', 'mgs': 0, 'depth': 1.767, 'time': 4.67, 'pitch': -3.85, 'roll': -2.1}
{'lipoC2': 7.92, 'temp': 25.38, 'lipoC3S3': 11.9, 'rot1': 32, 'rot0': 34, 'rot3': 19, 'rot2': 22, 'state': 'normal', 'yaw': -1.49, 'datetime': '2018-10-12 13:30:10.017497', 'mgs': 0, 'depth': 1.92, 'time': 4.77, 'pitch': -3.9, 'roll': -2.12}
{'lipoC2': 7.93, 'temp': 25.38, 'lipoC3S3': 11.85, 'rot1': 33, 'rot0': 34, 'rot3': 20, 'rot2': 23, 'state': 'normal', 'yaw': -0.22, 'datetime': '2018-10-12 13:30:10.115857', 'mgs': 0, 'depth': 2.454, 'time': 4.87, 'pitch': -4.0, 'roll': -2.13}
{'lipoC2': 7.93, 'temp': 25.38, 'lipoC3S3': 11.81, 'rot1': 34, 'rot0': 35, 'rot3': 21, 'rot2': 24, 'state': 'normal', 'yaw': 1.19, 'datetime': '2018-10-12 13:30:10.213313', 'mgs': 0, 'depth': 1.767, 'time': 4.97, 'pitch': -4.09, 'roll': -2.15}
{'lipoC2': 7.92, 'temp': 25.38, 'lipoC3S3': 11.89, 'rot1': 35, 'rot0': 35, 'rot3': 21, 'rot2': 24, 'state': 'normal', 'yaw': 2.78, 'datetime': '2018-10-12 13:30:10.309184', 'mgs': 0, 'depth': 1.767, 'time': 5.06, 'pitch': -4.04, 'roll': -2.2}
{'lipoC2': 7.94, 'temp': 25.38, 'lipoC3S3': 11.84, 'rot1': 36, 'rot0': 36, 'rot3': 21, 'rot2': 25, 'state': 'normal', 'yaw': 4.27, 'datetime': '2018-10-12 13:30:10.403337', 'mgs': 0, 'depth': 1.767, 'time': 5.16, 'pitch': -3.93, 'roll': -2.19}
{'lipoC2': 7.93, 'temp': 25.38, 'lipoC3S3': 11.81, 'rot1': 37, 'rot0': 38, 'rot3': 22, 'rot2': 26, 'state': 'normal', 'yaw': 5.35, 'datetime': '2018-10-12 13:30:10.500813', 'mgs': 0, 'depth': 1.767, 'time': 5.26, 'pitch': -3.95, 'roll': -2.06}
{'lipoC2': 7.92, 'temp': 25.38, 'lipoC3S3': 11.9, 'rot1': 38, 'rot0': 39, 'rot3': 23, 'rot2': 26, 'state': 'normal', 'yaw': 5.72, 'datetime': '2018-10-12 13:30:10.598164', 'mgs': 0, 'depth': 1.92, 'time': 5.36, 'pitch': -4.06, 'roll': -1.76}
{'lipoC2': 7.93, 'temp': 25.38, 'lipoC3S3': 11.88, 'rot1': 38, 'rot0': 40, 'rot3': 23, 'rot2': 27, 'state': 'normal', 'yaw': 5.54, 'datetime': '2018-10-12 13:30:10.695591', 'mgs': 0, 'depth': 2.301, 'time': 5.45, 'pitch': -4.18, 'roll': -1.32}
{'lipoC2': 7.93, 'temp': 25.38, 'lipoC3S3': 11.96, 'rot1': 38, 'rot0': 40, 'rot3': 24, 'rot2': 27, 'state': 'normal', 'yaw': 5.09, 'datetime': '2018-10-12 13:30:10.793041', 'mgs': 0, 'depth': 1.767, 'time': 5.55, 'pitch': -4.35, 'roll': -0.99}
{'lipoC2': 7.93, 'temp': 25.38, 'lipoC3S3': 11.96, 'rot1': 38, 'rot0': 40, 'rot3': 24, 'rot2': 28, 'state': 'normal', 'yaw': 4.65, 'datetime': '2018-10-12 13:30:10.890437', 'mgs': 0, 'depth': 1.843, 'time': 5.65, 'pitch': -4.53, 'roll': -1.19}
{'lipoC2': 7.93, 'temp': 25.38, 'lipoC3S3': 11.9, 'rot1': 38, 'rot0': 40, 'rot3': 25, 'rot2': 29, 'state': 'normal', 'yaw': 4.28, 'datetime': '2018-10-12 13:30:10.987873', 'mgs': 0, 'depth': 2.148, 'time': 5.75, 'pitch': -4.77, 'roll': -1.91}
{'lipoC2': 7.93, 'temp': 25.38, 'lipoC3S3': 11.88, 'rot1': 39, 'rot0': 41, 'rot3': 25, 'rot2': 29, 'state': 'normal', 'yaw': 3.95, 'datetime': '2018-10-12 13:30:11.085303', 'mgs': 0, 'depth': 2.606, 'time': 5.84, 'pitch': -4.93, 'roll': -2.98}
{'lipoC2': 7.93, 'temp': 25.38, 'lipoC3S3': 11.84, 'rot1': 39, 'rot0': 42, 'rot3': 25, 'rot2': 30, 'state': 'normal', 'yaw': 3.42, 'datetime': '2018-10-12 13:30:11.183333', 'mgs': 0, 'depth': 2.072, 'time': 5.94, 'pitch': -4.94, 'roll': -3.63}
{'lipoC2': 7.92, 'temp': 25.38, 'lipoC3S3': 11.83, 'rot1': 40, 'rot0': 43, 'rot3': 26, 'rot2': 30, 'state': 'normal', 'yaw': 2.49, 'datetime': '2018-10-12 13:30:11.280809', 'mgs': 0, 'depth': 1.92, 'time': 6.04, 'pitch': -4.87, 'roll': -3.89}
{'lipoC2': 7.93, 'temp': 25.38, 'lipoC3S3': 11.89, 'rot1': 41, 'rot0': 44, 'rot3': 27, 'rot2': 31, 'state': 'normal', 'yaw': 1.23, 'datetime': '2018-10-12 13:30:11.378193', 'mgs': 0, 'depth': 1.996, 'time': 6.14, 'pitch': -4.74, 'roll': -3.79}
{'lipoC2': 7.93, 'temp': 25.38, 'lipoC3S3': 11.81, 'rot1': 41, 'rot0': 46, 'rot3': 27, 'rot2': 32, 'state': 'normal', 'yaw': -0.26, 'datetime': '2018-10-12 13:30:11.476034', 'mgs': 0, 'depth': 1.996, 'time': 6.23, 'pitch': -4.62, 'roll': -3.59}
{'lipoC2': 7.93, 'temp': 25.38, 'lipoC3S3': 11.77, 'rot1': 42, 'rot0': 47, 'rot3': 27, 'rot2': 32, 'state': 'normal', 'yaw': -1.76, 'datetime': '2018-10-12 13:30:11.574756', 'mgs': 0, 'depth': 1.996, 'time': 6.33, 'pitch': -4.58, 'roll': -3.34}
{'lipoC2': 7.93, 'temp': 25.38, 'lipoC3S3': 11.84, 'rot1': 43, 'rot0': 47, 'rot3': 28, 'rot2': 33, 'state': 'normal', 'yaw': -3.49, 'datetime': '2018-10-12 13:30:11.673568', 'mgs': 0, 'depth': 2.606, 'time': 6.43, 'pitch': -4.61, 'roll': -3.09}
{'lipoC2': 7.93, 'temp': 25.38, 'lipoC3S3': 11.8, 'rot1': 44, 'rot0': 48, 'rot3': 29, 'rot2': 33, 'state': 'normal', 'yaw': -4.73, 'datetime': '2018-10-12 13:30:11.771027', 'mgs': 0, 'depth': 2.301, 'time': 6.53, 'pitch': -4.53, 'roll': -2.96}
{'lipoC2': 7.93, 'temp': 25.38, 'lipoC3S3': 11.9, 'rot1': 45, 'rot0': 49, 'rot3': 29, 'rot2': 34, 'state': 'normal', 'yaw': -5.36, 'datetime': '2018-10-12 13:30:11.868390', 'mgs': 0, 'depth': 2.301, 'time': 6.63, 'pitch': -4.35, 'roll': -2.88}
{'lipoC2': 7.93, 'temp': 25.38, 'lipoC3S3': 11.79, 'rot1': 46, 'rot0': 49, 'rot3': 29, 'rot2': 35, 'state': 'normal', 'yaw': -5.53, 'datetime': '2018-10-12 13:30:11.966360', 'mgs': 0, 'depth': 2.377, 'time': 6.72, 'pitch': -4.15, 'roll': -2.82}
{'lipoC2': 7.93, 'temp': 25.38, 'lipoC3S3': 11.84, 'rot1': 47, 'rot0': 50, 'rot3': 30, 'rot2': 35, 'state': 'normal', 'yaw': -5.41, 'datetime': '2018-10-12 13:30:12.065082', 'mgs': 0, 'depth': 2.072, 'time': 6.82, 'pitch': -3.87, 'roll': -2.63}
{'lipoC2': 7.93, 'temp': 25.38, 'lipoC3S3': 11.89, 'rot1': 48, 'rot0': 51, 'rot3': 30, 'rot2': 36, 'state': 'normal', 'yaw': -4.98, 'datetime': '2018-10-12 13:30:12.163231', 'mgs': 0, 'depth': 2.225, 'time': 6.92, 'pitch': -3.55, 'roll': -2.36}
{'lipoC2': 7.93, 'temp': 25.38, 'lipoC3S3': 11.88, 'rot1': 50, 'rot0': 51, 'rot3': 31, 'rot2': 36, 'state': 'normal', 'yaw': -4.29, 'datetime': '2018-10-12 13:30:12.260708', 'mgs': 0, 'depth': 2.759, 'time': 7.02, 'pitch': -3.22, 'roll': -2.09}
{'lipoC2': 7.93, 'temp': 25.38, 'lipoC3S3': 11.84, 'rot1': 51, 'rot0': 52, 'rot3': 32, 'rot2': 37, 'state': 'normal', 'yaw': -3.37, 'datetime': '2018-10-12 13:30:12.358062', 'mgs': 0, 'depth': 3.293, 'time': 7.12, 'pitch': -2.84, 'roll': -1.9}
{'lipoC2': 7.93, 'temp': 25.38, 'lipoC3S3': 11.9, 'rot1': 52, 'rot0': 52, 'rot3': 32, 'rot2': 37, 'state': 'normal', 'yaw': -2.41, 'datetime': '2018-10-12 13:30:12.455706', 'mgs': 0, 'depth': 3.064, 'time': 7.22, 'pitch': -2.48, 'roll': -1.86}
{'lipoC2': 7.92, 'temp': 25.69, 'lipoC3S3': 11.87, 'rot1': 53, 'rot0': 53, 'rot3': 32, 'rot2': 37, 'state': 'normal', 'yaw': -1.23, 'datetime': '2018-10-12 13:30:12.553175', 'mgs': 0, 'depth': 2.835, 'time': 7.31, 'pitch': -2.08, 'roll': -1.83}
{'lipoC2': 7.92, 'temp': 25.69, 'lipoC3S3': 11.93, 'rot1': 54, 'rot0': 54, 'rot3': 32, 'rot2': 37, 'state': 'normal', 'yaw': 0.09, 'datetime': '2018-10-12 13:30:12.650566', 'mgs': 0, 'depth': 2.835, 'time': 7.41, 'pitch': -1.65, 'roll': -1.78}
{'lipoC2': 7.92, 'temp': 25.69, 'lipoC3S3': 11.89, 'rot1': 55, 'rot0': 54, 'rot3': 32, 'rot2': 38, 'state': 'normal', 'yaw': 1.56, 'datetime': '2018-10-12 13:30:12.747902', 'mgs': 0, 'depth': 4.208, 'time': 7.51, 'pitch': -1.2, 'roll': -1.72}
{'lipoC2': 7.93, 'temp': 25.75, 'lipoC3S3': 11.83, 'rot1': 56, 'rot0': 55, 'rot3': 32, 'rot2': 38, 'state': 'normal', 'yaw': 2.96, 'datetime': '2018-10-12 13:30:12.845333', 'mgs': 0, 'depth': 2.988, 'time': 7.61, 'pitch': -0.79, 'roll': -1.76}
{'lipoC2': 7.92, 'temp': 25.75, 'lipoC3S3': 11.81, 'rot1': 57, 'rot0': 56, 'rot3': 33, 'rot2': 39, 'state': 'normal', 'yaw': 3.94, 'datetime': '2018-10-12 13:30:12.942784', 'mgs': 0, 'depth': 3.064, 'time': 7.7, 'pitch': -0.49, 'roll': -1.83}
{'lipoC2': 7.92, 'temp': 25.38, 'lipoC3S3': 11.92, 'rot1': 57, 'rot0': 58, 'rot3': 33, 'rot2': 39, 'state': 'normal', 'yaw': 4.24, 'datetime': '2018-10-12 13:30:13.040169', 'mgs': 0, 'depth': 3.14, 'time': 7.8, 'pitch': -0.37, 'roll': -1.91}
{'lipoC2': 7.93, 'temp': 25.38, 'lipoC3S3': 11.92, 'rot1': 58, 'rot0': 59, 'rot3': 33, 'rot2': 39, 'state': 'normal', 'yaw': 4.02, 'datetime': '2018-10-12 13:30:13.137796', 'mgs': 0, 'depth': 3.14, 'time': 7.9, 'pitch': -0.37, 'roll': -1.87}
{'lipoC2': 7.93, 'temp': 25.38, 'lipoC3S3': 11.92, 'rot1': 59, 'rot0': 60, 'rot3': 33, 'rot2': 39, 'state': 'normal', 'yaw': 3.35, 'datetime': '2018-10-12 13:30:13.235187', 'mgs': 0, 'depth': 3.674, 'time': 7.99, 'pitch': -0.5, 'roll': -1.77}
{'lipoC2': 7.93, 'temp': 25.38, 'lipoC3S3': 11.83, 'rot1': 59, 'rot0': 61, 'rot3': 33, 'rot2': 39, 'state': 'normal', 'yaw': 2.33, 'datetime': '2018-10-12 13:30:13.332654', 'mgs': 0, 'depth': 3.217, 'time': 8.09, 'pitch': -0.73, 'roll': -1.56}
{'lipoC2': 7.93, 'temp': 25.38, 'lipoC3S3': 11.84, 'rot1': 60, 'rot0': 62, 'rot3': 33, 'rot2': 40, 'state': 'normal', 'yaw': 1.02, 'datetime': '2018-10-12 13:30:13.432077', 'mgs': 0, 'depth': 3.293, 'time': 8.19, 'pitch': -1.05, 'roll': -1.21}
{'lipoC2': 7.93, 'temp': 25.25, 'lipoC3S3': 11.89, 'rot1': 61, 'rot0': 63, 'rot3': 34, 'rot2': 40, 'state': 'normal', 'yaw': -0.34, 'datetime': '2018-10-12 13:30:13.533284', 'mgs': 0, 'depth': 3.293, 'time': 8.29, 'pitch': -1.37, 'roll': -0.71}
{'lipoC2': 7.92, 'temp': 25.25, 'lipoC3S3': 11.92, 'rot1': 61, 'rot0': 64, 'rot3': 34, 'rot2': 41, 'state': 'normal', 'yaw': -2.04, 'datetime': '2018-10-12 13:30:13.631967', 'mgs': 0, 'depth': 3.445, 'time': 8.39, 'pitch': -1.77, 'roll': -0.06}
{'lipoC2': 7.93, 'temp': 25.38, 'lipoC3S3': 11.88, 'rot1': 62, 'rot0': 65, 'rot3': 34, 'rot2': 41, 'state': 'normal', 'yaw': -3.85, 'datetime': '2018-10-12 13:30:13.729728', 'mgs': 0, 'depth': 3.445, 'time': 8.48, 'pitch': -2.12, 'roll': 0.54}
{'lipoC2': 7.93, 'temp': 25.38, 'lipoC3S3': 11.92, 'rot1': 63, 'rot0': 66, 'rot3': 34, 'rot2': 41, 'state': 'normal', 'yaw': -5.17, 'datetime': '2018-10-12 13:30:13.827212', 'mgs': 0, 'depth': 3.522, 'time': 8.58, 'pitch': -2.37, 'roll': 0.95}
{'lipoC2': 7.93, 'temp': 25.38, 'lipoC3S3': 11.88, 'rot1': 64, 'rot0': 67, 'rot3': 34, 'rot2': 41, 'state': 'normal', 'yaw': -5.76, 'datetime': '2018-10-12 13:30:13.924619', 'mgs': 0, 'depth': 4.208, 'time': 8.68, 'pitch': -2.52, 'roll': 1.2}
{'lipoC2': 7.93, 'temp': 25.38, 'lipoC3S3': 11.88, 'rot1': 66, 'rot0': 67, 'rot3': 35, 'rot2': 41, 'state': 'normal', 'yaw': -5.78, 'datetime': '2018-10-12 13:30:14.023353', 'mgs': 0, 'depth': 3.827, 'time': 8.78, 'pitch': -2.55, 'roll': 1.43}
{'lipoC2': 7.93, 'temp': 25.38, 'lipoC3S3': 11.89, 'rot1': 67, 'rot0': 68, 'rot3': 35, 'rot2': 42, 'state': 'normal', 'yaw': -5.32, 'datetime': '2018-10-12 13:30:14.122021', 'mgs': 0, 'depth': 3.751, 'time': 8.88, 'pitch': -2.52, 'roll': 1.8}
{'lipoC2': 7.94, 'temp': 25.38, 'lipoC3S3': 11.83, 'rot1': 68, 'rot0': 68, 'rot3': 36, 'rot2': 42, 'state': 'normal', 'yaw': -4.47, 'datetime': '2018-10-12 13:30:14.219278', 'mgs': 0, 'depth': 4.056, 'time': 8.98, 'pitch': -2.41, 'roll': 2.28}
{'lipoC2': 7.93, 'temp': 25.38, 'lipoC3S3': 11.88, 'rot1': 69, 'rot0': 69, 'rot3': 36, 'rot2': 43, 'state': 'normal', 'yaw': -3.27, 'datetime': '2018-10-12 13:30:14.316724', 'mgs': 0, 'depth': 3.445, 'time': 9.07, 'pitch': -2.24, 'roll': 2.87}
{'lipoC2': 7.93, 'temp': 25.38, 'lipoC3S3': 11.88, 'rot1': 70, 'rot0': 70, 'rot3': 37, 'rot2': 44, 'state': 'normal', 'yaw': -2.01, 'datetime': '2018-10-12 13:30:14.414955', 'mgs': 0, 'depth': 3.979, 'time': 9.17, 'pitch': -2.05, 'roll': 3.41}
{'lipoC2': 7.93, 'temp': 25.31, 'lipoC3S3': 11.85, 'rot1': 71, 'rot0': 70, 'rot3': 37, 'rot2': 44, 'state': 'normal', 'yaw': -0.49, 'datetime': '2018-10-12 13:30:14.512088', 'mgs': 0, 'depth': 3.445, 'time': 9.27, 'pitch': -1.87, 'roll': 4.03}
{'lipoC2': 7.93, 'temp': 25.31, 'lipoC3S3': 11.85, 'rot1': 72, 'rot0': 71, 'rot3': 37, 'rot2': 45, 'state': 'normal', 'yaw': 1.13, 'datetime': '2018-10-12 13:30:14.609447', 'mgs': 0, 'depth': 3.445, 'time': 9.37, 'pitch': -1.73, 'roll': 4.64}
{'lipoC2': 7.93, 'temp': 25.38, 'lipoC3S3': 11.87, 'rot1': 73, 'rot0': 72, 'rot3': 38, 'rot2': 45, 'state': 'normal', 'yaw': 2.51, 'datetime': '2018-10-12 13:30:14.706903', 'mgs': 0, 'depth': 3.674, 'time': 9.46, 'pitch': -1.62, 'roll': 5.45}
{'lipoC2': 7.93, 'temp': 25.38, 'lipoC3S3': 11.85, 'rot1': 74, 'rot0': 73, 'rot3': 38, 'rot2': 46, 'state': 'normal', 'yaw': 3.49, 'datetime': '2018-10-12 13:30:14.804358', 'mgs': 0, 'depth': 4.208, 'time': 9.56, 'pitch': -1.57, 'roll': 6.28}
{'lipoC2': 7.93, 'temp': 25.38, 'lipoC3S3': 11.84, 'rot1': 75, 'rot0': 75, 'rot3': 39, 'rot2': 46, 'state': 'normal', 'yaw': 4.3, 'datetime': '2018-10-12 13:30:14.901796', 'mgs': 0, 'depth': 3.369, 'time': 9.66, 'pitch': -1.55, 'roll': 7.22}
{'lipoC2': 7.93, 'temp': 25.38, 'lipoC3S3': 11.81, 'rot1': 76, 'rot0': 76, 'rot3': 39, 'rot2': 47, 'state': 'normal', 'yaw': 4.54, 'datetime': '2018-10-12 13:30:14.999478', 'mgs': 0, 'depth': 3.217, 'time': 9.76, 'pitch': -1.55, 'roll': 7.95}
{'lipoC2': 7.92, 'temp': 25.38, 'lipoC3S3': 11.92, 'rot1': 77, 'rot0': 77, 'rot3': 40, 'rot2': 47, 'state': 'normal', 'yaw': 4.25, 'datetime': '2018-10-12 13:30:15.096710', 'mgs': 0, 'depth': 3.14, 'time': 9.85, 'pitch': -1.55, 'roll': 8.45}
{'lipoC2': 7.93, 'temp': 25.38, 'lipoC3S3': 11.9, 'rot1': 77, 'rot0': 78, 'rot3': 40, 'rot2': 47, 'state': 'normal', 'yaw': 3.61, 'datetime': '2018-10-12 13:30:15.194245', 'mgs': 0, 'depth': 3.751, 'time': 9.95, 'pitch': -1.52, 'roll': 8.66}
{'lipoC2': 7.93, 'temp': 25.38, 'lipoC3S3': 11.9, 'rot1': 78, 'rot0': 79, 'rot3': 40, 'rot2': 47, 'state': 'normal', 'yaw': 2.53, 'datetime': '2018-10-12 13:30:15.291678', 'mgs': 0, 'depth': 3.369, 'time': 10.05, 'pitch': -1.51, 'roll': 8.57}
{'lipoC2': 7.92, 'temp': 25.38, 'lipoC3S3': 11.81, 'rot1': 78, 'rot0': 80, 'rot3': 40, 'rot2': 48, 'state': 'normal', 'yaw': 1.14, 'datetime': '2018-10-12 13:30:15.388968', 'mgs': 0, 'depth': 2.988, 'time': 10.15, 'pitch': -1.55, 'roll': 8.24}
{'lipoC2': 7.94, 'temp': 25.38, 'lipoC3S3': 11.81, 'rot1': 79, 'rot0': 81, 'rot3': 40, 'rot2': 48, 'state': 'normal', 'yaw': -0.52, 'datetime': '2018-10-12 13:30:15.486899', 'mgs': 0, 'depth': 3.293, 'time': 10.24, 'pitch': -1.63, 'roll': 7.82}
{'lipoC2': 7.93, 'temp': 25.38, 'lipoC3S3': 11.84, 'rot1': 79, 'rot0': 82, 'rot3': 40, 'rot2': 49, 'state': 'normal', 'yaw': -2.16, 'datetime': '2018-10-12 13:30:19.540785', 'mgs': 0, 'depth': 2.988, 'time': 10.34, 'pitch': -1.72, 'roll': 7.41}
{'lipoC2': 7.93, 'temp': 25.38, 'lipoC3S3': 11.88, 'rot1': 79, 'rot0': 82, 'rot3': 41, 'rot2': 49, 'state': 'normal', 'yaw': -3.78, 'datetime': '2018-10-12 13:30:19.564647', 'mgs': 0, 'depth': 2.911, 'time': 10.44, 'pitch': -1.81, 'roll': 6.47}
{'lipoC2': 7.93, 'temp': 25.38, 'lipoC3S3': 11.87, 'rot1': 79, 'rot0': 82, 'rot3': 42, 'rot2': 50, 'state': 'normal', 'yaw': -5.17, 'datetime': '2018-10-12 13:30:19.604692', 'mgs': 0, 'depth': 2.606, 'time': 10.54, 'pitch': -1.93, 'roll': 5.14}
{'lipoC2': 7.92, 'temp': 25.38, 'lipoC3S3': 11.9, 'rot1': 79, 'rot0': 82, 'rot3': 42, 'rot2': 50, 'state': 'normal', 'yaw': -6.37, 'datetime': '2018-10-12 13:30:19.620484', 'mgs': 0, 'depth': 2.53, 'time': 10.64, 'pitch': -2.1, 'roll': 3.6}
{'lipoC2': 7.92, 'temp': 25.31, 'lipoC3S3': 11.85, 'rot1': 79, 'rot0': 82, 'rot3': 43, 'rot2': 51, 'state': 'normal', 'yaw': -7.35, 'datetime': '2018-10-12 13:30:19.639774', 'mgs': 0, 'depth': 2.454, 'time': 10.73, 'pitch': -2.28, 'roll': 2.19}
{'lipoC2': 7.93, 'temp': 25.31, 'lipoC3S3': 11.85, 'rot1': 79, 'rot0': 82, 'rot3': 43, 'rot2': 52, 'state': 'normal', 'yaw': -8.36, 'datetime': '2018-10-12 13:30:19.647659', 'mgs': 0, 'depth': 2.301, 'time': 10.83, 'pitch': -2.5, 'roll': 0.68}
{'lipoC2': 7.93, 'temp': 25.38, 'lipoC3S3': 11.89, 'rot1': 79, 'rot0': 82, 'rot3': 44, 'rot2': 52, 'state': 'normal', 'yaw': -9.3, 'datetime': '2018-10-12 13:30:19.666915', 'mgs': 0, 'depth': 2.148, 'time': 10.93, 'pitch': -2.74, 'roll': -0.77}
{'lipoC2': 7.93, 'temp': 25.38, 'lipoC3S3': 11.9, 'rot1': 79, 'rot0': 82, 'rot3': 44, 'rot2': 53, 'state': 'normal', 'yaw': -10.15, 'datetime': '2018-10-12 13:30:19.674818', 'mgs': 0, 'depth': 2.225, 'time': 11.03, 'pitch': -3.02, 'roll': -2.17}
{'lipoC2': 7.93, 'temp': 25.38, 'lipoC3S3': 11.89, 'rot1': 79, 'rot0': 82, 'rot3': 45, 'rot2': 53, 'state': 'normal', 'yaw': -10.95, 'datetime': '2018-10-12 13:30:19.694110', 'mgs': 0, 'depth': 2.148, 'time': 11.13, 'pitch': -3.29, 'roll': -3.5}
{'lipoC2': 7.92, 'temp': 25.38, 'lipoC3S3': 11.88, 'rot1': 79, 'rot0': 82, 'rot3': 45, 'rot2': 54, 'state': 'normal', 'yaw': -11.6, 'datetime': '2018-10-12 13:30:19.701991', 'mgs': 0, 'depth': 1.843, 'time': 11.23, 'pitch': -3.53, 'roll': -4.57}
{'lipoC2': 7.92, 'temp': 25.38, 'lipoC3S3': 11.89, 'rot1': 79, 'rot0': 82, 'rot3': 46, 'rot2': 55, 'state': 'normal', 'yaw': -12.26, 'datetime': '2018-10-12 13:30:19.721279', 'mgs': 0, 'depth': 1.691, 'time': 11.32, 'pitch': -3.75, 'roll': -5.52}
{'lipoC2': 7.92, 'temp': 25.38, 'lipoC3S3': 11.9, 'rot1': 79, 'rot0': 82, 'rot3': 46, 'rot2': 55, 'state': 'normal', 'yaw': -12.85, 'datetime': '2018-10-12 13:30:19.729131', 'mgs': 0, 'depth': 2.072, 'time': 11.42, 'pitch': -3.89, 'roll': -6.14}
{'lipoC2': 7.93, 'temp': 25.38, 'lipoC3S3': 11.89, 'rot1': 79, 'rot0': 82, 'rot3': 47, 'rot2': 56, 'state': 'normal', 'yaw': -13.36, 'datetime': '2018-10-12 13:30:19.748449', 'mgs': 0, 'depth': 1.767, 'time': 11.52, 'pitch': -3.87, 'roll': -6.39}
{'lipoC2': 7.93, 'temp': 25.38, 'lipoC3S3': 11.88, 'rot1': 79, 'rot0': 82, 'rot3': 47, 'rot2': 57, 'state': 'normal', 'yaw': -13.77, 'datetime': '2018-10-12 13:30:19.756339', 'mgs': 0, 'depth': 1.614, 'time': 11.62, 'pitch': -3.68, 'roll': -6.34}
{'lipoC2': 7.92, 'temp': 25.38, 'lipoC3S3': 11.92, 'rot1': 79, 'rot0': 82, 'rot3': 48, 'rot2': 57, 'state': 'normal', 'yaw': -14.16, 'datetime': '2018-10-12 13:30:19.775929', 'mgs': 0, 'depth': 1.614, 'time': 11.71, 'pitch': -3.35, 'roll': -5.95}
{'lipoC2': 7.93, 'temp': 25.38, 'lipoC3S3': 11.92, 'rot1': 79, 'rot0': 82, 'rot3': 48, 'rot2': 58, 'state': 'normal', 'yaw': -14.53, 'datetime': '2018-10-12 13:30:19.783861', 'mgs': 0, 'depth': 1.843, 'time': 11.81, 'pitch': -3.08, 'roll': -5.32}
{'lipoC2': 7.93, 'temp': 25.38, 'lipoC3S3': 11.87, 'rot1': 79, 'rot0': 82, 'rot3': 49, 'rot2': 59, 'state': 'normal', 'yaw': -14.94, 'datetime': '2018-10-12 13:30:19.803158', 'mgs': 0, 'depth': 1.767, 'time': 11.91, 'pitch': -3.06, 'roll': -4.59}
{'lipoC2': 7.92, 'temp': 25.38, 'lipoC3S3': 11.9, 'rot1': 79, 'rot0': 82, 'rot3': 49, 'rot2': 59, 'state': 'normal', 'yaw': -15.31, 'datetime': '2018-10-12 13:30:19.811041', 'mgs': 0, 'depth': 1.614, 'time': 12.01, 'pitch': -3.16, 'roll': -3.98}
{'lipoC2': 7.93, 'temp': 25.38, 'lipoC3S3': 11.92, 'rot1': 79, 'rot0': 82, 'rot3': 50, 'rot2': 60, 'state': 'normal', 'yaw': -15.67, 'datetime': '2018-10-12 13:30:19.830335', 'mgs': 0, 'depth': 1.157, 'time': 12.1, 'pitch': -3.28, 'roll': -3.49}
{'lipoC2': 7.93, 'temp': 25.38, 'lipoC3S3': 11.9, 'rot1': 79, 'rot0': 82, 'rot3': 51, 'rot2': 60, 'state': 'normal', 'yaw': -15.97, 'datetime': '2018-10-12 13:30:19.838227', 'mgs': 0, 'depth': 1.767, 'time': 12.2, 'pitch': -3.31, 'roll': -3.19}
{'lipoC2': 7.92, 'temp': 25.38, 'lipoC3S3': 11.89, 'rot1': 79, 'rot0': 82, 'rot3': 51, 'rot2': 61, 'state': 'normal', 'yaw': -16.21, 'datetime': '2018-10-12 13:30:19.857494', 'mgs': 0, 'depth': 1.614, 'time': 12.3, 'pitch': -3.27, 'roll': -3.09}
{'lipoC2': 7.93, 'temp': 25.38, 'lipoC3S3': 11.88, 'rot1': 79, 'rot0': 82, 'rot3': 52, 'rot2': 62, 'state': 'normal', 'yaw': -16.44, 'datetime': '2018-10-12 13:30:19.865352', 'mgs': 0, 'depth': 1.538, 'time': 12.4, 'pitch': -3.23, 'roll': -3.07}
{'lipoC2': 7.93, 'temp': 25.38, 'lipoC3S3': 11.88, 'rot1': 79, 'rot0': 82, 'rot3': 52, 'rot2': 62, 'state': 'normal', 'yaw': -16.66, 'datetime': '2018-10-12 13:30:19.884629', 'mgs': 0, 'depth': 1.614, 'time': 12.5, 'pitch': -3.16, 'roll': -3.12}
{'lipoC2': 7.93, 'temp': 25.38, 'lipoC3S3': 11.92, 'rot1': 79, 'rot0': 82, 'rot3': 53, 'rot2': 63, 'state': 'normal', 'yaw': -16.89, 'datetime': '2018-10-12 13:30:19.892523', 'mgs': 0, 'depth': 1.538, 'time': 12.59, 'pitch': -3.17, 'roll': -3.17}
{'lipoC2': 7.93, 'temp': 25.38, 'lipoC3S3': 11.9, 'rot1': 79, 'rot0': 82, 'rot3': 53, 'rot2': 64, 'state': 'normal', 'yaw': -17.13, 'datetime': '2018-10-12 13:30:19.911672', 'mgs': 0, 'depth': 1.843, 'time': 12.69, 'pitch': -3.24, 'roll': -3.13}
{'lipoC2': 7.93, 'temp': 25.38, 'lipoC3S3': 11.88, 'rot1': 79, 'rot0': 82, 'rot3': 54, 'rot2': 64, 'state': 'normal', 'yaw': -17.33, 'datetime': '2018-10-12 13:30:19.919134', 'mgs': 0, 'depth': 1.614, 'time': 12.79, 'pitch': -3.33, 'roll': -3.02}
{'lipoC2': 7.93, 'temp': 25.31, 'lipoC3S3': 11.87, 'rot1': 79, 'rot0': 82, 'rot3': 54, 'rot2': 65, 'state': 'normal', 'yaw': -17.5, 'datetime': '2018-10-12 13:30:19.937918', 'mgs': 0, 'depth': 1.767, 'time': 12.89, 'pitch': -3.4, 'roll': -2.8}
{'lipoC2': 7.92, 'temp': 25.31, 'lipoC3S3': 11.89, 'rot1': 79, 'rot0': 82, 'rot3': 55, 'rot2': 66, 'state': 'normal', 'yaw': -17.63, 'datetime': '2018-10-12 13:30:19.945357', 'mgs': 0, 'depth': 1.538, 'time': 12.99, 'pitch': -3.38, 'roll': -2.55}
{'lipoC2': 7.93, 'temp': 25.31, 'lipoC3S3': 11.9, 'rot1': 79, 'rot0': 82, 'rot3': 56, 'rot2': 66, 'state': 'normal', 'yaw': -17.77, 'datetime': '2018-10-12 13:30:19.964194', 'mgs': 0, 'depth': 1.843, 'time': 13.08, 'pitch': -3.33, 'roll': -2.4}
{'lipoC2': 7.93, 'temp': 25.31, 'lipoC3S3': 11.92, 'rot1': 79, 'rot0': 82, 'rot3': 56, 'rot2': 67, 'state': 'normal', 'yaw': -17.95, 'datetime': '2018-10-12 13:30:19.971695', 'mgs': 0, 'depth': 1.538, 'time': 13.18, 'pitch': -3.17, 'roll': -2.33}
{'lipoC2': 7.93, 'temp': 25.31, 'lipoC3S3': 11.9, 'rot1': 79, 'rot0': 82, 'rot3': 57, 'rot2': 68, 'state': 'normal', 'yaw': -18.07, 'datetime': '2018-10-12 13:30:19.990548', 'mgs': 0, 'depth': 1.843, 'time': 13.28, 'pitch': -2.96, 'roll': -2.29}
{'lipoC2': 7.93, 'temp': 25.38, 'lipoC3S3': 11.87, 'rot1': 79, 'rot0': 82, 'rot3': 57, 'rot2': 68, 'state': 'normal', 'yaw': -18.19, 'datetime': '2018-10-12 13:30:19.998139', 'mgs': 0, 'depth': 1.691, 'time': 13.38, 'pitch': -2.73, 'roll': -2.23}
{'lipoC2': 7.93, 'temp': 25.38, 'lipoC3S3': 11.9, 'rot1': 79, 'rot0': 82, 'rot3': 58, 'rot2': 69, 'state': 'normal', 'yaw': -18.31, 'datetime': '2018-10-12 13:30:20.016972', 'mgs': 0, 'depth': 1.614, 'time': 13.47, 'pitch': -2.52, 'roll': -2.14}
{'lipoC2': 7.93, 'temp': 25.38, 'lipoC3S3': 11.87, 'rot1': 79, 'rot0': 82, 'rot3': 58, 'rot2': 70, 'state': 'normal', 'yaw': -18.41, 'datetime': '2018-10-12 13:30:20.024408', 'mgs': 0, 'depth': 1.767, 'time': 13.57, 'pitch': -2.36, 'roll': -2.1}
{'lipoC2': 7.93, 'temp': 25.38, 'lipoC3S3': 11.88, 'rot1': 79, 'rot0': 82, 'rot3': 59, 'rot2': 70, 'state': 'normal', 'yaw': -18.5, 'datetime': '2018-10-12 13:30:20.043227', 'mgs': 0, 'depth': 1.614, 'time': 13.67, 'pitch': -2.22, 'roll': -2.09}
{'lipoC2': 7.93, 'temp': 25.38, 'lipoC3S3': 11.92, 'rot1': 79, 'rot0': 82, 'rot3': 59, 'rot2': 71, 'state': 'normal', 'yaw': -18.57, 'datetime': '2018-10-12 13:30:20.050672', 'mgs': 0, 'depth': 1.614, 'time': 13.77, 'pitch': -2.13, 'roll': -2.19}
{'lipoC2': 7.93, 'temp': 25.38, 'lipoC3S3': 11.92, 'rot1': 79, 'rot0': 82, 'rot3': 60, 'rot2': 72, 'state': 'normal', 'yaw': -18.7, 'datetime': '2018-10-12 13:30:20.069530', 'mgs': 0, 'depth': 1.92, 'time': 13.86, 'pitch': -2.14, 'roll': -2.37}
{'lipoC2': 7.93, 'temp': 25.38, 'lipoC3S3': 11.85, 'rot1': 79, 'rot0': 82, 'rot3': 60, 'rot2': 72, 'state': 'normal', 'yaw': -18.83, 'datetime': '2018-10-12 13:30:20.077013', 'mgs': 0, 'depth': 1.843, 'time': 13.96, 'pitch': -2.17, 'roll': -2.51}
{'lipoC2': 7.93, 'temp': 25.38, 'lipoC3S3': 11.88, 'rot1': 79, 'rot0': 82, 'rot3': 61, 'rot2': 73, 'state': 'normal', 'yaw': -18.92, 'datetime': '2018-10-12 13:30:20.095896', 'mgs': 0, 'depth': 1.614, 'time': 14.06, 'pitch': -2.19, 'roll': -2.55}
{'lipoC2': 7.93, 'temp': 25.38, 'lipoC3S3': 11.92, 'rot1': 79, 'rot0': 82, 'rot3': 61, 'rot2': 73, 'state': 'normal', 'yaw': -18.93, 'datetime': '2018-10-12 13:30:20.103354', 'mgs': 0, 'depth': 1.538, 'time': 14.16, 'pitch': -2.19, 'roll': -2.5}
{'lipoC2': 7.93, 'temp': 25.38, 'lipoC3S3': 11.92, 'rot1': 79, 'rot0': 82, 'rot3': 62, 'rot2': 74, 'state': 'normal', 'yaw': -18.93, 'datetime': '2018-10-12 13:30:20.122182', 'mgs': 0, 'depth': 1.843, 'time': 14.26, 'pitch': -2.22, 'roll': -2.44}
{'lipoC2': 7.93, 'temp': 25.38, 'lipoC3S3': 11.94, 'rot1': 79, 'rot0': 82, 'rot3': 62, 'rot2': 75, 'state': 'normal', 'yaw': -19.02, 'datetime': '2018-10-12 13:30:20.129585', 'mgs': 0, 'depth': 1.614, 'time': 14.35, 'pitch': -2.29, 'roll': -2.41}
{'lipoC2': 7.93, 'temp': 25.38, 'lipoC3S3': 11.81, 'rot1': 80, 'rot0': 82, 'rot3': 63, 'rot2': 75, 'state': 'normal', 'yaw': -19.19, 'datetime': '2018-10-12 13:30:20.148356', 'mgs': 0, 'depth': 1.614, 'time': 14.45, 'pitch': -2.35, 'roll': -2.46}
{'lipoC2': 7.93, 'temp': 25.31, 'lipoC3S3': 11.89, 'rot1': 81, 'rot0': 83, 'rot3': 63, 'rot2': 76, 'state': 'normal', 'yaw': -19.94, 'datetime': '2018-10-12 13:30:20.155797', 'mgs': 0, 'depth': 1.843, 'time': 14.55, 'pitch': -2.56, 'roll': -2.4}
{'lipoC2': 7.93, 'temp': 25.31, 'lipoC3S3': 11.88, 'rot1': 82, 'rot0': 84, 'rot3': 64, 'rot2': 77, 'state': 'normal', 'yaw': -21.29, 'datetime': '2018-10-12 13:30:20.174624', 'mgs': 0, 'depth': 1.843, 'time': 14.65, 'pitch': -2.9, 'roll': -2.27}
{'lipoC2': 7.92, 'temp': 25.31, 'lipoC3S3': 11.89, 'rot1': 82, 'rot0': 85, 'rot3': 65, 'rot2': 77, 'state': 'normal', 'yaw': -22.96, 'datetime': '2018-10-12 13:30:20.182075', 'mgs': 0, 'depth': 1.92, 'time': 14.74, 'pitch': -3.28, 'roll': -2.14}
{'lipoC2': 7.93, 'temp': 25.31, 'lipoC3S3': 11.89, 'rot1': 83, 'rot0': 86, 'rot3': 65, 'rot2': 78, 'state': 'normal', 'yaw': -25.27, 'datetime': '2018-10-12 13:30:20.200940', 'mgs': 0, 'depth': 1.843, 'time': 14.84, 'pitch': -3.68, 'roll': -2.01}
{'lipoC2': 7.92, 'temp': 25.31, 'lipoC3S3': 11.89, 'rot1': 84, 'rot0': 86, 'rot3': 66, 'rot2': 79, 'state': 'normal', 'yaw': -27.95, 'datetime': '2018-10-12 13:30:20.294030', 'mgs': 0, 'depth': 1.996, 'time': 14.94, 'pitch': -4.02, 'roll': -1.8}
{'lipoC2': 7.93, 'temp': 25.38, 'lipoC3S3': 11.85, 'rot1': 85, 'rot0': 87, 'rot3': 66, 'rot2': 79, 'state': 'normal', 'yaw': -31.0, 'datetime': '2018-10-12 13:30:20.312934', 'mgs': 0, 'depth': 2.301, 'time': 15.04, 'pitch': -4.33, 'roll': -1.56}
{'lipoC2': 7.93, 'temp': 25.38, 'lipoC3S3': 11.84, 'rot1': 86, 'rot0': 88, 'rot3': 67, 'rot2': 80, 'state': 'normal', 'yaw': -34.42, 'datetime': '2018-10-12 13:30:20.370419', 'mgs': 0, 'depth': 1.691, 'time': 15.14, 'pitch': -4.6, 'roll': -1.28}
{'lipoC2': 7.93, 'temp': 25.38, 'lipoC3S3': 11.89, 'rot1': 87, 'rot0': 89, 'rot3': 67, 'rot2': 80, 'state': 'normal', 'yaw': -37.79, 'datetime': '2018-10-12 13:30:20.468492', 'mgs': 0, 'depth': 1.843, 'time': 15.24, 'pitch': -4.81, 'roll': -0.98}
{'lipoC2': 7.93, 'temp': 25.38, 'lipoC3S3': 11.85, 'rot1': 87, 'rot0': 90, 'rot3': 68, 'rot2': 81, 'state': 'normal', 'yaw': -41.78, 'datetime': '2018-10-12 13:30:20.565913', 'mgs': 0, 'depth': 1.996, 'time': 15.33, 'pitch': -4.98, 'roll': -0.68}
{'lipoC2': 7.92, 'temp': 25.38, 'lipoC3S3': 11.77, 'rot1': 88, 'rot0': 90, 'rot3': 68, 'rot2': 82, 'state': 'normal', 'yaw': -45.96, 'datetime': '2018-10-12 13:30:20.663309', 'mgs': 0, 'depth': 1.691, 'time': 15.43, 'pitch': -5.06, 'roll': -0.47}
{'lipoC2': 7.93, 'temp': 25.38, 'lipoC3S3': 11.88, 'rot1': 89, 'rot0': 91, 'rot3': 69, 'rot2': 82, 'state': 'normal', 'yaw': -50.3, 'datetime': '2018-10-12 13:30:20.760719', 'mgs': 0, 'depth': 1.92, 'time': 15.53, 'pitch': -5.06, 'roll': -0.31}
{'lipoC2': 7.93, 'temp': 25.38, 'lipoC3S3': 11.88, 'rot1': 90, 'rot0': 92, 'rot3': 70, 'rot2': 83, 'state': 'normal', 'yaw': -54.35, 'datetime': '2018-10-12 13:30:20.858119', 'mgs': 0, 'depth': 1.843, 'time': 15.63, 'pitch': -5.05, 'roll': -0.23}
{'lipoC2': 7.94, 'temp': 25.38, 'lipoC3S3': 11.85, 'rot1': 91, 'rot0': 93, 'rot3': 70, 'rot2': 84, 'state': 'normal', 'yaw': -58.94, 'datetime': '2018-10-12 13:30:20.955563', 'mgs': 0, 'depth': 1.538, 'time': 15.72, 'pitch': -5.05, 'roll': -0.16}
{'lipoC2': 7.93, 'temp': 25.38, 'lipoC3S3': 11.83, 'rot1': 92, 'rot0': 94, 'rot3': 71, 'rot2': 84, 'state': 'normal', 'yaw': -63.6, 'datetime': '2018-10-12 13:30:21.053552', 'mgs': 0, 'depth': 1.614, 'time': 15.82, 'pitch': -4.97, 'roll': -0.05}
{'lipoC2': 7.92, 'temp': 25.38, 'lipoC3S3': 11.89, 'rot1': 93, 'rot0': 94, 'rot3': 71, 'rot2': 85, 'state': 'normal', 'yaw': -68.32, 'datetime': '2018-10-12 13:30:21.150390', 'mgs': 0, 'depth': 1.996, 'time': 15.92, 'pitch': -4.79, 'roll': 0.1}
{'lipoC2': 7.93, 'temp': 25.38, 'lipoC3S3': 11.87, 'rot1': 94, 'rot0': 95, 'rot3': 72, 'rot2': 86, 'state': 'normal', 'yaw': -72.6, 'datetime': '2018-10-12 13:30:21.247786', 'mgs': 0, 'depth': 1.157, 'time': 16.02, 'pitch': -4.56, 'roll': 0.24}
{'lipoC2': 7.93, 'temp': 25.38, 'lipoC3S3': 11.85, 'rot1': 94, 'rot0': 96, 'rot3': 72, 'rot2': 86, 'state': 'normal', 'yaw': -77.4, 'datetime': '2018-10-12 13:30:21.345191', 'mgs': 0, 'depth': 1.614, 'time': 16.11, 'pitch': -4.25, 'roll': 0.33}
{'lipoC2': 7.93, 'temp': 25.38, 'lipoC3S3': 11.87, 'rot1': 95, 'rot0': 97, 'rot3': 73, 'rot2': 87, 'state': 'normal', 'yaw': -82.24, 'datetime': '2018-10-12 13:30:21.442625', 'mgs': 0, 'depth': 1.691, 'time': 16.21, 'pitch': -3.95, 'roll': 0.34}
{'lipoC2': 7.93, 'temp': 25.38, 'lipoC3S3': 11.83, 'rot1': 96, 'rot0': 98, 'rot3': 74, 'rot2': 88, 'state': 'normal', 'yaw': -86.63, 'datetime': '2018-10-12 13:30:21.540977', 'mgs': 0, 'depth': 2.225, 'time': 16.31, 'pitch': -3.73, 'roll': 0.29}
{'lipoC2': 7.93, 'temp': 25.38, 'lipoC3S3': 11.83, 'rot1': 97, 'rot0': 99, 'rot3': 74, 'rot2': 88, 'state': 'normal', 'yaw': -91.56, 'datetime': '2018-10-12 13:30:21.639455', 'mgs': 0, 'depth': 1.843, 'time': 16.41, 'pitch': -3.57, 'roll': 0.21}
{'lipoC2': 7.93, 'temp': 25.38, 'lipoC3S3': 11.85, 'rot1': 98, 'rot0': 99, 'rot3': 75, 'rot2': 89, 'state': 'normal', 'yaw': -96.56, 'datetime': '2018-10-12 13:30:21.738017', 'mgs': 0, 'depth': 2.454, 'time': 16.51, 'pitch': -3.53, 'roll': 0.16}
{'lipoC2': 7.94, 'temp': 25.38, 'lipoC3S3': 11.85, 'rot1': 98, 'rot0': 100, 'rot3': 75, 'rot2': 90, 'state': 'normal', 'yaw': -101.65, 'datetime': '2018-10-12 13:30:21.835648', 'mgs': 0, 'depth': 1.614, 'time': 16.6, 'pitch': -3.55, 'roll': 0.15}
{'lipoC2': 7.93, 'temp': 25.38, 'lipoC3S3': 11.85, 'rot1': 99, 'rot0': 101, 'rot3': 76, 'rot2': 90, 'state': 'normal', 'yaw': -106.81, 'datetime': '2018-10-12 13:30:21.938670', 'mgs': 0, 'depth': 1.691, 'time': 16.7, 'pitch': -3.63, 'roll': 0.2}
{'lipoC2': 7.92, 'temp': 25.38, 'lipoC3S3': 11.89, 'rot1': 100, 'rot0': 102, 'rot3': 76, 'rot2': 91, 'state': 'normal', 'yaw': -111.51, 'datetime': '2018-10-12 13:30:22.036961', 'mgs': 0, 'depth': 1.843, 'time': 16.8, 'pitch': -3.68, 'roll': 0.24}
{'lipoC2': 7.93, 'temp': 25.38, 'lipoC3S3': 11.85, 'rot1': 101, 'rot0': 103, 'rot3': 77, 'rot2': 92, 'state': 'normal', 'yaw': -116.79, 'datetime': '2018-10-12 13:30:22.136026', 'mgs': 0, 'depth': 1.614, 'time': 16.9, 'pitch': -3.67, 'roll': 0.25}
{'lipoC2': 7.93, 'temp': 25.38, 'lipoC3S3': 11.89, 'rot1': 102, 'rot0': 103, 'rot3': 78, 'rot2': 92, 'state': 'normal', 'yaw': -122.15, 'datetime': '2018-10-12 13:30:22.234345', 'mgs': 0, 'depth': 1.614, 'time': 17.0, 'pitch': -3.65, 'roll': 0.22}
{'lipoC2': 7.93, 'temp': 25.38, 'lipoC3S3': 11.89, 'rot1': 103, 'rot0': 104, 'rot3': 78, 'rot2': 93, 'state': 'normal', 'yaw': -127.56, 'datetime': '2018-10-12 13:30:22.332028', 'mgs': 0, 'depth': 1.614, 'time': 17.1, 'pitch': -3.66, 'roll': 0.16}
{'lipoC2': 7.92, 'temp': 25.38, 'lipoC3S3': 11.85, 'rot1': 103, 'rot0': 105, 'rot3': 79, 'rot2': 94, 'state': 'normal', 'yaw': -132.98, 'datetime': '2018-10-12 13:30:22.429760', 'mgs': 0, 'depth': 1.691, 'time': 17.19, 'pitch': -3.64, 'roll': 0.1}
{'lipoC2': 7.93, 'temp': 25.38, 'lipoC3S3': 11.88, 'rot1': 104, 'rot0': 106, 'rot3': 79, 'rot2': 94, 'state': 'normal', 'yaw': -137.85, 'datetime': '2018-10-12 13:30:22.528020', 'mgs': 0, 'depth': 1.843, 'time': 17.29, 'pitch': -3.56, 'roll': 0.04}
{'lipoC2': 7.93, 'temp': 25.38, 'lipoC3S3': 11.88, 'rot1': 105, 'rot0': 107, 'rot3': 80, 'rot2': 95, 'state': 'normal', 'yaw': -143.24, 'datetime': '2018-10-12 13:30:22.625637', 'mgs': 0, 'depth': 1.92, 'time': 17.39, 'pitch': -3.47, 'roll': -0.08}
{'lipoC2': 7.93, 'temp': 25.31, 'lipoC3S3': 11.94, 'rot1': 106, 'rot0': 107, 'rot3': 80, 'rot2': 96, 'state': 'normal', 'yaw': -148.6, 'datetime': '2018-10-12 13:30:22.723413', 'mgs': 0, 'depth': 1.614, 'time': 17.49, 'pitch': -3.39, 'roll': -0.28}
