{'lipoC2': 7.86, 'temp': 28.81, 'lipoC3S3': 12.22, 'rot1': 0, 'rot0': 0, 'rot3': 0, 'rot2': 0, 'state': 'normal', 'yaw': 0.0, 'datetime': '2018-10-12 20:40:34.789837', 'mgs': 0, 'depth': -0.446, 'time': 1.26, 'pitch': 7.01, 'roll': -0.29}
{'lipoC2': 7.86, 'temp': 28.81, 'lipoC3S3': 12.22, 'rot1': 0, 'rot0': 0, 'rot3': 0, 'rot2': 0, 'state': 'normal', 'yaw': 0.0, 'datetime': '2018-10-12 20:40:34.806843', 'mgs': 0, 'depth': -0.446, 'time': 1.36, 'pitch': 7.01, 'roll': -0.29}
{'lipoC2': 7.86, 'temp': 28.81, 'lipoC3S3': 12.22, 'rot1': 0, 'rot0': 0, 'rot3': 0, 'rot2': 0, 'state': 'normal', 'yaw': 0.0, 'datetime': '2018-10-12 20:40:34.823641', 'mgs': 0, 'depth': -0.522, 'time': 1.46, 'pitch': 7.01, 'roll': -0.29}
{'lipoC2': 7.86, 'temp': 28.81, 'lipoC3S3': 12.22, 'rot1': 0, 'rot0': 0, 'rot3': 0, 'rot2': 0, 'state': 'normal', 'yaw': 0.0, 'datetime': '2018-10-12 20:40:34.840497', 'mgs': 0, 'depth': -0.522, 'time': 1.55, 'pitch': 7.01, 'roll': -0.29}
{'lipoC2': 7.86, 'temp': 28.81, 'lipoC3S3': 12.22, 'rot1': 0, 'rot0': 0, 'rot3': 0, 'rot2': 0, 'state': 'normal', 'yaw': 0.0, 'datetime': '2018-10-12 20:40:34.857342', 'mgs': 0, 'depth': -0.522, 'time': 1.65, 'pitch': 7.01, 'roll': -0.29}
{'lipoC2': 7.86, 'temp': 28.81, 'lipoC3S3': 12.23, 'rot1': 0, 'rot0': 0, 'rot3': 0, 'rot2': 0, 'state': 'normal', 'yaw': 0.0, 'datetime': '2018-10-12 20:40:34.874265', 'mgs': 0, 'depth': -0.446, 'time': 1.75, 'pitch': 7.01, 'roll': -0.29}
{'lipoC2': 7.86, 'temp': 28.81, 'lipoC3S3': 12.22, 'rot1': 0, 'rot0': 0, 'rot3': 0, 'rot2': 0, 'state': 'normal', 'yaw': 0.0, 'datetime': '2018-10-12 20:40:34.906098', 'mgs': 0, 'depth': -0.522, 'time': 1.85, 'pitch': 7.01, 'roll': -0.29}
{'lipoC2': 7.85, 'temp': 28.75, 'lipoC3S3': 12.22, 'rot1': 0, 'rot0': 0, 'rot3': 0, 'rot2': 0, 'state': 'normal', 'yaw': 0.0, 'datetime': '2018-10-12 20:40:35.003925', 'mgs': 0, 'depth': -0.446, 'time': 1.94, 'pitch': 7.01, 'roll': -0.29}
{'lipoC2': 7.85, 'temp': 28.75, 'lipoC3S3': 12.22, 'rot1': 0, 'rot0': 0, 'rot3': 0, 'rot2': 0, 'state': 'normal', 'yaw': 0.0, 'datetime': '2018-10-12 20:40:35.102246', 'mgs': 0, 'depth': -0.446, 'time': 2.04, 'pitch': 7.01, 'roll': -0.29}
{'lipoC2': 7.86, 'temp': 28.75, 'lipoC3S3': 12.22, 'rot1': 0, 'rot0': 0, 'rot3': 0, 'rot2': 0, 'state': 'normal', 'yaw': 0.0, 'datetime': '2018-10-12 20:40:35.199287', 'mgs': 0, 'depth': -0.446, 'time': 2.14, 'pitch': 7.01, 'roll': -0.29}
{'lipoC2': 7.86, 'temp': 28.81, 'lipoC3S3': 12.23, 'rot1': 0, 'rot0': 0, 'rot3': 0, 'rot2': 0, 'state': 'normal', 'yaw': 0.0, 'datetime': '2018-10-12 20:40:35.296317', 'mgs': 0, 'depth': -0.522, 'time': 2.24, 'pitch': 7.01, 'roll': -0.29}
{'lipoC2': 7.85, 'temp': 28.81, 'lipoC3S3': 12.22, 'rot1': 0, 'rot0': 0, 'rot3': 0, 'rot2': 0, 'state': 'normal', 'yaw': 0.0, 'datetime': '2018-10-12 20:40:35.394262', 'mgs': 0, 'depth': -0.446, 'time': 2.34, 'pitch': 7.01, 'roll': -0.29}
{'lipoC2': 7.86, 'temp': 28.75, 'lipoC3S3': 12.22, 'rot1': 0, 'rot0': 0, 'rot3': 0, 'rot2': 0, 'state': 'normal', 'yaw': 0.0, 'datetime': '2018-10-12 20:40:35.491293', 'mgs': 0, 'depth': -0.446, 'time': 2.43, 'pitch': 7.01, 'roll': -0.29}
{'lipoC2': 7.86, 'temp': 28.75, 'lipoC3S3': 12.23, 'rot1': 0, 'rot0': 0, 'rot3': 0, 'rot2': 0, 'state': 'normal', 'yaw': 0.0, 'datetime': '2018-10-12 20:40:35.588343', 'mgs': 0, 'depth': -0.522, 'time': 2.53, 'pitch': 7.01, 'roll': -0.29}
{'lipoC2': 7.86, 'temp': 28.75, 'lipoC3S3': 12.22, 'rot1': 0, 'rot0': 0, 'rot3': 0, 'rot2': 0, 'state': 'normal', 'yaw': 0.0, 'datetime': '2018-10-12 20:40:35.687038', 'mgs': 0, 'depth': -0.522, 'time': 2.63, 'pitch': 7.01, 'roll': -0.29}
{'lipoC2': 7.86, 'temp': 28.75, 'lipoC3S3': 12.22, 'rot1': 0, 'rot0': 0, 'rot3': 0, 'rot2': 0, 'state': 'normal', 'yaw': 0.0, 'datetime': '2018-10-12 20:40:35.788310', 'mgs': 0, 'depth': -0.522, 'time': 2.72, 'pitch': 7.01, 'roll': -0.29}
{'lipoC2': 7.86, 'temp': 28.75, 'lipoC3S3': 12.22, 'rot1': 0, 'rot0': 0, 'rot3': 0, 'rot2': 0, 'state': 'normal', 'yaw': 0.0, 'datetime': '2018-10-12 20:40:35.888461', 'mgs': 0, 'depth': -0.598, 'time': 2.82, 'pitch': 7.01, 'roll': -0.29}
{'lipoC2': 7.86, 'temp': 28.81, 'lipoC3S3': 12.22, 'rot1': 0, 'rot0': 0, 'rot3': 0, 'rot2': 0, 'state': 'normal', 'yaw': 0.0, 'datetime': '2018-10-12 20:40:35.985300', 'mgs': 0, 'depth': -0.522, 'time': 2.92, 'pitch': 7.01, 'roll': -0.29}
{'lipoC2': 7.86, 'temp': 28.81, 'lipoC3S3': 12.23, 'rot1': 0, 'rot0': 0, 'rot3': 0, 'rot2': 0, 'state': 'normal', 'yaw': 0.0, 'datetime': '2018-10-12 20:40:36.082618', 'mgs': 0, 'depth': -0.522, 'time': 3.02, 'pitch': 7.01, 'roll': -0.29}
{'lipoC2': 7.86, 'temp': 28.81, 'lipoC3S3': 12.22, 'rot1': 0, 'rot0': 0, 'rot3': 0, 'rot2': 0, 'state': 'normal', 'yaw': 0.0, 'datetime': '2018-10-12 20:40:36.180857', 'mgs': 0, 'depth': -0.522, 'time': 3.12, 'pitch': 7.01, 'roll': -0.29}
{'lipoC2': 7.86, 'temp': 28.75, 'lipoC3S3': 12.22, 'rot1': 0, 'rot0': 0, 'rot3': 0, 'rot2': 0, 'state': 'normal', 'yaw': 0.0, 'datetime': '2018-10-12 20:40:36.279143', 'mgs': 0, 'depth': -0.446, 'time': 3.22, 'pitch': 7.01, 'roll': -0.29}
{'lipoC2': 7.85, 'temp': 28.75, 'lipoC3S3': 12.22, 'rot1': 0, 'rot0': 0, 'rot3': 0, 'rot2': 0, 'state': 'normal', 'yaw': 0.0, 'datetime': '2018-10-12 20:40:36.376225', 'mgs': 0, 'depth': -0.446, 'time': 3.31, 'pitch': 7.01, 'roll': -0.29}
{'lipoC2': 7.86, 'temp': 28.81, 'lipoC3S3': 12.22, 'rot1': 0, 'rot0': 0, 'rot3': 0, 'rot2': 0, 'state': 'normal', 'yaw': 0.0, 'datetime': '2018-10-12 20:40:36.473383', 'mgs': 0, 'depth': -0.446, 'time': 3.41, 'pitch': 7.01, 'roll': -0.29}
{'lipoC2': 7.85, 'temp': 28.81, 'lipoC3S3': 12.22, 'rot1': 0, 'rot0': 0, 'rot3': 0, 'rot2': 0, 'state': 'normal', 'yaw': 0.0, 'datetime': '2018-10-12 20:40:36.571751', 'mgs': 0, 'depth': -0.522, 'time': 3.51, 'pitch': 7.01, 'roll': -0.29}
{'lipoC2': 7.86, 'temp': 28.81, 'lipoC3S3': 12.22, 'rot1': 0, 'rot0': 0, 'rot3': 0, 'rot2': 0, 'state': 'normal', 'yaw': 0.0, 'datetime': '2018-10-12 20:40:36.670053', 'mgs': 0, 'depth': -0.522, 'time': 3.61, 'pitch': 7.01, 'roll': -0.29}
{'lipoC2': 7.86, 'temp': 28.81, 'lipoC3S3': 12.22, 'rot1': 0, 'rot0': 0, 'rot3': 0, 'rot2': 0, 'state': 'normal', 'yaw': 0.0, 'datetime': '2018-10-12 20:40:36.767029', 'mgs': 0, 'depth': -0.522, 'time': 3.7, 'pitch': 7.01, 'roll': -0.29}
{'lipoC2': 7.86, 'temp': 28.81, 'lipoC3S3': 12.22, 'rot1': 0, 'rot0': 0, 'rot3': 0, 'rot2': 0, 'state': 'normal', 'yaw': 0.0, 'datetime': '2018-10-12 20:40:36.864170', 'mgs': 0, 'depth': -0.522, 'time': 3.8, 'pitch': 7.01, 'roll': -0.29}
{'lipoC2': 7.86, 'temp': 28.81, 'lipoC3S3': 12.22, 'rot1': 0, 'rot0': 0, 'rot3': 0, 'rot2': 0, 'state': 'normal', 'yaw': 0.0, 'datetime': '2018-10-12 20:40:36.962414', 'mgs': 0, 'depth': -0.446, 'time': 3.9, 'pitch': 7.01, 'roll': -0.29}
{'lipoC2': 7.86, 'temp': 28.81, 'lipoC3S3': 12.22, 'rot1': 0, 'rot0': 0, 'rot3': 0, 'rot2': 0, 'state': 'normal', 'yaw': 0.0, 'datetime': '2018-10-12 20:40:37.060793', 'mgs': 0, 'depth': -0.446, 'time': 4.0, 'pitch': 7.01, 'roll': -0.29}
{'lipoC2': 7.86, 'temp': 28.81, 'lipoC3S3': 12.22, 'rot1': 0, 'rot0': 0, 'rot3': 0, 'rot2': 0, 'state': 'normal', 'yaw': 0.0, 'datetime': '2018-10-12 20:40:37.157832', 'mgs': 0, 'depth': -0.446, 'time': 4.1, 'pitch': 7.01, 'roll': -0.29}
{'lipoC2': 7.86, 'temp': 28.81, 'lipoC3S3': 12.22, 'rot1': 0, 'rot0': 0, 'rot3': 0, 'rot2': 0, 'state': 'normal', 'yaw': 0.0, 'datetime': '2018-10-12 20:40:37.254913', 'mgs': 0, 'depth': -0.446, 'time': 4.19, 'pitch': 7.01, 'roll': -0.29}
{'lipoC2': 7.85, 'temp': 28.81, 'lipoC3S3': 12.22, 'rot1': 0, 'rot0': 0, 'rot3': 0, 'rot2': 0, 'state': 'normal', 'yaw': 0.0, 'datetime': '2018-10-12 20:40:37.352942', 'mgs': 0, 'depth': -0.522, 'time': 4.29, 'pitch': 7.01, 'roll': -0.29}
{'lipoC2': 7.86, 'temp': 28.81, 'lipoC3S3': 12.22, 'rot1': 0, 'rot0': 0, 'rot3': 0, 'rot2': 0, 'state': 'normal', 'yaw': 0.0, 'datetime': '2018-10-12 20:40:37.450121', 'mgs': 0, 'depth': -0.522, 'time': 4.39, 'pitch': 7.01, 'roll': -0.29}
{'lipoC2': 7.86, 'temp': 28.81, 'lipoC3S3': 12.22, 'rot1': 0, 'rot0': 0, 'rot3': 0, 'rot2': 0, 'state': 'normal', 'yaw': 0.0, 'datetime': '2018-10-12 20:40:37.546983', 'mgs': 0, 'depth': -0.522, 'time': 4.49, 'pitch': 7.01, 'roll': -0.29}
{'lipoC2': 7.86, 'temp': 28.81, 'lipoC3S3': 12.22, 'rot1': 0, 'rot0': 0, 'rot3': 0, 'rot2': 0, 'state': 'normal', 'yaw': 0.0, 'datetime': '2018-10-12 20:40:37.644964', 'mgs': 0, 'depth': -0.522, 'time': 4.58, 'pitch': 7.01, 'roll': -0.29}
{'lipoC2': 7.85, 'temp': 28.81, 'lipoC3S3': 12.22, 'rot1': 0, 'rot0': 0, 'rot3': 0, 'rot2': 0, 'state': 'normal', 'yaw': 0.01, 'datetime': '2018-10-12 20:40:37.743299', 'mgs': 0, 'depth': -0.446, 'time': 4.68, 'pitch': 7.01, 'roll': -0.29}
{'lipoC2': 7.85, 'temp': 28.81, 'lipoC3S3': 12.22, 'rot1': 0, 'rot0': 0, 'rot3': 0, 'rot2': 0, 'state': 'normal', 'yaw': 0.01, 'datetime': '2018-10-12 20:40:37.841708', 'mgs': 0, 'depth': -0.522, 'time': 4.78, 'pitch': 7.03, 'roll': -0.24}
{'lipoC2': 7.86, 'temp': 28.81, 'lipoC3S3': 12.22, 'rot1': 0, 'rot0': 0, 'rot3': 0, 'rot2': 0, 'state': 'normal', 'yaw': 0.01, 'datetime': '2018-10-12 20:40:37.938756', 'mgs': 0, 'depth': -0.522, 'time': 4.88, 'pitch': 7.01, 'roll': -0.31}
{'lipoC2': 7.86, 'temp': 28.81, 'lipoC3S3': 12.22, 'rot1': 0, 'rot0': 0, 'rot3': 0, 'rot2': 0, 'state': 'normal', 'yaw': 0.01, 'datetime': '2018-10-12 20:40:38.036082', 'mgs': 0, 'depth': -0.522, 'time': 4.97, 'pitch': 7.03, 'roll': -0.22}
{'lipoC2': 7.85, 'temp': 28.81, 'lipoC3S3': 12.22, 'rot1': 0, 'rot0': 0, 'rot3': 0, 'rot2': 0, 'state': 'normal', 'yaw': 0.01, 'datetime': '2018-10-12 20:40:38.134401', 'mgs': 0, 'depth': -0.522, 'time': 5.07, 'pitch': 7.01, 'roll': -0.27}
{'lipoC2': 7.85, 'temp': 28.81, 'lipoC3S3': 12.22, 'rot1': 0, 'rot0': 0, 'rot3': 0, 'rot2': 0, 'state': 'normal', 'yaw': 0.01, 'datetime': '2018-10-12 20:40:38.232876', 'mgs': 0, 'depth': -0.446, 'time': 5.17, 'pitch': 7.04, 'roll': -0.2}
{'lipoC2': 7.86, 'temp': 28.81, 'lipoC3S3': 12.22, 'rot1': 0, 'rot0': 0, 'rot3': 0, 'rot2': 0, 'state': 'normal', 'yaw': 0.01, 'datetime': '2018-10-12 20:40:38.329830', 'mgs': 0, 'depth': -0.446, 'time': 5.27, 'pitch': 7.04, 'roll': -0.26}
{'lipoC2': 7.85, 'temp': 28.81, 'lipoC3S3': 12.22, 'rot1': 0, 'rot0': 0, 'rot3': 0, 'rot2': 0, 'state': 'normal', 'yaw': 0.01, 'datetime': '2018-10-12 20:40:38.426921', 'mgs': 0, 'depth': -0.522, 'time': 5.36, 'pitch': 7.03, 'roll': -0.18}
{'lipoC2': 7.86, 'temp': 28.81, 'lipoC3S3': 12.23, 'rot1': 0, 'rot0': 0, 'rot3': 0, 'rot2': 0, 'state': 'normal', 'yaw': 0.01, 'datetime': '2018-10-12 20:40:38.525408', 'mgs': 0, 'depth': -0.522, 'time': 5.46, 'pitch': 7.03, 'roll': -0.23}
{'lipoC2': 7.85, 'temp': 28.81, 'lipoC3S3': 12.22, 'rot1': 0, 'rot0': 0, 'rot3': 0, 'rot2': 0, 'state': 'normal', 'yaw': 0.01, 'datetime': '2018-10-12 20:40:38.623803', 'mgs': 1, 'depth': -0.522, 'time': 5.56, 'pitch': 7.03, 'roll': -0.16}
{'lipoC2': 7.86, 'temp': 28.81, 'lipoC3S3': 12.22, 'rot1': 0, 'rot0': 0, 'rot3': 0, 'rot2': 0, 'state': 'normal', 'yaw': 0.0, 'datetime': '2018-10-12 20:40:42.146582', 'mgs': 0, 'depth': -0.522, 'time': 1.26, 'pitch': 7.05, 'roll': -0.09}
{'lipoC2': 7.85, 'temp': 28.81, 'lipoC3S3': 12.22, 'rot1': 0, 'rot0': 0, 'rot3': 0, 'rot2': 0, 'state': 'normal', 'yaw': -0.0, 'datetime': '2018-10-12 20:40:42.178389', 'mgs': 0, 'depth': -0.446, 'time': 1.36, 'pitch': 7.02, 'roll': -0.14}
{'lipoC2': 7.86, 'temp': 28.81, 'lipoC3S3': 12.22, 'rot1': 0, 'rot0': 0, 'rot3': 0, 'rot2': 0, 'state': 'normal', 'yaw': 0.0, 'datetime': '2018-10-12 20:40:42.195895', 'mgs': 0, 'depth': -0.446, 'time': 1.45, 'pitch': 7.06, 'roll': -0.09}
{'lipoC2': 7.85, 'temp': 28.81, 'lipoC3S3': 12.22, 'rot1': 0, 'rot0': 0, 'rot3': 0, 'rot2': 0, 'state': 'normal', 'yaw': -0.0, 'datetime': '2018-10-12 20:40:42.217271', 'mgs': 0, 'depth': -0.446, 'time': 1.55, 'pitch': 7.04, 'roll': -0.14}
{'lipoC2': 7.86, 'temp': 28.81, 'lipoC3S3': 12.22, 'rot1': 0, 'rot0': 0, 'rot3': 0, 'rot2': 0, 'state': 'normal', 'yaw': 0.0, 'datetime': '2018-10-12 20:40:42.230432', 'mgs': 0, 'depth': -0.522, 'time': 1.65, 'pitch': 7.04, 'roll': -0.08}
{'lipoC2': 7.86, 'temp': 28.81, 'lipoC3S3': 12.22, 'rot1': 0, 'rot0': 0, 'rot3': 0, 'rot2': 0, 'state': 'normal', 'yaw': -0.0, 'datetime': '2018-10-12 20:40:42.237759', 'mgs': 0, 'depth': -0.446, 'time': 1.75, 'pitch': 7.03, 'roll': -0.12}
{'lipoC2': 7.86, 'temp': 28.81, 'lipoC3S3': 12.22, 'rot1': 0, 'rot0': 0, 'rot3': 0, 'rot2': 0, 'state': 'normal', 'yaw': -0.0, 'datetime': '2018-10-12 20:40:42.250834', 'mgs': 0, 'depth': -0.446, 'time': 1.84, 'pitch': 7.04, 'roll': -0.09}
{'lipoC2': 7.85, 'temp': 28.81, 'lipoC3S3': 12.23, 'rot1': 0, 'rot0': 0, 'rot3': 0, 'rot2': 0, 'state': 'normal', 'yaw': -0.0, 'datetime': '2018-10-12 20:40:42.263996', 'mgs': 0, 'depth': -0.446, 'time': 1.94, 'pitch': 7.03, 'roll': -0.12}
{'lipoC2': 7.85, 'temp': 28.81, 'lipoC3S3': 12.22, 'rot1': 0, 'rot0': 0, 'rot3': 0, 'rot2': 0, 'state': 'normal', 'yaw': 0.0, 'datetime': '2018-10-12 20:40:42.271297', 'mgs': 0, 'depth': -0.446, 'time': 2.04, 'pitch': 7.04, 'roll': -0.08}
{'lipoC2': 7.85, 'temp': 28.81, 'lipoC3S3': 12.22, 'rot1': 0, 'rot0': 0, 'rot3': 0, 'rot2': 0, 'state': 'normal', 'yaw': -0.0, 'datetime': '2018-10-12 20:40:42.284400', 'mgs': 0, 'depth': -0.522, 'time': 2.14, 'pitch': 7.05, 'roll': -0.11}
{'lipoC2': 7.85, 'temp': 28.81, 'lipoC3S3': 12.23, 'rot1': 0, 'rot0': 0, 'rot3': 0, 'rot2': 0, 'state': 'normal', 'yaw': -0.0, 'datetime': '2018-10-12 20:40:42.297407', 'mgs': 0, 'depth': -0.522, 'time': 2.23, 'pitch': 7.04, 'roll': -0.09}
{'lipoC2': 7.86, 'temp': 28.81, 'lipoC3S3': 12.22, 'rot1': 0, 'rot0': 0, 'rot3': 0, 'rot2': 0, 'state': 'normal', 'yaw': -0.0, 'datetime': '2018-10-12 20:40:42.304737', 'mgs': 0, 'depth': -0.446, 'time': 2.33, 'pitch': 7.04, 'roll': -0.11}
{'lipoC2': 7.86, 'temp': 28.88, 'lipoC3S3': 12.22, 'rot1': 0, 'rot0': 0, 'rot3': 0, 'rot2': 0, 'state': 'normal', 'yaw': -0.0, 'datetime': '2018-10-12 20:40:42.318981', 'mgs': 0, 'depth': -0.446, 'time': 2.43, 'pitch': 7.03, 'roll': -0.09}
{'lipoC2': 7.86, 'temp': 28.88, 'lipoC3S3': 12.22, 'rot1': 0, 'rot0': 0, 'rot3': 0, 'rot2': 0, 'state': 'normal', 'yaw': -0.0, 'datetime': '2018-10-12 20:40:42.332203', 'mgs': 0, 'depth': -0.522, 'time': 2.53, 'pitch': 7.03, 'roll': -0.09}
{'lipoC2': 7.85, 'temp': 28.88, 'lipoC3S3': 12.22, 'rot1': 0, 'rot0': 0, 'rot3': 0, 'rot2': 0, 'state': 'normal', 'yaw': 0.0, 'datetime': '2018-10-12 20:40:42.339624', 'mgs': 0, 'depth': -0.446, 'time': 2.62, 'pitch': 7.04, 'roll': -0.08}
{'lipoC2': 7.85, 'temp': 28.81, 'lipoC3S3': 12.22, 'rot1': 0, 'rot0': 0, 'rot3': 0, 'rot2': 0, 'state': 'normal', 'yaw': 0.0, 'datetime': '2018-10-12 20:40:42.352661', 'mgs': 0, 'depth': -0.446, 'time': 2.72, 'pitch': 7.04, 'roll': -0.08}
{'lipoC2': 7.85, 'temp': 28.81, 'lipoC3S3': 12.22, 'rot1': 0, 'rot0': 0, 'rot3': 0, 'rot2': 0, 'state': 'normal', 'yaw': -0.01, 'datetime': '2018-10-12 20:40:42.365784', 'mgs': 0, 'depth': -0.522, 'time': 2.82, 'pitch': 7.04, 'roll': -0.06}
{'lipoC2': 7.85, 'temp': 28.88, 'lipoC3S3': 12.22, 'rot1': 0, 'rot0': 0, 'rot3': 0, 'rot2': 0, 'state': 'normal', 'yaw': -0.01, 'datetime': '2018-10-12 20:40:42.373405', 'mgs': 0, 'depth': -0.522, 'time': 2.92, 'pitch': 7.04, 'roll': -0.06}
{'lipoC2': 7.85, 'temp': 28.88, 'lipoC3S3': 12.22, 'rot1': 0, 'rot0': 0, 'rot3': 0, 'rot2': 0, 'state': 'normal', 'yaw': -0.01, 'datetime': '2018-10-12 20:40:42.386697', 'mgs': 0, 'depth': -0.446, 'time': 3.01, 'pitch': 7.04, 'roll': -0.06}
{'lipoC2': 7.85, 'temp': 28.88, 'lipoC3S3': 12.22, 'rot1': 0, 'rot0': 0, 'rot3': 0, 'rot2': 0, 'state': 'normal', 'yaw': -0.0, 'datetime': '2018-10-12 20:40:42.400001', 'mgs': 0, 'depth': -0.446, 'time': 3.11, 'pitch': 7.05, 'roll': -0.04}
{'lipoC2': 7.86, 'temp': 28.88, 'lipoC3S3': 12.22, 'rot1': 0, 'rot0': 0, 'rot3': 0, 'rot2': 0, 'state': 'normal', 'yaw': -0.0, 'datetime': '2018-10-12 20:40:42.407621', 'mgs': 0, 'depth': -0.522, 'time': 3.21, 'pitch': 7.05, 'roll': -0.06}
{'lipoC2': 7.85, 'temp': 28.88, 'lipoC3S3': 12.22, 'rot1': 0, 'rot0': 0, 'rot3': 0, 'rot2': 0, 'state': 'normal', 'yaw': -0.0, 'datetime': '2018-10-12 20:40:42.420735', 'mgs': 0, 'depth': -0.446, 'time': 3.31, 'pitch': 7.05, 'roll': -0.04}
{'lipoC2': 7.85, 'temp': 28.81, 'lipoC3S3': 12.23, 'rot1': 0, 'rot0': 0, 'rot3': 0, 'rot2': 0, 'state': 'normal', 'yaw': -0.0, 'datetime': '2018-10-12 20:40:42.433733', 'mgs': 0, 'depth': -0.446, 'time': 3.4, 'pitch': 7.05, 'roll': -0.04}
{'lipoC2': 7.86, 'temp': 28.81, 'lipoC3S3': 12.22, 'rot1': 0, 'rot0': 0, 'rot3': 0, 'rot2': 0, 'state': 'normal', 'yaw': -0.0, 'datetime': '2018-10-12 20:40:42.441069', 'mgs': 0, 'depth': -0.522, 'time': 3.5, 'pitch': 7.05, 'roll': -0.04}
{'lipoC2': 7.85, 'temp': 28.81, 'lipoC3S3': 12.14, 'rot1': 4, 'rot0': 2, 'rot3': 0, 'rot2': 0, 'state': 'normal', 'yaw': -0.0, 'datetime': '2018-10-12 20:40:42.454272', 'mgs': 0, 'depth': -0.446, 'time': 3.6, 'pitch': 7.05, 'roll': -0.04}
{'lipoC2': 7.85, 'temp': 28.81, 'lipoC3S3': 12.21, 'rot1': 10, 'rot0': 3, 'rot3': 0, 'rot2': 0, 'state': 'normal', 'yaw': -0.0, 'datetime': '2018-10-12 20:40:42.467327', 'mgs': 0, 'depth': 0.317, 'time': 3.7, 'pitch': 7.05, 'roll': -0.04}
{'lipoC2': 7.86, 'temp': 28.81, 'lipoC3S3': 12.19, 'rot1': 16, 'rot0': 5, 'rot3': 0, 'rot2': 0, 'state': 'normal', 'yaw': -0.0, 'datetime': '2018-10-12 20:40:42.513823', 'mgs': 0, 'depth': -0.446, 'time': 3.79, 'pitch': 7.05, 'roll': -0.04}
{'lipoC2': 7.85, 'temp': 28.81, 'lipoC3S3': 12.17, 'rot1': 23, 'rot0': 7, 'rot3': 0, 'rot2': 0, 'state': 'normal', 'yaw': -0.0, 'datetime': '2018-10-12 20:40:42.610770', 'mgs': 0, 'depth': -0.446, 'time': 3.89, 'pitch': 7.05, 'roll': -0.04}
{'lipoC2': 7.85, 'temp': 28.81, 'lipoC3S3': 12.19, 'rot1': 30, 'rot0': 9, 'rot3': 0, 'rot2': 0, 'state': 'normal', 'yaw': -0.0, 'datetime': '2018-10-12 20:40:42.708334', 'mgs': 0, 'depth': -0.446, 'time': 3.99, 'pitch': 7.05, 'roll': -0.04}
{'lipoC2': 7.87, 'temp': 28.81, 'lipoC3S3': 12.19, 'rot1': 37, 'rot0': 10, 'rot3': 0, 'rot2': 0, 'state': 'normal', 'yaw': -0.0, 'datetime': '2018-10-12 20:40:42.805433', 'mgs': 0, 'depth': -0.369, 'time': 4.09, 'pitch': 7.05, 'roll': -0.04}
{'lipoC2': 7.86, 'temp': 28.81, 'lipoC3S3': 12.19, 'rot1': 44, 'rot0': 12, 'rot3': 0, 'rot2': 0, 'state': 'normal', 'yaw': -0.0, 'datetime': '2018-10-12 20:40:42.902541', 'mgs': 0, 'depth': -0.522, 'time': 4.18, 'pitch': 7.05, 'roll': -0.04}
{'lipoC2': 7.87, 'temp': 28.81, 'lipoC3S3': 12.19, 'rot1': 51, 'rot0': 14, 'rot3': 0, 'rot2': 0, 'state': 'normal', 'yaw': -0.0, 'datetime': '2018-10-12 20:40:43.004839', 'mgs': 0, 'depth': -0.598, 'time': 4.28, 'pitch': 7.05, 'roll': -0.04}
{'lipoC2': 7.85, 'temp': 28.81, 'lipoC3S3': 12.13, 'rot1': 58, 'rot0': 16, 'rot3': 0, 'rot2': 0, 'state': 'normal', 'yaw': -0.0, 'datetime': '2018-10-12 20:40:43.103147', 'mgs': 0, 'depth': -0.522, 'time': 4.38, 'pitch': 7.05, 'roll': -0.04}
{'lipoC2': 7.86, 'temp': 28.81, 'lipoC3S3': 12.21, 'rot1': 65, 'rot0': 18, 'rot3': 0, 'rot2': 0, 'state': 'normal', 'yaw': -0.0, 'datetime': '2018-10-12 20:40:43.202224', 'mgs': 0, 'depth': -0.522, 'time': 4.48, 'pitch': 7.05, 'roll': -0.04}
{'lipoC2': 7.86, 'temp': 28.81, 'lipoC3S3': 12.19, 'rot1': 71, 'rot0': 19, 'rot3': 0, 'rot2': 0, 'state': 'normal', 'yaw': -0.0, 'datetime': '2018-10-12 20:40:43.298856', 'mgs': 0, 'depth': -0.369, 'time': 4.57, 'pitch': 7.05, 'roll': -0.03}
{'lipoC2': 7.86, 'temp': 28.81, 'lipoC3S3': 12.1, 'rot1': 78, 'rot0': 21, 'rot3': 0, 'rot2': 0, 'state': 'normal', 'yaw': -0.0, 'datetime': '2018-10-12 20:40:43.396167', 'mgs': 0, 'depth': -0.446, 'time': 4.67, 'pitch': 7.05, 'roll': -0.03}
{'lipoC2': 7.85, 'temp': 28.81, 'lipoC3S3': 12.12, 'rot1': 85, 'rot0': 23, 'rot3': 0, 'rot2': 0, 'state': 'normal', 'yaw': -0.0, 'datetime': '2018-10-12 20:40:43.494504', 'mgs': 0, 'depth': -0.446, 'time': 4.77, 'pitch': 7.05, 'roll': -0.03}
{'lipoC2': 7.85, 'temp': 28.81, 'lipoC3S3': 12.19, 'rot1': 92, 'rot0': 25, 'rot3': 0, 'rot2': 0, 'state': 'normal', 'yaw': -0.0, 'datetime': '2018-10-12 20:40:43.592892', 'mgs': 0, 'depth': -0.522, 'time': 4.87, 'pitch': 7.05, 'roll': -0.03}
{'lipoC2': 7.87, 'temp': 28.81, 'lipoC3S3': 12.19, 'rot1': 99, 'rot0': 27, 'rot3': 0, 'rot2': 0, 'state': 'normal', 'yaw': -0.0, 'datetime': '2018-10-12 20:40:43.690877', 'mgs': 0, 'depth': -0.369, 'time': 4.97, 'pitch': 7.05, 'roll': -0.03}
{'lipoC2': 7.85, 'temp': 28.81, 'lipoC3S3': 12.21, 'rot1': 106, 'rot0': 28, 'rot3': 0, 'rot2': 0, 'state': 'normal', 'yaw': -0.0, 'datetime': '2018-10-12 20:40:43.788163', 'mgs': 0, 'depth': -0.446, 'time': 5.07, 'pitch': 7.05, 'roll': -0.03}
{'lipoC2': 7.85, 'temp': 28.81, 'lipoC3S3': 12.14, 'rot1': 113, 'rot0': 30, 'rot3': 0, 'rot2': 0, 'state': 'normal', 'yaw': -0.0, 'datetime': '2018-10-12 20:40:43.886122', 'mgs': 0, 'depth': -0.446, 'time': 5.16, 'pitch': 7.05, 'roll': -0.03}
{'lipoC2': 7.85, 'temp': 28.81, 'lipoC3S3': 12.14, 'rot1': 120, 'rot0': 32, 'rot3': 0, 'rot2': 0, 'state': 'normal', 'yaw': -0.0, 'datetime': '2018-10-12 20:40:43.984541', 'mgs': 0, 'depth': -0.446, 'time': 5.26, 'pitch': 7.05, 'roll': -0.03}
{'lipoC2': 7.85, 'temp': 28.81, 'lipoC3S3': 12.21, 'rot1': 127, 'rot0': 34, 'rot3': 0, 'rot2': 0, 'state': 'normal', 'yaw': -0.0, 'datetime': '2018-10-12 20:40:44.082821', 'mgs': 0, 'depth': -0.522, 'time': 5.36, 'pitch': 7.05, 'roll': -0.03}
{'lipoC2': 7.86, 'temp': 28.81, 'lipoC3S3': 12.19, 'rot1': 132, 'rot0': 35, 'rot3': 0, 'rot2': 0, 'state': 'normal', 'yaw': -0.0, 'datetime': '2018-10-12 20:40:44.179883', 'mgs': 0, 'depth': 0.317, 'time': 5.46, 'pitch': 7.05, 'roll': -0.03}
{'lipoC2': 7.85, 'temp': 28.81, 'lipoC3S3': 12.19, 'rot1': 137, 'rot0': 37, 'rot3': 0, 'rot2': 0, 'state': 'normal', 'yaw': -0.0, 'datetime': '2018-10-12 20:40:44.277186', 'mgs': 0, 'depth': -0.446, 'time': 5.55, 'pitch': 7.05, 'roll': -0.03}
{'lipoC2': 7.85, 'temp': 28.81, 'lipoC3S3': 12.22, 'rot1': 140, 'rot0': 39, 'rot3': 0, 'rot2': 0, 'state': 'normal', 'yaw': -0.0, 'datetime': '2018-10-12 20:40:44.375748', 'mgs': 0, 'depth': -0.522, 'time': 5.65, 'pitch': 7.05, 'roll': -0.03}
{'lipoC2': 7.86, 'temp': 28.81, 'lipoC3S3': 12.19, 'rot1': 142, 'rot0': 41, 'rot3': 0, 'rot2': 0, 'state': 'normal', 'yaw': -0.0, 'datetime': '2018-10-12 20:40:44.474313', 'mgs': 0, 'depth': -0.522, 'time': 5.75, 'pitch': 7.05, 'roll': -0.03}
{'lipoC2': 7.86, 'temp': 28.81, 'lipoC3S3': 12.19, 'rot1': 144, 'rot0': 42, 'rot3': 0, 'rot2': 0, 'state': 'normal', 'yaw': -0.0, 'datetime': '2018-10-12 20:40:44.571664', 'mgs': 0, 'depth': -0.522, 'time': 5.85, 'pitch': 7.05, 'roll': -0.03}
{'lipoC2': 7.85, 'temp': 28.81, 'lipoC3S3': 12.19, 'rot1': 145, 'rot0': 44, 'rot3': 0, 'rot2': 0, 'state': 'normal', 'yaw': -0.0, 'datetime': '2018-10-12 20:40:44.668975', 'mgs': 0, 'depth': -0.14, 'time': 5.95, 'pitch': 7.05, 'roll': -0.03}
{'lipoC2': 7.86, 'temp': 28.81, 'lipoC3S3': 12.18, 'rot1': 147, 'rot0': 46, 'rot3': 0, 'rot2': 0, 'state': 'normal', 'yaw': -0.0, 'datetime': '2018-10-12 20:40:44.767136', 'mgs': 0, 'depth': -0.522, 'time': 6.05, 'pitch': 7.05, 'roll': -0.03}
{'lipoC2': 7.86, 'temp': 28.81, 'lipoC3S3': 12.19, 'rot1': 149, 'rot0': 48, 'rot3': 0, 'rot2': 0, 'state': 'normal', 'yaw': -0.0, 'datetime': '2018-10-12 20:40:44.864467', 'mgs': 0, 'depth': -0.446, 'time': 6.14, 'pitch': 7.05, 'roll': -0.03}
{'lipoC2': 7.86, 'temp': 28.81, 'lipoC3S3': 12.22, 'rot1': 150, 'rot0': 49, 'rot3': 0, 'rot2': 0, 'state': 'normal', 'yaw': -0.0, 'datetime': '2018-10-12 20:40:44.961562', 'mgs': 0, 'depth': -0.522, 'time': 6.24, 'pitch': 7.05, 'roll': -0.03}
{'lipoC2': 7.86, 'temp': 28.81, 'lipoC3S3': 12.19, 'rot1': 152, 'rot0': 51, 'rot3': 0, 'rot2': 0, 'state': 'normal', 'yaw': -0.0, 'datetime': '2018-10-12 20:40:45.058756', 'mgs': 0, 'depth': -0.522, 'time': 6.34, 'pitch': 7.05, 'roll': -0.01}
{'lipoC2': 7.86, 'temp': 28.81, 'lipoC3S3': 12.19, 'rot1': 154, 'rot0': 53, 'rot3': 0, 'rot2': 0, 'state': 'normal', 'yaw': -0.0, 'datetime': '2018-10-12 20:40:45.157266', 'mgs': 0, 'depth': -0.446, 'time': 6.43, 'pitch': 7.05, 'roll': -0.01}
{'lipoC2': 7.85, 'temp': 28.81, 'lipoC3S3': 12.19, 'rot1': 156, 'rot0': 55, 'rot3': 0, 'rot2': 0, 'state': 'normal', 'yaw': 0.06, 'datetime': '2018-10-12 20:40:45.255793', 'mgs': 0, 'depth': -0.446, 'time': 6.53, 'pitch': 7.04, 'roll': 0.35}
{'lipoC2': 7.86, 'temp': 28.88, 'lipoC3S3': 12.09, 'rot1': 157, 'rot0': 57, 'rot3': 0, 'rot2': 0, 'state': 'normal', 'yaw': 0.11, 'datetime': '2018-10-12 20:40:45.353012', 'mgs': 0, 'depth': -0.522, 'time': 6.63, 'pitch': 7.02, 'roll': 1.0}
{'lipoC2': 7.85, 'temp': 28.88, 'lipoC3S3': 12.19, 'rot1': 159, 'rot0': 58, 'rot3': 0, 'rot2': 0, 'state': 'normal', 'yaw': 0.14, 'datetime': '2018-10-12 20:40:45.450082', 'mgs': 0, 'depth': -0.446, 'time': 6.73, 'pitch': 7.01, 'roll': 1.54}
{'lipoC2': 7.85, 'temp': 28.81, 'lipoC3S3': 12.19, 'rot1': 161, 'rot0': 60, 'rot3': 0, 'rot2': 0, 'state': 'normal', 'yaw': 0.2, 'datetime': '2018-10-12 20:40:45.548469', 'mgs': 0, 'depth': 0.317, 'time': 6.83, 'pitch': 6.71, 'roll': 1.37}
{'lipoC2': 7.86, 'temp': 28.81, 'lipoC3S3': 12.18, 'rot1': 162, 'rot0': 62, 'rot3': 0, 'rot2': 0, 'state': 'normal', 'yaw': 0.81, 'datetime': '2018-10-12 20:40:45.646927', 'mgs': 0, 'depth': -1.361, 'time': 6.93, 'pitch': 6.05, 'roll': 0.55}
{'lipoC2': 7.86, 'temp': 28.81, 'lipoC3S3': 12.18, 'rot1': 164, 'rot0': 64, 'rot3': 0, 'rot2': 0, 'state': 'normal', 'yaw': 2.35, 'datetime': '2018-10-12 20:40:45.744479', 'mgs': 0, 'depth': -0.674, 'time': 7.02, 'pitch': 5.13, 'roll': -0.73}
{'lipoC2': 7.85, 'temp': 28.81, 'lipoC3S3': 12.19, 'rot1': 166, 'rot0': 65, 'rot3': 0, 'rot2': 0, 'state': 'normal', 'yaw': 4.28, 'datetime': '2018-10-12 20:40:45.841736', 'mgs': 0, 'depth': -0.446, 'time': 7.12, 'pitch': 5.35, 'roll': -1.96}
{'lipoC2': 7.86, 'temp': 28.81, 'lipoC3S3': 12.16, 'rot1': 167, 'rot0': 67, 'rot3': 0, 'rot2': 0, 'state': 'normal', 'yaw': 6.19, 'datetime': '2018-10-12 20:40:45.939461', 'mgs': 0, 'depth': -0.446, 'time': 7.22, 'pitch': 6.36, 'roll': -2.2}
{'lipoC2': 7.85, 'temp': 28.88, 'lipoC3S3': 12.17, 'rot1': 168, 'rot0': 69, 'rot3': 0, 'rot2': 0, 'state': 'normal', 'yaw': 8.65, 'datetime': '2018-10-12 20:40:46.037995', 'mgs': 0, 'depth': -0.522, 'time': 7.32, 'pitch': 6.91, 'roll': -1.31}
{'lipoC2': 7.86, 'temp': 28.88, 'lipoC3S3': 12.19, 'rot1': 169, 'rot0': 71, 'rot3': 0, 'rot2': 0, 'state': 'normal', 'yaw': 10.89, 'datetime': '2018-10-12 20:40:46.135286', 'mgs': 0, 'depth': -0.446, 'time': 7.41, 'pitch': 6.52, 'roll': -0.92}
{'lipoC2': 7.87, 'temp': 28.88, 'lipoC3S3': 12.19, 'rot1': 171, 'rot0': 72, 'rot3': 0, 'rot2': 0, 'state': 'normal', 'yaw': 11.59, 'datetime': '2018-10-12 20:40:46.232414', 'mgs': 0, 'depth': -1.132, 'time': 7.51, 'pitch': 5.93, 'roll': -1.13}
{'lipoC2': 7.85, 'temp': 28.81, 'lipoC3S3': 12.16, 'rot1': 172, 'rot0': 74, 'rot3': 0, 'rot2': 0, 'state': 'normal', 'yaw': 10.32, 'datetime': '2018-10-12 20:40:46.329767', 'mgs': 0, 'depth': -0.522, 'time': 7.61, 'pitch': 6.03, 'roll': -0.54}
{'lipoC2': 7.85, 'temp': 28.81, 'lipoC3S3': 12.21, 'rot1': 173, 'rot0': 76, 'rot3': 0, 'rot2': 0, 'state': 'normal', 'yaw': 6.71, 'datetime': '2018-10-12 20:40:46.427303', 'mgs': 0, 'depth': -0.446, 'time': 7.71, 'pitch': 6.32, 'roll': 0.0}
{'lipoC2': 7.86, 'temp': 28.88, 'lipoC3S3': 12.19, 'rot1': 174, 'rot0': 78, 'rot3': 0, 'rot2': 0, 'state': 'normal', 'yaw': 1.69, 'datetime': '2018-10-12 20:40:46.524339', 'mgs': 0, 'depth': -0.98, 'time': 7.8, 'pitch': 6.72, 'roll': -0.26}
{'lipoC2': 7.85, 'temp': 28.88, 'lipoC3S3': 12.19, 'rot1': 175, 'rot0': 79, 'rot3': 0, 'rot2': 0, 'state': 'normal', 'yaw': -3.61, 'datetime': '2018-10-12 20:40:46.621517', 'mgs': 0, 'depth': -0.446, 'time': 7.9, 'pitch': 7.58, 'roll': -0.62}
{'lipoC2': 7.86, 'temp': 28.81, 'lipoC3S3': 12.19, 'rot1': 178, 'rot0': 81, 'rot3': 0, 'rot2': 0, 'state': 'normal', 'yaw': -8.09, 'datetime': '2018-10-12 20:40:46.718809', 'mgs': 0, 'depth': -0.064, 'time': 8.0, 'pitch': 8.44, 'roll': -0.77}
{'lipoC2': 7.85, 'temp': 28.81, 'lipoC3S3': 12.17, 'rot1': 184, 'rot0': 83, 'rot3': 0, 'rot2': 0, 'state': 'normal', 'yaw': -12.55, 'datetime': '2018-10-12 20:40:46.815946', 'mgs': 0, 'depth': -0.598, 'time': 8.1, 'pitch': 9.23, 'roll': -0.97}
{'lipoC2': 7.86, 'temp': 28.81, 'lipoC3S3': 12.19, 'rot1': 195, 'rot0': 84, 'rot3': 0, 'rot2': 0, 'state': 'normal', 'yaw': -16.15, 'datetime': '2018-10-12 20:40:46.913128', 'mgs': 0, 'depth': -0.522, 'time': 8.19, 'pitch': 9.74, 'roll': -1.57}
{'lipoC2': 7.86, 'temp': 28.88, 'lipoC3S3': 12.19, 'rot1': 208, 'rot0': 85, 'rot3': 0, 'rot2': 0, 'state': 'normal', 'yaw': -17.59, 'datetime': '2018-10-12 20:40:47.011351', 'mgs': 0, 'depth': -0.522, 'time': 8.29, 'pitch': 10.27, 'roll': -2.16}
{'lipoC2': 7.86, 'temp': 28.88, 'lipoC3S3': 12.18, 'rot1': 220, 'rot0': 86, 'rot3': 0, 'rot2': 0, 'state': 'normal', 'yaw': -17.09, 'datetime': '2018-10-12 20:40:47.109955', 'mgs': 0, 'depth': -0.522, 'time': 8.39, 'pitch': 10.28, 'roll': -2.42}
{'lipoC2': 7.86, 'temp': 28.88, 'lipoC3S3': 12.18, 'rot1': 233, 'rot0': 87, 'rot3': 0, 'rot2': 0, 'state': 'normal', 'yaw': -15.33, 'datetime': '2018-10-12 20:40:47.208490', 'mgs': 0, 'depth': -0.446, 'time': 8.49, 'pitch': 9.22, 'roll': -1.94}
{'lipoC2': 7.85, 'temp': 28.88, 'lipoC3S3': 12.21, 'rot1': 240, 'rot0': 89, 'rot3': 0, 'rot2': 0, 'state': 'normal', 'yaw': -12.23, 'datetime': '2018-10-12 20:40:47.305698', 'mgs': 0, 'depth': -0.522, 'time': 8.59, 'pitch': 8.15, 'roll': -0.8}
{'lipoC2': 7.85, 'temp': 28.88, 'lipoC3S3': 12.19, 'rot1': 243, 'rot0': 90, 'rot3': 0, 'rot2': 0, 'state': 'normal', 'yaw': -8.28, 'datetime': '2018-10-12 20:40:47.402691', 'mgs': 0, 'depth': 0.089, 'time': 8.68, 'pitch': 7.15, 'roll': -0.63}
{'lipoC2': 7.86, 'temp': 28.88, 'lipoC3S3': 12.19, 'rot1': 245, 'rot0': 91, 'rot3': 0, 'rot2': 0, 'state': 'normal', 'yaw': -4.8, 'datetime': '2018-10-12 20:40:47.501212', 'mgs': 0, 'depth': -0.751, 'time': 8.78, 'pitch': 6.9, 'roll': -0.66}
{'lipoC2': 7.86, 'temp': 28.88, 'lipoC3S3': 12.18, 'rot1': 246, 'rot0': 92, 'rot3': 0, 'rot2': 0, 'state': 'normal', 'yaw': -1.51, 'datetime': '2018-10-12 20:40:47.599858', 'mgs': 0, 'depth': -0.751, 'time': 8.88, 'pitch': 7.05, 'roll': -0.05}
{'lipoC2': 7.85, 'temp': 28.81, 'lipoC3S3': 12.18, 'rot1': 248, 'rot0': 93, 'rot3': 0, 'rot2': 0, 'state': 'normal', 'yaw': 0.81, 'datetime': '2018-10-12 20:40:47.697133', 'mgs': 0, 'depth': -0.522, 'time': 8.98, 'pitch': 6.74, 'roll': 0.68}
{'lipoC2': 7.86, 'temp': 28.81, 'lipoC3S3': 12.19, 'rot1': 250, 'rot0': 95, 'rot3': 0, 'rot2': 0, 'state': 'normal', 'yaw': 1.84, 'datetime': '2018-10-12 20:40:47.794410', 'mgs': 0, 'depth': -0.446, 'time': 9.07, 'pitch': 6.26, 'roll': 1.32}
{'lipoC2': 7.86, 'temp': 28.81, 'lipoC3S3': 12.18, 'rot1': 252, 'rot0': 96, 'rot3': 0, 'rot2': 0, 'state': 'normal', 'yaw': 1.81, 'datetime': '2018-10-12 20:40:47.892720', 'mgs': 0, 'depth': -0.598, 'time': 9.17, 'pitch': 6.23, 'roll': 1.54}
{'lipoC2': 7.86, 'temp': 28.81, 'lipoC3S3': 12.21, 'rot1': 253, 'rot0': 97, 'rot3': 0, 'rot2': 0, 'state': 'normal', 'yaw': 1.27, 'datetime': '2018-10-12 20:40:47.990539', 'mgs': 0, 'depth': -0.522, 'time': 9.27, 'pitch': 6.57, 'roll': 1.22}
{'lipoC2': 7.86, 'temp': 28.81, 'lipoC3S3': 12.18, 'rot1': 254, 'rot0': 99, 'rot3': 0, 'rot2': 0, 'state': 'normal', 'yaw': 0.65, 'datetime': '2018-10-12 20:40:48.087815', 'mgs': 0, 'depth': -0.446, 'time': 9.37, 'pitch': 7.17, 'roll': 0.87}
{'lipoC2': 7.86, 'temp': 28.81, 'lipoC3S3': 12.19, 'rot1': 255, 'rot0': 101, 'rot3': 0, 'rot2': 0, 'state': 'normal', 'yaw': 0.3, 'datetime': '2018-10-12 20:40:48.180625', 'mgs': 0, 'depth': -0.522, 'time': 9.47, 'pitch': 6.9, 'roll': 0.59}
{'lipoC2': 7.85, 'temp': 28.81, 'lipoC3S3': 12.18, 'rot1': 257, 'rot0': 102, 'rot3': 0, 'rot2': 0, 'state': 'normal', 'yaw': 0.49, 'datetime': '2018-10-12 20:40:48.281858', 'mgs': 0, 'depth': 0.317, 'time': 9.56, 'pitch': 6.96, 'roll': 0.25}
{'lipoC2': 7.85, 'temp': 28.81, 'lipoC3S3': 12.12, 'rot1': 258, 'rot0': 104, 'rot3': 0, 'rot2': 0, 'state': 'normal', 'yaw': 0.26, 'datetime': '2018-10-12 20:40:48.379540', 'mgs': 0, 'depth': -0.522, 'time': 9.66, 'pitch': 6.99, 'roll': -0.05}
{'lipoC2': 7.86, 'temp': 28.81, 'lipoC3S3': 12.19, 'rot1': 260, 'rot0': 106, 'rot3': 0, 'rot2': 0, 'state': 'normal', 'yaw': 0.29, 'datetime': '2018-10-12 20:40:48.476922', 'mgs': 0, 'depth': -0.522, 'time': 9.76, 'pitch': 7.07, 'roll': 0.18}
{'lipoC2': 7.85, 'temp': 28.81, 'lipoC3S3': 12.19, 'rot1': 262, 'rot0': 108, 'rot3': 0, 'rot2': 0, 'state': 'normal', 'yaw': 0.32, 'datetime': '2018-10-12 20:40:48.574394', 'mgs': 0, 'depth': -0.446, 'time': 9.86, 'pitch': 7.11, 'roll': 0.2}
{'lipoC2': 7.85, 'temp': 28.81, 'lipoC3S3': 12.13, 'rot1': 264, 'rot0': 110, 'rot3': 0, 'rot2': 0, 'state': 'normal', 'yaw': 0.32, 'datetime': '2018-10-12 20:40:48.672351', 'mgs': 0, 'depth': -0.446, 'time': 9.95, 'pitch': 7.14, 'roll': 0.28}
{'lipoC2': 7.85, 'temp': 28.81, 'lipoC3S3': 12.19, 'rot1': 265, 'rot0': 111, 'rot3': 0, 'rot2': 0, 'state': 'normal', 'yaw': 0.32, 'datetime': '2018-10-12 20:40:48.769704', 'mgs': 0, 'depth': -0.446, 'time': 10.05, 'pitch': 7.13, 'roll': 0.23}
{'lipoC2': 7.86, 'temp': 28.81, 'lipoC3S3': 12.19, 'rot1': 267, 'rot0': 113, 'rot3': 0, 'rot2': 0, 'state': 'normal', 'yaw': 0.32, 'datetime': '2018-10-12 20:40:48.866888', 'mgs': 0, 'depth': 0.241, 'time': 10.15, 'pitch': 7.12, 'roll': 0.28}
{'lipoC2': 7.85, 'temp': 28.81, 'lipoC3S3': 12.19, 'rot1': 269, 'rot0': 115, 'rot3': 0, 'rot2': 0, 'state': 'normal', 'yaw': 0.32, 'datetime': '2018-10-12 20:40:48.964910', 'mgs': 0, 'depth': -0.446, 'time': 10.25, 'pitch': 7.1, 'roll': 0.23}
{'lipoC2': 7.85, 'temp': 28.81, 'lipoC3S3': 12.19, 'rot1': 270, 'rot0': 117, 'rot3': 0, 'rot2': 0, 'state': 'normal', 'yaw': 0.32, 'datetime': '2018-10-12 20:40:49.063512', 'mgs': 0, 'depth': -0.522, 'time': 10.35, 'pitch': 7.11, 'roll': 0.27}
{'lipoC2': 7.85, 'temp': 28.88, 'lipoC3S3': 12.19, 'rot1': 272, 'rot0': 119, 'rot3': 0, 'rot2': 0, 'state': 'normal', 'yaw': 0.32, 'datetime': '2018-10-12 20:40:49.161938', 'mgs': 0, 'depth': -0.446, 'time': 10.44, 'pitch': 7.1, 'roll': 0.23}
{'lipoC2': 7.86, 'temp': 28.88, 'lipoC3S3': 12.19, 'rot1': 274, 'rot0': 120, 'rot3': 0, 'rot2': 0, 'state': 'normal', 'yaw': 0.31, 'datetime': '2018-10-12 20:40:49.259412', 'mgs': 0, 'depth': -0.369, 'time': 10.54, 'pitch': 7.11, 'roll': 0.28}
{'lipoC2': 7.86, 'temp': 28.88, 'lipoC3S3': 12.18, 'rot1': 275, 'rot0': 122, 'rot3': 0, 'rot2': 0, 'state': 'normal', 'yaw': 0.3, 'datetime': '2018-10-12 20:40:49.356820', 'mgs': 0, 'depth': -0.674, 'time': 10.64, 'pitch': 7.11, 'roll': 0.24}
{'lipoC2': 7.85, 'temp': 28.81, 'lipoC3S3': 12.14, 'rot1': 277, 'rot0': 124, 'rot3': 0, 'rot2': 0, 'state': 'normal', 'yaw': 0.31, 'datetime': '2018-10-12 20:40:49.455283', 'mgs': 0, 'depth': -0.522, 'time': 10.74, 'pitch': 7.14, 'roll': 0.29}
{'lipoC2': 7.85, 'temp': 28.81, 'lipoC3S3': 12.13, 'rot1': 279, 'rot0': 126, 'rot3': 0, 'rot2': 0, 'state': 'normal', 'yaw': 0.3, 'datetime': '2018-10-12 20:40:49.553605', 'mgs': 0, 'depth': -0.446, 'time': 10.84, 'pitch': 7.14, 'roll': 0.26}
{'lipoC2': 7.86, 'temp': 28.81, 'lipoC3S3': 12.09, 'rot1': 281, 'rot0': 127, 'rot3': 0, 'rot2': 0, 'state': 'normal', 'yaw': 0.31, 'datetime': '2018-10-12 20:40:49.652321', 'mgs': 0, 'depth': -0.522, 'time': 10.94, 'pitch': 7.15, 'roll': 0.3}
{'lipoC2': 7.86, 'temp': 28.81, 'lipoC3S3': 12.19, 'rot1': 282, 'rot0': 129, 'rot3': 0, 'rot2': 0, 'state': 'normal', 'yaw': 0.32, 'datetime': '2018-10-12 20:40:49.749563', 'mgs': 0, 'depth': -0.522, 'time': 11.03, 'pitch': 7.13, 'roll': 0.27}
{'lipoC2': 7.86, 'temp': 28.81, 'lipoC3S3': 12.18, 'rot1': 284, 'rot0': 131, 'rot3': 0, 'rot2': 0, 'state': 'normal', 'yaw': 0.31, 'datetime': '2018-10-12 20:40:49.846793', 'mgs': 0, 'depth': 0.241, 'time': 11.13, 'pitch': 7.13, 'roll': 0.31}
{'lipoC2': 7.86, 'temp': 28.81, 'lipoC3S3': 12.18, 'rot1': 286, 'rot0': 133, 'rot3': 0, 'rot2': 0, 'state': 'normal', 'yaw': 0.31, 'datetime': '2018-10-12 20:40:49.945429', 'mgs': 0, 'depth': -0.217, 'time': 11.23, 'pitch': 7.1, 'roll': 0.3}
{'lipoC2': 7.85, 'temp': 28.81, 'lipoC3S3': 12.18, 'rot1': 288, 'rot0': 134, 'rot3': 0, 'rot2': 0, 'state': 'normal', 'yaw': 0.32, 'datetime': '2018-10-12 20:40:50.043832', 'mgs': 0, 'depth': 0.165, 'time': 11.33, 'pitch': 7.09, 'roll': 0.33}
{'lipoC2': 7.85, 'temp': 28.81, 'lipoC3S3': 12.21, 'rot1': 289, 'rot0': 136, 'rot3': 0, 'rot2': 0, 'state': 'normal', 'yaw': 0.31, 'datetime': '2018-10-12 20:40:50.142033', 'mgs': 0, 'depth': -0.522, 'time': 11.42, 'pitch': 7.11, 'roll': 0.3}
{'lipoC2': 7.85, 'temp': 28.81, 'lipoC3S3': 12.19, 'rot1': 291, 'rot0': 138, 'rot3': 0, 'rot2': 0, 'state': 'normal', 'yaw': 0.32, 'datetime': '2018-10-12 20:40:50.239344', 'mgs': 0, 'depth': -0.522, 'time': 11.52, 'pitch': 7.12, 'roll': 0.35}
{'lipoC2': 7.85, 'temp': 28.81, 'lipoC3S3': 12.19, 'rot1': 293, 'rot0': 140, 'rot3': 0, 'rot2': 0, 'state': 'normal', 'yaw': 0.34, 'datetime': '2018-10-12 20:40:50.337142', 'mgs': 0, 'depth': -0.446, 'time': 11.62, 'pitch': 7.14, 'roll': 0.33}
{'lipoC2': 7.86, 'temp': 28.88, 'lipoC3S3': 12.19, 'rot1': 294, 'rot0': 142, 'rot3': 0, 'rot2': 0, 'state': 'normal', 'yaw': 0.34, 'datetime': '2018-10-12 20:40:50.435688', 'mgs': 0, 'depth': -0.522, 'time': 11.72, 'pitch': 7.15, 'roll': 0.36}
{'lipoC2': 7.86, 'temp': 28.88, 'lipoC3S3': 12.19, 'rot1': 296, 'rot0': 143, 'rot3': 0, 'rot2': 0, 'state': 'normal', 'yaw': 0.34, 'datetime': '2018-10-12 20:40:50.534310', 'mgs': 0, 'depth': -0.522, 'time': 11.82, 'pitch': 7.14, 'roll': 0.36}
{'lipoC2': 7.85, 'temp': 28.81, 'lipoC3S3': 12.19, 'rot1': 298, 'rot0': 145, 'rot3': 0, 'rot2': 0, 'state': 'normal', 'yaw': 0.33, 'datetime': '2018-10-12 20:40:50.631769', 'mgs': 0, 'depth': -0.522, 'time': 11.91, 'pitch': 7.14, 'roll': 0.39}
{'lipoC2': 7.85, 'temp': 28.81, 'lipoC3S3': 12.18, 'rot1': 300, 'rot0': 147, 'rot3': 0, 'rot2': 0, 'state': 'normal', 'yaw': 0.33, 'datetime': '2018-10-12 20:40:50.728825', 'mgs': 0, 'depth': 0.089, 'time': 12.01, 'pitch': 7.14, 'roll': 0.38}
{'lipoC2': 7.86, 'temp': 28.81, 'lipoC3S3': 12.09, 'rot1': 301, 'rot0': 149, 'rot3': 0, 'rot2': 0, 'state': 'normal', 'yaw': 0.33, 'datetime': '2018-10-12 20:40:50.827395', 'mgs': 0, 'depth': -0.446, 'time': 12.11, 'pitch': 7.14, 'roll': 0.4}
{'lipoC2': 7.85, 'temp': 28.88, 'lipoC3S3': 12.19, 'rot1': 303, 'rot0': 151, 'rot3': 0, 'rot2': 0, 'state': 'normal', 'yaw': 0.33, 'datetime': '2018-10-12 20:40:50.924778', 'mgs': 0, 'depth': -0.446, 'time': 12.21, 'pitch': 7.14, 'roll': 0.4}
{'lipoC2': 7.86, 'temp': 28.88, 'lipoC3S3': 12.18, 'rot1': 305, 'rot0': 152, 'rot3': 0, 'rot2': 0, 'state': 'normal', 'yaw': 0.33, 'datetime': '2018-10-12 20:40:51.021826', 'mgs': 0, 'depth': 0.699, 'time': 12.31, 'pitch': 7.14, 'roll': 0.41}
{'lipoC2': 7.85, 'temp': 28.88, 'lipoC3S3': 12.1, 'rot1': 306, 'rot0': 154, 'rot3': 0, 'rot2': 0, 'state': 'normal', 'yaw': 0.33, 'datetime': '2018-10-12 20:40:51.119209', 'mgs': 0, 'depth': -0.522, 'time': 12.4, 'pitch': 7.14, 'roll': 0.41}
{'lipoC2': 7.86, 'temp': 28.88, 'lipoC3S3': 12.18, 'rot1': 308, 'rot0': 156, 'rot3': 0, 'rot2': 0, 'state': 'normal', 'yaw': 0.33, 'datetime': '2018-10-12 20:40:51.217960', 'mgs': 0, 'depth': -0.751, 'time': 12.5, 'pitch': 7.14, 'roll': 0.4}
{'lipoC2': 7.87, 'temp': 28.88, 'lipoC3S3': 12.18, 'rot1': 310, 'rot0': 158, 'rot3': 0, 'rot2': 0, 'state': 'normal', 'yaw': 0.33, 'datetime': '2018-10-12 20:40:51.316438', 'mgs': 0, 'depth': -0.293, 'time': 12.6, 'pitch': 7.14, 'roll': 0.39}
{'lipoC2': 7.85, 'temp': 28.88, 'lipoC3S3': 12.18, 'rot1': 311, 'rot0': 159, 'rot3': 0, 'rot2': 0, 'state': 'normal', 'yaw': 0.33, 'datetime': '2018-10-12 20:40:51.415068', 'mgs': 0, 'depth': -0.369, 'time': 12.7, 'pitch': 7.14, 'roll': 0.39}
{'lipoC2': 7.86, 'temp': 28.88, 'lipoC3S3': 12.14, 'rot1': 313, 'rot0': 161, 'rot3': 0, 'rot2': 0, 'state': 'normal', 'yaw': 0.33, 'datetime': '2018-10-12 20:40:51.512347', 'mgs': 0, 'depth': -0.446, 'time': 12.8, 'pitch': 7.14, 'roll': 0.39}
{'lipoC2': 7.85, 'temp': 28.88, 'lipoC3S3': 12.19, 'rot1': 315, 'rot0': 163, 'rot3': 0, 'rot2': 0, 'state': 'normal', 'yaw': 0.33, 'datetime': '2018-10-12 20:40:51.609659', 'mgs': 0, 'depth': -0.522, 'time': 12.89, 'pitch': 7.14, 'roll': 0.38}
{'lipoC2': 7.85, 'temp': 28.88, 'lipoC3S3': 12.18, 'rot1': 317, 'rot0': 165, 'rot3': 0, 'rot2': 0, 'state': 'normal', 'yaw': 0.33, 'datetime': '2018-10-12 20:40:51.708326', 'mgs': 0, 'depth': -0.446, 'time': 12.99, 'pitch': 7.14, 'roll': 0.38}
{'lipoC2': 7.85, 'temp': 28.88, 'lipoC3S3': 12.19, 'rot1': 319, 'rot0': 166, 'rot3': 0, 'rot2': 0, 'state': 'normal', 'yaw': 0.33, 'datetime': '2018-10-12 20:40:51.806864', 'mgs': 0, 'depth': -0.522, 'time': 13.09, 'pitch': 7.14, 'roll': 0.38}
{'lipoC2': 7.85, 'temp': 28.88, 'lipoC3S3': 12.19, 'rot1': 320, 'rot0': 168, 'rot3': 0, 'rot2': 0, 'state': 'normal', 'yaw': 0.32, 'datetime': '2018-10-12 20:40:51.905270', 'mgs': 0, 'depth': -0.369, 'time': 13.19, 'pitch': 7.14, 'roll': 0.38}
{'lipoC2': 7.86, 'temp': 28.88, 'lipoC3S3': 12.18, 'rot1': 322, 'rot0': 170, 'rot3': 0, 'rot2': 0, 'state': 'normal', 'yaw': 0.33, 'datetime': '2018-10-12 20:40:52.002495', 'mgs': 0, 'depth': -0.827, 'time': 13.29, 'pitch': 7.14, 'roll': 0.38}
{'lipoC2': 7.86, 'temp': 28.88, 'lipoC3S3': 12.17, 'rot1': 324, 'rot0': 172, 'rot3': 0, 'rot2': 0, 'state': 'normal', 'yaw': 0.33, 'datetime': '2018-10-12 20:40:52.100041', 'mgs': 0, 'depth': -0.522, 'time': 13.38, 'pitch': 7.14, 'roll': 0.39}
{'lipoC2': 7.86, 'temp': 28.88, 'lipoC3S3': 12.17, 'rot1': 325, 'rot0': 174, 'rot3': 0, 'rot2': 0, 'state': 'normal', 'yaw': 0.33, 'datetime': '2018-10-12 20:40:52.198735', 'mgs': 0, 'depth': -1.056, 'time': 13.48, 'pitch': 7.14, 'roll': 0.39}
{'lipoC2': 7.86, 'temp': 28.88, 'lipoC3S3': 12.18, 'rot1': 327, 'rot0': 175, 'rot3': 0, 'rot2': 0, 'state': 'normal', 'yaw': 0.35, 'datetime': '2018-10-12 20:40:52.292655', 'mgs': 0, 'depth': -0.751, 'time': 13.58, 'pitch': 7.14, 'roll': 0.39}
{'lipoC2': 7.85, 'temp': 28.88, 'lipoC3S3': 12.18, 'rot1': 329, 'rot0': 177, 'rot3': 0, 'rot2': 0, 'state': 'normal', 'yaw': 0.34, 'datetime': '2018-10-12 20:40:52.389983', 'mgs': 0, 'depth': -0.446, 'time': 13.68, 'pitch': 7.14, 'roll': 0.39}
{'lipoC2': 7.86, 'temp': 28.88, 'lipoC3S3': 12.19, 'rot1': 330, 'rot0': 179, 'rot3': 0, 'rot2': 0, 'state': 'normal', 'yaw': 0.35, 'datetime': '2018-10-12 20:40:52.487248', 'mgs': 0, 'depth': -0.522, 'time': 13.78, 'pitch': 7.14, 'roll': 0.4}
{'lipoC2': 7.86, 'temp': 28.88, 'lipoC3S3': 12.18, 'rot1': 332, 'rot0': 181, 'rot3': 0, 'rot2': 0, 'state': 'normal', 'yaw': 0.35, 'datetime': '2018-10-12 20:40:52.585528', 'mgs': 0, 'depth': 0.012, 'time': 13.88, 'pitch': 7.14, 'roll': 0.4}
{'lipoC2': 7.85, 'temp': 28.88, 'lipoC3S3': 12.18, 'rot1': 334, 'rot0': 182, 'rot3': 0, 'rot2': 0, 'state': 'normal', 'yaw': 0.36, 'datetime': '2018-10-12 20:40:52.684204', 'mgs': 0, 'depth': -0.293, 'time': 13.97, 'pitch': 7.14, 'roll': 0.4}
{'lipoC2': 7.85, 'temp': 28.88, 'lipoC3S3': 12.18, 'rot1': 336, 'rot0': 184, 'rot3': 0, 'rot2': 0, 'state': 'normal', 'yaw': 0.36, 'datetime': '2018-10-12 20:40:52.782575', 'mgs': 0, 'depth': 0.089, 'time': 14.07, 'pitch': 7.14, 'roll': 0.4}
{'lipoC2': 7.86, 'temp': 28.88, 'lipoC3S3': 12.16, 'rot1': 337, 'rot0': 186, 'rot3': 0, 'rot2': 0, 'state': 'normal', 'yaw': 0.36, 'datetime': '2018-10-12 20:40:52.879919', 'mgs': 0, 'depth': -0.522, 'time': 14.17, 'pitch': 7.14, 'roll': 0.4}
{'lipoC2': 7.85, 'temp': 28.88, 'lipoC3S3': 12.18, 'rot1': 339, 'rot0': 188, 'rot3': 0, 'rot2': 0, 'state': 'normal', 'yaw': 0.36, 'datetime': '2018-10-12 20:40:52.977240', 'mgs': 0, 'depth': -0.522, 'time': 14.27, 'pitch': 7.14, 'roll': 0.4}
{'lipoC2': 7.85, 'temp': 28.94, 'lipoC3S3': 12.19, 'rot1': 341, 'rot0': 190, 'rot3': 0, 'rot2': 0, 'state': 'normal', 'yaw': 0.36, 'datetime': '2018-10-12 20:40:53.075817', 'mgs': 0, 'depth': -0.522, 'time': 14.37, 'pitch': 7.14, 'roll': 0.4}
{'lipoC2': 7.86, 'temp': 28.94, 'lipoC3S3': 12.18, 'rot1': 342, 'rot0': 191, 'rot3': 0, 'rot2': 0, 'state': 'normal', 'yaw': 0.36, 'datetime': '2018-10-12 20:40:53.173019', 'mgs': 0, 'depth': 0.089, 'time': 14.46, 'pitch': 7.14, 'roll': 0.4}
{'lipoC2': 7.85, 'temp': 28.88, 'lipoC3S3': 12.16, 'rot1': 344, 'rot0': 193, 'rot3': 0, 'rot2': 0, 'state': 'normal', 'yaw': 0.36, 'datetime': '2018-10-12 20:40:53.270365', 'mgs': 0, 'depth': -0.446, 'time': 14.56, 'pitch': 7.14, 'roll': 0.4}
{'lipoC2': 7.85, 'temp': 28.88, 'lipoC3S3': 12.23, 'rot1': 346, 'rot0': 195, 'rot3': 0, 'rot2': 0, 'state': 'normal', 'yaw': 0.36, 'datetime': '2018-10-12 20:40:53.367751', 'mgs': 0, 'depth': -0.446, 'time': 14.66, 'pitch': 7.14, 'roll': 0.4}
{'lipoC2': 7.85, 'temp': 28.88, 'lipoC3S3': 12.22, 'rot1': 348, 'rot0': 197, 'rot3': 0, 'rot2': 0, 'state': 'normal', 'yaw': 0.36, 'datetime': '2018-10-12 20:40:53.466364', 'mgs': 0, 'depth': -0.522, 'time': 14.76, 'pitch': 7.14, 'roll': 0.4}
{'lipoC2': 7.85, 'temp': 28.81, 'lipoC3S3': 12.19, 'rot1': 349, 'rot0': 198, 'rot3': 0, 'rot2': 0, 'state': 'normal', 'yaw': 0.36, 'datetime': '2018-10-12 20:40:53.564971', 'mgs': 0, 'depth': -0.446, 'time': 14.86, 'pitch': 7.14, 'roll': 0.4}
{'lipoC2': 7.85, 'temp': 28.81, 'lipoC3S3': 12.18, 'rot1': 351, 'rot0': 200, 'rot3': 0, 'rot2': 0, 'state': 'normal', 'yaw': 0.36, 'datetime': '2018-10-12 20:40:53.663240', 'mgs': 0, 'depth': -0.446, 'time': 14.95, 'pitch': 7.14, 'roll': 0.4}
{'lipoC2': 7.85, 'temp': 28.88, 'lipoC3S3': 12.18, 'rot1': 353, 'rot0': 202, 'rot3': 0, 'rot2': 0, 'state': 'normal', 'yaw': 0.36, 'datetime': '2018-10-12 20:40:53.760511', 'mgs': 0, 'depth': -0.293, 'time': 15.05, 'pitch': 7.14, 'roll': 0.4}
{'lipoC2': 7.87, 'temp': 28.88, 'lipoC3S3': 12.18, 'rot1': 355, 'rot0': 204, 'rot3': 0, 'rot2': 0, 'state': 'normal', 'yaw': 0.36, 'datetime': '2018-10-12 20:40:53.858149', 'mgs': 0, 'depth': -0.369, 'time': 15.15, 'pitch': 7.14, 'roll': 0.4}
{'lipoC2': 7.86, 'temp': 28.88, 'lipoC3S3': 12.19, 'rot1': 356, 'rot0': 206, 'rot3': 0, 'rot2': 0, 'state': 'normal', 'yaw': 0.36, 'datetime': '2018-10-12 20:40:53.956655', 'mgs': 0, 'depth': 0.165, 'time': 15.25, 'pitch': 7.14, 'roll': 0.41}
{'lipoC2': 7.87, 'temp': 28.88, 'lipoC3S3': 12.18, 'rot1': 358, 'rot0': 207, 'rot3': 0, 'rot2': 0, 'state': 'normal', 'yaw': 0.35, 'datetime': '2018-10-12 20:40:54.055256', 'mgs': 0, 'depth': -0.369, 'time': 15.35, 'pitch': 7.14, 'roll': 0.4}
{'lipoC2': 7.85, 'temp': 28.88, 'lipoC3S3': 12.13, 'rot1': 360, 'rot0': 209, 'rot3': 0, 'rot2': 0, 'state': 'normal', 'yaw': 0.35, 'datetime': '2018-10-12 20:40:54.152554', 'mgs': 0, 'depth': -0.446, 'time': 15.44, 'pitch': 7.14, 'roll': 0.4}
{'lipoC2': 7.85, 'temp': 28.88, 'lipoC3S3': 12.19, 'rot1': 362, 'rot0': 211, 'rot3': 0, 'rot2': 0, 'state': 'normal', 'yaw': 0.36, 'datetime': '2018-10-12 20:40:54.249822', 'mgs': 0, 'depth': -0.446, 'time': 15.54, 'pitch': 7.14, 'roll': 0.4}
{'lipoC2': 7.86, 'temp': 28.88, 'lipoC3S3': 12.18, 'rot1': 363, 'rot0': 213, 'rot3': 0, 'rot2': 0, 'state': 'normal', 'yaw': 0.35, 'datetime': '2018-10-12 20:40:54.348257', 'mgs': 0, 'depth': -0.446, 'time': 15.64, 'pitch': 7.14, 'roll': 0.4}
{'lipoC2': 7.86, 'temp': 28.88, 'lipoC3S3': 12.18, 'rot1': 365, 'rot0': 214, 'rot3': 0, 'rot2': 0, 'state': 'normal', 'yaw': 0.36, 'datetime': '2018-10-12 20:40:54.446811', 'mgs': 0, 'depth': -0.446, 'time': 15.74, 'pitch': 7.14, 'roll': 0.4}
{'lipoC2': 7.86, 'temp': 28.88, 'lipoC3S3': 12.18, 'rot1': 367, 'rot0': 216, 'rot3': 0, 'rot2': 0, 'state': 'normal', 'yaw': 0.36, 'datetime': '2018-10-12 20:40:54.545199', 'mgs': 0, 'depth': 0.47, 'time': 15.84, 'pitch': 7.14, 'roll': 0.4}
{'lipoC2': 7.86, 'temp': 28.88, 'lipoC3S3': 12.09, 'rot1': 368, 'rot0': 218, 'rot3': 0, 'rot2': 0, 'state': 'normal', 'yaw': 0.35, 'datetime': '2018-10-12 20:40:54.642514', 'mgs': 0, 'depth': -0.446, 'time': 15.93, 'pitch': 7.14, 'roll': 0.4}
{'lipoC2': 7.86, 'temp': 28.88, 'lipoC3S3': 12.18, 'rot1': 370, 'rot0': 220, 'rot3': 0, 'rot2': 0, 'state': 'normal', 'yaw': 0.36, 'datetime': '2018-10-12 20:40:54.739833', 'mgs': 0, 'depth': -0.522, 'time': 16.03, 'pitch': 7.14, 'roll': 0.41}
{'lipoC2': 7.85, 'temp': 28.88, 'lipoC3S3': 12.26, 'rot1': 372, 'rot0': 222, 'rot3': 0, 'rot2': 0, 'state': 'normal', 'yaw': 0.35, 'datetime': '2018-10-12 20:40:54.838417', 'mgs': 0, 'depth': -0.522, 'time': 16.13, 'pitch': 7.14, 'roll': 0.4}
{'lipoC2': 7.86, 'temp': 28.88, 'lipoC3S3': 12.22, 'rot1': 374, 'rot0': 223, 'rot3': 0, 'rot2': 0, 'state': 'normal', 'yaw': 0.35, 'datetime': '2018-10-12 20:40:54.936975', 'mgs': 0, 'depth': -0.522, 'time': 16.23, 'pitch': 7.14, 'roll': 0.4}
{'lipoC2': 7.86, 'temp': 28.88, 'lipoC3S3': 12.17, 'rot1': 375, 'rot0': 225, 'rot3': 0, 'rot2': 0, 'state': 'normal', 'yaw': 0.35, 'datetime': '2018-10-12 20:40:55.034923', 'mgs': 0, 'depth': -0.446, 'time': 16.33, 'pitch': 7.14, 'roll': 0.4}
{'lipoC2': 7.85, 'temp': 28.88, 'lipoC3S3': 12.22, 'rot1': 377, 'rot0': 227, 'rot3': 0, 'rot2': 0, 'state': 'normal', 'yaw': 0.35, 'datetime': '2018-10-12 20:40:55.132198', 'mgs': 0, 'depth': -0.522, 'time': 16.42, 'pitch': 7.14, 'roll': 0.4}
{'lipoC2': 7.87, 'temp': 28.88, 'lipoC3S3': 12.19, 'rot1': 379, 'rot0': 229, 'rot3': 0, 'rot2': 0, 'state': 'normal', 'yaw': 0.35, 'datetime': '2018-10-12 20:40:55.230232', 'mgs': 0, 'depth': -0.369, 'time': 16.52, 'pitch': 7.14, 'roll': 0.4}
{'lipoC2': 7.85, 'temp': 28.88, 'lipoC3S3': 12.18, 'rot1': 380, 'rot0': 230, 'rot3': 0, 'rot2': 0, 'state': 'normal', 'yaw': 0.35, 'datetime': '2018-10-12 20:40:55.327873', 'mgs': 0, 'depth': 0.241, 'time': 16.62, 'pitch': 7.14, 'roll': 0.4}
{'lipoC2': 7.85, 'temp': 28.88, 'lipoC3S3': 12.13, 'rot1': 382, 'rot0': 232, 'rot3': 0, 'rot2': 0, 'state': 'normal', 'yaw': 0.35, 'datetime': '2018-10-12 20:40:55.425201', 'mgs': 0, 'depth': -0.446, 'time': 16.72, 'pitch': 7.14, 'roll': 0.4}
{'lipoC2': 7.86, 'temp': 28.88, 'lipoC3S3': 12.18, 'rot1': 384, 'rot0': 234, 'rot3': 0, 'rot2': 0, 'state': 'normal', 'yaw': 0.35, 'datetime': '2018-10-12 20:40:55.522485', 'mgs': 0, 'depth': -0.446, 'time': 16.82, 'pitch': 7.14, 'roll': 0.4}
{'lipoC2': 7.86, 'temp': 28.88, 'lipoC3S3': 12.18, 'rot1': 385, 'rot0': 236, 'rot3': 0, 'rot2': 0, 'state': 'normal', 'yaw': 0.35, 'datetime': '2018-10-12 20:40:55.620933', 'mgs': 0, 'depth': -0.446, 'time': 16.91, 'pitch': 7.14, 'roll': 0.4}
{'lipoC2': 7.85, 'temp': 28.88, 'lipoC3S3': 12.18, 'rot1': 387, 'rot0': 237, 'rot3': 0, 'rot2': 0, 'state': 'normal', 'yaw': 0.35, 'datetime': '2018-10-12 20:40:55.719477', 'mgs': 0, 'depth': -0.446, 'time': 17.01, 'pitch': 7.14, 'roll': 0.4}
{'lipoC2': 7.85, 'temp': 28.88, 'lipoC3S3': 12.18, 'rot1': 389, 'rot0': 239, 'rot3': 0, 'rot2': 0, 'state': 'normal', 'yaw': 0.35, 'datetime': '2018-10-12 20:40:55.818129', 'mgs': 0, 'depth': -0.446, 'time': 17.11, 'pitch': 7.14, 'roll': 0.4}
{'lipoC2': 7.86, 'temp': 28.88, 'lipoC3S3': 12.18, 'rot1': 391, 'rot0': 241, 'rot3': 0, 'rot2': 0, 'state': 'normal', 'yaw': 0.35, 'datetime': '2018-10-12 20:40:55.915422', 'mgs': 0, 'depth': -0.217, 'time': 17.21, 'pitch': 7.14, 'roll': 0.4}
{'lipoC2': 7.85, 'temp': 28.88, 'lipoC3S3': 12.13, 'rot1': 392, 'rot0': 243, 'rot3': 0, 'rot2': 0, 'state': 'normal', 'yaw': 0.35, 'datetime': '2018-10-12 20:40:56.012698', 'mgs': 0, 'depth': -0.522, 'time': 17.31, 'pitch': 7.14, 'roll': 0.4}
{'lipoC2': 7.86, 'temp': 28.88, 'lipoC3S3': 12.06, 'rot1': 394, 'rot0': 244, 'rot3': 0, 'rot2': 0, 'state': 'normal', 'yaw': 0.35, 'datetime': '2018-10-12 20:40:56.111336', 'mgs': 0, 'depth': -0.522, 'time': 17.4, 'pitch': 7.14, 'roll': 0.4}
{'lipoC2': 7.86, 'temp': 28.88, 'lipoC3S3': 12.16, 'rot1': 396, 'rot0': 246, 'rot3': 0, 'rot2': 0, 'state': 'normal', 'yaw': 0.36, 'datetime': '2018-10-12 20:40:56.209934', 'mgs': 0, 'depth': -0.522, 'time': 17.5, 'pitch': 7.14, 'roll': 0.41}
{'lipoC2': 7.85, 'temp': 28.88, 'lipoC3S3': 12.17, 'rot1': 398, 'rot0': 248, 'rot3': 0, 'rot2': 0, 'state': 'normal', 'yaw': 0.36, 'datetime': '2018-10-12 20:40:56.308330', 'mgs': 0, 'depth': -0.446, 'time': 17.6, 'pitch': 7.14, 'roll': 0.4}
{'lipoC2': 7.85, 'temp': 28.88, 'lipoC3S3': 12.19, 'rot1': 399, 'rot0': 250, 'rot3': 0, 'rot2': 0, 'state': 'normal', 'yaw': 0.36, 'datetime': '2018-10-12 20:40:56.405701', 'mgs': 0, 'depth': -0.446, 'time': 17.7, 'pitch': 7.14, 'roll': 0.41}
{'lipoC2': 7.86, 'temp': 28.88, 'lipoC3S3': 12.18, 'rot1': 401, 'rot0': 251, 'rot3': 0, 'rot2': 0, 'state': 'normal', 'yaw': 0.36, 'datetime': '2018-10-12 20:40:56.502879', 'mgs': 0, 'depth': 0.089, 'time': 17.8, 'pitch': 7.14, 'roll': 0.41}
{'lipoC2': 7.85, 'temp': 28.88, 'lipoC3S3': 12.19, 'rot1': 402, 'rot0': 252, 'rot3': 0, 'rot2': 0, 'state': 'normal', 'yaw': 0.35, 'datetime': '2018-10-12 20:40:56.601463', 'mgs': 0, 'depth': -0.522, 'time': 17.9, 'pitch': 7.14, 'roll': 0.41}
{'lipoC2': 7.85, 'temp': 28.88, 'lipoC3S3': 12.21, 'rot1': 402, 'rot0': 252, 'rot3': 0, 'rot2': 0, 'state': 'normal', 'yaw': 0.35, 'datetime': '2018-10-12 20:40:56.699997', 'mgs': 0, 'depth': -0.522, 'time': 17.99, 'pitch': 7.14, 'roll': 0.41}
{'lipoC2': 7.86, 'temp': 28.88, 'lipoC3S3': 12.16, 'rot1': 402, 'rot0': 252, 'rot3': 0, 'rot2': 1, 'state': 'normal', 'yaw': 0.35, 'datetime': '2018-10-12 20:40:56.797354', 'mgs': 0, 'depth': -0.369, 'time': 18.09, 'pitch': 7.14, 'roll': 0.41}
{'lipoC2': 7.86, 'temp': 28.94, 'lipoC3S3': 12.09, 'rot1': 406, 'rot0': 260, 'rot3': 1, 'rot2': 2, 'state': 'normal', 'yaw': 0.35, 'datetime': '2018-10-12 20:40:56.894657', 'mgs': 0, 'depth': 1.92, 'time': 18.19, 'pitch': 7.14, 'roll': 0.41}
{'lipoC2': 7.87, 'temp': 28.94, 'lipoC3S3': 12.08, 'rot1': 409, 'rot0': 263, 'rot3': 1, 'rot2': 2, 'state': 'normal', 'yaw': 0.35, 'datetime': '2018-10-12 20:40:56.992966', 'mgs': 0, 'depth': -0.293, 'time': 18.29, 'pitch': 7.14, 'roll': 0.41}
{'lipoC2': 7.87, 'temp': 28.94, 'lipoC3S3': 12.08, 'rot1': 412, 'rot0': 266, 'rot3': 2, 'rot2': 3, 'state': 'normal', 'yaw': 0.35, 'datetime': '2018-10-12 20:40:57.091575', 'mgs': 0, 'depth': -0.14, 'time': 18.39, 'pitch': 7.14, 'roll': 0.42}
{'lipoC2': 7.86, 'temp': 28.88, 'lipoC3S3': 12.1, 'rot1': 415, 'rot0': 269, 'rot3': 3, 'rot2': 4, 'state': 'normal', 'yaw': 0.36, 'datetime': '2018-10-12 20:40:57.190097', 'mgs': 0, 'depth': -0.522, 'time': 18.48, 'pitch': 7.14, 'roll': 0.43}
{'lipoC2': 7.85, 'temp': 28.88, 'lipoC3S3': 12.16, 'rot1': 418, 'rot0': 272, 'rot3': 4, 'rot2': 5, 'state': 'normal', 'yaw': 0.37, 'datetime': '2018-10-12 20:40:57.287382', 'mgs': 0, 'depth': -0.446, 'time': 18.58, 'pitch': 7.15, 'roll': 0.43}
{'lipoC2': 7.85, 'temp': 28.88, 'lipoC3S3': 12.14, 'rot1': 420, 'rot0': 275, 'rot3': 4, 'rot2': 6, 'state': 'normal', 'yaw': 0.34, 'datetime': '2018-10-12 20:40:57.384741', 'mgs': 0, 'depth': -0.217, 'time': 18.68, 'pitch': 7.16, 'roll': 0.45}
{'lipoC2': 7.86, 'temp': 28.88, 'lipoC3S3': 12.14, 'rot1': 423, 'rot0': 278, 'rot3': 5, 'rot2': 7, 'state': 'normal', 'yaw': 0.35, 'datetime': '2018-10-12 20:40:57.483266', 'mgs': 0, 'depth': -0.446, 'time': 18.78, 'pitch': 7.15, 'roll': 0.44}
{'lipoC2': 7.87, 'temp': 28.88, 'lipoC3S3': 12.09, 'rot1': 426, 'rot0': 281, 'rot3': 5, 'rot2': 8, 'state': 'normal', 'yaw': 0.36, 'datetime': '2018-10-12 20:40:57.580583', 'mgs': 0, 'depth': -0.293, 'time': 18.88, 'pitch': 7.15, 'roll': 0.43}
{'lipoC2': 7.84, 'temp': 28.88, 'lipoC3S3': 12.12, 'rot1': 429, 'rot0': 284, 'rot3': 6, 'rot2': 9, 'state': 'normal', 'yaw': 0.34, 'datetime': '2018-10-12 20:40:57.677875', 'mgs': 0, 'depth': -0.446, 'time': 18.97, 'pitch': 7.15, 'roll': 0.45}
{'lipoC2': 7.85, 'temp': 28.88, 'lipoC3S3': 12.16, 'rot1': 432, 'rot0': 287, 'rot3': 7, 'rot2': 10, 'state': 'normal', 'yaw': 0.33, 'datetime': '2018-10-12 20:40:57.775597', 'mgs': 0, 'depth': -0.369, 'time': 19.07, 'pitch': 7.15, 'roll': 0.43}
{'lipoC2': 7.87, 'temp': 28.88, 'lipoC3S3': 12.09, 'rot1': 435, 'rot0': 290, 'rot3': 7, 'rot2': 11, 'state': 'normal', 'yaw': 0.33, 'datetime': '2018-10-12 20:40:57.874557', 'mgs': 0, 'depth': 0.089, 'time': 19.17, 'pitch': 7.15, 'roll': 0.43}
{'lipoC2': 7.86, 'temp': 28.88, 'lipoC3S3': 12.14, 'rot1': 438, 'rot0': 293, 'rot3': 8, 'rot2': 12, 'state': 'normal', 'yaw': 0.33, 'datetime': '2018-10-12 20:40:57.973269', 'mgs': 0, 'depth': 0.928, 'time': 19.27, 'pitch': 7.15, 'roll': 0.45}
{'lipoC2': 7.86, 'temp': 28.88, 'lipoC3S3': 12.26, 'rot1': 441, 'rot0': 296, 'rot3': 9, 'rot2': 13, 'state': 'normal', 'yaw': 0.33, 'datetime': '2018-10-12 20:40:58.072113', 'mgs': 0, 'depth': -0.14, 'time': 19.37, 'pitch': 7.14, 'roll': 0.45}
{'lipoC2': 7.86, 'temp': 28.88, 'lipoC3S3': 12.14, 'rot1': 443, 'rot0': 299, 'rot3': 10, 'rot2': 14, 'state': 'normal', 'yaw': 0.33, 'datetime': '2018-10-12 20:40:58.169788', 'mgs': 0, 'depth': -0.14, 'time': 19.47, 'pitch': 7.15, 'roll': 0.44}
{'lipoC2': 7.86, 'temp': 28.88, 'lipoC3S3': 12.14, 'rot1': 447, 'rot0': 302, 'rot3': 10, 'rot2': 14, 'state': 'normal', 'yaw': 0.34, 'datetime': '2018-10-12 20:40:58.267468', 'mgs': 0, 'depth': -0.14, 'time': 19.56, 'pitch': 7.15, 'roll': 0.45}
{'lipoC2': 7.85, 'temp': 28.88, 'lipoC3S3': 12.14, 'rot1': 449, 'rot0': 305, 'rot3': 11, 'rot2': 15, 'state': 'normal', 'yaw': 0.33, 'datetime': '2018-10-12 20:40:58.365959', 'mgs': 0, 'depth': 0.012, 'time': 19.66, 'pitch': 7.14, 'roll': 0.46}
{'lipoC2': 7.85, 'temp': 28.88, 'lipoC3S3': 12.06, 'rot1': 452, 'rot0': 308, 'rot3': 11, 'rot2': 16, 'state': 'normal', 'yaw': 0.32, 'datetime': '2018-10-12 20:40:58.465464', 'mgs': 0, 'depth': -0.446, 'time': 19.76, 'pitch': 7.14, 'roll': 0.45}
{'lipoC2': 7.86, 'temp': 28.88, 'lipoC3S3': 12.13, 'rot1': 455, 'rot0': 311, 'rot3': 12, 'rot2': 17, 'state': 'normal', 'yaw': 0.32, 'datetime': '2018-10-12 20:40:58.563880', 'mgs': 0, 'depth': 0.546, 'time': 19.86, 'pitch': 7.14, 'roll': 0.45}
{'lipoC2': 7.86, 'temp': 28.88, 'lipoC3S3': 12.13, 'rot1': 458, 'rot0': 314, 'rot3': 13, 'rot2': 18, 'state': 'normal', 'yaw': 0.34, 'datetime': '2018-10-12 20:40:58.662355', 'mgs': 0, 'depth': 0.317, 'time': 19.96, 'pitch': 7.14, 'roll': 0.47}
{'lipoC2': 7.86, 'temp': 28.88, 'lipoC3S3': 12.13, 'rot1': 461, 'rot0': 317, 'rot3': 13, 'rot2': 19, 'state': 'normal', 'yaw': 0.34, 'datetime': '2018-10-12 20:40:58.759930', 'mgs': 0, 'depth': 0.546, 'time': 20.06, 'pitch': 7.14, 'roll': 0.48}
{'lipoC2': 7.86, 'temp': 28.88, 'lipoC3S3': 12.13, 'rot1': 464, 'rot0': 320, 'rot3': 14, 'rot2': 20, 'state': 'normal', 'yaw': 0.34, 'datetime': '2018-10-12 20:40:58.857592', 'mgs': 0, 'depth': 0.47, 'time': 20.15, 'pitch': 7.14, 'roll': 0.48}
{'lipoC2': 7.86, 'temp': 28.88, 'lipoC3S3': 12.14, 'rot1': 467, 'rot0': 323, 'rot3': 15, 'rot2': 21, 'state': 'normal', 'yaw': 0.34, 'datetime': '2018-10-12 20:40:58.956679', 'mgs': 0, 'depth': -0.369, 'time': 20.25, 'pitch': 7.14, 'roll': 0.47}
{'lipoC2': 7.87, 'temp': 28.88, 'lipoC3S3': 12.09, 'rot1': 469, 'rot0': 326, 'rot3': 16, 'rot2': 22, 'state': 'normal', 'yaw': 0.34, 'datetime': '2018-10-12 20:40:59.055581', 'mgs': 0, 'depth': 0.165, 'time': 20.35, 'pitch': 7.14, 'roll': 0.47}
{'lipoC2': 7.86, 'temp': 28.88, 'lipoC3S3': 12.14, 'rot1': 472, 'rot0': 329, 'rot3': 16, 'rot2': 23, 'state': 'normal', 'yaw': 0.33, 'datetime': '2018-10-12 20:40:59.154606', 'mgs': 0, 'depth': -0.064, 'time': 20.45, 'pitch': 7.14, 'roll': 0.48}
{'lipoC2': 7.87, 'temp': 28.88, 'lipoC3S3': 12.09, 'rot1': 475, 'rot0': 333, 'rot3': 17, 'rot2': 24, 'state': 'normal', 'yaw': 0.33, 'datetime': '2018-10-12 20:40:59.252700', 'mgs': 0, 'depth': 0.012, 'time': 20.55, 'pitch': 7.14, 'roll': 0.48}
{'lipoC2': 7.87, 'temp': 28.88, 'lipoC3S3': 12.08, 'rot1': 478, 'rot0': 335, 'rot3': 17, 'rot2': 25, 'state': 'normal', 'yaw': 0.34, 'datetime': '2018-10-12 20:40:59.350261', 'mgs': 0, 'depth': 0.012, 'time': 20.65, 'pitch': 7.14, 'roll': 0.49}
{'lipoC2': 7.86, 'temp': 28.88, 'lipoC3S3': 12.13, 'rot1': 481, 'rot0': 339, 'rot3': 18, 'rot2': 26, 'state': 'normal', 'yaw': 0.35, 'datetime': '2018-10-12 20:40:59.448276', 'mgs': 0, 'depth': -0.522, 'time': 20.74, 'pitch': 7.14, 'roll': 0.49}
{'lipoC2': 7.85, 'temp': 28.88, 'lipoC3S3': 12.08, 'rot1': 484, 'rot0': 342, 'rot3': 19, 'rot2': 26, 'state': 'normal', 'yaw': 0.34, 'datetime': '2018-10-12 20:40:59.547259', 'mgs': 0, 'depth': -0.522, 'time': 20.84, 'pitch': 7.14, 'roll': 0.5}
{'lipoC2': 7.86, 'temp': 28.88, 'lipoC3S3': 12.13, 'rot1': 487, 'rot0': 345, 'rot3': 19, 'rot2': 27, 'state': 'normal', 'yaw': 0.33, 'datetime': '2018-10-12 20:40:59.646130', 'mgs': 0, 'depth': 0.775, 'time': 20.94, 'pitch': 7.14, 'roll': 0.5}
