{'lipoC2': 8.17, 'temp': 25.75, 'lipoC3S3': 0.0, 'state': 'normal', 'rot1': 0, 'rot0': 0, 'rot3': 0, 'rot2': 0, 'depth': -0.064, 'yaw': 0.0, 'datetime': '2018-10-26 09:52:18.431063', 'mgs': 0, 'flw2': 0.0, 'flw1': 0.0, 'flw0': 0.0, 'time': 1.26, 'pitch': -23.94, 'roll': 46.18}
{'lipoC2': 8.17, 'temp': 25.75, 'lipoC3S3': 0.0, 'state': 'normal', 'rot1': 0, 'rot0': 135, 'rot3': 0, 'rot2': 0, 'depth': -0.14, 'yaw': -0.01, 'datetime': '2018-10-26 09:52:21.957738', 'mgs': 0, 'flw2': 0.0, 'flw1': 0.0, 'flw0': 0.0, 'time': 1.36, 'pitch': -23.96, 'roll': 46.17}
{'lipoC2': 8.17, 'temp': 25.81, 'lipoC3S3': 0.0, 'state': 'normal', 'rot1': 0, 'rot0': 273, 'rot3': 0, 'rot2': 0, 'depth': -0.14, 'yaw': 0.0, 'datetime': '2018-10-26 09:52:21.993147', 'mgs': 0, 'flw2': 0.0, 'flw1': 0.0, 'flw0': 0.0, 'time': 1.47, 'pitch': -23.95, 'roll': 46.17}
{'lipoC2': 8.17, 'temp': 25.81, 'lipoC3S3': 0.0, 'state': 'normal', 'rot1': 0, 'rot0': 410, 'rot3': 0, 'rot2': 0, 'depth': -0.14, 'yaw': -0.02, 'datetime': '2018-10-26 09:52:22.028589', 'mgs': 0, 'flw2': 0.0, 'flw1': 0.0, 'flw0': 0.0, 'time': 1.57, 'pitch': -23.96, 'roll': 46.18}
{'lipoC2': 8.17, 'temp': 25.81, 'lipoC3S3': 0.0, 'state': 'normal', 'rot1': 0, 'rot0': 542, 'rot3': 0, 'rot2': 0, 'depth': -0.14, 'yaw': 0.01, 'datetime': '2018-10-26 09:52:22.063959', 'mgs': 0, 'flw2': 0.0, 'flw1': 0.0, 'flw0': 0.0, 'time': 1.67, 'pitch': -23.97, 'roll': 46.19}
{'lipoC2': 8.17, 'temp': 25.81, 'lipoC3S3': 0.0, 'state': 'normal', 'rot1': 0, 'rot0': 632, 'rot3': 0, 'rot2': 0, 'depth': -0.14, 'yaw': -0.01, 'datetime': '2018-10-26 09:52:22.097349', 'mgs': 0, 'flw2': 0.0, 'flw1': 0.0, 'flw0': 0.0, 'time': 1.77, 'pitch': -23.96, 'roll': 46.18}
{'lipoC2': 8.17, 'temp': 25.81, 'lipoC3S3': 0.0, 'state': 'normal', 'rot1': 0, 'rot0': 686, 'rot3': 0, 'rot2': 0, 'depth': -0.14, 'yaw': -0.01, 'datetime': '2018-10-26 09:52:22.118124', 'mgs': 0, 'flw2': 0.0, 'flw1': 0.0, 'flw0': 0.0, 'time': 1.88, 'pitch': -23.96, 'roll': 46.19}
{'lipoC2': 8.17, 'temp': 25.75, 'lipoC3S3': 0.0, 'state': 'normal', 'rot1': 0, 'rot0': 692, 'rot3': 0, 'rot2': 0, 'depth': -0.217, 'yaw': -0.02, 'datetime': '2018-10-26 09:52:22.138901', 'mgs': 0, 'flw2': 0.0, 'flw1': 0.0, 'flw0': 0.0, 'time': 1.98, 'pitch': -23.95, 'roll': 46.19}
{'lipoC2': 8.17, 'temp': 25.75, 'lipoC3S3': 0.0, 'state': 'normal', 'rot1': 0, 'rot0': 694, 'rot3': 0, 'rot2': 0, 'depth': -0.14, 'yaw': -0.01, 'datetime': '2018-10-26 09:52:22.159682', 'mgs': 0, 'flw2': 0.0, 'flw1': 0.0, 'flw0': 0.0, 'time': 2.08, 'pitch': -23.94, 'roll': 46.18}
{'lipoC2': 8.17, 'temp': 25.81, 'lipoC3S3': 0.0, 'state': 'normal', 'rot1': 0, 'rot0': 694, 'rot3': 0, 'rot2': 0, 'depth': -0.14, 'yaw': -0.01, 'datetime': '2018-10-26 09:52:22.180461', 'mgs': 0, 'flw2': 0.0, 'flw1': 0.0, 'flw0': 0.0, 'time': 2.19, 'pitch': -23.95, 'roll': 46.19}
{'lipoC2': 8.17, 'temp': 25.81, 'lipoC3S3': 0.0, 'state': 'normal', 'rot1': 0, 'rot0': 694, 'rot3': 0, 'rot2': 0, 'depth': -0.14, 'yaw': -0.01, 'datetime': '2018-10-26 09:52:22.201306', 'mgs': 0, 'flw2': 0.0, 'flw1': 0.0, 'flw0': 0.0, 'time': 2.29, 'pitch': -23.95, 'roll': 46.19}
{'lipoC2': 8.17, 'temp': 25.81, 'lipoC3S3': 0.0, 'state': 'normal', 'rot1': 0, 'rot0': 694, 'rot3': 0, 'rot2': 0, 'depth': -0.14, 'yaw': -0.01, 'datetime': '2018-10-26 09:52:22.222192', 'mgs': 0, 'flw2': 0.0, 'flw1': 0.0, 'flw0': 0.0, 'time': 2.39, 'pitch': -23.95, 'roll': 46.19}
{'lipoC2': 8.17, 'temp': 25.75, 'lipoC3S3': 0.0, 'state': 'normal', 'rot1': 0, 'rot0': 694, 'rot3': 0, 'rot2': 0, 'depth': -0.14, 'yaw': -0.01, 'datetime': '2018-10-26 09:52:22.242983', 'mgs': 0, 'flw2': 0.0, 'flw1': 0.0, 'flw0': 0.0, 'time': 2.5, 'pitch': -23.95, 'roll': 46.19}
{'lipoC2': 8.17, 'temp': 25.75, 'lipoC3S3': 0.0, 'state': 'normal', 'rot1': 0, 'rot0': 694, 'rot3': 0, 'rot2': 0, 'depth': -0.14, 'yaw': -0.03, 'datetime': '2018-10-26 09:52:22.263822', 'mgs': 0, 'flw2': 0.0, 'flw1': 0.0, 'flw0': 0.0, 'time': 2.6, 'pitch': -23.94, 'roll': 46.19}
{'lipoC2': 8.17, 'temp': 25.75, 'lipoC3S3': 0.0, 'state': 'normal', 'rot1': 0, 'rot0': 694, 'rot3': 0, 'rot2': 0, 'depth': -0.14, 'yaw': -0.02, 'datetime': '2018-10-26 09:52:22.284603', 'mgs': 0, 'flw2': 0.0, 'flw1': 0.0, 'flw0': 0.0, 'time': 2.7, 'pitch': -23.94, 'roll': 46.19}
{'lipoC2': 8.17, 'temp': 25.75, 'lipoC3S3': 0.0, 'state': 'normal', 'rot1': 0, 'rot0': 694, 'rot3': 0, 'rot2': 0, 'depth': -0.14, 'yaw': -0.04, 'datetime': '2018-10-26 09:52:22.305605', 'mgs': 0, 'flw2': 0.0, 'flw1': 0.0, 'flw0': 0.0, 'time': 2.81, 'pitch': -23.95, 'roll': 46.19}
{'lipoC2': 8.17, 'temp': 25.75, 'lipoC3S3': 0.0, 'state': 'normal', 'rot1': 0, 'rot0': 694, 'rot3': 0, 'rot2': 0, 'depth': -0.064, 'yaw': -0.04, 'datetime': '2018-10-26 09:52:22.326399', 'mgs': 0, 'flw2': 0.0, 'flw1': 0.0, 'flw0': 0.0, 'time': 2.91, 'pitch': -23.95, 'roll': 46.19}
{'lipoC2': 8.17, 'temp': 25.81, 'lipoC3S3': 0.0, 'state': 'normal', 'rot1': 0, 'rot0': 694, 'rot3': 0, 'rot2': 0, 'depth': -0.14, 'yaw': -0.04, 'datetime': '2018-10-26 09:52:22.347184', 'mgs': 0, 'flw2': 0.0, 'flw1': 0.0, 'flw0': 0.0, 'time': 3.01, 'pitch': -23.95, 'roll': 46.19}
{'lipoC2': 8.17, 'temp': 25.81, 'lipoC3S3': 0.0, 'state': 'normal', 'rot1': 0, 'rot0': 694, 'rot3': 0, 'rot2': 0, 'depth': -0.14, 'yaw': -0.04, 'datetime': '2018-10-26 09:52:22.367963', 'mgs': 0, 'flw2': 0.0, 'flw1': 0.0, 'flw0': 0.0, 'time': 3.12, 'pitch': -23.95, 'roll': 46.19}
{'lipoC2': 8.17, 'temp': 25.81, 'lipoC3S3': 0.0, 'state': 'normal', 'rot1': 0, 'rot0': 694, 'rot3': 0, 'rot2': 0, 'depth': -0.064, 'yaw': -0.04, 'datetime': '2018-10-26 09:52:22.388762', 'mgs': 0, 'flw2': 0.0, 'flw1': 0.0, 'flw0': 0.0, 'time': 3.22, 'pitch': -23.95, 'roll': 46.19}
{'lipoC2': 8.17, 'temp': 25.81, 'lipoC3S3': 0.0, 'state': 'normal', 'rot1': 0, 'rot0': 694, 'rot3': 0, 'rot2': 0, 'depth': -0.14, 'yaw': -0.04, 'datetime': '2018-10-26 09:52:22.409563', 'mgs': 0, 'flw2': 0.0, 'flw1': 0.0, 'flw0': 0.0, 'time': 3.32, 'pitch': -23.94, 'roll': 46.19}
{'lipoC2': 8.17, 'temp': 25.75, 'lipoC3S3': 0.0, 'state': 'normal', 'rot1': 0, 'rot0': 694, 'rot3': 0, 'rot2': 0, 'depth': -0.064, 'yaw': -0.04, 'datetime': '2018-10-26 09:52:22.430352', 'mgs': 0, 'flw2': 0.0, 'flw1': 0.0, 'flw0': 0.0, 'time': 3.42, 'pitch': -23.94, 'roll': 46.19}
{'lipoC2': 8.17, 'temp': 25.75, 'lipoC3S3': 0.0, 'state': 'normal', 'rot1': 0, 'rot0': 694, 'rot3': 0, 'rot2': 0, 'depth': -0.14, 'yaw': -0.04, 'datetime': '2018-10-26 09:52:22.451110', 'mgs': 0, 'flw2': 0.0, 'flw1': 0.0, 'flw0': 0.0, 'time': 3.53, 'pitch': -23.94, 'roll': 46.19}
{'lipoC2': 8.17, 'temp': 25.75, 'lipoC3S3': 0.0, 'state': 'normal', 'rot1': 0, 'rot0': 694, 'rot3': 0, 'rot2': 0, 'depth': -0.14, 'yaw': -0.04, 'datetime': '2018-10-26 09:52:22.471872', 'mgs': 0, 'flw2': 0.0, 'flw1': 0.0, 'flw0': 0.0, 'time': 3.63, 'pitch': -23.94, 'roll': 46.19}
{'lipoC2': 8.17, 'temp': 25.75, 'lipoC3S3': 0.0, 'state': 'normal', 'rot1': 0, 'rot0': 0, 'rot3': 0, 'rot2': 0, 'depth': -0.14, 'yaw': 0.0, 'datetime': '2018-10-26 09:52:22.492542', 'mgs': 0, 'flw2': 0.0, 'flw1': 0.0, 'flw0': 0.0, 'time': 1.26, 'pitch': -23.93, 'roll': 46.2}
{'lipoC2': 8.17, 'temp': 25.75, 'lipoC3S3': 0.0, 'state': 'normal', 'rot1': 0, 'rot0': 135, 'rot3': 0, 'rot2': 0, 'depth': -0.064, 'yaw': 0.0, 'datetime': '2018-10-26 09:52:22.513294', 'mgs': 0, 'flw2': 0.0, 'flw1': 0.0, 'flw0': 0.0, 'time': 1.36, 'pitch': -23.92, 'roll': 46.2}
{'lipoC2': 8.17, 'temp': 25.75, 'lipoC3S3': 0.0, 'state': 'normal', 'rot1': 0, 'rot0': 272, 'rot3': 0, 'rot2': 0, 'depth': -0.064, 'yaw': 0.0, 'datetime': '2018-10-26 09:52:22.534036', 'mgs': 0, 'flw2': 0.0, 'flw1': 0.0, 'flw0': 0.0, 'time': 1.47, 'pitch': -23.92, 'roll': 46.2}
{'lipoC2': 8.17, 'temp': 25.75, 'lipoC3S3': 0.0, 'state': 'normal', 'rot1': 0, 'rot0': 409, 'rot3': 0, 'rot2': 0, 'depth': -0.14, 'yaw': 0.0, 'datetime': '2018-10-26 09:52:22.554844', 'mgs': 0, 'flw2': 0.0, 'flw1': 0.0, 'flw0': 0.0, 'time': 1.57, 'pitch': -23.92, 'roll': 46.2}
{'lipoC2': 8.17, 'temp': 25.75, 'lipoC3S3': 0.0, 'state': 'normal', 'rot1': 0, 'rot0': 535, 'rot3': 0, 'rot2': 0, 'depth': -0.14, 'yaw': 0.0, 'datetime': '2018-10-26 09:52:22.575658', 'mgs': 0, 'flw2': 0.0, 'flw1': 0.0, 'flw0': 0.0, 'time': 1.67, 'pitch': -23.92, 'roll': 46.2}
{'lipoC2': 8.17, 'temp': 25.81, 'lipoC3S3': 0.0, 'state': 'normal', 'rot1': 0, 'rot0': 653, 'rot3': 0, 'rot2': 0, 'depth': -0.14, 'yaw': 0.0, 'datetime': '2018-10-26 09:52:22.596407', 'mgs': 0, 'flw2': 0.0, 'flw1': 0.0, 'flw0': 0.0, 'time': 1.78, 'pitch': -23.92, 'roll': 46.2}
{'lipoC2': 8.17, 'temp': 25.81, 'lipoC3S3': 0.0, 'state': 'normal', 'rot1': 0, 'rot0': 712, 'rot3': 0, 'rot2': 0, 'depth': -0.14, 'yaw': 0.0, 'datetime': '2018-10-26 09:52:22.617326', 'mgs': 0, 'flw2': 0.0, 'flw1': 0.0, 'flw0': 0.0, 'time': 1.88, 'pitch': -23.92, 'roll': 46.2}
{'lipoC2': 8.17, 'temp': 25.81, 'lipoC3S3': 0.0, 'state': 'normal', 'rot1': 0, 'rot0': 750, 'rot3': 0, 'rot2': 0, 'depth': -0.14, 'yaw': 0.0, 'datetime': '2018-10-26 09:52:22.638150', 'mgs': 0, 'flw2': 0.0, 'flw1': 0.0, 'flw0': 0.0, 'time': 1.98, 'pitch': -23.92, 'roll': 46.2}
{'lipoC2': 8.17, 'temp': 25.81, 'lipoC3S3': 0.0, 'state': 'normal', 'rot1': 0, 'rot0': 751, 'rot3': 0, 'rot2': 0, 'depth': -0.14, 'yaw': 0.0, 'datetime': '2018-10-26 09:52:22.658942', 'mgs': 0, 'flw2': 0.0, 'flw1': 0.0, 'flw0': 0.0, 'time': 2.09, 'pitch': -23.92, 'roll': 46.2}
{'lipoC2': 8.17, 'temp': 25.81, 'lipoC3S3': 0.0, 'state': 'normal', 'rot1': 0, 'rot0': 751, 'rot3': 0, 'rot2': 0, 'depth': -0.14, 'yaw': 0.0, 'datetime': '2018-10-26 09:52:22.679713', 'mgs': 0, 'flw2': 0.0, 'flw1': 0.0, 'flw0': 0.0, 'time': 2.19, 'pitch': -23.92, 'roll': 46.2}
{'lipoC2': 8.17, 'temp': 25.81, 'lipoC3S3': 0.0, 'state': 'normal', 'rot1': 0, 'rot0': 751, 'rot3': 0, 'rot2': 0, 'depth': -0.14, 'yaw': 0.0, 'datetime': '2018-10-26 09:52:22.700448', 'mgs': 0, 'flw2': 0.0, 'flw1': 0.0, 'flw0': 0.0, 'time': 2.29, 'pitch': -23.92, 'roll': 46.2}
{'lipoC2': 8.17, 'temp': 25.81, 'lipoC3S3': 0.0, 'state': 'normal', 'rot1': 0, 'rot0': 751, 'rot3': 0, 'rot2': 0, 'depth': -0.14, 'yaw': 0.0, 'datetime': '2018-10-26 09:52:22.721195', 'mgs': 0, 'flw2': 0.0, 'flw1': 0.0, 'flw0': 0.0, 'time': 2.39, 'pitch': -23.92, 'roll': 46.2}
{'lipoC2': 8.17, 'temp': 25.81, 'lipoC3S3': 0.0, 'state': 'normal', 'rot1': 0, 'rot0': 751, 'rot3': 0, 'rot2': 0, 'depth': -0.14, 'yaw': 0.0, 'datetime': '2018-10-26 09:52:22.741961', 'mgs': 0, 'flw2': 0.0, 'flw1': 0.0, 'flw0': 0.0, 'time': 2.5, 'pitch': -23.92, 'roll': 46.2}
{'lipoC2': 8.17, 'temp': 25.81, 'lipoC3S3': 0.0, 'state': 'normal', 'rot1': 0, 'rot0': 751, 'rot3': 0, 'rot2': 0, 'depth': -0.14, 'yaw': 0.0, 'datetime': '2018-10-26 09:52:22.762322', 'mgs': 0, 'flw2': 0.0, 'flw1': 0.0, 'flw0': 0.0, 'time': 2.6, 'pitch': -23.92, 'roll': 46.2}
{'lipoC2': 8.17, 'temp': 25.81, 'lipoC3S3': 0.0, 'state': 'normal', 'rot1': 0, 'rot0': 751, 'rot3': 0, 'rot2': 0, 'depth': -0.217, 'yaw': 0.0, 'datetime': '2018-10-26 09:52:22.782604', 'mgs': 0, 'flw2': 0.0, 'flw1': 0.0, 'flw0': 0.0, 'time': 2.7, 'pitch': -23.92, 'roll': 46.2}
{'lipoC2': 8.17, 'temp': 25.81, 'lipoC3S3': 0.0, 'state': 'normal', 'rot1': 0, 'rot0': 751, 'rot3': 0, 'rot2': 0, 'depth': -0.14, 'yaw': 0.0, 'datetime': '2018-10-26 09:52:22.802901', 'mgs': 0, 'flw2': 0.0, 'flw1': 0.0, 'flw0': 0.0, 'time': 2.81, 'pitch': -23.92, 'roll': 46.2}
{'lipoC2': 8.17, 'temp': 25.81, 'lipoC3S3': 0.0, 'state': 'normal', 'rot1': 0, 'rot0': 751, 'rot3': 0, 'rot2': 0, 'depth': -0.14, 'yaw': 0.0, 'datetime': '2018-10-26 09:52:22.823170', 'mgs': 0, 'flw2': 0.0, 'flw1': 0.0, 'flw0': 0.0, 'time': 2.91, 'pitch': -23.92, 'roll': 46.2}
{'lipoC2': 8.17, 'temp': 25.81, 'lipoC3S3': 0.0, 'state': 'normal', 'rot1': 0, 'rot0': 751, 'rot3': 0, 'rot2': 0, 'depth': -0.14, 'yaw': 0.0, 'datetime': '2018-10-26 09:52:22.843391', 'mgs': 0, 'flw2': 0.0, 'flw1': 0.0, 'flw0': 0.0, 'time': 3.01, 'pitch': -23.92, 'roll': 46.2}
{'lipoC2': 8.17, 'temp': 25.81, 'lipoC3S3': 0.0, 'state': 'normal', 'rot1': 0, 'rot0': 751, 'rot3': 0, 'rot2': 0, 'depth': -0.14, 'yaw': 0.0, 'datetime': '2018-10-26 09:52:22.863592', 'mgs': 0, 'flw2': 0.0, 'flw1': 0.0, 'flw0': 0.0, 'time': 3.12, 'pitch': -23.92, 'roll': 46.2}
{'lipoC2': 8.17, 'temp': 25.81, 'lipoC3S3': 0.0, 'state': 'normal', 'rot1': 0, 'rot0': 751, 'rot3': 0, 'rot2': 0, 'depth': -0.14, 'yaw': 0.0, 'datetime': '2018-10-26 09:52:22.883778', 'mgs': 0, 'flw2': 0.0, 'flw1': 0.0, 'flw0': 0.0, 'time': 3.22, 'pitch': -23.92, 'roll': 46.2}
{'lipoC2': 8.17, 'temp': 25.81, 'lipoC3S3': 0.0, 'state': 'normal', 'rot1': 0, 'rot0': 751, 'rot3': 0, 'rot2': 0, 'depth': -0.217, 'yaw': 0.0, 'datetime': '2018-10-26 09:52:22.904114', 'mgs': 0, 'flw2': 0.0, 'flw1': 0.0, 'flw0': 0.0, 'time': 3.32, 'pitch': -23.92, 'roll': 46.2}
{'lipoC2': 8.17, 'temp': 25.81, 'lipoC3S3': 0.0, 'state': 'normal', 'rot1': 0, 'rot0': 751, 'rot3': 0, 'rot2': 0, 'depth': -0.14, 'yaw': 0.0, 'datetime': '2018-10-26 09:52:22.924329', 'mgs': 0, 'flw2': 0.0, 'flw1': 0.0, 'flw0': 0.0, 'time': 3.42, 'pitch': -23.92, 'roll': 46.2}
{'lipoC2': 8.17, 'temp': 25.81, 'lipoC3S3': 0.0, 'state': 'normal', 'rot1': 0, 'rot0': 751, 'rot3': 0, 'rot2': 0, 'depth': -0.064, 'yaw': 0.0, 'datetime': '2018-10-26 09:52:22.944569', 'mgs': 0, 'flw2': 1.87, 'flw1': 1.61, 'flw0': 1.87, 'time': 3.53, 'pitch': -23.92, 'roll': 46.2}
{'lipoC2': 8.17, 'temp': 25.81, 'lipoC3S3': 0.0, 'state': 'normal', 'rot1': 0, 'rot0': 751, 'rot3': 0, 'rot2': 0, 'depth': -0.14, 'yaw': 0.04, 'datetime': '2018-10-26 09:52:22.964842', 'mgs': 0, 'flw2': 0.84, 'flw1': 1.05, 'flw0': 0.88, 'time': 3.63, 'pitch': -23.92, 'roll': 46.19}
{'lipoC2': 8.19, 'temp': 25.81, 'lipoC3S3': 0.0, 'state': 'normal', 'rot1': 0, 'rot0': 751, 'rot3': 0, 'rot2': 0, 'depth': 0.012, 'yaw': 0.04, 'datetime': '2018-10-26 09:52:22.985041', 'mgs': 0, 'flw2': 0.73, 'flw1': 1.08, 'flw0': 0.77, 'time': 3.73, 'pitch': -23.9, 'roll': 46.18}
{'lipoC2': 8.17, 'temp': 25.81, 'lipoC3S3': 0.0, 'state': 'normal', 'rot1': 0, 'rot0': 751, 'rot3': 0, 'rot2': 0, 'depth': -0.217, 'yaw': -0.01, 'datetime': '2018-10-26 09:52:23.005293', 'mgs': 0, 'flw2': 0.73, 'flw1': 1.0, 'flw0': 0.73, 'time': 3.84, 'pitch': -23.91, 'roll': 46.17}
{'lipoC2': 8.17, 'temp': 25.75, 'lipoC3S3': 0.0, 'state': 'normal', 'rot1': 0, 'rot0': 751, 'rot3': 0, 'rot2': 0, 'depth': -0.217, 'yaw': 0.01, 'datetime': '2018-10-26 09:52:23.025553', 'mgs': 0, 'flw2': 0.78, 'flw1': 1.05, 'flw0': 0.78, 'time': 3.94, 'pitch': -23.88, 'roll': 46.17}
{'lipoC2': 8.17, 'temp': 25.75, 'lipoC3S3': 0.0, 'state': 'normal', 'rot1': 0, 'rot0': 751, 'rot3': 0, 'rot2': 0, 'depth': -0.064, 'yaw': -0.04, 'datetime': '2018-10-26 09:52:23.045802', 'mgs': 0, 'flw2': 0.73, 'flw1': 1.08, 'flw0': 0.71, 'time': 4.04, 'pitch': -23.89, 'roll': 46.2}
{'lipoC2': 8.17, 'temp': 25.75, 'lipoC3S3': 0.0, 'state': 'normal', 'rot1': 0, 'rot0': 751, 'rot3': 0, 'rot2': 0, 'depth': -0.14, 'yaw': 0.03, 'datetime': '2018-10-26 09:52:23.066062', 'mgs': 0, 'flw2': 0.74, 'flw1': 0.97, 'flw0': 0.73, 'time': 4.14, 'pitch': -23.93, 'roll': 46.21}
{'lipoC2': 8.17, 'temp': 25.75, 'lipoC3S3': 0.0, 'state': 'normal', 'rot1': 0, 'rot0': 751, 'rot3': 0, 'rot2': 0, 'depth': -0.064, 'yaw': 0.03, 'datetime': '2018-10-26 09:52:23.086267', 'mgs': 0, 'flw2': 0.74, 'flw1': 1.03, 'flw0': 0.72, 'time': 4.25, 'pitch': -23.93, 'roll': 46.2}
{'lipoC2': 8.17, 'temp': 25.75, 'lipoC3S3': 0.0, 'state': 'normal', 'rot1': 0, 'rot0': 751, 'rot3': 0, 'rot2': 0, 'depth': -0.14, 'yaw': 0.01, 'datetime': '2018-10-26 09:52:23.106540', 'mgs': 0, 'flw2': 0.73, 'flw1': 1.05, 'flw0': 0.76, 'time': 4.35, 'pitch': -23.91, 'roll': 46.23}
{'lipoC2': 8.17, 'temp': 25.75, 'lipoC3S3': 0.0, 'state': 'normal', 'rot1': 0, 'rot0': 751, 'rot3': 0, 'rot2': 0, 'depth': -0.14, 'yaw': 0.01, 'datetime': '2018-10-26 09:52:23.126765', 'mgs': 0, 'flw2': 0.74, 'flw1': 0.94, 'flw0': 0.74, 'time': 4.45, 'pitch': -23.89, 'roll': 46.22}
{'lipoC2': 8.17, 'temp': 25.75, 'lipoC3S3': 0.0, 'state': 'normal', 'rot1': 0, 'rot0': 751, 'rot3': 0, 'rot2': 0, 'depth': -0.14, 'yaw': 0.01, 'datetime': '2018-10-26 09:52:23.147025', 'mgs': 0, 'flw2': 0.73, 'flw1': 1.03, 'flw0': 0.78, 'time': 4.56, 'pitch': -23.88, 'roll': 46.23}
{'lipoC2': 8.17, 'temp': 25.81, 'lipoC3S3': 0.0, 'state': 'normal', 'rot1': 0, 'rot0': 751, 'rot3': 0, 'rot2': 0, 'depth': -0.064, 'yaw': 0.02, 'datetime': '2018-10-26 09:52:23.167332', 'mgs': 0, 'flw2': 0.76, 'flw1': 1.05, 'flw0': 0.74, 'time': 4.66, 'pitch': -23.85, 'roll': 46.21}
{'lipoC2': 8.17, 'temp': 25.81, 'lipoC3S3': 0.0, 'state': 'normal', 'rot1': 0, 'rot0': 751, 'rot3': 0, 'rot2': 0, 'depth': -0.064, 'yaw': 0.03, 'datetime': '2018-10-26 09:52:23.251248', 'mgs': 0, 'flw2': 0.73, 'flw1': 1.05, 'flw0': 0.74, 'time': 4.76, 'pitch': -23.84, 'roll': 46.22}
{'lipoC2': 8.17, 'temp': 25.75, 'lipoC3S3': 0.0, 'state': 'normal', 'rot1': 0, 'rot0': 751, 'rot3': 0, 'rot2': 0, 'depth': -0.14, 'yaw': 0.06, 'datetime': '2018-10-26 09:52:23.353944', 'mgs': 0, 'flw2': 0.71, 'flw1': 1.0, 'flw0': 0.76, 'time': 4.87, 'pitch': -23.84, 'roll': 46.21}
{'lipoC2': 8.17, 'temp': 25.75, 'lipoC3S3': 0.0, 'state': 'normal', 'rot1': 0, 'rot0': 751, 'rot3': 0, 'rot2': 0, 'depth': -0.14, 'yaw': 0.0, 'datetime': '2018-10-26 09:52:23.456648', 'mgs': 0, 'flw2': 0.73, 'flw1': 1.05, 'flw0': 0.76, 'time': 4.97, 'pitch': -23.85, 'roll': 46.22}
{'lipoC2': 8.17, 'temp': 25.75, 'lipoC3S3': 0.0, 'state': 'normal', 'rot1': 0, 'rot0': 751, 'rot3': 0, 'rot2': 0, 'depth': -0.064, 'yaw': -0.01, 'datetime': '2018-10-26 09:52:23.561274', 'mgs': 0, 'flw2': 0.74, 'flw1': 1.03, 'flw0': 0.71, 'time': 5.07, 'pitch': -23.85, 'roll': 46.24}
{'lipoC2': 8.17, 'temp': 25.75, 'lipoC3S3': 0.0, 'state': 'normal', 'rot1': 0, 'rot0': 751, 'rot3': 0, 'rot2': 0, 'depth': -0.064, 'yaw': -0.02, 'datetime': '2018-10-26 09:52:23.664179', 'mgs': 0, 'flw2': 0.73, 'flw1': 0.97, 'flw0': 0.76, 'time': 5.18, 'pitch': -23.89, 'roll': 46.29}
{'lipoC2': 8.17, 'temp': 25.75, 'lipoC3S3': 0.0, 'state': 'normal', 'rot1': 0, 'rot0': 751, 'rot3': 0, 'rot2': 0, 'depth': -0.217, 'yaw': -0.0, 'datetime': '2018-10-26 09:52:23.766872', 'mgs': 0, 'flw2': 0.74, 'flw1': 1.08, 'flw0': 0.77, 'time': 5.28, 'pitch': -23.92, 'roll': 46.3}
{'lipoC2': 8.17, 'temp': 25.81, 'lipoC3S3': 0.0, 'state': 'normal', 'rot1': 0, 'rot0': 751, 'rot3': 0, 'rot2': 0, 'depth': -0.064, 'yaw': 0.01, 'datetime': '2018-10-26 09:52:23.869620', 'mgs': 0, 'flw2': 0.72, 'flw1': 0.97, 'flw0': 0.74, 'time': 5.38, 'pitch': -23.9, 'roll': 46.32}
{'lipoC2': 8.17, 'temp': 25.81, 'lipoC3S3': 0.0, 'state': 'normal', 'rot1': 0, 'rot0': 751, 'rot3': 0, 'rot2': 0, 'depth': -0.14, 'yaw': -0.03, 'datetime': '2018-10-26 09:52:23.972321', 'mgs': 0, 'flw2': 0.76, 'flw1': 1.05, 'flw0': 0.79, 'time': 5.49, 'pitch': -23.9, 'roll': 46.33}
{'lipoC2': 8.17, 'temp': 25.81, 'lipoC3S3': 0.0, 'state': 'normal', 'rot1': 0, 'rot0': 751, 'rot3': 0, 'rot2': 0, 'depth': -0.064, 'yaw': -0.03, 'datetime': '2018-10-26 09:52:24.075108', 'mgs': 0, 'flw2': 0.7, 'flw1': 0.97, 'flw0': 0.73, 'time': 5.59, 'pitch': -23.87, 'roll': 46.32}
{'lipoC2': 8.17, 'temp': 25.81, 'lipoC3S3': 0.0, 'state': 'normal', 'rot1': 0, 'rot0': 751, 'rot3': 0, 'rot2': 0, 'depth': -0.14, 'yaw': 0.01, 'datetime': '2018-10-26 09:52:24.177757', 'mgs': 0, 'flw2': 0.76, 'flw1': 1.03, 'flw0': 0.77, 'time': 5.69, 'pitch': -23.85, 'roll': 46.29}
{'lipoC2': 8.17, 'temp': 25.81, 'lipoC3S3': 0.0, 'state': 'normal', 'rot1': 0, 'rot0': 751, 'rot3': 0, 'rot2': 0, 'depth': -0.217, 'yaw': 0.0, 'datetime': '2018-10-26 09:52:24.280461', 'mgs': 0, 'flw2': 0.71, 'flw1': 0.94, 'flw0': 0.73, 'time': 5.79, 'pitch': -23.85, 'roll': 46.27}
{'lipoC2': 8.17, 'temp': 25.81, 'lipoC3S3': 0.0, 'state': 'normal', 'rot1': 0, 'rot0': 751, 'rot3': 0, 'rot2': 0, 'depth': -0.064, 'yaw': 0.06, 'datetime': '2018-10-26 09:52:24.383196', 'mgs': 0, 'flw2': 0.76, 'flw1': 1.0, 'flw0': 0.74, 'time': 5.9, 'pitch': -23.84, 'roll': 46.22}
{'lipoC2': 8.17, 'temp': 25.81, 'lipoC3S3': 0.0, 'state': 'normal', 'rot1': 0, 'rot0': 751, 'rot3': 0, 'rot2': 0, 'depth': -0.14, 'yaw': 0.03, 'datetime': '2018-10-26 09:52:24.486062', 'mgs': 0, 'flw2': 0.74, 'flw1': 1.05, 'flw0': 0.7, 'time': 6.0, 'pitch': -23.88, 'roll': 46.2}
{'lipoC2': 8.17, 'temp': 25.75, 'lipoC3S3': 0.0, 'state': 'normal', 'rot1': 0, 'rot0': 751, 'rot3': 0, 'rot2': 0, 'depth': -0.14, 'yaw': 0.01, 'datetime': '2018-10-26 09:52:24.588819', 'mgs': 0, 'flw2': 0.7, 'flw1': 1.0, 'flw0': 0.73, 'time': 6.1, 'pitch': -23.87, 'roll': 46.24}
{'lipoC2': 8.17, 'temp': 25.75, 'lipoC3S3': 0.0, 'state': 'normal', 'rot1': 0, 'rot0': 751, 'rot3': 0, 'rot2': 0, 'depth': -0.14, 'yaw': -0.05, 'datetime': '2018-10-26 09:52:24.691527', 'mgs': 0, 'flw2': 0.77, 'flw1': 1.05, 'flw0': 0.71, 'time': 6.2, 'pitch': -23.89, 'roll': 46.25}
{'lipoC2': 8.17, 'temp': 25.81, 'lipoC3S3': 0.0, 'state': 'normal', 'rot1': 0, 'rot0': 751, 'rot3': 0, 'rot2': 0, 'depth': -0.14, 'yaw': 0.01, 'datetime': '2018-10-26 09:52:24.794217', 'mgs': 0, 'flw2': 0.71, 'flw1': 1.03, 'flw0': 0.72, 'time': 6.31, 'pitch': -23.92, 'roll': 46.26}
{'lipoC2': 8.17, 'temp': 25.81, 'lipoC3S3': 0.0, 'state': 'normal', 'rot1': 0, 'rot0': 751, 'rot3': 0, 'rot2': 0, 'depth': -0.14, 'yaw': 0.05, 'datetime': '2018-10-26 09:52:24.897111', 'mgs': 0, 'flw2': 0.74, 'flw1': 1.03, 'flw0': 0.79, 'time': 6.41, 'pitch': -23.96, 'roll': 46.25}
{'lipoC2': 8.17, 'temp': 25.81, 'lipoC3S3': 0.0, 'state': 'normal', 'rot1': 0, 'rot0': 751, 'rot3': 0, 'rot2': 0, 'depth': -0.217, 'yaw': 0.04, 'datetime': '2018-10-26 09:52:24.999871', 'mgs': 0, 'flw2': 0.76, 'flw1': 0.94, 'flw0': 0.72, 'time': 6.51, 'pitch': -23.97, 'roll': 46.23}
{'lipoC2': 8.17, 'temp': 25.81, 'lipoC3S3': 0.0, 'state': 'normal', 'rot1': 0, 'rot0': 751, 'rot3': 0, 'rot2': 0, 'depth': -0.14, 'yaw': 0.05, 'datetime': '2018-10-26 09:52:25.102835', 'mgs': 0, 'flw2': 0.71, 'flw1': 0.97, 'flw0': 0.77, 'time': 6.62, 'pitch': -23.97, 'roll': 46.22}
{'lipoC2': 8.17, 'temp': 25.81, 'lipoC3S3': 0.0, 'state': 'normal', 'rot1': 0, 'rot0': 751, 'rot3': 0, 'rot2': 0, 'depth': -0.14, 'yaw': 0.04, 'datetime': '2018-10-26 09:52:25.207441', 'mgs': 0, 'flw2': 0.72, 'flw1': 1.0, 'flw0': 0.76, 'time': 6.72, 'pitch': -23.97, 'roll': 46.19}
{'lipoC2': 8.17, 'temp': 25.81, 'lipoC3S3': 0.0, 'state': 'normal', 'rot1': 0, 'rot0': 751, 'rot3': 0, 'rot2': 0, 'depth': -0.064, 'yaw': 0.07, 'datetime': '2018-10-26 09:52:25.309461', 'mgs': 0, 'flw2': 0.73, 'flw1': 1.05, 'flw0': 0.68, 'time': 6.82, 'pitch': -23.93, 'roll': 46.18}
{'lipoC2': 8.17, 'temp': 25.81, 'lipoC3S3': 0.0, 'state': 'normal', 'rot1': 0, 'rot0': 751, 'rot3': 0, 'rot2': 0, 'depth': -0.14, 'yaw': 0.08, 'datetime': '2018-10-26 09:52:25.412171', 'mgs': 0, 'flw2': 0.73, 'flw1': 1.03, 'flw0': 0.73, 'time': 6.93, 'pitch': -23.93, 'roll': 46.15}
{'lipoC2': 8.17, 'temp': 25.81, 'lipoC3S3': 0.0, 'state': 'normal', 'rot1': 0, 'rot0': 751, 'rot3': 0, 'rot2': 0, 'depth': -0.064, 'yaw': 0.1, 'datetime': '2018-10-26 09:52:25.516205', 'mgs': 0, 'flw2': 0.72, 'flw1': 1.03, 'flw0': 0.74, 'time': 7.03, 'pitch': -23.93, 'roll': 46.14}
{'lipoC2': 8.17, 'temp': 25.81, 'lipoC3S3': 0.0, 'state': 'normal', 'rot1': 0, 'rot0': 751, 'rot3': 0, 'rot2': 0, 'depth': -0.217, 'yaw': 0.03, 'datetime': '2018-10-26 09:52:25.619287', 'mgs': 0, 'flw2': 0.77, 'flw1': 1.03, 'flw0': 0.76, 'time': 7.13, 'pitch': -23.95, 'roll': 46.14}
{'lipoC2': 8.17, 'temp': 25.81, 'lipoC3S3': 0.0, 'state': 'normal', 'rot1': 0, 'rot0': 751, 'rot3': 0, 'rot2': 0, 'depth': -0.14, 'yaw': 0.04, 'datetime': '2018-10-26 09:52:25.721943', 'mgs': 0, 'flw2': 0.72, 'flw1': 0.94, 'flw0': 0.71, 'time': 7.24, 'pitch': -23.97, 'roll': 46.13}
{'lipoC2': 8.17, 'temp': 25.81, 'lipoC3S3': 0.0, 'state': 'normal', 'rot1': 0, 'rot0': 751, 'rot3': 0, 'rot2': 0, 'depth': -0.14, 'yaw': 0.03, 'datetime': '2018-10-26 09:52:25.824685', 'mgs': 0, 'flw2': 0.72, 'flw1': 1.05, 'flw0': 0.74, 'time': 7.34, 'pitch': -24.0, 'roll': 46.14}
{'lipoC2': 8.17, 'temp': 25.81, 'lipoC3S3': 0.0, 'state': 'normal', 'rot1': 0, 'rot0': 751, 'rot3': 0, 'rot2': 0, 'depth': -0.217, 'yaw': 0.04, 'datetime': '2018-10-26 09:52:25.927355', 'mgs': 0, 'flw2': 0.76, 'flw1': 0.97, 'flw0': 0.72, 'time': 7.44, 'pitch': -24.02, 'roll': 46.15}
{'lipoC2': 8.17, 'temp': 25.81, 'lipoC3S3': 0.0, 'state': 'normal', 'rot1': 0, 'rot0': 751, 'rot3': 0, 'rot2': 0, 'depth': -0.14, 'yaw': 0.06, 'datetime': '2018-10-26 09:52:26.030154', 'mgs': 0, 'flw2': 0.71, 'flw1': 1.03, 'flw0': 0.74, 'time': 7.55, 'pitch': -24.02, 'roll': 46.16}
{'lipoC2': 8.17, 'temp': 25.81, 'lipoC3S3': 0.0, 'state': 'normal', 'rot1': 0, 'rot0': 751, 'rot3': 0, 'rot2': 0, 'depth': -0.14, 'yaw': 0.04, 'datetime': '2018-10-26 09:52:26.132896', 'mgs': 0, 'flw2': 0.76, 'flw1': 1.0, 'flw0': 0.71, 'time': 7.65, 'pitch': -24.03, 'roll': 46.16}
{'lipoC2': 8.17, 'temp': 25.81, 'lipoC3S3': 0.0, 'state': 'normal', 'rot1': 0, 'rot0': 751, 'rot3': 0, 'rot2': 0, 'depth': -0.217, 'yaw': 0.05, 'datetime': '2018-10-26 09:52:26.235662', 'mgs': 0, 'flw2': 0.72, 'flw1': 1.03, 'flw0': 0.74, 'time': 7.75, 'pitch': -24.0, 'roll': 46.17}
{'lipoC2': 8.17, 'temp': 25.81, 'lipoC3S3': 0.0, 'state': 'normal', 'rot1': 0, 'rot0': 751, 'rot3': 0, 'rot2': 0, 'depth': -0.14, 'yaw': 0.03, 'datetime': '2018-10-26 09:52:26.338315', 'mgs': 0, 'flw2': 0.76, 'flw1': 1.0, 'flw0': 0.72, 'time': 7.85, 'pitch': -23.98, 'roll': 46.17}
{'lipoC2': 8.17, 'temp': 25.81, 'lipoC3S3': 0.0, 'state': 'normal', 'rot1': 0, 'rot0': 751, 'rot3': 0, 'rot2': 0, 'depth': -0.14, 'yaw': 0.08, 'datetime': '2018-10-26 09:52:26.441141', 'mgs': 0, 'flw2': 0.73, 'flw1': 0.97, 'flw0': 0.74, 'time': 7.96, 'pitch': -23.96, 'roll': 46.13}
{'lipoC2': 8.17, 'temp': 25.81, 'lipoC3S3': 0.0, 'state': 'normal', 'rot1': 0, 'rot0': 751, 'rot3': 0, 'rot2': 0, 'depth': -0.064, 'yaw': 0.07, 'datetime': '2018-10-26 09:52:26.543821', 'mgs': 0, 'flw2': 0.72, 'flw1': 1.05, 'flw0': 0.73, 'time': 8.06, 'pitch': -23.96, 'roll': 46.13}
{'lipoC2': 8.17, 'temp': 25.81, 'lipoC3S3': 0.0, 'state': 'normal', 'rot1': 0, 'rot0': 751, 'rot3': 0, 'rot2': 0, 'depth': -0.14, 'yaw': 0.03, 'datetime': '2018-10-26 09:52:26.646535', 'mgs': 0, 'flw2': 0.72, 'flw1': 1.0, 'flw0': 0.73, 'time': 8.16, 'pitch': -23.98, 'roll': 46.14}
{'lipoC2': 8.17, 'temp': 25.81, 'lipoC3S3': 0.0, 'state': 'normal', 'rot1': 0, 'rot0': 751, 'rot3': 0, 'rot2': 0, 'depth': -0.14, 'yaw': 0.05, 'datetime': '2018-10-26 09:52:26.750561', 'mgs': 0, 'flw2': 0.73, 'flw1': 1.05, 'flw0': 0.74, 'time': 8.27, 'pitch': -23.97, 'roll': 46.16}
{'lipoC2': 8.17, 'temp': 25.81, 'lipoC3S3': 0.0, 'state': 'normal', 'rot1': 0, 'rot0': 751, 'rot3': 0, 'rot2': 0, 'depth': 0.012, 'yaw': -0.02, 'datetime': '2018-10-26 09:52:26.853180', 'mgs': 0, 'flw2': 0.74, 'flw1': 1.0, 'flw0': 0.71, 'time': 8.37, 'pitch': -24.01, 'roll': 46.22}
{'lipoC2': 8.17, 'temp': 25.81, 'lipoC3S3': 0.0, 'state': 'normal', 'rot1': 0, 'rot0': 751, 'rot3': 0, 'rot2': 0, 'depth': -0.14, 'yaw': -0.01, 'datetime': '2018-10-26 09:52:26.955936', 'mgs': 0, 'flw2': 0.76, 'flw1': 1.03, 'flw0': 0.73, 'time': 8.47, 'pitch': -24.03, 'roll': 46.23}
{'lipoC2': 8.17, 'temp': 25.81, 'lipoC3S3': 0.0, 'state': 'normal', 'rot1': 0, 'rot0': 751, 'rot3': 0, 'rot2': 0, 'depth': -0.14, 'yaw': 0.0, 'datetime': '2018-10-26 09:52:27.059830', 'mgs': 0, 'flw2': 0.72, 'flw1': 1.05, 'flw0': 0.74, 'time': 8.58, 'pitch': -24.04, 'roll': 46.26}
{'lipoC2': 8.17, 'temp': 25.81, 'lipoC3S3': 0.0, 'state': 'normal', 'rot1': 0, 'rot0': 751, 'rot3': 0, 'rot2': 0, 'depth': -0.064, 'yaw': -0.04, 'datetime': '2018-10-26 09:52:27.162868', 'mgs': 0, 'flw2': 0.74, 'flw1': 1.05, 'flw0': 0.73, 'time': 8.68, 'pitch': -24.04, 'roll': 46.27}
{'lipoC2': 8.17, 'temp': 25.81, 'lipoC3S3': 0.0, 'state': 'normal', 'rot1': 0, 'rot0': 751, 'rot3': 0, 'rot2': 0, 'depth': -0.14, 'yaw': -0.01, 'datetime': '2018-10-26 09:52:27.265577', 'mgs': 0, 'flw2': 0.72, 'flw1': 1.03, 'flw0': 0.72, 'time': 8.78, 'pitch': -24.02, 'roll': 46.26}
{'lipoC2': 8.17, 'temp': 25.81, 'lipoC3S3': 0.0, 'state': 'normal', 'rot1': 0, 'rot0': 751, 'rot3': 0, 'rot2': 0, 'depth': -0.14, 'yaw': -0.07, 'datetime': '2018-10-26 09:52:27.368749', 'mgs': 0, 'flw2': 0.72, 'flw1': 1.0, 'flw0': 0.74, 'time': 8.89, 'pitch': -24.01, 'roll': 46.28}
{'lipoC2': 8.17, 'temp': 25.81, 'lipoC3S3': 0.0, 'state': 'normal', 'rot1': 0, 'rot0': 751, 'rot3': 0, 'rot2': 0, 'depth': -0.14, 'yaw': -0.05, 'datetime': '2018-10-26 09:52:27.472988', 'mgs': 0, 'flw2': 0.73, 'flw1': 1.0, 'flw0': 0.72, 'time': 8.99, 'pitch': -24.0, 'roll': 46.28}
{'lipoC2': 8.17, 'temp': 25.81, 'lipoC3S3': 0.0, 'state': 'normal', 'rot1': 0, 'rot0': 751, 'rot3': 0, 'rot2': 0, 'depth': -0.14, 'yaw': -0.01, 'datetime': '2018-10-26 09:52:27.575708', 'mgs': 0, 'flw2': 0.73, 'flw1': 1.05, 'flw0': 0.76, 'time': 9.09, 'pitch': -23.98, 'roll': 46.24}
{'lipoC2': 8.17, 'temp': 25.81, 'lipoC3S3': 0.0, 'state': 'normal', 'rot1': 0, 'rot0': 751, 'rot3': 0, 'rot2': 0, 'depth': -0.217, 'yaw': -0.02, 'datetime': '2018-10-26 09:52:27.678377', 'mgs': 0, 'flw2': 0.72, 'flw1': 0.97, 'flw0': 0.72, 'time': 9.19, 'pitch': -24.0, 'roll': 46.25}
{'lipoC2': 8.17, 'temp': 25.81, 'lipoC3S3': 0.0, 'state': 'normal', 'rot1': 0, 'rot0': 751, 'rot3': 0, 'rot2': 0, 'depth': -0.14, 'yaw': -0.01, 'datetime': '2018-10-26 09:52:27.781122', 'mgs': 0, 'flw2': 0.74, 'flw1': 1.08, 'flw0': 0.72, 'time': 9.3, 'pitch': -24.0, 'roll': 46.24}
{'lipoC2': 8.17, 'temp': 25.81, 'lipoC3S3': 0.0, 'state': 'normal', 'rot1': 0, 'rot0': 751, 'rot3': 0, 'rot2': 0, 'depth': -0.217, 'yaw': -0.07, 'datetime': '2018-10-26 09:52:27.883994', 'mgs': 0, 'flw2': 0.73, 'flw1': 0.97, 'flw0': 0.71, 'time': 9.4, 'pitch': -24.02, 'roll': 46.24}
{'lipoC2': 8.17, 'temp': 25.81, 'lipoC3S3': 0.0, 'state': 'normal', 'rot1': 0, 'rot0': 751, 'rot3': 0, 'rot2': 0, 'depth': -0.217, 'yaw': -0.01, 'datetime': '2018-10-26 09:52:27.986707', 'mgs': 0, 'flw2': 0.73, 'flw1': 1.03, 'flw0': 0.74, 'time': 9.5, 'pitch': -24.05, 'roll': 46.26}
{'lipoC2': 8.17, 'temp': 25.81, 'lipoC3S3': 0.0, 'state': 'normal', 'rot1': 0, 'rot0': 751, 'rot3': 0, 'rot2': 0, 'depth': -0.14, 'yaw': -0.03, 'datetime': '2018-10-26 09:52:28.089444', 'mgs': 0, 'flw2': 0.76, 'flw1': 1.0, 'flw0': 0.73, 'time': 9.61, 'pitch': -24.08, 'roll': 46.26}
{'lipoC2': 8.17, 'temp': 25.75, 'lipoC3S3': 0.0, 'state': 'normal', 'rot1': 0, 'rot0': 751, 'rot3': 0, 'rot2': 0, 'depth': -0.14, 'yaw': 0.0, 'datetime': '2018-10-26 09:52:28.192121', 'mgs': 0, 'flw2': 0.73, 'flw1': 1.03, 'flw0': 0.74, 'time': 9.71, 'pitch': -24.07, 'roll': 46.26}
{'lipoC2': 8.17, 'temp': 25.75, 'lipoC3S3': 0.0, 'state': 'normal', 'rot1': 0, 'rot0': 751, 'rot3': 0, 'rot2': 0, 'depth': -0.14, 'yaw': -0.0, 'datetime': '2018-10-26 09:52:28.295489', 'mgs': 0, 'flw2': 0.76, 'flw1': 1.0, 'flw0': 0.73, 'time': 9.81, 'pitch': -24.07, 'roll': 46.23}
{'lipoC2': 8.17, 'temp': 25.75, 'lipoC3S3': 0.0, 'state': 'normal', 'rot1': 0, 'rot0': 751, 'rot3': 0, 'rot2': 0, 'depth': -0.064, 'yaw': -0.03, 'datetime': '2018-10-26 09:52:28.398139', 'mgs': 0, 'flw2': 0.74, 'flw1': 1.08, 'flw0': 0.7, 'time': 9.92, 'pitch': -24.03, 'roll': 46.22}
{'lipoC2': 8.17, 'temp': 25.81, 'lipoC3S3': 0.0, 'state': 'normal', 'rot1': 0, 'rot0': 751, 'rot3': 0, 'rot2': 0, 'depth': -0.14, 'yaw': 0.04, 'datetime': '2018-10-26 09:52:28.500839', 'mgs': 0, 'flw2': 0.7, 'flw1': 1.0, 'flw0': 0.73, 'time': 10.02, 'pitch': -24.01, 'roll': 46.18}
{'lipoC2': 8.17, 'temp': 25.81, 'lipoC3S3': 0.0, 'state': 'normal', 'rot1': 0, 'rot0': 751, 'rot3': 0, 'rot2': 0, 'depth': -0.14, 'yaw': 0.01, 'datetime': '2018-10-26 09:52:28.603549', 'mgs': 0, 'flw2': 0.74, 'flw1': 1.05, 'flw0': 0.71, 'time': 10.12, 'pitch': -24.02, 'roll': 46.17}
{'lipoC2': 8.17, 'temp': 25.81, 'lipoC3S3': 0.0, 'state': 'normal', 'rot1': 0, 'rot0': 751, 'rot3': 0, 'rot2': 0, 'depth': -0.14, 'yaw': 0.1, 'datetime': '2018-10-26 09:52:28.706678', 'mgs': 0, 'flw2': 0.76, 'flw1': 1.0, 'flw0': 0.7, 'time': 10.22, 'pitch': -24.01, 'roll': 46.14}
{'lipoC2': 8.17, 'temp': 25.81, 'lipoC3S3': 0.0, 'state': 'normal', 'rot1': 0, 'rot0': 751, 'rot3': 0, 'rot2': 0, 'depth': -0.217, 'yaw': 0.03, 'datetime': '2018-10-26 09:52:28.809375', 'mgs': 0, 'flw2': 0.7, 'flw1': 1.0, 'flw0': 0.73, 'time': 10.33, 'pitch': -24.02, 'roll': 46.14}
{'lipoC2': 8.17, 'temp': 25.81, 'lipoC3S3': 0.0, 'state': 'normal', 'rot1': 0, 'rot0': 751, 'rot3': 0, 'rot2': 0, 'depth': -0.14, 'yaw': -0.0, 'datetime': '2018-10-26 09:52:28.912075', 'mgs': 0, 'flw2': 0.76, 'flw1': 1.03, 'flw0': 0.72, 'time': 10.43, 'pitch': -24.03, 'roll': 46.15}
{'lipoC2': 8.17, 'temp': 25.81, 'lipoC3S3': 0.0, 'state': 'normal', 'rot1': 0, 'rot0': 751, 'rot3': 0, 'rot2': 0, 'depth': -0.14, 'yaw': 0.01, 'datetime': '2018-10-26 09:52:29.016072', 'mgs': 0, 'flw2': 0.72, 'flw1': 0.94, 'flw0': 0.71, 'time': 10.53, 'pitch': -24.04, 'roll': 46.15}
{'lipoC2': 8.17, 'temp': 25.81, 'lipoC3S3': 0.0, 'state': 'normal', 'rot1': 0, 'rot0': 751, 'rot3': 0, 'rot2': 0, 'depth': -0.064, 'yaw': 0.04, 'datetime': '2018-10-26 09:52:29.118776', 'mgs': 0, 'flw2': 0.72, 'flw1': 1.05, 'flw0': 0.74, 'time': 10.64, 'pitch': -24.08, 'roll': 46.16}
{'lipoC2': 8.17, 'temp': 25.75, 'lipoC3S3': 0.0, 'state': 'normal', 'rot1': 0, 'rot0': 751, 'rot3': 0, 'rot2': 0, 'depth': -0.14, 'yaw': 0.06, 'datetime': '2018-10-26 09:52:29.221493', 'mgs': 0, 'flw2': 0.72, 'flw1': 0.97, 'flw0': 0.71, 'time': 10.74, 'pitch': -24.09, 'roll': 46.16}
{'lipoC2': 8.17, 'temp': 25.75, 'lipoC3S3': 0.0, 'state': 'normal', 'rot1': 0, 'rot0': 751, 'rot3': 0, 'rot2': 0, 'depth': -0.14, 'yaw': 0.04, 'datetime': '2018-10-26 09:52:29.325534', 'mgs': 0, 'flw2': 0.71, 'flw1': 0.97, 'flw0': 0.72, 'time': 10.84, 'pitch': -24.08, 'roll': 46.16}
{'lipoC2': 8.17, 'temp': 25.81, 'lipoC3S3': 0.0, 'state': 'normal', 'rot1': 0, 'rot0': 751, 'rot3': 0, 'rot2': 0, 'depth': -0.064, 'yaw': 0.02, 'datetime': '2018-10-26 09:52:29.428691', 'mgs': 0, 'flw2': 0.7, 'flw1': 0.97, 'flw0': 0.72, 'time': 10.95, 'pitch': -24.04, 'roll': 46.16}
{'lipoC2': 8.17, 'temp': 25.81, 'lipoC3S3': 0.0, 'state': 'normal', 'rot1': 0, 'rot0': 751, 'rot3': 0, 'rot2': 0, 'depth': -0.14, 'yaw': 0.03, 'datetime': '2018-10-26 09:52:29.531370', 'mgs': 0, 'flw2': 0.72, 'flw1': 1.05, 'flw0': 0.72, 'time': 11.05, 'pitch': -24.02, 'roll': 46.14}
{'lipoC2': 8.17, 'temp': 25.81, 'lipoC3S3': 0.0, 'state': 'normal', 'rot1': 0, 'rot0': 751, 'rot3': 0, 'rot2': 0, 'depth': -0.14, 'yaw': 0.04, 'datetime': '2018-10-26 09:52:29.634112', 'mgs': 0, 'flw2': 0.73, 'flw1': 1.0, 'flw0': 0.73, 'time': 11.15, 'pitch': -24.02, 'roll': 46.14}
{'lipoC2': 8.17, 'temp': 25.81, 'lipoC3S3': 0.0, 'state': 'normal', 'rot1': 0, 'rot0': 751, 'rot3': 0, 'rot2': 0, 'depth': -0.14, 'yaw': 0.05, 'datetime': '2018-10-26 09:52:29.736764', 'mgs': 0, 'flw2': 0.73, 'flw1': 1.05, 'flw0': 0.72, 'time': 11.26, 'pitch': -24.02, 'roll': 46.14}
{'lipoC2': 8.17, 'temp': 25.81, 'lipoC3S3': 0.0, 'state': 'normal', 'rot1': 0, 'rot0': 751, 'rot3': 0, 'rot2': 0, 'depth': -0.217, 'yaw': 0.04, 'datetime': '2018-10-26 09:52:29.839621', 'mgs': 0, 'flw2': 0.7, 'flw1': 0.97, 'flw0': 0.7, 'time': 11.36, 'pitch': -24.01, 'roll': 46.13}
{'lipoC2': 8.17, 'temp': 25.81, 'lipoC3S3': 0.0, 'state': 'normal', 'rot1': 0, 'rot0': 751, 'rot3': 0, 'rot2': 0, 'depth': -0.064, 'yaw': -0.03, 'datetime': '2018-10-26 09:52:29.942332', 'mgs': 0, 'flw2': 0.73, 'flw1': 1.05, 'flw0': 0.73, 'time': 11.46, 'pitch': -24.02, 'roll': 46.18}
{'lipoC2': 8.17, 'temp': 25.81, 'lipoC3S3': 0.0, 'state': 'normal', 'rot1': 0, 'rot0': 751, 'rot3': 0, 'rot2': 0, 'depth': -0.217, 'yaw': -0.0, 'datetime': '2018-10-26 09:52:30.045065', 'mgs': 0, 'flw2': 0.74, 'flw1': 0.94, 'flw0': 0.7, 'time': 11.56, 'pitch': -24.04, 'roll': 46.2}
{'lipoC2': 8.17, 'temp': 25.75, 'lipoC3S3': 0.0, 'state': 'normal', 'rot1': 0, 'rot0': 751, 'rot3': 0, 'rot2': 0, 'depth': -0.217, 'yaw': -0.0, 'datetime': '2018-10-26 09:52:30.147760', 'mgs': 0, 'flw2': 0.7, 'flw1': 1.03, 'flw0': 0.74, 'time': 11.67, 'pitch': -24.04, 'roll': 46.2}
{'lipoC2': 8.17, 'temp': 25.75, 'lipoC3S3': 0.0, 'state': 'normal', 'rot1': 0, 'rot0': 751, 'rot3': 0, 'rot2': 0, 'depth': -0.14, 'yaw': -0.07, 'datetime': '2018-10-26 09:52:30.250635', 'mgs': 0, 'flw2': 0.74, 'flw1': 1.08, 'flw0': 0.71, 'time': 11.77, 'pitch': -24.02, 'roll': 46.24}
{'lipoC2': 8.17, 'temp': 25.75, 'lipoC3S3': 0.0, 'state': 'normal', 'rot1': 0, 'rot0': 751, 'rot3': 0, 'rot2': 0, 'depth': -0.14, 'yaw': -0.18, 'datetime': '2018-10-26 09:52:30.353379', 'mgs': 0, 'flw2': 0.71, 'flw1': 1.03, 'flw0': 0.74, 'time': 11.87, 'pitch': -23.97, 'roll': 46.27}
{'lipoC2': 8.17, 'temp': 25.75, 'lipoC3S3': 0.0, 'state': 'normal', 'rot1': 0, 'rot0': 751, 'rot3': 0, 'rot2': 0, 'depth': -0.14, 'yaw': -0.28, 'datetime': '2018-10-26 09:52:30.457307', 'mgs': 0, 'flw2': 0.74, 'flw1': 1.05, 'flw0': 0.7, 'time': 11.98, 'pitch': -23.89, 'roll': 46.32}
{'lipoC2': 8.17, 'temp': 25.75, 'lipoC3S3': 0.0, 'state': 'normal', 'rot1': 0, 'rot0': 751, 'rot3': 0, 'rot2': 0, 'depth': -0.14, 'yaw': -0.29, 'datetime': '2018-10-26 09:52:30.560102', 'mgs': 0, 'flw2': 0.73, 'flw1': 1.0, 'flw0': 0.7, 'time': 12.08, 'pitch': -23.88, 'roll': 46.32}
{'lipoC2': 8.17, 'temp': 25.75, 'lipoC3S3': 0.0, 'state': 'normal', 'rot1': 0, 'rot0': 751, 'rot3': 0, 'rot2': 0, 'depth': -0.217, 'yaw': -0.31, 'datetime': '2018-10-26 09:52:30.662803', 'mgs': 0, 'flw2': 0.74, 'flw1': 1.03, 'flw0': 0.74, 'time': 12.18, 'pitch': -23.87, 'roll': 46.32}
{'lipoC2': 8.17, 'temp': 25.75, 'lipoC3S3': 0.0, 'state': 'normal', 'rot1': 0, 'rot0': 751, 'rot3': 0, 'rot2': 0, 'depth': -0.064, 'yaw': -0.33, 'datetime': '2018-10-26 09:52:30.765618', 'mgs': 0, 'flw2': 0.74, 'flw1': 1.05, 'flw0': 0.71, 'time': 12.28, 'pitch': -23.85, 'roll': 46.32}
{'lipoC2': 8.17, 'temp': 25.75, 'lipoC3S3': 0.0, 'state': 'normal', 'rot1': 0, 'rot0': 751, 'rot3': 0, 'rot2': 0, 'depth': -0.14, 'yaw': -0.39, 'datetime': '2018-10-26 09:52:30.869570', 'mgs': 0, 'flw2': 0.71, 'flw1': 0.97, 'flw0': 0.72, 'time': 12.39, 'pitch': -23.87, 'roll': 46.36}
{'lipoC2': 8.17, 'temp': 25.75, 'lipoC3S3': 0.0, 'state': 'normal', 'rot1': 0, 'rot0': 751, 'rot3': 0, 'rot2': 0, 'depth': -0.14, 'yaw': -0.32, 'datetime': '2018-10-26 09:52:30.972516', 'mgs': 0, 'flw2': 0.72, 'flw1': 1.0, 'flw0': 0.71, 'time': 12.49, 'pitch': -23.91, 'roll': 46.38}
{'lipoC2': 8.17, 'temp': 25.75, 'lipoC3S3': 0.0, 'state': 'normal', 'rot1': 0, 'rot0': 751, 'rot3': 0, 'rot2': 0, 'depth': -0.14, 'yaw': -0.35, 'datetime': '2018-10-26 09:52:31.075263', 'mgs': 0, 'flw2': 0.76, 'flw1': 1.05, 'flw0': 0.71, 'time': 12.6, 'pitch': -23.93, 'roll': 46.36}
{'lipoC2': 8.17, 'temp': 25.81, 'lipoC3S3': 0.0, 'state': 'normal', 'rot1': 0, 'rot0': 751, 'rot3': 0, 'rot2': 0, 'depth': -0.14, 'yaw': -0.31, 'datetime': '2018-10-26 09:52:31.178345', 'mgs': 0, 'flw2': 0.73, 'flw1': 1.05, 'flw0': 0.67, 'time': 12.7, 'pitch': -23.93, 'roll': 46.36}
{'lipoC2': 8.17, 'temp': 25.81, 'lipoC3S3': 0.0, 'state': 'normal', 'rot1': 0, 'rot0': 751, 'rot3': 0, 'rot2': 0, 'depth': -0.14, 'yaw': -0.34, 'datetime': '2018-10-26 09:52:31.282538', 'mgs': 0, 'flw2': 0.76, 'flw1': 1.05, 'flw0': 0.72, 'time': 12.8, 'pitch': -23.95, 'roll': 46.36}
{'lipoC2': 8.17, 'temp': 25.75, 'lipoC3S3': 0.0, 'state': 'normal', 'rot1': 0, 'rot0': 751, 'rot3': 0, 'rot2': 0, 'depth': -0.217, 'yaw': -0.31, 'datetime': '2018-10-26 09:52:31.385323', 'mgs': 0, 'flw2': 0.73, 'flw1': 1.0, 'flw0': 0.72, 'time': 12.91, 'pitch': -23.91, 'roll': 46.34}
{'lipoC2': 8.17, 'temp': 25.75, 'lipoC3S3': 0.0, 'state': 'normal', 'rot1': 0, 'rot0': 751, 'rot3': 0, 'rot2': 0, 'depth': -0.14, 'yaw': -0.26, 'datetime': '2018-10-26 09:52:31.488010', 'mgs': 0, 'flw2': 0.74, 'flw1': 1.03, 'flw0': 0.73, 'time': 13.01, 'pitch': -23.91, 'roll': 46.31}
{'lipoC2': 8.17, 'temp': 25.81, 'lipoC3S3': 0.0, 'state': 'normal', 'rot1': 0, 'rot0': 751, 'rot3': 0, 'rot2': 0, 'depth': -0.14, 'yaw': -0.3, 'datetime': '2018-10-26 09:52:31.590676', 'mgs': 0, 'flw2': 0.7, 'flw1': 0.97, 'flw0': 0.7, 'time': 13.11, 'pitch': -23.91, 'roll': 46.31}
{'lipoC2': 8.17, 'temp': 25.81, 'lipoC3S3': 0.0, 'state': 'normal', 'rot1': 0, 'rot0': 751, 'rot3': 0, 'rot2': 0, 'depth': -0.14, 'yaw': -0.24, 'datetime': '2018-10-26 09:52:31.693606', 'mgs': 0, 'flw2': 0.72, 'flw1': 1.03, 'flw0': 0.73, 'time': 13.21, 'pitch': -23.9, 'roll': 46.29}
{'lipoC2': 8.17, 'temp': 25.81, 'lipoC3S3': 0.0, 'state': 'normal', 'rot1': 0, 'rot0': 751, 'rot3': 0, 'rot2': 0, 'depth': -0.217, 'yaw': -0.32, 'datetime': '2018-10-26 09:52:31.796318', 'mgs': 0, 'flw2': 0.77, 'flw1': 1.03, 'flw0': 0.72, 'time': 13.32, 'pitch': -23.9, 'roll': 46.28}
{'lipoC2': 8.17, 'temp': 25.81, 'lipoC3S3': 0.0, 'state': 'normal', 'rot1': 0, 'rot0': 751, 'rot3': 0, 'rot2': 0, 'depth': -0.14, 'yaw': -0.3, 'datetime': '2018-10-26 09:52:31.899064', 'mgs': 0, 'flw2': 0.7, 'flw1': 1.0, 'flw0': 0.73, 'time': 13.42, 'pitch': -23.91, 'roll': 46.29}
{'lipoC2': 8.17, 'temp': 25.81, 'lipoC3S3': 0.0, 'state': 'normal', 'rot1': 0, 'rot0': 751, 'rot3': 0, 'rot2': 0, 'depth': 0.012, 'yaw': -0.24, 'datetime': '2018-10-26 09:52:32.001658', 'mgs': 0, 'flw2': 0.73, 'flw1': 1.03, 'flw0': 0.68, 'time': 13.52, 'pitch': -23.93, 'roll': 46.24}
{'lipoC2': 8.17, 'temp': 25.75, 'lipoC3S3': 0.0, 'state': 'normal', 'rot1': 0, 'rot0': 751, 'rot3': 0, 'rot2': 0, 'depth': -0.14, 'yaw': -0.27, 'datetime': '2018-10-26 09:52:32.104575', 'mgs': 0, 'flw2': 0.73, 'flw1': 1.03, 'flw0': 0.68, 'time': 13.63, 'pitch': -23.97, 'roll': 46.26}
{'lipoC2': 8.17, 'temp': 25.75, 'lipoC3S3': 0.0, 'state': 'normal', 'rot1': 0, 'rot0': 751, 'rot3': 0, 'rot2': 0, 'depth': -0.14, 'yaw': -0.24, 'datetime': '2018-10-26 09:52:32.207306', 'mgs': 0, 'flw2': 0.74, 'flw1': 1.08, 'flw0': 0.74, 'time': 13.73, 'pitch': -23.97, 'roll': 46.28}
{'lipoC2': 8.17, 'temp': 25.75, 'lipoC3S3': 0.0, 'state': 'normal', 'rot1': 0, 'rot0': 751, 'rot3': 0, 'rot2': 0, 'depth': -0.14, 'yaw': -0.28, 'datetime': '2018-10-26 09:52:32.310003', 'mgs': 0, 'flw2': 0.71, 'flw1': 0.97, 'flw0': 0.72, 'time': 13.83, 'pitch': -23.99, 'roll': 46.27}
{'lipoC2': 8.17, 'temp': 25.75, 'lipoC3S3': 0.0, 'state': 'normal', 'rot1': 0, 'rot0': 751, 'rot3': 0, 'rot2': 0, 'depth': -0.14, 'yaw': -0.22, 'datetime': '2018-10-26 09:52:32.412709', 'mgs': 0, 'flw2': 0.77, 'flw1': 1.03, 'flw0': 0.72, 'time': 13.93, 'pitch': -23.97, 'roll': 46.26}
{'lipoC2': 8.17, 'temp': 25.75, 'lipoC3S3': 0.0, 'state': 'normal', 'rot1': 0, 'rot0': 751, 'rot3': 0, 'rot2': 0, 'depth': -0.14, 'yaw': -0.23, 'datetime': '2018-10-26 09:52:32.516070', 'mgs': 0, 'flw2': 0.74, 'flw1': 1.05, 'flw0': 0.73, 'time': 14.04, 'pitch': -23.98, 'roll': 46.24}
{'lipoC2': 8.17, 'temp': 25.75, 'lipoC3S3': 0.0, 'state': 'normal', 'rot1': 0, 'rot0': 751, 'rot3': 0, 'rot2': 0, 'depth': -0.14, 'yaw': -0.18, 'datetime': '2018-10-26 09:52:32.618760', 'mgs': 0, 'flw2': 0.72, 'flw1': 0.97, 'flw0': 0.68, 'time': 14.14, 'pitch': -23.95, 'roll': 46.18}
{'lipoC2': 8.17, 'temp': 25.75, 'lipoC3S3': 0.0, 'state': 'normal', 'rot1': 0, 'rot0': 751, 'rot3': 0, 'rot2': 0, 'depth': -0.14, 'yaw': -0.18, 'datetime': '2018-10-26 09:52:32.722577', 'mgs': 0, 'flw2': 0.71, 'flw1': 1.0, 'flw0': 0.71, 'time': 14.24, 'pitch': -23.94, 'roll': 46.15}
{'lipoC2': 8.17, 'temp': 25.75, 'lipoC3S3': 0.0, 'state': 'normal', 'rot1': 0, 'rot0': 751, 'rot3': 0, 'rot2': 0, 'depth': -0.064, 'yaw': -0.21, 'datetime': '2018-10-26 09:52:32.826475', 'mgs': 0, 'flw2': 0.74, 'flw1': 1.03, 'flw0': 0.71, 'time': 14.35, 'pitch': -23.95, 'roll': 46.15}
{'lipoC2': 8.17, 'temp': 25.75, 'lipoC3S3': 0.0, 'state': 'normal', 'rot1': 0, 'rot0': 751, 'rot3': 0, 'rot2': 0, 'depth': -0.14, 'yaw': -0.18, 'datetime': '2018-10-26 09:52:32.929203', 'mgs': 0, 'flw2': 0.72, 'flw1': 0.97, 'flw0': 0.71, 'time': 14.45, 'pitch': -23.97, 'roll': 46.16}
{'lipoC2': 8.17, 'temp': 25.81, 'lipoC3S3': 0.0, 'state': 'normal', 'rot1': 0, 'rot0': 751, 'rot3': 0, 'rot2': 0, 'depth': -0.14, 'yaw': -0.18, 'datetime': '2018-10-26 09:52:33.032434', 'mgs': 0, 'flw2': 0.73, 'flw1': 0.97, 'flw0': 0.7, 'time': 14.56, 'pitch': -24.0, 'roll': 46.15}
{'lipoC2': 8.17, 'temp': 25.81, 'lipoC3S3': 0.0, 'state': 'normal', 'rot1': 0, 'rot0': 751, 'rot3': 0, 'rot2': 0, 'depth': -0.14, 'yaw': -0.17, 'datetime': '2018-10-26 09:52:33.136427', 'mgs': 0, 'flw2': 0.73, 'flw1': 0.97, 'flw0': 0.7, 'time': 14.66, 'pitch': -24.0, 'roll': 46.15}
{'lipoC2': 8.17, 'temp': 25.81, 'lipoC3S3': 0.0, 'state': 'normal', 'rot1': 0, 'rot0': 751, 'rot3': 0, 'rot2': 0, 'depth': -0.14, 'yaw': -0.22, 'datetime': '2018-10-26 09:52:33.239132', 'mgs': 0, 'flw2': 0.74, 'flw1': 1.05, 'flw0': 0.76, 'time': 14.76, 'pitch': -24.01, 'roll': 46.18}
{'lipoC2': 8.17, 'temp': 25.81, 'lipoC3S3': 0.0, 'state': 'normal', 'rot1': 0, 'rot0': 751, 'rot3': 0, 'rot2': 0, 'depth': -0.14, 'yaw': -0.21, 'datetime': '2018-10-26 09:52:33.341821', 'mgs': 0, 'flw2': 0.68, 'flw1': 0.97, 'flw0': 0.72, 'time': 14.86, 'pitch': -24.0, 'roll': 46.15}
{'lipoC2': 8.17, 'temp': 25.81, 'lipoC3S3': 0.0, 'state': 'normal', 'rot1': 0, 'rot0': 751, 'rot3': 0, 'rot2': 0, 'depth': -0.14, 'yaw': -0.17, 'datetime': '2018-10-26 09:52:33.444575', 'mgs': 0, 'flw2': 0.74, 'flw1': 1.05, 'flw0': 0.73, 'time': 14.97, 'pitch': -23.99, 'roll': 46.12}
{'lipoC2': 8.17, 'temp': 25.75, 'lipoC3S3': 0.0, 'state': 'normal', 'rot1': 0, 'rot0': 751, 'rot3': 0, 'rot2': 0, 'depth': -0.14, 'yaw': -0.13, 'datetime': '2018-10-26 09:52:33.547209', 'mgs': 0, 'flw2': 0.71, 'flw1': 0.97, 'flw0': 0.71, 'time': 15.07, 'pitch': -23.99, 'roll': 46.11}
{'lipoC2': 8.17, 'temp': 25.75, 'lipoC3S3': 0.0, 'state': 'normal', 'rot1': 0, 'rot0': 751, 'rot3': 0, 'rot2': 0, 'depth': -0.14, 'yaw': -0.18, 'datetime': '2018-10-26 09:52:33.649895', 'mgs': 0, 'flw2': 0.72, 'flw1': 1.05, 'flw0': 0.72, 'time': 15.17, 'pitch': -23.97, 'roll': 46.1}
{'lipoC2': 8.17, 'temp': 25.75, 'lipoC3S3': 0.0, 'state': 'normal', 'rot1': 0, 'rot0': 751, 'rot3': 0, 'rot2': 0, 'depth': -0.14, 'yaw': -0.17, 'datetime': '2018-10-26 09:52:33.752640', 'mgs': 0, 'flw2': 0.73, 'flw1': 0.94, 'flw0': 0.7, 'time': 15.28, 'pitch': -23.94, 'roll': 46.1}
{'lipoC2': 8.17, 'temp': 25.75, 'lipoC3S3': 0.0, 'state': 'normal', 'rot1': 0, 'rot0': 751, 'rot3': 0, 'rot2': 0, 'depth': -0.14, 'yaw': -0.2, 'datetime': '2018-10-26 09:52:33.855359', 'mgs': 0, 'flw2': 0.74, 'flw1': 1.03, 'flw0': 0.73, 'time': 15.38, 'pitch': -23.94, 'roll': 46.09}
{'lipoC2': 8.17, 'temp': 25.75, 'lipoC3S3': 0.0, 'state': 'normal', 'rot1': 0, 'rot0': 751, 'rot3': 0, 'rot2': 0, 'depth': -0.14, 'yaw': -0.19, 'datetime': '2018-10-26 09:52:33.958076', 'mgs': 0, 'flw2': 0.73, 'flw1': 1.0, 'flw0': 0.67, 'time': 15.48, 'pitch': -23.97, 'roll': 46.1}
{'lipoC2': 8.17, 'temp': 25.75, 'lipoC3S3': 0.0, 'state': 'normal', 'rot1': 0, 'rot0': 751, 'rot3': 0, 'rot2': 0, 'depth': -0.14, 'yaw': -0.2, 'datetime': '2018-10-26 09:52:34.064990', 'mgs': 0, 'flw2': 0.72, 'flw1': 1.0, 'flw0': 0.74, 'time': 15.58, 'pitch': -24.0, 'roll': 46.13}
{'lipoC2': 8.17, 'temp': 25.75, 'lipoC3S3': 0.0, 'state': 'normal', 'rot1': 0, 'rot0': 751, 'rot3': 0, 'rot2': 0, 'depth': 0.012, 'yaw': -0.19, 'datetime': '2018-10-26 09:52:34.168803', 'mgs': 0, 'flw2': 0.76, 'flw1': 1.03, 'flw0': 0.68, 'time': 15.69, 'pitch': -23.99, 'roll': 46.13}
{'lipoC2': 8.17, 'temp': 25.75, 'lipoC3S3': 0.0, 'state': 'normal', 'rot1': 0, 'rot0': 751, 'rot3': 0, 'rot2': 0, 'depth': -0.14, 'yaw': -0.24, 'datetime': '2018-10-26 09:52:34.271476', 'mgs': 0, 'flw2': 0.74, 'flw1': 1.03, 'flw0': 0.73, 'time': 15.79, 'pitch': -24.01, 'roll': 46.16}
{'lipoC2': 8.17, 'temp': 25.75, 'lipoC3S3': 0.0, 'state': 'normal', 'rot1': 0, 'rot0': 751, 'rot3': 0, 'rot2': 0, 'depth': -0.14, 'yaw': -0.24, 'datetime': '2018-10-26 09:52:34.375485', 'mgs': 0, 'flw2': 0.73, 'flw1': 1.03, 'flw0': 0.74, 'time': 15.89, 'pitch': -23.99, 'roll': 46.16}
{'lipoC2': 8.17, 'temp': 25.75, 'lipoC3S3': 0.0, 'state': 'normal', 'rot1': 0, 'rot0': 751, 'rot3': 0, 'rot2': 0, 'depth': -0.14, 'yaw': -0.19, 'datetime': '2018-10-26 09:52:34.476681', 'mgs': 0, 'flw2': 0.73, 'flw1': 0.94, 'flw0': 0.7, 'time': 16.0, 'pitch': -23.97, 'roll': 46.12}
{'lipoC2': 8.17, 'temp': 25.75, 'lipoC3S3': 0.0, 'state': 'normal', 'rot1': 0, 'rot0': 751, 'rot3': 0, 'rot2': 0, 'depth': -0.14, 'yaw': -0.19, 'datetime': '2018-10-26 09:52:34.575650', 'mgs': 0, 'flw2': 0.72, 'flw1': 1.03, 'flw0': 0.73, 'time': 16.1, 'pitch': -23.96, 'roll': 46.14}
{'lipoC2': 8.17, 'temp': 25.75, 'lipoC3S3': 0.0, 'state': 'normal', 'rot1': 0, 'rot0': 751, 'rot3': 0, 'rot2': 0, 'depth': -0.14, 'yaw': -0.2, 'datetime': '2018-10-26 09:52:34.683116', 'mgs': 0, 'flw2': 0.74, 'flw1': 1.05, 'flw0': 0.74, 'time': 16.2, 'pitch': -23.94, 'roll': 46.12}
{'lipoC2': 8.17, 'temp': 25.81, 'lipoC3S3': 0.0, 'state': 'normal', 'rot1': 0, 'rot0': 751, 'rot3': 0, 'rot2': 0, 'depth': -0.14, 'yaw': -0.22, 'datetime': '2018-10-26 09:52:34.787526', 'mgs': 0, 'flw2': 0.71, 'flw1': 0.97, 'flw0': 0.71, 'time': 16.31, 'pitch': -23.91, 'roll': 46.12}
{'lipoC2': 8.17, 'temp': 25.81, 'lipoC3S3': 0.0, 'state': 'normal', 'rot1': 0, 'rot0': 751, 'rot3': 0, 'rot2': 0, 'depth': -0.14, 'yaw': -0.22, 'datetime': '2018-10-26 09:52:34.890348', 'mgs': 0, 'flw2': 0.72, 'flw1': 1.05, 'flw0': 0.72, 'time': 16.41, 'pitch': -23.91, 'roll': 46.11}
{'lipoC2': 8.17, 'temp': 25.75, 'lipoC3S3': 0.0, 'state': 'normal', 'rot1': 0, 'rot0': 751, 'rot3': 0, 'rot2': 0, 'depth': -0.14, 'yaw': -0.21, 'datetime': '2018-10-26 09:52:34.994295', 'mgs': 0, 'flw2': 0.73, 'flw1': 1.08, 'flw0': 0.7, 'time': 16.51, 'pitch': -23.93, 'roll': 46.1}
{'lipoC2': 8.17, 'temp': 25.75, 'lipoC3S3': 0.0, 'state': 'normal', 'rot1': 0, 'rot0': 751, 'rot3': 0, 'rot2': 0, 'depth': -0.14, 'yaw': -0.21, 'datetime': '2018-10-26 09:52:35.097924', 'mgs': 0, 'flw2': 0.7, 'flw1': 1.0, 'flw0': 0.71, 'time': 16.62, 'pitch': -23.94, 'roll': 46.11}
{'lipoC2': 8.17, 'temp': 25.75, 'lipoC3S3': 0.0, 'state': 'normal', 'rot1': 0, 'rot0': 751, 'rot3': 0, 'rot2': 0, 'depth': -0.14, 'yaw': -0.27, 'datetime': '2018-10-26 09:52:35.200676', 'mgs': 0, 'flw2': 0.76, 'flw1': 1.05, 'flw0': 0.68, 'time': 16.72, 'pitch': -23.96, 'roll': 46.18}
{'lipoC2': 8.17, 'temp': 25.75, 'lipoC3S3': 0.0, 'state': 'normal', 'rot1': 0, 'rot0': 751, 'rot3': 0, 'rot2': 0, 'depth': -0.14, 'yaw': -0.29, 'datetime': '2018-10-26 09:52:35.303462', 'mgs': 0, 'flw2': 0.73, 'flw1': 1.0, 'flw0': 0.7, 'time': 16.82, 'pitch': -23.97, 'roll': 46.19}
{'lipoC2': 8.17, 'temp': 25.75, 'lipoC3S3': 0.0, 'state': 'normal', 'rot1': 0, 'rot0': 751, 'rot3': 0, 'rot2': 0, 'depth': -0.064, 'yaw': -0.27, 'datetime': '2018-10-26 09:52:35.406149', 'mgs': 0, 'flw2': 0.76, 'flw1': 1.08, 'flw0': 0.7, 'time': 16.92, 'pitch': -23.97, 'roll': 46.19}
{'lipoC2': 8.17, 'temp': 25.81, 'lipoC3S3': 0.0, 'state': 'normal', 'rot1': 0, 'rot0': 751, 'rot3': 0, 'rot2': 0, 'depth': -0.14, 'yaw': -0.23, 'datetime': '2018-10-26 09:52:35.509133', 'mgs': 0, 'flw2': 0.7, 'flw1': 1.0, 'flw0': 0.67, 'time': 17.03, 'pitch': -23.97, 'roll': 46.16}
{'lipoC2': 8.17, 'temp': 25.81, 'lipoC3S3': 0.0, 'state': 'normal', 'rot1': 0, 'rot0': 751, 'rot3': 0, 'rot2': 0, 'depth': -0.14, 'yaw': -0.2, 'datetime': '2018-10-26 09:52:35.611782', 'mgs': 0, 'flw2': 0.71, 'flw1': 1.03, 'flw0': 0.74, 'time': 17.13, 'pitch': -23.95, 'roll': 46.09}
{'lipoC2': 8.17, 'temp': 25.75, 'lipoC3S3': 0.0, 'state': 'normal', 'rot1': 0, 'rot0': 751, 'rot3': 0, 'rot2': 0, 'depth': -0.14, 'yaw': -0.22, 'datetime': '2018-10-26 09:52:35.714410', 'mgs': 0, 'flw2': 0.73, 'flw1': 0.97, 'flw0': 0.7, 'time': 17.23, 'pitch': -23.97, 'roll': 46.07}
{'lipoC2': 8.17, 'temp': 25.75, 'lipoC3S3': 0.0, 'state': 'normal', 'rot1': 0, 'rot0': 751, 'rot3': 0, 'rot2': 0, 'depth': -0.14, 'yaw': -0.2, 'datetime': '2018-10-26 09:52:35.817237', 'mgs': 0, 'flw2': 0.74, 'flw1': 1.08, 'flw0': 0.73, 'time': 17.34, 'pitch': -23.95, 'roll': 46.07}
{'lipoC2': 8.17, 'temp': 25.75, 'lipoC3S3': 0.0, 'state': 'normal', 'rot1': 0, 'rot0': 751, 'rot3': 0, 'rot2': 0, 'depth': -0.064, 'yaw': -0.23, 'datetime': '2018-10-26 09:52:35.918527', 'mgs': 0, 'flw2': 0.74, 'flw1': 1.05, 'flw0': 0.68, 'time': 17.44, 'pitch': -23.97, 'roll': 46.03}
{'lipoC2': 8.17, 'temp': 25.75, 'lipoC3S3': 0.0, 'state': 'normal', 'rot1': 0, 'rot0': 751, 'rot3': 0, 'rot2': 0, 'depth': -0.14, 'yaw': -0.18, 'datetime': '2018-10-26 09:52:36.022810', 'mgs': 0, 'flw2': 0.7, 'flw1': 1.0, 'flw0': 0.72, 'time': 17.54, 'pitch': -23.98, 'roll': 46.01}
{'lipoC2': 8.17, 'temp': 25.75, 'lipoC3S3': 0.0, 'state': 'normal', 'rot1': 0, 'rot0': 751, 'rot3': 0, 'rot2': 0, 'depth': -0.064, 'yaw': -0.23, 'datetime': '2018-10-26 09:52:36.125516', 'mgs': 0, 'flw2': 0.73, 'flw1': 1.05, 'flw0': 0.67, 'time': 17.65, 'pitch': -23.99, 'roll': 46.02}
{'lipoC2': 8.17, 'temp': 25.75, 'lipoC3S3': 0.0, 'state': 'normal', 'rot1': 0, 'rot0': 751, 'rot3': 0, 'rot2': 0, 'depth': -0.14, 'yaw': -0.24, 'datetime': '2018-10-26 09:52:36.228257', 'mgs': 0, 'flw2': 0.71, 'flw1': 1.0, 'flw0': 0.73, 'time': 17.75, 'pitch': -24.01, 'roll': 46.03}
{'lipoC2': 8.17, 'temp': 25.75, 'lipoC3S3': 0.0, 'state': 'normal', 'rot1': 0, 'rot0': 751, 'rot3': 0, 'rot2': 0, 'depth': -0.14, 'yaw': -0.26, 'datetime': '2018-10-26 09:52:36.331261', 'mgs': 0, 'flw2': 0.74, 'flw1': 1.03, 'flw0': 0.72, 'time': 17.85, 'pitch': -24.02, 'roll': 46.02}
{'lipoC2': 8.17, 'temp': 25.75, 'lipoC3S3': 0.0, 'state': 'normal', 'rot1': 0, 'rot0': 751, 'rot3': 0, 'rot2': 0, 'depth': -0.14, 'yaw': -0.18, 'datetime': '2018-10-26 09:52:36.433989', 'mgs': 0, 'flw2': 0.76, 'flw1': 1.0, 'flw0': 0.7, 'time': 17.95, 'pitch': -24.04, 'roll': 46.01}
{'lipoC2': 8.17, 'temp': 25.75, 'lipoC3S3': 0.0, 'state': 'normal', 'rot1': 0, 'rot0': 751, 'rot3': 0, 'rot2': 0, 'depth': -0.217, 'yaw': -0.2, 'datetime': '2018-10-26 09:52:36.536698', 'mgs': 0, 'flw2': 0.72, 'flw1': 1.03, 'flw0': 0.73, 'time': 18.06, 'pitch': -24.05, 'roll': 45.99}
{'lipoC2': 8.17, 'temp': 25.75, 'lipoC3S3': 0.0, 'state': 'normal', 'rot1': 0, 'rot0': 751, 'rot3': 0, 'rot2': 0, 'depth': -0.14, 'yaw': -0.19, 'datetime': '2018-10-26 09:52:36.639475', 'mgs': 0, 'flw2': 0.71, 'flw1': 1.03, 'flw0': 0.73, 'time': 18.16, 'pitch': -24.03, 'roll': 45.98}
{'lipoC2': 8.17, 'temp': 25.81, 'lipoC3S3': 0.0, 'state': 'normal', 'rot1': 0, 'rot0': 751, 'rot3': 0, 'rot2': 0, 'depth': -0.064, 'yaw': -0.21, 'datetime': '2018-10-26 09:52:36.743493', 'mgs': 0, 'flw2': 0.72, 'flw1': 1.0, 'flw0': 0.71, 'time': 18.26, 'pitch': -24.0, 'roll': 45.96}
{'lipoC2': 8.17, 'temp': 25.81, 'lipoC3S3': 0.0, 'state': 'normal', 'rot1': 0, 'rot0': 751, 'rot3': 0, 'rot2': 0, 'depth': -0.14, 'yaw': -0.21, 'datetime': '2018-10-26 09:52:36.846074', 'mgs': 0, 'flw2': 0.73, 'flw1': 1.05, 'flw0': 0.73, 'time': 18.37, 'pitch': -23.99, 'roll': 45.98}
{'lipoC2': 8.17, 'temp': 25.81, 'lipoC3S3': 0.0, 'state': 'normal', 'rot1': 0, 'rot0': 751, 'rot3': 0, 'rot2': 0, 'depth': -0.14, 'yaw': -0.2, 'datetime': '2018-10-26 09:52:36.950167', 'mgs': 0, 'flw2': 0.71, 'flw1': 1.05, 'flw0': 0.71, 'time': 18.47, 'pitch': -23.98, 'roll': 45.96}
{'lipoC2': 8.17, 'temp': 25.81, 'lipoC3S3': 0.0, 'state': 'normal', 'rot1': 0, 'rot0': 751, 'rot3': 0, 'rot2': 0, 'depth': -0.14, 'yaw': -0.2, 'datetime': '2018-10-26 09:52:37.053301', 'mgs': 0, 'flw2': 0.73, 'flw1': 1.05, 'flw0': 0.73, 'time': 18.57, 'pitch': -23.99, 'roll': 45.95}
{'lipoC2': 8.17, 'temp': 25.75, 'lipoC3S3': 0.0, 'state': 'normal', 'rot1': 0, 'rot0': 751, 'rot3': 0, 'rot2': 0, 'depth': -0.14, 'yaw': -0.23, 'datetime': '2018-10-26 09:52:37.156088', 'mgs': 0, 'flw2': 0.73, 'flw1': 0.97, 'flw0': 0.71, 'time': 18.68, 'pitch': -24.0, 'roll': 45.98}
{'lipoC2': 8.17, 'temp': 25.75, 'lipoC3S3': 0.0, 'state': 'normal', 'rot1': 0, 'rot0': 751, 'rot3': 0, 'rot2': 0, 'depth': -0.14, 'yaw': -0.25, 'datetime': '2018-10-26 09:52:37.258701', 'mgs': 0, 'flw2': 0.72, 'flw1': 1.03, 'flw0': 0.73, 'time': 18.78, 'pitch': -24.01, 'roll': 46.0}
{'lipoC2': 8.17, 'temp': 25.75, 'lipoC3S3': 0.0, 'state': 'normal', 'rot1': 0, 'rot0': 751, 'rot3': 0, 'rot2': 0, 'depth': -0.14, 'yaw': -0.26, 'datetime': '2018-10-26 09:52:37.361428', 'mgs': 0, 'flw2': 0.72, 'flw1': 0.94, 'flw0': 0.68, 'time': 18.88, 'pitch': -24.01, 'roll': 46.01}
{'lipoC2': 8.17, 'temp': 25.75, 'lipoC3S3': 0.0, 'state': 'normal', 'rot1': 0, 'rot0': 751, 'rot3': 0, 'rot2': 0, 'depth': -0.14, 'yaw': -0.21, 'datetime': '2018-10-26 09:52:37.464156', 'mgs': 0, 'flw2': 0.74, 'flw1': 1.03, 'flw0': 0.73, 'time': 18.99, 'pitch': -24.03, 'roll': 46.03}
{'lipoC2': 8.17, 'temp': 25.75, 'lipoC3S3': 0.0, 'state': 'normal', 'rot1': 0, 'rot0': 751, 'rot3': 0, 'rot2': 0, 'depth': -0.064, 'yaw': -0.21, 'datetime': '2018-10-26 09:52:37.561647', 'mgs': 0, 'flw2': 0.76, 'flw1': 1.03, 'flw0': 0.68, 'time': 19.09, 'pitch': -24.04, 'roll': 46.04}
{'lipoC2': 8.17, 'temp': 25.75, 'lipoC3S3': 0.0, 'state': 'normal', 'rot1': 0, 'rot0': 751, 'rot3': 0, 'rot2': 0, 'depth': -0.14, 'yaw': -0.21, 'datetime': '2018-10-26 09:52:37.668481', 'mgs': 0, 'flw2': 0.71, 'flw1': 1.03, 'flw0': 0.71, 'time': 19.19, 'pitch': -24.01, 'roll': 46.03}
{'lipoC2': 8.17, 'temp': 25.75, 'lipoC3S3': 0.0, 'state': 'normal', 'rot1': 0, 'rot0': 751, 'rot3': 0, 'rot2': 0, 'depth': -0.064, 'yaw': -0.21, 'datetime': '2018-10-26 09:52:37.772340', 'mgs': 0, 'flw2': 0.74, 'flw1': 1.05, 'flw0': 0.7, 'time': 19.29, 'pitch': -24.0, 'roll': 46.03}
{'lipoC2': 8.17, 'temp': 25.75, 'lipoC3S3': 0.0, 'state': 'normal', 'rot1': 0, 'rot0': 751, 'rot3': 0, 'rot2': 0, 'depth': -0.14, 'yaw': -0.18, 'datetime': '2018-10-26 09:52:37.875268', 'mgs': 0, 'flw2': 0.72, 'flw1': 0.97, 'flw0': 0.71, 'time': 19.4, 'pitch': -23.99, 'roll': 46.02}
{'lipoC2': 8.17, 'temp': 25.75, 'lipoC3S3': 0.0, 'state': 'normal', 'rot1': 0, 'rot0': 751, 'rot3': 0, 'rot2': 0, 'depth': -0.14, 'yaw': -0.18, 'datetime': '2018-10-26 09:52:37.978010', 'mgs': 0, 'flw2': 0.71, 'flw1': 1.03, 'flw0': 0.72, 'time': 19.5, 'pitch': -23.97, 'roll': 45.98}
{'lipoC2': 8.17, 'temp': 25.75, 'lipoC3S3': 0.0, 'state': 'normal', 'rot1': 0, 'rot0': 751, 'rot3': 0, 'rot2': 0, 'depth': -0.14, 'yaw': -0.2, 'datetime': '2018-10-26 09:52:38.080753', 'mgs': 0, 'flw2': 0.74, 'flw1': 1.0, 'flw0': 0.71, 'time': 19.6, 'pitch': -23.97, 'roll': 46.01}
{'lipoC2': 8.17, 'temp': 25.81, 'lipoC3S3': 0.0, 'state': 'normal', 'rot1': 0, 'rot0': 751, 'rot3': 0, 'rot2': 0, 'depth': -0.14, 'yaw': -0.21, 'datetime': '2018-10-26 09:52:38.184686', 'mgs': 0, 'flw2': 0.73, 'flw1': 0.97, 'flw0': 0.71, 'time': 19.71, 'pitch': -23.97, 'roll': 46.04}
{'lipoC2': 8.17, 'temp': 25.81, 'lipoC3S3': 0.0, 'state': 'normal', 'rot1': 0, 'rot0': 751, 'rot3': 0, 'rot2': 0, 'depth': -0.14, 'yaw': -0.28, 'datetime': '2018-10-26 09:52:38.287572', 'mgs': 0, 'flw2': 0.73, 'flw1': 1.05, 'flw0': 0.72, 'time': 19.81, 'pitch': -24.0, 'roll': 46.08}
{'lipoC2': 8.17, 'temp': 25.75, 'lipoC3S3': 0.0, 'state': 'normal', 'rot1': 0, 'rot0': 751, 'rot3': 0, 'rot2': 0, 'depth': -0.064, 'yaw': -0.21, 'datetime': '2018-10-26 09:52:38.390175', 'mgs': 0, 'flw2': 0.68, 'flw1': 0.97, 'flw0': 0.71, 'time': 19.91, 'pitch': -24.0, 'roll': 46.09}
{'lipoC2': 8.17, 'temp': 25.75, 'lipoC3S3': 0.0, 'state': 'normal', 'rot1': 0, 'rot0': 751, 'rot3': 0, 'rot2': 0, 'depth': -0.14, 'yaw': -0.22, 'datetime': '2018-10-26 09:52:38.494134', 'mgs': 0, 'flw2': 0.7, 'flw1': 1.0, 'flw0': 0.71, 'time': 20.02, 'pitch': -24.02, 'roll': 46.1}
{'lipoC2': 8.17, 'temp': 25.75, 'lipoC3S3': 0.0, 'state': 'normal', 'rot1': 0, 'rot0': 751, 'rot3': 0, 'rot2': 0, 'depth': -0.14, 'yaw': -0.24, 'datetime': '2018-10-26 09:52:38.591802', 'mgs': 0, 'flw2': 0.74, 'flw1': 1.05, 'flw0': 0.71, 'time': 20.12, 'pitch': -24.0, 'roll': 46.1}
{'lipoC2': 8.17, 'temp': 25.75, 'lipoC3S3': 0.0, 'state': 'normal', 'rot1': 0, 'rot0': 751, 'rot3': 0, 'rot2': 0, 'depth': -0.064, 'yaw': -0.2, 'datetime': '2018-10-26 09:52:38.698456', 'mgs': 0, 'flw2': 0.73, 'flw1': 1.03, 'flw0': 0.71, 'time': 20.22, 'pitch': -23.99, 'roll': 46.1}
{'lipoC2': 8.17, 'temp': 25.75, 'lipoC3S3': 0.0, 'state': 'normal', 'rot1': 0, 'rot0': 751, 'rot3': 0, 'rot2': 0, 'depth': -0.14, 'yaw': -0.18, 'datetime': '2018-10-26 09:52:38.803048', 'mgs': 0, 'flw2': 0.74, 'flw1': 1.08, 'flw0': 0.7, 'time': 20.33, 'pitch': -23.98, 'roll': 46.08}
{'lipoC2': 8.17, 'temp': 25.81, 'lipoC3S3': 0.0, 'state': 'normal', 'rot1': 0, 'rot0': 751, 'rot3': 0, 'rot2': 0, 'depth': -0.14, 'yaw': -0.16, 'datetime': '2018-10-26 09:52:38.907265', 'mgs': 0, 'flw2': 0.78, 'flw1': 1.08, 'flw0': 0.72, 'time': 20.43, 'pitch': -23.96, 'roll': 46.06}
{'lipoC2': 8.17, 'temp': 25.81, 'lipoC3S3': 0.0, 'state': 'normal', 'rot1': 0, 'rot0': 751, 'rot3': 0, 'rot2': 0, 'depth': -0.14, 'yaw': -0.19, 'datetime': '2018-10-26 09:52:39.009956', 'mgs': 0, 'flw2': 0.71, 'flw1': 1.0, 'flw0': 0.73, 'time': 20.53, 'pitch': -23.93, 'roll': 46.06}
