{'lipoC2': 7.71, 'temp': 28.81, 'lipoC3S3': 11.3, 'state': 'normal', 'rot1': 0, 'rot0': 0, 'rot3': 0, 'rot2': 0, 'depth': -0.217, 'yaw': 0.0, 'datetime': '2018-11-05 15:41:45.842117', 'mgs': 0, 'flw2': 0.0, 'flw1': 0.0, 'flw0': 0.0, 'time': 1.36, 'pitch': 0.93, 'roll': -2.44}
{'lipoC2': 7.71, 'temp': 28.81, 'lipoC3S3': 11.31, 'state': 'normal', 'rot1': 0, 'rot0': 0, 'rot3': 0, 'rot2': 0, 'depth': -0.217, 'yaw': 0.0, 'datetime': '2018-11-05 15:41:48.367864', 'mgs': 0, 'flw2': 0.0, 'flw1': 0.0, 'flw0': 0.0, 'time': 1.47, 'pitch': 0.93, 'roll': -2.44}
{'lipoC2': 7.7, 'temp': 28.81, 'lipoC3S3': 11.31, 'state': 'normal', 'rot1': 0, 'rot0': 0, 'rot3': 0, 'rot2': 0, 'depth': -0.14, 'yaw': 0.0, 'datetime': '2018-11-05 15:41:48.403485', 'mgs': 0, 'flw2': 0.0, 'flw1': 0.0, 'flw0': 0.0, 'time': 1.57, 'pitch': 0.93, 'roll': -2.44}
{'lipoC2': 7.71, 'temp': 28.81, 'lipoC3S3': 11.31, 'state': 'normal', 'rot1': 0, 'rot0': 0, 'rot3': 0, 'rot2': 0, 'depth': -0.14, 'yaw': 0.0, 'datetime': '2018-11-05 15:41:48.439124', 'mgs': 0, 'flw2': 0.0, 'flw1': 0.0, 'flw0': 0.0, 'time': 1.67, 'pitch': 0.93, 'roll': -2.44}
{'lipoC2': 7.7, 'temp': 28.81, 'lipoC3S3': 11.3, 'state': 'normal', 'rot1': 0, 'rot0': 0, 'rot3': 0, 'rot2': 0, 'depth': -0.217, 'yaw': 0.0, 'datetime': '2018-11-05 15:41:48.461812', 'mgs': 0, 'flw2': 0.0, 'flw1': 0.0, 'flw0': 0.0, 'time': 1.77, 'pitch': 0.93, 'roll': -2.44}
{'lipoC2': 7.71, 'temp': 28.81, 'lipoC3S3': 11.31, 'state': 'normal', 'rot1': 0, 'rot0': 0, 'rot3': 0, 'rot2': 0, 'depth': -0.14, 'yaw': 0.0, 'datetime': '2018-11-05 15:41:48.482698', 'mgs': 0, 'flw2': 0.0, 'flw1': 0.0, 'flw0': 0.0, 'time': 1.88, 'pitch': 0.93, 'roll': -2.44}
{'lipoC2': 7.71, 'temp': 28.81, 'lipoC3S3': 11.31, 'state': 'normal', 'rot1': 0, 'rot0': 0, 'rot3': 0, 'rot2': 0, 'depth': -0.14, 'yaw': 0.0, 'datetime': '2018-11-05 15:41:48.503607', 'mgs': 0, 'flw2': 0.0, 'flw1': 0.0, 'flw0': 0.0, 'time': 1.98, 'pitch': 0.93, 'roll': -2.44}
{'lipoC2': 7.71, 'temp': 28.81, 'lipoC3S3': 11.31, 'state': 'normal', 'rot1': 0, 'rot0': 0, 'rot3': 0, 'rot2': 0, 'depth': -0.217, 'yaw': 0.0, 'datetime': '2018-11-05 15:41:48.524463', 'mgs': 0, 'flw2': 0.0, 'flw1': 0.0, 'flw0': 0.0, 'time': 2.08, 'pitch': 0.93, 'roll': -2.44}
{'lipoC2': 7.7, 'temp': 28.81, 'lipoC3S3': 11.3, 'state': 'normal', 'rot1': 0, 'rot0': 0, 'rot3': 0, 'rot2': 0, 'depth': -0.14, 'yaw': 0.0, 'datetime': '2018-11-05 15:41:48.545279', 'mgs': 0, 'flw2': 0.0, 'flw1': 0.0, 'flw0': 0.0, 'time': 2.18, 'pitch': 0.93, 'roll': -2.44}
{'lipoC2': 7.71, 'temp': 28.81, 'lipoC3S3': 11.31, 'state': 'normal', 'rot1': 0, 'rot0': 0, 'rot3': 0, 'rot2': 0, 'depth': -0.14, 'yaw': 0.0, 'datetime': '2018-11-05 15:41:48.566177', 'mgs': 0, 'flw2': 0.0, 'flw1': 0.0, 'flw0': 0.0, 'time': 2.29, 'pitch': 0.93, 'roll': -2.44}
{'lipoC2': 7.71, 'temp': 28.81, 'lipoC3S3': 11.3, 'state': 'normal', 'rot1': 0, 'rot0': 0, 'rot3': 0, 'rot2': 0, 'depth': -0.064, 'yaw': 0.0, 'datetime': '2018-11-05 15:41:48.587039', 'mgs': 0, 'flw2': 0.0, 'flw1': 0.0, 'flw0': 0.0, 'time': 2.39, 'pitch': 0.93, 'roll': -2.44}
{'lipoC2': 7.7, 'temp': 28.81, 'lipoC3S3': 11.3, 'state': 'normal', 'rot1': 0, 'rot0': 0, 'rot3': 0, 'rot2': 0, 'depth': -0.14, 'yaw': 0.0, 'datetime': '2018-11-05 15:41:48.607939', 'mgs': 0, 'flw2': 0.0, 'flw1': 0.0, 'flw0': 0.0, 'time': 2.49, 'pitch': 0.93, 'roll': -2.44}
{'lipoC2': 7.7, 'temp': 28.81, 'lipoC3S3': 11.3, 'state': 'normal', 'rot1': 0, 'rot0': 0, 'rot3': 0, 'rot2': 0, 'depth': -0.14, 'yaw': 0.0, 'datetime': '2018-11-05 15:41:48.628890', 'mgs': 0, 'flw2': 0.0, 'flw1': 0.0, 'flw0': 0.0, 'time': 2.6, 'pitch': 0.93, 'roll': -2.44}
{'lipoC2': 7.71, 'temp': 28.81, 'lipoC3S3': 11.3, 'state': 'normal', 'rot1': 0, 'rot0': 0, 'rot3': 0, 'rot2': 0, 'depth': -0.064, 'yaw': 0.0, 'datetime': '2018-11-05 15:41:48.649958', 'mgs': 0, 'flw2': 0.0, 'flw1': 0.0, 'flw0': 0.0, 'time': 2.7, 'pitch': 0.93, 'roll': -2.44}
{'lipoC2': 7.7, 'temp': 28.81, 'lipoC3S3': 11.31, 'state': 'normal', 'rot1': 0, 'rot0': 0, 'rot3': 0, 'rot2': 0, 'depth': -0.217, 'yaw': 0.0, 'datetime': '2018-11-05 15:41:48.670978', 'mgs': 0, 'flw2': 0.0, 'flw1': 0.0, 'flw0': 0.0, 'time': 2.8, 'pitch': 0.93, 'roll': -2.44}
{'lipoC2': 7.71, 'temp': 28.81, 'lipoC3S3': 11.31, 'state': 'normal', 'rot1': 0, 'rot0': 0, 'rot3': 0, 'rot2': 0, 'depth': -0.14, 'yaw': 0.0, 'datetime': '2018-11-05 15:41:48.692110', 'mgs': 0, 'flw2': 0.0, 'flw1': 0.0, 'flw0': 0.0, 'time': 2.9, 'pitch': 0.93, 'roll': -2.44}
{'lipoC2': 7.7, 'temp': 28.81, 'lipoC3S3': 11.31, 'state': 'normal', 'rot1': 0, 'rot0': 0, 'rot3': 0, 'rot2': 0, 'depth': -0.217, 'yaw': 0.0, 'datetime': '2018-11-05 15:41:48.713114', 'mgs': 0, 'flw2': 0.0, 'flw1': 0.0, 'flw0': 0.0, 'time': 3.01, 'pitch': 0.93, 'roll': -2.44}
{'lipoC2': 7.71, 'temp': 28.81, 'lipoC3S3': 11.31, 'state': 'normal', 'rot1': 0, 'rot0': 0, 'rot3': 0, 'rot2': 0, 'depth': -0.217, 'yaw': 0.0, 'datetime': '2018-11-05 15:41:48.734142', 'mgs': 0, 'flw2': 0.0, 'flw1': 0.0, 'flw0': 0.0, 'time': 3.11, 'pitch': 0.93, 'roll': -2.44}
{'lipoC2': 7.71, 'temp': 28.81, 'lipoC3S3': 11.31, 'state': 'normal', 'rot1': 0, 'rot0': 0, 'rot3': 0, 'rot2': 0, 'depth': -0.14, 'yaw': 0.0, 'datetime': '2018-11-05 15:41:48.755202', 'mgs': 0, 'flw2': 0.0, 'flw1': 0.0, 'flw0': 0.0, 'time': 3.21, 'pitch': 0.93, 'roll': -2.44}
{'lipoC2': 7.71, 'temp': 28.81, 'lipoC3S3': 11.31, 'state': 'normal', 'rot1': 0, 'rot0': 0, 'rot3': 0, 'rot2': 0, 'depth': -0.14, 'yaw': 0.0, 'datetime': '2018-11-05 15:41:48.776258', 'mgs': 0, 'flw2': 0.0, 'flw1': 0.0, 'flw0': 0.0, 'time': 3.32, 'pitch': 0.93, 'roll': -2.44}
{'lipoC2': 7.71, 'temp': 28.81, 'lipoC3S3': 11.31, 'state': 'normal', 'rot1': 0, 'rot0': 0, 'rot3': 0, 'rot2': 0, 'depth': -0.14, 'yaw': 0.0, 'datetime': '2018-11-05 15:41:48.797222', 'mgs': 0, 'flw2': 0.0, 'flw1': 0.0, 'flw0': 0.0, 'time': 3.42, 'pitch': 0.93, 'roll': -2.44}
{'lipoC2': 7.71, 'temp': 28.81, 'lipoC3S3': 11.31, 'state': 'normal', 'rot1': 0, 'rot0': 0, 'rot3': 0, 'rot2': 0, 'depth': -0.217, 'yaw': 0.0, 'datetime': '2018-11-05 15:41:48.818206', 'mgs': 0, 'flw2': 0.0, 'flw1': 0.0, 'flw0': 0.0, 'time': 3.52, 'pitch': 0.93, 'roll': -2.44}
{'lipoC2': 7.71, 'temp': 28.81, 'lipoC3S3': 11.3, 'state': 'normal', 'rot1': 0, 'rot0': 0, 'rot3': 0, 'rot2': 0, 'depth': -0.14, 'yaw': 0.0, 'datetime': '2018-11-05 15:41:48.839194', 'mgs': 0, 'flw2': 0.0, 'flw1': 0.0, 'flw0': 0.0, 'time': 3.62, 'pitch': 0.93, 'roll': -2.44}
{'lipoC2': 7.7, 'temp': 28.81, 'lipoC3S3': 11.3, 'state': 'normal', 'rot1': 0, 'rot0': 0, 'rot3': 0, 'rot2': 0, 'depth': -0.217, 'yaw': 0.0, 'datetime': '2018-11-05 15:41:48.860145', 'mgs': 0, 'flw2': 0.0, 'flw1': 0.0, 'flw0': 0.0, 'time': 3.73, 'pitch': 0.93, 'roll': -2.44}
{'lipoC2': 7.71, 'temp': 28.81, 'lipoC3S3': 11.31, 'state': 'normal', 'rot1': 0, 'rot0': 0, 'rot3': 0, 'rot2': 0, 'depth': -0.217, 'yaw': 0.0, 'datetime': '2018-11-05 15:41:48.881050', 'mgs': 0, 'flw2': 0.0, 'flw1': 0.0, 'flw0': 0.0, 'time': 3.83, 'pitch': 0.93, 'roll': -2.44}
{'lipoC2': 7.71, 'temp': 28.81, 'lipoC3S3': 11.3, 'state': 'normal', 'rot1': 0, 'rot0': 0, 'rot3': 0, 'rot2': 0, 'depth': -0.14, 'yaw': 0.0, 'datetime': '2018-11-05 15:41:48.902007', 'mgs': 0, 'flw2': 0.0, 'flw1': 0.0, 'flw0': 0.0, 'time': 3.93, 'pitch': 0.93, 'roll': -2.44}
{'lipoC2': 7.71, 'temp': 28.81, 'lipoC3S3': 11.31, 'state': 'normal', 'rot1': 0, 'rot0': 0, 'rot3': 0, 'rot2': 0, 'depth': -0.14, 'yaw': 0.0, 'datetime': '2018-11-05 15:41:48.923091', 'mgs': 0, 'flw2': 0.0, 'flw1': 0.0, 'flw0': 0.0, 'time': 4.03, 'pitch': 0.93, 'roll': -2.44}
{'lipoC2': 7.71, 'temp': 28.81, 'lipoC3S3': 11.31, 'state': 'normal', 'rot1': 0, 'rot0': 0, 'rot3': 0, 'rot2': 0, 'depth': -0.064, 'yaw': 0.0, 'datetime': '2018-11-05 15:41:48.944107', 'mgs': 0, 'flw2': 0.0, 'flw1': 0.0, 'flw0': 0.0, 'time': 4.14, 'pitch': 0.93, 'roll': -2.44}
{'lipoC2': 7.7, 'temp': 28.81, 'lipoC3S3': 11.3, 'state': 'normal', 'rot1': 0, 'rot0': 0, 'rot3': 0, 'rot2': 0, 'depth': -0.14, 'yaw': 0.0, 'datetime': '2018-11-05 15:41:48.965098', 'mgs': 0, 'flw2': 0.0, 'flw1': 0.0, 'flw0': 0.0, 'time': 4.24, 'pitch': 0.93, 'roll': -2.44}
{'lipoC2': 7.71, 'temp': 28.81, 'lipoC3S3': 11.31, 'state': 'normal', 'rot1': 0, 'rot0': 0, 'rot3': 0, 'rot2': 0, 'depth': -0.217, 'yaw': 0.0, 'datetime': '2018-11-05 15:41:48.986101', 'mgs': 0, 'flw2': 0.0, 'flw1': 0.0, 'flw0': 0.0, 'time': 4.34, 'pitch': 0.93, 'roll': -2.44}
{'lipoC2': 7.71, 'temp': 28.81, 'lipoC3S3': 11.31, 'state': 'normal', 'rot1': 0, 'rot0': 0, 'rot3': 0, 'rot2': 0, 'depth': -0.14, 'yaw': 0.0, 'datetime': '2018-11-05 15:41:49.007194', 'mgs': 0, 'flw2': 0.0, 'flw1': 0.0, 'flw0': 0.0, 'time': 4.45, 'pitch': 0.93, 'roll': -2.44}
{'lipoC2': 7.71, 'temp': 28.81, 'lipoC3S3': 11.3, 'state': 'normal', 'rot1': 0, 'rot0': 0, 'rot3': 0, 'rot2': 0, 'depth': -0.064, 'yaw': 0.0, 'datetime': '2018-11-05 15:41:49.028153', 'mgs': 0, 'flw2': 0.0, 'flw1': 0.0, 'flw0': 0.0, 'time': 4.55, 'pitch': 0.93, 'roll': -2.44}
{'lipoC2': 7.71, 'temp': 28.81, 'lipoC3S3': 11.31, 'state': 'normal', 'rot1': 0, 'rot0': 0, 'rot3': 0, 'rot2': 0, 'depth': -0.14, 'yaw': 0.0, 'datetime': '2018-11-05 15:41:49.049122', 'mgs': 0, 'flw2': 0.0, 'flw1': 0.0, 'flw0': 0.0, 'time': 4.65, 'pitch': 0.93, 'roll': -2.44}
{'lipoC2': 7.71, 'temp': 28.81, 'lipoC3S3': 11.31, 'state': 'normal', 'rot1': 0, 'rot0': 0, 'rot3': 0, 'rot2': 0, 'depth': -0.14, 'yaw': 0.0, 'datetime': '2018-11-05 15:41:49.070277', 'mgs': 0, 'flw2': 0.0, 'flw1': 0.0, 'flw0': 0.0, 'time': 4.75, 'pitch': 0.93, 'roll': -2.44}
{'lipoC2': 7.7, 'temp': 28.88, 'lipoC3S3': 11.31, 'state': 'normal', 'rot1': 0, 'rot0': 0, 'rot3': 0, 'rot2': 0, 'depth': -0.217, 'yaw': 0.0, 'datetime': '2018-11-05 15:41:49.091340', 'mgs': 0, 'flw2': 0.0, 'flw1': 0.0, 'flw0': 0.0, 'time': 4.86, 'pitch': 0.93, 'roll': -2.44}
{'lipoC2': 7.7, 'temp': 28.88, 'lipoC3S3': 11.3, 'state': 'normal', 'rot1': 0, 'rot0': 0, 'rot3': 0, 'rot2': 0, 'depth': -0.14, 'yaw': 0.0, 'datetime': '2018-11-05 15:41:49.112362', 'mgs': 0, 'flw2': 0.0, 'flw1': 0.0, 'flw0': 0.0, 'time': 4.96, 'pitch': 0.93, 'roll': -2.44}
{'lipoC2': 7.7, 'temp': 28.88, 'lipoC3S3': 11.31, 'state': 'normal', 'rot1': 0, 'rot0': 0, 'rot3': 0, 'rot2': 0, 'depth': -0.14, 'yaw': 0.0, 'datetime': '2018-11-05 15:41:49.133357', 'mgs': 0, 'flw2': 0.0, 'flw1': 0.0, 'flw0': 0.0, 'time': 5.06, 'pitch': 0.93, 'roll': -2.44}
{'lipoC2': 7.71, 'temp': 28.81, 'lipoC3S3': 11.31, 'state': 'normal', 'rot1': 0, 'rot0': 0, 'rot3': 0, 'rot2': 0, 'depth': -0.14, 'yaw': 0.0, 'datetime': '2018-11-05 15:41:49.154368', 'mgs': 0, 'flw2': 0.0, 'flw1': 0.0, 'flw0': 0.0, 'time': 5.16, 'pitch': 0.93, 'roll': -2.44}
{'lipoC2': 7.71, 'temp': 28.81, 'lipoC3S3': 11.31, 'state': 'normal', 'rot1': 0, 'rot0': 0, 'rot3': 0, 'rot2': 0, 'depth': -0.14, 'yaw': 0.0, 'datetime': '2018-11-05 15:41:49.175336', 'mgs': 0, 'flw2': 0.0, 'flw1': 0.0, 'flw0': 0.0, 'time': 5.27, 'pitch': 0.93, 'roll': -2.44}
{'lipoC2': 7.7, 'temp': 28.81, 'lipoC3S3': 11.31, 'state': 'normal', 'rot1': 0, 'rot0': 0, 'rot3': 0, 'rot2': 0, 'depth': -0.14, 'yaw': 0.0, 'datetime': '2018-11-05 15:41:49.196330', 'mgs': 0, 'flw2': 0.0, 'flw1': 0.0, 'flw0': 0.0, 'time': 5.37, 'pitch': 0.93, 'roll': -2.44}
{'lipoC2': 7.71, 'temp': 28.81, 'lipoC3S3': 11.31, 'state': 'normal', 'rot1': 0, 'rot0': 0, 'rot3': 0, 'rot2': 0, 'depth': -0.14, 'yaw': 0.0, 'datetime': '2018-11-05 15:41:49.217282', 'mgs': 0, 'flw2': 0.0, 'flw1': 0.0, 'flw0': 0.0, 'time': 5.47, 'pitch': 0.93, 'roll': -2.44}
{'lipoC2': 7.7, 'temp': 28.81, 'lipoC3S3': 11.31, 'state': 'normal', 'rot1': 0, 'rot0': 0, 'rot3': 0, 'rot2': 0, 'depth': -0.14, 'yaw': 0.0, 'datetime': '2018-11-05 15:41:49.238287', 'mgs': 0, 'flw2': 0.0, 'flw1': 0.0, 'flw0': 0.0, 'time': 5.57, 'pitch': 0.93, 'roll': -2.44}
{'lipoC2': 7.7, 'temp': 28.81, 'lipoC3S3': 11.31, 'state': 'normal', 'rot1': 0, 'rot0': 0, 'rot3': 0, 'rot2': 0, 'depth': -0.14, 'yaw': 0.0, 'datetime': '2018-11-05 15:41:49.259405', 'mgs': 0, 'flw2': 0.0, 'flw1': 0.0, 'flw0': 0.0, 'time': 5.68, 'pitch': 0.93, 'roll': -2.44}
{'lipoC2': 7.71, 'temp': 28.81, 'lipoC3S3': 11.31, 'state': 'normal', 'rot1': 0, 'rot0': 0, 'rot3': 0, 'rot2': 0, 'depth': -0.14, 'yaw': 0.0, 'datetime': '2018-11-05 15:41:49.280488', 'mgs': 0, 'flw2': 0.0, 'flw1': 0.0, 'flw0': 0.0, 'time': 5.78, 'pitch': 0.93, 'roll': -2.44}
{'lipoC2': 7.71, 'temp': 28.81, 'lipoC3S3': 11.3, 'state': 'normal', 'rot1': 0, 'rot0': 0, 'rot3': 0, 'rot2': 0, 'depth': -0.217, 'yaw': 0.0, 'datetime': '2018-11-05 15:41:49.301517', 'mgs': 0, 'flw2': 0.0, 'flw1': 0.0, 'flw0': 0.0, 'time': 5.88, 'pitch': 0.93, 'roll': -2.44}
{'lipoC2': 7.71, 'temp': 28.81, 'lipoC3S3': 11.31, 'state': 'normal', 'rot1': 0, 'rot0': 0, 'rot3': 0, 'rot2': 0, 'depth': -0.14, 'yaw': 0.0, 'datetime': '2018-11-05 15:41:49.322611', 'mgs': 0, 'flw2': 0.0, 'flw1': 0.0, 'flw0': 0.0, 'time': 5.99, 'pitch': 0.93, 'roll': -2.44}
{'lipoC2': 7.71, 'temp': 28.88, 'lipoC3S3': 11.31, 'state': 'normal', 'rot1': 0, 'rot0': 0, 'rot3': 0, 'rot2': 0, 'depth': -0.14, 'yaw': 0.0, 'datetime': '2018-11-05 15:41:49.343635', 'mgs': 0, 'flw2': 0.0, 'flw1': 0.0, 'flw0': 0.0, 'time': 6.09, 'pitch': 0.93, 'roll': -2.44}
{'lipoC2': 7.71, 'temp': 28.88, 'lipoC3S3': 11.31, 'state': 'normal', 'rot1': 0, 'rot0': 0, 'rot3': 0, 'rot2': 0, 'depth': -0.14, 'yaw': 0.0, 'datetime': '2018-11-05 15:41:49.364613', 'mgs': 0, 'flw2': 0.0, 'flw1': 0.0, 'flw0': 0.0, 'time': 6.19, 'pitch': 0.93, 'roll': -2.44}
{'lipoC2': 7.71, 'temp': 28.88, 'lipoC3S3': 11.31, 'state': 'normal', 'rot1': 0, 'rot0': 0, 'rot3': 0, 'rot2': 0, 'depth': -0.14, 'yaw': 0.0, 'datetime': '2018-11-05 15:41:49.385521', 'mgs': 0, 'flw2': 0.0, 'flw1': 0.0, 'flw0': 0.0, 'time': 6.3, 'pitch': 0.93, 'roll': -2.44}
{'lipoC2': 7.7, 'temp': 28.81, 'lipoC3S3': 11.31, 'state': 'normal', 'rot1': 0, 'rot0': 0, 'rot3': 0, 'rot2': 0, 'depth': -0.14, 'yaw': 0.0, 'datetime': '2018-11-05 15:41:49.406537', 'mgs': 0, 'flw2': 0.0, 'flw1': 0.0, 'flw0': 0.0, 'time': 6.4, 'pitch': 0.93, 'roll': -2.44}
{'lipoC2': 7.71, 'temp': 28.81, 'lipoC3S3': 11.31, 'state': 'normal', 'rot1': 0, 'rot0': 0, 'rot3': 0, 'rot2': 0, 'depth': -0.064, 'yaw': 0.0, 'datetime': '2018-11-05 15:41:49.427573', 'mgs': 0, 'flw2': 0.0, 'flw1': 0.0, 'flw0': 0.0, 'time': 6.5, 'pitch': 0.93, 'roll': -2.44}
{'lipoC2': 7.71, 'temp': 28.81, 'lipoC3S3': 11.31, 'state': 'normal', 'rot1': 0, 'rot0': 0, 'rot3': 0, 'rot2': 0, 'depth': -0.064, 'yaw': 0.0, 'datetime': '2018-11-05 15:41:49.448569', 'mgs': 0, 'flw2': 0.0, 'flw1': 0.0, 'flw0': 0.0, 'time': 6.6, 'pitch': 0.93, 'roll': -2.44}
{'lipoC2': 7.71, 'temp': 28.81, 'lipoC3S3': 11.31, 'state': 'normal', 'rot1': 0, 'rot0': 0, 'rot3': 0, 'rot2': 0, 'depth': -0.14, 'yaw': 0.0, 'datetime': '2018-11-05 15:41:49.469586', 'mgs': 0, 'flw2': 0.0, 'flw1': 0.0, 'flw0': 0.0, 'time': 6.71, 'pitch': 0.93, 'roll': -2.44}
{'lipoC2': 7.7, 'temp': 28.81, 'lipoC3S3': 11.3, 'state': 'normal', 'rot1': 0, 'rot0': 0, 'rot3': 0, 'rot2': 0, 'depth': -0.14, 'yaw': 0.0, 'datetime': '2018-11-05 15:41:49.490617', 'mgs': 0, 'flw2': 0.0, 'flw1': 0.0, 'flw0': 0.0, 'time': 6.81, 'pitch': 0.93, 'roll': -2.44}
{'lipoC2': 7.7, 'temp': 28.81, 'lipoC3S3': 11.31, 'state': 'normal', 'rot1': 0, 'rot0': 0, 'rot3': 0, 'rot2': 0, 'depth': -0.14, 'yaw': 0.0, 'datetime': '2018-11-05 15:41:49.511658', 'mgs': 0, 'flw2': 0.0, 'flw1': 0.0, 'flw0': 0.0, 'time': 6.91, 'pitch': 0.93, 'roll': -2.44}
{'lipoC2': 7.71, 'temp': 28.81, 'lipoC3S3': 11.31, 'state': 'normal', 'rot1': 0, 'rot0': 0, 'rot3': 0, 'rot2': 0, 'depth': -0.14, 'yaw': 0.0, 'datetime': '2018-11-05 15:41:49.532693', 'mgs': 0, 'flw2': 0.0, 'flw1': 0.0, 'flw0': 0.0, 'time': 7.01, 'pitch': 0.93, 'roll': -2.44}
{'lipoC2': 7.71, 'temp': 28.81, 'lipoC3S3': 11.3, 'state': 'normal', 'rot1': 0, 'rot0': 0, 'rot3': 0, 'rot2': 0, 'depth': -0.14, 'yaw': 0.0, 'datetime': '2018-11-05 15:41:49.553704', 'mgs': 0, 'flw2': 0.0, 'flw1': 0.0, 'flw0': 0.0, 'time': 7.12, 'pitch': 0.93, 'roll': -2.44}
{'lipoC2': 7.71, 'temp': 28.81, 'lipoC3S3': 11.31, 'state': 'normal', 'rot1': 0, 'rot0': 0, 'rot3': 0, 'rot2': 0, 'depth': -0.14, 'yaw': 0.0, 'datetime': '2018-11-05 15:41:49.574690', 'mgs': 0, 'flw2': 0.0, 'flw1': 0.0, 'flw0': 0.0, 'time': 7.22, 'pitch': 0.93, 'roll': -2.44}
{'lipoC2': 7.71, 'temp': 28.81, 'lipoC3S3': 11.31, 'state': 'normal', 'rot1': 0, 'rot0': 0, 'rot3': 0, 'rot2': 0, 'depth': -0.14, 'yaw': 0.0, 'datetime': '2018-11-05 15:41:49.595689', 'mgs': 0, 'flw2': 0.0, 'flw1': 0.0, 'flw0': 0.0, 'time': 7.32, 'pitch': 0.93, 'roll': -2.44}
{'lipoC2': 7.71, 'temp': 28.81, 'lipoC3S3': 11.31, 'state': 'normal', 'rot1': 0, 'rot0': 0, 'rot3': 0, 'rot2': 0, 'depth': -0.064, 'yaw': 0.0, 'datetime': '2018-11-05 15:41:49.617138', 'mgs': 0, 'flw2': 0.0, 'flw1': 0.0, 'flw0': 0.0, 'time': 7.43, 'pitch': 0.93, 'roll': -2.44}
{'lipoC2': 7.71, 'temp': 28.81, 'lipoC3S3': 11.31, 'state': 'normal', 'rot1': 0, 'rot0': 0, 'rot3': 0, 'rot2': 0, 'depth': -0.14, 'yaw': 0.0, 'datetime': '2018-11-05 15:41:49.638292', 'mgs': 0, 'flw2': 0.0, 'flw1': 0.0, 'flw0': 0.0, 'time': 7.53, 'pitch': 0.93, 'roll': -2.44}
{'lipoC2': 7.71, 'temp': 28.81, 'lipoC3S3': 11.31, 'state': 'normal', 'rot1': 0, 'rot0': 0, 'rot3': 0, 'rot2': 0, 'depth': -0.064, 'yaw': 0.0, 'datetime': '2018-11-05 15:41:49.659313', 'mgs': 0, 'flw2': 0.0, 'flw1': 0.0, 'flw0': 0.0, 'time': 7.63, 'pitch': 0.93, 'roll': -2.44}
{'lipoC2': 7.71, 'temp': 28.81, 'lipoC3S3': 11.31, 'state': 'normal', 'rot1': 0, 'rot0': 0, 'rot3': 0, 'rot2': 0, 'depth': -0.14, 'yaw': 0.0, 'datetime': '2018-11-05 15:41:49.680335', 'mgs': 0, 'flw2': 0.0, 'flw1': 0.0, 'flw0': 0.0, 'time': 7.73, 'pitch': 0.93, 'roll': -2.44}
{'lipoC2': 7.7, 'temp': 28.81, 'lipoC3S3': 11.31, 'state': 'normal', 'rot1': 0, 'rot0': 0, 'rot3': 0, 'rot2': 0, 'depth': -0.14, 'yaw': 0.0, 'datetime': '2018-11-05 15:41:49.701336', 'mgs': 0, 'flw2': 0.0, 'flw1': 0.0, 'flw0': 0.0, 'time': 7.84, 'pitch': 0.93, 'roll': -2.44}
{'lipoC2': 7.71, 'temp': 28.81, 'lipoC3S3': 11.31, 'state': 'normal', 'rot1': 0, 'rot0': 0, 'rot3': 0, 'rot2': 0, 'depth': -0.064, 'yaw': 0.0, 'datetime': '2018-11-05 15:41:49.722366', 'mgs': 0, 'flw2': 0.0, 'flw1': 0.0, 'flw0': 0.0, 'time': 7.94, 'pitch': 0.93, 'roll': -2.44}
{'lipoC2': 7.71, 'temp': 28.81, 'lipoC3S3': 11.31, 'state': 'normal', 'rot1': 0, 'rot0': 0, 'rot3': 0, 'rot2': 0, 'depth': -0.14, 'yaw': 0.0, 'datetime': '2018-11-05 15:41:49.743389', 'mgs': 0, 'flw2': 0.0, 'flw1': 0.0, 'flw0': 0.0, 'time': 8.04, 'pitch': 0.93, 'roll': -2.44}
{'lipoC2': 7.7, 'temp': 28.81, 'lipoC3S3': 11.3, 'state': 'normal', 'rot1': 0, 'rot0': 0, 'rot3': 0, 'rot2': 0, 'depth': -0.14, 'yaw': 0.0, 'datetime': '2018-11-05 15:41:49.764406', 'mgs': 0, 'flw2': 0.0, 'flw1': 0.0, 'flw0': 0.0, 'time': 8.14, 'pitch': 0.93, 'roll': -2.44}
{'lipoC2': 7.71, 'temp': 28.81, 'lipoC3S3': 11.31, 'state': 'normal', 'rot1': 0, 'rot0': 0, 'rot3': 0, 'rot2': 0, 'depth': -0.14, 'yaw': 0.0, 'datetime': '2018-11-05 15:41:49.785339', 'mgs': 0, 'flw2': 0.0, 'flw1': 0.0, 'flw0': 0.0, 'time': 8.25, 'pitch': 0.93, 'roll': -2.44}
{'lipoC2': 7.71, 'temp': 28.81, 'lipoC3S3': 11.31, 'state': 'normal', 'rot1': 0, 'rot0': 0, 'rot3': 0, 'rot2': 0, 'depth': -0.14, 'yaw': 0.0, 'datetime': '2018-11-05 15:41:49.806387', 'mgs': 0, 'flw2': 0.0, 'flw1': 0.0, 'flw0': 0.0, 'time': 8.35, 'pitch': 0.93, 'roll': -2.44}
{'lipoC2': 7.71, 'temp': 28.81, 'lipoC3S3': 11.31, 'state': 'normal', 'rot1': 0, 'rot0': 0, 'rot3': 0, 'rot2': 0, 'depth': -0.217, 'yaw': 0.0, 'datetime': '2018-11-05 15:41:49.827398', 'mgs': 0, 'flw2': 0.0, 'flw1': 0.0, 'flw0': 0.0, 'time': 8.45, 'pitch': 0.93, 'roll': -2.44}
{'lipoC2': 7.71, 'temp': 28.94, 'lipoC3S3': 11.31, 'state': 'normal', 'rot1': 0, 'rot0': 0, 'rot3': 0, 'rot2': 0, 'depth': -0.14, 'yaw': 0.0, 'datetime': '2018-11-05 15:41:49.848413', 'mgs': 0, 'flw2': 0.0, 'flw1': 0.0, 'flw0': 0.0, 'time': 8.55, 'pitch': 0.93, 'roll': -2.44}
{'lipoC2': 7.7, 'temp': 28.94, 'lipoC3S3': 11.31, 'state': 'normal', 'rot1': 0, 'rot0': 0, 'rot3': 0, 'rot2': 0, 'depth': -0.14, 'yaw': 0.0, 'datetime': '2018-11-05 15:41:49.869424', 'mgs': 0, 'flw2': 0.0, 'flw1': 0.0, 'flw0': 0.0, 'time': 8.66, 'pitch': 0.93, 'roll': -2.44}
{'lipoC2': 7.71, 'temp': 28.75, 'lipoC3S3': 11.31, 'state': 'normal', 'rot1': 0, 'rot0': 0, 'rot3': 0, 'rot2': 0, 'depth': -0.217, 'yaw': 0.0, 'datetime': '2018-11-05 15:41:49.890374', 'mgs': 0, 'flw2': 0.0, 'flw1': 0.0, 'flw0': 0.0, 'time': 8.76, 'pitch': 0.93, 'roll': -2.44}
{'lipoC2': 7.71, 'temp': 28.75, 'lipoC3S3': 11.3, 'state': 'normal', 'rot1': 0, 'rot0': 0, 'rot3': 0, 'rot2': 0, 'depth': -0.14, 'yaw': 0.0, 'datetime': '2018-11-05 15:41:49.911381', 'mgs': 0, 'flw2': 0.0, 'flw1': 0.0, 'flw0': 0.0, 'time': 8.86, 'pitch': 0.93, 'roll': -2.44}
{'lipoC2': 7.71, 'temp': 28.75, 'lipoC3S3': 11.31, 'state': 'normal', 'rot1': 0, 'rot0': 0, 'rot3': 0, 'rot2': 0, 'depth': -0.14, 'yaw': 0.0, 'datetime': '2018-11-05 15:41:49.932400', 'mgs': 0, 'flw2': 0.0, 'flw1': 0.0, 'flw0': 0.0, 'time': 8.97, 'pitch': 0.93, 'roll': -2.44}
{'lipoC2': 7.7, 'temp': 28.88, 'lipoC3S3': 11.31, 'state': 'normal', 'rot1': 0, 'rot0': 0, 'rot3': 0, 'rot2': 0, 'depth': -0.14, 'yaw': 0.0, 'datetime': '2018-11-05 15:41:49.953466', 'mgs': 0, 'flw2': 0.0, 'flw1': 0.0, 'flw0': 0.0, 'time': 9.07, 'pitch': 0.93, 'roll': -2.44}
{'lipoC2': 7.71, 'temp': 28.88, 'lipoC3S3': 11.31, 'state': 'normal', 'rot1': 0, 'rot0': 0, 'rot3': 0, 'rot2': 0, 'depth': -0.14, 'yaw': 0.0, 'datetime': '2018-11-05 15:41:49.974497', 'mgs': 0, 'flw2': 0.0, 'flw1': 0.0, 'flw0': 0.0, 'time': 9.17, 'pitch': 0.93, 'roll': -2.44}
{'lipoC2': 7.7, 'temp': 28.81, 'lipoC3S3': 11.31, 'state': 'normal', 'rot1': 0, 'rot0': 0, 'rot3': 0, 'rot2': 0, 'depth': -0.14, 'yaw': 0.0, 'datetime': '2018-11-05 15:41:49.995480', 'mgs': 0, 'flw2': 0.0, 'flw1': 0.0, 'flw0': 0.0, 'time': 9.27, 'pitch': 0.93, 'roll': -2.44}
{'lipoC2': 7.71, 'temp': 28.81, 'lipoC3S3': 11.31, 'state': 'normal', 'rot1': 0, 'rot0': 0, 'rot3': 0, 'rot2': 0, 'depth': -0.217, 'yaw': 0.0, 'datetime': '2018-11-05 15:41:50.016495', 'mgs': 0, 'flw2': 0.0, 'flw1': 0.0, 'flw0': 0.0, 'time': 9.38, 'pitch': 0.93, 'roll': -2.44}
{'lipoC2': 7.71, 'temp': 28.81, 'lipoC3S3': 11.3, 'state': 'normal', 'rot1': 0, 'rot0': 0, 'rot3': 0, 'rot2': 0, 'depth': -0.14, 'yaw': 0.0, 'datetime': '2018-11-05 15:41:50.037493', 'mgs': 0, 'flw2': 0.0, 'flw1': 0.0, 'flw0': 0.0, 'time': 9.48, 'pitch': 0.93, 'roll': -2.44}
{'lipoC2': 7.71, 'temp': 28.81, 'lipoC3S3': 11.3, 'state': 'normal', 'rot1': 0, 'rot0': 0, 'rot3': 0, 'rot2': 0, 'depth': -0.217, 'yaw': 0.0, 'datetime': '2018-11-05 15:41:50.058501', 'mgs': 0, 'flw2': 0.0, 'flw1': 0.0, 'flw0': 0.0, 'time': 9.58, 'pitch': 0.93, 'roll': -2.44}
{'lipoC2': 7.71, 'temp': 28.81, 'lipoC3S3': 11.31, 'state': 'normal', 'rot1': 0, 'rot0': 0, 'rot3': 0, 'rot2': 0, 'depth': -0.14, 'yaw': 0.0, 'datetime': '2018-11-05 15:41:50.079524', 'mgs': 0, 'flw2': 0.0, 'flw1': 0.0, 'flw0': 0.0, 'time': 9.68, 'pitch': 0.93, 'roll': -2.44}
{'lipoC2': 7.71, 'temp': 28.81, 'lipoC3S3': 11.3, 'state': 'normal', 'rot1': 0, 'rot0': 0, 'rot3': 0, 'rot2': 0, 'depth': -0.064, 'yaw': 0.0, 'datetime': '2018-11-05 15:41:50.100522', 'mgs': 0, 'flw2': 0.0, 'flw1': 0.0, 'flw0': 0.0, 'time': 9.79, 'pitch': 0.93, 'roll': -2.44}
{'lipoC2': 7.71, 'temp': 28.81, 'lipoC3S3': 11.31, 'state': 'normal', 'rot1': 0, 'rot0': 0, 'rot3': 0, 'rot2': 0, 'depth': -0.14, 'yaw': 0.0, 'datetime': '2018-11-05 15:41:50.121568', 'mgs': 0, 'flw2': 0.0, 'flw1': 0.0, 'flw0': 0.0, 'time': 9.89, 'pitch': 0.93, 'roll': -2.44}
{'lipoC2': 7.71, 'temp': 28.81, 'lipoC3S3': 11.31, 'state': 'normal', 'rot1': 0, 'rot0': 0, 'rot3': 0, 'rot2': 0, 'depth': -0.14, 'yaw': 0.0, 'datetime': '2018-11-05 15:41:50.142550', 'mgs': 0, 'flw2': 0.0, 'flw1': 0.0, 'flw0': 0.0, 'time': 9.99, 'pitch': 0.93, 'roll': -2.44}
{'lipoC2': 7.71, 'temp': 28.81, 'lipoC3S3': 11.3, 'state': 'normal', 'rot1': 0, 'rot0': 0, 'rot3': 0, 'rot2': 0, 'depth': -0.14, 'yaw': 0.0, 'datetime': '2018-11-05 15:41:50.163450', 'mgs': 0, 'flw2': 0.0, 'flw1': 0.0, 'flw0': 0.0, 'time': 10.1, 'pitch': 0.93, 'roll': -2.44}
{'lipoC2': 7.71, 'temp': 28.81, 'lipoC3S3': 11.31, 'state': 'normal', 'rot1': 0, 'rot0': 0, 'rot3': 0, 'rot2': 0, 'depth': -0.14, 'yaw': 0.0, 'datetime': '2018-11-05 15:41:50.184377', 'mgs': 0, 'flw2': 0.0, 'flw1': 0.0, 'flw0': 0.0, 'time': 10.2, 'pitch': 0.93, 'roll': -2.44}
{'lipoC2': 7.71, 'temp': 28.81, 'lipoC3S3': 11.3, 'state': 'normal', 'rot1': 0, 'rot0': 0, 'rot3': 0, 'rot2': 0, 'depth': -0.064, 'yaw': 0.0, 'datetime': '2018-11-05 15:41:50.205219', 'mgs': 0, 'flw2': 0.0, 'flw1': 0.0, 'flw0': 0.0, 'time': 10.3, 'pitch': 0.93, 'roll': -2.44}
{'lipoC2': 7.7, 'temp': 28.81, 'lipoC3S3': 11.3, 'state': 'normal', 'rot1': 0, 'rot0': 0, 'rot3': 0, 'rot2': 0, 'depth': -0.217, 'yaw': 0.0, 'datetime': '2018-11-05 15:41:50.226180', 'mgs': 0, 'flw2': 0.0, 'flw1': 0.0, 'flw0': 0.0, 'time': 10.4, 'pitch': 0.93, 'roll': -2.44}
{'lipoC2': 7.71, 'temp': 28.81, 'lipoC3S3': 11.31, 'state': 'normal', 'rot1': 0, 'rot0': 0, 'rot3': 0, 'rot2': 0, 'depth': -0.14, 'yaw': 0.0, 'datetime': '2018-11-05 15:41:50.247219', 'mgs': 0, 'flw2': 0.0, 'flw1': 0.0, 'flw0': 0.0, 'time': 10.51, 'pitch': 0.93, 'roll': -2.44}
{'lipoC2': 7.7, 'temp': 28.81, 'lipoC3S3': 11.31, 'state': 'normal', 'rot1': 0, 'rot0': 0, 'rot3': 0, 'rot2': 0, 'depth': -0.14, 'yaw': 0.0, 'datetime': '2018-11-05 15:41:50.268102', 'mgs': 0, 'flw2': 0.0, 'flw1': 0.0, 'flw0': 0.0, 'time': 10.61, 'pitch': 0.93, 'roll': -2.44}
{'lipoC2': 7.71, 'temp': 28.81, 'lipoC3S3': 11.3, 'state': 'normal', 'rot1': 0, 'rot0': 0, 'rot3': 0, 'rot2': 0, 'depth': -0.064, 'yaw': 0.0, 'datetime': '2018-11-05 15:41:50.289002', 'mgs': 0, 'flw2': 0.0, 'flw1': 0.0, 'flw0': 0.0, 'time': 10.71, 'pitch': 0.93, 'roll': -2.44}
{'lipoC2': 7.71, 'temp': 28.81, 'lipoC3S3': 11.3, 'state': 'normal', 'rot1': 0, 'rot0': 0, 'rot3': 0, 'rot2': 0, 'depth': -0.064, 'yaw': 0.0, 'datetime': '2018-11-05 15:41:50.309882', 'mgs': 0, 'flw2': 0.0, 'flw1': 0.0, 'flw0': 0.0, 'time': 10.81, 'pitch': 0.93, 'roll': -2.44}
{'lipoC2': 7.71, 'temp': 28.88, 'lipoC3S3': 11.31, 'state': 'normal', 'rot1': 0, 'rot0': 0, 'rot3': 0, 'rot2': 0, 'depth': -0.064, 'yaw': 0.0, 'datetime': '2018-11-05 15:41:50.330798', 'mgs': 0, 'flw2': 0.0, 'flw1': 0.0, 'flw0': 0.0, 'time': 10.92, 'pitch': 0.93, 'roll': -2.44}
{'lipoC2': 7.71, 'temp': 28.88, 'lipoC3S3': 11.31, 'state': 'normal', 'rot1': 0, 'rot0': 0, 'rot3': 0, 'rot2': 0, 'depth': -0.14, 'yaw': 0.0, 'datetime': '2018-11-05 15:41:50.351666', 'mgs': 0, 'flw2': 0.0, 'flw1': 0.0, 'flw0': 0.0, 'time': 11.02, 'pitch': 0.93, 'roll': -2.44}
{'lipoC2': 7.7, 'temp': 28.88, 'lipoC3S3': 11.31, 'state': 'normal', 'rot1': 0, 'rot0': 0, 'rot3': 0, 'rot2': 0, 'depth': -0.14, 'yaw': 0.0, 'datetime': '2018-11-05 15:41:50.372549', 'mgs': 0, 'flw2': 0.0, 'flw1': 0.0, 'flw0': 0.0, 'time': 11.12, 'pitch': 0.93, 'roll': -2.44}
{'lipoC2': 7.71, 'temp': 28.81, 'lipoC3S3': 11.31, 'state': 'normal', 'rot1': 0, 'rot0': 0, 'rot3': 0, 'rot2': 0, 'depth': -0.14, 'yaw': 0.0, 'datetime': '2018-11-05 15:41:50.393412', 'mgs': 0, 'flw2': 0.0, 'flw1': 0.0, 'flw0': 0.0, 'time': 11.23, 'pitch': 0.93, 'roll': -2.44}
{'lipoC2': 7.71, 'temp': 28.81, 'lipoC3S3': 11.3, 'state': 'normal', 'rot1': 0, 'rot0': 0, 'rot3': 0, 'rot2': 0, 'depth': -0.14, 'yaw': 0.0, 'datetime': '2018-11-05 15:41:50.414309', 'mgs': 0, 'flw2': 0.0, 'flw1': 0.0, 'flw0': 0.0, 'time': 11.33, 'pitch': 0.93, 'roll': -2.44}
{'lipoC2': 7.71, 'temp': 28.81, 'lipoC3S3': 11.3, 'state': 'normal', 'rot1': 0, 'rot0': 0, 'rot3': 0, 'rot2': 0, 'depth': -0.217, 'yaw': 0.0, 'datetime': '2018-11-05 15:41:50.435186', 'mgs': 0, 'flw2': 0.0, 'flw1': 0.0, 'flw0': 0.61, 'time': 11.43, 'pitch': 0.93, 'roll': -2.44}
{'lipoC2': 7.71, 'temp': 28.81, 'lipoC3S3': 11.3, 'state': 'normal', 'rot1': 0, 'rot0': 0, 'rot3': 0, 'rot2': 0, 'depth': 0.165, 'yaw': 0.0, 'datetime': '2018-11-05 15:41:50.456044', 'mgs': 0, 'flw2': 0.0, 'flw1': 0.0, 'flw0': 1.35, 'time': 11.53, 'pitch': 0.93, 'roll': -2.44}
{'lipoC2': 7.7, 'temp': 28.81, 'lipoC3S3': 11.29, 'state': 'normal', 'rot1': 2, 'rot0': 0, 'rot3': 0, 'rot2': 0, 'depth': -0.14, 'yaw': 0.0, 'datetime': '2018-11-05 15:41:50.476965', 'mgs': 0, 'flw2': 0.0, 'flw1': 0.0, 'flw0': 2.21, 'time': 11.64, 'pitch': 0.93, 'roll': -2.44}
{'lipoC2': 7.7, 'temp': 28.81, 'lipoC3S3': 11.27, 'state': 'normal', 'rot1': 4, 'rot0': 0, 'rot3': 0, 'rot2': 0, 'depth': -0.14, 'yaw': 0.0, 'datetime': '2018-11-05 15:41:50.497885', 'mgs': 0, 'flw2': 0.0, 'flw1': 0.0, 'flw0': 3.0, 'time': 11.74, 'pitch': 0.93, 'roll': -2.44}
{'lipoC2': 7.71, 'temp': 28.81, 'lipoC3S3': 11.23, 'state': 'normal', 'rot1': 7, 'rot0': 0, 'rot3': 0, 'rot2': 0, 'depth': -0.14, 'yaw': 0.0, 'datetime': '2018-11-05 15:41:50.518805', 'mgs': 0, 'flw2': 0.0, 'flw1': 0.0, 'flw0': 3.54, 'time': 11.84, 'pitch': 0.93, 'roll': -2.44}
{'lipoC2': 7.71, 'temp': 28.81, 'lipoC3S3': 11.27, 'state': 'normal', 'rot1': 10, 'rot0': 0, 'rot3': 0, 'rot2': 0, 'depth': 0.394, 'yaw': 0.01, 'datetime': '2018-11-05 15:41:50.539732', 'mgs': 0, 'flw2': 0.0, 'flw1': 0.0, 'flw0': 4.02, 'time': 11.94, 'pitch': 0.92, 'roll': -2.43}
{'lipoC2': 7.71, 'temp': 28.81, 'lipoC3S3': 11.22, 'state': 'normal', 'rot1': 14, 'rot0': 0, 'rot3': 0, 'rot2': 0, 'depth': 0.012, 'yaw': -0.01, 'datetime': '2018-11-05 15:41:50.560860', 'mgs': 0, 'flw2': 0.0, 'flw1': 0.0, 'flw0': 4.05, 'time': 12.05, 'pitch': 0.92, 'roll': -2.43}
{'lipoC2': 7.71, 'temp': 28.75, 'lipoC3S3': 11.25, 'state': 'normal', 'rot1': 19, 'rot0': 0, 'rot3': 0, 'rot2': 0, 'depth': 0.089, 'yaw': 0.0, 'datetime': '2018-11-05 15:41:50.582076', 'mgs': 0, 'flw2': 0.0, 'flw1': 0.0, 'flw0': 4.33, 'time': 12.15, 'pitch': 0.92, 'roll': -2.43}
{'lipoC2': 7.71, 'temp': 28.75, 'lipoC3S3': 11.3, 'state': 'normal', 'rot1': 23, 'rot0': 0, 'rot3': 0, 'rot2': 0, 'depth': -0.064, 'yaw': -0.01, 'datetime': '2018-11-05 15:41:50.603002', 'mgs': 0, 'flw2': 0.11, 'flw1': 0.0, 'flw0': 0.04, 'time': 12.25, 'pitch': 0.92, 'roll': -2.43}
{'lipoC2': 7.71, 'temp': 28.75, 'lipoC3S3': 11.27, 'state': 'normal', 'rot1': 23, 'rot0': 0, 'rot3': 0, 'rot2': 0, 'depth': -0.14, 'yaw': 0.0, 'datetime': '2018-11-05 15:41:50.623952', 'mgs': 0, 'flw2': 0.82, 'flw1': 0.0, 'flw0': 0.0, 'time': 12.36, 'pitch': 0.93, 'roll': -2.43}
{'lipoC2': 7.7, 'temp': 28.75, 'lipoC3S3': 11.29, 'state': 'normal', 'rot1': 23, 'rot0': 1, 'rot3': 0, 'rot2': 0, 'depth': 0.165, 'yaw': 0.0, 'datetime': '2018-11-05 15:41:50.644822', 'mgs': 0, 'flw2': 1.67, 'flw1': 0.0, 'flw0': 0.0, 'time': 12.46, 'pitch': 0.93, 'roll': -2.43}
{'lipoC2': 7.71, 'temp': 28.75, 'lipoC3S3': 11.29, 'state': 'normal', 'rot1': 23, 'rot0': 3, 'rot3': 0, 'rot2': 0, 'depth': -0.064, 'yaw': 0.0, 'datetime': '2018-11-05 15:41:50.665743', 'mgs': 0, 'flw2': 2.29, 'flw1': 0.0, 'flw0': 0.0, 'time': 12.56, 'pitch': 0.93, 'roll': -2.43}
{'lipoC2': 7.71, 'temp': 28.81, 'lipoC3S3': 11.27, 'state': 'normal', 'rot1': 23, 'rot0': 5, 'rot3': 0, 'rot2': 0, 'depth': 0.165, 'yaw': 0.0, 'datetime': '2018-11-05 15:41:50.686650', 'mgs': 0, 'flw2': 3.19, 'flw1': 0.0, 'flw0': 0.0, 'time': 12.67, 'pitch': 0.93, 'roll': -2.42}
{'lipoC2': 7.71, 'temp': 28.81, 'lipoC3S3': 11.27, 'state': 'normal', 'rot1': 23, 'rot0': 8, 'rot3': 0, 'rot2': 0, 'depth': -0.14, 'yaw': 0.01, 'datetime': '2018-11-05 15:41:50.707565', 'mgs': 0, 'flw2': 3.76, 'flw1': 0.0, 'flw0': 0.0, 'time': 12.77, 'pitch': 0.97, 'roll': -2.37}
{'lipoC2': 7.71, 'temp': 28.75, 'lipoC3S3': 11.23, 'state': 'normal', 'rot1': 23, 'rot0': 12, 'rot3': 0, 'rot2': 0, 'depth': -0.064, 'yaw': -0.0, 'datetime': '2018-11-05 15:41:50.728529', 'mgs': 0, 'flw2': 3.72, 'flw1': 0.0, 'flw0': 0.0, 'time': 12.87, 'pitch': 0.96, 'roll': -2.34}
{'lipoC2': 7.71, 'temp': 28.75, 'lipoC3S3': 11.23, 'state': 'normal', 'rot1': 23, 'rot0': 16, 'rot3': 0, 'rot2': 0, 'depth': -0.064, 'yaw': -0.01, 'datetime': '2018-11-05 15:41:50.749566', 'mgs': 0, 'flw2': 3.91, 'flw1': 0.0, 'flw0': 0.0, 'time': 12.98, 'pitch': 0.98, 'roll': -2.34}
{'lipoC2': 7.71, 'temp': 28.75, 'lipoC3S3': 11.23, 'state': 'normal', 'rot1': 23, 'rot0': 21, 'rot3': 0, 'rot2': 0, 'depth': -0.064, 'yaw': -0.01, 'datetime': '2018-11-05 15:41:50.770572', 'mgs': 0, 'flw2': 4.19, 'flw1': 0.0, 'flw0': 0.0, 'time': 13.08, 'pitch': 0.99, 'roll': -2.33}
{'lipoC2': 7.71, 'temp': 28.88, 'lipoC3S3': 11.3, 'state': 'normal', 'rot1': 23, 'rot0': 23, 'rot3': 0, 'rot2': 0, 'depth': -0.217, 'yaw': -0.02, 'datetime': '2018-11-05 15:41:50.791564', 'mgs': 0, 'flw2': 0.0, 'flw1': 0.06, 'flw0': 0.0, 'time': 13.18, 'pitch': 0.99, 'roll': -2.33}
{'lipoC2': 7.71, 'temp': 28.88, 'lipoC3S3': 11.3, 'state': 'normal', 'rot1': 23, 'rot0': 23, 'rot3': 0, 'rot2': 0, 'depth': -0.217, 'yaw': -0.02, 'datetime': '2018-11-05 15:41:50.812513', 'mgs': 0, 'flw2': 0.0, 'flw1': 0.47, 'flw0': 0.0, 'time': 13.29, 'pitch': 0.99, 'roll': -2.33}
{'lipoC2': 7.71, 'temp': 28.75, 'lipoC3S3': 11.3, 'state': 'normal', 'rot1': 23, 'rot0': 23, 'rot3': 0, 'rot2': 1, 'depth': -0.14, 'yaw': -0.02, 'datetime': '2018-11-05 15:41:50.833508', 'mgs': 0, 'flw2': 0.0, 'flw1': 1.05, 'flw0': 0.0, 'time': 13.39, 'pitch': 0.98, 'roll': -2.34}
{'lipoC2': 7.71, 'temp': 28.75, 'lipoC3S3': 11.29, 'state': 'normal', 'rot1': 23, 'rot0': 23, 'rot3': 0, 'rot2': 1, 'depth': -0.14, 'yaw': -0.02, 'datetime': '2018-11-05 15:41:50.854459', 'mgs': 0, 'flw2': 0.0, 'flw1': 1.29, 'flw0': 0.0, 'time': 13.49, 'pitch': 0.98, 'roll': -2.34}
{'lipoC2': 7.71, 'temp': 28.81, 'lipoC3S3': 11.29, 'state': 'normal', 'rot1': 23, 'rot0': 23, 'rot3': 0, 'rot2': 1, 'depth': -0.14, 'yaw': -0.02, 'datetime': '2018-11-05 15:41:50.875517', 'mgs': 0, 'flw2': 0.0, 'flw1': 1.7, 'flw0': 0.0, 'time': 13.6, 'pitch': 0.98, 'roll': -2.34}
{'lipoC2': 7.71, 'temp': 28.81, 'lipoC3S3': 11.29, 'state': 'normal', 'rot1': 23, 'rot0': 23, 'rot3': 0, 'rot2': 2, 'depth': 0.089, 'yaw': -0.02, 'datetime': '2018-11-05 15:41:50.896443', 'mgs': 0, 'flw2': 0.0, 'flw1': 1.96, 'flw0': 0.0, 'time': 13.7, 'pitch': 0.98, 'roll': -2.34}
{'lipoC2': 7.71, 'temp': 28.81, 'lipoC3S3': 11.27, 'state': 'normal', 'rot1': 23, 'rot0': 23, 'rot3': 0, 'rot2': 2, 'depth': -0.14, 'yaw': -0.02, 'datetime': '2018-11-05 15:41:50.917518', 'mgs': 0, 'flw2': 0.0, 'flw1': 2.02, 'flw0': 0.0, 'time': 13.8, 'pitch': 0.98, 'roll': -2.34}
{'lipoC2': 7.7, 'temp': 28.88, 'lipoC3S3': 11.29, 'state': 'normal', 'rot1': 23, 'rot0': 23, 'rot3': 0, 'rot2': 3, 'depth': 0.012, 'yaw': -0.02, 'datetime': '2018-11-05 15:41:50.938464', 'mgs': 0, 'flw2': 0.0, 'flw1': 2.11, 'flw0': 0.0, 'time': 13.9, 'pitch': 0.98, 'roll': -2.34}
{'lipoC2': 7.7, 'temp': 28.88, 'lipoC3S3': 11.3, 'state': 'normal', 'rot1': 23, 'rot0': 23, 'rot3': 0, 'rot2': 4, 'depth': -0.14, 'yaw': -0.02, 'datetime': '2018-11-05 15:41:50.959412', 'mgs': 0, 'flw2': 0.0, 'flw1': 0.09, 'flw0': 0.0, 'time': 14.01, 'pitch': 0.98, 'roll': -2.34}
{'lipoC2': 7.7, 'temp': 28.81, 'lipoC3S3': 11.3, 'state': 'normal', 'rot1': 23, 'rot0': 23, 'rot3': 0, 'rot2': 4, 'depth': -0.14, 'yaw': -0.02, 'datetime': '2018-11-05 15:41:50.980322', 'mgs': 0, 'flw2': 0.0, 'flw1': 0.32, 'flw0': 0.0, 'time': 14.11, 'pitch': 0.99, 'roll': -2.33}
{'lipoC2': 7.71, 'temp': 28.81, 'lipoC3S3': 11.3, 'state': 'normal', 'rot1': 23, 'rot0': 23, 'rot3': 0, 'rot2': 4, 'depth': -0.14, 'yaw': -0.02, 'datetime': '2018-11-05 15:41:51.001288', 'mgs': 0, 'flw2': 0.0, 'flw1': 0.79, 'flw0': 0.0, 'time': 14.22, 'pitch': 0.99, 'roll': -2.33}
{'lipoC2': 7.71, 'temp': 28.81, 'lipoC3S3': 11.29, 'state': 'normal', 'rot1': 23, 'rot0': 23, 'rot3': 0, 'rot2': 4, 'depth': -0.14, 'yaw': -0.02, 'datetime': '2018-11-05 15:41:51.022231', 'mgs': 0, 'flw2': 0.0, 'flw1': 1.11, 'flw0': 0.0, 'time': 14.32, 'pitch': 0.99, 'roll': -2.33}
{'lipoC2': 7.71, 'temp': 28.81, 'lipoC3S3': 11.3, 'state': 'normal', 'rot1': 23, 'rot0': 23, 'rot3': 1, 'rot2': 4, 'depth': -0.14, 'yaw': -0.02, 'datetime': '2018-11-05 15:41:51.043226', 'mgs': 0, 'flw2': 0.0, 'flw1': 1.7, 'flw0': 0.0, 'time': 14.42, 'pitch': 0.99, 'roll': -2.33}
{'lipoC2': 7.71, 'temp': 28.81, 'lipoC3S3': 11.29, 'state': 'normal', 'rot1': 23, 'rot0': 23, 'rot3': 2, 'rot2': 4, 'depth': 0.012, 'yaw': -0.02, 'datetime': '2018-11-05 15:41:51.064141', 'mgs': 0, 'flw2': 0.0, 'flw1': 1.67, 'flw0': 0.0, 'time': 14.52, 'pitch': 0.99, 'roll': -2.33}
{'lipoC2': 7.71, 'temp': 28.81, 'lipoC3S3': 11.29, 'state': 'normal', 'rot1': 23, 'rot0': 23, 'rot3': 2, 'rot2': 4, 'depth': 0.012, 'yaw': -0.02, 'datetime': '2018-11-05 15:41:51.085072', 'mgs': 0, 'flw2': 0.0, 'flw1': 1.88, 'flw0': 0.0, 'time': 14.63, 'pitch': 0.99, 'roll': -2.33}
{'lipoC2': 7.7, 'temp': 28.81, 'lipoC3S3': 11.29, 'state': 'normal', 'rot1': 23, 'rot0': 23, 'rot3': 3, 'rot2': 4, 'depth': 0.012, 'yaw': -0.02, 'datetime': '2018-11-05 15:41:51.105961', 'mgs': 0, 'flw2': 0.0, 'flw1': 1.82, 'flw0': 0.0, 'time': 14.73, 'pitch': 0.99, 'roll': -2.33}
{'lipoC2': 7.71, 'temp': 28.81, 'lipoC3S3': 11.27, 'state': 'normal', 'rot1': 23, 'rot0': 23, 'rot3': 4, 'rot2': 4, 'depth': -0.14, 'yaw': -0.02, 'datetime': '2018-11-05 15:41:51.126952', 'mgs': 0, 'flw2': 0.0, 'flw1': 1.82, 'flw0': 0.0, 'time': 14.84, 'pitch': 0.99, 'roll': -2.33}
{'lipoC2': 7.71, 'temp': 28.81, 'lipoC3S3': 11.3, 'state': 'normal', 'rot1': 23, 'rot0': 23, 'rot3': 5, 'rot2': 4, 'depth': -0.064, 'yaw': -0.02, 'datetime': '2018-11-05 15:41:51.147897', 'mgs': 0, 'flw2': 0.0, 'flw1': 0.18, 'flw0': 0.0, 'time': 14.94, 'pitch': 0.99, 'roll': -2.33}
{'lipoC2': 7.71, 'temp': 28.88, 'lipoC3S3': 11.29, 'state': 'normal', 'rot1': 23, 'rot0': 23, 'rot3': 5, 'rot2': 4, 'depth': -0.14, 'yaw': -0.02, 'datetime': '2018-11-05 15:41:51.169002', 'mgs': 0, 'flw2': 0.0, 'flw1': 0.44, 'flw0': 0.0, 'time': 15.04, 'pitch': 0.99, 'roll': -2.33}
{'lipoC2': 7.71, 'temp': 28.88, 'lipoC3S3': 11.29, 'state': 'normal', 'rot1': 23, 'rot0': 23, 'rot3': 5, 'rot2': 4, 'depth': -0.14, 'yaw': -0.02, 'datetime': '2018-11-05 15:41:51.189947', 'mgs': 0, 'flw2': 0.0, 'flw1': 1.03, 'flw0': 0.0, 'time': 15.15, 'pitch': 0.99, 'roll': -2.33}
{'lipoC2': 7.7, 'temp': 28.88, 'lipoC3S3': 11.29, 'state': 'normal', 'rot1': 23, 'rot0': 23, 'rot3': 5, 'rot2': 4, 'depth': 0.012, 'yaw': -0.02, 'datetime': '2018-11-05 15:41:51.210907', 'mgs': 0, 'flw2': 0.0, 'flw1': 1.41, 'flw0': 0.0, 'time': 15.25, 'pitch': 0.99, 'roll': -2.33}
{'lipoC2': 7.71, 'temp': 28.81, 'lipoC3S3': 11.29, 'state': 'normal', 'rot1': 23, 'rot0': 23, 'rot3': 6, 'rot2': 4, 'depth': 0.089, 'yaw': -0.02, 'datetime': '2018-11-05 15:41:51.231820', 'mgs': 0, 'flw2': 0.0, 'flw1': 1.67, 'flw0': 0.0, 'time': 15.35, 'pitch': 0.99, 'roll': -2.33}
{'lipoC2': 7.7, 'temp': 28.81, 'lipoC3S3': 11.27, 'state': 'normal', 'rot1': 23, 'rot0': 23, 'rot3': 6, 'rot2': 4, 'depth': -0.14, 'yaw': -0.02, 'datetime': '2018-11-05 15:41:51.252805', 'mgs': 0, 'flw2': 0.0, 'flw1': 1.88, 'flw0': 0.0, 'time': 15.45, 'pitch': 0.99, 'roll': -2.33}
{'lipoC2': 7.7, 'temp': 28.81, 'lipoC3S3': 11.29, 'state': 'normal', 'rot1': 23, 'rot0': 23, 'rot3': 7, 'rot2': 4, 'depth': -0.064, 'yaw': -0.02, 'datetime': '2018-11-05 15:41:51.273783', 'mgs': 0, 'flw2': 0.0, 'flw1': 1.85, 'flw0': 0.0, 'time': 15.56, 'pitch': 0.99, 'roll': -2.33}
{'lipoC2': 7.71, 'temp': 28.81, 'lipoC3S3': 11.29, 'state': 'normal', 'rot1': 23, 'rot0': 23, 'rot3': 8, 'rot2': 4, 'depth': 0.012, 'yaw': -0.02, 'datetime': '2018-11-05 15:41:51.294728', 'mgs': 0, 'flw2': 0.0, 'flw1': 1.7, 'flw0': 0.0, 'time': 15.66, 'pitch': 0.99, 'roll': -2.33}
{'lipoC2': 7.71, 'temp': 28.81, 'lipoC3S3': 11.27, 'state': 'normal', 'rot1': 23, 'rot0': 23, 'rot3': 9, 'rot2': 4, 'depth': 0.012, 'yaw': -0.02, 'datetime': '2018-11-05 15:41:51.315601', 'mgs': 0, 'flw2': 0.0, 'flw1': 1.82, 'flw0': 0.0, 'time': 15.77, 'pitch': 0.99, 'roll': -2.33}
{'lipoC2': 7.7, 'temp': 28.81, 'lipoC3S3': 11.3, 'state': 'normal', 'rot1': 23, 'rot0': 23, 'rot3': 10, 'rot2': 4, 'depth': -0.14, 'yaw': -0.02, 'datetime': '2018-11-05 15:41:51.336655', 'mgs': 0, 'flw2': 0.0, 'flw1': 0.12, 'flw0': 0.0, 'time': 15.87, 'pitch': 0.99, 'roll': -2.33}
{'lipoC2': 7.71, 'temp': 28.81, 'lipoC3S3': 11.3, 'state': 'normal', 'rot1': 23, 'rot0': 23, 'rot3': 10, 'rot2': 4, 'depth': -0.14, 'yaw': -0.02, 'datetime': '2018-11-05 15:41:51.357661', 'mgs': 0, 'flw2': 0.0, 'flw1': 0.56, 'flw0': 0.0, 'time': 15.97, 'pitch': 0.99, 'roll': -2.33}
{'lipoC2': 7.71, 'temp': 28.75, 'lipoC3S3': 11.29, 'state': 'normal', 'rot1': 23, 'rot0': 23, 'rot3': 10, 'rot2': 5, 'depth': -0.14, 'yaw': -0.02, 'datetime': '2018-11-05 15:41:51.378654', 'mgs': 0, 'flw2': 0.0, 'flw1': 1.0, 'flw0': 0.0, 'time': 16.08, 'pitch': 0.99, 'roll': -2.33}
{'lipoC2': 7.71, 'temp': 28.75, 'lipoC3S3': 11.29, 'state': 'normal', 'rot1': 23, 'rot0': 23, 'rot3': 10, 'rot2': 5, 'depth': -0.14, 'yaw': -0.02, 'datetime': '2018-11-05 15:41:51.399665', 'mgs': 0, 'flw2': 0.0, 'flw1': 1.41, 'flw0': 0.0, 'time': 16.18, 'pitch': 0.99, 'roll': -2.33}
{'lipoC2': 7.71, 'temp': 28.81, 'lipoC3S3': 11.26, 'state': 'normal', 'rot1': 23, 'rot0': 23, 'rot3': 10, 'rot2': 5, 'depth': -0.064, 'yaw': -0.02, 'datetime': '2018-11-05 15:41:51.420672', 'mgs': 0, 'flw2': 0.0, 'flw1': 1.58, 'flw0': 0.0, 'time': 16.28, 'pitch': 0.99, 'roll': -2.33}
{'lipoC2': 7.71, 'temp': 28.81, 'lipoC3S3': 11.27, 'state': 'normal', 'rot1': 23, 'rot0': 23, 'rot3': 10, 'rot2': 6, 'depth': 0.012, 'yaw': -0.02, 'datetime': '2018-11-05 15:41:51.441637', 'mgs': 0, 'flw2': 0.0, 'flw1': 1.9, 'flw0': 0.0, 'time': 16.39, 'pitch': 0.99, 'roll': -2.33}
{'lipoC2': 7.71, 'temp': 28.81, 'lipoC3S3': 11.27, 'state': 'normal', 'rot1': 23, 'rot0': 23, 'rot3': 10, 'rot2': 6, 'depth': -0.14, 'yaw': -0.02, 'datetime': '2018-11-05 15:41:51.462629', 'mgs': 0, 'flw2': 0.0, 'flw1': 2.05, 'flw0': 0.0, 'time': 16.49, 'pitch': 0.99, 'roll': -2.33}
{'lipoC2': 7.71, 'temp': 28.81, 'lipoC3S3': 11.27, 'state': 'normal', 'rot1': 23, 'rot0': 23, 'rot3': 10, 'rot2': 7, 'depth': -0.064, 'yaw': -0.02, 'datetime': '2018-11-05 15:41:51.483768', 'mgs': 0, 'flw2': 0.0, 'flw1': 2.2, 'flw0': 0.0, 'time': 16.59, 'pitch': 0.99, 'roll': -2.33}
{'lipoC2': 7.7, 'temp': 28.81, 'lipoC3S3': 11.3, 'state': 'normal', 'rot1': 23, 'rot0': 23, 'rot3': 10, 'rot2': 8, 'depth': -0.14, 'yaw': -0.02, 'datetime': '2018-11-05 15:41:51.504754', 'mgs': 0, 'flw2': 0.01, 'flw1': 0.0, 'flw0': 0.0, 'time': 16.7, 'pitch': 0.99, 'roll': -2.33}
{'lipoC2': 7.7, 'temp': 28.81, 'lipoC3S3': 11.26, 'state': 'normal', 'rot1': 23, 'rot0': 24, 'rot3': 10, 'rot2': 8, 'depth': -0.14, 'yaw': -0.02, 'datetime': '2018-11-05 15:41:51.525734', 'mgs': 0, 'flw2': 0.66, 'flw1': 0.0, 'flw0': 0.0, 'time': 16.8, 'pitch': 0.99, 'roll': -2.33}
{'lipoC2': 7.7, 'temp': 28.81, 'lipoC3S3': 11.29, 'state': 'normal', 'rot1': 23, 'rot0': 24, 'rot3': 10, 'rot2': 8, 'depth': -0.14, 'yaw': -0.02, 'datetime': '2018-11-05 15:41:51.546753', 'mgs': 0, 'flw2': 1.43, 'flw1': 0.0, 'flw0': 0.0, 'time': 16.9, 'pitch': 0.99, 'roll': -2.33}
{'lipoC2': 7.71, 'temp': 28.88, 'lipoC3S3': 11.27, 'state': 'normal', 'rot1': 23, 'rot0': 26, 'rot3': 10, 'rot2': 8, 'depth': 0.394, 'yaw': -0.02, 'datetime': '2018-11-05 15:41:51.567751', 'mgs': 0, 'flw2': 2.28, 'flw1': 0.0, 'flw0': 0.0, 'time': 17.01, 'pitch': 0.99, 'roll': -2.33}
{'lipoC2': 7.71, 'temp': 28.88, 'lipoC3S3': 11.27, 'state': 'normal', 'rot1': 23, 'rot0': 28, 'rot3': 10, 'rot2': 8, 'depth': 0.012, 'yaw': -0.02, 'datetime': '2018-11-05 15:41:51.588693', 'mgs': 0, 'flw2': 2.87, 'flw1': 0.0, 'flw0': 0.0, 'time': 17.11, 'pitch': 0.99, 'roll': -2.33}
{'lipoC2': 7.71, 'temp': 28.81, 'lipoC3S3': 11.23, 'state': 'normal', 'rot1': 23, 'rot0': 31, 'rot3': 10, 'rot2': 8, 'depth': -0.217, 'yaw': -0.02, 'datetime': '2018-11-05 15:41:51.609713', 'mgs': 0, 'flw2': 3.41, 'flw1': 0.0, 'flw0': 0.0, 'time': 17.22, 'pitch': 0.99, 'roll': -2.33}
{'lipoC2': 7.71, 'temp': 28.81, 'lipoC3S3': 11.26, 'state': 'normal', 'rot1': 23, 'rot0': 35, 'rot3': 10, 'rot2': 8, 'depth': 0.165, 'yaw': -0.02, 'datetime': '2018-11-05 15:41:51.630652', 'mgs': 0, 'flw2': 3.67, 'flw1': 0.0, 'flw0': 0.0, 'time': 17.32, 'pitch': 0.96, 'roll': -2.29}
{'lipoC2': 7.71, 'temp': 28.81, 'lipoC3S3': 11.26, 'state': 'normal', 'rot1': 23, 'rot0': 39, 'rot3': 10, 'rot2': 8, 'depth': 0.089, 'yaw': -0.02, 'datetime': '2018-11-05 15:41:51.651667', 'mgs': 0, 'flw2': 3.72, 'flw1': 0.0, 'flw0': 0.0, 'time': 17.42, 'pitch': 0.97, 'roll': -2.31}
{'lipoC2': 7.71, 'temp': 28.81, 'lipoC3S3': 11.26, 'state': 'normal', 'rot1': 23, 'rot0': 44, 'rot3': 10, 'rot2': 8, 'depth': 0.089, 'yaw': -0.01, 'datetime': '2018-11-05 15:41:51.672685', 'mgs': 0, 'flw2': 4.06, 'flw1': 0.0, 'flw0': 0.0, 'time': 17.52, 'pitch': 0.97, 'roll': -2.3}
{'lipoC2': 7.71, 'temp': 28.81, 'lipoC3S3': 11.3, 'state': 'normal', 'rot1': 23, 'rot0': 48, 'rot3': 10, 'rot2': 8, 'depth': -0.217, 'yaw': -0.02, 'datetime': '2018-11-05 15:41:51.693698', 'mgs': 0, 'flw2': 0.0, 'flw1': 0.0, 'flw0': 0.23, 'time': 17.63, 'pitch': 0.97, 'roll': -2.29}
{'lipoC2': 7.71, 'temp': 28.81, 'lipoC3S3': 11.29, 'state': 'normal', 'rot1': 24, 'rot0': 48, 'rot3': 10, 'rot2': 8, 'depth': -0.14, 'yaw': -0.01, 'datetime': '2018-11-05 15:41:51.714702', 'mgs': 0, 'flw2': 0.0, 'flw1': 0.0, 'flw0': 1.0, 'time': 17.73, 'pitch': 0.96, 'roll': -2.3}
{'lipoC2': 7.71, 'temp': 28.81, 'lipoC3S3': 11.29, 'state': 'normal', 'rot1': 25, 'rot0': 48, 'rot3': 10, 'rot2': 8, 'depth': 0.089, 'yaw': -0.01, 'datetime': '2018-11-05 15:41:51.735637', 'mgs': 0, 'flw2': 0.01, 'flw1': 0.0, 'flw0': 1.77, 'time': 17.84, 'pitch': 0.96, 'roll': -2.3}
{'lipoC2': 7.71, 'temp': 28.81, 'lipoC3S3': 11.27, 'state': 'normal', 'rot1': 27, 'rot0': 48, 'rot3': 10, 'rot2': 8, 'depth': 0.394, 'yaw': -0.01, 'datetime': '2018-11-05 15:41:51.756656', 'mgs': 0, 'flw2': 0.0, 'flw1': 0.0, 'flw0': 2.6, 'time': 17.94, 'pitch': 0.96, 'roll': -2.3}
{'lipoC2': 7.71, 'temp': 28.81, 'lipoC3S3': 11.25, 'state': 'normal', 'rot1': 29, 'rot0': 48, 'rot3': 10, 'rot2': 8, 'depth': 0.089, 'yaw': -0.01, 'datetime': '2018-11-05 15:41:51.777787', 'mgs': 0, 'flw2': 0.0, 'flw1': 0.0, 'flw0': 3.22, 'time': 18.04, 'pitch': 0.97, 'roll': -2.3}
{'lipoC2': 7.71, 'temp': 28.81, 'lipoC3S3': 11.25, 'state': 'normal', 'rot1': 32, 'rot0': 48, 'rot3': 10, 'rot2': 8, 'depth': 0.241, 'yaw': -0.01, 'datetime': '2018-11-05 15:41:51.798763', 'mgs': 0, 'flw2': 0.01, 'flw1': 0.0, 'flw0': 3.65, 'time': 18.15, 'pitch': 0.97, 'roll': -2.3}
{'lipoC2': 7.7, 'temp': 28.81, 'lipoC3S3': 11.25, 'state': 'normal', 'rot1': 36, 'rot0': 48, 'rot3': 10, 'rot2': 8, 'depth': -0.14, 'yaw': -0.02, 'datetime': '2018-11-05 15:41:51.819778', 'mgs': 0, 'flw2': 0.0, 'flw1': 0.0, 'flw0': 4.14, 'time': 18.25, 'pitch': 0.97, 'roll': -2.3}
{'lipoC2': 7.7, 'temp': 28.81, 'lipoC3S3': 11.25, 'state': 'normal', 'rot1': 40, 'rot0': 48, 'rot3': 10, 'rot2': 8, 'depth': 0.165, 'yaw': -0.02, 'datetime': '2018-11-05 15:41:51.840757', 'mgs': 0, 'flw2': 0.0, 'flw1': 0.0, 'flw0': 4.36, 'time': 18.35, 'pitch': 0.97, 'roll': -2.3}
{'lipoC2': 7.71, 'temp': 28.81, 'lipoC3S3': 11.29, 'state': 'normal', 'rot1': 45, 'rot0': 48, 'rot3': 10, 'rot2': 8, 'depth': -0.14, 'yaw': -0.02, 'datetime': '2018-11-05 15:41:51.861417', 'mgs': 0, 'flw2': 0.0, 'flw1': 0.0, 'flw0': 2.19, 'time': 18.46, 'pitch': 0.97, 'roll': -2.3}
{'lipoC2': 7.7, 'temp': 28.81, 'lipoC3S3': 11.29, 'state': 'normal', 'rot1': 49, 'rot0': 48, 'rot3': 10, 'rot2': 8, 'depth': -0.14, 'yaw': -0.02, 'datetime': '2018-11-05 15:41:51.881871', 'mgs': 0, 'flw2': 0.23, 'flw1': 0.12, 'flw0': 0.0, 'time': 18.56, 'pitch': 0.97, 'roll': -2.3}
{'lipoC2': 7.71, 'temp': 28.81, 'lipoC3S3': 11.29, 'state': 'normal', 'rot1': 49, 'rot0': 48, 'rot3': 10, 'rot2': 8, 'depth': -0.064, 'yaw': -0.02, 'datetime': '2018-11-05 15:41:51.902312', 'mgs': 0, 'flw2': 0.51, 'flw1': 0.56, 'flw0': 0.45, 'time': 18.66, 'pitch': 0.97, 'roll': -2.3}
{'lipoC2': 7.71, 'temp': 28.81, 'lipoC3S3': 11.26, 'state': 'normal', 'rot1': 50, 'rot0': 49, 'rot3': 10, 'rot2': 8, 'depth': 0.089, 'yaw': -0.02, 'datetime': '2018-11-05 15:41:51.922753', 'mgs': 0, 'flw2': 0.85, 'flw1': 1.0, 'flw0': 0.87, 'time': 18.77, 'pitch': 0.97, 'roll': -2.3}
{'lipoC2': 7.71, 'temp': 28.81, 'lipoC3S3': 11.22, 'state': 'normal', 'rot1': 51, 'rot0': 50, 'rot3': 10, 'rot2': 8, 'depth': -0.14, 'yaw': -0.02, 'datetime': '2018-11-05 15:41:51.943265', 'mgs': 0, 'flw2': 1.2, 'flw1': 1.41, 'flw0': 1.29, 'time': 18.87, 'pitch': 0.97, 'roll': -2.31}
{'lipoC2': 7.71, 'temp': 28.88, 'lipoC3S3': 11.21, 'state': 'normal', 'rot1': 53, 'rot0': 52, 'rot3': 11, 'rot2': 9, 'depth': -0.064, 'yaw': -0.02, 'datetime': '2018-11-05 15:41:51.963716', 'mgs': 0, 'flw2': 1.6, 'flw1': 1.9, 'flw0': 1.72, 'time': 18.98, 'pitch': 0.97, 'roll': -2.31}
{'lipoC2': 7.72, 'temp': 28.88, 'lipoC3S3': 11.21, 'state': 'normal', 'rot1': 54, 'rot0': 53, 'rot3': 11, 'rot2': 9, 'depth': 0.241, 'yaw': -0.02, 'datetime': '2018-11-05 15:41:51.984181', 'mgs': 0, 'flw2': 2.09, 'flw1': 2.34, 'flw0': 2.06, 'time': 19.08, 'pitch': 0.97, 'roll': -2.32}
{'lipoC2': 7.71, 'temp': 28.81, 'lipoC3S3': 11.22, 'state': 'normal', 'rot1': 57, 'rot0': 56, 'rot3': 12, 'rot2': 10, 'depth': 1.157, 'yaw': -0.02, 'datetime': '2018-11-05 15:41:52.004651', 'mgs': 0, 'flw2': 2.44, 'flw1': 2.96, 'flw0': 2.44, 'time': 19.18, 'pitch': 0.97, 'roll': -2.32}
{'lipoC2': 7.71, 'temp': 28.81, 'lipoC3S3': 11.23, 'state': 'normal', 'rot1': 59, 'rot0': 58, 'rot3': 12, 'rot2': 10, 'depth': 0.012, 'yaw': -0.0, 'datetime': '2018-11-05 15:41:52.025127', 'mgs': 0, 'flw2': 2.65, 'flw1': 3.31, 'flw0': 2.84, 'time': 19.29, 'pitch': 0.99, 'roll': -2.33}
{'lipoC2': 7.71, 'temp': 28.81, 'lipoC3S3': 11.06, 'state': 'normal', 'rot1': 62, 'rot0': 62, 'rot3': 13, 'rot2': 11, 'depth': 0.012, 'yaw': -0.01, 'datetime': '2018-11-05 15:41:52.045559', 'mgs': 0, 'flw2': 2.98, 'flw1': 3.22, 'flw0': 2.98, 'time': 19.39, 'pitch': 0.99, 'roll': -2.34}
{'lipoC2': 7.72, 'temp': 28.81, 'lipoC3S3': 11.17, 'state': 'normal', 'rot1': 66, 'rot0': 65, 'rot3': 14, 'rot2': 11, 'depth': 0.623, 'yaw': -0.0, 'datetime': '2018-11-05 15:41:52.066331', 'mgs': 0, 'flw2': 3.65, 'flw1': 3.49, 'flw0': 3.03, 'time': 19.49, 'pitch': 0.99, 'roll': -2.34}
{'lipoC2': 7.71, 'temp': 28.81, 'lipoC3S3': 11.25, 'state': 'normal', 'rot1': 69, 'rot0': 69, 'rot3': 15, 'rot2': 12, 'depth': 1.004, 'yaw': -0.0, 'datetime': '2018-11-05 15:41:52.086901', 'mgs': 0, 'flw2': 3.1, 'flw1': 3.63, 'flw0': 3.36, 'time': 19.6, 'pitch': 0.98, 'roll': -2.36}
{'lipoC2': 7.71, 'temp': 28.88, 'lipoC3S3': 11.1, 'state': 'normal', 'rot1': 74, 'rot0': 74, 'rot3': 15, 'rot2': 12, 'depth': 0.089, 'yaw': 0.01, 'datetime': '2018-11-05 15:41:52.107383', 'mgs': 0, 'flw2': 3.1, 'flw1': 3.43, 'flw0': 3.47, 'time': 19.7, 'pitch': 1.0, 'roll': -2.34}
{'lipoC2': 7.71, 'temp': 28.88, 'lipoC3S3': 11.09, 'state': 'normal', 'rot1': 78, 'rot0': 78, 'rot3': 16, 'rot2': 13, 'depth': 0.546, 'yaw': 0.02, 'datetime': '2018-11-05 15:41:52.127823', 'mgs': 0, 'flw2': 3.11, 'flw1': 3.49, 'flw0': 3.5, 'time': 19.81, 'pitch': 0.99, 'roll': -2.33}
{'lipoC2': 7.71, 'temp': 28.81, 'lipoC3S3': 11.21, 'state': 'normal', 'rot1': 83, 'rot0': 83, 'rot3': 17, 'rot2': 14, 'depth': 0.47, 'yaw': 0.01, 'datetime': '2018-11-05 15:41:52.148317', 'mgs': 0, 'flw2': 3.11, 'flw1': 3.22, 'flw0': 3.39, 'time': 19.91, 'pitch': 1.0, 'roll': -2.32}
{'lipoC2': 7.72, 'temp': 28.81, 'lipoC3S3': 11.17, 'state': 'normal', 'rot1': 88, 'rot0': 88, 'rot3': 18, 'rot2': 14, 'depth': 0.241, 'yaw': 0.02, 'datetime': '2018-11-05 15:41:52.168783', 'mgs': 0, 'flw2': 3.14, 'flw1': 3.54, 'flw0': 3.47, 'time': 20.01, 'pitch': 1.0, 'roll': -2.3}
{'lipoC3S3': 11.3, 'datetime': '2018-11-05 15:41:52.190804', 'pitch': 1.01, 'rot1': 0, 'rot0': 25, 'rot3': 0, 'rot2': 5, 'flw1': 0.0, 'flw2': 0.0, 'state': 'normal', 'flw0': 0.0, 'duty1': 0, 'duty0': 0, 'duty3': 0, 'duty2': 0, 'roll': -2.31, 'mgs': 0, 'lipoC2': 7.7, 'temp': 28.81, 'depth': -0.14, 'time': 4.03, 'yaw': 0.0}
{'lipoC3S3': 11.26, 'datetime': '2018-11-05 15:41:52.853142', 'pitch': 1.01, 'rot1': 0, 'rot0': 71, 'rot3': 0, 'rot2': 15, 'flw1': 0.73, 'flw2': 1.16, 'state': 'normal', 'flw0': 0.0, 'duty1': 0, 'duty0': 0, 'duty3': 0, 'duty2': 0, 'roll': -2.31, 'mgs': 0, 'lipoC2': 7.71, 'temp': 28.81, 'depth': -0.217, 'time': 6.91, 'yaw': 0.0}
