{'lipoC2': 7.59, 'temp': 26.38, 'lipoC3S3': 12.02, 'state': 'normal', 'rot1': 0, 'rot0': 0, 'rot3': 0, 'rot2': 0, 'depth': -0.14, 'yaw': 0.0, 'datetime': '2018-11-13 15:36:34.746336', 'mgs': 0, 'flw2': 0.0, 'flw1': 0.0, 'flw0': 0.0, 'time': 1.26, 'pitch': -0.94, 'roll': -2.18}
{'lipoC2': 7.59, 'temp': 26.38, 'lipoC3S3': 12.02, 'state': 'normal', 'rot1': 0, 'rot0': 0, 'rot3': 0, 'rot2': 0, 'depth': -0.217, 'yaw': 0.0, 'datetime': '2018-11-13 15:36:34.950709', 'mgs': 0, 'flw2': 0.0, 'flw1': 0.0, 'flw0': 0.0, 'time': 1.47, 'pitch': -0.94, 'roll': -2.18}
{'lipoC2': 7.59, 'temp': 26.38, 'lipoC3S3': 12.02, 'state': 'normal', 'rot1': 0, 'rot0': 0, 'rot3': 0, 'rot2': 0, 'depth': -0.217, 'yaw': 0.0, 'datetime': '2018-11-13 15:36:35.162601', 'mgs': 0, 'flw2': 0.0, 'flw1': 0.0, 'flw0': 0.0, 'time': 1.67, 'pitch': -0.94, 'roll': -2.18}
{'lipoC2': 7.59, 'temp': 26.44, 'lipoC3S3': 12.02, 'state': 'normal', 'rot1': 0, 'rot0': 0, 'rot3': 0, 'rot2': 0, 'depth': -0.217, 'yaw': 0.0, 'datetime': '2018-11-13 15:36:35.464845', 'mgs': 0, 'flw2': 0.0, 'flw1': 0.0, 'flw0': 0.0, 'time': 1.98, 'pitch': -0.94, 'roll': -2.18}
{'lipoC2': 7.59, 'temp': 26.44, 'lipoC3S3': 12.02, 'state': 'normal', 'rot1': 0, 'rot0': 0, 'rot3': 0, 'rot2': 0, 'depth': -0.14, 'yaw': 0.0, 'datetime': '2018-11-13 15:36:35.668969', 'mgs': 0, 'flw2': 0.0, 'flw1': 0.0, 'flw0': 0.0, 'time': 2.18, 'pitch': -0.94, 'roll': -2.18}
{'lipoC2': 7.59, 'temp': 26.44, 'lipoC3S3': 12.02, 'state': 'normal', 'rot1': 0, 'rot0': 0, 'rot3': 0, 'rot2': 0, 'depth': -0.217, 'yaw': 0.0, 'datetime': '2018-11-13 15:36:35.874745', 'mgs': 0, 'flw2': 0.0, 'flw1': 0.0, 'flw0': 0.0, 'time': 2.39, 'pitch': -0.94, 'roll': -2.18}
{'lipoC2': 7.59, 'temp': 26.38, 'lipoC3S3': 12.02, 'state': 'normal', 'rot1': 0, 'rot0': 0, 'rot3': 0, 'rot2': 0, 'depth': -0.217, 'yaw': 0.0, 'datetime': '2018-11-13 15:36:36.079846', 'mgs': 0, 'flw2': 0.0, 'flw1': 0.0, 'flw0': 0.0, 'time': 2.6, 'pitch': -0.94, 'roll': -2.18}
{'lipoC2': 7.59, 'temp': 26.38, 'lipoC3S3': 12.02, 'state': 'normal', 'rot1': 0, 'rot0': 0, 'rot3': 0, 'rot2': 0, 'depth': -0.14, 'yaw': 0.0, 'datetime': '2018-11-13 15:36:36.285673', 'mgs': 0, 'flw2': 0.0, 'flw1': 0.0, 'flw0': 0.0, 'time': 2.8, 'pitch': -0.94, 'roll': -2.18}
{'lipoC2': 7.59, 'temp': 26.44, 'lipoC3S3': 12.02, 'state': 'normal', 'rot1': 0, 'rot0': 0, 'rot3': 0, 'rot2': 0, 'depth': -0.14, 'yaw': 0.0, 'datetime': '2018-11-13 15:36:36.490708', 'mgs': 0, 'flw2': 0.0, 'flw1': 0.0, 'flw0': 0.0, 'time': 3.01, 'pitch': -0.94, 'roll': -2.18}
{'lipoC2': 7.59, 'temp': 26.44, 'lipoC3S3': 12.02, 'state': 'normal', 'rot1': 0, 'rot0': 0, 'rot3': 0, 'rot2': 0, 'depth': -0.14, 'yaw': 0.0, 'datetime': '2018-11-13 15:36:36.696738', 'mgs': 0, 'flw2': 0.0, 'flw1': 0.0, 'flw0': 0.0, 'time': 3.21, 'pitch': -0.94, 'roll': -2.18}
{'lipoC2': 7.59, 'temp': 26.38, 'lipoC3S3': 12.02, 'state': 'normal', 'rot1': 0, 'rot0': 0, 'rot3': 0, 'rot2': 0, 'depth': -0.217, 'yaw': 0.0, 'datetime': '2018-11-13 15:36:36.901907', 'mgs': 0, 'flw2': 0.0, 'flw1': 0.0, 'flw0': 0.0, 'time': 3.42, 'pitch': -0.94, 'roll': -2.18}
{'lipoC2': 7.59, 'temp': 26.38, 'lipoC3S3': 12.02, 'state': 'normal', 'rot1': 0, 'rot0': 0, 'rot3': 0, 'rot2': 0, 'depth': -0.14, 'yaw': 0.0, 'datetime': '2018-11-13 15:36:37.107757', 'mgs': 0, 'flw2': 0.0, 'flw1': 0.0, 'flw0': 0.0, 'time': 3.62, 'pitch': -0.94, 'roll': -2.18}
{'lipoC2': 7.59, 'temp': 26.38, 'lipoC3S3': 12.02, 'state': 'normal', 'rot1': 0, 'rot0': 0, 'rot3': 0, 'rot2': 0, 'depth': -0.217, 'yaw': 0.0, 'datetime': '2018-11-13 15:36:37.312505', 'mgs': 0, 'flw2': 0.0, 'flw1': 0.0, 'flw0': 0.0, 'time': 3.83, 'pitch': -0.94, 'roll': -2.18}
{'lipoC2': 7.59, 'temp': 26.44, 'lipoC3S3': 12.02, 'state': 'normal', 'rot1': 0, 'rot0': 0, 'rot3': 0, 'rot2': 0, 'depth': -0.217, 'yaw': 0.0, 'datetime': '2018-11-13 15:36:37.518296', 'mgs': 0, 'flw2': 0.0, 'flw1': 0.0, 'flw0': 0.0, 'time': 4.03, 'pitch': -0.94, 'roll': -2.18}
{'lipoC2': 7.59, 'temp': 26.44, 'lipoC3S3': 12.02, 'state': 'normal', 'rot1': 0, 'rot0': 0, 'rot3': 0, 'rot2': 0, 'depth': -0.217, 'yaw': 0.0, 'datetime': '2018-11-13 15:36:37.722917', 'mgs': 0, 'flw2': 0.0, 'flw1': 0.0, 'flw0': 0.0, 'time': 4.24, 'pitch': -0.94, 'roll': -2.18}
{'lipoC2': 7.59, 'temp': 26.38, 'lipoC3S3': 12.02, 'state': 'normal', 'rot1': 0, 'rot0': 0, 'rot3': 0, 'rot2': 0, 'depth': -0.217, 'yaw': 0.0, 'datetime': '2018-11-13 15:36:37.930598', 'mgs': 0, 'flw2': 0.0, 'flw1': 0.0, 'flw0': 0.0, 'time': 4.44, 'pitch': -0.94, 'roll': -2.18}
{'lipoC2': 7.59, 'temp': 26.38, 'lipoC3S3': 12.02, 'state': 'normal', 'rot1': 0, 'rot0': 0, 'rot3': 0, 'rot2': 0, 'depth': -0.217, 'yaw': 0.01, 'datetime': '2018-11-13 15:36:38.136989', 'mgs': 0, 'flw2': 0.0, 'flw1': 0.0, 'flw0': 0.0, 'time': 4.65, 'pitch': -0.94, 'roll': -2.19}
{'lipoC2': 7.59, 'temp': 26.38, 'lipoC3S3': 12.02, 'state': 'normal', 'rot1': 0, 'rot0': 0, 'rot3': 0, 'rot2': 0, 'depth': -0.217, 'yaw': 0.88, 'datetime': '2018-11-13 15:36:38.343391', 'mgs': 0, 'flw2': 0.0, 'flw1': 0.0, 'flw0': 0.0, 'time': 4.86, 'pitch': -0.9, 'roll': -2.22}
{'lipoC2': 7.59, 'temp': 26.38, 'lipoC3S3': 12.04, 'state': 'normal', 'rot1': 0, 'rot0': 0, 'rot3': 0, 'rot2': 0, 'depth': -0.217, 'yaw': 3.7, 'datetime': '2018-11-13 15:36:38.548330', 'mgs': 0, 'flw2': 0.0, 'flw1': 0.0, 'flw0': 0.0, 'time': 5.06, 'pitch': -0.92, 'roll': -2.26}
{'lipoC2': 7.59, 'temp': 26.38, 'lipoC3S3': 12.02, 'state': 'normal', 'rot1': 0, 'rot0': 0, 'rot3': 0, 'rot2': 0, 'depth': -0.14, 'yaw': 7.46, 'datetime': '2018-11-13 15:36:38.752164', 'mgs': 0, 'flw2': 0.0, 'flw1': 0.0, 'flw0': 0.0, 'time': 5.27, 'pitch': -0.97, 'roll': -2.33}
{'lipoC2': 7.59, 'temp': 26.38, 'lipoC3S3': 11.97, 'state': 'normal', 'rot1': 0, 'rot0': 0, 'rot3': 0, 'rot2': 0, 'depth': -0.217, 'yaw': 10.68, 'datetime': '2018-11-13 15:36:38.958768', 'mgs': 0, 'flw2': 0.27, 'flw1': 0.0, 'flw0': 0.34, 'time': 5.47, 'pitch': -0.97, 'roll': -2.39}
{'lipoC2': 7.59, 'temp': 26.38, 'lipoC3S3': 12.01, 'state': 'normal', 'rot1': 1, 'rot0': 1, 'rot3': 0, 'rot2': 0, 'depth': -0.14, 'yaw': 13.24, 'datetime': '2018-11-13 15:36:39.162957', 'mgs': 0, 'flw2': 0.27, 'flw1': 0.0, 'flw0': 0.33, 'time': 5.68, 'pitch': -0.96, 'roll': -2.42}
{'lipoC2': 7.59, 'temp': 26.38, 'lipoC3S3': 11.96, 'state': 'normal', 'rot1': 2, 'rot0': 3, 'rot3': 0, 'rot2': 0, 'depth': -0.14, 'yaw': 13.27, 'datetime': '2018-11-13 15:36:39.369907', 'mgs': 0, 'flw2': 0.27, 'flw1': 0.0, 'flw0': 0.32, 'time': 5.89, 'pitch': -0.96, 'roll': -2.42}
{'lipoC2': 7.59, 'temp': 26.31, 'lipoC3S3': 12.02, 'state': 'normal', 'rot1': 3, 'rot0': 4, 'rot3': 0, 'rot2': 0, 'depth': -0.14, 'yaw': 13.27, 'datetime': '2018-11-13 15:36:39.571699', 'mgs': 0, 'flw2': 0.28, 'flw1': 0.0, 'flw0': 0.34, 'time': 6.09, 'pitch': -0.96, 'roll': -2.43}
{'lipoC2': 7.59, 'temp': 26.31, 'lipoC3S3': 12.01, 'state': 'normal', 'rot1': 4, 'rot0': 5, 'rot3': 0, 'rot2': 0, 'depth': -0.14, 'yaw': 13.27, 'datetime': '2018-11-13 15:36:39.775308', 'mgs': 0, 'flw2': 0.27, 'flw1': 0.0, 'flw0': 0.31, 'time': 6.3, 'pitch': -0.96, 'roll': -2.43}
{'lipoC2': 7.59, 'temp': 26.44, 'lipoC3S3': 12.01, 'state': 'normal', 'rot1': 5, 'rot0': 6, 'rot3': 0, 'rot2': 0, 'depth': -0.14, 'yaw': 13.25, 'datetime': '2018-11-13 15:36:39.981840', 'mgs': 0, 'flw2': 0.26, 'flw1': 0.0, 'flw0': 0.32, 'time': 6.5, 'pitch': -0.98, 'roll': -2.44}
{'lipoC2': 7.59, 'temp': 26.44, 'lipoC3S3': 12.02, 'state': 'normal', 'rot1': 6, 'rot0': 7, 'rot3': 0, 'rot2': 0, 'depth': -0.217, 'yaw': 11.13, 'datetime': '2018-11-13 15:36:40.184781', 'mgs': 0, 'flw2': 0.26, 'flw1': 0.0, 'flw0': 0.29, 'time': 6.71, 'pitch': -0.98, 'roll': -2.38}
{'lipoC2': 7.59, 'temp': 26.31, 'lipoC3S3': 12.02, 'state': 'normal', 'rot1': 7, 'rot0': 8, 'rot3': 0, 'rot2': 0, 'depth': -0.217, 'yaw': 5.08, 'datetime': '2018-11-13 15:36:40.388924', 'mgs': 0, 'flw2': 0.28, 'flw1': 0.0, 'flw0': 0.32, 'time': 6.91, 'pitch': -0.91, 'roll': -2.28}
{'lipoC2': 7.59, 'temp': 26.44, 'lipoC3S3': 12.02, 'state': 'normal', 'rot1': 8, 'rot0': 9, 'rot3': 0, 'rot2': 0, 'depth': -0.217, 'yaw': -2.24, 'datetime': '2018-11-13 15:36:40.596946', 'mgs': 0, 'flw2': 0.0, 'flw1': 0.0, 'flw0': 0.0, 'time': 7.12, 'pitch': -0.79, 'roll': -2.14}
{'lipoC2': 7.59, 'temp': 26.38, 'lipoC3S3': 12.02, 'state': 'normal', 'rot1': 8, 'rot0': 9, 'rot3': 0, 'rot2': 0, 'depth': -0.14, 'yaw': -7.73, 'datetime': '2018-11-13 15:36:40.801569', 'mgs': 0, 'flw2': 0.0, 'flw1': 0.0, 'flw0': 0.0, 'time': 7.32, 'pitch': -0.65, 'roll': -2.05}
{'lipoC2': 7.59, 'temp': 26.38, 'lipoC3S3': 12.0, 'state': 'normal', 'rot1': 8, 'rot0': 9, 'rot3': 0, 'rot2': 0, 'depth': -0.217, 'yaw': -13.65, 'datetime': '2018-11-13 15:36:41.007519', 'mgs': 0, 'flw2': 0.44, 'flw1': 0.0, 'flw0': 0.44, 'time': 7.53, 'pitch': -0.47, 'roll': -2.0}
