{'lipoC3S3': 12.02, 'datetime': '2018-11-13 15:43:47.829615', 'pitch': -0.97, 'rot1': 0, 'rot0': 0, 'rot3': 0, 'rot2': 0, 'flw1': 0.0, 'flw2': 0.0, 'state': 'normal', 'flw0': 0.0, 'duty1': 1919, 'duty0': 1513, 'duty3': 1513, 'duty2': 1511, 'roll': -2.28, 'mgs': 0, 'lipoC2': 7.58, 'temp': 26.69, 'depth': -0.14, 'time': 4.12, 'yaw': 0.0}
{'lipoC3S3': 12.02, 'datetime': '2018-11-13 15:43:48.160473', 'pitch': -0.97, 'rot1': 0, 'rot0': 0, 'rot3': 0, 'rot2': 0, 'flw1': 0.0, 'flw2': 0.0, 'state': 'normal', 'flw0': 0.0, 'duty1': 1920, 'duty0': 1507, 'duty3': 1506, 'duty2': 1511, 'roll': -2.28, 'mgs': 0, 'lipoC2': 7.58, 'temp': 26.63, 'depth': -0.14, 'time': 4.45, 'yaw': 0.0}
{'lipoC3S3': 12.02, 'datetime': '2018-11-13 15:43:48.493593', 'pitch': -0.97, 'rot1': 0, 'rot0': 0, 'rot3': 0, 'rot2': 0, 'flw1': 0.0, 'flw2': 0.0, 'state': 'normal', 'flw0': 0.0, 'duty1': 1920, 'duty0': 1512, 'duty3': 1513, 'duty2': 1518, 'roll': -2.28, 'mgs': 0, 'lipoC2': 7.58, 'temp': 26.69, 'depth': -0.217, 'time': 4.79, 'yaw': 0.0}
{'lipoC3S3': 12.02, 'datetime': '2018-11-13 15:43:48.825014', 'pitch': -0.97, 'rot1': 0, 'rot0': 0, 'rot3': 0, 'rot2': 0, 'flw1': 0.0, 'flw2': 0.0, 'state': 'normal', 'flw0': 0.0, 'duty1': 1919, 'duty0': 1513, 'duty3': 1507, 'duty2': 1511, 'roll': -2.28, 'mgs': 0, 'lipoC2': 7.58, 'temp': 26.69, 'depth': -0.14, 'time': 5.12, 'yaw': 0.0}
{'lipoC3S3': 12.02, 'datetime': '2018-11-13 15:43:49.155626', 'pitch': -0.97, 'rot1': 0, 'rot0': 0, 'rot3': 0, 'rot2': 0, 'flw1': 0.0, 'flw2': 0.0, 'state': 'normal', 'flw0': 0.0, 'duty1': 1919, 'duty0': 1506, 'duty3': 1512, 'duty2': 1516, 'roll': -2.28, 'mgs': 0, 'lipoC2': 7.57, 'temp': 26.69, 'depth': -0.217, 'time': 5.45, 'yaw': 0.0}
{'lipoC3S3': 12.02, 'datetime': '2018-11-13 15:43:49.491410', 'pitch': -0.97, 'rot1': 0, 'rot0': 0, 'rot3': 0, 'rot2': 0, 'flw1': 0.0, 'flw2': 0.0, 'state': 'normal', 'flw0': 0.0, 'duty1': 1926, 'duty0': 1513, 'duty3': 1513, 'duty2': 1510, 'roll': -2.28, 'mgs': 0, 'lipoC2': 7.58, 'temp': 26.69, 'depth': -0.14, 'time': 5.78, 'yaw': 0.0}
{'lipoC3S3': 12.02, 'datetime': '2018-11-13 15:43:49.815502', 'pitch': -0.97, 'rot1': 0, 'rot0': 0, 'rot3': 0, 'rot2': 0, 'flw1': 0.0, 'flw2': 0.0, 'state': 'normal', 'flw0': 0.0, 'duty1': 1920, 'duty0': 1506, 'duty3': 1506, 'duty2': 1517, 'roll': -2.28, 'mgs': 0, 'lipoC2': 7.58, 'temp': 26.69, 'depth': -0.14, 'time': 6.11, 'yaw': 0.0}
{'lipoC3S3': 12.02, 'datetime': '2018-11-13 15:43:50.146385', 'pitch': -0.97, 'rot1': 0, 'rot0': 0, 'rot3': 0, 'rot2': 0, 'flw1': 0.0, 'flw2': 0.0, 'state': 'normal', 'flw0': 0.0, 'duty1': 1920, 'duty0': 1513, 'duty3': 1512, 'duty2': 1511, 'roll': -2.28, 'mgs': 0, 'lipoC2': 7.58, 'temp': 26.63, 'depth': -0.217, 'time': 6.44, 'yaw': 0.0}
{'lipoC3S3': 12.02, 'datetime': '2018-11-13 15:43:50.476093', 'pitch': -0.97, 'rot1': 0, 'rot0': 0, 'rot3': 0, 'rot2': 0, 'flw1': 0.0, 'flw2': 0.0, 'state': 'normal', 'flw0': 0.0, 'duty1': 1919, 'duty0': 1506, 'duty3': 1506, 'duty2': 1518, 'roll': -2.28, 'mgs': 0, 'lipoC2': 7.58, 'temp': 26.69, 'depth': -0.14, 'time': 6.77, 'yaw': 0.0}
{'lipoC3S3': 12.02, 'datetime': '2018-11-13 15:43:50.806736', 'pitch': -0.97, 'rot1': 0, 'rot0': 0, 'rot3': 0, 'rot2': 0, 'flw1': 0.0, 'flw2': 0.0, 'state': 'normal', 'flw0': 0.0, 'duty1': 1919, 'duty0': 1513, 'duty3': 1513, 'duty2': 1510, 'roll': -2.28, 'mgs': 0, 'lipoC2': 7.58, 'temp': 26.69, 'depth': -0.217, 'time': 7.1, 'yaw': 0.0}
{'lipoC3S3': 12.02, 'datetime': '2018-11-13 15:43:51.140662', 'pitch': -0.97, 'rot1': 0, 'rot0': 0, 'rot3': 0, 'rot2': 0, 'flw1': 0.0, 'flw2': 0.0, 'state': 'normal', 'flw0': 0.0, 'duty1': 1919, 'duty0': 1506, 'duty3': 1509, 'duty2': 1516, 'roll': -2.28, 'mgs': 0, 'lipoC2': 7.58, 'temp': 26.63, 'depth': -0.14, 'time': 7.44, 'yaw': 0.0}
{'lipoC3S3': 12.02, 'datetime': '2018-11-13 15:43:51.470934', 'pitch': -0.97, 'rot1': 0, 'rot0': 0, 'rot3': 0, 'rot2': 0, 'flw1': 0.0, 'flw2': 0.0, 'state': 'normal', 'flw0': 0.0, 'duty1': 1463, 'duty0': 1513, 'duty3': 1515, 'duty2': 1517, 'roll': -2.28, 'mgs': 0, 'lipoC2': 7.58, 'temp': 26.69, 'depth': -0.14, 'time': 7.77, 'yaw': 0.0}
{'lipoC3S3': 12.02, 'datetime': '2018-11-13 15:43:51.802590', 'pitch': -0.97, 'rot1': 0, 'rot0': 0, 'rot3': 0, 'rot2': 0, 'flw1': 0.0, 'flw2': 0.0, 'state': 'normal', 'flw0': 0.0, 'duty1': 1449, 'duty0': 1506, 'duty3': 1509, 'duty2': 1510, 'roll': -2.28, 'mgs': 0, 'lipoC2': 7.58, 'temp': 26.75, 'depth': -0.14, 'time': 8.1, 'yaw': 0.0}
{'lipoC3S3': 12.02, 'datetime': '2018-11-13 15:43:52.132751', 'pitch': -0.97, 'rot1': 0, 'rot0': 0, 'rot3': 0, 'rot2': 0, 'flw1': 0.0, 'flw2': 0.0, 'state': 'normal', 'flw0': 0.0, 'duty1': 1390, 'duty0': 1513, 'duty3': 1512, 'duty2': 1518, 'roll': -2.28, 'mgs': 0, 'lipoC2': 7.58, 'temp': 26.69, 'depth': -0.217, 'time': 8.43, 'yaw': 0.0}
{'lipoC3S3': 12.02, 'datetime': '2018-11-13 15:43:52.464272', 'pitch': -0.97, 'rot1': 0, 'rot0': 0, 'rot3': 0, 'rot2': 0, 'flw1': 0.0, 'flw2': 0.0, 'state': 'normal', 'flw0': 0.0, 'duty1': 1370, 'duty0': 1512, 'duty3': 1510, 'duty2': 1511, 'roll': -2.28, 'mgs': 0, 'lipoC2': 7.58, 'temp': 26.69, 'depth': -0.14, 'time': 8.76, 'yaw': 0.0}
{'lipoC3S3': 12.02, 'datetime': '2018-11-13 15:43:52.794747', 'pitch': -0.97, 'rot1': 0, 'rot0': 0, 'rot3': 0, 'rot2': 0, 'flw1': 0.0, 'flw2': 0.0, 'state': 'normal', 'flw0': 0.0, 'duty1': 1298, 'duty0': 1506, 'duty3': 1513, 'duty2': 1516, 'roll': -2.28, 'mgs': 0, 'lipoC2': 7.58, 'temp': 26.69, 'depth': -0.14, 'time': 9.09, 'yaw': 0.0}
{'lipoC3S3': 12.02, 'datetime': '2018-11-13 15:43:53.124962', 'pitch': -0.97, 'rot1': 0, 'rot0': 0, 'rot3': 0, 'rot2': 0, 'flw1': 0.0, 'flw2': 0.0, 'state': 'normal', 'flw0': 0.0, 'duty1': 1495, 'duty0': 1512, 'duty3': 1513, 'duty2': 1509, 'roll': -2.28, 'mgs': 0, 'lipoC2': 7.58, 'temp': 26.75, 'depth': -0.14, 'time': 9.42, 'yaw': 0.0}
{'lipoC3S3': 12.04, 'datetime': '2018-11-13 15:43:53.453307', 'pitch': -0.97, 'rot1': 0, 'rot0': 0, 'rot3': 0, 'rot2': 0, 'flw1': 0.0, 'flw2': 0.0, 'state': 'normal', 'flw0': 0.0, 'duty1': 1506, 'duty0': 1506, 'duty3': 1507, 'duty2': 1516, 'roll': -2.28, 'mgs': 0, 'lipoC2': 7.58, 'temp': 26.69, 'depth': -0.217, 'time': 9.75, 'yaw': 0.0}
{'lipoC3S3': 12.02, 'datetime': '2018-11-13 15:43:53.785354', 'pitch': -0.97, 'rot1': 0, 'rot0': 0, 'rot3': 0, 'rot2': 0, 'flw1': 0.0, 'flw2': 0.0, 'state': 'normal', 'flw0': 0.0, 'duty1': 1499, 'duty0': 1513, 'duty3': 1513, 'duty2': 1509, 'roll': -2.28, 'mgs': 0, 'lipoC2': 7.58, 'temp': 26.69, 'depth': -0.14, 'time': 10.09, 'yaw': 0.0}
{'lipoC3S3': 12.02, 'datetime': '2018-11-13 15:43:54.117951', 'pitch': -0.97, 'rot1': 0, 'rot0': 0, 'rot3': 0, 'rot2': 0, 'flw1': 0.0, 'flw2': 0.0, 'state': 'normal', 'flw0': 0.0, 'duty1': 1505, 'duty0': 1506, 'duty3': 1506, 'duty2': 1516, 'roll': -2.28, 'mgs': 0, 'lipoC2': 7.58, 'temp': 26.63, 'depth': -0.217, 'time': 10.42, 'yaw': 0.0}
{'lipoC3S3': 12.02, 'datetime': '2018-11-13 15:43:54.449434', 'pitch': -0.97, 'rot1': 0, 'rot0': 0, 'rot3': 0, 'rot2': 0, 'flw1': 0.0, 'flw2': 0.0, 'state': 'normal', 'flw0': 0.0, 'duty1': 1499, 'duty0': 1513, 'duty3': 1512, 'duty2': 1509, 'roll': -2.28, 'mgs': 0, 'lipoC2': 7.58, 'temp': 26.63, 'depth': -0.14, 'time': 10.75, 'yaw': 0.0}
{'lipoC3S3': 12.02, 'datetime': '2018-11-13 15:43:54.779832', 'pitch': -0.97, 'rot1': 0, 'rot0': 0, 'rot3': 0, 'rot2': 0, 'flw1': 0.0, 'flw2': 0.0, 'state': 'normal', 'flw0': 0.0, 'duty1': 1506, 'duty0': 1506, 'duty3': 1506, 'duty2': 1517, 'roll': -2.28, 'mgs': 0, 'lipoC2': 7.58, 'temp': 26.63, 'depth': -0.14, 'time': 11.08, 'yaw': 0.0}
{'lipoC3S3': 12.02, 'datetime': '2018-11-13 15:43:55.111292', 'pitch': -0.97, 'rot1': 0, 'rot0': 0, 'rot3': 0, 'rot2': 0, 'flw1': 0.0, 'flw2': 0.0, 'state': 'normal', 'flw0': 0.0, 'duty1': 1499, 'duty0': 1513, 'duty3': 1513, 'duty2': 1516, 'roll': -2.28, 'mgs': 0, 'lipoC2': 7.58, 'temp': 26.63, 'depth': -0.14, 'time': 11.41, 'yaw': 0.0}
{'lipoC3S3': 12.02, 'datetime': '2018-11-13 15:43:55.445657', 'pitch': -0.97, 'rot1': 0, 'rot0': 0, 'rot3': 0, 'rot2': 0, 'flw1': 0.0, 'flw2': 0.0, 'state': 'normal', 'flw0': 0.0, 'duty1': 1505, 'duty0': 1507, 'duty3': 1506, 'duty2': 1511, 'roll': -2.28, 'mgs': 0, 'lipoC2': 7.58, 'temp': 26.69, 'depth': -0.14, 'time': 11.74, 'yaw': 0.0}
{'lipoC3S3': 12.02, 'datetime': '2018-11-13 15:43:55.775758', 'pitch': -0.97, 'rot1': 0, 'rot0': 0, 'rot3': 0, 'rot2': 0, 'flw1': 0.0, 'flw2': 0.0, 'state': 'normal', 'flw0': 0.0, 'duty1': 1499, 'duty0': 1507, 'duty3': 1512, 'duty2': 1518, 'roll': -2.28, 'mgs': 0, 'lipoC2': 7.58, 'temp': 26.63, 'depth': -0.14, 'time': 12.07, 'yaw': 0.0}
{'lipoC3S3': 12.02, 'datetime': '2018-11-13 15:43:56.107367', 'pitch': -0.97, 'rot1': 0, 'rot0': 0, 'rot3': 0, 'rot2': 0, 'flw1': 0.0, 'flw2': 0.0, 'state': 'normal', 'flw0': 0.0, 'duty1': 1505, 'duty0': 1513, 'duty3': 1507, 'duty2': 1510, 'roll': -2.28, 'mgs': 0, 'lipoC2': 7.58, 'temp': 26.75, 'depth': -0.14, 'time': 12.4, 'yaw': 0.0}
{'lipoC3S3': 12.02, 'datetime': '2018-11-13 15:43:56.433050', 'pitch': -0.97, 'rot1': 0, 'rot0': 0, 'rot3': 0, 'rot2': 0, 'flw1': 0.0, 'flw2': 0.0, 'state': 'normal', 'flw0': 0.0, 'duty1': 1499, 'duty0': 1506, 'duty3': 1511, 'duty2': 1516, 'roll': -2.28, 'mgs': 0, 'lipoC2': 7.57, 'temp': 26.69, 'depth': -0.217, 'time': 12.73, 'yaw': 0.0}
{'lipoC3S3': 12.02, 'datetime': '2018-11-13 15:43:56.762991', 'pitch': -0.97, 'rot1': 0, 'rot0': 0, 'rot3': 0, 'rot2': 0, 'flw1': 0.0, 'flw2': 0.0, 'state': 'normal', 'flw0': 0.0, 'duty1': 1537, 'duty0': 1513, 'duty3': 1513, 'duty2': 1509, 'roll': -2.28, 'mgs': 0, 'lipoC2': 7.58, 'temp': 26.63, 'depth': -0.217, 'time': 13.07, 'yaw': 0.0}
{'lipoC3S3': 12.01, 'datetime': '2018-11-13 15:43:57.099778', 'pitch': -0.97, 'rot1': 0, 'rot0': 0, 'rot3': 0, 'rot2': 0, 'flw1': 0.29, 'flw2': 0.0, 'state': 'normal', 'flw0': 0.0, 'duty1': 1641, 'duty0': 1507, 'duty3': 1506, 'duty2': 1516, 'roll': -2.28, 'mgs': 0, 'lipoC2': 7.58, 'temp': 26.69, 'depth': -0.064, 'time': 13.4, 'yaw': 0.0}
{'lipoC3S3': 12.01, 'datetime': '2018-11-13 15:43:57.431157', 'pitch': -0.97, 'rot1': 0, 'rot0': 0, 'rot3': 1, 'rot2': 1, 'flw1': 1.38, 'flw2': 0.0, 'state': 'normal', 'flw0': 0.0, 'duty1': 1727, 'duty0': 1513, 'duty3': 1513, 'duty2': 1510, 'roll': -2.28, 'mgs': 0, 'lipoC2': 7.57, 'temp': 26.63, 'depth': -0.14, 'time': 13.73, 'yaw': 0.0}
{'lipoC3S3': 12.01, 'datetime': '2018-11-13 15:43:57.761763', 'pitch': -0.97, 'rot1': 0, 'rot0': 0, 'rot3': 2, 'rot2': 2, 'flw1': 2.34, 'flw2': 0.0, 'state': 'normal', 'flw0': 0.0, 'duty1': 1884, 'duty0': 1506, 'duty3': 1506, 'duty2': 1516, 'roll': -2.28, 'mgs': 0, 'lipoC2': 7.58, 'temp': 26.75, 'depth': 0.241, 'time': 14.06, 'yaw': 0.0}
{'lipoC3S3': 11.94, 'datetime': '2018-11-13 15:43:58.096243', 'pitch': -0.97, 'rot1': 0, 'rot0': 0, 'rot3': 4, 'rot2': 3, 'flw1': 2.96, 'flw2': 0.0, 'state': 'normal', 'flw0': 0.0, 'duty1': 1920, 'duty0': 1512, 'duty3': 1512, 'duty2': 1509, 'roll': -2.28, 'mgs': 0, 'lipoC2': 7.58, 'temp': 26.63, 'depth': -0.217, 'time': 14.39, 'yaw': 0.0}
{'lipoC3S3': 11.98, 'datetime': '2018-11-13 15:43:58.423338', 'pitch': -0.97, 'rot1': 0, 'rot0': 0, 'rot3': 6, 'rot2': 4, 'flw1': 2.7, 'flw2': 0.0, 'state': 'normal', 'flw0': 0.0, 'duty1': 1892, 'duty0': 1506, 'duty3': 1509, 'duty2': 1516, 'roll': -2.28, 'mgs': 0, 'lipoC2': 7.58, 'temp': 26.69, 'depth': 0.012, 'time': 14.72, 'yaw': 0.0}
{'lipoC3S3': 12.01, 'datetime': '2018-11-13 15:43:58.754896', 'pitch': -0.97, 'rot1': 0, 'rot0': 0, 'rot3': 8, 'rot2': 5, 'flw1': 1.67, 'flw2': 0.0, 'state': 'normal', 'flw0': 0.0, 'duty1': 1666, 'duty0': 1512, 'duty3': 1516, 'duty2': 1518, 'roll': -2.28, 'mgs': 0, 'lipoC2': 7.57, 'temp': 26.69, 'depth': -0.14, 'time': 15.05, 'yaw': 0.0}
{'lipoC3S3': 12.02, 'datetime': '2018-11-13 15:43:59.085190', 'pitch': -0.97, 'rot1': 0, 'rot0': 0, 'rot3': 9, 'rot2': 6, 'flw1': 0.0, 'flw2': 0.0, 'state': 'normal', 'flw0': 0.0, 'duty1': 1393, 'duty0': 1513, 'duty3': 1509, 'duty2': 1509, 'roll': -2.28, 'mgs': 0, 'lipoC2': 7.57, 'temp': 26.69, 'depth': -0.14, 'time': 15.39, 'yaw': 0.0}
{'lipoC3S3': 11.98, 'datetime': '2018-11-13 15:43:59.416916', 'pitch': -0.97, 'rot1': 0, 'rot0': 0, 'rot3': 9, 'rot2': 7, 'flw1': 3.78, 'flw2': 0.0, 'state': 'normal', 'flw0': 0.0, 'duty1': 1105, 'duty0': 1506, 'duty3': 1516, 'duty2': 1516, 'roll': -2.28, 'mgs': 0, 'lipoC2': 7.58, 'temp': 26.63, 'depth': 0.241, 'time': 15.72, 'yaw': 0.0}
{'lipoC3S3': 12.0, 'datetime': '2018-11-13 15:43:59.747435', 'pitch': -0.97, 'rot1': 0, 'rot0': 0, 'rot3': 11, 'rot2': 8, 'flw1': 3.22, 'flw2': 0.0, 'state': 'normal', 'flw0': 0.0, 'duty1': 1372, 'duty0': 1512, 'duty3': 1507, 'duty2': 1510, 'roll': -2.28, 'mgs': 0, 'lipoC2': 7.58, 'temp': 26.69, 'depth': -0.217, 'time': 16.05, 'yaw': 0.0}
{'lipoC3S3': 12.0, 'datetime': '2018-11-13 15:44:00.078958', 'pitch': -0.97, 'rot1': 0, 'rot0': 0, 'rot3': 12, 'rot2': 9, 'flw1': 0.26, 'flw2': 0.0, 'state': 'normal', 'flw0': 0.0, 'duty1': 1857, 'duty0': 1506, 'duty3': 1507, 'duty2': 1516, 'roll': -2.28, 'mgs': 0, 'lipoC2': 7.58, 'temp': 26.69, 'depth': -0.14, 'time': 16.38, 'yaw': 0.0}
{'lipoC3S3': 11.98, 'datetime': '2018-11-13 15:44:00.409147', 'pitch': -0.97, 'rot1': 0, 'rot0': 0, 'rot3': 13, 'rot2': 10, 'flw1': 2.61, 'flw2': 0.0, 'state': 'normal', 'flw0': 0.0, 'duty1': 1920, 'duty0': 1512, 'duty3': 1513, 'duty2': 1511, 'roll': -2.28, 'mgs': 0, 'lipoC2': 7.57, 'temp': 26.69, 'depth': -0.14, 'time': 16.71, 'yaw': 0.0}
{'lipoC3S3': 12.0, 'datetime': '2018-11-13 15:44:00.740297', 'pitch': -0.97, 'rot1': 0, 'rot0': 0, 'rot3': 15, 'rot2': 11, 'flw1': 2.08, 'flw2': 0.0, 'state': 'normal', 'flw0': 0.0, 'duty1': 1675, 'duty0': 1506, 'duty3': 1509, 'duty2': 1518, 'roll': -2.28, 'mgs': 0, 'lipoC2': 7.58, 'temp': 26.69, 'depth': 0.012, 'time': 17.04, 'yaw': 0.0}
{'lipoC3S3': 12.01, 'datetime': '2018-11-13 15:44:01.071523', 'pitch': -0.97, 'rot1': 0, 'rot0': 0, 'rot3': 16, 'rot2': 12, 'flw1': 0.12, 'flw2': 0.0, 'state': 'normal', 'flw0': 0.0, 'duty1': 1559, 'duty0': 1512, 'duty3': 1516, 'duty2': 1509, 'roll': -2.28, 'mgs': 0, 'lipoC2': 7.58, 'temp': 26.63, 'depth': -0.217, 'time': 17.37, 'yaw': 0.0}
{'lipoC3S3': 12.01, 'datetime': '2018-11-13 15:44:01.395723', 'pitch': -0.97, 'rot1': 0, 'rot0': 0, 'rot3': 16, 'rot2': 12, 'flw1': 0.5, 'flw2': 0.0, 'state': 'normal', 'flw0': 0.0, 'duty1': 1199, 'duty0': 1506, 'duty3': 1509, 'duty2': 1515, 'roll': -2.28, 'mgs': 0, 'lipoC2': 7.58, 'temp': 26.69, 'depth': -0.217, 'time': 17.7, 'yaw': 0.0}
{'lipoC3S3': 11.98, 'datetime': '2018-11-13 15:44:01.726286', 'pitch': -0.97, 'rot1': 0, 'rot0': 0, 'rot3': 17, 'rot2': 13, 'flw1': 2.7, 'flw2': 0.0, 'state': 'normal', 'flw0': 0.0, 'duty1': 1158, 'duty0': 1513, 'duty3': 1516, 'duty2': 1509, 'roll': -2.28, 'mgs': 0, 'lipoC2': 7.58, 'temp': 26.63, 'depth': 0.012, 'time': 18.03, 'yaw': 0.0}
{'lipoC3S3': 12.01, 'datetime': '2018-11-13 15:44:02.064011', 'pitch': -0.97, 'rot1': 0, 'rot0': 0, 'rot3': 19, 'rot2': 14, 'flw1': 1.08, 'flw2': 0.0, 'state': 'normal', 'flw0': 0.0, 'duty1': 1460, 'duty0': 1506, 'duty3': 1507, 'duty2': 1509, 'roll': -2.28, 'mgs': 0, 'lipoC2': 7.57, 'temp': 26.63, 'depth': -0.14, 'time': 18.37, 'yaw': 0.0}
{'lipoC3S3': 12.01, 'datetime': '2018-11-13 15:44:02.394667', 'pitch': -0.97, 'rot1': 0, 'rot0': 0, 'rot3': 19, 'rot2': 14, 'flw1': 0.09, 'flw2': 0.0, 'state': 'normal', 'flw0': 0.0, 'duty1': 1552, 'duty0': 1512, 'duty3': 1514, 'duty2': 1516, 'roll': -2.28, 'mgs': 0, 'lipoC2': 7.57, 'temp': 26.69, 'depth': -0.14, 'time': 18.7, 'yaw': 0.0}
{'lipoC3S3': 12.01, 'datetime': '2018-11-13 15:44:02.725502', 'pitch': -0.97, 'rot1': 0, 'rot0': 0, 'rot3': 19, 'rot2': 14, 'flw1': 0.09, 'flw2': 0.0, 'state': 'normal', 'flw0': 0.0, 'duty1': 1559, 'duty0': 1512, 'duty3': 1507, 'duty2': 1509, 'roll': -2.28, 'mgs': 0, 'lipoC2': 7.58, 'temp': 26.69, 'depth': -0.14, 'time': 19.03, 'yaw': 0.0}
{'lipoC3S3': 12.01, 'datetime': '2018-11-13 15:44:03.056394', 'pitch': -0.97, 'rot1': 0, 'rot0': 0, 'rot3': 19, 'rot2': 14, 'flw1': 0.0, 'flw2': 0.0, 'state': 'normal', 'flw0': 0.0, 'duty1': 1552, 'duty0': 1506, 'duty3': 1513, 'duty2': 1517, 'roll': -2.28, 'mgs': 0, 'lipoC2': 7.57, 'temp': 26.69, 'depth': -0.14, 'time': 19.36, 'yaw': 0.0}
{'lipoC3S3': 12.02, 'datetime': '2018-11-13 15:44:03.387074', 'pitch': -0.97, 'rot1': 0, 'rot0': 0, 'rot3': 19, 'rot2': 14, 'flw1': 0.06, 'flw2': 0.0, 'state': 'normal', 'flw0': 0.0, 'duty1': 1558, 'duty0': 1512, 'duty3': 1514, 'duty2': 1509, 'roll': -2.28, 'mgs': 0, 'lipoC2': 7.58, 'temp': 26.69, 'depth': -0.217, 'time': 19.69, 'yaw': 0.0}
{'lipoC3S3': 12.02, 'datetime': '2018-11-13 15:44:03.718040', 'pitch': -0.97, 'rot1': 0, 'rot0': 0, 'rot3': 19, 'rot2': 14, 'flw1': 0.0, 'flw2': 0.0, 'state': 'normal', 'flw0': 0.0, 'duty1': 1552, 'duty0': 1507, 'duty3': 1506, 'duty2': 1518, 'roll': -2.28, 'mgs': 0, 'lipoC2': 7.57, 'temp': 26.69, 'depth': -0.14, 'time': 20.02, 'yaw': 0.0}
