{'lipoC2': 0.15, 'temp': 0.0, 'lipoC3S3': 12.18, 'state': 'normal', 'rot1': 0, 'rot0': 0, 'rot3': 0, 'rot2': 0, 'depth': 0.699, 'yaw': 0.03, 'datetime': '2018-12-18 18:08:01.985717', 'mgs': 0, 'flw2': 0.0, 'flw1': 0.47, 'flw0': 0.0, 'time': 1.25, 'compass': -72.36, 'pitch': -0.8, 'roll': 0.16}
{'lipoC2': 0.0, 'temp': 0.0, 'lipoC3S3': 12.37, 'state': 'normal', 'rot1': 0, 'rot0': 0, 'rot3': 0, 'rot2': 0, 'depth': 0.165, 'yaw': 0.68, 'datetime': '2018-12-18 18:08:02.192655', 'mgs': 0, 'flw2': 0.15, 'flw1': 0.0, 'flw0': 0.0, 'time': 1.46, 'compass': -71.71, 'pitch': -0.52, 'roll': 0.08}
{'lipoC2': 0.0, 'temp': 0.0, 'lipoC3S3': 12.34, 'state': 'normal', 'rot1': 0, 'rot0': 0, 'rot3': 0, 'rot2': 0, 'depth': 0.851, 'yaw': 1.35, 'datetime': '2018-12-18 18:08:02.400835', 'mgs': 0, 'flw2': 0.0, 'flw1': 0.32, 'flw0': 0.0, 'time': 1.67, 'compass': -71.04, 'pitch': -0.4, 'roll': 0.15}
{'lipoC2': 0.13, 'temp': 0.0, 'lipoC3S3': 12.19, 'state': 'normal', 'rot1': 0, 'rot0': 0, 'rot3': 0, 'rot2': 0, 'depth': 0.775, 'yaw': 2.03, 'datetime': '2018-12-18 18:08:02.608634', 'mgs': 0, 'flw2': 0.12, 'flw1': 0.0, 'flw0': 0.11, 'time': 1.88, 'compass': -70.36, 'pitch': -0.72, 'roll': 0.39}
{'lipoC2': 0.0, 'temp': 0.0, 'lipoC3S3': 12.22, 'state': 'normal', 'rot1': 0, 'rot0': 0, 'rot3': 0, 'rot2': 0, 'depth': -0.751, 'yaw': 2.72, 'datetime': '2018-12-18 18:08:02.818964', 'mgs': 0, 'flw2': 0.11, 'flw1': 0.0, 'flw0': 0.12, 'time': 2.09, 'compass': -69.67, 'pitch': -0.91, 'roll': 0.51}
{'lipoC2': 0.0, 'temp': 0.0, 'lipoC3S3': 12.35, 'state': 'normal', 'rot1': 0, 'rot0': 0, 'rot3': 0, 'rot2': 0, 'depth': 0.546, 'yaw': 3.4, 'datetime': '2018-12-18 18:08:03.027199', 'mgs': 0, 'flw2': 0.0, 'flw1': 0.32, 'flw0': 0.05, 'time': 2.3, 'compass': -69.0, 'pitch': -0.68, 'roll': 0.44}
{'lipoC2': 0.14, 'temp': 0.0, 'lipoC3S3': 12.29, 'state': 'normal', 'rot1': 0, 'rot0': 0, 'rot3': 0, 'rot2': 0, 'depth': -0.293, 'yaw': 4.1, 'datetime': '2018-12-18 18:08:03.240545', 'mgs': 0, 'flw2': 0.05, 'flw1': 0.44, 'flw0': 0.01, 'time': 2.5, 'compass': -68.29, 'pitch': -0.31, 'roll': 0.23}
{'lipoC2': 0.0, 'temp': 0.0, 'lipoC3S3': 12.35, 'state': 'normal', 'rot1': 0, 'rot0': 0, 'rot3': 0, 'rot2': 0, 'depth': 0.546, 'yaw': 4.78, 'datetime': '2018-12-18 18:08:03.447912', 'mgs': 0, 'flw2': 0.0, 'flw1': 0.35, 'flw0': 0.04, 'time': 2.71, 'compass': -67.61, 'pitch': -0.36, 'roll': 0.18}
{'lipoC2': 0.09, 'temp': 0.0, 'lipoC3S3': 12.09, 'state': 'normal', 'rot1': 0, 'rot0': 0, 'rot3': 0, 'rot2': 0, 'depth': 0.47, 'yaw': 5.51, 'datetime': '2018-12-18 18:08:03.655196', 'mgs': 0, 'flw2': 0.0, 'flw1': 0.0, 'flw0': 0.2, 'time': 2.92, 'compass': -66.88, 'pitch': -0.62, 'roll': 0.19}
{'lipoC2': 0.09, 'temp': 0.0, 'lipoC3S3': 12.37, 'state': 'normal', 'rot1': 0, 'rot0': 0, 'rot3': 0, 'rot2': 0, 'depth': -1.819, 'yaw': 6.23, 'datetime': '2018-12-18 18:08:03.862764', 'mgs': 0, 'flw2': 0.16, 'flw1': 0.0, 'flw0': 0.0, 'time': 3.12, 'compass': -66.16, 'pitch': -0.63, 'roll': 0.2}
{'lipoC2': 0.01, 'temp': 0.0, 'lipoC3S3': 12.17, 'state': 'normal', 'rot1': 0, 'rot0': 0, 'rot3': 0, 'rot2': 0, 'depth': -0.064, 'yaw': 6.93, 'datetime': '2018-12-18 18:08:04.070045', 'mgs': 0, 'flw2': 0.0, 'flw1': 0.12, 'flw0': 0.17, 'time': 3.33, 'compass': -65.47, 'pitch': -0.43, 'roll': 0.21}
{'lipoC2': 0.04, 'temp': 0.0, 'lipoC3S3': 12.13, 'state': 'normal', 'rot1': 0, 'rot0': 0, 'rot3': 0, 'rot2': 0, 'depth': 0.394, 'yaw': 7.67, 'datetime': '2018-12-18 18:08:04.278716', 'mgs': 0, 'flw2': 0.0, 'flw1': 0.0, 'flw0': 0.18, 'time': 3.54, 'compass': -64.72, 'pitch': -0.43, 'roll': 0.21}
{'lipoC2': 0.04, 'temp': 0.0, 'lipoC3S3': 12.13, 'state': 'normal', 'rot1': 0, 'rot0': 0, 'rot3': 0, 'rot2': 0, 'depth': 1.538, 'yaw': 8.41, 'datetime': '2018-12-18 18:08:04.485749', 'mgs': 0, 'flw2': 0.0, 'flw1': 0.0, 'flw0': 0.2, 'time': 3.75, 'compass': -63.98, 'pitch': -0.73, 'roll': 0.22}
{'lipoC2': 0.16, 'temp': 0.0, 'lipoC3S3': 12.23, 'state': 'normal', 'rot1': 0, 'rot0': 0, 'rot3': 0, 'rot2': 0, 'depth': -0.293, 'yaw': 9.16, 'datetime': '2018-12-18 18:08:04.695043', 'mgs': 0, 'flw2': 0.02, 'flw1': 0.41, 'flw0': 0.0, 'time': 3.96, 'compass': -63.23, 'pitch': -0.8, 'roll': 0.23}
{'lipoC2': 0.0, 'temp': 0.0, 'lipoC3S3': 12.37, 'state': 'normal', 'rot1': 0, 'rot0': 0, 'rot3': 0, 'rot2': 0, 'depth': -0.369, 'yaw': 9.89, 'datetime': '2018-12-18 18:08:04.902911', 'mgs': 0, 'flw2': 0.0, 'flw1': 0.29, 'flw0': 0.09, 'time': 4.16, 'compass': -62.5, 'pitch': -0.44, 'roll': 0.17}
{'lipoC2': 0.11, 'temp': 0.0, 'lipoC3S3': 12.33, 'state': 'normal', 'rot1': 0, 'rot0': 0, 'rot3': 0, 'rot2': 0, 'depth': -1.59, 'yaw': 10.64, 'datetime': '2018-12-18 18:08:05.107410', 'mgs': 0, 'flw2': 0.0, 'flw1': 0.32, 'flw0': 0.0, 'time': 4.37, 'compass': -61.75, 'pitch': -0.16, 'roll': 0.17}
{'lipoC2': 0.02, 'temp': 0.0, 'lipoC3S3': 12.16, 'state': 'normal', 'rot1': 0, 'rot0': 0, 'rot3': 0, 'rot2': 0, 'depth': 0.165, 'yaw': 11.35, 'datetime': '2018-12-18 18:08:05.315061', 'mgs': 0, 'flw2': 0.2, 'flw1': 0.03, 'flw0': 0.0, 'time': 4.58, 'compass': -61.04, 'pitch': -0.38, 'roll': 0.24}
{'lipoC2': 0.1, 'temp': 0.0, 'lipoC3S3': 12.12, 'state': 'normal', 'rot1': 0, 'rot0': 0, 'rot3': 0, 'rot2': 0, 'depth': 0.699, 'yaw': 12.11, 'datetime': '2018-12-18 18:08:05.522048', 'mgs': 0, 'flw2': 0.0, 'flw1': 0.0, 'flw0': 0.2, 'time': 4.79, 'compass': -60.28, 'pitch': -0.83, 'roll': 0.31}
{'lipoC2': 0.0, 'temp': 0.0, 'lipoC3S3': 12.35, 'state': 'normal', 'rot1': 0, 'rot0': 0, 'rot3': 0, 'rot2': 0, 'depth': 0.699, 'yaw': 12.88, 'datetime': '2018-12-18 18:08:05.731124', 'mgs': 0, 'flw2': 0.0, 'flw1': 0.32, 'flw0': 0.0, 'time': 4.99, 'compass': -59.51, 'pitch': -0.86, 'roll': 0.32}
{'lipoC2': 0.08, 'temp': 0.0, 'lipoC3S3': 12.12, 'state': 'normal', 'rot1': 0, 'rot0': 0, 'rot3': 0, 'rot2': 0, 'depth': 0.394, 'yaw': 13.6, 'datetime': '2018-12-18 18:08:05.939630', 'mgs': 0, 'flw2': 0.0, 'flw1': 0.0, 'flw0': 0.21, 'time': 5.2, 'compass': -58.79, 'pitch': -0.51, 'roll': 0.33}
{'lipoC2': 0.0, 'temp': 0.0, 'lipoC3S3': 12.3, 'state': 'normal', 'rot1': 0, 'rot0': 0, 'rot3': 0, 'rot2': 0, 'depth': 1.233, 'yaw': 14.36, 'datetime': '2018-12-18 18:08:06.148988', 'mgs': 0, 'flw2': 0.0, 'flw1': 0.41, 'flw0': 0.0, 'time': 5.41, 'compass': -58.03, 'pitch': -0.26, 'roll': 0.34}
{'lipoC2': 0.0, 'temp': 0.0, 'lipoC3S3': 12.52, 'state': 'normal', 'rot1': 0, 'rot0': 0, 'rot3': 0, 'rot2': 0, 'depth': 1.767, 'yaw': 15.13, 'datetime': '2018-12-18 18:08:06.355652', 'mgs': 0, 'flw2': 0.0, 'flw1': 0.38, 'flw0': 0.0, 'time': 5.62, 'compass': -57.26, 'pitch': -0.3, 'roll': 0.34}
{'lipoC2': 0.15, 'temp': 0.0, 'lipoC3S3': 12.23, 'state': 'normal', 'rot1': 0, 'rot0': 0, 'rot3': 0, 'rot2': 0, 'depth': 1.233, 'yaw': 15.86, 'datetime': '2018-12-18 18:08:06.564180', 'mgs': 0, 'flw2': 0.0, 'flw1': 0.41, 'flw0': 0.0, 'time': 5.83, 'compass': -56.54, 'pitch': -0.5, 'roll': 0.34}
{'lipoC2': 0.0, 'temp': 0.0, 'lipoC3S3': 12.51, 'state': 'normal', 'rot1': 0, 'rot0': 0, 'rot3': 0, 'rot2': 0, 'depth': 1.767, 'yaw': 16.61, 'datetime': '2018-12-18 18:08:06.771017', 'mgs': 0, 'flw2': 0.07, 'flw1': 0.0, 'flw0': 0.13, 'time': 6.03, 'compass': -55.78, 'pitch': -0.62, 'roll': 0.35}
{'lipoC2': 0.0, 'temp': 0.0, 'lipoC3S3': 12.35, 'state': 'normal', 'rot1': 0, 'rot0': 0, 'rot3': 0, 'rot2': 0, 'depth': 0.012, 'yaw': 17.37, 'datetime': '2018-12-18 18:08:06.978843', 'mgs': 0, 'flw2': 0.0, 'flw1': 0.32, 'flw0': 0.0, 'time': 6.24, 'compass': -55.02, 'pitch': -0.54, 'roll': 0.38}
{'lipoC2': 0.16, 'temp': 0.0, 'lipoC3S3': 12.26, 'state': 'normal', 'rot1': 0, 'rot0': 0, 'rot3': 0, 'rot2': 0, 'depth': 1.233, 'yaw': 18.1, 'datetime': '2018-12-18 18:08:07.187022', 'mgs': 0, 'flw2': 0.0, 'flw1': 0.41, 'flw0': 0.0, 'time': 6.45, 'compass': -54.29, 'pitch': -0.48, 'roll': 0.38}
{'lipoC2': 0.06, 'temp': 0.0, 'lipoC3S3': 12.12, 'state': 'normal', 'rot1': 0, 'rot0': 0, 'rot3': 0, 'rot2': 0, 'depth': 1.385, 'yaw': 18.86, 'datetime': '2018-12-18 18:08:07.396352', 'mgs': 0, 'flw2': 0.21, 'flw1': 0.12, 'flw0': 0.2, 'time': 6.66, 'compass': -53.53, 'pitch': -0.59, 'roll': 0.38}
{'lipoC2': 0.11, 'temp': 0.0, 'lipoC3S3': 12.1, 'state': 'normal', 'rot1': 0, 'rot0': 0, 'rot3': 0, 'rot2': 0, 'depth': 0.623, 'yaw': 19.62, 'datetime': '2018-12-18 18:08:07.604037', 'mgs': 0, 'flw2': 0.0, 'flw1': 0.0, 'flw0': 0.21, 'time': 6.86, 'compass': -52.77, 'pitch': -0.66, 'roll': 0.33}
{'lipoC2': 0.0, 'temp': 0.0, 'lipoC3S3': 12.51, 'state': 'normal', 'rot1': 0, 'rot0': 0, 'rot3': 0, 'rot2': 0, 'depth': 1.691, 'yaw': 20.37, 'datetime': '2018-12-18 18:08:07.813735', 'mgs': 0, 'flw2': 0.01, 'flw1': 0.41, 'flw0': 0.0, 'time': 7.07, 'compass': -52.02, 'pitch': -0.48, 'roll': 0.34}
{'lipoC2': 0.05, 'temp': 0.0, 'lipoC3S3': 12.1, 'state': 'normal', 'rot1': 0, 'rot0': 0, 'rot3': 0, 'rot2': 0, 'depth': 0.394, 'yaw': 21.1, 'datetime': '2018-12-18 18:08:08.020687', 'mgs': 0, 'flw2': 0.0, 'flw1': 0.0, 'flw0': 0.21, 'time': 7.28, 'compass': -51.29, 'pitch': -0.26, 'roll': 0.34}
{'lipoC2': 0.14, 'temp': 0.0, 'lipoC3S3': 12.29, 'state': 'normal', 'rot1': 0, 'rot0': 0, 'rot3': 0, 'rot2': 0, 'depth': -0.674, 'yaw': 21.85, 'datetime': '2018-12-18 18:08:08.229654', 'mgs': 0, 'flw2': 0.0, 'flw1': 0.38, 'flw0': 0.0, 'time': 7.49, 'compass': -50.54, 'pitch': -0.44, 'roll': 0.43}
{'lipoC2': 0.17, 'temp': 0.0, 'lipoC3S3': 12.19, 'state': 'normal', 'rot1': 0, 'rot0': 0, 'rot3': 0, 'rot2': 0, 'depth': 1.157, 'yaw': 22.57, 'datetime': '2018-12-18 18:08:08.437068', 'mgs': 0, 'flw2': 0.0, 'flw1': 0.47, 'flw0': 0.0, 'time': 7.7, 'compass': -49.82, 'pitch': -0.78, 'roll': 0.61}
{'lipoC2': 0.0, 'temp': 0.0, 'lipoC3S3': 12.45, 'state': 'normal', 'rot1': 0, 'rot0': 0, 'rot3': 0, 'rot2': 0, 'depth': 1.309, 'yaw': 23.32, 'datetime': '2018-12-18 18:08:08.644436', 'mgs': 0, 'flw2': 0.0, 'flw1': 0.26, 'flw0': 0.13, 'time': 7.9, 'compass': -49.07, 'pitch': -0.64, 'roll': 0.69}
{'lipoC2': 0.0, 'temp': 0.0, 'lipoC3S3': 12.46, 'state': 'normal', 'rot1': 0, 'rot0': 0, 'rot3': 0, 'rot2': 0, 'depth': 1.385, 'yaw': 24.07, 'datetime': '2018-12-18 18:08:08.853093', 'mgs': 0, 'flw2': 0.0, 'flw1': 0.12, 'flw0': 0.17, 'time': 8.11, 'compass': -48.32, 'pitch': -0.25, 'roll': 0.57}
{'lipoC2': 0.02, 'temp': 0.0, 'lipoC3S3': 12.42, 'state': 'normal', 'rot1': 0, 'rot0': 0, 'rot3': 0, 'rot2': 0, 'depth': -1.285, 'yaw': 24.78, 'datetime': '2018-12-18 18:08:09.061629', 'mgs': 0, 'flw2': 0.13, 'flw1': 0.0, 'flw0': 0.0, 'time': 8.32, 'compass': -47.61, 'pitch': -0.24, 'roll': 0.4}
{'lipoC2': 0.13, 'temp': 0.0, 'lipoC3S3': 12.16, 'state': 'normal', 'rot1': 0, 'rot0': 0, 'rot3': 0, 'rot2': 0, 'depth': 0.699, 'yaw': 25.52, 'datetime': '2018-12-18 18:08:09.269935', 'mgs': 0, 'flw2': 0.09, 'flw1': 0.35, 'flw0': 0.0, 'time': 8.53, 'compass': -46.87, 'pitch': -0.55, 'roll': 0.4}
{'lipoC2': 0.01, 'temp': 0.0, 'lipoC3S3': 12.39, 'state': 'normal', 'rot1': 0, 'rot0': 0, 'rot3': 0, 'rot2': 0, 'depth': 1.614, 'yaw': 26.26, 'datetime': '2018-12-18 18:08:09.477197', 'mgs': 0, 'flw2': 0.2, 'flw1': 0.0, 'flw0': 0.0, 'time': 8.74, 'compass': -46.13, 'pitch': -0.64, 'roll': 0.41}
{'lipoC2': 0.0, 'temp': 0.0, 'lipoC3S3': 12.52, 'state': 'normal', 'rot1': 0, 'rot0': 0, 'rot3': 0, 'rot2': 0, 'depth': 1.767, 'yaw': 26.95, 'datetime': '2018-12-18 18:08:09.682585', 'mgs': 0, 'flw2': 0.0, 'flw1': 0.47, 'flw0': 0.0, 'time': 8.94, 'compass': -45.44, 'pitch': -0.49, 'roll': 0.42}
{'lipoC2': 0.09, 'temp': 0.0, 'lipoC3S3': 12.48, 'state': 'normal', 'rot1': 0, 'rot0': 0, 'rot3': 0, 'rot2': 0, 'depth': 0.47, 'yaw': 27.68, 'datetime': '2018-12-18 18:08:09.891552', 'mgs': 0, 'flw2': 0.21, 'flw1': 0.12, 'flw0': 0.0, 'time': 9.15, 'compass': -44.71, 'pitch': -0.35, 'roll': 0.43}
{'lipoC2': 0.03, 'temp': 0.0, 'lipoC3S3': 12.41, 'state': 'normal', 'rot1': 0, 'rot0': 0, 'rot3': 0, 'rot2': 0, 'depth': -1.361, 'yaw': 28.4, 'datetime': '2018-12-18 18:08:10.100206', 'mgs': 0, 'flw2': 0.0, 'flw1': 0.26, 'flw0': 0.11, 'time': 9.36, 'compass': -43.99, 'pitch': -0.4, 'roll': 0.43}
{'lipoC2': 0.05, 'temp': 0.0, 'lipoC3S3': 12.12, 'state': 'normal', 'rot1': 0, 'rot0': 0, 'rot3': 0, 'rot2': 0, 'depth': 0.47, 'yaw': 29.08, 'datetime': '2018-12-18 18:08:10.309844', 'mgs': 0, 'flw2': 0.0, 'flw1': 0.0, 'flw0': 0.2, 'time': 9.57, 'compass': -43.31, 'pitch': -0.63, 'roll': 0.41}
{'lipoC2': 0.09, 'temp': 0.0, 'lipoC3S3': 12.12, 'state': 'normal', 'rot1': 0, 'rot0': 0, 'rot3': 0, 'rot2': 0, 'depth': 1.309, 'yaw': 29.81, 'datetime': '2018-12-18 18:08:10.518596', 'mgs': 0, 'flw2': 0.0, 'flw1': 0.0, 'flw0': 0.18, 'time': 9.77, 'compass': -42.58, 'pitch': -0.71, 'roll': 0.42}
{'lipoC2': 0.0, 'temp': 0.0, 'lipoC3S3': 12.35, 'state': 'normal', 'rot1': 0, 'rot0': 0, 'rot3': 0, 'rot2': 0, 'depth': 0.699, 'yaw': 30.53, 'datetime': '2018-12-18 18:08:10.727129', 'mgs': 0, 'flw2': 0.0, 'flw1': 0.44, 'flw0': 0.01, 'time': 9.98, 'compass': -41.86, 'pitch': -0.51, 'roll': 0.43}
{'lipoC2': 0.0, 'temp': 0.0, 'lipoC3S3': 12.27, 'state': 'normal', 'rot1': 0, 'rot0': 0, 'rot3': 0, 'rot2': 0, 'depth': 1.233, 'yaw': 31.25, 'datetime': '2018-12-18 18:08:10.934964', 'mgs': 0, 'flw2': 0.0, 'flw1': 0.41, 'flw0': 0.0, 'time': 10.19, 'compass': -41.14, 'pitch': -0.27, 'roll': 0.44}
{'lipoC2': 0.14, 'temp': 0.0, 'lipoC3S3': 12.26, 'state': 'normal', 'rot1': 0, 'rot0': 0, 'rot3': 0, 'rot2': 0, 'depth': 1.233, 'yaw': 31.92, 'datetime': '2018-12-18 18:08:11.142936', 'mgs': 0, 'flw2': 0.02, 'flw1': 0.38, 'flw0': 0.0, 'time': 10.4, 'compass': -40.47, 'pitch': -0.25, 'roll': 0.51}
{'lipoC2': 0.1, 'temp': 0.0, 'lipoC3S3': 12.12, 'state': 'normal', 'rot1': 0, 'rot0': 0, 'rot3': 0, 'rot2': 0, 'depth': 1.157, 'yaw': 32.62, 'datetime': '2018-12-18 18:08:11.349890', 'mgs': 0, 'flw2': 0.0, 'flw1': 0.0, 'flw0': 0.2, 'time': 10.6, 'compass': -39.77, 'pitch': -0.34, 'roll': 0.6}
{'lipoC2': 0.0, 'temp': 0.0, 'lipoC3S3': 12.5, 'state': 'normal', 'rot1': 0, 'rot0': 0, 'rot3': 0, 'rot2': 0, 'depth': 1.767, 'yaw': 33.28, 'datetime': '2018-12-18 18:08:11.557992', 'mgs': 0, 'flw2': 0.11, 'flw1': 0.26, 'flw0': 0.0, 'time': 10.81, 'compass': -39.11, 'pitch': -0.5, 'roll': 0.54}
{'lipoC2': 0.12, 'temp': 0.0, 'lipoC3S3': 12.1, 'state': 'normal', 'rot1': 0, 'rot0': 0, 'rot3': 0, 'rot2': 0, 'depth': 0.623, 'yaw': 33.99, 'datetime': '2018-12-18 18:08:11.764853', 'mgs': 0, 'flw2': 0.0, 'flw1': 0.0, 'flw0': 0.18, 'time': 11.02, 'compass': -38.4, 'pitch': -0.58, 'roll': 0.42}
{'lipoC2': 0.12, 'temp': 0.0, 'lipoC3S3': 12.33, 'state': 'normal', 'rot1': 0, 'rot0': 0, 'rot3': 0, 'rot2': 0, 'depth': -1.208, 'yaw': 34.7, 'datetime': '2018-12-18 18:08:11.975201', 'mgs': 0, 'flw2': 0.12, 'flw1': 0.0, 'flw0': 0.06, 'time': 11.23, 'compass': -37.69, 'pitch': -0.49, 'roll': 0.44}
{'lipoC2': 0.13, 'temp': 0.0, 'lipoC3S3': 12.31, 'state': 'normal', 'rot1': 0, 'rot0': 0, 'rot3': 0, 'rot2': 0, 'depth': -1.285, 'yaw': 35.36, 'datetime': '2018-12-18 18:08:12.183907', 'mgs': 0, 'flw2': 0.0, 'flw1': 0.41, 'flw0': 0.0, 'time': 11.44, 'compass': -37.03, 'pitch': -0.19, 'roll': 0.53}
{'lipoC2': 0.0, 'temp': 0.0, 'lipoC3S3': 12.51, 'state': 'normal', 'rot1': 0, 'rot0': 0, 'rot3': 0, 'rot2': 0, 'depth': 0.012, 'yaw': 36.04, 'datetime': '2018-12-18 18:08:12.391623', 'mgs': 0, 'flw2': 0.04, 'flw1': 0.41, 'flw0': 0.0, 'time': 11.65, 'compass': -36.35, 'pitch': -0.19, 'roll': 0.53}
{'lipoC2': 0.04, 'temp': 0.0, 'lipoC3S3': 12.41, 'state': 'normal', 'rot1': 0, 'rot0': 0, 'rot3': 0, 'rot2': 0, 'depth': -1.285, 'yaw': 36.73, 'datetime': '2018-12-18 18:08:12.600232', 'mgs': 0, 'flw2': 0.17, 'flw1': 0.0, 'flw0': 0.0, 'time': 11.85, 'compass': -35.66, 'pitch': -0.6, 'roll': 0.53}
{'lipoC2': 0.0, 'temp': 0.0, 'lipoC3S3': 12.45, 'state': 'normal', 'rot1': 0, 'rot0': 0, 'rot3': 0, 'rot2': 0, 'depth': 1.462, 'yaw': 37.37, 'datetime': '2018-12-18 18:08:12.807300', 'mgs': 0, 'flw2': 0.0, 'flw1': 0.29, 'flw0': 0.11, 'time': 12.06, 'compass': -35.02, 'pitch': -0.74, 'roll': 0.55}
{'lipoC2': 0.03, 'temp': 0.0, 'lipoC3S3': 12.41, 'state': 'normal', 'rot1': 0, 'rot0': 0, 'rot3': 0, 'rot2': 0, 'depth': 1.691, 'yaw': 38.06, 'datetime': '2018-12-18 18:08:13.014233', 'mgs': 0, 'flw2': 0.17, 'flw1': 0.0, 'flw0': 0.0, 'time': 12.27, 'compass': -34.33, 'pitch': -0.43, 'roll': 0.55}
{'lipoC2': 0.0, 'temp': 0.0, 'lipoC3S3': 12.35, 'state': 'normal', 'rot1': 0, 'rot0': 0, 'rot3': 0, 'rot2': 0, 'depth': 0.775, 'yaw': 38.73, 'datetime': '2018-12-18 18:08:13.222360', 'mgs': 0, 'flw2': 0.0, 'flw1': 0.32, 'flw0': 0.0, 'time': 12.48, 'compass': -33.66, 'pitch': -0.07, 'roll': 0.57}
{'lipoC2': 0.14, 'temp': 0.0, 'lipoC3S3': 12.17, 'state': 'normal', 'rot1': 0, 'rot0': 0, 'rot3': 0, 'rot2': 0, 'depth': 0.928, 'yaw': 39.37, 'datetime': '2018-12-18 18:08:13.430511', 'mgs': 0, 'flw2': 0.0, 'flw1': 0.0, 'flw0': 0.17, 'time': 12.68, 'compass': -33.02, 'pitch': -0.08, 'roll': 0.71}
{'lipoC2': 0.09, 'temp': 0.0, 'lipoC3S3': 12.35, 'state': 'normal', 'rot1': 0, 'rot0': 0, 'rot3': 0, 'rot2': 0, 'depth': -1.666, 'yaw': 40.04, 'datetime': '2018-12-18 18:08:13.639593', 'mgs': 0, 'flw2': 0.0, 'flw1': 0.32, 'flw0': 0.0, 'time': 12.89, 'compass': -32.35, 'pitch': -0.41, 'roll': 0.76}
{'lipoC2': 0.08, 'temp': 0.0, 'lipoC3S3': 12.38, 'state': 'normal', 'rot1': 0, 'rot0': 0, 'rot3': 0, 'rot2': 0, 'depth': -1.666, 'yaw': 40.7, 'datetime': '2018-12-18 18:08:13.847998', 'mgs': 0, 'flw2': 0.15, 'flw1': 0.0, 'flw0': 0.0, 'time': 13.1, 'compass': -31.69, 'pitch': -0.58, 'roll': 0.75}
{'lipoC2': 0.15, 'temp': 0.0, 'lipoC3S3': 12.26, 'state': 'normal', 'rot1': 0, 'rot0': 0, 'rot3': 0, 'rot2': 0, 'depth': -0.674, 'yaw': 41.35, 'datetime': '2018-12-18 18:08:14.057764', 'mgs': 0, 'flw2': 0.0, 'flw1': 0.35, 'flw0': 0.0, 'time': 13.31, 'compass': -31.04, 'pitch': -0.39, 'roll': 0.68}
{'lipoC2': 0.0, 'temp': 0.0, 'lipoC3S3': 12.34, 'state': 'normal', 'rot1': 0, 'rot0': 0, 'rot3': 0, 'rot2': 0, 'depth': 0.546, 'yaw': 41.97, 'datetime': '2018-12-18 18:08:14.263972', 'mgs': 0, 'flw2': 0.0, 'flw1': 0.41, 'flw0': 0.0, 'time': 13.52, 'compass': -30.42, 'pitch': -0.11, 'roll': 0.68}
{'lipoC2': 0.0, 'temp': 0.0, 'lipoC3S3': 12.51, 'state': 'normal', 'rot1': 0, 'rot0': 0, 'rot3': 0, 'rot2': 0, 'depth': 1.767, 'yaw': 42.62, 'datetime': '2018-12-18 18:08:14.472290', 'mgs': 0, 'flw2': 0.0, 'flw1': 0.41, 'flw0': 0.0, 'time': 13.72, 'compass': -29.77, 'pitch': -0.1, 'roll': 0.68}
{'lipoC2': 0.0, 'temp': 0.0, 'lipoC3S3': 12.34, 'state': 'normal', 'rot1': 0, 'rot0': 0, 'rot3': 0, 'rot2': 0, 'depth': -0.14, 'yaw': 43.23, 'datetime': '2018-12-18 18:08:14.679120', 'mgs': 0, 'flw2': 0.2, 'flw1': 0.0, 'flw0': 0.0, 'time': 13.93, 'compass': -29.16, 'pitch': -0.37, 'roll': 0.68}
{'lipoC2': 0.0, 'temp': 0.0, 'lipoC3S3': 12.42, 'state': 'normal', 'rot1': 0, 'rot0': 0, 'rot3': 0, 'rot2': 0, 'depth': 1.157, 'yaw': 43.87, 'datetime': '2018-12-18 18:08:14.887235', 'mgs': 0, 'flw2': 0.0, 'flw1': 0.23, 'flw0': 0.12, 'time': 14.14, 'compass': -28.52, 'pitch': -0.53, 'roll': 0.7}
{'lipoC2': 0.15, 'temp': 0.0, 'lipoC3S3': 12.17, 'state': 'normal', 'rot1': 0, 'rot0': 0, 'rot3': 0, 'rot2': 0, 'depth': 0.928, 'yaw': 44.52, 'datetime': '2018-12-18 18:08:15.096407', 'mgs': 0, 'flw2': 0.01, 'flw1': 0.0, 'flw0': 0.16, 'time': 14.35, 'compass': -27.87, 'pitch': -0.35, 'roll': 0.7}
{'lipoC2': 0.0, 'temp': 0.0, 'lipoC3S3': 12.47, 'state': 'normal', 'rot1': 0, 'rot0': 0, 'rot3': 0, 'rot2': 0, 'depth': 1.614, 'yaw': 45.14, 'datetime': '2018-12-18 18:08:15.304768', 'mgs': 0, 'flw2': 0.15, 'flw1': 0.15, 'flw0': 0.0, 'time': 14.56, 'compass': -27.25, 'pitch': -0.08, 'roll': 0.7}
{'lipoC2': 0.0, 'temp': 0.0, 'lipoC3S3': 12.3, 'state': 'normal', 'rot1': 0, 'rot0': 0, 'rot3': 0, 'rot2': 0, 'depth': 1.309, 'yaw': 45.78, 'datetime': '2018-12-18 18:08:15.514154', 'mgs': 0, 'flw2': 0.17, 'flw1': 0.0, 'flw0': 0.0, 'time': 14.76, 'compass': -26.61, 'pitch': -0.04, 'roll': 0.7}
{'lipoC2': 0.0, 'temp': 0.0, 'lipoC3S3': 12.45, 'state': 'normal', 'rot1': 0, 'rot0': 0, 'rot3': 0, 'rot2': 0, 'depth': 1.538, 'yaw': 46.4, 'datetime': '2018-12-18 18:08:15.721469', 'mgs': 0, 'flw2': 0.0, 'flw1': 0.26, 'flw0': 0.1, 'time': 14.97, 'compass': -25.99, 'pitch': -0.2, 'roll': 0.7}
{'lipoC2': 0.08, 'temp': 0.0, 'lipoC3S3': 12.37, 'state': 'normal', 'rot1': 0, 'rot0': 0, 'rot3': 0, 'rot2': 0, 'depth': 1.767, 'yaw': 47.0, 'datetime': '2018-12-18 18:08:15.929836', 'mgs': 0, 'flw2': 0.18, 'flw1': 0.0, 'flw0': 0.0, 'time': 15.18, 'compass': -25.4, 'pitch': -0.29, 'roll': 0.69}
{'lipoC2': 0.0, 'temp': 0.0, 'lipoC3S3': 12.31, 'state': 'normal', 'rot1': 0, 'rot0': 0, 'rot3': 0, 'rot2': 0, 'depth': 0.546, 'yaw': 47.61, 'datetime': '2018-12-18 18:08:16.136590', 'mgs': 0, 'flw2': 0.0, 'flw1': 0.41, 'flw0': 0.0, 'time': 15.39, 'compass': -24.78, 'pitch': -0.29, 'roll': 0.58}
{'lipoC2': 0.0, 'temp': 0.0, 'lipoC3S3': 12.48, 'state': 'normal', 'rot1': 0, 'rot0': 0, 'rot3': 0, 'rot2': 0, 'depth': 1.767, 'yaw': 48.23, 'datetime': '2018-12-18 18:08:16.344857', 'mgs': 0, 'flw2': 0.15, 'flw1': 0.18, 'flw0': 0.0, 'time': 15.59, 'compass': -24.16, 'pitch': -0.28, 'roll': 0.56}
{'lipoC2': 0.0, 'temp': 0.0, 'lipoC3S3': 12.51, 'state': 'normal', 'rot1': 0, 'rot0': 0, 'rot3': 0, 'rot2': 0, 'depth': 1.691, 'yaw': 48.82, 'datetime': '2018-12-18 18:08:16.553266', 'mgs': 0, 'flw2': 0.0, 'flw1': 0.41, 'flw0': 0.0, 'time': 15.8, 'compass': -23.57, 'pitch': -0.27, 'roll': 0.56}
{'lipoC2': 0.03, 'temp': 0.0, 'lipoC3S3': 12.14, 'state': 'normal', 'rot1': 0, 'rot0': 0, 'rot3': 0, 'rot2': 0, 'depth': 0.394, 'yaw': 49.44, 'datetime': '2018-12-18 18:08:16.762394', 'mgs': 0, 'flw2': 0.17, 'flw1': 0.03, 'flw0': 0.0, 'time': 16.01, 'compass': -22.96, 'pitch': -0.27, 'roll': 0.57}
{'lipoC2': 0.0, 'temp': 0.0, 'lipoC3S3': 12.17, 'state': 'normal', 'rot1': 0, 'rot0': 0, 'rot3': 0, 'rot2': 0, 'depth': -1.132, 'yaw': 50.04, 'datetime': '2018-12-18 18:08:16.969765', 'mgs': 0, 'flw2': 0.0, 'flw1': 0.0, 'flw0': 0.18, 'time': 16.22, 'compass': -22.35, 'pitch': -0.26, 'roll': 0.57}
{'lipoC2': 0.12, 'temp': 0.0, 'lipoC3S3': 12.16, 'state': 'normal', 'rot1': 0, 'rot0': 0, 'rot3': 0, 'rot2': 0, 'depth': 0.775, 'yaw': 50.65, 'datetime': '2018-12-18 18:08:17.179231', 'mgs': 0, 'flw2': 0.1, 'flw1': 0.29, 'flw0': 0.0, 'time': 16.42, 'compass': -21.74, 'pitch': -0.25, 'roll': 0.57}
{'lipoC2': 0.0, 'temp': 0.0, 'lipoC3S3': 12.41, 'state': 'normal', 'rot1': 0, 'rot0': 0, 'rot3': 0, 'rot2': 0, 'depth': 1.08, 'yaw': 51.22, 'datetime': '2018-12-18 18:08:17.386156', 'mgs': 0, 'flw2': 0.0, 'flw1': 0.29, 'flw0': 0.09, 'time': 16.63, 'compass': -21.17, 'pitch': -0.25, 'roll': 0.57}
{'lipoC2': 0.0, 'temp': 0.0, 'lipoC3S3': 12.51, 'state': 'normal', 'rot1': 0, 'rot0': 0, 'rot3': 0, 'rot2': 0, 'depth': -0.369, 'yaw': 51.81, 'datetime': '2018-12-18 18:08:17.594433', 'mgs': 0, 'flw2': 0.04, 'flw1': 0.0, 'flw0': 0.15, 'time': 16.84, 'compass': -20.58, 'pitch': -0.3, 'roll': 0.57}
{'lipoC2': 0.05, 'temp': 0.0, 'lipoC3S3': 12.12, 'state': 'normal', 'rot1': 0, 'rot0': 0, 'rot3': 0, 'rot2': 0, 'depth': 1.385, 'yaw': 52.35, 'datetime': '2018-12-18 18:08:17.801308', 'mgs': 0, 'flw2': 0.15, 'flw1': 0.12, 'flw0': 0.0, 'time': 17.05, 'compass': -20.04, 'pitch': -0.26, 'roll': 0.57}
{'lipoC2': 0.04, 'temp': 0.0, 'lipoC3S3': 12.13, 'state': 'normal', 'rot1': 0, 'rot0': 3, 'rot3': 0, 'rot2': 0, 'depth': 0.47, 'yaw': 52.99, 'datetime': '2018-12-18 18:08:18.009467', 'mgs': 0, 'flw2': 3.26, 'flw1': 0.21, 'flw0': 0.0, 'time': 17.25, 'compass': -19.4, 'pitch': -0.0, 'roll': 0.62}
{'lipoC2': 0.14, 'temp': 0.0, 'lipoC3S3': 12.27, 'state': 'normal', 'rot1': 0, 'rot0': 7, 'rot3': 0, 'rot2': 0, 'depth': -0.293, 'yaw': 55.89, 'datetime': '2018-12-18 18:08:18.217821', 'mgs': 0, 'flw2': 2.8, 'flw1': 0.0, 'flw0': 0.17, 'time': 17.46, 'compass': -16.5, 'pitch': 1.27, 'roll': 1.08}
{'lipoC2': 0.0, 'temp': 0.0, 'lipoC3S3': 12.48, 'state': 'normal', 'rot1': 0, 'rot0': 9, 'rot3': 0, 'rot2': 0, 'depth': 1.767, 'yaw': 61.4, 'datetime': '2018-12-18 18:08:18.427599', 'mgs': 0, 'flw2': 3.02, 'flw1': 0.06, 'flw0': 0.0, 'time': 17.67, 'compass': -10.99, 'pitch': 2.43, 'roll': 1.58}
{'lipoC2': 0.08, 'temp': 0.0, 'lipoC3S3': 12.12, 'state': 'normal', 'rot1': 0, 'rot0': 11, 'rot3': 0, 'rot2': 0, 'depth': 1.385, 'yaw': 69.21, 'datetime': '2018-12-18 18:08:18.636011', 'mgs': 0, 'flw2': 2.82, 'flw1': 0.0, 'flw0': 0.21, 'time': 17.88, 'compass': -3.18, 'pitch': 2.42, 'roll': 1.82}
{'lipoC2': 0.16, 'temp': 0.0, 'lipoC3S3': 12.23, 'state': 'normal', 'rot1': 0, 'rot0': 13, 'rot3': 0, 'rot2': 0, 'depth': -0.293, 'yaw': 78.02, 'datetime': '2018-12-18 18:08:18.844751', 'mgs': 0, 'flw2': 0.0, 'flw1': 0.47, 'flw0': 0.0, 'time': 18.09, 'compass': 5.63, 'pitch': 1.66, 'roll': 1.79}
{'lipoC2': 0.0, 'temp': 0.0, 'lipoC3S3': 12.31, 'state': 'normal', 'rot1': 0, 'rot0': 13, 'rot3': 0, 'rot2': 0, 'depth': 0.546, 'yaw': 85.08, 'datetime': '2018-12-18 18:08:19.053136', 'mgs': 0, 'flw2': 0.0, 'flw1': 0.38, 'flw0': 0.0, 'time': 18.3, 'compass': 12.69, 'pitch': 0.32, 'roll': 1.23}
{'lipoC2': 0.0, 'temp': 0.0, 'lipoC3S3': 12.47, 'state': 'normal', 'rot1': 0, 'rot0': 15, 'rot3': 0, 'rot2': 0, 'depth': 1.767, 'yaw': 91.3, 'datetime': '2018-12-18 18:08:19.261584', 'mgs': 0, 'flw2': 3.16, 'flw1': 0.09, 'flw0': 0.0, 'time': 18.5, 'compass': 18.91, 'pitch': -0.03, 'roll': 0.69}
{'lipoC2': 0.0, 'temp': 0.0, 'lipoC3S3': 12.39, 'state': 'normal', 'rot1': 0, 'rot0': 18, 'rot3': 0, 'rot2': 0, 'depth': 1.309, 'yaw': 98.8, 'datetime': '2018-12-18 18:08:19.469093', 'mgs': 0, 'flw2': 2.94, 'flw1': 0.0, 'flw0': 0.0, 'time': 18.71, 'compass': 26.41, 'pitch': 1.47, 'roll': 1.05}
{'lipoC2': 0.1, 'temp': 0.0, 'lipoC3S3': 12.12, 'state': 'normal', 'rot1': 0, 'rot0': 21, 'rot3': 0, 'rot2': 0, 'depth': 1.233, 'yaw': 108.08, 'datetime': '2018-12-18 18:08:19.678934', 'mgs': 0, 'flw2': 2.76, 'flw1': 0.0, 'flw0': 0.18, 'time': 18.92, 'compass': 35.69, 'pitch': 2.51, 'roll': 1.99}
{'lipoC2': 0.0, 'temp': 0.0, 'lipoC3S3': 12.51, 'state': 'normal', 'rot1': 0, 'rot0': 23, 'rot3': 0, 'rot2': 0, 'depth': 1.92, 'yaw': 117.81, 'datetime': '2018-12-18 18:08:19.887754', 'mgs': 0, 'flw2': 2.98, 'flw1': 0.21, 'flw0': 0.0, 'time': 19.13, 'compass': 45.41, 'pitch': 1.97, 'roll': 2.9}
{'lipoC2': 0.01, 'temp': 0.0, 'lipoC3S3': 12.39, 'state': 'normal', 'rot1': 0, 'rot0': 26, 'rot3': 0, 'rot2': 0, 'depth': -0.903, 'yaw': 128.54, 'datetime': '2018-12-18 18:08:20.096578', 'mgs': 0, 'flw2': 3.03, 'flw1': 0.0, 'flw0': 0.0, 'time': 19.34, 'compass': 56.15, 'pitch': 1.48, 'roll': 3.44}
{'lipoC2': 0.0, 'temp': 0.0, 'lipoC3S3': 12.37, 'state': 'normal', 'rot1': 0, 'rot0': 29, 'rot3': 0, 'rot2': 0, 'depth': 1.08, 'yaw': 139.93, 'datetime': '2018-12-18 18:08:20.302978', 'mgs': 0, 'flw2': 3.02, 'flw1': 0.0, 'flw0': 0.0, 'time': 19.55, 'compass': 67.54, 'pitch': 2.16, 'roll': 3.67}
{'lipoC2': 0.0, 'temp': 0.0, 'lipoC3S3': 12.34, 'state': 'normal', 'rot1': 0, 'rot0': 32, 'rot3': 0, 'rot2': 0, 'depth': -0.14, 'yaw': 151.18, 'datetime': '2018-12-18 18:08:20.511062', 'mgs': 0, 'flw2': 2.93, 'flw1': 0.0, 'flw0': 0.01, 'time': 19.75, 'compass': 78.79, 'pitch': 3.1, 'roll': 3.79}
{'lipoC2': 0.0, 'temp': 0.0, 'lipoC3S3': 12.52, 'state': 'normal', 'rot1': 0, 'rot0': 34, 'rot3': 0, 'rot2': 0, 'depth': 2.225, 'yaw': 163.08, 'datetime': '2018-12-18 18:08:20.717741', 'mgs': 0, 'flw2': 2.87, 'flw1': 0.0, 'flw0': 0.22, 'time': 19.96, 'compass': 90.69, 'pitch': 3.66, 'roll': 3.96}
{'lipoC2': 0.12, 'temp': 0.0, 'lipoC3S3': 12.33, 'state': 'normal', 'rot1': 0, 'rot0': 37, 'rot3': 0, 'rot2': 0, 'depth': -1.514, 'yaw': 175.32, 'datetime': '2018-12-18 18:08:20.933754', 'mgs': 0, 'flw2': 2.86, 'flw1': 0.0, 'flw0': 0.07, 'time': 20.17, 'compass': 102.93, 'pitch': 4.12, 'roll': 4.25}
{'lipoC2': 0.02, 'temp': 0.0, 'lipoC3S3': 12.16, 'state': 'normal', 'rot1': 0, 'rot0': 39, 'rot3': 0, 'rot2': 0, 'depth': 0.317, 'yaw': -172.11, 'datetime': '2018-12-18 18:08:21.143775', 'mgs': 0, 'flw2': 2.92, 'flw1': 0.0, 'flw0': 0.0, 'time': 20.38, 'compass': 115.5, 'pitch': 4.59, 'roll': 4.57}
{'lipoC2': 0.11, 'temp': 0.0, 'lipoC3S3': 12.33, 'state': 'normal', 'rot1': 0, 'rot0': 42, 'rot3': 0, 'rot2': 0, 'depth': -1.514, 'yaw': -160.07, 'datetime': '2018-12-18 18:08:21.351000', 'mgs': 0, 'flw2': 2.95, 'flw1': 0.0, 'flw0': 0.07, 'time': 20.59, 'compass': 127.54, 'pitch': 4.78, 'roll': 4.77}
{'lipoC2': 0.0, 'temp': 0.0, 'lipoC3S3': 12.16, 'state': 'normal', 'rot1': 0, 'rot0': 43, 'rot3': 0, 'rot2': 0, 'depth': -0.751, 'yaw': -148.25, 'datetime': '2018-12-18 18:08:21.561198', 'mgs': 0, 'flw2': 0.13, 'flw1': 0.26, 'flw0': 0.0, 'time': 20.8, 'compass': 139.36, 'pitch': 4.07, 'roll': 4.67}
{'lipoC2': 0.1, 'temp': 0.0, 'lipoC3S3': 12.34, 'state': 'normal', 'rot1': 0, 'rot0': 43, 'rot3': 0, 'rot2': 0, 'depth': 1.92, 'yaw': -138.59, 'datetime': '2018-12-18 18:08:21.768781', 'mgs': 0, 'flw2': 0.0, 'flw1': 0.35, 'flw0': 0.0, 'time': 21.0, 'compass': 149.02, 'pitch': 2.21, 'roll': 4.12}
{'lipoC2': 0.05, 'temp': 0.0, 'lipoC3S3': 12.41, 'state': 'normal', 'rot1': 0, 'rot0': 43, 'rot3': 0, 'rot2': 0, 'depth': 1.843, 'yaw': -130.65, 'datetime': '2018-12-18 18:08:21.979162', 'mgs': 0, 'flw2': 0.11, 'flw1': 0.0, 'flw0': 0.1, 'time': 21.21, 'compass': 156.96, 'pitch': 1.29, 'roll': 3.52}
{'lipoC2': 0.11, 'temp': 0.0, 'lipoC3S3': 12.34, 'state': 'normal', 'rot1': 0, 'rot0': 43, 'rot3': 0, 'rot2': 0, 'depth': -1.743, 'yaw': -123.26, 'datetime': '2018-12-18 18:08:22.187492', 'mgs': 0, 'flw2': 0.0, 'flw1': 0.35, 'flw0': 0.0, 'time': 21.42, 'compass': 164.35, 'pitch': 1.3, 'roll': 3.06}
{'lipoC2': 0.12, 'temp': 0.0, 'lipoC3S3': 12.12, 'state': 'normal', 'rot1': 0, 'rot0': 43, 'rot3': 0, 'rot2': 0, 'depth': 0.775, 'yaw': -116.59, 'datetime': '2018-12-18 18:08:22.395695', 'mgs': 0, 'flw2': 0.13, 'flw1': 0.26, 'flw0': 0.0, 'time': 21.63, 'compass': 171.02, 'pitch': 1.33, 'roll': 2.86}
{'lipoC2': 0.0, 'temp': 0.0, 'lipoC3S3': 12.52, 'state': 'normal', 'rot1': 0, 'rot0': 43, 'rot3': 0, 'rot2': 0, 'depth': 1.767, 'yaw': -110.52, 'datetime': '2018-12-18 18:08:22.604872', 'mgs': 0, 'flw2': 0.0, 'flw1': 0.0, 'flw0': 3.89, 'time': 21.84, 'compass': 177.09, 'pitch': 0.98, 'roll': 2.71}
{'lipoC2': 0.14, 'temp': 0.0, 'lipoC3S3': 12.29, 'state': 'normal', 'rot1': 2, 'rot0': 43, 'rot3': 0, 'rot2': 0, 'depth': -0.98, 'yaw': -107.17, 'datetime': '2018-12-18 18:08:22.816189', 'mgs': 0, 'flw2': 0.0, 'flw1': 0.44, 'flw0': 2.92, 'time': 22.05, 'compass': -179.56, 'pitch': 1.61, 'roll': 2.21}
{'lipoC2': 0.12, 'temp': 0.0, 'lipoC3S3': 12.47, 'state': 'normal', 'rot1': 5, 'rot0': 43, 'rot3': 0, 'rot2': 0, 'depth': -1.514, 'yaw': -107.11, 'datetime': '2018-12-18 18:08:23.026913', 'mgs': 0, 'flw2': 0.12, 'flw1': 0.0, 'flw0': 1.67, 'time': 22.26, 'compass': -179.5, 'pitch': 2.78, 'roll': 1.72}
{'lipoC2': 0.01, 'temp': 0.0, 'lipoC3S3': 12.41, 'state': 'normal', 'rot1': 6, 'rot0': 43, 'rot3': 0, 'rot2': 0, 'depth': 1.614, 'yaw': -108.8, 'datetime': '2018-12-18 18:08:23.232433', 'mgs': 0, 'flw2': 0.21, 'flw1': 0.0, 'flw0': 2.8, 'time': 22.46, 'compass': 178.81, 'pitch': 2.37, 'roll': 1.76}
{'lipoC2': 0.0, 'temp': 0.0, 'lipoC3S3': 12.51, 'state': 'normal', 'rot1': 9, 'rot0': 43, 'rot3': 0, 'rot2': 0, 'depth': 1.92, 'yaw': -112.61, 'datetime': '2018-12-18 18:08:23.439982', 'mgs': 0, 'flw2': 0.18, 'flw1': 0.06, 'flw0': 2.65, 'time': 22.67, 'compass': 175.0, 'pitch': 1.68, 'roll': 1.92}
{'lipoC2': 0.0, 'temp': 0.0, 'lipoC3S3': 12.51, 'state': 'normal', 'rot1': 11, 'rot0': 43, 'rot3': 0, 'rot2': 0, 'depth': 0.012, 'yaw': -117.88, 'datetime': '2018-12-18 18:08:23.648715', 'mgs': 0, 'flw2': 0.04, 'flw1': 0.0, 'flw0': 2.97, 'time': 22.88, 'compass': 169.73, 'pitch': 1.66, 'roll': 2.05}
{'lipoC2': 0.0, 'temp': 0.0, 'lipoC3S3': 12.51, 'state': 'normal', 'rot1': 13, 'rot0': 43, 'rot3': 0, 'rot2': 0, 'depth': 1.691, 'yaw': -124.74, 'datetime': '2018-12-18 18:08:23.859296', 'mgs': 0, 'flw2': 0.12, 'flw1': 0.21, 'flw0': 2.71, 'time': 23.09, 'compass': 162.87, 'pitch': 2.0, 'roll': 1.94}
{'lipoC2': 0.06, 'temp': 0.0, 'lipoC3S3': 12.12, 'state': 'normal', 'rot1': 16, 'rot0': 43, 'rot3': 0, 'rot2': 0, 'depth': 0.47, 'yaw': -132.65, 'datetime': '2018-12-18 18:08:24.067586', 'mgs': 0, 'flw2': 0.0, 'flw1': 0.06, 'flw0': 3.11, 'time': 23.3, 'compass': 154.96, 'pitch': 2.16, 'roll': 1.59}
{'lipoC2': 0.0, 'temp': 0.0, 'lipoC3S3': 12.13, 'state': 'normal', 'rot1': 18, 'rot0': 43, 'rot3': 0, 'rot2': 0, 'depth': -0.903, 'yaw': -141.42, 'datetime': '2018-12-18 18:08:24.276819', 'mgs': 0, 'flw2': 0.63, 'flw1': 0.0, 'flw0': 3.04, 'time': 23.51, 'compass': 146.19, 'pitch': 2.13, 'roll': 1.31}
{'lipoC2': 0.12, 'temp': 0.0, 'lipoC3S3': 12.13, 'state': 'normal', 'rot1': 21, 'rot0': 45, 'rot3': 0, 'rot2': 0, 'depth': 1.157, 'yaw': -149.66, 'datetime': '2018-12-18 18:08:24.485034', 'mgs': 0, 'flw2': 2.91, 'flw1': 0.0, 'flw0': 3.0, 'time': 23.72, 'compass': 137.95, 'pitch': 2.8, 'roll': 1.35}
{'lipoC2': 0.0, 'temp': 0.0, 'lipoC3S3': 12.51, 'state': 'normal', 'rot1': 23, 'rot0': 47, 'rot3': 0, 'rot2': 0, 'depth': 2.377, 'yaw': -155.36, 'datetime': '2018-12-18 18:08:24.693914', 'mgs': 0, 'flw2': 3.02, 'flw1': 0.0, 'flw0': 2.56, 'time': 23.92, 'compass': 132.25, 'pitch': 4.02, 'roll': 1.63}
{'lipoC2': 0.0, 'temp': 0.0, 'lipoC3S3': 12.51, 'state': 'normal', 'rot1': 25, 'rot0': 49, 'rot3': 0, 'rot2': 0, 'depth': 2.072, 'yaw': -159.87, 'datetime': '2018-12-18 18:08:24.904019', 'mgs': 0, 'flw2': 3.02, 'flw1': 0.15, 'flw0': 2.6, 'time': 24.13, 'compass': 127.74, 'pitch': 4.75, 'roll': 1.83}
{'lipoC2': 0.0, 'temp': 0.0, 'lipoC3S3': 12.46, 'state': 'normal', 'rot1': 28, 'rot0': 52, 'rot3': 0, 'rot2': 0, 'depth': 2.225, 'yaw': -163.31, 'datetime': '2018-12-18 18:08:25.113006', 'mgs': 0, 'flw2': 2.6, 'flw1': 0.35, 'flw0': 2.99, 'time': 24.34, 'compass': 124.29, 'pitch': 5.08, 'roll': 1.93}
{'lipoC2': 0.14, 'temp': 0.0, 'lipoC3S3': 12.17, 'state': 'normal', 'rot1': 30, 'rot0': 54, 'rot3': 0, 'rot2': 0, 'depth': 0.699, 'yaw': -165.72, 'datetime': '2018-12-18 18:08:25.323210', 'mgs': 0, 'flw2': 2.97, 'flw1': 0.09, 'flw0': 2.6, 'time': 24.55, 'compass': 121.89, 'pitch': 5.08, 'roll': 2.13}
{'lipoC2': 0.06, 'temp': 0.0, 'lipoC3S3': 12.38, 'state': 'normal', 'rot1': 33, 'rot0': 56, 'rot3': 0, 'rot2': 0, 'depth': -1.437, 'yaw': -167.78, 'datetime': '2018-12-18 18:08:25.533579', 'mgs': 0, 'flw2': 2.91, 'flw1': 0.0, 'flw0': 2.87, 'time': 24.76, 'compass': 119.83, 'pitch': 5.05, 'roll': 2.1}
{'lipoC2': 0.1, 'temp': 0.0, 'lipoC3S3': 12.12, 'state': 'normal', 'rot1': 36, 'rot0': 59, 'rot3': 0, 'rot2': 0, 'depth': 1.157, 'yaw': -169.64, 'datetime': '2018-12-18 18:08:25.742827', 'mgs': 0, 'flw2': 2.8, 'flw1': 0.0, 'flw0': 3.0, 'time': 24.97, 'compass': 117.97, 'pitch': 5.17, 'roll': 1.94}
{'lipoC2': 0.11, 'temp': 0.0, 'lipoC3S3': 12.12, 'state': 'normal', 'rot1': 38, 'rot0': 61, 'rot3': 0, 'rot2': 0, 'depth': 0.928, 'yaw': -171.28, 'datetime': '2018-12-18 18:08:25.950874', 'mgs': 0, 'flw2': 2.86, 'flw1': 0.0, 'flw0': 2.94, 'time': 25.18, 'compass': 116.33, 'pitch': 5.14, 'roll': 2.04}
{'lipoC2': 0.13, 'temp': 0.0, 'lipoC3S3': 12.31, 'state': 'normal', 'rot1': 41, 'rot0': 63, 'rot3': 0, 'rot2': 0, 'depth': -0.446, 'yaw': -172.72, 'datetime': '2018-12-18 18:08:26.160964', 'mgs': 0, 'flw2': 2.72, 'flw1': 0.47, 'flw0': 2.87, 'time': 25.39, 'compass': 114.89, 'pitch': 4.97, 'roll': 2.19}
{'lipoC2': 0.0, 'temp': 0.0, 'lipoC3S3': 12.26, 'state': 'normal', 'rot1': 43, 'rot0': 66, 'rot3': 0, 'rot2': 0, 'depth': 0.546, 'yaw': -174.07, 'datetime': '2018-12-18 18:08:26.366305', 'mgs': 0, 'flw2': 2.86, 'flw1': 0.47, 'flw0': 2.87, 'time': 25.59, 'compass': 113.54, 'pitch': 4.8, 'roll': 2.31}
{'lipoC2': 0.11, 'temp': 0.0, 'lipoC3S3': 12.12, 'state': 'normal', 'rot1': 46, 'rot0': 68, 'rot3': 0, 'rot2': 0, 'depth': 1.157, 'yaw': -175.44, 'datetime': '2018-12-18 18:08:26.575667', 'mgs': 0, 'flw2': 2.91, 'flw1': 0.0, 'flw0': 3.1, 'time': 25.8, 'compass': 112.17, 'pitch': 4.75, 'roll': 2.17}
{'lipoC2': 0.0, 'temp': 0.0, 'lipoC3S3': 12.31, 'state': 'normal', 'rot1': 48, 'rot0': 71, 'rot3': 0, 'rot2': 0, 'depth': 0.851, 'yaw': -176.69, 'datetime': '2018-12-18 18:08:26.784339', 'mgs': 0, 'flw2': 2.76, 'flw1': 0.5, 'flw0': 2.94, 'time': 26.01, 'compass': 110.92, 'pitch': 4.56, 'roll': 2.04}
{'lipoC2': 0.13, 'temp': 0.0, 'lipoC3S3': 12.31, 'state': 'normal', 'rot1': 50, 'rot0': 73, 'rot3': 0, 'rot2': 0, 'depth': -0.827, 'yaw': -177.82, 'datetime': '2018-12-18 18:08:26.996047', 'mgs': 0, 'flw2': 2.76, 'flw1': 0.5, 'flw0': 2.83, 'time': 26.22, 'compass': 109.79, 'pitch': 4.15, 'roll': 2.07}
{'lipoC2': 0.0, 'temp': 0.0, 'lipoC3S3': 12.41, 'state': 'normal', 'rot1': 53, 'rot0': 76, 'rot3': 0, 'rot2': 0, 'depth': 1.309, 'yaw': -178.96, 'datetime': '2018-12-18 18:08:27.207554', 'mgs': 0, 'flw2': 2.44, 'flw1': 0.38, 'flw0': 2.99, 'time': 26.43, 'compass': 108.65, 'pitch': 3.77, 'roll': 1.9}
{'lipoC2': 0.11, 'temp': 0.0, 'lipoC3S3': 12.13, 'state': 'normal', 'rot1': 54, 'rot0': 77, 'rot3': 0, 'rot2': 0, 'depth': 1.157, 'yaw': 179.79, 'datetime': '2018-12-18 18:08:27.412755', 'mgs': 0, 'flw2': 0.0, 'flw1': 0.0, 'flw0': 0.2, 'time': 26.64, 'compass': 107.4, 'pitch': 3.54, 'roll': 1.7}
{'lipoC2': 0.0, 'temp': 0.0, 'lipoC3S3': 12.34, 'state': 'normal', 'rot1': 54, 'rot0': 77, 'rot3': 0, 'rot2': 0, 'depth': 0.699, 'yaw': 178.49, 'datetime': '2018-12-18 18:08:27.621166', 'mgs': 0, 'flw2': 0.0, 'flw1': 0.41, 'flw0': 0.01, 'time': 26.85, 'compass': 106.1, 'pitch': 1.52, 'roll': 1.88}
{'lipoC2': 0.1, 'temp': 0.0, 'lipoC3S3': 12.35, 'state': 'normal', 'rot1': 54, 'rot0': 77, 'rot3': 0, 'rot2': 0, 'depth': -1.514, 'yaw': 177.26, 'datetime': '2018-12-18 18:08:27.831023', 'mgs': 0, 'flw2': 0.06, 'flw1': 0.0, 'flw0': 0.11, 'time': 27.06, 'compass': 104.87, 'pitch': -0.06, 'roll': 2.31}
{'lipoC2': 0.15, 'temp': 0.0, 'lipoC3S3': 12.27, 'state': 'normal', 'rot1': 54, 'rot0': 77, 'rot3': 0, 'rot2': 0, 'depth': -0.522, 'yaw': 176.06, 'datetime': '2018-12-18 18:08:28.043382', 'mgs': 0, 'flw2': 0.04, 'flw1': 0.0, 'flw0': 0.13, 'time': 27.27, 'compass': 103.67, 'pitch': -0.15, 'roll': 2.71}
{'lipoC2': 0.0, 'temp': 0.0, 'lipoC3S3': 12.19, 'state': 'normal', 'rot1': 54, 'rot0': 77, 'rot3': 0, 'rot2': 0, 'depth': -0.293, 'yaw': 174.7, 'datetime': '2018-12-18 18:08:28.250071', 'mgs': 0, 'flw2': 0.0, 'flw1': 0.0, 'flw0': 0.17, 'time': 27.47, 'compass': 102.31, 'pitch': 0.61, 'roll': 2.84}
{'lipoC2': 0.0, 'temp': 0.0, 'lipoC3S3': 12.51, 'state': 'normal', 'rot1': 54, 'rot0': 77, 'rot3': 0, 'rot2': 0, 'depth': 1.92, 'yaw': 173.27, 'datetime': '2018-12-18 18:08:28.460959', 'mgs': 0, 'flw2': 0.02, 'flw1': 0.38, 'flw0': 0.0, 'time': 27.68, 'compass': 100.88, 'pitch': 1.09, 'roll': 2.69}
{'lipoC2': 0.12, 'temp': 0.0, 'lipoC3S3': 12.14, 'state': 'normal', 'rot1': 54, 'rot0': 77, 'rot3': 0, 'rot2': 0, 'depth': 0.699, 'yaw': 171.74, 'datetime': '2018-12-18 18:08:28.670501', 'mgs': 0, 'flw2': 0.0, 'flw1': 0.0, 'flw0': 0.18, 'time': 27.89, 'compass': 99.35, 'pitch': 0.91, 'roll': 2.39}
{'lipoC2': 0.0, 'temp': 0.0, 'lipoC3S3': 12.51, 'state': 'normal', 'rot1': 54, 'rot0': 77, 'rot3': 0, 'rot2': 0, 'depth': 1.691, 'yaw': 170.1, 'datetime': '2018-12-18 18:08:28.878625', 'mgs': 0, 'flw2': 0.07, 'flw1': 0.35, 'flw0': 0.0, 'time': 28.1, 'compass': 97.71, 'pitch': 0.64, 'roll': 2.2}
{'lipoC2': 0.15, 'temp': 0.0, 'lipoC3S3': 12.17, 'state': 'normal', 'rot1': 54, 'rot0': 77, 'rot3': 0, 'rot2': 0, 'depth': 0.851, 'yaw': 168.48, 'datetime': '2018-12-18 18:08:29.086110', 'mgs': 0, 'flw2': 0.01, 'flw1': 0.0, 'flw0': 0.16, 'time': 28.31, 'compass': 96.09, 'pitch': 0.67, 'roll': 2.05}
{'lipoC2': 0.12, 'temp': 0.0, 'lipoC3S3': 12.33, 'state': 'normal', 'rot1': 54, 'rot0': 77, 'rot3': 0, 'rot2': 0, 'depth': -1.285, 'yaw': 166.82, 'datetime': '2018-12-18 18:08:29.294282', 'mgs': 0, 'flw2': 0.13, 'flw1': 0.0, 'flw0': 0.06, 'time': 28.52, 'compass': 94.43, 'pitch': 0.81, 'roll': 2.0}
{'lipoC2': 0.0, 'temp': 0.0, 'lipoC3S3': 12.22, 'state': 'normal', 'rot1': 54, 'rot0': 77, 'rot3': 0, 'rot2': 0, 'depth': -0.446, 'yaw': 165.2, 'datetime': '2018-12-18 18:08:29.502035', 'mgs': 0, 'flw2': 0.06, 'flw1': 0.38, 'flw0': 0.12, 'time': 28.73, 'compass': 92.81, 'pitch': 0.76, 'roll': 2.04}
{'lipoC2': 0.0, 'temp': 0.0, 'lipoC3S3': 12.48, 'state': 'normal', 'rot1': 54, 'rot0': 77, 'rot3': 0, 'rot2': 0, 'depth': 1.691, 'yaw': 163.6, 'datetime': '2018-12-18 18:08:29.712545', 'mgs': 0, 'flw2': 0.12, 'flw1': 0.21, 'flw0': 0.0, 'time': 28.94, 'compass': 91.21, 'pitch': 0.42, 'roll': 2.3}
{'lipoC2': 0.0, 'temp': 0.0, 'lipoC3S3': 12.51, 'state': 'normal', 'rot1': 55, 'rot0': 78, 'rot3': 0, 'rot2': 0, 'depth': 1.691, 'yaw': 162.13, 'datetime': '2018-12-18 18:08:29.924114', 'mgs': 0, 'flw2': 2.92, 'flw1': 0.38, 'flw0': 2.98, 'time': 29.15, 'compass': 89.74, 'pitch': 0.39, 'roll': 2.49}
{'lipoC2': 0.0, 'temp': 0.0, 'lipoC3S3': 12.37, 'state': 'normal', 'rot1': 57, 'rot0': 81, 'rot3': 0, 'rot2': 0, 'depth': 1.157, 'yaw': 160.23, 'datetime': '2018-12-18 18:08:30.132836', 'mgs': 0, 'flw2': 2.75, 'flw1': 0.38, 'flw0': 2.91, 'time': 29.35, 'compass': 87.84, 'pitch': 3.1, 'roll': 2.23}
{'lipoC2': 0.0, 'temp': 0.0, 'lipoC3S3': 12.5, 'state': 'normal', 'rot1': 60, 'rot0': 83, 'rot3': 0, 'rot2': 0, 'depth': 0.241, 'yaw': 158.12, 'datetime': '2018-12-18 18:08:30.341232', 'mgs': 0, 'flw2': 2.91, 'flw1': 0.38, 'flw0': 2.83, 'time': 29.56, 'compass': 85.73, 'pitch': 5.18, 'roll': 1.66}
{'lipoC2': 0.1, 'temp': 0.0, 'lipoC3S3': 12.34, 'state': 'normal', 'rot1': 62, 'rot0': 85, 'rot3': 0, 'rot2': 0, 'depth': -1.59, 'yaw': 156.11, 'datetime': '2018-12-18 18:08:30.550041', 'mgs': 0, 'flw2': 2.84, 'flw1': 0.0, 'flw0': 2.94, 'time': 29.77, 'compass': 83.72, 'pitch': 4.79, 'roll': 1.09}
{'lipoC2': 0.06, 'temp': 0.0, 'lipoC3S3': 12.1, 'state': 'normal', 'rot1': 64, 'rot0': 88, 'rot3': 0, 'rot2': 0, 'depth': 1.08, 'yaw': 154.48, 'datetime': '2018-12-18 18:08:30.761297', 'mgs': 0, 'flw2': 3.06, 'flw1': 0.06, 'flw0': 2.54, 'time': 29.98, 'compass': 82.09, 'pitch': 3.83, 'roll': 0.75}
{'lipoC2': 0.14, 'temp': 0.0, 'lipoC3S3': 12.23, 'state': 'normal', 'rot1': 67, 'rot0': 90, 'rot3': 0, 'rot2': 0, 'depth': -0.446, 'yaw': 153.2, 'datetime': '2018-12-18 18:08:30.967792', 'mgs': 0, 'flw2': 2.86, 'flw1': 0.29, 'flw0': 2.83, 'time': 30.19, 'compass': 80.81, 'pitch': 3.96, 'roll': 0.74}
{'lipoC2': 0.11, 'temp': 0.0, 'lipoC3S3': 12.13, 'state': 'normal', 'rot1': 69, 'rot0': 92, 'rot3': 0, 'rot2': 0, 'depth': 1.08, 'yaw': 152.21, 'datetime': '2018-12-18 18:08:31.176421', 'mgs': 0, 'flw2': 2.72, 'flw1': 0.0, 'flw0': 2.98, 'time': 30.4, 'compass': 79.82, 'pitch': 4.68, 'roll': 1.15}
{'lipoC2': 0.11, 'temp': 0.0, 'lipoC3S3': 12.34, 'state': 'normal', 'rot1': 71, 'rot0': 95, 'rot3': 0, 'rot2': 0, 'depth': 2.148, 'yaw': 151.16, 'datetime': '2018-12-18 18:08:31.390164', 'mgs': 0, 'flw2': 2.83, 'flw1': 0.5, 'flw0': 2.82, 'time': 30.61, 'compass': 78.77, 'pitch': 4.84, 'roll': 1.72}
{'lipoC2': 0.13, 'temp': 0.0, 'lipoC3S3': 12.26, 'state': 'normal', 'rot1': 74, 'rot0': 97, 'rot3': 0, 'rot2': 0, 'depth': 1.92, 'yaw': 149.85, 'datetime': '2018-12-18 18:08:31.599845', 'mgs': 0, 'flw2': 2.93, 'flw1': 0.23, 'flw0': 2.72, 'time': 30.82, 'compass': 77.45, 'pitch': 4.36, 'roll': 2.11}
{'lipoC2': 0.06, 'temp': 0.0, 'lipoC3S3': 12.46, 'state': 'normal', 'rot1': 76, 'rot0': 99, 'rot3': 0, 'rot2': 0, 'depth': 0.623, 'yaw': 148.44, 'datetime': '2018-12-18 18:08:31.809491', 'mgs': 0, 'flw2': 2.94, 'flw1': 0.0, 'flw0': 2.55, 'time': 31.02, 'compass': 76.05, 'pitch': 3.91, 'roll': 2.11}
{'lipoC2': 0.13, 'temp': 0.0, 'lipoC3S3': 12.13, 'state': 'normal', 'rot1': 78, 'rot0': 102, 'rot3': 0, 'rot2': 0, 'depth': 0.928, 'yaw': 146.9, 'datetime': '2018-12-18 18:08:32.017333', 'mgs': 0, 'flw2': 2.72, 'flw1': 0.0, 'flw0': 3.06, 'time': 31.23, 'compass': 74.51, 'pitch': 3.78, 'roll': 1.98}
{'lipoC2': 0.12, 'temp': 0.0, 'lipoC3S3': 12.1, 'state': 'normal', 'rot1': 81, 'rot0': 104, 'rot3': 0, 'rot2': 0, 'depth': 0.928, 'yaw': 145.58, 'datetime': '2018-12-18 18:08:32.226265', 'mgs': 0, 'flw2': 2.98, 'flw1': 0.0, 'flw0': 2.53, 'time': 31.44, 'compass': 73.18, 'pitch': 3.74, 'roll': 1.93}
{'lipoC2': 0.0, 'temp': 0.0, 'lipoC3S3': 12.17, 'state': 'normal', 'rot1': 83, 'rot0': 106, 'rot3': 0, 'rot2': 0, 'depth': -0.446, 'yaw': 144.27, 'datetime': '2018-12-18 18:08:32.434710', 'mgs': 0, 'flw2': 2.8, 'flw1': 0.0, 'flw0': 3.11, 'time': 31.65, 'compass': 71.88, 'pitch': 3.47, 'roll': 1.81}
{'lipoC2': 0.0, 'temp': 0.0, 'lipoC3S3': 12.51, 'state': 'normal', 'rot1': 86, 'rot0': 109, 'rot3': 0, 'rot2': 0, 'depth': 1.996, 'yaw': 143.0, 'datetime': '2018-12-18 18:08:32.644156', 'mgs': 0, 'flw2': 3.0, 'flw1': 0.23, 'flw0': 2.78, 'time': 31.86, 'compass': 70.61, 'pitch': 3.17, 'roll': 1.76}
{'lipoC2': 0.0, 'temp': 0.0, 'lipoC3S3': 12.52, 'state': 'normal', 'rot1': 88, 'rot0': 111, 'rot3': 0, 'rot2': 0, 'depth': 1.996, 'yaw': 141.59, 'datetime': '2018-12-18 18:08:32.848906', 'mgs': 0, 'flw2': 2.94, 'flw1': 0.03, 'flw0': 2.7, 'time': 32.07, 'compass': 69.2, 'pitch': 3.1, 'roll': 1.47}
{'lipoC2': 0.0, 'temp': 0.0, 'lipoC3S3': 12.5, 'state': 'normal', 'rot1': 91, 'rot0': 113, 'rot3': 0, 'rot2': 0, 'depth': 2.072, 'yaw': 140.12, 'datetime': '2018-12-18 18:08:33.056421', 'mgs': 0, 'flw2': 2.92, 'flw1': 0.09, 'flw0': 2.6, 'time': 32.28, 'compass': 67.73, 'pitch': 3.2, 'roll': 1.11}
{'lipoC2': 0.14, 'temp': 0.0, 'lipoC3S3': 12.13, 'state': 'normal', 'rot1': 93, 'rot0': 116, 'rot3': 0, 'rot2': 0, 'depth': 1.08, 'yaw': 138.7, 'datetime': '2018-12-18 18:08:33.277387', 'mgs': 0, 'flw2': 3.0, 'flw1': 0.12, 'flw0': 2.66, 'time': 32.49, 'compass': 66.31, 'pitch': 3.39, 'roll': 0.97}
{'lipoC2': 0.0, 'temp': 0.0, 'lipoC3S3': 12.23, 'state': 'normal', 'rot1': 96, 'rot0': 118, 'rot3': 0, 'rot2': 0, 'depth': 1.614, 'yaw': 137.2, 'datetime': '2018-12-18 18:08:33.484135', 'mgs': 0, 'flw2': 2.88, 'flw1': 0.29, 'flw0': 2.8, 'time': 32.69, 'compass': 64.81, 'pitch': 3.41, 'roll': 1.07}
{'lipoC2': 0.0, 'temp': 0.0, 'lipoC3S3': 12.45, 'state': 'normal', 'rot1': 98, 'rot0': 120, 'rot3': 0, 'rot2': 0, 'depth': 1.614, 'yaw': 135.56, 'datetime': '2018-12-18 18:08:33.692753', 'mgs': 0, 'flw2': 2.42, 'flw1': 0.18, 'flw0': 3.04, 'time': 32.9, 'compass': 63.17, 'pitch': 3.38, 'roll': 1.32}
{'lipoC2': 0.04, 'temp': 0.0, 'lipoC3S3': 12.12, 'state': 'normal', 'rot1': 101, 'rot0': 123, 'rot3': 0, 'rot2': 0, 'depth': 0.928, 'yaw': 133.83, 'datetime': '2018-12-18 18:08:33.899813', 'mgs': 0, 'flw2': 2.62, 'flw1': 0.03, 'flw0': 3.03, 'time': 33.11, 'compass': 61.44, 'pitch': 3.54, 'roll': 1.44}
{'lipoC2': 0.09, 'temp': 0.0, 'lipoC3S3': 12.35, 'state': 'normal', 'rot1': 103, 'rot0': 125, 'rot3': 0, 'rot2': 0, 'depth': 1.92, 'yaw': 131.93, 'datetime': '2018-12-18 18:08:34.112968', 'mgs': 0, 'flw2': 2.61, 'flw1': 0.47, 'flw0': 3.0, 'time': 33.32, 'compass': 59.54, 'pitch': 3.75, 'roll': 1.29}
{'lipoC2': 0.15, 'temp': 0.0, 'lipoC3S3': 12.29, 'state': 'normal', 'rot1': 105, 'rot0': 127, 'rot3': 0, 'rot2': 0, 'depth': -0.446, 'yaw': 129.99, 'datetime': '2018-12-18 18:08:34.319109', 'mgs': 0, 'flw2': 2.6, 'flw1': 0.5, 'flw0': 2.92, 'time': 33.53, 'compass': 57.6, 'pitch': 4.01, 'roll': 1.16}
{'lipoC2': 0.0, 'temp': 0.0, 'lipoC3S3': 12.51, 'state': 'normal', 'rot1': 108, 'rot0': 129, 'rot3': 0, 'rot2': 0, 'depth': -1.132, 'yaw': 128.13, 'datetime': '2018-12-18 18:08:34.530119', 'mgs': 0, 'flw2': 2.95, 'flw1': 0.21, 'flw0': 2.83, 'time': 33.74, 'compass': 55.74, 'pitch': 4.28, 'roll': 0.98}
{'lipoC2': 0.01, 'temp': 0.0, 'lipoC3S3': 12.17, 'state': 'normal', 'rot1': 110, 'rot0': 132, 'rot3': 0, 'rot2': 0, 'depth': 1.767, 'yaw': 126.2, 'datetime': '2018-12-18 18:08:34.736075', 'mgs': 0, 'flw2': 2.53, 'flw1': 0.32, 'flw0': 2.97, 'time': 33.95, 'compass': 53.8, 'pitch': 4.54, 'roll': 0.86}
{'lipoC2': 0.15, 'temp': 0.0, 'lipoC3S3': 12.21, 'state': 'normal', 'rot1': 112, 'rot0': 134, 'rot3': 0, 'rot2': 0, 'depth': 1.233, 'yaw': 124.5, 'datetime': '2018-12-18 18:08:34.951625', 'mgs': 0, 'flw2': 2.82, 'flw1': 0.35, 'flw0': 2.81, 'time': 34.16, 'compass': 52.11, 'pitch': 4.84, 'roll': 0.8}
{'lipoC2': 0.0, 'temp': 0.0, 'lipoC3S3': 12.52, 'state': 'normal', 'rot1': 115, 'rot0': 136, 'rot3': 0, 'rot2': 0, 'depth': -0.217, 'yaw': 122.74, 'datetime': '2018-12-18 18:08:35.159061', 'mgs': 0, 'flw2': 2.73, 'flw1': 0.41, 'flw0': 2.86, 'time': 34.37, 'compass': 50.35, 'pitch': 5.19, 'roll': 0.67}
{'lipoC2': 0.0, 'temp': 0.0, 'lipoC3S3': 12.21, 'state': 'normal', 'rot1': 117, 'rot0': 139, 'rot3': 0, 'rot2': 0, 'depth': -0.293, 'yaw': 120.89, 'datetime': '2018-12-18 18:08:35.364932', 'mgs': 0, 'flw2': 2.87, 'flw1': 0.38, 'flw0': 2.87, 'time': 34.58, 'compass': 48.5, 'pitch': 5.48, 'roll': 0.65}
{'lipoC2': 0.0, 'temp': 0.0, 'lipoC3S3': 12.19, 'state': 'normal', 'rot1': 119, 'rot0': 141, 'rot3': 0, 'rot2': 0, 'depth': -0.293, 'yaw': 119.24, 'datetime': '2018-12-18 18:08:35.572270', 'mgs': 0, 'flw2': 2.78, 'flw1': 0.0, 'flw0': 0.37, 'time': 34.79, 'compass': 46.85, 'pitch': 5.26, 'roll': 0.82}
{'lipoC2': 0.0, 'temp': 0.0, 'lipoC3S3': 12.51, 'state': 'normal', 'rot1': 120, 'rot0': 143, 'rot3': 0, 'rot2': 0, 'depth': 2.148, 'yaw': 119.44, 'datetime': '2018-12-18 18:08:35.781647', 'mgs': 0, 'flw2': 2.91, 'flw1': 0.29, 'flw0': 0.0, 'time': 35.0, 'compass': 47.05, 'pitch': 3.89, 'roll': 1.41}
{'lipoC2': 0.01, 'temp': 0.0, 'lipoC3S3': 12.42, 'state': 'normal', 'rot1': 121, 'rot0': 146, 'rot3': 0, 'rot2': 0, 'depth': -0.751, 'yaw': 121.32, 'datetime': '2018-12-18 18:08:35.990761', 'mgs': 0, 'flw2': 2.94, 'flw1': 0.0, 'flw0': 0.24, 'time': 35.2, 'compass': 48.93, 'pitch': 2.89, 'roll': 2.14}
{'lipoC2': 0.03, 'temp': 0.0, 'lipoC3S3': 12.39, 'state': 'normal', 'rot1': 122, 'rot0': 148, 'rot3': 0, 'rot2': 0, 'depth': -1.132, 'yaw': 124.1, 'datetime': '2018-12-18 18:08:36.195804', 'mgs': 0, 'flw2': 2.88, 'flw1': 0.0, 'flw0': 2.56, 'time': 35.41, 'compass': 51.71, 'pitch': 3.04, 'roll': 2.51}
{'lipoC2': 0.09, 'temp': 0.0, 'lipoC3S3': 12.35, 'state': 'normal', 'rot1': 124, 'rot0': 151, 'rot3': 0, 'rot2': 0, 'depth': -1.132, 'yaw': 125.79, 'datetime': '2018-12-18 18:08:36.406462', 'mgs': 0, 'flw2': 2.64, 'flw1': 0.47, 'flw0': 2.91, 'time': 35.62, 'compass': 53.39, 'pitch': 4.15, 'roll': 2.47}
{'lipoC2': 0.05, 'temp': 0.0, 'lipoC3S3': 12.38, 'state': 'normal', 'rot1': 126, 'rot0': 153, 'rot3': 0, 'rot2': 0, 'depth': 1.843, 'yaw': 125.9, 'datetime': '2018-12-18 18:08:36.616801', 'mgs': 0, 'flw2': 2.94, 'flw1': 0.0, 'flw0': 2.76, 'time': 35.83, 'compass': 53.51, 'pitch': 4.58, 'roll': 2.19}
{'lipoC2': 0.0, 'temp': 0.0, 'lipoC3S3': 12.51, 'state': 'normal', 'rot1': 129, 'rot0': 155, 'rot3': 0, 'rot2': 0, 'depth': 0.317, 'yaw': 125.27, 'datetime': '2018-12-18 18:08:36.825041', 'mgs': 0, 'flw2': 2.95, 'flw1': 0.15, 'flw0': 2.66, 'time': 36.04, 'compass': 52.88, 'pitch': 4.22, 'roll': 1.96}
{'lipoC2': 0.14, 'temp': 0.0, 'lipoC3S3': 12.27, 'state': 'normal', 'rot1': 131, 'rot0': 158, 'rot3': 0, 'rot2': 0, 'depth': -0.98, 'yaw': 124.23, 'datetime': '2018-12-18 18:08:37.034657', 'mgs': 0, 'flw2': 2.77, 'flw1': 0.0, 'flw0': 3.1, 'time': 36.25, 'compass': 51.84, 'pitch': 3.88, 'roll': 1.76}
{'lipoC2': 0.0, 'temp': 0.0, 'lipoC3S3': 12.5, 'state': 'normal', 'rot1': 134, 'rot0': 160, 'rot3': 0, 'rot2': 0, 'depth': 1.996, 'yaw': 123.02, 'datetime': '2018-12-18 18:08:37.242801', 'mgs': 0, 'flw2': 2.53, 'flw1': 0.0, 'flw0': 2.59, 'time': 36.46, 'compass': 50.63, 'pitch': 3.8, 'roll': 1.53}
{'lipoC2': 0.13, 'temp': 0.0, 'lipoC3S3': 12.1, 'state': 'normal', 'rot1': 136, 'rot0': 163, 'rot3': 0, 'rot2': 0, 'depth': 1.08, 'yaw': 121.7, 'datetime': '2018-12-18 18:08:37.453359', 'mgs': 0, 'flw2': 2.95, 'flw1': 0.0, 'flw0': 2.69, 'time': 36.67, 'compass': 49.31, 'pitch': 3.97, 'roll': 1.4}
{'lipoC2': 0.02, 'temp': 0.0, 'lipoC3S3': 12.13, 'state': 'normal', 'rot1': 138, 'rot0': 165, 'rot3': 0, 'rot2': 0, 'depth': 1.691, 'yaw': 120.34, 'datetime': '2018-12-18 18:08:37.662818', 'mgs': 0, 'flw2': 2.56, 'flw1': 0.15, 'flw0': 2.94, 'time': 36.88, 'compass': 47.95, 'pitch': 4.17, 'roll': 1.31}
{'lipoC2': 0.05, 'temp': 0.0, 'lipoC3S3': 12.37, 'state': 'normal', 'rot1': 140, 'rot0': 168, 'rot3': 0, 'rot2': 0, 'depth': -1.361, 'yaw': 119.05, 'datetime': '2018-12-18 18:08:37.873735', 'mgs': 0, 'flw2': 2.47, 'flw1': 0.41, 'flw0': 2.91, 'time': 37.09, 'compass': 46.66, 'pitch': 4.35, 'roll': 1.45}
{'lipoC2': 0.0, 'temp': 0.0, 'lipoC3S3': 12.51, 'state': 'normal', 'rot1': 143, 'rot0': 170, 'rot3': 0, 'rot2': 0, 'depth': -1.056, 'yaw': 117.86, 'datetime': '2018-12-18 18:08:38.082948', 'mgs': 0, 'flw2': 3.0, 'flw1': 0.23, 'flw0': 2.55, 'time': 37.3, 'compass': 45.46, 'pitch': 4.32, 'roll': 1.99}
{'lipoC2': 0.0, 'temp': 0.0, 'lipoC3S3': 12.51, 'state': 'normal', 'rot1': 145, 'rot0': 172, 'rot3': 0, 'rot2': 0, 'depth': 1.996, 'yaw': 116.77, 'datetime': '2018-12-18 18:08:38.290918', 'mgs': 0, 'flw2': 2.89, 'flw1': 0.26, 'flw0': 2.82, 'time': 37.51, 'compass': 44.38, 'pitch': 4.37, 'roll': 2.19}
{'lipoC2': 0.11, 'temp': 0.0, 'lipoC3S3': 12.34, 'state': 'normal', 'rot1': 148, 'rot0': 175, 'rot3': 0, 'rot2': 0, 'depth': 1.843, 'yaw': 115.49, 'datetime': '2018-12-18 18:08:38.500122', 'mgs': 0, 'flw2': 2.7, 'flw1': 0.47, 'flw0': 2.94, 'time': 37.71, 'compass': 43.1, 'pitch': 4.45, 'roll': 2.17}
{'lipoC2': 0.12, 'temp': 0.0, 'lipoC3S3': 12.14, 'state': 'normal', 'rot1': 150, 'rot0': 177, 'rot3': 0, 'rot2': 0, 'depth': 0.851, 'yaw': 114.11, 'datetime': '2018-12-18 18:08:38.711346', 'mgs': 0, 'flw2': 2.86, 'flw1': 0.0, 'flw0': 2.95, 'time': 37.92, 'compass': 41.72, 'pitch': 4.36, 'roll': 2.05}
{'lipoC2': 0.04, 'temp': 0.0, 'lipoC3S3': 12.12, 'state': 'normal', 'rot1': 152, 'rot0': 179, 'rot3': 0, 'rot2': 0, 'depth': 0.47, 'yaw': 112.62, 'datetime': '2018-12-18 18:08:38.922207', 'mgs': 0, 'flw2': 2.88, 'flw1': 0.12, 'flw0': 2.62, 'time': 38.13, 'compass': 40.23, 'pitch': 4.31, 'roll': 1.92}
{'lipoC2': 0.0, 'temp': 0.0, 'lipoC3S3': 12.33, 'state': 'normal', 'rot1': 155, 'rot0': 181, 'rot3': 0, 'rot2': 0, 'depth': 0.699, 'yaw': 111.21, 'datetime': '2018-12-18 18:08:39.132651', 'mgs': 0, 'flw2': 2.88, 'flw1': 0.0, 'flw0': 2.82, 'time': 38.34, 'compass': 38.82, 'pitch': 4.59, 'roll': 1.74}
{'lipoC2': 0.14, 'temp': 0.0, 'lipoC3S3': 12.29, 'state': 'normal', 'rot1': 157, 'rot0': 184, 'rot3': 0, 'rot2': 0, 'depth': -0.674, 'yaw': 109.84, 'datetime': '2018-12-18 18:08:39.349225', 'mgs': 0, 'flw2': 2.64, 'flw1': 0.53, 'flw0': 2.88, 'time': 38.55, 'compass': 37.45, 'pitch': 5.05, 'roll': 1.51}
{'lipoC2': 0.03, 'temp': 0.0, 'lipoC3S3': 12.14, 'state': 'normal', 'rot1': 159, 'rot0': 186, 'rot3': 0, 'rot2': 0, 'depth': 0.394, 'yaw': 108.43, 'datetime': '2018-12-18 18:08:39.556196', 'mgs': 0, 'flw2': 2.7, 'flw1': 0.0, 'flw0': 3.05, 'time': 38.76, 'compass': 36.04, 'pitch': 5.28, 'roll': 1.41}
{'lipoC2': 0.09, 'temp': 0.0, 'lipoC3S3': 12.1, 'state': 'normal', 'rot1': 162, 'rot0': 188, 'rot3': 0, 'rot2': 0, 'depth': 0.623, 'yaw': 107.18, 'datetime': '2018-12-18 18:08:39.763048', 'mgs': 0, 'flw2': 2.44, 'flw1': 0.09, 'flw0': 3.06, 'time': 38.97, 'compass': 34.79, 'pitch': 5.43, 'roll': 1.52}
{'lipoC2': 0.17, 'temp': 0.0, 'lipoC3S3': 12.19, 'state': 'normal', 'rot1': 164, 'rot0': 191, 'rot3': 0, 'rot2': 0, 'depth': 1.92, 'yaw': 105.98, 'datetime': '2018-12-18 18:08:39.973931', 'mgs': 0, 'flw2': 2.87, 'flw1': 0.0, 'flw0': 2.98, 'time': 39.18, 'compass': 33.59, 'pitch': 5.39, 'roll': 1.63}
{'lipoC2': 0.1, 'temp': 0.0, 'lipoC3S3': 12.35, 'state': 'normal', 'rot1': 166, 'rot0': 193, 'rot3': 0, 'rot2': 0, 'depth': -1.59, 'yaw': 104.85, 'datetime': '2018-12-18 18:08:40.185088', 'mgs': 0, 'flw2': 2.65, 'flw1': 0.41, 'flw0': 2.97, 'time': 39.39, 'compass': 32.46, 'pitch': 5.36, 'roll': 1.72}
{'lipoC2': 0.0, 'temp': 0.0, 'lipoC3S3': 12.45, 'state': 'normal', 'rot1': 169, 'rot0': 195, 'rot3': 0, 'rot2': 0, 'depth': 1.462, 'yaw': 103.97, 'datetime': '2018-12-18 18:08:40.396364', 'mgs': 0, 'flw2': 2.5, 'flw1': 0.23, 'flw0': 0.44, 'time': 39.6, 'compass': 31.58, 'pitch': 5.52, 'roll': 1.76}
{'lipoC2': 0.04, 'temp': 0.0, 'lipoC3S3': 12.14, 'state': 'normal', 'rot1': 169, 'rot0': 198, 'rot3': 0, 'rot2': 0, 'depth': 1.614, 'yaw': 104.75, 'datetime': '2018-12-18 18:08:40.604982', 'mgs': 0, 'flw2': 2.87, 'flw1': 0.03, 'flw0': 0.0, 'time': 39.81, 'compass': 32.36, 'pitch': 4.9, 'roll': 1.93}
{'lipoC2': 0.01, 'temp': 0.0, 'lipoC3S3': 12.18, 'state': 'normal', 'rot1': 169, 'rot0': 200, 'rot3': 0, 'rot2': 0, 'depth': 0.47, 'yaw': 107.53, 'datetime': '2018-12-18 18:08:40.810980', 'mgs': 0, 'flw2': 2.94, 'flw1': 0.0, 'flw0': 0.0, 'time': 40.01, 'compass': 35.14, 'pitch': 3.86, 'roll': 2.28}
{'lipoC2': 0.01, 'temp': 0.0, 'lipoC3S3': 12.14, 'state': 'normal', 'rot1': 169, 'rot0': 202, 'rot3': 0, 'rot2': 0, 'depth': 0.241, 'yaw': 111.84, 'datetime': '2018-12-18 18:08:41.016295', 'mgs': 0, 'flw2': 2.71, 'flw1': 0.0, 'flw0': 0.21, 'time': 40.22, 'compass': 39.45, 'pitch': 3.48, 'roll': 2.81}
{'lipoC2': 0.0, 'temp': 0.0, 'lipoC3S3': 12.35, 'state': 'normal', 'rot1': 169, 'rot0': 205, 'rot3': 0, 'rot2': 0, 'depth': 0.699, 'yaw': 117.36, 'datetime': '2018-12-18 18:08:41.223493', 'mgs': 0, 'flw2': 2.53, 'flw1': 0.35, 'flw0': 0.02, 'time': 40.43, 'compass': 44.97, 'pitch': 3.66, 'roll': 3.33}
{'lipoC2': 0.0, 'temp': 0.0, 'lipoC3S3': 12.42, 'state': 'normal', 'rot1': 169, 'rot0': 208, 'rot3': 0, 'rot2': 0, 'depth': 1.385, 'yaw': 123.9, 'datetime': '2018-12-18 18:08:41.432620', 'mgs': 0, 'flw2': 2.92, 'flw1': 0.03, 'flw0': 0.0, 'time': 40.64, 'compass': 51.51, 'pitch': 3.76, 'roll': 3.56}
{'lipoC2': 0.12, 'temp': 0.0, 'lipoC3S3': 12.33, 'state': 'normal', 'rot1': 169, 'rot0': 210, 'rot3': 0, 'rot2': 0, 'depth': -1.208, 'yaw': 131.02, 'datetime': '2018-12-18 18:08:41.643683', 'mgs': 0, 'flw2': 2.48, 'flw1': 0.35, 'flw0': 0.0, 'time': 40.85, 'compass': 58.63, 'pitch': 3.88, 'roll': 3.51}
{'lipoC2': 0.0, 'temp': 0.0, 'lipoC3S3': 12.38, 'state': 'normal', 'rot1': 169, 'rot0': 213, 'rot3': 0, 'rot2': 0, 'depth': -0.14, 'yaw': 138.31, 'datetime': '2018-12-18 18:08:41.855671', 'mgs': 0, 'flw2': 2.82, 'flw1': 0.0, 'flw0': 3.96, 'time': 41.06, 'compass': 65.92, 'pitch': 4.15, 'roll': 3.62}
{'lipoC2': 0.09, 'temp': 0.0, 'lipoC3S3': 12.35, 'state': 'normal', 'rot1': 171, 'rot0': 215, 'rot3': 0, 'rot2': 0, 'depth': -1.666, 'yaw': 145.01, 'datetime': '2018-12-18 18:08:42.067025', 'mgs': 0, 'flw2': 2.53, 'flw1': 0.5, 'flw0': 2.84, 'time': 41.27, 'compass': 72.62, 'pitch': 4.96, 'roll': 3.51}
{'lipoC2': 0.0, 'temp': 0.0, 'lipoC3S3': 12.25, 'state': 'normal', 'rot1': 174, 'rot0': 218, 'rot3': 0, 'rot2': 0, 'depth': 1.92, 'yaw': 149.27, 'datetime': '2018-12-18 18:08:42.277018', 'mgs': 0, 'flw2': 2.82, 'flw1': 0.41, 'flw0': 2.81, 'time': 41.48, 'compass': 76.88, 'pitch': 5.96, 'roll': 3.43}
{'lipoC2': 0.1, 'temp': 0.0, 'lipoC3S3': 12.1, 'state': 'normal', 'rot1': 177, 'rot0': 220, 'rot3': 0, 'rot2': 0, 'depth': 0.623, 'yaw': 151.97, 'datetime': '2018-12-18 18:08:42.480695', 'mgs': 0, 'flw2': 2.55, 'flw1': 0.09, 'flw0': 3.11, 'time': 41.69, 'compass': 79.58, 'pitch': 6.42, 'roll': 3.53}
{'lipoC2': 0.09, 'temp': 0.0, 'lipoC3S3': 12.37, 'state': 'normal', 'rot1': 179, 'rot0': 222, 'rot3': 0, 'rot2': 0, 'depth': -1.285, 'yaw': 153.89, 'datetime': '2018-12-18 18:08:42.689567', 'mgs': 0, 'flw2': 2.62, 'flw1': 0.35, 'flw0': 2.8, 'time': 41.9, 'compass': 81.5, 'pitch': 6.32, 'roll': 3.73}
{'lipoC2': 0.18, 'temp': 0.0, 'lipoC3S3': 12.17, 'state': 'normal', 'rot1': 181, 'rot0': 225, 'rot3': 0, 'rot2': 0, 'depth': 1.92, 'yaw': 155.35, 'datetime': '2018-12-18 18:08:42.900319', 'mgs': 0, 'flw2': 2.86, 'flw1': 0.0, 'flw0': 2.94, 'time': 42.11, 'compass': 82.96, 'pitch': 6.09, 'roll': 4.21}
{'lipoC2': 0.1, 'temp': 0.0, 'lipoC3S3': 12.34, 'state': 'normal', 'rot1': 184, 'rot0': 227, 'rot3': 0, 'rot2': 0, 'depth': 1.843, 'yaw': 156.62, 'datetime': '2018-12-18 18:08:43.110069', 'mgs': 0, 'flw2': 2.59, 'flw1': 0.5, 'flw0': 2.89, 'time': 42.32, 'compass': 84.23, 'pitch': 5.89, 'roll': 4.79}
{'lipoC2': 0.05, 'temp': 0.0, 'lipoC3S3': 12.38, 'state': 'normal', 'rot1': 186, 'rot0': 229, 'rot3': 0, 'rot2': 0, 'depth': -1.361, 'yaw': 157.48, 'datetime': '2018-12-18 18:08:43.319473', 'mgs': 0, 'flw2': 3.03, 'flw1': 0.0, 'flw0': 2.64, 'time': 42.53, 'compass': 85.08, 'pitch': 5.72, 'roll': 5.02}
{'lipoC2': 0.0, 'temp': 0.0, 'lipoC3S3': 12.51, 'state': 'normal', 'rot1': 188, 'rot0': 232, 'rot3': 0, 'rot2': 0, 'depth': 1.767, 'yaw': 158.03, 'datetime': '2018-12-18 18:08:43.527911', 'mgs': 0, 'flw2': 2.78, 'flw1': 0.38, 'flw0': 2.83, 'time': 42.73, 'compass': 85.64, 'pitch': 5.52, 'roll': 4.66}
