{'lipoC2': 7.43, 'temp': 30.31, 'lipoC3S3': 11.68, 'state': 'normal', 'rot1': 0, 'rot0': 0, 'rot3': 0, 'rot2': 0, 'depth': 1.691, 'yaw': -0.0, 'datetime': '2018-11-26 12:30:18.284305', 'mgs': 0, 'flw2': 0.0, 'flw1': 0.0, 'flw0': 0.0, 'time': 1.36, 'compass': -57.57, 'pitch': 0.43, 'roll': -4.96}
{'lipoC2': 7.44, 'temp': 30.31, 'lipoC3S3': 11.69, 'state': 'normal', 'rot1': 0, 'rot0': 0, 'rot3': 0, 'rot2': 0, 'depth': 1.767, 'yaw': -0.0, 'datetime': '2018-11-26 12:30:18.491385', 'mgs': 0, 'flw2': 0.0, 'flw1': 0.0, 'flw0': 0.0, 'time': 1.57, 'compass': -57.57, 'pitch': 0.49, 'roll': -4.96}
{'lipoC2': 7.43, 'temp': 30.25, 'lipoC3S3': 11.69, 'state': 'normal', 'rot1': 0, 'rot0': 0, 'rot3': 0, 'rot2': 0, 'depth': 1.691, 'yaw': 0.03, 'datetime': '2018-11-26 12:30:18.700723', 'mgs': 0, 'flw2': 0.0, 'flw1': 0.0, 'flw0': 0.0, 'time': 1.78, 'compass': -57.54, 'pitch': 0.49, 'roll': -4.96}
{'lipoC2': 7.44, 'temp': 30.25, 'lipoC3S3': 11.69, 'state': 'normal', 'rot1': 0, 'rot0': 0, 'rot3': 0, 'rot2': 0, 'depth': 1.767, 'yaw': 0.09, 'datetime': '2018-11-26 12:30:18.910453', 'mgs': 0, 'flw2': 0.0, 'flw1': 0.0, 'flw0': 0.0, 'time': 1.99, 'compass': -57.48, 'pitch': 0.5, 'roll': -4.97}
{'lipoC2': 7.44, 'temp': 30.25, 'lipoC3S3': 11.69, 'state': 'normal', 'rot1': 0, 'rot0': 0, 'rot3': 0, 'rot2': 0, 'depth': 1.767, 'yaw': 0.16, 'datetime': '2018-11-26 12:30:19.118919', 'mgs': 0, 'flw2': 0.0, 'flw1': 0.0, 'flw0': 0.0, 'time': 2.2, 'compass': -57.4, 'pitch': 0.51, 'roll': -4.96}
{'lipoC2': 7.44, 'temp': 30.25, 'lipoC3S3': 11.69, 'state': 'normal', 'rot1': 0, 'rot0': 0, 'rot3': 0, 'rot2': 0, 'depth': 1.767, 'yaw': 0.18, 'datetime': '2018-11-26 12:30:19.328565', 'mgs': 0, 'flw2': 0.0, 'flw1': 0.0, 'flw0': 0.0, 'time': 2.41, 'compass': -57.39, 'pitch': 0.51, 'roll': -4.96}
{'lipoC2': 7.44, 'temp': 30.31, 'lipoC3S3': 11.69, 'state': 'normal', 'rot1': 0, 'rot0': 0, 'rot3': 0, 'rot2': 0, 'depth': 1.767, 'yaw': 0.28, 'datetime': '2018-11-26 12:30:19.537102', 'mgs': 0, 'flw2': 0.0, 'flw1': 0.0, 'flw0': 0.0, 'time': 2.62, 'compass': -57.28, 'pitch': 0.52, 'roll': -4.99}
{'lipoC2': 7.44, 'temp': 30.25, 'lipoC3S3': 11.69, 'state': 'normal', 'rot1': 0, 'rot0': 0, 'rot3': 0, 'rot2': 0, 'depth': 1.767, 'yaw': 0.42, 'datetime': '2018-11-26 12:30:19.746742', 'mgs': 0, 'flw2': 0.0, 'flw1': 0.0, 'flw0': 0.0, 'time': 2.83, 'compass': -57.14, 'pitch': 0.53, 'roll': -5.09}
{'lipoC2': 7.44, 'temp': 30.31, 'lipoC3S3': 11.69, 'state': 'normal', 'rot1': 0, 'rot0': 0, 'rot3': 0, 'rot2': 0, 'depth': 1.767, 'yaw': 0.53, 'datetime': '2018-11-26 12:30:19.953637', 'mgs': 0, 'flw2': 0.0, 'flw1': 0.0, 'flw0': 0.0, 'time': 3.04, 'compass': -57.04, 'pitch': 0.54, 'roll': -5.09}
{'lipoC2': 7.44, 'temp': 30.25, 'lipoC3S3': 11.69, 'state': 'normal', 'rot1': 0, 'rot0': 0, 'rot3': 0, 'rot2': 0, 'depth': 1.691, 'yaw': 0.57, 'datetime': '2018-11-26 12:30:20.163346', 'mgs': 0, 'flw2': 0.0, 'flw1': 0.0, 'flw0': 0.0, 'time': 3.24, 'compass': -57.0, 'pitch': 0.54, 'roll': -5.09}
{'lipoC2': 7.44, 'temp': 30.31, 'lipoC3S3': 11.69, 'state': 'normal', 'rot1': 0, 'rot0': 0, 'rot3': 0, 'rot2': 0, 'depth': 1.691, 'yaw': 0.71, 'datetime': '2018-11-26 12:30:20.371752', 'mgs': 0, 'flw2': 0.0, 'flw1': 0.0, 'flw0': 0.0, 'time': 3.45, 'compass': -56.86, 'pitch': 0.55, 'roll': -5.05}
{'lipoC2': 7.44, 'temp': 30.31, 'lipoC3S3': 11.69, 'state': 'normal', 'rot1': 0, 'rot0': 0, 'rot3': 0, 'rot2': 0, 'depth': 1.691, 'yaw': 0.88, 'datetime': '2018-11-26 12:30:20.580559', 'mgs': 0, 'flw2': 0.0, 'flw1': 0.0, 'flw0': 0.0, 'time': 3.66, 'compass': -56.69, 'pitch': 0.57, 'roll': -5.05}
{'lipoC2': 7.44, 'temp': 30.31, 'lipoC3S3': 11.69, 'state': 'normal', 'rot1': 0, 'rot0': 0, 'rot3': 0, 'rot2': 0, 'depth': 1.767, 'yaw': 1.02, 'datetime': '2018-11-26 12:30:20.788909', 'mgs': 0, 'flw2': 0.0, 'flw1': 0.0, 'flw0': 0.0, 'time': 3.87, 'compass': -56.55, 'pitch': 0.66, 'roll': -5.04}
{'lipoC2': 7.44, 'temp': 30.31, 'lipoC3S3': 11.65, 'state': 'normal', 'rot1': 0, 'rot0': 0, 'rot3': 0, 'rot2': 1, 'depth': 2.988, 'yaw': 1.09, 'datetime': '2018-11-26 12:30:20.998871', 'mgs': 0, 'flw2': 3.66, 'flw1': 1.46, 'flw0': 3.64, 'time': 4.08, 'compass': -56.47, 'pitch': 0.69, 'roll': -5.04}
{'lipoC2': 7.44, 'temp': 30.25, 'lipoC3S3': 11.67, 'state': 'normal', 'rot1': 2, 'rot0': 2, 'rot3': 0, 'rot2': 1, 'depth': 1.843, 'yaw': 1.1, 'datetime': '2018-11-26 12:30:21.208918', 'mgs': 0, 'flw2': 2.67, 'flw1': 1.05, 'flw0': 2.86, 'time': 4.29, 'compass': -56.47, 'pitch': 0.69, 'roll': -3.55}
{'lipoC2': 7.44, 'temp': 30.25, 'lipoC3S3': 11.67, 'state': 'normal', 'rot1': 4, 'rot0': 4, 'rot3': 1, 'rot2': 1, 'depth': 1.843, 'yaw': 1.02, 'datetime': '2018-11-26 12:30:21.416387', 'mgs': 0, 'flw2': 2.7, 'flw1': 1.03, 'flw0': 2.91, 'time': 4.5, 'compass': -56.55, 'pitch': 0.67, 'roll': -0.15}
{'lipoC2': 7.44, 'temp': 30.31, 'lipoC3S3': 11.52, 'state': 'normal', 'rot1': 7, 'rot0': 7, 'rot3': 1, 'rot2': 2, 'depth': 1.843, 'yaw': 0.69, 'datetime': '2018-11-26 12:30:21.626507', 'mgs': 0, 'flw2': 2.62, 'flw1': 0.91, 'flw0': 2.8, 'time': 4.71, 'compass': -56.88, 'pitch': 0.58, 'roll': 3.2}
{'lipoC2': 7.44, 'temp': 30.31, 'lipoC3S3': 11.55, 'state': 'normal', 'rot1': 9, 'rot0': 9, 'rot3': 2, 'rot2': 3, 'depth': 1.767, 'yaw': 0.39, 'datetime': '2018-11-26 12:30:21.833752', 'mgs': 0, 'flw2': 2.62, 'flw1': 0.97, 'flw0': 2.76, 'time': 4.92, 'compass': -57.18, 'pitch': 0.58, 'roll': 5.83}
{'lipoC2': 7.44, 'temp': 30.25, 'lipoC3S3': 11.67, 'state': 'normal', 'rot1': 11, 'rot0': 11, 'rot3': 2, 'rot2': 3, 'depth': 1.767, 'yaw': 0.08, 'datetime': '2018-11-26 12:30:22.043576', 'mgs': 0, 'flw2': 2.66, 'flw1': 1.05, 'flw0': 2.84, 'time': 5.13, 'compass': -57.49, 'pitch': 0.62, 'roll': 7.48}
{'lipoC2': 7.44, 'temp': 30.31, 'lipoC3S3': 11.67, 'state': 'normal', 'rot1': 13, 'rot0': 14, 'rot3': 3, 'rot2': 4, 'depth': 1.614, 'yaw': -0.21, 'datetime': '2018-11-26 12:30:22.252895', 'mgs': 0, 'flw2': 2.73, 'flw1': 1.03, 'flw0': 2.91, 'time': 5.34, 'compass': -57.78, 'pitch': 0.67, 'roll': 8.16}
{'lipoC2': 7.44, 'temp': 30.31, 'lipoC3S3': 11.65, 'state': 'normal', 'rot1': 16, 'rot0': 16, 'rot3': 3, 'rot2': 4, 'depth': 1.462, 'yaw': -0.52, 'datetime': '2018-11-26 12:30:22.463607', 'mgs': 0, 'flw2': 2.7, 'flw1': 1.03, 'flw0': 2.95, 'time': 5.55, 'compass': -58.09, 'pitch': 0.72, 'roll': 7.49}
{'lipoC2': 7.44, 'temp': 30.25, 'lipoC3S3': 11.54, 'state': 'normal', 'rot1': 18, 'rot0': 18, 'rot3': 4, 'rot2': 5, 'depth': 1.309, 'yaw': -0.82, 'datetime': '2018-11-26 12:30:22.674750', 'mgs': 0, 'flw2': 2.64, 'flw1': 1.0, 'flw0': 2.8, 'time': 5.76, 'compass': -58.39, 'pitch': 0.75, 'roll': 5.68}
{'lipoC2': 7.44, 'temp': 30.31, 'lipoC3S3': 11.6, 'state': 'normal', 'rot1': 20, 'rot0': 20, 'rot3': 4, 'rot2': 5, 'depth': 1.233, 'yaw': -1.06, 'datetime': '2018-11-26 12:30:22.883043', 'mgs': 0, 'flw2': 2.61, 'flw1': 1.03, 'flw0': 2.84, 'time': 5.97, 'compass': -58.63, 'pitch': 0.77, 'roll': 3.79}
{'lipoC2': 7.44, 'temp': 30.31, 'lipoC3S3': 11.67, 'state': 'normal', 'rot1': 23, 'rot0': 23, 'rot3': 5, 'rot2': 6, 'depth': 1.233, 'yaw': -1.36, 'datetime': '2018-11-26 12:30:23.092639', 'mgs': 0, 'flw2': 2.71, 'flw1': 1.03, 'flw0': 2.88, 'time': 6.18, 'compass': -58.93, 'pitch': 0.79, 'roll': 2.6}
{'lipoC2': 7.44, 'temp': 30.31, 'lipoC3S3': 11.65, 'state': 'normal', 'rot1': 25, 'rot0': 25, 'rot3': 5, 'rot2': 6, 'depth': 2.682, 'yaw': -1.7, 'datetime': '2018-11-26 12:30:23.301644', 'mgs': 0, 'flw2': 2.78, 'flw1': 1.11, 'flw0': 2.7, 'time': 6.39, 'compass': -59.26, 'pitch': 0.8, 'roll': 1.92}
{'lipoC2': 7.44, 'temp': 30.31, 'lipoC3S3': 11.65, 'state': 'normal', 'rot1': 27, 'rot0': 27, 'rot3': 6, 'rot2': 7, 'depth': 1.385, 'yaw': -2.09, 'datetime': '2018-11-26 12:30:23.512030', 'mgs': 0, 'flw2': 2.76, 'flw1': 1.08, 'flw0': 2.82, 'time': 6.6, 'compass': -59.65, 'pitch': 0.66, 'roll': 1.58}
{'lipoC2': 7.44, 'temp': 30.31, 'lipoC3S3': 11.65, 'state': 'normal', 'rot1': 29, 'rot0': 29, 'rot3': 6, 'rot2': 7, 'depth': 0.928, 'yaw': -2.62, 'datetime': '2018-11-26 12:30:23.722623', 'mgs': 0, 'flw2': 2.72, 'flw1': 1.05, 'flw0': 2.77, 'time': 6.81, 'compass': -60.19, 'pitch': 0.43, 'roll': 1.68}
{'lipoC2': 7.44, 'temp': 30.31, 'lipoC3S3': 11.65, 'state': 'normal', 'rot1': 32, 'rot0': 32, 'rot3': 7, 'rot2': 8, 'depth': 1.385, 'yaw': -3.1, 'datetime': '2018-11-26 12:30:23.931056', 'mgs': 0, 'flw2': 2.7, 'flw1': 1.05, 'flw0': 2.83, 'time': 7.02, 'compass': -60.67, 'pitch': 0.37, 'roll': 2.22}
{'lipoC2': 7.44, 'temp': 30.31, 'lipoC3S3': 11.64, 'state': 'normal', 'rot1': 34, 'rot0': 34, 'rot3': 7, 'rot2': 8, 'depth': 1.385, 'yaw': -3.56, 'datetime': '2018-11-26 12:30:24.140890', 'mgs': 0, 'flw2': 4.37, 'flw1': 1.03, 'flw0': 4.85, 'time': 7.23, 'compass': -61.12, 'pitch': 0.39, 'roll': 3.06}
{'lipoC2': 7.43, 'temp': 30.31, 'lipoC3S3': 11.64, 'state': 'normal', 'rot1': 37, 'rot0': 37, 'rot3': 8, 'rot2': 9, 'depth': 1.538, 'yaw': -4.11, 'datetime': '2018-11-26 12:30:24.349189', 'mgs': 0, 'flw2': 4.43, 'flw1': 1.05, 'flw0': 4.93, 'time': 7.43, 'compass': -61.68, 'pitch': 0.43, 'roll': 4.63}
{'lipoC2': 7.44, 'temp': 30.31, 'lipoC3S3': 11.61, 'state': 'normal', 'rot1': 40, 'rot0': 40, 'rot3': 8, 'rot2': 9, 'depth': 1.462, 'yaw': -4.81, 'datetime': '2018-11-26 12:30:24.559699', 'mgs': 0, 'flw2': 4.32, 'flw1': 0.97, 'flw0': 4.77, 'time': 7.65, 'compass': -62.37, 'pitch': 0.49, 'roll': 5.86}
{'lipoC2': 7.44, 'temp': 30.31, 'lipoC3S3': 11.5, 'state': 'normal', 'rot1': 43, 'rot0': 43, 'rot3': 8, 'rot2': 10, 'depth': 1.385, 'yaw': -5.55, 'datetime': '2018-11-26 12:30:24.770745', 'mgs': 0, 'flw2': 4.28, 'flw1': 0.94, 'flw0': 4.92, 'time': 7.86, 'compass': -63.12, 'pitch': 0.44, 'roll': 6.5}
{'lipoC2': 7.44, 'temp': 30.31, 'lipoC3S3': 11.64, 'state': 'normal', 'rot1': 46, 'rot0': 45, 'rot3': 9, 'rot2': 10, 'depth': 1.538, 'yaw': -6.36, 'datetime': '2018-11-26 12:30:24.980742', 'mgs': 0, 'flw2': 4.39, 'flw1': 1.03, 'flw0': 4.91, 'time': 8.07, 'compass': -63.92, 'pitch': 0.37, 'roll': 6.86}
{'lipoC2': 7.44, 'temp': 30.31, 'lipoC3S3': 11.47, 'state': 'normal', 'rot1': 49, 'rot0': 48, 'rot3': 9, 'rot2': 11, 'depth': 1.385, 'yaw': -7.07, 'datetime': '2018-11-26 12:30:25.190507', 'mgs': 0, 'flw2': 4.42, 'flw1': 0.94, 'flw0': 4.6, 'time': 8.28, 'compass': -64.63, 'pitch': 0.45, 'roll': 6.87}
{'lipoC2': 7.43, 'temp': 30.31, 'lipoC3S3': 11.64, 'state': 'normal', 'rot1': 51, 'rot0': 51, 'rot3': 10, 'rot2': 11, 'depth': 1.385, 'yaw': -7.67, 'datetime': '2018-11-26 12:30:25.401034', 'mgs': 0, 'flw2': 4.53, 'flw1': 1.05, 'flw0': 5.03, 'time': 8.49, 'compass': -65.24, 'pitch': 0.46, 'roll': 6.48}
{'lipoC2': 7.44, 'temp': 30.31, 'lipoC3S3': 11.52, 'state': 'normal', 'rot1': 54, 'rot0': 54, 'rot3': 10, 'rot2': 12, 'depth': 1.385, 'yaw': -8.49, 'datetime': '2018-11-26 12:30:25.612418', 'mgs': 0, 'flw2': 4.3, 'flw1': 1.03, 'flw0': 4.82, 'time': 8.7, 'compass': -66.06, 'pitch': 0.48, 'roll': 5.75}
{'lipoC2': 7.44, 'temp': 30.31, 'lipoC3S3': 11.48, 'state': 'normal', 'rot1': 57, 'rot0': 57, 'rot3': 11, 'rot2': 12, 'depth': 1.385, 'yaw': -9.54, 'datetime': '2018-11-26 12:30:25.823041', 'mgs': 0, 'flw2': 4.42, 'flw1': 1.0, 'flw0': 4.63, 'time': 8.91, 'compass': -67.1, 'pitch': 0.57, 'roll': 5.15}
{'lipoC2': 7.44, 'temp': 30.31, 'lipoC3S3': 11.44, 'state': 'normal', 'rot1': 60, 'rot0': 59, 'rot3': 11, 'rot2': 13, 'depth': 1.385, 'yaw': -10.58, 'datetime': '2018-11-26 12:30:26.034604', 'mgs': 0, 'flw2': 4.39, 'flw1': 1.0, 'flw0': 4.58, 'time': 9.12, 'compass': -68.15, 'pitch': 0.66, 'roll': 4.67}
{'lipoC2': 7.44, 'temp': 30.31, 'lipoC3S3': 11.47, 'state': 'normal', 'rot1': 63, 'rot0': 62, 'rot3': 12, 'rot2': 13, 'depth': 1.385, 'yaw': -11.54, 'datetime': '2018-11-26 12:30:26.243945', 'mgs': 0, 'flw2': 4.37, 'flw1': 1.0, 'flw0': 4.55, 'time': 9.33, 'compass': -69.1, 'pitch': 0.57, 'roll': 4.31}
{'lipoC2': 7.44, 'temp': 30.25, 'lipoC3S3': 11.6, 'state': 'normal', 'rot1': 66, 'rot0': 65, 'rot3': 12, 'rot2': 13, 'depth': 2.454, 'yaw': -12.43, 'datetime': '2018-11-26 12:30:26.454986', 'mgs': 0, 'flw2': 4.41, 'flw1': 1.05, 'flw0': 4.69, 'time': 9.54, 'compass': -70.0, 'pitch': 0.4, 'roll': 4.51}
{'lipoC2': 7.44, 'temp': 30.31, 'lipoC3S3': 11.64, 'state': 'normal', 'rot1': 69, 'rot0': 68, 'rot3': 13, 'rot2': 14, 'depth': 1.462, 'yaw': -13.39, 'datetime': '2018-11-26 12:30:26.666868', 'mgs': 0, 'flw2': 4.42, 'flw1': 1.03, 'flw0': 4.69, 'time': 9.75, 'compass': -70.95, 'pitch': 0.38, 'roll': 4.87}
{'lipoC2': 7.44, 'temp': 30.06, 'lipoC3S3': 11.48, 'state': 'normal', 'rot1': 71, 'rot0': 71, 'rot3': 13, 'rot2': 14, 'depth': 1.462, 'yaw': -14.25, 'datetime': '2018-11-26 12:30:26.880692', 'mgs': 0, 'flw2': 4.31, 'flw1': 1.03, 'flw0': 4.57, 'time': 9.96, 'compass': -71.82, 'pitch': 0.35, 'roll': 5.3}
{'lipoC2': 7.43, 'temp': 30.06, 'lipoC3S3': 11.52, 'state': 'normal', 'rot1': 75, 'rot0': 74, 'rot3': 14, 'rot2': 15, 'depth': 1.538, 'yaw': -15.13, 'datetime': '2018-11-26 12:30:27.089184', 'mgs': 0, 'flw2': 5.99, 'flw1': 1.0, 'flw0': 6.23, 'time': 10.17, 'compass': -72.7, 'pitch': 0.16, 'roll': 5.85}
{'lipoC2': 7.43, 'temp': 30.31, 'lipoC3S3': 11.61, 'state': 'normal', 'rot1': 78, 'rot0': 78, 'rot3': 14, 'rot2': 15, 'depth': 1.614, 'yaw': -15.92, 'datetime': '2018-11-26 12:30:27.296411', 'mgs': 0, 'flw2': 5.98, 'flw1': 1.05, 'flw0': 6.69, 'time': 10.38, 'compass': -73.49, 'pitch': -0.1, 'roll': 6.91}
{'lipoC2': 7.43, 'temp': 30.31, 'lipoC3S3': 11.61, 'state': 'normal', 'rot1': 81, 'rot0': 81, 'rot3': 15, 'rot2': 16, 'depth': 1.691, 'yaw': -16.79, 'datetime': '2018-11-26 12:30:27.507330', 'mgs': 0, 'flw2': 6.13, 'flw1': 1.05, 'flw0': 6.74, 'time': 10.59, 'compass': -74.35, 'pitch': -0.31, 'roll': 7.99}
{'lipoC2': 7.44, 'temp': 30.31, 'lipoC3S3': 11.59, 'state': 'normal', 'rot1': 84, 'rot0': 84, 'rot3': 15, 'rot2': 16, 'depth': 1.614, 'yaw': -17.62, 'datetime': '2018-11-26 12:30:27.718907', 'mgs': 0, 'flw2': 5.99, 'flw1': 1.05, 'flw0': 6.74, 'time': 10.81, 'compass': -75.19, 'pitch': -0.48, 'roll': 8.76}
{'lipoC2': 7.44, 'temp': 30.31, 'lipoC3S3': 11.48, 'state': 'normal', 'rot1': 88, 'rot0': 87, 'rot3': 15, 'rot2': 17, 'depth': 1.614, 'yaw': -18.35, 'datetime': '2018-11-26 12:30:27.925765', 'mgs': 0, 'flw2': 5.82, 'flw1': 1.03, 'flw0': 6.25, 'time': 11.02, 'compass': -75.92, 'pitch': -0.42, 'roll': 8.88}
{'lipoC2': 7.43, 'temp': 30.25, 'lipoC3S3': 11.54, 'state': 'normal', 'rot1': 91, 'rot0': 90, 'rot3': 16, 'rot2': 17, 'depth': 1.538, 'yaw': -19.16, 'datetime': '2018-11-26 12:30:28.137803', 'mgs': 0, 'flw2': 5.97, 'flw1': 1.03, 'flw0': 6.51, 'time': 11.23, 'compass': -76.73, 'pitch': -0.31, 'roll': 8.39}
{'lipoC2': 7.43, 'temp': 30.19, 'lipoC3S3': 11.61, 'state': 'normal', 'rot1': 94, 'rot0': 94, 'rot3': 16, 'rot2': 18, 'depth': 1.538, 'yaw': -20.25, 'datetime': '2018-11-26 12:30:28.347541', 'mgs': 0, 'flw2': 5.93, 'flw1': 1.0, 'flw0': 6.38, 'time': 11.44, 'compass': -77.81, 'pitch': -0.15, 'roll': 7.63}
{'lipoC2': 7.44, 'temp': 30.25, 'lipoC3S3': 11.59, 'state': 'normal', 'rot1': 97, 'rot0': 97, 'rot3': 17, 'rot2': 18, 'depth': 2.835, 'yaw': -21.42, 'datetime': '2018-11-26 12:30:28.556443', 'mgs': 0, 'flw2': 6.29, 'flw1': 1.14, 'flw0': 6.35, 'time': 11.65, 'compass': -78.98, 'pitch': 0.19, 'roll': 6.93}
{'lipoC2': 7.43, 'temp': 30.25, 'lipoC3S3': 11.6, 'state': 'normal', 'rot1': 100, 'rot0': 101, 'rot3': 17, 'rot2': 19, 'depth': 1.462, 'yaw': -22.63, 'datetime': '2018-11-26 12:30:28.768875', 'mgs': 0, 'flw2': 6.15, 'flw1': 1.05, 'flw0': 6.34, 'time': 11.86, 'compass': -80.19, 'pitch': 0.61, 'roll': 6.54}
{'lipoC2': 7.43, 'temp': 30.25, 'lipoC3S3': 11.59, 'state': 'normal', 'rot1': 104, 'rot0': 104, 'rot3': 18, 'rot2': 19, 'depth': 3.14, 'yaw': -23.75, 'datetime': '2018-11-26 12:30:28.981979', 'mgs': 0, 'flw2': 6.31, 'flw1': 1.11, 'flw0': 6.31, 'time': 12.07, 'compass': -81.32, 'pitch': 0.59, 'roll': 6.55}
{'lipoC2': 7.43, 'temp': 30.31, 'lipoC3S3': 11.47, 'state': 'normal', 'rot1': 107, 'rot0': 107, 'rot3': 18, 'rot2': 20, 'depth': 1.385, 'yaw': -24.93, 'datetime': '2018-11-26 12:30:29.190847', 'mgs': 0, 'flw2': 5.93, 'flw1': 1.0, 'flw0': 6.18, 'time': 12.28, 'compass': -82.49, 'pitch': 0.45, 'roll': 6.97}
{'lipoC2': 7.44, 'temp': 30.31, 'lipoC3S3': 11.6, 'state': 'normal', 'rot1': 111, 'rot0': 110, 'rot3': 19, 'rot2': 20, 'depth': 1.614, 'yaw': -25.89, 'datetime': '2018-11-26 12:30:29.404677', 'mgs': 0, 'flw2': 6.26, 'flw1': 1.11, 'flw0': 6.38, 'time': 12.49, 'compass': -83.46, 'pitch': 0.3, 'roll': 7.32}
{'lipoC2': 7.44, 'temp': 30.31, 'lipoC3S3': 11.46, 'state': 'normal', 'rot1': 114, 'rot0': 113, 'rot3': 19, 'rot2': 21, 'depth': 1.462, 'yaw': -26.95, 'datetime': '2018-11-26 12:30:29.615456', 'mgs': 0, 'flw2': 6.01, 'flw1': 1.03, 'flw0': 6.34, 'time': 12.7, 'compass': -84.52, 'pitch': 0.17, 'roll': 7.79}
{'lipoC2': 7.44, 'temp': 30.31, 'lipoC3S3': 11.6, 'state': 'normal', 'rot1': 117, 'rot0': 117, 'rot3': 20, 'rot2': 21, 'depth': 3.369, 'yaw': -28.0, 'datetime': '2018-11-26 12:30:29.830191', 'mgs': 0, 'flw2': 6.08, 'flw1': 1.17, 'flw0': 6.34, 'time': 12.92, 'compass': -85.57, 'pitch': -0.01, 'roll': 8.23}
{'lipoC2': 7.44, 'temp': 30.31, 'lipoC3S3': 11.48, 'state': 'normal', 'rot1': 121, 'rot0': 120, 'rot3': 20, 'rot2': 22, 'depth': 2.148, 'yaw': -29.06, 'datetime': '2018-11-26 12:30:30.039628', 'mgs': 0, 'flw2': 7.48, 'flw1': 1.0, 'flw0': 7.5, 'time': 13.13, 'compass': -86.62, 'pitch': -0.1, 'roll': 8.66}
{'lipoC2': 7.44, 'temp': 30.31, 'lipoC3S3': 11.58, 'state': 'normal', 'rot1': 124, 'rot0': 124, 'rot3': 20, 'rot2': 22, 'depth': 3.369, 'yaw': -30.06, 'datetime': '2018-11-26 12:30:30.249094', 'mgs': 0, 'flw2': 7.87, 'flw1': 1.11, 'flw0': 7.93, 'time': 13.34, 'compass': -87.62, 'pitch': 0.04, 'roll': 9.12}
{'lipoC2': 7.44, 'temp': 30.31, 'lipoC3S3': 11.55, 'state': 'normal', 'rot1': 128, 'rot0': 128, 'rot3': 21, 'rot2': 23, 'depth': 1.691, 'yaw': -31.2, 'datetime': '2018-11-26 12:30:30.458386', 'mgs': 0, 'flw2': 7.48, 'flw1': 1.08, 'flw0': 8.28, 'time': 13.55, 'compass': -88.77, 'pitch': 0.19, 'roll': 9.53}
{'lipoC2': 7.46, 'temp': 30.31, 'lipoC3S3': 11.59, 'state': 'normal', 'rot1': 131, 'rot0': 131, 'rot3': 21, 'rot2': 23, 'depth': 2.682, 'yaw': -32.44, 'datetime': '2018-11-26 12:30:30.673410', 'mgs': 0, 'flw2': 7.9, 'flw1': 1.14, 'flw0': 7.85, 'time': 13.76, 'compass': -90.01, 'pitch': 0.11, 'roll': 9.42}
{'lipoC2': 7.44, 'temp': 30.31, 'lipoC3S3': 11.56, 'state': 'normal', 'rot1': 136, 'rot0': 135, 'rot3': 22, 'rot2': 24, 'depth': 1.614, 'yaw': -33.65, 'datetime': '2018-11-26 12:30:30.883142', 'mgs': 0, 'flw2': 7.74, 'flw1': 1.08, 'flw0': 8.01, 'time': 13.97, 'compass': -91.22, 'pitch': -0.09, 'roll': 8.86}
{'lipoC2': 7.44, 'temp': 30.31, 'lipoC3S3': 11.59, 'state': 'normal', 'rot1': 139, 'rot0': 138, 'rot3': 22, 'rot2': 24, 'depth': 3.293, 'yaw': -34.71, 'datetime': '2018-11-26 12:30:31.094045', 'mgs': 0, 'flw2': 7.79, 'flw1': 0.97, 'flw0': 7.98, 'time': 14.18, 'compass': -92.28, 'pitch': -0.37, 'roll': 8.39}
{'lipoC2': 7.43, 'temp': 30.25, 'lipoC3S3': 11.42, 'state': 'normal', 'rot1': 143, 'rot0': 142, 'rot3': 23, 'rot2': 25, 'depth': 1.538, 'yaw': -35.72, 'datetime': '2018-11-26 12:30:31.304155', 'mgs': 0, 'flw2': 7.73, 'flw1': 1.0, 'flw0': 7.87, 'time': 14.4, 'compass': -93.29, 'pitch': -0.5, 'roll': 8.31}
{'lipoC2': 7.44, 'temp': 30.38, 'lipoC3S3': 11.56, 'state': 'normal', 'rot1': 147, 'rot0': 146, 'rot3': 23, 'rot2': 25, 'depth': 3.369, 'yaw': -36.74, 'datetime': '2018-11-26 12:30:31.515518', 'mgs': 0, 'flw2': 8.04, 'flw1': 1.11, 'flw0': 8.47, 'time': 14.61, 'compass': -94.31, 'pitch': -0.61, 'roll': 8.33}
{'lipoC2': 7.44, 'temp': 30.25, 'lipoC3S3': 11.38, 'state': 'normal', 'rot1': 150, 'rot0': 150, 'rot3': 24, 'rot2': 26, 'depth': 2.759, 'yaw': -37.9, 'datetime': '2018-11-26 12:30:31.728575', 'mgs': 0, 'flw2': 7.7, 'flw1': 1.17, 'flw0': 8.0, 'time': 14.82, 'compass': -95.47, 'pitch': -0.69, 'roll': 8.26}
{'lipoC2': 7.44, 'temp': 30.31, 'lipoC3S3': 11.55, 'state': 'normal', 'rot1': 154, 'rot0': 153, 'rot3': 24, 'rot2': 26, 'depth': 2.911, 'yaw': -38.98, 'datetime': '2018-11-26 12:30:31.940544', 'mgs': 0, 'flw2': 7.65, 'flw1': 1.11, 'flw0': 7.6, 'time': 15.03, 'compass': -96.55, 'pitch': -0.91, 'roll': 8.07}
{'lipoC2': 7.44, 'temp': 30.31, 'lipoC3S3': 11.58, 'state': 'normal', 'rot1': 158, 'rot0': 157, 'rot3': 25, 'rot2': 26, 'depth': 1.309, 'yaw': -40.18, 'datetime': '2018-11-26 12:30:32.152898', 'mgs': 0, 'flw2': 7.68, 'flw1': 1.05, 'flw0': 8.25, 'time': 15.24, 'compass': -97.75, 'pitch': -0.88, 'roll': 7.89}
{'lipoC2': 7.44, 'temp': 30.31, 'lipoC3S3': 11.43, 'state': 'normal', 'rot1': 162, 'rot0': 160, 'rot3': 25, 'rot2': 27, 'depth': 1.614, 'yaw': -41.45, 'datetime': '2018-11-26 12:30:32.360154', 'mgs': 0, 'flw2': 7.37, 'flw1': 1.05, 'flw0': 7.89, 'time': 15.45, 'compass': -99.02, 'pitch': -0.93, 'roll': 8.04}
{'lipoC2': 7.46, 'temp': 30.38, 'lipoC3S3': 11.55, 'state': 'normal', 'rot1': 166, 'rot0': 163, 'rot3': 25, 'rot2': 27, 'depth': 2.606, 'yaw': -42.72, 'datetime': '2018-11-26 12:30:32.569376', 'mgs': 0, 'flw2': 7.76, 'flw1': 1.14, 'flw0': 7.78, 'time': 15.66, 'compass': -100.29, 'pitch': -0.84, 'roll': 8.26}
{'lipoC2': 7.44, 'temp': 30.31, 'lipoC3S3': 11.42, 'state': 'normal', 'rot1': 169, 'rot0': 167, 'rot3': 26, 'rot2': 28, 'depth': 1.538, 'yaw': -44.13, 'datetime': '2018-11-26 12:30:32.781636', 'mgs': 0, 'flw2': 7.52, 'flw1': 1.0, 'flw0': 7.93, 'time': 15.87, 'compass': -101.69, 'pitch': -0.67, 'roll': 8.33}
{'lipoC2': 7.44, 'temp': 30.31, 'lipoC3S3': 11.44, 'state': 'normal', 'rot1': 173, 'rot0': 171, 'rot3': 26, 'rot2': 28, 'depth': 1.538, 'yaw': -45.4, 'datetime': '2018-11-26 12:30:32.997093', 'mgs': 0, 'flw2': 7.74, 'flw1': 0.97, 'flw0': 7.84, 'time': 16.09, 'compass': -102.97, 'pitch': -0.4, 'roll': 8.17}
{'lipoC2': 7.44, 'temp': 30.31, 'lipoC3S3': 11.36, 'state': 'normal', 'rot1': 178, 'rot0': 174, 'rot3': 27, 'rot2': 29, 'depth': 2.988, 'yaw': -46.53, 'datetime': '2018-11-26 12:30:33.206086', 'mgs': 0, 'flw2': 9.64, 'flw1': 1.17, 'flw0': 9.02, 'time': 16.3, 'compass': -104.1, 'pitch': 0.12, 'roll': 7.94}
{'lipoC2': 7.44, 'temp': 30.31, 'lipoC3S3': 11.42, 'state': 'normal', 'rot1': 182, 'rot0': 178, 'rot3': 27, 'rot2': 29, 'depth': 1.462, 'yaw': -47.68, 'datetime': '2018-11-26 12:30:33.417409', 'mgs': 0, 'flw2': 8.76, 'flw1': 1.03, 'flw0': 9.57, 'time': 16.51, 'compass': -105.25, 'pitch': 0.4, 'roll': 8.32}
{'lipoC2': 7.44, 'temp': 30.31, 'lipoC3S3': 11.47, 'state': 'normal', 'rot1': 186, 'rot0': 182, 'rot3': 28, 'rot2': 30, 'depth': 1.538, 'yaw': -48.85, 'datetime': '2018-11-26 12:30:33.628486', 'mgs': 0, 'flw2': 9.23, 'flw1': 0.97, 'flw0': 9.61, 'time': 16.72, 'compass': -106.41, 'pitch': 0.21, 'roll': 8.81}
{'lipoC2': 7.43, 'temp': 30.38, 'lipoC3S3': 11.43, 'state': 'normal', 'rot1': 190, 'rot0': 186, 'rot3': 28, 'rot2': 30, 'depth': 1.538, 'yaw': -49.95, 'datetime': '2018-11-26 12:30:33.838282', 'mgs': 0, 'flw2': 9.18, 'flw1': 1.05, 'flw0': 10.0, 'time': 16.93, 'compass': -107.52, 'pitch': -0.02, 'roll': 8.96}
{'lipoC2': 7.44, 'temp': 30.38, 'lipoC3S3': 11.54, 'state': 'normal', 'rot1': 194, 'rot0': 190, 'rot3': 29, 'rot2': 31, 'depth': 2.759, 'yaw': -50.9, 'datetime': '2018-11-26 12:30:34.048928', 'mgs': 0, 'flw2': 9.42, 'flw1': 1.17, 'flw0': 9.18, 'time': 17.14, 'compass': -108.47, 'pitch': -0.21, 'roll': 8.88}
{'lipoC2': 7.44, 'temp': 30.38, 'lipoC3S3': 11.5, 'state': 'normal', 'rot1': 199, 'rot0': 194, 'rot3': 29, 'rot2': 31, 'depth': 1.691, 'yaw': -51.89, 'datetime': '2018-11-26 12:30:34.259720', 'mgs': 0, 'flw2': 8.89, 'flw1': 1.05, 'flw0': 9.4, 'time': 17.35, 'compass': -109.46, 'pitch': -0.2, 'roll': 8.8}
{'lipoC2': 7.43, 'temp': 30.38, 'lipoC3S3': 11.36, 'state': 'normal', 'rot1': 203, 'rot0': 198, 'rot3': 30, 'rot2': 32, 'depth': 3.064, 'yaw': -52.87, 'datetime': '2018-11-26 12:30:34.472619', 'mgs': 0, 'flw2': 8.97, 'flw1': 1.17, 'flw0': 9.62, 'time': 17.57, 'compass': -110.44, 'pitch': -0.2, 'roll': 8.76}
{'lipoC2': 7.44, 'temp': 30.31, 'lipoC3S3': 11.44, 'state': 'normal', 'rot1': 206, 'rot0': 202, 'rot3': 30, 'rot2': 32, 'depth': 1.538, 'yaw': -53.79, 'datetime': '2018-11-26 12:30:34.685261', 'mgs': 0, 'flw2': 9.25, 'flw1': 1.0, 'flw0': 9.9, 'time': 17.78, 'compass': -111.36, 'pitch': -0.13, 'roll': 8.77}
{'lipoC2': 7.43, 'temp': 30.38, 'lipoC3S3': 11.39, 'state': 'normal', 'rot1': 210, 'rot0': 206, 'rot3': 30, 'rot2': 33, 'depth': 1.538, 'yaw': -54.61, 'datetime': '2018-11-26 12:30:34.897919', 'mgs': 0, 'flw2': 9.12, 'flw1': 1.05, 'flw0': 9.62, 'time': 17.99, 'compass': -112.17, 'pitch': -0.29, 'roll': 8.8}
{'lipoC2': 7.44, 'temp': 30.38, 'lipoC3S3': 11.35, 'state': 'normal', 'rot1': 214, 'rot0': 211, 'rot3': 31, 'rot2': 33, 'depth': 3.14, 'yaw': -55.54, 'datetime': '2018-11-26 12:30:35.108339', 'mgs': 0, 'flw2': 9.67, 'flw1': 1.17, 'flw0': 9.48, 'time': 18.2, 'compass': -113.11, 'pitch': -0.3, 'roll': 8.78}
{'lipoC2': 7.43, 'temp': 30.38, 'lipoC3S3': 11.47, 'state': 'normal', 'rot1': 218, 'rot0': 215, 'rot3': 31, 'rot2': 34, 'depth': 3.217, 'yaw': -56.26, 'datetime': '2018-11-26 12:30:35.318666', 'mgs': 0, 'flw2': 9.73, 'flw1': 1.05, 'flw0': 9.94, 'time': 18.41, 'compass': -113.83, 'pitch': -0.18, 'roll': 8.57}
{'lipoC2': 7.46, 'temp': 30.31, 'lipoC3S3': 11.54, 'state': 'normal', 'rot1': 223, 'rot0': 219, 'rot3': 32, 'rot2': 34, 'depth': 3.445, 'yaw': -56.98, 'datetime': '2018-11-26 12:30:35.538616', 'mgs': 0, 'flw2': 9.62, 'flw1': 1.14, 'flw0': 9.59, 'time': 18.62, 'compass': -114.55, 'pitch': 0.12, 'roll': 8.39}
{'lipoC2': 7.43, 'temp': 30.38, 'lipoC3S3': 11.48, 'state': 'normal', 'rot1': 226, 'rot0': 222, 'rot3': 32, 'rot2': 35, 'depth': 3.445, 'yaw': -57.8, 'datetime': '2018-11-26 12:30:35.742752', 'mgs': 0, 'flw2': 9.52, 'flw1': 1.0, 'flw0': 9.94, 'time': 18.83, 'compass': -115.37, 'pitch': 0.31, 'roll': 8.36}
{'lipoC2': 7.44, 'temp': 30.5, 'lipoC3S3': 11.52, 'state': 'normal', 'rot1': 230, 'rot0': 226, 'rot3': 33, 'rot2': 35, 'depth': 2.835, 'yaw': -58.72, 'datetime': '2018-11-26 12:30:35.953106', 'mgs': 0, 'flw2': 9.09, 'flw1': 1.03, 'flw0': 9.34, 'time': 19.05, 'compass': -116.28, 'pitch': 0.45, 'roll': 8.37}
{'lipoC2': 7.44, 'temp': 30.31, 'lipoC3S3': 11.52, 'state': 'normal', 'rot1': 235, 'rot0': 230, 'rot3': 33, 'rot2': 36, 'depth': 3.217, 'yaw': -59.44, 'datetime': '2018-11-26 12:30:36.163497', 'mgs': 0, 'flw2': 11.22, 'flw1': 0.94, 'flw0': 11.4, 'time': 19.26, 'compass': -117.0, 'pitch': 0.54, 'roll': 8.43}
{'lipoC2': 7.44, 'temp': 30.25, 'lipoC3S3': 11.5, 'state': 'normal', 'rot1': 239, 'rot0': 235, 'rot3': 34, 'rot2': 36, 'depth': 3.217, 'yaw': -60.17, 'datetime': '2018-11-26 12:30:36.376212', 'mgs': 0, 'flw2': 11.13, 'flw1': 1.03, 'flw0': 11.27, 'time': 19.47, 'compass': -117.74, 'pitch': 0.65, 'roll': 9.11}
{'lipoC2': 7.44, 'temp': 30.31, 'lipoC3S3': 11.32, 'state': 'normal', 'rot1': 244, 'rot0': 239, 'rot3': 34, 'rot2': 37, 'depth': 3.14, 'yaw': -60.83, 'datetime': '2018-11-26 12:30:36.587158', 'mgs': 0, 'flw2': 11.36, 'flw1': 1.17, 'flw0': 11.18, 'time': 19.68, 'compass': -118.39, 'pitch': 0.48, 'roll': 9.91}
{'lipoC2': 7.46, 'temp': 30.38, 'lipoC3S3': 11.51, 'state': 'normal', 'rot1': 248, 'rot0': 243, 'rot3': 35, 'rot2': 37, 'depth': 3.522, 'yaw': -61.66, 'datetime': '2018-11-26 12:30:36.798045', 'mgs': 0, 'flw2': 11.36, 'flw1': 1.17, 'flw0': 11.61, 'time': 19.89, 'compass': -119.22, 'pitch': 0.12, 'roll': 10.36}
{'lipoC2': 7.46, 'temp': 30.38, 'lipoC3S3': 11.34, 'state': 'normal', 'rot1': 253, 'rot0': 248, 'rot3': 35, 'rot2': 38, 'depth': 2.53, 'yaw': -62.45, 'datetime': '2018-11-26 12:30:37.009572', 'mgs': 0, 'flw2': 11.11, 'flw1': 1.03, 'flw0': 11.23, 'time': 20.1, 'compass': -120.02, 'pitch': -0.21, 'roll': 10.85}
{'lipoC2': 7.44, 'temp': 30.38, 'lipoC3S3': 11.51, 'state': 'normal', 'rot1': 257, 'rot0': 252, 'rot3': 35, 'rot2': 38, 'depth': 2.988, 'yaw': -63.26, 'datetime': '2018-11-26 12:30:37.219434', 'mgs': 0, 'flw2': 11.34, 'flw1': 1.2, 'flw0': 11.3, 'time': 20.31, 'compass': -120.83, 'pitch': -0.36, 'roll': 11.23}
{'lipoC2': 7.44, 'temp': 30.38, 'lipoC3S3': 11.35, 'state': 'normal', 'rot1': 261, 'rot0': 257, 'rot3': 36, 'rot2': 38, 'depth': 1.614, 'yaw': -63.95, 'datetime': '2018-11-26 12:30:37.431335', 'mgs': 0, 'flw2': 11.19, 'flw1': 1.0, 'flw0': 11.44, 'time': 20.53, 'compass': -121.51, 'pitch': -0.52, 'roll': 11.18}
{'lipoC2': 7.44, 'temp': 30.38, 'lipoC3S3': 11.44, 'state': 'normal', 'rot1': 265, 'rot0': 261, 'rot3': 36, 'rot2': 39, 'depth': 3.293, 'yaw': -64.54, 'datetime': '2018-11-26 12:30:37.642137', 'mgs': 0, 'flw2': 11.19, 'flw1': 1.17, 'flw0': 11.67, 'time': 20.74, 'compass': -122.11, 'pitch': -0.48, 'roll': 10.73}
{'lipoC2': 7.44, 'temp': 30.31, 'lipoC3S3': 11.34, 'state': 'normal', 'rot1': 270, 'rot0': 265, 'rot3': 37, 'rot2': 39, 'depth': 3.522, 'yaw': -65.04, 'datetime': '2018-11-26 12:30:37.854164', 'mgs': 0, 'flw2': 11.18, 'flw1': 1.14, 'flw0': 11.72, 'time': 20.95, 'compass': -122.61, 'pitch': -0.43, 'roll': 10.05}
{'lipoC2': 7.46, 'temp': 30.31, 'lipoC3S3': 11.34, 'state': 'normal', 'rot1': 274, 'rot0': 270, 'rot3': 37, 'rot2': 40, 'depth': 1.462, 'yaw': -65.55, 'datetime': '2018-11-26 12:30:38.065235', 'mgs': 0, 'flw2': 10.96, 'flw1': 1.08, 'flw0': 11.29, 'time': 21.16, 'compass': -123.12, 'pitch': -0.33, 'roll': 9.45}
{'lipoC2': 7.43, 'temp': 30.31, 'lipoC3S3': 11.4, 'state': 'normal', 'rot1': 278, 'rot0': 275, 'rot3': 38, 'rot2': 40, 'depth': 2.759, 'yaw': -66.16, 'datetime': '2018-11-26 12:30:38.276847', 'mgs': 0, 'flw2': 10.96, 'flw1': 1.11, 'flw0': 10.97, 'time': 21.37, 'compass': -123.73, 'pitch': -0.14, 'roll': 9.14}
{'lipoC2': 7.44, 'temp': 30.38, 'lipoC3S3': 11.36, 'state': 'normal', 'rot1': 283, 'rot0': 279, 'rot3': 38, 'rot2': 41, 'depth': 1.462, 'yaw': -66.81, 'datetime': '2018-11-26 12:30:38.488400', 'mgs': 0, 'flw2': 10.93, 'flw1': 0.94, 'flw0': 11.38, 'time': 21.58, 'compass': -124.38, 'pitch': 0.04, 'roll': 9.21}
{'lipoC2': 7.44, 'temp': 30.38, 'lipoC3S3': 11.3, 'state': 'normal', 'rot1': 287, 'rot0': 283, 'rot3': 39, 'rot2': 41, 'depth': 1.462, 'yaw': -67.63, 'datetime': '2018-11-26 12:30:38.701101', 'mgs': 0, 'flw2': 11.07, 'flw1': 1.08, 'flw0': 11.5, 'time': 21.8, 'compass': -125.19, 'pitch': 0.29, 'roll': 9.39}
{'lipoC2': 7.44, 'temp': 30.31, 'lipoC3S3': 11.51, 'state': 'normal', 'rot1': 291, 'rot0': 287, 'rot3': 39, 'rot2': 42, 'depth': 3.445, 'yaw': -68.69, 'datetime': '2018-11-26 12:30:38.911404', 'mgs': 0, 'flw2': 11.27, 'flw1': 1.11, 'flw0': 11.56, 'time': 22.01, 'compass': -126.26, 'pitch': 0.48, 'roll': 9.71}
{'lipoC2': 7.44, 'temp': 30.38, 'lipoC3S3': 11.31, 'state': 'normal', 'rot1': 296, 'rot0': 293, 'rot3': 39, 'rot2': 42, 'depth': 3.217, 'yaw': -69.79, 'datetime': '2018-11-26 12:30:39.121605', 'mgs': 0, 'flw2': 12.49, 'flw1': 1.05, 'flw0': 12.49, 'time': 22.22, 'compass': -127.36, 'pitch': 0.45, 'roll': 10.14}
{'lipoC2': 7.44, 'temp': 30.38, 'lipoC3S3': 11.47, 'state': 'normal', 'rot1': 301, 'rot0': 298, 'rot3': 40, 'rot2': 43, 'depth': 3.369, 'yaw': -71.08, 'datetime': '2018-11-26 12:30:39.332808', 'mgs': 0, 'flw2': 12.49, 'flw1': 1.17, 'flw0': 12.49, 'time': 22.43, 'compass': -128.64, 'pitch': 0.13, 'roll': 10.97}
{'lipoC2': 7.46, 'temp': 30.31, 'lipoC3S3': 11.48, 'state': 'normal', 'rot1': 305, 'rot0': 303, 'rot3': 40, 'rot2': 43, 'depth': 3.217, 'yaw': -72.31, 'datetime': '2018-11-26 12:30:39.543847', 'mgs': 0, 'flw2': 12.49, 'flw1': 1.2, 'flw0': 12.49, 'time': 22.64, 'compass': -129.87, 'pitch': -0.27, 'roll': 11.59}
{'lipoC2': 7.44, 'temp': 30.5, 'lipoC3S3': 11.31, 'state': 'normal', 'rot1': 310, 'rot0': 308, 'rot3': 41, 'rot2': 44, 'depth': 1.614, 'yaw': -73.56, 'datetime': '2018-11-26 12:30:39.755999', 'mgs': 0, 'flw2': 12.49, 'flw1': 1.2, 'flw0': 12.49, 'time': 22.85, 'compass': -131.13, 'pitch': -0.61, 'roll': 11.83}
{'lipoC2': 7.42, 'temp': 30.38, 'lipoC3S3': 11.36, 'state': 'normal', 'rot1': 314, 'rot0': 312, 'rot3': 41, 'rot2': 44, 'depth': 1.004, 'yaw': -74.61, 'datetime': '2018-11-26 12:30:39.967077', 'mgs': 0, 'flw2': 12.49, 'flw1': 1.03, 'flw0': 12.49, 'time': 23.06, 'compass': -132.17, 'pitch': -0.84, 'roll': 11.36}
{'lipoC2': 7.46, 'temp': 30.44, 'lipoC3S3': 11.31, 'state': 'normal', 'rot1': 319, 'rot0': 317, 'rot3': 42, 'rot2': 45, 'depth': 3.293, 'yaw': -75.71, 'datetime': '2018-11-26 12:30:40.176904', 'mgs': 0, 'flw2': 12.49, 'flw1': 1.14, 'flw0': 12.49, 'time': 23.27, 'compass': -133.27, 'pitch': -0.97, 'roll': 10.96}
{'lipoC2': 7.46, 'temp': 30.44, 'lipoC3S3': 11.51, 'state': 'normal', 'rot1': 324, 'rot0': 321, 'rot3': 42, 'rot2': 45, 'depth': 2.911, 'yaw': -76.91, 'datetime': '2018-11-26 12:30:40.389692', 'mgs': 0, 'flw2': 12.49, 'flw1': 1.03, 'flw0': 12.49, 'time': 23.49, 'compass': -134.48, 'pitch': -1.13, 'roll': 10.52}
{'lipoC2': 7.44, 'temp': 30.31, 'lipoC3S3': 11.3, 'state': 'normal', 'rot1': 328, 'rot0': 326, 'rot3': 43, 'rot2': 45, 'depth': 1.614, 'yaw': -78.14, 'datetime': '2018-11-26 12:30:40.601507', 'mgs': 0, 'flw2': 12.49, 'flw1': 1.0, 'flw0': 12.49, 'time': 23.7, 'compass': -135.7, 'pitch': -1.21, 'roll': 10.31}
{'lipoC2': 7.43, 'temp': 30.38, 'lipoC3S3': 11.38, 'state': 'normal', 'rot1': 334, 'rot0': 331, 'rot3': 43, 'rot2': 46, 'depth': 3.445, 'yaw': -79.41, 'datetime': '2018-11-26 12:30:40.811539', 'mgs': 0, 'flw2': 12.49, 'flw1': 1.17, 'flw0': 12.49, 'time': 23.91, 'compass': -136.97, 'pitch': -1.3, 'roll': 10.36}
{'lipoC2': 7.46, 'temp': 30.56, 'lipoC3S3': 11.29, 'state': 'normal', 'rot1': 338, 'rot0': 336, 'rot3': 44, 'rot2': 46, 'depth': 3.751, 'yaw': -80.84, 'datetime': '2018-11-26 12:30:41.022211', 'mgs': 0, 'flw2': 12.49, 'flw1': 1.08, 'flw0': 12.49, 'time': 24.12, 'compass': -138.4, 'pitch': -1.48, 'roll': 10.42}
{'lipoC2': 7.44, 'temp': 30.31, 'lipoC3S3': 11.31, 'state': 'normal', 'rot1': 344, 'rot0': 341, 'rot3': 44, 'rot2': 47, 'depth': 3.369, 'yaw': -82.41, 'datetime': '2018-11-26 12:30:41.233905', 'mgs': 0, 'flw2': 12.49, 'flw1': 1.17, 'flw0': 12.49, 'time': 24.33, 'compass': -139.98, 'pitch': -1.64, 'roll': 10.7}
{'lipoC2': 7.46, 'temp': 30.44, 'lipoC3S3': 11.46, 'state': 'normal', 'rot1': 348, 'rot0': 346, 'rot3': 44, 'rot2': 47, 'depth': 3.522, 'yaw': -83.77, 'datetime': '2018-11-26 12:30:41.444787', 'mgs': 0, 'flw2': 12.49, 'flw1': 1.17, 'flw0': 12.49, 'time': 24.54, 'compass': -141.34, 'pitch': -1.65, 'roll': 12.01}
{'lipoC2': 7.44, 'temp': 30.31, 'lipoC3S3': 11.29, 'state': 'normal', 'rot1': 353, 'rot0': 351, 'rot3': 45, 'rot2': 48, 'depth': 1.538, 'yaw': -85.36, 'datetime': '2018-11-26 12:30:41.656978', 'mgs': 0, 'flw2': 12.49, 'flw1': 1.03, 'flw0': 12.49, 'time': 24.76, 'compass': -142.93, 'pitch': -2.29, 'roll': 14.97}
{'lipoC2': 7.44, 'temp': 30.38, 'lipoC3S3': 11.44, 'state': 'normal', 'rot1': 358, 'rot0': 355, 'rot3': 45, 'rot2': 48, 'depth': 3.445, 'yaw': -88.45, 'datetime': '2018-11-26 12:30:41.868298', 'mgs': 0, 'flw2': 12.49, 'flw1': 0.94, 'flw0': 12.49, 'time': 24.97, 'compass': -146.02, 'pitch': -5.19, 'roll': 23.01}
{'lipoC2': 7.44, 'temp': 30.38, 'lipoC3S3': 11.31, 'state': 'normal', 'rot1': 363, 'rot0': 360, 'rot3': 46, 'rot2': 49, 'depth': 1.92, 'yaw': -97.77, 'datetime': '2018-11-26 12:30:42.083521', 'mgs': 0, 'flw2': 12.49, 'flw1': 1.05, 'flw0': 12.49, 'time': 25.18, 'compass': -155.34, 'pitch': -6.54, 'roll': 33.69}
{'lipoC2': 7.43, 'temp': 29.94, 'lipoC3S3': 11.58, 'state': 'normal', 'rot1': 363, 'rot0': 361, 'rot3': 46, 'rot2': 49, 'depth': 2.301, 'yaw': -99.04, 'datetime': '2018-11-26 12:30:42.284602', 'mgs': 0, 'flw2': 0.0, 'flw1': 0.0, 'flw0': 0.0, 'time': 25.39, 'compass': -156.61, 'pitch': -7.68, 'roll': 37.53}
{'lipoC2': 7.44, 'temp': 30.81, 'lipoC3S3': 11.59, 'state': 'normal', 'rot1': 363, 'rot0': 361, 'rot3': 46, 'rot2': 49, 'depth': 2.454, 'yaw': -102.93, 'datetime': '2018-11-26 12:30:42.497542', 'mgs': 0, 'flw2': 0.0, 'flw1': 0.0, 'flw0': 0.0, 'time': 25.6, 'compass': -160.49, 'pitch': -10.66, 'roll': 39.47}
{'lipoC2': 7.43, 'temp': 30.38, 'lipoC3S3': 11.59, 'state': 'normal', 'rot1': 363, 'rot0': 361, 'rot3': 46, 'rot2': 49, 'depth': 2.454, 'yaw': -105.3, 'datetime': '2018-11-26 12:30:42.706475', 'mgs': 0, 'flw2': 0.0, 'flw1': 0.0, 'flw0': 0.0, 'time': 25.81, 'compass': -162.87, 'pitch': -13.13, 'roll': 37.56}
{'lipoC2': 7.43, 'temp': 30.19, 'lipoC3S3': 11.6, 'state': 'normal', 'rot1': 363, 'rot0': 361, 'rot3': 46, 'rot2': 49, 'depth': 2.454, 'yaw': -106.65, 'datetime': '2018-11-26 12:30:42.922489', 'mgs': 0, 'flw2': 0.0, 'flw1': 0.0, 'flw0': 0.0, 'time': 26.02, 'compass': -164.22, 'pitch': -14.64, 'roll': 35.31}
{'lipoC2': 7.43, 'temp': 30.06, 'lipoC3S3': 11.6, 'state': 'normal', 'rot1': 363, 'rot0': 361, 'rot3': 46, 'rot2': 49, 'depth': 2.454, 'yaw': -109.52, 'datetime': '2018-11-26 12:30:43.133026', 'mgs': 0, 'flw2': 0.0, 'flw1': 0.0, 'flw0': 0.0, 'time': 26.23, 'compass': -167.09, 'pitch': -14.35, 'roll': 32.85}
{'lipoC2': 7.43, 'temp': 30.38, 'lipoC3S3': 11.6, 'state': 'normal', 'rot1': 363, 'rot0': 361, 'rot3': 46, 'rot2': 49, 'depth': 2.301, 'yaw': -112.28, 'datetime': '2018-11-26 12:30:43.345047', 'mgs': 0, 'flw2': 0.0, 'flw1': 0.0, 'flw0': 0.0, 'time': 26.44, 'compass': -169.84, 'pitch': -14.57, 'roll': 30.91}
{'lipoC2': 7.44, 'temp': 30.38, 'lipoC3S3': 11.6, 'state': 'normal', 'rot1': 363, 'rot0': 361, 'rot3': 46, 'rot2': 49, 'depth': 2.225, 'yaw': -115.39, 'datetime': '2018-11-26 12:30:43.557009', 'mgs': 0, 'flw2': 0.0, 'flw1': 0.0, 'flw0': 0.0, 'time': 26.66, 'compass': -172.96, 'pitch': -14.57, 'roll': 28.69}
{'lipoC2': 7.44, 'temp': 30.38, 'lipoC3S3': 11.6, 'state': 'normal', 'rot1': 363, 'rot0': 361, 'rot3': 46, 'rot2': 49, 'depth': 2.072, 'yaw': -118.52, 'datetime': '2018-11-26 12:30:43.767341', 'mgs': 0, 'flw2': 0.0, 'flw1': 0.0, 'flw0': 0.0, 'time': 26.87, 'compass': -176.09, 'pitch': -13.89, 'roll': 25.3}
{'lipoC2': 7.44, 'temp': 30.38, 'lipoC3S3': 11.6, 'state': 'normal', 'rot1': 363, 'rot0': 361, 'rot3': 46, 'rot2': 49, 'depth': 1.92, 'yaw': -122.06, 'datetime': '2018-11-26 12:30:43.977664', 'mgs': 0, 'flw2': 0.0, 'flw1': 0.0, 'flw0': 0.0, 'time': 27.08, 'compass': -179.63, 'pitch': -13.45, 'roll': 21.84}
{'lipoC2': 7.43, 'temp': 30.44, 'lipoC3S3': 11.61, 'state': 'normal', 'rot1': 363, 'rot0': 361, 'rot3': 46, 'rot2': 49, 'depth': 1.843, 'yaw': -123.06, 'datetime': '2018-11-26 12:30:44.189984', 'mgs': 0, 'flw2': 0.0, 'flw1': 0.0, 'flw0': 0.0, 'time': 27.29, 'compass': 179.37, 'pitch': -13.39, 'roll': 16.85}
{'lipoC2': 7.44, 'temp': 30.5, 'lipoC3S3': 11.61, 'state': 'normal', 'rot1': 363, 'rot0': 361, 'rot3': 46, 'rot2': 49, 'depth': 1.691, 'yaw': -123.83, 'datetime': '2018-11-26 12:30:44.399104', 'mgs': 0, 'flw2': 0.0, 'flw1': 0.0, 'flw0': 0.0, 'time': 27.5, 'compass': 178.6, 'pitch': -12.55, 'roll': 11.86}
{'lipoC2': 7.44, 'temp': 30.38, 'lipoC3S3': 11.6, 'state': 'normal', 'rot1': 363, 'rot0': 361, 'rot3': 46, 'rot2': 49, 'depth': 1.538, 'yaw': -124.47, 'datetime': '2018-11-26 12:30:44.610760', 'mgs': 0, 'flw2': 0.0, 'flw1': 0.0, 'flw0': 0.0, 'time': 27.71, 'compass': 177.96, 'pitch': -11.77, 'roll': 7.68}
{'lipoC2': 7.44, 'temp': 30.44, 'lipoC3S3': 11.61, 'state': 'normal', 'rot1': 363, 'rot0': 361, 'rot3': 46, 'rot2': 49, 'depth': 1.462, 'yaw': -123.92, 'datetime': '2018-11-26 12:30:44.821908', 'mgs': 0, 'flw2': 0.0, 'flw1': 0.0, 'flw0': 0.0, 'time': 27.92, 'compass': 178.51, 'pitch': -9.95, 'roll': 5.31}
{'lipoC2': 7.44, 'temp': 30.31, 'lipoC3S3': 11.61, 'state': 'normal', 'rot1': 363, 'rot0': 361, 'rot3': 46, 'rot2': 49, 'depth': 1.385, 'yaw': -123.61, 'datetime': '2018-11-26 12:30:45.030714', 'mgs': 0, 'flw2': 0.0, 'flw1': 0.0, 'flw0': 0.0, 'time': 28.13, 'compass': 178.83, 'pitch': -7.41, 'roll': 3.4}
{'lipoC2': 7.43, 'temp': 30.31, 'lipoC3S3': 11.61, 'state': 'normal', 'rot1': 363, 'rot0': 361, 'rot3': 46, 'rot2': 49, 'depth': 1.462, 'yaw': -124.36, 'datetime': '2018-11-26 12:30:45.245419', 'mgs': 0, 'flw2': 0.0, 'flw1': 0.0, 'flw0': 0.0, 'time': 28.34, 'compass': 178.07, 'pitch': -7.09, 'roll': 2.38}
{'lipoC2': 7.43, 'temp': 30.56, 'lipoC3S3': 11.61, 'state': 'normal', 'rot1': 363, 'rot0': 361, 'rot3': 46, 'rot2': 49, 'depth': 1.462, 'yaw': -125.55, 'datetime': '2018-11-26 12:30:45.453731', 'mgs': 0, 'flw2': 0.0, 'flw1': 0.0, 'flw0': 0.0, 'time': 28.56, 'compass': 176.88, 'pitch': -8.18, 'roll': 1.68}
{'lipoC2': 7.43, 'temp': 30.44, 'lipoC3S3': 11.61, 'state': 'normal', 'rot1': 363, 'rot0': 361, 'rot3': 46, 'rot2': 49, 'depth': 1.462, 'yaw': -127.09, 'datetime': '2018-11-26 12:30:45.665197', 'mgs': 0, 'flw2': 0.0, 'flw1': 0.0, 'flw0': 0.0, 'time': 28.77, 'compass': 175.34, 'pitch': -8.8, 'roll': 0.95}
{'lipoC2': 7.43, 'temp': 30.44, 'lipoC3S3': 11.63, 'state': 'normal', 'rot1': 363, 'rot0': 361, 'rot3': 46, 'rot2': 49, 'depth': 1.538, 'yaw': -129.67, 'datetime': '2018-11-26 12:30:45.875496', 'mgs': 0, 'flw2': 0.0, 'flw1': 0.0, 'flw0': 0.0, 'time': 28.98, 'compass': 172.77, 'pitch': -9.4, 'roll': 0.2}
{'lipoC2': 7.44, 'temp': 30.56, 'lipoC3S3': 11.63, 'state': 'normal', 'rot1': 363, 'rot0': 361, 'rot3': 46, 'rot2': 49, 'depth': 1.538, 'yaw': -132.56, 'datetime': '2018-11-26 12:30:46.085573', 'mgs': 0, 'flw2': 0.0, 'flw1': 0.0, 'flw0': 0.0, 'time': 29.19, 'compass': 169.87, 'pitch': -11.63, 'roll': 0.96}
{'lipoC2': 7.44, 'temp': 30.38, 'lipoC3S3': 11.63, 'state': 'normal', 'rot1': 363, 'rot0': 361, 'rot3': 46, 'rot2': 49, 'depth': 1.691, 'yaw': -135.69, 'datetime': '2018-11-26 12:30:46.296364', 'mgs': 0, 'flw2': 0.0, 'flw1': 0.0, 'flw0': 0.0, 'time': 29.4, 'compass': 166.75, 'pitch': -13.8, 'roll': 1.28}
{'lipoC2': 7.43, 'temp': 30.44, 'lipoC3S3': 11.63, 'state': 'normal', 'rot1': 363, 'rot0': 361, 'rot3': 46, 'rot2': 49, 'depth': 1.767, 'yaw': -138.26, 'datetime': '2018-11-26 12:30:46.509122', 'mgs': 0, 'flw2': 0.0, 'flw1': 0.0, 'flw0': 0.0, 'time': 29.61, 'compass': 164.17, 'pitch': -15.06, 'roll': 2.27}
{'lipoC2': 7.44, 'temp': 30.5, 'lipoC3S3': 11.63, 'state': 'normal', 'rot1': 363, 'rot0': 361, 'rot3': 46, 'rot2': 49, 'depth': 1.767, 'yaw': -140.52, 'datetime': '2018-11-26 12:30:46.718348', 'mgs': 0, 'flw2': 0.0, 'flw1': 0.0, 'flw0': 0.0, 'time': 29.82, 'compass': 161.91, 'pitch': -14.26, 'roll': 2.24}
{'lipoC2': 7.43, 'temp': 30.5, 'lipoC3S3': 11.63, 'state': 'normal', 'rot1': 363, 'rot0': 361, 'rot3': 46, 'rot2': 49, 'depth': 1.691, 'yaw': -142.87, 'datetime': '2018-11-26 12:30:46.929075', 'mgs': 0, 'flw2': 0.0, 'flw1': 0.0, 'flw0': 0.0, 'time': 30.03, 'compass': 159.56, 'pitch': -11.69, 'roll': 0.52}
{'lipoC2': 7.44, 'temp': 30.5, 'lipoC3S3': 11.63, 'state': 'normal', 'rot1': 363, 'rot0': 361, 'rot3': 46, 'rot2': 49, 'depth': 1.614, 'yaw': -145.19, 'datetime': '2018-11-26 12:30:47.140393', 'mgs': 0, 'flw2': 0.0, 'flw1': 0.0, 'flw0': 0.0, 'time': 30.24, 'compass': 157.24, 'pitch': -7.57, 'roll': -2.18}
{'lipoC2': 7.44, 'temp': 30.5, 'lipoC3S3': 11.63, 'state': 'normal', 'rot1': 363, 'rot0': 361, 'rot3': 46, 'rot2': 49, 'depth': 1.538, 'yaw': -147.7, 'datetime': '2018-11-26 12:30:47.351911', 'mgs': 0, 'flw2': 0.0, 'flw1': 0.0, 'flw0': 0.0, 'time': 30.46, 'compass': 154.73, 'pitch': -2.84, 'roll': -4.78}
{'lipoC2': 7.44, 'temp': 30.5, 'lipoC3S3': 11.64, 'state': 'normal', 'rot1': 363, 'rot0': 361, 'rot3': 46, 'rot2': 49, 'depth': 1.462, 'yaw': -150.36, 'datetime': '2018-11-26 12:30:47.562868', 'mgs': 0, 'flw2': 0.0, 'flw1': 0.0, 'flw0': 0.0, 'time': 30.67, 'compass': 152.08, 'pitch': 1.29, 'roll': -6.91}
{'lipoC2': 7.44, 'temp': 30.5, 'lipoC3S3': 11.63, 'state': 'normal', 'rot1': 363, 'rot0': 361, 'rot3': 46, 'rot2': 49, 'depth': 1.462, 'yaw': -152.99, 'datetime': '2018-11-26 12:30:47.773872', 'mgs': 0, 'flw2': 0.0, 'flw1': 0.0, 'flw0': 0.0, 'time': 30.88, 'compass': 149.44, 'pitch': 3.92, 'roll': -8.28}
{'lipoC2': 7.44, 'temp': 30.44, 'lipoC3S3': 11.64, 'state': 'normal', 'rot1': 363, 'rot0': 361, 'rot3': 46, 'rot2': 49, 'depth': 1.538, 'yaw': -155.51, 'datetime': '2018-11-26 12:30:47.983232', 'mgs': 0, 'flw2': 0.0, 'flw1': 0.0, 'flw0': 0.0, 'time': 31.09, 'compass': 146.93, 'pitch': 4.81, 'roll': -8.58}
{'lipoC2': 7.44, 'temp': 30.5, 'lipoC3S3': 11.63, 'state': 'normal', 'rot1': 363, 'rot0': 361, 'rot3': 46, 'rot2': 49, 'depth': 1.614, 'yaw': -157.89, 'datetime': '2018-11-26 12:30:48.194113', 'mgs': 0, 'flw2': 0.0, 'flw1': 0.0, 'flw0': 0.0, 'time': 31.3, 'compass': 144.54, 'pitch': 4.11, 'roll': -8.01}
{'lipoC2': 7.44, 'temp': 30.5, 'lipoC3S3': 11.64, 'state': 'normal', 'rot1': 363, 'rot0': 361, 'rot3': 46, 'rot2': 49, 'depth': 1.691, 'yaw': -160.34, 'datetime': '2018-11-26 12:30:48.404392', 'mgs': 0, 'flw2': 0.0, 'flw1': 0.0, 'flw0': 0.0, 'time': 31.51, 'compass': 142.09, 'pitch': 2.16, 'roll': -6.92}
{'lipoC2': 7.44, 'temp': 30.5, 'lipoC3S3': 11.63, 'state': 'normal', 'rot1': 363, 'rot0': 361, 'rot3': 46, 'rot2': 49, 'depth': 1.767, 'yaw': -162.63, 'datetime': '2018-11-26 12:30:48.615656', 'mgs': 0, 'flw2': 0.0, 'flw1': 0.0, 'flw0': 0.0, 'time': 31.72, 'compass': 139.8, 'pitch': -0.27, 'roll': -5.73}
{'lipoC2': 7.44, 'temp': 30.5, 'lipoC3S3': 11.64, 'state': 'normal', 'rot1': 363, 'rot0': 361, 'rot3': 46, 'rot2': 49, 'depth': 1.767, 'yaw': -164.81, 'datetime': '2018-11-26 12:30:48.826413', 'mgs': 0, 'flw2': 0.0, 'flw1': 0.0, 'flw0': 0.0, 'time': 31.93, 'compass': 137.62, 'pitch': -2.64, 'roll': -4.78}
{'lipoC2': 7.43, 'temp': 30.5, 'lipoC3S3': 11.64, 'state': 'normal', 'rot1': 363, 'rot0': 361, 'rot3': 46, 'rot2': 49, 'depth': 1.92, 'yaw': -166.79, 'datetime': '2018-11-26 12:30:49.035657', 'mgs': 0, 'flw2': 0.0, 'flw1': 0.0, 'flw0': 0.0, 'time': 32.14, 'compass': 135.64, 'pitch': -4.49, 'roll': -4.34}
{'lipoC2': 7.44, 'temp': 30.5, 'lipoC3S3': 11.64, 'state': 'normal', 'rot1': 363, 'rot0': 361, 'rot3': 46, 'rot2': 49, 'depth': 1.996, 'yaw': -168.55, 'datetime': '2018-11-26 12:30:49.246345', 'mgs': 0, 'flw2': 0.0, 'flw1': 0.0, 'flw0': 0.0, 'time': 32.35, 'compass': 133.88, 'pitch': -5.54, 'roll': -4.28}
{'lipoC2': 7.44, 'temp': 30.5, 'lipoC3S3': 11.64, 'state': 'normal', 'rot1': 363, 'rot0': 361, 'rot3': 46, 'rot2': 49, 'depth': 2.072, 'yaw': -170.11, 'datetime': '2018-11-26 12:30:49.458322', 'mgs': 0, 'flw2': 0.0, 'flw1': 0.0, 'flw0': 0.0, 'time': 32.56, 'compass': 132.32, 'pitch': -5.66, 'roll': -4.69}
{'lipoC2': 7.44, 'temp': 30.5, 'lipoC3S3': 11.64, 'state': 'normal', 'rot1': 363, 'rot0': 361, 'rot3': 46, 'rot2': 49, 'depth': 1.996, 'yaw': -171.57, 'datetime': '2018-11-26 12:30:49.669766', 'mgs': 0, 'flw2': 0.0, 'flw1': 0.0, 'flw0': 0.0, 'time': 32.78, 'compass': 130.87, 'pitch': -4.97, 'roll': -5.44}
{'lipoC2': 7.43, 'temp': 30.5, 'lipoC3S3': 11.64, 'state': 'normal', 'rot1': 363, 'rot0': 361, 'rot3': 46, 'rot2': 49, 'depth': 1.996, 'yaw': -174.08, 'datetime': '2018-11-26 12:30:49.879284', 'mgs': 0, 'flw2': 0.0, 'flw1': 0.0, 'flw0': 0.0, 'time': 32.99, 'compass': 128.35, 'pitch': -3.54, 'roll': -6.28}
{'lipoC2': 7.44, 'temp': 30.5, 'lipoC3S3': 11.64, 'state': 'normal', 'rot1': 363, 'rot0': 361, 'rot3': 46, 'rot2': 49, 'depth': 1.996, 'yaw': -176.45, 'datetime': '2018-11-26 12:30:50.089427', 'mgs': 0, 'flw2': 0.0, 'flw1': 0.0, 'flw0': 0.0, 'time': 33.2, 'compass': 125.99, 'pitch': -2.06, 'roll': -6.7}
{'lipoC2': 7.44, 'temp': 30.5, 'lipoC3S3': 11.64, 'state': 'normal', 'rot1': 363, 'rot0': 361, 'rot3': 46, 'rot2': 49, 'depth': 1.92, 'yaw': -178.47, 'datetime': '2018-11-26 12:30:50.301778', 'mgs': 0, 'flw2': 0.0, 'flw1': 0.0, 'flw0': 0.0, 'time': 33.41, 'compass': 123.97, 'pitch': -1.09, 'roll': -6.64}
{'lipoC2': 7.44, 'temp': 30.5, 'lipoC3S3': 11.64, 'state': 'normal', 'rot1': 363, 'rot0': 361, 'rot3': 46, 'rot2': 49, 'depth': 1.996, 'yaw': -178.88, 'datetime': '2018-11-26 12:30:50.512284', 'mgs': 0, 'flw2': 0.0, 'flw1': 0.0, 'flw0': 0.0, 'time': 33.62, 'compass': 123.55, 'pitch': -1.94, 'roll': -5.93}
{'lipoC2': 7.44, 'temp': 30.56, 'lipoC3S3': 11.64, 'state': 'normal', 'rot1': 363, 'rot0': 361, 'rot3': 46, 'rot2': 49, 'depth': 2.072, 'yaw': -179.36, 'datetime': '2018-11-26 12:30:50.723600', 'mgs': 0, 'flw2': 0.0, 'flw1': 0.0, 'flw0': 0.0, 'time': 33.83, 'compass': 123.07, 'pitch': -2.76, 'roll': -5.32}
{'lipoC2': 7.44, 'temp': 30.44, 'lipoC3S3': 11.65, 'state': 'normal', 'rot1': 363, 'rot0': 361, 'rot3': 46, 'rot2': 49, 'depth': 2.072, 'yaw': -179.8, 'datetime': '2018-11-26 12:30:50.932841', 'mgs': 0, 'flw2': 0.0, 'flw1': 0.0, 'flw0': 0.0, 'time': 34.04, 'compass': 122.63, 'pitch': -3.32, 'roll': -4.82}
{'lipoC2': 7.44, 'temp': 30.5, 'lipoC3S3': 11.64, 'state': 'normal', 'rot1': 363, 'rot0': 361, 'rot3': 46, 'rot2': 49, 'depth': 2.072, 'yaw': 179.83, 'datetime': '2018-11-26 12:30:51.144294', 'mgs': 0, 'flw2': 0.0, 'flw1': 0.0, 'flw0': 0.0, 'time': 34.25, 'compass': 122.27, 'pitch': -3.48, 'roll': -4.64}
{'lipoC2': 7.44, 'temp': 30.5, 'lipoC3S3': 11.64, 'state': 'normal', 'rot1': 363, 'rot0': 361, 'rot3': 46, 'rot2': 49, 'depth': 2.072, 'yaw': 179.55, 'datetime': '2018-11-26 12:30:51.355492', 'mgs': 0, 'flw2': 0.0, 'flw1': 0.0, 'flw0': 0.0, 'time': 34.46, 'compass': 121.98, 'pitch': -3.22, 'roll': -4.91}
{'lipoC2': 7.43, 'temp': 30.5, 'lipoC3S3': 11.64, 'state': 'normal', 'rot1': 363, 'rot0': 361, 'rot3': 46, 'rot2': 49, 'depth': 1.996, 'yaw': 179.31, 'datetime': '2018-11-26 12:30:51.566598', 'mgs': 0, 'flw2': 0.0, 'flw1': 0.0, 'flw0': 0.0, 'time': 34.67, 'compass': 121.75, 'pitch': -2.62, 'roll': -5.39}
{'lipoC2': 7.43, 'temp': 30.5, 'lipoC3S3': 11.64, 'state': 'normal', 'rot1': 363, 'rot0': 361, 'rot3': 46, 'rot2': 49, 'depth': 1.996, 'yaw': 179.19, 'datetime': '2018-11-26 12:30:51.776404', 'mgs': 0, 'flw2': 0.0, 'flw1': 0.0, 'flw0': 0.0, 'time': 34.88, 'compass': 121.62, 'pitch': -1.94, 'roll': -5.83}
{'lipoC2': 7.43, 'temp': 30.5, 'lipoC3S3': 11.64, 'state': 'normal', 'rot1': 363, 'rot0': 361, 'rot3': 46, 'rot2': 49, 'depth': 1.92, 'yaw': 179.13, 'datetime': '2018-11-26 12:30:51.986229', 'mgs': 0, 'flw2': 0.0, 'flw1': 0.0, 'flw0': 0.0, 'time': 35.1, 'compass': 121.57, 'pitch': -1.4, 'roll': -6.2}
{'lipoC2': 7.44, 'temp': 30.5, 'lipoC3S3': 11.65, 'state': 'normal', 'rot1': 363, 'rot0': 361, 'rot3': 46, 'rot2': 49, 'depth': 1.92, 'yaw': 179.1, 'datetime': '2018-11-26 12:30:52.197534', 'mgs': 0, 'flw2': 0.0, 'flw1': 0.0, 'flw0': 0.0, 'time': 35.31, 'compass': 121.54, 'pitch': -1.12, 'roll': -6.3}
{'lipoC2': 7.43, 'temp': 30.44, 'lipoC3S3': 11.64, 'state': 'normal', 'rot1': 363, 'rot0': 361, 'rot3': 46, 'rot2': 49, 'depth': 1.92, 'yaw': 179.11, 'datetime': '2018-11-26 12:30:52.409441', 'mgs': 0, 'flw2': 0.0, 'flw1': 0.0, 'flw0': 0.0, 'time': 35.52, 'compass': 121.54, 'pitch': -1.12, 'roll': -6.08}
{'lipoC2': 7.44, 'temp': 30.5, 'lipoC3S3': 11.65, 'state': 'normal', 'rot1': 363, 'rot0': 361, 'rot3': 46, 'rot2': 49, 'depth': 1.843, 'yaw': 179.13, 'datetime': '2018-11-26 12:30:52.620291', 'mgs': 0, 'flw2': 0.0, 'flw1': 0.0, 'flw0': 0.0, 'time': 35.73, 'compass': 121.56, 'pitch': -1.4, 'roll': -5.69}
{'lipoC2': 7.44, 'temp': 30.5, 'lipoC3S3': 11.64, 'state': 'normal', 'rot1': 363, 'rot0': 361, 'rot3': 46, 'rot2': 49, 'depth': 1.92, 'yaw': 179.18, 'datetime': '2018-11-26 12:30:52.831131', 'mgs': 0, 'flw2': 0.0, 'flw1': 0.0, 'flw0': 0.0, 'time': 35.94, 'compass': 121.62, 'pitch': -1.92, 'roll': -5.55}
{'lipoC2': 7.42, 'temp': 30.44, 'lipoC3S3': 11.65, 'state': 'normal', 'rot1': 363, 'rot0': 361, 'rot3': 46, 'rot2': 49, 'depth': 1.843, 'yaw': 179.24, 'datetime': '2018-11-26 12:30:53.036230', 'mgs': 0, 'flw2': 0.0, 'flw1': 0.0, 'flw0': 0.0, 'time': 36.15, 'compass': 121.67, 'pitch': -2.49, 'roll': -5.77}
{'lipoC2': 7.44, 'temp': 30.38, 'lipoC3S3': 11.65, 'state': 'normal', 'rot1': 363, 'rot0': 361, 'rot3': 46, 'rot2': 49, 'depth': 1.843, 'yaw': 179.29, 'datetime': '2018-11-26 12:30:53.246009', 'mgs': 0, 'flw2': 0.0, 'flw1': 0.0, 'flw0': 0.0, 'time': 36.36, 'compass': 121.73, 'pitch': -3.0, 'roll': -5.79}
{'lipoC2': 7.43, 'temp': 30.38, 'lipoC3S3': 11.65, 'state': 'normal', 'rot1': 363, 'rot0': 361, 'rot3': 46, 'rot2': 49, 'depth': 1.843, 'yaw': 179.39, 'datetime': '2018-11-26 12:30:53.458615', 'mgs': 0, 'flw2': 0.0, 'flw1': 0.0, 'flw0': 0.0, 'time': 36.57, 'compass': 121.83, 'pitch': -3.26, 'roll': -5.59}
{'lipoC2': 7.44, 'temp': 30.56, 'lipoC3S3': 11.65, 'state': 'normal', 'rot1': 363, 'rot0': 361, 'rot3': 46, 'rot2': 49, 'depth': 1.92, 'yaw': 179.46, 'datetime': '2018-11-26 12:30:53.670489', 'mgs': 0, 'flw2': 0.0, 'flw1': 0.0, 'flw0': 0.0, 'time': 36.78, 'compass': 121.89, 'pitch': -3.25, 'roll': -5.41}
{'lipoC2': 7.43, 'temp': 30.44, 'lipoC3S3': 11.65, 'state': 'normal', 'rot1': 363, 'rot0': 361, 'rot3': 46, 'rot2': 49, 'depth': 1.843, 'yaw': 179.46, 'datetime': '2018-11-26 12:30:53.881512', 'mgs': 0, 'flw2': 0.0, 'flw1': 0.0, 'flw0': 0.0, 'time': 37.0, 'compass': 121.89, 'pitch': -3.23, 'roll': -5.29}
{'lipoC2': 7.43, 'temp': 30.44, 'lipoC3S3': 11.65, 'state': 'normal', 'rot1': 363, 'rot0': 361, 'rot3': 46, 'rot2': 49, 'depth': 1.843, 'yaw': 179.52, 'datetime': '2018-11-26 12:30:54.091627', 'mgs': 0, 'flw2': 0.0, 'flw1': 0.0, 'flw0': 0.0, 'time': 37.21, 'compass': 121.96, 'pitch': -2.54, 'roll': -5.0}
{'lipoC2': 7.43, 'temp': 30.44, 'lipoC3S3': 11.65, 'state': 'normal', 'rot1': 363, 'rot0': 361, 'rot3': 46, 'rot2': 49, 'depth': 1.92, 'yaw': -180.0, 'datetime': '2018-11-26 12:30:54.302184', 'mgs': 0, 'flw2': 0.0, 'flw1': 0.0, 'flw0': 0.0, 'time': 37.42, 'compass': 122.43, 'pitch': -0.8, 'roll': -4.52}
{'lipoC2': 7.43, 'temp': 30.44, 'lipoC3S3': 11.65, 'state': 'normal', 'rot1': 363, 'rot0': 361, 'rot3': 46, 'rot2': 49, 'depth': 1.767, 'yaw': -179.23, 'datetime': '2018-11-26 12:30:54.513989', 'mgs': 0, 'flw2': 0.0, 'flw1': 0.0, 'flw0': 0.0, 'time': 37.63, 'compass': 123.2, 'pitch': 1.34, 'roll': -4.22}
{'lipoC2': 7.43, 'temp': 30.44, 'lipoC3S3': 11.65, 'state': 'normal', 'rot1': 363, 'rot0': 361, 'rot3': 46, 'rot2': 49, 'depth': 1.843, 'yaw': -178.31, 'datetime': '2018-11-26 12:30:54.725523', 'mgs': 0, 'flw2': 0.0, 'flw1': 0.0, 'flw0': 0.0, 'time': 37.84, 'compass': 124.12, 'pitch': 3.22, 'roll': -4.43}
{'lipoC2': 7.43, 'temp': 30.44, 'lipoC3S3': 11.65, 'state': 'normal', 'rot1': 363, 'rot0': 361, 'rot3': 46, 'rot2': 49, 'depth': 1.843, 'yaw': -177.27, 'datetime': '2018-11-26 12:30:54.935112', 'mgs': 0, 'flw2': 0.0, 'flw1': 0.0, 'flw0': 0.0, 'time': 38.05, 'compass': 125.16, 'pitch': 4.62, 'roll': -5.28}
{'lipoC2': 7.44, 'temp': 30.44, 'lipoC3S3': 11.65, 'state': 'normal', 'rot1': 363, 'rot0': 361, 'rot3': 46, 'rot2': 49, 'depth': 1.843, 'yaw': -176.29, 'datetime': '2018-11-26 12:30:55.146263', 'mgs': 0, 'flw2': 0.0, 'flw1': 0.0, 'flw0': 0.0, 'time': 38.26, 'compass': 126.14, 'pitch': 5.52, 'roll': -6.58}
{'lipoC2': 7.44, 'temp': 30.44, 'lipoC3S3': 11.65, 'state': 'normal', 'rot1': 363, 'rot0': 361, 'rot3': 46, 'rot2': 49, 'depth': 1.843, 'yaw': -175.0, 'datetime': '2018-11-26 12:30:55.357725', 'mgs': 0, 'flw2': 0.0, 'flw1': 0.0, 'flw0': 0.0, 'time': 38.47, 'compass': 127.43, 'pitch': 6.47, 'roll': -7.67}
{'lipoC2': 7.44, 'temp': 30.44, 'lipoC3S3': 11.65, 'state': 'normal', 'rot1': 363, 'rot0': 361, 'rot3': 46, 'rot2': 49, 'depth': 1.996, 'yaw': -173.58, 'datetime': '2018-11-26 12:30:55.571539', 'mgs': 0, 'flw2': 0.0, 'flw1': 0.0, 'flw0': 0.0, 'time': 38.68, 'compass': 128.85, 'pitch': 7.39, 'roll': -8.54}
{'lipoC2': 7.44, 'temp': 30.38, 'lipoC3S3': 11.65, 'state': 'normal', 'rot1': 363, 'rot0': 361, 'rot3': 46, 'rot2': 49, 'depth': 1.996, 'yaw': -172.13, 'datetime': '2018-11-26 12:30:55.783358', 'mgs': 0, 'flw2': 0.0, 'flw1': 0.0, 'flw0': 0.0, 'time': 38.9, 'compass': 130.3, 'pitch': 8.35, 'roll': -9.08}
{'lipoC2': 7.43, 'temp': 30.63, 'lipoC3S3': 11.65, 'state': 'normal', 'rot1': 363, 'rot0': 361, 'rot3': 46, 'rot2': 49, 'depth': 2.148, 'yaw': -171.0, 'datetime': '2018-11-26 12:30:55.993472', 'mgs': 0, 'flw2': 0.0, 'flw1': 0.0, 'flw0': 0.0, 'time': 39.1, 'compass': 131.44, 'pitch': 9.15, 'roll': -9.37}
{'lipoC2': 7.44, 'temp': 30.44, 'lipoC3S3': 11.65, 'state': 'normal', 'rot1': 363, 'rot0': 361, 'rot3': 46, 'rot2': 49, 'depth': 2.225, 'yaw': -170.4, 'datetime': '2018-11-26 12:30:56.205348', 'mgs': 0, 'flw2': 0.0, 'flw1': 0.0, 'flw0': 0.0, 'time': 39.32, 'compass': 132.03, 'pitch': 9.67, 'roll': -9.57}
{'lipoC2': 7.43, 'temp': 30.44, 'lipoC3S3': 11.65, 'state': 'normal', 'rot1': 363, 'rot0': 361, 'rot3': 46, 'rot2': 49, 'depth': 2.377, 'yaw': -170.31, 'datetime': '2018-11-26 12:30:56.416890', 'mgs': 0, 'flw2': 0.0, 'flw1': 0.0, 'flw0': 0.0, 'time': 39.53, 'compass': 132.13, 'pitch': 9.53, 'roll': -9.71}
{'lipoC2': 7.44, 'temp': 30.44, 'lipoC3S3': 11.65, 'state': 'normal', 'rot1': 363, 'rot0': 361, 'rot3': 46, 'rot2': 49, 'depth': 2.53, 'yaw': -170.84, 'datetime': '2018-11-26 12:30:56.627091', 'mgs': 0, 'flw2': 0.0, 'flw1': 0.0, 'flw0': 0.0, 'time': 39.74, 'compass': 131.6, 'pitch': 8.43, 'roll': -9.8}
{'lipoC2': 7.44, 'temp': 30.44, 'lipoC3S3': 11.65, 'state': 'normal', 'rot1': 363, 'rot0': 361, 'rot3': 46, 'rot2': 49, 'depth': 2.53, 'yaw': -172.12, 'datetime': '2018-11-26 12:30:56.837796', 'mgs': 0, 'flw2': 0.0, 'flw1': 0.0, 'flw0': 0.0, 'time': 39.95, 'compass': 130.31, 'pitch': 6.64, 'roll': -9.97}
{'lipoC2': 7.44, 'temp': 30.44, 'lipoC3S3': 11.65, 'state': 'normal', 'rot1': 363, 'rot0': 361, 'rot3': 46, 'rot2': 49, 'depth': 2.606, 'yaw': -173.32, 'datetime': '2018-11-26 12:30:57.047891', 'mgs': 0, 'flw2': 0.0, 'flw1': 0.0, 'flw0': 0.0, 'time': 40.16, 'compass': 129.12, 'pitch': 8.03, 'roll': -9.97}
{'lipoC2': 7.43, 'temp': 30.44, 'lipoC3S3': 11.65, 'state': 'normal', 'rot1': 363, 'rot0': 361, 'rot3': 46, 'rot2': 49, 'depth': 2.759, 'yaw': -174.35, 'datetime': '2018-11-26 12:30:57.258098', 'mgs': 0, 'flw2': 0.0, 'flw1': 0.0, 'flw0': 0.0, 'time': 40.37, 'compass': 128.09, 'pitch': 6.93, 'roll': -9.86}
{'lipoC2': 7.43, 'temp': 30.44, 'lipoC3S3': 11.65, 'state': 'normal', 'rot1': 363, 'rot0': 361, 'rot3': 46, 'rot2': 49, 'depth': 2.682, 'yaw': -174.75, 'datetime': '2018-11-26 12:30:57.470572', 'mgs': 0, 'flw2': 0.0, 'flw1': 0.0, 'flw0': 0.0, 'time': 40.58, 'compass': 127.68, 'pitch': 6.02, 'roll': -8.99}
{'lipoC2': 7.44, 'temp': 30.44, 'lipoC3S3': 11.65, 'state': 'normal', 'rot1': 363, 'rot0': 361, 'rot3': 46, 'rot2': 49, 'depth': 2.759, 'yaw': -174.86, 'datetime': '2018-11-26 12:30:57.681152', 'mgs': 0, 'flw2': 0.0, 'flw1': 0.0, 'flw0': 0.0, 'time': 40.79, 'compass': 127.57, 'pitch': 4.15, 'roll': -7.68}
{'lipoC2': 7.44, 'temp': 30.44, 'lipoC3S3': 11.65, 'state': 'normal', 'rot1': 363, 'rot0': 361, 'rot3': 46, 'rot2': 49, 'depth': 2.759, 'yaw': -174.93, 'datetime': '2018-11-26 12:30:57.892003', 'mgs': 0, 'flw2': 0.0, 'flw1': 0.0, 'flw0': 0.0, 'time': 41.01, 'compass': 127.51, 'pitch': 1.2, 'roll': -6.48}
{'lipoC2': 7.44, 'temp': 30.5, 'lipoC3S3': 11.65, 'state': 'normal', 'rot1': 363, 'rot0': 361, 'rot3': 46, 'rot2': 49, 'depth': 2.835, 'yaw': -174.99, 'datetime': '2018-11-26 12:30:58.101578', 'mgs': 0, 'flw2': 0.0, 'flw1': 0.0, 'flw0': 0.0, 'time': 41.22, 'compass': 127.44, 'pitch': -1.94, 'roll': -5.6}
{'lipoC2': 7.44, 'temp': 30.5, 'lipoC3S3': 11.65, 'state': 'normal', 'rot1': 363, 'rot0': 361, 'rot3': 46, 'rot2': 49, 'depth': 2.759, 'yaw': -175.02, 'datetime': '2018-11-26 12:30:58.313414', 'mgs': 0, 'flw2': 0.0, 'flw1': 0.0, 'flw0': 0.0, 'time': 41.43, 'compass': 127.41, 'pitch': -4.46, 'roll': -5.04}
{'lipoC2': 7.43, 'temp': 30.44, 'lipoC3S3': 11.65, 'state': 'normal', 'rot1': 363, 'rot0': 361, 'rot3': 46, 'rot2': 49, 'depth': 2.759, 'yaw': -174.99, 'datetime': '2018-11-26 12:30:58.525058', 'mgs': 0, 'flw2': 0.0, 'flw1': 0.0, 'flw0': 0.0, 'time': 41.64, 'compass': 127.44, 'pitch': -5.8, 'roll': -4.87}
{'lipoC2': 7.43, 'temp': 30.38, 'lipoC3S3': 11.65, 'state': 'normal', 'rot1': 363, 'rot0': 361, 'rot3': 46, 'rot2': 49, 'depth': 2.682, 'yaw': -174.99, 'datetime': '2018-11-26 12:30:58.735496', 'mgs': 0, 'flw2': 0.0, 'flw1': 0.0, 'flw0': 0.0, 'time': 41.85, 'compass': 127.44, 'pitch': -5.78, 'roll': -5.03}
{'lipoC2': 7.44, 'temp': 30.44, 'lipoC3S3': 11.65, 'state': 'normal', 'rot1': 363, 'rot0': 361, 'rot3': 46, 'rot2': 49, 'depth': 2.606, 'yaw': -175.84, 'datetime': '2018-11-26 12:30:58.945813', 'mgs': 0, 'flw2': 0.0, 'flw1': 0.0, 'flw0': 0.0, 'time': 42.06, 'compass': 126.6, 'pitch': -4.96, 'roll': -5.05}
{'lipoC2': 7.44, 'temp': 30.44, 'lipoC3S3': 11.65, 'state': 'normal', 'rot1': 363, 'rot0': 361, 'rot3': 46, 'rot2': 49, 'depth': 2.53, 'yaw': -177.0, 'datetime': '2018-11-26 12:30:59.155364', 'mgs': 0, 'flw2': 0.0, 'flw1': 0.0, 'flw0': 0.0, 'time': 42.27, 'compass': 125.43, 'pitch': -3.45, 'roll': -5.22}
{'lipoC2': 7.43, 'temp': 30.44, 'lipoC3S3': 11.65, 'state': 'normal', 'rot1': 363, 'rot0': 361, 'rot3': 46, 'rot2': 49, 'depth': 2.454, 'yaw': -179.26, 'datetime': '2018-11-26 12:30:59.367216', 'mgs': 0, 'flw2': 0.0, 'flw1': 0.0, 'flw0': 0.0, 'time': 42.48, 'compass': 123.17, 'pitch': -2.01, 'roll': -5.89}
