{'lipoC2': 0.15, 'temp': 0.0, 'lipoC3S3': 11.84, 'state': 'normal', 'rot1': 0, 'rot0': 0, 'rot3': 0, 'rot2': 0, 'depth': -1.59, 'yaw': -0.02, 'datetime': '2018-12-18 20:59:26.096041', 'mgs': 0, 'flw2': 0.0, 'flw1': 0.47, 'flw0': 0.0, 'time': 1.25, 'compass': -147.85, 'pitch': 1.08, 'roll': -0.87}
{'lipoC2': 0.06, 'temp': 0.0, 'lipoC3S3': 11.65, 'state': 'normal', 'rot1': 0, 'rot0': 0, 'rot3': 0, 'rot2': 0, 'depth': 1.004, 'yaw': -0.4, 'datetime': '2018-12-18 20:59:26.303376', 'mgs': 0, 'flw2': 0.1, 'flw1': 0.26, 'flw0': 0.0, 'time': 1.46, 'compass': -148.24, 'pitch': 1.28, 'roll': -0.82}
{'lipoC2': 0.0, 'temp': 0.0, 'lipoC3S3': 12.0, 'state': 'normal', 'rot1': 0, 'rot0': 0, 'rot3': 0, 'rot2': 0, 'depth': 0.699, 'yaw': -0.77, 'datetime': '2018-12-18 20:59:26.508734', 'mgs': 0, 'flw2': 0.0, 'flw1': 0.26, 'flw0': 0.0, 'time': 1.67, 'compass': -148.61, 'pitch': 2.09, 'roll': -1.09}
{'lipoC2': 0.1, 'temp': 0.0, 'lipoC3S3': 11.89, 'state': 'normal', 'rot1': 0, 'rot0': 0, 'rot3': 0, 'rot2': 0, 'depth': -1.895, 'yaw': -1.18, 'datetime': '2018-12-18 20:59:26.716920', 'mgs': 0, 'flw2': 0.12, 'flw1': 0.0, 'flw0': 0.0, 'time': 1.88, 'compass': -149.02, 'pitch': 2.42, 'roll': -1.44}
{'lipoC2': 0.19, 'temp': 0.0, 'lipoC3S3': 11.73, 'state': 'normal', 'rot1': 0, 'rot0': 0, 'rot3': 0, 'rot2': 0, 'depth': -2.811, 'yaw': -1.58, 'datetime': '2018-12-18 20:59:26.923586', 'mgs': 0, 'flw2': 2.51, 'flw1': 0.0, 'flw0': 1.9, 'time': 2.09, 'compass': -149.42, 'pitch': 1.84, 'roll': -1.61}
{'lipoC2': 0.0, 'temp': 0.0, 'lipoC3S3': 11.77, 'state': 'normal', 'rot1': 2, 'rot0': 3, 'rot3': 0, 'rot2': 0, 'depth': -0.14, 'yaw': -0.55, 'datetime': '2018-12-18 20:59:27.131496', 'mgs': 0, 'flw2': 2.09, 'flw1': 0.0, 'flw0': 1.45, 'time': 2.3, 'compass': -148.39, 'pitch': 1.35, 'roll': -1.3}
{'lipoC2': 0.0, 'temp': 0.0, 'lipoC3S3': 12.06, 'state': 'normal', 'rot1': 5, 'rot0': 6, 'rot3': 0, 'rot2': 0, 'depth': 1.691, 'yaw': 3.77, 'datetime': '2018-12-18 20:59:27.340416', 'mgs': 0, 'flw2': 1.94, 'flw1': 0.0, 'flw0': 1.45, 'time': 2.5, 'compass': -144.07, 'pitch': 1.89, 'roll': -0.58}
{'lipoC2': 0.0, 'temp': 0.0, 'lipoC3S3': 11.87, 'state': 'normal', 'rot1': 8, 'rot0': 8, 'rot3': 0, 'rot2': 0, 'depth': 0.851, 'yaw': 10.15, 'datetime': '2018-12-18 20:59:27.545773', 'mgs': 0, 'flw2': 1.89, 'flw1': 0.0, 'flw0': 1.53, 'time': 2.71, 'compass': -137.68, 'pitch': 2.7, 'roll': -0.23}
{'lipoC2': 0.1, 'temp': 0.0, 'lipoC3S3': 11.65, 'state': 'normal', 'rot1': 10, 'rot0': 10, 'rot3': 0, 'rot2': 0, 'depth': 0.089, 'yaw': 18.33, 'datetime': '2018-12-18 20:59:27.760453', 'mgs': 0, 'flw2': 1.53, 'flw1': 0.23, 'flw0': 1.32, 'time': 2.92, 'compass': -129.5, 'pitch': 2.41, 'roll': -0.51}
{'lipoC2': 0.02, 'temp': 0.0, 'lipoC3S3': 11.67, 'state': 'normal', 'rot1': 12, 'rot0': 12, 'rot3': 0, 'rot2': 0, 'depth': 1.462, 'yaw': 27.3, 'datetime': '2018-12-18 20:59:27.968664', 'mgs': 0, 'flw2': 1.44, 'flw1': 0.0, 'flw0': 0.93, 'time': 3.13, 'compass': -120.54, 'pitch': 1.03, 'roll': -0.78}
{'lipoC2': 0.0, 'temp': 0.0, 'lipoC3S3': 12.02, 'state': 'normal', 'rot1': 13, 'rot0': 13, 'rot3': 0, 'rot2': 0, 'depth': 1.691, 'yaw': 36.6, 'datetime': '2018-12-18 20:59:28.176758', 'mgs': 0, 'flw2': 1.35, 'flw1': 0.0, 'flw0': 0.81, 'time': 3.34, 'compass': -111.24, 'pitch': 0.04, 'roll': -0.9}
{'lipoC2': 0.06, 'temp': 0.0, 'lipoC3S3': 11.65, 'state': 'normal', 'rot1': 15, 'rot0': 15, 'rot3': 0, 'rot2': 0, 'depth': -0.14, 'yaw': 46.01, 'datetime': '2018-12-18 20:59:28.388184', 'mgs': 0, 'flw2': 1.0, 'flw1': 0.0, 'flw0': 0.6, 'time': 3.55, 'compass': -101.83, 'pitch': -0.15, 'roll': -1.19}
{'lipoC2': 0.13, 'temp': 0.0, 'lipoC3S3': 11.88, 'state': 'normal', 'rot1': 16, 'rot0': 16, 'rot3': 0, 'rot2': 0, 'depth': -2.048, 'yaw': 54.83, 'datetime': '2018-12-18 20:59:28.595534', 'mgs': 0, 'flw2': 0.9, 'flw1': 0.0, 'flw0': 0.67, 'time': 3.76, 'compass': -93.01, 'pitch': -0.28, 'roll': -1.47}
{'lipoC2': 0.0, 'temp': 0.0, 'lipoC3S3': 11.84, 'state': 'normal', 'rot1': 18, 'rot0': 18, 'rot3': 0, 'rot2': 0, 'depth': -0.598, 'yaw': 63.64, 'datetime': '2018-12-18 20:59:28.804615', 'mgs': 0, 'flw2': 0.54, 'flw1': 0.5, 'flw0': 0.62, 'time': 3.96, 'compass': -84.2, 'pitch': -0.84, 'roll': -1.51}
{'lipoC2': 0.0, 'temp': 0.0, 'lipoC3S3': 11.73, 'state': 'normal', 'rot1': 19, 'rot0': 19, 'rot3': 0, 'rot2': 0, 'depth': -1.208, 'yaw': 71.79, 'datetime': '2018-12-18 20:59:29.012494', 'mgs': 0, 'flw2': 0.61, 'flw1': 0.38, 'flw0': 0.43, 'time': 4.17, 'compass': -76.05, 'pitch': -1.61, 'roll': -1.27}
{'lipoC2': 0.16, 'temp': 0.0, 'lipoC3S3': 11.83, 'state': 'normal', 'rot1': 20, 'rot0': 20, 'rot3': 0, 'rot2': 0, 'depth': -0.827, 'yaw': 79.46, 'datetime': '2018-12-18 20:59:29.222898', 'mgs': 0, 'flw2': 0.34, 'flw1': 0.47, 'flw0': 0.38, 'time': 4.38, 'compass': -68.38, 'pitch': -2.12, 'roll': -0.88}
{'lipoC2': 0.08, 'temp': 0.0, 'lipoC3S3': 11.65, 'state': 'normal', 'rot1': 21, 'rot0': 21, 'rot3': 0, 'rot2': 0, 'depth': 0.089, 'yaw': 86.64, 'datetime': '2018-12-18 20:59:29.432046', 'mgs': 0, 'flw2': 0.44, 'flw1': 0.26, 'flw0': 0.13, 'time': 4.59, 'compass': -61.19, 'pitch': -2.35, 'roll': -0.59}
{'lipoC2': 0.08, 'temp': 0.0, 'lipoC3S3': 11.92, 'state': 'normal', 'rot1': 22, 'rot0': 23, 'rot3': 0, 'rot2': 0, 'depth': -2.124, 'yaw': 93.11, 'datetime': '2018-12-18 20:59:29.643183', 'mgs': 0, 'flw2': 0.55, 'flw1': 0.0, 'flw0': 0.2, 'time': 4.8, 'compass': -54.72, 'pitch': -2.67, 'roll': -0.31}
{'lipoC2': 0.0, 'temp': 0.0, 'lipoC3S3': 12.08, 'state': 'normal', 'rot1': 23, 'rot0': 28, 'rot3': 0, 'rot2': 0, 'depth': 1.538, 'yaw': 99.75, 'datetime': '2018-12-18 20:59:29.851178', 'mgs': 0, 'flw2': 0.49, 'flw1': 0.15, 'flw0': 0.09, 'time': 5.01, 'compass': -48.09, 'pitch': -3.08, 'roll': -0.04}
{'lipoC2': 0.14, 'temp': 0.0, 'lipoC3S3': 11.72, 'state': 'normal', 'rot1': 24, 'rot0': 29, 'rot3': 0, 'rot2': 0, 'depth': 0.165, 'yaw': 106.29, 'datetime': '2018-12-18 20:59:30.064046', 'mgs': 0, 'flw2': 0.43, 'flw1': 0.32, 'flw0': 0.2, 'time': 5.22, 'compass': -41.55, 'pitch': -3.46, 'roll': 0.32}
{'lipoC2': 0.05, 'temp': 0.0, 'lipoC3S3': 11.94, 'state': 'normal', 'rot1': 24, 'rot0': 30, 'rot3': 0, 'rot2': 0, 'depth': -2.124, 'yaw': 112.75, 'datetime': '2018-12-18 20:59:30.267724', 'mgs': 0, 'flw2': 0.06, 'flw1': 0.15, 'flw0': 0.55, 'time': 5.43, 'compass': -35.09, 'pitch': -3.56, 'roll': 0.76}
{'lipoC2': 0.17, 'temp': 0.0, 'lipoC3S3': 11.84, 'state': 'normal', 'rot1': 25, 'rot0': 31, 'rot3': 0, 'rot2': 0, 'depth': -0.98, 'yaw': 118.83, 'datetime': '2018-12-18 20:59:30.477694', 'mgs': 0, 'flw2': 0.23, 'flw1': 0.5, 'flw0': 0.33, 'time': 5.64, 'compass': -29.01, 'pitch': -3.33, 'roll': 1.15}
{'lipoC2': 0.0, 'temp': 0.0, 'lipoC3S3': 11.85, 'state': 'normal', 'rot1': 26, 'rot0': 36, 'rot3': 0, 'rot2': 0, 'depth': 0.851, 'yaw': 125.18, 'datetime': '2018-12-18 20:59:30.686643', 'mgs': 0, 'flw2': 0.4, 'flw1': 0.0, 'flw0': 0.46, 'time': 5.84, 'compass': -22.66, 'pitch': -3.14, 'roll': 1.51}
{'lipoC2': 0.0, 'temp': 0.0, 'lipoC3S3': 11.71, 'state': 'normal', 'rot1': 27, 'rot0': 42, 'rot3': 0, 'rot2': 0, 'depth': -1.819, 'yaw': 131.47, 'datetime': '2018-12-18 20:59:30.898120', 'mgs': 0, 'flw2': 0.4, 'flw1': 0.38, 'flw0': 0.22, 'time': 6.05, 'compass': -16.37, 'pitch': -3.12, 'roll': 1.86}
{'lipoC2': 0.0, 'temp': 0.0, 'lipoC3S3': 11.9, 'state': 'normal', 'rot1': 28, 'rot0': 44, 'rot3': 0, 'rot2': 0, 'depth': -0.369, 'yaw': 137.75, 'datetime': '2018-12-18 20:59:31.109858', 'mgs': 0, 'flw2': 0.57, 'flw1': 0.0, 'flw0': 0.15, 'time': 6.26, 'compass': -10.08, 'pitch': -3.01, 'roll': 2.19}
{'lipoC2': 0.17, 'temp': 0.0, 'lipoC3S3': 11.83, 'state': 'normal', 'rot1': 29, 'rot0': 44, 'rot3': 0, 'rot2': 0, 'depth': 0.851, 'yaw': 143.96, 'datetime': '2018-12-18 20:59:31.318133', 'mgs': 0, 'flw2': 0.0, 'flw1': 0.59, 'flw0': 0.0, 'time': 6.47, 'compass': -3.88, 'pitch': -2.82, 'roll': 2.51}
{'lipoC2': 0.0, 'temp': 0.0, 'lipoC3S3': 11.84, 'state': 'normal', 'rot1': 29, 'rot0': 44, 'rot3': 0, 'rot2': 0, 'depth': -0.293, 'yaw': 149.31, 'datetime': '2018-12-18 20:59:31.523779', 'mgs': 0, 'flw2': 0.0, 'flw1': 0.44, 'flw0': 0.0, 'time': 6.68, 'compass': 1.47, 'pitch': -2.8, 'roll': 2.53}
{'lipoC2': 0.0, 'temp': 0.0, 'lipoC3S3': 11.8, 'state': 'normal', 'rot1': 29, 'rot0': 44, 'rot3': 0, 'rot2': 0, 'depth': -0.751, 'yaw': 154.4, 'datetime': '2018-12-18 20:59:31.732728', 'mgs': 0, 'flw2': 0.12, 'flw1': 0.0, 'flw0': 0.0, 'time': 6.89, 'compass': 6.56, 'pitch': -2.92, 'roll': 2.4}
{'lipoC2': 0.0, 'temp': 0.0, 'lipoC3S3': 11.75, 'state': 'normal', 'rot1': 29, 'rot0': 44, 'rot3': 0, 'rot2': 0, 'depth': -0.98, 'yaw': 159.08, 'datetime': '2018-12-18 20:59:31.944748', 'mgs': 0, 'flw2': 0.5, 'flw1': 0.41, 'flw0': 0.34, 'time': 7.09, 'compass': 11.24, 'pitch': -2.88, 'roll': 2.36}
{'lipoC2': 0.14, 'temp': 0.0, 'lipoC3S3': 11.87, 'state': 'normal', 'rot1': 30, 'rot0': 45, 'rot3': 0, 'rot2': 0, 'depth': -1.666, 'yaw': 162.79, 'datetime': '2018-12-18 20:59:32.152996', 'mgs': 0, 'flw2': 0.5, 'flw1': 0.0, 'flw0': 0.35, 'time': 7.3, 'compass': 14.95, 'pitch': -2.56, 'roll': 2.34}
{'lipoC2': 0.14, 'temp': 0.0, 'lipoC3S3': 11.69, 'state': 'normal', 'rot1': 31, 'rot0': 46, 'rot3': 0, 'rot2': 0, 'depth': 0.317, 'yaw': 165.46, 'datetime': '2018-12-18 20:59:32.366290', 'mgs': 0, 'flw2': 0.32, 'flw1': 0.0, 'flw0': 0.52, 'time': 7.51, 'compass': 17.62, 'pitch': -2.22, 'roll': 2.47}
{'lipoC2': 0.03, 'temp': 0.0, 'lipoC3S3': 11.65, 'state': 'normal', 'rot1': 32, 'rot0': 47, 'rot3': 0, 'rot2': 0, 'depth': -0.14, 'yaw': 167.59, 'datetime': '2018-12-18 20:59:32.574485', 'mgs': 0, 'flw2': 0.46, 'flw1': 0.15, 'flw0': 0.0, 'time': 7.72, 'compass': 19.76, 'pitch': -2.22, 'roll': 2.89}
{'lipoC2': 0.04, 'temp': 0.0, 'lipoC3S3': 11.94, 'state': 'normal', 'rot1': 33, 'rot0': 48, 'rot3': 0, 'rot2': 0, 'depth': -1.971, 'yaw': 169.12, 'datetime': '2018-12-18 20:59:32.782995', 'mgs': 0, 'flw2': 0.0, 'flw1': 0.26, 'flw0': 0.44, 'time': 7.93, 'compass': 21.28, 'pitch': -2.47, 'roll': 3.28}
{'lipoC2': 0.0, 'temp': 0.0, 'lipoC3S3': 11.76, 'state': 'normal', 'rot1': 34, 'rot0': 49, 'rot3': 0, 'rot2': 0, 'depth': 1.462, 'yaw': 170.12, 'datetime': '2018-12-18 20:59:32.991240', 'mgs': 0, 'flw2': 0.5, 'flw1': 0.0, 'flw0': 0.22, 'time': 8.14, 'compass': 22.29, 'pitch': -2.36, 'roll': 3.33}
{'lipoC2': 0.17, 'temp': 0.0, 'lipoC3S3': 11.76, 'state': 'normal', 'rot1': 35, 'rot0': 50, 'rot3': 0, 'rot2': 0, 'depth': -0.751, 'yaw': 170.57, 'datetime': '2018-12-18 20:59:33.200692', 'mgs': 0, 'flw2': 0.31, 'flw1': 0.0, 'flw0': 0.52, 'time': 8.35, 'compass': 22.73, 'pitch': -1.77, 'roll': 3.08}
{'lipoC2': 0.16, 'temp': 0.0, 'lipoC3S3': 11.77, 'state': 'normal', 'rot1': 35, 'rot0': 51, 'rot3': 0, 'rot2': 0, 'depth': 0.928, 'yaw': 170.56, 'datetime': '2018-12-18 20:59:33.410051', 'mgs': 0, 'flw2': 0.35, 'flw1': 0.0, 'flw0': 0.51, 'time': 8.56, 'compass': 22.72, 'pitch': -1.47, 'roll': 2.76}
{'lipoC2': 0.15, 'temp': 0.0, 'lipoC3S3': 11.85, 'state': 'normal', 'rot1': 37, 'rot0': 52, 'rot3': 0, 'rot2': 0, 'depth': 1.233, 'yaw': 170.07, 'datetime': '2018-12-18 20:59:33.617222', 'mgs': 0, 'flw2': 0.32, 'flw1': 0.47, 'flw0': 0.31, 'time': 8.77, 'compass': 22.24, 'pitch': -2.11, 'roll': 2.69}
{'lipoC2': 0.08, 'temp': 0.0, 'lipoC3S3': 11.65, 'state': 'normal', 'rot1': 38, 'rot0': 53, 'rot3': 0, 'rot2': 0, 'depth': 1.004, 'yaw': 169.13, 'datetime': '2018-12-18 20:59:33.832248', 'mgs': 0, 'flw2': 0.48, 'flw1': 0.09, 'flw0': 0.01, 'time': 8.98, 'compass': 21.3, 'pitch': -2.76, 'roll': 2.65}
{'lipoC2': 0.05, 'temp': 0.0, 'lipoC3S3': 11.67, 'state': 'normal', 'rot1': 38, 'rot0': 54, 'rot3': 0, 'rot2': 0, 'depth': -0.14, 'yaw': 167.83, 'datetime': '2018-12-18 20:59:34.041466', 'mgs': 0, 'flw2': 0.48, 'flw1': 0.06, 'flw0': 0.02, 'time': 9.18, 'compass': 19.99, 'pitch': -2.35, 'roll': 2.58}
{'lipoC2': 0.05, 'temp': 0.0, 'lipoC3S3': 11.94, 'state': 'normal', 'rot1': 39, 'rot0': 54, 'rot3': 0, 'rot2': 0, 'depth': -2.124, 'yaw': 166.28, 'datetime': '2018-12-18 20:59:34.248291', 'mgs': 0, 'flw2': 0.5, 'flw1': 0.0, 'flw0': 0.04, 'time': 9.39, 'compass': 18.44, 'pitch': -1.47, 'roll': 2.54}
{'lipoC2': 0.09, 'temp': 0.0, 'lipoC3S3': 11.68, 'state': 'normal', 'rot1': 40, 'rot0': 55, 'rot3': 0, 'rot2': 0, 'depth': -0.064, 'yaw': 164.3, 'datetime': '2018-12-18 20:59:34.458191', 'mgs': 0, 'flw2': 0.44, 'flw1': 0.23, 'flw0': 0.12, 'time': 9.6, 'compass': 16.47, 'pitch': -1.46, 'roll': 2.49}
{'lipoC2': 0.0, 'temp': 0.0, 'lipoC3S3': 12.05, 'state': 'normal', 'rot1': 42, 'rot0': 57, 'rot3': 0, 'rot2': 0, 'depth': 1.309, 'yaw': 160.77, 'datetime': '2018-12-18 20:59:34.763991', 'mgs': 0, 'flw2': 0.48, 'flw1': 0.0, 'flw0': 0.01, 'time': 9.91, 'compass': 12.93, 'pitch': -2.96, 'roll': 2.38}
{'lipoC2': 0.15, 'temp': 0.0, 'lipoC3S3': 11.85, 'state': 'normal', 'rot1': 43, 'rot0': 58, 'rot3': 0, 'rot2': 0, 'depth': -1.208, 'yaw': 158.08, 'datetime': '2018-12-18 20:59:34.973656', 'mgs': 0, 'flw2': 0.18, 'flw1': 0.47, 'flw0': 0.33, 'time': 10.12, 'compass': 10.24, 'pitch': -2.88, 'roll': 1.98}
{'lipoC2': 0.0, 'temp': 0.0, 'lipoC3S3': 11.79, 'state': 'normal', 'rot1': 44, 'rot0': 58, 'rot3': 0, 'rot2': 0, 'depth': -0.674, 'yaw': 155.17, 'datetime': '2018-12-18 20:59:35.182571', 'mgs': 0, 'flw2': 0.33, 'flw1': 0.47, 'flw0': 0.28, 'time': 10.33, 'compass': 7.33, 'pitch': -1.86, 'roll': 1.59}
{'lipoC2': 0.08, 'temp': 0.0, 'lipoC3S3': 11.89, 'state': 'normal', 'rot1': 44, 'rot0': 59, 'rot3': 0, 'rot2': 0, 'depth': -2.124, 'yaw': 152.19, 'datetime': '2018-12-18 20:59:35.391814', 'mgs': 0, 'flw2': 0.52, 'flw1': 0.0, 'flw0': 0.31, 'time': 10.54, 'compass': 4.35, 'pitch': -1.38, 'roll': 1.45}
{'lipoC2': 0.11, 'temp': 0.0, 'lipoC3S3': 12.04, 'state': 'normal', 'rot1': 45, 'rot0': 60, 'rot3': 0, 'rot2': 0, 'depth': 0.699, 'yaw': 149.02, 'datetime': '2018-12-18 20:59:35.599396', 'mgs': 0, 'flw2': 0.0, 'flw1': 0.23, 'flw0': 0.16, 'time': 10.75, 'compass': 1.19, 'pitch': -1.91, 'roll': 1.46}
{'lipoC2': 0.0, 'temp': 0.0, 'lipoC3S3': 12.06, 'state': 'normal', 'rot1': 45, 'rot0': 60, 'rot3': 0, 'rot2': 0, 'depth': -0.522, 'yaw': 146.33, 'datetime': '2018-12-18 20:59:35.808375', 'mgs': 0, 'flw2': 0.0, 'flw1': 0.5, 'flw0': 0.0, 'time': 10.96, 'compass': -1.51, 'pitch': -2.62, 'roll': 1.59}
{'lipoC2': 0.05, 'temp': 0.0, 'lipoC3S3': 11.93, 'state': 'normal', 'rot1': 45, 'rot0': 60, 'rot3': 0, 'rot2': 0, 'depth': -2.124, 'yaw': 143.95, 'datetime': '2018-12-18 20:59:36.017809', 'mgs': 0, 'flw2': 0.18, 'flw1': 0.0, 'flw0': 0.0, 'time': 11.17, 'compass': -3.89, 'pitch': -2.55, 'roll': 1.5}
{'lipoC2': 0.05, 'temp': 0.0, 'lipoC3S3': 11.65, 'state': 'normal', 'rot1': 45, 'rot0': 60, 'rot3': 0, 'rot2': 0, 'depth': -0.217, 'yaw': 141.82, 'datetime': '2018-12-18 20:59:36.231431', 'mgs': 0, 'flw2': 0.07, 'flw1': 0.32, 'flw0': 0.0, 'time': 11.38, 'compass': -6.01, 'pitch': -1.92, 'roll': 1.35}
{'lipoC2': 0.0, 'temp': 0.0, 'lipoC3S3': 11.9, 'state': 'normal', 'rot1': 45, 'rot0': 60, 'rot3': 0, 'rot2': 0, 'depth': -0.369, 'yaw': 139.96, 'datetime': '2018-12-18 20:59:36.436179', 'mgs': 0, 'flw2': 0.0, 'flw1': 0.0, 'flw0': 0.0, 'time': 11.59, 'compass': -7.88, 'pitch': -1.59, 'roll': 1.29}
{'lipoC2': 0.1, 'temp': 0.0, 'lipoC3S3': 11.65, 'state': 'normal', 'rot1': 45, 'rot0': 60, 'rot3': 0, 'rot2': 0, 'depth': -0.064, 'yaw': 138.12, 'datetime': '2018-12-18 20:59:36.650796', 'mgs': 0, 'flw2': 0.11, 'flw1': 0.29, 'flw0': 0.0, 'time': 11.79, 'compass': -9.71, 'pitch': -1.81, 'roll': 1.24}
