{'lipoC2': 0.0, 'temp': 0.0, 'lipoC3S3': 12.74, 'state': 'normal', 'rot1': 0, 'rot0': 0, 'rot3': 0, 'rot2': 0, 'depth': -1.285, 'yaw': 0.0, 'datetime': '2018-12-18 16:49:13.557045', 'mgs': 0, 'flw2': 0.2, 'flw1': 0.06, 'flw0': 0.0, 'time': 1.26, 'compass': -61.39, 'pitch': 0.99, 'roll': 1.91}
{'lipoC2': 0.16, 'temp': 0.0, 'lipoC3S3': 12.35, 'state': 'normal', 'rot1': 0, 'rot0': 0, 'rot3': 0, 'rot2': 0, 'depth': 0.928, 'yaw': -0.29, 'datetime': '2018-12-18 16:49:13.765367', 'mgs': 0, 'flw2': 0.17, 'flw1': 0.15, 'flw0': 0.0, 'time': 1.46, 'compass': -61.68, 'pitch': 1.49, 'roll': 1.89}
{'lipoC2': 0.0, 'temp': 0.0, 'lipoC3S3': 12.55, 'state': 'normal', 'rot1': 0, 'rot0': 0, 'rot3': 0, 'rot2': 0, 'depth': 0.394, 'yaw': -0.57, 'datetime': '2018-12-18 16:49:13.972056', 'mgs': 0, 'flw2': 0.0, 'flw1': 0.41, 'flw0': 0.0, 'time': 1.67, 'compass': -61.96, 'pitch': 1.49, 'roll': 1.89}
{'lipoC2': 0.0, 'temp': 0.0, 'lipoC3S3': 12.48, 'state': 'normal', 'rot1': 0, 'rot0': 0, 'rot3': 0, 'rot2': 0, 'depth': 0.928, 'yaw': -0.85, 'datetime': '2018-12-18 16:49:14.178053', 'mgs': 0, 'flw2': 0.04, 'flw1': 0.0, 'flw0': 0.13, 'time': 1.88, 'compass': -62.24, 'pitch': 1.04, 'roll': 1.89}
{'lipoC2': 0.0, 'temp': 0.0, 'lipoC3S3': 12.37, 'state': 'normal', 'rot1': 0, 'rot0': 0, 'rot3': 0, 'rot2': 0, 'depth': -0.522, 'yaw': -1.15, 'datetime': '2018-12-18 16:49:14.393111', 'mgs': 0, 'flw2': 0.0, 'flw1': 0.0, 'flw0': 0.2, 'time': 2.09, 'compass': -62.54, 'pitch': 0.87, 'roll': 1.9}
{'lipoC2': 0.14, 'temp': 0.0, 'lipoC3S3': 12.34, 'state': 'normal', 'rot1': 0, 'rot0': 0, 'rot3': 0, 'rot2': 0, 'depth': 0.928, 'yaw': -1.44, 'datetime': '2018-12-18 16:49:14.594874', 'mgs': 0, 'flw2': 0.0, 'flw1': 0.0, 'flw0': 0.21, 'time': 2.29, 'compass': -62.83, 'pitch': 1.04, 'roll': 1.9}
{'lipoC2': 0.0, 'temp': 0.0, 'lipoC3S3': 12.72, 'state': 'normal', 'rot1': 0, 'rot0': 0, 'rot3': 0, 'rot2': 0, 'depth': 1.691, 'yaw': -1.71, 'datetime': '2018-12-18 16:49:14.804717', 'mgs': 0, 'flw2': 0.12, 'flw1': 0.26, 'flw0': 0.0, 'time': 2.5, 'compass': -63.1, 'pitch': 1.32, 'roll': 1.91}
{'lipoC2': 0.01, 'temp': 0.0, 'lipoC3S3': 12.63, 'state': 'normal', 'rot1': 0, 'rot0': 0, 'rot3': 0, 'rot2': 0, 'depth': -1.437, 'yaw': -1.98, 'datetime': '2018-12-18 16:49:15.013150', 'mgs': 0, 'flw2': 0.2, 'flw1': 0.0, 'flw0': 0.0, 'time': 2.71, 'compass': -63.37, 'pitch': 1.4, 'roll': 1.92}
{'lipoC2': 0.06, 'temp': 0.0, 'lipoC3S3': 12.63, 'state': 'normal', 'rot1': 0, 'rot0': 0, 'rot3': 0, 'rot2': 0, 'depth': -1.666, 'yaw': -2.25, 'datetime': '2018-12-18 16:49:15.221010', 'mgs': 0, 'flw2': 0.06, 'flw1': 0.0, 'flw0': 0.12, 'time': 2.92, 'compass': -63.64, 'pitch': 1.23, 'roll': 1.92}
{'lipoC2': 0.0, 'temp': 0.0, 'lipoC3S3': 12.66, 'state': 'normal', 'rot1': 0, 'rot0': 0, 'rot3': 0, 'rot2': 0, 'depth': 1.462, 'yaw': -2.53, 'datetime': '2018-12-18 16:49:15.426351', 'mgs': 0, 'flw2': 0.18, 'flw1': 0.0, 'flw0': 0.0, 'time': 3.13, 'compass': -63.92, 'pitch': 1.11, 'roll': 1.93}
{'lipoC2': 0.0, 'temp': 0.0, 'lipoC3S3': 12.67, 'state': 'normal', 'rot1': 0, 'rot0': 0, 'rot3': 0, 'rot2': 0, 'depth': 1.538, 'yaw': -2.82, 'datetime': '2018-12-18 16:49:15.635863', 'mgs': 0, 'flw2': 0.17, 'flw1': 0.0, 'flw0': 0.0, 'time': 3.33, 'compass': -64.21, 'pitch': 1.36, 'roll': 1.93}
{'lipoC2': 0.08, 'temp': 0.0, 'lipoC3S3': 12.58, 'state': 'normal', 'rot1': 0, 'rot0': 0, 'rot3': 0, 'rot2': 0, 'depth': -1.895, 'yaw': -3.07, 'datetime': '2018-12-18 16:49:15.845614', 'mgs': 0, 'flw2': 0.1, 'flw1': 0.0, 'flw0': 0.12, 'time': 3.54, 'compass': -64.46, 'pitch': 1.64, 'roll': 1.77}
{'lipoC2': 0.15, 'temp': 0.0, 'lipoC3S3': 12.42, 'state': 'normal', 'rot1': 0, 'rot0': 0, 'rot3': 0, 'rot2': 0, 'depth': -1.056, 'yaw': -3.34, 'datetime': '2018-12-18 16:49:16.051681', 'mgs': 0, 'flw2': 0.18, 'flw1': 0.06, 'flw0': 3.21, 'time': 3.75, 'compass': -64.73, 'pitch': 1.35, 'roll': 1.65}
{'lipoC2': 0.06, 'temp': 0.0, 'lipoC3S3': 12.58, 'state': 'normal', 'rot1': 0, 'rot0': 0, 'rot3': 0, 'rot2': 0, 'depth': -1.666, 'yaw': -4.04, 'datetime': '2018-12-18 16:49:16.259187', 'mgs': 0, 'flw2': 0.07, 'flw1': 0.0, 'flw0': 0.1, 'time': 3.96, 'compass': -65.43, 'pitch': 1.06, 'roll': 1.72}
{'lipoC2': 0.14, 'temp': 0.0, 'lipoC3S3': 12.46, 'state': 'normal', 'rot1': 0, 'rot0': 0, 'rot3': 0, 'rot2': 0, 'depth': -1.285, 'yaw': -4.7, 'datetime': '2018-12-18 16:49:16.468739', 'mgs': 0, 'flw2': 0.13, 'flw1': 0.32, 'flw0': 0.0, 'time': 4.16, 'compass': -66.09, 'pitch': 1.25, 'roll': 1.89}
{'lipoC2': 0.0, 'temp': 0.0, 'lipoC3S3': 12.56, 'state': 'normal', 'rot1': 0, 'rot0': 0, 'rot3': 0, 'rot2': 0, 'depth': 0.546, 'yaw': -5.37, 'datetime': '2018-12-18 16:49:16.676416', 'mgs': 0, 'flw2': 0.0, 'flw1': 0.41, 'flw0': 0.0, 'time': 4.37, 'compass': -66.76, 'pitch': 1.74, 'roll': 1.91}
{'lipoC2': 0.05, 'temp': 0.0, 'lipoC3S3': 12.37, 'state': 'normal', 'rot1': 0, 'rot0': 0, 'rot3': 0, 'rot2': 0, 'depth': 0.394, 'yaw': -6.03, 'datetime': '2018-12-18 16:49:16.885138', 'mgs': 0, 'flw2': 0.0, 'flw1': 0.29, 'flw0': 0.12, 'time': 4.58, 'compass': -67.42, 'pitch': 1.64, 'roll': 1.93}
{'lipoC2': 0.0, 'temp': 0.0, 'lipoC3S3': 12.34, 'state': 'normal', 'rot1': 0, 'rot0': 0, 'rot3': 0, 'rot2': 0, 'depth': -1.056, 'yaw': -6.63, 'datetime': '2018-12-18 16:49:17.092030', 'mgs': 0, 'flw2': 0.0, 'flw1': 0.09, 'flw0': 0.21, 'time': 4.79, 'compass': -68.02, 'pitch': 1.09, 'roll': 1.94}
{'lipoC2': 0.0, 'temp': 0.0, 'lipoC3S3': 12.52, 'state': 'normal', 'rot1': 0, 'rot0': 0, 'rot3': 0, 'rot2': 0, 'depth': 0.623, 'yaw': -7.27, 'datetime': '2018-12-18 16:49:17.300808', 'mgs': 0, 'flw2': 0.04, 'flw1': 0.0, 'flw0': 0.13, 'time': 5.0, 'compass': -68.66, 'pitch': 0.91, 'roll': 1.95}
{'lipoC2': 0.05, 'temp': 0.0, 'lipoC3S3': 12.37, 'state': 'normal', 'rot1': 0, 'rot0': 0, 'rot3': 0, 'rot2': 0, 'depth': 1.309, 'yaw': -7.91, 'datetime': '2018-12-18 16:49:17.507454', 'mgs': 0, 'flw2': 0.0, 'flw1': 0.29, 'flw0': 0.15, 'time': 5.2, 'compass': -69.3, 'pitch': 1.39, 'roll': 1.88}
{'lipoC2': 0.0, 'temp': 0.0, 'lipoC3S3': 12.55, 'state': 'normal', 'rot1': 0, 'rot0': 0, 'rot3': 0, 'rot2': 0, 'depth': -0.064, 'yaw': -8.46, 'datetime': '2018-12-18 16:49:17.716467', 'mgs': 0, 'flw2': 0.09, 'flw1': 0.41, 'flw0': 0.0, 'time': 5.41, 'compass': -69.85, 'pitch': 1.71, 'roll': 1.88}
{'lipoC2': 0.05, 'temp': 0.0, 'lipoC3S3': 12.59, 'state': 'normal', 'rot1': 0, 'rot0': 0, 'rot3': 0, 'rot2': 0, 'depth': -1.361, 'yaw': -9.04, 'datetime': '2018-12-18 16:49:17.925059', 'mgs': 0, 'flw2': 0.0, 'flw1': 0.41, 'flw0': 0.0, 'time': 5.62, 'compass': -70.43, 'pitch': 1.38, 'roll': 1.92}
{'lipoC2': 0.0, 'temp': 0.0, 'lipoC3S3': 12.68, 'state': 'normal', 'rot1': 0, 'rot0': 0, 'rot3': 0, 'rot2': 0, 'depth': 1.767, 'yaw': -9.63, 'datetime': '2018-12-18 16:49:18.132838', 'mgs': 0, 'flw2': 0.0, 'flw1': 0.0, 'flw0': 1.46, 'time': 5.83, 'compass': -71.02, 'pitch': 1.06, 'roll': 1.97}
{'lipoC2': 0.0, 'temp': 0.0, 'lipoC3S3': 12.72, 'state': 'normal', 'rot1': 3, 'rot0': 0, 'rot3': 0, 'rot2': 0, 'depth': 2.072, 'yaw': -11.55, 'datetime': '2018-12-18 16:49:18.341325', 'mgs': 0, 'flw2': 0.0, 'flw1': 0.41, 'flw0': 3.14, 'time': 6.03, 'compass': -72.94, 'pitch': 2.03, 'roll': 1.71}
{'lipoC2': 0.0, 'temp': 0.0, 'lipoC3S3': 12.55, 'state': 'normal', 'rot1': 4, 'rot0': 1, 'rot3': 0, 'rot2': 0, 'depth': -0.064, 'yaw': -16.03, 'datetime': '2018-12-18 16:49:18.550362', 'mgs': 0, 'flw2': 2.86, 'flw1': 0.47, 'flw0': 0.0, 'time': 6.24, 'compass': -77.42, 'pitch': 3.83, 'roll': 1.23}
{'lipoC2': 0.0, 'temp': 0.0, 'lipoC3S3': 12.74, 'state': 'normal', 'rot1': 4, 'rot0': 3, 'rot3': 0, 'rot2': 0, 'depth': -0.14, 'yaw': -17.61, 'datetime': '2018-12-18 16:49:18.757098', 'mgs': 0, 'flw2': 2.47, 'flw1': 0.09, 'flw0': 0.2, 'time': 6.45, 'compass': -78.99, 'pitch': 4.0, 'roll': 1.7}
{'lipoC2': 0.09, 'temp': 0.0, 'lipoC3S3': 12.58, 'state': 'normal', 'rot1': 4, 'rot0': 6, 'rot3': 0, 'rot2': 0, 'depth': -1.971, 'yaw': -15.82, 'datetime': '2018-12-18 16:49:18.965223', 'mgs': 0, 'flw2': 2.95, 'flw1': 0.44, 'flw0': 0.09, 'time': 6.66, 'compass': -77.21, 'pitch': 3.35, 'roll': 2.69}
{'lipoC2': 0.0, 'temp': 0.0, 'lipoC3S3': 12.68, 'state': 'normal', 'rot1': 4, 'rot0': 8, 'rot3': 0, 'rot2': 0, 'depth': 1.538, 'yaw': -11.41, 'datetime': '2018-12-18 16:49:19.172512', 'mgs': 0, 'flw2': 2.66, 'flw1': 0.38, 'flw0': 0.09, 'time': 6.86, 'compass': -72.8, 'pitch': 3.42, 'roll': 3.31}
{'lipoC2': 0.1, 'temp': 0.0, 'lipoC3S3': 12.31, 'state': 'normal', 'rot1': 4, 'rot0': 11, 'rot3': 0, 'rot2': 0, 'depth': 1.004, 'yaw': -5.2, 'datetime': '2018-12-18 16:49:19.381856', 'mgs': 0, 'flw2': 2.53, 'flw1': 0.23, 'flw0': 0.18, 'time': 7.07, 'compass': -66.59, 'pitch': 4.15, 'roll': 3.22}
{'lipoC2': 0.0, 'temp': 0.0, 'lipoC3S3': 12.68, 'state': 'normal', 'rot1': 4, 'rot0': 13, 'rot3': 0, 'rot2': 0, 'depth': 1.996, 'yaw': 2.22, 'datetime': '2018-12-18 16:49:19.590456', 'mgs': 0, 'flw2': 3.15, 'flw1': 0.0, 'flw0': 0.0, 'time': 7.28, 'compass': -59.17, 'pitch': 4.56, 'roll': 2.84}
{'lipoC2': 0.01, 'temp': 0.0, 'lipoC3S3': 12.45, 'state': 'normal', 'rot1': 4, 'rot0': 15, 'rot3': 0, 'rot2': 0, 'depth': 1.538, 'yaw': 10.2, 'datetime': '2018-12-18 16:49:19.806323', 'mgs': 0, 'flw2': 2.95, 'flw1': 0.0, 'flw0': 0.0, 'time': 7.49, 'compass': -51.19, 'pitch': 4.58, 'roll': 2.5}
{'lipoC2': 0.0, 'temp': 0.0, 'lipoC3S3': 12.68, 'state': 'normal', 'rot1': 4, 'rot0': 19, 'rot3': 0, 'rot2': 0, 'depth': 1.996, 'yaw': 23.81, 'datetime': '2018-12-18 16:49:20.105601', 'mgs': 0, 'flw2': 2.65, 'flw1': 0.0, 'flw0': 0.07, 'time': 7.8, 'compass': -37.58, 'pitch': 4.59, 'roll': 2.49}
{'lipoC2': 0.11, 'temp': 0.0, 'lipoC3S3': 12.54, 'state': 'normal', 'rot1': 6, 'rot0': 22, 'rot3': 0, 'rot2': 0, 'depth': 1.843, 'yaw': 32.76, 'datetime': '2018-12-18 16:49:20.314911', 'mgs': 0, 'flw2': 2.84, 'flw1': 0.41, 'flw0': 3.15, 'time': 8.01, 'compass': -28.63, 'pitch': 5.15, 'roll': 2.52}
{'lipoC2': 0.13, 'temp': 0.0, 'lipoC3S3': 12.3, 'state': 'normal', 'rot1': 9, 'rot0': 24, 'rot3': 0, 'rot2': 0, 'depth': 0.928, 'yaw': 39.03, 'datetime': '2018-12-18 16:49:20.522711', 'mgs': 0, 'flw2': 2.61, 'flw1': 0.12, 'flw0': 3.16, 'time': 8.22, 'compass': -22.36, 'pitch': 6.71, 'roll': 2.63}
{'lipoC2': 0.11, 'temp': 0.0, 'lipoC3S3': 12.55, 'state': 'normal', 'rot1': 12, 'rot0': 27, 'rot3': 0, 'rot2': 0, 'depth': 1.92, 'yaw': 43.66, 'datetime': '2018-12-18 16:49:20.741560', 'mgs': 0, 'flw2': 2.97, 'flw1': 0.29, 'flw0': 2.89, 'time': 8.43, 'compass': -17.73, 'pitch': 7.48, 'roll': 2.86}
{'lipoC2': 0.01, 'temp': 0.0, 'lipoC3S3': 12.45, 'state': 'normal', 'rot1': 14, 'rot0': 29, 'rot3': 0, 'rot2': 0, 'depth': 1.614, 'yaw': 46.92, 'datetime': '2018-12-18 16:49:20.952356', 'mgs': 0, 'flw2': 2.98, 'flw1': 0.0, 'flw0': 3.13, 'time': 8.64, 'compass': -14.47, 'pitch': 7.12, 'roll': 2.99}
{'lipoC2': 0.01, 'temp': 0.0, 'lipoC3S3': 12.45, 'state': 'normal', 'rot1': 17, 'rot0': 31, 'rot3': 0, 'rot2': 0, 'depth': 1.538, 'yaw': 49.41, 'datetime': '2018-12-18 16:49:21.162380', 'mgs': 0, 'flw2': 2.95, 'flw1': 0.0, 'flw0': 3.0, 'time': 8.85, 'compass': -11.98, 'pitch': 6.34, 'roll': 3.11}
{'lipoC2': 0.02, 'temp': 0.0, 'lipoC3S3': 12.39, 'state': 'normal', 'rot1': 21, 'rot0': 35, 'rot3': 0, 'rot2': 0, 'depth': 0.241, 'yaw': 52.46, 'datetime': '2018-12-18 16:49:21.466129', 'mgs': 0, 'flw2': 2.47, 'flw1': 0.26, 'flw0': 3.2, 'time': 9.16, 'compass': -8.93, 'pitch': 5.67, 'roll': 3.3}
{'lipoC2': 0.08, 'temp': 0.0, 'lipoC3S3': 12.33, 'state': 'normal', 'rot1': 23, 'rot0': 38, 'rot3': 0, 'rot2': 0, 'depth': 1.385, 'yaw': 54.41, 'datetime': '2018-12-18 16:49:21.675170', 'mgs': 0, 'flw2': 3.0, 'flw1': 0.0, 'flw0': 2.97, 'time': 9.37, 'compass': -6.98, 'pitch': 5.77, 'roll': 3.21}
{'lipoC2': 0.15, 'temp': 0.0, 'lipoC3S3': 12.41, 'state': 'normal', 'rot1': 26, 'rot0': 40, 'rot3': 0, 'rot2': 0, 'depth': -0.98, 'yaw': 56.13, 'datetime': '2018-12-18 16:49:21.883328', 'mgs': 0, 'flw2': 2.93, 'flw1': 0.0, 'flw0': 2.88, 'time': 9.57, 'compass': -5.26, 'pitch': 5.65, 'roll': 3.09}
{'lipoC2': 0.0, 'temp': 0.0, 'lipoC3S3': 12.74, 'state': 'normal', 'rot1': 28, 'rot0': 42, 'rot3': 0, 'rot2': 0, 'depth': 1.538, 'yaw': 57.49, 'datetime': '2018-12-18 16:49:22.092384', 'mgs': 0, 'flw2': 0.27, 'flw1': 0.03, 'flw0': 2.95, 'time': 9.78, 'compass': -3.9, 'pitch': 5.04, 'roll': 3.07}
{'lipoC2': 0.12, 'temp': 0.0, 'lipoC3S3': 12.55, 'state': 'normal', 'rot1': 31, 'rot0': 43, 'rot3': 0, 'rot2': 0, 'depth': -1.743, 'yaw': 56.68, 'datetime': '2018-12-18 16:49:22.301473', 'mgs': 0, 'flw2': 0.12, 'flw1': 0.32, 'flw0': 3.06, 'time': 9.99, 'compass': -4.71, 'pitch': 3.31, 'roll': 2.64}
{'lipoC2': 0.12, 'temp': 0.0, 'lipoC3S3': 12.52, 'state': 'normal', 'rot1': 34, 'rot0': 43, 'rot3': 0, 'rot2': 0, 'depth': -1.971, 'yaw': 53.45, 'datetime': '2018-12-18 16:49:22.511407', 'mgs': 0, 'flw2': 0.12, 'flw1': 0.38, 'flw0': 3.05, 'time': 10.2, 'compass': -7.94, 'pitch': 1.92, 'roll': 1.74}
{'lipoC2': 0.13, 'temp': 0.0, 'lipoC3S3': 12.31, 'state': 'normal', 'rot1': 37, 'rot0': 43, 'rot3': 0, 'rot2': 0, 'depth': 0.546, 'yaw': 48.91, 'datetime': '2018-12-18 16:49:22.720210', 'mgs': 0, 'flw2': 0.0, 'flw1': 0.29, 'flw0': 3.27, 'time': 10.41, 'compass': -12.48, 'pitch': 1.82, 'roll': 0.79}
{'lipoC2': 0.0, 'temp': 0.0, 'lipoC3S3': 12.74, 'state': 'normal', 'rot1': 39, 'rot0': 43, 'rot3': 0, 'rot2': 0, 'depth': -0.064, 'yaw': 43.46, 'datetime': '2018-12-18 16:49:22.928032', 'mgs': 0, 'flw2': 0.16, 'flw1': 0.0, 'flw0': 2.62, 'time': 10.62, 'compass': -17.93, 'pitch': 2.57, 'roll': 0.26}
{'lipoC2': 0.13, 'temp': 0.0, 'lipoC3S3': 12.33, 'state': 'normal', 'rot1': 42, 'rot0': 43, 'rot3': 0, 'rot2': 0, 'depth': 1.004, 'yaw': 37.4, 'datetime': '2018-12-18 16:49:23.136958', 'mgs': 0, 'flw2': 0.0, 'flw1': 0.29, 'flw0': 3.17, 'time': 10.83, 'compass': -23.99, 'pitch': 2.95, 'roll': 0.14}
{'lipoC2': 0.0, 'temp': 0.0, 'lipoC3S3': 12.74, 'state': 'normal', 'rot1': 44, 'rot0': 43, 'rot3': 0, 'rot2': 0, 'depth': 1.614, 'yaw': 30.17, 'datetime': '2018-12-18 16:49:23.344230', 'mgs': 0, 'flw2': 0.18, 'flw1': 0.0, 'flw0': 2.83, 'time': 11.03, 'compass': -31.22, 'pitch': 3.06, 'roll': 0.1}
{'lipoC2': 0.14, 'temp': 0.0, 'lipoC3S3': 12.3, 'state': 'normal', 'rot1': 46, 'rot0': 43, 'rot3': 0, 'rot2': 0, 'depth': 0.928, 'yaw': 22.2, 'datetime': '2018-12-18 16:49:23.553994', 'mgs': 0, 'flw2': 0.0, 'flw1': 0.32, 'flw0': 3.28, 'time': 11.24, 'compass': -39.19, 'pitch': 3.52, 'roll': 0.13}
{'lipoC2': 0.0, 'temp': 0.0, 'lipoC3S3': 12.64, 'state': 'normal', 'rot1': 49, 'rot0': 43, 'rot3': 0, 'rot2': 0, 'depth': 1.691, 'yaw': 13.59, 'datetime': '2018-12-18 16:49:23.764039', 'mgs': 0, 'flw2': 0.11, 'flw1': 0.0, 'flw0': 3.08, 'time': 11.45, 'compass': -47.8, 'pitch': 3.8, 'roll': 0.08}
{'lipoC2': 0.0, 'temp': 0.0, 'lipoC3S3': 12.56, 'state': 'normal', 'rot1': 51, 'rot0': 43, 'rot3': 0, 'rot2': 0, 'depth': 0.775, 'yaw': 5.28, 'datetime': '2018-12-18 16:49:23.973043', 'mgs': 0, 'flw2': 0.04, 'flw1': 0.0, 'flw0': 3.16, 'time': 11.66, 'compass': -56.11, 'pitch': 4.18, 'roll': -0.03}
{'lipoC2': 0.03, 'temp': 0.0, 'lipoC3S3': 12.64, 'state': 'normal', 'rot1': 54, 'rot0': 43, 'rot3': 0, 'rot2': 0, 'depth': 0.47, 'yaw': -3.7, 'datetime': '2018-12-18 16:49:24.182114', 'mgs': 0, 'flw2': 0.15, 'flw1': 0.0, 'flw0': 3.09, 'time': 11.87, 'compass': -65.09, 'pitch': 4.42, 'roll': -0.2}
{'lipoC2': 0.0, 'temp': 0.0, 'lipoC3S3': 12.71, 'state': 'normal', 'rot1': 57, 'rot0': 43, 'rot3': 0, 'rot2': 0, 'depth': 1.996, 'yaw': -12.99, 'datetime': '2018-12-18 16:49:24.389991', 'mgs': 0, 'flw2': 0.2, 'flw1': 0.0, 'flw0': 2.7, 'time': 12.08, 'compass': -74.38, 'pitch': 4.59, 'roll': -0.35}
{'lipoC2': 0.0, 'temp': 0.0, 'lipoC3S3': 12.74, 'state': 'normal', 'rot1': 59, 'rot0': 43, 'rot3': 0, 'rot2': 0, 'depth': 0.012, 'yaw': -22.69, 'datetime': '2018-12-18 16:49:24.599050', 'mgs': 0, 'flw2': 0.17, 'flw1': 0.0, 'flw0': 2.71, 'time': 12.28, 'compass': -84.08, 'pitch': 4.65, 'roll': -0.41}
{'lipoC2': 0.01, 'temp': 0.0, 'lipoC3S3': 12.45, 'state': 'normal', 'rot1': 62, 'rot0': 43, 'rot3': 0, 'rot2': 0, 'depth': 1.538, 'yaw': -32.3, 'datetime': '2018-12-18 16:49:24.810250', 'mgs': 0, 'flw2': 0.12, 'flw1': 0.0, 'flw0': 3.16, 'time': 12.49, 'compass': -93.69, 'pitch': 4.47, 'roll': -0.43}
{'lipoC2': 0.14, 'temp': 0.0, 'lipoC3S3': 12.38, 'state': 'normal', 'rot1': 64, 'rot0': 43, 'rot3': 0, 'rot2': 0, 'depth': -0.293, 'yaw': -43.12, 'datetime': '2018-12-18 16:49:25.018397', 'mgs': 0, 'flw2': 0.0, 'flw1': 0.0, 'flw0': 3.3, 'time': 12.7, 'compass': -104.51, 'pitch': 4.49, 'roll': -0.75}
{'lipoC2': 0.0, 'temp': 0.0, 'lipoC3S3': 12.54, 'state': 'normal', 'rot1': 67, 'rot0': 43, 'rot3': 0, 'rot2': 0, 'depth': 0.317, 'yaw': -54.84, 'datetime': '2018-12-18 16:49:25.226804', 'mgs': 0, 'flw2': 0.0, 'flw1': 0.18, 'flw0': 2.84, 'time': 12.91, 'compass': -116.23, 'pitch': 4.86, 'roll': -1.31}
{'lipoC2': 0.02, 'temp': 0.0, 'lipoC3S3': 12.43, 'state': 'normal', 'rot1': 69, 'rot0': 43, 'rot3': 0, 'rot2': 0, 'depth': 0.394, 'yaw': -67.08, 'datetime': '2018-12-18 16:49:25.438611', 'mgs': 0, 'flw2': 0.42, 'flw1': 0.0, 'flw0': 3.14, 'time': 13.12, 'compass': -128.47, 'pitch': 5.08, 'roll': -1.57}
{'lipoC2': 0.0, 'temp': 0.0, 'lipoC3S3': 12.34, 'state': 'normal', 'rot1': 72, 'rot0': 44, 'rot3': 0, 'rot2': 0, 'depth': 1.92, 'yaw': -78.44, 'datetime': '2018-12-18 16:49:25.645226', 'mgs': 0, 'flw2': 2.67, 'flw1': 0.0, 'flw0': 2.7, 'time': 13.33, 'compass': -139.83, 'pitch': 5.15, 'roll': -1.41}
{'lipoC2': 0.0, 'temp': 0.0, 'lipoC3S3': 12.58, 'state': 'normal', 'rot1': 74, 'rot0': 47, 'rot3': 0, 'rot2': 0, 'depth': 1.462, 'yaw': -87.87, 'datetime': '2018-12-18 16:49:25.854326', 'mgs': 0, 'flw2': 2.95, 'flw1': 0.0, 'flw0': 3.03, 'time': 13.54, 'compass': -149.26, 'pitch': 6.03, 'roll': -1.15}
{'lipoC2': 0.15, 'temp': 0.0, 'lipoC3S3': 12.41, 'state': 'normal', 'rot1': 76, 'rot0': 49, 'rot3': 0, 'rot2': 0, 'depth': 1.92, 'yaw': -95.44, 'datetime': '2018-12-18 16:49:26.062607', 'mgs': 0, 'flw2': 3.08, 'flw1': 0.09, 'flw0': 2.78, 'time': 13.75, 'compass': -156.83, 'pitch': 6.75, 'roll': -0.86}
{'lipoC2': 0.08, 'temp': 0.0, 'lipoC3S3': 12.58, 'state': 'normal', 'rot1': 79, 'rot0': 52, 'rot3': 0, 'rot2': 0, 'depth': -1.666, 'yaw': -101.64, 'datetime': '2018-12-18 16:49:26.272072', 'mgs': 0, 'flw2': 3.04, 'flw1': 0.0, 'flw0': 3.19, 'time': 13.95, 'compass': -163.03, 'pitch': 6.53, 'roll': -0.65}
{'lipoC2': 0.1, 'temp': 0.0, 'lipoC3S3': 12.56, 'state': 'normal', 'rot1': 81, 'rot0': 54, 'rot3': 0, 'rot2': 0, 'depth': -1.743, 'yaw': -106.65, 'datetime': '2018-12-18 16:49:26.480513', 'mgs': 0, 'flw2': 2.84, 'flw1': 0.47, 'flw0': 3.13, 'time': 14.16, 'compass': -168.04, 'pitch': 5.6, 'roll': -0.63}
{'lipoC2': 0.02, 'temp': 0.0, 'lipoC3S3': 12.43, 'state': 'normal', 'rot1': 84, 'rot0': 56, 'rot3': 0, 'rot2': 0, 'depth': 0.317, 'yaw': -111.25, 'datetime': '2018-12-18 16:49:26.693172', 'mgs': 0, 'flw2': 2.97, 'flw1': 0.0, 'flw0': 3.0, 'time': 14.37, 'compass': -172.64, 'pitch': 4.55, 'roll': -0.48}
{'lipoC2': 0.0, 'temp': 0.0, 'lipoC3S3': 12.68, 'state': 'normal', 'rot1': 86, 'rot0': 59, 'rot3': 0, 'rot2': 0, 'depth': 1.691, 'yaw': -115.36, 'datetime': '2018-12-18 16:49:26.899893', 'mgs': 0, 'flw2': 2.98, 'flw1': 0.0, 'flw0': 2.88, 'time': 14.58, 'compass': -176.75, 'pitch': 4.24, 'roll': -0.13}
{'lipoC2': 0.08, 'temp': 0.0, 'lipoC3S3': 12.58, 'state': 'normal', 'rot1': 89, 'rot0': 61, 'rot3': 0, 'rot2': 0, 'depth': -1.743, 'yaw': -119.03, 'datetime': '2018-12-18 16:49:27.106976', 'mgs': 0, 'flw2': 2.86, 'flw1': 0.0, 'flw0': 3.02, 'time': 14.79, 'compass': 179.58, 'pitch': 4.59, 'roll': 0.25}
{'lipoC2': 0.03, 'temp': 0.0, 'lipoC3S3': 12.62, 'state': 'normal', 'rot1': 91, 'rot0': 64, 'rot3': 0, 'rot2': 0, 'depth': -1.285, 'yaw': -122.49, 'datetime': '2018-12-18 16:49:27.317545', 'mgs': 0, 'flw2': 2.84, 'flw1': 0.44, 'flw0': 3.05, 'time': 15.0, 'compass': 176.12, 'pitch': 4.9, 'roll': 0.43}
{'lipoC2': 0.01, 'temp': 0.0, 'lipoC3S3': 12.46, 'state': 'normal', 'rot1': 93, 'rot0': 66, 'rot3': 0, 'rot2': 0, 'depth': 0.165, 'yaw': -125.69, 'datetime': '2018-12-18 16:49:27.528519', 'mgs': 0, 'flw2': 3.05, 'flw1': 0.0, 'flw0': 3.02, 'time': 15.21, 'compass': 172.92, 'pitch': 4.89, 'roll': 0.32}
{'lipoC2': 0.03, 'temp': 0.0, 'lipoC3S3': 12.41, 'state': 'normal', 'rot1': 96, 'rot0': 69, 'rot3': 0, 'rot2': 0, 'depth': 1.462, 'yaw': -129.01, 'datetime': '2018-12-18 16:49:27.735107', 'mgs': 0, 'flw2': 3.03, 'flw1': 0.0, 'flw0': 3.02, 'time': 15.42, 'compass': 169.6, 'pitch': 4.82, 'roll': 0.16}
{'lipoC2': 0.05, 'temp': 0.0, 'lipoC3S3': 12.35, 'state': 'normal', 'rot1': 98, 'rot0': 71, 'rot3': 0, 'rot2': 0, 'depth': 0.623, 'yaw': -132.17, 'datetime': '2018-12-18 16:49:27.945471', 'mgs': 0, 'flw2': 3.03, 'flw1': 0.0, 'flw0': 2.98, 'time': 15.63, 'compass': 166.44, 'pitch': 4.77, 'roll': 0.03}
{'lipoC2': 0.0, 'temp': 0.0, 'lipoC3S3': 12.63, 'state': 'normal', 'rot1': 101, 'rot0': 74, 'rot3': 0, 'rot2': 0, 'depth': 1.462, 'yaw': -135.11, 'datetime': '2018-12-18 16:49:28.155237', 'mgs': 0, 'flw2': 2.91, 'flw1': 0.0, 'flw0': 3.17, 'time': 15.84, 'compass': 163.5, 'pitch': 4.69, 'roll': 0.07}
{'lipoC2': 0.04, 'temp': 0.0, 'lipoC3S3': 12.38, 'state': 'normal', 'rot1': 103, 'rot0': 76, 'rot3': 0, 'rot2': 0, 'depth': 0.47, 'yaw': -137.51, 'datetime': '2018-12-18 16:49:28.363375', 'mgs': 0, 'flw2': 2.99, 'flw1': 0.0, 'flw0': 2.84, 'time': 16.05, 'compass': 161.1, 'pitch': 4.59, 'roll': 0.27}
{'lipoC2': 0.02, 'temp': 0.0, 'lipoC3S3': 12.63, 'state': 'normal', 'rot1': 106, 'rot0': 79, 'rot3': 0, 'rot2': 0, 'depth': 0.317, 'yaw': -139.53, 'datetime': '2018-12-18 16:49:28.575829', 'mgs': 0, 'flw2': 3.05, 'flw1': 0.0, 'flw0': 2.99, 'time': 16.25, 'compass': 159.08, 'pitch': 4.78, 'roll': 0.43}
{'lipoC2': 0.14, 'temp': 0.0, 'lipoC3S3': 12.47, 'state': 'normal', 'rot1': 108, 'rot0': 81, 'rot3': 0, 'rot2': 0, 'depth': -0.98, 'yaw': -141.44, 'datetime': '2018-12-18 16:49:28.784189', 'mgs': 0, 'flw2': 2.91, 'flw1': 0.0, 'flw0': 3.23, 'time': 16.46, 'compass': 157.17, 'pitch': 5.08, 'roll': 0.6}
{'lipoC2': 0.01, 'temp': 0.0, 'lipoC3S3': 12.45, 'state': 'normal', 'rot1': 110, 'rot0': 84, 'rot3': 0, 'rot2': 0, 'depth': 1.538, 'yaw': -143.3, 'datetime': '2018-12-18 16:49:28.992448', 'mgs': 0, 'flw2': 2.92, 'flw1': 0.0, 'flw0': 2.93, 'time': 16.67, 'compass': 155.31, 'pitch': 5.2, 'roll': 0.77}
{'lipoC2': 0.08, 'temp': 0.0, 'lipoC3S3': 12.33, 'state': 'normal', 'rot1': 113, 'rot0': 87, 'rot3': 0, 'rot2': 0, 'depth': 1.691, 'yaw': -145.2, 'datetime': '2018-12-18 16:49:29.202946', 'mgs': 0, 'flw2': 3.04, 'flw1': 0.0, 'flw0': 2.76, 'time': 16.88, 'compass': 153.41, 'pitch': 5.26, 'roll': 0.94}
{'lipoC2': 0.01, 'temp': 0.0, 'lipoC3S3': 12.42, 'state': 'normal', 'rot1': 115, 'rot0': 90, 'rot3': 0, 'rot2': 0, 'depth': 1.614, 'yaw': -147.16, 'datetime': '2018-12-18 16:49:29.410780', 'mgs': 0, 'flw2': 2.95, 'flw1': 0.0, 'flw0': 2.95, 'time': 17.09, 'compass': 151.45, 'pitch': 5.37, 'roll': 1.12}
{'lipoC2': 0.03, 'temp': 0.0, 'lipoC3S3': 12.39, 'state': 'normal', 'rot1': 118, 'rot0': 92, 'rot3': 0, 'rot2': 0, 'depth': 1.538, 'yaw': -148.99, 'datetime': '2018-12-18 16:49:29.619910', 'mgs': 0, 'flw2': 2.66, 'flw1': 0.35, 'flw0': 3.11, 'time': 17.3, 'compass': 149.62, 'pitch': 5.42, 'roll': 1.26}
{'lipoC2': 0.0, 'temp': 0.0, 'lipoC3S3': 12.33, 'state': 'normal', 'rot1': 120, 'rot0': 95, 'rot3': 0, 'rot2': 0, 'depth': 1.843, 'yaw': -150.75, 'datetime': '2018-12-18 16:49:29.830777', 'mgs': 0, 'flw2': 3.09, 'flw1': 0.03, 'flw0': 2.7, 'time': 17.51, 'compass': 147.86, 'pitch': 5.65, 'roll': 1.4}
{'lipoC2': 0.0, 'temp': 0.0, 'lipoC3S3': 12.55, 'state': 'normal', 'rot1': 122, 'rot0': 97, 'rot3': 0, 'rot2': 0, 'depth': 0.089, 'yaw': -152.38, 'datetime': '2018-12-18 16:49:30.039670', 'mgs': 0, 'flw2': 3.0, 'flw1': 0.0, 'flw0': 0.13, 'time': 17.72, 'compass': 146.23, 'pitch': 5.72, 'roll': 1.63}
{'lipoC2': 0.0, 'temp': 0.0, 'lipoC3S3': 12.59, 'state': 'normal', 'rot1': 122, 'rot0': 99, 'rot3': 0, 'rot2': 0, 'depth': 1.157, 'yaw': -151.77, 'datetime': '2018-12-18 16:49:30.248565', 'mgs': 0, 'flw2': 2.84, 'flw1': 0.0, 'flw0': 0.09, 'time': 17.92, 'compass': 146.84, 'pitch': 4.36, 'roll': 2.07}
{'lipoC2': 0.02, 'temp': 0.0, 'lipoC3S3': 12.43, 'state': 'normal', 'rot1': 122, 'rot0': 102, 'rot3': 0, 'rot2': 0, 'depth': 0.317, 'yaw': -149.05, 'datetime': '2018-12-18 16:49:30.459053', 'mgs': 0, 'flw2': 3.02, 'flw1': 0.0, 'flw0': 0.04, 'time': 18.13, 'compass': 149.56, 'pitch': 2.79, 'roll': 2.64}
{'lipoC2': 0.0, 'temp': 0.0, 'lipoC3S3': 12.39, 'state': 'normal', 'rot1': 122, 'rot0': 103, 'rot3': 0, 'rot2': 0, 'depth': 1.157, 'yaw': -145.6, 'datetime': '2018-12-18 16:49:30.666289', 'mgs': 0, 'flw2': 0.0, 'flw1': 0.0, 'flw0': 0.21, 'time': 18.34, 'compass': 153.01, 'pitch': 2.24, 'roll': 2.91}
{'lipoC2': 0.05, 'temp': 0.0, 'lipoC3S3': 12.35, 'state': 'normal', 'rot1': 122, 'rot0': 103, 'rot3': 0, 'rot2': 0, 'depth': 0.394, 'yaw': -143.3, 'datetime': '2018-12-18 16:49:30.874243', 'mgs': 0, 'flw2': 0.18, 'flw1': 0.0, 'flw0': 0.0, 'time': 18.55, 'compass': 155.31, 'pitch': 1.45, 'roll': 2.54}
{'lipoC2': 0.03, 'temp': 0.0, 'lipoC3S3': 12.39, 'state': 'normal', 'rot1': 122, 'rot0': 103, 'rot3': 0, 'rot2': 0, 'depth': 1.385, 'yaw': -141.64, 'datetime': '2018-12-18 16:49:31.083977', 'mgs': 0, 'flw2': 0.0, 'flw1': 0.29, 'flw0': 0.12, 'time': 18.76, 'compass': 156.97, 'pitch': 1.0, 'roll': 1.83}
{'lipoC2': 0.0, 'temp': 0.0, 'lipoC3S3': 12.55, 'state': 'normal', 'rot1': 122, 'rot0': 103, 'rot3': 0, 'rot2': 0, 'depth': 0.241, 'yaw': -140.29, 'datetime': '2018-12-18 16:49:31.291901', 'mgs': 0, 'flw2': 0.02, 'flw1': 0.41, 'flw0': 0.0, 'time': 18.97, 'compass': 158.32, 'pitch': 0.74, 'roll': 1.41}
{'lipoC2': 0.16, 'temp': 0.0, 'lipoC3S3': 12.42, 'state': 'normal', 'rot1': 122, 'rot0': 103, 'rot3': 0, 'rot2': 0, 'depth': -1.132, 'yaw': -139.22, 'datetime': '2018-12-18 16:49:31.500707', 'mgs': 0, 'flw2': 0.15, 'flw1': 0.18, 'flw0': 0.0, 'time': 19.18, 'compass': 159.39, 'pitch': 0.48, 'roll': 1.41}
{'lipoC2': 0.13, 'temp': 0.0, 'lipoC3S3': 12.34, 'state': 'normal', 'rot1': 122, 'rot0': 103, 'rot3': 0, 'rot2': 0, 'depth': 0.928, 'yaw': -138.33, 'datetime': '2018-12-18 16:49:31.711167', 'mgs': 0, 'flw2': 0.0, 'flw1': 0.09, 'flw0': 0.0, 'time': 19.39, 'compass': 160.28, 'pitch': 0.44, 'roll': 1.69}
{'lipoC2': 0.0, 'temp': 0.0, 'lipoC3S3': 12.54, 'state': 'normal', 'rot1': 122, 'rot0': 103, 'rot3': 0, 'rot2': 0, 'depth': -0.369, 'yaw': -137.64, 'datetime': '2018-12-18 16:49:31.922273', 'mgs': 0, 'flw2': 0.01, 'flw1': 0.47, 'flw0': 0.0, 'time': 19.6, 'compass': 160.97, 'pitch': 0.63, 'roll': 2.03}
{'lipoC2': 0.0, 'temp': 0.0, 'lipoC3S3': 12.41, 'state': 'normal', 'rot1': 122, 'rot0': 103, 'rot3': 0, 'rot2': 0, 'depth': 0.928, 'yaw': -137.1, 'datetime': '2018-12-18 16:49:32.130517', 'mgs': 0, 'flw2': 0.17, 'flw1': 0.12, 'flw0': 0.0, 'time': 19.81, 'compass': 161.51, 'pitch': 0.69, 'roll': 2.17}
{'lipoC2': 0.14, 'temp': 0.0, 'lipoC3S3': 12.39, 'state': 'normal', 'rot1': 122, 'rot0': 103, 'rot3': 0, 'rot2': 0, 'depth': -0.446, 'yaw': -136.7, 'datetime': '2018-12-18 16:49:32.340332', 'mgs': 0, 'flw2': 0.13, 'flw1': 0.26, 'flw0': 0.0, 'time': 20.01, 'compass': 161.91, 'pitch': 0.51, 'roll': 2.1}
{'lipoC2': 0.0, 'temp': 0.0, 'lipoC3S3': 12.56, 'state': 'normal', 'rot1': 122, 'rot0': 103, 'rot3': 0, 'rot2': 0, 'depth': 0.699, 'yaw': -136.4, 'datetime': '2018-12-18 16:49:32.548631', 'mgs': 0, 'flw2': 0.06, 'flw1': 0.0, 'flw0': 0.11, 'time': 20.22, 'compass': 162.21, 'pitch': 0.18, 'roll': 1.86}
{'lipoC2': 0.09, 'temp': 0.0, 'lipoC3S3': 12.55, 'state': 'normal', 'rot1': 122, 'rot0': 103, 'rot3': 0, 'rot2': 0, 'depth': -1.895, 'yaw': -136.18, 'datetime': '2018-12-18 16:49:32.759204', 'mgs': 0, 'flw2': 0.02, 'flw1': 0.0, 'flw0': 0.13, 'time': 20.43, 'compass': 162.43, 'pitch': 0.03, 'roll': 1.79}
{'lipoC2': 0.0, 'temp': 0.0, 'lipoC3S3': 12.46, 'state': 'normal', 'rot1': 122, 'rot0': 103, 'rot3': 0, 'rot2': 0, 'depth': 0.928, 'yaw': -136.09, 'datetime': '2018-12-18 16:49:32.969615', 'mgs': 0, 'flw2': 0.0, 'flw1': 0.0, 'flw0': 0.18, 'time': 20.64, 'compass': 162.52, 'pitch': 0.25, 'roll': 1.93}
{'lipoC2': 0.0, 'temp': 0.0, 'lipoC3S3': 12.63, 'state': 'normal', 'rot1': 123, 'rot0': 103, 'rot3': 0, 'rot2': 0, 'depth': 1.309, 'yaw': -136.07, 'datetime': '2018-12-18 16:49:33.178958', 'mgs': 0, 'flw2': 0.0, 'flw1': 0.32, 'flw0': 0.0, 'time': 20.85, 'compass': 162.54, 'pitch': 0.54, 'roll': 2.21}
{'lipoC2': 0.1, 'temp': 0.0, 'lipoC3S3': 12.56, 'state': 'normal', 'rot1': 123, 'rot0': 103, 'rot3': 0, 'rot2': 0, 'depth': -1.971, 'yaw': -136.03, 'datetime': '2018-12-18 16:49:33.388570', 'mgs': 0, 'flw2': 0.26, 'flw1': 0.0, 'flw0': 0.67, 'time': 21.06, 'compass': 162.58, 'pitch': 0.46, 'roll': 2.33}
{'lipoC2': 0.0, 'temp': 0.0, 'lipoC3S3': 12.74, 'state': 'normal', 'rot1': 125, 'rot0': 105, 'rot3': 0, 'rot2': 0, 'depth': -0.14, 'yaw': -136.03, 'datetime': '2018-12-18 16:49:33.597169', 'mgs': 0, 'flw2': 2.55, 'flw1': 0.12, 'flw0': 1.06, 'time': 21.27, 'compass': 162.58, 'pitch': -0.35, 'roll': 2.35}
{'lipoC2': 0.0, 'temp': 0.0, 'lipoC3S3': 12.74, 'state': 'normal', 'rot1': 125, 'rot0': 107, 'rot3': 0, 'rot2': 0, 'depth': 1.767, 'yaw': -137.06, 'datetime': '2018-12-18 16:49:33.806734', 'mgs': 0, 'flw2': 0.2, 'flw1': 0.03, 'flw0': 0.0, 'time': 21.48, 'compass': 161.55, 'pitch': -1.38, 'roll': 2.14}
{'lipoC2': 0.0, 'temp': 0.0, 'lipoC3S3': 12.38, 'state': 'normal', 'rot1': 125, 'rot0': 107, 'rot3': 0, 'rot2': 0, 'depth': 1.233, 'yaw': -138.3, 'datetime': '2018-12-18 16:49:34.014931', 'mgs': 0, 'flw2': 0.16, 'flw1': 0.18, 'flw0': 0.0, 'time': 21.69, 'compass': 160.31, 'pitch': -0.31, 'roll': 1.81}
{'lipoC2': 0.0, 'temp': 0.0, 'lipoC3S3': 12.6, 'state': 'normal', 'rot1': 125, 'rot0': 107, 'rot3': 0, 'rot2': 0, 'depth': 1.08, 'yaw': -139.46, 'datetime': '2018-12-18 16:49:34.225033', 'mgs': 0, 'flw2': 0.2, 'flw1': 0.0, 'flw0': 0.0, 'time': 21.9, 'compass': 159.15, 'pitch': 1.09, 'roll': 1.64}
{'lipoC2': 0.0, 'temp': 0.0, 'lipoC3S3': 12.59, 'state': 'normal', 'rot1': 125, 'rot0': 107, 'rot3': 0, 'rot2': 0, 'depth': 1.004, 'yaw': -140.59, 'datetime': '2018-12-18 16:49:34.433278', 'mgs': 0, 'flw2': 0.0, 'flw1': 0.41, 'flw0': 0.0, 'time': 22.11, 'compass': 158.02, 'pitch': 1.0, 'roll': 1.81}
{'lipoC2': 0.04, 'temp': 0.0, 'lipoC3S3': 12.37, 'state': 'normal', 'rot1': 125, 'rot0': 107, 'rot3': 0, 'rot2': 0, 'depth': 0.317, 'yaw': -141.69, 'datetime': '2018-12-18 16:49:34.644017', 'mgs': 0, 'flw2': 0.0, 'flw1': 0.32, 'flw0': 0.12, 'time': 22.32, 'compass': 156.92, 'pitch': 0.16, 'roll': 2.05}
{'lipoC2': 0.0, 'temp': 0.0, 'lipoC3S3': 12.6, 'state': 'normal', 'rot1': 125, 'rot0': 107, 'rot3': 0, 'rot2': 0, 'depth': 1.157, 'yaw': -142.83, 'datetime': '2018-12-18 16:49:34.850508', 'mgs': 0, 'flw2': 0.18, 'flw1': 0.0, 'flw0': 0.0, 'time': 22.52, 'compass': 155.78, 'pitch': 0.42, 'roll': 2.29}
