{'lipoC2': 0.0, 'temp': 0.0, 'lipoC3S3': 12.46, 'state': 'normal', 'rot1': 0, 'rot0': 0, 'rot3': 0, 'rot2': 0, 'depth': 0.546, 'yaw': 0.0, 'datetime': '2018-12-18 17:30:51.685117', 'mgs': 0, 'flw2': 0.2, 'flw1': 0.0, 'flw0': 0.0, 'time': 1.25, 'compass': -45.97, 'pitch': -0.08, 'roll': 0.45}
{'lipoC2': 0.0, 'temp': 0.0, 'lipoC3S3': 12.26, 'state': 'normal', 'rot1': 0, 'rot0': 0, 'rot3': 0, 'rot2': 0, 'depth': -0.598, 'yaw': 0.18, 'datetime': '2018-12-18 17:30:51.897579', 'mgs': 0, 'flw2': 0.1, 'flw1': 0.38, 'flw0': 0.0, 'time': 1.46, 'compass': -45.78, 'pitch': -0.14, 'roll': 0.49}
{'lipoC2': 0.13, 'temp': 0.0, 'lipoC3S3': 12.23, 'state': 'normal', 'rot1': 0, 'rot0': 0, 'rot3': 0, 'rot2': 0, 'depth': 0.012, 'yaw': 0.36, 'datetime': '2018-12-18 17:30:52.102814', 'mgs': 0, 'flw2': 0.1, 'flw1': 0.32, 'flw0': 0.0, 'time': 1.67, 'compass': -45.61, 'pitch': -0.36, 'roll': 0.53}
{'lipoC2': 0.0, 'temp': 0.0, 'lipoC3S3': 12.58, 'state': 'normal', 'rot1': 0, 'rot0': 0, 'rot3': 0, 'rot2': 0, 'depth': 1.462, 'yaw': 0.54, 'datetime': '2018-12-18 17:30:52.310875', 'mgs': 0, 'flw2': 0.0, 'flw1': 0.21, 'flw0': 0.15, 'time': 1.88, 'compass': -45.43, 'pitch': -0.53, 'roll': 0.57}
{'lipoC2': 0.0, 'temp': 0.0, 'lipoC3S3': 12.41, 'state': 'normal', 'rot1': 0, 'rot0': 0, 'rot3': 0, 'rot2': 0, 'depth': 0.851, 'yaw': 0.03, 'datetime': '2018-12-18 17:30:52.518952', 'mgs': 0, 'flw2': 0.01, 'flw1': 0.41, 'flw0': 0.0, 'time': 2.09, 'compass': -45.94, 'pitch': -0.46, 'roll': 0.6}
{'lipoC2': 0.0, 'temp': 0.0, 'lipoC3S3': 12.63, 'state': 'normal', 'rot1': 0, 'rot0': 0, 'rot3': 0, 'rot2': 0, 'depth': 1.614, 'yaw': -0.49, 'datetime': '2018-12-18 17:30:52.729916', 'mgs': 0, 'flw2': 0.0, 'flw1': 0.0, 'flw0': 0.21, 'time': 2.29, 'compass': -46.45, 'pitch': -0.17, 'roll': 0.61}
{'lipoC2': 0.0, 'temp': 0.0, 'lipoC3S3': 12.48, 'state': 'normal', 'rot1': 0, 'rot0': 0, 'rot3': 0, 'rot2': 0, 'depth': 0.775, 'yaw': -2.11, 'datetime': '2018-12-18 17:30:52.936862', 'mgs': 0, 'flw2': 0.0, 'flw1': 0.29, 'flw0': 0.12, 'time': 2.5, 'compass': -48.08, 'pitch': -0.07, 'roll': 0.6}
{'lipoC2': 0.04, 'temp': 0.0, 'lipoC3S3': 12.5, 'state': 'normal', 'rot1': 0, 'rot0': 0, 'rot3': 0, 'rot2': 0, 'depth': -1.743, 'yaw': -2.96, 'datetime': '2018-12-18 17:30:53.144001', 'mgs': 0, 'flw2': 0.16, 'flw1': 0.0, 'flw0': 0.0, 'time': 2.71, 'compass': -48.92, 'pitch': -0.09, 'roll': 0.6}
{'lipoC2': 0.05, 'temp': 0.0, 'lipoC3S3': 12.51, 'state': 'normal', 'rot1': 0, 'rot0': 0, 'rot3': 0, 'rot2': 0, 'depth': -1.666, 'yaw': -3.8, 'datetime': '2018-12-18 17:30:53.353225', 'mgs': 0, 'flw2': 0.15, 'flw1': 0.0, 'flw0': 0.0, 'time': 2.92, 'compass': -49.77, 'pitch': -0.09, 'roll': 0.6}
{'lipoC2': 0.14, 'temp': 0.0, 'lipoC3S3': 12.25, 'state': 'normal', 'rot1': 0, 'rot0': 0, 'rot3': 0, 'rot2': 0, 'depth': 0.546, 'yaw': -4.48, 'datetime': '2018-12-18 17:30:53.557953', 'mgs': 0, 'flw2': 0.1, 'flw1': 0.32, 'flw0': 0.0, 'time': 3.13, 'compass': -50.45, 'pitch': -0.07, 'roll': 0.61}
{'lipoC2': 0.09, 'temp': 0.0, 'lipoC3S3': 12.21, 'state': 'normal', 'rot1': 0, 'rot0': 0, 'rot3': 0, 'rot2': 0, 'depth': 0.317, 'yaw': -4.89, 'datetime': '2018-12-18 17:30:53.766930', 'mgs': 0, 'flw2': 0.11, 'flw1': 0.26, 'flw0': 0.0, 'time': 3.33, 'compass': -50.86, 'pitch': -0.18, 'roll': 0.62}
{'lipoC2': 0.1, 'temp': 0.0, 'lipoC3S3': 12.21, 'state': 'normal', 'rot1': 0, 'rot0': 0, 'rot3': 0, 'rot2': 0, 'depth': 0.47, 'yaw': -5.02, 'datetime': '2018-12-18 17:30:53.976760', 'mgs': 0, 'flw2': 0.11, 'flw1': 0.32, 'flw0': 0.0, 'time': 3.54, 'compass': -50.99, 'pitch': -0.27, 'roll': 0.45}
{'lipoC2': 0.11, 'temp': 0.0, 'lipoC3S3': 12.19, 'state': 'normal', 'rot1': 0, 'rot0': 0, 'rot3': 0, 'rot2': 0, 'depth': 0.47, 'yaw': -5.16, 'datetime': '2018-12-18 17:30:54.185854', 'mgs': 0, 'flw2': 0.11, 'flw1': 0.29, 'flw0': 0.0, 'time': 3.75, 'compass': -51.13, 'pitch': -0.32, 'roll': 0.4}
{'lipoC2': 0.06, 'temp': 0.0, 'lipoC3S3': 12.22, 'state': 'normal', 'rot1': 0, 'rot0': 0, 'rot3': 0, 'rot2': 0, 'depth': 0.394, 'yaw': -5.12, 'datetime': '2018-12-18 17:30:54.390237', 'mgs': 0, 'flw2': 0.17, 'flw1': 0.09, 'flw0': 0.0, 'time': 3.96, 'compass': -51.08, 'pitch': -0.39, 'roll': 0.5}
{'lipoC2': 0.0, 'temp': 0.0, 'lipoC3S3': 12.45, 'state': 'normal', 'rot1': 0, 'rot0': 0, 'rot3': 0, 'rot2': 0, 'depth': -0.369, 'yaw': -5.02, 'datetime': '2018-12-18 17:30:54.601594', 'mgs': 0, 'flw2': 0.0, 'flw1': 0.38, 'flw0': 0.0, 'time': 4.16, 'compass': -50.98, 'pitch': -0.49, 'roll': 0.6}
{'lipoC2': 0.16, 'temp': 0.0, 'lipoC3S3': 12.27, 'state': 'normal', 'rot1': 0, 'rot0': 0, 'rot3': 0, 'rot2': 0, 'depth': 0.851, 'yaw': -4.88, 'datetime': '2018-12-18 17:30:54.809348', 'mgs': 0, 'flw2': 0.0, 'flw1': 0.44, 'flw0': 0.0, 'time': 4.37, 'compass': -50.84, 'pitch': -0.48, 'roll': 0.6}
{'lipoC2': 0.02, 'temp': 0.0, 'lipoC3S3': 12.25, 'state': 'normal', 'rot1': 0, 'rot0': 0, 'rot3': 0, 'rot2': 0, 'depth': 1.538, 'yaw': -4.87, 'datetime': '2018-12-18 17:30:55.014183', 'mgs': 0, 'flw2': 0.17, 'flw1': 0.09, 'flw0': 0.0, 'time': 4.58, 'compass': -50.84, 'pitch': -0.35, 'roll': 0.56}
{'lipoC2': 0.04, 'temp': 0.0, 'lipoC3S3': 12.22, 'state': 'normal', 'rot1': 0, 'rot0': 0, 'rot3': 0, 'rot2': 0, 'depth': 1.385, 'yaw': -4.87, 'datetime': '2018-12-18 17:30:55.222448', 'mgs': 0, 'flw2': 0.17, 'flw1': 0.09, 'flw0': 0.0, 'time': 4.79, 'compass': -50.84, 'pitch': -0.35, 'roll': 0.56}
{'lipoC2': 0.09, 'temp': 0.0, 'lipoC3S3': 12.21, 'state': 'normal', 'rot1': 0, 'rot0': 0, 'rot3': 0, 'rot2': 0, 'depth': 0.394, 'yaw': -4.86, 'datetime': '2018-12-18 17:30:55.429876', 'mgs': 0, 'flw2': 0.11, 'flw1': 0.26, 'flw0': 0.0, 'time': 5.0, 'compass': -50.83, 'pitch': -0.63, 'roll': 0.56}
{'lipoC2': 0.0, 'temp': 0.0, 'lipoC3S3': 12.48, 'state': 'normal', 'rot1': 0, 'rot0': 0, 'rot3': 0, 'rot2': 0, 'depth': 0.775, 'yaw': -4.87, 'datetime': '2018-12-18 17:30:55.636224', 'mgs': 0, 'flw2': 0.17, 'flw1': 0.03, 'flw0': 0.0, 'time': 5.2, 'compass': -50.83, 'pitch': -0.8, 'roll': 0.56}
{'lipoC2': 0.0, 'temp': 0.0, 'lipoC3S3': 12.56, 'state': 'normal', 'rot1': 0, 'rot0': 0, 'rot3': 0, 'rot2': 0, 'depth': 1.385, 'yaw': -5.23, 'datetime': '2018-12-18 17:30:55.847256', 'mgs': 0, 'flw2': 0.0, 'flw1': 0.23, 'flw0': 0.13, 'time': 5.41, 'compass': -51.2, 'pitch': -0.67, 'roll': 0.56}
{'lipoC2': 0.1, 'temp': 0.0, 'lipoC3S3': 12.46, 'state': 'normal', 'rot1': 0, 'rot0': 0, 'rot3': 0, 'rot2': 0, 'depth': -1.743, 'yaw': -5.75, 'datetime': '2018-12-18 17:30:56.054043', 'mgs': 0, 'flw2': 0.0, 'flw1': 0.38, 'flw0': 0.04, 'time': 5.62, 'compass': -51.71, 'pitch': -0.47, 'roll': 0.56}
{'lipoC2': 0.03, 'temp': 0.0, 'lipoC3S3': 12.23, 'state': 'normal', 'rot1': 0, 'rot0': 0, 'rot3': 0, 'rot2': 0, 'depth': 0.089, 'yaw': -6.09, 'datetime': '2018-12-18 17:30:56.260645', 'mgs': 0, 'flw2': 0.16, 'flw1': 0.09, 'flw0': 0.0, 'time': 5.83, 'compass': -52.06, 'pitch': -0.61, 'roll': 0.57}
{'lipoC2': 0.08, 'temp': 0.0, 'lipoC3S3': 12.21, 'state': 'normal', 'rot1': 0, 'rot0': 0, 'rot3': 0, 'rot2': 0, 'depth': 0.394, 'yaw': -6.37, 'datetime': '2018-12-18 17:30:56.469837', 'mgs': 0, 'flw2': 0.12, 'flw1': 0.23, 'flw0': 0.0, 'time': 6.04, 'compass': -52.33, 'pitch': -0.95, 'roll': 0.56}
{'lipoC2': 0.0, 'temp': 0.0, 'lipoC3S3': 12.42, 'state': 'normal', 'rot1': 0, 'rot0': 0, 'rot3': 0, 'rot2': 0, 'depth': 0.928, 'yaw': -6.44, 'datetime': '2018-12-18 17:30:56.680843', 'mgs': 0, 'flw2': 0.18, 'flw1': 0.0, 'flw0': 0.01, 'time': 6.24, 'compass': -52.41, 'pitch': -1.01, 'roll': 0.56}
{'lipoC2': 0.0, 'temp': 0.0, 'lipoC3S3': 12.58, 'state': 'normal', 'rot1': 0, 'rot0': 0, 'rot3': 0, 'rot2': 0, 'depth': 1.309, 'yaw': -6.45, 'datetime': '2018-12-18 17:30:56.887596', 'mgs': 0, 'flw2': 0.1, 'flw1': 0.26, 'flw0': 0.0, 'time': 6.45, 'compass': -52.42, 'pitch': -0.79, 'roll': 0.56}
{'lipoC2': 0.02, 'temp': 0.0, 'lipoC3S3': 12.26, 'state': 'normal', 'rot1': 0, 'rot0': 0, 'rot3': 0, 'rot2': 0, 'depth': 1.538, 'yaw': -6.45, 'datetime': '2018-12-18 17:30:57.095625', 'mgs': 0, 'flw2': 0.0, 'flw1': 0.0, 'flw0': 0.2, 'time': 6.66, 'compass': -52.42, 'pitch': -0.82, 'roll': 0.56}
{'lipoC2': 0.1, 'temp': 0.0, 'lipoC3S3': 12.22, 'state': 'normal', 'rot1': 0, 'rot0': 0, 'rot3': 0, 'rot2': 0, 'depth': 1.157, 'yaw': -6.45, 'datetime': '2018-12-18 17:30:57.305910', 'mgs': 0, 'flw2': 0.05, 'flw1': 0.38, 'flw0': 0.0, 'time': 6.87, 'compass': -52.41, 'pitch': -1.19, 'roll': 0.57}
{'lipoC2': 0.14, 'temp': 0.0, 'lipoC3S3': 12.27, 'state': 'normal', 'rot1': 0, 'rot0': 0, 'rot3': 0, 'rot2': 0, 'depth': 0.546, 'yaw': -6.44, 'datetime': '2018-12-18 17:30:57.508423', 'mgs': 0, 'flw2': 0.0, 'flw1': 0.44, 'flw0': 0.0, 'time': 7.07, 'compass': -52.41, 'pitch': -1.36, 'roll': 0.57}
{'lipoC2': 0.14, 'temp': 0.0, 'lipoC3S3': 12.33, 'state': 'normal', 'rot1': 0, 'rot0': 0, 'rot3': 0, 'rot2': 0, 'depth': 0.928, 'yaw': -6.41, 'datetime': '2018-12-18 17:30:57.722728', 'mgs': 0, 'flw2': 0.11, 'flw1': 0.0, 'flw0': 0.12, 'time': 7.28, 'compass': -52.38, 'pitch': -0.98, 'roll': 0.57}
{'lipoC2': 0.12, 'temp': 0.0, 'lipoC3S3': 12.43, 'state': 'normal', 'rot1': 0, 'rot0': 0, 'rot3': 0, 'rot2': 0, 'depth': -1.59, 'yaw': -6.4, 'datetime': '2018-12-18 17:30:57.930050', 'mgs': 0, 'flw2': 0.0, 'flw1': 0.38, 'flw0': 0.0, 'time': 7.49, 'compass': -52.36, 'pitch': -0.72, 'roll': 0.56}
{'lipoC2': 0.0, 'temp': 0.0, 'lipoC3S3': 12.48, 'state': 'normal', 'rot1': 0, 'rot0': 0, 'rot3': 0, 'rot2': 0, 'depth': 0.775, 'yaw': -6.39, 'datetime': '2018-12-18 17:30:58.134773', 'mgs': 0, 'flw2': 0.0, 'flw1': 0.26, 'flw0': 0.12, 'time': 7.7, 'compass': -52.36, 'pitch': -1.03, 'roll': 0.57}
{'lipoC2': 0.06, 'temp': 0.0, 'lipoC3S3': 12.21, 'state': 'normal', 'rot1': 0, 'rot0': 0, 'rot3': 0, 'rot2': 0, 'depth': 1.233, 'yaw': -6.36, 'datetime': '2018-12-18 17:30:58.340983', 'mgs': 0, 'flw2': 0.13, 'flw1': 0.21, 'flw0': 0.0, 'time': 7.91, 'compass': -52.33, 'pitch': -1.48, 'roll': 0.57}
{'lipoC2': 0.08, 'temp': 0.0, 'lipoC3S3': 12.21, 'state': 'normal', 'rot1': 0, 'rot0': 0, 'rot3': 0, 'rot2': 0, 'depth': 1.233, 'yaw': -6.33, 'datetime': '2018-12-18 17:30:58.549936', 'mgs': 0, 'flw2': 0.0, 'flw1': 0.0, 'flw0': 0.18, 'time': 8.11, 'compass': -52.3, 'pitch': -1.55, 'roll': 0.57}
{'lipoC2': 0.0, 'temp': 0.0, 'lipoC3S3': 12.5, 'state': 'normal', 'rot1': 0, 'rot0': 0, 'rot3': 0, 'rot2': 0, 'depth': 1.157, 'yaw': -6.32, 'datetime': '2018-12-18 17:30:58.757972', 'mgs': 0, 'flw2': 0.15, 'flw1': 0.0, 'flw0': 0.06, 'time': 8.32, 'compass': -52.28, 'pitch': -1.32, 'roll': 0.57}
{'lipoC2': 0.14, 'temp': 0.0, 'lipoC3S3': 12.41, 'state': 'normal', 'rot1': 0, 'rot0': 0, 'rot3': 0, 'rot2': 0, 'depth': -1.208, 'yaw': -6.24, 'datetime': '2018-12-18 17:30:58.973225', 'mgs': 0, 'flw2': 0.0, 'flw1': 0.47, 'flw0': 0.0, 'time': 8.53, 'compass': -52.21, 'pitch': -1.24, 'roll': 0.57}
{'lipoC2': 0.01, 'temp': 0.0, 'lipoC3S3': 12.29, 'state': 'normal', 'rot1': 0, 'rot0': 0, 'rot3': 0, 'rot2': 0, 'depth': -0.369, 'yaw': -6.17, 'datetime': '2018-12-18 17:30:59.183824', 'mgs': 0, 'flw2': 0.18, 'flw1': 0.0, 'flw0': 0.2, 'time': 8.74, 'compass': -52.13, 'pitch': -1.32, 'roll': 0.57}
{'lipoC2': 0.0, 'temp': 0.0, 'lipoC3S3': 12.35, 'state': 'normal', 'rot1': 0, 'rot0': 0, 'rot3': 0, 'rot2': 0, 'depth': -0.293, 'yaw': -6.1, 'datetime': '2018-12-18 17:30:59.387831', 'mgs': 0, 'flw2': 0.0, 'flw1': 0.44, 'flw0': 0.0, 'time': 8.94, 'compass': -52.07, 'pitch': -1.38, 'roll': 0.49}
{'lipoC2': 0.12, 'temp': 0.0, 'lipoC3S3': 12.42, 'state': 'normal', 'rot1': 0, 'rot0': 0, 'rot3': 0, 'rot2': 0, 'depth': -1.361, 'yaw': -6.06, 'datetime': '2018-12-18 17:30:59.597337', 'mgs': 0, 'flw2': 0.0, 'flw1': 0.44, 'flw0': 0.0, 'time': 9.15, 'compass': -52.03, 'pitch': -1.39, 'roll': 0.32}
{'lipoC2': 0.05, 'temp': 0.0, 'lipoC3S3': 12.45, 'state': 'normal', 'rot1': 0, 'rot0': 0, 'rot3': 0, 'rot2': 0, 'depth': -1.666, 'yaw': -6.03, 'datetime': '2018-12-18 17:30:59.810251', 'mgs': 0, 'flw2': 0.18, 'flw1': 0.0, 'flw0': 0.0, 'time': 9.36, 'compass': -52.0, 'pitch': -1.42, 'roll': 0.3}
{'lipoC2': 0.0, 'temp': 0.0, 'lipoC3S3': 12.6, 'state': 'normal', 'rot1': 0, 'rot0': 0, 'rot3': 0, 'rot2': 0, 'depth': 1.538, 'yaw': -5.93, 'datetime': '2018-12-18 17:31:00.013898', 'mgs': 0, 'flw2': 0.0, 'flw1': 0.0, 'flw0': 0.2, 'time': 9.57, 'compass': -51.89, 'pitch': -1.65, 'roll': 0.32}
{'lipoC2': 0.08, 'temp': 0.0, 'lipoC3S3': 12.21, 'state': 'normal', 'rot1': 0, 'rot0': 0, 'rot3': 0, 'rot2': 0, 'depth': 0.317, 'yaw': -5.83, 'datetime': '2018-12-18 17:31:00.222816', 'mgs': 0, 'flw2': 0.15, 'flw1': 0.15, 'flw0': 0.0, 'time': 9.78, 'compass': -51.79, 'pitch': -1.74, 'roll': 0.31}
{'lipoC2': 0.13, 'temp': 0.0, 'lipoC3S3': 12.43, 'state': 'normal', 'rot1': 0, 'rot0': 0, 'rot3': 0, 'rot2': 0, 'depth': -2.048, 'yaw': -6.36, 'datetime': '2018-12-18 17:31:00.435469', 'mgs': 0, 'flw2': 0.0, 'flw1': 0.5, 'flw0': 0.0, 'time': 9.99, 'compass': -52.33, 'pitch': -1.63, 'roll': 0.31}
{'lipoC2': 0.01, 'temp': 0.0, 'lipoC3S3': 12.27, 'state': 'normal', 'rot1': 0, 'rot0': 0, 'rot3': 0, 'rot2': 0, 'depth': -0.14, 'yaw': -6.84, 'datetime': '2018-12-18 17:31:00.638876', 'mgs': 0, 'flw2': 0.0, 'flw1': 0.26, 'flw0': 0.15, 'time': 10.19, 'compass': -52.81, 'pitch': -1.49, 'roll': 0.32}
{'lipoC2': 0.0, 'temp': 0.0, 'lipoC3S3': 12.64, 'state': 'normal', 'rot1': 2, 'rot0': 2, 'rot3': 0, 'rot2': 0, 'depth': 1.996, 'yaw': -8.28, 'datetime': '2018-12-18 17:31:00.944441', 'mgs': 0, 'flw2': 0.72, 'flw1': 0.21, 'flw0': 1.32, 'time': 10.51, 'compass': -54.25, 'pitch': -1.55, 'roll': 0.08}
{'lipoC2': 0.0, 'temp': 0.0, 'lipoC3S3': 12.74, 'state': 'normal', 'rot1': 5, 'rot0': 5, 'rot3': 0, 'rot2': 0, 'depth': -0.217, 'yaw': -11.83, 'datetime': '2018-12-18 17:31:01.153196', 'mgs': 0, 'flw2': 0.9, 'flw1': 0.64, 'flw0': 1.2, 'time': 10.71, 'compass': -57.8, 'pitch': -1.39, 'roll': -0.59}
{'lipoC2': 0.11, 'temp': 0.0, 'lipoC3S3': 12.19, 'state': 'normal', 'rot1': 8, 'rot0': 8, 'rot3': 0, 'rot2': 0, 'depth': 0.317, 'yaw': -17.41, 'datetime': '2018-12-18 17:31:01.358712', 'mgs': 0, 'flw2': 1.14, 'flw1': 0.7, 'flw0': 1.06, 'time': 10.92, 'compass': -63.38, 'pitch': -0.96, 'roll': -1.2}
{'lipoC2': 0.0, 'temp': 0.0, 'lipoC3S3': 12.31, 'state': 'normal', 'rot1': 10, 'rot0': 10, 'rot3': 0, 'rot2': 0, 'depth': -0.674, 'yaw': -24.17, 'datetime': '2018-12-18 17:31:01.567736', 'mgs': 0, 'flw2': 1.12, 'flw1': 0.0, 'flw0': 1.25, 'time': 11.13, 'compass': -70.14, 'pitch': -0.62, 'roll': -1.39}
{'lipoC2': 0.06, 'temp': 0.0, 'lipoC3S3': 12.48, 'state': 'normal', 'rot1': 14, 'rot0': 13, 'rot3': 0, 'rot2': 0, 'depth': -2.277, 'yaw': -31.7, 'datetime': '2018-12-18 17:31:01.775939', 'mgs': 0, 'flw2': 1.16, 'flw1': 0.0, 'flw0': 0.85, 'time': 11.34, 'compass': -77.67, 'pitch': -0.74, 'roll': -1.13}
{'lipoC2': 0.11, 'temp': 0.0, 'lipoC3S3': 12.1, 'state': 'normal', 'rot1': 17, 'rot0': 15, 'rot3': 0, 'rot2': 0, 'depth': 1.385, 'yaw': -40.03, 'datetime': '2018-12-18 17:31:01.986326', 'mgs': 0, 'flw2': 0.93, 'flw1': 0.0, 'flw0': 1.18, 'time': 11.55, 'compass': -85.99, 'pitch': -1.01, 'roll': -0.81}
{'lipoC2': 0.28, 'temp': 0.0, 'lipoC3S3': 12.18, 'state': 'normal', 'rot1': 20, 'rot0': 18, 'rot3': 0, 'rot2': 0, 'depth': -2.048, 'yaw': -48.27, 'datetime': '2018-12-18 17:31:02.194913', 'mgs': 0, 'flw2': 0.93, 'flw1': 0.0, 'flw0': 1.04, 'time': 11.76, 'compass': -94.23, 'pitch': -0.85, 'roll': -0.73}
{'lipoC2': 0.0, 'temp': 0.0, 'lipoC3S3': 12.34, 'state': 'normal', 'rot1': 23, 'rot0': 21, 'rot3': 0, 'rot2': 0, 'depth': -0.217, 'yaw': -56.76, 'datetime': '2018-12-18 17:31:02.403309', 'mgs': 0, 'flw2': 1.18, 'flw1': 0.0, 'flw0': 0.54, 'time': 11.96, 'compass': -102.73, 'pitch': -0.34, 'roll': -0.7}
{'lipoC2': 0.0, 'temp': 0.0, 'lipoC3S3': 12.54, 'state': 'normal', 'rot1': 26, 'rot0': 23, 'rot3': 0, 'rot2': 0, 'depth': 1.157, 'yaw': -65.66, 'datetime': '2018-12-18 17:31:02.612760', 'mgs': 0, 'flw2': 0.0, 'flw1': 0.26, 'flw0': 0.59, 'time': 12.17, 'compass': -111.63, 'pitch': -0.12, 'roll': -0.79}
{'lipoC2': 0.06, 'temp': 0.0, 'lipoC3S3': 12.58, 'state': 'normal', 'rot1': 27, 'rot0': 24, 'rot3': 0, 'rot2': 0, 'depth': 1.309, 'yaw': -74.05, 'datetime': '2018-12-18 17:31:02.820984', 'mgs': 0, 'flw2': 0.56, 'flw1': 0.0, 'flw0': 0.04, 'time': 12.38, 'compass': -120.02, 'pitch': -0.44, 'roll': -0.72}
{'lipoC2': 0.09, 'temp': 0.0, 'lipoC3S3': 12.46, 'state': 'normal', 'rot1': 29, 'rot0': 26, 'rot3': 0, 'rot2': 0, 'depth': -1.971, 'yaw': -81.19, 'datetime': '2018-12-18 17:31:03.030298', 'mgs': 0, 'flw2': 0.57, 'flw1': 0.0, 'flw0': 0.28, 'time': 12.59, 'compass': -127.16, 'pitch': -0.74, 'roll': -0.66}
{'lipoC2': 0.1, 'temp': 0.0, 'lipoC3S3': 12.17, 'state': 'normal', 'rot1': 31, 'rot0': 27, 'rot3': 0, 'rot2': 0, 'depth': 1.233, 'yaw': -88.41, 'datetime': '2018-12-18 17:31:03.238485', 'mgs': 0, 'flw2': 0.48, 'flw1': 0.29, 'flw0': 0.0, 'time': 12.8, 'compass': -134.37, 'pitch': -0.52, 'roll': -0.52}
{'lipoC2': 0.02, 'temp': 0.0, 'lipoC3S3': 12.26, 'state': 'normal', 'rot1': 32, 'rot0': 28, 'rot3': 0, 'rot2': 0, 'depth': 1.462, 'yaw': -95.24, 'datetime': '2018-12-18 17:31:03.446610', 'mgs': 0, 'flw2': 0.02, 'flw1': 0.09, 'flw0': 0.57, 'time': 13.01, 'compass': -141.2, 'pitch': -0.08, 'roll': -0.41}
{'lipoC2': 0.1, 'temp': 0.0, 'lipoC3S3': 12.19, 'state': 'normal', 'rot1': 33, 'rot0': 29, 'rot3': 0, 'rot2': 0, 'depth': 0.394, 'yaw': -102.0, 'datetime': '2018-12-18 17:31:03.666309', 'mgs': 0, 'flw2': 0.51, 'flw1': 0.12, 'flw0': 0.01, 'time': 13.22, 'compass': -147.97, 'pitch': 0.0, 'roll': -0.35}
{'lipoC2': 0.02, 'temp': 0.0, 'lipoC3S3': 12.52, 'state': 'normal', 'rot1': 33, 'rot0': 29, 'rot3': 0, 'rot2': 0, 'depth': -1.666, 'yaw': -108.2, 'datetime': '2018-12-18 17:31:03.876443', 'mgs': 0, 'flw2': 0.0, 'flw1': 0.32, 'flw0': 0.12, 'time': 13.42, 'compass': -154.17, 'pitch': -0.07, 'roll': -0.35}
{'lipoC2': 0.08, 'temp': 0.0, 'lipoC3S3': 12.47, 'state': 'normal', 'rot1': 34, 'rot0': 29, 'rot3': 0, 'rot2': 0, 'depth': 1.843, 'yaw': -114.0, 'datetime': '2018-12-18 17:31:04.086317', 'mgs': 0, 'flw2': 2.87, 'flw1': 0.26, 'flw0': 1.03, 'time': 13.63, 'compass': -159.97, 'pitch': -0.17, 'roll': -0.13}
{'lipoC2': 0.0, 'temp': 0.0, 'lipoC3S3': 12.62, 'state': 'normal', 'rot1': 35, 'rot0': 32, 'rot3': 0, 'rot2': 0, 'depth': 1.92, 'yaw': -117.9, 'datetime': '2018-12-18 17:31:04.292045', 'mgs': 0, 'flw2': 3.05, 'flw1': 0.18, 'flw0': 0.48, 'time': 13.84, 'compass': -163.86, 'pitch': 1.18, 'roll': 0.33}
{'lipoC2': 0.09, 'temp': 0.0, 'lipoC3S3': 12.46, 'state': 'normal', 'rot1': 37, 'rot0': 34, 'rot3': 0, 'rot2': 0, 'depth': -2.048, 'yaw': -119.23, 'datetime': '2018-12-18 17:31:04.500133', 'mgs': 0, 'flw2': 2.55, 'flw1': 0.35, 'flw0': 0.85, 'time': 14.05, 'compass': -165.19, 'pitch': 2.86, 'roll': 0.71}
{'lipoC2': 0.0, 'temp': 0.0, 'lipoC3S3': 12.63, 'state': 'normal', 'rot1': 38, 'rot0': 36, 'rot3': 0, 'rot2': 0, 'depth': 2.072, 'yaw': -118.55, 'datetime': '2018-12-18 17:31:04.708799', 'mgs': 0, 'flw2': 2.94, 'flw1': 0.0, 'flw0': 0.95, 'time': 14.26, 'compass': -164.51, 'pitch': 3.16, 'roll': 0.88}
{'lipoC2': 0.1, 'temp': 0.0, 'lipoC3S3': 12.19, 'state': 'normal', 'rot1': 39, 'rot0': 39, 'rot3': 0, 'rot2': 0, 'depth': 1.157, 'yaw': -116.54, 'datetime': '2018-12-18 17:31:04.922969', 'mgs': 0, 'flw2': 2.76, 'flw1': 0.0, 'flw0': 1.0, 'time': 14.47, 'compass': -162.51, 'pitch': 2.69, 'roll': 0.87}
{'lipoC2': 0.1, 'temp': 0.0, 'lipoC3S3': 12.46, 'state': 'normal', 'rot1': 41, 'rot0': 41, 'rot3': 0, 'rot2': 0, 'depth': -1.666, 'yaw': -113.38, 'datetime': '2018-12-18 17:31:05.132925', 'mgs': 0, 'flw2': 2.69, 'flw1': 0.41, 'flw0': 0.83, 'time': 14.68, 'compass': -159.35, 'pitch': 2.42, 'roll': 0.81}
{'lipoC2': 0.0, 'temp': 0.0, 'lipoC3S3': 12.43, 'state': 'normal', 'rot1': 42, 'rot0': 43, 'rot3': 0, 'rot2': 0, 'depth': 0.317, 'yaw': -109.65, 'datetime': '2018-12-18 17:31:05.342074', 'mgs': 0, 'flw2': 2.99, 'flw1': 0.0, 'flw0': 0.81, 'time': 14.89, 'compass': -155.62, 'pitch': 2.42, 'roll': 0.74}
{'lipoC2': 0.1, 'temp': 0.0, 'lipoC3S3': 12.43, 'state': 'normal', 'rot1': 43, 'rot0': 46, 'rot3': 0, 'rot2': 0, 'depth': -1.971, 'yaw': -105.54, 'datetime': '2018-12-18 17:31:05.552565', 'mgs': 0, 'flw2': 2.67, 'flw1': 0.44, 'flw0': 0.78, 'time': 15.1, 'compass': -151.51, 'pitch': 2.24, 'roll': 0.97}
{'lipoC2': 0.09, 'temp': 0.0, 'lipoC3S3': 12.19, 'state': 'normal', 'rot1': 46, 'rot0': 49, 'rot3': 0, 'rot2': 0, 'depth': 1.309, 'yaw': -101.73, 'datetime': '2018-12-18 17:31:05.759570', 'mgs': 0, 'flw2': 2.66, 'flw1': 0.06, 'flw0': 3.04, 'time': 15.3, 'compass': -147.69, 'pitch': 2.25, 'roll': 1.42}
{'lipoC2': 0.09, 'temp': 0.0, 'lipoC3S3': 12.51, 'state': 'normal', 'rot1': 50, 'rot0': 52, 'rot3': 0, 'rot2': 0, 'depth': -1.895, 'yaw': -98.89, 'datetime': '2018-12-18 17:31:06.065337', 'mgs': 0, 'flw2': 0.55, 'flw1': 0.35, 'flw0': 2.98, 'time': 15.62, 'compass': -144.86, 'pitch': 3.12, 'roll': 1.6}
{'lipoC2': 0.0, 'temp': 0.0, 'lipoC3S3': 12.62, 'state': 'normal', 'rot1': 52, 'rot0': 53, 'rot3': 0, 'rot2': 0, 'depth': 1.538, 'yaw': -100.12, 'datetime': '2018-12-18 17:31:06.274578', 'mgs': 0, 'flw2': 0.85, 'flw1': 0.29, 'flw0': 2.93, 'time': 15.83, 'compass': -146.09, 'pitch': 2.14, 'roll': 1.25}
{'lipoC2': 0.15, 'temp': 0.0, 'lipoC3S3': 12.35, 'state': 'normal', 'rot1': 55, 'rot0': 55, 'rot3': 0, 'rot2': 0, 'depth': -0.751, 'yaw': -103.28, 'datetime': '2018-12-18 17:31:06.487731', 'mgs': 0, 'flw2': 0.94, 'flw1': 0.26, 'flw0': 2.73, 'time': 16.04, 'compass': -149.25, 'pitch': 1.18, 'roll': 0.62}
{'lipoC2': 0.08, 'temp': 0.0, 'lipoC3S3': 12.48, 'state': 'normal', 'rot1': 57, 'rot0': 57, 'rot3': 0, 'rot2': 0, 'depth': -1.895, 'yaw': -106.52, 'datetime': '2018-12-18 17:31:06.693968', 'mgs': 0, 'flw2': 2.54, 'flw1': 0.35, 'flw0': 3.15, 'time': 16.25, 'compass': -152.49, 'pitch': 1.57, 'roll': 0.2}
{'lipoC2': 0.0, 'temp': 0.0, 'lipoC3S3': 12.6, 'state': 'normal', 'rot1': 60, 'rot0': 59, 'rot3': 0, 'rot2': 0, 'depth': -2.048, 'yaw': -108.71, 'datetime': '2018-12-18 17:31:06.903364', 'mgs': 0, 'flw2': 2.44, 'flw1': 0.21, 'flw0': 3.02, 'time': 16.45, 'compass': -154.67, 'pitch': 2.96, 'roll': 0.34}
{'lipoC2': 0.0, 'temp': 0.0, 'lipoC3S3': 12.62, 'state': 'normal', 'rot1': 62, 'rot0': 62, 'rot3': 0, 'rot2': 0, 'depth': 1.996, 'yaw': -110.2, 'datetime': '2018-12-18 17:31:07.111383', 'mgs': 0, 'flw2': 3.04, 'flw1': 0.0, 'flw0': 2.59, 'time': 16.66, 'compass': -156.16, 'pitch': 3.47, 'roll': 0.53}
{'lipoC2': 0.0, 'temp': 0.0, 'lipoC3S3': 12.58, 'state': 'normal', 'rot1': 64, 'rot0': 64, 'rot3': 0, 'rot2': 0, 'depth': 1.691, 'yaw': -110.65, 'datetime': '2018-12-18 17:31:07.321062', 'mgs': 0, 'flw2': 0.2, 'flw1': 0.06, 'flw0': 0.0, 'time': 16.87, 'compass': -156.61, 'pitch': 2.68, 'roll': 0.84}
{'lipoC2': 0.04, 'temp': 0.0, 'lipoC3S3': 12.23, 'state': 'normal', 'rot1': 64, 'rot0': 64, 'rot3': 0, 'rot2': 0, 'depth': 1.462, 'yaw': -110.66, 'datetime': '2018-12-18 17:31:07.529173', 'mgs': 0, 'flw2': 0.15, 'flw1': 0.0, 'flw0': 0.0, 'time': 17.08, 'compass': -156.63, 'pitch': -0.39, 'roll': 1.17}
{'lipoC2': 0.0, 'temp': 0.0, 'lipoC3S3': 12.45, 'state': 'normal', 'rot1': 64, 'rot0': 64, 'rot3': 0, 'rot2': 0, 'depth': 0.546, 'yaw': -110.84, 'datetime': '2018-12-18 17:31:07.739755', 'mgs': 0, 'flw2': 0.2, 'flw1': 0.0, 'flw0': 0.0, 'time': 17.29, 'compass': -156.81, 'pitch': -2.02, 'roll': 1.01}
{'lipoC2': 0.13, 'temp': 0.0, 'lipoC3S3': 12.23, 'state': 'normal', 'rot1': 64, 'rot0': 64, 'rot3': 0, 'rot2': 0, 'depth': 0.775, 'yaw': -111.04, 'datetime': '2018-12-18 17:31:07.950849', 'mgs': 0, 'flw2': 0.05, 'flw1': 0.41, 'flw0': 0.0, 'time': 17.5, 'compass': -157.01, 'pitch': -1.42, 'roll': 0.54}
{'lipoC2': 0.11, 'temp': 0.0, 'lipoC3S3': 12.45, 'state': 'normal', 'rot1': 64, 'rot0': 64, 'rot3': 0, 'rot2': 0, 'depth': -1.819, 'yaw': -111.25, 'datetime': '2018-12-18 17:31:08.159420', 'mgs': 0, 'flw2': 0.0, 'flw1': 0.41, 'flw0': 0.0, 'time': 17.71, 'compass': -157.21, 'pitch': -0.61, 'roll': 0.25}
{'lipoC2': 0.14, 'temp': 0.0, 'lipoC3S3': 12.39, 'state': 'normal', 'rot1': 64, 'rot0': 64, 'rot3': 0, 'rot2': 0, 'depth': 1.843, 'yaw': -111.41, 'datetime': '2018-12-18 17:31:08.370061', 'mgs': 0, 'flw2': 0.04, 'flw1': 0.0, 'flw0': 0.15, 'time': 17.91, 'compass': -157.38, 'pitch': -0.69, 'roll': 0.25}
{'lipoC2': 0.0, 'temp': 0.0, 'lipoC3S3': 12.3, 'state': 'normal', 'rot1': 64, 'rot0': 64, 'rot3': 0, 'rot2': 0, 'depth': -0.522, 'yaw': -111.48, 'datetime': '2018-12-18 17:31:08.574255', 'mgs': 0, 'flw2': 0.05, 'flw1': 0.0, 'flw0': 0.15, 'time': 18.12, 'compass': -157.45, 'pitch': -1.28, 'roll': 0.3}
{'lipoC2': 0.11, 'temp': 0.0, 'lipoC3S3': 12.56, 'state': 'normal', 'rot1': 64, 'rot0': 64, 'rot3': 0, 'rot2': 0, 'depth': -2.048, 'yaw': -111.48, 'datetime': '2018-12-18 17:31:08.787136', 'mgs': 0, 'flw2': 0.0, 'flw1': 0.38, 'flw0': 0.0, 'time': 18.33, 'compass': -157.45, 'pitch': -1.44, 'roll': 0.31}
{'lipoC2': 0.0, 'temp': 0.0, 'lipoC3S3': 12.42, 'state': 'normal', 'rot1': 64, 'rot0': 64, 'rot3': 0, 'rot2': 0, 'depth': 0.851, 'yaw': -112.19, 'datetime': '2018-12-18 17:31:08.998597', 'mgs': 0, 'flw2': 0.0, 'flw1': 0.44, 'flw0': 0.0, 'time': 18.54, 'compass': -158.16, 'pitch': -1.03, 'roll': 0.31}
{'lipoC2': 0.09, 'temp': 0.0, 'lipoC3S3': 12.21, 'state': 'normal', 'rot1': 64, 'rot0': 64, 'rot3': 0, 'rot2': 0, 'depth': 0.317, 'yaw': -112.96, 'datetime': '2018-12-18 17:31:09.209294', 'mgs': 0, 'flw2': 0.62, 'flw1': 0.0, 'flw0': 0.15, 'time': 18.75, 'compass': -158.92, 'pitch': -0.82, 'roll': 0.31}
{'lipoC2': 0.0, 'temp': 0.0, 'lipoC3S3': 12.39, 'state': 'normal', 'rot1': 65, 'rot0': 65, 'rot3': 0, 'rot2': 0, 'depth': 0.928, 'yaw': -112.55, 'datetime': '2018-12-18 17:31:09.415424', 'mgs': 0, 'flw2': 0.49, 'flw1': 0.0, 'flw0': 0.46, 'time': 18.96, 'compass': -158.52, 'pitch': -1.04, 'roll': 0.4}
{'lipoC2': 0.0, 'temp': 0.0, 'lipoC3S3': 12.45, 'state': 'normal', 'rot1': 66, 'rot0': 66, 'rot3': 0, 'rot2': 0, 'depth': 0.241, 'yaw': -111.48, 'datetime': '2018-12-18 17:31:09.623818', 'mgs': 0, 'flw2': 0.21, 'flw1': 0.0, 'flw0': 0.0, 'time': 19.17, 'compass': -157.45, 'pitch': -1.29, 'roll': 0.49}
{'lipoC2': 0.11, 'temp': 0.0, 'lipoC3S3': 12.19, 'state': 'normal', 'rot1': 66, 'rot0': 66, 'rot3': 0, 'rot2': 0, 'depth': 0.546, 'yaw': -110.45, 'datetime': '2018-12-18 17:31:09.835677', 'mgs': 0, 'flw2': 0.16, 'flw1': 0.23, 'flw0': 0.0, 'time': 19.38, 'compass': -156.42, 'pitch': -1.27, 'roll': 0.44}
{'lipoC2': 0.13, 'temp': 0.0, 'lipoC3S3': 12.22, 'state': 'normal', 'rot1': 66, 'rot0': 66, 'rot3': 0, 'rot2': 0, 'depth': 0.623, 'yaw': -109.6, 'datetime': '2018-12-18 17:31:10.043691', 'mgs': 0, 'flw2': 0.12, 'flw1': 0.32, 'flw0': 0.0, 'time': 19.59, 'compass': -155.56, 'pitch': -1.26, 'roll': 0.34}
{'lipoC2': 0.09, 'temp': 0.0, 'lipoC3S3': 12.46, 'state': 'normal', 'rot1': 66, 'rot0': 66, 'rot3': 0, 'rot2': 0, 'depth': -1.971, 'yaw': -108.79, 'datetime': '2018-12-18 17:31:10.255364', 'mgs': 0, 'flw2': 0.21, 'flw1': 0.0, 'flw0': 0.0, 'time': 19.8, 'compass': -154.75, 'pitch': -1.25, 'roll': 0.38}
{'lipoC2': 0.14, 'temp': 0.0, 'lipoC3S3': 12.22, 'state': 'normal', 'rot1': 66, 'rot0': 66, 'rot3': 0, 'rot2': 0, 'depth': 0.623, 'yaw': -108.11, 'datetime': '2018-12-18 17:31:10.462943', 'mgs': 0, 'flw2': 0.01, 'flw1': 0.47, 'flw0': 0.0, 'time': 20.0, 'compass': -154.08, 'pitch': -1.24, 'roll': 0.42}
{'lipoC2': 0.0, 'temp': 0.0, 'lipoC3S3': 12.47, 'state': 'normal', 'rot1': 67, 'rot0': 66, 'rot3': 0, 'rot2': 0, 'depth': 0.699, 'yaw': -107.6, 'datetime': '2018-12-18 17:31:10.670738', 'mgs': 0, 'flw2': 2.83, 'flw1': 0.41, 'flw0': 3.49, 'time': 20.21, 'compass': -153.56, 'pitch': -1.25, 'roll': 0.45}
{'lipoC2': 0.0, 'temp': 0.0, 'lipoC3S3': 12.45, 'state': 'normal', 'rot1': 70, 'rot0': 69, 'rot3': 0, 'rot2': 0, 'depth': 0.165, 'yaw': -108.28, 'datetime': '2018-12-18 17:31:10.880109', 'mgs': 0, 'flw2': 2.93, 'flw1': 0.0, 'flw0': 2.91, 'time': 20.42, 'compass': -154.24, 'pitch': 1.33, 'roll': 0.54}
{'lipoC2': 0.0, 'temp': 0.0, 'lipoC3S3': 12.51, 'state': 'normal', 'rot1': 72, 'rot0': 72, 'rot3': 0, 'rot2': 0, 'depth': -1.285, 'yaw': -108.27, 'datetime': '2018-12-18 17:31:11.086117', 'mgs': 0, 'flw2': 2.72, 'flw1': 0.21, 'flw0': 3.03, 'time': 20.63, 'compass': -154.23, 'pitch': 3.86, 'roll': 0.68}
{'lipoC2': 0.08, 'temp': 0.0, 'lipoC3S3': 12.48, 'state': 'normal', 'rot1': 75, 'rot0': 74, 'rot3': 0, 'rot2': 0, 'depth': -1.895, 'yaw': -108.48, 'datetime': '2018-12-18 17:31:11.295427', 'mgs': 0, 'flw2': 3.09, 'flw1': 0.0, 'flw0': 2.82, 'time': 20.84, 'compass': -154.45, 'pitch': 4.28, 'roll': 0.92}
{'lipoC2': 0.15, 'temp': 0.0, 'lipoC3S3': 12.35, 'state': 'normal', 'rot1': 78, 'rot0': 77, 'rot3': 0, 'rot2': 0, 'depth': -0.98, 'yaw': -108.82, 'datetime': '2018-12-18 17:31:11.503773', 'mgs': 0, 'flw2': 2.88, 'flw1': 0.0, 'flw0': 3.16, 'time': 21.05, 'compass': -154.78, 'pitch': 3.67, 'roll': 1.19}
{'lipoC2': 0.0, 'temp': 0.0, 'lipoC3S3': 12.26, 'state': 'normal', 'rot1': 81, 'rot0': 79, 'rot3': 0, 'rot2': 0, 'depth': 1.843, 'yaw': -109.16, 'datetime': '2018-12-18 17:31:11.714290', 'mgs': 0, 'flw2': 2.95, 'flw1': 0.0, 'flw0': 2.99, 'time': 21.26, 'compass': -155.13, 'pitch': 3.66, 'roll': 1.33}
{'lipoC2': 0.0, 'temp': 0.0, 'lipoC3S3': 12.27, 'state': 'normal', 'rot1': 83, 'rot0': 81, 'rot3': 0, 'rot2': 1, 'depth': -0.598, 'yaw': -109.73, 'datetime': '2018-12-18 17:31:11.924241', 'mgs': 0, 'flw2': 2.87, 'flw1': 3.66, 'flw0': 0.61, 'time': 21.47, 'compass': -155.69, 'pitch': 4.18, 'roll': 1.15}
{'lipoC2': 0.02, 'temp': 0.0, 'lipoC3S3': 12.54, 'state': 'normal', 'rot1': 84, 'rot0': 84, 'rot3': 1, 'rot2': 2, 'depth': 1.614, 'yaw': -109.04, 'datetime': '2018-12-18 17:31:12.134713', 'mgs': 0, 'flw2': 2.61, 'flw1': 0.35, 'flw0': 0.89, 'time': 21.68, 'compass': -155.0, 'pitch': 4.15, 'roll': 0.74}
{'lipoC2': 0.1, 'temp': 0.0, 'lipoC3S3': 12.46, 'state': 'normal', 'rot1': 86, 'rot0': 86, 'rot3': 1, 'rot2': 2, 'depth': -1.819, 'yaw': -106.65, 'datetime': '2018-12-18 17:31:12.342224', 'mgs': 0, 'flw2': 2.97, 'flw1': 0.0, 'flw0': 0.87, 'time': 21.88, 'compass': -152.61, 'pitch': 3.02, 'roll': 0.65}
{'lipoC2': 0.16, 'temp': 0.0, 'lipoC3S3': 12.31, 'state': 'normal', 'rot1': 88, 'rot0': 89, 'rot3': 1, 'rot2': 2, 'depth': 1.004, 'yaw': -103.05, 'datetime': '2018-12-18 17:31:12.550996', 'mgs': 0, 'flw2': 2.8, 'flw1': 0.0, 'flw0': 3.14, 'time': 22.09, 'compass': -149.02, 'pitch': 1.65, 'roll': 1.04}
{'lipoC2': 0.18, 'temp': 0.0, 'lipoC3S3': 12.31, 'state': 'normal', 'rot1': 90, 'rot0': 92, 'rot3': 1, 'rot2': 2, 'depth': 1.843, 'yaw': -100.3, 'datetime': '2018-12-18 17:31:12.759402', 'mgs': 0, 'flw2': 2.95, 'flw1': 3.46, 'flw0': 2.97, 'time': 22.3, 'compass': -146.26, 'pitch': 2.11, 'roll': 1.66}
{'lipoC2': 0.0, 'temp': 0.0, 'lipoC3S3': 12.43, 'state': 'normal', 'rot1': 93, 'rot0': 93, 'rot3': 2, 'rot2': 3, 'depth': 0.775, 'yaw': -98.78, 'datetime': '2018-12-18 17:31:12.969306', 'mgs': 0, 'flw2': 0.65, 'flw1': 2.46, 'flw0': 2.97, 'time': 22.51, 'compass': -144.75, 'pitch': 3.17, 'roll': 1.54}
{'lipoC2': 0.0, 'temp': 0.0, 'lipoC3S3': 12.6, 'state': 'normal', 'rot1': 96, 'rot0': 95, 'rot3': 3, 'rot2': 3, 'depth': 1.691, 'yaw': -99.36, 'datetime': '2018-12-18 17:31:13.178653', 'mgs': 0, 'flw2': 0.39, 'flw1': 0.26, 'flw0': 3.14, 'time': 22.72, 'compass': -145.33, 'pitch': 2.37, 'roll': 0.87}
{'lipoC2': 0.08, 'temp': 0.0, 'lipoC3S3': 12.21, 'state': 'normal', 'rot1': 98, 'rot0': 96, 'rot3': 3, 'rot2': 3, 'depth': 1.385, 'yaw': -102.19, 'datetime': '2018-12-18 17:31:13.388114', 'mgs': 0, 'flw2': 0.94, 'flw1': 0.0, 'flw0': 2.71, 'time': 22.93, 'compass': -148.16, 'pitch': 0.63, 'roll': 0.24}
{'lipoC2': 0.12, 'temp': 0.0, 'lipoC3S3': 12.18, 'state': 'normal', 'rot1': 100, 'rot0': 97, 'rot3': 3, 'rot2': 3, 'depth': 0.47, 'yaw': -105.71, 'datetime': '2018-12-18 17:31:13.596991', 'mgs': 0, 'flw2': 0.2, 'flw1': 0.15, 'flw0': 0.0, 'time': 23.14, 'compass': -151.67, 'pitch': 0.13, 'roll': 0.08}
{'lipoC2': 0.0, 'temp': 0.0, 'lipoC3S3': 12.64, 'state': 'normal', 'rot1': 101, 'rot0': 97, 'rot3': 3, 'rot2': 3, 'depth': 1.996, 'yaw': -107.79, 'datetime': '2018-12-18 17:31:13.806184', 'mgs': 0, 'flw2': 0.0, 'flw1': 0.0, 'flw0': 0.23, 'time': 23.35, 'compass': -153.76, 'pitch': -0.5, 'roll': 0.61}
{'lipoC2': 0.0, 'temp': 0.0, 'lipoC3S3': 12.47, 'state': 'normal', 'rot1': 101, 'rot0': 97, 'rot3': 3, 'rot2': 3, 'depth': 0.775, 'yaw': -109.0, 'datetime': '2018-12-18 17:31:14.014466', 'mgs': 0, 'flw2': 0.18, 'flw1': 0.0, 'flw0': 0.0, 'time': 23.56, 'compass': -154.97, 'pitch': -1.38, 'roll': 1.15}
{'lipoC2': 0.0, 'temp': 0.0, 'lipoC3S3': 12.38, 'state': 'normal', 'rot1': 101, 'rot0': 97, 'rot3': 3, 'rot2': 3, 'depth': 0.928, 'yaw': -110.24, 'datetime': '2018-12-18 17:31:14.224759', 'mgs': 0, 'flw2': 0.12, 'flw1': 0.0, 'flw0': 0.12, 'time': 23.76, 'compass': -156.2, 'pitch': -1.33, 'roll': 1.48}
{'lipoC2': 0.02, 'temp': 0.0, 'lipoC3S3': 12.47, 'state': 'normal', 'rot1': 101, 'rot0': 98, 'rot3': 3, 'rot2': 3, 'depth': -1.132, 'yaw': -110.96, 'datetime': '2018-12-18 17:31:14.431434', 'mgs': 0, 'flw2': 3.26, 'flw1': 0.0, 'flw0': 1.06, 'time': 23.97, 'compass': -156.92, 'pitch': -0.63, 'roll': 1.47}
{'lipoC2': 0.14, 'temp': 0.0, 'lipoC3S3': 12.39, 'state': 'normal', 'rot1': 103, 'rot0': 101, 'rot3': 3, 'rot2': 3, 'depth': -1.971, 'yaw': -109.96, 'datetime': '2018-12-18 17:31:14.641716', 'mgs': 0, 'flw2': 2.94, 'flw1': 0.56, 'flw0': 0.76, 'time': 24.18, 'compass': -155.92, 'pitch': 1.12, 'roll': 1.41}
{'lipoC2': 0.0, 'temp': 0.0, 'lipoC3S3': 12.52, 'state': 'normal', 'rot1': 105, 'rot0': 104, 'rot3': 3, 'rot2': 3, 'depth': -1.437, 'yaw': -107.13, 'datetime': '2018-12-18 17:31:14.850099', 'mgs': 0, 'flw2': 3.13, 'flw1': 0.0, 'flw0': 0.46, 'time': 24.39, 'compass': -153.1, 'pitch': 2.4, 'roll': 1.44}
{'lipoC2': 0.14, 'temp': 0.0, 'lipoC3S3': 12.27, 'state': 'normal', 'rot1': 107, 'rot0': 107, 'rot3': 3, 'rot2': 3, 'depth': 0.775, 'yaw': -104.04, 'datetime': '2018-12-18 17:31:15.063166', 'mgs': 0, 'flw2': 2.86, 'flw1': 0.47, 'flw0': 0.77, 'time': 24.6, 'compass': -150.0, 'pitch': 2.29, 'roll': 1.72}
{'lipoC2': 0.09, 'temp': 0.0, 'lipoC3S3': 12.47, 'state': 'normal', 'rot1': 109, 'rot0': 110, 'rot3': 3, 'rot2': 3, 'depth': -2.048, 'yaw': -99.66, 'datetime': '2018-12-18 17:31:15.272578', 'mgs': 0, 'flw2': 2.47, 'flw1': 0.35, 'flw0': 3.28, 'time': 24.81, 'compass': -145.62, 'pitch': 1.93, 'roll': 2.37}
{'lipoC2': 0.13, 'temp': 0.0, 'lipoC3S3': 12.21, 'state': 'normal', 'rot1': 111, 'rot0': 113, 'rot3': 3, 'rot2': 3, 'depth': 1.004, 'yaw': -95.9, 'datetime': '2018-12-18 17:31:15.486048', 'mgs': 0, 'flw2': 2.99, 'flw1': 0.21, 'flw0': 2.78, 'time': 25.02, 'compass': -141.86, 'pitch': 3.07, 'roll': 2.91}
{'lipoC2': 0.11, 'temp': 0.0, 'lipoC3S3': 12.45, 'state': 'normal', 'rot1': 113, 'rot0': 114, 'rot3': 3, 'rot2': 3, 'depth': -1.743, 'yaw': -94.62, 'datetime': '2018-12-18 17:31:15.691556', 'mgs': 0, 'flw2': 0.93, 'flw1': 0.0, 'flw0': 3.0, 'time': 25.23, 'compass': -140.59, 'pitch': 4.31, 'roll': 2.89}
{'lipoC2': 0.01, 'temp': 0.0, 'lipoC3S3': 12.51, 'state': 'normal', 'rot1': 116, 'rot0': 116, 'rot3': 3, 'rot2': 3, 'depth': 0.165, 'yaw': -95.51, 'datetime': '2018-12-18 17:31:15.901208', 'mgs': 0, 'flw2': 0.93, 'flw1': 0.0, 'flw0': 2.84, 'time': 25.44, 'compass': -141.47, 'pitch': 3.44, 'roll': 2.28}
{'lipoC2': 0.0, 'temp': 0.0, 'lipoC3S3': 12.62, 'state': 'normal', 'rot1': 119, 'rot0': 117, 'rot3': 3, 'rot2': 3, 'depth': 1.767, 'yaw': -98.29, 'datetime': '2018-12-18 17:31:16.110960', 'mgs': 0, 'flw2': 0.49, 'flw1': 0.06, 'flw0': 3.08, 'time': 25.65, 'compass': -144.26, 'pitch': 2.2, 'roll': 1.75}
{'lipoC2': 0.13, 'temp': 0.0, 'lipoC3S3': 12.42, 'state': 'normal', 'rot1': 121, 'rot0': 119, 'rot3': 3, 'rot2': 3, 'depth': -1.514, 'yaw': -102.08, 'datetime': '2018-12-18 17:31:16.320647', 'mgs': 0, 'flw2': 0.94, 'flw1': 0.0, 'flw0': 3.09, 'time': 25.86, 'compass': -148.05, 'pitch': 1.91, 'roll': 1.37}
{'lipoC2': 0.0, 'temp': 0.0, 'lipoC3S3': 12.23, 'state': 'normal', 'rot1': 124, 'rot0': 120, 'rot3': 3, 'rot2': 3, 'depth': 1.843, 'yaw': -105.97, 'datetime': '2018-12-18 17:31:16.530447', 'mgs': 0, 'flw2': 3.21, 'flw1': 0.15, 'flw0': 2.51, 'time': 26.06, 'compass': -151.94, 'pitch': 2.29, 'roll': 0.96}
{'lipoC2': 0.02, 'temp': 0.0, 'lipoC3S3': 12.51, 'state': 'normal', 'rot1': 127, 'rot0': 123, 'rot3': 3, 'rot2': 3, 'depth': 2.072, 'yaw': -108.68, 'datetime': '2018-12-18 17:31:16.739319', 'mgs': 0, 'flw2': 3.08, 'flw1': 0.0, 'flw0': 2.77, 'time': 26.27, 'compass': -154.65, 'pitch': 2.97, 'roll': 0.82}
{'lipoC2': 0.0, 'temp': 0.0, 'lipoC3S3': 12.63, 'state': 'normal', 'rot1': 129, 'rot0': 126, 'rot3': 3, 'rot2': 3, 'depth': 1.767, 'yaw': -109.71, 'datetime': '2018-12-18 17:31:16.950708', 'mgs': 0, 'flw2': 2.87, 'flw1': 0.0, 'flw0': 1.04, 'time': 26.48, 'compass': -155.68, 'pitch': 3.05, 'roll': 1.11}
{'lipoC2': 0.0, 'temp': 0.0, 'lipoC3S3': 12.62, 'state': 'normal', 'rot1': 131, 'rot0': 128, 'rot3': 3, 'rot2': 3, 'depth': 1.996, 'yaw': -108.51, 'datetime': '2018-12-18 17:31:17.159376', 'mgs': 0, 'flw2': 3.05, 'flw1': 0.12, 'flw0': 0.43, 'time': 26.69, 'compass': -154.48, 'pitch': 1.92, 'roll': 1.74}
{'lipoC2': 0.0, 'temp': 0.0, 'lipoC3S3': 12.64, 'state': 'normal', 'rot1': 131, 'rot0': 129, 'rot3': 3, 'rot2': 3, 'depth': 1.767, 'yaw': -106.59, 'datetime': '2018-12-18 17:31:17.367908', 'mgs': 0, 'flw2': 0.0, 'flw1': 0.0, 'flw0': 0.22, 'time': 26.9, 'compass': -152.56, 'pitch': 0.63, 'roll': 2.16}
{'lipoC2': 0.0, 'temp': 0.0, 'lipoC3S3': 12.63, 'state': 'normal', 'rot1': 131, 'rot0': 129, 'rot3': 3, 'rot2': 3, 'depth': 1.691, 'yaw': -105.17, 'datetime': '2018-12-18 17:31:17.577597', 'mgs': 0, 'flw2': 0.18, 'flw1': 0.0, 'flw0': 0.22, 'time': 27.11, 'compass': -151.13, 'pitch': -0.94, 'roll': 2.11}
{'lipoC2': 0.1, 'temp': 0.0, 'lipoC3S3': 12.45, 'state': 'normal', 'rot1': 133, 'rot0': 130, 'rot3': 3, 'rot2': 3, 'depth': -2.048, 'yaw': -104.12, 'datetime': '2018-12-18 17:31:17.786928', 'mgs': 0, 'flw2': 2.87, 'flw1': 0.53, 'flw0': 2.93, 'time': 27.32, 'compass': -150.08, 'pitch': -0.64, 'roll': 1.68}
{'lipoC2': 0.0, 'temp': 0.0, 'lipoC3S3': 12.63, 'state': 'normal', 'rot1': 136, 'rot0': 133, 'rot3': 3, 'rot2': 3, 'depth': 1.691, 'yaw': -103.42, 'datetime': '2018-12-18 17:31:17.996572', 'mgs': 0, 'flw2': 2.88, 'flw1': 0.0, 'flw0': 3.17, 'time': 27.53, 'compass': -149.38, 'pitch': 2.34, 'roll': 1.23}
{'lipoC2': 0.06, 'temp': 0.0, 'lipoC3S3': 12.21, 'state': 'normal', 'rot1': 138, 'rot0': 136, 'rot3': 3, 'rot2': 3, 'depth': 1.614, 'yaw': -102.88, 'datetime': '2018-12-18 17:31:18.206374', 'mgs': 0, 'flw2': 3.1, 'flw1': 4.51, 'flw0': 2.69, 'time': 27.74, 'compass': -148.84, 'pitch': 3.53, 'roll': 1.06}
{'lipoC2': 0.0, 'temp': 0.0, 'lipoC3S3': 12.64, 'state': 'normal', 'rot1': 141, 'rot0': 138, 'rot3': 4, 'rot2': 4, 'depth': 1.767, 'yaw': -103.02, 'datetime': '2018-12-18 17:31:18.417245', 'mgs': 0, 'flw2': 2.69, 'flw1': 3.05, 'flw0': 3.23, 'time': 27.95, 'compass': -148.99, 'pitch': 3.39, 'roll': 0.57}
{'lipoC2': 0.06, 'temp': 0.0, 'lipoC3S3': 12.47, 'state': 'normal', 'rot1': 143, 'rot0': 141, 'rot3': 4, 'rot2': 4, 'depth': -1.819, 'yaw': -102.92, 'datetime': '2018-12-18 17:31:18.627337', 'mgs': 0, 'flw2': 3.11, 'flw1': 0.0, 'flw0': 2.88, 'time': 28.16, 'compass': -148.89, 'pitch': 3.56, 'roll': 0.06}
{'lipoC2': 0.0, 'temp': 0.0, 'lipoC3S3': 12.21, 'state': 'normal', 'rot1': 146, 'rot0': 143, 'rot3': 4, 'rot2': 4, 'depth': -1.132, 'yaw': -102.43, 'datetime': '2018-12-18 17:31:18.835947', 'mgs': 0, 'flw2': 2.94, 'flw1': 0.23, 'flw0': 2.7, 'time': 28.37, 'compass': -148.39, 'pitch': 3.51, 'roll': -0.11}
{'lipoC2': 0.0, 'temp': 0.0, 'lipoC3S3': 12.54, 'state': 'normal', 'rot1': 149, 'rot0': 146, 'rot3': 4, 'rot2': 4, 'depth': 1.614, 'yaw': -101.78, 'datetime': '2018-12-18 17:31:19.045664', 'mgs': 0, 'flw2': 2.81, 'flw1': 0.44, 'flw0': 3.09, 'time': 28.58, 'compass': -147.74, 'pitch': 3.21, 'roll': 0.29}
{'lipoC2': 0.0, 'temp': 0.0, 'lipoC3S3': 12.5, 'state': 'normal', 'rot1': 151, 'rot0': 148, 'rot3': 4, 'rot2': 4, 'depth': -1.361, 'yaw': -101.17, 'datetime': '2018-12-18 17:31:19.254830', 'mgs': 0, 'flw2': 0.83, 'flw1': 0.0, 'flw0': 2.83, 'time': 28.79, 'compass': -147.14, 'pitch': 3.11, 'roll': 1.03}
{'lipoC2': 0.06, 'temp': 0.0, 'lipoC3S3': 12.48, 'state': 'normal', 'rot1': 154, 'rot0': 150, 'rot3': 4, 'rot2': 4, 'depth': -1.743, 'yaw': -101.93, 'datetime': '2018-12-18 17:31:19.466260', 'mgs': 0, 'flw2': 0.4, 'flw1': 0.26, 'flw0': 3.04, 'time': 29.0, 'compass': -147.9, 'pitch': 2.83, 'roll': 1.55}
{'lipoC2': 0.06, 'temp': 0.0, 'lipoC3S3': 12.21, 'state': 'normal', 'rot1': 157, 'rot0': 152, 'rot3': 4, 'rot2': 4, 'depth': 0.317, 'yaw': -103.75, 'datetime': '2018-12-18 17:31:19.676800', 'mgs': 0, 'flw2': 3.05, 'flw1': 0.0, 'flw0': 2.55, 'time': 29.21, 'compass': -149.71, 'pitch': 2.59, 'roll': 1.66}
{'lipoC2': 0.0, 'temp': 0.0, 'lipoC3S3': 12.41, 'state': 'normal', 'rot1': 159, 'rot0': 154, 'rot3': 4, 'rot2': 4, 'depth': 0.623, 'yaw': -104.8, 'datetime': '2018-12-18 17:31:19.885930', 'mgs': 0, 'flw2': 2.94, 'flw1': 0.0, 'flw0': 3.04, 'time': 29.42, 'compass': -150.77, 'pitch': 3.04, 'roll': 1.68}
{'lipoC2': 0.0, 'temp': 0.0, 'lipoC3S3': 12.46, 'state': 'normal', 'rot1': 162, 'rot0': 156, 'rot3': 4, 'rot2': 4, 'depth': 0.699, 'yaw': -105.6, 'datetime': '2018-12-18 17:31:20.095530', 'mgs': 0, 'flw2': 3.04, 'flw1': 0.0, 'flw0': 2.93, 'time': 29.63, 'compass': -151.57, 'pitch': 3.29, 'roll': 1.84}
{'lipoC2': 0.0, 'temp': 0.0, 'lipoC3S3': 12.62, 'state': 'normal', 'rot1': 163, 'rot0': 158, 'rot3': 4, 'rot2': 4, 'depth': -0.598, 'yaw': -105.76, 'datetime': '2018-12-18 17:31:20.304192', 'mgs': 0, 'flw2': 0.1, 'flw1': 0.41, 'flw0': 0.0, 'time': 29.83, 'compass': -151.73, 'pitch': 2.79, 'roll': 2.14}
{'lipoC2': 0.01, 'temp': 0.0, 'lipoC3S3': 12.5, 'state': 'normal', 'rot1': 163, 'rot0': 158, 'rot3': 4, 'rot2': 4, 'depth': 1.538, 'yaw': -105.59, 'datetime': '2018-12-18 17:31:20.514872', 'mgs': 0, 'flw2': 0.0, 'flw1': 0.41, 'flw0': 0.04, 'time': 30.04, 'compass': -151.56, 'pitch': 0.32, 'roll': 2.16}
{'lipoC2': 0.16, 'temp': 0.0, 'lipoC3S3': 12.22, 'state': 'normal', 'rot1': 163, 'rot0': 158, 'rot3': 4, 'rot2': 4, 'depth': 0.851, 'yaw': -105.6, 'datetime': '2018-12-18 17:31:20.723111', 'mgs': 0, 'flw2': 0.13, 'flw1': 0.35, 'flw0': 0.0, 'time': 30.25, 'compass': -151.56, 'pitch': -1.33, 'roll': 1.86}
{'lipoC2': 0.0, 'temp': 0.0, 'lipoC3S3': 12.41, 'state': 'normal', 'rot1': 166, 'rot0': 160, 'rot3': 4, 'rot2': 4, 'depth': 0.851, 'yaw': -105.61, 'datetime': '2018-12-18 17:31:20.931848', 'mgs': 0, 'flw2': 2.97, 'flw1': 0.32, 'flw0': 2.82, 'time': 30.46, 'compass': -151.58, 'pitch': -0.53, 'roll': 1.63}
{'lipoC2': 0.17, 'temp': 0.0, 'lipoC3S3': 12.21, 'state': 'normal', 'rot1': 169, 'rot0': 163, 'rot3': 4, 'rot2': 4, 'depth': 0.928, 'yaw': -105.76, 'datetime': '2018-12-18 17:31:21.141462', 'mgs': 0, 'flw2': 2.92, 'flw1': 0.09, 'flw0': 2.58, 'time': 30.67, 'compass': -151.73, 'pitch': 2.43, 'roll': 1.41}
{'lipoC2': 0.12, 'temp': 0.0, 'lipoC3S3': 12.18, 'state': 'normal', 'rot1': 172, 'rot0': 166, 'rot3': 4, 'rot2': 4, 'depth': 0.394, 'yaw': -106.0, 'datetime': '2018-12-18 17:31:21.349913', 'mgs': 0, 'flw2': 2.49, 'flw1': 0.15, 'flw0': 3.17, 'time': 30.88, 'compass': -151.97, 'pitch': 3.66, 'roll': 1.14}
{'lipoC2': 0.08, 'temp': 0.0, 'lipoC3S3': 12.19, 'state': 'normal', 'rot1': 174, 'rot0': 169, 'rot3': 4, 'rot2': 4, 'depth': 1.767, 'yaw': -106.16, 'datetime': '2018-12-18 17:31:21.563094', 'mgs': 0, 'flw2': 3.06, 'flw1': 0.0, 'flw0': 2.67, 'time': 31.09, 'compass': -152.13, 'pitch': 2.81, 'roll': 0.87}
{'lipoC2': 0.0, 'temp': 0.0, 'lipoC3S3': 12.42, 'state': 'normal', 'rot1': 177, 'rot0': 171, 'rot3': 4, 'rot2': 4, 'depth': 0.546, 'yaw': -106.16, 'datetime': '2018-12-18 17:31:21.772079', 'mgs': 0, 'flw2': 2.98, 'flw1': 0.0, 'flw0': 2.93, 'time': 31.3, 'compass': -152.13, 'pitch': 2.44, 'roll': 0.65}
{'lipoC2': 0.1, 'temp': 0.0, 'lipoC3S3': 12.19, 'state': 'normal', 'rot1': 180, 'rot0': 174, 'rot3': 4, 'rot2': 4, 'depth': 1.385, 'yaw': -105.87, 'datetime': '2018-12-18 17:31:21.983299', 'mgs': 0, 'flw2': 2.92, 'flw1': 0.0, 'flw0': 3.04, 'time': 31.51, 'compass': -151.84, 'pitch': 3.05, 'roll': 0.7}
{'lipoC2': 0.05, 'temp': 0.0, 'lipoC3S3': 12.22, 'state': 'normal', 'rot1': 183, 'rot0': 176, 'rot3': 4, 'rot2': 4, 'depth': 0.47, 'yaw': -105.53, 'datetime': '2018-12-18 17:31:22.193682', 'mgs': 0, 'flw2': 3.09, 'flw1': 0.0, 'flw0': 2.49, 'time': 31.72, 'compass': -151.5, 'pitch': 3.92, 'roll': 0.92}
{'lipoC2': 0.0, 'temp': 0.0, 'lipoC3S3': 12.63, 'state': 'normal', 'rot1': 185, 'rot0': 179, 'rot3': 4, 'rot2': 4, 'depth': 0.165, 'yaw': -105.37, 'datetime': '2018-12-18 17:31:22.402814', 'mgs': 0, 'flw2': 2.93, 'flw1': 0.23, 'flw0': 2.64, 'time': 31.93, 'compass': -151.34, 'pitch': 4.12, 'roll': 0.95}
{'lipoC2': 0.03, 'temp': 0.0, 'lipoC3S3': 12.23, 'state': 'normal', 'rot1': 188, 'rot0': 181, 'rot3': 4, 'rot2': 4, 'depth': 0.241, 'yaw': -105.2, 'datetime': '2018-12-18 17:31:22.611668', 'mgs': 0, 'flw2': 2.88, 'flw1': 0.0, 'flw0': 2.65, 'time': 32.14, 'compass': -151.16, 'pitch': 3.77, 'roll': 0.97}
{'lipoC2': 0.12, 'temp': 0.0, 'lipoC3S3': 12.42, 'state': 'normal', 'rot1': 190, 'rot0': 184, 'rot3': 4, 'rot2': 4, 'depth': -1.666, 'yaw': -105.06, 'datetime': '2018-12-18 17:31:22.820519', 'mgs': 0, 'flw2': 2.95, 'flw1': 0.0, 'flw0': 3.04, 'time': 32.35, 'compass': -151.02, 'pitch': 3.42, 'roll': 1.12}
{'lipoC2': 0.12, 'temp': 0.0, 'lipoC3S3': 12.19, 'state': 'normal', 'rot1': 193, 'rot0': 187, 'rot3': 4, 'rot2': 4, 'depth': 0.623, 'yaw': -104.83, 'datetime': '2018-12-18 17:31:23.029438', 'mgs': 0, 'flw2': 3.0, 'flw1': 0.0, 'flw0': 2.62, 'time': 32.56, 'compass': -150.79, 'pitch': 3.4, 'roll': 1.22}
{'lipoC2': 0.0, 'temp': 0.0, 'lipoC3S3': 12.45, 'state': 'normal', 'rot1': 195, 'rot0': 189, 'rot3': 4, 'rot2': 4, 'depth': 0.089, 'yaw': -104.58, 'datetime': '2018-12-18 17:31:23.242943', 'mgs': 0, 'flw2': 2.78, 'flw1': 0.47, 'flw0': 3.05, 'time': 32.77, 'compass': -150.55, 'pitch': 3.41, 'roll': 1.2}
{'lipoC2': 0.16, 'temp': 0.0, 'lipoC3S3': 12.3, 'state': 'normal', 'rot1': 196, 'rot0': 190, 'rot3': 4, 'rot2': 4, 'depth': -0.751, 'yaw': -103.47, 'datetime': '2018-12-18 17:31:23.450160', 'mgs': 0, 'flw2': 0.0, 'flw1': 0.0, 'flw0': 0.2, 'time': 32.98, 'compass': -149.43, 'pitch': 2.17, 'roll': 1.18}
{'lipoC2': 0.0, 'temp': 0.0, 'lipoC3S3': 12.41, 'state': 'normal', 'rot1': 196, 'rot0': 190, 'rot3': 4, 'rot2': 4, 'depth': 0.928, 'yaw': -101.98, 'datetime': '2018-12-18 17:31:23.659834', 'mgs': 0, 'flw2': 0.0, 'flw1': 0.47, 'flw0': 0.0, 'time': 33.19, 'compass': -147.95, 'pitch': -0.57, 'roll': 1.18}
{'lipoC2': 0.17, 'temp': 0.0, 'lipoC3S3': 12.27, 'state': 'normal', 'rot1': 196, 'rot0': 190, 'rot3': 4, 'rot2': 4, 'depth': 1.233, 'yaw': -101.2, 'datetime': '2018-12-18 17:31:23.868551', 'mgs': 0, 'flw2': 0.04, 'flw1': 0.0, 'flw0': 0.16, 'time': 33.39, 'compass': -147.16, 'pitch': -1.37, 'roll': 1.21}
{'lipoC2': 0.1, 'temp': 0.0, 'lipoC3S3': 12.45, 'state': 'normal', 'rot1': 196, 'rot0': 190, 'rot3': 4, 'rot2': 4, 'depth': -2.048, 'yaw': -100.2, 'datetime': '2018-12-18 17:31:24.078225', 'mgs': 0, 'flw2': 0.0, 'flw1': 0.44, 'flw0': 0.0, 'time': 33.6, 'compass': -146.17, 'pitch': -0.66, 'roll': 1.1}
{'lipoC2': 0.03, 'temp': 0.0, 'lipoC3S3': 12.25, 'state': 'normal', 'rot1': 196, 'rot0': 190, 'rot3': 4, 'rot2': 4, 'depth': 0.089, 'yaw': -99.32, 'datetime': '2018-12-18 17:31:24.287810', 'mgs': 0, 'flw2': 0.23, 'flw1': 0.0, 'flw0': 0.0, 'time': 33.81, 'compass': -145.28, 'pitch': -0.18, 'roll': 1.03}
{'lipoC2': 0.03, 'temp': 0.0, 'lipoC3S3': 12.5, 'state': 'normal', 'rot1': 197, 'rot0': 191, 'rot3': 4, 'rot2': 4, 'depth': 1.767, 'yaw': -98.9, 'datetime': '2018-12-18 17:31:24.495233', 'mgs': 0, 'flw2': 0.51, 'flw1': 0.67, 'flw0': 0.31, 'time': 34.02, 'compass': -144.86, 'pitch': -0.34, 'roll': 1.03}
{'lipoC2': 0.06, 'temp': 0.0, 'lipoC3S3': 12.22, 'state': 'normal', 'rot1': 197, 'rot0': 192, 'rot3': 4, 'rot2': 4, 'depth': 1.385, 'yaw': -99.65, 'datetime': '2018-12-18 17:31:24.705312', 'mgs': 0, 'flw2': 0.0, 'flw1': 0.15, 'flw0': 0.57, 'time': 34.23, 'compass': -145.61, 'pitch': -0.5, 'roll': 1.02}
{'lipoC2': 0.0, 'temp': 0.0, 'lipoC3S3': 12.51, 'state': 'normal', 'rot1': 199, 'rot0': 193, 'rot3': 4, 'rot2': 4, 'depth': 1.309, 'yaw': -100.87, 'datetime': '2018-12-18 17:31:24.913828', 'mgs': 0, 'flw2': 0.55, 'flw1': 0.0, 'flw0': 0.27, 'time': 34.44, 'compass': -146.83, 'pitch': -0.37, 'roll': 1.0}
{'lipoC2': 0.0, 'temp': 0.0, 'lipoC3S3': 12.45, 'state': 'normal', 'rot1': 201, 'rot0': 194, 'rot3': 4, 'rot2': 4, 'depth': 0.089, 'yaw': -101.17, 'datetime': '2018-12-18 17:31:25.127798', 'mgs': 0, 'flw2': 0.54, 'flw1': 0.0, 'flw0': 0.42, 'time': 34.65, 'compass': -147.14, 'pitch': -0.25, 'roll': 0.98}
{'lipoC2': 0.09, 'temp': 0.0, 'lipoC3S3': 12.19, 'state': 'normal', 'rot1': 202, 'rot0': 195, 'rot3': 4, 'rot2': 4, 'depth': 1.233, 'yaw': -103.38, 'datetime': '2018-12-18 17:31:25.336506', 'mgs': 0, 'flw2': 0.33, 'flw1': 0.0, 'flw0': 0.6, 'time': 34.86, 'compass': -149.35, 'pitch': -0.29, 'roll': 0.98}
{'lipoC2': 0.0, 'temp': 0.0, 'lipoC3S3': 12.46, 'state': 'normal', 'rot1': 203, 'rot0': 196, 'rot3': 4, 'rot2': 4, 'depth': 0.699, 'yaw': -105.66, 'datetime': '2018-12-18 17:31:25.545561', 'mgs': 0, 'flw2': 0.05, 'flw1': 0.35, 'flw0': 0.49, 'time': 35.07, 'compass': -151.63, 'pitch': -0.33, 'roll': 0.96}
{'lipoC2': 0.12, 'temp': 0.0, 'lipoC3S3': 12.56, 'state': 'normal', 'rot1': 203, 'rot0': 196, 'rot3': 4, 'rot2': 4, 'depth': -2.2, 'yaw': -107.86, 'datetime': '2018-12-18 17:31:25.756086', 'mgs': 0, 'flw2': 0.0, 'flw1': 0.44, 'flw0': 0.0, 'time': 35.28, 'compass': -153.83, 'pitch': -0.26, 'roll': 0.94}
{'lipoC2': 0.01, 'temp': 0.0, 'lipoC3S3': 12.51, 'state': 'normal', 'rot1': 203, 'rot0': 197, 'rot3': 4, 'rot2': 4, 'depth': -1.132, 'yaw': -109.39, 'datetime': '2018-12-18 17:31:25.966731', 'mgs': 0, 'flw2': 3.56, 'flw1': 0.0, 'flw0': 3.09, 'time': 35.49, 'compass': -155.36, 'pitch': -0.18, 'roll': 1.03}
{'lipoC2': 0.0, 'temp': 0.0, 'lipoC3S3': 12.34, 'state': 'normal', 'rot1': 206, 'rot0': 199, 'rot3': 4, 'rot2': 4, 'depth': 1.233, 'yaw': -111.04, 'datetime': '2018-12-18 17:31:26.175971', 'mgs': 0, 'flw2': 2.83, 'flw1': 0.0, 'flw0': 3.03, 'time': 35.7, 'compass': -157.0, 'pitch': 1.97, 'roll': 1.11}
{'lipoC2': 0.05, 'temp': 0.0, 'lipoC3S3': 12.5, 'state': 'normal', 'rot1': 209, 'rot0': 202, 'rot3': 4, 'rot2': 4, 'depth': -1.743, 'yaw': -112.47, 'datetime': '2018-12-18 17:31:26.384651', 'mgs': 0, 'flw2': 2.93, 'flw1': 0.0, 'flw0': 2.72, 'time': 35.91, 'compass': -158.43, 'pitch': 4.63, 'roll': 1.0}
{'lipoC2': 0.0, 'temp': 0.0, 'lipoC3S3': 12.46, 'state': 'normal', 'rot1': 211, 'rot0': 204, 'rot3': 4, 'rot2': 4, 'depth': 0.012, 'yaw': -113.4, 'datetime': '2018-12-18 17:31:26.594379', 'mgs': 0, 'flw2': 2.54, 'flw1': 0.29, 'flw0': 0.83, 'time': 36.12, 'compass': -159.37, 'pitch': 5.14, 'roll': 0.63}
{'lipoC2': 0.0, 'temp': 0.0, 'lipoC3S3': 12.46, 'state': 'normal', 'rot1': 212, 'rot0': 207, 'rot3': 4, 'rot2': 4, 'depth': 0.775, 'yaw': -111.95, 'datetime': '2018-12-18 17:31:26.804740', 'mgs': 0, 'flw2': 2.69, 'flw1': 0.53, 'flw0': 0.79, 'time': 36.32, 'compass': -157.91, 'pitch': 3.56, 'roll': 0.47}
{'lipoC2': 0.09, 'temp': 0.0, 'lipoC3S3': 12.47, 'state': 'normal', 'rot1': 214, 'rot0': 210, 'rot3': 4, 'rot2': 4, 'depth': -1.895, 'yaw': -109.2, 'datetime': '2018-12-18 17:31:27.015715', 'mgs': 0, 'flw2': 3.1, 'flw1': 0.0, 'flw0': 2.89, 'time': 36.53, 'compass': -155.16, 'pitch': 2.46, 'roll': 0.58}
{'lipoC2': 0.12, 'temp': 0.0, 'lipoC3S3': 12.45, 'state': 'normal', 'rot1': 217, 'rot0': 213, 'rot3': 4, 'rot2': 4, 'depth': 1.843, 'yaw': -107.24, 'datetime': '2018-12-18 17:31:27.225427', 'mgs': 0, 'flw2': 2.97, 'flw1': 0.0, 'flw0': 2.93, 'time': 36.74, 'compass': -153.21, 'pitch': 3.55, 'roll': 0.69}
{'lipoC2': 0.12, 'temp': 0.0, 'lipoC3S3': 12.45, 'state': 'normal', 'rot1': 220, 'rot0': 215, 'rot3': 4, 'rot2': 4, 'depth': -1.895, 'yaw': -106.04, 'datetime': '2018-12-18 17:31:27.433520', 'mgs': 0, 'flw2': 2.76, 'flw1': 0.59, 'flw0': 3.02, 'time': 36.95, 'compass': -152.01, 'pitch': 4.52, 'roll': 1.03}
{'lipoC2': 0.0, 'temp': 0.0, 'lipoC3S3': 12.45, 'state': 'normal', 'rot1': 223, 'rot0': 217, 'rot3': 4, 'rot2': 4, 'depth': 1.157, 'yaw': -105.27, 'datetime': '2018-12-18 17:31:27.643425', 'mgs': 0, 'flw2': 2.87, 'flw1': 0.59, 'flw0': 2.94, 'time': 37.16, 'compass': -151.24, 'pitch': 4.34, 'roll': 1.52}
{'lipoC2': 0.05, 'temp': 0.0, 'lipoC3S3': 12.21, 'state': 'normal', 'rot1': 226, 'rot0': 220, 'rot3': 4, 'rot2': 4, 'depth': 0.241, 'yaw': -104.81, 'datetime': '2018-12-18 17:31:27.852632', 'mgs': 0, 'flw2': 0.82, 'flw1': 0.03, 'flw0': 2.53, 'time': 37.37, 'compass': -150.77, 'pitch': 3.54, 'roll': 1.75}
{'lipoC2': 0.14, 'temp': 0.0, 'lipoC3S3': 12.39, 'state': 'normal', 'rot1': 229, 'rot0': 221, 'rot3': 5, 'rot2': 5, 'depth': -0.751, 'yaw': -105.75, 'datetime': '2018-12-18 17:31:28.062663', 'mgs': 0, 'flw2': 0.82, 'flw1': 3.34, 'flw0': 2.91, 'time': 37.58, 'compass': -151.71, 'pitch': 2.28, 'roll': 1.51}
{'lipoC2': 0.14, 'temp': 0.0, 'lipoC3S3': 12.39, 'state': 'normal', 'rot1': 231, 'rot0': 224, 'rot3': 6, 'rot2': 5, 'depth': 1.767, 'yaw': -107.62, 'datetime': '2018-12-18 17:31:28.273033', 'mgs': 0, 'flw2': 2.86, 'flw1': 2.14, 'flw0': 2.98, 'time': 37.79, 'compass': -153.59, 'pitch': 1.83, 'roll': 0.54}
{'lipoC2': 0.0, 'temp': 0.0, 'lipoC3S3': 12.47, 'state': 'normal', 'rot1': 234, 'rot0': 226, 'rot3': 6, 'rot2': 6, 'depth': 0.699, 'yaw': -108.65, 'datetime': '2018-12-18 17:31:28.482560', 'mgs': 0, 'flw2': 2.4, 'flw1': 0.41, 'flw0': 3.04, 'time': 38.0, 'compass': -154.61, 'pitch': 2.4, 'roll': -0.2}
{'lipoC2': 0.16, 'temp': 0.0, 'lipoC3S3': 12.33, 'state': 'normal', 'rot1': 234, 'rot0': 227, 'rot3': 6, 'rot2': 6, 'depth': 1.233, 'yaw': -109.14, 'datetime': '2018-12-18 17:31:28.692240', 'mgs': 0, 'flw2': 0.11, 'flw1': 0.0, 'flw0': 0.13, 'time': 38.21, 'compass': -155.1, 'pitch': 1.27, 'roll': -0.28}
{'lipoC2': 0.1, 'temp': 0.0, 'lipoC3S3': 12.45, 'state': 'normal', 'rot1': 234, 'rot0': 227, 'rot3': 6, 'rot2': 6, 'depth': -1.971, 'yaw': -109.4, 'datetime': '2018-12-18 17:31:28.905617', 'mgs': 0, 'flw2': 0.0, 'flw1': 0.38, 'flw0': 0.06, 'time': 38.42, 'compass': -155.36, 'pitch': -1.82, 'roll': 0.33}
{'lipoC2': 0.13, 'temp': 0.0, 'lipoC3S3': 12.43, 'state': 'normal', 'rot1': 234, 'rot0': 227, 'rot3': 6, 'rot2': 6, 'depth': -1.437, 'yaw': -109.65, 'datetime': '2018-12-18 17:31:29.113929', 'mgs': 0, 'flw2': 0.21, 'flw1': 0.0, 'flw0': 0.0, 'time': 38.63, 'compass': -155.62, 'pitch': -2.94, 'roll': 1.12}
{'lipoC2': 0.14, 'temp': 0.0, 'lipoC3S3': 12.42, 'state': 'normal', 'rot1': 234, 'rot0': 227, 'rot3': 6, 'rot2': 6, 'depth': 1.843, 'yaw': -109.91, 'datetime': '2018-12-18 17:31:29.325033', 'mgs': 0, 'flw2': 0.17, 'flw1': 0.0, 'flw0': 0.06, 'time': 38.84, 'compass': -155.88, 'pitch': -1.58, 'roll': 1.32}
{'lipoC2': 0.17, 'temp': 0.0, 'lipoC3S3': 12.23, 'state': 'normal', 'rot1': 236, 'rot0': 228, 'rot3': 6, 'rot2': 6, 'depth': 0.851, 'yaw': -110.2, 'datetime': '2018-12-18 17:31:29.528890', 'mgs': 0, 'flw2': 2.97, 'flw1': 0.06, 'flw0': 2.65, 'time': 39.05, 'compass': -156.16, 'pitch': 0.17, 'roll': 0.95}
{'lipoC2': 0.16, 'temp': 0.0, 'lipoC3S3': 12.21, 'state': 'normal', 'rot1': 239, 'rot0': 231, 'rot3': 6, 'rot2': 6, 'depth': 0.546, 'yaw': -110.73, 'datetime': '2018-12-18 17:31:29.739123', 'mgs': 0, 'flw2': 2.93, 'flw1': 0.06, 'flw0': 2.66, 'time': 39.26, 'compass': -156.69, 'pitch': 2.57, 'roll': 0.51}
{'lipoC2': 0.0, 'temp': 0.0, 'lipoC3S3': 12.46, 'state': 'normal', 'rot1': 242, 'rot0': 234, 'rot3': 6, 'rot2': 6, 'depth': 1.004, 'yaw': -111.42, 'datetime': '2018-12-18 17:31:29.947454', 'mgs': 0, 'flw2': 2.88, 'flw1': 0.0, 'flw0': 3.13, 'time': 39.47, 'compass': -157.39, 'pitch': 3.26, 'roll': 0.34}
{'lipoC2': 0.0, 'temp': 0.0, 'lipoC3S3': 12.42, 'state': 'normal', 'rot1': 245, 'rot0': 237, 'rot3': 6, 'rot2': 6, 'depth': 0.699, 'yaw': -112.15, 'datetime': '2018-12-18 17:31:30.165600', 'mgs': 0, 'flw2': 3.04, 'flw1': 0.0, 'flw0': 2.93, 'time': 39.67, 'compass': -158.12, 'pitch': 3.26, 'roll': 0.29}
{'lipoC2': 0.0, 'temp': 0.0, 'lipoC3S3': 12.46, 'state': 'normal', 'rot1': 248, 'rot0': 240, 'rot3': 6, 'rot2': 6, 'depth': 0.699, 'yaw': -112.67, 'datetime': '2018-12-18 17:31:30.374986', 'mgs': 0, 'flw2': 2.65, 'flw1': 0.56, 'flw0': 2.99, 'time': 39.88, 'compass': -158.64, 'pitch': 3.75, 'roll': 0.02}
{'lipoC2': 0.0, 'temp': 0.0, 'lipoC3S3': 12.23, 'state': 'normal', 'rot1': 250, 'rot0': 242, 'rot3': 6, 'rot2': 6, 'depth': -1.285, 'yaw': -113.01, 'datetime': '2018-12-18 17:31:30.584168', 'mgs': 0, 'flw2': 2.81, 'flw1': 0.0, 'flw0': 0.87, 'time': 40.09, 'compass': -158.97, 'pitch': 4.4, 'roll': -0.08}
{'lipoC2': 0.15, 'temp': 0.0, 'lipoC3S3': 12.39, 'state': 'normal', 'rot1': 252, 'rot0': 245, 'rot3': 6, 'rot2': 6, 'depth': -0.674, 'yaw': -112.01, 'datetime': '2018-12-18 17:31:30.795081', 'mgs': 0, 'flw2': 2.73, 'flw1': 0.41, 'flw0': 0.7, 'time': 40.3, 'compass': -157.98, 'pitch': 4.1, 'roll': 0.16}
{'lipoC2': 0.05, 'temp': 0.0, 'lipoC3S3': 12.19, 'state': 'normal', 'rot1': 254, 'rot0': 247, 'rot3': 6, 'rot2': 6, 'depth': 1.614, 'yaw': -109.97, 'datetime': '2018-12-18 17:31:31.004561', 'mgs': 0, 'flw2': 3.08, 'flw1': 0.09, 'flw0': 2.45, 'time': 40.51, 'compass': -155.94, 'pitch': 3.53, 'roll': 0.67}
{'lipoC2': 0.0, 'temp': 0.0, 'lipoC3S3': 12.43, 'state': 'normal', 'rot1': 256, 'rot0': 250, 'rot3': 6, 'rot2': 6, 'depth': 0.241, 'yaw': -108.63, 'datetime': '2018-12-18 17:31:31.214558', 'mgs': 0, 'flw2': 2.62, 'flw1': 0.53, 'flw0': 2.83, 'time': 40.72, 'compass': -154.6, 'pitch': 3.85, 'roll': 1.07}
{'lipoC2': 0.0, 'temp': 0.0, 'lipoC3S3': 12.45, 'state': 'normal', 'rot1': 259, 'rot0': 252, 'rot3': 6, 'rot2': 6, 'depth': -0.064, 'yaw': -107.6, 'datetime': '2018-12-18 17:31:31.422315', 'mgs': 0, 'flw2': 2.99, 'flw1': 0.0, 'flw0': 2.97, 'time': 40.93, 'compass': -153.57, 'pitch': 4.09, 'roll': 1.48}
{'lipoC2': 0.0, 'temp': 0.0, 'lipoC3S3': 12.62, 'state': 'normal', 'rot1': 261, 'rot0': 254, 'rot3': 6, 'rot2': 6, 'depth': 1.92, 'yaw': -107.38, 'datetime': '2018-12-18 17:31:31.631807', 'mgs': 0, 'flw2': 0.92, 'flw1': 0.29, 'flw0': 2.75, 'time': 41.14, 'compass': -153.35, 'pitch': 3.56, 'roll': 1.62}
{'lipoC2': 0.0, 'temp': 0.0, 'lipoC3S3': 12.45, 'state': 'normal', 'rot1': 265, 'rot0': 255, 'rot3': 7, 'rot2': 6, 'depth': 0.47, 'yaw': -109.17, 'datetime': '2018-12-18 17:31:31.842122', 'mgs': 0, 'flw2': 0.9, 'flw1': 2.96, 'flw0': 2.86, 'time': 41.35, 'compass': -155.13, 'pitch': 2.16, 'roll': 1.14}
{'lipoC2': 0.01, 'temp': 0.0, 'lipoC3S3': 12.25, 'state': 'normal', 'rot1': 265, 'rot0': 256, 'rot3': 7, 'rot2': 7, 'depth': 1.691, 'yaw': -111.94, 'datetime': '2018-12-18 17:31:32.051747', 'mgs': 0, 'flw2': 0.0, 'flw1': 0.0, 'flw0': 0.0, 'time': 41.56, 'compass': -157.91, 'pitch': 0.69, 'roll': 0.16}
{'lipoC2': 0.0, 'temp': 0.0, 'lipoC3S3': 12.25, 'state': 'normal', 'rot1': 265, 'rot0': 256, 'rot3': 7, 'rot2': 7, 'depth': -1.208, 'yaw': -113.85, 'datetime': '2018-12-18 17:31:32.261987', 'mgs': 0, 'flw2': 0.02, 'flw1': 0.0, 'flw0': 0.17, 'time': 41.77, 'compass': -159.82, 'pitch': -1.48, 'roll': -0.12}
{'lipoC2': 0.0, 'temp': 0.0, 'lipoC3S3': 12.63, 'state': 'normal', 'rot1': 266, 'rot0': 256, 'rot3': 7, 'rot2': 7, 'depth': 1.996, 'yaw': -115.73, 'datetime': '2018-12-18 17:31:32.465039', 'mgs': 0, 'flw2': 3.13, 'flw1': 0.0, 'flw0': 1.11, 'time': 41.98, 'compass': -161.7, 'pitch': -2.28, 'roll': 0.37}
{'lipoC2': 0.0, 'temp': 0.0, 'lipoC3S3': 12.29, 'state': 'normal', 'rot1': 268, 'rot0': 259, 'rot3': 8, 'rot2': 7, 'depth': -0.903, 'yaw': -117.32, 'datetime': '2018-12-18 17:31:32.674713', 'mgs': 0, 'flw2': 2.72, 'flw1': 2.67, 'flw0': 0.9, 'time': 42.19, 'compass': -163.28, 'pitch': -0.17, 'roll': 1.13}
{'lipoC2': 0.06, 'temp': 0.0, 'lipoC3S3': 12.19, 'state': 'normal', 'rot1': 270, 'rot0': 262, 'rot3': 8, 'rot2': 8, 'depth': 0.241, 'yaw': -115.63, 'datetime': '2018-12-18 17:31:32.883107', 'mgs': 0, 'flw2': 2.98, 'flw1': 0.06, 'flw0': 0.43, 'time': 42.4, 'compass': -161.6, 'pitch': 2.14, 'roll': 1.12}
{'lipoC2': 0.0, 'temp': 0.0, 'lipoC3S3': 12.39, 'state': 'normal', 'rot1': 272, 'rot0': 264, 'rot3': 8, 'rot2': 8, 'depth': 1.233, 'yaw': -112.89, 'datetime': '2018-12-18 17:31:33.098156', 'mgs': 0, 'flw2': 2.83, 'flw1': 0.59, 'flw0': 0.74, 'time': 42.6, 'compass': -158.86, 'pitch': 1.83, 'roll': 0.73}
