{'lipoC2': 7.41, 'temp': 30.13, 'lipoC3S3': 11.65, 'state': 'normal', 'rot1': 0, 'rot0': 0, 'rot3': 0, 'rot2': 0, 'depth': 1.691, 'yaw': 0.0, 'datetime': '2018-11-26 12:42:29.785514', 'mgs': 0, 'flw2': 0.0, 'flw1': 0.0, 'flw0': 0.0, 'time': 1.26, 'compass': -36.04, 'pitch': -0.21, 'roll': -4.64}
{'lipoC2': 7.41, 'temp': 30.19, 'lipoC3S3': 11.67, 'state': 'normal', 'rot1': 0, 'rot0': 0, 'rot3': 0, 'rot2': 0, 'depth': 1.767, 'yaw': 0.13, 'datetime': '2018-11-26 12:42:29.994735', 'mgs': 0, 'flw2': 0.0, 'flw1': 0.0, 'flw0': 0.0, 'time': 1.47, 'compass': -35.92, 'pitch': 0.01, 'roll': -4.29}
{'lipoC2': 7.41, 'temp': 30.19, 'lipoC3S3': 11.67, 'state': 'normal', 'rot1': 0, 'rot0': 0, 'rot3': 0, 'rot2': 0, 'depth': 1.767, 'yaw': 0.33, 'datetime': '2018-11-26 12:42:30.203376', 'mgs': 0, 'flw2': 0.0, 'flw1': 0.0, 'flw0': 0.0, 'time': 1.68, 'compass': -35.71, 'pitch': 0.03, 'roll': -4.19}
{'lipoC2': 7.41, 'temp': 30.06, 'lipoC3S3': 11.67, 'state': 'normal', 'rot1': 0, 'rot0': 0, 'rot3': 0, 'rot2': 0, 'depth': 1.767, 'yaw': 0.59, 'datetime': '2018-11-26 12:42:30.412101', 'mgs': 0, 'flw2': 0.0, 'flw1': 0.0, 'flw0': 0.0, 'time': 1.89, 'compass': -35.45, 'pitch': 0.01, 'roll': -4.19}
{'lipoC2': 7.41, 'temp': 30.06, 'lipoC3S3': 11.65, 'state': 'normal', 'rot1': 0, 'rot0': 0, 'rot3': 0, 'rot2': 0, 'depth': 1.767, 'yaw': 0.82, 'datetime': '2018-11-26 12:42:30.620578', 'mgs': 0, 'flw2': 0.0, 'flw1': 0.0, 'flw0': 0.0, 'time': 2.1, 'compass': -35.22, 'pitch': -0.2, 'roll': -4.19}
{'lipoC2': 7.41, 'temp': 30.19, 'lipoC3S3': 11.67, 'state': 'normal', 'rot1': 0, 'rot0': 0, 'rot3': 0, 'rot2': 0, 'depth': 1.767, 'yaw': 0.9, 'datetime': '2018-11-26 12:42:30.828928', 'mgs': 0, 'flw2': 0.0, 'flw1': 0.0, 'flw0': 0.0, 'time': 2.3, 'compass': -35.14, 'pitch': -0.59, 'roll': -4.21}
{'lipoC2': 7.41, 'temp': 30.13, 'lipoC3S3': 11.67, 'state': 'normal', 'rot1': 0, 'rot0': 0, 'rot3': 0, 'rot2': 0, 'depth': 1.691, 'yaw': 0.94, 'datetime': '2018-11-26 12:42:31.037394', 'mgs': 0, 'flw2': 0.0, 'flw1': 0.0, 'flw0': 0.0, 'time': 2.51, 'compass': -35.11, 'pitch': -1.08, 'roll': -4.21}
{'lipoC2': 7.41, 'temp': 30.13, 'lipoC3S3': 11.67, 'state': 'normal', 'rot1': 0, 'rot0': 0, 'rot3': 0, 'rot2': 0, 'depth': 1.691, 'yaw': 0.97, 'datetime': '2018-11-26 12:42:31.247001', 'mgs': 0, 'flw2': 0.0, 'flw1': 0.0, 'flw0': 0.0, 'time': 2.72, 'compass': -35.08, 'pitch': -1.45, 'roll': -4.2}
{'lipoC2': 7.41, 'temp': 30.13, 'lipoC3S3': 11.65, 'state': 'normal', 'rot1': 0, 'rot0': 0, 'rot3': 0, 'rot2': 0, 'depth': 1.767, 'yaw': 1.01, 'datetime': '2018-11-26 12:42:31.455374', 'mgs': 0, 'flw2': 0.0, 'flw1': 0.0, 'flw0': 0.0, 'time': 2.93, 'compass': -35.04, 'pitch': -1.62, 'roll': -4.21}
{'lipoC2': 7.41, 'temp': 30.13, 'lipoC3S3': 11.65, 'state': 'normal', 'rot1': 0, 'rot0': 0, 'rot3': 0, 'rot2': 0, 'depth': 1.767, 'yaw': 1.01, 'datetime': '2018-11-26 12:42:31.663929', 'mgs': 0, 'flw2': 0.0, 'flw1': 0.0, 'flw0': 0.0, 'time': 3.14, 'compass': -35.04, 'pitch': -1.62, 'roll': -4.21}
{'lipoC2': 7.41, 'temp': 30.13, 'lipoC3S3': 11.65, 'state': 'normal', 'rot1': 0, 'rot0': 0, 'rot3': 0, 'rot2': 0, 'depth': 1.691, 'yaw': 1.0, 'datetime': '2018-11-26 12:42:31.871451', 'mgs': 0, 'flw2': 0.0, 'flw1': 0.0, 'flw0': 0.0, 'time': 3.35, 'compass': -35.05, 'pitch': -1.47, 'roll': -3.99}
{'lipoC2': 7.41, 'temp': 30.13, 'lipoC3S3': 11.65, 'state': 'normal', 'rot1': 0, 'rot0': 0, 'rot3': 0, 'rot2': 0, 'depth': 1.767, 'yaw': 0.98, 'datetime': '2018-11-26 12:42:32.080206', 'mgs': 0, 'flw2': 0.0, 'flw1': 0.0, 'flw0': 0.0, 'time': 3.56, 'compass': -35.07, 'pitch': -1.15, 'roll': -3.83}
{'lipoC2': 7.41, 'temp': 30.13, 'lipoC3S3': 11.65, 'state': 'normal', 'rot1': 0, 'rot0': 0, 'rot3': 0, 'rot2': 0, 'depth': 1.767, 'yaw': 0.95, 'datetime': '2018-11-26 12:42:32.289560', 'mgs': 0, 'flw2': 0.0, 'flw1': 0.0, 'flw0': 0.0, 'time': 3.77, 'compass': -35.09, 'pitch': -0.81, 'roll': -3.98}
{'lipoC2': 7.41, 'temp': 30.13, 'lipoC3S3': 11.67, 'state': 'normal', 'rot1': 0, 'rot0': 0, 'rot3': 0, 'rot2': 0, 'depth': 1.691, 'yaw': 0.91, 'datetime': '2018-11-26 12:42:32.497707', 'mgs': 0, 'flw2': 0.0, 'flw1': 0.0, 'flw0': 0.0, 'time': 3.97, 'compass': -35.14, 'pitch': -0.6, 'roll': -4.16}
{'lipoC2': 7.41, 'temp': 30.06, 'lipoC3S3': 11.55, 'state': 'normal', 'rot1': 1, 'rot0': 1, 'rot3': 0, 'rot2': 0, 'depth': 1.767, 'yaw': 0.69, 'datetime': '2018-11-26 12:42:32.706890', 'mgs': 0, 'flw2': 2.61, 'flw1': 1.05, 'flw0': 2.82, 'time': 4.18, 'compass': -35.35, 'pitch': -0.61, 'roll': -3.74}
{'lipoC2': 7.41, 'temp': 30.13, 'lipoC3S3': 11.63, 'state': 'normal', 'rot1': 3, 'rot0': 3, 'rot3': 0, 'rot2': 1, 'depth': 1.767, 'yaw': 0.4, 'datetime': '2018-11-26 12:42:32.916405', 'mgs': 0, 'flw2': 2.69, 'flw1': 1.05, 'flw0': 2.87, 'time': 4.39, 'compass': -35.64, 'pitch': -0.65, 'roll': -1.42}
{'lipoC2': 7.41, 'temp': 30.13, 'lipoC3S3': 11.64, 'state': 'normal', 'rot1': 5, 'rot0': 5, 'rot3': 1, 'rot2': 1, 'depth': 1.843, 'yaw': 0.39, 'datetime': '2018-11-26 12:42:33.123821', 'mgs': 0, 'flw2': 2.69, 'flw1': 1.05, 'flw0': 2.86, 'time': 4.6, 'compass': -35.66, 'pitch': -0.65, 'roll': 1.11}
{'lipoC2': 7.41, 'temp': 30.13, 'lipoC3S3': 11.58, 'state': 'normal', 'rot1': 8, 'rot0': 8, 'rot3': 1, 'rot2': 2, 'depth': 1.767, 'yaw': 0.18, 'datetime': '2018-11-26 12:42:33.332847', 'mgs': 0, 'flw2': 2.62, 'flw1': 1.03, 'flw0': 2.81, 'time': 4.81, 'compass': -35.86, 'pitch': -0.69, 'roll': 4.19}
{'lipoC2': 7.41, 'temp': 30.13, 'lipoC3S3': 11.61, 'state': 'normal', 'rot1': 10, 'rot0': 10, 'rot3': 2, 'rot2': 2, 'depth': 2.53, 'yaw': -0.22, 'datetime': '2018-11-26 12:42:33.543036', 'mgs': 0, 'flw2': 2.81, 'flw1': 1.03, 'flw0': 2.71, 'time': 5.02, 'compass': -36.27, 'pitch': -0.9, 'roll': 7.2}
{'lipoC2': 7.41, 'temp': 30.13, 'lipoC3S3': 11.63, 'state': 'normal', 'rot1': 12, 'rot0': 12, 'rot3': 2, 'rot2': 2, 'depth': 1.309, 'yaw': -0.73, 'datetime': '2018-11-26 12:42:33.752624', 'mgs': 0, 'flw2': 2.78, 'flw1': 1.11, 'flw0': 2.77, 'time': 5.23, 'compass': -36.77, 'pitch': -1.17, 'roll': 9.38}
{'lipoC2': 7.41, 'temp': 30.13, 'lipoC3S3': 11.63, 'state': 'normal', 'rot1': 14, 'rot0': 15, 'rot3': 3, 'rot2': 3, 'depth': 1.691, 'yaw': -1.25, 'datetime': '2018-11-26 12:42:33.963377', 'mgs': 0, 'flw2': 2.73, 'flw1': 1.05, 'flw0': 2.94, 'time': 5.44, 'compass': -37.29, 'pitch': -1.39, 'roll': 10.41}
{'lipoC2': 7.41, 'temp': 30.06, 'lipoC3S3': 11.61, 'state': 'normal', 'rot1': 17, 'rot0': 17, 'rot3': 3, 'rot2': 3, 'depth': 1.157, 'yaw': -1.78, 'datetime': '2018-11-26 12:42:34.171826', 'mgs': 0, 'flw2': 2.75, 'flw1': 1.11, 'flw0': 2.86, 'time': 5.65, 'compass': -37.83, 'pitch': -1.53, 'roll': 10.18}
{'lipoC2': 7.42, 'temp': 30.06, 'lipoC3S3': 11.61, 'state': 'normal', 'rot1': 19, 'rot0': 19, 'rot3': 4, 'rot2': 4, 'depth': 2.301, 'yaw': -2.31, 'datetime': '2018-11-26 12:42:34.381364', 'mgs': 0, 'flw2': 2.83, 'flw1': 1.08, 'flw0': 2.78, 'time': 5.86, 'compass': -38.35, 'pitch': -1.46, 'roll': 8.92}
{'lipoC2': 7.41, 'temp': 30.13, 'lipoC3S3': 11.59, 'state': 'normal', 'rot1': 21, 'rot0': 21, 'rot3': 4, 'rot2': 4, 'depth': 1.385, 'yaw': -2.86, 'datetime': '2018-11-26 12:42:34.589763', 'mgs': 0, 'flw2': 2.64, 'flw1': 0.94, 'flw0': 2.83, 'time': 6.07, 'compass': -38.9, 'pitch': -1.38, 'roll': 7.41}
{'lipoC2': 7.41, 'temp': 30.13, 'lipoC3S3': 11.63, 'state': 'normal', 'rot1': 23, 'rot0': 24, 'rot3': 4, 'rot2': 5, 'depth': 1.385, 'yaw': -3.37, 'datetime': '2018-11-26 12:42:34.799658', 'mgs': 0, 'flw2': 2.67, 'flw1': 1.08, 'flw0': 2.89, 'time': 6.28, 'compass': -39.42, 'pitch': -1.32, 'roll': 6.43}
{'lipoC2': 7.41, 'temp': 30.0, 'lipoC3S3': 11.63, 'state': 'normal', 'rot1': 26, 'rot0': 26, 'rot3': 5, 'rot2': 5, 'depth': 1.462, 'yaw': -3.92, 'datetime': '2018-11-26 12:42:35.010225', 'mgs': 0, 'flw2': 2.76, 'flw1': 1.08, 'flw0': 2.88, 'time': 6.49, 'compass': -39.97, 'pitch': -1.26, 'roll': 5.92}
{'lipoC2': 7.41, 'temp': 30.13, 'lipoC3S3': 11.56, 'state': 'normal', 'rot1': 28, 'rot0': 28, 'rot3': 5, 'rot2': 6, 'depth': 1.385, 'yaw': -4.6, 'datetime': '2018-11-26 12:42:35.219916', 'mgs': 0, 'flw2': 2.62, 'flw1': 1.03, 'flw0': 2.87, 'time': 6.7, 'compass': -40.65, 'pitch': -1.26, 'roll': 5.88}
{'lipoC2': 7.41, 'temp': 30.13, 'lipoC3S3': 11.63, 'state': 'normal', 'rot1': 30, 'rot0': 30, 'rot3': 6, 'rot2': 6, 'depth': 1.385, 'yaw': -5.38, 'datetime': '2018-11-26 12:42:35.429490', 'mgs': 0, 'flw2': 2.69, 'flw1': 1.08, 'flw0': 2.86, 'time': 6.91, 'compass': -41.42, 'pitch': -1.52, 'roll': 6.3}
{'lipoC2': 7.41, 'temp': 30.13, 'lipoC3S3': 11.6, 'state': 'normal', 'rot1': 33, 'rot0': 33, 'rot3': 6, 'rot2': 7, 'depth': 3.369, 'yaw': -6.1, 'datetime': '2018-11-26 12:42:35.637887', 'mgs': 0, 'flw2': 4.54, 'flw1': 1.03, 'flw0': 4.87, 'time': 7.12, 'compass': -42.15, 'pitch': -1.77, 'roll': 6.83}
{'lipoC2': 7.41, 'temp': 30.13, 'lipoC3S3': 11.61, 'state': 'normal', 'rot1': 35, 'rot0': 36, 'rot3': 7, 'rot2': 7, 'depth': 1.462, 'yaw': -6.86, 'datetime': '2018-11-26 12:42:35.847850', 'mgs': 0, 'flw2': 4.43, 'flw1': 1.03, 'flw0': 4.94, 'time': 7.33, 'compass': -42.91, 'pitch': -1.84, 'roll': 8.14}
{'lipoC2': 7.41, 'temp': 30.13, 'lipoC3S3': 11.6, 'state': 'normal', 'rot1': 38, 'rot0': 39, 'rot3': 7, 'rot2': 8, 'depth': 1.614, 'yaw': -7.65, 'datetime': '2018-11-26 12:42:36.058042', 'mgs': 0, 'flw2': 4.5, 'flw1': 1.08, 'flw0': 4.87, 'time': 7.54, 'compass': -43.69, 'pitch': -1.79, 'roll': 9.47}
{'lipoC2': 7.41, 'temp': 30.13, 'lipoC3S3': 11.6, 'state': 'normal', 'rot1': 41, 'rot0': 42, 'rot3': 8, 'rot2': 8, 'depth': 1.614, 'yaw': -8.34, 'datetime': '2018-11-26 12:42:36.267525', 'mgs': 0, 'flw2': 4.39, 'flw1': 1.05, 'flw0': 4.91, 'time': 7.75, 'compass': -44.39, 'pitch': -1.94, 'roll': 10.29}
{'lipoC2': 7.41, 'temp': 30.13, 'lipoC3S3': 11.6, 'state': 'normal', 'rot1': 44, 'rot0': 44, 'rot3': 8, 'rot2': 8, 'depth': 3.14, 'yaw': -9.21, 'datetime': '2018-11-26 12:42:36.476928', 'mgs': 0, 'flw2': 4.36, 'flw1': 1.11, 'flw0': 4.88, 'time': 7.96, 'compass': -45.26, 'pitch': -2.11, 'roll': 10.87}
{'lipoC2': 7.41, 'temp': 30.13, 'lipoC3S3': 11.59, 'state': 'normal', 'rot1': 47, 'rot0': 47, 'rot3': 9, 'rot2': 9, 'depth': 3.064, 'yaw': -10.36, 'datetime': '2018-11-26 12:42:36.686231', 'mgs': 0, 'flw2': 4.63, 'flw1': 1.14, 'flw0': 4.47, 'time': 8.17, 'compass': -46.4, 'pitch': -2.07, 'roll': 11.47}
{'lipoC2': 7.42, 'temp': 30.13, 'lipoC3S3': 11.58, 'state': 'normal', 'rot1': 50, 'rot0': 50, 'rot3': 9, 'rot2': 9, 'depth': 2.759, 'yaw': -11.37, 'datetime': '2018-11-26 12:42:36.894722', 'mgs': 0, 'flw2': 4.48, 'flw1': 1.17, 'flw0': 4.64, 'time': 8.38, 'compass': -47.42, 'pitch': -1.88, 'roll': 11.75}
{'lipoC2': 7.41, 'temp': 30.13, 'lipoC3S3': 11.59, 'state': 'normal', 'rot1': 52, 'rot0': 53, 'rot3': 10, 'rot2': 10, 'depth': 2.759, 'yaw': -12.34, 'datetime': '2018-11-26 12:42:37.105553', 'mgs': 0, 'flw2': 4.53, 'flw1': 1.14, 'flw0': 4.66, 'time': 8.59, 'compass': -48.38, 'pitch': -1.76, 'roll': 11.65}
{'lipoC2': 7.41, 'temp': 30.13, 'lipoC3S3': 11.59, 'state': 'normal', 'rot1': 55, 'rot0': 56, 'rot3': 10, 'rot2': 10, 'depth': 2.53, 'yaw': -13.32, 'datetime': '2018-11-26 12:42:37.317482', 'mgs': 0, 'flw2': 4.54, 'flw1': 1.14, 'flw0': 4.68, 'time': 8.8, 'compass': -49.36, 'pitch': -1.55, 'roll': 11.26}
{'lipoC2': 7.42, 'temp': 30.06, 'lipoC3S3': 11.58, 'state': 'normal', 'rot1': 58, 'rot0': 59, 'rot3': 11, 'rot2': 11, 'depth': 3.064, 'yaw': -14.29, 'datetime': '2018-11-26 12:42:37.526610', 'mgs': 0, 'flw2': 4.48, 'flw1': 1.17, 'flw0': 4.64, 'time': 9.01, 'compass': -50.34, 'pitch': -1.39, 'roll': 10.85}
{'lipoC2': 7.41, 'temp': 30.06, 'lipoC3S3': 11.43, 'state': 'normal', 'rot1': 61, 'rot0': 62, 'rot3': 11, 'rot2': 11, 'depth': 1.462, 'yaw': -15.44, 'datetime': '2018-11-26 12:42:37.736828', 'mgs': 0, 'flw2': 4.28, 'flw1': 1.0, 'flw0': 4.64, 'time': 9.22, 'compass': -51.49, 'pitch': -1.34, 'roll': 10.51}
{'lipoC2': 7.41, 'temp': 30.06, 'lipoC3S3': 11.46, 'state': 'normal', 'rot1': 64, 'rot0': 64, 'rot3': 12, 'rot2': 12, 'depth': 1.462, 'yaw': -16.62, 'datetime': '2018-11-26 12:42:37.946020', 'mgs': 0, 'flw2': 4.33, 'flw1': 1.0, 'flw0': 4.68, 'time': 9.43, 'compass': -52.66, 'pitch': -1.43, 'roll': 10.39}
{'lipoC2': 7.41, 'temp': 30.06, 'lipoC3S3': 11.47, 'state': 'normal', 'rot1': 67, 'rot0': 67, 'rot3': 12, 'rot2': 12, 'depth': 1.538, 'yaw': -17.64, 'datetime': '2018-11-26 12:42:38.157798', 'mgs': 0, 'flw2': 4.31, 'flw1': 0.97, 'flw0': 4.82, 'time': 9.64, 'compass': -53.68, 'pitch': -1.51, 'roll': 10.43}
{'lipoC2': 7.41, 'temp': 30.06, 'lipoC3S3': 11.42, 'state': 'normal', 'rot1': 70, 'rot0': 70, 'rot3': 13, 'rot2': 13, 'depth': 1.691, 'yaw': -18.72, 'datetime': '2018-11-26 12:42:38.369024', 'mgs': 0, 'flw2': 4.37, 'flw1': 1.03, 'flw0': 4.55, 'time': 9.85, 'compass': -54.76, 'pitch': -1.37, 'roll': 10.65}
{'lipoC2': 7.41, 'temp': 30.13, 'lipoC3S3': 11.48, 'state': 'normal', 'rot1': 72, 'rot0': 73, 'rot3': 13, 'rot2': 13, 'depth': 1.538, 'yaw': -19.84, 'datetime': '2018-11-26 12:42:38.579571', 'mgs': 0, 'flw2': 4.25, 'flw1': 1.03, 'flw0': 4.79, 'time': 10.06, 'compass': -55.88, 'pitch': -1.42, 'roll': 10.93}
{'lipoC2': 7.41, 'temp': 30.0, 'lipoC3S3': 11.56, 'state': 'normal', 'rot1': 75, 'rot0': 76, 'rot3': 13, 'rot2': 13, 'depth': 1.614, 'yaw': -21.01, 'datetime': '2018-11-26 12:42:38.788444', 'mgs': 0, 'flw2': 6.05, 'flw1': 1.03, 'flw0': 6.46, 'time': 10.27, 'compass': -57.05, 'pitch': -1.42, 'roll': 11.45}
{'lipoC2': 7.41, 'temp': 29.94, 'lipoC3S3': 11.58, 'state': 'normal', 'rot1': 79, 'rot0': 79, 'rot3': 14, 'rot2': 14, 'depth': 3.369, 'yaw': -22.09, 'datetime': '2018-11-26 12:42:38.998845', 'mgs': 0, 'flw2': 6.36, 'flw1': 1.14, 'flw0': 6.25, 'time': 10.48, 'compass': -58.13, 'pitch': -1.42, 'roll': 12.57}
{'lipoC2': 7.41, 'temp': 29.63, 'lipoC3S3': 11.59, 'state': 'normal', 'rot1': 82, 'rot0': 82, 'rot3': 14, 'rot2': 14, 'depth': 1.691, 'yaw': -23.12, 'datetime': '2018-11-26 12:42:39.209452', 'mgs': 0, 'flw2': 6.04, 'flw1': 1.08, 'flw0': 6.35, 'time': 10.69, 'compass': -59.17, 'pitch': -1.31, 'roll': 13.62}
{'lipoC2': 7.41, 'temp': 29.63, 'lipoC3S3': 11.47, 'state': 'normal', 'rot1': 85, 'rot0': 86, 'rot3': 15, 'rot2': 15, 'depth': 1.691, 'yaw': -24.05, 'datetime': '2018-11-26 12:42:39.420964', 'mgs': 0, 'flw2': 5.99, 'flw1': 1.05, 'flw0': 6.54, 'time': 10.9, 'compass': -60.09, 'pitch': -1.12, 'roll': 14.23}
{'lipoC2': 7.41, 'temp': 30.0, 'lipoC3S3': 11.58, 'state': 'normal', 'rot1': 88, 'rot0': 89, 'rot3': 15, 'rot2': 15, 'depth': 1.767, 'yaw': -24.98, 'datetime': '2018-11-26 12:42:39.631501', 'mgs': 0, 'flw2': 6.04, 'flw1': 1.08, 'flw0': 6.51, 'time': 11.11, 'compass': -61.02, 'pitch': -0.96, 'roll': 14.37}
{'lipoC2': 7.41, 'temp': 30.13, 'lipoC3S3': 11.58, 'state': 'normal', 'rot1': 92, 'rot0': 92, 'rot3': 16, 'rot2': 16, 'depth': 1.157, 'yaw': -26.04, 'datetime': '2018-11-26 12:42:39.840581', 'mgs': 0, 'flw2': 6.26, 'flw1': 1.17, 'flw0': 6.38, 'time': 11.32, 'compass': -62.08, 'pitch': -0.96, 'roll': 14.11}
{'lipoC2': 7.41, 'temp': 30.06, 'lipoC3S3': 11.58, 'state': 'normal', 'rot1': 96, 'rot0': 95, 'rot3': 16, 'rot2': 16, 'depth': 1.767, 'yaw': -27.11, 'datetime': '2018-11-26 12:42:40.052053', 'mgs': 0, 'flw2': 6.23, 'flw1': 1.05, 'flw0': 6.69, 'time': 11.53, 'compass': -63.16, 'pitch': -0.76, 'roll': 13.85}
{'lipoC2': 7.41, 'temp': 30.06, 'lipoC3S3': 11.5, 'state': 'normal', 'rot1': 99, 'rot0': 99, 'rot3': 17, 'rot2': 17, 'depth': 1.614, 'yaw': -28.07, 'datetime': '2018-11-26 12:42:40.263527', 'mgs': 0, 'flw2': 5.81, 'flw1': 1.03, 'flw0': 6.54, 'time': 11.75, 'compass': -64.12, 'pitch': -0.54, 'roll': 13.85}
{'lipoC2': 7.41, 'temp': 30.13, 'lipoC3S3': 11.58, 'state': 'normal', 'rot1': 102, 'rot0': 102, 'rot3': 17, 'rot2': 17, 'depth': 1.691, 'yaw': -29.11, 'datetime': '2018-11-26 12:42:40.475352', 'mgs': 0, 'flw2': 5.99, 'flw1': 1.05, 'flw0': 6.43, 'time': 11.96, 'compass': -65.15, 'pitch': -0.28, 'roll': 13.84}
{'lipoC2': 7.41, 'temp': 30.06, 'lipoC3S3': 11.39, 'state': 'normal', 'rot1': 106, 'rot0': 106, 'rot3': 18, 'rot2': 18, 'depth': 1.538, 'yaw': -30.08, 'datetime': '2018-11-26 12:42:40.684819', 'mgs': 0, 'flw2': 5.97, 'flw1': 1.0, 'flw0': 6.21, 'time': 12.17, 'compass': -66.13, 'pitch': -0.16, 'roll': 13.68}
{'lipoC2': 7.41, 'temp': 30.06, 'lipoC3S3': 11.52, 'state': 'normal', 'rot1': 109, 'rot0': 109, 'rot3': 18, 'rot2': 18, 'depth': 2.911, 'yaw': -31.0, 'datetime': '2018-11-26 12:42:40.899373', 'mgs': 0, 'flw2': 6.27, 'flw1': 1.14, 'flw0': 6.29, 'time': 12.38, 'compass': -67.04, 'pitch': -0.22, 'roll': 13.64}
{'lipoC2': 7.41, 'temp': 30.06, 'lipoC3S3': 11.56, 'state': 'normal', 'rot1': 112, 'rot0': 112, 'rot3': 18, 'rot2': 18, 'depth': 1.538, 'yaw': -32.0, 'datetime': '2018-11-26 12:42:41.109332', 'mgs': 0, 'flw2': 6.15, 'flw1': 1.11, 'flw0': 6.36, 'time': 12.59, 'compass': -68.04, 'pitch': -0.21, 'roll': 13.86}
{'lipoC2': 7.42, 'temp': 30.06, 'lipoC3S3': 11.36, 'state': 'normal', 'rot1': 115, 'rot0': 116, 'rot3': 19, 'rot2': 19, 'depth': 1.538, 'yaw': -32.93, 'datetime': '2018-11-26 12:42:41.318186', 'mgs': 0, 'flw2': 5.87, 'flw1': 1.0, 'flw0': 6.31, 'time': 12.8, 'compass': -68.97, 'pitch': -0.25, 'roll': 14.36}
{'lipoC2': 7.41, 'temp': 30.06, 'lipoC3S3': 11.56, 'state': 'normal', 'rot1': 119, 'rot0': 119, 'rot3': 19, 'rot2': 19, 'depth': 1.614, 'yaw': -33.86, 'datetime': '2018-11-26 12:42:41.533457', 'mgs': 0, 'flw2': 5.99, 'flw1': 1.05, 'flw0': 6.59, 'time': 13.01, 'compass': -69.9, 'pitch': -0.37, 'roll': 15.11}
{'lipoC2': 7.41, 'temp': 30.13, 'lipoC3S3': 11.47, 'state': 'normal', 'rot1': 121, 'rot0': 121, 'rot3': 20, 'rot2': 20, 'depth': 1.691, 'yaw': -34.81, 'datetime': '2018-11-26 12:42:41.741348', 'mgs': 0, 'flw2': 2.67, 'flw1': 1.11, 'flw0': 2.87, 'time': 13.22, 'compass': -70.85, 'pitch': -0.5, 'roll': 15.38}
{'lipoC2': 7.41, 'temp': 30.06, 'lipoC3S3': 11.58, 'state': 'normal', 'rot1': 123, 'rot0': 124, 'rot3': 20, 'rot2': 20, 'depth': 1.996, 'yaw': -35.78, 'datetime': '2018-11-26 12:42:41.951626', 'mgs': 0, 'flw2': 2.58, 'flw1': 1.03, 'flw0': 2.73, 'time': 13.43, 'compass': -71.82, 'pitch': -0.43, 'roll': 13.88}
{'lipoC2': 7.41, 'temp': 30.13, 'lipoC3S3': 11.6, 'state': 'normal', 'rot1': 126, 'rot0': 126, 'rot3': 21, 'rot2': 21, 'depth': 1.691, 'yaw': -36.88, 'datetime': '2018-11-26 12:42:42.163014', 'mgs': 0, 'flw2': 2.64, 'flw1': 1.05, 'flw0': 2.81, 'time': 13.65, 'compass': -72.92, 'pitch': -0.17, 'roll': 12.46}
{'lipoC2': 7.41, 'temp': 30.13, 'lipoC3S3': 11.59, 'state': 'normal', 'rot1': 128, 'rot0': 128, 'rot3': 21, 'rot2': 21, 'depth': 1.691, 'yaw': -38.11, 'datetime': '2018-11-26 12:42:42.376035', 'mgs': 0, 'flw2': 2.53, 'flw1': 1.08, 'flw0': 2.88, 'time': 13.86, 'compass': -74.15, 'pitch': 0.08, 'roll': 11.69}
{'lipoC2': 7.41, 'temp': 30.06, 'lipoC3S3': 11.51, 'state': 'normal', 'rot1': 131, 'rot0': 131, 'rot3': 22, 'rot2': 22, 'depth': 1.614, 'yaw': -39.55, 'datetime': '2018-11-26 12:42:42.585273', 'mgs': 0, 'flw2': 2.55, 'flw1': 1.03, 'flw0': 2.77, 'time': 14.07, 'compass': -75.59, 'pitch': 0.24, 'roll': 10.89}
{'lipoC2': 7.41, 'temp': 30.06, 'lipoC3S3': 11.56, 'state': 'normal', 'rot1': 133, 'rot0': 133, 'rot3': 22, 'rot2': 22, 'depth': 1.691, 'yaw': -41.12, 'datetime': '2018-11-26 12:42:42.795135', 'mgs': 0, 'flw2': 2.6, 'flw1': 1.0, 'flw0': 2.69, 'time': 14.28, 'compass': -77.17, 'pitch': 0.51, 'roll': 9.84}
{'lipoC2': 7.41, 'temp': 30.06, 'lipoC3S3': 11.44, 'state': 'normal', 'rot1': 136, 'rot0': 136, 'rot3': 23, 'rot2': 23, 'depth': 1.767, 'yaw': -42.78, 'datetime': '2018-11-26 12:42:43.008756', 'mgs': 0, 'flw2': 2.51, 'flw1': 1.0, 'flw0': 2.82, 'time': 14.49, 'compass': -78.82, 'pitch': 0.71, 'roll': 8.98}
{'lipoC2': 7.41, 'temp': 30.06, 'lipoC3S3': 11.6, 'state': 'normal', 'rot1': 138, 'rot0': 138, 'rot3': 23, 'rot2': 23, 'depth': 1.767, 'yaw': -44.69, 'datetime': '2018-11-26 12:42:43.218453', 'mgs': 0, 'flw2': 2.59, 'flw1': 1.03, 'flw0': 2.77, 'time': 14.7, 'compass': -80.74, 'pitch': 0.8, 'roll': 8.8}
{'lipoC2': 7.42, 'temp': 30.19, 'lipoC3S3': 11.56, 'state': 'normal', 'rot1': 141, 'rot0': 140, 'rot3': 23, 'rot2': 23, 'depth': 1.767, 'yaw': -46.63, 'datetime': '2018-11-26 12:42:43.429465', 'mgs': 0, 'flw2': 2.62, 'flw1': 1.0, 'flw0': 2.78, 'time': 14.91, 'compass': -82.68, 'pitch': 1.07, 'roll': 8.8}
{'lipoC2': 7.41, 'temp': 29.81, 'lipoC3S3': 11.6, 'state': 'normal', 'rot1': 143, 'rot0': 143, 'rot3': 24, 'rot2': 24, 'depth': 1.843, 'yaw': -48.73, 'datetime': '2018-11-26 12:42:43.643171', 'mgs': 0, 'flw2': 2.58, 'flw1': 1.05, 'flw0': 2.93, 'time': 15.13, 'compass': -84.77, 'pitch': 1.23, 'roll': 9.05}
{'lipoC2': 7.41, 'temp': 30.44, 'lipoC3S3': 11.47, 'state': 'normal', 'rot1': 145, 'rot0': 145, 'rot3': 24, 'rot2': 24, 'depth': 1.92, 'yaw': -51.05, 'datetime': '2018-11-26 12:42:43.850295', 'mgs': 0, 'flw2': 2.55, 'flw1': 1.03, 'flw0': 2.82, 'time': 15.34, 'compass': -87.09, 'pitch': 1.54, 'roll': 9.47}
{'lipoC2': 7.4, 'temp': 29.63, 'lipoC3S3': 11.59, 'state': 'normal', 'rot1': 148, 'rot0': 147, 'rot3': 25, 'rot2': 25, 'depth': 2.911, 'yaw': -53.71, 'datetime': '2018-11-26 12:42:44.063944', 'mgs': 0, 'flw2': 2.72, 'flw1': 1.05, 'flw0': 2.7, 'time': 15.55, 'compass': -89.75, 'pitch': 2.0, 'roll': 9.99}
{'lipoC2': 7.41, 'temp': 30.0, 'lipoC3S3': 11.51, 'state': 'normal', 'rot1': 150, 'rot0': 149, 'rot3': 25, 'rot2': 25, 'depth': 1.996, 'yaw': -56.48, 'datetime': '2018-11-26 12:42:44.273567', 'mgs': 0, 'flw2': 2.58, 'flw1': 1.03, 'flw0': 2.83, 'time': 15.76, 'compass': -92.52, 'pitch': 2.33, 'roll': 10.71}
{'lipoC2': 7.41, 'temp': 30.0, 'lipoC3S3': 11.6, 'state': 'normal', 'rot1': 152, 'rot0': 152, 'rot3': 26, 'rot2': 26, 'depth': 2.072, 'yaw': -59.4, 'datetime': '2018-11-26 12:42:44.484782', 'mgs': 0, 'flw2': 2.67, 'flw1': 1.08, 'flw0': 2.88, 'time': 15.97, 'compass': -95.45, 'pitch': 2.41, 'roll': 11.5}
{'lipoC2': 7.4, 'temp': 30.06, 'lipoC3S3': 11.58, 'state': 'normal', 'rot1': 155, 'rot0': 154, 'rot3': 26, 'rot2': 26, 'depth': 2.072, 'yaw': -62.39, 'datetime': '2018-11-26 12:42:44.695130', 'mgs': 0, 'flw2': 4.09, 'flw1': 1.03, 'flw0': 4.44, 'time': 16.18, 'compass': -98.44, 'pitch': 2.41, 'roll': 12.01}
{'lipoC2': 7.41, 'temp': 30.06, 'lipoC3S3': 11.42, 'state': 'normal', 'rot1': 157, 'rot0': 157, 'rot3': 27, 'rot2': 27, 'depth': 1.996, 'yaw': -65.24, 'datetime': '2018-11-26 12:42:44.905653', 'mgs': 0, 'flw2': 4.25, 'flw1': 1.0, 'flw0': 4.69, 'time': 16.39, 'compass': -101.29, 'pitch': 2.46, 'roll': 12.44}
{'lipoC2': 7.41, 'temp': 30.06, 'lipoC3S3': 11.55, 'state': 'normal', 'rot1': 160, 'rot0': 159, 'rot3': 27, 'rot2': 27, 'depth': 2.301, 'yaw': -67.96, 'datetime': '2018-11-26 12:42:45.117136', 'mgs': 0, 'flw2': 4.36, 'flw1': 1.0, 'flw0': 4.63, 'time': 16.6, 'compass': -104.01, 'pitch': 2.58, 'roll': 13.36}
{'lipoC2': 7.41, 'temp': 29.94, 'lipoC3S3': 11.43, 'state': 'normal', 'rot1': 163, 'rot0': 162, 'rot3': 28, 'rot2': 28, 'depth': 1.996, 'yaw': -70.67, 'datetime': '2018-11-26 12:42:45.329440', 'mgs': 0, 'flw2': 4.26, 'flw1': 1.03, 'flw0': 4.92, 'time': 16.82, 'compass': -106.71, 'pitch': 2.61, 'roll': 14.22}
{'lipoC2': 7.4, 'temp': 30.06, 'lipoC3S3': 11.56, 'state': 'normal', 'rot1': 166, 'rot0': 165, 'rot3': 28, 'rot2': 28, 'depth': 3.14, 'yaw': -73.53, 'datetime': '2018-11-26 12:42:45.543161', 'mgs': 0, 'flw2': 4.53, 'flw1': 1.17, 'flw0': 4.55, 'time': 17.03, 'compass': -109.58, 'pitch': 2.62, 'roll': 14.64}
{'lipoC2': 7.41, 'temp': 30.06, 'lipoC3S3': 11.52, 'state': 'normal', 'rot1': 168, 'rot0': 168, 'rot3': 29, 'rot2': 29, 'depth': 1.843, 'yaw': -76.25, 'datetime': '2018-11-26 12:42:45.750812', 'mgs': 0, 'flw2': 4.26, 'flw1': 1.05, 'flw0': 4.74, 'time': 17.24, 'compass': -112.29, 'pitch': 2.65, 'roll': 14.46}
{'lipoC2': 7.41, 'temp': 30.06, 'lipoC3S3': 11.58, 'state': 'normal', 'rot1': 171, 'rot0': 171, 'rot3': 29, 'rot2': 29, 'depth': 1.767, 'yaw': -78.74, 'datetime': '2018-11-26 12:42:45.963134', 'mgs': 0, 'flw2': 4.35, 'flw1': 1.05, 'flw0': 4.91, 'time': 17.45, 'compass': -114.78, 'pitch': 3.02, 'roll': 13.68}
{'lipoC2': 7.41, 'temp': 30.06, 'lipoC3S3': 11.58, 'state': 'normal', 'rot1': 174, 'rot0': 173, 'rot3': 30, 'rot2': 30, 'depth': 1.691, 'yaw': -81.1, 'datetime': '2018-11-26 12:42:46.173466', 'mgs': 0, 'flw2': 4.43, 'flw1': 1.08, 'flw0': 4.91, 'time': 17.66, 'compass': -117.15, 'pitch': 3.55, 'roll': 12.41}
{'lipoC2': 7.41, 'temp': 30.13, 'lipoC3S3': 11.54, 'state': 'normal', 'rot1': 177, 'rot0': 176, 'rot3': 30, 'rot2': 30, 'depth': 2.301, 'yaw': -83.52, 'datetime': '2018-11-26 12:42:46.387139', 'mgs': 0, 'flw2': 4.48, 'flw1': 1.03, 'flw0': 4.68, 'time': 17.87, 'compass': -119.57, 'pitch': 4.05, 'roll': 10.99}
{'lipoC2': 7.41, 'temp': 30.06, 'lipoC3S3': 11.58, 'state': 'normal', 'rot1': 180, 'rot0': 179, 'rot3': 31, 'rot2': 31, 'depth': 1.614, 'yaw': -85.86, 'datetime': '2018-11-26 12:42:46.597765', 'mgs': 0, 'flw2': 4.36, 'flw1': 1.05, 'flw0': 4.86, 'time': 18.08, 'compass': -121.91, 'pitch': 4.48, 'roll': 10.0}
{'lipoC2': 7.41, 'temp': 30.06, 'lipoC3S3': 11.44, 'state': 'normal', 'rot1': 182, 'rot0': 183, 'rot3': 31, 'rot2': 31, 'depth': 1.538, 'yaw': -88.09, 'datetime': '2018-11-26 12:42:46.805817', 'mgs': 0, 'flw2': 4.24, 'flw1': 1.0, 'flw0': 4.55, 'time': 18.29, 'compass': -124.13, 'pitch': 4.8, 'roll': 9.57}
{'lipoC2': 7.42, 'temp': 30.06, 'lipoC3S3': 11.55, 'state': 'normal', 'rot1': 185, 'rot0': 185, 'rot3': 31, 'rot2': 31, 'depth': 2.759, 'yaw': -90.14, 'datetime': '2018-11-26 12:42:47.018033', 'mgs': 0, 'flw2': 4.54, 'flw1': 1.17, 'flw0': 4.69, 'time': 18.51, 'compass': -126.19, 'pitch': 4.91, 'roll': 9.39}
{'lipoC2': 7.42, 'temp': 30.13, 'lipoC3S3': 11.52, 'state': 'normal', 'rot1': 188, 'rot0': 188, 'rot3': 32, 'rot2': 32, 'depth': 2.072, 'yaw': -92.33, 'datetime': '2018-11-26 12:42:47.231165', 'mgs': 0, 'flw2': 4.32, 'flw1': 0.97, 'flw0': 4.58, 'time': 18.72, 'compass': -128.38, 'pitch': 4.87, 'roll': 9.46}
{'lipoC2': 7.41, 'temp': 30.06, 'lipoC3S3': 11.56, 'state': 'normal', 'rot1': 191, 'rot0': 191, 'rot3': 32, 'rot2': 32, 'depth': 2.988, 'yaw': -94.41, 'datetime': '2018-11-26 12:42:47.440039', 'mgs': 0, 'flw2': 4.48, 'flw1': 1.14, 'flw0': 4.75, 'time': 18.93, 'compass': -130.46, 'pitch': 4.73, 'roll': 9.99}
{'lipoC2': 7.4, 'temp': 30.06, 'lipoC3S3': 11.52, 'state': 'normal', 'rot1': 194, 'rot0': 194, 'rot3': 33, 'rot2': 33, 'depth': 1.691, 'yaw': -96.5, 'datetime': '2018-11-26 12:42:47.651610', 'mgs': 0, 'flw2': 4.26, 'flw1': 1.05, 'flw0': 4.93, 'time': 19.14, 'compass': -132.54, 'pitch': 4.48, 'roll': 10.43}
{'lipoC2': 7.42, 'temp': 30.06, 'lipoC3S3': 11.54, 'state': 'normal', 'rot1': 197, 'rot0': 197, 'rot3': 33, 'rot2': 33, 'depth': 2.682, 'yaw': -98.74, 'datetime': '2018-11-26 12:42:47.861181', 'mgs': 0, 'flw2': 5.9, 'flw1': 1.05, 'flw0': 6.04, 'time': 19.35, 'compass': -134.78, 'pitch': 4.32, 'roll': 10.96}
{'lipoC2': 7.41, 'temp': 30.06, 'lipoC3S3': 11.44, 'state': 'normal', 'rot1': 200, 'rot0': 200, 'rot3': 34, 'rot2': 34, 'depth': 1.767, 'yaw': -100.84, 'datetime': '2018-11-26 12:42:48.073926', 'mgs': 0, 'flw2': 5.9, 'flw1': 1.03, 'flw0': 6.29, 'time': 19.56, 'compass': -136.89, 'pitch': 4.21, 'roll': 12.18}
{'lipoC2': 7.41, 'temp': 30.06, 'lipoC3S3': 11.47, 'state': 'normal', 'rot1': 203, 'rot0': 203, 'rot3': 34, 'rot2': 34, 'depth': 1.843, 'yaw': -103.19, 'datetime': '2018-11-26 12:42:48.288532', 'mgs': 0, 'flw2': 5.97, 'flw1': 1.05, 'flw0': 6.52, 'time': 19.78, 'compass': -139.24, 'pitch': 4.09, 'roll': 13.39}
{'lipoC2': 7.41, 'temp': 30.13, 'lipoC3S3': 11.56, 'state': 'normal', 'rot1': 206, 'rot0': 207, 'rot3': 35, 'rot2': 35, 'depth': 1.767, 'yaw': -105.42, 'datetime': '2018-11-26 12:42:48.498394', 'mgs': 0, 'flw2': 5.91, 'flw1': 1.05, 'flw0': 6.65, 'time': 19.99, 'compass': -141.46, 'pitch': 3.78, 'roll': 14.15}
{'lipoC2': 7.41, 'temp': 30.19, 'lipoC3S3': 11.55, 'state': 'normal', 'rot1': 210, 'rot0': 210, 'rot3': 35, 'rot2': 35, 'depth': 3.598, 'yaw': -107.49, 'datetime': '2018-11-26 12:42:48.707955', 'mgs': 0, 'flw2': 6.12, 'flw1': 1.08, 'flw0': 6.43, 'time': 20.2, 'compass': -143.53, 'pitch': 3.61, 'roll': 14.2}
{'lipoC2': 7.42, 'temp': 30.06, 'lipoC3S3': 11.58, 'state': 'normal', 'rot1': 213, 'rot0': 213, 'rot3': 36, 'rot2': 36, 'depth': 2.835, 'yaw': -109.62, 'datetime': '2018-11-26 12:42:48.919166', 'mgs': 0, 'flw2': 6.15, 'flw1': 1.11, 'flw0': 6.16, 'time': 20.41, 'compass': -145.66, 'pitch': 3.64, 'roll': 13.67}
{'lipoC2': 7.41, 'temp': 30.19, 'lipoC3S3': 11.51, 'state': 'normal', 'rot1': 216, 'rot0': 216, 'rot3': 36, 'rot2': 36, 'depth': 2.911, 'yaw': -111.72, 'datetime': '2018-11-26 12:42:49.131804', 'mgs': 0, 'flw2': 5.87, 'flw1': 1.14, 'flw0': 6.42, 'time': 20.62, 'compass': -147.76, 'pitch': 3.72, 'roll': 12.89}
{'lipoC2': 7.41, 'temp': 30.19, 'lipoC3S3': 11.51, 'state': 'normal', 'rot1': 220, 'rot0': 220, 'rot3': 37, 'rot2': 37, 'depth': 2.301, 'yaw': -113.85, 'datetime': '2018-11-26 12:42:49.344990', 'mgs': 0, 'flw2': 5.87, 'flw1': 1.0, 'flw0': 6.29, 'time': 20.83, 'compass': -149.89, 'pitch': 3.9, 'roll': 11.96}
{'lipoC2': 7.41, 'temp': 30.06, 'lipoC3S3': 11.39, 'state': 'normal', 'rot1': 223, 'rot0': 223, 'rot3': 37, 'rot2': 37, 'depth': 1.614, 'yaw': -116.13, 'datetime': '2018-11-26 12:42:49.553802', 'mgs': 0, 'flw2': 5.93, 'flw1': 0.97, 'flw0': 6.2, 'time': 21.05, 'compass': -152.17, 'pitch': 4.29, 'roll': 11.11}
{'lipoC2': 7.41, 'temp': 30.13, 'lipoC3S3': 11.51, 'state': 'normal', 'rot1': 226, 'rot0': 226, 'rot3': 38, 'rot2': 38, 'depth': 1.691, 'yaw': -118.39, 'datetime': '2018-11-26 12:42:49.765068', 'mgs': 0, 'flw2': 6.08, 'flw1': 1.03, 'flw0': 6.63, 'time': 21.26, 'compass': -154.43, 'pitch': 4.57, 'roll': 10.45}
{'lipoC2': 7.41, 'temp': 30.06, 'lipoC3S3': 11.55, 'state': 'normal', 'rot1': 229, 'rot0': 230, 'rot3': 38, 'rot2': 38, 'depth': 1.614, 'yaw': -120.97, 'datetime': '2018-11-26 12:42:49.975836', 'mgs': 0, 'flw2': 5.88, 'flw1': 1.05, 'flw0': 6.68, 'time': 21.47, 'compass': -157.02, 'pitch': 4.48, 'roll': 9.96}
{'lipoC2': 7.41, 'temp': 30.06, 'lipoC3S3': 11.55, 'state': 'normal', 'rot1': 232, 'rot0': 233, 'rot3': 38, 'rot2': 38, 'depth': 1.767, 'yaw': -123.61, 'datetime': '2018-11-26 12:42:50.192653', 'mgs': 0, 'flw2': 6.16, 'flw1': 1.03, 'flw0': 6.65, 'time': 21.68, 'compass': -159.65, 'pitch': 4.34, 'roll': 9.73}
{'lipoC2': 7.41, 'temp': 30.0, 'lipoC3S3': 11.55, 'state': 'normal', 'rot1': 236, 'rot0': 236, 'rot3': 39, 'rot2': 39, 'depth': 3.293, 'yaw': -126.3, 'datetime': '2018-11-26 12:42:50.399450', 'mgs': 0, 'flw2': 6.23, 'flw1': 1.08, 'flw0': 6.13, 'time': 21.89, 'compass': -162.34, 'pitch': 4.36, 'roll': 9.81}
{'lipoC2': 7.42, 'temp': 30.06, 'lipoC3S3': 11.51, 'state': 'normal', 'rot1': 239, 'rot0': 239, 'rot3': 39, 'rot2': 39, 'depth': 2.911, 'yaw': -129.11, 'datetime': '2018-11-26 12:42:50.611389', 'mgs': 0, 'flw2': 6.19, 'flw1': 1.17, 'flw0': 6.32, 'time': 22.1, 'compass': -165.15, 'pitch': 4.3, 'roll': 9.89}
{'lipoC2': 7.41, 'temp': 30.13, 'lipoC3S3': 11.43, 'state': 'normal', 'rot1': 242, 'rot0': 243, 'rot3': 40, 'rot2': 40, 'depth': 1.691, 'yaw': -132.27, 'datetime': '2018-11-26 12:42:50.823863', 'mgs': 0, 'flw2': 7.5, 'flw1': 1.0, 'flw0': 8.07, 'time': 22.31, 'compass': -168.31, 'pitch': 4.05, 'roll': 9.97}
{'lipoC2': 7.41, 'temp': 30.13, 'lipoC3S3': 11.4, 'state': 'normal', 'rot1': 246, 'rot0': 247, 'rot3': 40, 'rot2': 40, 'depth': 1.691, 'yaw': -135.39, 'datetime': '2018-11-26 12:42:51.032747', 'mgs': 0, 'flw2': 7.52, 'flw1': 0.97, 'flw0': 8.33, 'time': 22.53, 'compass': -171.43, 'pitch': 3.76, 'roll': 10.49}
{'lipoC2': 7.41, 'temp': 30.06, 'lipoC3S3': 11.38, 'state': 'normal', 'rot1': 250, 'rot0': 250, 'rot3': 41, 'rot2': 41, 'depth': 1.767, 'yaw': -138.66, 'datetime': '2018-11-26 12:42:51.245545', 'mgs': 0, 'flw2': 7.42, 'flw1': 1.05, 'flw0': 8.29, 'time': 22.74, 'compass': -174.71, 'pitch': 3.5, 'roll': 10.91}
{'lipoC2': 7.41, 'temp': 30.13, 'lipoC3S3': 11.54, 'state': 'normal', 'rot1': 254, 'rot0': 254, 'rot3': 41, 'rot2': 41, 'depth': 1.843, 'yaw': -141.83, 'datetime': '2018-11-26 12:42:51.456784', 'mgs': 0, 'flw2': 7.8, 'flw1': 1.0, 'flw0': 8.17, 'time': 22.95, 'compass': -177.87, 'pitch': 3.48, 'roll': 10.61}
{'lipoC2': 7.41, 'temp': 30.13, 'lipoC3S3': 11.52, 'state': 'normal', 'rot1': 257, 'rot0': 258, 'rot3': 42, 'rot2': 42, 'depth': 3.293, 'yaw': -144.72, 'datetime': '2018-11-26 12:42:51.670545', 'mgs': 0, 'flw2': 7.96, 'flw1': 1.17, 'flw0': 8.25, 'time': 23.16, 'compass': 179.24, 'pitch': 3.5, 'roll': 10.14}
{'lipoC2': 7.41, 'temp': 30.06, 'lipoC3S3': 11.5, 'state': 'normal', 'rot1': 261, 'rot0': 262, 'rot3': 42, 'rot2': 42, 'depth': 3.064, 'yaw': -147.47, 'datetime': '2018-11-26 12:42:51.880015', 'mgs': 0, 'flw2': 7.6, 'flw1': 1.05, 'flw0': 7.93, 'time': 23.37, 'compass': 176.49, 'pitch': 3.52, 'roll': 9.48}
{'lipoC2': 7.4, 'temp': 30.13, 'lipoC3S3': 11.34, 'state': 'normal', 'rot1': 264, 'rot0': 266, 'rot3': 43, 'rot2': 43, 'depth': 2.988, 'yaw': -149.96, 'datetime': '2018-11-26 12:42:52.091031', 'mgs': 0, 'flw2': 7.75, 'flw1': 1.17, 'flw0': 7.75, 'time': 23.58, 'compass': 174.0, 'pitch': 3.41, 'roll': 8.55}
{'lipoC2': 7.41, 'temp': 30.06, 'lipoC3S3': 11.54, 'state': 'normal', 'rot1': 268, 'rot0': 270, 'rot3': 43, 'rot2': 43, 'depth': 1.691, 'yaw': -152.43, 'datetime': '2018-11-26 12:42:52.301863', 'mgs': 0, 'flw2': 7.59, 'flw1': 1.03, 'flw0': 8.23, 'time': 23.8, 'compass': 171.53, 'pitch': 3.58, 'roll': 7.65}
{'lipoC2': 7.41, 'temp': 30.13, 'lipoC3S3': 11.34, 'state': 'normal', 'rot1': 271, 'rot0': 273, 'rot3': 44, 'rot2': 44, 'depth': 2.377, 'yaw': -155.05, 'datetime': '2018-11-26 12:42:52.512581', 'mgs': 0, 'flw2': 7.37, 'flw1': 1.05, 'flw0': 7.62, 'time': 24.01, 'compass': 168.9, 'pitch': 3.75, 'roll': 7.02}
{'lipoC2': 7.41, 'temp': 30.13, 'lipoC3S3': 11.5, 'state': 'normal', 'rot1': 275, 'rot0': 277, 'rot3': 44, 'rot2': 44, 'depth': 2.911, 'yaw': -157.69, 'datetime': '2018-11-26 12:42:52.725055', 'mgs': 0, 'flw2': 8.02, 'flw1': 1.17, 'flw0': 7.69, 'time': 24.22, 'compass': 166.27, 'pitch': 3.75, 'roll': 6.85}
{'lipoC2': 7.41, 'temp': 30.0, 'lipoC3S3': 11.39, 'state': 'normal', 'rot1': 279, 'rot0': 280, 'rot3': 44, 'rot2': 44, 'depth': 1.614, 'yaw': -160.41, 'datetime': '2018-11-26 12:42:52.935627', 'mgs': 0, 'flw2': 7.86, 'flw1': 1.0, 'flw0': 8.24, 'time': 24.43, 'compass': 163.55, 'pitch': 3.47, 'roll': 7.08}
{'lipoC2': 7.41, 'temp': 30.25, 'lipoC3S3': 11.52, 'state': 'normal', 'rot1': 283, 'rot0': 284, 'rot3': 45, 'rot2': 45, 'depth': 1.767, 'yaw': -162.83, 'datetime': '2018-11-26 12:42:53.150533', 'mgs': 0, 'flw2': 7.48, 'flw1': 1.08, 'flw0': 8.28, 'time': 24.64, 'compass': 161.13, 'pitch': 3.26, 'roll': 7.51}
{'lipoC2': 7.41, 'temp': 29.88, 'lipoC3S3': 11.32, 'state': 'normal', 'rot1': 287, 'rot0': 288, 'rot3': 45, 'rot2': 45, 'depth': 2.454, 'yaw': -165.23, 'datetime': '2018-11-26 12:42:53.358087', 'mgs': 0, 'flw2': 7.95, 'flw1': 1.05, 'flw0': 7.81, 'time': 24.85, 'compass': 158.72, 'pitch': 3.23, 'roll': 8.01}
{'lipoC2': 7.41, 'temp': 30.13, 'lipoC3S3': 11.54, 'state': 'normal', 'rot1': 291, 'rot0': 292, 'rot3': 46, 'rot2': 46, 'depth': 1.309, 'yaw': -167.46, 'datetime': '2018-11-26 12:42:53.567658', 'mgs': 0, 'flw2': 7.76, 'flw1': 1.14, 'flw0': 7.98, 'time': 25.06, 'compass': 156.49, 'pitch': 3.24, 'roll': 8.3}
{'lipoC2': 7.41, 'temp': 30.31, 'lipoC3S3': 11.5, 'state': 'normal', 'rot1': 295, 'rot0': 297, 'rot3': 46, 'rot2': 46, 'depth': 3.293, 'yaw': -169.68, 'datetime': '2018-11-26 12:42:53.780843', 'mgs': 0, 'flw2': 9.86, 'flw1': 1.11, 'flw0': 10.1, 'time': 25.28, 'compass': 154.27, 'pitch': 3.19, 'roll': 8.36}
{'lipoC2': 7.41, 'temp': 30.0, 'lipoC3S3': 11.48, 'state': 'normal', 'rot1': 299, 'rot0': 300, 'rot3': 47, 'rot2': 47, 'depth': 3.369, 'yaw': -171.77, 'datetime': '2018-11-26 12:42:53.993247', 'mgs': 0, 'flw2': 9.33, 'flw1': 1.17, 'flw0': 9.73, 'time': 25.49, 'compass': 152.19, 'pitch': 3.07, 'roll': 8.5}
{'lipoC2': 7.4, 'temp': 30.13, 'lipoC3S3': 11.34, 'state': 'normal', 'rot1': 303, 'rot0': 305, 'rot3': 47, 'rot2': 47, 'depth': 1.691, 'yaw': -173.89, 'datetime': '2018-11-26 12:42:54.214475', 'mgs': 0, 'flw2': 9.29, 'flw1': 1.03, 'flw0': 9.75, 'time': 25.7, 'compass': 150.07, 'pitch': 3.0, 'roll': 8.64}
{'lipoC2': 7.41, 'temp': 30.06, 'lipoC3S3': 11.5, 'state': 'normal', 'rot1': 309, 'rot0': 310, 'rot3': 48, 'rot2': 48, 'depth': 3.598, 'yaw': -176.72, 'datetime': '2018-11-26 12:42:54.516104', 'mgs': 0, 'flw2': 9.05, 'flw1': 1.08, 'flw0': 10.06, 'time': 26.01, 'compass': 147.24, 'pitch': 2.81, 'roll': 8.52}
{'lipoC2': 7.41, 'temp': 30.06, 'lipoC3S3': 11.31, 'state': 'normal', 'rot1': 313, 'rot0': 314, 'rot3': 48, 'rot2': 48, 'depth': 3.064, 'yaw': -178.54, 'datetime': '2018-11-26 12:42:54.728780', 'mgs': 0, 'flw2': 9.13, 'flw1': 1.17, 'flw0': 9.69, 'time': 26.23, 'compass': 145.41, 'pitch': 2.51, 'roll': 8.17}
{'lipoC2': 7.41, 'temp': 29.88, 'lipoC3S3': 11.31, 'state': 'normal', 'rot1': 317, 'rot0': 319, 'rot3': 49, 'rot2': 49, 'depth': 3.064, 'yaw': 179.79, 'datetime': '2018-11-26 12:42:54.940651', 'mgs': 0, 'flw2': 9.09, 'flw1': 1.14, 'flw0': 9.73, 'time': 26.44, 'compass': 143.74, 'pitch': 2.3, 'roll': 7.65}
{'lipoC2': 7.41, 'temp': 29.88, 'lipoC3S3': 11.5, 'state': 'normal', 'rot1': 320, 'rot0': 322, 'rot3': 49, 'rot2': 49, 'depth': 1.614, 'yaw': 178.19, 'datetime': '2018-11-26 12:42:55.156466', 'mgs': 0, 'flw2': 9.07, 'flw1': 1.11, 'flw0': 9.5, 'time': 26.65, 'compass': 142.14, 'pitch': 2.42, 'roll': 7.32}
{'lipoC2': 7.41, 'temp': 30.44, 'lipoC3S3': 11.32, 'state': 'normal', 'rot1': 324, 'rot0': 326, 'rot3': 50, 'rot2': 50, 'depth': 1.614, 'yaw': 176.63, 'datetime': '2018-11-26 12:42:55.366675', 'mgs': 0, 'flw2': 8.76, 'flw1': 1.0, 'flw0': 9.9, 'time': 26.86, 'compass': 140.58, 'pitch': 2.45, 'roll': 7.3}
{'lipoC2': 7.41, 'temp': 30.13, 'lipoC3S3': 11.47, 'state': 'normal', 'rot1': 328, 'rot0': 330, 'rot3': 50, 'rot2': 50, 'depth': 2.606, 'yaw': 174.94, 'datetime': '2018-11-26 12:42:55.578284', 'mgs': 0, 'flw2': 9.14, 'flw1': 1.05, 'flw0': 9.78, 'time': 27.07, 'compass': 138.9, 'pitch': 2.12, 'roll': 7.57}
{'lipoC2': 7.4, 'temp': 30.19, 'lipoC3S3': 11.42, 'state': 'normal', 'rot1': 332, 'rot0': 334, 'rot3': 51, 'rot2': 52, 'depth': 1.691, 'yaw': 173.38, 'datetime': '2018-11-26 12:42:55.789836', 'mgs': 0, 'flw2': 9.09, 'flw1': 1.03, 'flw0': 10.07, 'time': 27.28, 'compass': 137.34, 'pitch': 1.88, 'roll': 7.88}
{'lipoC2': 7.42, 'temp': 30.13, 'lipoC3S3': 11.47, 'state': 'normal', 'rot1': 336, 'rot0': 338, 'rot3': 51, 'rot2': 52, 'depth': 2.988, 'yaw': 172.04, 'datetime': '2018-11-26 12:42:56.001363', 'mgs': 0, 'flw2': 8.91, 'flw1': 1.14, 'flw0': 9.07, 'time': 27.5, 'compass': 136.0, 'pitch': 2.03, 'roll': 8.08}
{'lipoC2': 7.41, 'temp': 30.0, 'lipoC3S3': 11.5, 'state': 'normal', 'rot1': 340, 'rot0': 343, 'rot3': 52, 'rot2': 53, 'depth': 3.674, 'yaw': 170.65, 'datetime': '2018-11-26 12:42:56.212906', 'mgs': 0, 'flw2': 9.33, 'flw1': 1.0, 'flw0': 9.96, 'time': 27.71, 'compass': 134.61, 'pitch': 2.21, 'roll': 8.07}
{'lipoC2': 7.41, 'temp': 30.13, 'lipoC3S3': 11.32, 'state': 'normal', 'rot1': 344, 'rot0': 347, 'rot3': 52, 'rot2': 53, 'depth': 1.538, 'yaw': 169.16, 'datetime': '2018-11-26 12:42:56.422134', 'mgs': 0, 'flw2': 8.73, 'flw1': 1.03, 'flw0': 9.85, 'time': 27.92, 'compass': 133.11, 'pitch': 2.42, 'roll': 8.01}
{'lipoC2': 7.42, 'temp': 30.13, 'lipoC3S3': 11.27, 'state': 'normal', 'rot1': 348, 'rot0': 351, 'rot3': 52, 'rot2': 53, 'depth': 2.988, 'yaw': 167.65, 'datetime': '2018-11-26 12:42:56.633161', 'mgs': 0, 'flw2': 9.74, 'flw1': 1.14, 'flw0': 10.12, 'time': 28.13, 'compass': 131.61, 'pitch': 2.62, 'roll': 7.94}
{'lipoC2': 7.41, 'temp': 30.13, 'lipoC3S3': 11.31, 'state': 'normal', 'rot1': 352, 'rot0': 354, 'rot3': 53, 'rot2': 54, 'depth': 1.614, 'yaw': 166.22, 'datetime': '2018-11-26 12:42:56.844176', 'mgs': 0, 'flw2': 11.15, 'flw1': 1.03, 'flw0': 11.43, 'time': 28.34, 'compass': 130.17, 'pitch': 2.82, 'roll': 7.69}
{'lipoC2': 7.41, 'temp': 30.06, 'lipoC3S3': 11.47, 'state': 'normal', 'rot1': 356, 'rot0': 359, 'rot3': 53, 'rot2': 54, 'depth': 1.996, 'yaw': 165.16, 'datetime': '2018-11-26 12:42:57.056354', 'mgs': 0, 'flw2': 11.13, 'flw1': 1.29, 'flw0': 11.01, 'time': 28.55, 'compass': 129.11, 'pitch': 2.81, 'roll': 7.82}
{'lipoC2': 7.41, 'temp': 30.19, 'lipoC3S3': 11.4, 'state': 'normal', 'rot1': 360, 'rot0': 363, 'rot3': 54, 'rot2': 55, 'depth': 3.064, 'yaw': 163.98, 'datetime': '2018-11-26 12:42:57.266482', 'mgs': 0, 'flw2': 11.22, 'flw1': 1.08, 'flw0': 11.78, 'time': 28.76, 'compass': 127.93, 'pitch': 2.87, 'roll': 8.29}
{'lipoC2': 7.41, 'temp': 29.81, 'lipoC3S3': 11.29, 'state': 'normal', 'rot1': 365, 'rot0': 367, 'rot3': 54, 'rot2': 55, 'depth': 1.614, 'yaw': 162.79, 'datetime': '2018-11-26 12:42:57.477809', 'mgs': 0, 'flw2': 11.06, 'flw1': 1.0, 'flw0': 11.87, 'time': 28.97, 'compass': 126.74, 'pitch': 2.94, 'roll': 8.59}
{'lipoC2': 7.41, 'temp': 30.19, 'lipoC3S3': 11.39, 'state': 'normal', 'rot1': 370, 'rot0': 371, 'rot3': 55, 'rot2': 56, 'depth': 3.445, 'yaw': 161.83, 'datetime': '2018-11-26 12:42:57.688844', 'mgs': 0, 'flw2': 11.13, 'flw1': 1.11, 'flw0': 11.76, 'time': 29.19, 'compass': 125.79, 'pitch': 2.91, 'roll': 8.37}
{'lipoC2': 7.4, 'temp': 30.13, 'lipoC3S3': 11.46, 'state': 'normal', 'rot1': 374, 'rot0': 376, 'rot3': 55, 'rot2': 56, 'depth': 3.217, 'yaw': 160.86, 'datetime': '2018-11-26 12:42:57.900633', 'mgs': 0, 'flw2': 11.44, 'flw1': 1.2, 'flw0': 11.85, 'time': 29.4, 'compass': 124.82, 'pitch': 2.65, 'roll': 8.22}
{'lipoC2': 7.41, 'temp': 30.13, 'lipoC3S3': 11.31, 'state': 'normal', 'rot1': 378, 'rot0': 380, 'rot3': 56, 'rot2': 57, 'depth': 3.369, 'yaw': 159.9, 'datetime': '2018-11-26 12:42:58.111668', 'mgs': 0, 'flw2': 11.04, 'flw1': 1.03, 'flw0': 11.62, 'time': 29.61, 'compass': 123.86, 'pitch': 2.65, 'roll': 8.24}
{'lipoC2': 7.41, 'temp': 30.25, 'lipoC3S3': 11.27, 'state': 'normal', 'rot1': 382, 'rot0': 384, 'rot3': 56, 'rot2': 57, 'depth': 2.225, 'yaw': 159.17, 'datetime': '2018-11-26 12:42:58.321638', 'mgs': 0, 'flw2': 11.12, 'flw1': 1.05, 'flw0': 11.74, 'time': 29.82, 'compass': 123.12, 'pitch': 2.72, 'roll': 8.45}
{'lipoC2': 7.41, 'temp': 30.25, 'lipoC3S3': 11.27, 'state': 'normal', 'rot1': 386, 'rot0': 389, 'rot3': 56, 'rot2': 57, 'depth': 1.691, 'yaw': 158.59, 'datetime': '2018-11-26 12:42:58.533270', 'mgs': 0, 'flw2': 11.49, 'flw1': 1.14, 'flw0': 11.52, 'time': 30.03, 'compass': 122.54, 'pitch': 2.52, 'roll': 8.72}
{'lipoC2': 7.42, 'temp': 30.06, 'lipoC3S3': 11.3, 'state': 'normal', 'rot1': 390, 'rot0': 393, 'rot3': 57, 'rot2': 58, 'depth': 2.53, 'yaw': 163.02, 'datetime': '2018-11-26 12:42:58.744799', 'mgs': 0, 'flw2': 11.21, 'flw1': 1.0, 'flw0': 11.35, 'time': 30.24, 'compass': 126.98, 'pitch': 3.06, 'roll': 9.04}
{'lipoC2': 7.42, 'temp': 30.13, 'lipoC3S3': 11.27, 'state': 'normal', 'rot1': 394, 'rot0': 397, 'rot3': 57, 'rot2': 58, 'depth': 2.682, 'yaw': 170.33, 'datetime': '2018-11-26 12:42:58.956868', 'mgs': 0, 'flw2': 11.17, 'flw1': 1.08, 'flw0': 11.57, 'time': 30.45, 'compass': 134.29, 'pitch': 5.09, 'roll': 8.45}
{'lipoC2': 7.41, 'temp': 30.88, 'lipoC3S3': 11.46, 'state': 'normal', 'rot1': 399, 'rot0': 401, 'rot3': 58, 'rot2': 59, 'depth': 3.369, 'yaw': 172.11, 'datetime': '2018-11-26 12:42:59.166372', 'mgs': 0, 'flw2': 11.33, 'flw1': 1.11, 'flw0': 11.38, 'time': 30.66, 'compass': 136.07, 'pitch': 6.54, 'roll': 12.81}
{'lipoC2': 7.4, 'temp': 29.63, 'lipoC3S3': 11.27, 'state': 'normal', 'rot1': 403, 'rot0': 405, 'rot3': 58, 'rot2': 59, 'depth': 1.92, 'yaw': 174.62, 'datetime': '2018-11-26 12:42:59.377409', 'mgs': 0, 'flw2': 11.25, 'flw1': 0.94, 'flw0': 11.65, 'time': 30.88, 'compass': 138.57, 'pitch': 6.86, 'roll': 16.91}
{'lipoC2': 7.42, 'temp': 30.31, 'lipoC3S3': 11.29, 'state': 'normal', 'rot1': 407, 'rot0': 409, 'rot3': 59, 'rot2': 60, 'depth': 3.522, 'yaw': 176.89, 'datetime': '2018-11-26 12:42:59.588069', 'mgs': 0, 'flw2': 11.27, 'flw1': 1.03, 'flw0': 11.0, 'time': 31.09, 'compass': 140.85, 'pitch': 5.63, 'roll': 20.4}
{'lipoC2': 7.41, 'temp': 30.06, 'lipoC3S3': 11.25, 'state': 'normal', 'rot1': 411, 'rot0': 415, 'rot3': 59, 'rot2': 60, 'depth': 4.361, 'yaw': 179.01, 'datetime': '2018-11-26 12:42:59.799283', 'mgs': 0, 'flw2': 12.49, 'flw1': 1.05, 'flw0': 12.49, 'time': 31.3, 'compass': 142.96, 'pitch': 3.43, 'roll': 23.4}
{'lipoC2': 7.41, 'temp': 30.31, 'lipoC3S3': 11.42, 'state': 'normal', 'rot1': 416, 'rot0': 420, 'rot3': 60, 'rot2': 61, 'depth': 4.056, 'yaw': -178.46, 'datetime': '2018-11-26 12:43:00.011169', 'mgs': 0, 'flw2': 12.49, 'flw1': 1.05, 'flw0': 12.49, 'time': 31.51, 'compass': 145.49, 'pitch': 1.27, 'roll': 26.62}
{'lipoC2': 7.42, 'temp': 30.31, 'lipoC3S3': 11.36, 'state': 'normal', 'rot1': 420, 'rot0': 425, 'rot3': 60, 'rot2': 61, 'depth': 2.301, 'yaw': -175.63, 'datetime': '2018-11-26 12:43:00.222470', 'mgs': 0, 'flw2': 12.49, 'flw1': 1.03, 'flw0': 12.49, 'time': 31.72, 'compass': 148.33, 'pitch': -0.53, 'roll': 29.92}
{'lipoC2': 7.42, 'temp': 30.13, 'lipoC3S3': 11.26, 'state': 'normal', 'rot1': 425, 'rot0': 430, 'rot3': 61, 'rot2': 62, 'depth': 4.132, 'yaw': -174.11, 'datetime': '2018-11-26 12:43:00.431899', 'mgs': 0, 'flw2': 12.49, 'flw1': 1.14, 'flw0': 12.49, 'time': 31.93, 'compass': 149.85, 'pitch': -1.83, 'roll': 32.43}
{'lipoC2': 7.41, 'temp': 30.19, 'lipoC3S3': 11.27, 'state': 'normal', 'rot1': 430, 'rot0': 435, 'rot3': 61, 'rot2': 62, 'depth': 3.979, 'yaw': -173.76, 'datetime': '2018-11-26 12:43:00.644744', 'mgs': 0, 'flw2': 12.49, 'flw1': 1.14, 'flw0': 12.49, 'time': 32.14, 'compass': 150.2, 'pitch': -3.18, 'roll': 31.34}
{'lipoC2': 7.42, 'temp': 30.13, 'lipoC3S3': 11.22, 'state': 'normal', 'rot1': 435, 'rot0': 440, 'rot3': 62, 'rot2': 62, 'depth': 3.903, 'yaw': -174.02, 'datetime': '2018-11-26 12:43:00.856685', 'mgs': 0, 'flw2': 12.49, 'flw1': 1.11, 'flw0': 12.49, 'time': 32.36, 'compass': 149.94, 'pitch': -4.8, 'roll': 31.83}
{'lipoC2': 7.42, 'temp': 30.13, 'lipoC3S3': 11.43, 'state': 'normal', 'rot1': 439, 'rot0': 444, 'rot3': 62, 'rot2': 63, 'depth': 2.682, 'yaw': -174.02, 'datetime': '2018-11-26 12:43:01.066799', 'mgs': 0, 'flw2': 12.49, 'flw1': 1.05, 'flw0': 12.49, 'time': 32.57, 'compass': 149.94, 'pitch': -5.36, 'roll': 31.96}
{'lipoC2': 7.42, 'temp': 30.19, 'lipoC3S3': 11.25, 'state': 'normal', 'rot1': 443, 'rot0': 449, 'rot3': 62, 'rot2': 63, 'depth': 4.056, 'yaw': -174.0, 'datetime': '2018-11-26 12:43:01.279120', 'mgs': 0, 'flw2': 12.49, 'flw1': 1.03, 'flw0': 12.49, 'time': 32.78, 'compass': 149.95, 'pitch': -5.4, 'roll': 32.14}
{'lipoC2': 7.41, 'temp': 30.13, 'lipoC3S3': 11.23, 'state': 'normal', 'rot1': 448, 'rot0': 455, 'rot3': 63, 'rot2': 64, 'depth': 1.92, 'yaw': -174.0, 'datetime': '2018-11-26 12:43:01.489882', 'mgs': 0, 'flw2': 12.49, 'flw1': 1.05, 'flw0': 12.49, 'time': 32.99, 'compass': 149.96, 'pitch': -5.4, 'roll': 32.16}
{'lipoC2': 7.42, 'temp': 30.19, 'lipoC3S3': 11.26, 'state': 'normal', 'rot1': 453, 'rot0': 459, 'rot3': 63, 'rot2': 64, 'depth': 3.445, 'yaw': -174.0, 'datetime': '2018-11-26 12:43:01.701258', 'mgs': 0, 'flw2': 12.49, 'flw1': 1.0, 'flw0': 12.49, 'time': 33.2, 'compass': 149.96, 'pitch': -5.4, 'roll': 32.22}
{'lipoC2': 7.41, 'temp': 30.19, 'lipoC3S3': 11.26, 'state': 'normal', 'rot1': 457, 'rot0': 464, 'rot3': 64, 'rot2': 65, 'depth': 1.996, 'yaw': -174.0, 'datetime': '2018-11-26 12:43:01.913715', 'mgs': 0, 'flw2': 12.49, 'flw1': 1.0, 'flw0': 12.49, 'time': 33.41, 'compass': 149.96, 'pitch': -5.4, 'roll': 32.22}
{'lipoC2': 7.41, 'temp': 30.19, 'lipoC3S3': 11.25, 'state': 'normal', 'rot1': 462, 'rot0': 470, 'rot3': 64, 'rot2': 65, 'depth': 3.903, 'yaw': -174.0, 'datetime': '2018-11-26 12:43:02.123417', 'mgs': 0, 'flw2': 12.49, 'flw1': 1.17, 'flw0': 12.49, 'time': 33.63, 'compass': 149.96, 'pitch': -5.4, 'roll': 32.22}
{'lipoC2': 7.41, 'temp': 30.31, 'lipoC3S3': 11.26, 'state': 'normal', 'rot1': 466, 'rot0': 474, 'rot3': 65, 'rot2': 66, 'depth': 3.979, 'yaw': -174.0, 'datetime': '2018-11-26 12:43:02.335936', 'mgs': 0, 'flw2': 12.49, 'flw1': 1.08, 'flw0': 12.49, 'time': 33.84, 'compass': 149.96, 'pitch': -5.4, 'roll': 32.24}
{'lipoC2': 7.42, 'temp': 30.25, 'lipoC3S3': 11.22, 'state': 'normal', 'rot1': 470, 'rot0': 480, 'rot3': 65, 'rot2': 66, 'depth': 3.522, 'yaw': -173.95, 'datetime': '2018-11-26 12:43:02.548969', 'mgs': 0, 'flw2': 12.49, 'flw1': 1.03, 'flw0': 12.49, 'time': 34.05, 'compass': 150.01, 'pitch': -5.3, 'roll': 32.26}
{'lipoC2': 7.41, 'temp': 30.19, 'lipoC3S3': 11.22, 'state': 'normal', 'rot1': 475, 'rot0': 484, 'rot3': 66, 'rot2': 67, 'depth': 3.903, 'yaw': -173.9, 'datetime': '2018-11-26 12:43:02.761366', 'mgs': 0, 'flw2': 12.49, 'flw1': 1.05, 'flw0': 12.49, 'time': 34.26, 'compass': 150.05, 'pitch': -4.96, 'roll': 32.3}
{'lipoC2': 7.41, 'temp': 30.13, 'lipoC3S3': 11.54, 'state': 'normal', 'rot1': 477, 'rot0': 485, 'rot3': 66, 'rot2': 67, 'depth': 2.072, 'yaw': -173.54, 'datetime': '2018-11-26 12:43:02.965466', 'mgs': 0, 'flw2': 0.0, 'flw1': 0.0, 'flw0': 0.0, 'time': 34.47, 'compass': 150.42, 'pitch': -3.93, 'roll': 30.78}
{'lipoC2': 7.4, 'temp': 30.13, 'lipoC3S3': 11.55, 'state': 'normal', 'rot1': 477, 'rot0': 485, 'rot3': 66, 'rot2': 67, 'depth': 2.148, 'yaw': -171.84, 'datetime': '2018-11-26 12:43:03.174175', 'mgs': 0, 'flw2': 0.0, 'flw1': 0.0, 'flw0': 0.0, 'time': 34.68, 'compass': 152.12, 'pitch': -1.27, 'roll': 24.15}
{'lipoC2': 7.41, 'temp': 30.13, 'lipoC3S3': 11.55, 'state': 'normal', 'rot1': 477, 'rot0': 485, 'rot3': 66, 'rot2': 67, 'depth': 1.92, 'yaw': -170.15, 'datetime': '2018-11-26 12:43:03.386589', 'mgs': 0, 'flw2': 0.0, 'flw1': 0.0, 'flw0': 0.0, 'time': 34.89, 'compass': 153.8, 'pitch': 2.41, 'roll': 15.5}
{'lipoC2': 7.4, 'temp': 30.81, 'lipoC3S3': 11.55, 'state': 'normal', 'rot1': 477, 'rot0': 485, 'rot3': 66, 'rot2': 67, 'depth': 1.767, 'yaw': -169.58, 'datetime': '2018-11-26 12:43:03.600736', 'mgs': 0, 'flw2': 0.0, 'flw1': 0.0, 'flw0': 0.0, 'time': 35.1, 'compass': 154.38, 'pitch': 5.79, 'roll': 8.39}
{'lipoC2': 7.41, 'temp': 30.19, 'lipoC3S3': 11.55, 'state': 'normal', 'rot1': 477, 'rot0': 485, 'rot3': 66, 'rot2': 67, 'depth': 1.614, 'yaw': -170.11, 'datetime': '2018-11-26 12:43:03.812102', 'mgs': 0, 'flw2': 0.0, 'flw1': 0.0, 'flw0': 0.0, 'time': 35.32, 'compass': 153.85, 'pitch': 8.13, 'roll': 1.82}
{'lipoC2': 7.41, 'temp': 30.25, 'lipoC3S3': 11.56, 'state': 'normal', 'rot1': 477, 'rot0': 485, 'rot3': 66, 'rot2': 67, 'depth': 1.385, 'yaw': -171.19, 'datetime': '2018-11-26 12:43:04.021644', 'mgs': 0, 'flw2': 0.0, 'flw1': 0.0, 'flw0': 0.0, 'time': 35.53, 'compass': 152.76, 'pitch': 9.14, 'roll': -4.15}
{'lipoC2': 7.4, 'temp': 30.19, 'lipoC3S3': 11.56, 'state': 'normal', 'rot1': 477, 'rot0': 485, 'rot3': 66, 'rot2': 67, 'depth': 1.233, 'yaw': -172.44, 'datetime': '2018-11-26 12:43:04.235389', 'mgs': 0, 'flw2': 0.0, 'flw1': 0.0, 'flw0': 0.0, 'time': 35.74, 'compass': 151.51, 'pitch': 8.86, 'roll': -8.88}
{'lipoC2': 7.4, 'temp': 30.19, 'lipoC3S3': 11.56, 'state': 'normal', 'rot1': 477, 'rot0': 485, 'rot3': 66, 'rot2': 67, 'depth': 1.385, 'yaw': -173.6, 'datetime': '2018-11-26 12:43:04.445278', 'mgs': 0, 'flw2': 0.0, 'flw1': 0.0, 'flw0': 0.0, 'time': 35.95, 'compass': 150.35, 'pitch': 7.5, 'roll': -11.14}
{'lipoC2': 7.41, 'temp': 30.25, 'lipoC3S3': 11.58, 'state': 'normal', 'rot1': 477, 'rot0': 485, 'rot3': 66, 'rot2': 67, 'depth': 1.385, 'yaw': -174.51, 'datetime': '2018-11-26 12:43:04.656631', 'mgs': 0, 'flw2': 0.0, 'flw1': 0.0, 'flw0': 0.0, 'time': 36.16, 'compass': 149.45, 'pitch': 5.58, 'roll': -10.61}
{'lipoC2': 7.4, 'temp': 30.31, 'lipoC3S3': 11.56, 'state': 'normal', 'rot1': 477, 'rot0': 485, 'rot3': 66, 'rot2': 67, 'depth': 1.462, 'yaw': -175.4, 'datetime': '2018-11-26 12:43:04.868520', 'mgs': 0, 'flw2': 0.0, 'flw1': 0.0, 'flw0': 0.0, 'time': 36.37, 'compass': 148.55, 'pitch': 3.69, 'roll': -8.58}
{'lipoC2': 7.4, 'temp': 30.31, 'lipoC3S3': 11.58, 'state': 'normal', 'rot1': 477, 'rot0': 485, 'rot3': 66, 'rot2': 67, 'depth': 1.538, 'yaw': -176.39, 'datetime': '2018-11-26 12:43:05.082137', 'mgs': 0, 'flw2': 0.0, 'flw1': 0.0, 'flw0': 0.0, 'time': 36.58, 'compass': 147.57, 'pitch': 2.34, 'roll': -5.91}
{'lipoC2': 7.41, 'temp': 30.19, 'lipoC3S3': 11.58, 'state': 'normal', 'rot1': 477, 'rot0': 485, 'rot3': 66, 'rot2': 67, 'depth': 1.614, 'yaw': -177.47, 'datetime': '2018-11-26 12:43:05.288921', 'mgs': 0, 'flw2': 0.0, 'flw1': 0.0, 'flw0': 0.0, 'time': 36.79, 'compass': 146.49, 'pitch': 1.81, 'roll': -3.2}
{'lipoC2': 7.4, 'temp': 30.81, 'lipoC3S3': 11.58, 'state': 'normal', 'rot1': 477, 'rot0': 485, 'rot3': 66, 'rot2': 67, 'depth': 1.691, 'yaw': -178.58, 'datetime': '2018-11-26 12:43:05.499588', 'mgs': 0, 'flw2': 0.0, 'flw1': 0.0, 'flw0': 0.0, 'time': 37.0, 'compass': 145.38, 'pitch': 1.89, 'roll': -0.79}
{'lipoC2': 7.41, 'temp': 30.25, 'lipoC3S3': 11.58, 'state': 'normal', 'rot1': 477, 'rot0': 485, 'rot3': 66, 'rot2': 67, 'depth': 1.767, 'yaw': -179.49, 'datetime': '2018-11-26 12:43:05.711411', 'mgs': 0, 'flw2': 0.0, 'flw1': 0.0, 'flw0': 0.0, 'time': 37.22, 'compass': 144.47, 'pitch': 2.48, 'roll': 0.62}
{'lipoC2': 7.41, 'temp': 30.25, 'lipoC3S3': 11.58, 'state': 'normal', 'rot1': 477, 'rot0': 485, 'rot3': 66, 'rot2': 67, 'depth': 1.767, 'yaw': 179.74, 'datetime': '2018-11-26 12:43:05.922556', 'mgs': 0, 'flw2': 0.0, 'flw1': 0.0, 'flw0': 0.0, 'time': 37.43, 'compass': 143.69, 'pitch': 3.56, 'roll': 1.0}
{'lipoC2': 7.41, 'temp': 30.25, 'lipoC3S3': 11.58, 'state': 'normal', 'rot1': 477, 'rot0': 485, 'rot3': 66, 'rot2': 67, 'depth': 1.843, 'yaw': 179.05, 'datetime': '2018-11-26 12:43:06.132464', 'mgs': 0, 'flw2': 0.0, 'flw1': 0.0, 'flw0': 0.0, 'time': 37.64, 'compass': 143.0, 'pitch': 4.85, 'roll': 0.35}
{'lipoC2': 7.41, 'temp': 30.19, 'lipoC3S3': 11.58, 'state': 'normal', 'rot1': 477, 'rot0': 485, 'rot3': 66, 'rot2': 67, 'depth': 1.767, 'yaw': 178.24, 'datetime': '2018-11-26 12:43:06.342342', 'mgs': 0, 'flw2': 0.0, 'flw1': 0.0, 'flw0': 0.0, 'time': 37.85, 'compass': 142.19, 'pitch': 5.87, 'roll': -1.12}
{'lipoC2': 7.41, 'temp': 30.63, 'lipoC3S3': 11.58, 'state': 'normal', 'rot1': 477, 'rot0': 485, 'rot3': 66, 'rot2': 67, 'depth': 1.767, 'yaw': 177.31, 'datetime': '2018-11-26 12:43:06.554348', 'mgs': 0, 'flw2': 0.0, 'flw1': 0.0, 'flw0': 0.0, 'time': 38.06, 'compass': 141.27, 'pitch': 6.36, 'roll': -2.88}
{'lipoC2': 7.4, 'temp': 30.63, 'lipoC3S3': 11.59, 'state': 'normal', 'rot1': 477, 'rot0': 485, 'rot3': 66, 'rot2': 67, 'depth': 1.691, 'yaw': 176.35, 'datetime': '2018-11-26 12:43:06.764055', 'mgs': 0, 'flw2': 0.0, 'flw1': 0.0, 'flw0': 0.0, 'time': 38.27, 'compass': 140.31, 'pitch': 6.36, 'roll': -4.32}
{'lipoC2': 7.41, 'temp': 30.19, 'lipoC3S3': 11.59, 'state': 'normal', 'rot1': 477, 'rot0': 485, 'rot3': 66, 'rot2': 67, 'depth': 1.767, 'yaw': 175.4, 'datetime': '2018-11-26 12:43:06.974542', 'mgs': 0, 'flw2': 0.0, 'flw1': 0.0, 'flw0': 0.0, 'time': 38.48, 'compass': 139.36, 'pitch': 5.89, 'roll': -5.11}
{'lipoC2': 7.41, 'temp': 30.25, 'lipoC3S3': 11.58, 'state': 'normal', 'rot1': 477, 'rot0': 485, 'rot3': 66, 'rot2': 67, 'depth': 1.767, 'yaw': 174.44, 'datetime': '2018-11-26 12:43:07.185650', 'mgs': 0, 'flw2': 0.0, 'flw1': 0.0, 'flw0': 0.0, 'time': 38.69, 'compass': 138.4, 'pitch': 5.06, 'roll': -5.38}
{'lipoC2': 7.41, 'temp': 30.19, 'lipoC3S3': 11.59, 'state': 'normal', 'rot1': 477, 'rot0': 485, 'rot3': 66, 'rot2': 67, 'depth': 1.843, 'yaw': 173.49, 'datetime': '2018-11-26 12:43:07.394501', 'mgs': 0, 'flw2': 0.0, 'flw1': 0.0, 'flw0': 0.0, 'time': 38.9, 'compass': 137.45, 'pitch': 4.13, 'roll': -5.27}
{'lipoC2': 7.41, 'temp': 30.25, 'lipoC3S3': 11.59, 'state': 'normal', 'rot1': 477, 'rot0': 485, 'rot3': 66, 'rot2': 67, 'depth': 1.843, 'yaw': 172.52, 'datetime': '2018-11-26 12:43:07.606508', 'mgs': 0, 'flw2': 0.0, 'flw1': 0.0, 'flw0': 0.0, 'time': 39.11, 'compass': 136.48, 'pitch': 3.33, 'roll': -4.72}
{'lipoC2': 7.41, 'temp': 30.19, 'lipoC3S3': 11.59, 'state': 'normal', 'rot1': 477, 'rot0': 485, 'rot3': 66, 'rot2': 67, 'depth': 1.92, 'yaw': 171.5, 'datetime': '2018-11-26 12:43:07.814620', 'mgs': 0, 'flw2': 0.0, 'flw1': 0.0, 'flw0': 0.0, 'time': 39.32, 'compass': 135.45, 'pitch': 2.77, 'roll': -3.95}
{'lipoC2': 7.4, 'temp': 30.25, 'lipoC3S3': 11.58, 'state': 'normal', 'rot1': 477, 'rot0': 485, 'rot3': 66, 'rot2': 67, 'depth': 1.996, 'yaw': 170.44, 'datetime': '2018-11-26 12:43:08.023190', 'mgs': 0, 'flw2': 0.0, 'flw1': 0.0, 'flw0': 0.0, 'time': 39.53, 'compass': 134.4, 'pitch': 2.66, 'roll': -3.14}
{'lipoC2': 7.4, 'temp': 30.25, 'lipoC3S3': 11.59, 'state': 'normal', 'rot1': 477, 'rot0': 485, 'rot3': 66, 'rot2': 67, 'depth': 1.92, 'yaw': 169.47, 'datetime': '2018-11-26 12:43:08.232731', 'mgs': 0, 'flw2': 0.0, 'flw1': 0.0, 'flw0': 0.0, 'time': 39.74, 'compass': 133.43, 'pitch': 3.04, 'roll': -2.7}
{'lipoC2': 7.4, 'temp': 30.25, 'lipoC3S3': 11.59, 'state': 'normal', 'rot1': 477, 'rot0': 485, 'rot3': 66, 'rot2': 67, 'depth': 1.843, 'yaw': 168.51, 'datetime': '2018-11-26 12:43:08.440963', 'mgs': 0, 'flw2': 0.0, 'flw1': 0.0, 'flw0': 0.0, 'time': 39.96, 'compass': 132.46, 'pitch': 3.73, 'roll': -2.83}
{'lipoC2': 7.4, 'temp': 30.13, 'lipoC3S3': 11.59, 'state': 'normal', 'rot1': 477, 'rot0': 485, 'rot3': 66, 'rot2': 67, 'depth': 1.996, 'yaw': 167.52, 'datetime': '2018-11-26 12:43:08.653670', 'mgs': 0, 'flw2': 0.0, 'flw1': 0.0, 'flw0': 0.0, 'time': 40.17, 'compass': 131.48, 'pitch': 4.44, 'roll': -3.45}
{'lipoC2': 7.4, 'temp': 30.25, 'lipoC3S3': 11.59, 'state': 'normal', 'rot1': 477, 'rot0': 485, 'rot3': 66, 'rot2': 67, 'depth': 1.996, 'yaw': 166.51, 'datetime': '2018-11-26 12:43:08.863809', 'mgs': 0, 'flw2': 0.0, 'flw1': 0.0, 'flw0': 0.0, 'time': 40.38, 'compass': 130.47, 'pitch': 5.04, 'roll': -4.02}
{'lipoC2': 7.4, 'temp': 30.31, 'lipoC3S3': 11.59, 'state': 'normal', 'rot1': 477, 'rot0': 485, 'rot3': 66, 'rot2': 67, 'depth': 1.996, 'yaw': 165.51, 'datetime': '2018-11-26 12:43:09.075748', 'mgs': 0, 'flw2': 0.0, 'flw1': 0.0, 'flw0': 0.0, 'time': 40.59, 'compass': 129.46, 'pitch': 5.41, 'roll': -4.32}
{'lipoC2': 7.41, 'temp': 30.25, 'lipoC3S3': 11.59, 'state': 'normal', 'rot1': 477, 'rot0': 485, 'rot3': 66, 'rot2': 67, 'depth': 1.996, 'yaw': 164.51, 'datetime': '2018-11-26 12:43:09.286202', 'mgs': 0, 'flw2': 0.0, 'flw1': 0.0, 'flw0': 0.0, 'time': 40.8, 'compass': 128.46, 'pitch': 5.45, 'roll': -4.59}
{'lipoC2': 7.41, 'temp': 30.19, 'lipoC3S3': 11.6, 'state': 'normal', 'rot1': 477, 'rot0': 485, 'rot3': 66, 'rot2': 67, 'depth': 1.92, 'yaw': 163.51, 'datetime': '2018-11-26 12:43:09.497718', 'mgs': 0, 'flw2': 0.0, 'flw1': 0.0, 'flw0': 0.0, 'time': 41.01, 'compass': 127.46, 'pitch': 5.17, 'roll': -4.72}
{'lipoC2': 7.41, 'temp': 30.25, 'lipoC3S3': 11.6, 'state': 'normal', 'rot1': 477, 'rot0': 485, 'rot3': 66, 'rot2': 67, 'depth': 1.996, 'yaw': 162.53, 'datetime': '2018-11-26 12:43:09.709333', 'mgs': 0, 'flw2': 0.0, 'flw1': 0.0, 'flw0': 0.0, 'time': 41.22, 'compass': 126.49, 'pitch': 4.62, 'roll': -4.62}
{'lipoC2': 7.41, 'temp': 30.25, 'lipoC3S3': 11.6, 'state': 'normal', 'rot1': 477, 'rot0': 485, 'rot3': 66, 'rot2': 67, 'depth': 1.996, 'yaw': 161.57, 'datetime': '2018-11-26 12:43:09.919184', 'mgs': 0, 'flw2': 0.0, 'flw1': 0.0, 'flw0': 0.0, 'time': 41.43, 'compass': 125.53, 'pitch': 4.02, 'roll': -4.33}
{'lipoC2': 7.41, 'temp': 30.19, 'lipoC3S3': 11.59, 'state': 'normal', 'rot1': 477, 'rot0': 485, 'rot3': 66, 'rot2': 67, 'depth': 1.996, 'yaw': 160.63, 'datetime': '2018-11-26 12:43:10.129877', 'mgs': 0, 'flw2': 0.0, 'flw1': 0.0, 'flw0': 0.0, 'time': 41.64, 'compass': 124.58, 'pitch': 3.53, 'roll': -3.93}
{'lipoC2': 7.4, 'temp': 30.19, 'lipoC3S3': 11.59, 'state': 'normal', 'rot1': 477, 'rot0': 485, 'rot3': 66, 'rot2': 67, 'depth': 1.996, 'yaw': 159.69, 'datetime': '2018-11-26 12:43:10.340197', 'mgs': 0, 'flw2': 0.0, 'flw1': 0.0, 'flw0': 0.0, 'time': 41.85, 'compass': 123.64, 'pitch': 3.24, 'roll': -3.54}
{'lipoC2': 7.4, 'temp': 30.19, 'lipoC3S3': 11.6, 'state': 'normal', 'rot1': 477, 'rot0': 485, 'rot3': 66, 'rot2': 67, 'depth': 1.996, 'yaw': 158.77, 'datetime': '2018-11-26 12:43:10.550283', 'mgs': 0, 'flw2': 0.0, 'flw1': 0.0, 'flw0': 0.0, 'time': 42.06, 'compass': 122.72, 'pitch': 3.18, 'roll': -3.4}
{'lipoC2': 7.41, 'temp': 30.19, 'lipoC3S3': 11.6, 'state': 'normal', 'rot1': 477, 'rot0': 485, 'rot3': 66, 'rot2': 67, 'depth': 1.92, 'yaw': 158.47, 'datetime': '2018-11-26 12:43:10.761852', 'mgs': 0, 'flw2': 0.0, 'flw1': 0.0, 'flw0': 0.0, 'time': 42.27, 'compass': 122.43, 'pitch': 3.31, 'roll': -3.72}
