{'lipoC2': 7.33, 'temp': 0.0, 'lipoC3S3': 11.31, 'state': 'normal', 'rot1': 0, 'rot0': 0, 'rot3': 0, 'rot2': 0, 'depth': 0.241, 'yaw': 0.0, 'datetime': '2018-12-12 14:27:36.437242', 'mgs': 0, 'flw2': 0.0, 'flw1': 0.0, 'flw0': 0.0, 'time': 1.26, 'compass': 11.67, 'pitch': -2.23, 'roll': -0.25}
{'lipoC2': 7.52, 'temp': 0.0, 'lipoC3S3': 11.29, 'state': 'normal', 'rot1': 0, 'rot0': 0, 'rot3': 0, 'rot2': 0, 'depth': -0.522, 'yaw': 0.68, 'datetime': '2018-12-12 14:27:36.648479', 'mgs': 0, 'flw2': 0.0, 'flw1': 0.21, 'flw0': 0.0, 'time': 1.47, 'compass': 12.34, 'pitch': -2.23, 'roll': 0.13}
{'lipoC2': 7.19, 'temp': 0.0, 'lipoC3S3': 11.55, 'state': 'normal', 'rot1': 0, 'rot0': 0, 'rot3': 0, 'rot2': 0, 'depth': -0.827, 'yaw': 1.32, 'datetime': '2018-12-12 14:27:36.854552', 'mgs': 0, 'flw2': 0.06, 'flw1': 0.0, 'flw0': 0.05, 'time': 1.67, 'compass': 12.99, 'pitch': -2.19, 'roll': 0.51}
{'lipoC2': 7.25, 'temp': 0.0, 'lipoC3S3': 11.39, 'state': 'normal', 'rot1': 0, 'rot0': 0, 'rot3': 0, 'rot2': 0, 'depth': -0.751, 'yaw': 2.01, 'datetime': '2018-12-12 14:27:37.065037', 'mgs': 0, 'flw2': 0.23, 'flw1': 0.0, 'flw0': 0.0, 'time': 1.88, 'compass': 13.68, 'pitch': -2.16, 'roll': 0.46}
{'lipoC2': 7.43, 'temp': 0.0, 'lipoC3S3': 11.31, 'state': 'normal', 'rot1': 0, 'rot0': 0, 'rot3': 0, 'rot2': 0, 'depth': -0.446, 'yaw': 2.6, 'datetime': '2018-12-12 14:27:37.274656', 'mgs': 0, 'flw2': 0.04, 'flw1': 0.0, 'flw0': 0.0, 'time': 2.09, 'compass': 14.26, 'pitch': -2.33, 'roll': 0.1}
{'lipoC2': 7.29, 'temp': 0.0, 'lipoC3S3': 11.52, 'state': 'normal', 'rot1': 0, 'rot0': 0, 'rot3': 0, 'rot2': 0, 'depth': -0.98, 'yaw': 3.16, 'datetime': '2018-12-12 14:27:37.484562', 'mgs': 0, 'flw2': 0.23, 'flw1': 0.0, 'flw0': 0.0, 'time': 2.29, 'compass': 14.83, 'pitch': -2.67, 'roll': -0.2}
{'lipoC2': 7.51, 'temp': 0.0, 'lipoC3S3': 11.22, 'state': 'normal', 'rot1': 0, 'rot0': 0, 'rot3': 0, 'rot2': 0, 'depth': 0.851, 'yaw': 3.73, 'datetime': '2018-12-12 14:27:37.693601', 'mgs': 0, 'flw2': 0.0, 'flw1': 0.56, 'flw0': 0.0, 'time': 2.5, 'compass': 15.4, 'pitch': -2.84, 'roll': -0.36}
{'lipoC2': 7.25, 'temp': 0.0, 'lipoC3S3': 11.39, 'state': 'normal', 'rot1': 0, 'rot0': 0, 'rot3': 0, 'rot2': 0, 'depth': -0.751, 'yaw': 4.26, 'datetime': '2018-12-12 14:27:37.900681', 'mgs': 0, 'flw2': 0.33, 'flw1': 0.0, 'flw0': 0.0, 'time': 2.71, 'compass': 15.92, 'pitch': -2.66, 'roll': -0.22}
{'lipoC2': 7.24, 'temp': 0.0, 'lipoC3S3': 11.54, 'state': 'normal', 'rot1': 0, 'rot0': 0, 'rot3': 0, 'rot2': 0, 'depth': -0.827, 'yaw': 4.84, 'datetime': '2018-12-12 14:27:38.109594', 'mgs': 0, 'flw2': 0.24, 'flw1': 0.0, 'flw0': 0.0, 'time': 2.92, 'compass': 16.51, 'pitch': -2.29, 'roll': 0.13}
{'lipoC2': 7.3, 'temp': 0.0, 'lipoC3S3': 11.6, 'state': 'normal', 'rot1': 0, 'rot0': 0, 'rot3': 0, 'rot2': 0, 'depth': 0.012, 'yaw': 5.38, 'datetime': '2018-12-12 14:27:38.318061', 'mgs': 0, 'flw2': 0.27, 'flw1': 0.0, 'flw0': 0.26, 'time': 3.13, 'compass': 17.04, 'pitch': -2.32, 'roll': 0.5}
{'lipoC2': 7.28, 'temp': 0.0, 'lipoC3S3': 11.36, 'state': 'normal', 'rot1': 0, 'rot0': 0, 'rot3': 0, 'rot2': 0, 'depth': -0.217, 'yaw': 5.93, 'datetime': '2018-12-12 14:27:38.525678', 'mgs': 0, 'flw2': 0.0, 'flw1': 0.23, 'flw0': 0.0, 'time': 3.34, 'compass': 17.6, 'pitch': -2.38, 'roll': 0.58}
{'lipoC2': 7.4, 'temp': 0.0, 'lipoC3S3': 11.32, 'state': 'normal', 'rot1': 0, 'rot0': 0, 'rot3': 0, 'rot2': 0, 'depth': -0.98, 'yaw': 6.48, 'datetime': '2018-12-12 14:27:38.731831', 'mgs': 0, 'flw2': 0.05, 'flw1': 0.0, 'flw0': 0.04, 'time': 3.54, 'compass': 18.15, 'pitch': -2.06, 'roll': 0.2}
{'lipoC2': 7.3, 'temp': 0.0, 'lipoC3S3': 11.34, 'state': 'normal', 'rot1': 0, 'rot0': 0, 'rot3': 0, 'rot2': 0, 'depth': -0.98, 'yaw': 7.07, 'datetime': '2018-12-12 14:27:38.939043', 'mgs': 0, 'flw2': 0.11, 'flw1': 0.0, 'flw0': 0.11, 'time': 3.75, 'compass': 18.73, 'pitch': -1.84, 'roll': -0.38}
{'lipoC2': 7.51, 'temp': 0.0, 'lipoC3S3': 11.29, 'state': 'normal', 'rot1': 0, 'rot0': 0, 'rot3': 0, 'rot2': 0, 'depth': -0.522, 'yaw': 7.69, 'datetime': '2018-12-12 14:27:39.146845', 'mgs': 0, 'flw2': 0.0, 'flw1': 0.53, 'flw0': 0.02, 'time': 3.96, 'compass': 19.36, 'pitch': -2.34, 'roll': -0.57}
{'lipoC2': 7.19, 'temp': 0.0, 'lipoC3S3': 11.18, 'state': 'normal', 'rot1': 0, 'rot0': 0, 'rot3': 0, 'rot2': 0, 'depth': -0.674, 'yaw': 8.3, 'datetime': '2018-12-12 14:27:39.355016', 'mgs': 0, 'flw2': 0.0, 'flw1': 0.0, 'flw0': 0.0, 'time': 4.17, 'compass': 19.96, 'pitch': -3.05, 'roll': -0.21}
{'lipoC2': 7.32, 'temp': 0.0, 'lipoC3S3': 11.5, 'state': 'normal', 'rot1': 0, 'rot0': 0, 'rot3': 0, 'rot2': 0, 'depth': 0.546, 'yaw': 8.87, 'datetime': '2018-12-12 14:27:39.564020', 'mgs': 0, 'flw2': 0.0, 'flw1': 0.29, 'flw0': 0.0, 'time': 4.37, 'compass': 20.54, 'pitch': -2.74, 'roll': 0.38}
{'lipoC2': 7.53, 'temp': 0.0, 'lipoC3S3': 11.56, 'state': 'normal', 'rot1': 0, 'rot0': 0, 'rot3': 0, 'rot2': 0, 'depth': -2.505, 'yaw': 9.54, 'datetime': '2018-12-12 14:27:39.768644', 'mgs': 0, 'flw2': 0.04, 'flw1': 0.0, 'flw0': 0.0, 'time': 4.58, 'compass': 21.21, 'pitch': -2.07, 'roll': 0.96}
{'lipoC2': 7.62, 'temp': 0.0, 'lipoC3S3': 11.32, 'state': 'normal', 'rot1': 0, 'rot0': 0, 'rot3': 0, 'rot2': 0, 'depth': -1.056, 'yaw': 10.17, 'datetime': '2018-12-12 14:27:39.975716', 'mgs': 0, 'flw2': 0.0, 'flw1': 0.5, 'flw0': 0.0, 'time': 4.79, 'compass': 21.83, 'pitch': -1.99, 'roll': 0.78}
{'lipoC2': 7.51, 'temp': 0.0, 'lipoC3S3': 11.36, 'state': 'normal', 'rot1': 0, 'rot0': 0, 'rot3': 0, 'rot2': 0, 'depth': -0.446, 'yaw': 10.83, 'datetime': '2018-12-12 14:27:40.183642', 'mgs': 0, 'flw2': 0.0, 'flw1': 0.44, 'flw0': 0.0, 'time': 5.0, 'compass': 22.5, 'pitch': -2.35, 'roll': 0.24}
{'lipoC2': 7.48, 'temp': 0.0, 'lipoC3S3': 11.36, 'state': 'normal', 'rot1': 0, 'rot0': 0, 'rot3': 0, 'rot2': 0, 'depth': -1.437, 'yaw': 11.49, 'datetime': '2018-12-12 14:27:40.390808', 'mgs': 0, 'flw2': 0.0, 'flw1': 0.32, 'flw0': 0.0, 'time': 5.2, 'compass': 23.16, 'pitch': -2.48, 'roll': -0.15}
{'lipoC2': 7.33, 'temp': 0.0, 'lipoC3S3': 11.1, 'state': 'normal', 'rot1': 0, 'rot0': 0, 'rot3': 0, 'rot2': 0, 'depth': 1.385, 'yaw': 12.15, 'datetime': '2018-12-12 14:27:40.599540', 'mgs': 0, 'flw2': 0.04, 'flw1': 0.0, 'flw0': 0.04, 'time': 5.41, 'compass': 23.81, 'pitch': -2.09, 'roll': -0.16}
{'lipoC2': 7.48, 'temp': 0.0, 'lipoC3S3': 11.6, 'state': 'normal', 'rot1': 0, 'rot0': 0, 'rot3': 0, 'rot2': 0, 'depth': -0.674, 'yaw': 12.78, 'datetime': '2018-12-12 14:27:40.807898', 'mgs': 0, 'flw2': 0.43, 'flw1': 0.0, 'flw0': 0.48, 'time': 5.62, 'compass': 24.45, 'pitch': -1.83, 'roll': 0.23}
{'lipoC2': 7.29, 'temp': 0.0, 'lipoC3S3': 11.51, 'state': 'normal', 'rot1': 1, 'rot0': 0, 'rot3': 0, 'rot2': 0, 'depth': -2.2, 'yaw': 12.91, 'datetime': '2018-12-12 14:27:41.016100', 'mgs': 0, 'flw2': 0.09, 'flw1': 0.0, 'flw0': 0.33, 'time': 5.83, 'compass': 24.57, 'pitch': -1.77, 'roll': 0.34}
{'lipoC2': 7.41, 'temp': 0.0, 'lipoC3S3': 11.31, 'state': 'normal', 'rot1': 3, 'rot0': 0, 'rot3': 0, 'rot2': 0, 'depth': -1.59, 'yaw': 12.84, 'datetime': '2018-12-12 14:27:41.224087', 'mgs': 0, 'flw2': 0.0, 'flw1': 0.76, 'flw0': 0.61, 'time': 6.04, 'compass': 24.51, 'pitch': -1.86, 'roll': 0.32}
{'lipoC2': 7.23, 'temp': 0.0, 'lipoC3S3': 11.34, 'state': 'normal', 'rot1': 4, 'rot0': 1, 'rot3': 0, 'rot2': 0, 'depth': 0.699, 'yaw': 12.18, 'datetime': '2018-12-12 14:27:41.432533', 'mgs': 0, 'flw2': 0.57, 'flw1': 0.44, 'flw0': 0.51, 'time': 6.24, 'compass': 23.84, 'pitch': -1.72, 'roll': 0.06}
{'lipoC2': 7.25, 'temp': 0.0, 'lipoC3S3': 11.32, 'state': 'normal', 'rot1': 5, 'rot0': 2, 'rot3': 0, 'rot2': 0, 'depth': -0.446, 'yaw': 11.48, 'datetime': '2018-12-12 14:27:41.639809', 'mgs': 0, 'flw2': 0.87, 'flw1': 0.0, 'flw0': 0.89, 'time': 6.45, 'compass': 23.15, 'pitch': -1.07, 'roll': -0.19}
{'lipoC2': 7.19, 'temp': 0.0, 'lipoC3S3': 11.18, 'state': 'normal', 'rot1': 6, 'rot0': 4, 'rot3': 0, 'rot2': 0, 'depth': -0.827, 'yaw': 10.87, 'datetime': '2018-12-12 14:27:41.848237', 'mgs': 0, 'flw2': 0.76, 'flw1': 0.0, 'flw0': 0.45, 'time': 6.66, 'compass': 22.54, 'pitch': -0.67, 'roll': -0.37}
{'lipoC2': 7.44, 'temp': 0.0, 'lipoC3S3': 11.07, 'state': 'normal', 'rot1': 8, 'rot0': 5, 'rot3': 0, 'rot2': 0, 'depth': 0.165, 'yaw': 10.83, 'datetime': '2018-12-12 14:27:42.055433', 'mgs': 0, 'flw2': 2.15, 'flw1': 0.0, 'flw0': 0.43, 'time': 6.87, 'compass': 22.5, 'pitch': -0.53, 'roll': -0.13}
{'lipoC2': 7.3, 'temp': 0.0, 'lipoC3S3': 11.59, 'state': 'normal', 'rot1': 9, 'rot0': 7, 'rot3': 0, 'rot2': 0, 'depth': 1.157, 'yaw': 11.99, 'datetime': '2018-12-12 14:27:42.263750', 'mgs': 0, 'flw2': 2.62, 'flw1': 0.0, 'flw0': 1.42, 'time': 7.07, 'compass': 23.65, 'pitch': 0.02, 'roll': 0.6}
{'lipoC2': 7.5, 'temp': 0.0, 'lipoC3S3': 11.23, 'state': 'normal', 'rot1': 10, 'rot0': 9, 'rot3': 0, 'rot2': 0, 'depth': -0.903, 'yaw': 14.22, 'datetime': '2018-12-12 14:27:42.472367', 'mgs': 0, 'flw2': 1.94, 'flw1': 0.0, 'flw0': 1.05, 'time': 7.28, 'compass': 25.88, 'pitch': 1.13, 'roll': 1.13}
{'lipoC2': 7.35, 'temp': 0.0, 'lipoC3S3': 11.23, 'state': 'normal', 'rot1': 12, 'rot0': 12, 'rot3': 0, 'rot2': 0, 'depth': -0.598, 'yaw': 16.76, 'datetime': '2018-12-12 14:27:42.683106', 'mgs': 0, 'flw2': 1.95, 'flw1': 0.53, 'flw0': 1.15, 'time': 7.49, 'compass': 28.42, 'pitch': 1.24, 'roll': 1.14}
{'lipoC2': 7.52, 'temp': 0.0, 'lipoC3S3': 11.11, 'state': 'normal', 'rot1': 14, 'rot0': 13, 'rot3': 0, 'rot2': 0, 'depth': -1.437, 'yaw': 19.32, 'datetime': '2018-12-12 14:27:42.892429', 'mgs': 0, 'flw2': 0.95, 'flw1': 0.0, 'flw0': 1.64, 'time': 7.7, 'compass': 30.98, 'pitch': 0.14, 'roll': 0.9}
{'lipoC2': 7.28, 'temp': 0.0, 'lipoC3S3': 11.18, 'state': 'normal', 'rot1': 16, 'rot0': 15, 'rot3': 0, 'rot2': 0, 'depth': -1.056, 'yaw': 20.97, 'datetime': '2018-12-12 14:27:43.102030', 'mgs': 0, 'flw2': 1.15, 'flw1': 0.85, 'flw0': 1.66, 'time': 7.91, 'compass': 32.64, 'pitch': -0.35, 'roll': 0.36}
{'lipoC2': 7.39, 'temp': 0.0, 'lipoC3S3': 11.22, 'state': 'normal', 'rot1': 18, 'rot0': 17, 'rot3': 0, 'rot2': 0, 'depth': -0.369, 'yaw': 21.6, 'datetime': '2018-12-12 14:27:43.309031', 'mgs': 0, 'flw2': 0.93, 'flw1': 0.0, 'flw0': 1.46, 'time': 8.12, 'compass': 33.26, 'pitch': 0.31, 'roll': -0.2}
{'lipoC2': 7.3, 'temp': 0.0, 'lipoC3S3': 11.43, 'state': 'normal', 'rot1': 20, 'rot0': 19, 'rot3': 0, 'rot2': 0, 'depth': 1.385, 'yaw': 21.5, 'datetime': '2018-12-12 14:27:43.518577', 'mgs': 0, 'flw2': 1.37, 'flw1': 0.0, 'flw0': 2.01, 'time': 8.32, 'compass': 33.16, 'pitch': 0.71, 'roll': -0.42}
{'lipoC2': 7.29, 'temp': 0.0, 'lipoC3S3': 11.39, 'state': 'normal', 'rot1': 22, 'rot0': 20, 'rot3': 0, 'rot2': 0, 'depth': 1.767, 'yaw': 21.0, 'datetime': '2018-12-12 14:27:43.729721', 'mgs': 0, 'flw2': 1.5, 'flw1': 0.0, 'flw0': 1.94, 'time': 8.53, 'compass': 32.67, 'pitch': 0.19, 'roll': -0.44}
{'lipoC2': 7.25, 'temp': 0.0, 'lipoC3S3': 11.14, 'state': 'normal', 'rot1': 24, 'rot0': 22, 'rot3': 0, 'rot2': 0, 'depth': -0.751, 'yaw': 20.39, 'datetime': '2018-12-12 14:27:43.939134', 'mgs': 0, 'flw2': 1.65, 'flw1': 0.03, 'flw0': 1.68, 'time': 8.74, 'compass': 32.05, 'pitch': -0.06, 'roll': -0.43}
{'lipoC2': 7.28, 'temp': 0.0, 'lipoC3S3': 11.26, 'state': 'normal', 'rot1': 27, 'rot0': 24, 'rot3': 0, 'rot2': 0, 'depth': -0.903, 'yaw': 19.9, 'datetime': '2018-12-12 14:27:44.150909', 'mgs': 0, 'flw2': 1.51, 'flw1': 0.67, 'flw0': 1.65, 'time': 8.95, 'compass': 31.57, 'pitch': 0.16, 'roll': -0.4}
{'lipoC2': 7.33, 'temp': 0.0, 'lipoC3S3': 11.19, 'state': 'normal', 'rot1': 29, 'rot0': 26, 'rot3': 0, 'rot2': 0, 'depth': 0.699, 'yaw': 19.54, 'datetime': '2018-12-12 14:27:44.354182', 'mgs': 0, 'flw2': 1.53, 'flw1': 0.0, 'flw0': 1.44, 'time': 9.16, 'compass': 31.21, 'pitch': 0.03, 'roll': -0.39}
{'lipoC2': 7.43, 'temp': 0.0, 'lipoC3S3': 11.29, 'state': 'normal', 'rot1': 30, 'rot0': 28, 'rot3': 0, 'rot2': 0, 'depth': 1.538, 'yaw': 19.31, 'datetime': '2018-12-12 14:27:44.564507', 'mgs': 0, 'flw2': 1.4, 'flw1': 0.0, 'flw0': 1.67, 'time': 9.37, 'compass': 30.98, 'pitch': -0.23, 'roll': -0.36}
{'lipoC2': 7.49, 'temp': 0.0, 'lipoC3S3': 11.3, 'state': 'normal', 'rot1': 32, 'rot0': 30, 'rot3': 0, 'rot2': 0, 'depth': -1.437, 'yaw': 19.1, 'datetime': '2018-12-12 14:27:44.772984', 'mgs': 0, 'flw2': 1.84, 'flw1': 0.03, 'flw0': 1.75, 'time': 9.58, 'compass': 30.76, 'pitch': -0.16, 'roll': -0.11}
{'lipoC2': 7.34, 'temp': 0.0, 'lipoC3S3': 11.56, 'state': 'normal', 'rot1': 34, 'rot0': 32, 'rot3': 0, 'rot2': 0, 'depth': 0.546, 'yaw': 18.94, 'datetime': '2018-12-12 14:27:44.981981', 'mgs': 0, 'flw2': 2.04, 'flw1': 0.0, 'flw0': 1.94, 'time': 9.79, 'compass': 30.6, 'pitch': -0.03, 'roll': 0.07}
{'lipoC2': 7.4, 'temp': 0.0, 'lipoC3S3': 11.27, 'state': 'normal', 'rot1': 36, 'rot0': 34, 'rot3': 0, 'rot2': 0, 'depth': 0.851, 'yaw': 18.53, 'datetime': '2018-12-12 14:27:45.192051', 'mgs': 0, 'flw2': 1.66, 'flw1': 0.82, 'flw0': 1.72, 'time': 10.0, 'compass': 30.2, 'pitch': -0.44, 'roll': 0.03}
{'lipoC2': 7.5, 'temp': 0.0, 'lipoC3S3': 11.4, 'state': 'normal', 'rot1': 38, 'rot0': 36, 'rot3': 0, 'rot2': 0, 'depth': -1.437, 'yaw': 18.08, 'datetime': '2018-12-12 14:27:45.401347', 'mgs': 0, 'flw2': 1.87, 'flw1': 0.0, 'flw0': 1.95, 'time': 10.21, 'compass': 29.74, 'pitch': -0.7, 'roll': -0.05}
{'lipoC2': 7.52, 'temp': 0.0, 'lipoC3S3': 11.09, 'state': 'normal', 'rot1': 40, 'rot0': 38, 'rot3': 0, 'rot2': 0, 'depth': 0.928, 'yaw': 17.57, 'datetime': '2018-12-12 14:27:45.610468', 'mgs': 0, 'flw2': 1.83, 'flw1': 0.12, 'flw0': 2.06, 'time': 10.41, 'compass': 29.23, 'pitch': -0.41, 'roll': -0.32}
{'lipoC2': 7.41, 'temp': 0.0, 'lipoC3S3': 11.31, 'state': 'normal', 'rot1': 42, 'rot0': 40, 'rot3': 0, 'rot2': 0, 'depth': -1.437, 'yaw': 16.92, 'datetime': '2018-12-12 14:27:45.818603', 'mgs': 0, 'flw2': 1.49, 'flw1': 0.29, 'flw0': 1.61, 'time': 10.62, 'compass': 28.59, 'pitch': -0.34, 'roll': -0.58}
{'lipoC2': 7.5, 'temp': 0.0, 'lipoC3S3': 11.38, 'state': 'normal', 'rot1': 44, 'rot0': 41, 'rot3': 0, 'rot2': 0, 'depth': 0.851, 'yaw': 16.36, 'datetime': '2018-12-12 14:27:46.027771', 'mgs': 0, 'flw2': 2.05, 'flw1': 0.0, 'flw0': 1.56, 'time': 10.83, 'compass': 28.03, 'pitch': -0.73, 'roll': -0.55}
{'lipoC2': 7.48, 'temp': 0.0, 'lipoC3S3': 11.3, 'state': 'normal', 'rot1': 46, 'rot0': 44, 'rot3': 0, 'rot2': 0, 'depth': -0.903, 'yaw': 16.25, 'datetime': '2018-12-12 14:27:46.235651', 'mgs': 0, 'flw2': 2.0, 'flw1': 0.41, 'flw0': 1.79, 'time': 11.04, 'compass': 27.92, 'pitch': -0.54, 'roll': -0.22}
{'lipoC2': 7.32, 'temp': 0.0, 'lipoC3S3': 11.23, 'state': 'normal', 'rot1': 48, 'rot0': 46, 'rot3': 0, 'rot2': 0, 'depth': 0.928, 'yaw': 16.34, 'datetime': '2018-12-12 14:27:46.445765', 'mgs': 0, 'flw2': 2.49, 'flw1': 0.56, 'flw0': 1.94, 'time': 11.25, 'compass': 28.0, 'pitch': 0.18, 'roll': 0.05}
{'lipoC2': 7.35, 'temp': 0.0, 'lipoC3S3': 11.18, 'state': 'normal', 'rot1': 50, 'rot0': 48, 'rot3': 0, 'rot2': 0, 'depth': -0.369, 'yaw': 16.35, 'datetime': '2018-12-12 14:27:46.656332', 'mgs': 0, 'flw2': 2.66, 'flw1': 0.0, 'flw0': 2.58, 'time': 11.46, 'compass': 28.02, 'pitch': 0.95, 'roll': -0.01}
{'lipoC2': 7.53, 'temp': 0.0, 'lipoC3S3': 11.3, 'state': 'normal', 'rot1': 52, 'rot0': 50, 'rot3': 0, 'rot2': 0, 'depth': 0.241, 'yaw': 15.99, 'datetime': '2018-12-12 14:27:46.864354', 'mgs': 0, 'flw2': 2.84, 'flw1': 0.0, 'flw0': 2.84, 'time': 11.67, 'compass': 27.65, 'pitch': 1.28, 'roll': -0.46}
{'lipoC2': 7.48, 'temp': 0.0, 'lipoC3S3': 11.4, 'state': 'normal', 'rot1': 55, 'rot0': 53, 'rot3': 0, 'rot2': 0, 'depth': -1.361, 'yaw': 15.45, 'datetime': '2018-12-12 14:27:47.074067', 'mgs': 0, 'flw2': 2.73, 'flw1': 0.0, 'flw0': 2.91, 'time': 11.88, 'compass': 27.12, 'pitch': 1.08, 'roll': -0.58}
{'lipoC2': 7.41, 'temp': 0.0, 'lipoC3S3': 10.94, 'state': 'normal', 'rot1': 57, 'rot0': 55, 'rot3': 0, 'rot2': 0, 'depth': 1.08, 'yaw': 14.86, 'datetime': '2018-12-12 14:27:47.285516', 'mgs': 0, 'flw2': 2.5, 'flw1': 0.0, 'flw0': 2.67, 'time': 12.08, 'compass': 26.52, 'pitch': 0.67, 'roll': -0.52}
{'lipoC2': 7.26, 'temp': 0.0, 'lipoC3S3': 11.31, 'state': 'normal', 'rot1': 59, 'rot0': 57, 'rot3': 0, 'rot2': 0, 'depth': -1.59, 'yaw': 14.41, 'datetime': '2018-12-12 14:27:47.493210', 'mgs': 0, 'flw2': 2.64, 'flw1': 0.76, 'flw0': 2.66, 'time': 12.29, 'compass': 26.07, 'pitch': 0.59, 'roll': -0.25}
{'lipoC2': 7.4, 'temp': 0.0, 'lipoC3S3': 11.27, 'state': 'normal', 'rot1': 62, 'rot0': 60, 'rot3': 0, 'rot2': 0, 'depth': -1.208, 'yaw': 13.84, 'datetime': '2018-12-12 14:27:47.705024', 'mgs': 0, 'flw2': 2.62, 'flw1': 0.0, 'flw0': 2.48, 'time': 12.5, 'compass': 25.51, 'pitch': 1.08, 'roll': -0.13}
{'lipoC2': 7.37, 'temp': 0.0, 'lipoC3S3': 11.13, 'state': 'normal', 'rot1': 64, 'rot0': 62, 'rot3': 0, 'rot2': 0, 'depth': 1.767, 'yaw': 13.35, 'datetime': '2018-12-12 14:27:47.918368', 'mgs': 0, 'flw2': 2.75, 'flw1': 0.0, 'flw0': 2.7, 'time': 12.71, 'compass': 25.01, 'pitch': 1.46, 'roll': -0.23}
{'lipoC2': 7.33, 'temp': 0.0, 'lipoC3S3': 11.26, 'state': 'normal', 'rot1': 66, 'rot0': 65, 'rot3': 0, 'rot2': 0, 'depth': -0.217, 'yaw': 12.8, 'datetime': '2018-12-12 14:27:48.126848', 'mgs': 0, 'flw2': 3.05, 'flw1': 0.0, 'flw0': 2.81, 'time': 12.92, 'compass': 24.47, 'pitch': 1.26, 'roll': -0.42}
{'lipoC2': 7.51, 'temp': 0.0, 'lipoC3S3': 11.06, 'state': 'normal', 'rot1': 68, 'rot0': 67, 'rot3': 0, 'rot2': 0, 'depth': -1.361, 'yaw': 12.46, 'datetime': '2018-12-12 14:27:48.335470', 'mgs': 0, 'flw2': 2.64, 'flw1': 0.21, 'flw0': 2.67, 'time': 13.13, 'compass': 24.13, 'pitch': 1.04, 'roll': -0.49}
{'lipoC2': 7.52, 'temp': 0.0, 'lipoC3S3': 11.21, 'state': 'normal', 'rot1': 71, 'rot0': 69, 'rot3': 0, 'rot2': 0, 'depth': -2.048, 'yaw': 12.16, 'datetime': '2018-12-12 14:27:48.540435', 'mgs': 0, 'flw2': 2.82, 'flw1': 0.03, 'flw0': 2.62, 'time': 13.34, 'compass': 23.82, 'pitch': 0.97, 'roll': -0.37}
{'lipoC2': 7.34, 'temp': 0.0, 'lipoC3S3': 11.22, 'state': 'normal', 'rot1': 76, 'rot0': 73, 'rot3': 0, 'rot2': 0, 'depth': 1.843, 'yaw': 12.31, 'datetime': '2018-12-12 14:27:48.847233', 'mgs': 0, 'flw2': 3.11, 'flw1': 0.03, 'flw0': 2.72, 'time': 13.65, 'compass': 23.98, 'pitch': 0.77, 'roll': 0.19}
{'lipoC2': 7.28, 'temp': 0.0, 'lipoC3S3': 11.18, 'state': 'normal', 'rot1': 78, 'rot0': 76, 'rot3': 0, 'rot2': 0, 'depth': -0.598, 'yaw': 12.48, 'datetime': '2018-12-12 14:27:49.055607', 'mgs': 0, 'flw2': 3.0, 'flw1': 0.0, 'flw0': 2.54, 'time': 13.86, 'compass': 24.14, 'pitch': 0.79, 'roll': 0.24}
{'lipoC2': 7.3, 'temp': 0.0, 'lipoC3S3': 11.59, 'state': 'normal', 'rot1': 80, 'rot0': 79, 'rot3': 0, 'rot2': 0, 'depth': -0.064, 'yaw': 12.6, 'datetime': '2018-12-12 14:27:49.265546', 'mgs': 0, 'flw2': 3.13, 'flw1': 0.0, 'flw0': 2.91, 'time': 14.07, 'compass': 24.27, 'pitch': 1.03, 'roll': 0.05}
{'lipoC2': 7.33, 'temp': 0.0, 'lipoC3S3': 11.21, 'state': 'normal', 'rot1': 83, 'rot0': 81, 'rot3': 0, 'rot2': 0, 'depth': 1.92, 'yaw': 12.94, 'datetime': '2018-12-12 14:27:49.482076', 'mgs': 0, 'flw2': 3.11, 'flw1': 0.5, 'flw0': 2.56, 'time': 14.28, 'compass': 24.61, 'pitch': 1.37, 'roll': 0.03}
{'lipoC2': 7.21, 'temp': 0.0, 'lipoC3S3': 11.43, 'state': 'normal', 'rot1': 86, 'rot0': 84, 'rot3': 0, 'rot2': 0, 'depth': 1.996, 'yaw': 13.49, 'datetime': '2018-12-12 14:27:49.696681', 'mgs': 0, 'flw2': 3.64, 'flw1': 0.0, 'flw0': 2.77, 'time': 14.48, 'compass': 25.15, 'pitch': 1.65, 'roll': 0.13}
{'lipoC2': 7.25, 'temp': 0.0, 'lipoC3S3': 11.32, 'state': 'normal', 'rot1': 88, 'rot0': 86, 'rot3': 0, 'rot2': 0, 'depth': 0.928, 'yaw': 14.28, 'datetime': '2018-12-12 14:27:49.902774', 'mgs': 0, 'flw2': 3.37, 'flw1': 0.0, 'flw0': 2.48, 'time': 14.69, 'compass': 25.95, 'pitch': 1.65, 'roll': 0.08}
{'lipoC2': 7.43, 'temp': 0.0, 'lipoC3S3': 11.13, 'state': 'normal', 'rot1': 90, 'rot0': 89, 'rot3': 0, 'rot2': 0, 'depth': 2.072, 'yaw': 15.06, 'datetime': '2018-12-12 14:27:50.112857', 'mgs': 0, 'flw2': 3.65, 'flw1': 0.5, 'flw0': 2.62, 'time': 14.9, 'compass': 26.73, 'pitch': 1.43, 'roll': -0.05}
{'lipoC2': 7.3, 'temp': 0.0, 'lipoC3S3': 11.48, 'state': 'normal', 'rot1': 93, 'rot0': 91, 'rot3': 0, 'rot2': 0, 'depth': -0.369, 'yaw': 16.11, 'datetime': '2018-12-12 14:27:50.320543', 'mgs': 0, 'flw2': 3.69, 'flw1': 0.53, 'flw0': 2.65, 'time': 15.11, 'compass': 27.78, 'pitch': 1.32, 'roll': -0.16}
{'lipoC2': 7.34, 'temp': 0.0, 'lipoC3S3': 10.96, 'state': 'normal', 'rot1': 95, 'rot0': 94, 'rot3': 0, 'rot2': 0, 'depth': -0.064, 'yaw': 17.56, 'datetime': '2018-12-12 14:27:50.529348', 'mgs': 0, 'flw2': 4.24, 'flw1': 0.03, 'flw0': 2.62, 'time': 15.32, 'compass': 29.23, 'pitch': 1.54, 'roll': 0.1}
{'lipoC2': 7.34, 'temp': 0.0, 'lipoC3S3': 11.4, 'state': 'normal', 'rot1': 97, 'rot0': 96, 'rot3': 0, 'rot2': 0, 'depth': -0.217, 'yaw': 19.19, 'datetime': '2018-12-12 14:27:50.743128', 'mgs': 0, 'flw2': 3.71, 'flw1': 0.44, 'flw0': 2.58, 'time': 15.53, 'compass': 30.85, 'pitch': 2.0, 'roll': 0.43}
{'lipoC2': 7.34, 'temp': 0.0, 'lipoC3S3': 11.17, 'state': 'normal', 'rot1': 99, 'rot0': 99, 'rot3': 0, 'rot2': 0, 'depth': 1.004, 'yaw': 20.89, 'datetime': '2018-12-12 14:27:50.951237', 'mgs': 0, 'flw2': 3.58, 'flw1': 0.0, 'flw0': 2.77, 'time': 15.74, 'compass': 32.56, 'pitch': 1.83, 'roll': 0.79}
{'lipoC2': 7.29, 'temp': 0.0, 'lipoC3S3': 11.3, 'state': 'normal', 'rot1': 101, 'rot0': 102, 'rot3': 0, 'rot2': 0, 'depth': -0.064, 'yaw': 22.85, 'datetime': '2018-12-12 14:27:51.157438', 'mgs': 0, 'flw2': 3.54, 'flw1': 0.35, 'flw0': 2.54, 'time': 15.94, 'compass': 34.52, 'pitch': 1.48, 'roll': 1.17}
{'lipoC2': 7.32, 'temp': 0.0, 'lipoC3S3': 11.17, 'state': 'normal', 'rot1': 104, 'rot0': 104, 'rot3': 0, 'rot2': 0, 'depth': 1.614, 'yaw': 24.86, 'datetime': '2018-12-12 14:27:51.359647', 'mgs': 0, 'flw2': 3.47, 'flw1': 0.0, 'flw0': 2.82, 'time': 16.15, 'compass': 36.52, 'pitch': 1.84, 'roll': 1.35}
{'lipoC2': 7.27, 'temp': 0.0, 'lipoC3S3': 11.09, 'state': 'normal', 'rot1': 106, 'rot0': 107, 'rot3': 0, 'rot2': 0, 'depth': -1.285, 'yaw': 26.89, 'datetime': '2018-12-12 14:27:51.567961', 'mgs': 0, 'flw2': 3.42, 'flw1': 0.0, 'flw0': 3.25, 'time': 16.36, 'compass': 38.56, 'pitch': 2.21, 'roll': 1.46}
{'lipoC2': 7.5, 'temp': 0.0, 'lipoC3S3': 11.06, 'state': 'normal', 'rot1': 109, 'rot0': 110, 'rot3': 0, 'rot2': 0, 'depth': -1.285, 'yaw': 28.72, 'datetime': '2018-12-12 14:27:51.777637', 'mgs': 0, 'flw2': 3.56, 'flw1': 0.0, 'flw0': 3.34, 'time': 16.57, 'compass': 40.38, 'pitch': 2.46, 'roll': 1.47}
{'lipoC2': 7.35, 'temp': 0.0, 'lipoC3S3': 11.21, 'state': 'normal', 'rot1': 111, 'rot0': 112, 'rot3': 0, 'rot2': 0, 'depth': 1.843, 'yaw': 30.0, 'datetime': '2018-12-12 14:27:51.986875', 'mgs': 0, 'flw2': 3.92, 'flw1': 0.0, 'flw0': 3.65, 'time': 16.78, 'compass': 41.67, 'pitch': 2.72, 'roll': 1.51}
{'lipoC2': 7.32, 'temp': 0.0, 'lipoC3S3': 10.97, 'state': 'normal', 'rot1': 114, 'rot0': 115, 'rot3': 0, 'rot2': 0, 'depth': 1.004, 'yaw': 31.26, 'datetime': '2018-12-12 14:27:52.197802', 'mgs': 0, 'flw2': 3.39, 'flw1': 0.0, 'flw0': 3.38, 'time': 16.99, 'compass': 42.93, 'pitch': 2.98, 'roll': 1.54}
{'lipoC2': 7.52, 'temp': 0.0, 'lipoC3S3': 11.06, 'state': 'normal', 'rot1': 117, 'rot0': 118, 'rot3': 0, 'rot2': 0, 'depth': -1.285, 'yaw': 32.37, 'datetime': '2018-12-12 14:27:52.405897', 'mgs': 0, 'flw2': 3.47, 'flw1': 0.23, 'flw0': 3.75, 'time': 17.2, 'compass': 44.04, 'pitch': 3.02, 'roll': 1.42}
{'lipoC2': 7.27, 'temp': 0.0, 'lipoC3S3': 11.15, 'state': 'normal', 'rot1': 120, 'rot0': 120, 'rot3': 0, 'rot2': 0, 'depth': -0.14, 'yaw': 33.19, 'datetime': '2018-12-12 14:27:52.615683', 'mgs': 0, 'flw2': 3.66, 'flw1': 0.0, 'flw0': 3.8, 'time': 17.41, 'compass': 44.86, 'pitch': 3.02, 'roll': 1.18}
{'lipoC2': 7.35, 'temp': 0.0, 'lipoC3S3': 11.17, 'state': 'normal', 'rot1': 122, 'rot0': 123, 'rot3': 0, 'rot2': 0, 'depth': 0.317, 'yaw': 33.9, 'datetime': '2018-12-12 14:27:52.823010', 'mgs': 0, 'flw2': 3.75, 'flw1': 0.0, 'flw0': 3.99, 'time': 17.62, 'compass': 45.57, 'pitch': 3.31, 'roll': 1.12}
{'lipoC2': 7.21, 'temp': 0.0, 'lipoC3S3': 11.55, 'state': 'normal', 'rot1': 125, 'rot0': 125, 'rot3': 0, 'rot2': 0, 'depth': -1.056, 'yaw': 34.74, 'datetime': '2018-12-12 14:27:53.033257', 'mgs': 0, 'flw2': 3.91, 'flw1': 0.0, 'flw0': 4.19, 'time': 17.83, 'compass': 46.4, 'pitch': 3.71, 'roll': 1.53}
{'lipoC2': 7.34, 'temp': 0.0, 'lipoC3S3': 11.21, 'state': 'normal', 'rot1': 128, 'rot0': 128, 'rot3': 0, 'rot2': 0, 'depth': 0.928, 'yaw': 35.54, 'datetime': '2018-12-12 14:27:53.244024', 'mgs': 0, 'flw2': 3.59, 'flw1': 0.67, 'flw0': 3.87, 'time': 18.04, 'compass': 47.2, 'pitch': 3.56, 'roll': 1.9}
{'lipoC2': 7.46, 'temp': 0.0, 'lipoC3S3': 11.23, 'state': 'normal', 'rot1': 130, 'rot0': 130, 'rot3': 0, 'rot2': 0, 'depth': -0.446, 'yaw': 36.37, 'datetime': '2018-12-12 14:27:53.453685', 'mgs': 0, 'flw2': 3.65, 'flw1': 0.62, 'flw0': 3.78, 'time': 18.25, 'compass': 48.03, 'pitch': 2.78, 'roll': 1.95}
{'lipoC2': 7.38, 'temp': 0.0, 'lipoC3S3': 11.19, 'state': 'normal', 'rot1': 133, 'rot0': 133, 'rot3': 0, 'rot2': 0, 'depth': 0.241, 'yaw': 36.92, 'datetime': '2018-12-12 14:27:53.663375', 'mgs': 0, 'flw2': 3.76, 'flw1': 0.0, 'flw0': 3.85, 'time': 18.45, 'compass': 48.58, 'pitch': 2.29, 'roll': 1.88}
{'lipoC2': 7.32, 'temp': 0.0, 'lipoC3S3': 11.5, 'state': 'normal', 'rot1': 136, 'rot0': 136, 'rot3': 0, 'rot2': 0, 'depth': -0.293, 'yaw': 37.55, 'datetime': '2018-12-12 14:27:53.874494', 'mgs': 0, 'flw2': 3.53, 'flw1': 0.67, 'flw0': 3.86, 'time': 18.66, 'compass': 49.21, 'pitch': 2.35, 'roll': 1.71}
{'lipoC2': 7.17, 'temp': 0.0, 'lipoC3S3': 11.3, 'state': 'normal', 'rot1': 138, 'rot0': 138, 'rot3': 0, 'rot2': 0, 'depth': -0.369, 'yaw': 38.27, 'datetime': '2018-12-12 14:27:54.082846', 'mgs': 0, 'flw2': 3.63, 'flw1': 0.0, 'flw0': 3.63, 'time': 18.87, 'compass': 49.93, 'pitch': 2.49, 'roll': 1.76}
{'lipoC2': 7.38, 'temp': 0.0, 'lipoC3S3': 11.1, 'state': 'normal', 'rot1': 141, 'rot0': 141, 'rot3': 0, 'rot2': 0, 'depth': 1.385, 'yaw': 39.22, 'datetime': '2018-12-12 14:27:54.293222', 'mgs': 0, 'flw2': 3.69, 'flw1': 0.26, 'flw0': 3.82, 'time': 19.08, 'compass': 50.88, 'pitch': 2.85, 'roll': 1.86}
{'lipoC2': 7.47, 'temp': 0.0, 'lipoC3S3': 11.23, 'state': 'normal', 'rot1': 143, 'rot0': 144, 'rot3': 0, 'rot2': 0, 'depth': -0.903, 'yaw': 40.25, 'datetime': '2018-12-12 14:27:54.502972', 'mgs': 0, 'flw2': 3.45, 'flw1': 0.44, 'flw0': 3.97, 'time': 19.29, 'compass': 51.92, 'pitch': 3.09, 'roll': 1.74}
{'lipoC2': 7.48, 'temp': 0.0, 'lipoC3S3': 11.02, 'state': 'normal', 'rot1': 146, 'rot0': 146, 'rot3': 0, 'rot2': 0, 'depth': 0.851, 'yaw': 41.32, 'datetime': '2018-12-12 14:27:54.711321', 'mgs': 0, 'flw2': 3.76, 'flw1': 0.09, 'flw0': 3.67, 'time': 19.5, 'compass': 52.99, 'pitch': 3.13, 'roll': 1.52}
{'lipoC2': 7.34, 'temp': 0.0, 'lipoC3S3': 11.44, 'state': 'normal', 'rot1': 149, 'rot0': 149, 'rot3': 0, 'rot2': 0, 'depth': 1.004, 'yaw': 42.35, 'datetime': '2018-12-12 14:27:54.919025', 'mgs': 0, 'flw2': 3.92, 'flw1': 0.0, 'flw0': 4.19, 'time': 19.71, 'compass': 54.01, 'pitch': 3.14, 'roll': 1.27}
{'lipoC2': 7.37, 'temp': 0.0, 'lipoC3S3': 11.27, 'state': 'normal', 'rot1': 151, 'rot0': 151, 'rot3': 0, 'rot2': 0, 'depth': 1.385, 'yaw': 43.2, 'datetime': '2018-12-12 14:27:55.130137', 'mgs': 0, 'flw2': 3.64, 'flw1': 0.53, 'flw0': 3.81, 'time': 19.92, 'compass': 54.86, 'pitch': 2.76, 'roll': 1.06}
{'lipoC2': 7.27, 'temp': 0.0, 'lipoC3S3': 11.22, 'state': 'normal', 'rot1': 154, 'rot0': 154, 'rot3': 0, 'rot2': 0, 'depth': -0.903, 'yaw': 44.3, 'datetime': '2018-12-12 14:27:55.338641', 'mgs': 0, 'flw2': 3.69, 'flw1': 0.09, 'flw0': 4.14, 'time': 20.13, 'compass': 55.97, 'pitch': 2.27, 'roll': 1.07}
{'lipoC2': 7.37, 'temp': 0.0, 'lipoC3S3': 11.19, 'state': 'normal', 'rot1': 157, 'rot0': 156, 'rot3': 0, 'rot2': 0, 'depth': 1.233, 'yaw': 45.4, 'datetime': '2018-12-12 14:27:55.548591', 'mgs': 0, 'flw2': 3.52, 'flw1': 0.47, 'flw0': 4.2, 'time': 20.34, 'compass': 57.06, 'pitch': 2.6, 'roll': 1.35}
{'lipoC2': 7.41, 'temp': 0.0, 'lipoC3S3': 11.07, 'state': 'normal', 'rot1': 159, 'rot0': 159, 'rot3': 0, 'rot2': 0, 'depth': -0.751, 'yaw': 46.18, 'datetime': '2018-12-12 14:27:55.757749', 'mgs': 0, 'flw2': 3.45, 'flw1': 0.47, 'flw0': 4.05, 'time': 20.55, 'compass': 57.84, 'pitch': 3.17, 'roll': 1.4}
{'lipoC2': 7.52, 'temp': 0.0, 'lipoC3S3': 11.01, 'state': 'normal', 'rot1': 162, 'rot0': 162, 'rot3': 0, 'rot2': 0, 'depth': -0.903, 'yaw': 46.62, 'datetime': '2018-12-12 14:27:55.969520', 'mgs': 0, 'flw2': 3.56, 'flw1': 0.0, 'flw0': 3.98, 'time': 20.75, 'compass': 58.29, 'pitch': 3.26, 'roll': 1.16}
{'lipoC2': 7.39, 'temp': 0.0, 'lipoC3S3': 11.21, 'state': 'normal', 'rot1': 165, 'rot0': 164, 'rot3': 0, 'rot2': 0, 'depth': -0.446, 'yaw': 47.02, 'datetime': '2018-12-12 14:27:56.176422', 'mgs': 0, 'flw2': 3.6, 'flw1': 0.41, 'flw0': 4.09, 'time': 20.96, 'compass': 58.69, 'pitch': 2.94, 'roll': 1.0}
{'lipoC2': 7.33, 'temp': 0.0, 'lipoC3S3': 11.42, 'state': 'normal', 'rot1': 168, 'rot0': 167, 'rot3': 0, 'rot2': 0, 'depth': 1.538, 'yaw': 47.78, 'datetime': '2018-12-12 14:27:56.385073', 'mgs': 0, 'flw2': 3.99, 'flw1': 0.0, 'flw0': 4.15, 'time': 21.17, 'compass': 59.45, 'pitch': 2.88, 'roll': 1.1}
{'lipoC2': 7.25, 'temp': 0.0, 'lipoC3S3': 11.32, 'state': 'normal', 'rot1': 170, 'rot0': 169, 'rot3': 0, 'rot2': 0, 'depth': 1.538, 'yaw': 48.52, 'datetime': '2018-12-12 14:27:56.594307', 'mgs': 0, 'flw2': 3.74, 'flw1': 0.0, 'flw0': 4.19, 'time': 21.38, 'compass': 60.18, 'pitch': 2.89, 'roll': 1.17}
{'lipoC2': 7.38, 'temp': 0.0, 'lipoC3S3': 11.19, 'state': 'normal', 'rot1': 173, 'rot0': 172, 'rot3': 0, 'rot2': 0, 'depth': -1.056, 'yaw': 49.15, 'datetime': '2018-12-12 14:27:56.803147', 'mgs': 0, 'flw2': 3.64, 'flw1': 0.0, 'flw0': 4.36, 'time': 21.59, 'compass': 60.82, 'pitch': 2.91, 'roll': 1.08}
{'lipoC2': 7.39, 'temp': 0.0, 'lipoC3S3': 11.25, 'state': 'normal', 'rot1': 176, 'rot0': 174, 'rot3': 0, 'rot2': 0, 'depth': -1.285, 'yaw': 49.7, 'datetime': '2018-12-12 14:27:57.013879', 'mgs': 0, 'flw2': 3.93, 'flw1': 0.0, 'flw0': 4.49, 'time': 21.8, 'compass': 61.36, 'pitch': 3.22, 'roll': 1.05}
{'lipoC2': 7.3, 'temp': 0.0, 'lipoC3S3': 11.4, 'state': 'normal', 'rot1': 178, 'rot0': 177, 'rot3': 0, 'rot2': 0, 'depth': 1.462, 'yaw': 50.41, 'datetime': '2018-12-12 14:27:57.224621', 'mgs': 0, 'flw2': 3.66, 'flw1': 0.12, 'flw0': 4.15, 'time': 22.01, 'compass': 62.07, 'pitch': 3.62, 'roll': 1.01}
{'lipoC2': 7.22, 'temp': 0.0, 'lipoC3S3': 11.3, 'state': 'normal', 'rot1': 181, 'rot0': 180, 'rot3': 0, 'rot2': 0, 'depth': 1.309, 'yaw': 51.23, 'datetime': '2018-12-12 14:27:57.433057', 'mgs': 0, 'flw2': 3.45, 'flw1': 0.53, 'flw0': 4.3, 'time': 22.22, 'compass': 62.9, 'pitch': 3.82, 'roll': 0.95}
{'lipoC2': 7.52, 'temp': 0.0, 'lipoC3S3': 11.13, 'state': 'normal', 'rot1': 184, 'rot0': 182, 'rot3': 0, 'rot2': 0, 'depth': -1.285, 'yaw': 52.04, 'datetime': '2018-12-12 14:27:57.642464', 'mgs': 0, 'flw2': 3.91, 'flw1': 0.0, 'flw0': 4.52, 'time': 22.43, 'compass': 63.7, 'pitch': 3.82, 'roll': 0.91}
{'lipoC2': 7.49, 'temp': 0.0, 'lipoC3S3': 11.21, 'state': 'normal', 'rot1': 187, 'rot0': 185, 'rot3': 0, 'rot2': 0, 'depth': 1.767, 'yaw': 52.45, 'datetime': '2018-12-12 14:27:57.851028', 'mgs': 0, 'flw2': 3.92, 'flw1': 0.0, 'flw0': 4.14, 'time': 22.64, 'compass': 64.11, 'pitch': 3.53, 'roll': 0.92}
{'lipoC2': 7.25, 'temp': 0.0, 'lipoC3S3': 11.05, 'state': 'normal', 'rot1': 190, 'rot0': 187, 'rot3': 0, 'rot2': 0, 'depth': -0.369, 'yaw': 52.61, 'datetime': '2018-12-12 14:27:58.061179', 'mgs': 0, 'flw2': 3.86, 'flw1': 0.0, 'flw0': 4.43, 'time': 22.85, 'compass': 64.28, 'pitch': 3.5, 'roll': 1.02}
{'lipoC2': 7.4, 'temp': 0.0, 'lipoC3S3': 11.13, 'state': 'normal', 'rot1': 192, 'rot0': 190, 'rot3': 0, 'rot2': 0, 'depth': 3.14, 'yaw': 52.74, 'datetime': '2018-12-12 14:27:58.270630', 'mgs': 0, 'flw2': 3.85, 'flw1': 0.06, 'flw0': 4.26, 'time': 23.06, 'compass': 64.4, 'pitch': 3.54, 'roll': 0.68}
{'lipoC2': 7.38, 'temp': 0.0, 'lipoC3S3': 11.17, 'state': 'normal', 'rot1': 195, 'rot0': 192, 'rot3': 0, 'rot2': 0, 'depth': 0.851, 'yaw': 52.71, 'datetime': '2018-12-12 14:27:58.481673', 'mgs': 0, 'flw2': 3.82, 'flw1': 0.18, 'flw0': 4.08, 'time': 23.27, 'compass': 64.38, 'pitch': 3.39, 'roll': 0.34}
{'lipoC2': 7.22, 'temp': 0.0, 'lipoC3S3': 11.35, 'state': 'normal', 'rot1': 198, 'rot0': 195, 'rot3': 0, 'rot2': 0, 'depth': -0.751, 'yaw': 52.84, 'datetime': '2018-12-12 14:27:58.690106', 'mgs': 0, 'flw2': 3.52, 'flw1': 0.0, 'flw0': 4.24, 'time': 23.48, 'compass': 64.51, 'pitch': 3.26, 'roll': 0.36}
{'lipoC2': 7.36, 'temp': 0.0, 'lipoC3S3': 11.19, 'state': 'normal', 'rot1': 201, 'rot0': 198, 'rot3': 0, 'rot2': 0, 'depth': 0.546, 'yaw': 53.2, 'datetime': '2018-12-12 14:27:58.899673', 'mgs': 0, 'flw2': 3.85, 'flw1': 0.18, 'flw0': 4.36, 'time': 23.68, 'compass': 64.87, 'pitch': 3.33, 'roll': 0.48}
{'lipoC2': 7.4, 'temp': 0.0, 'lipoC3S3': 10.96, 'state': 'normal', 'rot1': 203, 'rot0': 201, 'rot3': 0, 'rot2': 0, 'depth': 1.614, 'yaw': 53.87, 'datetime': '2018-12-12 14:27:59.108019', 'mgs': 0, 'flw2': 3.54, 'flw1': 0.0, 'flw0': 4.44, 'time': 23.89, 'compass': 65.53, 'pitch': 3.86, 'roll': 0.3}
{'lipoC2': 7.46, 'temp': 0.0, 'lipoC3S3': 10.93, 'state': 'normal', 'rot1': 206, 'rot0': 203, 'rot3': 0, 'rot2': 0, 'depth': -0.674, 'yaw': 54.5, 'datetime': '2018-12-12 14:27:59.318640', 'mgs': 0, 'flw2': 3.86, 'flw1': 0.0, 'flw0': 4.65, 'time': 24.1, 'compass': 66.17, 'pitch': 3.95, 'roll': 0.25}
{'lipoC2': 7.34, 'temp': 0.0, 'lipoC3S3': 11.07, 'state': 'normal', 'rot1': 209, 'rot0': 206, 'rot3': 0, 'rot2': 0, 'depth': -0.369, 'yaw': 55.0, 'datetime': '2018-12-12 14:27:59.529840', 'mgs': 0, 'flw2': 3.5, 'flw1': 0.56, 'flw0': 4.46, 'time': 24.31, 'compass': 66.67, 'pitch': 3.51, 'roll': 0.31}
{'lipoC2': 7.37, 'temp': 0.0, 'lipoC3S3': 11.21, 'state': 'normal', 'rot1': 212, 'rot0': 208, 'rot3': 0, 'rot2': 0, 'depth': 0.928, 'yaw': 55.2, 'datetime': '2018-12-12 14:27:59.742092', 'mgs': 0, 'flw2': 3.41, 'flw1': 0.21, 'flw0': 4.53, 'time': 24.52, 'compass': 66.87, 'pitch': 2.93, 'roll': 0.56}
{'lipoC2': 7.3, 'temp': 0.0, 'lipoC3S3': 11.21, 'state': 'normal', 'rot1': 215, 'rot0': 211, 'rot3': 0, 'rot2': 0, 'depth': 1.996, 'yaw': 54.99, 'datetime': '2018-12-12 14:27:59.948729', 'mgs': 0, 'flw2': 3.55, 'flw1': 0.0, 'flw0': 4.11, 'time': 24.73, 'compass': 66.66, 'pitch': 2.85, 'roll': 0.48}
{'lipoC2': 7.34, 'temp': 0.0, 'lipoC3S3': 11.47, 'state': 'normal', 'rot1': 218, 'rot0': 214, 'rot3': 0, 'rot2': 0, 'depth': -0.064, 'yaw': 54.29, 'datetime': '2018-12-12 14:28:00.158702', 'mgs': 0, 'flw2': 3.56, 'flw1': 0.0, 'flw0': 4.83, 'time': 24.94, 'compass': 65.95, 'pitch': 3.27, 'roll': -0.02}
{'lipoC2': 7.52, 'temp': 0.0, 'lipoC3S3': 11.19, 'state': 'normal', 'rot1': 220, 'rot0': 216, 'rot3': 0, 'rot2': 0, 'depth': 0.546, 'yaw': 53.31, 'datetime': '2018-12-12 14:28:00.366528', 'mgs': 0, 'flw2': 3.02, 'flw1': 0.64, 'flw0': 3.63, 'time': 25.15, 'compass': 64.98, 'pitch': 3.52, 'roll': -0.55}
{'lipoC2': 7.36, 'temp': 0.0, 'lipoC3S3': 11.05, 'state': 'normal', 'rot1': 223, 'rot0': 219, 'rot3': 0, 'rot2': 0, 'depth': 1.538, 'yaw': 52.4, 'datetime': '2018-12-12 14:28:00.577380', 'mgs': 0, 'flw2': 2.73, 'flw1': 0.0, 'flw0': 3.21, 'time': 25.36, 'compass': 64.07, 'pitch': 3.2, 'roll': -0.7}
{'lipoC2': 7.3, 'temp': 0.0, 'lipoC3S3': 11.29, 'state': 'normal', 'rot1': 226, 'rot0': 221, 'rot3': 0, 'rot2': 0, 'depth': 1.309, 'yaw': 51.72, 'datetime': '2018-12-12 14:28:00.782913', 'mgs': 0, 'flw2': 2.38, 'flw1': 0.0, 'flw0': 3.27, 'time': 25.57, 'compass': 63.39, 'pitch': 2.46, 'roll': -0.47}
{'lipoC2': 7.52, 'temp': 0.0, 'lipoC3S3': 11.0, 'state': 'normal', 'rot1': 229, 'rot0': 223, 'rot3': 0, 'rot2': 0, 'depth': 1.92, 'yaw': 51.05, 'datetime': '2018-12-12 14:28:00.992506', 'mgs': 0, 'flw2': 1.86, 'flw1': 0.41, 'flw0': 2.03, 'time': 25.78, 'compass': 62.72, 'pitch': 1.89, 'roll': -0.45}
{'lipoC2': 7.26, 'temp': 0.0, 'lipoC3S3': 11.09, 'state': 'normal', 'rot1': 231, 'rot0': 226, 'rot3': 0, 'rot2': 0, 'depth': -0.293, 'yaw': 50.65, 'datetime': '2018-12-12 14:28:01.203403', 'mgs': 0, 'flw2': 1.16, 'flw1': 0.0, 'flw0': 1.23, 'time': 25.99, 'compass': 62.31, 'pitch': 1.77, 'roll': -0.06}
{'lipoC2': 7.42, 'temp': 0.0, 'lipoC3S3': 11.29, 'state': 'normal', 'rot1': 233, 'rot0': 228, 'rot3': 0, 'rot2': 0, 'depth': -0.98, 'yaw': 50.66, 'datetime': '2018-12-12 14:28:01.412858', 'mgs': 0, 'flw2': 1.43, 'flw1': 0.0, 'flw0': 1.51, 'time': 26.19, 'compass': 62.33, 'pitch': 1.62, 'roll': 0.53}
{'lipoC2': 7.33, 'temp': 0.0, 'lipoC3S3': 11.56, 'state': 'normal', 'rot1': 235, 'rot0': 229, 'rot3': 0, 'rot2': 0, 'depth': 0.699, 'yaw': 50.67, 'datetime': '2018-12-12 14:28:01.624399', 'mgs': 0, 'flw2': 1.04, 'flw1': 0.0, 'flw0': 0.95, 'time': 26.4, 'compass': 62.33, 'pitch': 0.97, 'roll': 0.68}
{'lipoC2': 7.28, 'temp': 0.0, 'lipoC3S3': 11.5, 'state': 'normal', 'rot1': 237, 'rot0': 230, 'rot3': 0, 'rot2': 0, 'depth': -0.369, 'yaw': 50.82, 'datetime': '2018-12-12 14:28:01.830720', 'mgs': 0, 'flw2': 0.48, 'flw1': 0.0, 'flw0': 0.99, 'time': 26.61, 'compass': 62.48, 'pitch': 0.03, 'roll': 0.38}
{'lipoC2': 7.35, 'temp': 0.0, 'lipoC3S3': 11.29, 'state': 'normal', 'rot1': 239, 'rot0': 231, 'rot3': 0, 'rot2': 0, 'depth': -1.743, 'yaw': 50.81, 'datetime': '2018-12-12 14:28:02.039139', 'mgs': 0, 'flw2': 0.09, 'flw1': 0.0, 'flw0': 0.33, 'time': 26.82, 'compass': 62.48, 'pitch': -0.58, 'roll': 0.17}
{'lipoC2': 7.42, 'temp': 0.0, 'lipoC3S3': 11.32, 'state': 'normal', 'rot1': 239, 'rot0': 231, 'rot3': 0, 'rot2': 0, 'depth': 0.851, 'yaw': 50.82, 'datetime': '2018-12-12 14:28:02.249094', 'mgs': 0, 'flw2': 0.28, 'flw1': 0.0, 'flw0': 0.27, 'time': 27.03, 'compass': 62.49, 'pitch': -1.19, 'roll': 0.17}
{'lipoC2': 7.3, 'temp': 0.0, 'lipoC3S3': 11.65, 'state': 'normal', 'rot1': 239, 'rot0': 231, 'rot3': 0, 'rot2': 0, 'depth': 1.462, 'yaw': 51.1, 'datetime': '2018-12-12 14:28:02.464136', 'mgs': 0, 'flw2': 0.26, 'flw1': 0.0, 'flw0': 0.13, 'time': 27.24, 'compass': 62.76, 'pitch': -1.38, 'roll': 0.11}
{'lipoC2': 7.53, 'temp': 0.0, 'lipoC3S3': 11.47, 'state': 'normal', 'rot1': 239, 'rot0': 231, 'rot3': 0, 'rot2': 0, 'depth': -0.369, 'yaw': 51.65, 'datetime': '2018-12-12 14:28:02.672554', 'mgs': 0, 'flw2': 0.24, 'flw1': 0.0, 'flw0': 0.11, 'time': 27.45, 'compass': 63.31, 'pitch': -1.38, 'roll': 0.05}
{'lipoC2': 7.3, 'temp': 0.0, 'lipoC3S3': 11.55, 'state': 'normal', 'rot1': 239, 'rot0': 231, 'rot3': 0, 'rot2': 0, 'depth': 1.462, 'yaw': 52.5, 'datetime': '2018-12-12 14:28:02.880024', 'mgs': 0, 'flw2': 0.0, 'flw1': 0.47, 'flw0': 0.0, 'time': 27.66, 'compass': 64.17, 'pitch': -1.56, 'roll': 0.13}
{'lipoC2': 7.43, 'temp': 0.0, 'lipoC3S3': 11.06, 'state': 'normal', 'rot1': 239, 'rot0': 231, 'rot3': 0, 'rot2': 0, 'depth': -0.064, 'yaw': 53.49, 'datetime': '2018-12-12 14:28:03.090640', 'mgs': 0, 'flw2': 0.0, 'flw1': 0.38, 'flw0': 0.0, 'time': 27.87, 'compass': 65.16, 'pitch': -1.69, 'roll': 0.42}
{'lipoC2': 7.28, 'temp': 0.0, 'lipoC3S3': 11.31, 'state': 'normal', 'rot1': 239, 'rot0': 231, 'rot3': 0, 'rot2': 0, 'depth': -0.751, 'yaw': 54.72, 'datetime': '2018-12-12 14:28:03.302059', 'mgs': 0, 'flw2': 0.0, 'flw1': 0.0, 'flw0': 0.0, 'time': 28.08, 'compass': 66.39, 'pitch': -1.52, 'roll': 0.56}
{'lipoC2': 7.29, 'temp': 0.0, 'lipoC3S3': 11.27, 'state': 'normal', 'rot1': 239, 'rot0': 231, 'rot3': 0, 'rot2': 0, 'depth': -1.437, 'yaw': 56.18, 'datetime': '2018-12-12 14:28:03.509346', 'mgs': 0, 'flw2': 0.29, 'flw1': 0.0, 'flw0': 0.28, 'time': 28.28, 'compass': 67.84, 'pitch': -1.61, 'roll': 0.6}
{'lipoC2': 7.24, 'temp': 0.0, 'lipoC3S3': 11.6, 'state': 'normal', 'rot1': 239, 'rot0': 231, 'rot3': 0, 'rot2': 0, 'depth': -0.369, 'yaw': 57.76, 'datetime': '2018-12-12 14:28:03.718770', 'mgs': 0, 'flw2': 0.07, 'flw1': 0.0, 'flw0': 0.16, 'time': 28.49, 'compass': 69.42, 'pitch': -2.04, 'roll': 0.49}
{'lipoC2': 7.44, 'temp': 0.0, 'lipoC3S3': 11.13, 'state': 'normal', 'rot1': 239, 'rot0': 231, 'rot3': 0, 'rot2': 0, 'depth': -0.751, 'yaw': 59.66, 'datetime': '2018-12-12 14:28:03.927193', 'mgs': 0, 'flw2': 0.24, 'flw1': 0.0, 'flw0': 0.29, 'time': 28.7, 'compass': 71.32, 'pitch': -2.55, 'roll': 0.27}
{'lipoC2': 7.3, 'temp': 0.0, 'lipoC3S3': 11.32, 'state': 'normal', 'rot1': 239, 'rot0': 231, 'rot3': 0, 'rot2': 0, 'depth': 0.775, 'yaw': 61.75, 'datetime': '2018-12-12 14:28:04.137274', 'mgs': 0, 'flw2': 0.24, 'flw1': 0.0, 'flw0': 0.38, 'time': 28.91, 'compass': 73.41, 'pitch': -2.61, 'roll': 0.27}
{'lipoC2': 7.25, 'temp': 0.0, 'lipoC3S3': 11.29, 'state': 'normal', 'rot1': 239, 'rot0': 231, 'rot3': 0, 'rot2': 0, 'depth': -0.827, 'yaw': 63.8, 'datetime': '2018-12-12 14:28:04.344873', 'mgs': 0, 'flw2': 0.23, 'flw1': 0.0, 'flw0': 0.0, 'time': 29.12, 'compass': 75.47, 'pitch': -2.21, 'roll': 0.39}
{'lipoC2': 7.38, 'temp': 0.0, 'lipoC3S3': 11.34, 'state': 'normal', 'rot1': 239, 'rot0': 231, 'rot3': 0, 'rot2': 0, 'depth': -1.437, 'yaw': 65.83, 'datetime': '2018-12-12 14:28:04.554747', 'mgs': 0, 'flw2': 0.0, 'flw1': 0.18, 'flw0': 0.0, 'time': 29.33, 'compass': 77.5, 'pitch': -1.68, 'roll': 0.7}
{'lipoC2': 7.26, 'temp': 0.0, 'lipoC3S3': 11.34, 'state': 'normal', 'rot1': 239, 'rot0': 231, 'rot3': 0, 'rot2': 0, 'depth': -0.064, 'yaw': 67.64, 'datetime': '2018-12-12 14:28:04.766793', 'mgs': 0, 'flw2': 0.04, 'flw1': 0.0, 'flw0': 0.0, 'time': 29.54, 'compass': 79.3, 'pitch': -1.5, 'roll': 0.89}
{'lipoC2': 7.3, 'temp': 0.0, 'lipoC3S3': 11.4, 'state': 'normal', 'rot1': 239, 'rot0': 231, 'rot3': 0, 'rot2': 0, 'depth': 0.241, 'yaw': 69.42, 'datetime': '2018-12-12 14:28:04.974256', 'mgs': 0, 'flw2': 0.18, 'flw1': 0.0, 'flw0': 0.0, 'time': 29.75, 'compass': 81.09, 'pitch': -1.65, 'roll': 0.84}
{'lipoC2': 7.23, 'temp': 0.0, 'lipoC3S3': 11.06, 'state': 'normal', 'rot1': 239, 'rot0': 231, 'rot3': 0, 'rot2': 0, 'depth': -0.14, 'yaw': 71.2, 'datetime': '2018-12-12 14:28:05.182758', 'mgs': 0, 'flw2': 2.62, 'flw1': 0.53, 'flw0': 2.99, 'time': 29.96, 'compass': 82.86, 'pitch': -2.08, 'roll': 0.8}
{'lipoC2': 7.38, 'temp': 0.0, 'lipoC3S3': 10.9, 'state': 'normal', 'rot1': 243, 'rot0': 234, 'rot3': 0, 'rot2': 0, 'depth': -0.446, 'yaw': 70.79, 'datetime': '2018-12-12 14:28:05.389928', 'mgs': 0, 'flw2': 3.58, 'flw1': 0.03, 'flw0': 3.59, 'time': 30.17, 'compass': 82.45, 'pitch': -1.8, 'roll': -0.13}
{'lipoC2': 7.33, 'temp': 0.0, 'lipoC3S3': 10.92, 'state': 'normal', 'rot1': 248, 'rot0': 237, 'rot3': 0, 'rot2': 0, 'depth': -0.903, 'yaw': 65.11, 'datetime': '2018-12-12 14:28:05.600055', 'mgs': 0, 'flw2': 3.41, 'flw1': 0.73, 'flw0': 4.02, 'time': 30.37, 'compass': 76.78, 'pitch': -0.37, 'roll': -2.11}
{'lipoC2': 7.27, 'temp': 0.0, 'lipoC3S3': 11.39, 'state': 'normal', 'rot1': 253, 'rot0': 241, 'rot3': 0, 'rot2': 0, 'depth': 2.606, 'yaw': 55.99, 'datetime': '2018-12-12 14:28:05.809019', 'mgs': 0, 'flw2': 3.99, 'flw1': 0.0, 'flw0': 4.55, 'time': 30.58, 'compass': 67.66, 'pitch': 0.54, 'roll': -3.33}
{'lipoC2': 7.18, 'temp': 0.0, 'lipoC3S3': 11.22, 'state': 'normal', 'rot1': 258, 'rot0': 246, 'rot3': 0, 'rot2': 0, 'depth': 0.241, 'yaw': 44.03, 'datetime': '2018-12-12 14:28:06.018499', 'mgs': 0, 'flw2': 3.91, 'flw1': 0.67, 'flw0': 4.43, 'time': 30.79, 'compass': 55.7, 'pitch': 0.61, 'roll': -3.79}
{'lipoC2': 7.24, 'temp': 0.0, 'lipoC3S3': 10.92, 'state': 'normal', 'rot1': 261, 'rot0': 250, 'rot3': 0, 'rot2': 0, 'depth': -1.59, 'yaw': 30.5, 'datetime': '2018-12-12 14:28:06.230508', 'mgs': 0, 'flw2': 3.96, 'flw1': 0.62, 'flw0': 4.36, 'time': 31.0, 'compass': 42.16, 'pitch': 0.27, 'roll': -4.06}
{'lipoC2': 7.19, 'temp': 0.0, 'lipoC3S3': 11.05, 'state': 'normal', 'rot1': 265, 'rot0': 254, 'rot3': 0, 'rot2': 0, 'depth': 2.072, 'yaw': 15.63, 'datetime': '2018-12-12 14:28:06.438150', 'mgs': 0, 'flw2': 4.53, 'flw1': 0.0, 'flw0': 5.1, 'time': 31.21, 'compass': 27.3, 'pitch': 0.46, 'roll': -3.96}
{'lipoC2': 7.49, 'temp': 0.0, 'lipoC3S3': 10.97, 'state': 'normal', 'rot1': 270, 'rot0': 258, 'rot3': 0, 'rot2': 0, 'depth': -0.751, 'yaw': -0.24, 'datetime': '2018-12-12 14:28:06.647607', 'mgs': 0, 'flw2': 4.87, 'flw1': 0.0, 'flw0': 4.91, 'time': 31.42, 'compass': 11.42, 'pitch': 1.57, 'roll': -3.42}
{'lipoC2': 7.27, 'temp': 0.0, 'lipoC3S3': 10.9, 'state': 'normal', 'rot1': 275, 'rot0': 262, 'rot3': 0, 'rot2': 0, 'depth': -0.522, 'yaw': -16.87, 'datetime': '2018-12-12 14:28:06.857169', 'mgs': 0, 'flw2': 4.46, 'flw1': 0.21, 'flw0': 4.88, 'time': 31.63, 'compass': -5.21, 'pitch': 2.44, 'roll': -2.56}
{'lipoC2': 7.34, 'temp': 0.0, 'lipoC3S3': 11.02, 'state': 'normal', 'rot1': 279, 'rot0': 266, 'rot3': 0, 'rot2': 0, 'depth': -0.598, 'yaw': -33.38, 'datetime': '2018-12-12 14:28:07.065686', 'mgs': 0, 'flw2': 4.35, 'flw1': 0.0, 'flw0': 4.88, 'time': 31.84, 'compass': -21.71, 'pitch': 2.56, 'roll': -2.2}
{'lipoC2': 7.27, 'temp': 0.0, 'lipoC3S3': 11.4, 'state': 'normal', 'rot1': 283, 'rot0': 271, 'rot3': 0, 'rot2': 0, 'depth': 2.072, 'yaw': -50.81, 'datetime': '2018-12-12 14:28:07.276434', 'mgs': 0, 'flw2': 4.08, 'flw1': 0.21, 'flw0': 4.39, 'time': 32.05, 'compass': -39.15, 'pitch': 1.99, 'roll': -2.51}
{'lipoC2': 7.26, 'temp': 0.0, 'lipoC3S3': 11.18, 'state': 'normal', 'rot1': 289, 'rot0': 274, 'rot3': 0, 'rot2': 0, 'depth': 2.072, 'yaw': -67.78, 'datetime': '2018-12-12 14:28:07.485900', 'mgs': 0, 'flw2': 4.36, 'flw1': 0.0, 'flw0': 4.66, 'time': 32.26, 'compass': -56.11, 'pitch': 1.18, 'roll': -3.22}
{'lipoC2': 7.27, 'temp': 0.0, 'lipoC3S3': 11.5, 'state': 'normal', 'rot1': 293, 'rot0': 278, 'rot3': 0, 'rot2': 0, 'depth': -0.217, 'yaw': -85.06, 'datetime': '2018-12-12 14:28:07.696101', 'mgs': 0, 'flw2': 5.4, 'flw1': 0.91, 'flw0': 5.44, 'time': 32.47, 'compass': -73.4, 'pitch': 0.65, 'roll': -3.93}
{'lipoC2': 7.53, 'temp': 0.0, 'lipoC3S3': 10.98, 'state': 'normal', 'rot1': 299, 'rot0': 283, 'rot3': 0, 'rot2': 0, 'depth': -0.98, 'yaw': -103.69, 'datetime': '2018-12-12 14:28:07.905127', 'mgs': 0, 'flw2': 5.6, 'flw1': 0.73, 'flw0': 6.24, 'time': 32.68, 'compass': -92.03, 'pitch': 0.14, 'roll': -4.48}
{'lipoC2': 7.28, 'temp': 0.0, 'lipoC3S3': 11.25, 'state': 'normal', 'rot1': 306, 'rot0': 290, 'rot3': 0, 'rot2': 0, 'depth': -0.217, 'yaw': -134.08, 'datetime': '2018-12-12 14:28:08.219681', 'mgs': 0, 'flw2': 6.15, 'flw1': 0.0, 'flw0': 6.68, 'time': 32.99, 'compass': -122.41, 'pitch': 0.8, 'roll': -5.73}
{'lipoC2': 7.25, 'temp': 0.0, 'lipoC3S3': 11.09, 'state': 'normal', 'rot1': 311, 'rot0': 294, 'rot3': 0, 'rot2': 0, 'depth': -0.217, 'yaw': -155.86, 'datetime': '2018-12-12 14:28:08.429426', 'mgs': 0, 'flw2': 7.01, 'flw1': 0.0, 'flw0': 6.88, 'time': 33.2, 'compass': -144.2, 'pitch': 1.75, 'roll': -5.91}
{'lipoC2': 7.25, 'temp': 0.0, 'lipoC3S3': 10.92, 'state': 'normal', 'rot1': 318, 'rot0': 298, 'rot3': 0, 'rot2': 0, 'depth': -0.369, 'yaw': -178.17, 'datetime': '2018-12-12 14:28:08.638106', 'mgs': 0, 'flw2': 7.29, 'flw1': 0.0, 'flw0': 7.28, 'time': 33.41, 'compass': -166.51, 'pitch': 1.6, 'roll': -5.61}
{'lipoC2': 7.51, 'temp': 0.0, 'lipoC3S3': 10.77, 'state': 'normal', 'rot1': 324, 'rot0': 303, 'rot3': 0, 'rot2': 0, 'depth': 3.14, 'yaw': 159.78, 'datetime': '2018-12-12 14:28:08.848188', 'mgs': 0, 'flw2': 6.92, 'flw1': 0.03, 'flw0': 7.26, 'time': 33.62, 'compass': 171.45, 'pitch': 1.68, 'roll': -5.66}
{'lipoC2': 7.43, 'temp': 0.0, 'lipoC3S3': 11.01, 'state': 'normal', 'rot1': 330, 'rot0': 308, 'rot3': 0, 'rot2': 0, 'depth': 1.538, 'yaw': 135.98, 'datetime': '2018-12-12 14:28:09.056518', 'mgs': 0, 'flw2': 7.4, 'flw1': 0.0, 'flw0': 7.9, 'time': 33.83, 'compass': 147.64, 'pitch': 1.76, 'roll': -5.21}
{'lipoC2': 7.19, 'temp': 0.0, 'lipoC3S3': 10.85, 'state': 'normal', 'rot1': 336, 'rot0': 313, 'rot3': 0, 'rot2': 0, 'depth': 2.53, 'yaw': 111.45, 'datetime': '2018-12-12 14:28:09.266184', 'mgs': 0, 'flw2': 7.13, 'flw1': 0.0, 'flw0': 7.21, 'time': 34.04, 'compass': 123.11, 'pitch': 0.87, 'roll': -4.74}
{'lipoC2': 7.52, 'temp': 0.0, 'lipoC3S3': 10.96, 'state': 'normal', 'rot1': 343, 'rot0': 318, 'rot3': 0, 'rot2': 0, 'depth': -1.361, 'yaw': 86.62, 'datetime': '2018-12-12 14:28:09.477657', 'mgs': 0, 'flw2': 7.31, 'flw1': 0.47, 'flw0': 7.57, 'time': 34.25, 'compass': 98.28, 'pitch': 0.42, 'roll': -5.36}
{'lipoC2': 7.18, 'temp': 0.0, 'lipoC3S3': 11.01, 'state': 'normal', 'rot1': 350, 'rot0': 324, 'rot3': 0, 'rot2': 0, 'depth': 2.072, 'yaw': 61.52, 'datetime': '2018-12-12 14:28:09.685910', 'mgs': 0, 'flw2': 8.09, 'flw1': 0.0, 'flw0': 7.95, 'time': 34.46, 'compass': 73.19, 'pitch': 0.65, 'roll': -5.61}
{'lipoC2': 7.27, 'temp': 0.0, 'lipoC3S3': 11.4, 'state': 'normal', 'rot1': 356, 'rot0': 329, 'rot3': 0, 'rot2': 0, 'depth': 1.996, 'yaw': 36.91, 'datetime': '2018-12-12 14:28:09.895949', 'mgs': 0, 'flw2': 7.53, 'flw1': 0.0, 'flw0': 7.41, 'time': 34.66, 'compass': 48.58, 'pitch': 0.57, 'roll': -5.7}
{'lipoC2': 7.4, 'temp': 0.0, 'lipoC3S3': 11.19, 'state': 'normal', 'rot1': 360, 'rot0': 333, 'rot3': 0, 'rot2': 0, 'depth': -1.514, 'yaw': 11.34, 'datetime': '2018-12-12 14:28:10.104883', 'mgs': 0, 'flw2': 0.93, 'flw1': 0.64, 'flw0': 1.03, 'time': 34.87, 'compass': 23.01, 'pitch': -0.67, 'roll': -6.07}
{'lipoC2': 7.51, 'temp': 0.0, 'lipoC3S3': 11.06, 'state': 'normal', 'rot1': 363, 'rot0': 335, 'rot3': 0, 'rot2': 0, 'depth': -0.446, 'yaw': -9.43, 'datetime': '2018-12-12 14:28:10.314034', 'mgs': 0, 'flw2': 3.04, 'flw1': 0.0, 'flw0': 0.59, 'time': 35.08, 'compass': 2.23, 'pitch': -2.76, 'roll': -4.97}
{'lipoC2': 7.25, 'temp': 0.0, 'lipoC3S3': 11.25, 'state': 'normal', 'rot1': 363, 'rot0': 336, 'rot3': 0, 'rot2': 0, 'depth': -0.369, 'yaw': -24.8, 'datetime': '2018-12-12 14:28:10.522219', 'mgs': 0, 'flw2': 0.06, 'flw1': 0.0, 'flw0': 0.0, 'time': 35.29, 'compass': -13.13, 'pitch': -3.11, 'roll': -2.2}
{'lipoC2': 7.29, 'temp': 0.0, 'lipoC3S3': 11.02, 'state': 'normal', 'rot1': 363, 'rot0': 336, 'rot3': 0, 'rot2': 0, 'depth': -0.751, 'yaw': -37.58, 'datetime': '2018-12-12 14:28:10.731787', 'mgs': 0, 'flw2': 0.0, 'flw1': 0.26, 'flw0': 0.0, 'time': 35.5, 'compass': -25.91, 'pitch': -2.57, 'roll': 0.04}
{'lipoC2': 7.36, 'temp': 0.0, 'lipoC3S3': 11.14, 'state': 'normal', 'rot1': 365, 'rot0': 337, 'rot3': 0, 'rot2': 0, 'depth': 3.293, 'yaw': -48.15, 'datetime': '2018-12-12 14:28:10.953773', 'mgs': 0, 'flw2': 5.47, 'flw1': 0.0, 'flw0': 4.77, 'time': 35.71, 'compass': -36.49, 'pitch': -1.64, 'roll': 0.7}
{'lipoC2': 7.26, 'temp': 0.0, 'lipoC3S3': 11.26, 'state': 'normal', 'rot1': 370, 'rot0': 341, 'rot3': 0, 'rot2': 0, 'depth': -0.446, 'yaw': -65.53, 'datetime': '2018-12-12 14:28:11.256567', 'mgs': 0, 'flw2': 0.38, 'flw1': 0.03, 'flw0': 0.67, 'time': 36.02, 'compass': -53.87, 'pitch': -0.46, 'roll': -2.19}
{'lipoC2': 7.19, 'temp': 0.0, 'lipoC3S3': 11.58, 'state': 'normal', 'rot1': 371, 'rot0': 342, 'rot3': 0, 'rot2': 0, 'depth': -0.98, 'yaw': -78.26, 'datetime': '2018-12-12 14:28:11.467313', 'mgs': 0, 'flw2': 0.61, 'flw1': 0.0, 'flw0': 0.63, 'time': 36.23, 'compass': -66.6, 'pitch': -0.59, 'roll': -4.26}
{'lipoC2': 7.18, 'temp': 0.0, 'lipoC3S3': 11.54, 'state': 'normal', 'rot1': 373, 'rot0': 343, 'rot3': 0, 'rot2': 0, 'depth': -0.903, 'yaw': -88.94, 'datetime': '2018-12-12 14:28:11.676947', 'mgs': 0, 'flw2': 0.67, 'flw1': 0.0, 'flw0': 0.62, 'time': 36.44, 'compass': -77.27, 'pitch': -1.26, 'roll': -4.3}
{'lipoC2': 7.37, 'temp': 0.0, 'lipoC3S3': 11.18, 'state': 'normal', 'rot1': 374, 'rot0': 344, 'rot3': 0, 'rot2': 0, 'depth': -0.293, 'yaw': -98.69, 'datetime': '2018-12-12 14:28:11.893003', 'mgs': 0, 'flw2': 0.44, 'flw1': 0.0, 'flw0': 0.28, 'time': 36.65, 'compass': -87.03, 'pitch': -1.66, 'roll': -2.4}
{'lipoC2': 7.25, 'temp': 0.0, 'lipoC3S3': 11.39, 'state': 'normal', 'rot1': 374, 'rot0': 344, 'rot3': 0, 'rot2': 0, 'depth': -0.98, 'yaw': -107.37, 'datetime': '2018-12-12 14:28:12.103704', 'mgs': 0, 'flw2': 0.15, 'flw1': 0.0, 'flw0': 0.0, 'time': 36.86, 'compass': -95.7, 'pitch': -1.65, 'roll': -0.08}
{'lipoC2': 7.52, 'temp': 0.0, 'lipoC3S3': 11.18, 'state': 'normal', 'rot1': 374, 'rot0': 345, 'rot3': 0, 'rot2': 0, 'depth': -1.59, 'yaw': -114.97, 'datetime': '2018-12-12 14:28:12.312128', 'mgs': 0, 'flw2': 2.93, 'flw1': 0.0, 'flw0': 0.94, 'time': 37.07, 'compass': -103.31, 'pitch': -1.3, 'roll': 1.13}
{'lipoC2': 7.27, 'temp': 0.0, 'lipoC3S3': 11.09, 'state': 'normal', 'rot1': 376, 'rot0': 347, 'rot3': 0, 'rot2': 0, 'depth': 0.851, 'yaw': -120.71, 'datetime': '2018-12-12 14:28:12.522414', 'mgs': 0, 'flw2': 2.56, 'flw1': 0.0, 'flw0': 0.55, 'time': 37.28, 'compass': -109.04, 'pitch': 0.75, 'roll': 0.78}
{'lipoC2': 7.47, 'temp': 0.0, 'lipoC3S3': 10.93, 'state': 'normal', 'rot1': 377, 'rot0': 350, 'rot3': 0, 'rot2': 0, 'depth': -1.132, 'yaw': -123.73, 'datetime': '2018-12-12 14:28:12.726792', 'mgs': 0, 'flw2': 2.49, 'flw1': 0.0, 'flw0': 1.04, 'time': 37.49, 'compass': -112.06, 'pitch': 2.69, 'roll': -0.18}
{'lipoC2': 7.28, 'temp': 0.0, 'lipoC3S3': 11.21, 'state': 'normal', 'rot1': 379, 'rot0': 352, 'rot3': 0, 'rot2': 0, 'depth': 1.691, 'yaw': -124.68, 'datetime': '2018-12-12 14:28:12.935562', 'mgs': 0, 'flw2': 2.39, 'flw1': 0.0, 'flw0': 0.77, 'time': 37.7, 'compass': -113.02, 'pitch': 2.62, 'roll': -1.03}
{'lipoC2': 7.44, 'temp': 0.0, 'lipoC3S3': 11.23, 'state': 'normal', 'rot1': 380, 'rot0': 354, 'rot3': 0, 'rot2': 0, 'depth': -1.208, 'yaw': -123.79, 'datetime': '2018-12-12 14:28:13.143686', 'mgs': 0, 'flw2': 2.49, 'flw1': 0.79, 'flw0': 0.62, 'time': 37.91, 'compass': -112.12, 'pitch': 1.17, 'roll': -1.3}
{'lipoC2': 7.29, 'temp': 0.0, 'lipoC3S3': 11.21, 'state': 'normal', 'rot1': 382, 'rot0': 357, 'rot3': 0, 'rot2': 0, 'depth': -0.98, 'yaw': -121.68, 'datetime': '2018-12-12 14:28:13.352092', 'mgs': 0, 'flw2': 2.48, 'flw1': 0.0, 'flw0': 0.62, 'time': 38.12, 'compass': -110.02, 'pitch': 0.14, 'roll': -0.83}
{'lipoC2': 7.4, 'temp': 0.0, 'lipoC3S3': 10.98, 'state': 'normal', 'rot1': 384, 'rot0': 359, 'rot3': 0, 'rot2': 0, 'depth': -1.208, 'yaw': -118.69, 'datetime': '2018-12-12 14:28:13.562007', 'mgs': 0, 'flw2': 2.45, 'flw1': 0.0, 'flw0': 0.51, 'time': 38.33, 'compass': -107.02, 'pitch': 0.43, 'roll': 0.11}
{'lipoC2': 7.34, 'temp': 0.0, 'lipoC3S3': 10.96, 'state': 'normal', 'rot1': 386, 'rot0': 362, 'rot3': 0, 'rot2': 0, 'depth': 1.233, 'yaw': -114.89, 'datetime': '2018-12-12 14:28:13.771093', 'mgs': 0, 'flw2': 2.5, 'flw1': 0.0, 'flw0': 0.44, 'time': 38.54, 'compass': -103.22, 'pitch': 1.2, 'roll': 1.17}
{'lipoC2': 7.23, 'temp': 0.0, 'lipoC3S3': 11.1, 'state': 'normal', 'rot1': 388, 'rot0': 364, 'rot3': 0, 'rot2': 0, 'depth': 2.072, 'yaw': -110.55, 'datetime': '2018-12-12 14:28:13.983331', 'mgs': 0, 'flw2': 2.44, 'flw1': 0.12, 'flw0': 0.66, 'time': 38.75, 'compass': -98.88, 'pitch': 1.31, 'roll': 1.73}
{'lipoC2': 7.43, 'temp': 0.0, 'lipoC3S3': 11.19, 'state': 'normal', 'rot1': 391, 'rot0': 367, 'rot3': 1, 'rot2': 0, 'depth': -0.522, 'yaw': -106.01, 'datetime': '2018-12-12 14:28:14.192908', 'mgs': 0, 'flw2': 2.26, 'flw1': 3.6, 'flw0': 0.63, 'time': 38.96, 'compass': -94.35, 'pitch': 0.95, 'roll': 1.44}
{'lipoC2': 7.2, 'temp': 0.0, 'lipoC3S3': 11.58, 'state': 'normal', 'rot1': 391, 'rot0': 368, 'rot3': 1, 'rot2': 1, 'depth': -0.98, 'yaw': -101.26, 'datetime': '2018-12-12 14:28:14.401106', 'mgs': 0, 'flw2': 0.0, 'flw1': 0.0, 'flw0': 0.0, 'time': 39.16, 'compass': -89.59, 'pitch': 0.15, 'roll': 0.41}
{'lipoC2': 7.4, 'temp': 0.0, 'lipoC3S3': 11.26, 'state': 'normal', 'rot1': 391, 'rot0': 368, 'rot3': 1, 'rot2': 1, 'depth': 0.851, 'yaw': -97.39, 'datetime': '2018-12-12 14:28:14.610527', 'mgs': 0, 'flw2': 0.37, 'flw1': 0.0, 'flw0': 0.0, 'time': 39.37, 'compass': -85.72, 'pitch': -1.81, 'roll': -0.43}
{'lipoC2': 7.36, 'temp': 0.0, 'lipoC3S3': 11.32, 'state': 'normal', 'rot1': 391, 'rot0': 368, 'rot3': 1, 'rot2': 1, 'depth': -1.361, 'yaw': -94.07, 'datetime': '2018-12-12 14:28:14.826346', 'mgs': 0, 'flw2': 0.0, 'flw1': 0.15, 'flw0': 0.0, 'time': 39.58, 'compass': -82.41, 'pitch': -2.54, 'roll': -0.5}
{'lipoC2': 7.32, 'temp': 0.0, 'lipoC3S3': 11.55, 'state': 'normal', 'rot1': 392, 'rot0': 368, 'rot3': 1, 'rot2': 1, 'depth': 1.462, 'yaw': -91.14, 'datetime': '2018-12-12 14:28:15.028781', 'mgs': 0, 'flw2': 1.07, 'flw1': 0.0, 'flw0': 3.14, 'time': 39.79, 'compass': -79.47, 'pitch': -1.87, 'roll': 0.15}
{'lipoC2': 7.3, 'temp': 0.0, 'lipoC3S3': 11.42, 'state': 'normal', 'rot1': 395, 'rot0': 369, 'rot3': 1, 'rot2': 1, 'depth': -1.208, 'yaw': -90.02, 'datetime': '2018-12-12 14:28:15.239842', 'mgs': 0, 'flw2': 0.95, 'flw1': 0.0, 'flw0': 2.83, 'time': 40.0, 'compass': -78.35, 'pitch': -0.05, 'roll': 0.46}
{'lipoC2': 7.41, 'temp': 0.0, 'lipoC3S3': 11.22, 'state': 'normal', 'rot1': 398, 'rot0': 371, 'rot3': 1, 'rot2': 1, 'depth': -0.217, 'yaw': -90.93, 'datetime': '2018-12-12 14:28:15.449506', 'mgs': 0, 'flw2': 0.59, 'flw1': 0.44, 'flw0': 2.64, 'time': 40.21, 'compass': -79.27, 'pitch': 0.99, 'roll': 0.28}
{'lipoC2': 7.26, 'temp': 0.0, 'lipoC3S3': 11.46, 'state': 'normal', 'rot1': 402, 'rot0': 372, 'rot3': 1, 'rot2': 1, 'depth': 0.394, 'yaw': -93.47, 'datetime': '2018-12-12 14:28:15.660901', 'mgs': 0, 'flw2': 0.87, 'flw1': 0.0, 'flw0': 2.48, 'time': 40.42, 'compass': -81.81, 'pitch': 0.35, 'roll': -0.11}
{'lipoC2': 7.18, 'temp': 0.0, 'lipoC3S3': 11.43, 'state': 'normal', 'rot1': 404, 'rot0': 374, 'rot3': 1, 'rot2': 1, 'depth': -0.751, 'yaw': -97.09, 'datetime': '2018-12-12 14:28:15.870496', 'mgs': 0, 'flw2': 0.87, 'flw1': 0.0, 'flw0': 2.91, 'time': 40.63, 'compass': -85.43, 'pitch': -0.44, 'roll': -0.5}
{'lipoC2': 7.33, 'temp': 0.0, 'lipoC3S3': 11.52, 'state': 'normal', 'rot1': 406, 'rot0': 375, 'rot3': 1, 'rot2': 1, 'depth': -1.514, 'yaw': -101.36, 'datetime': '2018-12-12 14:28:16.078904', 'mgs': 0, 'flw2': 0.61, 'flw1': 0.79, 'flw0': 2.61, 'time': 40.84, 'compass': -89.69, 'pitch': -0.22, 'roll': -0.91}
{'lipoC2': 7.2, 'temp': 0.0, 'lipoC3S3': 11.47, 'state': 'normal', 'rot1': 409, 'rot0': 376, 'rot3': 1, 'rot2': 1, 'depth': -0.674, 'yaw': -105.95, 'datetime': '2018-12-12 14:28:16.288801', 'mgs': 0, 'flw2': 2.94, 'flw1': 0.0, 'flw0': 2.88, 'time': 41.05, 'compass': -94.28, 'pitch': 0.49, 'roll': -0.99}
{'lipoC2': 7.33, 'temp': 0.0, 'lipoC3S3': 11.13, 'state': 'normal', 'rot1': 411, 'rot0': 379, 'rot3': 1, 'rot2': 1, 'depth': 1.233, 'yaw': -109.94, 'datetime': '2018-12-12 14:28:16.499596', 'mgs': 0, 'flw2': 2.56, 'flw1': 0.35, 'flw0': 2.55, 'time': 41.26, 'compass': -98.28, 'pitch': 1.41, 'roll': -0.75}
{'lipoC2': 7.18, 'temp': 0.0, 'lipoC3S3': 11.39, 'state': 'normal', 'rot1': 414, 'rot0': 381, 'rot3': 1, 'rot2': 1, 'depth': -0.674, 'yaw': -112.21, 'datetime': '2018-12-12 14:28:16.709002', 'mgs': 0, 'flw2': 2.67, 'flw1': 0.0, 'flw0': 0.81, 'time': 41.46, 'compass': -100.54, 'pitch': 1.38, 'roll': -0.48}
{'lipoC2': 7.28, 'temp': 0.0, 'lipoC3S3': 11.47, 'state': 'normal', 'rot1': 415, 'rot0': 384, 'rot3': 1, 'rot2': 1, 'depth': -0.98, 'yaw': -112.18, 'datetime': '2018-12-12 14:28:16.918007', 'mgs': 0, 'flw2': 2.73, 'flw1': 0.0, 'flw0': 0.96, 'time': 41.67, 'compass': -100.51, 'pitch': 0.24, 'roll': 0.09}
{'lipoC2': 7.32, 'temp': 0.0, 'lipoC3S3': 11.38, 'state': 'normal', 'rot1': 415, 'rot0': 384, 'rot3': 1, 'rot2': 1, 'depth': -0.598, 'yaw': -111.17, 'datetime': '2018-12-12 14:28:17.127528', 'mgs': 0, 'flw2': 0.24, 'flw1': 0.0, 'flw0': 0.23, 'time': 41.88, 'compass': -99.5, 'pitch': -0.86, 'roll': 0.59}
{'lipoC2': 7.51, 'temp': 0.0, 'lipoC3S3': 11.27, 'state': 'normal', 'rot1': 415, 'rot0': 384, 'rot3': 1, 'rot2': 1, 'depth': -0.903, 'yaw': -110.54, 'datetime': '2018-12-12 14:28:17.338466', 'mgs': 0, 'flw2': 0.0, 'flw1': 0.79, 'flw0': 0.0, 'time': 42.09, 'compass': -98.88, 'pitch': -2.23, 'roll': 0.3}
{'lipoC2': 7.53, 'temp': 0.0, 'lipoC3S3': 11.38, 'state': 'normal', 'rot1': 415, 'rot0': 384, 'rot3': 1, 'rot2': 1, 'depth': -1.437, 'yaw': -110.19, 'datetime': '2018-12-12 14:28:17.550361', 'mgs': 0, 'flw2': 0.0, 'flw1': 0.0, 'flw0': 0.0, 'time': 42.3, 'compass': -98.53, 'pitch': -2.54, 'roll': -0.28}
{'lipoC2': 7.18, 'temp': 0.0, 'lipoC3S3': 11.09, 'state': 'normal', 'rot1': 417, 'rot0': 385, 'rot3': 1, 'rot2': 1, 'depth': 2.072, 'yaw': -109.89, 'datetime': '2018-12-12 14:28:17.755153', 'mgs': 0, 'flw2': 0.23, 'flw1': 0.0, 'flw0': 0.2, 'time': 42.51, 'compass': -98.22, 'pitch': -1.96, 'roll': -0.7}
{'lipoC2': 7.22, 'temp': 0.0, 'lipoC3S3': 11.56, 'state': 'normal', 'rot1': 417, 'rot0': 385, 'rot3': 1, 'rot2': 1, 'depth': -0.98, 'yaw': -108.93, 'datetime': '2018-12-12 14:28:17.963456', 'mgs': 0, 'flw2': 0.54, 'flw1': 0.0, 'flw0': 0.7, 'time': 42.72, 'compass': -97.26, 'pitch': -1.41, 'roll': -0.44}
{'lipoC2': 7.29, 'temp': 0.0, 'lipoC3S3': 11.13, 'state': 'normal', 'rot1': 418, 'rot0': 386, 'rot3': 1, 'rot2': 1, 'depth': 1.767, 'yaw': -107.44, 'datetime': '2018-12-12 14:28:18.173082', 'mgs': 0, 'flw2': 0.39, 'flw1': 0.0, 'flw0': 0.23, 'time': 42.93, 'compass': -95.78, 'pitch': -1.58, 'roll': 0.16}
