{'lipoC2': 7.22, 'temp': 0.0, 'lipoC3S3': 11.22, 'state': 'normal', 'rot1': 0, 'rot0': 0, 'rot3': 0, 'rot2': 0, 'depth': -0.751, 'yaw': 0.2, 'datetime': '2018-12-12 14:26:46.897684', 'mgs': 0, 'flw2': 0.0, 'flw1': 0.0, 'flw0': 0.0, 'time': 1.36, 'compass': 41.83, 'pitch': -2.0, 'roll': 0.02}
{'lipoC2': 7.44, 'temp': 0.0, 'lipoC3S3': 11.14, 'state': 'normal', 'rot1': 0, 'rot0': 0, 'rot3': 0, 'rot2': 0, 'depth': 0.089, 'yaw': 0.61, 'datetime': '2018-12-12 14:26:47.106473', 'mgs': 0, 'flw2': 0.16, 'flw1': 0.0, 'flw0': 0.06, 'time': 1.57, 'compass': 42.24, 'pitch': -2.13, 'roll': 0.06}
{'lipoC2': 7.29, 'temp': 0.0, 'lipoC3S3': 11.29, 'state': 'normal', 'rot1': 0, 'rot0': 0, 'rot3': 0, 'rot2': 0, 'depth': -0.064, 'yaw': 1.01, 'datetime': '2018-12-12 14:26:47.312676', 'mgs': 0, 'flw2': 0.0, 'flw1': 0.0, 'flw0': 0.0, 'time': 1.77, 'compass': 42.64, 'pitch': -2.34, 'roll': -0.2}
{'lipoC2': 7.38, 'temp': 0.0, 'lipoC3S3': 11.44, 'state': 'normal', 'rot1': 0, 'rot0': 0, 'rot3': 0, 'rot2': 0, 'depth': -0.98, 'yaw': 1.35, 'datetime': '2018-12-12 14:26:47.520103', 'mgs': 0, 'flw2': 0.02, 'flw1': 0.0, 'flw0': 0.0, 'time': 1.98, 'compass': 42.98, 'pitch': -2.54, 'roll': -0.43}
{'lipoC2': 7.34, 'temp': 0.0, 'lipoC3S3': 11.64, 'state': 'normal', 'rot1': 0, 'rot0': 0, 'rot3': 0, 'rot2': 0, 'depth': -0.369, 'yaw': 1.74, 'datetime': '2018-12-12 14:26:47.728868', 'mgs': 0, 'flw2': 0.16, 'flw1': 0.0, 'flw0': 0.21, 'time': 2.19, 'compass': 43.37, 'pitch': -2.62, 'roll': -0.42}
{'lipoC2': 7.3, 'temp': 0.0, 'lipoC3S3': 11.59, 'state': 'normal', 'rot1': 0, 'rot0': 0, 'rot3': 0, 'rot2': 0, 'depth': 0.546, 'yaw': 2.1, 'datetime': '2018-12-12 14:26:47.936656', 'mgs': 0, 'flw2': 0.04, 'flw1': 0.0, 'flw0': 0.24, 'time': 2.4, 'compass': 43.73, 'pitch': -2.43, 'roll': -0.4}
{'lipoC2': 7.27, 'temp': 0.0, 'lipoC3S3': 11.48, 'state': 'normal', 'rot1': 0, 'rot0': 0, 'rot3': 0, 'rot2': 0, 'depth': -1.514, 'yaw': 2.53, 'datetime': '2018-12-12 14:26:48.147283', 'mgs': 0, 'flw2': 0.2, 'flw1': 0.0, 'flw0': 0.0, 'time': 2.61, 'compass': 44.16, 'pitch': -2.04, 'roll': -0.36}
{'lipoC2': 7.27, 'temp': 0.0, 'lipoC3S3': 11.44, 'state': 'normal', 'rot1': 0, 'rot0': 0, 'rot3': 0, 'rot2': 0, 'depth': -0.369, 'yaw': 2.89, 'datetime': '2018-12-12 14:26:48.352391', 'mgs': 0, 'flw2': 0.1, 'flw1': 0.0, 'flw0': 0.0, 'time': 2.81, 'compass': 44.51, 'pitch': -2.12, 'roll': -0.26}
{'lipoC2': 7.35, 'temp': 0.0, 'lipoC3S3': 11.31, 'state': 'normal', 'rot1': 0, 'rot0': 0, 'rot3': 0, 'rot2': 0, 'depth': -0.369, 'yaw': 3.27, 'datetime': '2018-12-12 14:26:48.565105', 'mgs': 0, 'flw2': 0.13, 'flw1': 0.0, 'flw0': 0.07, 'time': 3.02, 'compass': 44.9, 'pitch': -2.52, 'roll': -0.12}
{'lipoC2': 7.37, 'temp': 0.0, 'lipoC3S3': 11.23, 'state': 'normal', 'rot1': 0, 'rot0': 0, 'rot3': 0, 'rot2': 0, 'depth': 1.614, 'yaw': 3.61, 'datetime': '2018-12-12 14:26:48.770720', 'mgs': 0, 'flw2': 0.31, 'flw1': 0.0, 'flw0': 0.07, 'time': 3.23, 'compass': 45.24, 'pitch': -2.73, 'roll': 0.08}
{'lipoC2': 7.46, 'temp': 0.0, 'lipoC3S3': 11.36, 'state': 'normal', 'rot1': 0, 'rot0': 0, 'rot3': 0, 'rot2': 0, 'depth': 0.317, 'yaw': 3.99, 'datetime': '2018-12-12 14:26:48.978029', 'mgs': 0, 'flw2': 0.0, 'flw1': 0.0, 'flw0': 0.2, 'time': 3.44, 'compass': 45.62, 'pitch': -2.7, 'roll': 0.23}
{'lipoC2': 7.48, 'temp': 0.0, 'lipoC3S3': 11.13, 'state': 'normal', 'rot1': 1, 'rot0': 0, 'rot3': 0, 'rot2': 0, 'depth': -1.361, 'yaw': 4.01, 'datetime': '2018-12-12 14:26:49.185750', 'mgs': 0, 'flw2': 0.13, 'flw1': 0.0, 'flw0': 0.88, 'time': 3.64, 'compass': 45.64, 'pitch': -2.25, 'roll': 0.05}
{'lipoC2': 7.28, 'temp': 0.0, 'lipoC3S3': 11.34, 'state': 'normal', 'rot1': 2, 'rot0': 0, 'rot3': 0, 'rot2': 0, 'depth': -0.446, 'yaw': 2.7, 'datetime': '2018-12-12 14:26:49.392894', 'mgs': 0, 'flw2': 0.0, 'flw1': 0.59, 'flw0': 1.09, 'time': 3.85, 'compass': 44.32, 'pitch': -1.21, 'roll': -0.74}
{'lipoC2': 7.26, 'temp': 0.0, 'lipoC3S3': 11.63, 'state': 'normal', 'rot1': 4, 'rot0': 0, 'rot3': 0, 'rot2': 0, 'depth': -0.369, 'yaw': -0.34, 'datetime': '2018-12-12 14:26:49.601192', 'mgs': 0, 'flw2': 0.59, 'flw1': 0.0, 'flw0': 1.5, 'time': 4.06, 'compass': 41.29, 'pitch': -0.86, 'roll': -1.45}
{'lipoC2': 7.33, 'temp': 0.0, 'lipoC3S3': 11.31, 'state': 'normal', 'rot1': 6, 'rot0': 1, 'rot3': 0, 'rot2': 0, 'depth': 0.928, 'yaw': -4.44, 'datetime': '2018-12-12 14:26:49.810828', 'mgs': 0, 'flw2': 0.35, 'flw1': 0.56, 'flw0': 1.15, 'time': 4.27, 'compass': 37.19, 'pitch': -1.28, 'roll': -1.54}
{'lipoC2': 7.46, 'temp': 0.0, 'lipoC3S3': 11.15, 'state': 'normal', 'rot1': 8, 'rot0': 2, 'rot3': 0, 'rot2': 0, 'depth': 0.623, 'yaw': -8.76, 'datetime': '2018-12-12 14:26:50.019014', 'mgs': 0, 'flw2': 0.32, 'flw1': 0.0, 'flw0': 1.21, 'time': 4.48, 'compass': 32.87, 'pitch': -1.06, 'roll': -1.08}
{'lipoC2': 7.47, 'temp': 0.0, 'lipoC3S3': 11.35, 'state': 'normal', 'rot1': 10, 'rot0': 3, 'rot3': 0, 'rot2': 0, 'depth': -1.361, 'yaw': -13.42, 'datetime': '2018-12-12 14:26:50.226817', 'mgs': 0, 'flw2': 0.39, 'flw1': 0.0, 'flw0': 1.31, 'time': 4.68, 'compass': 28.21, 'pitch': -0.12, 'roll': -0.45}
{'lipoC2': 7.53, 'temp': 0.0, 'lipoC3S3': 11.35, 'state': 'normal', 'rot1': 11, 'rot0': 4, 'rot3': 0, 'rot2': 0, 'depth': 1.233, 'yaw': -18.13, 'datetime': '2018-12-12 14:26:50.434792', 'mgs': 0, 'flw2': 0.39, 'flw1': 0.0, 'flw0': 1.22, 'time': 4.89, 'compass': 23.5, 'pitch': 0.26, 'roll': -0.15}
{'lipoC2': 7.53, 'temp': 0.0, 'lipoC3S3': 11.35, 'state': 'normal', 'rot1': 13, 'rot0': 5, 'rot3': 0, 'rot2': 0, 'depth': -0.293, 'yaw': -22.66, 'datetime': '2018-12-12 14:26:50.643667', 'mgs': 0, 'flw2': 0.46, 'flw1': 0.0, 'flw0': 1.34, 'time': 5.1, 'compass': 18.97, 'pitch': -0.31, 'roll': -0.3}
{'lipoC2': 7.53, 'temp': 0.0, 'lipoC3S3': 11.34, 'state': 'normal', 'rot1': 14, 'rot0': 6, 'rot3': 0, 'rot2': 0, 'depth': 1.843, 'yaw': -27.34, 'datetime': '2018-12-12 14:26:50.853606', 'mgs': 0, 'flw2': 0.24, 'flw1': 0.0, 'flw0': 1.03, 'time': 5.31, 'compass': 14.29, 'pitch': -0.94, 'roll': -1.0}
{'lipoC2': 7.25, 'temp': 0.0, 'lipoC3S3': 11.63, 'state': 'normal', 'rot1': 16, 'rot0': 7, 'rot3': 0, 'rot2': 0, 'depth': -0.217, 'yaw': -31.81, 'datetime': '2018-12-12 14:26:51.063881', 'mgs': 0, 'flw2': 0.38, 'flw1': 0.0, 'flw0': 1.04, 'time': 5.52, 'compass': 9.82, 'pitch': -0.76, 'roll': -1.7}
{'lipoC2': 7.26, 'temp': 0.0, 'lipoC3S3': 11.27, 'state': 'normal', 'rot1': 18, 'rot0': 9, 'rot3': 0, 'rot2': 0, 'depth': -0.751, 'yaw': -35.94, 'datetime': '2018-12-12 14:26:51.271775', 'mgs': 0, 'flw2': 1.73, 'flw1': 0.23, 'flw0': 1.16, 'time': 5.73, 'compass': 5.69, 'pitch': -0.16, 'roll': -1.89}
{'lipoC2': 7.48, 'temp': 0.0, 'lipoC3S3': 11.19, 'state': 'normal', 'rot1': 20, 'rot0': 11, 'rot3': 0, 'rot2': 0, 'depth': -1.437, 'yaw': -38.7, 'datetime': '2018-12-12 14:26:51.482860', 'mgs': 0, 'flw2': 2.1, 'flw1': 0.59, 'flw0': 1.12, 'time': 5.93, 'compass': 2.93, 'pitch': 0.38, 'roll': -1.35}
{'lipoC2': 7.33, 'temp': 0.0, 'lipoC3S3': 11.63, 'state': 'normal', 'rot1': 21, 'rot0': 13, 'rot3': 0, 'rot2': 0, 'depth': -0.369, 'yaw': -40.08, 'datetime': '2018-12-12 14:26:51.690748', 'mgs': 0, 'flw2': 2.53, 'flw1': 0.0, 'flw0': 1.5, 'time': 6.14, 'compass': 1.55, 'pitch': 0.51, 'roll': -0.51}
{'lipoC2': 7.53, 'temp': 0.0, 'lipoC3S3': 11.25, 'state': 'normal', 'rot1': 23, 'rot0': 15, 'rot3': 0, 'rot2': 0, 'depth': -1.285, 'yaw': -40.48, 'datetime': '2018-12-12 14:26:51.899757', 'mgs': 0, 'flw2': 2.19, 'flw1': 0.0, 'flw0': 1.15, 'time': 6.35, 'compass': 1.15, 'pitch': 0.41, 'roll': -0.18}
{'lipoC2': 7.32, 'temp': 0.0, 'lipoC3S3': 11.29, 'state': 'normal', 'rot1': 25, 'rot0': 17, 'rot3': 0, 'rot2': 0, 'depth': -0.369, 'yaw': -40.29, 'datetime': '2018-12-12 14:26:52.107560', 'mgs': 0, 'flw2': 2.66, 'flw1': 0.0, 'flw0': 1.35, 'time': 6.56, 'compass': 1.34, 'pitch': 0.44, 'roll': -0.13}
{'lipoC2': 7.26, 'temp': 0.0, 'lipoC3S3': 11.38, 'state': 'normal', 'rot1': 27, 'rot0': 19, 'rot3': 0, 'rot2': 0, 'depth': -0.14, 'yaw': -39.55, 'datetime': '2018-12-12 14:26:52.318763', 'mgs': 0, 'flw2': 2.23, 'flw1': 0.0, 'flw0': 1.05, 'time': 6.77, 'compass': 2.08, 'pitch': 0.7, 'roll': -0.21}
{'lipoC2': 7.34, 'temp': 0.0, 'lipoC3S3': 11.52, 'state': 'normal', 'rot1': 28, 'rot0': 22, 'rot3': 0, 'rot2': 0, 'depth': 0.317, 'yaw': -38.34, 'datetime': '2018-12-12 14:26:52.529849', 'mgs': 0, 'flw2': 2.73, 'flw1': 0.0, 'flw0': 1.45, 'time': 6.98, 'compass': 3.28, 'pitch': 0.89, 'roll': -0.52}
{'lipoC2': 7.33, 'temp': 0.0, 'lipoC3S3': 11.61, 'state': 'normal', 'rot1': 30, 'rot0': 24, 'rot3': 0, 'rot2': 0, 'depth': -0.674, 'yaw': -36.82, 'datetime': '2018-12-12 14:26:52.741956', 'mgs': 0, 'flw2': 2.55, 'flw1': 0.0, 'flw0': 1.48, 'time': 7.19, 'compass': 4.81, 'pitch': 0.8, 'roll': -0.65}
{'lipoC2': 7.44, 'temp': 0.0, 'lipoC3S3': 11.13, 'state': 'normal', 'rot1': 31, 'rot0': 26, 'rot3': 0, 'rot2': 0, 'depth': 0.165, 'yaw': -35.02, 'datetime': '2018-12-12 14:26:52.950371', 'mgs': 0, 'flw2': 2.66, 'flw1': 0.0, 'flw0': 1.35, 'time': 7.4, 'compass': 6.6, 'pitch': 0.44, 'roll': -0.45}
{'lipoC2': 7.48, 'temp': 0.0, 'lipoC3S3': 11.3, 'state': 'normal', 'rot1': 33, 'rot0': 28, 'rot3': 0, 'rot2': 0, 'depth': -0.522, 'yaw': -32.81, 'datetime': '2018-12-12 14:26:53.158931', 'mgs': 0, 'flw2': 2.38, 'flw1': 0.47, 'flw0': 2.0, 'time': 7.61, 'compass': 8.82, 'pitch': 0.26, 'roll': 0.23}
{'lipoC2': 7.24, 'temp': 0.0, 'lipoC3S3': 11.13, 'state': 'normal', 'rot1': 36, 'rot0': 32, 'rot3': 0, 'rot2': 0, 'depth': -0.217, 'yaw': -30.0, 'datetime': '2018-12-12 14:26:53.460647', 'mgs': 0, 'flw2': 3.08, 'flw1': 0.0, 'flw0': 1.98, 'time': 7.92, 'compass': 11.62, 'pitch': 1.13, 'roll': 0.78}
{'lipoC2': 7.15, 'temp': 0.0, 'lipoC3S3': 11.3, 'state': 'normal', 'rot1': 39, 'rot0': 35, 'rot3': 0, 'rot2': 0, 'depth': -0.903, 'yaw': -28.1, 'datetime': '2018-12-12 14:26:53.669060', 'mgs': 0, 'flw2': 2.88, 'flw1': 0.64, 'flw0': 1.95, 'time': 8.13, 'compass': 13.53, 'pitch': 1.64, 'roll': 0.98}
{'lipoC2': 7.25, 'temp': 0.0, 'lipoC3S3': 11.59, 'state': 'normal', 'rot1': 41, 'rot0': 38, 'rot3': 0, 'rot2': 0, 'depth': -0.064, 'yaw': -25.98, 'datetime': '2018-12-12 14:26:53.879056', 'mgs': 0, 'flw2': 2.92, 'flw1': 0.0, 'flw0': 1.98, 'time': 8.34, 'compass': 15.65, 'pitch': 1.4, 'roll': 1.02}
{'lipoC2': 7.3, 'temp': 0.0, 'lipoC3S3': 11.25, 'state': 'normal', 'rot1': 43, 'rot0': 40, 'rot3': 0, 'rot2': 0, 'depth': -1.59, 'yaw': -23.97, 'datetime': '2018-12-12 14:26:54.095768', 'mgs': 0, 'flw2': 2.72, 'flw1': 0.26, 'flw0': 2.04, 'time': 8.55, 'compass': 17.66, 'pitch': 0.98, 'roll': 0.99}
{'lipoC2': 7.51, 'temp': 0.0, 'lipoC3S3': 11.13, 'state': 'normal', 'rot1': 45, 'rot0': 43, 'rot3': 0, 'rot2': 0, 'depth': -0.751, 'yaw': -21.95, 'datetime': '2018-12-12 14:26:54.306305', 'mgs': 0, 'flw2': 2.82, 'flw1': 0.09, 'flw0': 1.88, 'time': 8.75, 'compass': 19.68, 'pitch': 1.17, 'roll': 0.92}
{'lipoC2': 7.33, 'temp': 0.0, 'lipoC3S3': 11.17, 'state': 'normal', 'rot1': 47, 'rot0': 45, 'rot3': 0, 'rot2': 0, 'depth': 1.538, 'yaw': -19.84, 'datetime': '2018-12-12 14:26:54.513341', 'mgs': 0, 'flw2': 3.47, 'flw1': 0.03, 'flw0': 2.14, 'time': 8.96, 'compass': 21.79, 'pitch': 1.64, 'roll': 0.99}
{'lipoC2': 7.27, 'temp': 0.0, 'lipoC3S3': 11.15, 'state': 'normal', 'rot1': 49, 'rot0': 48, 'rot3': 0, 'rot2': 0, 'depth': 0.317, 'yaw': -17.56, 'datetime': '2018-12-12 14:26:54.720407', 'mgs': 0, 'flw2': 3.23, 'flw1': 0.32, 'flw0': 1.94, 'time': 9.17, 'compass': 24.06, 'pitch': 1.59, 'roll': 1.46}
{'lipoC2': 7.33, 'temp': 0.0, 'lipoC3S3': 11.42, 'state': 'normal', 'rot1': 51, 'rot0': 51, 'rot3': 0, 'rot2': 0, 'depth': -0.217, 'yaw': -15.09, 'datetime': '2018-12-12 14:26:54.929898', 'mgs': 0, 'flw2': 3.61, 'flw1': 0.0, 'flw0': 2.12, 'time': 9.38, 'compass': 26.54, 'pitch': 1.11, 'roll': 1.77}
{'lipoC2': 7.32, 'temp': 0.0, 'lipoC3S3': 11.56, 'state': 'normal', 'rot1': 54, 'rot0': 53, 'rot3': 0, 'rot2': 0, 'depth': 1.309, 'yaw': -12.53, 'datetime': '2018-12-12 14:26:55.140113', 'mgs': 0, 'flw2': 3.72, 'flw1': 0.0, 'flw0': 2.23, 'time': 9.59, 'compass': 29.1, 'pitch': 0.96, 'roll': 1.93}
{'lipoC2': 7.18, 'temp': 0.0, 'lipoC3S3': 11.29, 'state': 'normal', 'rot1': 56, 'rot0': 56, 'rot3': 0, 'rot2': 0, 'depth': -0.674, 'yaw': -9.84, 'datetime': '2018-12-12 14:26:55.351944', 'mgs': 0, 'flw2': 3.25, 'flw1': 0.0, 'flw0': 1.83, 'time': 9.8, 'compass': 31.79, 'pitch': 1.43, 'roll': 2.06}
{'lipoC2': 7.3, 'temp': 0.0, 'lipoC3S3': 11.47, 'state': 'normal', 'rot1': 58, 'rot0': 59, 'rot3': 0, 'rot2': 0, 'depth': -1.514, 'yaw': -6.94, 'datetime': '2018-12-12 14:26:55.560360', 'mgs': 0, 'flw2': 3.89, 'flw1': 0.0, 'flw0': 2.33, 'time': 10.01, 'compass': 34.69, 'pitch': 1.78, 'roll': 2.13}
{'lipoC2': 7.46, 'temp': 0.0, 'lipoC3S3': 11.27, 'state': 'normal', 'rot1': 60, 'rot0': 61, 'rot3': 0, 'rot2': 0, 'depth': -1.361, 'yaw': -4.12, 'datetime': '2018-12-12 14:26:55.766837', 'mgs': 0, 'flw2': 3.58, 'flw1': 0.0, 'flw0': 2.14, 'time': 10.22, 'compass': 37.51, 'pitch': 1.94, 'roll': 2.37}
{'lipoC2': 7.53, 'temp': 0.0, 'lipoC3S3': 11.29, 'state': 'normal', 'rot1': 62, 'rot0': 64, 'rot3': 0, 'rot2': 0, 'depth': -1.132, 'yaw': -1.09, 'datetime': '2018-12-12 14:26:55.981659', 'mgs': 0, 'flw2': 3.25, 'flw1': 0.0, 'flw0': 2.76, 'time': 10.42, 'compass': 40.54, 'pitch': 2.07, 'roll': 2.83}
{'lipoC2': 7.34, 'temp': 0.0, 'lipoC3S3': 11.18, 'state': 'normal', 'rot1': 65, 'rot0': 66, 'rot3': 0, 'rot2': 0, 'depth': 0.546, 'yaw': 1.32, 'datetime': '2018-12-12 14:26:56.191722', 'mgs': 0, 'flw2': 1.61, 'flw1': 0.0, 'flw0': 3.41, 'time': 10.63, 'compass': 42.95, 'pitch': 1.7, 'roll': 2.85}
{'lipoC2': 7.37, 'temp': 0.0, 'lipoC3S3': 11.22, 'state': 'normal', 'rot1': 68, 'rot0': 68, 'rot3': 0, 'rot2': 0, 'depth': -0.369, 'yaw': 1.69, 'datetime': '2018-12-12 14:26:56.401024', 'mgs': 0, 'flw2': 1.94, 'flw1': 0.0, 'flw0': 3.65, 'time': 10.84, 'compass': 43.32, 'pitch': 1.07, 'roll': 2.4}
{'lipoC2': 7.41, 'temp': 0.0, 'lipoC3S3': 11.14, 'state': 'normal', 'rot1': 71, 'rot0': 69, 'rot3': 0, 'rot2': 0, 'depth': 1.462, 'yaw': 0.94, 'datetime': '2018-12-12 14:26:56.610684', 'mgs': 0, 'flw2': 1.16, 'flw1': 0.0, 'flw0': 3.48, 'time': 11.05, 'compass': 42.57, 'pitch': 0.87, 'roll': 1.72}
{'lipoC2': 7.24, 'temp': 0.0, 'lipoC3S3': 11.43, 'state': 'normal', 'rot1': 73, 'rot0': 71, 'rot3': 0, 'rot2': 0, 'depth': -0.674, 'yaw': -0.92, 'datetime': '2018-12-12 14:26:56.821062', 'mgs': 0, 'flw2': 1.16, 'flw1': 0.0, 'flw0': 3.34, 'time': 11.26, 'compass': 40.71, 'pitch': 0.71, 'roll': 1.07}
{'lipoC2': 7.3, 'temp': 0.0, 'lipoC3S3': 11.5, 'state': 'normal', 'rot1': 78, 'rot0': 73, 'rot3': 0, 'rot2': 0, 'depth': -0.14, 'yaw': -4.69, 'datetime': '2018-12-12 14:26:57.119016', 'mgs': 0, 'flw2': 1.14, 'flw1': 0.12, 'flw0': 3.22, 'time': 11.57, 'compass': 36.94, 'pitch': 0.13, 'roll': 0.34}
{'lipoC2': 7.3, 'temp': 0.0, 'lipoC3S3': 11.51, 'state': 'normal', 'rot1': 81, 'rot0': 75, 'rot3': 0, 'rot2': 0, 'depth': 0.317, 'yaw': -7.67, 'datetime': '2018-12-12 14:26:57.326927', 'mgs': 0, 'flw2': 1.44, 'flw1': 0.0, 'flw0': 3.75, 'time': 11.78, 'compass': 33.96, 'pitch': 0.09, 'roll': 0.05}
{'lipoC2': 7.42, 'temp': 0.0, 'lipoC3S3': 11.1, 'state': 'normal', 'rot1': 84, 'rot0': 77, 'rot3': 0, 'rot2': 0, 'depth': 0.012, 'yaw': -10.89, 'datetime': '2018-12-12 14:26:57.536128', 'mgs': 0, 'flw2': 0.0, 'flw1': 0.0, 'flw0': 0.52, 'time': 11.99, 'compass': 30.74, 'pitch': 0.31, 'roll': 0.05}
{'lipoC2': 7.51, 'temp': 0.0, 'lipoC3S3': 11.18, 'state': 'normal', 'rot1': 84, 'rot0': 77, 'rot3': 0, 'rot2': 0, 'depth': -1.361, 'yaw': -13.64, 'datetime': '2018-12-12 14:26:57.757054', 'mgs': 0, 'flw2': 0.0, 'flw1': 0.0, 'flw0': 0.17, 'time': 12.2, 'compass': 27.99, 'pitch': -0.6, 'roll': 0.07}
{'lipoC2': 7.53, 'temp': 0.0, 'lipoC3S3': 11.26, 'state': 'normal', 'rot1': 84, 'rot0': 77, 'rot3': 0, 'rot2': 0, 'depth': 1.843, 'yaw': -15.59, 'datetime': '2018-12-12 14:26:57.963210', 'mgs': 0, 'flw2': 0.0, 'flw1': 0.38, 'flw0': 0.0, 'time': 12.4, 'compass': 26.04, 'pitch': -1.95, 'roll': 0.22}
{'lipoC2': 7.26, 'temp': 0.0, 'lipoC3S3': 11.38, 'state': 'normal', 'rot1': 84, 'rot0': 77, 'rot3': 0, 'rot2': 0, 'depth': -0.446, 'yaw': -17.01, 'datetime': '2018-12-12 14:26:58.166767', 'mgs': 0, 'flw2': 0.06, 'flw1': 0.0, 'flw0': 0.0, 'time': 12.61, 'compass': 24.62, 'pitch': -2.33, 'roll': 0.19}
{'lipoC2': 7.43, 'temp': 0.0, 'lipoC3S3': 11.1, 'state': 'normal', 'rot1': 84, 'rot0': 77, 'rot3': 0, 'rot2': 0, 'depth': -1.132, 'yaw': -18.08, 'datetime': '2018-12-12 14:26:58.375757', 'mgs': 0, 'flw2': 0.0, 'flw1': 0.0, 'flw0': 0.0, 'time': 12.82, 'compass': 23.55, 'pitch': -1.85, 'roll': 0.14}
{'lipoC2': 7.42, 'temp': 0.0, 'lipoC3S3': 11.31, 'state': 'normal', 'rot1': 84, 'rot0': 77, 'rot3': 0, 'rot2': 0, 'depth': -0.369, 'yaw': -18.7, 'datetime': '2018-12-12 14:26:58.583788', 'mgs': 0, 'flw2': 0.23, 'flw1': 0.0, 'flw0': 0.16, 'time': 13.03, 'compass': 22.93, 'pitch': -1.6, 'roll': 0.27}
{'lipoC2': 7.23, 'temp': 0.0, 'lipoC3S3': 11.51, 'state': 'normal', 'rot1': 84, 'rot0': 77, 'rot3': 0, 'rot2': 0, 'depth': -0.751, 'yaw': -19.19, 'datetime': '2018-12-12 14:26:58.792759', 'mgs': 0, 'flw2': 0.0, 'flw1': 0.0, 'flw0': 0.05, 'time': 13.24, 'compass': 22.44, 'pitch': -1.85, 'roll': 0.28}
{'lipoC2': 7.33, 'temp': 0.0, 'lipoC3S3': 11.18, 'state': 'normal', 'rot1': 84, 'rot0': 77, 'rot3': 0, 'rot2': 0, 'depth': 1.08, 'yaw': -19.63, 'datetime': '2018-12-12 14:26:59.001790', 'mgs': 0, 'flw2': 0.18, 'flw1': 0.0, 'flw0': 0.0, 'time': 13.45, 'compass': 22.0, 'pitch': -2.17, 'roll': 0.14}
{'lipoC2': 7.5, 'temp': 0.0, 'lipoC3S3': 11.36, 'state': 'normal', 'rot1': 84, 'rot0': 77, 'rot3': 0, 'rot2': 0, 'depth': -1.056, 'yaw': -19.94, 'datetime': '2018-12-12 14:26:59.216306', 'mgs': 0, 'flw2': 0.0, 'flw1': 0.23, 'flw0': 0.13, 'time': 13.66, 'compass': 21.69, 'pitch': -1.97, 'roll': -0.16}
{'lipoC2': 7.32, 'temp': 0.0, 'lipoC3S3': 11.42, 'state': 'normal', 'rot1': 86, 'rot0': 77, 'rot3': 0, 'rot2': 0, 'depth': -0.14, 'yaw': -20.72, 'datetime': '2018-12-12 14:26:59.426123', 'mgs': 0, 'flw2': 0.0, 'flw1': 0.0, 'flw0': 1.32, 'time': 13.87, 'compass': 20.91, 'pitch': -1.46, 'roll': -0.73}
{'lipoC2': 7.28, 'temp': 0.0, 'lipoC3S3': 11.17, 'state': 'normal', 'rot1': 88, 'rot0': 77, 'rot3': 0, 'rot2': 0, 'depth': -0.369, 'yaw': -22.82, 'datetime': '2018-12-12 14:26:59.635496', 'mgs': 0, 'flw2': 0.0, 'flw1': 0.79, 'flw0': 1.35, 'time': 14.07, 'compass': 18.81, 'pitch': -0.83, 'roll': -1.13}
{'lipoC2': 7.44, 'temp': 0.0, 'lipoC3S3': 11.18, 'state': 'normal', 'rot1': 89, 'rot0': 77, 'rot3': 0, 'rot2': 0, 'depth': -0.598, 'yaw': -26.04, 'datetime': '2018-12-12 14:26:59.847309', 'mgs': 0, 'flw2': 0.22, 'flw1': 0.0, 'flw0': 1.56, 'time': 14.28, 'compass': 15.59, 'pitch': -0.62, 'roll': -1.16}
{'lipoC2': 7.52, 'temp': 0.0, 'lipoC3S3': 11.29, 'state': 'normal', 'rot1': 92, 'rot0': 77, 'rot3': 0, 'rot2': 0, 'depth': 0.241, 'yaw': -30.04, 'datetime': '2018-12-12 14:27:00.056208', 'mgs': 0, 'flw2': 0.21, 'flw1': 0.0, 'flw0': 2.66, 'time': 14.49, 'compass': 11.59, 'pitch': -0.43, 'roll': -1.14}
{'lipoC2': 7.3, 'temp': 0.0, 'lipoC3S3': 11.4, 'state': 'normal', 'rot1': 94, 'rot0': 77, 'rot3': 0, 'rot2': 0, 'depth': -0.14, 'yaw': -35.23, 'datetime': '2018-12-12 14:27:00.261848', 'mgs': 0, 'flw2': 0.0, 'flw1': 0.53, 'flw0': 2.15, 'time': 14.7, 'compass': 6.4, 'pitch': 0.28, 'roll': -1.22}
{'lipoC2': 7.3, 'temp': 0.0, 'lipoC3S3': 11.51, 'state': 'normal', 'rot1': 96, 'rot0': 77, 'rot3': 0, 'rot2': 0, 'depth': 1.385, 'yaw': -41.0, 'datetime': '2018-12-12 14:27:00.473001', 'mgs': 0, 'flw2': 0.35, 'flw1': 0.0, 'flw0': 2.33, 'time': 14.91, 'compass': 0.63, 'pitch': 0.49, 'roll': -1.55}
{'lipoC2': 7.48, 'temp': 0.0, 'lipoC3S3': 11.42, 'state': 'normal', 'rot1': 98, 'rot0': 77, 'rot3': 0, 'rot2': 0, 'depth': -0.522, 'yaw': -47.44, 'datetime': '2018-12-12 14:27:00.679835', 'mgs': 0, 'flw2': 0.51, 'flw1': 0.5, 'flw0': 2.19, 'time': 15.12, 'compass': -5.81, 'pitch': 0.29, 'roll': -1.93}
{'lipoC2': 7.29, 'temp': 0.0, 'lipoC3S3': 11.38, 'state': 'normal', 'rot1': 101, 'rot0': 79, 'rot3': 0, 'rot2': 0, 'depth': 2.301, 'yaw': -53.88, 'datetime': '2018-12-12 14:27:00.890482', 'mgs': 0, 'flw2': 1.03, 'flw1': 0.0, 'flw0': 2.55, 'time': 15.33, 'compass': -12.26, 'pitch': 0.6, 'roll': -2.21}
{'lipoC2': 7.44, 'temp': 0.0, 'lipoC3S3': 11.11, 'state': 'normal', 'rot1': 103, 'rot0': 80, 'rot3': 0, 'rot2': 0, 'depth': -0.369, 'yaw': -59.84, 'datetime': '2018-12-12 14:27:01.096274', 'mgs': 0, 'flw2': 1.16, 'flw1': 0.0, 'flw0': 2.15, 'time': 15.54, 'compass': -18.21, 'pitch': 1.43, 'roll': -2.38}
{'lipoC2': 7.28, 'temp': 0.0, 'lipoC3S3': 11.29, 'state': 'normal', 'rot1': 105, 'rot0': 82, 'rot3': 0, 'rot2': 0, 'depth': 0.089, 'yaw': -64.81, 'datetime': '2018-12-12 14:27:01.304540', 'mgs': 0, 'flw2': 2.11, 'flw1': 0.06, 'flw0': 2.01, 'time': 15.74, 'compass': -23.18, 'pitch': 2.11, 'roll': -2.5}
{'lipoC2': 7.26, 'temp': 0.0, 'lipoC3S3': 11.17, 'state': 'normal', 'rot1': 107, 'rot0': 84, 'rot3': 0, 'rot2': 0, 'depth': -0.522, 'yaw': -69.0, 'datetime': '2018-12-12 14:27:01.513103', 'mgs': 0, 'flw2': 2.39, 'flw1': 0.0, 'flw0': 2.4, 'time': 15.95, 'compass': -27.37, 'pitch': 2.37, 'roll': -2.22}
{'lipoC2': 7.63, 'temp': 0.0, 'lipoC3S3': 11.22, 'state': 'normal', 'rot1': 109, 'rot0': 87, 'rot3': 0, 'rot2': 0, 'depth': 1.462, 'yaw': -72.15, 'datetime': '2018-12-12 14:27:01.723139', 'mgs': 0, 'flw2': 3.02, 'flw1': 0.12, 'flw0': 2.26, 'time': 16.16, 'compass': -30.52, 'pitch': 2.17, 'roll': -2.02}
{'lipoC2': 7.53, 'temp': 0.0, 'lipoC3S3': 11.27, 'state': 'normal', 'rot1': 112, 'rot0': 89, 'rot3': 0, 'rot2': 0, 'depth': -1.132, 'yaw': -74.05, 'datetime': '2018-12-12 14:27:01.937866', 'mgs': 0, 'flw2': 3.1, 'flw1': 0.18, 'flw0': 2.28, 'time': 16.37, 'compass': -32.42, 'pitch': 2.13, 'roll': -1.94}
{'lipoC2': 7.22, 'temp': 0.0, 'lipoC3S3': 11.17, 'state': 'normal', 'rot1': 114, 'rot0': 92, 'rot3': 0, 'rot2': 0, 'depth': 2.072, 'yaw': -74.93, 'datetime': '2018-12-12 14:27:02.152368', 'mgs': 0, 'flw2': 3.45, 'flw1': 0.0, 'flw0': 2.28, 'time': 16.58, 'compass': -33.3, 'pitch': 2.18, 'roll': -2.2}
{'lipoC2': 7.48, 'temp': 0.0, 'lipoC3S3': 11.29, 'state': 'normal', 'rot1': 118, 'rot0': 96, 'rot3': 0, 'rot2': 0, 'depth': -0.903, 'yaw': -75.24, 'datetime': '2018-12-12 14:27:02.451018', 'mgs': 0, 'flw2': 3.04, 'flw1': 0.32, 'flw0': 2.77, 'time': 16.89, 'compass': -33.61, 'pitch': 2.45, 'roll': -2.72}
{'lipoC2': 7.25, 'temp': 0.0, 'lipoC3S3': 11.48, 'state': 'normal', 'rot1': 121, 'rot0': 99, 'rot3': 0, 'rot2': 0, 'depth': 1.309, 'yaw': -75.1, 'datetime': '2018-12-12 14:27:02.659732', 'mgs': 0, 'flw2': 2.95, 'flw1': 0.44, 'flw0': 2.86, 'time': 17.1, 'compass': -33.47, 'pitch': 2.32, 'roll': -2.58}
{'lipoC2': 7.49, 'temp': 0.0, 'lipoC3S3': 11.26, 'state': 'normal', 'rot1': 124, 'rot0': 101, 'rot3': 0, 'rot2': 0, 'depth': 1.08, 'yaw': -74.65, 'datetime': '2018-12-12 14:27:02.872780', 'mgs': 0, 'flw2': 3.11, 'flw1': 0.18, 'flw0': 2.78, 'time': 17.31, 'compass': -33.02, 'pitch': 1.66, 'roll': -2.23}
{'lipoC2': 7.3, 'temp': 0.0, 'lipoC3S3': 11.47, 'state': 'normal', 'rot1': 126, 'rot0': 104, 'rot3': 0, 'rot2': 0, 'depth': -0.14, 'yaw': -74.08, 'datetime': '2018-12-12 14:27:03.093605', 'mgs': 0, 'flw2': 3.37, 'flw1': 0.0, 'flw0': 3.38, 'time': 17.52, 'compass': -32.45, 'pitch': 1.2, 'roll': -1.92}
{'lipoC2': 7.32, 'temp': 0.0, 'lipoC3S3': 11.48, 'state': 'normal', 'rot1': 129, 'rot0': 106, 'rot3': 0, 'rot2': 0, 'depth': 0.317, 'yaw': -73.53, 'datetime': '2018-12-12 14:27:03.297640', 'mgs': 0, 'flw2': 3.31, 'flw1': 0.35, 'flw0': 2.92, 'time': 17.73, 'compass': -31.9, 'pitch': 1.13, 'roll': -1.87}
{'lipoC2': 7.39, 'temp': 0.0, 'lipoC3S3': 10.97, 'state': 'normal', 'rot1': 131, 'rot0': 109, 'rot3': 0, 'rot2': 0, 'depth': -0.369, 'yaw': -73.3, 'datetime': '2018-12-12 14:27:03.504803', 'mgs': 0, 'flw2': 2.98, 'flw1': 0.0, 'flw0': 3.27, 'time': 17.94, 'compass': -31.67, 'pitch': 1.16, 'roll': -2.0}
{'lipoC2': 7.18, 'temp': 0.0, 'lipoC3S3': 11.31, 'state': 'normal', 'rot1': 134, 'rot0': 111, 'rot3': 0, 'rot2': 0, 'depth': -0.751, 'yaw': -73.63, 'datetime': '2018-12-12 14:27:03.718180', 'mgs': 0, 'flw2': 3.31, 'flw1': 0.0, 'flw0': 3.94, 'time': 18.15, 'compass': -32.0, 'pitch': 1.17, 'roll': -1.91}
{'lipoC2': 7.53, 'temp': 0.0, 'lipoC3S3': 11.23, 'state': 'normal', 'rot1': 136, 'rot0': 114, 'rot3': 0, 'rot2': 0, 'depth': -0.674, 'yaw': -74.56, 'datetime': '2018-12-12 14:27:03.928681', 'mgs': 0, 'flw2': 3.09, 'flw1': 0.0, 'flw0': 4.13, 'time': 18.36, 'compass': -32.93, 'pitch': 1.36, 'roll': -1.63}
{'lipoC2': 7.28, 'temp': 0.0, 'lipoC3S3': 11.13, 'state': 'normal', 'rot1': 139, 'rot0': 116, 'rot3': 0, 'rot2': 0, 'depth': 1.691, 'yaw': -76.1, 'datetime': '2018-12-12 14:27:04.132899', 'mgs': 0, 'flw2': 3.39, 'flw1': 0.0, 'flw0': 4.38, 'time': 18.57, 'compass': -34.47, 'pitch': 1.76, 'roll': -1.55}
{'lipoC2': 7.21, 'temp': 0.0, 'lipoC3S3': 11.1, 'state': 'normal', 'rot1': 142, 'rot0': 118, 'rot3': 0, 'rot2': 0, 'depth': 2.148, 'yaw': -77.93, 'datetime': '2018-12-12 14:27:04.341746', 'mgs': 0, 'flw2': 3.78, 'flw1': 0.12, 'flw0': 4.09, 'time': 18.78, 'compass': -36.3, 'pitch': 2.44, 'roll': -1.74}
{'lipoC2': 7.64, 'temp': 0.0, 'lipoC3S3': 11.14, 'state': 'normal', 'rot1': 145, 'rot0': 121, 'rot3': 0, 'rot2': 0, 'depth': -0.522, 'yaw': -79.76, 'datetime': '2018-12-12 14:27:04.551397', 'mgs': 0, 'flw2': 5.77, 'flw1': 0.0, 'flw0': 4.25, 'time': 18.98, 'compass': -38.14, 'pitch': 2.85, 'roll': -1.85}
{'lipoC2': 7.3, 'temp': 0.0, 'lipoC3S3': 11.31, 'state': 'normal', 'rot1': 148, 'rot0': 125, 'rot3': 0, 'rot2': 0, 'depth': 2.454, 'yaw': -80.65, 'datetime': '2018-12-12 14:27:04.765112', 'mgs': 0, 'flw2': 5.54, 'flw1': 0.0, 'flw0': 4.26, 'time': 19.19, 'compass': -39.02, 'pitch': 2.95, 'roll': -1.69}
{'lipoC2': 7.46, 'temp': 0.0, 'lipoC3S3': 11.15, 'state': 'normal', 'rot1': 150, 'rot0': 128, 'rot3': 0, 'rot2': 0, 'depth': 0.699, 'yaw': -81.12, 'datetime': '2018-12-12 14:27:04.977499', 'mgs': 0, 'flw2': 4.25, 'flw1': 0.53, 'flw0': 4.14, 'time': 19.4, 'compass': -39.49, 'pitch': 2.98, 'roll': -1.35}
{'lipoC2': 7.33, 'temp': 0.0, 'lipoC3S3': 11.5, 'state': 'normal', 'rot1': 153, 'rot0': 130, 'rot3': 0, 'rot2': 0, 'depth': -0.293, 'yaw': -82.01, 'datetime': '2018-12-12 14:27:05.180607', 'mgs': 0, 'flw2': 3.15, 'flw1': 0.06, 'flw0': 5.16, 'time': 19.61, 'compass': -40.38, 'pitch': 2.96, 'roll': -1.13}
{'lipoC2': 7.21, 'temp': 0.0, 'lipoC3S3': 11.34, 'state': 'normal', 'rot1': 156, 'rot0': 133, 'rot3': 0, 'rot2': 0, 'depth': 1.233, 'yaw': -84.38, 'datetime': '2018-12-12 14:27:05.388348', 'mgs': 0, 'flw2': 3.23, 'flw1': 0.0, 'flw0': 5.57, 'time': 19.82, 'compass': -42.75, 'pitch': 3.21, 'roll': -1.35}
{'lipoC2': 7.53, 'temp': 0.0, 'lipoC3S3': 11.25, 'state': 'normal', 'rot1': 159, 'rot0': 135, 'rot3': 0, 'rot2': 0, 'depth': 1.233, 'yaw': -87.7, 'datetime': '2018-12-12 14:27:05.597772', 'mgs': 0, 'flw2': 3.03, 'flw1': 0.29, 'flw0': 5.14, 'time': 20.03, 'compass': -46.07, 'pitch': 3.65, 'roll': -1.78}
{'lipoC2': 7.27, 'temp': 0.0, 'lipoC3S3': 11.18, 'state': 'normal', 'rot1': 162, 'rot0': 138, 'rot3': 0, 'rot2': 0, 'depth': -0.293, 'yaw': -91.44, 'datetime': '2018-12-12 14:27:05.811372', 'mgs': 0, 'flw2': 2.98, 'flw1': 0.41, 'flw0': 5.32, 'time': 20.24, 'compass': -49.81, 'pitch': 3.93, 'roll': -2.61}
{'lipoC2': 7.17, 'temp': 0.0, 'lipoC3S3': 11.38, 'state': 'normal', 'rot1': 165, 'rot0': 140, 'rot3': 0, 'rot2': 0, 'depth': -0.598, 'yaw': -95.56, 'datetime': '2018-12-12 14:27:06.019664', 'mgs': 0, 'flw2': 2.99, 'flw1': 0.0, 'flw0': 5.48, 'time': 20.45, 'compass': -53.93, 'pitch': 4.0, 'roll': -3.3}
{'lipoC2': 7.27, 'temp': 0.0, 'lipoC3S3': 11.31, 'state': 'normal', 'rot1': 168, 'rot0': 143, 'rot3': 0, 'rot2': 0, 'depth': 0.012, 'yaw': -99.96, 'datetime': '2018-12-12 14:27:06.228534', 'mgs': 0, 'flw2': 2.88, 'flw1': 0.0, 'flw0': 5.44, 'time': 20.66, 'compass': -58.33, 'pitch': 4.15, 'roll': -3.2}
{'lipoC2': 7.47, 'temp': 0.0, 'lipoC3S3': 11.26, 'state': 'normal', 'rot1': 171, 'rot0': 145, 'rot3': 0, 'rot2': 0, 'depth': 0.47, 'yaw': -104.53, 'datetime': '2018-12-12 14:27:06.437131', 'mgs': 0, 'flw2': 2.97, 'flw1': 0.35, 'flw0': 5.15, 'time': 20.87, 'compass': -62.9, 'pitch': 4.64, 'roll': -2.93}
{'lipoC2': 7.28, 'temp': 0.0, 'lipoC3S3': 11.21, 'state': 'normal', 'rot1': 174, 'rot0': 148, 'rot3': 0, 'rot2': 0, 'depth': 0.089, 'yaw': -109.13, 'datetime': '2018-12-12 14:27:06.648008', 'mgs': 0, 'flw2': 3.99, 'flw1': 0.0, 'flw0': 5.02, 'time': 21.08, 'compass': -67.5, 'pitch': 4.97, 'roll': -2.95}
{'lipoC2': 7.42, 'temp': 0.0, 'lipoC3S3': 11.43, 'state': 'normal', 'rot1': 177, 'rot0': 150, 'rot3': 0, 'rot2': 0, 'depth': -1.056, 'yaw': -113.45, 'datetime': '2018-12-12 14:27:06.857897', 'mgs': 0, 'flw2': 3.98, 'flw1': 0.0, 'flw0': 5.14, 'time': 21.29, 'compass': -71.83, 'pitch': 4.88, 'roll': -3.31}
{'lipoC2': 7.3, 'temp': 0.0, 'lipoC3S3': 11.54, 'state': 'normal', 'rot1': 180, 'rot0': 153, 'rot3': 0, 'rot2': 0, 'depth': 2.682, 'yaw': -117.21, 'datetime': '2018-12-12 14:27:07.067347', 'mgs': 0, 'flw2': 4.17, 'flw1': 0.0, 'flw0': 5.1, 'time': 21.5, 'compass': -75.58, 'pitch': 5.02, 'roll': -3.55}
{'lipoC2': 7.53, 'temp': 0.0, 'lipoC3S3': 11.34, 'state': 'normal', 'rot1': 183, 'rot0': 156, 'rot3': 0, 'rot2': 0, 'depth': -1.132, 'yaw': -120.83, 'datetime': '2018-12-12 14:27:07.279267', 'mgs': 0, 'flw2': 4.26, 'flw1': 0.0, 'flw0': 5.27, 'time': 21.71, 'compass': -79.2, 'pitch': 5.01, 'roll': -3.59}
{'lipoC2': 7.3, 'temp': 0.0, 'lipoC3S3': 11.29, 'state': 'normal', 'rot1': 186, 'rot0': 158, 'rot3': 0, 'rot2': 0, 'depth': 1.538, 'yaw': -124.33, 'datetime': '2018-12-12 14:27:07.487728', 'mgs': 0, 'flw2': 3.89, 'flw1': 0.44, 'flw0': 5.07, 'time': 21.92, 'compass': -82.7, 'pitch': 4.87, 'roll': -3.84}
{'lipoC2': 7.33, 'temp': 0.0, 'lipoC3S3': 11.47, 'state': 'normal', 'rot1': 189, 'rot0': 161, 'rot3': 0, 'rot2': 0, 'depth': -0.98, 'yaw': -127.37, 'datetime': '2018-12-12 14:27:07.697959', 'mgs': 0, 'flw2': 3.87, 'flw1': 0.09, 'flw0': 5.2, 'time': 22.13, 'compass': -85.74, 'pitch': 4.58, 'roll': -4.13}
{'lipoC2': 7.37, 'temp': 0.0, 'lipoC3S3': 11.09, 'state': 'normal', 'rot1': 192, 'rot0': 164, 'rot3': 0, 'rot2': 0, 'depth': 0.317, 'yaw': -130.36, 'datetime': '2018-12-12 14:27:07.908032', 'mgs': 0, 'flw2': 4.0, 'flw1': 0.0, 'flw0': 4.88, 'time': 22.33, 'compass': -88.73, 'pitch': 4.06, 'roll': -4.35}
{'lipoC2': 7.53, 'temp': 0.0, 'lipoC3S3': 10.89, 'state': 'normal', 'rot1': 195, 'rot0': 166, 'rot3': 0, 'rot2': 0, 'depth': -0.98, 'yaw': -133.33, 'datetime': '2018-12-12 14:27:08.116900', 'mgs': 0, 'flw2': 4.08, 'flw1': 0.0, 'flw0': 4.97, 'time': 22.54, 'compass': -91.7, 'pitch': 3.78, 'roll': -4.13}
{'lipoC2': 7.21, 'temp': 0.0, 'lipoC3S3': 11.5, 'state': 'normal', 'rot1': 198, 'rot0': 169, 'rot3': 0, 'rot2': 0, 'depth': 1.309, 'yaw': -136.2, 'datetime': '2018-12-12 14:27:08.324574', 'mgs': 0, 'flw2': 4.14, 'flw1': 0.0, 'flw0': 4.71, 'time': 22.75, 'compass': -94.57, 'pitch': 3.8, 'roll': -3.75}
{'lipoC2': 7.35, 'temp': 0.0, 'lipoC3S3': 11.18, 'state': 'normal', 'rot1': 201, 'rot0': 172, 'rot3': 0, 'rot2': 0, 'depth': 2.988, 'yaw': -139.2, 'datetime': '2018-12-12 14:27:08.534393', 'mgs': 0, 'flw2': 4.38, 'flw1': 0.0, 'flw0': 5.03, 'time': 22.96, 'compass': -97.57, 'pitch': 3.94, 'roll': -3.58}
{'lipoC2': 7.29, 'temp': 0.0, 'lipoC3S3': 11.39, 'state': 'normal', 'rot1': 204, 'rot0': 175, 'rot3': 0, 'rot2': 0, 'depth': 1.996, 'yaw': -142.6, 'datetime': '2018-12-12 14:27:08.747244', 'mgs': 0, 'flw2': 4.05, 'flw1': 0.0, 'flw0': 5.21, 'time': 23.17, 'compass': -100.97, 'pitch': 4.04, 'roll': -3.76}
{'lipoC2': 7.39, 'temp': 0.0, 'lipoC3S3': 11.09, 'state': 'normal', 'rot1': 207, 'rot0': 177, 'rot3': 0, 'rot2': 0, 'depth': 0.012, 'yaw': -146.03, 'datetime': '2018-12-12 14:27:08.957378', 'mgs': 0, 'flw2': 4.39, 'flw1': 0.0, 'flw0': 5.03, 'time': 23.38, 'compass': -104.4, 'pitch': 3.98, 'roll': -4.29}
{'lipoC2': 7.41, 'temp': 0.0, 'lipoC3S3': 11.18, 'state': 'normal', 'rot1': 210, 'rot0': 180, 'rot3': 0, 'rot2': 0, 'depth': 1.157, 'yaw': -149.64, 'datetime': '2018-12-12 14:27:09.164197', 'mgs': 0, 'flw2': 4.74, 'flw1': 0.53, 'flw0': 5.15, 'time': 23.59, 'compass': -108.01, 'pitch': 3.98, 'roll': -4.27}
{'lipoC2': 7.39, 'temp': 0.0, 'lipoC3S3': 11.11, 'state': 'normal', 'rot1': 213, 'rot0': 183, 'rot3': 0, 'rot2': 0, 'depth': -0.98, 'yaw': -153.02, 'datetime': '2018-12-12 14:27:09.373744', 'mgs': 0, 'flw2': 5.15, 'flw1': 0.0, 'flw0': 5.26, 'time': 23.8, 'compass': -111.39, 'pitch': 4.41, 'roll': -3.92}
{'lipoC2': 7.32, 'temp': 0.0, 'lipoC3S3': 11.48, 'state': 'normal', 'rot1': 216, 'rot0': 186, 'rot3': 0, 'rot2': 0, 'depth': 0.165, 'yaw': -156.08, 'datetime': '2018-12-12 14:27:09.582908', 'mgs': 0, 'flw2': 5.75, 'flw1': 0.0, 'flw0': 5.64, 'time': 24.01, 'compass': -114.45, 'pitch': 4.59, 'roll': -3.42}
{'lipoC2': 7.3, 'temp': 0.0, 'lipoC3S3': 11.39, 'state': 'normal', 'rot1': 219, 'rot0': 189, 'rot3': 0, 'rot2': 0, 'depth': 1.157, 'yaw': -158.96, 'datetime': '2018-12-12 14:27:09.795417', 'mgs': 0, 'flw2': 5.41, 'flw1': 0.0, 'flw0': 5.85, 'time': 24.22, 'compass': -117.33, 'pitch': 4.57, 'roll': -3.0}
{'lipoC2': 7.51, 'temp': 0.0, 'lipoC3S3': 11.14, 'state': 'normal', 'rot1': 223, 'rot0': 192, 'rot3': 0, 'rot2': 0, 'depth': -0.446, 'yaw': -161.85, 'datetime': '2018-12-12 14:27:10.006925', 'mgs': 0, 'flw2': 5.19, 'flw1': 0.0, 'flw0': 5.81, 'time': 24.43, 'compass': -120.22, 'pitch': 4.06, 'roll': -3.09}
{'lipoC2': 7.29, 'temp': 0.0, 'lipoC3S3': 11.09, 'state': 'normal', 'rot1': 226, 'rot0': 195, 'rot3': 0, 'rot2': 0, 'depth': 1.767, 'yaw': -164.63, 'datetime': '2018-12-12 14:27:10.213743', 'mgs': 0, 'flw2': 5.35, 'flw1': 0.41, 'flw0': 5.64, 'time': 24.64, 'compass': -123.0, 'pitch': 4.02, 'roll': -3.05}
{'lipoC2': 7.23, 'temp': 0.0, 'lipoC3S3': 11.21, 'state': 'normal', 'rot1': 229, 'rot0': 198, 'rot3': 0, 'rot2': 0, 'depth': -1.056, 'yaw': -166.98, 'datetime': '2018-12-12 14:27:10.423202', 'mgs': 0, 'flw2': 6.21, 'flw1': 0.29, 'flw0': 5.85, 'time': 24.85, 'compass': -125.35, 'pitch': 4.64, 'roll': -3.1}
{'lipoC2': 7.21, 'temp': 0.0, 'lipoC3S3': 11.3, 'state': 'normal', 'rot1': 232, 'rot0': 202, 'rot3': 0, 'rot2': 0, 'depth': 0.012, 'yaw': -169.26, 'datetime': '2018-12-12 14:27:10.632256', 'mgs': 0, 'flw2': 6.1, 'flw1': 0.0, 'flw0': 5.91, 'time': 25.06, 'compass': -127.63, 'pitch': 5.37, 'roll': -3.23}
{'lipoC2': 7.53, 'temp': 0.0, 'lipoC3S3': 11.09, 'state': 'normal', 'rot1': 235, 'rot0': 205, 'rot3': 0, 'rot2': 0, 'depth': -1.132, 'yaw': -171.31, 'datetime': '2018-12-12 14:27:10.843119', 'mgs': 0, 'flw2': 6.25, 'flw1': 0.0, 'flw0': 6.1, 'time': 25.27, 'compass': -129.68, 'pitch': 5.22, 'roll': -3.44}
{'lipoC2': 7.19, 'temp': 0.0, 'lipoC3S3': 11.43, 'state': 'normal', 'rot1': 237, 'rot0': 208, 'rot3': 0, 'rot2': 0, 'depth': -0.369, 'yaw': -173.18, 'datetime': '2018-12-12 14:27:11.055726', 'mgs': 0, 'flw2': 6.25, 'flw1': 0.0, 'flw0': 4.75, 'time': 25.48, 'compass': -131.55, 'pitch': 4.2, 'roll': -3.57}
{'lipoC2': 7.25, 'temp': 0.0, 'lipoC3S3': 11.18, 'state': 'normal', 'rot1': 240, 'rot0': 211, 'rot3': 0, 'rot2': 0, 'depth': -0.674, 'yaw': -174.52, 'datetime': '2018-12-12 14:27:11.262426', 'mgs': 0, 'flw2': 5.79, 'flw1': 0.0, 'flw0': 3.58, 'time': 25.69, 'compass': -132.89, 'pitch': 3.44, 'roll': -3.34}
{'lipoC2': 7.49, 'temp': 0.0, 'lipoC3S3': 11.1, 'state': 'normal', 'rot1': 242, 'rot0': 214, 'rot3': 0, 'rot2': 0, 'depth': -1.285, 'yaw': -175.08, 'datetime': '2018-12-12 14:27:11.471905', 'mgs': 0, 'flw2': 5.88, 'flw1': 0.0, 'flw0': 2.25, 'time': 25.9, 'compass': -133.45, 'pitch': 3.42, 'roll': -2.77}
{'lipoC2': 7.32, 'temp': 0.0, 'lipoC3S3': 11.44, 'state': 'normal', 'rot1': 244, 'rot0': 217, 'rot3': 0, 'rot2': 0, 'depth': 1.004, 'yaw': -174.59, 'datetime': '2018-12-12 14:27:11.682824', 'mgs': 0, 'flw2': 6.3, 'flw1': 0.0, 'flw0': 2.62, 'time': 26.1, 'compass': -132.96, 'pitch': 3.22, 'roll': -2.08}
{'lipoC2': 7.42, 'temp': 0.0, 'lipoC3S3': 11.13, 'state': 'normal', 'rot1': 246, 'rot0': 221, 'rot3': 0, 'rot2': 0, 'depth': -0.598, 'yaw': -173.08, 'datetime': '2018-12-12 14:27:11.893607', 'mgs': 0, 'flw2': 6.13, 'flw1': 0.0, 'flw0': 2.7, 'time': 26.31, 'compass': -131.45, 'pitch': 2.7, 'roll': -1.47}
{'lipoC2': 7.52, 'temp': 0.0, 'lipoC3S3': 11.11, 'state': 'normal', 'rot1': 248, 'rot0': 224, 'rot3': 0, 'rot2': 0, 'depth': 0.928, 'yaw': -171.18, 'datetime': '2018-12-12 14:27:12.104006', 'mgs': 0, 'flw2': 5.62, 'flw1': 0.26, 'flw0': 2.83, 'time': 26.52, 'compass': -129.55, 'pitch': 2.4, 'roll': -1.39}
{'lipoC2': 7.3, 'temp': 0.0, 'lipoC3S3': 11.3, 'state': 'normal', 'rot1': 251, 'rot0': 227, 'rot3': 0, 'rot2': 0, 'depth': 1.233, 'yaw': -169.24, 'datetime': '2018-12-12 14:27:12.314960', 'mgs': 0, 'flw2': 5.66, 'flw1': 0.59, 'flw0': 2.88, 'time': 26.73, 'compass': -127.61, 'pitch': 2.65, 'roll': -1.02}
{'lipoC2': 7.41, 'temp': 0.0, 'lipoC3S3': 11.18, 'state': 'normal', 'rot1': 253, 'rot0': 230, 'rot3': 0, 'rot2': 0, 'depth': -0.598, 'yaw': -167.46, 'datetime': '2018-12-12 14:27:12.524942', 'mgs': 0, 'flw2': 5.98, 'flw1': 0.0, 'flw0': 3.13, 'time': 26.94, 'compass': -125.83, 'pitch': 3.05, 'roll': -0.08}
{'lipoC2': 7.52, 'temp': 0.0, 'lipoC3S3': 11.06, 'state': 'normal', 'rot1': 255, 'rot0': 233, 'rot3': 0, 'rot2': 0, 'depth': -0.446, 'yaw': -165.86, 'datetime': '2018-12-12 14:27:12.734230', 'mgs': 0, 'flw2': 5.96, 'flw1': 0.0, 'flw0': 2.89, 'time': 27.15, 'compass': -124.23, 'pitch': 3.18, 'roll': 0.64}
{'lipoC2': 7.53, 'temp': 0.0, 'lipoC3S3': 11.19, 'state': 'normal', 'rot1': 258, 'rot0': 237, 'rot3': 0, 'rot2': 0, 'depth': -1.514, 'yaw': -164.35, 'datetime': '2018-12-12 14:27:12.945178', 'mgs': 0, 'flw2': 5.76, 'flw1': 0.0, 'flw0': 3.11, 'time': 27.36, 'compass': -122.72, 'pitch': 3.27, 'roll': 0.91}
{'lipoC2': 7.3, 'temp': 0.0, 'lipoC3S3': 11.48, 'state': 'normal', 'rot1': 260, 'rot0': 241, 'rot3': 0, 'rot2': 0, 'depth': 0.546, 'yaw': -162.67, 'datetime': '2018-12-12 14:27:13.150764', 'mgs': 0, 'flw2': 5.83, 'flw1': 0.53, 'flw0': 3.13, 'time': 27.57, 'compass': -121.04, 'pitch': 3.79, 'roll': 0.99}
{'lipoC2': 7.3, 'temp': 0.0, 'lipoC3S3': 11.36, 'state': 'normal', 'rot1': 262, 'rot0': 244, 'rot3': 0, 'rot2': 0, 'depth': 1.92, 'yaw': -160.89, 'datetime': '2018-12-12 14:27:13.360981', 'mgs': 0, 'flw2': 6.03, 'flw1': 0.0, 'flw0': 3.27, 'time': 27.78, 'compass': -119.26, 'pitch': 4.12, 'roll': 0.92}
{'lipoC2': 7.33, 'temp': 0.0, 'lipoC3S3': 11.05, 'state': 'normal', 'rot1': 265, 'rot0': 247, 'rot3': 0, 'rot2': 0, 'depth': 1.614, 'yaw': -158.99, 'datetime': '2018-12-12 14:27:13.570129', 'mgs': 0, 'flw2': 5.68, 'flw1': 0.0, 'flw0': 3.02, 'time': 27.99, 'compass': -117.36, 'pitch': 4.19, 'roll': 0.9}
{'lipoC2': 7.48, 'temp': 0.0, 'lipoC3S3': 10.92, 'state': 'normal', 'rot1': 267, 'rot0': 250, 'rot3': 0, 'rot2': 0, 'depth': -0.598, 'yaw': -156.87, 'datetime': '2018-12-12 14:27:13.781499', 'mgs': 0, 'flw2': 5.81, 'flw1': 0.0, 'flw0': 2.91, 'time': 28.2, 'compass': -115.24, 'pitch': 4.41, 'roll': 1.04}
{'lipoC2': 7.26, 'temp': 0.0, 'lipoC3S3': 11.11, 'state': 'normal', 'rot1': 270, 'rot0': 253, 'rot3': 0, 'rot2': 0, 'depth': 0.623, 'yaw': -154.54, 'datetime': '2018-12-12 14:27:13.992420', 'mgs': 0, 'flw2': 5.88, 'flw1': 0.26, 'flw0': 2.99, 'time': 28.41, 'compass': -112.92, 'pitch': 4.61, 'roll': 1.32}
{'lipoC2': 7.39, 'temp': 0.0, 'lipoC3S3': 10.86, 'state': 'normal', 'rot1': 272, 'rot0': 256, 'rot3': 0, 'rot2': 0, 'depth': -0.369, 'yaw': -151.94, 'datetime': '2018-12-12 14:27:14.201599', 'mgs': 0, 'flw2': 5.71, 'flw1': 0.0, 'flw0': 2.86, 'time': 28.62, 'compass': -110.31, 'pitch': 4.67, 'roll': 1.63}
{'lipoC2': 7.3, 'temp': 0.0, 'lipoC3S3': 11.4, 'state': 'normal', 'rot1': 274, 'rot0': 260, 'rot3': 0, 'rot2': 0, 'depth': 0.699, 'yaw': -148.91, 'datetime': '2018-12-12 14:27:14.410640', 'mgs': 0, 'flw2': 5.88, 'flw1': 0.44, 'flw0': 3.17, 'time': 28.83, 'compass': -107.28, 'pitch': 4.37, 'roll': 1.82}
{'lipoC2': 7.3, 'temp': 0.0, 'lipoC3S3': 11.09, 'state': 'normal', 'rot1': 277, 'rot0': 263, 'rot3': 0, 'rot2': 0, 'depth': -0.369, 'yaw': -145.69, 'datetime': '2018-12-12 14:27:14.622094', 'mgs': 0, 'flw2': 6.21, 'flw1': 0.0, 'flw0': 2.65, 'time': 29.04, 'compass': -104.06, 'pitch': 3.88, 'roll': 2.27}
{'lipoC2': 7.53, 'temp': 0.0, 'lipoC3S3': 11.43, 'state': 'normal', 'rot1': 278, 'rot0': 265, 'rot3': 0, 'rot2': 0, 'depth': -1.361, 'yaw': -141.75, 'datetime': '2018-12-12 14:27:14.832604', 'mgs': 0, 'flw2': 0.0, 'flw1': 0.18, 'flw0': 0.0, 'time': 29.25, 'compass': -100.12, 'pitch': 2.68, 'roll': 2.89}
{'lipoC2': 7.3, 'temp': 0.0, 'lipoC3S3': 11.17, 'state': 'normal', 'rot1': 278, 'rot0': 265, 'rot3': 0, 'rot2': 0, 'depth': 1.767, 'yaw': -138.88, 'datetime': '2018-12-12 14:27:15.042479', 'mgs': 0, 'flw2': 0.0, 'flw1': 0.0, 'flw0': 0.18, 'time': 29.46, 'compass': -97.26, 'pitch': -1.52, 'roll': 2.77}
{'lipoC2': 7.34, 'temp': 0.0, 'lipoC3S3': 11.43, 'state': 'normal', 'rot1': 278, 'rot0': 265, 'rot3': 0, 'rot2': 0, 'depth': -0.369, 'yaw': -136.43, 'datetime': '2018-12-12 14:27:15.247663', 'mgs': 0, 'flw2': 0.22, 'flw1': 0.0, 'flw0': 0.18, 'time': 29.67, 'compass': -94.8, 'pitch': -3.54, 'roll': 1.98}
{'lipoC2': 7.25, 'temp': 0.0, 'lipoC3S3': 11.15, 'state': 'normal', 'rot1': 278, 'rot0': 265, 'rot3': 0, 'rot2': 0, 'depth': -0.674, 'yaw': -134.15, 'datetime': '2018-12-12 14:27:15.456060', 'mgs': 0, 'flw2': 0.0, 'flw1': 0.0, 'flw0': 0.0, 'time': 29.88, 'compass': -92.52, 'pitch': -2.65, 'roll': 1.58}
{'lipoC2': 7.48, 'temp': 0.0, 'lipoC3S3': 11.14, 'state': 'normal', 'rot1': 278, 'rot0': 265, 'rot3': 0, 'rot2': 0, 'depth': -0.598, 'yaw': -131.91, 'datetime': '2018-12-12 14:27:15.665678', 'mgs': 0, 'flw2': 0.0, 'flw1': 0.0, 'flw0': 0.0, 'time': 30.08, 'compass': -90.28, 'pitch': -1.29, 'roll': 1.63}
{'lipoC2': 7.33, 'temp': 0.0, 'lipoC3S3': 11.5, 'state': 'normal', 'rot1': 278, 'rot0': 265, 'rot3': 0, 'rot2': 0, 'depth': -0.14, 'yaw': -129.8, 'datetime': '2018-12-12 14:27:15.878257', 'mgs': 0, 'flw2': 0.0, 'flw1': 0.0, 'flw0': 0.0, 'time': 30.29, 'compass': -88.17, 'pitch': -1.34, 'roll': 1.7}
{'lipoC2': 7.47, 'temp': 0.0, 'lipoC3S3': 11.19, 'state': 'normal', 'rot1': 278, 'rot0': 265, 'rot3': 0, 'rot2': 0, 'depth': -0.293, 'yaw': -127.94, 'datetime': '2018-12-12 14:27:16.087120', 'mgs': 0, 'flw2': 0.0, 'flw1': 0.26, 'flw0': 0.0, 'time': 30.5, 'compass': -86.31, 'pitch': -2.35, 'roll': 1.64}
{'lipoC2': 7.29, 'temp': 0.0, 'lipoC3S3': 11.5, 'state': 'normal', 'rot1': 278, 'rot0': 265, 'rot3': 0, 'rot2': 0, 'depth': -0.522, 'yaw': -126.42, 'datetime': '2018-12-12 14:27:16.297668', 'mgs': 0, 'flw2': 0.0, 'flw1': 0.73, 'flw0': 0.0, 'time': 30.71, 'compass': -84.79, 'pitch': -2.62, 'roll': 1.34}
{'lipoC2': 7.48, 'temp': 0.0, 'lipoC3S3': 11.21, 'state': 'normal', 'rot1': 278, 'rot0': 265, 'rot3': 0, 'rot2': 0, 'depth': -1.056, 'yaw': -125.36, 'datetime': '2018-12-12 14:27:16.506113', 'mgs': 0, 'flw2': 0.2, 'flw1': 0.0, 'flw0': 0.0, 'time': 30.92, 'compass': -83.73, 'pitch': -1.87, 'roll': 1.23}
{'lipoC2': 7.21, 'temp': 0.0, 'lipoC3S3': 11.17, 'state': 'normal', 'rot1': 278, 'rot0': 265, 'rot3': 0, 'rot2': 0, 'depth': 1.309, 'yaw': -124.59, 'datetime': '2018-12-12 14:27:16.715373', 'mgs': 0, 'flw2': 0.0, 'flw1': 0.26, 'flw0': 0.0, 'time': 31.13, 'compass': -82.96, 'pitch': -1.31, 'roll': 1.44}
{'lipoC2': 7.28, 'temp': 0.0, 'lipoC3S3': 11.19, 'state': 'normal', 'rot1': 278, 'rot0': 265, 'rot3': 0, 'rot2': 0, 'depth': 1.691, 'yaw': -124.1, 'datetime': '2018-12-12 14:27:16.926497', 'mgs': 0, 'flw2': 0.0, 'flw1': 0.0, 'flw0': 0.04, 'time': 31.34, 'compass': -82.47, 'pitch': -1.84, 'roll': 1.49}
{'lipoC2': 7.5, 'temp': 0.0, 'lipoC3S3': 11.34, 'state': 'normal', 'rot1': 278, 'rot0': 265, 'rot3': 0, 'rot2': 0, 'depth': -1.208, 'yaw': -123.87, 'datetime': '2018-12-12 14:27:17.133768', 'mgs': 0, 'flw2': 0.0, 'flw1': 0.32, 'flw0': 0.0, 'time': 31.55, 'compass': -82.24, 'pitch': -2.5, 'roll': 1.35}
{'lipoC2': 7.26, 'temp': 0.0, 'lipoC3S3': 11.29, 'state': 'normal', 'rot1': 278, 'rot0': 265, 'rot3': 0, 'rot2': 0, 'depth': -0.827, 'yaw': -123.87, 'datetime': '2018-12-12 14:27:17.342889', 'mgs': 0, 'flw2': 0.0, 'flw1': 0.0, 'flw0': 0.09, 'time': 31.76, 'compass': -82.24, 'pitch': -2.62, 'roll': 1.32}
{'lipoC2': 7.36, 'temp': 0.0, 'lipoC3S3': 11.21, 'state': 'normal', 'rot1': 278, 'rot0': 265, 'rot3': 0, 'rot2': 0, 'depth': 0.546, 'yaw': -123.86, 'datetime': '2018-12-12 14:27:17.551027', 'mgs': 0, 'flw2': 0.1, 'flw1': 0.0, 'flw0': 0.05, 'time': 31.97, 'compass': -82.23, 'pitch': -2.2, 'roll': 1.07}
{'lipoC2': 7.25, 'temp': 0.0, 'lipoC3S3': 11.29, 'state': 'normal', 'rot1': 279, 'rot0': 265, 'rot3': 0, 'rot2': 0, 'depth': -1.59, 'yaw': -123.71, 'datetime': '2018-12-12 14:27:17.755863', 'mgs': 0, 'flw2': 1.75, 'flw1': 0.0, 'flw0': 1.75, 'time': 32.18, 'compass': -82.09, 'pitch': -1.81, 'roll': 0.82}
{'lipoC2': 7.33, 'temp': 0.0, 'lipoC3S3': 11.5, 'state': 'normal', 'rot1': 282, 'rot0': 268, 'rot3': 0, 'rot2': 0, 'depth': -0.14, 'yaw': -120.87, 'datetime': '2018-12-12 14:27:17.964209', 'mgs': 0, 'flw2': 1.92, 'flw1': 0.0, 'flw0': 1.9, 'time': 32.38, 'compass': -79.24, 'pitch': -1.13, 'roll': 1.47}
{'lipoC2': 7.26, 'temp': 0.0, 'lipoC3S3': 11.31, 'state': 'normal', 'rot1': 285, 'rot0': 271, 'rot3': 0, 'rot2': 0, 'depth': -0.903, 'yaw': -115.58, 'datetime': '2018-12-12 14:27:18.174599', 'mgs': 0, 'flw2': 2.04, 'flw1': 0.7, 'flw0': 1.95, 'time': 32.59, 'compass': -73.95, 'pitch': -0.8, 'roll': 2.68}
{'lipoC2': 7.15, 'temp': 0.0, 'lipoC3S3': 11.58, 'state': 'normal', 'rot1': 290, 'rot0': 274, 'rot3': 0, 'rot2': 0, 'depth': 1.996, 'yaw': -108.19, 'datetime': '2018-12-12 14:27:18.383492', 'mgs': 0, 'flw2': 3.75, 'flw1': 0.35, 'flw0': 4.25, 'time': 32.8, 'compass': -66.56, 'pitch': -0.98, 'roll': 3.76}
{'lipoC2': 7.28, 'temp': 0.0, 'lipoC3S3': 11.21, 'state': 'normal', 'rot1': 295, 'rot0': 279, 'rot3': 0, 'rot2': 0, 'depth': 1.462, 'yaw': -97.73, 'datetime': '2018-12-12 14:27:18.594742', 'mgs': 0, 'flw2': 3.67, 'flw1': 0.79, 'flw0': 4.33, 'time': 33.01, 'compass': -56.1, 'pitch': -0.49, 'roll': 4.72}
{'lipoC2': 7.29, 'temp': 0.0, 'lipoC3S3': 11.38, 'state': 'normal', 'rot1': 298, 'rot0': 283, 'rot3': 0, 'rot2': 0, 'depth': 0.089, 'yaw': -84.82, 'datetime': '2018-12-12 14:27:18.804802', 'mgs': 0, 'flw2': 2.82, 'flw1': 0.44, 'flw0': 3.5, 'time': 33.22, 'compass': -43.19, 'pitch': 0.85, 'roll': 5.17}
{'lipoC2': 7.22, 'temp': 0.0, 'lipoC3S3': 11.15, 'state': 'normal', 'rot1': 302, 'rot0': 286, 'rot3': 0, 'rot2': 0, 'depth': -1.132, 'yaw': -70.88, 'datetime': '2018-12-12 14:27:19.013182', 'mgs': 0, 'flw2': 2.55, 'flw1': 0.03, 'flw0': 2.53, 'time': 33.43, 'compass': -29.25, 'pitch': 1.66, 'roll': 4.57}
{'lipoC2': 7.32, 'temp': 0.0, 'lipoC3S3': 11.43, 'state': 'normal', 'rot1': 306, 'rot0': 289, 'rot3': 0, 'rot2': 0, 'depth': -1.514, 'yaw': -57.43, 'datetime': '2018-12-12 14:27:19.222998', 'mgs': 0, 'flw2': 1.86, 'flw1': 0.0, 'flw0': 2.06, 'time': 33.64, 'compass': -15.8, 'pitch': 1.21, 'roll': 3.91}
{'lipoC2': 7.52, 'temp': 0.0, 'lipoC3S3': 11.11, 'state': 'normal', 'rot1': 309, 'rot0': 292, 'rot3': 0, 'rot2': 0, 'depth': -2.2, 'yaw': -43.65, 'datetime': '2018-12-12 14:27:19.431798', 'mgs': 0, 'flw2': 1.94, 'flw1': 0.09, 'flw0': 2.14, 'time': 33.85, 'compass': -2.02, 'pitch': 0.61, 'roll': 3.73}
{'lipoC2': 7.23, 'temp': 0.0, 'lipoC3S3': 11.18, 'state': 'normal', 'rot1': 312, 'rot0': 294, 'rot3': 0, 'rot2': 0, 'depth': 0.623, 'yaw': -29.65, 'datetime': '2018-12-12 14:27:19.640380', 'mgs': 0, 'flw2': 2.49, 'flw1': 0.7, 'flw0': 2.75, 'time': 34.06, 'compass': 11.98, 'pitch': 0.48, 'roll': 3.8}
{'lipoC2': 7.28, 'temp': 0.0, 'lipoC3S3': 11.43, 'state': 'normal', 'rot1': 315, 'rot0': 297, 'rot3': 0, 'rot2': 0, 'depth': 1.614, 'yaw': -14.54, 'datetime': '2018-12-12 14:27:19.852510', 'mgs': 0, 'flw2': 3.08, 'flw1': 0.0, 'flw0': 3.53, 'time': 34.27, 'compass': 27.09, 'pitch': 0.87, 'roll': 4.28}
{'lipoC2': 7.32, 'temp': 0.0, 'lipoC3S3': 11.42, 'state': 'normal', 'rot1': 320, 'rot0': 300, 'rot3': 0, 'rot2': 0, 'depth': -0.064, 'yaw': 1.81, 'datetime': '2018-12-12 14:27:20.061318', 'mgs': 0, 'flw2': 4.22, 'flw1': 0.0, 'flw0': 4.88, 'time': 34.48, 'compass': 43.44, 'pitch': 1.06, 'roll': 4.8}
{'lipoC2': 7.15, 'temp': 0.0, 'lipoC3S3': 11.48, 'state': 'normal', 'rot1': 325, 'rot0': 304, 'rot3': 0, 'rot2': 0, 'depth': -0.293, 'yaw': 19.21, 'datetime': '2018-12-12 14:27:20.270757', 'mgs': 0, 'flw2': 5.8, 'flw1': 0.0, 'flw0': 6.03, 'time': 34.69, 'compass': 60.84, 'pitch': 0.9, 'roll': 5.04}
{'lipoC2': 7.34, 'temp': 0.0, 'lipoC3S3': 10.96, 'state': 'normal', 'rot1': 329, 'rot0': 308, 'rot3': 0, 'rot2': 0, 'depth': 0.012, 'yaw': 39.71, 'datetime': '2018-12-12 14:27:20.480697', 'mgs': 0, 'flw2': 5.54, 'flw1': 0.0, 'flw0': 5.86, 'time': 34.9, 'compass': 81.34, 'pitch': 1.4, 'roll': 4.98}
{'lipoC2': 7.3, 'temp': 0.0, 'lipoC3S3': 11.13, 'state': 'normal', 'rot1': 334, 'rot0': 312, 'rot3': 0, 'rot2': 1, 'depth': 0.012, 'yaw': 61.57, 'datetime': '2018-12-12 14:27:20.690061', 'mgs': 0, 'flw2': 5.71, 'flw1': 0.18, 'flw0': 6.2, 'time': 35.1, 'compass': 103.2, 'pitch': 1.88, 'roll': 4.77}
{'lipoC2': 7.27, 'temp': 0.0, 'lipoC3S3': 11.17, 'state': 'normal', 'rot1': 339, 'rot0': 316, 'rot3': 0, 'rot2': 1, 'depth': 0.165, 'yaw': 84.02, 'datetime': '2018-12-12 14:27:20.897903', 'mgs': 0, 'flw2': 6.56, 'flw1': 0.0, 'flw0': 7.46, 'time': 35.31, 'compass': 125.64, 'pitch': 1.93, 'roll': 4.45}
{'lipoC2': 7.29, 'temp': 0.0, 'lipoC3S3': 11.51, 'state': 'normal', 'rot1': 344, 'rot0': 320, 'rot3': 0, 'rot2': 1, 'depth': -0.522, 'yaw': 107.29, 'datetime': '2018-12-12 14:27:21.110051', 'mgs': 0, 'flw2': 1.33, 'flw1': 0.0, 'flw0': 1.28, 'time': 35.53, 'compass': 148.92, 'pitch': 1.7, 'roll': 4.44}
{'lipoC2': 7.3, 'temp': 0.0, 'lipoC3S3': 11.3, 'state': 'normal', 'rot1': 344, 'rot0': 320, 'rot3': 0, 'rot2': 1, 'depth': 2.53, 'yaw': 127.16, 'datetime': '2018-12-12 14:27:21.318669', 'mgs': 0, 'flw2': 0.23, 'flw1': 0.0, 'flw0': 0.0, 'time': 35.74, 'compass': 168.79, 'pitch': 0.43, 'roll': 3.74}
{'lipoC2': 7.27, 'temp': 0.0, 'lipoC3S3': 11.42, 'state': 'normal', 'rot1': 344, 'rot0': 320, 'rot3': 0, 'rot2': 1, 'depth': 1.767, 'yaw': 141.52, 'datetime': '2018-12-12 14:27:21.528209', 'mgs': 0, 'flw2': 0.31, 'flw1': 0.0, 'flw0': 0.23, 'time': 35.94, 'compass': -176.85, 'pitch': -1.77, 'roll': 1.46}
{'lipoC2': 7.26, 'temp': 0.0, 'lipoC3S3': 11.26, 'state': 'normal', 'rot1': 344, 'rot0': 320, 'rot3': 0, 'rot2': 1, 'depth': 0.928, 'yaw': 154.24, 'datetime': '2018-12-12 14:27:21.736612', 'mgs': 0, 'flw2': 0.18, 'flw1': 0.0, 'flw0': 0.28, 'time': 36.15, 'compass': -164.13, 'pitch': -2.9, 'roll': -0.47}
{'lipoC2': 7.34, 'temp': 0.0, 'lipoC3S3': 11.21, 'state': 'normal', 'rot1': 344, 'rot0': 320, 'rot3': 0, 'rot2': 1, 'depth': 2.301, 'yaw': 165.24, 'datetime': '2018-12-12 14:27:21.947916', 'mgs': 0, 'flw2': 0.0, 'flw1': 0.23, 'flw0': 0.0, 'time': 36.36, 'compass': -153.14, 'pitch': -2.19, 'roll': -0.78}
{'lipoC2': 7.22, 'temp': 0.0, 'lipoC3S3': 11.17, 'state': 'normal', 'rot1': 344, 'rot0': 320, 'rot3': 0, 'rot2': 1, 'depth': 1.614, 'yaw': 174.95, 'datetime': '2018-12-12 14:27:22.157471', 'mgs': 0, 'flw2': 0.0, 'flw1': 0.5, 'flw0': 0.0, 'time': 36.57, 'compass': -143.42, 'pitch': -1.66, 'roll': -0.29}
{'lipoC2': 7.36, 'temp': 0.0, 'lipoC3S3': 11.22, 'state': 'normal', 'rot1': 344, 'rot0': 320, 'rot3': 0, 'rot2': 1, 'depth': 0.928, 'yaw': -176.38, 'datetime': '2018-12-12 14:27:22.366873', 'mgs': 0, 'flw2': 0.18, 'flw1': 0.0, 'flw0': 0.0, 'time': 36.78, 'compass': -134.75, 'pitch': -2.06, 'roll': 0.59}
{'lipoC2': 7.46, 'temp': 0.0, 'lipoC3S3': 11.19, 'state': 'normal', 'rot1': 344, 'rot0': 320, 'rot3': 0, 'rot2': 1, 'depth': -0.827, 'yaw': -168.8, 'datetime': '2018-12-12 14:27:22.577951', 'mgs': 0, 'flw2': 0.0, 'flw1': 0.73, 'flw0': 0.0, 'time': 36.99, 'compass': -127.17, 'pitch': -2.19, 'roll': 1.24}
{'lipoC2': 7.51, 'temp': 0.0, 'lipoC3S3': 11.34, 'state': 'normal', 'rot1': 344, 'rot0': 320, 'rot3': 0, 'rot2': 1, 'depth': -1.437, 'yaw': -161.5, 'datetime': '2018-12-12 14:27:22.790212', 'mgs': 0, 'flw2': 0.0, 'flw1': 0.21, 'flw0': 0.0, 'time': 37.2, 'compass': -119.87, 'pitch': -2.04, 'roll': 1.19}
{'lipoC2': 7.32, 'temp': 0.0, 'lipoC3S3': 11.58, 'state': 'normal', 'rot1': 344, 'rot0': 320, 'rot3': 0, 'rot2': 1, 'depth': -1.514, 'yaw': -154.71, 'datetime': '2018-12-12 14:27:22.999936', 'mgs': 0, 'flw2': 0.18, 'flw1': 0.0, 'flw0': 0.0, 'time': 37.41, 'compass': -113.08, 'pitch': -2.02, 'roll': 0.8}
{'lipoC2': 7.21, 'temp': 0.0, 'lipoC3S3': 11.38, 'state': 'normal', 'rot1': 344, 'rot0': 320, 'rot3': 0, 'rot2': 1, 'depth': 1.08, 'yaw': -148.41, 'datetime': '2018-12-12 14:27:23.208191', 'mgs': 0, 'flw2': 0.02, 'flw1': 0.0, 'flw0': 0.01, 'time': 37.62, 'compass': -106.78, 'pitch': -2.32, 'roll': 0.51}
{'lipoC2': 7.28, 'temp': 0.0, 'lipoC3S3': 11.4, 'state': 'normal', 'rot1': 344, 'rot0': 320, 'rot3': 0, 'rot2': 1, 'depth': -0.751, 'yaw': -142.54, 'datetime': '2018-12-12 14:27:23.418692', 'mgs': 0, 'flw2': 0.0, 'flw1': 0.09, 'flw0': 0.0, 'time': 37.83, 'compass': -100.91, 'pitch': -2.51, 'roll': 0.59}
{'lipoC2': 7.25, 'temp': 0.0, 'lipoC3S3': 11.38, 'state': 'normal', 'rot1': 344, 'rot0': 320, 'rot3': 0, 'rot2': 1, 'depth': 0.012, 'yaw': -137.09, 'datetime': '2018-12-12 14:27:23.623670', 'mgs': 0, 'flw2': 0.34, 'flw1': 0.0, 'flw0': 0.0, 'time': 38.03, 'compass': -95.46, 'pitch': -2.25, 'roll': 1.0}
{'lipoC2': 7.53, 'temp': 0.0, 'lipoC3S3': 11.34, 'state': 'normal', 'rot1': 344, 'rot0': 320, 'rot3': 0, 'rot2': 1, 'depth': -1.056, 'yaw': -132.31, 'datetime': '2018-12-12 14:27:23.835978', 'mgs': 0, 'flw2': 0.0, 'flw1': 0.59, 'flw0': 0.0, 'time': 38.24, 'compass': -90.68, 'pitch': -1.91, 'roll': 1.39}
{'lipoC2': 7.38, 'temp': 0.0, 'lipoC3S3': 11.18, 'state': 'normal', 'rot1': 344, 'rot0': 320, 'rot3': 0, 'rot2': 1, 'depth': 1.08, 'yaw': -127.63, 'datetime': '2018-12-12 14:27:24.044199', 'mgs': 0, 'flw2': 0.0, 'flw1': 0.0, 'flw0': 0.13, 'time': 38.45, 'compass': -86.0, 'pitch': -1.84, 'roll': 1.63}
{'lipoC2': 7.26, 'temp': 0.0, 'lipoC3S3': 11.26, 'state': 'normal', 'rot1': 344, 'rot0': 320, 'rot3': 0, 'rot2': 1, 'depth': -0.369, 'yaw': -123.3, 'datetime': '2018-12-12 14:27:24.253681', 'mgs': 0, 'flw2': 0.24, 'flw1': 0.0, 'flw0': 0.0, 'time': 38.66, 'compass': -81.67, 'pitch': -1.93, 'roll': 1.6}
{'lipoC2': 7.32, 'temp': 0.0, 'lipoC3S3': 11.32, 'state': 'normal', 'rot1': 344, 'rot0': 320, 'rot3': 0, 'rot2': 1, 'depth': 0.546, 'yaw': -119.3, 'datetime': '2018-12-12 14:27:24.463060', 'mgs': 0, 'flw2': 0.22, 'flw1': 0.0, 'flw0': 0.15, 'time': 38.87, 'compass': -77.67, 'pitch': -1.86, 'roll': 1.35}
{'lipoC2': 7.39, 'temp': 0.0, 'lipoC3S3': 11.31, 'state': 'normal', 'rot1': 344, 'rot0': 320, 'rot3': 0, 'rot2': 1, 'depth': -0.369, 'yaw': -115.57, 'datetime': '2018-12-12 14:27:24.672310', 'mgs': 0, 'flw2': 0.09, 'flw1': 0.0, 'flw0': 0.0, 'time': 39.08, 'compass': -73.94, 'pitch': -1.8, 'roll': 1.18}
{'lipoC2': 7.58, 'temp': 0.0, 'lipoC3S3': 11.31, 'state': 'normal', 'rot1': 344, 'rot0': 320, 'rot3': 0, 'rot2': 1, 'depth': -1.056, 'yaw': -112.14, 'datetime': '2018-12-12 14:27:24.882233', 'mgs': 0, 'flw2': 0.0, 'flw1': 0.53, 'flw0': 0.0, 'time': 39.29, 'compass': -70.51, 'pitch': -2.01, 'roll': 1.08}
{'lipoC2': 7.52, 'temp': 0.0, 'lipoC3S3': 11.29, 'state': 'normal', 'rot1': 344, 'rot0': 320, 'rot3': 0, 'rot2': 1, 'depth': 0.928, 'yaw': -108.75, 'datetime': '2018-12-12 14:27:25.091564', 'mgs': 0, 'flw2': 0.0, 'flw1': 0.0, 'flw0': 0.35, 'time': 39.5, 'compass': -67.12, 'pitch': -2.17, 'roll': 1.28}
{'lipoC2': 7.21, 'temp': 0.0, 'lipoC3S3': 11.56, 'state': 'normal', 'rot1': 344, 'rot0': 320, 'rot3': 0, 'rot2': 1, 'depth': -0.751, 'yaw': -105.44, 'datetime': '2018-12-12 14:27:25.301144', 'mgs': 0, 'flw2': 0.24, 'flw1': 0.0, 'flw0': 0.0, 'time': 39.71, 'compass': -63.81, 'pitch': -1.9, 'roll': 1.29}
{'lipoC2': 7.43, 'temp': 0.0, 'lipoC3S3': 11.34, 'state': 'normal', 'rot1': 344, 'rot0': 320, 'rot3': 0, 'rot2': 1, 'depth': -1.514, 'yaw': -102.23, 'datetime': '2018-12-12 14:27:25.509674', 'mgs': 0, 'flw2': 0.0, 'flw1': 0.53, 'flw0': 0.0, 'time': 39.92, 'compass': -60.6, 'pitch': -1.6, 'roll': 0.98}
{'lipoC2': 7.46, 'temp': 0.0, 'lipoC3S3': 11.15, 'state': 'normal', 'rot1': 344, 'rot0': 320, 'rot3': 0, 'rot2': 1, 'depth': -0.903, 'yaw': -99.17, 'datetime': '2018-12-12 14:27:25.719184', 'mgs': 0, 'flw2': 0.0, 'flw1': 0.23, 'flw0': 0.0, 'time': 40.13, 'compass': -57.54, 'pitch': -1.5, 'roll': 0.82}
{'lipoC2': 7.4, 'temp': 0.0, 'lipoC3S3': 11.48, 'state': 'normal', 'rot1': 344, 'rot0': 320, 'rot3': 0, 'rot2': 1, 'depth': -0.446, 'yaw': -96.28, 'datetime': '2018-12-12 14:27:25.927820', 'mgs': 0, 'flw2': 0.04, 'flw1': 0.0, 'flw0': 0.02, 'time': 40.33, 'compass': -54.65, 'pitch': -1.54, 'roll': 0.76}
{'lipoC2': 7.46, 'temp': 0.0, 'lipoC3S3': 11.21, 'state': 'normal', 'rot1': 344, 'rot0': 320, 'rot3': 0, 'rot2': 1, 'depth': -0.293, 'yaw': -93.4, 'datetime': '2018-12-12 14:27:26.141565', 'mgs': 0, 'flw2': 0.0, 'flw1': 0.32, 'flw0': 0.0, 'time': 40.54, 'compass': -51.78, 'pitch': -1.55, 'roll': 0.86}
{'lipoC2': 7.32, 'temp': 0.0, 'lipoC3S3': 11.55, 'state': 'normal', 'rot1': 344, 'rot0': 320, 'rot3': 0, 'rot2': 1, 'depth': -1.895, 'yaw': -90.56, 'datetime': '2018-12-12 14:27:26.348337', 'mgs': 0, 'flw2': 0.01, 'flw1': 0.0, 'flw0': 0.11, 'time': 40.76, 'compass': -48.94, 'pitch': -1.93, 'roll': 1.17}
{'lipoC2': 7.28, 'temp': 0.0, 'lipoC3S3': 11.5, 'state': 'normal', 'rot1': 344, 'rot0': 320, 'rot3': 0, 'rot2': 1, 'depth': -0.674, 'yaw': -87.85, 'datetime': '2018-12-12 14:27:26.556908', 'mgs': 0, 'flw2': 0.24, 'flw1': 0.0, 'flw0': 0.11, 'time': 40.96, 'compass': -46.22, 'pitch': -2.24, 'roll': 1.43}
{'lipoC2': 7.32, 'temp': 0.0, 'lipoC3S3': 11.18, 'state': 'normal', 'rot1': 344, 'rot0': 320, 'rot3': 0, 'rot2': 1, 'depth': -0.446, 'yaw': -85.3, 'datetime': '2018-12-12 14:27:26.766360', 'mgs': 0, 'flw2': 0.15, 'flw1': 0.0, 'flw0': 0.35, 'time': 41.17, 'compass': -43.68, 'pitch': -1.9, 'roll': 1.38}
{'lipoC2': 7.42, 'temp': 0.0, 'lipoC3S3': 11.13, 'state': 'normal', 'rot1': 344, 'rot0': 320, 'rot3': 0, 'rot2': 1, 'depth': -0.522, 'yaw': -82.9, 'datetime': '2018-12-12 14:27:26.974649', 'mgs': 0, 'flw2': 0.0, 'flw1': 0.06, 'flw0': 0.0, 'time': 41.38, 'compass': -41.27, 'pitch': -1.4, 'roll': 1.07}
{'lipoC2': 7.28, 'temp': 0.0, 'lipoC3S3': 11.39, 'state': 'normal', 'rot1': 344, 'rot0': 320, 'rot3': 0, 'rot2': 1, 'depth': -0.598, 'yaw': -80.52, 'datetime': '2018-12-12 14:27:27.184131', 'mgs': 0, 'flw2': 0.16, 'flw1': 0.0, 'flw0': 0.05, 'time': 41.59, 'compass': -38.89, 'pitch': -1.34, 'roll': 0.89}
{'lipoC2': 7.32, 'temp': 0.0, 'lipoC3S3': 11.4, 'state': 'normal', 'rot1': 344, 'rot0': 320, 'rot3': 0, 'rot2': 1, 'depth': -0.217, 'yaw': -78.2, 'datetime': '2018-12-12 14:27:27.392403', 'mgs': 0, 'flw2': 0.12, 'flw1': 0.0, 'flw0': 0.28, 'time': 41.8, 'compass': -36.57, 'pitch': -1.83, 'roll': 0.95}
{'lipoC2': 7.26, 'temp': 0.0, 'lipoC3S3': 11.59, 'state': 'normal', 'rot1': 344, 'rot0': 320, 'rot3': 0, 'rot2': 1, 'depth': -0.674, 'yaw': -76.0, 'datetime': '2018-12-12 14:27:27.603164', 'mgs': 0, 'flw2': 0.17, 'flw1': 0.0, 'flw0': 0.01, 'time': 42.01, 'compass': -34.37, 'pitch': -1.9, 'roll': 1.02}
{'lipoC2': 7.26, 'temp': 0.0, 'lipoC3S3': 11.34, 'state': 'normal', 'rot1': 344, 'rot0': 320, 'rot3': 0, 'rot2': 1, 'depth': 1.691, 'yaw': -73.81, 'datetime': '2018-12-12 14:27:27.814055', 'mgs': 0, 'flw2': 0.0, 'flw1': 0.06, 'flw0': 0.0, 'time': 42.22, 'compass': -32.18, 'pitch': -1.81, 'roll': 1.17}
{'lipoC2': 7.35, 'temp': 0.0, 'lipoC3S3': 11.47, 'state': 'normal', 'rot1': 344, 'rot0': 320, 'rot3': 0, 'rot2': 1, 'depth': 0.851, 'yaw': -71.81, 'datetime': '2018-12-12 14:27:28.022464', 'mgs': 0, 'flw2': 0.16, 'flw1': 0.0, 'flw0': 0.0, 'time': 42.43, 'compass': -30.19, 'pitch': -1.76, 'roll': 1.14}
{'lipoC2': 7.26, 'temp': 0.0, 'lipoC3S3': 11.43, 'state': 'normal', 'rot1': 344, 'rot0': 320, 'rot3': 0, 'rot2': 1, 'depth': -0.827, 'yaw': -69.81, 'datetime': '2018-12-12 14:27:28.231454', 'mgs': 0, 'flw2': 0.22, 'flw1': 0.0, 'flw0': 0.0, 'time': 42.63, 'compass': -28.18, 'pitch': -1.86, 'roll': 1.1}
{'lipoC2': 7.28, 'temp': 0.0, 'lipoC3S3': 11.17, 'state': 'normal', 'rot1': 344, 'rot0': 320, 'rot3': 0, 'rot2': 1, 'depth': -0.598, 'yaw': -67.79, 'datetime': '2018-12-12 14:27:28.440621', 'mgs': 0, 'flw2': 0.23, 'flw1': 0.0, 'flw0': 0.0, 'time': 42.84, 'compass': -26.16, 'pitch': -1.7, 'roll': 0.95}
