{'lipoC2': 8.07, 'temp': 0.0, 'lipoC3S3': 12.72, 'state': 'normal', 'rot1': 0, 'rot0': 0, 'rot3': 0, 'rot2': 0, 'depth': 0.012, 'yaw': 0.0, 'datetime': '2018-12-12 10:32:30.276675', 'mgs': 0, 'flw2': 0.11, 'flw1': 0.0, 'flw0': 0.0, 'time': 1.25, 'compass': 32.63, 'pitch': -23.49, 'roll': -1.06}
{'lipoC2': 8.19, 'temp': 0.0, 'lipoC3S3': 12.47, 'state': 'normal', 'rot1': 0, 'rot0': 0, 'rot3': 0, 'rot2': 0, 'depth': 1.843, 'yaw': 0.57, 'datetime': '2018-12-12 10:32:30.484898', 'mgs': 0, 'flw2': 0.0, 'flw1': 0.5, 'flw0': 0.0, 'time': 1.46, 'compass': 33.19, 'pitch': -23.94, 'roll': -1.47}
{'lipoC2': 8.08, 'temp': 0.0, 'lipoC3S3': 12.64, 'state': 'normal', 'rot1': 0, 'rot0': 0, 'rot3': 0, 'rot2': 0, 'depth': -0.827, 'yaw': 1.55, 'datetime': '2018-12-12 10:32:30.694057', 'mgs': 0, 'flw2': 0.0, 'flw1': 0.32, 'flw0': 0.0, 'time': 1.67, 'compass': 34.18, 'pitch': -24.65, 'roll': -0.91}
{'lipoC2': 8.35, 'temp': 0.0, 'lipoC3S3': 12.55, 'state': 'normal', 'rot1': 0, 'rot0': 0, 'rot3': 0, 'rot2': 0, 'depth': 0.928, 'yaw': 2.62, 'datetime': '2018-12-12 10:32:30.902403', 'mgs': 0, 'flw2': 0.04, 'flw1': 0.0, 'flw0': 0.31, 'time': 1.88, 'compass': 35.24, 'pitch': -25.29, 'roll': -0.55}
{'lipoC2': 8.14, 'temp': 0.0, 'lipoC3S3': 12.52, 'state': 'normal', 'rot1': 0, 'rot0': 0, 'rot3': 0, 'rot2': 0, 'depth': -0.751, 'yaw': 3.7, 'datetime': '2018-12-12 10:32:31.109473', 'mgs': 0, 'flw2': 0.15, 'flw1': 0.0, 'flw0': 0.29, 'time': 2.09, 'compass': 36.32, 'pitch': -26.08, 'roll': -0.85}
{'lipoC2': 8.11, 'temp': 0.0, 'lipoC3S3': 12.6, 'state': 'normal', 'rot1': 0, 'rot0': 0, 'rot3': 0, 'rot2': 0, 'depth': -0.98, 'yaw': 4.98, 'datetime': '2018-12-12 10:32:31.317907', 'mgs': 0, 'flw2': 0.0, 'flw1': 0.0, 'flw0': 0.1, 'time': 2.29, 'compass': 37.61, 'pitch': -27.33, 'roll': -0.82}
{'lipoC2': 8.11, 'temp': 0.0, 'lipoC3S3': 12.6, 'state': 'normal', 'rot1': 0, 'rot0': 0, 'rot3': 0, 'rot2': 0, 'depth': -1.056, 'yaw': 6.15, 'datetime': '2018-12-12 10:32:31.524982', 'mgs': 0, 'flw2': 0.0, 'flw1': 0.0, 'flw0': 0.06, 'time': 2.5, 'compass': 38.77, 'pitch': -27.92, 'roll': -0.28}
{'lipoC2': 8.07, 'temp': 0.0, 'lipoC3S3': 12.71, 'state': 'normal', 'rot1': 0, 'rot0': 0, 'rot3': 0, 'rot2': 0, 'depth': 0.394, 'yaw': 7.17, 'datetime': '2018-12-12 10:32:31.733032', 'mgs': 0, 'flw2': 0.0, 'flw1': 0.0, 'flw0': 0.05, 'time': 2.71, 'compass': 39.8, 'pitch': -28.21, 'roll': -0.15}
{'lipoC2': 8.08, 'temp': 0.0, 'lipoC3S3': 12.72, 'state': 'normal', 'rot1': 0, 'rot0': 0, 'rot3': 0, 'rot2': 0, 'depth': -0.98, 'yaw': 8.0, 'datetime': '2018-12-12 10:32:31.942213', 'mgs': 0, 'flw2': 0.0, 'flw1': 0.67, 'flw0': 0.0, 'time': 2.92, 'compass': 40.62, 'pitch': -29.13, 'roll': -0.91}
{'lipoC2': 8.23, 'temp': 0.0, 'lipoC3S3': 12.26, 'state': 'normal', 'rot1': 0, 'rot0': 0, 'rot3': 0, 'rot2': 0, 'depth': 1.767, 'yaw': 8.65, 'datetime': '2018-12-12 10:32:32.150456', 'mgs': 0, 'flw2': 0.31, 'flw1': 0.0, 'flw0': 0.01, 'time': 3.13, 'compass': 41.28, 'pitch': -29.56, 'roll': -1.8}
{'lipoC2': 8.1, 'temp': 0.0, 'lipoC3S3': 12.71, 'state': 'normal', 'rot1': 0, 'rot0': 0, 'rot3': 0, 'rot2': 0, 'depth': -1.132, 'yaw': 9.24, 'datetime': '2018-12-12 10:32:32.359749', 'mgs': 0, 'flw2': 0.31, 'flw1': 0.0, 'flw0': 0.09, 'time': 3.34, 'compass': 41.86, 'pitch': -29.3, 'roll': -1.78}
{'lipoC2': 8.14, 'temp': 0.0, 'lipoC3S3': 12.19, 'state': 'normal', 'rot1': 0, 'rot0': 0, 'rot3': 0, 'rot2': 0, 'depth': 1.996, 'yaw': 9.52, 'datetime': '2018-12-12 10:32:32.567581', 'mgs': 0, 'flw2': 0.1, 'flw1': 0.0, 'flw0': 0.0, 'time': 3.54, 'compass': 42.15, 'pitch': -29.24, 'roll': -1.3}
{'lipoC2': 8.07, 'temp': 0.0, 'lipoC3S3': 12.72, 'state': 'normal', 'rot1': 0, 'rot0': 0, 'rot3': 0, 'rot2': 0, 'depth': -0.751, 'yaw': 9.72, 'datetime': '2018-12-12 10:32:32.776091', 'mgs': 0, 'flw2': 0.0, 'flw1': 0.0, 'flw0': 0.1, 'time': 3.75, 'compass': 42.35, 'pitch': -29.79, 'roll': -0.93}
{'lipoC2': 8.12, 'temp': 0.0, 'lipoC3S3': 12.22, 'state': 'normal', 'rot1': 0, 'rot0': 0, 'rot3': 0, 'rot2': 0, 'depth': 1.157, 'yaw': 9.91, 'datetime': '2018-12-12 10:32:32.982927', 'mgs': 0, 'flw2': 0.0, 'flw1': 0.0, 'flw0': 0.2, 'time': 3.96, 'compass': 42.54, 'pitch': -29.85, 'roll': -0.72}
{'lipoC2': 8.13, 'temp': 0.0, 'lipoC3S3': 12.52, 'state': 'normal', 'rot1': 0, 'rot0': 0, 'rot3': 0, 'rot2': 0, 'depth': -1.132, 'yaw': 9.9, 'datetime': '2018-12-12 10:32:33.195125', 'mgs': 0, 'flw2': 0.0, 'flw1': 0.0, 'flw0': 0.23, 'time': 4.16, 'compass': 42.52, 'pitch': -29.26, 'roll': -0.69}
{'lipoC2': 8.34, 'temp': 0.0, 'lipoC3S3': 12.34, 'state': 'normal', 'rot1': 0, 'rot0': 0, 'rot3': 0, 'rot2': 0, 'depth': -1.819, 'yaw': 9.6, 'datetime': '2018-12-12 10:32:33.404293', 'mgs': 0, 'flw2': 0.06, 'flw1': 0.0, 'flw0': 0.0, 'time': 4.37, 'compass': 42.23, 'pitch': -29.17, 'roll': -0.5}
{'lipoC2': 8.07, 'temp': 0.0, 'lipoC3S3': 12.67, 'state': 'normal', 'rot1': 0, 'rot0': 0, 'rot3': 0, 'rot2': 0, 'depth': -0.674, 'yaw': 9.27, 'datetime': '2018-12-12 10:32:33.612088', 'mgs': 0, 'flw2': 0.0, 'flw1': 0.64, 'flw0': 0.0, 'time': 4.58, 'compass': 41.89, 'pitch': -29.22, 'roll': -0.5}
{'lipoC2': 8.37, 'temp': 0.0, 'lipoC3S3': 12.35, 'state': 'normal', 'rot1': 0, 'rot0': 0, 'rot3': 0, 'rot2': 0, 'depth': 0.928, 'yaw': 8.87, 'datetime': '2018-12-12 10:32:33.818279', 'mgs': 0, 'flw2': 0.0, 'flw1': 0.0, 'flw0': 0.31, 'time': 4.79, 'compass': 41.49, 'pitch': -28.61, 'roll': -1.02}
{'lipoC2': 8.07, 'temp': 0.0, 'lipoC3S3': 12.74, 'state': 'normal', 'rot1': 0, 'rot0': 0, 'rot3': 0, 'rot2': 0, 'depth': -0.98, 'yaw': 8.59, 'datetime': '2018-12-12 10:32:34.027018', 'mgs': 0, 'flw2': 0.31, 'flw1': 0.0, 'flw0': 0.06, 'time': 5.0, 'compass': 41.22, 'pitch': -28.18, 'roll': -1.32}
{'lipoC2': 8.36, 'temp': 0.0, 'lipoC3S3': 12.37, 'state': 'normal', 'rot1': 0, 'rot0': 0, 'rot3': 0, 'rot2': 0, 'depth': -1.666, 'yaw': 8.39, 'datetime': '2018-12-12 10:32:34.232560', 'mgs': 0, 'flw2': 0.22, 'flw1': 0.0, 'flw0': 0.0, 'time': 5.21, 'compass': 41.02, 'pitch': -28.18, 'roll': -1.11}
{'lipoC2': 8.14, 'temp': 0.0, 'lipoC3S3': 12.48, 'state': 'normal', 'rot1': 0, 'rot0': 0, 'rot3': 0, 'rot2': 0, 'depth': -0.751, 'yaw': 8.03, 'datetime': '2018-12-12 10:32:34.442372', 'mgs': 0, 'flw2': 0.0, 'flw1': 0.0, 'flw0': 0.33, 'time': 5.41, 'compass': 40.66, 'pitch': -27.74, 'roll': -0.87}
{'lipoC2': 8.24, 'temp': 0.0, 'lipoC3S3': 12.27, 'state': 'normal', 'rot1': 0, 'rot0': 0, 'rot3': 0, 'rot2': 0, 'depth': 1.767, 'yaw': 7.96, 'datetime': '2018-12-12 10:32:34.653889', 'mgs': 0, 'flw2': 0.24, 'flw1': 0.0, 'flw0': 0.0, 'time': 5.62, 'compass': 40.59, 'pitch': -27.0, 'roll': -0.35}
{'lipoC2': 8.14, 'temp': 0.0, 'lipoC3S3': 12.54, 'state': 'normal', 'rot1': 0, 'rot0': 0, 'rot3': 0, 'rot2': 0, 'depth': -0.751, 'yaw': 8.2, 'datetime': '2018-12-12 10:32:34.857314', 'mgs': 0, 'flw2': 0.0, 'flw1': 0.0, 'flw0': 0.32, 'time': 5.83, 'compass': 40.82, 'pitch': -26.52, 'roll': -0.03}
{'lipoC2': 8.16, 'temp': 0.0, 'lipoC3S3': 12.22, 'state': 'normal', 'rot1': 0, 'rot0': 0, 'rot3': 0, 'rot2': 0, 'depth': 1.767, 'yaw': 8.82, 'datetime': '2018-12-12 10:32:35.066615', 'mgs': 0, 'flw2': 0.31, 'flw1': 0.0, 'flw0': 0.02, 'time': 6.04, 'compass': 41.45, 'pitch': -26.66, 'roll': 0.38}
{'lipoC2': 8.3, 'temp': 0.0, 'lipoC3S3': 12.33, 'state': 'normal', 'rot1': 0, 'rot0': 0, 'rot3': 0, 'rot2': 0, 'depth': 0.775, 'yaw': 10.51, 'datetime': '2018-12-12 10:32:35.273560', 'mgs': 0, 'flw2': 0.2, 'flw1': 0.0, 'flw0': 0.0, 'time': 6.24, 'compass': 43.14, 'pitch': -27.57, 'roll': 2.02}
{'lipoC2': 8.12, 'temp': 0.0, 'lipoC3S3': 12.59, 'state': 'normal', 'rot1': 0, 'rot0': 0, 'rot3': 0, 'rot2': 0, 'depth': -1.132, 'yaw': 12.6, 'datetime': '2018-12-12 10:32:35.483030', 'mgs': 0, 'flw2': 0.0, 'flw1': 0.7, 'flw0': 0.0, 'time': 6.45, 'compass': 45.23, 'pitch': -27.46, 'roll': 3.21}
{'lipoC2': 8.29, 'temp': 0.0, 'lipoC3S3': 12.39, 'state': 'normal', 'rot1': 0, 'rot0': 0, 'rot3': 0, 'rot2': 0, 'depth': -1.895, 'yaw': 14.61, 'datetime': '2018-12-12 10:32:35.690092', 'mgs': 0, 'flw2': 0.32, 'flw1': 0.0, 'flw0': 0.0, 'time': 6.66, 'compass': 47.24, 'pitch': -26.69, 'roll': 2.92}
{'lipoC2': 8.13, 'temp': 0.0, 'lipoC3S3': 12.37, 'state': 'normal', 'rot1': 0, 'rot0': 0, 'rot3': 0, 'rot2': 0, 'depth': -0.98, 'yaw': 16.93, 'datetime': '2018-12-12 10:32:35.898215', 'mgs': 0, 'flw2': 0.0, 'flw1': 0.0, 'flw0': 0.32, 'time': 6.87, 'compass': 49.56, 'pitch': -25.94, 'roll': 1.58}
{'lipoC2': 8.09, 'temp': 0.0, 'lipoC3S3': 12.7, 'state': 'normal', 'rot1': 0, 'rot0': 0, 'rot3': 0, 'rot2': 0, 'depth': -1.056, 'yaw': 19.28, 'datetime': '2018-12-12 10:32:36.105519', 'mgs': 0, 'flw2': 0.05, 'flw1': 0.0, 'flw0': 0.27, 'time': 7.07, 'compass': 51.9, 'pitch': -25.27, 'roll': -0.36}
{'lipoC2': 8.12, 'temp': 0.0, 'lipoC3S3': 12.21, 'state': 'normal', 'rot1': 0, 'rot0': 0, 'rot3': 0, 'rot2': 0, 'depth': 1.767, 'yaw': 21.04, 'datetime': '2018-12-12 10:32:36.314577', 'mgs': 0, 'flw2': 0.24, 'flw1': 0.0, 'flw0': 0.0, 'time': 7.28, 'compass': 53.67, 'pitch': -24.86, 'roll': -2.26}
{'lipoC2': 8.11, 'temp': 0.0, 'lipoC3S3': 12.63, 'state': 'normal', 'rot1': 0, 'rot0': 0, 'rot3': 0, 'rot2': 0, 'depth': -0.903, 'yaw': 22.38, 'datetime': '2018-12-12 10:32:36.522777', 'mgs': 0, 'flw2': 0.0, 'flw1': 0.0, 'flw0': 0.0, 'time': 7.49, 'compass': 55.01, 'pitch': -24.62, 'roll': -3.54}
{'lipoC2': 8.38, 'temp': 0.0, 'lipoC3S3': 12.37, 'state': 'normal', 'rot1': 0, 'rot0': 0, 'rot3': 0, 'rot2': 0, 'depth': 0.546, 'yaw': 23.22, 'datetime': '2018-12-12 10:32:36.730950', 'mgs': 0, 'flw2': 0.0, 'flw1': 0.0, 'flw0': 0.31, 'time': 7.7, 'compass': 55.85, 'pitch': -24.35, 'roll': -3.91}
{'lipoC2': 8.07, 'temp': 0.0, 'lipoC3S3': 12.72, 'state': 'normal', 'rot1': 0, 'rot0': 0, 'rot3': 0, 'rot2': 0, 'depth': -0.598, 'yaw': 23.75, 'datetime': '2018-12-12 10:32:36.939049', 'mgs': 0, 'flw2': 0.0, 'flw1': 0.67, 'flw0': 0.0, 'time': 7.91, 'compass': 56.38, 'pitch': -24.2, 'roll': -3.39}
{'lipoC2': 8.38, 'temp': 0.0, 'lipoC3S3': 12.35, 'state': 'normal', 'rot1': 0, 'rot0': 0, 'rot3': 0, 'rot2': 0, 'depth': 0.317, 'yaw': 23.48, 'datetime': '2018-12-12 10:32:37.147311', 'mgs': 0, 'flw2': 0.0, 'flw1': 0.0, 'flw0': 0.31, 'time': 8.12, 'compass': 56.11, 'pitch': -23.87, 'roll': -2.93}
{'lipoC2': 8.42, 'temp': 0.0, 'lipoC3S3': 12.26, 'state': 'normal', 'rot1': 0, 'rot0': 1, 'rot3': 0, 'rot2': 0, 'depth': 0.394, 'yaw': 22.64, 'datetime': '2018-12-12 10:32:37.354403', 'mgs': 0, 'flw2': 7.45, 'flw1': 0.7, 'flw0': 0.0, 'time': 8.32, 'compass': 55.27, 'pitch': -23.25, 'roll': -2.44}
{'lipoC2': 8.16, 'temp': 0.0, 'lipoC3S3': 12.54, 'state': 'normal', 'rot1': 0, 'rot0': 4, 'rot3': 0, 'rot2': 0, 'depth': 1.92, 'yaw': 24.4, 'datetime': '2018-12-12 10:32:37.562585', 'mgs': 0, 'flw2': 0.17, 'flw1': 0.0, 'flw0': 0.0, 'time': 8.53, 'compass': 57.03, 'pitch': -21.85, 'roll': -1.07}
{'lipoC2': 8.07, 'temp': 0.0, 'lipoC3S3': 12.7, 'state': 'normal', 'rot1': 0, 'rot0': 4, 'rot3': 0, 'rot2': 0, 'depth': -0.674, 'yaw': 25.1, 'datetime': '2018-12-12 10:32:37.770937', 'mgs': 0, 'flw2': 0.24, 'flw1': 0.0, 'flw0': 0.11, 'time': 8.74, 'compass': 57.73, 'pitch': -23.45, 'roll': -2.19}
{'lipoC2': 8.19, 'temp': 0.0, 'lipoC3S3': 12.25, 'state': 'normal', 'rot1': 0, 'rot0': 4, 'rot3': 0, 'rot2': 0, 'depth': 1.996, 'yaw': 26.14, 'datetime': '2018-12-12 10:32:37.979323', 'mgs': 0, 'flw2': 0.09, 'flw1': 0.0, 'flw0': 0.0, 'time': 8.95, 'compass': 58.76, 'pitch': -22.88, 'roll': -1.89}
{'lipoC2': 8.07, 'temp': 0.0, 'lipoC3S3': 12.67, 'state': 'normal', 'rot1': 0, 'rot0': 4, 'rot3': 0, 'rot2': 0, 'depth': -0.522, 'yaw': 26.06, 'datetime': '2018-12-12 10:32:38.187272', 'mgs': 0, 'flw2': 0.06, 'flw1': 0.0, 'flw0': 0.0, 'time': 9.15, 'compass': 58.69, 'pitch': -20.15, 'roll': -2.24}
{'lipoC2': 8.36, 'temp': 0.0, 'lipoC3S3': 12.37, 'state': 'normal', 'rot1': 0, 'rot0': 4, 'rot3': 0, 'rot2': 0, 'depth': 0.851, 'yaw': 25.66, 'datetime': '2018-12-12 10:32:38.396921', 'mgs': 0, 'flw2': 0.31, 'flw1': 0.0, 'flw0': 0.0, 'time': 9.36, 'compass': 58.28, 'pitch': -15.52, 'roll': -2.26}
{'lipoC2': 8.21, 'temp': 0.0, 'lipoC3S3': 12.26, 'state': 'normal', 'rot1': 0, 'rot0': 4, 'rot3': 0, 'rot2': 0, 'depth': 2.225, 'yaw': 24.98, 'datetime': '2018-12-12 10:32:38.605190', 'mgs': 0, 'flw2': 0.0, 'flw1': 0.67, 'flw0': 0.0, 'time': 9.57, 'compass': 57.6, 'pitch': -12.67, 'roll': -2.08}
{'lipoC2': 8.16, 'temp': 0.0, 'lipoC3S3': 12.52, 'state': 'normal', 'rot1': 0, 'rot0': 4, 'rot3': 0, 'rot2': 0, 'depth': 2.301, 'yaw': 24.38, 'datetime': '2018-12-12 10:32:38.812344', 'mgs': 0, 'flw2': 0.0, 'flw1': 0.67, 'flw0': 0.0, 'time': 9.78, 'compass': 57.0, 'pitch': -10.94, 'roll': -1.43}
{'lipoC2': 8.1, 'temp': 0.0, 'lipoC3S3': 12.64, 'state': 'normal', 'rot1': 0, 'rot0': 4, 'rot3': 0, 'rot2': 0, 'depth': -0.674, 'yaw': 23.92, 'datetime': '2018-12-12 10:32:39.020711', 'mgs': 0, 'flw2': 0.01, 'flw1': 0.0, 'flw0': 0.0, 'time': 9.99, 'compass': 56.55, 'pitch': -8.74, 'roll': -0.41}
{'lipoC2': 8.2, 'temp': 0.0, 'lipoC3S3': 12.48, 'state': 'normal', 'rot1': 0, 'rot0': 4, 'rot3': 0, 'rot2': 0, 'depth': -1.056, 'yaw': 23.6, 'datetime': '2018-12-12 10:32:39.229081', 'mgs': 0, 'flw2': 0.0, 'flw1': 0.0, 'flw0': 0.16, 'time': 10.19, 'compass': 56.23, 'pitch': -6.38, 'roll': 0.69}
{'lipoC2': 8.19, 'temp': 0.0, 'lipoC3S3': 12.22, 'state': 'normal', 'rot1': 2, 'rot0': 4, 'rot3': 0, 'rot2': 0, 'depth': -1.056, 'yaw': 22.6, 'datetime': '2018-12-12 10:32:39.437421', 'mgs': 0, 'flw2': 0.0, 'flw1': 0.0, 'flw0': 3.49, 'time': 10.4, 'compass': 55.23, 'pitch': -4.81, 'roll': 1.01}
{'lipoC2': 8.2, 'temp': 0.0, 'lipoC3S3': 12.43, 'state': 'normal', 'rot1': 5, 'rot0': 4, 'rot3': 0, 'rot2': 0, 'depth': -0.98, 'yaw': 18.16, 'datetime': '2018-12-12 10:32:39.645675', 'mgs': 0, 'flw2': 0.0, 'flw1': 0.0, 'flw0': 3.44, 'time': 10.61, 'compass': 50.79, 'pitch': -2.83, 'roll': -0.02}
{'lipoC2': 8.36, 'temp': 0.0, 'lipoC3S3': 12.26, 'state': 'normal', 'rot1': 8, 'rot0': 4, 'rot3': 0, 'rot2': 0, 'depth': 1.233, 'yaw': 11.35, 'datetime': '2018-12-12 10:32:39.855621', 'mgs': 0, 'flw2': 0.0, 'flw1': 0.7, 'flw0': 3.3, 'time': 10.82, 'compass': 43.97, 'pitch': -0.95, 'roll': -1.16}
{'lipoC2': 8.13, 'temp': 0.0, 'lipoC3S3': 12.51, 'state': 'normal', 'rot1': 11, 'rot0': 4, 'rot3': 0, 'rot2': 0, 'depth': -0.293, 'yaw': 3.51, 'datetime': '2018-12-12 10:32:40.062854', 'mgs': 0, 'flw2': 0.0, 'flw1': 0.53, 'flw0': 3.43, 'time': 11.03, 'compass': 36.14, 'pitch': 0.09, 'roll': -2.04}
{'lipoC2': 8.2, 'temp': 0.0, 'lipoC3S3': 12.14, 'state': 'normal', 'rot1': 14, 'rot0': 5, 'rot3': 0, 'rot2': 0, 'depth': 0.775, 'yaw': -5.64, 'datetime': '2018-12-12 10:32:40.271555', 'mgs': 0, 'flw2': 4.5, 'flw1': 0.0, 'flw0': 3.08, 'time': 11.23, 'compass': 26.98, 'pitch': 1.66, 'roll': -3.0}
{'lipoC2': 8.23, 'temp': 0.0, 'lipoC3S3': 12.26, 'state': 'normal', 'rot1': 17, 'rot0': 8, 'rot3': 0, 'rot2': 0, 'depth': -0.827, 'yaw': -12.17, 'datetime': '2018-12-12 10:32:40.479131', 'mgs': 0, 'flw2': 4.53, 'flw1': 0.0, 'flw0': 2.78, 'time': 11.44, 'compass': 20.45, 'pitch': 5.22, 'roll': -3.36}
{'lipoC2': 8.11, 'temp': 0.0, 'lipoC3S3': 12.01, 'state': 'normal', 'rot1': 20, 'rot0': 11, 'rot3': 0, 'rot2': 0, 'depth': 1.462, 'yaw': -15.32, 'datetime': '2018-12-12 10:32:40.689371', 'mgs': 0, 'flw2': 6.09, 'flw1': 0.0, 'flw0': 2.62, 'time': 11.65, 'compass': 17.3, 'pitch': 8.58, 'roll': -3.33}
{'lipoC2': 8.12, 'temp': 0.0, 'lipoC3S3': 12.1, 'state': 'normal', 'rot1': 22, 'rot0': 15, 'rot3': 0, 'rot2': 0, 'depth': 0.851, 'yaw': -15.76, 'datetime': '2018-12-12 10:32:40.898364', 'mgs': 0, 'flw2': 8.54, 'flw1': 0.0, 'flw0': 2.47, 'time': 11.86, 'compass': 16.87, 'pitch': 10.58, 'roll': -3.53}
{'lipoC2': 8.11, 'temp': 0.0, 'lipoC3S3': 12.08, 'state': 'normal', 'rot1': 25, 'rot0': 19, 'rot3': 0, 'rot2': 0, 'depth': 2.606, 'yaw': -13.49, 'datetime': '2018-12-12 10:32:41.108832', 'mgs': 0, 'flw2': 9.51, 'flw1': 0.0, 'flw0': 1.46, 'time': 12.07, 'compass': 19.14, 'pitch': 11.07, 'roll': -3.88}
{'lipoC2': 8.12, 'temp': 0.0, 'lipoC3S3': 12.17, 'state': 'normal', 'rot1': 26, 'rot0': 22, 'rot3': 0, 'rot2': 0, 'depth': 0.012, 'yaw': -8.22, 'datetime': '2018-12-12 10:32:41.316874', 'mgs': 0, 'flw2': 0.87, 'flw1': 0.26, 'flw0': 0.0, 'time': 12.28, 'compass': 24.41, 'pitch': 10.18, 'roll': -3.72}
{'lipoC2': 8.28, 'temp': 0.0, 'lipoC3S3': 12.39, 'state': 'normal', 'rot1': 26, 'rot0': 23, 'rot3': 0, 'rot2': 0, 'depth': -0.903, 'yaw': -2.3, 'datetime': '2018-12-12 10:32:41.525934', 'mgs': 0, 'flw2': 0.33, 'flw1': 0.0, 'flw0': 0.0, 'time': 12.49, 'compass': 30.32, 'pitch': 6.37, 'roll': -2.99}
{'lipoC2': 8.23, 'temp': 0.0, 'lipoC3S3': 12.26, 'state': 'normal', 'rot1': 26, 'rot0': 23, 'rot3': 0, 'rot2': 0, 'depth': 2.53, 'yaw': 1.34, 'datetime': '2018-12-12 10:32:41.733514', 'mgs': 0, 'flw2': 0.21, 'flw1': 0.0, 'flw0': 0.0, 'time': 12.69, 'compass': 33.97, 'pitch': 1.61, 'roll': -1.91}
{'lipoC2': 8.12, 'temp': 0.0, 'lipoC3S3': 12.19, 'state': 'normal', 'rot1': 26, 'rot0': 23, 'rot3': 0, 'rot2': 0, 'depth': -0.064, 'yaw': 4.03, 'datetime': '2018-12-12 10:32:41.942921', 'mgs': 0, 'flw2': 0.0, 'flw1': 0.35, 'flw0': 0.0, 'time': 12.9, 'compass': 36.66, 'pitch': -1.6, 'roll': -0.97}
{'lipoC2': 8.13, 'temp': 0.0, 'lipoC3S3': 12.51, 'state': 'normal', 'rot1': 26, 'rot0': 23, 'rot3': 0, 'rot2': 0, 'depth': -0.674, 'yaw': 6.05, 'datetime': '2018-12-12 10:32:42.152359', 'mgs': 0, 'flw2': 0.09, 'flw1': 0.03, 'flw0': 0.2, 'time': 13.11, 'compass': 38.68, 'pitch': -3.78, 'roll': -0.28}
{'lipoC2': 8.13, 'temp': 0.0, 'lipoC3S3': 12.5, 'state': 'normal', 'rot1': 26, 'rot0': 23, 'rot3': 0, 'rot2': 0, 'depth': -0.598, 'yaw': 7.72, 'datetime': '2018-12-12 10:32:42.361820', 'mgs': 0, 'flw2': 0.1, 'flw1': 0.88, 'flw0': 0.18, 'time': 13.32, 'compass': 40.34, 'pitch': -6.58, 'roll': 0.34}
{'lipoC2': 8.07, 'temp': 0.0, 'lipoC3S3': 12.63, 'state': 'normal', 'rot1': 26, 'rot0': 23, 'rot3': 1, 'rot2': 1, 'depth': 0.928, 'yaw': 9.16, 'datetime': '2018-12-12 10:32:42.571896', 'mgs': 0, 'flw2': 0.04, 'flw1': 3.02, 'flw0': 0.07, 'time': 13.53, 'compass': 41.78, 'pitch': -9.3, 'roll': 0.65}
{'lipoC2': 8.21, 'temp': 0.0, 'lipoC3S3': 12.22, 'state': 'normal', 'rot1': 26, 'rot0': 23, 'rot3': 2, 'rot2': 2, 'depth': 2.454, 'yaw': 10.29, 'datetime': '2018-12-12 10:32:42.779460', 'mgs': 0, 'flw2': 0.26, 'flw1': 4.07, 'flw0': 0.0, 'time': 13.74, 'compass': 42.91, 'pitch': -9.97, 'roll': 0.47}
{'lipoC2': 8.23, 'temp': 0.0, 'lipoC3S3': 12.38, 'state': 'normal', 'rot1': 26, 'rot0': 23, 'rot3': 3, 'rot2': 3, 'depth': -0.598, 'yaw': 11.24, 'datetime': '2018-12-12 10:32:42.997632', 'mgs': 0, 'flw2': 0.18, 'flw1': 6.77, 'flw0': 0.27, 'time': 13.95, 'compass': 43.87, 'pitch': -8.52, 'roll': 0.09}
{'lipoC2': 8.35, 'temp': 0.0, 'lipoC3S3': 12.29, 'state': 'normal', 'rot1': 26, 'rot0': 23, 'rot3': 4, 'rot2': 5, 'depth': -0.522, 'yaw': 11.81, 'datetime': '2018-12-12 10:32:43.199680', 'mgs': 0, 'flw2': 0.0, 'flw1': 7.73, 'flw0': 0.0, 'time': 14.16, 'compass': 44.44, 'pitch': -5.9, 'roll': -0.6}
{'lipoC2': 8.12, 'temp': 0.0, 'lipoC3S3': 12.41, 'state': 'normal', 'rot1': 26, 'rot0': 23, 'rot3': 5, 'rot2': 6, 'depth': -0.522, 'yaw': 11.81, 'datetime': '2018-12-12 10:32:43.416542', 'mgs': 0, 'flw2': 0.12, 'flw1': 9.32, 'flw0': 0.17, 'time': 14.36, 'compass': 44.44, 'pitch': -3.14, 'roll': -2.02}
{'lipoC2': 8.22, 'temp': 0.0, 'lipoC3S3': 12.17, 'state': 'normal', 'rot1': 26, 'rot0': 23, 'rot3': 6, 'rot2': 8, 'depth': -0.064, 'yaw': 11.37, 'datetime': '2018-12-12 10:32:43.622917', 'mgs': 0, 'flw2': 0.0, 'flw1': 7.85, 'flw0': 0.0, 'time': 14.57, 'compass': 44.0, 'pitch': -0.6, 'roll': -3.27}
{'lipoC2': 8.24, 'temp': 0.0, 'lipoC3S3': 12.18, 'state': 'normal', 'rot1': 26, 'rot0': 23, 'rot3': 8, 'rot2': 10, 'depth': -0.217, 'yaw': 10.92, 'datetime': '2018-12-12 10:32:43.832176', 'mgs': 0, 'flw2': 0.31, 'flw1': 6.56, 'flw0': 0.0, 'time': 14.78, 'compass': 43.55, 'pitch': 1.27, 'roll': -3.42}
{'lipoC2': 8.1, 'temp': 0.0, 'lipoC3S3': 12.56, 'state': 'normal', 'rot1': 26, 'rot0': 23, 'rot3': 10, 'rot2': 12, 'depth': -0.293, 'yaw': 10.44, 'datetime': '2018-12-12 10:32:44.039371', 'mgs': 0, 'flw2': 0.31, 'flw1': 5.51, 'flw0': 0.26, 'time': 14.99, 'compass': 43.06, 'pitch': 2.28, 'roll': -3.26}
{'lipoC2': 8.25, 'temp': 0.0, 'lipoC3S3': 12.23, 'state': 'normal', 'rot1': 26, 'rot0': 23, 'rot3': 12, 'rot2': 14, 'depth': -0.369, 'yaw': 9.86, 'datetime': '2018-12-12 10:32:44.248397', 'mgs': 0, 'flw2': 0.28, 'flw1': 4.25, 'flw0': 0.0, 'time': 15.2, 'compass': 42.49, 'pitch': 1.8, 'roll': -3.08}
{'lipoC2': 8.27, 'temp': 0.0, 'lipoC3S3': 12.25, 'state': 'normal', 'rot1': 26, 'rot0': 23, 'rot3': 13, 'rot2': 16, 'depth': 2.072, 'yaw': 9.27, 'datetime': '2018-12-12 10:32:44.458036', 'mgs': 0, 'flw2': 0.2, 'flw1': 4.01, 'flw0': 0.0, 'time': 15.41, 'compass': 41.9, 'pitch': -0.05, 'roll': -2.9}
{'lipoC2': 8.39, 'temp': 0.0, 'lipoC3S3': 12.56, 'state': 'normal', 'rot1': 26, 'rot0': 23, 'rot3': 15, 'rot2': 18, 'depth': -0.98, 'yaw': 8.66, 'datetime': '2018-12-12 10:32:44.672984', 'mgs': 0, 'flw2': 0.31, 'flw1': 4.48, 'flw0': 0.29, 'time': 15.62, 'compass': 41.28, 'pitch': -1.88, 'roll': -2.85}
{'lipoC2': 8.4, 'temp': 0.0, 'lipoC3S3': 12.23, 'state': 'normal', 'rot1': 26, 'rot0': 23, 'rot3': 16, 'rot2': 19, 'depth': -0.674, 'yaw': 7.95, 'datetime': '2018-12-12 10:32:44.881567', 'mgs': 0, 'flw2': 0.09, 'flw1': 3.6, 'flw0': 0.07, 'time': 15.83, 'compass': 40.58, 'pitch': -2.1, 'roll': -2.52}
{'lipoC2': 8.25, 'temp': 0.0, 'lipoC3S3': 12.27, 'state': 'normal', 'rot1': 26, 'rot0': 23, 'rot3': 17, 'rot2': 21, 'depth': 2.072, 'yaw': 7.25, 'datetime': '2018-12-12 10:32:45.093094', 'mgs': 0, 'flw2': 0.0, 'flw1': 3.13, 'flw0': 0.0, 'time': 16.04, 'compass': 39.88, 'pitch': -1.81, 'roll': -2.07}
{'lipoC2': 8.12, 'temp': 0.0, 'lipoC3S3': 12.63, 'state': 'normal', 'rot1': 26, 'rot0': 23, 'rot3': 17, 'rot2': 22, 'depth': -1.514, 'yaw': 6.53, 'datetime': '2018-12-12 10:32:45.300717', 'mgs': 0, 'flw2': 0.0, 'flw1': 3.54, 'flw0': 0.0, 'time': 16.25, 'compass': 39.15, 'pitch': -2.77, 'roll': -1.71}
{'lipoC2': 8.14, 'temp': 0.0, 'lipoC3S3': 12.48, 'state': 'normal', 'rot1': 26, 'rot0': 23, 'rot3': 18, 'rot2': 23, 'depth': -0.827, 'yaw': 5.8, 'datetime': '2018-12-12 10:32:45.509332', 'mgs': 0, 'flw2': 0.11, 'flw1': 0.38, 'flw0': 0.0, 'time': 16.46, 'compass': 38.42, 'pitch': -4.15, 'roll': -1.7}
{'lipoC2': 8.15, 'temp': 0.0, 'lipoC3S3': 12.13, 'state': 'normal', 'rot1': 26, 'rot0': 23, 'rot3': 19, 'rot2': 23, 'depth': -0.369, 'yaw': 4.95, 'datetime': '2018-12-12 10:32:45.720102', 'mgs': 0, 'flw2': 0.17, 'flw1': 0.73, 'flw0': 0.13, 'time': 16.67, 'compass': 37.58, 'pitch': -4.72, 'roll': -1.77}
{'lipoC2': 8.08, 'temp': 0.0, 'lipoC3S3': 12.59, 'state': 'normal', 'rot1': 26, 'rot0': 23, 'rot3': 19, 'rot2': 24, 'depth': -0.293, 'yaw': 4.15, 'datetime': '2018-12-12 10:32:45.931852', 'mgs': 0, 'flw2': 0.04, 'flw1': 0.03, 'flw0': 0.1, 'time': 16.88, 'compass': 36.78, 'pitch': -3.99, 'roll': -1.65}
{'lipoC2': 8.1, 'temp': 0.0, 'lipoC3S3': 12.67, 'state': 'normal', 'rot1': 26, 'rot0': 23, 'rot3': 19, 'rot2': 24, 'depth': -0.674, 'yaw': 3.38, 'datetime': '2018-12-12 10:32:46.141845', 'mgs': 0, 'flw2': 0.12, 'flw1': 0.0, 'flw0': 0.24, 'time': 17.09, 'compass': 36.01, 'pitch': -3.22, 'roll': -1.29}
{'lipoC2': 8.22, 'temp': 0.0, 'lipoC3S3': 12.21, 'state': 'normal', 'rot1': 26, 'rot0': 24, 'rot3': 20, 'rot2': 24, 'depth': -0.369, 'yaw': 2.89, 'datetime': '2018-12-12 10:32:46.359102', 'mgs': 0, 'flw2': 6.35, 'flw1': 0.0, 'flw0': 0.0, 'time': 17.3, 'compass': 35.52, 'pitch': -3.01, 'roll': -0.72}
{'lipoC2': 8.14, 'temp': 0.0, 'lipoC3S3': 12.45, 'state': 'normal', 'rot1': 26, 'rot0': 27, 'rot3': 20, 'rot2': 25, 'depth': -0.522, 'yaw': 6.01, 'datetime': '2018-12-12 10:32:46.565830', 'mgs': 0, 'flw2': 0.52, 'flw1': 0.15, 'flw0': 0.28, 'time': 17.51, 'compass': 38.64, 'pitch': -0.97, 'roll': 0.63}
{'lipoC2': 8.2, 'temp': 0.0, 'lipoC3S3': 12.22, 'state': 'normal', 'rot1': 26, 'rot0': 28, 'rot3': 20, 'rot2': 25, 'depth': -0.14, 'yaw': 12.05, 'datetime': '2018-12-12 10:32:46.873037', 'mgs': 0, 'flw2': 0.0, 'flw1': 1.03, 'flw0': 0.0, 'time': 17.83, 'compass': 44.68, 'pitch': 0.57, 'roll': 1.36}
{'lipoC2': 8.4, 'temp': 0.0, 'lipoC3S3': 12.29, 'state': 'normal', 'rot1': 26, 'rot0': 28, 'rot3': 21, 'rot2': 25, 'depth': -0.598, 'yaw': 15.43, 'datetime': '2018-12-12 10:32:47.083150', 'mgs': 0, 'flw2': 0.0, 'flw1': 2.34, 'flw0': 0.0, 'time': 18.04, 'compass': 48.05, 'pitch': 0.64, 'roll': 0.82}
{'lipoC2': 8.11, 'temp': 0.0, 'lipoC3S3': 12.21, 'state': 'normal', 'rot1': 26, 'rot0': 28, 'rot3': 21, 'rot2': 26, 'depth': -0.14, 'yaw': 18.05, 'datetime': '2018-12-12 10:32:47.293653', 'mgs': 0, 'flw2': 0.0, 'flw1': 3.16, 'flw0': 0.0, 'time': 18.25, 'compass': 50.67, 'pitch': 0.77, 'roll': 0.22}
{'lipoC2': 8.36, 'temp': 0.0, 'lipoC3S3': 12.29, 'state': 'normal', 'rot1': 26, 'rot0': 28, 'rot3': 22, 'rot2': 27, 'depth': 0.165, 'yaw': 19.94, 'datetime': '2018-12-12 10:32:47.503751', 'mgs': 0, 'flw2': 0.26, 'flw1': 3.75, 'flw0': 0.0, 'time': 18.45, 'compass': 52.57, 'pitch': 0.12, 'roll': -0.51}
{'lipoC2': 8.12, 'temp': 0.0, 'lipoC3S3': 12.16, 'state': 'normal', 'rot1': 26, 'rot0': 29, 'rot3': 23, 'rot2': 29, 'depth': -0.064, 'yaw': 21.24, 'datetime': '2018-12-12 10:32:47.712747', 'mgs': 0, 'flw2': 0.65, 'flw1': 5.27, 'flw0': 0.04, 'time': 18.67, 'compass': 53.87, 'pitch': -1.1, 'roll': -1.72}
{'lipoC2': 8.12, 'temp': 0.0, 'lipoC3S3': 12.21, 'state': 'normal', 'rot1': 26, 'rot0': 30, 'rot3': 24, 'rot2': 30, 'depth': 1.157, 'yaw': 22.71, 'datetime': '2018-12-12 10:32:47.922544', 'mgs': 0, 'flw2': 1.53, 'flw1': 4.89, 'flw0': 0.0, 'time': 18.87, 'compass': 55.34, 'pitch': -1.48, 'roll': -2.8}
{'lipoC2': 8.14, 'temp': 0.0, 'lipoC3S3': 12.13, 'state': 'normal', 'rot1': 26, 'rot0': 32, 'rot3': 25, 'rot2': 31, 'depth': 0.47, 'yaw': 25.48, 'datetime': '2018-12-12 10:32:48.133572', 'mgs': 0, 'flw2': 2.55, 'flw1': 4.72, 'flw0': 0.0, 'time': 19.08, 'compass': 58.11, 'pitch': -0.55, 'roll': -2.93}
{'lipoC2': 8.16, 'temp': 0.0, 'lipoC3S3': 12.08, 'state': 'normal', 'rot1': 26, 'rot0': 35, 'rot3': 26, 'rot2': 33, 'depth': -0.14, 'yaw': 29.75, 'datetime': '2018-12-12 10:32:48.345808', 'mgs': 0, 'flw2': 2.39, 'flw1': 5.1, 'flw0': 0.0, 'time': 19.3, 'compass': 62.37, 'pitch': 0.53, 'roll': -1.97}
{'lipoC2': 8.17, 'temp': 0.0, 'lipoC3S3': 12.35, 'state': 'normal', 'rot1': 26, 'rot0': 37, 'rot3': 27, 'rot2': 34, 'depth': 0.089, 'yaw': 35.81, 'datetime': '2018-12-12 10:32:48.556152', 'mgs': 0, 'flw2': 2.66, 'flw1': 4.92, 'flw0': 0.27, 'time': 19.51, 'compass': 68.44, 'pitch': 1.12, 'roll': -0.38}
{'lipoC2': 8.11, 'temp': 0.0, 'lipoC3S3': 12.13, 'state': 'normal', 'rot1': 26, 'rot0': 38, 'rot3': 28, 'rot2': 36, 'depth': 0.241, 'yaw': 42.28, 'datetime': '2018-12-12 10:32:48.764259', 'mgs': 0, 'flw2': 0.01, 'flw1': 4.22, 'flw0': 0.11, 'time': 19.72, 'compass': 74.91, 'pitch': 1.1, 'roll': 0.31}
{'lipoC2': 8.13, 'temp': 0.0, 'lipoC3S3': 12.47, 'state': 'normal', 'rot1': 26, 'rot0': 38, 'rot3': 29, 'rot2': 37, 'depth': -0.293, 'yaw': 47.9, 'datetime': '2018-12-12 10:32:48.973766', 'mgs': 0, 'flw2': 0.18, 'flw1': 3.75, 'flw0': 0.0, 'time': 19.92, 'compass': 80.53, 'pitch': -0.04, 'roll': -0.27}
{'lipoC2': 8.11, 'temp': 0.0, 'lipoC3S3': 12.12, 'state': 'normal', 'rot1': 26, 'rot0': 38, 'rot3': 30, 'rot2': 39, 'depth': 1.385, 'yaw': 52.63, 'datetime': '2018-12-12 10:32:49.185753', 'mgs': 0, 'flw2': 0.0, 'flw1': 4.01, 'flw0': 0.05, 'time': 20.13, 'compass': 85.25, 'pitch': -0.79, 'roll': -1.11}
{'lipoC2': 8.12, 'temp': 0.0, 'lipoC3S3': 12.17, 'state': 'normal', 'rot1': 26, 'rot0': 38, 'rot3': 31, 'rot2': 40, 'depth': 0.699, 'yaw': 56.78, 'datetime': '2018-12-12 10:32:49.393986', 'mgs': 0, 'flw2': 0.12, 'flw1': 4.19, 'flw0': 0.21, 'time': 20.34, 'compass': 89.41, 'pitch': -1.28, 'roll': -1.31}
{'lipoC2': 8.06, 'temp': 0.0, 'lipoC3S3': 12.3, 'state': 'normal', 'rot1': 26, 'rot0': 38, 'rot3': 32, 'rot2': 42, 'depth': -0.446, 'yaw': 60.48, 'datetime': '2018-12-12 10:32:49.603269', 'mgs': 0, 'flw2': 0.0, 'flw1': 5.1, 'flw0': 0.0, 'time': 20.55, 'compass': 93.11, 'pitch': -2.08, 'roll': -0.58}
{'lipoC2': 8.08, 'temp': 0.0, 'lipoC3S3': 12.63, 'state': 'normal', 'rot1': 26, 'rot0': 38, 'rot3': 33, 'rot2': 43, 'depth': 0.623, 'yaw': 63.74, 'datetime': '2018-12-12 10:32:49.815769', 'mgs': 0, 'flw2': 0.0, 'flw1': 5.27, 'flw0': 0.0, 'time': 20.76, 'compass': 96.37, 'pitch': -3.11, 'roll': 0.22}
{'lipoC2': 8.38, 'temp': 0.0, 'lipoC3S3': 12.26, 'state': 'normal', 'rot1': 26, 'rot0': 38, 'rot3': 34, 'rot2': 45, 'depth': -0.369, 'yaw': 66.61, 'datetime': '2018-12-12 10:32:50.027093', 'mgs': 0, 'flw2': 0.0, 'flw1': 4.72, 'flw0': 0.0, 'time': 20.97, 'compass': 99.24, 'pitch': -4.09, 'roll': 0.49}
{'lipoC2': 8.41, 'temp': 0.0, 'lipoC3S3': 12.25, 'state': 'normal', 'rot1': 26, 'rot0': 38, 'rot3': 35, 'rot2': 46, 'depth': 0.394, 'yaw': 69.05, 'datetime': '2018-12-12 10:32:50.236118', 'mgs': 0, 'flw2': 0.24, 'flw1': 3.75, 'flw0': 0.18, 'time': 21.18, 'compass': 101.68, 'pitch': -4.56, 'roll': 0.41}
{'lipoC2': 8.34, 'temp': 0.0, 'lipoC3S3': 12.27, 'state': 'normal', 'rot1': 26, 'rot0': 38, 'rot3': 37, 'rot2': 48, 'depth': -0.369, 'yaw': 71.37, 'datetime': '2018-12-12 10:32:50.442807', 'mgs': 0, 'flw2': 0.0, 'flw1': 4.86, 'flw0': 0.0, 'time': 21.39, 'compass': 104.0, 'pitch': -3.91, 'roll': 0.35}
{'lipoC2': 8.39, 'temp': 0.0, 'lipoC3S3': 12.3, 'state': 'normal', 'rot1': 26, 'rot0': 38, 'rot3': 38, 'rot2': 49, 'depth': 0.241, 'yaw': 73.44, 'datetime': '2018-12-12 10:32:50.654019', 'mgs': 0, 'flw2': 0.0, 'flw1': 4.6, 'flw0': 0.04, 'time': 21.6, 'compass': 106.06, 'pitch': -2.97, 'roll': 0.55}
{'lipoC2': 8.07, 'temp': 0.0, 'lipoC3S3': 12.66, 'state': 'normal', 'rot1': 26, 'rot0': 38, 'rot3': 39, 'rot2': 51, 'depth': -0.293, 'yaw': 75.3, 'datetime': '2018-12-12 10:32:50.864749', 'mgs': 0, 'flw2': 0.0, 'flw1': 5.3, 'flw0': 0.0, 'time': 21.81, 'compass': 107.93, 'pitch': -2.97, 'roll': 0.86}
{'lipoC2': 8.07, 'temp': 0.0, 'lipoC3S3': 12.14, 'state': 'normal', 'rot1': 26, 'rot0': 38, 'rot3': 40, 'rot2': 52, 'depth': -0.293, 'yaw': 76.98, 'datetime': '2018-12-12 10:32:51.073987', 'mgs': 0, 'flw2': 0.0, 'flw1': 5.13, 'flw0': 0.0, 'time': 22.02, 'compass': 109.61, 'pitch': -3.64, 'roll': 0.89}
{'lipoC2': 8.39, 'temp': 0.0, 'lipoC3S3': 12.26, 'state': 'normal', 'rot1': 26, 'rot0': 38, 'rot3': 41, 'rot2': 53, 'depth': -1.208, 'yaw': 78.5, 'datetime': '2018-12-12 10:32:51.284695', 'mgs': 0, 'flw2': 0.0, 'flw1': 4.57, 'flw0': 0.0, 'time': 22.23, 'compass': 111.13, 'pitch': -3.97, 'roll': 0.9}
{'lipoC2': 8.34, 'temp': 0.0, 'lipoC3S3': 12.26, 'state': 'normal', 'rot1': 26, 'rot0': 38, 'rot3': 42, 'rot2': 55, 'depth': 1.157, 'yaw': 79.92, 'datetime': '2018-12-12 10:32:51.493573', 'mgs': 0, 'flw2': 0.0, 'flw1': 5.16, 'flw0': 0.0, 'time': 22.44, 'compass': 112.55, 'pitch': -3.86, 'roll': 1.05}
{'lipoC2': 8.21, 'temp': 0.0, 'lipoC3S3': 12.31, 'state': 'normal', 'rot1': 26, 'rot0': 38, 'rot3': 43, 'rot2': 56, 'depth': -0.98, 'yaw': 81.2, 'datetime': '2018-12-12 10:32:51.704798', 'mgs': 0, 'flw2': 0.0, 'flw1': 3.78, 'flw0': 0.0, 'time': 22.65, 'compass': 113.82, 'pitch': -3.86, 'roll': 1.5}
{'lipoC2': 8.12, 'temp': 0.0, 'lipoC3S3': 12.14, 'state': 'normal', 'rot1': 26, 'rot0': 38, 'rot3': 44, 'rot2': 58, 'depth': 0.012, 'yaw': 82.39, 'datetime': '2018-12-12 10:32:51.916073', 'mgs': 0, 'flw2': 0.0, 'flw1': 4.42, 'flw0': 0.0, 'time': 22.86, 'compass': 115.02, 'pitch': -4.09, 'roll': 1.76}
{'lipoC2': 8.23, 'temp': 0.0, 'lipoC3S3': 12.35, 'state': 'normal', 'rot1': 26, 'rot0': 38, 'rot3': 45, 'rot2': 59, 'depth': -1.132, 'yaw': 83.54, 'datetime': '2018-12-12 10:32:52.125593', 'mgs': 0, 'flw2': 0.29, 'flw1': 4.22, 'flw0': 0.32, 'time': 23.07, 'compass': 116.16, 'pitch': -3.92, 'roll': 1.31}
{'lipoC2': 8.1, 'temp': 0.0, 'lipoC3S3': 12.58, 'state': 'normal', 'rot1': 26, 'rot0': 38, 'rot3': 45, 'rot2': 61, 'depth': -0.751, 'yaw': 84.6, 'datetime': '2018-12-12 10:32:52.336432', 'mgs': 0, 'flw2': 0.31, 'flw1': 3.84, 'flw0': 0.28, 'time': 23.28, 'compass': 117.23, 'pitch': -3.4, 'roll': 0.8}
{'lipoC2': 8.11, 'temp': 0.0, 'lipoC3S3': 12.19, 'state': 'normal', 'rot1': 26, 'rot0': 38, 'rot3': 46, 'rot2': 62, 'depth': 1.004, 'yaw': 85.56, 'datetime': '2018-12-12 10:32:52.545364', 'mgs': 0, 'flw2': 0.2, 'flw1': 4.22, 'flw0': 0.21, 'time': 23.49, 'compass': 118.19, 'pitch': -3.01, 'roll': 0.75}
{'lipoC2': 8.16, 'temp': 0.0, 'lipoC3S3': 12.14, 'state': 'normal', 'rot1': 26, 'rot0': 38, 'rot3': 47, 'rot2': 64, 'depth': -0.14, 'yaw': 86.51, 'datetime': '2018-12-12 10:32:52.756458', 'mgs': 0, 'flw2': 0.0, 'flw1': 4.66, 'flw0': 0.0, 'time': 23.7, 'compass': 119.14, 'pitch': -3.15, 'roll': 0.89}
{'lipoC2': 8.09, 'temp': 0.0, 'lipoC3S3': 12.63, 'state': 'normal', 'rot1': 26, 'rot0': 38, 'rot3': 48, 'rot2': 65, 'depth': -0.674, 'yaw': 87.46, 'datetime': '2018-12-12 10:32:52.966768', 'mgs': 0, 'flw2': 0.0, 'flw1': 4.37, 'flw0': 0.0, 'time': 23.91, 'compass': 120.09, 'pitch': -3.31, 'roll': 0.95}
{'lipoC2': 8.4, 'temp': 0.0, 'lipoC3S3': 12.23, 'state': 'normal', 'rot1': 26, 'rot0': 38, 'rot3': 49, 'rot2': 67, 'depth': 0.089, 'yaw': 88.38, 'datetime': '2018-12-12 10:32:53.177680', 'mgs': 0, 'flw2': 0.29, 'flw1': 2.34, 'flw0': 0.26, 'time': 24.12, 'compass': 121.01, 'pitch': -3.31, 'roll': 1.07}
{'lipoC2': 8.36, 'temp': 0.0, 'lipoC3S3': 12.3, 'state': 'normal', 'rot1': 26, 'rot0': 38, 'rot3': 50, 'rot2': 68, 'depth': -1.361, 'yaw': 89.23, 'datetime': '2018-12-12 10:32:53.387985', 'mgs': 0, 'flw2': 0.0, 'flw1': 1.26, 'flw0': 0.0, 'time': 24.33, 'compass': 121.86, 'pitch': -3.82, 'roll': 1.52}
{'lipoC2': 8.37, 'temp': 0.0, 'lipoC3S3': 12.33, 'state': 'normal', 'rot1': 26, 'rot0': 38, 'rot3': 51, 'rot2': 69, 'depth': -0.369, 'yaw': 90.06, 'datetime': '2018-12-12 10:32:53.595407', 'mgs': 0, 'flw2': 0.29, 'flw1': 0.76, 'flw0': 0.26, 'time': 24.54, 'compass': 122.69, 'pitch': -4.34, 'roll': 2.03}
{'lipoC2': 8.08, 'temp': 0.0, 'lipoC3S3': 12.23, 'state': 'normal', 'rot1': 26, 'rot0': 38, 'rot3': 51, 'rot2': 69, 'depth': -0.522, 'yaw': 90.86, 'datetime': '2018-12-12 10:32:53.808798', 'mgs': 0, 'flw2': 0.27, 'flw1': 0.0, 'flw0': 0.0, 'time': 24.75, 'compass': 123.49, 'pitch': -4.13, 'roll': 2.29}
{'lipoC2': 8.36, 'temp': 0.0, 'lipoC3S3': 12.33, 'state': 'normal', 'rot1': 26, 'rot0': 38, 'rot3': 51, 'rot2': 69, 'depth': -1.285, 'yaw': 91.67, 'datetime': '2018-12-12 10:32:54.018973', 'mgs': 0, 'flw2': 0.05, 'flw1': 0.0, 'flw0': 0.28, 'time': 24.96, 'compass': 124.29, 'pitch': -3.8, 'roll': 2.66}
{'lipoC2': 8.07, 'temp': 0.0, 'lipoC3S3': 12.68, 'state': 'normal', 'rot1': 26, 'rot0': 38, 'rot3': 51, 'rot2': 69, 'depth': 0.928, 'yaw': 92.44, 'datetime': '2018-12-12 10:32:54.226295', 'mgs': 0, 'flw2': 0.0, 'flw1': 1.08, 'flw0': 0.0, 'time': 25.17, 'compass': 125.07, 'pitch': -3.66, 'roll': 3.08}
{'lipoC2': 8.31, 'temp': 0.0, 'lipoC3S3': 12.34, 'state': 'normal', 'rot1': 26, 'rot0': 38, 'rot3': 51, 'rot2': 69, 'depth': 2.072, 'yaw': 93.18, 'datetime': '2018-12-12 10:32:54.438506', 'mgs': 0, 'flw2': 0.26, 'flw1': 0.15, 'flw0': 0.31, 'time': 25.38, 'compass': 125.8, 'pitch': -3.61, 'roll': 3.26}
{'lipoC2': 8.14, 'temp': 0.0, 'lipoC3S3': 12.17, 'state': 'normal', 'rot1': 26, 'rot0': 38, 'rot3': 51, 'rot2': 69, 'depth': 0.012, 'yaw': 93.87, 'datetime': '2018-12-12 10:32:54.648662', 'mgs': 0, 'flw2': 0.0, 'flw1': 1.38, 'flw0': 0.0, 'time': 25.59, 'compass': 126.5, 'pitch': -3.57, 'roll': 3.31}
{'lipoC2': 8.37, 'temp': 0.0, 'lipoC3S3': 12.25, 'state': 'normal', 'rot1': 26, 'rot0': 38, 'rot3': 52, 'rot2': 70, 'depth': -0.98, 'yaw': 94.58, 'datetime': '2018-12-12 10:32:54.857729', 'mgs': 0, 'flw2': 0.24, 'flw1': 1.55, 'flw0': 0.21, 'time': 25.8, 'compass': 127.21, 'pitch': -3.58, 'roll': 3.35}
{'lipoC2': 8.22, 'temp': 0.0, 'lipoC3S3': 12.43, 'state': 'normal', 'rot1': 26, 'rot0': 38, 'rot3': 53, 'rot2': 71, 'depth': 2.835, 'yaw': 95.31, 'datetime': '2018-12-12 10:32:55.067735', 'mgs': 0, 'flw2': 0.0, 'flw1': 3.98, 'flw0': 0.07, 'time': 26.01, 'compass': 127.93, 'pitch': -3.99, 'roll': 3.15}
{'lipoC2': 8.4, 'temp': 0.0, 'lipoC3S3': 12.19, 'state': 'normal', 'rot1': 26, 'rot0': 38, 'rot3': 54, 'rot2': 73, 'depth': -0.293, 'yaw': 96.01, 'datetime': '2018-12-12 10:32:55.276996', 'mgs': 0, 'flw2': 0.0, 'flw1': 5.24, 'flw0': 0.0, 'time': 26.22, 'compass': 128.64, 'pitch': -4.7, 'roll': 2.77}
{'lipoC2': 8.24, 'temp': 0.0, 'lipoC3S3': 12.19, 'state': 'normal', 'rot1': 26, 'rot0': 38, 'rot3': 55, 'rot2': 74, 'depth': 3.217, 'yaw': 96.69, 'datetime': '2018-12-12 10:32:55.488721', 'mgs': 0, 'flw2': 0.24, 'flw1': 6.56, 'flw0': 0.0, 'time': 26.43, 'compass': 129.31, 'pitch': -5.43, 'roll': 2.77}
{'lipoC2': 8.19, 'temp': 0.0, 'lipoC3S3': 12.41, 'state': 'normal', 'rot1': 26, 'rot0': 38, 'rot3': 56, 'rot2': 75, 'depth': 3.445, 'yaw': 97.46, 'datetime': '2018-12-12 10:32:55.698430', 'mgs': 0, 'flw2': 0.09, 'flw1': 8.03, 'flw0': 0.18, 'time': 26.64, 'compass': 130.09, 'pitch': -6.43, 'roll': 3.51}
{'lipoC2': 8.37, 'temp': 0.0, 'lipoC3S3': 12.18, 'state': 'normal', 'rot1': 26, 'rot0': 38, 'rot3': 58, 'rot2': 77, 'depth': 1.538, 'yaw': 98.24, 'datetime': '2018-12-12 10:32:55.907252', 'mgs': 0, 'flw2': 0.2, 'flw1': 10.69, 'flw0': 0.0, 'time': 26.85, 'compass': 130.86, 'pitch': -7.59, 'roll': 4.5}
{'lipoC2': 8.11, 'temp': 0.0, 'lipoC3S3': 12.6, 'state': 'normal', 'rot1': 26, 'rot0': 38, 'rot3': 60, 'rot2': 78, 'depth': 0.394, 'yaw': 99.04, 'datetime': '2018-12-12 10:32:56.115508', 'mgs': 0, 'flw2': 0.34, 'flw1': 11.37, 'flw0': 0.0, 'time': 27.06, 'compass': 131.67, 'pitch': -8.73, 'roll': 5.67}
{'lipoC2': 8.07, 'temp': 0.0, 'lipoC3S3': 12.51, 'state': 'normal', 'rot1': 26, 'rot0': 38, 'rot3': 61, 'rot2': 80, 'depth': 1.385, 'yaw': 99.87, 'datetime': '2018-12-12 10:32:56.330206', 'mgs': 0, 'flw2': 0.24, 'flw1': 10.96, 'flw0': 0.13, 'time': 27.27, 'compass': 132.5, 'pitch': -9.59, 'roll': 6.8}
{'lipoC2': 8.4, 'temp': 0.0, 'lipoC3S3': 12.19, 'state': 'normal', 'rot1': 26, 'rot0': 38, 'rot3': 63, 'rot2': 81, 'depth': 1.843, 'yaw': 100.84, 'datetime': '2018-12-12 10:32:56.538763', 'mgs': 0, 'flw2': 0.21, 'flw1': 10.17, 'flw0': 0.17, 'time': 27.48, 'compass': 133.47, 'pitch': -10.07, 'roll': 7.71}
{'lipoC2': 8.12, 'temp': 0.0, 'lipoC3S3': 12.02, 'state': 'normal', 'rot1': 26, 'rot0': 38, 'rot3': 65, 'rot2': 83, 'depth': 3.674, 'yaw': 101.88, 'datetime': '2018-12-12 10:32:56.751341', 'mgs': 0, 'flw2': 0.0, 'flw1': 10.81, 'flw0': 0.0, 'time': 27.69, 'compass': 134.51, 'pitch': -10.32, 'roll': 8.11}
{'lipoC2': 8.24, 'temp': 0.0, 'lipoC3S3': 12.12, 'state': 'normal', 'rot1': 26, 'rot0': 38, 'rot3': 67, 'rot2': 84, 'depth': 4.285, 'yaw': 103.05, 'datetime': '2018-12-12 10:32:56.958589', 'mgs': 0, 'flw2': 0.28, 'flw1': 11.16, 'flw0': 0.22, 'time': 27.9, 'compass': 135.68, 'pitch': -10.31, 'roll': 8.09}
{'lipoC2': 8.12, 'temp': 0.0, 'lipoC3S3': 12.14, 'state': 'normal', 'rot1': 26, 'rot0': 38, 'rot3': 69, 'rot2': 86, 'depth': 2.988, 'yaw': 104.3, 'datetime': '2018-12-12 10:32:57.168493', 'mgs': 0, 'flw2': 0.0, 'flw1': 11.02, 'flw0': 0.11, 'time': 28.1, 'compass': 136.92, 'pitch': -10.12, 'roll': 7.86}
{'lipoC2': 8.11, 'temp': 0.0, 'lipoC3S3': 12.04, 'state': 'normal', 'rot1': 26, 'rot0': 38, 'rot3': 70, 'rot2': 88, 'depth': 1.996, 'yaw': 105.7, 'datetime': '2018-12-12 10:32:57.379972', 'mgs': 0, 'flw2': 0.13, 'flw1': 10.58, 'flw0': 0.0, 'time': 28.31, 'compass': 138.33, 'pitch': -9.91, 'roll': 7.69}
{'lipoC2': 8.12, 'temp': 0.0, 'lipoC3S3': 12.05, 'state': 'normal', 'rot1': 26, 'rot0': 38, 'rot3': 72, 'rot2': 89, 'depth': 4.208, 'yaw': 107.06, 'datetime': '2018-12-12 10:32:57.588882', 'mgs': 0, 'flw2': 0.05, 'flw1': 10.49, 'flw0': 0.0, 'time': 28.52, 'compass': 139.68, 'pitch': -9.73, 'roll': 7.4}
{'lipoC2': 8.12, 'temp': 0.0, 'lipoC3S3': 12.01, 'state': 'normal', 'rot1': 26, 'rot0': 38, 'rot3': 74, 'rot2': 91, 'depth': 5.048, 'yaw': 108.29, 'datetime': '2018-12-12 10:32:57.798334', 'mgs': 0, 'flw2': 0.0, 'flw1': 10.4, 'flw0': 0.0, 'time': 28.73, 'compass': 140.92, 'pitch': -9.61, 'roll': 6.83}
{'lipoC2': 8.12, 'temp': 0.0, 'lipoC3S3': 12.43, 'state': 'normal', 'rot1': 26, 'rot0': 38, 'rot3': 76, 'rot2': 92, 'depth': 2.072, 'yaw': 109.31, 'datetime': '2018-12-12 10:32:58.008813', 'mgs': 0, 'flw2': 0.0, 'flw1': 10.75, 'flw0': 0.0, 'time': 28.94, 'compass': 141.94, 'pitch': -9.53, 'roll': 5.97}
{'lipoC2': 8.11, 'temp': 0.0, 'lipoC3S3': 12.05, 'state': 'normal', 'rot1': 26, 'rot0': 38, 'rot3': 78, 'rot2': 94, 'depth': 3.369, 'yaw': 110.2, 'datetime': '2018-12-12 10:32:58.216458', 'mgs': 0, 'flw2': 0.33, 'flw1': 11.37, 'flw0': 0.35, 'time': 29.15, 'compass': 142.83, 'pitch': -9.45, 'roll': 5.26}
{'lipoC2': 8.07, 'temp': 0.0, 'lipoC3S3': 12.5, 'state': 'normal', 'rot1': 26, 'rot0': 38, 'rot3': 80, 'rot2': 95, 'depth': 3.445, 'yaw': 111.05, 'datetime': '2018-12-12 10:32:58.426103', 'mgs': 0, 'flw2': 0.29, 'flw1': 10.28, 'flw0': 0.0, 'time': 29.36, 'compass': 143.68, 'pitch': -9.37, 'roll': 5.1}
{'lipoC2': 8.09, 'temp': 0.0, 'lipoC3S3': 12.56, 'state': 'normal', 'rot1': 26, 'rot0': 38, 'rot3': 81, 'rot2': 97, 'depth': 3.369, 'yaw': 111.84, 'datetime': '2018-12-12 10:32:58.636070', 'mgs': 0, 'flw2': 0.21, 'flw1': 10.96, 'flw0': 0.0, 'time': 29.57, 'compass': 144.46, 'pitch': -9.34, 'roll': 5.23}
{'lipoC2': 8.22, 'temp': 0.0, 'lipoC3S3': 12.26, 'state': 'normal', 'rot1': 26, 'rot0': 38, 'rot3': 83, 'rot2': 98, 'depth': 3.217, 'yaw': 112.63, 'datetime': '2018-12-12 10:32:58.848580', 'mgs': 0, 'flw2': 0.0, 'flw1': 12.07, 'flw0': 0.0, 'time': 29.78, 'compass': 145.25, 'pitch': -9.44, 'roll': 5.61}
{'lipoC2': 8.14, 'temp': 0.0, 'lipoC3S3': 12.02, 'state': 'normal', 'rot1': 26, 'rot0': 38, 'rot3': 85, 'rot2': 100, 'depth': 6.573, 'yaw': 113.39, 'datetime': '2018-12-12 10:32:59.065567', 'mgs': 0, 'flw2': 0.0, 'flw1': 11.4, 'flw0': 0.0, 'time': 29.99, 'compass': 146.02, 'pitch': -9.57, 'roll': 6.18}
{'lipoC2': 8.25, 'temp': 0.0, 'lipoC3S3': 12.1, 'state': 'normal', 'rot1': 26, 'rot0': 38, 'rot3': 87, 'rot2': 101, 'depth': 4.208, 'yaw': 114.11, 'datetime': '2018-12-12 10:32:59.271310', 'mgs': 0, 'flw2': 0.0, 'flw1': 11.87, 'flw0': 0.0, 'time': 30.2, 'compass': 146.74, 'pitch': -9.75, 'roll': 6.8}
{'lipoC2': 8.12, 'temp': 0.0, 'lipoC3S3': 12.14, 'state': 'normal', 'rot1': 26, 'rot0': 38, 'rot3': 89, 'rot2': 103, 'depth': 5.734, 'yaw': 114.8, 'datetime': '2018-12-12 10:32:59.483264', 'mgs': 0, 'flw2': 0.26, 'flw1': 8.38, 'flw0': 0.26, 'time': 30.41, 'compass': 147.43, 'pitch': -10.0, 'roll': 7.41}
{'lipoC2': 8.37, 'temp': 0.0, 'lipoC3S3': 12.21, 'state': 'normal', 'rot1': 26, 'rot0': 38, 'rot3': 90, 'rot2': 104, 'depth': 4.742, 'yaw': 115.44, 'datetime': '2018-12-12 10:32:59.692063', 'mgs': 0, 'flw2': 0.11, 'flw1': 6.77, 'flw0': 0.06, 'time': 30.62, 'compass': 148.06, 'pitch': -10.08, 'roll': 7.8}
{'lipoC2': 8.16, 'temp': 0.0, 'lipoC3S3': 12.41, 'state': 'normal', 'rot1': 26, 'rot0': 38, 'rot3': 92, 'rot2': 106, 'depth': 7.87, 'yaw': 115.96, 'datetime': '2018-12-12 10:32:59.908278', 'mgs': 0, 'flw2': 0.05, 'flw1': 5.45, 'flw0': 0.16, 'time': 30.83, 'compass': 148.59, 'pitch': -9.94, 'roll': 7.73}
{'lipoC2': 8.34, 'temp': 0.0, 'lipoC3S3': 12.25, 'state': 'normal', 'rot1': 26, 'rot0': 38, 'rot3': 93, 'rot2': 107, 'depth': 4.285, 'yaw': 116.5, 'datetime': '2018-12-12 10:33:00.116518', 'mgs': 0, 'flw2': 0.29, 'flw1': 3.34, 'flw0': 0.28, 'time': 31.04, 'compass': 149.13, 'pitch': -9.5, 'roll': 7.03}
{'lipoC2': 8.15, 'temp': 0.0, 'lipoC3S3': 12.42, 'state': 'normal', 'rot1': 26, 'rot0': 38, 'rot3': 94, 'rot2': 108, 'depth': 8.023, 'yaw': 117.0, 'datetime': '2018-12-12 10:33:00.326275', 'mgs': 0, 'flw2': 0.07, 'flw1': 2.31, 'flw0': 0.0, 'time': 31.25, 'compass': 149.62, 'pitch': -8.9, 'roll': 5.7}
{'lipoC2': 8.14, 'temp': 0.0, 'lipoC3S3': 12.31, 'state': 'normal', 'rot1': 26, 'rot0': 38, 'rot3': 95, 'rot2': 109, 'depth': 5.811, 'yaw': 117.34, 'datetime': '2018-12-12 10:33:00.533068', 'mgs': 0, 'flw2': 0.0, 'flw1': 1.61, 'flw0': 0.0, 'time': 31.46, 'compass': 149.97, 'pitch': -8.14, 'roll': 4.12}
{'lipoC2': 8.08, 'temp': 0.0, 'lipoC3S3': 12.58, 'state': 'normal', 'rot1': 26, 'rot0': 38, 'rot3': 95, 'rot2': 110, 'depth': 7.489, 'yaw': 117.55, 'datetime': '2018-12-12 10:33:00.746727', 'mgs': 0, 'flw2': 0.0, 'flw1': 0.0, 'flw0': 0.18, 'time': 31.67, 'compass': 150.18, 'pitch': -7.3, 'roll': 2.54}
{'lipoC2': 8.07, 'temp': 0.0, 'lipoC3S3': 12.63, 'state': 'normal', 'rot1': 26, 'rot0': 38, 'rot3': 96, 'rot2': 110, 'depth': 5.963, 'yaw': 118.57, 'datetime': '2018-12-12 10:33:00.956981', 'mgs': 0, 'flw2': 0.0, 'flw1': 0.64, 'flw0': 0.0, 'time': 31.88, 'compass': 151.19, 'pitch': -4.46, 'roll': 2.09}
{'lipoC2': 8.1, 'temp': 0.0, 'lipoC3S3': 12.64, 'state': 'normal', 'rot1': 26, 'rot0': 38, 'rot3': 96, 'rot2': 110, 'depth': 5.658, 'yaw': 119.16, 'datetime': '2018-12-12 10:33:01.167521', 'mgs': 0, 'flw2': 0.0, 'flw1': 1.05, 'flw0': 0.0, 'time': 32.09, 'compass': 151.79, 'pitch': -3.47, 'roll': 3.0}
{'lipoC2': 8.07, 'temp': 0.0, 'lipoC3S3': 12.64, 'state': 'normal', 'rot1': 26, 'rot0': 38, 'rot3': 96, 'rot2': 110, 'depth': 7.108, 'yaw': 119.63, 'datetime': '2018-12-12 10:33:01.378206', 'mgs': 0, 'flw2': 0.0, 'flw1': 0.76, 'flw0': 0.0, 'time': 32.3, 'compass': 152.26, 'pitch': -3.74, 'roll': 3.53}
{'lipoC2': 8.39, 'temp': 0.0, 'lipoC3S3': 12.31, 'state': 'normal', 'rot1': 26, 'rot0': 38, 'rot3': 96, 'rot2': 111, 'depth': 5.887, 'yaw': 120.03, 'datetime': '2018-12-12 10:33:01.584995', 'mgs': 0, 'flw2': 0.09, 'flw1': 0.0, 'flw0': 0.0, 'time': 32.51, 'compass': 152.65, 'pitch': -4.63, 'roll': 3.82}
{'lipoC2': 8.41, 'temp': 0.0, 'lipoC3S3': 12.29, 'state': 'normal', 'rot1': 26, 'rot0': 38, 'rot3': 96, 'rot2': 112, 'depth': 7.031, 'yaw': 120.39, 'datetime': '2018-12-12 10:33:01.789373', 'mgs': 0, 'flw2': 0.0, 'flw1': 1.0, 'flw0': 0.31, 'time': 32.72, 'compass': 153.01, 'pitch': -5.69, 'roll': 3.88}
{'lipoC2': 8.39, 'temp': 0.0, 'lipoC3S3': 12.3, 'state': 'normal', 'rot1': 26, 'rot0': 38, 'rot3': 96, 'rot2': 112, 'depth': 5.276, 'yaw': 120.75, 'datetime': '2018-12-12 10:33:01.999152', 'mgs': 0, 'flw2': 0.26, 'flw1': 1.76, 'flw0': 0.0, 'time': 32.93, 'compass': 153.38, 'pitch': -6.58, 'roll': 3.73}
{'lipoC2': 8.22, 'temp': 0.0, 'lipoC3S3': 12.29, 'state': 'normal', 'rot1': 26, 'rot0': 38, 'rot3': 97, 'rot2': 113, 'depth': 4.895, 'yaw': 121.14, 'datetime': '2018-12-12 10:33:02.210226', 'mgs': 0, 'flw2': 0.0, 'flw1': 2.81, 'flw0': 0.0, 'time': 33.14, 'compass': 153.77, 'pitch': -6.97, 'roll': 3.42}
{'lipoC2': 8.42, 'temp': 0.0, 'lipoC3S3': 12.23, 'state': 'normal', 'rot1': 26, 'rot0': 38, 'rot3': 98, 'rot2': 114, 'depth': 4.819, 'yaw': 121.48, 'datetime': '2018-12-12 10:33:02.425855', 'mgs': 0, 'flw2': 0.09, 'flw1': 5.21, 'flw0': 0.11, 'time': 33.35, 'compass': 154.1, 'pitch': -6.76, 'roll': 2.99}
{'lipoC2': 8.06, 'temp': 0.0, 'lipoC3S3': 12.23, 'state': 'normal', 'rot1': 26, 'rot0': 38, 'rot3': 99, 'rot2': 116, 'depth': 5.2, 'yaw': 121.67, 'datetime': '2018-12-12 10:33:02.635792', 'mgs': 0, 'flw2': 0.28, 'flw1': 6.04, 'flw0': 0.0, 'time': 33.56, 'compass': 154.3, 'pitch': -6.02, 'roll': 2.38}
{'lipoC2': 8.07, 'temp': 0.0, 'lipoC3S3': 12.51, 'state': 'normal', 'rot1': 26, 'rot0': 38, 'rot3': 100, 'rot2': 117, 'depth': 5.429, 'yaw': 121.72, 'datetime': '2018-12-12 10:33:02.846697', 'mgs': 0, 'flw2': 0.0, 'flw1': 7.12, 'flw0': 0.0, 'time': 33.77, 'compass': 154.35, 'pitch': -4.98, 'roll': 1.38}
{'lipoC2': 8.4, 'temp': 0.0, 'lipoC3S3': 12.16, 'state': 'normal', 'rot1': 26, 'rot0': 38, 'rot3': 101, 'rot2': 119, 'depth': 5.276, 'yaw': 121.61, 'datetime': '2018-12-12 10:33:03.056465', 'mgs': 0, 'flw2': 0.0, 'flw1': 12.36, 'flw0': 0.0, 'time': 33.98, 'compass': 154.23, 'pitch': -3.68, 'roll': -0.01}
{'lipoC2': 8.07, 'temp': 0.0, 'lipoC3S3': 12.02, 'state': 'normal', 'rot1': 26, 'rot0': 38, 'rot3': 102, 'rot2': 121, 'depth': 5.276, 'yaw': 121.42, 'datetime': '2018-12-12 10:33:03.266529', 'mgs': 0, 'flw2': 0.18, 'flw1': 10.87, 'flw0': 0.1, 'time': 34.19, 'compass': 154.04, 'pitch': -2.27, 'roll': -1.31}
{'lipoC2': 8.26, 'temp': 0.0, 'lipoC3S3': 12.23, 'state': 'normal', 'rot1': 26, 'rot0': 38, 'rot3': 104, 'rot2': 122, 'depth': 7.413, 'yaw': 121.22, 'datetime': '2018-12-12 10:33:03.477832', 'mgs': 0, 'flw2': 0.16, 'flw1': 10.93, 'flw0': 0.27, 'time': 34.4, 'compass': 153.85, 'pitch': -0.97, 'roll': -2.33}
{'lipoC2': 8.21, 'temp': 0.0, 'lipoC3S3': 12.29, 'state': 'normal', 'rot1': 26, 'rot0': 38, 'rot3': 105, 'rot2': 124, 'depth': 7.26, 'yaw': 120.96, 'datetime': '2018-12-12 10:33:03.688729', 'mgs': 0, 'flw2': 0.2, 'flw1': 10.52, 'flw0': 0.0, 'time': 34.61, 'compass': 153.58, 'pitch': 0.02, 'roll': -2.97}
{'lipoC2': 8.12, 'temp': 0.0, 'lipoC3S3': 12.01, 'state': 'normal', 'rot1': 26, 'rot0': 38, 'rot3': 106, 'rot2': 126, 'depth': 6.955, 'yaw': 120.84, 'datetime': '2018-12-12 10:33:03.898954', 'mgs': 0, 'flw2': 0.0, 'flw1': 10.61, 'flw0': 0.0, 'time': 34.82, 'compass': 153.47, 'pitch': 0.58, 'roll': -3.15}
{'lipoC2': 8.14, 'temp': 0.0, 'lipoC3S3': 12.02, 'state': 'normal', 'rot1': 26, 'rot0': 38, 'rot3': 108, 'rot2': 128, 'depth': 6.421, 'yaw': 120.96, 'datetime': '2018-12-12 10:33:04.108818', 'mgs': 0, 'flw2': 0.0, 'flw1': 11.69, 'flw0': 0.0, 'time': 35.03, 'compass': 153.58, 'pitch': 0.7, 'roll': -2.88}
{'lipoC2': 8.28, 'temp': 0.0, 'lipoC3S3': 12.17, 'state': 'normal', 'rot1': 26, 'rot0': 38, 'rot3': 109, 'rot2': 130, 'depth': 5.353, 'yaw': 121.08, 'datetime': '2018-12-12 10:33:04.320907', 'mgs': 0, 'flw2': 0.31, 'flw1': 10.99, 'flw0': 0.31, 'time': 35.24, 'compass': 153.71, 'pitch': 0.61, 'roll': -2.53}
{'lipoC2': 8.08, 'temp': 0.0, 'lipoC3S3': 12.5, 'state': 'normal', 'rot1': 26, 'rot0': 38, 'rot3': 110, 'rot2': 131, 'depth': 3.522, 'yaw': 121.11, 'datetime': '2018-12-12 10:33:04.526139', 'mgs': 0, 'flw2': 0.24, 'flw1': 10.87, 'flw0': 0.31, 'time': 35.45, 'compass': 153.74, 'pitch': 0.31, 'roll': -2.19}
{'lipoC2': 8.3, 'temp': 0.0, 'lipoC3S3': 12.17, 'state': 'normal', 'rot1': 26, 'rot0': 38, 'rot3': 112, 'rot2': 133, 'depth': 5.048, 'yaw': 121.19, 'datetime': '2018-12-12 10:33:04.737420', 'mgs': 0, 'flw2': 0.0, 'flw1': 11.16, 'flw0': 0.0, 'time': 35.66, 'compass': 153.82, 'pitch': -0.05, 'roll': -1.86}
{'lipoC2': 8.14, 'temp': 0.0, 'lipoC3S3': 12.06, 'state': 'normal', 'rot1': 26, 'rot0': 38, 'rot3': 113, 'rot2': 135, 'depth': 4.514, 'yaw': 121.42, 'datetime': '2018-12-12 10:33:04.948922', 'mgs': 0, 'flw2': 0.0, 'flw1': 11.37, 'flw0': 0.0, 'time': 35.87, 'compass': 154.04, 'pitch': -0.21, 'roll': -1.67}
{'lipoC2': 8.38, 'temp': 0.0, 'lipoC3S3': 12.17, 'state': 'normal', 'rot1': 26, 'rot0': 38, 'rot3': 114, 'rot2': 137, 'depth': 1.157, 'yaw': 121.67, 'datetime': '2018-12-12 10:33:05.159125', 'mgs': 0, 'flw2': 0.17, 'flw1': 10.58, 'flw0': 0.0, 'time': 36.08, 'compass': 154.29, 'pitch': -0.18, 'roll': -1.68}
{'lipoC2': 8.12, 'temp': 0.0, 'lipoC3S3': 12.34, 'state': 'normal', 'rot1': 26, 'rot0': 38, 'rot3': 116, 'rot2': 139, 'depth': 1.157, 'yaw': 122.07, 'datetime': '2018-12-12 10:33:05.369391', 'mgs': 0, 'flw2': 0.0, 'flw1': 10.63, 'flw0': 0.0, 'time': 36.29, 'compass': 154.7, 'pitch': 0.15, 'roll': -1.93}
{'lipoC2': 8.07, 'temp': 0.0, 'lipoC3S3': 12.5, 'state': 'normal', 'rot1': 26, 'rot0': 38, 'rot3': 117, 'rot2': 140, 'depth': 1.08, 'yaw': 122.37, 'datetime': '2018-12-12 10:33:05.580562', 'mgs': 0, 'flw2': 0.0, 'flw1': 11.25, 'flw0': 0.0, 'time': 36.51, 'compass': 155.0, 'pitch': 0.57, 'roll': -2.04}
{'lipoC2': 8.36, 'temp': 0.0, 'lipoC3S3': 12.17, 'state': 'normal', 'rot1': 26, 'rot0': 38, 'rot3': 119, 'rot2': 142, 'depth': 0.317, 'yaw': 122.47, 'datetime': '2018-12-12 10:33:05.790552', 'mgs': 0, 'flw2': 0.0, 'flw1': 10.78, 'flw0': 0.0, 'time': 36.72, 'compass': 155.09, 'pitch': 1.08, 'roll': -1.77}
{'lipoC2': 8.31, 'temp': 0.0, 'lipoC3S3': 12.21, 'state': 'normal', 'rot1': 26, 'rot0': 38, 'rot3': 120, 'rot2': 144, 'depth': -0.369, 'yaw': 122.24, 'datetime': '2018-12-12 10:33:06.001831', 'mgs': 0, 'flw2': 0.0, 'flw1': 7.27, 'flw0': 0.0, 'time': 36.93, 'compass': 154.87, 'pitch': 1.0, 'roll': -0.82}
{'lipoC2': 8.1, 'temp': 0.0, 'lipoC3S3': 12.54, 'state': 'normal', 'rot1': 26, 'rot0': 38, 'rot3': 122, 'rot2': 146, 'depth': -0.522, 'yaw': 122.29, 'datetime': '2018-12-12 10:33:06.212314', 'mgs': 0, 'flw2': 0.0, 'flw1': 5.74, 'flw0': 0.0, 'time': 37.14, 'compass': 154.92, 'pitch': -0.91, 'roll': 0.92}
{'lipoC2': 8.19, 'temp': 0.0, 'lipoC3S3': 12.16, 'state': 'normal', 'rot1': 26, 'rot0': 38, 'rot3': 124, 'rot2': 148, 'depth': 2.072, 'yaw': 122.16, 'datetime': '2018-12-12 10:33:06.421607', 'mgs': 0, 'flw2': 0.0, 'flw1': 4.45, 'flw0': 0.0, 'time': 37.35, 'compass': 154.78, 'pitch': -4.21, 'roll': 2.01}
{'lipoC2': 8.13, 'temp': 0.0, 'lipoC3S3': 12.25, 'state': 'normal', 'rot1': 26, 'rot0': 38, 'rot3': 125, 'rot2': 150, 'depth': -0.293, 'yaw': 121.79, 'datetime': '2018-12-12 10:33:06.633075', 'mgs': 0, 'flw2': 0.27, 'flw1': 4.01, 'flw0': 0.28, 'time': 37.56, 'compass': 154.41, 'pitch': -5.62, 'roll': 2.2}
{'lipoC2': 8.12, 'temp': 0.0, 'lipoC3S3': 12.48, 'state': 'normal', 'rot1': 26, 'rot0': 38, 'rot3': 127, 'rot2': 152, 'depth': -0.751, 'yaw': 121.35, 'datetime': '2018-12-12 10:33:06.843558', 'mgs': 0, 'flw2': 0.23, 'flw1': 3.98, 'flw0': 0.32, 'time': 37.77, 'compass': 153.98, 'pitch': -4.08, 'roll': 2.18}
{'lipoC2': 8.11, 'temp': 0.0, 'lipoC3S3': 12.55, 'state': 'normal', 'rot1': 26, 'rot0': 38, 'rot3': 128, 'rot2': 154, 'depth': -0.674, 'yaw': 120.86, 'datetime': '2018-12-12 10:33:07.054824', 'mgs': 0, 'flw2': 0.0, 'flw1': 4.72, 'flw0': 0.0, 'time': 37.98, 'compass': 153.49, 'pitch': -2.08, 'roll': 2.44}
{'lipoC2': 8.33, 'temp': 0.0, 'lipoC3S3': 12.27, 'state': 'normal', 'rot1': 26, 'rot0': 38, 'rot3': 128, 'rot2': 155, 'depth': 1.767, 'yaw': 120.39, 'datetime': '2018-12-12 10:33:07.265158', 'mgs': 0, 'flw2': 0.0, 'flw1': 3.31, 'flw0': 0.18, 'time': 38.19, 'compass': 153.02, 'pitch': -1.6, 'roll': 2.76}
{'lipoC2': 8.38, 'temp': 0.0, 'lipoC3S3': 12.26, 'state': 'normal', 'rot1': 26, 'rot0': 38, 'rot3': 130, 'rot2': 157, 'depth': -0.827, 'yaw': 119.77, 'datetime': '2018-12-12 10:33:07.579394', 'mgs': 0, 'flw2': 0.0, 'flw1': 3.22, 'flw0': 0.0, 'time': 38.5, 'compass': 152.39, 'pitch': -2.21, 'roll': 2.79}
{'lipoC2': 8.27, 'temp': 0.0, 'lipoC3S3': 12.26, 'state': 'normal', 'rot1': 26, 'rot0': 38, 'rot3': 130, 'rot2': 158, 'depth': 1.996, 'yaw': 119.33, 'datetime': '2018-12-12 10:33:07.790639', 'mgs': 0, 'flw2': 0.0, 'flw1': 1.99, 'flw0': 0.0, 'time': 38.71, 'compass': 151.95, 'pitch': -2.36, 'roll': 2.37}
{'lipoC2': 8.31, 'temp': 0.0, 'lipoC3S3': 12.34, 'state': 'normal', 'rot1': 26, 'rot0': 38, 'rot3': 131, 'rot2': 159, 'depth': -1.285, 'yaw': 118.89, 'datetime': '2018-12-12 10:33:08.000554', 'mgs': 0, 'flw2': 0.21, 'flw1': 1.55, 'flw0': 0.0, 'time': 38.92, 'compass': 151.52, 'pitch': -2.33, 'roll': 2.16}
{'lipoC2': 8.08, 'temp': 0.0, 'lipoC3S3': 12.63, 'state': 'normal', 'rot1': 26, 'rot0': 38, 'rot3': 132, 'rot2': 160, 'depth': -0.522, 'yaw': 118.46, 'datetime': '2018-12-12 10:33:08.212511', 'mgs': 0, 'flw2': 0.0, 'flw1': 2.49, 'flw0': 0.0, 'time': 39.13, 'compass': 151.09, 'pitch': -1.96, 'roll': 2.41}
{'lipoC2': 8.14, 'temp': 0.0, 'lipoC3S3': 12.5, 'state': 'normal', 'rot1': 26, 'rot0': 38, 'rot3': 133, 'rot2': 161, 'depth': -0.903, 'yaw': 118.06, 'datetime': '2018-12-12 10:33:08.422637', 'mgs': 0, 'flw2': 0.29, 'flw1': 0.53, 'flw0': 0.0, 'time': 39.34, 'compass': 150.69, 'pitch': -1.52, 'roll': 2.78}
{'lipoC2': 8.11, 'temp': 0.0, 'lipoC3S3': 12.59, 'state': 'normal', 'rot1': 26, 'rot0': 38, 'rot3': 133, 'rot2': 161, 'depth': -0.598, 'yaw': 117.61, 'datetime': '2018-12-12 10:33:08.631613', 'mgs': 0, 'flw2': 0.0, 'flw1': 0.5, 'flw0': 0.0, 'time': 39.55, 'compass': 150.24, 'pitch': -1.79, 'roll': 3.07}
{'lipoC2': 8.38, 'temp': 0.0, 'lipoC3S3': 12.3, 'state': 'normal', 'rot1': 26, 'rot0': 38, 'rot3': 133, 'rot2': 162, 'depth': -0.751, 'yaw': 117.16, 'datetime': '2018-12-12 10:33:08.842527', 'mgs': 0, 'flw2': 0.28, 'flw1': 0.0, 'flw0': 0.0, 'time': 39.76, 'compass': 149.79, 'pitch': -2.31, 'roll': 3.77}
{'lipoC2': 8.37, 'temp': 0.0, 'lipoC3S3': 12.29, 'state': 'normal', 'rot1': 26, 'rot0': 38, 'rot3': 134, 'rot2': 162, 'depth': -0.98, 'yaw': 116.69, 'datetime': '2018-12-12 10:33:09.051937', 'mgs': 0, 'flw2': 0.07, 'flw1': 0.73, 'flw0': 0.0, 'time': 39.97, 'compass': 149.32, 'pitch': -1.94, 'roll': 4.63}
{'lipoC2': 8.28, 'temp': 0.0, 'lipoC3S3': 12.29, 'state': 'normal', 'rot1': 26, 'rot0': 38, 'rot3': 134, 'rot2': 163, 'depth': 2.148, 'yaw': 116.22, 'datetime': '2018-12-12 10:33:09.262723', 'mgs': 0, 'flw2': 0.0, 'flw1': 0.91, 'flw0': 0.0, 'time': 40.18, 'compass': 148.84, 'pitch': -1.16, 'roll': 4.88}
{'lipoC2': 8.23, 'temp': 0.0, 'lipoC3S3': 12.19, 'state': 'normal', 'rot1': 26, 'rot0': 38, 'rot3': 135, 'rot2': 163, 'depth': 0.012, 'yaw': 115.73, 'datetime': '2018-12-12 10:33:09.474140', 'mgs': 0, 'flw2': 0.0, 'flw1': 2.93, 'flw0': 0.0, 'time': 40.39, 'compass': 148.36, 'pitch': -0.64, 'roll': 4.7}
{'lipoC2': 8.24, 'temp': 0.0, 'lipoC3S3': 12.38, 'state': 'normal', 'rot1': 26, 'rot0': 38, 'rot3': 135, 'rot2': 164, 'depth': -1.056, 'yaw': 115.22, 'datetime': '2018-12-12 10:33:09.683332', 'mgs': 0, 'flw2': 0.17, 'flw1': 2.58, 'flw0': 0.0, 'time': 40.6, 'compass': 147.85, 'pitch': -0.55, 'roll': 4.52}
{'lipoC2': 8.19, 'temp': 0.0, 'lipoC3S3': 12.13, 'state': 'normal', 'rot1': 26, 'rot0': 38, 'rot3': 136, 'rot2': 165, 'depth': 2.53, 'yaw': 114.75, 'datetime': '2018-12-12 10:33:09.893448', 'mgs': 0, 'flw2': 0.0, 'flw1': 4.86, 'flw0': 0.0, 'time': 40.81, 'compass': 147.37, 'pitch': -0.82, 'roll': 4.19}
{'lipoC2': 8.08, 'temp': 0.0, 'lipoC3S3': 12.64, 'state': 'normal', 'rot1': 26, 'rot0': 38, 'rot3': 137, 'rot2': 167, 'depth': -0.674, 'yaw': 114.23, 'datetime': '2018-12-12 10:33:10.102983', 'mgs': 0, 'flw2': 0.0, 'flw1': 4.83, 'flw0': 0.0, 'time': 41.02, 'compass': 146.86, 'pitch': -0.94, 'roll': 3.41}
{'lipoC2': 8.3, 'temp': 0.0, 'lipoC3S3': 12.23, 'state': 'normal', 'rot1': 26, 'rot0': 38, 'rot3': 138, 'rot2': 168, 'depth': -1.056, 'yaw': 113.59, 'datetime': '2018-12-12 10:33:10.314403', 'mgs': 0, 'flw2': 0.27, 'flw1': 3.75, 'flw0': 0.32, 'time': 41.23, 'compass': 146.22, 'pitch': -0.78, 'roll': 2.48}
{'lipoC2': 8.34, 'temp': 0.0, 'lipoC3S3': 12.13, 'state': 'normal', 'rot1': 26, 'rot0': 39, 'rot3': 139, 'rot2': 169, 'depth': -1.132, 'yaw': 112.9, 'datetime': '2018-12-12 10:33:10.525928', 'mgs': 0, 'flw2': 3.11, 'flw1': 3.63, 'flw0': 0.29, 'time': 41.44, 'compass': 145.53, 'pitch': -0.42, 'roll': 2.07}
{'lipoC2': 8.26, 'temp': 0.0, 'lipoC3S3': 12.14, 'state': 'normal', 'rot1': 26, 'rot0': 42, 'rot3': 140, 'rot2': 170, 'depth': 3.14, 'yaw': 114.28, 'datetime': '2018-12-12 10:33:10.735216', 'mgs': 0, 'flw2': 8.31, 'flw1': 4.42, 'flw0': 0.0, 'time': 41.65, 'compass': 146.91, 'pitch': 1.26, 'roll': 2.18}
{'lipoC2': 8.07, 'temp': 0.0, 'lipoC3S3': 12.56, 'state': 'normal', 'rot1': 26, 'rot0': 46, 'rot3': 141, 'rot2': 172, 'depth': -0.293, 'yaw': 121.45, 'datetime': '2018-12-12 10:33:10.945512', 'mgs': 0, 'flw2': 5.81, 'flw1': 3.19, 'flw0': 0.18, 'time': 41.86, 'compass': 154.08, 'pitch': 4.12, 'roll': 2.75}
{'lipoC2': 8.38, 'temp': 0.0, 'lipoC3S3': 12.1, 'state': 'normal', 'rot1': 27, 'rot0': 49, 'rot3': 142, 'rot2': 173, 'depth': -1.208, 'yaw': 131.93, 'datetime': '2018-12-12 10:33:11.155087', 'mgs': 0, 'flw2': 5.77, 'flw1': 3.02, 'flw0': 2.88, 'time': 42.07, 'compass': 164.56, 'pitch': 5.2, 'roll': 2.92}
{'lipoC2': 8.23, 'temp': 0.0, 'lipoC3S3': 12.12, 'state': 'normal', 'rot1': 30, 'rot0': 53, 'rot3': 142, 'rot2': 174, 'depth': 2.454, 'yaw': 142.42, 'datetime': '2018-12-12 10:33:11.370079', 'mgs': 0, 'flw2': 4.35, 'flw1': 4.16, 'flw0': 4.91, 'time': 42.28, 'compass': 175.05, 'pitch': 6.4, 'roll': 2.59}
{'lipoC2': 8.22, 'temp': 0.0, 'lipoC3S3': 12.09, 'state': 'normal', 'rot1': 33, 'rot0': 56, 'rot3': 144, 'rot2': 176, 'depth': 2.911, 'yaw': 149.57, 'datetime': '2018-12-12 10:33:11.580808', 'mgs': 0, 'flw2': 4.21, 'flw1': 4.1, 'flw0': 4.86, 'time': 42.49, 'compass': -177.81, 'pitch': 8.46, 'roll': 2.72}
{'lipoC2': 8.29, 'temp': 0.0, 'lipoC3S3': 12.1, 'state': 'normal', 'rot1': 37, 'rot0': 59, 'rot3': 144, 'rot2': 177, 'depth': 0.47, 'yaw': 153.9, 'datetime': '2018-12-12 10:33:11.792002', 'mgs': 0, 'flw2': 4.8, 'flw1': 3.11, 'flw0': 6.59, 'time': 42.7, 'compass': -173.47, 'pitch': 9.35, 'roll': 3.61}
