{'lipoC2': 8.26, 'temp': 0.0, 'lipoC3S3': 12.06, 'state': 'normal', 'rot1': 0, 'rot0': 0, 'rot3': 0, 'rot2': 0, 'depth': -0.903, 'yaw': -1.13, 'datetime': '2018-12-12 10:57:18.955530', 'mgs': 0, 'flw2': 0.07, 'flw1': 0.0, 'flw0': 0.0, 'time': 1.36, 'compass': 13.62, 'pitch': -4.06, 'roll': 0.17}
{'lipoC2': 8.11, 'temp': 0.0, 'lipoC3S3': 11.94, 'state': 'normal', 'rot1': 0, 'rot0': 0, 'rot3': 0, 'rot2': 0, 'depth': 1.538, 'yaw': -3.24, 'datetime': '2018-12-12 10:57:19.163827', 'mgs': 0, 'flw2': 0.0, 'flw1': 0.0, 'flw0': 0.32, 'time': 1.57, 'compass': 11.52, 'pitch': -4.46, 'roll': 0.29}
{'lipoC2': 7.97, 'temp': 0.0, 'lipoC3S3': 12.45, 'state': 'normal', 'rot1': 0, 'rot0': 0, 'rot3': 0, 'rot2': 0, 'depth': 0.546, 'yaw': -5.13, 'datetime': '2018-12-12 10:57:19.372661', 'mgs': 0, 'flw2': 0.84, 'flw1': 0.0, 'flw0': 0.13, 'time': 1.77, 'compass': 9.63, 'pitch': -4.32, 'roll': 0.42}
{'lipoC2': 8.01, 'temp': 0.0, 'lipoC3S3': 12.29, 'state': 'normal', 'rot1': 0, 'rot0': 2, 'rot3': 0, 'rot2': 0, 'depth': 0.241, 'yaw': -6.32, 'datetime': '2018-12-12 10:57:19.580701', 'mgs': 0, 'flw2': 3.58, 'flw1': 0.0, 'flw0': 0.0, 'time': 1.98, 'compass': 8.44, 'pitch': -3.78, 'roll': 0.46}
{'lipoC2': 8.26, 'temp': 0.0, 'lipoC3S3': 12.06, 'state': 'normal', 'rot1': 0, 'rot0': 4, 'rot3': 0, 'rot2': 0, 'depth': -0.751, 'yaw': -5.96, 'datetime': '2018-12-12 10:57:19.789226', 'mgs': 0, 'flw2': 2.0, 'flw1': 0.0, 'flw0': 0.0, 'time': 2.19, 'compass': 8.79, 'pitch': -2.75, 'roll': 0.76}
{'lipoC2': 8.01, 'temp': 0.0, 'lipoC3S3': 12.26, 'state': 'normal', 'rot1': 0, 'rot0': 6, 'rot3': 0, 'rot2': 0, 'depth': -0.217, 'yaw': -3.81, 'datetime': '2018-12-12 10:57:19.996436', 'mgs': 0, 'flw2': 1.98, 'flw1': 0.0, 'flw0': 0.05, 'time': 2.4, 'compass': 10.94, 'pitch': -1.13, 'roll': 1.27}
{'lipoC2': 8.23, 'temp': 0.0, 'lipoC3S3': 12.04, 'state': 'normal', 'rot1': 0, 'rot0': 8, 'rot3': 0, 'rot2': 0, 'depth': -0.827, 'yaw': -0.34, 'datetime': '2018-12-12 10:57:20.204908', 'mgs': 0, 'flw2': 1.93, 'flw1': 0.0, 'flw0': 0.0, 'time': 2.61, 'compass': 14.41, 'pitch': 0.26, 'roll': 1.67}
{'lipoC2': 8.26, 'temp': 0.0, 'lipoC3S3': 12.09, 'state': 'normal', 'rot1': 0, 'rot0': 9, 'rot3': 0, 'rot2': 0, 'depth': -0.674, 'yaw': 3.63, 'datetime': '2018-12-12 10:57:20.413155', 'mgs': 0, 'flw2': 0.0, 'flw1': 0.56, 'flw0': 0.0, 'time': 2.81, 'compass': 18.39, 'pitch': 1.0, 'roll': 1.79}
{'lipoC2': 8.27, 'temp': 0.0, 'lipoC3S3': 12.09, 'state': 'normal', 'rot1': 0, 'rot0': 9, 'rot3': 0, 'rot2': 0, 'depth': -0.674, 'yaw': 6.62, 'datetime': '2018-12-12 10:57:20.622658', 'mgs': 0, 'flw2': 0.0, 'flw1': 0.38, 'flw0': 0.0, 'time': 3.02, 'compass': 21.37, 'pitch': 0.66, 'roll': 1.44}
{'lipoC2': 8.21, 'temp': 0.0, 'lipoC3S3': 12.05, 'state': 'normal', 'rot1': 0, 'rot0': 9, 'rot3': 0, 'rot2': 0, 'depth': -0.751, 'yaw': 9.14, 'datetime': '2018-12-12 10:57:20.829523', 'mgs': 0, 'flw2': 0.29, 'flw1': 0.0, 'flw0': 0.0, 'time': 3.23, 'compass': 23.9, 'pitch': -0.77, 'roll': 0.97}
{'lipoC2': 8.0, 'temp': 0.0, 'lipoC3S3': 12.12, 'state': 'normal', 'rot1': 0, 'rot0': 9, 'rot3': 0, 'rot2': 0, 'depth': -0.064, 'yaw': 11.25, 'datetime': '2018-12-12 10:57:21.037968', 'mgs': 0, 'flw2': 0.31, 'flw1': 0.0, 'flw0': 0.17, 'time': 3.44, 'compass': 26.0, 'pitch': -2.88, 'roll': 0.64}
{'lipoC2': 8.0, 'temp': 0.0, 'lipoC3S3': 12.13, 'state': 'normal', 'rot1': 0, 'rot0': 9, 'rot3': 0, 'rot2': 0, 'depth': 1.538, 'yaw': 12.99, 'datetime': '2018-12-12 10:57:21.244923', 'mgs': 0, 'flw2': 0.31, 'flw1': 0.0, 'flw0': 0.2, 'time': 3.64, 'compass': 27.74, 'pitch': -4.66, 'roll': 0.41}
{'lipoC2': 7.98, 'temp': 0.0, 'lipoC3S3': 12.02, 'state': 'normal', 'rot1': 0, 'rot0': 9, 'rot3': 0, 'rot2': 0, 'depth': 0.165, 'yaw': 14.58, 'datetime': '2018-12-12 10:57:21.452910', 'mgs': 0, 'flw2': 0.31, 'flw1': 0.0, 'flw0': 0.21, 'time': 3.85, 'compass': 29.34, 'pitch': -5.85, 'roll': 0.21}
{'lipoC2': 7.95, 'temp': 0.0, 'lipoC3S3': 12.29, 'state': 'normal', 'rot1': 0, 'rot0': 10, 'rot3': 0, 'rot2': 0, 'depth': -0.293, 'yaw': 16.1, 'datetime': '2018-12-12 10:57:21.660491', 'mgs': 0, 'flw2': 6.76, 'flw1': 0.0, 'flw0': 0.0, 'time': 4.06, 'compass': 30.85, 'pitch': -6.83, 'roll': 0.2}
{'lipoC2': 7.98, 'temp': 0.0, 'lipoC3S3': 12.04, 'state': 'normal', 'rot1': 0, 'rot0': 14, 'rot3': 0, 'rot2': 0, 'depth': 0.089, 'yaw': 20.76, 'datetime': '2018-12-12 10:57:21.870082', 'mgs': 0, 'flw2': 6.97, 'flw1': 0.64, 'flw0': 0.0, 'time': 4.27, 'compass': 35.51, 'pitch': -5.61, 'roll': 1.33}
{'lipoC2': 8.01, 'temp': 0.0, 'lipoC3S3': 12.04, 'state': 'normal', 'rot1': 0, 'rot0': 17, 'rot3': 0, 'rot2': 0, 'depth': -0.064, 'yaw': 30.11, 'datetime': '2018-12-12 10:57:22.078823', 'mgs': 0, 'flw2': 6.64, 'flw1': 0.41, 'flw0': 0.0, 'time': 4.48, 'compass': 44.87, 'pitch': -1.85, 'roll': 3.24}
{'lipoC2': 8.27, 'temp': 0.0, 'lipoC3S3': 11.98, 'state': 'normal', 'rot1': 0, 'rot0': 21, 'rot3': 0, 'rot2': 0, 'depth': -0.827, 'yaw': 42.29, 'datetime': '2018-12-12 10:57:22.287596', 'mgs': 0, 'flw2': 7.25, 'flw1': 0.0, 'flw0': 0.0, 'time': 4.68, 'compass': 57.05, 'pitch': 2.69, 'roll': 4.87}
{'lipoC2': 7.95, 'temp': 0.0, 'lipoC3S3': 12.35, 'state': 'normal', 'rot1': 0, 'rot0': 23, 'rot3': 0, 'rot2': 0, 'depth': 0.394, 'yaw': 55.68, 'datetime': '2018-12-12 10:57:22.495051', 'mgs': 0, 'flw2': 0.2, 'flw1': 0.0, 'flw0': 0.32, 'time': 4.89, 'compass': 70.43, 'pitch': 6.68, 'roll': 5.44}
{'lipoC2': 8.25, 'temp': 0.0, 'lipoC3S3': 12.06, 'state': 'normal', 'rot1': 0, 'rot0': 23, 'rot3': 0, 'rot2': 0, 'depth': -0.674, 'yaw': 65.68, 'datetime': '2018-12-12 10:57:22.703794', 'mgs': 0, 'flw2': 0.0, 'flw1': 0.64, 'flw0': 0.0, 'time': 5.1, 'compass': 80.43, 'pitch': 6.84, 'roll': 4.71}
{'lipoC2': 8.17, 'temp': 0.0, 'lipoC3S3': 11.98, 'state': 'normal', 'rot1': 0, 'rot0': 23, 'rot3': 0, 'rot2': 0, 'depth': 0.241, 'yaw': 73.76, 'datetime': '2018-12-12 10:57:22.910760', 'mgs': 0, 'flw2': 0.0, 'flw1': 0.0, 'flw0': 0.15, 'time': 5.31, 'compass': 88.51, 'pitch': 4.84, 'roll': 3.52}
{'lipoC2': 8.16, 'temp': 0.0, 'lipoC3S3': 12.0, 'state': 'normal', 'rot1': 0, 'rot0': 23, 'rot3': 0, 'rot2': 0, 'depth': 1.385, 'yaw': 80.48, 'datetime': '2018-12-12 10:57:23.119588', 'mgs': 0, 'flw2': 0.0, 'flw1': 0.0, 'flw0': 0.11, 'time': 5.52, 'compass': 95.23, 'pitch': 2.79, 'roll': 2.42}
{'lipoC2': 8.13, 'temp': 0.0, 'lipoC3S3': 12.06, 'state': 'normal', 'rot1': 0, 'rot0': 23, 'rot3': 0, 'rot2': 0, 'depth': 0.012, 'yaw': 86.28, 'datetime': '2018-12-12 10:57:23.329146', 'mgs': 0, 'flw2': 0.0, 'flw1': 0.53, 'flw0': 0.0, 'time': 5.72, 'compass': 101.03, 'pitch': 0.14, 'roll': 1.46}
{'lipoC2': 7.99, 'temp': 0.0, 'lipoC3S3': 12.08, 'state': 'normal', 'rot1': 0, 'rot0': 23, 'rot3': 0, 'rot2': 0, 'depth': 1.996, 'yaw': 91.02, 'datetime': '2018-12-12 10:57:23.538041', 'mgs': 0, 'flw2': 0.26, 'flw1': 0.0, 'flw0': 0.1, 'time': 5.93, 'compass': 105.78, 'pitch': -3.24, 'roll': 0.81}
{'lipoC2': 7.99, 'temp': 0.0, 'lipoC3S3': 12.06, 'state': 'normal', 'rot1': 0, 'rot0': 23, 'rot3': 0, 'rot2': 0, 'depth': 2.454, 'yaw': 95.45, 'datetime': '2018-12-12 10:57:23.746460', 'mgs': 0, 'flw2': 0.28, 'flw1': 0.0, 'flw0': 0.06, 'time': 6.14, 'compass': 110.2, 'pitch': -6.56, 'roll': 0.8}
{'lipoC2': 8.13, 'temp': 0.0, 'lipoC3S3': 12.21, 'state': 'normal', 'rot1': 0, 'rot0': 23, 'rot3': 0, 'rot2': 0, 'depth': 1.08, 'yaw': 99.45, 'datetime': '2018-12-12 10:57:23.954083', 'mgs': 0, 'flw2': 0.24, 'flw1': 0.0, 'flw0': 0.27, 'time': 6.35, 'compass': 114.2, 'pitch': -8.49, 'roll': 1.41}
{'lipoC2': 7.94, 'temp': 0.0, 'lipoC3S3': 12.3, 'state': 'normal', 'rot1': 0, 'rot0': 23, 'rot3': 0, 'rot2': 0, 'depth': -0.293, 'yaw': 102.91, 'datetime': '2018-12-12 10:57:24.162727', 'mgs': 0, 'flw2': 0.0, 'flw1': 0.0, 'flw0': 0.0, 'time': 6.56, 'compass': 117.67, 'pitch': -8.64, 'roll': 2.06}
{'lipoC2': 8.11, 'temp': 0.0, 'lipoC3S3': 11.94, 'state': 'normal', 'rot1': 0, 'rot0': 23, 'rot3': 0, 'rot2': 0, 'depth': 1.462, 'yaw': 106.28, 'datetime': '2018-12-12 10:57:24.370451', 'mgs': 0, 'flw2': 0.13, 'flw1': 0.0, 'flw0': 0.32, 'time': 6.76, 'compass': 121.04, 'pitch': -7.62, 'roll': 2.47}
{'lipoC2': 8.0, 'temp': 0.0, 'lipoC3S3': 12.35, 'state': 'normal', 'rot1': 0, 'rot0': 23, 'rot3': 0, 'rot2': 0, 'depth': 1.309, 'yaw': 109.36, 'datetime': '2018-12-12 10:57:24.578882', 'mgs': 0, 'flw2': 0.0, 'flw1': 0.0, 'flw0': 0.16, 'time': 6.97, 'compass': 124.11, 'pitch': -6.47, 'roll': 2.82}
{'lipoC2': 8.27, 'temp': 0.0, 'lipoC3S3': 12.08, 'state': 'normal', 'rot1': 0, 'rot0': 23, 'rot3': 0, 'rot2': 0, 'depth': -0.751, 'yaw': 112.17, 'datetime': '2018-12-12 10:57:24.787812', 'mgs': 0, 'flw2': 0.0, 'flw1': 0.06, 'flw0': 0.0, 'time': 7.18, 'compass': 126.93, 'pitch': -5.37, 'roll': 3.04}
{'lipoC2': 7.99, 'temp': 0.0, 'lipoC3S3': 12.21, 'state': 'normal', 'rot1': 0, 'rot0': 23, 'rot3': 0, 'rot2': 0, 'depth': 1.996, 'yaw': 114.63, 'datetime': '2018-12-12 10:57:24.997305', 'mgs': 0, 'flw2': 0.0, 'flw1': 0.12, 'flw0': 0.0, 'time': 7.39, 'compass': 129.39, 'pitch': -3.65, 'roll': 2.87}
{'lipoC2': 7.98, 'temp': 0.0, 'lipoC3S3': 12.05, 'state': 'normal', 'rot1': 0, 'rot0': 23, 'rot3': 0, 'rot2': 0, 'depth': 2.454, 'yaw': 117.03, 'datetime': '2018-12-12 10:57:25.204599', 'mgs': 0, 'flw2': 0.0, 'flw1': 0.64, 'flw0': 0.0, 'time': 7.6, 'compass': 131.78, 'pitch': -1.76, 'roll': 2.37}
{'lipoC2': 8.04, 'temp': 0.0, 'lipoC3S3': 11.92, 'state': 'normal', 'rot1': 0, 'rot0': 23, 'rot3': 0, 'rot2': 0, 'depth': 2.682, 'yaw': 119.25, 'datetime': '2018-12-12 10:57:25.413035', 'mgs': 0, 'flw2': 0.27, 'flw1': 0.0, 'flw0': 0.31, 'time': 7.8, 'compass': 134.0, 'pitch': -0.82, 'roll': 1.79}
{'lipoC2': 8.01, 'temp': 0.0, 'lipoC3S3': 12.39, 'state': 'normal', 'rot1': 0, 'rot0': 23, 'rot3': 0, 'rot2': 0, 'depth': -0.827, 'yaw': 121.26, 'datetime': '2018-12-12 10:57:25.620531', 'mgs': 0, 'flw2': 0.0, 'flw1': 0.64, 'flw0': 0.0, 'time': 8.01, 'compass': 136.01, 'pitch': -0.85, 'roll': 1.33}
{'lipoC2': 8.02, 'temp': 0.0, 'lipoC3S3': 11.92, 'state': 'normal', 'rot1': 0, 'rot0': 23, 'rot3': 0, 'rot2': 0, 'depth': 2.682, 'yaw': 122.99, 'datetime': '2018-12-12 10:57:25.829098', 'mgs': 0, 'flw2': 0.0, 'flw1': 0.0, 'flw0': 0.27, 'time': 8.22, 'compass': 137.75, 'pitch': -1.72, 'roll': 0.97}
{'lipoC2': 8.14, 'temp': 0.0, 'lipoC3S3': 11.98, 'state': 'normal', 'rot1': 0, 'rot0': 23, 'rot3': 0, 'rot2': 0, 'depth': 1.691, 'yaw': 124.7, 'datetime': '2018-12-12 10:57:26.036535', 'mgs': 0, 'flw2': 0.0, 'flw1': 0.0, 'flw0': 0.09, 'time': 8.43, 'compass': 139.46, 'pitch': -2.84, 'roll': 0.83}
{'lipoC2': 8.01, 'temp': 0.0, 'lipoC3S3': 12.33, 'state': 'normal', 'rot1': 0, 'rot0': 23, 'rot3': 0, 'rot2': 0, 'depth': 0.546, 'yaw': 126.24, 'datetime': '2018-12-12 10:57:26.246372', 'mgs': 0, 'flw2': 0.22, 'flw1': 0.0, 'flw0': 0.0, 'time': 8.64, 'compass': 140.99, 'pitch': -3.83, 'roll': 0.94}
{'lipoC2': 8.01, 'temp': 0.0, 'lipoC3S3': 12.34, 'state': 'normal', 'rot1': 0, 'rot0': 23, 'rot3': 0, 'rot2': 0, 'depth': 1.309, 'yaw': 127.59, 'datetime': '2018-12-12 10:57:26.455030', 'mgs': 0, 'flw2': 0.0, 'flw1': 0.0, 'flw0': 0.02, 'time': 8.85, 'compass': 142.34, 'pitch': -4.88, 'roll': 1.04}
{'lipoC2': 8.01, 'temp': 0.0, 'lipoC3S3': 12.33, 'state': 'normal', 'rot1': 0, 'rot0': 23, 'rot3': 0, 'rot2': 0, 'depth': 0.546, 'yaw': 128.71, 'datetime': '2018-12-12 10:57:26.663686', 'mgs': 0, 'flw2': 0.26, 'flw1': 0.0, 'flw0': 0.0, 'time': 9.05, 'compass': 143.47, 'pitch': -5.86, 'roll': 0.93}
{'lipoC2': 8.12, 'temp': 0.0, 'lipoC3S3': 11.97, 'state': 'normal', 'rot1': 0, 'rot0': 23, 'rot3': 0, 'rot2': 0, 'depth': 1.614, 'yaw': 129.77, 'datetime': '2018-12-12 10:57:26.870777', 'mgs': 0, 'flw2': 0.0, 'flw1': 0.0, 'flw0': 0.18, 'time': 9.26, 'compass': 144.53, 'pitch': -6.31, 'roll': 0.97}
{'lipoC2': 8.09, 'temp': 0.0, 'lipoC3S3': 11.96, 'state': 'normal', 'rot1': 0, 'rot0': 23, 'rot3': 0, 'rot2': 0, 'depth': 2.301, 'yaw': 130.81, 'datetime': '2018-12-12 10:57:27.079421', 'mgs': 0, 'flw2': 0.0, 'flw1': 0.29, 'flw0': 0.0, 'time': 9.47, 'compass': 145.57, 'pitch': -5.88, 'roll': 1.27}
{'lipoC2': 8.26, 'temp': 0.0, 'lipoC3S3': 12.38, 'state': 'normal', 'rot1': 0, 'rot0': 23, 'rot3': 0, 'rot2': 0, 'depth': 0.928, 'yaw': 131.73, 'datetime': '2018-12-12 10:57:27.287617', 'mgs': 0, 'flw2': 0.11, 'flw1': 0.0, 'flw0': 0.0, 'time': 9.68, 'compass': 146.48, 'pitch': -5.14, 'roll': 1.34}
{'lipoC2': 8.02, 'temp': 0.0, 'lipoC3S3': 11.93, 'state': 'normal', 'rot1': 0, 'rot0': 23, 'rot3': 0, 'rot2': 0, 'depth': 2.606, 'yaw': 132.62, 'datetime': '2018-12-12 10:57:27.497278', 'mgs': 0, 'flw2': 0.0, 'flw1': 0.7, 'flw0': 0.0, 'time': 9.89, 'compass': 147.37, 'pitch': -4.61, 'roll': 1.14}
{'lipoC2': 7.99, 'temp': 0.0, 'lipoC3S3': 12.06, 'state': 'normal', 'rot1': 0, 'rot0': 23, 'rot3': 0, 'rot2': 0, 'depth': 0.089, 'yaw': 133.42, 'datetime': '2018-12-12 10:57:27.704634', 'mgs': 0, 'flw2': 0.29, 'flw1': 0.0, 'flw0': 0.2, 'time': 10.09, 'compass': 148.18, 'pitch': -4.28, 'roll': 1.04}
{'lipoC2': 8.01, 'temp': 0.0, 'lipoC3S3': 12.41, 'state': 'normal', 'rot1': 0, 'rot0': 23, 'rot3': 0, 'rot2': 0, 'depth': 0.775, 'yaw': 134.1, 'datetime': '2018-12-12 10:57:27.914416', 'mgs': 0, 'flw2': 0.0, 'flw1': 0.0, 'flw0': 0.21, 'time': 10.3, 'compass': 148.86, 'pitch': -3.86, 'roll': 0.87}
{'lipoC2': 7.99, 'temp': 0.0, 'lipoC3S3': 12.18, 'state': 'normal', 'rot1': 0, 'rot0': 23, 'rot3': 0, 'rot2': 0, 'depth': 2.148, 'yaw': 134.64, 'datetime': '2018-12-12 10:57:28.121869', 'mgs': 0, 'flw2': 0.23, 'flw1': 0.0, 'flw0': 0.0, 'time': 10.51, 'compass': 149.39, 'pitch': -3.46, 'roll': 0.5}
{'lipoC2': 8.26, 'temp': 0.0, 'lipoC3S3': 12.09, 'state': 'normal', 'rot1': 0, 'rot0': 23, 'rot3': 0, 'rot2': 0, 'depth': 1.309, 'yaw': 135.14, 'datetime': '2018-12-12 10:57:28.330572', 'mgs': 0, 'flw2': 0.0, 'flw1': 0.29, 'flw0': 0.0, 'time': 10.72, 'compass': 149.9, 'pitch': -3.23, 'roll': 0.25}
{'lipoC2': 8.14, 'temp': 0.0, 'lipoC3S3': 11.98, 'state': 'normal', 'rot1': 0, 'rot0': 23, 'rot3': 0, 'rot2': 0, 'depth': 1.462, 'yaw': 135.59, 'datetime': '2018-12-12 10:57:28.537999', 'mgs': 0, 'flw2': 0.0, 'flw1': 0.0, 'flw0': 0.13, 'time': 10.93, 'compass': 150.35, 'pitch': -3.63, 'roll': 0.17}
{'lipoC2': 7.95, 'temp': 0.0, 'lipoC3S3': 12.37, 'state': 'normal', 'rot1': 0, 'rot0': 23, 'rot3': 0, 'rot2': 0, 'depth': -0.293, 'yaw': 135.94, 'datetime': '2018-12-12 10:57:28.747567', 'mgs': 0, 'flw2': 0.15, 'flw1': 0.0, 'flw0': 0.0, 'time': 11.13, 'compass': 150.69, 'pitch': -4.51, 'roll': 0.07}
{'lipoC2': 8.04, 'temp': 0.0, 'lipoC3S3': 12.13, 'state': 'normal', 'rot1': 0, 'rot0': 23, 'rot3': 0, 'rot2': 0, 'depth': 2.377, 'yaw': 136.19, 'datetime': '2018-12-12 10:57:28.956312', 'mgs': 0, 'flw2': 0.06, 'flw1': 0.0, 'flw0': 0.28, 'time': 11.34, 'compass': 150.95, 'pitch': -5.32, 'roll': -0.0}
{'lipoC2': 8.08, 'temp': 0.0, 'lipoC3S3': 12.17, 'state': 'normal', 'rot1': 0, 'rot0': 23, 'rot3': 0, 'rot2': 0, 'depth': -0.217, 'yaw': 136.39, 'datetime': '2018-12-12 10:57:29.164478', 'mgs': 0, 'flw2': 0.0, 'flw1': 0.03, 'flw0': 0.0, 'time': 11.55, 'compass': 151.14, 'pitch': -5.68, 'roll': -0.01}
{'lipoC2': 8.2, 'temp': 0.0, 'lipoC3S3': 12.01, 'state': 'normal', 'rot1': 0, 'rot0': 23, 'rot3': 0, 'rot2': 0, 'depth': 0.165, 'yaw': 136.5, 'datetime': '2018-12-12 10:57:29.373485', 'mgs': 0, 'flw2': 0.0, 'flw1': 0.0, 'flw0': 0.0, 'time': 11.76, 'compass': 151.25, 'pitch': -5.68, 'roll': 0.16}
{'lipoC2': 7.99, 'temp': 0.0, 'lipoC3S3': 12.22, 'state': 'normal', 'rot1': 0, 'rot0': 23, 'rot3': 0, 'rot2': 0, 'depth': -0.064, 'yaw': 136.65, 'datetime': '2018-12-12 10:57:29.582313', 'mgs': 0, 'flw2': 0.0, 'flw1': 0.32, 'flw0': 0.0, 'time': 11.97, 'compass': 151.41, 'pitch': -5.61, 'roll': 0.38}
{'lipoC2': 8.15, 'temp': 0.0, 'lipoC3S3': 12.05, 'state': 'normal', 'rot1': 0, 'rot0': 23, 'rot3': 0, 'rot2': 0, 'depth': -0.446, 'yaw': 136.73, 'datetime': '2018-12-12 10:57:29.790680', 'mgs': 0, 'flw2': 0.31, 'flw1': 0.0, 'flw0': 0.0, 'time': 12.18, 'compass': 151.48, 'pitch': -5.56, 'roll': 0.47}
{'lipoC2': 7.99, 'temp': 0.0, 'lipoC3S3': 12.48, 'state': 'normal', 'rot1': 0, 'rot0': 23, 'rot3': 0, 'rot2': 0, 'depth': -0.064, 'yaw': 136.75, 'datetime': '2018-12-12 10:57:29.997464', 'mgs': 0, 'flw2': 0.15, 'flw1': 0.0, 'flw0': 0.17, 'time': 12.39, 'compass': 151.5, 'pitch': -5.22, 'roll': 0.58}
{'lipoC2': 7.98, 'temp': 0.0, 'lipoC3S3': 12.02, 'state': 'normal', 'rot1': 0, 'rot0': 23, 'rot3': 0, 'rot2': 0, 'depth': 0.165, 'yaw': 136.75, 'datetime': '2018-12-12 10:57:30.205638', 'mgs': 0, 'flw2': 0.0, 'flw1': 0.21, 'flw0': 0.0, 'time': 12.59, 'compass': 151.5, 'pitch': -4.33, 'roll': 0.71}
{'lipoC2': 8.12, 'temp': 0.0, 'lipoC3S3': 11.92, 'state': 'normal', 'rot1': 0, 'rot0': 23, 'rot3': 0, 'rot2': 0, 'depth': 1.462, 'yaw': 136.75, 'datetime': '2018-12-12 10:57:30.415247', 'mgs': 0, 'flw2': 0.2, 'flw1': 0.0, 'flw0': 0.34, 'time': 12.8, 'compass': 151.51, 'pitch': -3.71, 'roll': 0.64}
{'lipoC2': 8.01, 'temp': 0.0, 'lipoC3S3': 11.93, 'state': 'normal', 'rot1': 0, 'rot0': 23, 'rot3': 0, 'rot2': 0, 'depth': 2.835, 'yaw': 136.78, 'datetime': '2018-12-12 10:57:30.627007', 'mgs': 0, 'flw2': 0.33, 'flw1': 0.0, 'flw0': 0.23, 'time': 13.01, 'compass': 151.54, 'pitch': -4.02, 'roll': 0.32}
{'lipoC2': 8.08, 'temp': 0.0, 'lipoC3S3': 12.12, 'state': 'normal', 'rot1': 0, 'rot0': 23, 'rot3': 0, 'rot2': 0, 'depth': -0.217, 'yaw': 136.8, 'datetime': '2018-12-12 10:57:30.837349', 'mgs': 0, 'flw2': 0.0, 'flw1': 0.76, 'flw0': 0.0, 'time': 13.22, 'compass': 151.56, 'pitch': -4.34, 'roll': 0.28}
{'lipoC2': 8.25, 'temp': 0.0, 'lipoC3S3': 12.38, 'state': 'normal', 'rot1': 0, 'rot0': 23, 'rot3': 0, 'rot2': 0, 'depth': 0.928, 'yaw': 136.82, 'datetime': '2018-12-12 10:57:31.045303', 'mgs': 0, 'flw2': 0.22, 'flw1': 0.0, 'flw0': 0.32, 'time': 13.43, 'compass': 151.57, 'pitch': -4.21, 'roll': 0.3}
{'lipoC2': 8.01, 'temp': 0.0, 'lipoC3S3': 12.35, 'state': 'normal', 'rot1': 0, 'rot0': 23, 'rot3': 0, 'rot2': 0, 'depth': 0.699, 'yaw': 136.75, 'datetime': '2018-12-12 10:57:31.253014', 'mgs': 0, 'flw2': 0.0, 'flw1': 0.0, 'flw0': 0.06, 'time': 13.63, 'compass': 151.51, 'pitch': -3.88, 'roll': 0.11}
{'lipoC2': 7.99, 'temp': 0.0, 'lipoC3S3': 12.19, 'state': 'normal', 'rot1': 0, 'rot0': 23, 'rot3': 0, 'rot2': 0, 'depth': 1.92, 'yaw': 136.64, 'datetime': '2018-12-12 10:57:31.462831', 'mgs': 0, 'flw2': 0.0, 'flw1': 0.35, 'flw0': 0.0, 'time': 13.84, 'compass': 151.4, 'pitch': -3.81, 'roll': 0.05}
{'lipoC2': 7.98, 'temp': 0.0, 'lipoC3S3': 12.02, 'state': 'normal', 'rot1': 0, 'rot0': 23, 'rot3': 0, 'rot2': 0, 'depth': 2.454, 'yaw': 136.65, 'datetime': '2018-12-12 10:57:31.670957', 'mgs': 0, 'flw2': 0.23, 'flw1': 0.0, 'flw0': 0.16, 'time': 14.05, 'compass': 151.4, 'pitch': -4.42, 'roll': 0.17}
{'lipoC2': 8.17, 'temp': 0.0, 'lipoC3S3': 11.98, 'state': 'normal', 'rot1': 0, 'rot0': 23, 'rot3': 0, 'rot2': 0, 'depth': 0.165, 'yaw': 136.48, 'datetime': '2018-12-12 10:57:31.877357', 'mgs': 0, 'flw2': 0.01, 'flw1': 0.0, 'flw0': 0.24, 'time': 14.26, 'compass': 151.24, 'pitch': -5.12, 'roll': 0.04}
{'lipoC2': 8.27, 'temp': 0.0, 'lipoC3S3': 12.09, 'state': 'normal', 'rot1': 0, 'rot0': 23, 'rot3': 0, 'rot2': 0, 'depth': -0.98, 'yaw': 136.26, 'datetime': '2018-12-12 10:57:32.085986', 'mgs': 0, 'flw2': 0.0, 'flw1': 0.47, 'flw0': 0.0, 'time': 14.47, 'compass': 151.01, 'pitch': -5.12, 'roll': -0.06}
{'lipoC2': 8.21, 'temp': 0.0, 'lipoC3S3': 12.0, 'state': 'normal', 'rot1': 0, 'rot0': 23, 'rot3': 0, 'rot2': 0, 'depth': 0.47, 'yaw': 136.06, 'datetime': '2018-12-12 10:57:32.291975', 'mgs': 0, 'flw2': 0.21, 'flw1': 0.0, 'flw0': 0.29, 'time': 14.68, 'compass': 150.81, 'pitch': -4.63, 'roll': 0.15}
{'lipoC2': 8.27, 'temp': 0.0, 'lipoC3S3': 12.09, 'state': 'normal', 'rot1': 0, 'rot0': 23, 'rot3': 0, 'rot2': 0, 'depth': -0.903, 'yaw': 135.84, 'datetime': '2018-12-12 10:57:32.499894', 'mgs': 0, 'flw2': 0.0, 'flw1': 0.0, 'flw0': 0.0, 'time': 14.88, 'compass': 150.59, 'pitch': -4.46, 'roll': 0.34}
{'lipoC2': 8.25, 'temp': 0.0, 'lipoC3S3': 12.06, 'state': 'normal', 'rot1': 0, 'rot0': 23, 'rot3': 0, 'rot2': 0, 'depth': -0.751, 'yaw': 135.64, 'datetime': '2018-12-12 10:57:32.709354', 'mgs': 0, 'flw2': 0.0, 'flw1': 0.0, 'flw0': 0.0, 'time': 15.09, 'compass': 150.39, 'pitch': -4.45, 'roll': 0.44}
{'lipoC2': 8.02, 'temp': 0.0, 'lipoC3S3': 11.93, 'state': 'normal', 'rot1': 0, 'rot0': 23, 'rot3': 0, 'rot2': 0, 'depth': -0.369, 'yaw': 135.44, 'datetime': '2018-12-12 10:57:32.920181', 'mgs': 0, 'flw2': 0.26, 'flw1': 0.0, 'flw0': 0.18, 'time': 15.3, 'compass': 150.2, 'pitch': -4.39, 'roll': 0.42}
{'lipoC2': 8.27, 'temp': 0.0, 'lipoC3S3': 12.09, 'state': 'normal', 'rot1': 0, 'rot0': 23, 'rot3': 0, 'rot2': 0, 'depth': -0.827, 'yaw': 135.23, 'datetime': '2018-12-12 10:57:33.130743', 'mgs': 0, 'flw2': 0.0, 'flw1': 0.15, 'flw0': 0.0, 'time': 15.51, 'compass': 149.99, 'pitch': -4.31, 'roll': 0.33}
{'lipoC2': 8.02, 'temp': 0.0, 'lipoC3S3': 12.09, 'state': 'normal', 'rot1': 0, 'rot0': 23, 'rot3': 0, 'rot2': 0, 'depth': -0.369, 'yaw': 135.05, 'datetime': '2018-12-12 10:57:33.341279', 'mgs': 0, 'flw2': 0.0, 'flw1': 0.59, 'flw0': 0.0, 'time': 15.72, 'compass': 149.8, 'pitch': -4.16, 'roll': 0.34}
{'lipoC2': 8.06, 'temp': 0.0, 'lipoC3S3': 11.93, 'state': 'normal', 'rot1': 0, 'rot0': 23, 'rot3': 0, 'rot2': 0, 'depth': -0.217, 'yaw': 134.85, 'datetime': '2018-12-12 10:57:33.548869', 'mgs': 0, 'flw2': 0.22, 'flw1': 0.0, 'flw0': 0.31, 'time': 15.93, 'compass': 149.61, 'pitch': -4.04, 'roll': 0.32}
{'lipoC2': 8.15, 'temp': 0.0, 'lipoC3S3': 11.97, 'state': 'normal', 'rot1': 1, 'rot0': 24, 'rot3': 0, 'rot2': 0, 'depth': 1.309, 'yaw': 134.6, 'datetime': '2018-12-12 10:57:33.759724', 'mgs': 0, 'flw2': 0.89, 'flw1': 0.0, 'flw0': 2.5, 'time': 16.14, 'compass': 149.35, 'pitch': -3.79, 'roll': 0.29}
{'lipoC2': 8.24, 'temp': 0.0, 'lipoC3S3': 12.04, 'state': 'normal', 'rot1': 4, 'rot0': 25, 'rot3': 0, 'rot2': 0, 'depth': -0.827, 'yaw': 133.52, 'datetime': '2018-12-12 10:57:33.967935', 'mgs': 0, 'flw2': 0.12, 'flw1': 0.0, 'flw0': 2.34, 'time': 16.34, 'compass': 148.27, 'pitch': -2.14, 'roll': -0.08}
{'lipoC2': 8.24, 'temp': 0.0, 'lipoC3S3': 12.05, 'state': 'normal', 'rot1': 7, 'rot0': 25, 'rot3': 0, 'rot2': 0, 'depth': -0.751, 'yaw': 130.12, 'datetime': '2018-12-12 10:57:34.175584', 'mgs': 0, 'flw2': 0.1, 'flw1': 0.0, 'flw0': 2.42, 'time': 16.55, 'compass': 144.87, 'pitch': -0.17, 'roll': -0.69}
{'lipoC2': 8.09, 'temp': 0.0, 'lipoC3S3': 11.92, 'state': 'normal', 'rot1': 9, 'rot0': 25, 'rot3': 0, 'rot2': 0, 'depth': 0.089, 'yaw': 124.81, 'datetime': '2018-12-12 10:57:34.382892', 'mgs': 0, 'flw2': 0.12, 'flw1': 0.0, 'flw0': 2.53, 'time': 16.76, 'compass': 139.56, 'pitch': 1.65, 'roll': -1.08}
{'lipoC2': 7.94, 'temp': 0.0, 'lipoC3S3': 12.21, 'state': 'normal', 'rot1': 12, 'rot0': 26, 'rot3': 0, 'rot2': 0, 'depth': 0.623, 'yaw': 118.14, 'datetime': '2018-12-12 10:57:34.592507', 'mgs': 0, 'flw2': 1.22, 'flw1': 0.0, 'flw0': 2.59, 'time': 16.97, 'compass': 132.89, 'pitch': 2.89, 'roll': -1.25}
{'lipoC2': 8.01, 'temp': 0.0, 'lipoC3S3': 12.02, 'state': 'normal', 'rot1': 15, 'rot0': 27, 'rot3': 0, 'rot2': 0, 'depth': -0.217, 'yaw': 111.31, 'datetime': '2018-12-12 10:57:34.802857', 'mgs': 0, 'flw2': 0.63, 'flw1': 0.67, 'flw0': 2.21, 'time': 17.18, 'compass': 126.07, 'pitch': 3.67, 'roll': -1.3}
{'lipoC2': 8.12, 'temp': 0.0, 'lipoC3S3': 11.92, 'state': 'normal', 'rot1': 17, 'rot0': 29, 'rot3': 0, 'rot2': 0, 'depth': 0.317, 'yaw': 104.3, 'datetime': '2018-12-12 10:57:35.010735', 'mgs': 0, 'flw2': 0.79, 'flw1': 0.0, 'flw0': 2.54, 'time': 17.39, 'compass': 119.06, 'pitch': 4.33, 'roll': -1.34}
{'lipoC2': 8.06, 'temp': 0.0, 'lipoC3S3': 11.89, 'state': 'normal', 'rot1': 20, 'rot0': 30, 'rot3': 0, 'rot2': 0, 'depth': -0.369, 'yaw': 97.45, 'datetime': '2018-12-12 10:57:35.221412', 'mgs': 0, 'flw2': 0.52, 'flw1': 0.41, 'flw0': 2.4, 'time': 17.59, 'compass': 112.2, 'pitch': 4.53, 'roll': -1.43}
{'lipoC2': 8.26, 'temp': 0.0, 'lipoC3S3': 12.05, 'state': 'normal', 'rot1': 22, 'rot0': 31, 'rot3': 0, 'rot2': 0, 'depth': -0.751, 'yaw': 90.55, 'datetime': '2018-12-12 10:57:35.429612', 'mgs': 0, 'flw2': 0.62, 'flw1': 0.15, 'flw0': 2.53, 'time': 17.8, 'compass': 105.31, 'pitch': 4.53, 'roll': -1.67}
{'lipoC2': 8.06, 'temp': 0.0, 'lipoC3S3': 11.9, 'state': 'normal', 'rot1': 25, 'rot0': 33, 'rot3': 0, 'rot2': 0, 'depth': 2.988, 'yaw': 83.82, 'datetime': '2018-12-12 10:57:35.638820', 'mgs': 0, 'flw2': 0.63, 'flw1': 0.0, 'flw0': 2.73, 'time': 18.01, 'compass': 98.58, 'pitch': 4.05, 'roll': -1.87}
{'lipoC2': 8.09, 'temp': 0.0, 'lipoC3S3': 11.92, 'state': 'normal', 'rot1': 27, 'rot0': 34, 'rot3': 0, 'rot2': 0, 'depth': 2.225, 'yaw': 76.43, 'datetime': '2018-12-12 10:57:35.848083', 'mgs': 0, 'flw2': 0.59, 'flw1': 0.0, 'flw0': 5.05, 'time': 18.22, 'compass': 91.19, 'pitch': 3.29, 'roll': -2.09}
{'lipoC2': 7.96, 'temp': 0.0, 'lipoC3S3': 12.35, 'state': 'normal', 'rot1': 31, 'rot0': 36, 'rot3': 0, 'rot2': 0, 'depth': -0.064, 'yaw': 67.8, 'datetime': '2018-12-12 10:57:36.057409', 'mgs': 0, 'flw2': 0.72, 'flw1': 0.0, 'flw0': 5.07, 'time': 18.43, 'compass': 82.56, 'pitch': 3.91, 'roll': -2.52}
{'lipoC2': 7.98, 'temp': 0.0, 'lipoC3S3': 11.9, 'state': 'normal', 'rot1': 34, 'rot0': 37, 'rot3': 0, 'rot2': 0, 'depth': 0.165, 'yaw': 58.08, 'datetime': '2018-12-12 10:57:36.267025', 'mgs': 0, 'flw2': 4.17, 'flw1': 0.0, 'flw0': 3.45, 'time': 18.64, 'compass': 72.84, 'pitch': 5.59, 'roll': -3.11}
{'lipoC2': 7.95, 'temp': 0.0, 'lipoC3S3': 12.21, 'state': 'normal', 'rot1': 37, 'rot0': 40, 'rot3': 0, 'rot2': 0, 'depth': 0.165, 'yaw': 50.02, 'datetime': '2018-12-12 10:57:36.475119', 'mgs': 0, 'flw2': 4.44, 'flw1': 0.0, 'flw0': 0.76, 'time': 18.85, 'compass': 64.77, 'pitch': 7.1, 'roll': -3.55}
{'lipoC2': 8.27, 'temp': 0.0, 'lipoC3S3': 12.02, 'state': 'normal', 'rot1': 37, 'rot0': 43, 'rot3': 0, 'rot2': 0, 'depth': -0.903, 'yaw': 46.52, 'datetime': '2018-12-12 10:57:36.685674', 'mgs': 0, 'flw2': 4.46, 'flw1': 0.0, 'flw0': 0.0, 'time': 19.05, 'compass': 61.27, 'pitch': 7.22, 'roll': -3.69}
{'lipoC2': 7.98, 'temp': 0.0, 'lipoC3S3': 12.0, 'state': 'normal', 'rot1': 37, 'rot0': 46, 'rot3': 0, 'rot2': 0, 'depth': 0.317, 'yaw': 46.79, 'datetime': '2018-12-12 10:57:36.893405', 'mgs': 0, 'flw2': 4.59, 'flw1': 0.0, 'flw0': 0.17, 'time': 19.26, 'compass': 61.55, 'pitch': 6.15, 'roll': -3.57}
{'lipoC2': 7.98, 'temp': 0.0, 'lipoC3S3': 12.29, 'state': 'normal', 'rot1': 37, 'rot0': 49, 'rot3': 0, 'rot2': 0, 'depth': -0.903, 'yaw': 49.77, 'datetime': '2018-12-12 10:57:37.100031', 'mgs': 0, 'flw2': 4.38, 'flw1': 0.0, 'flw0': 0.66, 'time': 19.47, 'compass': 64.53, 'pitch': 4.67, 'roll': -3.11}
{'lipoC2': 7.95, 'temp': 0.0, 'lipoC3S3': 12.27, 'state': 'normal', 'rot1': 39, 'rot0': 52, 'rot3': 0, 'rot2': 0, 'depth': 0.47, 'yaw': 54.13, 'datetime': '2018-12-12 10:57:37.309815', 'mgs': 0, 'flw2': 4.38, 'flw1': 0.0, 'flw0': 1.01, 'time': 19.68, 'compass': 68.88, 'pitch': 3.49, 'roll': -2.33}
{'lipoC2': 8.01, 'temp': 0.0, 'lipoC3S3': 12.09, 'state': 'normal', 'rot1': 41, 'rot0': 55, 'rot3': 0, 'rot2': 0, 'depth': 1.08, 'yaw': 58.86, 'datetime': '2018-12-12 10:57:37.519331', 'mgs': 0, 'flw2': 4.44, 'flw1': 0.0, 'flw0': 1.43, 'time': 19.89, 'compass': 73.62, 'pitch': 2.98, 'roll': -1.27}
{'lipoC2': 8.02, 'temp': 0.0, 'lipoC3S3': 11.72, 'state': 'normal', 'rot1': 43, 'rot0': 58, 'rot3': 0, 'rot2': 0, 'depth': 2.606, 'yaw': 62.96, 'datetime': '2018-12-12 10:57:37.727355', 'mgs': 0, 'flw2': 4.26, 'flw1': 0.0, 'flw0': 3.05, 'time': 20.1, 'compass': 77.71, 'pitch': 2.95, 'roll': -0.2}
{'lipoC2': 8.21, 'temp': 0.0, 'lipoC3S3': 11.88, 'state': 'normal', 'rot1': 47, 'rot0': 60, 'rot3': 0, 'rot2': 0, 'depth': -0.903, 'yaw': 65.7, 'datetime': '2018-12-12 10:57:37.936579', 'mgs': 0, 'flw2': 3.54, 'flw1': 0.0, 'flw0': 5.31, 'time': 20.31, 'compass': 80.45, 'pitch': 3.35, 'roll': 0.89}
{'lipoC2': 7.94, 'temp': 0.0, 'lipoC3S3': 12.23, 'state': 'normal', 'rot1': 51, 'rot0': 63, 'rot3': 0, 'rot2': 0, 'depth': 0.089, 'yaw': 65.74, 'datetime': '2018-12-12 10:57:38.145328', 'mgs': 0, 'flw2': 3.87, 'flw1': 0.0, 'flw0': 5.63, 'time': 20.51, 'compass': 80.5, 'pitch': 3.84, 'roll': 1.8}
{'lipoC2': 8.12, 'temp': 0.0, 'lipoC3S3': 11.85, 'state': 'normal', 'rot1': 54, 'rot0': 66, 'rot3': 0, 'rot2': 0, 'depth': 0.928, 'yaw': 64.12, 'datetime': '2018-12-12 10:57:38.354495', 'mgs': 0, 'flw2': 3.54, 'flw1': 0.5, 'flw0': 5.22, 'time': 20.72, 'compass': 78.88, 'pitch': 4.81, 'roll': 2.77}
{'lipoC2': 8.26, 'temp': 0.0, 'lipoC3S3': 11.98, 'state': 'normal', 'rot1': 58, 'rot0': 69, 'rot3': 0, 'rot2': 0, 'depth': -0.446, 'yaw': 61.84, 'datetime': '2018-12-12 10:57:38.564946', 'mgs': 0, 'flw2': 3.66, 'flw1': 0.0, 'flw0': 5.6, 'time': 20.93, 'compass': 76.59, 'pitch': 6.1, 'roll': 3.36}
{'lipoC2': 8.22, 'temp': 0.0, 'lipoC3S3': 11.84, 'state': 'normal', 'rot1': 62, 'rot0': 72, 'rot3': 0, 'rot2': 0, 'depth': 0.317, 'yaw': 59.06, 'datetime': '2018-12-12 10:57:38.772956', 'mgs': 0, 'flw2': 4.19, 'flw1': 0.67, 'flw0': 2.08, 'time': 21.14, 'compass': 73.82, 'pitch': 7.11, 'roll': 3.37}
{'lipoC2': 7.98, 'temp': 0.0, 'lipoC3S3': 11.92, 'state': 'normal', 'rot1': 64, 'rot0': 75, 'rot3': 0, 'rot2': 0, 'depth': 0.089, 'yaw': 57.67, 'datetime': '2018-12-12 10:57:38.981846', 'mgs': 0, 'flw2': 5.57, 'flw1': 0.0, 'flw0': 2.48, 'time': 21.35, 'compass': 72.43, 'pitch': 7.04, 'roll': 3.18}
{'lipoC2': 8.0, 'temp': 0.0, 'lipoC3S3': 12.14, 'state': 'normal', 'rot1': 67, 'rot0': 79, 'rot3': 0, 'rot2': 0, 'depth': 0.699, 'yaw': 58.3, 'datetime': '2018-12-12 10:57:39.189056', 'mgs': 0, 'flw2': 6.36, 'flw1': 0.0, 'flw0': 2.39, 'time': 21.56, 'compass': 73.05, 'pitch': 6.36, 'roll': 2.78}
{'lipoC2': 7.97, 'temp': 0.0, 'lipoC3S3': 12.33, 'state': 'normal', 'rot1': 69, 'rot0': 82, 'rot3': 0, 'rot2': 0, 'depth': 0.012, 'yaw': 60.34, 'datetime': '2018-12-12 10:57:39.402144', 'mgs': 0, 'flw2': 6.02, 'flw1': 0.0, 'flw0': 2.54, 'time': 21.77, 'compass': 75.09, 'pitch': 6.0, 'roll': 2.28}
{'lipoC2': 8.12, 'temp': 0.0, 'lipoC3S3': 11.85, 'state': 'normal', 'rot1': 71, 'rot0': 85, 'rot3': 0, 'rot2': 0, 'depth': 0.394, 'yaw': 63.12, 'datetime': '2018-12-12 10:57:39.611703', 'mgs': 0, 'flw2': 6.07, 'flw1': 0.73, 'flw0': 2.09, 'time': 21.98, 'compass': 77.88, 'pitch': 6.06, 'roll': 2.04}
{'lipoC2': 7.94, 'temp': 0.0, 'lipoC3S3': 12.22, 'state': 'normal', 'rot1': 74, 'rot0': 88, 'rot3': 0, 'rot2': 0, 'depth': 0.47, 'yaw': 67.02, 'datetime': '2018-12-12 10:57:39.819583', 'mgs': 0, 'flw2': 6.35, 'flw1': 0.0, 'flw0': 2.22, 'time': 22.18, 'compass': 81.78, 'pitch': 6.08, 'roll': 2.07}
{'lipoC2': 8.04, 'temp': 0.0, 'lipoC3S3': 12.04, 'state': 'normal', 'rot1': 76, 'rot0': 92, 'rot3': 0, 'rot2': 0, 'depth': 0.775, 'yaw': 71.69, 'datetime': '2018-12-12 10:57:40.025732', 'mgs': 0, 'flw2': 6.3, 'flw1': 0.0, 'flw0': 2.32, 'time': 22.39, 'compass': 86.44, 'pitch': 5.83, 'roll': 2.15}
{'lipoC2': 7.96, 'temp': 0.0, 'lipoC3S3': 12.0, 'state': 'normal', 'rot1': 79, 'rot0': 95, 'rot3': 0, 'rot2': 0, 'depth': 1.767, 'yaw': 76.57, 'datetime': '2018-12-12 10:57:40.236714', 'mgs': 0, 'flw2': 5.09, 'flw1': 0.7, 'flw0': 5.87, 'time': 22.6, 'compass': 91.33, 'pitch': 5.93, 'roll': 2.1}
{'lipoC2': 8.0, 'temp': 0.0, 'lipoC3S3': 12.05, 'state': 'normal', 'rot1': 84, 'rot0': 99, 'rot3': 0, 'rot2': 0, 'depth': 1.691, 'yaw': 79.59, 'datetime': '2018-12-12 10:57:40.446042', 'mgs': 0, 'flw2': 5.1, 'flw1': 0.0, 'flw0': 5.58, 'time': 22.81, 'compass': 94.34, 'pitch': 6.79, 'roll': 2.18}
{'lipoC2': 8.12, 'temp': 0.0, 'lipoC3S3': 11.84, 'state': 'normal', 'rot1': 88, 'rot0': 102, 'rot3': 0, 'rot2': 0, 'depth': 3.217, 'yaw': 81.22, 'datetime': '2018-12-12 10:57:40.653616', 'mgs': 0, 'flw2': 5.4, 'flw1': 0.0, 'flw0': 5.94, 'time': 23.02, 'compass': 95.97, 'pitch': 7.49, 'roll': 2.59}
{'lipoC2': 7.99, 'temp': 0.0, 'lipoC3S3': 11.96, 'state': 'normal', 'rot1': 92, 'rot0': 105, 'rot3': 0, 'rot2': 0, 'depth': 1.691, 'yaw': 81.96, 'datetime': '2018-12-12 10:57:40.862912', 'mgs': 0, 'flw2': 5.13, 'flw1': 0.0, 'flw0': 5.8, 'time': 23.23, 'compass': 96.72, 'pitch': 7.84, 'roll': 3.29}
{'lipoC2': 8.25, 'temp': 0.0, 'lipoC3S3': 11.9, 'state': 'normal', 'rot1': 96, 'rot0': 108, 'rot3': 0, 'rot2': 0, 'depth': -0.827, 'yaw': 82.3, 'datetime': '2018-12-12 10:57:41.072161', 'mgs': 0, 'flw2': 5.47, 'flw1': 0.0, 'flw0': 6.07, 'time': 23.44, 'compass': 97.05, 'pitch': 7.85, 'roll': 4.06}
{'lipoC2': 8.26, 'temp': 0.0, 'lipoC3S3': 11.93, 'state': 'normal', 'rot1': 100, 'rot0': 111, 'rot3': 0, 'rot2': 0, 'depth': 1.92, 'yaw': 82.3, 'datetime': '2018-12-12 10:57:41.283896', 'mgs': 0, 'flw2': 5.29, 'flw1': 0.0, 'flw0': 5.8, 'time': 23.65, 'compass': 97.05, 'pitch': 7.72, 'roll': 4.3}
{'lipoC2': 8.0, 'temp': 0.0, 'lipoC3S3': 11.81, 'state': 'normal', 'rot1': 104, 'rot0': 114, 'rot3': 0, 'rot2': 0, 'depth': 0.012, 'yaw': 82.38, 'datetime': '2018-12-12 10:57:41.492369', 'mgs': 0, 'flw2': 5.55, 'flw1': 0.0, 'flw0': 5.76, 'time': 23.86, 'compass': 97.14, 'pitch': 7.57, 'roll': 4.26}
{'lipoC2': 7.99, 'temp': 0.0, 'lipoC3S3': 11.96, 'state': 'normal', 'rot1': 108, 'rot0': 117, 'rot3': 0, 'rot2': 0, 'depth': 2.454, 'yaw': 82.44, 'datetime': '2018-12-12 10:57:41.702650', 'mgs': 0, 'flw2': 5.3, 'flw1': 0.0, 'flw0': 5.49, 'time': 24.07, 'compass': 97.2, 'pitch': 7.26, 'roll': 4.24}
{'lipoC2': 7.99, 'temp': 0.0, 'lipoC3S3': 11.79, 'state': 'normal', 'rot1': 112, 'rot0': 120, 'rot3': 0, 'rot2': 0, 'depth': 2.454, 'yaw': 82.43, 'datetime': '2018-12-12 10:57:41.911512', 'mgs': 0, 'flw2': 5.0, 'flw1': 0.0, 'flw0': 5.79, 'time': 24.27, 'compass': 97.18, 'pitch': 6.49, 'roll': 4.25}
{'lipoC2': 8.11, 'temp': 0.0, 'lipoC3S3': 11.93, 'state': 'normal', 'rot1': 115, 'rot0': 123, 'rot3': 0, 'rot2': 0, 'depth': 1.08, 'yaw': 82.37, 'datetime': '2018-12-12 10:57:42.120135', 'mgs': 0, 'flw2': 5.14, 'flw1': 0.29, 'flw0': 5.62, 'time': 24.48, 'compass': 97.13, 'pitch': 5.48, 'roll': 3.79}
{'lipoC2': 7.97, 'temp': 0.0, 'lipoC3S3': 11.76, 'state': 'normal', 'rot1': 119, 'rot0': 127, 'rot3': 0, 'rot2': 0, 'depth': 0.012, 'yaw': 82.45, 'datetime': '2018-12-12 10:57:42.330500', 'mgs': 0, 'flw2': 5.3, 'flw1': 0.67, 'flw0': 5.66, 'time': 24.69, 'compass': 97.21, 'pitch': 4.96, 'roll': 2.81}
{'lipoC2': 8.02, 'temp': 0.0, 'lipoC3S3': 11.72, 'state': 'normal', 'rot1': 123, 'rot0': 130, 'rot3': 0, 'rot2': 0, 'depth': 0.623, 'yaw': 83.14, 'datetime': '2018-12-12 10:57:42.540964', 'mgs': 0, 'flw2': 7.12, 'flw1': 0.44, 'flw0': 5.86, 'time': 24.9, 'compass': 97.89, 'pitch': 5.06, 'roll': 2.09}
{'lipoC2': 8.01, 'temp': 0.0, 'lipoC3S3': 12.06, 'state': 'normal', 'rot1': 127, 'rot0': 135, 'rot3': 0, 'rot2': 0, 'depth': -0.064, 'yaw': 85.06, 'datetime': '2018-12-12 10:57:42.743691', 'mgs': 0, 'flw2': 7.34, 'flw1': 0.0, 'flw0': 5.13, 'time': 25.11, 'compass': 99.81, 'pitch': 5.57, 'roll': 1.85}
{'lipoC2': 8.07, 'temp': 0.0, 'lipoC3S3': 11.72, 'state': 'normal', 'rot1': 132, 'rot0': 140, 'rot3': 0, 'rot2': 0, 'depth': 2.225, 'yaw': 88.08, 'datetime': '2018-12-12 10:57:42.953215', 'mgs': 0, 'flw2': 7.74, 'flw1': 0.0, 'flw0': 5.54, 'time': 25.32, 'compass': 102.83, 'pitch': 6.29, 'roll': 1.63}
{'lipoC2': 8.06, 'temp': 0.0, 'lipoC3S3': 11.94, 'state': 'normal', 'rot1': 137, 'rot0': 145, 'rot3': 0, 'rot2': 0, 'depth': 1.538, 'yaw': 91.53, 'datetime': '2018-12-12 10:57:43.161525', 'mgs': 0, 'flw2': 7.59, 'flw1': 0.0, 'flw0': 5.3, 'time': 25.53, 'compass': 106.29, 'pitch': 6.91, 'roll': 1.64}
{'lipoC2': 8.01, 'temp': 0.0, 'lipoC3S3': 12.18, 'state': 'normal', 'rot1': 142, 'rot0': 149, 'rot3': 0, 'rot2': 0, 'depth': 2.835, 'yaw': 95.35, 'datetime': '2018-12-12 10:57:43.373995', 'mgs': 0, 'flw2': 8.01, 'flw1': 0.0, 'flw0': 5.32, 'time': 25.74, 'compass': 110.1, 'pitch': 7.41, 'roll': 2.22}
{'lipoC2': 7.94, 'temp': 0.0, 'lipoC3S3': 12.19, 'state': 'normal', 'rot1': 147, 'rot0': 153, 'rot3': 0, 'rot2': 0, 'depth': 1.385, 'yaw': 99.15, 'datetime': '2018-12-12 10:57:43.579463', 'mgs': 0, 'flw2': 7.8, 'flw1': 0.67, 'flw0': 5.11, 'time': 25.95, 'compass': 113.91, 'pitch': 7.62, 'roll': 2.96}
{'lipoC2': 8.0, 'temp': 0.0, 'lipoC3S3': 12.27, 'state': 'normal', 'rot1': 152, 'rot0': 159, 'rot3': 0, 'rot2': 0, 'depth': 0.317, 'yaw': 102.61, 'datetime': '2018-12-12 10:57:43.791584', 'mgs': 0, 'flw2': 8.07, 'flw1': 0.0, 'flw0': 5.54, 'time': 26.16, 'compass': 117.36, 'pitch': 8.03, 'roll': 3.47}
{'lipoC2': 8.02, 'temp': 0.0, 'lipoC3S3': 11.55, 'state': 'normal', 'rot1': 158, 'rot0': 164, 'rot3': 0, 'rot2': 0, 'depth': 1.538, 'yaw': 105.83, 'datetime': '2018-12-12 10:57:44.001379', 'mgs': 0, 'flw2': 7.81, 'flw1': 0.0, 'flw0': 5.11, 'time': 26.37, 'compass': 120.59, 'pitch': 8.58, 'roll': 4.2}
{'lipoC2': 7.94, 'temp': 0.0, 'lipoC3S3': 12.22, 'state': 'normal', 'rot1': 162, 'rot0': 169, 'rot3': 0, 'rot2': 0, 'depth': 0.699, 'yaw': 109.08, 'datetime': '2018-12-12 10:57:44.212757', 'mgs': 0, 'flw2': 7.59, 'flw1': 0.21, 'flw0': 5.32, 'time': 26.58, 'compass': 123.83, 'pitch': 8.55, 'roll': 4.82}
{'lipoC2': 8.16, 'temp': 0.0, 'lipoC3S3': 11.76, 'state': 'normal', 'rot1': 165, 'rot0': 173, 'rot3': 0, 'rot2': 0, 'depth': 0.317, 'yaw': 112.22, 'datetime': '2018-12-12 10:57:44.423289', 'mgs': 0, 'flw2': 7.84, 'flw1': 0.0, 'flw0': 4.98, 'time': 26.78, 'compass': 126.98, 'pitch': 8.5, 'roll': 5.32}
{'lipoC2': 8.27, 'temp': 0.0, 'lipoC3S3': 11.92, 'state': 'normal', 'rot1': 169, 'rot0': 178, 'rot3': 0, 'rot2': 0, 'depth': -0.751, 'yaw': 115.36, 'datetime': '2018-12-12 10:57:44.629516', 'mgs': 0, 'flw2': 6.77, 'flw1': 0.0, 'flw0': 5.22, 'time': 26.99, 'compass': 130.12, 'pitch': 8.55, 'roll': 5.44}
{'lipoC2': 8.01, 'temp': 0.0, 'lipoC3S3': 11.88, 'state': 'normal', 'rot1': 172, 'rot0': 181, 'rot3': 0, 'rot2': 0, 'depth': 1.08, 'yaw': 118.21, 'datetime': '2018-12-12 10:57:44.839329', 'mgs': 0, 'flw2': 6.82, 'flw1': 0.0, 'flw0': 5.77, 'time': 27.2, 'compass': 132.97, 'pitch': 8.41, 'roll': 5.52}
{'lipoC2': 8.16, 'temp': 0.0, 'lipoC3S3': 12.05, 'state': 'normal', 'rot1': 176, 'rot0': 185, 'rot3': 0, 'rot2': 0, 'depth': 2.377, 'yaw': 120.82, 'datetime': '2018-12-12 10:57:45.048889', 'mgs': 0, 'flw2': 7.54, 'flw1': 0.0, 'flw0': 6.36, 'time': 27.41, 'compass': 135.58, 'pitch': 8.59, 'roll': 5.48}
{'lipoC2': 7.99, 'temp': 0.0, 'lipoC3S3': 11.97, 'state': 'normal', 'rot1': 180, 'rot0': 189, 'rot3': 0, 'rot2': 0, 'depth': 2.606, 'yaw': 123.05, 'datetime': '2018-12-12 10:57:45.259601', 'mgs': 0, 'flw2': 6.05, 'flw1': 0.0, 'flw0': 6.96, 'time': 27.62, 'compass': 137.8, 'pitch': 8.81, 'roll': 5.53}
{'lipoC2': 8.12, 'temp': 0.0, 'lipoC3S3': 11.71, 'state': 'normal', 'rot1': 184, 'rot0': 192, 'rot3': 0, 'rot2': 0, 'depth': -0.064, 'yaw': 124.29, 'datetime': '2018-12-12 10:57:45.468102', 'mgs': 0, 'flw2': 4.15, 'flw1': 0.64, 'flw0': 7.48, 'time': 27.83, 'compass': 139.04, 'pitch': 8.94, 'roll': 5.65}
{'lipoC2': 7.96, 'temp': 0.0, 'lipoC3S3': 12.23, 'state': 'normal', 'rot1': 189, 'rot0': 196, 'rot3': 0, 'rot2': 0, 'depth': 0.317, 'yaw': 124.14, 'datetime': '2018-12-12 10:57:45.677510', 'mgs': 0, 'flw2': 4.24, 'flw1': 0.0, 'flw0': 7.84, 'time': 28.04, 'compass': 138.9, 'pitch': 8.98, 'roll': 5.62}
{'lipoC2': 8.27, 'temp': 0.0, 'lipoC3S3': 11.73, 'state': 'normal', 'rot1': 194, 'rot0': 199, 'rot3': 0, 'rot2': 0, 'depth': -0.674, 'yaw': 123.15, 'datetime': '2018-12-12 10:57:45.886838', 'mgs': 0, 'flw2': 5.71, 'flw1': 0.0, 'flw0': 7.28, 'time': 28.25, 'compass': 137.91, 'pitch': 8.61, 'roll': 5.58}
{'lipoC2': 7.98, 'temp': 0.0, 'lipoC3S3': 11.71, 'state': 'normal', 'rot1': 199, 'rot0': 203, 'rot3': 0, 'rot2': 0, 'depth': 2.225, 'yaw': 122.51, 'datetime': '2018-12-12 10:57:46.095381', 'mgs': 0, 'flw2': 7.65, 'flw1': 0.09, 'flw0': 7.64, 'time': 28.46, 'compass': 137.26, 'pitch': 8.31, 'roll': 5.25}
{'lipoC2': 8.01, 'temp': 0.0, 'lipoC3S3': 12.04, 'state': 'normal', 'rot1': 204, 'rot0': 207, 'rot3': 0, 'rot2': 0, 'depth': 0.394, 'yaw': 123.2, 'datetime': '2018-12-12 10:57:46.306154', 'mgs': 0, 'flw2': 7.92, 'flw1': 0.0, 'flw0': 7.56, 'time': 28.67, 'compass': 137.95, 'pitch': 8.99, 'roll': 4.56}
{'lipoC2': 8.14, 'temp': 0.0, 'lipoC3S3': 11.76, 'state': 'normal', 'rot1': 209, 'rot0': 211, 'rot3': 0, 'rot2': 0, 'depth': 1.538, 'yaw': 124.74, 'datetime': '2018-12-12 10:57:46.517005', 'mgs': 0, 'flw2': 6.03, 'flw1': 0.0, 'flw0': 7.73, 'time': 28.88, 'compass': 139.49, 'pitch': 9.42, 'roll': 3.92}
{'lipoC2': 8.06, 'temp': 0.0, 'lipoC3S3': 12.21, 'state': 'normal', 'rot1': 213, 'rot0': 215, 'rot3': 0, 'rot2': 0, 'depth': 0.851, 'yaw': 126.32, 'datetime': '2018-12-12 10:57:46.725338', 'mgs': 0, 'flw2': 5.41, 'flw1': 0.0, 'flw0': 7.56, 'time': 29.08, 'compass': 141.07, 'pitch': 9.35, 'roll': 3.77}
{'lipoC2': 8.02, 'temp': 0.0, 'lipoC3S3': 11.67, 'state': 'normal', 'rot1': 219, 'rot0': 218, 'rot3': 0, 'rot2': 0, 'depth': 0.012, 'yaw': 127.1, 'datetime': '2018-12-12 10:57:46.935086', 'mgs': 0, 'flw2': 4.54, 'flw1': 0.5, 'flw0': 7.78, 'time': 29.29, 'compass': 141.86, 'pitch': 8.96, 'roll': 3.43}
{'lipoC2': 8.05, 'temp': 0.0, 'lipoC3S3': 11.73, 'state': 'normal', 'rot1': 224, 'rot0': 221, 'rot3': 0, 'rot2': 0, 'depth': 1.08, 'yaw': 127.23, 'datetime': '2018-12-12 10:57:47.148628', 'mgs': 0, 'flw2': 4.32, 'flw1': 0.44, 'flw0': 7.45, 'time': 29.5, 'compass': 141.98, 'pitch': 8.24, 'roll': 2.69}
{'lipoC2': 7.98, 'temp': 0.0, 'lipoC3S3': 12.23, 'state': 'normal', 'rot1': 228, 'rot0': 224, 'rot3': 0, 'rot2': 0, 'depth': 0.165, 'yaw': 126.8, 'datetime': '2018-12-12 10:57:47.352985', 'mgs': 0, 'flw2': 4.39, 'flw1': 0.0, 'flw0': 7.42, 'time': 29.71, 'compass': 141.55, 'pitch': 7.55, 'roll': 2.04}
{'lipoC2': 8.0, 'temp': 0.0, 'lipoC3S3': 11.94, 'state': 'normal', 'rot1': 233, 'rot0': 227, 'rot3': 0, 'rot2': 0, 'depth': 2.072, 'yaw': 125.9, 'datetime': '2018-12-12 10:57:47.562371', 'mgs': 0, 'flw2': 4.52, 'flw1': 0.0, 'flw0': 7.65, 'time': 29.92, 'compass': 140.65, 'pitch': 6.95, 'roll': 1.62}
{'lipoC2': 7.99, 'temp': 0.0, 'lipoC3S3': 11.71, 'state': 'normal', 'rot1': 237, 'rot0': 230, 'rot3': 0, 'rot2': 0, 'depth': -0.827, 'yaw': 124.05, 'datetime': '2018-12-12 10:57:47.773248', 'mgs': 0, 'flw2': 2.91, 'flw1': 0.26, 'flw0': 8.37, 'time': 30.13, 'compass': 138.8, 'pitch': 6.5, 'roll': 0.88}
{'lipoC2': 7.99, 'temp': 0.0, 'lipoC3S3': 12.26, 'state': 'normal', 'rot1': 242, 'rot0': 232, 'rot3': 0, 'rot2': 0, 'depth': 0.699, 'yaw': 120.28, 'datetime': '2018-12-12 10:57:47.982815', 'mgs': 0, 'flw2': 2.75, 'flw1': 0.0, 'flw0': 8.53, 'time': 30.34, 'compass': 135.03, 'pitch': 6.41, 'roll': 0.02}
{'lipoC2': 8.01, 'temp': 0.0, 'lipoC3S3': 12.0, 'state': 'normal', 'rot1': 247, 'rot0': 235, 'rot3': 0, 'rot2': 0, 'depth': 0.699, 'yaw': 115.73, 'datetime': '2018-12-12 10:57:48.191106', 'mgs': 0, 'flw2': 3.03, 'flw1': 0.0, 'flw0': 8.45, 'time': 30.55, 'compass': 130.49, 'pitch': 6.46, 'roll': -0.54}
{'lipoC2': 7.95, 'temp': 0.0, 'lipoC3S3': 12.21, 'state': 'normal', 'rot1': 253, 'rot0': 238, 'rot3': 0, 'rot2': 0, 'depth': 1.309, 'yaw': 110.45, 'datetime': '2018-12-12 10:57:48.400590', 'mgs': 0, 'flw2': 4.24, 'flw1': 0.0, 'flw0': 8.53, 'time': 30.76, 'compass': 125.2, 'pitch': 7.05, 'roll': -1.01}
{'lipoC2': 8.06, 'temp': 0.0, 'lipoC3S3': 11.54, 'state': 'normal', 'rot1': 258, 'rot0': 241, 'rot3': 0, 'rot2': 0, 'depth': 0.241, 'yaw': 105.11, 'datetime': '2018-12-12 10:57:48.609208', 'mgs': 0, 'flw2': 4.36, 'flw1': 0.5, 'flw0': 8.22, 'time': 30.97, 'compass': 119.87, 'pitch': 8.25, 'roll': -1.49}
{'lipoC2': 8.04, 'temp': 0.0, 'lipoC3S3': 11.65, 'state': 'normal', 'rot1': 264, 'rot0': 244, 'rot3': 0, 'rot2': 0, 'depth': 2.911, 'yaw': 99.66, 'datetime': '2018-12-12 10:57:48.819986', 'mgs': 0, 'flw2': 4.35, 'flw1': 0.62, 'flw0': 8.54, 'time': 31.18, 'compass': 114.42, 'pitch': 9.49, 'roll': -2.09}
{'lipoC2': 8.0, 'temp': 0.0, 'lipoC3S3': 11.85, 'state': 'normal', 'rot1': 269, 'rot0': 248, 'rot3': 0, 'rot2': 0, 'depth': 1.309, 'yaw': 94.03, 'datetime': '2018-12-12 10:57:49.029169', 'mgs': 0, 'flw2': 4.32, 'flw1': 0.0, 'flw0': 8.25, 'time': 31.39, 'compass': 108.79, 'pitch': 10.41, 'roll': -3.03}
{'lipoC2': 7.95, 'temp': 0.0, 'lipoC3S3': 12.21, 'state': 'normal', 'rot1': 274, 'rot0': 251, 'rot3': 0, 'rot2': 0, 'depth': 1.462, 'yaw': 88.41, 'datetime': '2018-12-12 10:57:49.238622', 'mgs': 0, 'flw2': 4.74, 'flw1': 0.7, 'flw0': 8.68, 'time': 31.59, 'compass': 103.17, 'pitch': 10.99, 'roll': -3.92}
{'lipoC2': 8.26, 'temp': 0.0, 'lipoC3S3': 11.72, 'state': 'normal', 'rot1': 279, 'rot0': 254, 'rot3': 0, 'rot2': 0, 'depth': 1.843, 'yaw': 82.2, 'datetime': '2018-12-12 10:57:49.447929', 'mgs': 0, 'flw2': 4.77, 'flw1': 0.0, 'flw0': 8.53, 'time': 31.8, 'compass': 96.96, 'pitch': 11.11, 'roll': -4.88}
{'lipoC2': 8.09, 'temp': 0.0, 'lipoC3S3': 11.75, 'state': 'normal', 'rot1': 284, 'rot0': 258, 'rot3': 0, 'rot2': 0, 'depth': 2.911, 'yaw': 75.9, 'datetime': '2018-12-12 10:57:49.657236', 'mgs': 0, 'flw2': 5.26, 'flw1': 0.76, 'flw0': 7.42, 'time': 32.01, 'compass': 90.65, 'pitch': 10.86, 'roll': -6.04}
{'lipoC2': 8.01, 'temp': 0.0, 'lipoC3S3': 12.01, 'state': 'normal', 'rot1': 288, 'rot0': 261, 'rot3': 0, 'rot2': 0, 'depth': 2.148, 'yaw': 70.3, 'datetime': '2018-12-12 10:57:49.866136', 'mgs': 0, 'flw2': 7.12, 'flw1': 0.0, 'flw0': 5.22, 'time': 32.22, 'compass': 85.05, 'pitch': 10.33, 'roll': -6.91}
{'lipoC2': 8.0, 'temp': 0.0, 'lipoC3S3': 11.85, 'state': 'normal', 'rot1': 292, 'rot0': 265, 'rot3': 0, 'rot2': 0, 'depth': 2.759, 'yaw': 66.35, 'datetime': '2018-12-12 10:57:50.076663', 'mgs': 0, 'flw2': 7.65, 'flw1': 0.0, 'flw0': 5.36, 'time': 32.43, 'compass': 81.1, 'pitch': 9.82, 'roll': -7.36}
{'lipoC2': 8.0, 'temp': 0.0, 'lipoC3S3': 11.93, 'state': 'normal', 'rot1': 295, 'rot0': 269, 'rot3': 0, 'rot2': 0, 'depth': 0.928, 'yaw': 63.5, 'datetime': '2018-12-12 10:57:50.286166', 'mgs': 0, 'flw2': 7.5, 'flw1': 0.0, 'flw0': 5.54, 'time': 32.64, 'compass': 78.25, 'pitch': 9.7, 'roll': -7.76}
{'lipoC2': 8.13, 'temp': 0.0, 'lipoC3S3': 11.71, 'state': 'normal', 'rot1': 300, 'rot0': 273, 'rot3': 0, 'rot2': 0, 'depth': 1.614, 'yaw': 60.98, 'datetime': '2018-12-12 10:57:50.495899', 'mgs': 0, 'flw2': 7.08, 'flw1': 0.64, 'flw0': 5.69, 'time': 32.85, 'compass': 75.73, 'pitch': 9.28, 'roll': -7.97}
{'lipoC2': 8.01, 'temp': 0.0, 'lipoC3S3': 12.14, 'state': 'normal', 'rot1': 304, 'rot0': 277, 'rot3': 0, 'rot2': 0, 'depth': 2.377, 'yaw': 58.96, 'datetime': '2018-12-12 10:57:50.704233', 'mgs': 0, 'flw2': 7.87, 'flw1': 0.0, 'flw0': 4.69, 'time': 33.06, 'compass': 73.72, 'pitch': 8.2, 'roll': -7.5}
{'lipoC2': 8.04, 'temp': 0.0, 'lipoC3S3': 11.55, 'state': 'normal', 'rot1': 307, 'rot0': 281, 'rot3': 0, 'rot2': 0, 'depth': 2.759, 'yaw': 57.39, 'datetime': '2018-12-12 10:57:50.913894', 'mgs': 0, 'flw2': 7.86, 'flw1': 0.47, 'flw0': 4.63, 'time': 33.27, 'compass': 72.14, 'pitch': 7.04, 'roll': -6.56}
{'lipoC2': 7.99, 'temp': 0.0, 'lipoC3S3': 11.76, 'state': 'normal', 'rot1': 310, 'rot0': 285, 'rot3': 0, 'rot2': 0, 'depth': 3.827, 'yaw': 55.99, 'datetime': '2018-12-12 10:57:51.123460', 'mgs': 0, 'flw2': 8.7, 'flw1': 0.0, 'flw0': 1.62, 'time': 33.48, 'compass': 70.75, 'pitch': 6.9, 'roll': -5.47}
{'lipoC2': 8.26, 'temp': 0.0, 'lipoC3S3': 11.9, 'state': 'normal', 'rot1': 312, 'rot0': 290, 'rot3': 0, 'rot2': 0, 'depth': -0.598, 'yaw': 56.33, 'datetime': '2018-12-12 10:57:51.333040', 'mgs': 0, 'flw2': 8.44, 'flw1': 0.56, 'flw0': 1.6, 'time': 33.69, 'compass': 71.09, 'pitch': 6.73, 'roll': -4.33}
{'lipoC2': 8.14, 'temp': 0.0, 'lipoC3S3': 11.81, 'state': 'normal', 'rot1': 314, 'rot0': 294, 'rot3': 0, 'rot2': 0, 'depth': 2.225, 'yaw': 58.71, 'datetime': '2018-12-12 10:57:51.543889', 'mgs': 0, 'flw2': 8.31, 'flw1': 0.67, 'flw0': 1.34, 'time': 33.9, 'compass': 73.46, 'pitch': 6.52, 'roll': -2.83}
{'lipoC2': 8.08, 'temp': 0.0, 'lipoC3S3': 11.75, 'state': 'normal', 'rot1': 317, 'rot0': 298, 'rot3': 0, 'rot2': 0, 'depth': 2.682, 'yaw': 62.45, 'datetime': '2018-12-12 10:57:51.752213', 'mgs': 0, 'flw2': 8.12, 'flw1': 0.7, 'flw0': 1.32, 'time': 34.1, 'compass': 77.21, 'pitch': 6.25, 'roll': -1.21}
{'lipoC2': 8.19, 'temp': 0.0, 'lipoC3S3': 11.8, 'state': 'normal', 'rot1': 319, 'rot0': 302, 'rot3': 0, 'rot2': 0, 'depth': 0.089, 'yaw': 66.97, 'datetime': '2018-12-12 10:57:51.961865', 'mgs': 0, 'flw2': 8.39, 'flw1': 0.0, 'flw0': 1.73, 'time': 34.31, 'compass': 81.72, 'pitch': 6.3, 'roll': 0.25}
{'lipoC2': 8.0, 'temp': 0.0, 'lipoC3S3': 11.72, 'state': 'normal', 'rot1': 321, 'rot0': 307, 'rot3': 0, 'rot2': 0, 'depth': 3.217, 'yaw': 72.51, 'datetime': '2018-12-12 10:57:52.170433', 'mgs': 0, 'flw2': 8.56, 'flw1': 0.0, 'flw0': 1.15, 'time': 34.52, 'compass': 87.27, 'pitch': 6.66, 'roll': 1.71}
{'lipoC2': 8.02, 'temp': 0.0, 'lipoC3S3': 11.67, 'state': 'normal', 'rot1': 323, 'rot0': 310, 'rot3': 0, 'rot2': 0, 'depth': 0.165, 'yaw': 78.29, 'datetime': '2018-12-12 10:57:52.380285', 'mgs': 0, 'flw2': 8.26, 'flw1': 0.32, 'flw0': 0.95, 'time': 34.73, 'compass': 93.05, 'pitch': 7.61, 'roll': 3.13}
{'lipoC2': 7.94, 'temp': 0.0, 'lipoC3S3': 12.16, 'state': 'normal', 'rot1': 324, 'rot0': 315, 'rot3': 0, 'rot2': 0, 'depth': 1.157, 'yaw': 84.28, 'datetime': '2018-12-12 10:57:52.591280', 'mgs': 0, 'flw2': 8.57, 'flw1': 0.0, 'flw0': 0.32, 'time': 34.94, 'compass': 99.04, 'pitch': 8.46, 'roll': 3.73}
{'lipoC2': 7.99, 'temp': 0.0, 'lipoC3S3': 11.96, 'state': 'normal', 'rot1': 324, 'rot0': 319, 'rot3': 0, 'rot2': 0, 'depth': 2.225, 'yaw': 91.27, 'datetime': '2018-12-12 10:57:52.799785', 'mgs': 0, 'flw2': 2.2, 'flw1': 0.67, 'flw0': 0.0, 'time': 35.15, 'compass': 106.03, 'pitch': 8.41, 'roll': 3.68}
{'lipoC2': 8.26, 'temp': 0.0, 'lipoC3S3': 11.97, 'state': 'normal', 'rot1': 324, 'rot0': 319, 'rot3': 0, 'rot2': 0, 'depth': -0.827, 'yaw': 96.93, 'datetime': '2018-12-12 10:57:53.009215', 'mgs': 0, 'flw2': 0.0, 'flw1': 0.67, 'flw0': 0.0, 'time': 35.36, 'compass': 111.68, 'pitch': 6.52, 'roll': 3.75}
{'lipoC2': 8.06, 'temp': 0.0, 'lipoC3S3': 12.31, 'state': 'normal', 'rot1': 324, 'rot0': 319, 'rot3': 0, 'rot2': 0, 'depth': 0.012, 'yaw': 100.44, 'datetime': '2018-12-12 10:57:53.218826', 'mgs': 0, 'flw2': 0.31, 'flw1': 0.0, 'flw0': 0.0, 'time': 35.57, 'compass': 115.19, 'pitch': 3.33, 'roll': 4.14}
{'lipoC2': 7.99, 'temp': 0.0, 'lipoC3S3': 11.92, 'state': 'normal', 'rot1': 324, 'rot0': 319, 'rot3': 0, 'rot2': 0, 'depth': 2.225, 'yaw': 103.39, 'datetime': '2018-12-12 10:57:53.426879', 'mgs': 0, 'flw2': 0.27, 'flw1': 0.0, 'flw0': 0.26, 'time': 35.78, 'compass': 118.14, 'pitch': -0.4, 'roll': 4.79}
{'lipoC2': 8.26, 'temp': 0.0, 'lipoC3S3': 12.0, 'state': 'normal', 'rot1': 324, 'rot0': 319, 'rot3': 0, 'rot2': 0, 'depth': 0.928, 'yaw': 105.97, 'datetime': '2018-12-12 10:57:53.636579', 'mgs': 0, 'flw2': 0.29, 'flw1': 0.0, 'flw0': 0.0, 'time': 35.99, 'compass': 120.72, 'pitch': -4.36, 'roll': 5.27}
{'lipoC2': 8.01, 'temp': 0.0, 'lipoC3S3': 12.29, 'state': 'normal', 'rot1': 324, 'rot0': 319, 'rot3': 0, 'rot2': 0, 'depth': -0.903, 'yaw': 108.38, 'datetime': '2018-12-12 10:57:53.845947', 'mgs': 0, 'flw2': 0.26, 'flw1': 0.0, 'flw0': 0.05, 'time': 36.2, 'compass': 123.13, 'pitch': -8.03, 'roll': 5.53}
{'lipoC2': 8.27, 'temp': 0.0, 'lipoC3S3': 11.98, 'state': 'normal', 'rot1': 324, 'rot0': 319, 'rot3': 0, 'rot2': 0, 'depth': -0.903, 'yaw': 110.75, 'datetime': '2018-12-12 10:57:54.056615', 'mgs': 0, 'flw2': 0.0, 'flw1': 0.67, 'flw0': 0.0, 'time': 36.41, 'compass': 125.51, 'pitch': -11.01, 'roll': 5.69}
{'lipoC2': 8.05, 'temp': 0.0, 'lipoC3S3': 12.04, 'state': 'normal', 'rot1': 324, 'rot0': 319, 'rot3': 0, 'rot2': 0, 'depth': -0.217, 'yaw': 112.98, 'datetime': '2018-12-12 10:57:54.266696', 'mgs': 0, 'flw2': 0.31, 'flw1': 0.0, 'flw0': 0.16, 'time': 36.62, 'compass': 127.74, 'pitch': -12.68, 'roll': 5.76}
{'lipoC2': 8.05, 'temp': 0.0, 'lipoC3S3': 11.85, 'state': 'normal', 'rot1': 324, 'rot0': 319, 'rot3': 0, 'rot2': 0, 'depth': -0.14, 'yaw': 115.34, 'datetime': '2018-12-12 10:57:54.474737', 'mgs': 0, 'flw2': 0.0, 'flw1': 0.41, 'flw0': 0.0, 'time': 36.82, 'compass': 130.1, 'pitch': -12.67, 'roll': 5.69}
{'lipoC2': 7.99, 'temp': 0.0, 'lipoC3S3': 11.85, 'state': 'normal', 'rot1': 324, 'rot0': 319, 'rot3': 0, 'rot2': 0, 'depth': 2.759, 'yaw': 117.66, 'datetime': '2018-12-12 10:57:54.684134', 'mgs': 0, 'flw2': 0.0, 'flw1': 0.5, 'flw0': 0.0, 'time': 37.03, 'compass': 132.42, 'pitch': -11.49, 'roll': 5.36}
{'lipoC2': 8.12, 'temp': 0.0, 'lipoC3S3': 11.88, 'state': 'normal', 'rot1': 324, 'rot0': 319, 'rot3': 0, 'rot2': 0, 'depth': 2.072, 'yaw': 119.83, 'datetime': '2018-12-12 10:57:54.892465', 'mgs': 0, 'flw2': 0.0, 'flw1': 0.0, 'flw0': 0.09, 'time': 37.24, 'compass': 134.58, 'pitch': -9.69, 'roll': 4.63}
{'lipoC2': 8.06, 'temp': 0.0, 'lipoC3S3': 11.87, 'state': 'normal', 'rot1': 324, 'rot0': 319, 'rot3': 0, 'rot2': 0, 'depth': 0.089, 'yaw': 121.75, 'datetime': '2018-12-12 10:57:55.103024', 'mgs': 0, 'flw2': 0.0, 'flw1': 0.0, 'flw0': 0.23, 'time': 37.45, 'compass': 136.5, 'pitch': -7.37, 'roll': 3.57}
{'lipoC2': 8.0, 'temp': 0.0, 'lipoC3S3': 12.13, 'state': 'normal', 'rot1': 324, 'rot0': 319, 'rot3': 0, 'rot2': 0, 'depth': 0.47, 'yaw': 123.45, 'datetime': '2018-12-12 10:57:55.312290', 'mgs': 0, 'flw2': 0.0, 'flw1': 0.53, 'flw0': 0.0, 'time': 37.66, 'compass': 138.2, 'pitch': -5.36, 'roll': 2.51}
{'lipoC2': 8.0, 'temp': 0.0, 'lipoC3S3': 12.38, 'state': 'normal', 'rot1': 324, 'rot0': 319, 'rot3': 0, 'rot2': 0, 'depth': 0.775, 'yaw': 124.83, 'datetime': '2018-12-12 10:57:55.531473', 'mgs': 0, 'flw2': 0.11, 'flw1': 0.0, 'flw0': 0.31, 'time': 37.87, 'compass': 139.58, 'pitch': -4.56, 'roll': 1.77}
{'lipoC2': 7.96, 'temp': 0.0, 'lipoC3S3': 12.34, 'state': 'normal', 'rot1': 324, 'rot0': 319, 'rot3': 0, 'rot2': 0, 'depth': 0.394, 'yaw': 126.04, 'datetime': '2018-12-12 10:57:55.738612', 'mgs': 0, 'flw2': 0.0, 'flw1': 0.0, 'flw0': 0.17, 'time': 38.08, 'compass': 140.8, 'pitch': -4.49, 'roll': 1.31}
{'lipoC2': 7.98, 'temp': 0.0, 'lipoC3S3': 12.38, 'state': 'normal', 'rot1': 324, 'rot0': 319, 'rot3': 0, 'rot2': 0, 'depth': 0.699, 'yaw': 127.45, 'datetime': '2018-12-12 10:57:56.047348', 'mgs': 0, 'flw2': 0.0, 'flw1': 0.73, 'flw0': 0.11, 'time': 38.39, 'compass': 142.21, 'pitch': -5.33, 'roll': 1.13}
{'lipoC2': 8.01, 'temp': 0.0, 'lipoC3S3': 12.31, 'state': 'normal', 'rot1': 324, 'rot0': 319, 'rot3': 0, 'rot2': 0, 'depth': 0.165, 'yaw': 128.15, 'datetime': '2018-12-12 10:57:56.255024', 'mgs': 0, 'flw2': 0.31, 'flw1': 0.0, 'flw0': 0.0, 'time': 38.6, 'compass': 142.9, 'pitch': -6.67, 'roll': 1.23}
{'lipoC2': 7.97, 'temp': 0.0, 'lipoC3S3': 12.37, 'state': 'normal', 'rot1': 324, 'rot0': 319, 'rot3': 0, 'rot2': 0, 'depth': 0.546, 'yaw': 128.65, 'datetime': '2018-12-12 10:57:56.464126', 'mgs': 0, 'flw2': 0.23, 'flw1': 0.0, 'flw0': 0.0, 'time': 38.81, 'compass': 143.41, 'pitch': -8.03, 'roll': 1.6}
{'lipoC2': 7.99, 'temp': 0.0, 'lipoC3S3': 11.9, 'state': 'normal', 'rot1': 324, 'rot0': 319, 'rot3': 0, 'rot2': 0, 'depth': 0.928, 'yaw': 129.05, 'datetime': '2018-12-12 10:57:56.675383', 'mgs': 0, 'flw2': 0.0, 'flw1': 0.67, 'flw0': 0.0, 'time': 39.02, 'compass': 143.8, 'pitch': -8.8, 'roll': 2.06}
{'lipoC2': 8.13, 'temp': 0.0, 'lipoC3S3': 12.0, 'state': 'normal', 'rot1': 324, 'rot0': 319, 'rot3': 0, 'rot2': 0, 'depth': 0.546, 'yaw': 129.35, 'datetime': '2018-12-12 10:57:56.885500', 'mgs': 0, 'flw2': 0.0, 'flw1': 0.7, 'flw0': 0.0, 'time': 39.23, 'compass': 144.11, 'pitch': -8.96, 'roll': 2.4}
{'lipoC2': 8.04, 'temp': 0.0, 'lipoC3S3': 11.87, 'state': 'normal', 'rot1': 324, 'rot0': 319, 'rot3': 0, 'rot2': 0, 'depth': 3.522, 'yaw': 129.64, 'datetime': '2018-12-12 10:57:57.091278', 'mgs': 0, 'flw2': 0.0, 'flw1': 0.0, 'flw0': 0.21, 'time': 39.43, 'compass': 144.4, 'pitch': -8.93, 'roll': 2.49}
{'lipoC2': 8.04, 'temp': 0.0, 'lipoC3S3': 11.87, 'state': 'normal', 'rot1': 324, 'rot0': 319, 'rot3': 0, 'rot2': 0, 'depth': 3.598, 'yaw': 129.89, 'datetime': '2018-12-12 10:57:57.301824', 'mgs': 0, 'flw2': 0.0, 'flw1': 0.0, 'flw0': 0.21, 'time': 39.64, 'compass': 144.64, 'pitch': -8.89, 'roll': 2.46}
{'lipoC2': 7.99, 'temp': 0.0, 'lipoC3S3': 11.94, 'state': 'normal', 'rot1': 324, 'rot0': 319, 'rot3': 0, 'rot2': 0, 'depth': 0.012, 'yaw': 130.19, 'datetime': '2018-12-12 10:57:57.510387', 'mgs': 0, 'flw2': 0.0, 'flw1': 0.0, 'flw0': 0.12, 'time': 39.85, 'compass': 144.94, 'pitch': -8.58, 'roll': 2.24}
{'lipoC2': 7.98, 'temp': 0.0, 'lipoC3S3': 12.0, 'state': 'normal', 'rot1': 324, 'rot0': 319, 'rot3': 0, 'rot2': 0, 'depth': 3.522, 'yaw': 130.58, 'datetime': '2018-12-12 10:57:57.719360', 'mgs': 0, 'flw2': 0.0, 'flw1': 0.35, 'flw0': 0.0, 'time': 40.06, 'compass': 145.33, 'pitch': -7.92, 'roll': 1.96}
{'lipoC2': 7.98, 'temp': 0.0, 'lipoC3S3': 12.38, 'state': 'normal', 'rot1': 324, 'rot0': 319, 'rot3': 0, 'rot2': 0, 'depth': 0.012, 'yaw': 130.97, 'datetime': '2018-12-12 10:57:57.932484', 'mgs': 0, 'flw2': 0.0, 'flw1': 0.0, 'flw0': 0.11, 'time': 40.27, 'compass': 145.72, 'pitch': -7.38, 'roll': 1.66}
{'lipoC2': 8.02, 'temp': 0.0, 'lipoC3S3': 11.87, 'state': 'normal', 'rot1': 324, 'rot0': 319, 'rot3': 0, 'rot2': 0, 'depth': 3.674, 'yaw': 131.34, 'datetime': '2018-12-12 10:57:58.141012', 'mgs': 0, 'flw2': 0.24, 'flw1': 0.0, 'flw0': 0.33, 'time': 40.48, 'compass': 146.09, 'pitch': -7.15, 'roll': 1.38}
{'lipoC2': 7.99, 'temp': 0.0, 'lipoC3S3': 12.13, 'state': 'normal', 'rot1': 324, 'rot0': 319, 'rot3': 0, 'rot2': 0, 'depth': 1.233, 'yaw': 131.78, 'datetime': '2018-12-12 10:57:58.348892', 'mgs': 0, 'flw2': 0.0, 'flw1': 0.0, 'flw0': 0.21, 'time': 40.69, 'compass': 146.54, 'pitch': -7.01, 'roll': 1.15}
{'lipoC2': 8.1, 'temp': 0.0, 'lipoC3S3': 11.92, 'state': 'normal', 'rot1': 324, 'rot0': 319, 'rot3': 0, 'rot2': 0, 'depth': 2.911, 'yaw': 132.28, 'datetime': '2018-12-12 10:57:58.556523', 'mgs': 0, 'flw2': 0.0, 'flw1': 0.0, 'flw0': 0.21, 'time': 40.9, 'compass': 147.04, 'pitch': -6.9, 'roll': 1.05}
{'lipoC2': 7.94, 'temp': 0.0, 'lipoC3S3': 12.27, 'state': 'normal', 'rot1': 324, 'rot0': 319, 'rot3': 0, 'rot2': 0, 'depth': 1.004, 'yaw': 132.8, 'datetime': '2018-12-12 10:57:58.764922', 'mgs': 0, 'flw2': 0.23, 'flw1': 0.0, 'flw0': 0.0, 'time': 41.11, 'compass': 147.55, 'pitch': -7.1, 'roll': 1.13}
{'lipoC2': 7.99, 'temp': 0.0, 'lipoC3S3': 11.96, 'state': 'normal', 'rot1': 324, 'rot0': 319, 'rot3': 0, 'rot2': 0, 'depth': 3.14, 'yaw': 133.37, 'datetime': '2018-12-12 10:57:58.974651', 'mgs': 0, 'flw2': 0.0, 'flw1': 0.67, 'flw0': 0.0, 'time': 41.32, 'compass': 148.12, 'pitch': -7.53, 'roll': 1.24}
{'lipoC2': 8.0, 'temp': 0.0, 'lipoC3S3': 12.13, 'state': 'normal', 'rot1': 324, 'rot0': 319, 'rot3': 0, 'rot2': 0, 'depth': 2.072, 'yaw': 133.99, 'datetime': '2018-12-12 10:57:59.187353', 'mgs': 0, 'flw2': 0.29, 'flw1': 0.0, 'flw0': 0.16, 'time': 41.53, 'compass': 148.75, 'pitch': -7.86, 'roll': 1.37}
{'lipoC2': 7.98, 'temp': 0.0, 'lipoC3S3': 12.38, 'state': 'normal', 'rot1': 324, 'rot0': 319, 'rot3': 0, 'rot2': 0, 'depth': -0.064, 'yaw': 134.6, 'datetime': '2018-12-12 10:57:59.392975', 'mgs': 0, 'flw2': 0.26, 'flw1': 0.0, 'flw0': 0.0, 'time': 41.73, 'compass': 149.35, 'pitch': -7.86, 'roll': 1.52}
{'lipoC2': 8.01, 'temp': 0.0, 'lipoC3S3': 12.12, 'state': 'normal', 'rot1': 324, 'rot0': 319, 'rot3': 0, 'rot2': 0, 'depth': 2.759, 'yaw': 135.26, 'datetime': '2018-12-12 10:57:59.606027', 'mgs': 0, 'flw2': 0.01, 'flw1': 0.0, 'flw0': 0.0, 'time': 41.94, 'compass': 150.02, 'pitch': -7.68, 'roll': 1.71}
{'lipoC2': 8.11, 'temp': 0.0, 'lipoC3S3': 11.92, 'state': 'normal', 'rot1': 324, 'rot0': 319, 'rot3': 0, 'rot2': 0, 'depth': 2.301, 'yaw': 135.94, 'datetime': '2018-12-12 10:57:59.810330', 'mgs': 0, 'flw2': 0.0, 'flw1': 0.0, 'flw0': 0.0, 'time': 42.15, 'compass': 150.69, 'pitch': -7.49, 'roll': 1.84}
{'lipoC2': 8.08, 'temp': 0.0, 'lipoC3S3': 11.9, 'state': 'normal', 'rot1': 324, 'rot0': 319, 'rot3': 0, 'rot2': 0, 'depth': 0.47, 'yaw': 136.67, 'datetime': '2018-12-12 10:58:00.020333', 'mgs': 0, 'flw2': 0.04, 'flw1': 0.0, 'flw0': 0.0, 'time': 42.36, 'compass': 151.42, 'pitch': -7.37, 'roll': 1.78}
{'lipoC2': 7.97, 'temp': 0.0, 'lipoC3S3': 12.0, 'state': 'normal', 'rot1': 324, 'rot0': 319, 'rot3': 0, 'rot2': 0, 'depth': 3.445, 'yaw': 137.42, 'datetime': '2018-12-12 10:58:00.228293', 'mgs': 0, 'flw2': 0.21, 'flw1': 0.0, 'flw0': 0.0, 'time': 42.57, 'compass': 152.17, 'pitch': -7.02, 'roll': 1.54}
{'lipoC2': 8.02, 'temp': 0.0, 'lipoC3S3': 11.84, 'state': 'normal', 'rot1': 324, 'rot0': 319, 'rot3': 0, 'rot2': 0, 'depth': 0.165, 'yaw': 138.15, 'datetime': '2018-12-12 10:58:00.437450', 'mgs': 0, 'flw2': 0.34, 'flw1': 0.0, 'flw0': 0.21, 'time': 42.78, 'compass': 152.91, 'pitch': -6.65, 'roll': 1.28}
