{'lipoC2': 7.39, 'temp': 30.0, 'lipoC3S3': 11.63, 'state': 'normal', 'rot1': 0, 'rot0': 0, 'rot3': 0, 'rot2': 0, 'depth': 1.92, 'yaw': -0.13, 'datetime': '2018-11-26 12:50:09.031327', 'mgs': 0, 'flw2': 0.0, 'flw1': 0.0, 'flw0': 0.0, 'time': 1.36, 'compass': 86.47, 'pitch': 0.24, 'roll': -2.72}
{'lipoC2': 7.39, 'temp': 29.94, 'lipoC3S3': 11.63, 'state': 'normal', 'rot1': 0, 'rot0': 0, 'rot3': 0, 'rot2': 0, 'depth': 1.92, 'yaw': -0.38, 'datetime': '2018-11-26 12:50:09.239777', 'mgs': 0, 'flw2': 0.0, 'flw1': 0.0, 'flw0': 0.0, 'time': 1.57, 'compass': 86.21, 'pitch': 0.11, 'roll': -2.88}
{'lipoC2': 7.39, 'temp': 30.0, 'lipoC3S3': 11.64, 'state': 'normal', 'rot1': 0, 'rot0': 0, 'rot3': 0, 'rot2': 0, 'depth': 1.92, 'yaw': -0.64, 'datetime': '2018-11-26 12:50:09.446656', 'mgs': 0, 'flw2': 0.0, 'flw1': 0.0, 'flw0': 0.0, 'time': 1.78, 'compass': 85.95, 'pitch': -0.0, 'roll': -3.05}
{'lipoC2': 7.39, 'temp': 30.0, 'lipoC3S3': 11.64, 'state': 'normal', 'rot1': 0, 'rot0': 0, 'rot3': 0, 'rot2': 0, 'depth': 1.92, 'yaw': -0.9, 'datetime': '2018-11-26 12:50:09.657282', 'mgs': 0, 'flw2': 0.0, 'flw1': 0.0, 'flw0': 0.0, 'time': 1.99, 'compass': 85.69, 'pitch': -0.12, 'roll': -3.27}
{'lipoC2': 7.39, 'temp': 29.94, 'lipoC3S3': 11.63, 'state': 'normal', 'rot1': 0, 'rot0': 0, 'rot3': 0, 'rot2': 0, 'depth': 1.843, 'yaw': -1.12, 'datetime': '2018-11-26 12:50:09.863947', 'mgs': 0, 'flw2': 0.0, 'flw1': 0.0, 'flw0': 0.0, 'time': 2.2, 'compass': 85.47, 'pitch': -0.22, 'roll': -3.41}
{'lipoC2': 7.39, 'temp': 29.94, 'lipoC3S3': 11.64, 'state': 'normal', 'rot1': 0, 'rot0': 0, 'rot3': 0, 'rot2': 0, 'depth': 1.843, 'yaw': -1.33, 'datetime': '2018-11-26 12:50:10.072567', 'mgs': 0, 'flw2': 0.0, 'flw1': 0.0, 'flw0': 0.0, 'time': 2.41, 'compass': 85.27, 'pitch': -0.32, 'roll': -3.52}
{'lipoC2': 7.39, 'temp': 29.94, 'lipoC3S3': 11.64, 'state': 'normal', 'rot1': 0, 'rot0': 0, 'rot3': 0, 'rot2': 0, 'depth': 1.92, 'yaw': -1.45, 'datetime': '2018-11-26 12:50:10.279147', 'mgs': 0, 'flw2': 0.0, 'flw1': 0.0, 'flw0': 0.0, 'time': 2.62, 'compass': 85.14, 'pitch': -0.39, 'roll': -3.6}
{'lipoC2': 7.39, 'temp': 29.94, 'lipoC3S3': 11.64, 'state': 'normal', 'rot1': 0, 'rot0': 0, 'rot3': 0, 'rot2': 0, 'depth': 1.843, 'yaw': -1.6, 'datetime': '2018-11-26 12:50:10.489863', 'mgs': 0, 'flw2': 0.0, 'flw1': 0.0, 'flw0': 0.0, 'time': 2.82, 'compass': 84.99, 'pitch': -0.44, 'roll': -3.65}
{'lipoC2': 7.39, 'temp': 29.94, 'lipoC3S3': 11.64, 'state': 'normal', 'rot1': 0, 'rot0': 0, 'rot3': 0, 'rot2': 0, 'depth': 1.767, 'yaw': -1.64, 'datetime': '2018-11-26 12:50:10.698533', 'mgs': 0, 'flw2': 0.0, 'flw1': 0.0, 'flw0': 0.0, 'time': 3.03, 'compass': 84.96, 'pitch': -0.46, 'roll': -3.68}
{'lipoC2': 7.39, 'temp': 29.94, 'lipoC3S3': 11.64, 'state': 'normal', 'rot1': 0, 'rot0': 0, 'rot3': 0, 'rot2': 0, 'depth': 1.843, 'yaw': -1.65, 'datetime': '2018-11-26 12:50:10.905507', 'mgs': 0, 'flw2': 0.0, 'flw1': 0.0, 'flw0': 0.0, 'time': 3.24, 'compass': 84.95, 'pitch': -0.46, 'roll': -3.77}
{'lipoC2': 7.39, 'temp': 29.94, 'lipoC3S3': 11.63, 'state': 'normal', 'rot1': 0, 'rot0': 0, 'rot3': 0, 'rot2': 0, 'depth': 1.843, 'yaw': -1.64, 'datetime': '2018-11-26 12:50:11.116558', 'mgs': 0, 'flw2': 0.0, 'flw1': 0.0, 'flw0': 0.0, 'time': 3.45, 'compass': 84.96, 'pitch': -0.46, 'roll': -4.0}
{'lipoC2': 7.39, 'temp': 29.94, 'lipoC3S3': 11.63, 'state': 'normal', 'rot1': 0, 'rot0': 0, 'rot3': 0, 'rot2': 0, 'depth': 1.843, 'yaw': -1.64, 'datetime': '2018-11-26 12:50:11.322678', 'mgs': 0, 'flw2': 0.0, 'flw1': 0.0, 'flw0': 0.0, 'time': 3.66, 'compass': 84.95, 'pitch': -0.46, 'roll': -4.07}
{'lipoC2': 7.39, 'temp': 29.94, 'lipoC3S3': 11.63, 'state': 'normal', 'rot1': 0, 'rot0': 0, 'rot3': 0, 'rot2': 0, 'depth': 1.843, 'yaw': -1.64, 'datetime': '2018-11-26 12:50:11.533696', 'mgs': 0, 'flw2': 0.0, 'flw1': 0.0, 'flw0': 0.0, 'time': 3.87, 'compass': 84.96, 'pitch': -0.49, 'roll': -3.95}
{'lipoC2': 7.39, 'temp': 30.0, 'lipoC3S3': 11.64, 'state': 'normal', 'rot1': 0, 'rot0': 0, 'rot3': 0, 'rot2': 0, 'depth': 1.843, 'yaw': -1.63, 'datetime': '2018-11-26 12:50:11.743032', 'mgs': 0, 'flw2': 0.0, 'flw1': 0.0, 'flw0': 0.0, 'time': 4.08, 'compass': 84.97, 'pitch': -0.61, 'roll': -3.82}
{'lipoC2': 7.39, 'temp': 29.94, 'lipoC3S3': 11.63, 'state': 'normal', 'rot1': 0, 'rot0': 0, 'rot3': 0, 'rot2': 0, 'depth': 1.843, 'yaw': -1.63, 'datetime': '2018-11-26 12:50:11.951074', 'mgs': 0, 'flw2': 0.0, 'flw1': 0.0, 'flw0': 0.0, 'time': 4.29, 'compass': 84.97, 'pitch': -0.61, 'roll': -3.83}
{'lipoC2': 7.39, 'temp': 29.94, 'lipoC3S3': 11.64, 'state': 'normal', 'rot1': 0, 'rot0': 0, 'rot3': 0, 'rot2': 0, 'depth': 1.767, 'yaw': -1.63, 'datetime': '2018-11-26 12:50:12.158362', 'mgs': 0, 'flw2': 0.0, 'flw1': 0.0, 'flw0': 0.0, 'time': 4.49, 'compass': 84.96, 'pitch': -0.62, 'roll': -3.96}
{'lipoC2': 7.39, 'temp': 30.0, 'lipoC3S3': 11.64, 'state': 'normal', 'rot1': 0, 'rot0': 0, 'rot3': 0, 'rot2': 0, 'depth': 1.843, 'yaw': -1.63, 'datetime': '2018-11-26 12:50:12.367661', 'mgs': 0, 'flw2': 0.0, 'flw1': 0.0, 'flw0': 0.0, 'time': 4.7, 'compass': 84.96, 'pitch': -0.61, 'roll': -4.0}
{'lipoC2': 7.39, 'temp': 29.94, 'lipoC3S3': 11.63, 'state': 'normal', 'rot1': 0, 'rot0': 0, 'rot3': 0, 'rot2': 0, 'depth': 1.843, 'yaw': -1.63, 'datetime': '2018-11-26 12:50:12.576266', 'mgs': 0, 'flw2': 0.0, 'flw1': 0.0, 'flw0': 0.0, 'time': 4.91, 'compass': 84.96, 'pitch': -0.61, 'roll': -4.0}
{'lipoC2': 7.39, 'temp': 29.94, 'lipoC3S3': 11.63, 'state': 'normal', 'rot1': 0, 'rot0': 0, 'rot3': 0, 'rot2': 0, 'depth': 1.843, 'yaw': -1.63, 'datetime': '2018-11-26 12:50:12.784857', 'mgs': 0, 'flw2': 0.0, 'flw1': 0.0, 'flw0': 0.0, 'time': 5.12, 'compass': 84.96, 'pitch': -0.61, 'roll': -4.0}
{'lipoC2': 7.39, 'temp': 30.0, 'lipoC3S3': 11.64, 'state': 'normal', 'rot1': 0, 'rot0': 0, 'rot3': 0, 'rot2': 0, 'depth': 1.92, 'yaw': -1.63, 'datetime': '2018-11-26 12:50:12.991699', 'mgs': 0, 'flw2': 0.0, 'flw1': 0.0, 'flw0': 0.0, 'time': 5.33, 'compass': 84.97, 'pitch': -0.62, 'roll': -4.11}
{'lipoC2': 7.38, 'temp': 30.0, 'lipoC3S3': 11.64, 'state': 'normal', 'rot1': 0, 'rot0': 0, 'rot3': 0, 'rot2': 0, 'depth': 1.843, 'yaw': -1.63, 'datetime': '2018-11-26 12:50:13.202503', 'mgs': 0, 'flw2': 0.0, 'flw1': 0.0, 'flw0': 0.0, 'time': 5.54, 'compass': 84.96, 'pitch': -0.62, 'roll': -4.21}
{'lipoC2': 7.38, 'temp': 29.94, 'lipoC3S3': 11.63, 'state': 'normal', 'rot1': 0, 'rot0': 0, 'rot3': 0, 'rot2': 0, 'depth': 1.92, 'yaw': -1.63, 'datetime': '2018-11-26 12:50:13.411210', 'mgs': 0, 'flw2': 0.0, 'flw1': 0.0, 'flw0': 0.0, 'time': 5.75, 'compass': 84.96, 'pitch': -0.62, 'roll': -4.21}
{'lipoC2': 7.39, 'temp': 30.0, 'lipoC3S3': 11.63, 'state': 'normal', 'rot1': 0, 'rot0': 0, 'rot3': 0, 'rot2': 0, 'depth': 1.92, 'yaw': -1.64, 'datetime': '2018-11-26 12:50:13.619250', 'mgs': 0, 'flw2': 0.0, 'flw1': 0.0, 'flw0': 0.0, 'time': 5.96, 'compass': 84.96, 'pitch': -0.61, 'roll': -4.17}
{'lipoC2': 7.39, 'temp': 30.0, 'lipoC3S3': 11.64, 'state': 'normal', 'rot1': 0, 'rot0': 0, 'rot3': 0, 'rot2': 0, 'depth': 1.843, 'yaw': -1.63, 'datetime': '2018-11-26 12:50:13.828569', 'mgs': 0, 'flw2': 0.0, 'flw1': 0.0, 'flw0': 0.0, 'time': 6.17, 'compass': 84.96, 'pitch': -0.62, 'roll': -4.2}
{'lipoC2': 7.39, 'temp': 29.94, 'lipoC3S3': 11.64, 'state': 'normal', 'rot1': 0, 'rot0': 0, 'rot3': 0, 'rot2': 0, 'depth': 1.92, 'yaw': -1.63, 'datetime': '2018-11-26 12:50:14.038068', 'mgs': 0, 'flw2': 0.0, 'flw1': 0.0, 'flw0': 0.0, 'time': 6.38, 'compass': 84.97, 'pitch': -0.62, 'roll': -4.37}
{'lipoC2': 7.39, 'temp': 29.94, 'lipoC3S3': 11.64, 'state': 'normal', 'rot1': 0, 'rot0': 0, 'rot3': 0, 'rot2': 0, 'depth': 1.92, 'yaw': -1.63, 'datetime': '2018-11-26 12:50:14.246478', 'mgs': 0, 'flw2': 0.0, 'flw1': 0.0, 'flw0': 0.0, 'time': 6.58, 'compass': 84.97, 'pitch': -0.61, 'roll': -4.39}
{'lipoC2': 7.39, 'temp': 29.94, 'lipoC3S3': 11.63, 'state': 'normal', 'rot1': 0, 'rot0': 0, 'rot3': 0, 'rot2': 0, 'depth': 1.92, 'yaw': -1.63, 'datetime': '2018-11-26 12:50:14.452347', 'mgs': 0, 'flw2': 0.0, 'flw1': 0.0, 'flw0': 0.0, 'time': 6.79, 'compass': 84.97, 'pitch': -0.61, 'roll': -4.38}
{'lipoC2': 7.39, 'temp': 29.94, 'lipoC3S3': 11.64, 'state': 'normal', 'rot1': 0, 'rot0': 0, 'rot3': 0, 'rot2': 0, 'depth': 1.92, 'yaw': -1.63, 'datetime': '2018-11-26 12:50:14.660853', 'mgs': 0, 'flw2': 0.0, 'flw1': 0.0, 'flw0': 0.0, 'time': 7.0, 'compass': 84.97, 'pitch': -0.61, 'roll': -4.38}
{'lipoC2': 7.39, 'temp': 29.94, 'lipoC3S3': 11.63, 'state': 'normal', 'rot1': 0, 'rot0': 0, 'rot3': 0, 'rot2': 0, 'depth': 1.996, 'yaw': -1.63, 'datetime': '2018-11-26 12:50:14.870715', 'mgs': 0, 'flw2': 0.0, 'flw1': 0.0, 'flw0': 0.0, 'time': 7.21, 'compass': 84.96, 'pitch': -0.62, 'roll': -4.43}
{'lipoC2': 7.39, 'temp': 29.94, 'lipoC3S3': 11.63, 'state': 'normal', 'rot1': 0, 'rot0': 0, 'rot3': 0, 'rot2': 0, 'depth': 1.92, 'yaw': -1.63, 'datetime': '2018-11-26 12:50:15.081630', 'mgs': 0, 'flw2': 0.0, 'flw1': 0.0, 'flw0': 0.0, 'time': 7.42, 'compass': 84.96, 'pitch': -0.63, 'roll': -4.43}
{'lipoC2': 7.39, 'temp': 29.94, 'lipoC3S3': 11.63, 'state': 'normal', 'rot1': 0, 'rot0': 0, 'rot3': 0, 'rot2': 0, 'depth': 1.92, 'yaw': -1.63, 'datetime': '2018-11-26 12:50:15.290393', 'mgs': 0, 'flw2': 0.0, 'flw1': 0.0, 'flw0': 0.0, 'time': 7.63, 'compass': 84.96, 'pitch': -0.63, 'roll': -4.43}
{'lipoC2': 7.39, 'temp': 30.0, 'lipoC3S3': 11.63, 'state': 'normal', 'rot1': 0, 'rot0': 0, 'rot3': 0, 'rot2': 0, 'depth': 1.92, 'yaw': -1.63, 'datetime': '2018-11-26 12:50:15.498323', 'mgs': 0, 'flw2': 0.0, 'flw1': 0.0, 'flw0': 0.0, 'time': 7.84, 'compass': 84.96, 'pitch': -0.63, 'roll': -4.43}
{'lipoC2': 7.39, 'temp': 29.94, 'lipoC3S3': 11.63, 'state': 'normal', 'rot1': 0, 'rot0': 0, 'rot3': 0, 'rot2': 0, 'depth': 1.996, 'yaw': -1.63, 'datetime': '2018-11-26 12:50:15.703552', 'mgs': 0, 'flw2': 0.0, 'flw1': 0.0, 'flw0': 0.0, 'time': 8.05, 'compass': 84.96, 'pitch': -0.63, 'roll': -4.43}
{'lipoC2': 7.39, 'temp': 29.94, 'lipoC3S3': 11.63, 'state': 'normal', 'rot1': 0, 'rot0': 0, 'rot3': 0, 'rot2': 0, 'depth': 1.92, 'yaw': -1.63, 'datetime': '2018-11-26 12:50:15.914920', 'mgs': 0, 'flw2': 0.0, 'flw1': 0.32, 'flw0': 0.0, 'time': 8.26, 'compass': 84.96, 'pitch': -0.65, 'roll': -4.43}
{'lipoC2': 7.39, 'temp': 29.94, 'lipoC3S3': 11.63, 'state': 'normal', 'rot1': 0, 'rot0': 0, 'rot3': 0, 'rot2': 0, 'depth': 1.996, 'yaw': -1.62, 'datetime': '2018-11-26 12:50:16.121773', 'mgs': 0, 'flw2': 0.0, 'flw1': 0.32, 'flw0': 0.0, 'time': 8.47, 'compass': 84.98, 'pitch': -0.77, 'roll': -4.43}
{'lipoC2': 7.39, 'temp': 30.0, 'lipoC3S3': 11.63, 'state': 'normal', 'rot1': 0, 'rot0': 0, 'rot3': 1, 'rot2': 0, 'depth': 1.92, 'yaw': -1.62, 'datetime': '2018-11-26 12:50:16.332102', 'mgs': 0, 'flw2': 0.0, 'flw1': 0.32, 'flw0': 0.0, 'time': 8.67, 'compass': 84.98, 'pitch': -0.77, 'roll': -4.43}
{'lipoC2': 7.39, 'temp': 29.94, 'lipoC3S3': 11.64, 'state': 'normal', 'rot1': 0, 'rot0': 0, 'rot3': 1, 'rot2': 0, 'depth': 1.92, 'yaw': -1.62, 'datetime': '2018-11-26 12:50:16.538083', 'mgs': 0, 'flw2': 0.0, 'flw1': 0.32, 'flw0': 0.0, 'time': 8.88, 'compass': 84.98, 'pitch': -0.77, 'roll': -4.38}
{'lipoC2': 7.39, 'temp': 30.0, 'lipoC3S3': 11.63, 'state': 'normal', 'rot1': 0, 'rot0': 0, 'rot3': 1, 'rot2': 0, 'depth': 1.92, 'yaw': -1.62, 'datetime': '2018-11-26 12:50:16.749554', 'mgs': 0, 'flw2': 0.0, 'flw1': 0.32, 'flw0': 0.0, 'time': 9.09, 'compass': 84.97, 'pitch': -0.77, 'roll': -4.31}
{'lipoC2': 7.39, 'temp': 29.94, 'lipoC3S3': 11.63, 'state': 'normal', 'rot1': 0, 'rot0': 0, 'rot3': 1, 'rot2': 1, 'depth': 1.996, 'yaw': -1.62, 'datetime': '2018-11-26 12:50:16.958110', 'mgs': 0, 'flw2': 0.0, 'flw1': 0.32, 'flw0': 0.0, 'time': 9.3, 'compass': 84.97, 'pitch': -0.77, 'roll': -4.31}
{'lipoC2': 7.39, 'temp': 29.88, 'lipoC3S3': 11.63, 'state': 'normal', 'rot1': 0, 'rot0': 0, 'rot3': 1, 'rot2': 1, 'depth': 1.92, 'yaw': -1.62, 'datetime': '2018-11-26 12:50:17.166527', 'mgs': 0, 'flw2': 0.0, 'flw1': 0.35, 'flw0': 0.0, 'time': 9.51, 'compass': 84.97, 'pitch': -0.77, 'roll': -4.31}
{'lipoC2': 7.39, 'temp': 29.88, 'lipoC3S3': 11.63, 'state': 'normal', 'rot1': 0, 'rot0': 0, 'rot3': 2, 'rot2': 1, 'depth': 1.92, 'yaw': -1.62, 'datetime': '2018-11-26 12:50:17.376332', 'mgs': 0, 'flw2': 0.0, 'flw1': 0.32, 'flw0': 0.0, 'time': 9.72, 'compass': 84.97, 'pitch': -0.77, 'roll': -4.31}
{'lipoC2': 7.39, 'temp': 29.88, 'lipoC3S3': 11.63, 'state': 'normal', 'rot1': 0, 'rot0': 0, 'rot3': 2, 'rot2': 1, 'depth': 1.92, 'yaw': -1.62, 'datetime': '2018-11-26 12:50:17.583442', 'mgs': 0, 'flw2': 0.0, 'flw1': 0.35, 'flw0': 0.0, 'time': 9.93, 'compass': 84.97, 'pitch': -0.77, 'roll': -4.31}
{'lipoC2': 7.39, 'temp': 30.0, 'lipoC3S3': 11.63, 'state': 'normal', 'rot1': 0, 'rot0': 0, 'rot3': 2, 'rot2': 1, 'depth': 1.92, 'yaw': -1.62, 'datetime': '2018-11-26 12:50:17.794068', 'mgs': 0, 'flw2': 0.0, 'flw1': 0.32, 'flw0': 0.0, 'time': 10.14, 'compass': 84.97, 'pitch': -0.77, 'roll': -4.31}
{'lipoC2': 7.39, 'temp': 30.0, 'lipoC3S3': 11.6, 'state': 'normal', 'rot1': 0, 'rot0': 0, 'rot3': 2, 'rot2': 1, 'depth': 1.843, 'yaw': -1.62, 'datetime': '2018-11-26 12:50:18.002952', 'mgs': 0, 'flw2': 0.0, 'flw1': 0.32, 'flw0': 0.0, 'time': 10.35, 'compass': 84.97, 'pitch': -0.77, 'roll': -4.3}
{'lipoC2': 7.39, 'temp': 29.94, 'lipoC3S3': 11.61, 'state': 'normal', 'rot1': 0, 'rot0': 0, 'rot3': 2, 'rot2': 2, 'depth': 1.92, 'yaw': -1.61, 'datetime': '2018-11-26 12:50:18.213402', 'mgs': 0, 'flw2': 0.0, 'flw1': 0.32, 'flw0': 0.0, 'time': 10.56, 'compass': 84.98, 'pitch': -0.79, 'roll': -4.31}
{'lipoC2': 7.39, 'temp': 30.0, 'lipoC3S3': 11.61, 'state': 'normal', 'rot1': 0, 'rot0': 0, 'rot3': 3, 'rot2': 2, 'depth': 1.767, 'yaw': -1.61, 'datetime': '2018-11-26 12:50:18.420138', 'mgs': 0, 'flw2': 0.0, 'flw1': 0.29, 'flw0': 0.0, 'time': 10.77, 'compass': 84.98, 'pitch': -0.8, 'roll': -4.31}
{'lipoC2': 7.39, 'temp': 29.94, 'lipoC3S3': 11.63, 'state': 'normal', 'rot1': 0, 'rot0': 0, 'rot3': 3, 'rot2': 2, 'depth': 1.92, 'yaw': -1.61, 'datetime': '2018-11-26 12:50:18.629257', 'mgs': 0, 'flw2': 0.0, 'flw1': 0.32, 'flw0': 0.0, 'time': 10.98, 'compass': 84.98, 'pitch': -0.8, 'roll': -4.31}
{'lipoC2': 7.39, 'temp': 29.94, 'lipoC3S3': 11.63, 'state': 'normal', 'rot1': 0, 'rot0': 0, 'rot3': 3, 'rot2': 2, 'depth': 1.843, 'yaw': -1.61, 'datetime': '2018-11-26 12:50:18.837301', 'mgs': 0, 'flw2': 0.0, 'flw1': 0.0, 'flw0': 0.0, 'time': 11.18, 'compass': 84.98, 'pitch': -0.8, 'roll': -4.31}
{'lipoC2': 7.38, 'temp': 29.94, 'lipoC3S3': 11.64, 'state': 'normal', 'rot1': 0, 'rot0': 0, 'rot3': 3, 'rot2': 2, 'depth': 1.92, 'yaw': -1.61, 'datetime': '2018-11-26 12:50:19.047133', 'mgs': 0, 'flw2': 0.0, 'flw1': 0.0, 'flw0': 0.0, 'time': 11.39, 'compass': 84.98, 'pitch': -0.8, 'roll': -4.31}
{'lipoC2': 7.39, 'temp': 29.94, 'lipoC3S3': 11.64, 'state': 'normal', 'rot1': 0, 'rot0': 0, 'rot3': 3, 'rot2': 2, 'depth': 1.843, 'yaw': -1.62, 'datetime': '2018-11-26 12:50:19.256542', 'mgs': 0, 'flw2': 0.0, 'flw1': 0.0, 'flw0': 0.0, 'time': 11.6, 'compass': 84.98, 'pitch': -0.8, 'roll': -4.37}
{'lipoC2': 7.38, 'temp': 29.88, 'lipoC3S3': 11.64, 'state': 'normal', 'rot1': 0, 'rot0': 0, 'rot3': 3, 'rot2': 2, 'depth': 1.843, 'yaw': -1.62, 'datetime': '2018-11-26 12:50:19.462719', 'mgs': 0, 'flw2': 0.0, 'flw1': 0.0, 'flw0': 0.0, 'time': 11.81, 'compass': 84.98, 'pitch': -0.8, 'roll': -4.4}
{'lipoC2': 7.39, 'temp': 29.94, 'lipoC3S3': 11.63, 'state': 'normal', 'rot1': 0, 'rot0': 0, 'rot3': 3, 'rot2': 2, 'depth': 1.843, 'yaw': -1.62, 'datetime': '2018-11-26 12:50:19.674589', 'mgs': 0, 'flw2': 0.0, 'flw1': 0.0, 'flw0': 0.0, 'time': 12.02, 'compass': 84.98, 'pitch': -0.72, 'roll': -4.4}
{'lipoC2': 7.39, 'temp': 29.94, 'lipoC3S3': 11.63, 'state': 'normal', 'rot1': 0, 'rot0': 0, 'rot3': 3, 'rot2': 2, 'depth': 1.843, 'yaw': -1.62, 'datetime': '2018-11-26 12:50:19.882786', 'mgs': 0, 'flw2': 0.0, 'flw1': 1.11, 'flw0': 0.0, 'time': 12.23, 'compass': 84.98, 'pitch': -0.72, 'roll': -4.4}
{'lipoC2': 7.39, 'temp': 29.94, 'lipoC3S3': 11.63, 'state': 'normal', 'rot1': 0, 'rot0': 0, 'rot3': 4, 'rot2': 3, 'depth': 1.843, 'yaw': -1.62, 'datetime': '2018-11-26 12:50:20.088177', 'mgs': 0, 'flw2': 0.0, 'flw1': 1.11, 'flw0': 0.0, 'time': 12.44, 'compass': 84.98, 'pitch': -0.76, 'roll': -4.25}
{'lipoC2': 7.38, 'temp': 29.94, 'lipoC3S3': 11.63, 'state': 'normal', 'rot1': 0, 'rot0': 0, 'rot3': 4, 'rot2': 3, 'depth': 1.843, 'yaw': -1.62, 'datetime': '2018-11-26 12:50:20.297916', 'mgs': 0, 'flw2': 0.0, 'flw1': 1.05, 'flw0': 0.0, 'time': 12.65, 'compass': 84.98, 'pitch': -0.78, 'roll': -4.18}
{'lipoC2': 7.39, 'temp': 29.94, 'lipoC3S3': 11.63, 'state': 'normal', 'rot1': 0, 'rot0': 0, 'rot3': 5, 'rot2': 4, 'depth': 1.996, 'yaw': -1.62, 'datetime': '2018-11-26 12:50:20.505545', 'mgs': 0, 'flw2': 0.0, 'flw1': 0.97, 'flw0': 0.0, 'time': 12.85, 'compass': 84.98, 'pitch': -0.78, 'roll': -4.18}
{'lipoC2': 7.38, 'temp': 29.94, 'lipoC3S3': 11.63, 'state': 'normal', 'rot1': 0, 'rot0': 0, 'rot3': 5, 'rot2': 4, 'depth': 1.92, 'yaw': -1.62, 'datetime': '2018-11-26 12:50:20.715214', 'mgs': 0, 'flw2': 0.0, 'flw1': 1.0, 'flw0': 0.0, 'time': 13.06, 'compass': 84.98, 'pitch': -0.78, 'roll': -4.14}
{'lipoC2': 7.38, 'temp': 29.94, 'lipoC3S3': 11.63, 'state': 'normal', 'rot1': 0, 'rot0': 0, 'rot3': 6, 'rot2': 5, 'depth': 2.148, 'yaw': -1.62, 'datetime': '2018-11-26 12:50:20.923574', 'mgs': 0, 'flw2': 0.0, 'flw1': 1.03, 'flw0': 0.0, 'time': 13.27, 'compass': 84.98, 'pitch': -0.78, 'roll': -4.14}
{'lipoC2': 7.39, 'temp': 29.94, 'lipoC3S3': 11.63, 'state': 'normal', 'rot1': 0, 'rot0': 0, 'rot3': 6, 'rot2': 5, 'depth': 2.148, 'yaw': -1.62, 'datetime': '2018-11-26 12:50:21.133116', 'mgs': 0, 'flw2': 0.0, 'flw1': 1.08, 'flw0': 0.0, 'time': 13.48, 'compass': 84.98, 'pitch': -0.78, 'roll': -4.18}
{'lipoC2': 7.39, 'temp': 29.94, 'lipoC3S3': 11.63, 'state': 'normal', 'rot1': 0, 'rot0': 0, 'rot3': 6, 'rot2': 6, 'depth': 2.072, 'yaw': -1.61, 'datetime': '2018-11-26 12:50:21.342878', 'mgs': 0, 'flw2': 0.0, 'flw1': 1.11, 'flw0': 0.0, 'time': 13.69, 'compass': 84.98, 'pitch': -0.78, 'roll': -4.29}
{'lipoC2': 7.39, 'temp': 29.94, 'lipoC3S3': 11.63, 'state': 'normal', 'rot1': 0, 'rot0': 0, 'rot3': 7, 'rot2': 6, 'depth': 1.767, 'yaw': -1.63, 'datetime': '2018-11-26 12:50:21.550314', 'mgs': 0, 'flw2': 0.0, 'flw1': 0.97, 'flw0': 0.0, 'time': 13.9, 'compass': 84.97, 'pitch': -0.7, 'roll': -4.29}
{'lipoC2': 7.39, 'temp': 30.0, 'lipoC3S3': 11.6, 'state': 'normal', 'rot1': 0, 'rot0': 0, 'rot3': 7, 'rot2': 7, 'depth': 1.691, 'yaw': -1.64, 'datetime': '2018-11-26 12:50:21.759648', 'mgs': 0, 'flw2': 0.0, 'flw1': 1.03, 'flw0': 0.0, 'time': 14.11, 'compass': 84.96, 'pitch': -0.5, 'roll': -4.29}
{'lipoC2': 7.39, 'temp': 29.94, 'lipoC3S3': 11.59, 'state': 'normal', 'rot1': 0, 'rot0': 0, 'rot3': 8, 'rot2': 7, 'depth': 1.767, 'yaw': -1.65, 'datetime': '2018-11-26 12:50:21.970377', 'mgs': 0, 'flw2': 0.0, 'flw1': 1.0, 'flw0': 0.0, 'time': 14.32, 'compass': 84.95, 'pitch': -0.47, 'roll': -4.29}
{'lipoC2': 7.39, 'temp': 29.94, 'lipoC3S3': 11.63, 'state': 'normal', 'rot1': 0, 'rot0': 0, 'rot3': 8, 'rot2': 8, 'depth': 1.614, 'yaw': -1.65, 'datetime': '2018-11-26 12:50:22.177990', 'mgs': 0, 'flw2': 0.0, 'flw1': 0.94, 'flw0': 0.0, 'time': 14.53, 'compass': 84.95, 'pitch': -0.44, 'roll': -4.29}
{'lipoC2': 7.39, 'temp': 29.94, 'lipoC3S3': 11.63, 'state': 'normal', 'rot1': 0, 'rot0': 0, 'rot3': 9, 'rot2': 8, 'depth': 1.691, 'yaw': -1.65, 'datetime': '2018-11-26 12:50:22.386364', 'mgs': 0, 'flw2': 0.0, 'flw1': 1.03, 'flw0': 0.0, 'time': 14.74, 'compass': 84.94, 'pitch': -0.29, 'roll': -4.3}
{'lipoC2': 7.39, 'temp': 29.94, 'lipoC3S3': 11.61, 'state': 'normal', 'rot1': 0, 'rot0': 0, 'rot3': 9, 'rot2': 9, 'depth': 1.691, 'yaw': -1.65, 'datetime': '2018-11-26 12:50:22.599663', 'mgs': 0, 'flw2': 0.0, 'flw1': 1.03, 'flw0': 0.0, 'time': 14.95, 'compass': 84.94, 'pitch': -0.28, 'roll': -4.3}
{'lipoC2': 7.39, 'temp': 29.94, 'lipoC3S3': 11.63, 'state': 'normal', 'rot1': 0, 'rot0': 0, 'rot3': 10, 'rot2': 9, 'depth': 1.614, 'yaw': -1.65, 'datetime': '2018-11-26 12:50:22.806721', 'mgs': 0, 'flw2': 0.0, 'flw1': 0.0, 'flw0': 0.0, 'time': 15.15, 'compass': 84.94, 'pitch': -0.28, 'roll': -4.28}
{'lipoC2': 7.39, 'temp': 29.94, 'lipoC3S3': 11.63, 'state': 'normal', 'rot1': 0, 'rot0': 0, 'rot3': 10, 'rot2': 9, 'depth': 1.614, 'yaw': -1.66, 'datetime': '2018-11-26 12:50:23.012681', 'mgs': 0, 'flw2': 0.0, 'flw1': 0.0, 'flw0': 0.0, 'time': 15.36, 'compass': 84.94, 'pitch': -0.31, 'roll': -4.14}
{'lipoC2': 7.39, 'temp': 29.94, 'lipoC3S3': 11.63, 'state': 'normal', 'rot1': 0, 'rot0': 0, 'rot3': 10, 'rot2': 9, 'depth': 1.614, 'yaw': -1.66, 'datetime': '2018-11-26 12:50:23.221381', 'mgs': 0, 'flw2': 0.0, 'flw1': 0.0, 'flw0': 0.0, 'time': 15.57, 'compass': 84.94, 'pitch': -0.34, 'roll': -4.15}
{'lipoC2': 7.39, 'temp': 29.94, 'lipoC3S3': 11.64, 'state': 'normal', 'rot1': 0, 'rot0': 0, 'rot3': 10, 'rot2': 9, 'depth': 1.614, 'yaw': -1.66, 'datetime': '2018-11-26 12:50:23.430352', 'mgs': 0, 'flw2': 0.0, 'flw1': 0.0, 'flw0': 0.0, 'time': 15.78, 'compass': 84.94, 'pitch': -0.35, 'roll': -4.41}
{'lipoC2': 7.39, 'temp': 29.94, 'lipoC3S3': 11.64, 'state': 'normal', 'rot1': 0, 'rot0': 0, 'rot3': 10, 'rot2': 9, 'depth': 1.614, 'yaw': -1.66, 'datetime': '2018-11-26 12:50:23.639961', 'mgs': 0, 'flw2': 0.0, 'flw1': 0.0, 'flw0': 0.0, 'time': 15.99, 'compass': 84.93, 'pitch': -0.35, 'roll': -4.67}
{'lipoC2': 7.39, 'temp': 29.94, 'lipoC3S3': 11.63, 'state': 'normal', 'rot1': 0, 'rot0': 0, 'rot3': 10, 'rot2': 9, 'depth': 1.691, 'yaw': -1.66, 'datetime': '2018-11-26 12:50:23.848833', 'mgs': 0, 'flw2': 0.0, 'flw1': 2.17, 'flw0': 0.0, 'time': 16.2, 'compass': 84.94, 'pitch': -0.34, 'roll': -4.76}
{'lipoC2': 7.39, 'temp': 29.94, 'lipoC3S3': 11.61, 'state': 'normal', 'rot1': 0, 'rot0': 0, 'rot3': 11, 'rot2': 10, 'depth': 1.767, 'yaw': -1.65, 'datetime': '2018-11-26 12:50:24.058278', 'mgs': 0, 'flw2': 0.0, 'flw1': 1.85, 'flw0': 0.0, 'time': 16.41, 'compass': 84.95, 'pitch': -0.53, 'roll': -4.66}
{'lipoC2': 7.39, 'temp': 30.0, 'lipoC3S3': 11.61, 'state': 'normal', 'rot1': 0, 'rot0': 0, 'rot3': 11, 'rot2': 11, 'depth': 1.767, 'yaw': -1.63, 'datetime': '2018-11-26 12:50:24.271697', 'mgs': 0, 'flw2': 0.0, 'flw1': 1.85, 'flw0': 0.0, 'time': 16.62, 'compass': 84.97, 'pitch': -0.78, 'roll': -4.56}
{'lipoC2': 7.39, 'temp': 29.94, 'lipoC3S3': 11.61, 'state': 'normal', 'rot1': 0, 'rot0': 0, 'rot3': 13, 'rot2': 11, 'depth': 1.691, 'yaw': -1.61, 'datetime': '2018-11-26 12:50:24.481811', 'mgs': 0, 'flw2': 0.0, 'flw1': 1.76, 'flw0': 0.0, 'time': 16.83, 'compass': 84.99, 'pitch': -1.01, 'roll': -4.36}
{'lipoC2': 7.39, 'temp': 30.0, 'lipoC3S3': 11.61, 'state': 'normal', 'rot1': 0, 'rot0': 0, 'rot3': 14, 'rot2': 12, 'depth': 1.691, 'yaw': -1.61, 'datetime': '2018-11-26 12:50:24.689475', 'mgs': 0, 'flw2': 0.0, 'flw1': 1.85, 'flw0': 0.0, 'time': 17.04, 'compass': 84.99, 'pitch': -1.14, 'roll': -4.04}
{'lipoC2': 7.39, 'temp': 29.94, 'lipoC3S3': 11.63, 'state': 'normal', 'rot1': 0, 'rot0': 0, 'rot3': 14, 'rot2': 13, 'depth': 2.148, 'yaw': -1.6, 'datetime': '2018-11-26 12:50:24.899057', 'mgs': 0, 'flw2': 0.0, 'flw1': 1.99, 'flw0': 0.0, 'time': 17.25, 'compass': 84.99, 'pitch': -1.16, 'roll': -3.88}
{'lipoC2': 7.39, 'temp': 30.0, 'lipoC3S3': 11.61, 'state': 'normal', 'rot1': 0, 'rot0': 0, 'rot3': 15, 'rot2': 14, 'depth': 1.691, 'yaw': -1.61, 'datetime': '2018-11-26 12:50:25.105959', 'mgs': 0, 'flw2': 0.0, 'flw1': 1.82, 'flw0': 0.0, 'time': 17.46, 'compass': 84.98, 'pitch': -1.09, 'roll': -3.97}
{'lipoC2': 7.39, 'temp': 30.0, 'lipoC3S3': 11.6, 'state': 'normal', 'rot1': 0, 'rot0': 0, 'rot3': 16, 'rot2': 14, 'depth': 1.691, 'yaw': -1.63, 'datetime': '2018-11-26 12:50:25.318449', 'mgs': 0, 'flw2': 0.0, 'flw1': 1.82, 'flw0': 0.0, 'time': 17.67, 'compass': 84.97, 'pitch': -0.92, 'roll': -4.18}
{'lipoC2': 7.39, 'temp': 29.94, 'lipoC3S3': 11.6, 'state': 'normal', 'rot1': 0, 'rot0': 0, 'rot3': 16, 'rot2': 15, 'depth': 1.691, 'yaw': -1.65, 'datetime': '2018-11-26 12:50:25.527883', 'mgs': 0, 'flw2': 0.0, 'flw1': 1.88, 'flw0': 0.0, 'time': 17.88, 'compass': 84.95, 'pitch': -0.88, 'roll': -4.19}
{'lipoC2': 7.39, 'temp': 29.94, 'lipoC3S3': 11.6, 'state': 'normal', 'rot1': 0, 'rot0': 0, 'rot3': 17, 'rot2': 16, 'depth': 1.691, 'yaw': -1.68, 'datetime': '2018-11-26 12:50:25.738525', 'mgs': 0, 'flw2': 0.0, 'flw1': 1.93, 'flw0': 0.0, 'time': 18.09, 'compass': 84.92, 'pitch': -0.84, 'roll': -4.06}
{'lipoC2': 7.39, 'temp': 29.94, 'lipoC3S3': 11.6, 'state': 'normal', 'rot1': 0, 'rot0': 0, 'rot3': 17, 'rot2': 17, 'depth': 1.614, 'yaw': -1.69, 'datetime': '2018-11-26 12:50:25.946003', 'mgs': 0, 'flw2': 0.0, 'flw1': 1.88, 'flw0': 0.0, 'time': 18.3, 'compass': 84.91, 'pitch': -0.67, 'roll': -4.18}
{'lipoC2': 7.39, 'temp': 29.94, 'lipoC3S3': 11.61, 'state': 'normal', 'rot1': 0, 'rot0': 0, 'rot3': 18, 'rot2': 17, 'depth': 1.614, 'yaw': -1.7, 'datetime': '2018-11-26 12:50:26.158227', 'mgs': 0, 'flw2': 0.0, 'flw1': 1.93, 'flw0': 0.0, 'time': 18.51, 'compass': 84.9, 'pitch': -0.52, 'roll': -4.04}
{'lipoC2': 7.39, 'temp': 29.94, 'lipoC3S3': 11.61, 'state': 'normal', 'rot1': 0, 'rot0': 0, 'rot3': 19, 'rot2': 18, 'depth': 1.538, 'yaw': -1.77, 'datetime': '2018-11-26 12:50:26.368747', 'mgs': 0, 'flw2': 0.0, 'flw1': 2.05, 'flw0': 0.0, 'time': 18.72, 'compass': 84.82, 'pitch': -0.54, 'roll': -3.26}
{'lipoC2': 7.38, 'temp': 29.88, 'lipoC3S3': 11.61, 'state': 'normal', 'rot1': 0, 'rot0': 0, 'rot3': 19, 'rot2': 19, 'depth': 1.462, 'yaw': -1.95, 'datetime': '2018-11-26 12:50:26.574539', 'mgs': 0, 'flw2': 0.0, 'flw1': 2.08, 'flw0': 0.0, 'time': 18.93, 'compass': 84.65, 'pitch': -0.79, 'roll': -3.46}
{'lipoC2': 7.39, 'temp': 29.88, 'lipoC3S3': 11.63, 'state': 'normal', 'rot1': 0, 'rot0': 0, 'rot3': 20, 'rot2': 20, 'depth': 1.538, 'yaw': -1.42, 'datetime': '2018-11-26 12:50:26.784261', 'mgs': 0, 'flw2': 0.0, 'flw1': 0.0, 'flw0': 0.0, 'time': 19.14, 'compass': 85.18, 'pitch': -0.82, 'roll': -4.52}
{'lipoC2': 7.39, 'temp': 29.94, 'lipoC3S3': 11.63, 'state': 'normal', 'rot1': 0, 'rot0': 0, 'rot3': 20, 'rot2': 20, 'depth': 1.538, 'yaw': 0.25, 'datetime': '2018-11-26 12:50:26.993388', 'mgs': 0, 'flw2': 0.0, 'flw1': 0.0, 'flw0': 0.0, 'time': 19.35, 'compass': 86.84, 'pitch': -0.16, 'roll': -5.67}
{'lipoC2': 7.39, 'temp': 29.94, 'lipoC3S3': 11.63, 'state': 'normal', 'rot1': 0, 'rot0': 0, 'rot3': 20, 'rot2': 20, 'depth': 1.614, 'yaw': 1.86, 'datetime': '2018-11-26 12:50:27.204216', 'mgs': 0, 'flw2': 0.0, 'flw1': 0.0, 'flw0': 0.0, 'time': 19.56, 'compass': 88.45, 'pitch': 0.4, 'roll': -7.31}
{'lipoC2': 7.39, 'temp': 29.94, 'lipoC3S3': 11.63, 'state': 'normal', 'rot1': 0, 'rot0': 0, 'rot3': 20, 'rot2': 20, 'depth': 1.614, 'yaw': 2.77, 'datetime': '2018-11-26 12:50:27.411701', 'mgs': 0, 'flw2': 0.0, 'flw1': 0.0, 'flw0': 0.0, 'time': 19.77, 'compass': 89.37, 'pitch': 0.28, 'roll': -7.76}
{'lipoC2': 7.39, 'temp': 30.0, 'lipoC3S3': 11.63, 'state': 'normal', 'rot1': 0, 'rot0': 0, 'rot3': 20, 'rot2': 20, 'depth': 1.691, 'yaw': 3.58, 'datetime': '2018-11-26 12:50:27.621283', 'mgs': 0, 'flw2': 0.0, 'flw1': 0.0, 'flw0': 0.0, 'time': 19.98, 'compass': 90.18, 'pitch': -0.19, 'roll': -8.11}
{'lipoC2': 7.39, 'temp': 29.94, 'lipoC3S3': 11.6, 'state': 'normal', 'rot1': 0, 'rot0': 0, 'rot3': 20, 'rot2': 20, 'depth': 1.996, 'yaw': 5.25, 'datetime': '2018-11-26 12:50:27.829589', 'mgs': 0, 'flw2': 0.0, 'flw1': 3.57, 'flw0': 0.0, 'time': 20.18, 'compass': 91.85, 'pitch': -0.08, 'roll': -9.41}
{'lipoC2': 7.39, 'temp': 29.94, 'lipoC3S3': 11.6, 'state': 'normal', 'rot1': 0, 'rot0': 0, 'rot3': 21, 'rot2': 21, 'depth': 1.691, 'yaw': 7.68, 'datetime': '2018-11-26 12:50:28.039025', 'mgs': 0, 'flw2': 0.0, 'flw1': 2.93, 'flw0': 0.0, 'time': 20.4, 'compass': 94.28, 'pitch': 0.37, 'roll': -9.96}
{'lipoC2': 7.39, 'temp': 29.94, 'lipoC3S3': 11.59, 'state': 'normal', 'rot1': 0, 'rot0': 0, 'rot3': 21, 'rot2': 22, 'depth': 1.767, 'yaw': 9.95, 'datetime': '2018-11-26 12:50:28.252468', 'mgs': 0, 'flw2': 0.0, 'flw1': 2.78, 'flw0': 0.0, 'time': 20.6, 'compass': 96.55, 'pitch': 0.73, 'roll': -9.54}
{'lipoC2': 7.39, 'temp': 29.94, 'lipoC3S3': 11.56, 'state': 'normal', 'rot1': 0, 'rot0': 0, 'rot3': 22, 'rot2': 23, 'depth': 1.691, 'yaw': 11.64, 'datetime': '2018-11-26 12:50:28.461826', 'mgs': 0, 'flw2': 0.0, 'flw1': 2.81, 'flw0': 0.0, 'time': 20.82, 'compass': 98.24, 'pitch': 0.75, 'roll': -8.8}
{'lipoC2': 7.39, 'temp': 29.94, 'lipoC3S3': 11.61, 'state': 'normal', 'rot1': 0, 'rot0': 0, 'rot3': 23, 'rot2': 24, 'depth': 1.614, 'yaw': 12.59, 'datetime': '2018-11-26 12:50:28.668854', 'mgs': 0, 'flw2': 0.0, 'flw1': 2.9, 'flw0': 0.0, 'time': 21.02, 'compass': 99.18, 'pitch': 0.04, 'roll': -7.92}
{'lipoC2': 7.39, 'temp': 29.94, 'lipoC3S3': 11.61, 'state': 'normal', 'rot1': 0, 'rot0': 0, 'rot3': 23, 'rot2': 25, 'depth': 1.614, 'yaw': 13.05, 'datetime': '2018-11-26 12:50:28.878213', 'mgs': 0, 'flw2': 0.0, 'flw1': 2.9, 'flw0': 0.0, 'time': 21.23, 'compass': 99.64, 'pitch': -0.91, 'roll': -7.14}
{'lipoC2': 7.39, 'temp': 29.94, 'lipoC3S3': 11.61, 'state': 'normal', 'rot1': 0, 'rot0': 0, 'rot3': 24, 'rot2': 26, 'depth': 1.92, 'yaw': 13.44, 'datetime': '2018-11-26 12:50:29.086256', 'mgs': 0, 'flw2': 0.0, 'flw1': 2.87, 'flw0': 0.0, 'time': 21.44, 'compass': 100.03, 'pitch': -1.58, 'roll': -6.41}
{'lipoC2': 7.39, 'temp': 30.25, 'lipoC3S3': 11.61, 'state': 'normal', 'rot1': 0, 'rot0': 0, 'rot3': 25, 'rot2': 27, 'depth': 1.996, 'yaw': 13.83, 'datetime': '2018-11-26 12:50:29.297776', 'mgs': 0, 'flw2': 0.0, 'flw1': 2.96, 'flw0': 0.0, 'time': 21.65, 'compass': 100.43, 'pitch': -1.73, 'roll': -5.91}
{'lipoC2': 7.38, 'temp': 29.94, 'lipoC3S3': 11.61, 'state': 'normal', 'rot1': 0, 'rot0': 0, 'rot3': 26, 'rot2': 28, 'depth': 1.767, 'yaw': 14.17, 'datetime': '2018-11-26 12:50:29.508835', 'mgs': 0, 'flw2': 0.0, 'flw1': 2.84, 'flw0': 0.0, 'time': 21.86, 'compass': 100.77, 'pitch': -1.59, 'roll': -5.74}
{'lipoC2': 7.39, 'temp': 29.94, 'lipoC3S3': 11.56, 'state': 'normal', 'rot1': 0, 'rot0': 0, 'rot3': 26, 'rot2': 29, 'depth': 1.462, 'yaw': 14.38, 'datetime': '2018-11-26 12:50:29.719065', 'mgs': 0, 'flw2': 0.0, 'flw1': 2.78, 'flw0': 0.0, 'time': 22.07, 'compass': 100.98, 'pitch': -1.46, 'roll': -5.36}
{'lipoC2': 7.39, 'temp': 29.94, 'lipoC3S3': 11.61, 'state': 'normal', 'rot1': 0, 'rot0': 0, 'rot3': 27, 'rot2': 30, 'depth': 1.385, 'yaw': 14.51, 'datetime': '2018-11-26 12:50:29.927378', 'mgs': 0, 'flw2': 0.0, 'flw1': 2.93, 'flw0': 0.0, 'time': 22.28, 'compass': 101.11, 'pitch': -1.22, 'roll': -4.58}
{'lipoC2': 7.39, 'temp': 29.94, 'lipoC3S3': 11.63, 'state': 'normal', 'rot1': 0, 'rot0': 0, 'rot3': 28, 'rot2': 30, 'depth': 1.385, 'yaw': 14.52, 'datetime': '2018-11-26 12:50:30.136761', 'mgs': 0, 'flw2': 0.0, 'flw1': 2.96, 'flw0': 0.0, 'time': 22.49, 'compass': 101.12, 'pitch': -0.78, 'roll': -3.92}
{'lipoC2': 7.39, 'temp': 30.0, 'lipoC3S3': 11.61, 'state': 'normal', 'rot1': 0, 'rot0': 0, 'rot3': 29, 'rot2': 31, 'depth': 1.462, 'yaw': 14.55, 'datetime': '2018-11-26 12:50:30.344394', 'mgs': 0, 'flw2': 0.0, 'flw1': 2.7, 'flw0': 0.0, 'time': 22.7, 'compass': 101.14, 'pitch': -0.35, 'roll': -3.84}
{'lipoC2': 7.39, 'temp': 30.0, 'lipoC3S3': 11.61, 'state': 'normal', 'rot1': 0, 'rot0': 0, 'rot3': 30, 'rot2': 32, 'depth': 1.385, 'yaw': 14.76, 'datetime': '2018-11-26 12:50:30.556114', 'mgs': 0, 'flw2': 0.0, 'flw1': 2.7, 'flw0': 0.0, 'time': 22.91, 'compass': 101.36, 'pitch': 0.01, 'roll': -4.23}
{'lipoC2': 7.39, 'temp': 29.94, 'lipoC3S3': 11.61, 'state': 'normal', 'rot1': 0, 'rot0': 0, 'rot3': 30, 'rot2': 33, 'depth': 1.385, 'yaw': 15.1, 'datetime': '2018-11-26 12:50:30.765920', 'mgs': 0, 'flw2': 0.0, 'flw1': 2.78, 'flw0': 0.0, 'time': 23.12, 'compass': 101.7, 'pitch': 0.27, 'roll': -4.63}
{'lipoC2': 7.39, 'temp': 29.94, 'lipoC3S3': 11.63, 'state': 'normal', 'rot1': 0, 'rot0': 0, 'rot3': 30, 'rot2': 34, 'depth': 1.309, 'yaw': 15.52, 'datetime': '2018-11-26 12:50:30.972525', 'mgs': 0, 'flw2': 0.0, 'flw1': 0.0, 'flw0': 0.0, 'time': 23.33, 'compass': 102.12, 'pitch': 0.59, 'roll': -4.67}
{'lipoC2': 7.39, 'temp': 29.94, 'lipoC3S3': 11.63, 'state': 'normal', 'rot1': 0, 'rot0': 0, 'rot3': 30, 'rot2': 34, 'depth': 1.385, 'yaw': 15.87, 'datetime': '2018-11-26 12:50:31.181560', 'mgs': 0, 'flw2': 0.0, 'flw1': 0.0, 'flw0': 0.0, 'time': 23.54, 'compass': 102.47, 'pitch': 0.97, 'roll': -4.69}
{'lipoC2': 7.39, 'temp': 29.94, 'lipoC3S3': 11.63, 'state': 'normal', 'rot1': 0, 'rot0': 0, 'rot3': 30, 'rot2': 34, 'depth': 1.385, 'yaw': 16.12, 'datetime': '2018-11-26 12:50:31.392600', 'mgs': 0, 'flw2': 0.0, 'flw1': 0.0, 'flw0': 0.0, 'time': 23.75, 'compass': 102.71, 'pitch': 1.07, 'roll': -4.74}
{'lipoC2': 7.39, 'temp': 29.94, 'lipoC3S3': 11.63, 'state': 'normal', 'rot1': 0, 'rot0': 0, 'rot3': 30, 'rot2': 34, 'depth': 1.462, 'yaw': 16.38, 'datetime': '2018-11-26 12:50:31.601003', 'mgs': 0, 'flw2': 0.0, 'flw1': 0.0, 'flw0': 0.0, 'time': 23.96, 'compass': 102.98, 'pitch': 0.9, 'roll': -5.07}
{'lipoC2': 7.39, 'temp': 29.94, 'lipoC3S3': 11.59, 'state': 'normal', 'rot1': 0, 'rot0': 0, 'rot3': 30, 'rot2': 34, 'depth': 1.996, 'yaw': 16.69, 'datetime': '2018-11-26 12:50:31.809225', 'mgs': 0, 'flw2': 0.0, 'flw1': 7.12, 'flw0': 0.0, 'time': 24.17, 'compass': 103.29, 'pitch': 0.53, 'roll': -5.72}
{'lipoC2': 7.39, 'temp': 30.0, 'lipoC3S3': 11.6, 'state': 'normal', 'rot1': 0, 'rot0': 0, 'rot3': 31, 'rot2': 35, 'depth': 1.996, 'yaw': 17.06, 'datetime': '2018-11-26 12:50:32.020025', 'mgs': 0, 'flw2': 0.0, 'flw1': 4.1, 'flw0': 0.0, 'time': 24.38, 'compass': 103.65, 'pitch': -0.12, 'roll': -5.87}
{'lipoC2': 7.39, 'temp': 29.94, 'lipoC3S3': 11.55, 'state': 'normal', 'rot1': 0, 'rot0': 0, 'rot3': 32, 'rot2': 36, 'depth': 1.691, 'yaw': 17.57, 'datetime': '2018-11-26 12:50:32.230452', 'mgs': 0, 'flw2': 0.0, 'flw1': 3.84, 'flw0': 0.0, 'time': 24.59, 'compass': 104.17, 'pitch': -0.85, 'roll': -5.17}
{'lipoC2': 7.39, 'temp': 29.94, 'lipoC3S3': 11.6, 'state': 'normal', 'rot1': 0, 'rot0': 0, 'rot3': 33, 'rot2': 37, 'depth': 1.614, 'yaw': 18.2, 'datetime': '2018-11-26 12:50:32.436064', 'mgs': 0, 'flw2': 0.0, 'flw1': 3.9, 'flw0': 0.0, 'time': 24.8, 'compass': 104.8, 'pitch': -1.37, 'roll': -4.71}
{'lipoC2': 7.39, 'temp': 29.94, 'lipoC3S3': 11.61, 'state': 'normal', 'rot1': 0, 'rot0': 0, 'rot3': 33, 'rot2': 38, 'depth': 1.614, 'yaw': 18.88, 'datetime': '2018-11-26 12:50:32.647070', 'mgs': 0, 'flw2': 0.0, 'flw1': 4.1, 'flw0': 0.0, 'time': 25.0, 'compass': 105.48, 'pitch': -1.7, 'roll': -4.77}
{'lipoC2': 7.39, 'temp': 29.94, 'lipoC3S3': 11.61, 'state': 'normal', 'rot1': 0, 'rot0': 0, 'rot3': 34, 'rot2': 39, 'depth': 1.92, 'yaw': 19.52, 'datetime': '2018-11-26 12:50:32.855065', 'mgs': 0, 'flw2': 0.0, 'flw1': 3.75, 'flw0': 0.0, 'time': 25.21, 'compass': 106.12, 'pitch': -1.92, 'roll': -4.96}
{'lipoC2': 7.39, 'temp': 29.94, 'lipoC3S3': 11.61, 'state': 'normal', 'rot1': 0, 'rot0': 0, 'rot3': 35, 'rot2': 40, 'depth': 1.996, 'yaw': 20.08, 'datetime': '2018-11-26 12:50:33.066274', 'mgs': 0, 'flw2': 0.0, 'flw1': 4.13, 'flw0': 0.0, 'time': 25.42, 'compass': 106.68, 'pitch': -1.94, 'roll': -5.2}
{'lipoC2': 7.39, 'temp': 29.88, 'lipoC3S3': 11.56, 'state': 'normal', 'rot1': 0, 'rot0': 0, 'rot3': 36, 'rot2': 41, 'depth': 1.614, 'yaw': 20.52, 'datetime': '2018-11-26 12:50:33.274712', 'mgs': 0, 'flw2': 0.0, 'flw1': 3.69, 'flw0': 0.0, 'time': 25.63, 'compass': 107.12, 'pitch': -1.89, 'roll': -5.22}
{'lipoC2': 7.39, 'temp': 29.94, 'lipoC3S3': 11.59, 'state': 'normal', 'rot1': 0, 'rot0': 0, 'rot3': 37, 'rot2': 43, 'depth': 1.462, 'yaw': 20.77, 'datetime': '2018-11-26 12:50:33.483918', 'mgs': 0, 'flw2': 0.0, 'flw1': 3.98, 'flw0': 0.0, 'time': 25.84, 'compass': 107.37, 'pitch': -1.78, 'roll': -4.63}
{'lipoC2': 7.39, 'temp': 29.94, 'lipoC3S3': 11.61, 'state': 'normal', 'rot1': 0, 'rot0': 0, 'rot3': 38, 'rot2': 44, 'depth': 1.92, 'yaw': 20.92, 'datetime': '2018-11-26 12:50:33.693892', 'mgs': 0, 'flw2': 0.0, 'flw1': 4.07, 'flw0': 0.0, 'time': 26.05, 'compass': 107.52, 'pitch': -1.61, 'roll': -3.89}
{'lipoC2': 7.39, 'temp': 29.94, 'lipoC3S3': 11.59, 'state': 'normal', 'rot1': 0, 'rot0': 0, 'rot3': 38, 'rot2': 45, 'depth': 1.385, 'yaw': 21.1, 'datetime': '2018-11-26 12:50:33.903012', 'mgs': 0, 'flw2': 0.0, 'flw1': 3.78, 'flw0': 0.0, 'time': 26.26, 'compass': 107.69, 'pitch': -1.43, 'roll': -3.6}
{'lipoC2': 7.39, 'temp': 29.94, 'lipoC3S3': 11.61, 'state': 'normal', 'rot1': 0, 'rot0': 0, 'rot3': 39, 'rot2': 46, 'depth': 1.004, 'yaw': 21.42, 'datetime': '2018-11-26 12:50:34.110433', 'mgs': 0, 'flw2': 0.0, 'flw1': 3.9, 'flw0': 0.0, 'time': 26.47, 'compass': 108.01, 'pitch': -1.25, 'roll': -3.45}
{'lipoC2': 7.39, 'temp': 29.94, 'lipoC3S3': 11.61, 'state': 'normal', 'rot1': 0, 'rot0': 0, 'rot3': 40, 'rot2': 47, 'depth': 1.385, 'yaw': 21.82, 'datetime': '2018-11-26 12:50:34.319966', 'mgs': 0, 'flw2': 0.0, 'flw1': 3.84, 'flw0': 0.0, 'time': 26.68, 'compass': 108.42, 'pitch': -0.95, 'roll': -3.22}
{'lipoC2': 7.39, 'temp': 29.94, 'lipoC3S3': 11.6, 'state': 'normal', 'rot1': 0, 'rot0': 0, 'rot3': 41, 'rot2': 48, 'depth': 1.691, 'yaw': 22.12, 'datetime': '2018-11-26 12:50:34.529413', 'mgs': 0, 'flw2': 0.0, 'flw1': 3.46, 'flw0': 0.0, 'time': 26.89, 'compass': 108.71, 'pitch': -0.62, 'roll': -3.14}
{'lipoC2': 7.39, 'temp': 29.94, 'lipoC3S3': 11.61, 'state': 'normal', 'rot1': 0, 'rot0': 0, 'rot3': 42, 'rot2': 49, 'depth': 1.614, 'yaw': 22.22, 'datetime': '2018-11-26 12:50:34.738800', 'mgs': 0, 'flw2': 0.0, 'flw1': 3.4, 'flw0': 0.0, 'time': 27.1, 'compass': 108.82, 'pitch': -0.74, 'roll': -3.25}
{'lipoC2': 7.39, 'temp': 29.94, 'lipoC3S3': 11.61, 'state': 'normal', 'rot1': 0, 'rot0': 0, 'rot3': 42, 'rot2': 50, 'depth': 1.309, 'yaw': 22.37, 'datetime': '2018-11-26 12:50:34.948181', 'mgs': 0, 'flw2': 0.0, 'flw1': 0.0, 'flw0': 0.0, 'time': 27.31, 'compass': 108.97, 'pitch': -1.1, 'roll': -3.6}
{'lipoC2': 7.39, 'temp': 29.94, 'lipoC3S3': 11.63, 'state': 'normal', 'rot1': 0, 'rot0': 0, 'rot3': 42, 'rot2': 50, 'depth': 1.309, 'yaw': 22.71, 'datetime': '2018-11-26 12:50:35.158142', 'mgs': 0, 'flw2': 0.0, 'flw1': 0.0, 'flw0': 0.0, 'time': 27.52, 'compass': 109.31, 'pitch': -1.09, 'roll': -4.21}
{'lipoC2': 7.39, 'temp': 29.94, 'lipoC3S3': 11.63, 'state': 'normal', 'rot1': 0, 'rot0': 0, 'rot3': 42, 'rot2': 50, 'depth': 1.385, 'yaw': 23.19, 'datetime': '2018-11-26 12:50:35.367847', 'mgs': 0, 'flw2': 0.0, 'flw1': 0.0, 'flw0': 0.0, 'time': 27.73, 'compass': 109.79, 'pitch': -0.82, 'roll': -4.54}
{'lipoC2': 7.38, 'temp': 29.94, 'lipoC3S3': 11.63, 'state': 'normal', 'rot1': 0, 'rot0': 0, 'rot3': 42, 'rot2': 50, 'depth': 1.462, 'yaw': 23.65, 'datetime': '2018-11-26 12:50:35.576872', 'mgs': 0, 'flw2': 0.0, 'flw1': 0.0, 'flw0': 0.0, 'time': 27.94, 'compass': 110.25, 'pitch': -0.78, 'roll': -4.51}
{'lipoC2': 7.38, 'temp': 29.94, 'lipoC3S3': 11.61, 'state': 'normal', 'rot1': 0, 'rot0': 0, 'rot3': 42, 'rot2': 50, 'depth': 1.538, 'yaw': 24.09, 'datetime': '2018-11-26 12:50:35.785087', 'mgs': 0, 'flw2': 0.0, 'flw1': 0.0, 'flw0': 0.0, 'time': 28.15, 'compass': 110.69, 'pitch': -0.74, 'roll': -4.7}
{'lipoC2': 7.39, 'temp': 29.94, 'lipoC3S3': 11.59, 'state': 'normal', 'rot1': 0, 'rot0': 0, 'rot3': 43, 'rot2': 51, 'depth': 1.538, 'yaw': 24.47, 'datetime': '2018-11-26 12:50:35.994215', 'mgs': 0, 'flw2': 0.0, 'flw1': 5.3, 'flw0': 0.0, 'time': 28.36, 'compass': 111.07, 'pitch': -0.6, 'roll': -5.17}
{'lipoC2': 7.39, 'temp': 29.94, 'lipoC3S3': 11.55, 'state': 'normal', 'rot1': 0, 'rot0': 0, 'rot3': 44, 'rot2': 52, 'depth': 1.843, 'yaw': 24.74, 'datetime': '2018-11-26 12:50:36.204130', 'mgs': 0, 'flw2': 0.0, 'flw1': 4.69, 'flw0': 0.0, 'time': 28.57, 'compass': 111.34, 'pitch': -0.94, 'roll': -5.05}
{'lipoC2': 7.39, 'temp': 29.94, 'lipoC3S3': 11.56, 'state': 'normal', 'rot1': 0, 'rot0': 0, 'rot3': 45, 'rot2': 53, 'depth': 1.538, 'yaw': 24.98, 'datetime': '2018-11-26 12:50:36.413381', 'mgs': 0, 'flw2': 0.0, 'flw1': 4.66, 'flw0': 0.0, 'time': 28.78, 'compass': 111.58, 'pitch': -1.48, 'roll': -4.8}
{'lipoC2': 7.39, 'temp': 29.94, 'lipoC3S3': 11.55, 'state': 'normal', 'rot1': 0, 'rot0': 0, 'rot3': 46, 'rot2': 55, 'depth': 1.767, 'yaw': 25.2, 'datetime': '2018-11-26 12:50:36.624187', 'mgs': 0, 'flw2': 0.0, 'flw1': 4.78, 'flw0': 0.0, 'time': 28.99, 'compass': 111.8, 'pitch': -1.86, 'roll': -4.84}
{'lipoC2': 7.39, 'temp': 29.94, 'lipoC3S3': 11.58, 'state': 'normal', 'rot1': 0, 'rot0': 0, 'rot3': 46, 'rot2': 56, 'depth': 1.538, 'yaw': 25.49, 'datetime': '2018-11-26 12:50:36.832393', 'mgs': 0, 'flw2': 0.0, 'flw1': 4.83, 'flw0': 0.0, 'time': 29.2, 'compass': 112.09, 'pitch': -2.06, 'roll': -5.13}
{'lipoC2': 7.39, 'temp': 29.94, 'lipoC3S3': 11.6, 'state': 'normal', 'rot1': 0, 'rot0': 0, 'rot3': 47, 'rot2': 57, 'depth': 1.843, 'yaw': 25.79, 'datetime': '2018-11-26 12:50:37.041938', 'mgs': 0, 'flw2': 0.0, 'flw1': 5.01, 'flw0': 0.0, 'time': 29.41, 'compass': 112.39, 'pitch': -2.29, 'roll': -5.09}
{'lipoC2': 7.38, 'temp': 29.88, 'lipoC3S3': 11.59, 'state': 'normal', 'rot1': 0, 'rot0': 0, 'rot3': 48, 'rot2': 58, 'depth': 1.309, 'yaw': 26.05, 'datetime': '2018-11-26 12:50:37.250705', 'mgs': 0, 'flw2': 0.0, 'flw1': 4.48, 'flw0': 0.0, 'time': 29.62, 'compass': 112.65, 'pitch': -2.27, 'roll': -4.9}
{'lipoC2': 7.39, 'temp': 29.94, 'lipoC3S3': 11.6, 'state': 'normal', 'rot1': 0, 'rot0': 0, 'rot3': 49, 'rot2': 60, 'depth': 1.614, 'yaw': 26.36, 'datetime': '2018-11-26 12:50:37.460991', 'mgs': 0, 'flw2': 0.0, 'flw1': 4.42, 'flw0': 0.0, 'time': 29.83, 'compass': 112.96, 'pitch': -1.85, 'roll': -4.96}
{'lipoC2': 7.39, 'temp': 29.94, 'lipoC3S3': 11.6, 'state': 'normal', 'rot1': 0, 'rot0': 0, 'rot3': 50, 'rot2': 61, 'depth': 1.691, 'yaw': 26.78, 'datetime': '2018-11-26 12:50:37.671530', 'mgs': 0, 'flw2': 0.0, 'flw1': 4.57, 'flw0': 0.0, 'time': 30.04, 'compass': 113.38, 'pitch': -1.47, 'roll': -5.19}
{'lipoC2': 7.39, 'temp': 29.94, 'lipoC3S3': 11.59, 'state': 'normal', 'rot1': 0, 'rot0': 0, 'rot3': 51, 'rot2': 62, 'depth': 1.538, 'yaw': 27.18, 'datetime': '2018-11-26 12:50:37.880479', 'mgs': 0, 'flw2': 0.0, 'flw1': 4.25, 'flw0': 0.0, 'time': 30.25, 'compass': 113.78, 'pitch': -1.69, 'roll': -4.88}
{'lipoC2': 7.39, 'temp': 29.94, 'lipoC3S3': 11.58, 'state': 'normal', 'rot1': 0, 'rot0': 0, 'rot3': 52, 'rot2': 64, 'depth': 1.233, 'yaw': 27.67, 'datetime': '2018-11-26 12:50:38.091515', 'mgs': 0, 'flw2': 0.0, 'flw1': 4.37, 'flw0': 0.0, 'time': 30.45, 'compass': 114.26, 'pitch': -2.27, 'roll': -3.99}
{'lipoC2': 7.39, 'temp': 29.94, 'lipoC3S3': 11.61, 'state': 'normal', 'rot1': 0, 'rot0': 0, 'rot3': 53, 'rot2': 65, 'depth': 1.309, 'yaw': 28.13, 'datetime': '2018-11-26 12:50:38.300682', 'mgs': 0, 'flw2': 0.0, 'flw1': 4.42, 'flw0': 0.0, 'time': 30.66, 'compass': 114.73, 'pitch': -2.76, 'roll': -3.04}
{'lipoC2': 7.39, 'temp': 29.94, 'lipoC3S3': 11.6, 'state': 'normal', 'rot1': 0, 'rot0': 0, 'rot3': 54, 'rot2': 67, 'depth': 1.309, 'yaw': 28.65, 'datetime': '2018-11-26 12:50:38.508152', 'mgs': 0, 'flw2': 0.0, 'flw1': 4.48, 'flw0': 0.0, 'time': 30.87, 'compass': 115.24, 'pitch': -2.84, 'roll': -2.6}
{'lipoC2': 7.39, 'temp': 29.94, 'lipoC3S3': 11.6, 'state': 'normal', 'rot1': 0, 'rot0': 0, 'rot3': 54, 'rot2': 68, 'depth': 1.614, 'yaw': 29.36, 'datetime': '2018-11-26 12:50:38.719531', 'mgs': 0, 'flw2': 0.0, 'flw1': 4.25, 'flw0': 0.0, 'time': 31.08, 'compass': 115.96, 'pitch': -2.66, 'roll': -3.07}
{'lipoC2': 7.39, 'temp': 29.94, 'lipoC3S3': 11.61, 'state': 'normal', 'rot1': 0, 'rot0': 0, 'rot3': 55, 'rot2': 69, 'depth': 1.233, 'yaw': 29.81, 'datetime': '2018-11-26 12:50:38.930555', 'mgs': 0, 'flw2': 0.0, 'flw1': 0.0, 'flw0': 0.0, 'time': 31.29, 'compass': 116.41, 'pitch': -2.63, 'roll': -4.65}
{'lipoC2': 7.39, 'temp': 29.94, 'lipoC3S3': 11.61, 'state': 'normal', 'rot1': 0, 'rot0': 0, 'rot3': 55, 'rot2': 69, 'depth': 1.233, 'yaw': 30.12, 'datetime': '2018-11-26 12:50:39.140489', 'mgs': 0, 'flw2': 0.0, 'flw1': 0.0, 'flw0': 0.0, 'time': 31.5, 'compass': 116.71, 'pitch': -2.58, 'roll': -6.63}
{'lipoC2': 7.39, 'temp': 29.94, 'lipoC3S3': 11.61, 'state': 'normal', 'rot1': 0, 'rot0': 0, 'rot3': 55, 'rot2': 69, 'depth': 1.233, 'yaw': 30.33, 'datetime': '2018-11-26 12:50:39.347886', 'mgs': 0, 'flw2': 0.0, 'flw1': 0.0, 'flw0': 0.0, 'time': 31.71, 'compass': 116.93, 'pitch': -2.16, 'roll': -7.21}
{'lipoC2': 7.38, 'temp': 29.94, 'lipoC3S3': 11.61, 'state': 'normal', 'rot1': 0, 'rot0': 0, 'rot3': 55, 'rot2': 69, 'depth': 1.233, 'yaw': 30.68, 'datetime': '2018-11-26 12:50:39.558010', 'mgs': 0, 'flw2': 0.0, 'flw1': 0.0, 'flw0': 0.0, 'time': 31.92, 'compass': 117.27, 'pitch': -1.43, 'roll': -7.38}
{'lipoC2': 7.38, 'temp': 29.94, 'lipoC3S3': 11.63, 'state': 'normal', 'rot1': 0, 'rot0': 0, 'rot3': 55, 'rot2': 69, 'depth': 1.309, 'yaw': 30.98, 'datetime': '2018-11-26 12:50:39.765471', 'mgs': 0, 'flw2': 0.0, 'flw1': 0.0, 'flw0': 0.0, 'time': 32.13, 'compass': 117.57, 'pitch': -0.6, 'roll': -7.06}
{'lipoC2': 7.38, 'temp': 29.94, 'lipoC3S3': 11.59, 'state': 'normal', 'rot1': 0, 'rot0': 0, 'rot3': 56, 'rot2': 70, 'depth': 1.767, 'yaw': 30.89, 'datetime': '2018-11-26 12:50:39.974441', 'mgs': 0, 'flw2': 0.0, 'flw1': 6.86, 'flw0': 0.0, 'time': 32.34, 'compass': 117.48, 'pitch': 0.03, 'roll': -6.69}
{'lipoC2': 7.39, 'temp': 29.94, 'lipoC3S3': 11.59, 'state': 'normal', 'rot1': 0, 'rot0': 0, 'rot3': 56, 'rot2': 71, 'depth': 1.691, 'yaw': 30.8, 'datetime': '2018-11-26 12:50:40.182672', 'mgs': 0, 'flw2': 0.0, 'flw1': 6.21, 'flw0': 0.0, 'time': 32.55, 'compass': 117.4, 'pitch': 0.01, 'roll': -5.73}
{'lipoC2': 7.39, 'temp': 29.88, 'lipoC3S3': 11.55, 'state': 'normal', 'rot1': 0, 'rot0': 0, 'rot3': 57, 'rot2': 72, 'depth': 1.309, 'yaw': 30.85, 'datetime': '2018-11-26 12:50:40.392313', 'mgs': 0, 'flw2': 0.0, 'flw1': 5.71, 'flw0': 0.0, 'time': 32.76, 'compass': 117.44, 'pitch': -0.57, 'roll': -4.69}
{'lipoC2': 7.38, 'temp': 29.94, 'lipoC3S3': 11.6, 'state': 'normal', 'rot1': 0, 'rot0': 0, 'rot3': 58, 'rot2': 74, 'depth': 1.767, 'yaw': 30.91, 'datetime': '2018-11-26 12:50:40.600389', 'mgs': 0, 'flw2': 0.0, 'flw1': 5.33, 'flw0': 0.0, 'time': 32.97, 'compass': 117.51, 'pitch': -1.54, 'roll': -4.81}
{'lipoC2': 7.39, 'temp': 29.94, 'lipoC3S3': 11.6, 'state': 'normal', 'rot1': 0, 'rot0': 0, 'rot3': 59, 'rot2': 75, 'depth': 1.309, 'yaw': 30.98, 'datetime': '2018-11-26 12:50:40.810259', 'mgs': 0, 'flw2': 0.0, 'flw1': 4.89, 'flw0': 0.0, 'time': 33.18, 'compass': 117.57, 'pitch': -2.31, 'roll': -5.93}
{'lipoC2': 7.38, 'temp': 29.94, 'lipoC3S3': 11.59, 'state': 'normal', 'rot1': 0, 'rot0': 0, 'rot3': 60, 'rot2': 77, 'depth': 1.462, 'yaw': 31.07, 'datetime': '2018-11-26 12:50:41.019146', 'mgs': 0, 'flw2': 0.0, 'flw1': 4.45, 'flw0': 0.0, 'time': 33.39, 'compass': 117.66, 'pitch': -2.54, 'roll': -6.32}
{'lipoC2': 7.38, 'temp': 29.88, 'lipoC3S3': 11.6, 'state': 'normal', 'rot1': 0, 'rot0': 0, 'rot3': 61, 'rot2': 78, 'depth': 1.691, 'yaw': 31.15, 'datetime': '2018-11-26 12:50:41.229847', 'mgs': 0, 'flw2': 0.0, 'flw1': 4.66, 'flw0': 0.0, 'time': 33.6, 'compass': 117.75, 'pitch': -2.91, 'roll': -5.65}
{'lipoC2': 7.39, 'temp': 29.94, 'lipoC3S3': 11.58, 'state': 'normal', 'rot1': 0, 'rot0': 0, 'rot3': 62, 'rot2': 79, 'depth': 1.462, 'yaw': 31.27, 'datetime': '2018-11-26 12:50:41.439367', 'mgs': 0, 'flw2': 0.0, 'flw1': 4.39, 'flw0': 0.0, 'time': 33.81, 'compass': 117.86, 'pitch': -3.45, 'roll': -4.71}
{'lipoC2': 7.39, 'temp': 29.94, 'lipoC3S3': 11.58, 'state': 'normal', 'rot1': 0, 'rot0': 0, 'rot3': 64, 'rot2': 81, 'depth': 1.233, 'yaw': 31.67, 'datetime': '2018-11-26 12:50:41.647597', 'mgs': 0, 'flw2': 0.0, 'flw1': 4.34, 'flw0': 0.0, 'time': 34.02, 'compass': 118.27, 'pitch': -3.79, 'roll': -3.81}
{'lipoC2': 7.38, 'temp': 29.94, 'lipoC3S3': 11.59, 'state': 'normal', 'rot1': 0, 'rot0': 0, 'rot3': 65, 'rot2': 82, 'depth': 1.157, 'yaw': 32.36, 'datetime': '2018-11-26 12:50:41.857163', 'mgs': 0, 'flw2': 0.0, 'flw1': 4.28, 'flw0': 0.0, 'time': 34.23, 'compass': 118.96, 'pitch': -3.86, 'roll': -3.3}
{'lipoC2': 7.39, 'temp': 29.94, 'lipoC3S3': 11.6, 'state': 'normal', 'rot1': 0, 'rot0': 0, 'rot3': 66, 'rot2': 84, 'depth': 1.691, 'yaw': 33.31, 'datetime': '2018-11-26 12:50:42.067192', 'mgs': 0, 'flw2': 0.0, 'flw1': 4.83, 'flw0': 0.0, 'time': 34.44, 'compass': 119.9, 'pitch': -3.76, 'roll': -3.75}
{'lipoC2': 7.39, 'temp': 29.94, 'lipoC3S3': 11.59, 'state': 'normal', 'rot1': 0, 'rot0': 0, 'rot3': 67, 'rot2': 85, 'depth': 1.233, 'yaw': 34.61, 'datetime': '2018-11-26 12:50:42.276696', 'mgs': 0, 'flw2': 0.0, 'flw1': 4.78, 'flw0': 0.0, 'time': 34.65, 'compass': 121.21, 'pitch': -3.24, 'roll': -4.92}
{'lipoC2': 7.39, 'temp': 29.88, 'lipoC3S3': 11.6, 'state': 'normal', 'rot1': 0, 'rot0': 0, 'rot3': 68, 'rot2': 86, 'depth': 1.462, 'yaw': 36.16, 'datetime': '2018-11-26 12:50:42.485910', 'mgs': 0, 'flw2': 0.0, 'flw1': 4.51, 'flw0': 0.0, 'time': 34.85, 'compass': 122.76, 'pitch': -2.51, 'roll': -5.99}
{'lipoC2': 7.39, 'temp': 29.94, 'lipoC3S3': 11.56, 'state': 'normal', 'rot1': 0, 'rot0': 0, 'rot3': 69, 'rot2': 88, 'depth': 1.309, 'yaw': 37.73, 'datetime': '2018-11-26 12:50:42.695174', 'mgs': 0, 'flw2': 0.0, 'flw1': 4.28, 'flw0': 0.0, 'time': 35.06, 'compass': 124.33, 'pitch': -1.99, 'roll': -6.62}
{'lipoC2': 7.39, 'temp': 29.94, 'lipoC3S3': 11.61, 'state': 'normal', 'rot1': 0, 'rot0': 0, 'rot3': 70, 'rot2': 89, 'depth': 1.08, 'yaw': 39.25, 'datetime': '2018-11-26 12:50:42.903087', 'mgs': 0, 'flw2': 0.0, 'flw1': 0.0, 'flw0': 0.0, 'time': 35.27, 'compass': 125.85, 'pitch': -1.97, 'roll': -6.57}
{'lipoC2': 7.39, 'temp': 29.94, 'lipoC3S3': 11.61, 'state': 'normal', 'rot1': 0, 'rot0': 0, 'rot3': 70, 'rot2': 89, 'depth': 1.08, 'yaw': 40.7, 'datetime': '2018-11-26 12:50:43.112156', 'mgs': 0, 'flw2': 0.0, 'flw1': 0.0, 'flw0': 0.0, 'time': 35.48, 'compass': 127.3, 'pitch': -1.93, 'roll': -6.61}
{'lipoC2': 7.39, 'temp': 29.94, 'lipoC3S3': 11.61, 'state': 'normal', 'rot1': 0, 'rot0': 0, 'rot3': 70, 'rot2': 89, 'depth': 1.08, 'yaw': 41.88, 'datetime': '2018-11-26 12:50:43.320788', 'mgs': 0, 'flw2': 0.0, 'flw1': 0.0, 'flw0': 0.0, 'time': 35.69, 'compass': 128.47, 'pitch': -1.84, 'roll': -6.92}
{'lipoC2': 7.38, 'temp': 29.88, 'lipoC3S3': 11.61, 'state': 'normal', 'rot1': 0, 'rot0': 0, 'rot3': 70, 'rot2': 89, 'depth': 1.157, 'yaw': 42.8, 'datetime': '2018-11-26 12:50:43.530774', 'mgs': 0, 'flw2': 0.0, 'flw1': 0.0, 'flw0': 0.0, 'time': 35.9, 'compass': 129.4, 'pitch': -1.59, 'roll': -6.55}
{'lipoC2': 7.39, 'temp': 29.88, 'lipoC3S3': 11.63, 'state': 'normal', 'rot1': 0, 'rot0': 0, 'rot3': 70, 'rot2': 89, 'depth': 1.157, 'yaw': 43.67, 'datetime': '2018-11-26 12:50:43.742097', 'mgs': 0, 'flw2': 0.0, 'flw1': 0.0, 'flw0': 0.0, 'time': 36.11, 'compass': 130.27, 'pitch': -1.26, 'roll': -5.27}
{'lipoC2': 7.39, 'temp': 29.88, 'lipoC3S3': 11.59, 'state': 'normal', 'rot1': 0, 'rot0': 0, 'rot3': 70, 'rot2': 90, 'depth': 1.843, 'yaw': 44.42, 'datetime': '2018-11-26 12:50:43.950302', 'mgs': 0, 'flw2': 0.0, 'flw1': 8.88, 'flw0': 0.0, 'time': 36.32, 'compass': 131.01, 'pitch': -0.84, 'roll': -4.05}
{'lipoC2': 7.38, 'temp': 29.88, 'lipoC3S3': 11.58, 'state': 'normal', 'rot1': 0, 'rot0': 0, 'rot3': 71, 'rot2': 91, 'depth': 1.385, 'yaw': 44.84, 'datetime': '2018-11-26 12:50:44.160226', 'mgs': 0, 'flw2': 0.0, 'flw1': 5.98, 'flw0': 0.0, 'time': 36.53, 'compass': 131.44, 'pitch': -1.01, 'roll': -2.58}
{'lipoC2': 7.39, 'temp': 29.94, 'lipoC3S3': 11.59, 'state': 'normal', 'rot1': 0, 'rot0': 0, 'rot3': 73, 'rot2': 93, 'depth': 1.462, 'yaw': 45.17, 'datetime': '2018-11-26 12:50:44.369561', 'mgs': 0, 'flw2': 0.0, 'flw1': 5.71, 'flw0': 0.0, 'time': 36.74, 'compass': 131.77, 'pitch': -1.28, 'roll': -1.24}
{'lipoC2': 7.39, 'temp': 29.94, 'lipoC3S3': 11.56, 'state': 'normal', 'rot1': 0, 'rot0': 0, 'rot3': 74, 'rot2': 94, 'depth': 1.614, 'yaw': 45.35, 'datetime': '2018-11-26 12:50:44.580581', 'mgs': 0, 'flw2': 0.0, 'flw1': 4.95, 'flw0': 0.0, 'time': 36.95, 'compass': 131.95, 'pitch': -1.88, 'roll': -0.36}
{'lipoC2': 7.39, 'temp': 29.94, 'lipoC3S3': 11.59, 'state': 'normal', 'rot1': 0, 'rot0': 0, 'rot3': 75, 'rot2': 95, 'depth': 1.767, 'yaw': 45.58, 'datetime': '2018-11-26 12:50:44.788813', 'mgs': 0, 'flw2': 0.0, 'flw1': 4.83, 'flw0': 0.0, 'time': 37.16, 'compass': 132.18, 'pitch': -2.58, 'roll': 0.04}
{'lipoC2': 7.39, 'temp': 29.88, 'lipoC3S3': 11.59, 'state': 'normal', 'rot1': 0, 'rot0': 0, 'rot3': 76, 'rot2': 97, 'depth': 1.767, 'yaw': 46.01, 'datetime': '2018-11-26 12:50:45.001179', 'mgs': 0, 'flw2': 0.0, 'flw1': 4.8, 'flw0': 0.0, 'time': 37.37, 'compass': 132.6, 'pitch': -3.36, 'roll': -0.06}
{'lipoC2': 7.39, 'temp': 29.94, 'lipoC3S3': 11.55, 'state': 'normal', 'rot1': 0, 'rot0': 0, 'rot3': 78, 'rot2': 98, 'depth': 1.614, 'yaw': 46.59, 'datetime': '2018-11-26 12:50:45.208553', 'mgs': 0, 'flw2': 0.0, 'flw1': 5.3, 'flw0': 0.0, 'time': 37.58, 'compass': 133.19, 'pitch': -4.32, 'roll': -0.97}
{'lipoC2': 7.39, 'temp': 29.94, 'lipoC3S3': 11.58, 'state': 'normal', 'rot1': 0, 'rot0': 0, 'rot3': 79, 'rot2': 100, 'depth': 1.614, 'yaw': 47.31, 'datetime': '2018-11-26 12:50:45.419680', 'mgs': 0, 'flw2': 0.0, 'flw1': 4.6, 'flw0': 0.0, 'time': 37.79, 'compass': 133.9, 'pitch': -5.33, 'roll': -2.43}
{'lipoC2': 7.39, 'temp': 29.94, 'lipoC3S3': 11.56, 'state': 'normal', 'rot1': 0, 'rot0': 0, 'rot3': 80, 'rot2': 101, 'depth': 1.462, 'yaw': 48.13, 'datetime': '2018-11-26 12:50:45.628058', 'mgs': 0, 'flw2': 0.0, 'flw1': 4.92, 'flw0': 0.0, 'time': 38.0, 'compass': 134.72, 'pitch': -5.88, 'roll': -3.65}
{'lipoC2': 7.39, 'temp': 29.94, 'lipoC3S3': 11.56, 'state': 'normal', 'rot1': 0, 'rot0': 0, 'rot3': 81, 'rot2': 103, 'depth': 1.462, 'yaw': 48.9, 'datetime': '2018-11-26 12:50:45.840405', 'mgs': 0, 'flw2': 0.0, 'flw1': 4.72, 'flw0': 0.0, 'time': 38.21, 'compass': 135.49, 'pitch': -5.87, 'roll': -4.19}
{'lipoC2': 7.39, 'temp': 29.94, 'lipoC3S3': 11.55, 'state': 'normal', 'rot1': 0, 'rot0': 0, 'rot3': 83, 'rot2': 104, 'depth': 1.462, 'yaw': 49.63, 'datetime': '2018-11-26 12:50:46.046182', 'mgs': 0, 'flw2': 0.0, 'flw1': 4.98, 'flw0': 0.0, 'time': 38.42, 'compass': 136.22, 'pitch': -5.49, 'roll': -4.26}
{'lipoC2': 7.39, 'temp': 29.94, 'lipoC3S3': 11.58, 'state': 'normal', 'rot1': 0, 'rot0': 0, 'rot3': 84, 'rot2': 106, 'depth': 1.233, 'yaw': 50.35, 'datetime': '2018-11-26 12:50:46.255980', 'mgs': 0, 'flw2': 0.0, 'flw1': 4.72, 'flw0': 0.0, 'time': 38.63, 'compass': 136.95, 'pitch': -4.58, 'roll': -3.95}
{'lipoC2': 7.39, 'temp': 29.94, 'lipoC3S3': 11.58, 'state': 'normal', 'rot1': 0, 'rot0': 0, 'rot3': 85, 'rot2': 107, 'depth': 1.233, 'yaw': 50.96, 'datetime': '2018-11-26 12:50:46.465090', 'mgs': 0, 'flw2': 0.0, 'flw1': 4.92, 'flw0': 0.0, 'time': 38.84, 'compass': 137.56, 'pitch': -3.26, 'roll': -3.79}
{'lipoC2': 7.39, 'temp': 29.94, 'lipoC3S3': 11.59, 'state': 'normal', 'rot1': 0, 'rot0': 0, 'rot3': 87, 'rot2': 109, 'depth': 1.309, 'yaw': 51.51, 'datetime': '2018-11-26 12:50:46.674507', 'mgs': 0, 'flw2': 0.0, 'flw1': 5.19, 'flw0': 0.0, 'time': 39.05, 'compass': 138.1, 'pitch': -1.98, 'roll': -3.79}
{'lipoC2': 7.39, 'temp': 29.94, 'lipoC3S3': 11.61, 'state': 'normal', 'rot1': 0, 'rot0': 0, 'rot3': 88, 'rot2': 110, 'depth': 1.157, 'yaw': 52.2, 'datetime': '2018-11-26 12:50:46.883932', 'mgs': 0, 'flw2': 0.0, 'flw1': 0.06, 'flw0': 0.0, 'time': 39.26, 'compass': 138.8, 'pitch': -0.84, 'roll': -3.88}
{'lipoC2': 7.39, 'temp': 29.94, 'lipoC3S3': 11.61, 'state': 'normal', 'rot1': 0, 'rot0': 0, 'rot3': 88, 'rot2': 111, 'depth': 1.08, 'yaw': 53.41, 'datetime': '2018-11-26 12:50:47.094498', 'mgs': 0, 'flw2': 0.0, 'flw1': 0.0, 'flw0': 0.0, 'time': 39.47, 'compass': 140.01, 'pitch': 0.08, 'roll': -3.32}
{'lipoC2': 7.38, 'temp': 29.94, 'lipoC3S3': 11.61, 'state': 'normal', 'rot1': 0, 'rot0': 0, 'rot3': 88, 'rot2': 111, 'depth': 1.233, 'yaw': 54.7, 'datetime': '2018-11-26 12:50:47.302814', 'mgs': 0, 'flw2': 0.0, 'flw1': 0.0, 'flw0': 0.0, 'time': 39.68, 'compass': 141.29, 'pitch': 0.8, 'roll': -4.09}
{'lipoC2': 7.38, 'temp': 29.94, 'lipoC3S3': 11.61, 'state': 'normal', 'rot1': 0, 'rot0': 0, 'rot3': 88, 'rot2': 111, 'depth': 1.233, 'yaw': 55.37, 'datetime': '2018-11-26 12:50:47.514511', 'mgs': 0, 'flw2': 0.0, 'flw1': 0.0, 'flw0': 0.0, 'time': 39.88, 'compass': 141.96, 'pitch': 1.07, 'roll': -6.1}
{'lipoC2': 7.39, 'temp': 29.94, 'lipoC3S3': 11.61, 'state': 'normal', 'rot1': 0, 'rot0': 0, 'rot3': 88, 'rot2': 111, 'depth': 1.233, 'yaw': 55.52, 'datetime': '2018-11-26 12:50:47.720543', 'mgs': 0, 'flw2': 0.0, 'flw1': 0.0, 'flw0': 0.0, 'time': 40.1, 'compass': 142.11, 'pitch': 1.1, 'roll': -7.13}
{'lipoC2': 7.39, 'temp': 29.94, 'lipoC3S3': 11.5, 'state': 'normal', 'rot1': 0, 'rot0': 0, 'rot3': 88, 'rot2': 111, 'depth': 1.843, 'yaw': 55.41, 'datetime': '2018-11-26 12:50:47.932606', 'mgs': 0, 'flw2': 0.0, 'flw1': 13.04, 'flw0': 0.0, 'time': 40.31, 'compass': 142.01, 'pitch': 1.05, 'roll': -8.23}
{'lipoC2': 7.39, 'temp': 29.94, 'lipoC3S3': 11.58, 'state': 'normal', 'rot1': 0, 'rot0': 0, 'rot3': 89, 'rot2': 112, 'depth': 1.843, 'yaw': 55.24, 'datetime': '2018-11-26 12:50:48.141847', 'mgs': 0, 'flw2': 0.0, 'flw1': 8.38, 'flw0': 0.0, 'time': 40.51, 'compass': 141.84, 'pitch': 0.05, 'roll': -9.41}
{'lipoC2': 7.39, 'temp': 29.94, 'lipoC3S3': 11.54, 'state': 'normal', 'rot1': 0, 'rot0': 0, 'rot3': 90, 'rot2': 114, 'depth': 1.92, 'yaw': 54.79, 'datetime': '2018-11-26 12:50:48.349569', 'mgs': 0, 'flw2': 0.0, 'flw1': 8.64, 'flw0': 0.0, 'time': 40.72, 'compass': 141.38, 'pitch': -2.41, 'roll': -7.37}
{'lipoC2': 7.39, 'temp': 29.94, 'lipoC3S3': 11.55, 'state': 'normal', 'rot1': 0, 'rot0': 0, 'rot3': 92, 'rot2': 115, 'depth': 1.843, 'yaw': 54.27, 'datetime': '2018-11-26 12:50:48.560092', 'mgs': 0, 'flw2': 0.0, 'flw1': 8.41, 'flw0': 0.0, 'time': 40.93, 'compass': 140.86, 'pitch': -4.99, 'roll': -3.55}
{'lipoC2': 7.39, 'temp': 29.94, 'lipoC3S3': 11.58, 'state': 'normal', 'rot1': 0, 'rot0': 0, 'rot3': 93, 'rot2': 117, 'depth': 1.767, 'yaw': 53.79, 'datetime': '2018-11-26 12:50:48.768259', 'mgs': 0, 'flw2': 0.0, 'flw1': 6.12, 'flw0': 0.0, 'time': 41.14, 'compass': 140.39, 'pitch': -6.39, 'roll': -0.33}
{'lipoC2': 7.39, 'temp': 29.94, 'lipoC3S3': 11.58, 'state': 'normal', 'rot1': 0, 'rot0': 0, 'rot3': 94, 'rot2': 118, 'depth': 1.843, 'yaw': 53.92, 'datetime': '2018-11-26 12:50:48.979502', 'mgs': 0, 'flw2': 0.0, 'flw1': 6.18, 'flw0': 0.0, 'time': 41.35, 'compass': 140.52, 'pitch': -6.03, 'roll': 1.52}
{'lipoC2': 7.39, 'temp': 29.94, 'lipoC3S3': 11.56, 'state': 'normal', 'rot1': 0, 'rot0': 0, 'rot3': 97, 'rot2': 120, 'depth': 1.843, 'yaw': 54.66, 'datetime': '2018-11-26 12:50:49.191057', 'mgs': 0, 'flw2': 0.0, 'flw1': 6.3, 'flw0': 0.0, 'time': 41.56, 'compass': 141.26, 'pitch': -4.89, 'roll': 2.05}
{'lipoC2': 7.39, 'temp': 29.94, 'lipoC3S3': 11.59, 'state': 'normal', 'rot1': 0, 'rot0': 0, 'rot3': 98, 'rot2': 122, 'depth': 1.843, 'yaw': 55.89, 'datetime': '2018-11-26 12:50:49.396622', 'mgs': 0, 'flw2': 0.0, 'flw1': 6.27, 'flw0': 0.0, 'time': 41.77, 'compass': 142.49, 'pitch': -3.88, 'roll': 1.6}
{'lipoC2': 7.39, 'temp': 29.94, 'lipoC3S3': 11.59, 'state': 'normal', 'rot1': 0, 'rot0': 0, 'rot3': 100, 'rot2': 123, 'depth': 1.614, 'yaw': 57.22, 'datetime': '2018-11-26 12:50:49.606389', 'mgs': 0, 'flw2': 0.0, 'flw1': 5.45, 'flw0': 0.0, 'time': 41.98, 'compass': 143.82, 'pitch': -3.64, 'roll': 0.56}
{'lipoC2': 7.39, 'temp': 29.94, 'lipoC3S3': 11.59, 'state': 'normal', 'rot1': 0, 'rot0': 0, 'rot3': 101, 'rot2': 125, 'depth': 1.691, 'yaw': 58.48, 'datetime': '2018-11-26 12:50:49.815035', 'mgs': 0, 'flw2': 0.0, 'flw1': 5.21, 'flw0': 0.0, 'time': 42.19, 'compass': 145.08, 'pitch': -4.23, 'roll': -0.98}
{'lipoC2': 7.39, 'temp': 29.94, 'lipoC3S3': 11.59, 'state': 'normal', 'rot1': 0, 'rot0': 0, 'rot3': 102, 'rot2': 126, 'depth': 1.538, 'yaw': 59.67, 'datetime': '2018-11-26 12:50:50.024552', 'mgs': 0, 'flw2': 0.0, 'flw1': 5.33, 'flw0': 0.0, 'time': 42.4, 'compass': 146.27, 'pitch': -4.72, 'roll': -2.55}
{'lipoC2': 7.39, 'temp': 29.94, 'lipoC3S3': 11.58, 'state': 'normal', 'rot1': 0, 'rot0': 0, 'rot3': 104, 'rot2': 128, 'depth': 1.462, 'yaw': 60.71, 'datetime': '2018-11-26 12:50:50.233442', 'mgs': 0, 'flw2': 0.0, 'flw1': 4.83, 'flw0': 0.0, 'time': 42.61, 'compass': 147.3, 'pitch': -4.69, 'roll': -3.62}
{'lipoC2': 7.39, 'temp': 29.94, 'lipoC3S3': 11.56, 'state': 'normal', 'rot1': 0, 'rot0': 0, 'rot3': 105, 'rot2': 130, 'depth': 1.385, 'yaw': 61.46, 'datetime': '2018-11-26 12:50:50.443968', 'mgs': 0, 'flw2': 0.0, 'flw1': 4.98, 'flw0': 0.0, 'time': 42.82, 'compass': 148.06, 'pitch': -4.22, 'roll': -4.06}
