{'lipoC2': 7.37, 'temp': 0.0, 'lipoC3S3': 11.35, 'state': 'normal', 'rot1': 0, 'rot0': 0, 'rot3': 0, 'rot2': 0, 'depth': 1.309, 'yaw': 0.0, 'datetime': '2018-12-12 14:23:22.278843', 'mgs': 0, 'flw2': 0.0, 'flw1': 0.59, 'flw0': 0.0, 'time': 1.26, 'compass': -16.8, 'pitch': -1.93, 'roll': 0.42}
{'lipoC2': 7.35, 'temp': 0.0, 'lipoC3S3': 11.61, 'state': 'normal', 'rot1': 0, 'rot0': 0, 'rot3': 0, 'rot2': 0, 'depth': 0.775, 'yaw': 0.51, 'datetime': '2018-12-12 14:23:22.486866', 'mgs': 0, 'flw2': 0.12, 'flw1': 0.0, 'flw0': 0.0, 'time': 1.46, 'compass': -16.29, 'pitch': -2.47, 'roll': 0.86}
{'lipoC2': 7.3, 'temp': 0.0, 'lipoC3S3': 11.38, 'state': 'normal', 'rot1': 0, 'rot0': 0, 'rot3': 0, 'rot2': 0, 'depth': 1.691, 'yaw': 0.98, 'datetime': '2018-12-12 14:23:22.695064', 'mgs': 0, 'flw2': 0.0, 'flw1': 0.38, 'flw0': 0.0, 'time': 1.67, 'compass': -15.82, 'pitch': -2.47, 'roll': 1.18}
{'lipoC2': 7.32, 'temp': 0.0, 'lipoC3S3': 11.58, 'state': 'normal', 'rot1': 0, 'rot0': 0, 'rot3': 0, 'rot2': 0, 'depth': -0.293, 'yaw': 1.46, 'datetime': '2018-12-12 14:23:22.901808', 'mgs': 0, 'flw2': 0.0, 'flw1': 0.0, 'flw0': 0.0, 'time': 1.88, 'compass': -15.34, 'pitch': -1.86, 'roll': 1.21}
{'lipoC2': 7.49, 'temp': 0.0, 'lipoC3S3': 11.3, 'state': 'normal', 'rot1': 0, 'rot0': 0, 'rot3': 0, 'rot2': 0, 'depth': 0.928, 'yaw': 1.93, 'datetime': '2018-12-12 14:23:23.112246', 'mgs': 0, 'flw2': 0.0, 'flw1': 0.0, 'flw0': 0.0, 'time': 2.09, 'compass': -14.86, 'pitch': -1.59, 'roll': 1.08}
{'lipoC2': 7.35, 'temp': 0.0, 'lipoC3S3': 11.65, 'state': 'normal', 'rot1': 0, 'rot0': 0, 'rot3': 0, 'rot2': 0, 'depth': -0.446, 'yaw': 2.42, 'datetime': '2018-12-12 14:23:23.327267', 'mgs': 0, 'flw2': 0.2, 'flw1': 0.0, 'flw0': 0.0, 'time': 2.29, 'compass': -14.37, 'pitch': -2.27, 'roll': 0.86}
{'lipoC2': 7.27, 'temp': 0.0, 'lipoC3S3': 11.43, 'state': 'normal', 'rot1': 0, 'rot0': 0, 'rot3': 0, 'rot2': 0, 'depth': -1.514, 'yaw': 3.13, 'datetime': '2018-12-12 14:23:23.629441', 'mgs': 0, 'flw2': 0.0, 'flw1': 0.0, 'flw0': 0.0, 'time': 2.61, 'compass': -13.67, 'pitch': -2.94, 'roll': 0.7}
{'lipoC2': 7.32, 'temp': 0.0, 'lipoC3S3': 11.47, 'state': 'normal', 'rot1': 0, 'rot0': 0, 'rot3': 0, 'rot2': 0, 'depth': 1.462, 'yaw': 3.62, 'datetime': '2018-12-12 14:23:23.837776', 'mgs': 0, 'flw2': 0.21, 'flw1': 0.0, 'flw0': 0.24, 'time': 2.81, 'compass': -13.18, 'pitch': -2.0, 'roll': 0.66}
{'lipoC2': 7.32, 'temp': 0.0, 'lipoC3S3': 11.65, 'state': 'normal', 'rot1': 0, 'rot0': 0, 'rot3': 0, 'rot2': 0, 'depth': 1.691, 'yaw': 4.14, 'datetime': '2018-12-12 14:23:24.045935', 'mgs': 0, 'flw2': 0.02, 'flw1': 0.0, 'flw0': 0.04, 'time': 3.02, 'compass': -12.66, 'pitch': -1.37, 'roll': 0.73}
{'lipoC2': 7.3, 'temp': 0.0, 'lipoC3S3': 11.34, 'state': 'normal', 'rot1': 0, 'rot0': 0, 'rot3': 0, 'rot2': 0, 'depth': -0.598, 'yaw': 4.6, 'datetime': '2018-12-12 14:23:24.253884', 'mgs': 0, 'flw2': 0.0, 'flw1': 0.44, 'flw0': 0.0, 'time': 3.23, 'compass': -12.2, 'pitch': -2.0, 'roll': 0.88}
{'lipoC2': 7.38, 'temp': 0.0, 'lipoC3S3': 11.35, 'state': 'normal', 'rot1': 0, 'rot0': 0, 'rot3': 0, 'rot2': 0, 'depth': 0.394, 'yaw': 5.07, 'datetime': '2018-12-12 14:23:24.460973', 'mgs': 0, 'flw2': 0.0, 'flw1': 0.59, 'flw0': 0.0, 'time': 3.44, 'compass': -11.73, 'pitch': -3.23, 'roll': 0.99}
{'lipoC2': 7.34, 'temp': 0.0, 'lipoC3S3': 11.65, 'state': 'normal', 'rot1': 0, 'rot0': 0, 'rot3': 0, 'rot2': 0, 'depth': -0.217, 'yaw': 5.58, 'datetime': '2018-12-12 14:23:24.669405', 'mgs': 0, 'flw2': 0.0, 'flw1': 0.0, 'flw0': 0.05, 'time': 3.64, 'compass': -11.22, 'pitch': -3.41, 'roll': 0.92}
{'lipoC2': 7.26, 'temp': 0.0, 'lipoC3S3': 11.52, 'state': 'normal', 'rot1': 0, 'rot0': 0, 'rot3': 0, 'rot2': 0, 'depth': -0.674, 'yaw': 6.04, 'datetime': '2018-12-12 14:23:24.876381', 'mgs': 0, 'flw2': 0.0, 'flw1': 0.0, 'flw0': 0.0, 'time': 3.85, 'compass': -10.76, 'pitch': -2.27, 'roll': 0.7}
{'lipoC2': 7.48, 'temp': 0.0, 'lipoC3S3': 11.3, 'state': 'normal', 'rot1': 0, 'rot0': 0, 'rot3': 0, 'rot2': 0, 'depth': -1.514, 'yaw': 6.52, 'datetime': '2018-12-12 14:23:25.085019', 'mgs': 0, 'flw2': 0.01, 'flw1': 0.0, 'flw0': 0.05, 'time': 4.06, 'compass': -10.28, 'pitch': -1.46, 'roll': 0.59}
{'lipoC2': 7.44, 'temp': 0.0, 'lipoC3S3': 11.3, 'state': 'normal', 'rot1': 0, 'rot0': 0, 'rot3': 0, 'rot2': 0, 'depth': 0.165, 'yaw': 7.04, 'datetime': '2018-12-12 14:23:25.294095', 'mgs': 0, 'flw2': 0.0, 'flw1': 0.7, 'flw0': 0.17, 'time': 4.27, 'compass': -9.75, 'pitch': -2.17, 'roll': 0.64}
{'lipoC2': 7.4, 'temp': 0.0, 'lipoC3S3': 11.27, 'state': 'normal', 'rot1': 0, 'rot0': 0, 'rot3': 0, 'rot2': 0, 'depth': -0.751, 'yaw': 7.51, 'datetime': '2018-12-12 14:23:25.502280', 'mgs': 0, 'flw2': 0.0, 'flw1': 0.62, 'flw0': 0.0, 'time': 4.47, 'compass': -9.29, 'pitch': -3.14, 'roll': 0.95}
{'lipoC2': 7.4, 'temp': 0.0, 'lipoC3S3': 11.35, 'state': 'normal', 'rot1': 0, 'rot0': 0, 'rot3': 0, 'rot2': 0, 'depth': -0.598, 'yaw': 8.0, 'datetime': '2018-12-12 14:23:25.710634', 'mgs': 0, 'flw2': 0.09, 'flw1': 0.0, 'flw0': 0.0, 'time': 4.68, 'compass': -8.8, 'pitch': -2.93, 'roll': 1.37}
{'lipoC2': 7.52, 'temp': 0.0, 'lipoC3S3': 11.27, 'state': 'normal', 'rot1': 0, 'rot0': 0, 'rot3': 0, 'rot2': 0, 'depth': 0.928, 'yaw': 8.51, 'datetime': '2018-12-12 14:23:25.917742', 'mgs': 0, 'flw2': 0.0, 'flw1': 0.0, 'flw0': 0.0, 'time': 4.89, 'compass': -8.29, 'pitch': -1.99, 'roll': 1.3}
{'lipoC2': 7.47, 'temp': 0.0, 'lipoC3S3': 11.21, 'state': 'normal', 'rot1': 0, 'rot0': 0, 'rot3': 0, 'rot2': 0, 'depth': 0.394, 'yaw': 9.0, 'datetime': '2018-12-12 14:23:26.125693', 'mgs': 0, 'flw2': 0.0, 'flw1': 0.0, 'flw0': 0.0, 'time': 5.1, 'compass': -7.8, 'pitch': -1.6, 'roll': 0.8}
{'lipoC2': 7.32, 'temp': 0.0, 'lipoC3S3': 11.47, 'state': 'normal', 'rot1': 0, 'rot0': 0, 'rot3': 0, 'rot2': 0, 'depth': 1.462, 'yaw': 9.47, 'datetime': '2018-12-12 14:23:26.332837', 'mgs': 0, 'flw2': 0.22, 'flw1': 0.0, 'flw0': 0.27, 'time': 5.3, 'compass': -7.33, 'pitch': -2.18, 'roll': 0.35}
{'lipoC2': 7.34, 'temp': 0.0, 'lipoC3S3': 11.34, 'state': 'normal', 'rot1': 0, 'rot0': 0, 'rot3': 0, 'rot2': 0, 'depth': -0.293, 'yaw': 9.95, 'datetime': '2018-12-12 14:23:26.541109', 'mgs': 0, 'flw2': 0.7, 'flw1': 0.44, 'flw0': 0.0, 'time': 5.51, 'compass': -6.85, 'pitch': -2.8, 'roll': 0.44}
{'lipoC2': 7.32, 'temp': 0.0, 'lipoC3S3': 11.43, 'state': 'normal', 'rot1': 0, 'rot0': 1, 'rot3': 0, 'rot2': 0, 'depth': 0.317, 'yaw': 11.12, 'datetime': '2018-12-12 14:23:26.752513', 'mgs': 0, 'flw2': 1.21, 'flw1': 0.0, 'flw0': 0.26, 'time': 5.72, 'compass': -5.68, 'pitch': -2.3, 'roll': 0.99}
{'lipoC2': 7.27, 'temp': 0.0, 'lipoC3S3': 11.35, 'state': 'normal', 'rot1': 0, 'rot0': 3, 'rot3': 0, 'rot2': 0, 'depth': -0.674, 'yaw': 13.5, 'datetime': '2018-12-12 14:23:26.959051', 'mgs': 0, 'flw2': 1.12, 'flw1': 0.35, 'flw0': 0.0, 'time': 5.93, 'compass': -3.3, 'pitch': -1.06, 'roll': 1.38}
{'lipoC2': 7.4, 'temp': 0.0, 'lipoC3S3': 11.34, 'state': 'normal', 'rot1': 0, 'rot0': 4, 'rot3': 0, 'rot2': 0, 'depth': 0.241, 'yaw': 17.34, 'datetime': '2018-12-12 14:23:27.169048', 'mgs': 0, 'flw2': 1.84, 'flw1': 0.0, 'flw0': 0.0, 'time': 6.14, 'compass': 0.54, 'pitch': -0.63, 'roll': 1.69}
{'lipoC2': 7.52, 'temp': 0.0, 'lipoC3S3': 11.25, 'state': 'normal', 'rot1': 0, 'rot0': 6, 'rot3': 0, 'rot2': 0, 'depth': -0.446, 'yaw': 22.36, 'datetime': '2018-12-12 14:23:27.374149', 'mgs': 0, 'flw2': 1.57, 'flw1': 0.0, 'flw0': 0.0, 'time': 6.34, 'compass': 5.56, 'pitch': -0.86, 'roll': 1.87}
{'lipoC2': 7.4, 'temp': 0.0, 'lipoC3S3': 11.23, 'state': 'normal', 'rot1': 0, 'rot0': 8, 'rot3': 0, 'rot2': 0, 'depth': -0.14, 'yaw': 28.77, 'datetime': '2018-12-12 14:23:27.581316', 'mgs': 0, 'flw2': 2.25, 'flw1': 0.0, 'flw0': 0.34, 'time': 6.55, 'compass': 11.97, 'pitch': -0.92, 'roll': 1.9}
{'lipoC2': 7.33, 'temp': 0.0, 'lipoC3S3': 11.64, 'state': 'normal', 'rot1': 0, 'rot0': 11, 'rot3': 0, 'rot2': 0, 'depth': 1.538, 'yaw': 36.33, 'datetime': '2018-12-12 14:23:27.790119', 'mgs': 0, 'flw2': 2.23, 'flw1': 0.0, 'flw0': 0.09, 'time': 6.76, 'compass': 19.54, 'pitch': -0.36, 'roll': 1.94}
{'lipoC2': 7.32, 'temp': 0.0, 'lipoC3S3': 11.26, 'state': 'normal', 'rot1': 0, 'rot0': 13, 'rot3': 0, 'rot2': 0, 'depth': -0.446, 'yaw': 44.55, 'datetime': '2018-12-12 14:23:27.997696', 'mgs': 0, 'flw2': 1.98, 'flw1': 0.38, 'flw0': 0.52, 'time': 6.97, 'compass': 27.75, 'pitch': 0.12, 'roll': 2.2}
{'lipoC2': 7.32, 'temp': 0.0, 'lipoC3S3': 11.52, 'state': 'normal', 'rot1': 2, 'rot0': 15, 'rot3': 0, 'rot2': 0, 'depth': -0.369, 'yaw': 53.05, 'datetime': '2018-12-12 14:23:28.206239', 'mgs': 0, 'flw2': 2.16, 'flw1': 0.5, 'flw0': 1.94, 'time': 7.17, 'compass': 36.25, 'pitch': 0.41, 'roll': 2.52}
{'lipoC2': 7.32, 'temp': 0.0, 'lipoC3S3': 11.35, 'state': 'normal', 'rot1': 4, 'rot0': 18, 'rot3': 0, 'rot2': 0, 'depth': 1.462, 'yaw': 59.58, 'datetime': '2018-12-12 14:23:28.415059', 'mgs': 0, 'flw2': 2.03, 'flw1': 0.0, 'flw0': 1.92, 'time': 7.38, 'compass': 42.79, 'pitch': 1.15, 'roll': 2.55}
{'lipoC2': 7.54, 'temp': 0.0, 'lipoC3S3': 11.3, 'state': 'normal', 'rot1': 6, 'rot0': 20, 'rot3': 0, 'rot2': 0, 'depth': 1.843, 'yaw': 64.43, 'datetime': '2018-12-12 14:23:28.633623', 'mgs': 0, 'flw2': 1.84, 'flw1': 0.0, 'flw0': 1.92, 'time': 7.59, 'compass': 47.63, 'pitch': 1.64, 'roll': 2.21}
{'lipoC2': 7.41, 'temp': 0.0, 'lipoC3S3': 11.19, 'state': 'normal', 'rot1': 9, 'rot0': 23, 'rot3': 0, 'rot2': 0, 'depth': -0.674, 'yaw': 69.13, 'datetime': '2018-12-12 14:23:28.936781', 'mgs': 0, 'flw2': 1.7, 'flw1': 0.0, 'flw0': 2.03, 'time': 7.9, 'compass': 52.33, 'pitch': 1.47, 'roll': 1.86}
{'lipoC2': 7.3, 'temp': 0.0, 'lipoC3S3': 11.3, 'state': 'normal', 'rot1': 11, 'rot0': 24, 'rot3': 0, 'rot2': 0, 'depth': -0.064, 'yaw': 71.06, 'datetime': '2018-12-12 14:23:29.146067', 'mgs': 0, 'flw2': 1.61, 'flw1': 0.44, 'flw0': 1.92, 'time': 8.11, 'compass': 54.26, 'pitch': 1.53, 'roll': 1.79}
{'lipoC2': 7.49, 'temp': 0.0, 'lipoC3S3': 11.35, 'state': 'normal', 'rot1': 13, 'rot0': 26, 'rot3': 0, 'rot2': 0, 'depth': 1.462, 'yaw': 72.49, 'datetime': '2018-12-12 14:23:29.353944', 'mgs': 0, 'flw2': 1.53, 'flw1': 0.0, 'flw0': 1.99, 'time': 8.32, 'compass': 55.69, 'pitch': 1.42, 'roll': 1.69}
{'lipoC2': 7.52, 'temp': 0.0, 'lipoC3S3': 11.35, 'state': 'normal', 'rot1': 15, 'rot0': 28, 'rot3': 0, 'rot2': 0, 'depth': -0.751, 'yaw': 73.54, 'datetime': '2018-12-12 14:23:29.563136', 'mgs': 0, 'flw2': 1.5, 'flw1': 0.0, 'flw0': 1.94, 'time': 8.53, 'compass': 56.74, 'pitch': 0.79, 'roll': 1.56}
{'lipoC2': 7.53, 'temp': 0.0, 'lipoC3S3': 11.23, 'state': 'normal', 'rot1': 17, 'rot0': 30, 'rot3': 0, 'rot2': 0, 'depth': 1.233, 'yaw': 74.31, 'datetime': '2018-12-12 14:23:29.772013', 'mgs': 0, 'flw2': 1.99, 'flw1': 0.0, 'flw0': 1.64, 'time': 8.74, 'compass': 57.51, 'pitch': 0.15, 'roll': 1.37}
{'lipoC2': 7.3, 'temp': 0.0, 'lipoC3S3': 11.17, 'state': 'normal', 'rot1': 19, 'rot0': 32, 'rot3': 0, 'rot2': 0, 'depth': 0.775, 'yaw': 75.25, 'datetime': '2018-12-12 14:23:29.982191', 'mgs': 0, 'flw2': 2.33, 'flw1': 0.0, 'flw0': 1.84, 'time': 8.95, 'compass': 58.45, 'pitch': -0.0, 'roll': 1.28}
{'lipoC2': 7.54, 'temp': 0.0, 'lipoC3S3': 11.19, 'state': 'normal', 'rot1': 21, 'rot0': 34, 'rot3': 0, 'rot2': 0, 'depth': -1.132, 'yaw': 76.73, 'datetime': '2018-12-12 14:23:30.191228', 'mgs': 0, 'flw2': 2.16, 'flw1': 0.0, 'flw0': 1.4, 'time': 9.15, 'compass': 59.93, 'pitch': 0.31, 'roll': 1.36}
{'lipoC2': 7.25, 'temp': 0.0, 'lipoC3S3': 11.39, 'state': 'normal', 'rot1': 23, 'rot0': 37, 'rot3': 0, 'rot2': 0, 'depth': -0.674, 'yaw': 78.5, 'datetime': '2018-12-12 14:23:30.399313', 'mgs': 0, 'flw2': 3.09, 'flw1': 0.73, 'flw0': 1.44, 'time': 9.36, 'compass': 61.7, 'pitch': 0.51, 'roll': 1.54}
{'lipoC2': 7.37, 'temp': 0.0, 'lipoC3S3': 11.21, 'state': 'normal', 'rot1': 25, 'rot0': 39, 'rot3': 0, 'rot2': 0, 'depth': 0.775, 'yaw': 80.78, 'datetime': '2018-12-12 14:23:30.608854', 'mgs': 0, 'flw2': 3.33, 'flw1': 0.0, 'flw0': 1.75, 'time': 9.57, 'compass': 63.98, 'pitch': 0.63, 'roll': 1.96}
{'lipoC2': 7.44, 'temp': 0.0, 'lipoC3S3': 11.17, 'state': 'normal', 'rot1': 27, 'rot0': 41, 'rot3': 0, 'rot2': 0, 'depth': 0.394, 'yaw': 83.56, 'datetime': '2018-12-12 14:23:30.816942', 'mgs': 0, 'flw2': 3.49, 'flw1': 0.0, 'flw0': 1.67, 'time': 9.78, 'compass': 66.76, 'pitch': 0.76, 'roll': 2.19}
{'lipoC2': 7.29, 'temp': 0.0, 'lipoC3S3': 11.27, 'state': 'normal', 'rot1': 29, 'rot0': 44, 'rot3': 0, 'rot2': 0, 'depth': 0.394, 'yaw': 86.72, 'datetime': '2018-12-12 14:23:31.029302', 'mgs': 0, 'flw2': 3.31, 'flw1': 0.32, 'flw0': 1.54, 'time': 9.99, 'compass': 69.92, 'pitch': 1.08, 'roll': 2.11}
{'lipoC2': 7.41, 'temp': 0.0, 'lipoC3S3': 11.15, 'state': 'normal', 'rot1': 31, 'rot0': 46, 'rot3': 0, 'rot2': 0, 'depth': -0.064, 'yaw': 90.41, 'datetime': '2018-12-12 14:23:31.234835', 'mgs': 0, 'flw2': 3.53, 'flw1': 0.0, 'flw0': 1.86, 'time': 10.2, 'compass': 73.61, 'pitch': 1.41, 'roll': 2.16}
{'lipoC2': 7.34, 'temp': 0.0, 'lipoC3S3': 11.59, 'state': 'normal', 'rot1': 33, 'rot0': 50, 'rot3': 0, 'rot2': 0, 'depth': 2.377, 'yaw': 94.53, 'datetime': '2018-12-12 14:23:31.445193', 'mgs': 0, 'flw2': 3.64, 'flw1': 0.0, 'flw0': 1.55, 'time': 10.41, 'compass': 77.73, 'pitch': 1.57, 'roll': 2.42}
{'lipoC2': 7.35, 'temp': 0.0, 'lipoC3S3': 11.55, 'state': 'normal', 'rot1': 35, 'rot0': 52, 'rot3': 0, 'rot2': 0, 'depth': -0.369, 'yaw': 98.69, 'datetime': '2018-12-12 14:23:31.653722', 'mgs': 0, 'flw2': 3.53, 'flw1': 0.35, 'flw0': 1.53, 'time': 10.62, 'compass': 81.89, 'pitch': 1.33, 'roll': 2.73}
{'lipoC2': 7.36, 'temp': 0.0, 'lipoC3S3': 11.14, 'state': 'normal', 'rot1': 37, 'rot0': 55, 'rot3': 0, 'rot2': 0, 'depth': -1.208, 'yaw': 103.09, 'datetime': '2018-12-12 14:23:31.860846', 'mgs': 0, 'flw2': 3.25, 'flw1': 0.0, 'flw0': 2.31, 'time': 10.82, 'compass': 86.29, 'pitch': 0.89, 'roll': 3.0}
{'lipoC2': 7.54, 'temp': 0.0, 'lipoC3S3': 11.11, 'state': 'normal', 'rot1': 40, 'rot0': 57, 'rot3': 0, 'rot2': 0, 'depth': -0.98, 'yaw': 107.14, 'datetime': '2018-12-12 14:23:32.069030', 'mgs': 0, 'flw2': 3.67, 'flw1': 0.0, 'flw0': 2.62, 'time': 11.03, 'compass': 90.34, 'pitch': 1.18, 'roll': 2.98}
{'lipoC2': 7.3, 'temp': 0.0, 'lipoC3S3': 11.47, 'state': 'normal', 'rot1': 43, 'rot0': 61, 'rot3': 0, 'rot2': 0, 'depth': 1.996, 'yaw': 110.88, 'datetime': '2018-12-12 14:23:32.278601', 'mgs': 0, 'flw2': 3.39, 'flw1': 0.0, 'flw0': 2.42, 'time': 11.24, 'compass': 94.08, 'pitch': 1.9, 'roll': 2.96}
{'lipoC2': 7.4, 'temp': 0.0, 'lipoC3S3': 11.29, 'state': 'normal', 'rot1': 46, 'rot0': 64, 'rot3': 0, 'rot2': 0, 'depth': -0.522, 'yaw': 114.3, 'datetime': '2018-12-12 14:23:32.491261', 'mgs': 0, 'flw2': 3.44, 'flw1': 0.03, 'flw0': 2.37, 'time': 11.45, 'compass': 97.5, 'pitch': 2.13, 'roll': 3.12}
{'lipoC2': 7.29, 'temp': 0.0, 'lipoC3S3': 11.5, 'state': 'normal', 'rot1': 49, 'rot0': 66, 'rot3': 0, 'rot2': 0, 'depth': 1.691, 'yaw': 117.18, 'datetime': '2018-12-12 14:23:32.699088', 'mgs': 0, 'flw2': 3.75, 'flw1': 0.0, 'flw0': 2.64, 'time': 11.66, 'compass': 100.38, 'pitch': 2.04, 'roll': 3.53}
{'lipoC2': 7.32, 'temp': 0.0, 'lipoC3S3': 11.39, 'state': 'normal', 'rot1': 52, 'rot0': 69, 'rot3': 0, 'rot2': 0, 'depth': -0.598, 'yaw': 119.8, 'datetime': '2018-12-12 14:23:32.908505', 'mgs': 0, 'flw2': 3.38, 'flw1': 0.94, 'flw0': 3.31, 'time': 11.87, 'compass': 103.01, 'pitch': 2.22, 'roll': 3.57}
{'lipoC2': 7.28, 'temp': 0.0, 'lipoC3S3': 11.3, 'state': 'normal', 'rot1': 55, 'rot0': 72, 'rot3': 0, 'rot2': 0, 'depth': 1.538, 'yaw': 122.02, 'datetime': '2018-12-12 14:23:33.116607', 'mgs': 0, 'flw2': 3.49, 'flw1': 0.0, 'flw0': 3.5, 'time': 12.08, 'compass': 105.22, 'pitch': 2.65, 'roll': 3.26}
{'lipoC2': 7.33, 'temp': 0.0, 'lipoC3S3': 11.55, 'state': 'normal', 'rot1': 58, 'rot0': 74, 'rot3': 0, 'rot2': 0, 'depth': 1.538, 'yaw': 123.52, 'datetime': '2018-12-12 14:23:33.326352', 'mgs': 0, 'flw2': 3.67, 'flw1': 0.0, 'flw0': 4.49, 'time': 12.29, 'compass': 106.72, 'pitch': 2.93, 'roll': 3.0}
{'lipoC2': 7.43, 'temp': 0.0, 'lipoC3S3': 11.18, 'state': 'normal', 'rot1': 61, 'rot0': 77, 'rot3': 0, 'rot2': 0, 'depth': -0.674, 'yaw': 124.32, 'datetime': '2018-12-12 14:23:33.535260', 'mgs': 0, 'flw2': 3.6, 'flw1': 0.32, 'flw0': 4.43, 'time': 12.49, 'compass': 107.52, 'pitch': 2.93, 'roll': 2.95}
{'lipoC2': 7.33, 'temp': 0.0, 'lipoC3S3': 11.27, 'state': 'normal', 'rot1': 64, 'rot0': 80, 'rot3': 0, 'rot2': 0, 'depth': 1.08, 'yaw': 124.86, 'datetime': '2018-12-12 14:23:33.745708', 'mgs': 0, 'flw2': 3.6, 'flw1': 0.0, 'flw0': 5.86, 'time': 12.7, 'compass': 108.06, 'pitch': 2.87, 'roll': 3.08}
{'lipoC2': 7.33, 'temp': 0.0, 'lipoC3S3': 11.55, 'state': 'normal', 'rot1': 67, 'rot0': 83, 'rot3': 0, 'rot2': 0, 'depth': 1.538, 'yaw': 124.75, 'datetime': '2018-12-12 14:23:33.955594', 'mgs': 0, 'flw2': 3.31, 'flw1': 0.0, 'flw0': 5.79, 'time': 12.91, 'compass': 107.96, 'pitch': 2.94, 'roll': 2.97}
{'lipoC2': 7.34, 'temp': 0.0, 'lipoC3S3': 11.23, 'state': 'normal', 'rot1': 70, 'rot0': 85, 'rot3': 0, 'rot2': 0, 'depth': 2.148, 'yaw': 123.84, 'datetime': '2018-12-12 14:23:34.163679', 'mgs': 0, 'flw2': 3.76, 'flw1': 0.0, 'flw0': 5.79, 'time': 13.12, 'compass': 107.04, 'pitch': 2.79, 'roll': 2.58}
{'lipoC2': 7.32, 'temp': 0.0, 'lipoC3S3': 11.46, 'state': 'normal', 'rot1': 73, 'rot0': 88, 'rot3': 0, 'rot2': 0, 'depth': 0.928, 'yaw': 122.54, 'datetime': '2018-12-12 14:23:34.372616', 'mgs': 0, 'flw2': 3.66, 'flw1': 0.0, 'flw0': 5.49, 'time': 13.33, 'compass': 105.74, 'pitch': 2.64, 'roll': 2.07}
{'lipoC2': 7.33, 'temp': 0.0, 'lipoC3S3': 11.52, 'state': 'normal', 'rot1': 77, 'rot0': 90, 'rot3': 0, 'rot2': 0, 'depth': 0.47, 'yaw': 121.22, 'datetime': '2018-12-12 14:23:34.580641', 'mgs': 0, 'flw2': 3.53, 'flw1': 0.0, 'flw0': 5.69, 'time': 13.54, 'compass': 104.42, 'pitch': 2.75, 'roll': 1.49}
{'lipoC2': 7.34, 'temp': 0.0, 'lipoC3S3': 11.38, 'state': 'normal', 'rot1': 80, 'rot0': 93, 'rot3': 0, 'rot2': 0, 'depth': 0.317, 'yaw': 119.98, 'datetime': '2018-12-12 14:23:34.790069', 'mgs': 0, 'flw2': 3.44, 'flw1': 0.44, 'flw0': 5.48, 'time': 13.75, 'compass': 103.18, 'pitch': 2.92, 'roll': 1.11}
{'lipoC2': 7.49, 'temp': 0.0, 'lipoC3S3': 11.25, 'state': 'normal', 'rot1': 83, 'rot0': 95, 'rot3': 0, 'rot2': 0, 'depth': 1.92, 'yaw': 118.91, 'datetime': '2018-12-12 14:23:34.998517', 'mgs': 0, 'flw2': 3.33, 'flw1': 0.0, 'flw0': 5.25, 'time': 13.96, 'compass': 102.11, 'pitch': 3.15, 'roll': 0.88}
{'lipoC2': 7.33, 'temp': 0.0, 'lipoC3S3': 11.26, 'state': 'normal', 'rot1': 86, 'rot0': 98, 'rot3': 0, 'rot2': 0, 'depth': 1.157, 'yaw': 117.63, 'datetime': '2018-12-12 14:23:35.208740', 'mgs': 0, 'flw2': 3.58, 'flw1': 0.0, 'flw0': 5.83, 'time': 14.17, 'compass': 100.83, 'pitch': 3.36, 'roll': 0.52}
{'lipoC2': 7.28, 'temp': 0.0, 'lipoC3S3': 11.13, 'state': 'normal', 'rot1': 89, 'rot0': 100, 'rot3': 0, 'rot2': 0, 'depth': 0.165, 'yaw': 116.43, 'datetime': '2018-12-12 14:23:35.417801', 'mgs': 0, 'flw2': 3.52, 'flw1': 0.0, 'flw0': 5.65, 'time': 14.38, 'compass': 99.63, 'pitch': 3.59, 'roll': 0.11}
{'lipoC2': 7.32, 'temp': 0.0, 'lipoC3S3': 11.27, 'state': 'normal', 'rot1': 92, 'rot0': 103, 'rot3': 0, 'rot2': 0, 'depth': 1.996, 'yaw': 115.25, 'datetime': '2018-12-12 14:23:35.627143', 'mgs': 0, 'flw2': 3.52, 'flw1': 0.0, 'flw0': 5.59, 'time': 14.58, 'compass': 98.46, 'pitch': 3.89, 'roll': -0.12}
{'lipoC2': 7.5, 'temp': 0.0, 'lipoC3S3': 11.26, 'state': 'normal', 'rot1': 95, 'rot0': 105, 'rot3': 0, 'rot2': 0, 'depth': 1.004, 'yaw': 114.25, 'datetime': '2018-12-12 14:23:35.835512', 'mgs': 0, 'flw2': 3.34, 'flw1': 0.0, 'flw0': 5.15, 'time': 14.79, 'compass': 97.45, 'pitch': 4.02, 'roll': -0.02}
{'lipoC2': 7.32, 'temp': 0.0, 'lipoC3S3': 11.27, 'state': 'normal', 'rot1': 99, 'rot0': 108, 'rot3': 0, 'rot2': 0, 'depth': -0.827, 'yaw': 113.09, 'datetime': '2018-12-12 14:23:36.045839', 'mgs': 0, 'flw2': 3.21, 'flw1': 0.32, 'flw0': 5.55, 'time': 15.0, 'compass': 96.29, 'pitch': 4.1, 'roll': 0.07}
{'lipoC2': 7.32, 'temp': 0.0, 'lipoC3S3': 11.36, 'state': 'normal', 'rot1': 102, 'rot0': 111, 'rot3': 0, 'rot2': 0, 'depth': 2.072, 'yaw': 111.76, 'datetime': '2018-12-12 14:23:36.254563', 'mgs': 0, 'flw2': 3.7, 'flw1': 0.0, 'flw0': 5.7, 'time': 15.21, 'compass': 94.96, 'pitch': 4.07, 'roll': -0.15}
{'lipoC2': 7.47, 'temp': 0.0, 'lipoC3S3': 11.0, 'state': 'normal', 'rot1': 105, 'rot0': 113, 'rot3': 0, 'rot2': 0, 'depth': 0.851, 'yaw': 110.36, 'datetime': '2018-12-12 14:23:36.464121', 'mgs': 0, 'flw2': 3.54, 'flw1': 0.0, 'flw0': 5.11, 'time': 15.42, 'compass': 93.56, 'pitch': 4.07, 'roll': -0.55}
{'lipoC2': 7.26, 'temp': 0.0, 'lipoC3S3': 11.15, 'state': 'normal', 'rot1': 107, 'rot0': 116, 'rot3': 0, 'rot2': 0, 'depth': -0.598, 'yaw': 109.44, 'datetime': '2018-12-12 14:23:36.677253', 'mgs': 0, 'flw2': 3.65, 'flw1': 0.09, 'flw0': 4.8, 'time': 15.63, 'compass': 92.64, 'pitch': 4.0, 'roll': -0.76}
{'lipoC2': 7.34, 'temp': 0.0, 'lipoC3S3': 11.22, 'state': 'normal', 'rot1': 110, 'rot0': 118, 'rot3': 0, 'rot2': 0, 'depth': 1.462, 'yaw': 108.99, 'datetime': '2018-12-12 14:23:36.884970', 'mgs': 0, 'flw2': 3.99, 'flw1': 0.0, 'flw0': 5.26, 'time': 15.84, 'compass': 92.2, 'pitch': 3.49, 'roll': -0.51}
{'lipoC2': 7.33, 'temp': 0.0, 'lipoC3S3': 11.39, 'state': 'normal', 'rot1': 113, 'rot0': 121, 'rot3': 0, 'rot2': 0, 'depth': 0.394, 'yaw': 108.68, 'datetime': '2018-12-12 14:23:37.093019', 'mgs': 0, 'flw2': 3.47, 'flw1': 0.0, 'flw0': 4.65, 'time': 16.05, 'compass': 91.88, 'pitch': 3.29, 'roll': -0.29}
{'lipoC2': 7.3, 'temp': 0.0, 'lipoC3S3': 11.39, 'state': 'normal', 'rot1': 117, 'rot0': 123, 'rot3': 0, 'rot2': 0, 'depth': 2.072, 'yaw': 108.18, 'datetime': '2018-12-12 14:23:37.305102', 'mgs': 0, 'flw2': 3.97, 'flw1': 0.0, 'flw0': 5.19, 'time': 16.26, 'compass': 91.38, 'pitch': 3.3, 'roll': -0.49}
{'lipoC2': 7.34, 'temp': 0.0, 'lipoC3S3': 11.09, 'state': 'normal', 'rot1': 119, 'rot0': 126, 'rot3': 0, 'rot2': 0, 'depth': 0.165, 'yaw': 107.5, 'datetime': '2018-12-12 14:23:37.516814', 'mgs': 0, 'flw2': 3.55, 'flw1': 0.35, 'flw0': 4.92, 'time': 16.46, 'compass': 90.7, 'pitch': 3.19, 'roll': -0.8}
{'lipoC2': 7.27, 'temp': 0.0, 'lipoC3S3': 11.22, 'state': 'normal', 'rot1': 122, 'rot0': 129, 'rot3': 0, 'rot2': 0, 'depth': -0.293, 'yaw': 106.5, 'datetime': '2018-12-12 14:23:37.722020', 'mgs': 0, 'flw2': 3.77, 'flw1': 0.38, 'flw0': 4.8, 'time': 16.67, 'compass': 89.7, 'pitch': 3.36, 'roll': -1.15}
{'lipoC2': 7.33, 'temp': 0.0, 'lipoC3S3': 11.22, 'state': 'normal', 'rot1': 125, 'rot0': 131, 'rot3': 0, 'rot2': 0, 'depth': -0.293, 'yaw': 105.8, 'datetime': '2018-12-12 14:23:37.934965', 'mgs': 0, 'flw2': 4.54, 'flw1': 0.41, 'flw0': 4.3, 'time': 16.89, 'compass': 89.0, 'pitch': 3.65, 'roll': -1.43}
{'lipoC2': 7.35, 'temp': 0.0, 'lipoC3S3': 11.19, 'state': 'normal', 'rot1': 128, 'rot0': 134, 'rot3': 0, 'rot2': 0, 'depth': 1.309, 'yaw': 105.74, 'datetime': '2018-12-12 14:23:38.143610', 'mgs': 0, 'flw2': 5.63, 'flw1': 0.15, 'flw0': 3.52, 'time': 17.09, 'compass': 88.94, 'pitch': 3.89, 'roll': -1.29}
{'lipoC2': 7.32, 'temp': 0.0, 'lipoC3S3': 11.31, 'state': 'normal', 'rot1': 130, 'rot0': 137, 'rot3': 0, 'rot2': 0, 'depth': -0.827, 'yaw': 106.87, 'datetime': '2018-12-12 14:23:38.351797', 'mgs': 0, 'flw2': 5.27, 'flw1': 0.32, 'flw0': 3.56, 'time': 17.3, 'compass': 90.07, 'pitch': 3.77, 'roll': -0.67}
{'lipoC2': 7.4, 'temp': 0.0, 'lipoC3S3': 11.03, 'state': 'normal', 'rot1': 133, 'rot0': 140, 'rot3': 0, 'rot2': 0, 'depth': -0.064, 'yaw': 108.24, 'datetime': '2018-12-12 14:23:38.561438', 'mgs': 0, 'flw2': 5.65, 'flw1': 0.0, 'flw0': 3.96, 'time': 17.51, 'compass': 91.44, 'pitch': 3.6, 'roll': -0.03}
{'lipoC2': 7.33, 'temp': 0.0, 'lipoC3S3': 11.03, 'state': 'normal', 'rot1': 135, 'rot0': 144, 'rot3': 0, 'rot2': 0, 'depth': 0.165, 'yaw': 109.67, 'datetime': '2018-12-12 14:23:38.769625', 'mgs': 0, 'flw2': 5.29, 'flw1': 0.32, 'flw0': 3.63, 'time': 17.72, 'compass': 92.87, 'pitch': 3.63, 'roll': 0.27}
{'lipoC2': 7.3, 'temp': 0.0, 'lipoC3S3': 11.39, 'state': 'normal', 'rot1': 138, 'rot0': 147, 'rot3': 0, 'rot2': 0, 'depth': 1.614, 'yaw': 111.32, 'datetime': '2018-12-12 14:23:38.979209', 'mgs': 0, 'flw2': 5.42, 'flw1': 0.0, 'flw0': 3.55, 'time': 17.93, 'compass': 94.52, 'pitch': 3.82, 'roll': 0.17}
{'lipoC2': 7.34, 'temp': 0.0, 'lipoC3S3': 11.52, 'state': 'normal', 'rot1': 140, 'rot0': 151, 'rot3': 0, 'rot2': 0, 'depth': 0.165, 'yaw': 113.47, 'datetime': '2018-12-12 14:23:39.189441', 'mgs': 0, 'flw2': 5.46, 'flw1': 0.03, 'flw0': 3.34, 'time': 18.14, 'compass': 96.67, 'pitch': 3.98, 'roll': 0.24}
{'lipoC2': 7.44, 'temp': 0.0, 'lipoC3S3': 11.02, 'state': 'normal', 'rot1': 143, 'rot0': 154, 'rot3': 0, 'rot2': 0, 'depth': 0.394, 'yaw': 116.03, 'datetime': '2018-12-12 14:23:39.400905', 'mgs': 0, 'flw2': 5.7, 'flw1': 0.0, 'flw0': 2.08, 'time': 18.35, 'compass': 99.23, 'pitch': 4.39, 'roll': 0.29}
{'lipoC2': 7.28, 'temp': 0.0, 'lipoC3S3': 11.19, 'state': 'normal', 'rot1': 145, 'rot0': 157, 'rot3': 0, 'rot2': 0, 'depth': -1.59, 'yaw': 119.46, 'datetime': '2018-12-12 14:23:39.607550', 'mgs': 0, 'flw2': 5.22, 'flw1': 0.59, 'flw0': 1.99, 'time': 18.56, 'compass': 102.66, 'pitch': 4.55, 'roll': 0.75}
{'lipoC2': 7.29, 'temp': 0.0, 'lipoC3S3': 11.27, 'state': 'normal', 'rot1': 147, 'rot0': 161, 'rot3': 0, 'rot2': 0, 'depth': 0.546, 'yaw': 123.63, 'datetime': '2018-12-12 14:23:39.816887', 'mgs': 0, 'flw2': 5.82, 'flw1': 0.0, 'flw0': 2.37, 'time': 18.77, 'compass': 106.83, 'pitch': 4.34, 'roll': 1.64}
{'lipoC2': 7.32, 'temp': 0.0, 'lipoC3S3': 11.6, 'state': 'normal', 'rot1': 149, 'rot0': 164, 'rot3': 0, 'rot2': 0, 'depth': -0.064, 'yaw': 127.94, 'datetime': '2018-12-12 14:23:40.025128', 'mgs': 0, 'flw2': 0.0, 'flw1': 0.0, 'flw0': 0.06, 'time': 18.98, 'compass': 111.14, 'pitch': 4.1, 'roll': 2.39}
{'lipoC2': 7.32, 'temp': 0.0, 'lipoC3S3': 11.54, 'state': 'normal', 'rot1': 149, 'rot0': 164, 'rot3': 0, 'rot2': 0, 'depth': 2.072, 'yaw': 131.73, 'datetime': '2018-12-12 14:23:40.235522', 'mgs': 0, 'flw2': 0.02, 'flw1': 0.0, 'flw0': 0.2, 'time': 19.18, 'compass': 114.93, 'pitch': 1.38, 'roll': 2.6}
{'lipoC2': 7.32, 'temp': 0.0, 'lipoC3S3': 11.61, 'state': 'normal', 'rot1': 149, 'rot0': 164, 'rot3': 0, 'rot2': 0, 'depth': -0.064, 'yaw': 134.41, 'datetime': '2018-12-12 14:23:40.443715', 'mgs': 0, 'flw2': 0.0, 'flw1': 0.0, 'flw0': 0.04, 'time': 19.39, 'compass': 117.61, 'pitch': -1.25, 'roll': 2.46}
{'lipoC2': 7.52, 'temp': 0.0, 'lipoC3S3': 11.23, 'state': 'normal', 'rot1': 149, 'rot0': 164, 'rot3': 0, 'rot2': 0, 'depth': -1.285, 'yaw': 136.63, 'datetime': '2018-12-12 14:23:40.654494', 'mgs': 0, 'flw2': 0.18, 'flw1': 0.0, 'flw0': 0.16, 'time': 19.6, 'compass': 119.83, 'pitch': -1.63, 'roll': 2.27}
{'lipoC2': 7.34, 'temp': 0.0, 'lipoC3S3': 11.63, 'state': 'normal', 'rot1': 149, 'rot0': 164, 'rot3': 0, 'rot2': 0, 'depth': -0.14, 'yaw': 138.61, 'datetime': '2018-12-12 14:23:40.864298', 'mgs': 0, 'flw2': 0.0, 'flw1': 0.0, 'flw0': 0.0, 'time': 19.81, 'compass': 121.81, 'pitch': -1.18, 'roll': 2.12}
{'lipoC2': 7.53, 'temp': 0.0, 'lipoC3S3': 11.56, 'state': 'normal', 'rot1': 149, 'rot0': 164, 'rot3': 0, 'rot2': 0, 'depth': 1.843, 'yaw': 140.29, 'datetime': '2018-12-12 14:23:41.072096', 'mgs': 0, 'flw2': 0.17, 'flw1': 0.0, 'flw0': 0.0, 'time': 20.02, 'compass': 123.49, 'pitch': -1.53, 'roll': 2.0}
{'lipoC2': 7.32, 'temp': 0.0, 'lipoC3S3': 11.31, 'state': 'normal', 'rot1': 149, 'rot0': 164, 'rot3': 0, 'rot2': 0, 'depth': -0.674, 'yaw': 142.06, 'datetime': '2018-12-12 14:23:41.283088', 'mgs': 0, 'flw2': 0.0, 'flw1': 0.47, 'flw0': 0.0, 'time': 20.23, 'compass': 125.26, 'pitch': -2.53, 'roll': 1.59}
{'lipoC2': 7.34, 'temp': 0.0, 'lipoC3S3': 11.39, 'state': 'normal', 'rot1': 149, 'rot0': 164, 'rot3': 0, 'rot2': 0, 'depth': 1.538, 'yaw': 143.68, 'datetime': '2018-12-12 14:23:41.490131', 'mgs': 0, 'flw2': 0.0, 'flw1': 0.26, 'flw0': 0.0, 'time': 20.44, 'compass': 126.88, 'pitch': -2.97, 'roll': 1.02}
{'lipoC2': 7.35, 'temp': 0.0, 'lipoC3S3': 11.35, 'state': 'normal', 'rot1': 149, 'rot0': 164, 'rot3': 0, 'rot2': 0, 'depth': 0.546, 'yaw': 145.02, 'datetime': '2018-12-12 14:23:41.700369', 'mgs': 0, 'flw2': 0.22, 'flw1': 0.0, 'flw0': 0.26, 'time': 20.65, 'compass': 128.22, 'pitch': -2.46, 'roll': 0.78}
{'lipoC2': 7.3, 'temp': 0.0, 'lipoC3S3': 11.54, 'state': 'normal', 'rot1': 149, 'rot0': 164, 'rot3': 0, 'rot2': 0, 'depth': 1.691, 'yaw': 145.99, 'datetime': '2018-12-12 14:23:41.909686', 'mgs': 0, 'flw2': 0.22, 'flw1': 0.0, 'flw0': 0.0, 'time': 20.86, 'compass': 129.19, 'pitch': -1.8, 'roll': 0.95}
{'lipoC2': 7.32, 'temp': 0.0, 'lipoC3S3': 11.6, 'state': 'normal', 'rot1': 149, 'rot0': 164, 'rot3': 0, 'rot2': 0, 'depth': 0.775, 'yaw': 146.6, 'datetime': '2018-12-12 14:23:42.118993', 'mgs': 0, 'flw2': 0.0, 'flw1': 0.0, 'flw0': 0.0, 'time': 21.07, 'compass': 129.8, 'pitch': -1.45, 'roll': 1.01}
{'lipoC2': 7.55, 'temp': 0.0, 'lipoC3S3': 11.22, 'state': 'normal', 'rot1': 149, 'rot0': 164, 'rot3': 0, 'rot2': 0, 'depth': -0.751, 'yaw': 146.81, 'datetime': '2018-12-12 14:23:42.328741', 'mgs': 0, 'flw2': 0.17, 'flw1': 0.06, 'flw0': 0.05, 'time': 21.27, 'compass': 130.01, 'pitch': -1.38, 'roll': 0.92}
{'lipoC2': 7.34, 'temp': 0.0, 'lipoC3S3': 11.52, 'state': 'normal', 'rot1': 149, 'rot0': 164, 'rot3': 0, 'rot2': 0, 'depth': 0.012, 'yaw': 146.79, 'datetime': '2018-12-12 14:23:42.537889', 'mgs': 0, 'flw2': 0.0, 'flw1': 0.59, 'flw0': 0.0, 'time': 21.48, 'compass': 129.99, 'pitch': -1.47, 'roll': 0.82}
{'lipoC2': 7.32, 'temp': 0.0, 'lipoC3S3': 11.44, 'state': 'normal', 'rot1': 149, 'rot0': 164, 'rot3': 0, 'rot2': 0, 'depth': 1.462, 'yaw': 146.66, 'datetime': '2018-12-12 14:23:42.747015', 'mgs': 0, 'flw2': 0.27, 'flw1': 0.0, 'flw0': 0.26, 'time': 21.69, 'compass': 129.86, 'pitch': -1.51, 'roll': 0.88}
{'lipoC2': 7.32, 'temp': 0.0, 'lipoC3S3': 11.54, 'state': 'normal', 'rot1': 149, 'rot0': 164, 'rot3': 0, 'rot2': 0, 'depth': 1.767, 'yaw': 146.37, 'datetime': '2018-12-12 14:23:42.957249', 'mgs': 0, 'flw2': 0.1, 'flw1': 0.0, 'flw0': 0.02, 'time': 21.9, 'compass': 129.57, 'pitch': -1.43, 'roll': 1.01}
{'lipoC2': 7.32, 'temp': 0.0, 'lipoC3S3': 11.31, 'state': 'normal', 'rot1': 149, 'rot0': 164, 'rot3': 0, 'rot2': 0, 'depth': -0.674, 'yaw': 145.89, 'datetime': '2018-12-12 14:23:43.167726', 'mgs': 0, 'flw2': 0.0, 'flw1': 0.56, 'flw0': 0.0, 'time': 22.11, 'compass': 129.09, 'pitch': -1.39, 'roll': 0.96}
{'lipoC2': 7.51, 'temp': 0.0, 'lipoC3S3': 11.09, 'state': 'normal', 'rot1': 149, 'rot0': 164, 'rot3': 0, 'rot2': 0, 'depth': -1.285, 'yaw': 145.26, 'datetime': '2018-12-12 14:23:43.375852', 'mgs': 0, 'flw2': 0.0, 'flw1': 0.0, 'flw0': 0.0, 'time': 22.32, 'compass': 128.46, 'pitch': -1.56, 'roll': 0.61}
{'lipoC2': 7.54, 'temp': 0.0, 'lipoC3S3': 11.31, 'state': 'normal', 'rot1': 149, 'rot0': 164, 'rot3': 0, 'rot2': 0, 'depth': -0.674, 'yaw': 144.4, 'datetime': '2018-12-12 14:23:43.585215', 'mgs': 0, 'flw2': 0.0, 'flw1': 0.0, 'flw0': 0.0, 'time': 22.53, 'compass': 127.6, 'pitch': -1.86, 'roll': 0.12}
{'lipoC2': 7.32, 'temp': 0.0, 'lipoC3S3': 11.63, 'state': 'normal', 'rot1': 149, 'rot0': 164, 'rot3': 0, 'rot2': 0, 'depth': -0.369, 'yaw': 143.42, 'datetime': '2018-12-12 14:23:43.793583', 'mgs': 0, 'flw2': 0.23, 'flw1': 0.0, 'flw0': 0.0, 'time': 22.74, 'compass': 126.62, 'pitch': -1.87, 'roll': -0.15}
{'lipoC2': 7.24, 'temp': 0.0, 'lipoC3S3': 11.6, 'state': 'normal', 'rot1': 150, 'rot0': 164, 'rot3': 0, 'rot2': 0, 'depth': -0.903, 'yaw': 142.31, 'datetime': '2018-12-12 14:23:44.001057', 'mgs': 0, 'flw2': 0.31, 'flw1': 0.59, 'flw0': 0.24, 'time': 22.95, 'compass': 125.51, 'pitch': -1.54, 'roll': -0.04}
{'lipoC2': 7.4, 'temp': 0.0, 'lipoC3S3': 11.61, 'state': 'normal', 'rot1': 151, 'rot0': 165, 'rot3': 0, 'rot2': 0, 'depth': -0.98, 'yaw': 140.63, 'datetime': '2018-12-12 14:23:44.212264', 'mgs': 0, 'flw2': 0.38, 'flw1': 0.06, 'flw0': 0.38, 'time': 23.16, 'compass': 123.83, 'pitch': -1.41, 'roll': 0.18}
{'lipoC2': 7.58, 'temp': 0.0, 'lipoC3S3': 11.14, 'state': 'normal', 'rot1': 154, 'rot0': 167, 'rot3': 0, 'rot2': 0, 'depth': -0.446, 'yaw': 138.46, 'datetime': '2018-12-12 14:23:44.422216', 'mgs': 0, 'flw2': 0.38, 'flw1': 0.0, 'flw0': 0.5, 'time': 23.37, 'compass': 121.66, 'pitch': -1.76, 'roll': 0.35}
{'lipoC2': 7.44, 'temp': 0.0, 'lipoC3S3': 11.34, 'state': 'normal', 'rot1': 157, 'rot0': 169, 'rot3': 0, 'rot2': 0, 'depth': 0.851, 'yaw': 135.87, 'datetime': '2018-12-12 14:23:44.630478', 'mgs': 0, 'flw2': 0.39, 'flw1': 0.0, 'flw0': 0.24, 'time': 23.58, 'compass': 119.07, 'pitch': -2.13, 'roll': 0.38}
{'lipoC2': 7.28, 'temp': 0.0, 'lipoC3S3': 11.43, 'state': 'normal', 'rot1': 160, 'rot0': 170, 'rot3': 0, 'rot2': 0, 'depth': 1.462, 'yaw': 132.82, 'datetime': '2018-12-12 14:23:44.839849', 'mgs': 0, 'flw2': 0.56, 'flw1': 0.0, 'flw0': 0.88, 'time': 23.78, 'compass': 116.02, 'pitch': -2.09, 'roll': 0.26}
{'lipoC2': 7.5, 'temp': 0.0, 'lipoC3S3': 11.27, 'state': 'normal', 'rot1': 163, 'rot0': 172, 'rot3': 0, 'rot2': 0, 'depth': -0.674, 'yaw': 128.86, 'datetime': '2018-12-12 14:23:45.048145', 'mgs': 0, 'flw2': 1.94, 'flw1': 0.0, 'flw0': 2.11, 'time': 23.99, 'compass': 112.06, 'pitch': -1.49, 'roll': 0.05}
{'lipoC2': 7.5, 'temp': 0.0, 'lipoC3S3': 10.93, 'state': 'normal', 'rot1': 169, 'rot0': 176, 'rot3': 0, 'rot2': 0, 'depth': -1.437, 'yaw': 122.62, 'datetime': '2018-12-12 14:23:45.257898', 'mgs': 0, 'flw2': 2.91, 'flw1': 0.73, 'flw0': 3.06, 'time': 24.2, 'compass': 105.83, 'pitch': -0.8, 'roll': -0.54}
{'lipoC2': 7.28, 'temp': 0.0, 'lipoC3S3': 11.05, 'state': 'normal', 'rot1': 174, 'rot0': 179, 'rot3': 0, 'rot2': 0, 'depth': 0.699, 'yaw': 112.83, 'datetime': '2018-12-12 14:23:45.467853', 'mgs': 0, 'flw2': 3.86, 'flw1': 0.0, 'flw0': 4.08, 'time': 24.41, 'compass': 96.03, 'pitch': -0.47, 'roll': -1.61}
{'lipoC2': 7.24, 'temp': 0.0, 'lipoC3S3': 11.36, 'state': 'normal', 'rot1': 179, 'rot0': 183, 'rot3': 0, 'rot2': 0, 'depth': 0.394, 'yaw': 100.06, 'datetime': '2018-12-12 14:23:45.679010', 'mgs': 0, 'flw2': 5.02, 'flw1': 0.0, 'flw0': 5.69, 'time': 24.62, 'compass': 83.26, 'pitch': -0.19, 'roll': -3.17}
{'lipoC2': 7.21, 'temp': 0.0, 'lipoC3S3': 11.34, 'state': 'normal', 'rot1': 185, 'rot0': 188, 'rot3': 0, 'rot2': 0, 'depth': 2.301, 'yaw': 84.57, 'datetime': '2018-12-12 14:23:45.888401', 'mgs': 0, 'flw2': 6.14, 'flw1': 0.0, 'flw0': 6.95, 'time': 24.83, 'compass': 67.77, 'pitch': 1.18, 'roll': -4.49}
{'lipoC2': 7.28, 'temp': 0.0, 'lipoC3S3': 10.86, 'state': 'normal', 'rot1': 191, 'rot0': 193, 'rot3': 0, 'rot2': 0, 'depth': 2.072, 'yaw': 66.98, 'datetime': '2018-12-12 14:23:46.096597', 'mgs': 0, 'flw2': 6.73, 'flw1': 0.88, 'flw0': 6.77, 'time': 25.04, 'compass': 50.18, 'pitch': 2.93, 'roll': -4.31}
{'lipoC2': 7.33, 'temp': 0.0, 'lipoC3S3': 11.34, 'state': 'normal', 'rot1': 197, 'rot0': 198, 'rot3': 0, 'rot2': 0, 'depth': -0.217, 'yaw': 48.32, 'datetime': '2018-12-12 14:23:46.305919', 'mgs': 0, 'flw2': 5.81, 'flw1': 0.0, 'flw0': 6.45, 'time': 25.25, 'compass': 31.52, 'pitch': 3.16, 'roll': -3.65}
{'lipoC2': 7.23, 'temp': 0.0, 'lipoC3S3': 11.17, 'state': 'normal', 'rot1': 202, 'rot0': 201, 'rot3': 0, 'rot2': 0, 'depth': 0.012, 'yaw': 30.37, 'datetime': '2018-12-12 14:23:46.515781', 'mgs': 0, 'flw2': 5.22, 'flw1': 0.67, 'flw0': 5.79, 'time': 25.46, 'compass': 13.57, 'pitch': 2.56, 'roll': -3.56}
{'lipoC2': 7.4, 'temp': 0.0, 'lipoC3S3': 11.44, 'state': 'normal', 'rot1': 208, 'rot0': 206, 'rot3': 0, 'rot2': 0, 'depth': 2.682, 'yaw': 11.59, 'datetime': '2018-12-12 14:23:46.726962', 'mgs': 0, 'flw2': 5.35, 'flw1': 0.0, 'flw0': 5.82, 'time': 25.67, 'compass': -5.21, 'pitch': 1.75, 'roll': -4.32}
{'lipoC2': 7.55, 'temp': 0.0, 'lipoC3S3': 11.01, 'state': 'normal', 'rot1': 213, 'rot0': 210, 'rot3': 0, 'rot2': 0, 'depth': -0.369, 'yaw': -8.01, 'datetime': '2018-12-12 14:23:46.936892', 'mgs': 0, 'flw2': 5.68, 'flw1': 0.0, 'flw0': 6.49, 'time': 25.88, 'compass': -24.81, 'pitch': 1.75, 'roll': -5.3}
{'lipoC2': 7.32, 'temp': 0.0, 'lipoC3S3': 11.11, 'state': 'normal', 'rot1': 218, 'rot0': 215, 'rot3': 0, 'rot2': 0, 'depth': 1.538, 'yaw': -28.36, 'datetime': '2018-12-12 14:23:47.145206', 'mgs': 0, 'flw2': 8.07, 'flw1': 0.0, 'flw0': 7.73, 'time': 26.09, 'compass': -45.16, 'pitch': 1.85, 'roll': -5.23}
{'lipoC2': 7.47, 'temp': 0.0, 'lipoC3S3': 11.13, 'state': 'normal', 'rot1': 225, 'rot0': 219, 'rot3': 0, 'rot2': 0, 'depth': 1.843, 'yaw': -50.42, 'datetime': '2018-12-12 14:23:47.354665', 'mgs': 0, 'flw2': 8.23, 'flw1': 0.0, 'flw0': 8.75, 'time': 26.3, 'compass': -67.22, 'pitch': 1.23, 'roll': -5.41}
{'lipoC2': 7.25, 'temp': 0.0, 'lipoC3S3': 11.17, 'state': 'normal', 'rot1': 230, 'rot0': 224, 'rot3': 0, 'rot2': 0, 'depth': 0.623, 'yaw': -73.14, 'datetime': '2018-12-12 14:23:47.564055', 'mgs': 0, 'flw2': 8.4, 'flw1': 0.47, 'flw0': 8.45, 'time': 26.5, 'compass': -89.94, 'pitch': 1.0, 'roll': -6.04}
{'lipoC2': 7.3, 'temp': 0.0, 'lipoC3S3': 11.4, 'state': 'normal', 'rot1': 235, 'rot0': 229, 'rot3': 0, 'rot2': 0, 'depth': 1.309, 'yaw': -98.7, 'datetime': '2018-12-12 14:23:47.772625', 'mgs': 0, 'flw2': 7.45, 'flw1': 0.7, 'flw0': 8.22, 'time': 26.71, 'compass': -115.5, 'pitch': 1.89, 'roll': -6.36}
{'lipoC2': 7.29, 'temp': 0.0, 'lipoC3S3': 11.29, 'state': 'normal', 'rot1': 242, 'rot0': 233, 'rot3': 0, 'rot2': 0, 'depth': 1.004, 'yaw': -124.44, 'datetime': '2018-12-12 14:23:47.985218', 'mgs': 0, 'flw2': 3.54, 'flw1': 0.0, 'flw0': 3.76, 'time': 26.92, 'compass': -141.24, 'pitch': 2.13, 'roll': -5.96}
{'lipoC2': 7.56, 'temp': 0.0, 'lipoC3S3': 11.09, 'state': 'normal', 'rot1': 245, 'rot0': 235, 'rot3': 0, 'rot2': 0, 'depth': -1.361, 'yaw': -147.39, 'datetime': '2018-12-12 14:23:48.193729', 'mgs': 0, 'flw2': 1.51, 'flw1': 4.98, 'flw0': 0.39, 'time': 27.13, 'compass': -164.19, 'pitch': 0.02, 'roll': -4.64}
{'lipoC2': 7.3, 'temp': 0.0, 'lipoC3S3': 11.48, 'state': 'normal', 'rot1': 246, 'rot0': 236, 'rot3': 1, 'rot2': 0, 'depth': 1.92, 'yaw': -164.59, 'datetime': '2018-12-12 14:23:48.403296', 'mgs': 0, 'flw2': 0.31, 'flw1': 0.0, 'flw0': 0.28, 'time': 27.34, 'compass': 178.61, 'pitch': -2.25, 'roll': -1.68}
{'lipoC2': 7.54, 'temp': 0.0, 'lipoC3S3': 11.23, 'state': 'normal', 'rot1': 246, 'rot0': 236, 'rot3': 1, 'rot2': 0, 'depth': -1.285, 'yaw': -178.48, 'datetime': '2018-12-12 14:23:48.612731', 'mgs': 0, 'flw2': 0.0, 'flw1': 0.82, 'flw0': 0.0, 'time': 27.55, 'compass': 164.72, 'pitch': -3.09, 'roll': 1.17}
{'lipoC2': 7.33, 'temp': 0.0, 'lipoC3S3': 11.3, 'state': 'normal', 'rot1': 246, 'rot0': 236, 'rot3': 1, 'rot2': 0, 'depth': 1.767, 'yaw': 169.97, 'datetime': '2018-12-12 14:23:48.823650', 'mgs': 0, 'flw2': 0.27, 'flw1': 0.0, 'flw0': 0.23, 'time': 27.76, 'compass': 153.17, 'pitch': -2.6, 'roll': 2.48}
{'lipoC2': 7.26, 'temp': 0.0, 'lipoC3S3': 11.02, 'state': 'normal', 'rot1': 249, 'rot0': 238, 'rot3': 1, 'rot2': 0, 'depth': -0.064, 'yaw': 160.64, 'datetime': '2018-12-12 14:23:49.030763', 'mgs': 0, 'flw2': 7.32, 'flw1': 0.88, 'flw0': 7.59, 'time': 27.97, 'compass': 143.84, 'pitch': -1.65, 'roll': 2.45}
{'lipoC2': 7.4, 'temp': 0.0, 'lipoC3S3': 11.09, 'state': 'normal', 'rot1': 254, 'rot0': 241, 'rot3': 1, 'rot2': 0, 'depth': -0.827, 'yaw': 160.22, 'datetime': '2018-12-12 14:23:49.239186', 'mgs': 0, 'flw2': 7.18, 'flw1': 0.0, 'flw0': 7.29, 'time': 28.18, 'compass': 143.42, 'pitch': -0.11, 'roll': 2.46}
{'lipoC2': 7.34, 'temp': 0.0, 'lipoC3S3': 11.1, 'state': 'normal', 'rot1': 258, 'rot0': 245, 'rot3': 1, 'rot2': 0, 'depth': 0.851, 'yaw': 167.3, 'datetime': '2018-12-12 14:23:49.448975', 'mgs': 0, 'flw2': 7.01, 'flw1': 0.59, 'flw0': 7.57, 'time': 28.39, 'compass': 150.5, 'pitch': 0.37, 'roll': 2.98}
{'lipoC2': 7.32, 'temp': 0.0, 'lipoC3S3': 11.21, 'state': 'normal', 'rot1': 263, 'rot0': 248, 'rot3': 1, 'rot2': 0, 'depth': 3.064, 'yaw': 179.3, 'datetime': '2018-12-12 14:23:49.666795', 'mgs': 0, 'flw2': 6.59, 'flw1': 0.0, 'flw0': 7.02, 'time': 28.6, 'compass': 162.5, 'pitch': -0.21, 'roll': 4.22}
{'lipoC2': 7.39, 'temp': 0.0, 'lipoC3S3': 11.22, 'state': 'normal', 'rot1': 267, 'rot0': 252, 'rot3': 1, 'rot2': 0, 'depth': 1.309, 'yaw': -166.32, 'datetime': '2018-12-12 14:23:49.876324', 'mgs': 0, 'flw2': 5.88, 'flw1': 0.0, 'flw0': 6.32, 'time': 28.81, 'compass': 176.88, 'pitch': -0.67, 'roll': 5.27}
{'lipoC2': 7.3, 'temp': 0.0, 'lipoC3S3': 11.23, 'state': 'normal', 'rot1': 270, 'rot0': 255, 'rot3': 1, 'rot2': 0, 'depth': 1.691, 'yaw': -151.55, 'datetime': '2018-12-12 14:23:50.084971', 'mgs': 0, 'flw2': 4.71, 'flw1': 0.0, 'flw0': 5.25, 'time': 29.01, 'compass': -168.35, 'pitch': -0.16, 'roll': 6.11}
{'lipoC2': 7.3, 'temp': 0.0, 'lipoC3S3': 11.26, 'state': 'normal', 'rot1': 274, 'rot0': 258, 'rot3': 1, 'rot2': 0, 'depth': 1.691, 'yaw': -135.24, 'datetime': '2018-12-12 14:23:50.293876', 'mgs': 0, 'flw2': 3.89, 'flw1': 0.0, 'flw0': 4.3, 'time': 29.22, 'compass': -152.04, 'pitch': 0.88, 'roll': 6.26}
{'lipoC2': 7.51, 'temp': 0.0, 'lipoC3S3': 11.19, 'state': 'normal', 'rot1': 277, 'rot0': 260, 'rot3': 1, 'rot2': 0, 'depth': -1.514, 'yaw': -118.86, 'datetime': '2018-12-12 14:23:50.502625', 'mgs': 0, 'flw2': 2.44, 'flw1': 0.0, 'flw0': 2.78, 'time': 29.43, 'compass': -135.66, 'pitch': 1.11, 'roll': 5.74}
{'lipoC2': 7.35, 'temp': 0.0, 'lipoC3S3': 11.47, 'state': 'normal', 'rot1': 279, 'rot0': 263, 'rot3': 1, 'rot2': 0, 'depth': 0.699, 'yaw': -103.1, 'datetime': '2018-12-12 14:23:50.713767', 'mgs': 0, 'flw2': 2.27, 'flw1': 0.0, 'flw0': 2.44, 'time': 29.64, 'compass': -119.9, 'pitch': 0.51, 'roll': 5.65}
{'lipoC2': 7.32, 'temp': 0.0, 'lipoC3S3': 11.29, 'state': 'normal', 'rot1': 282, 'rot0': 265, 'rot3': 1, 'rot2': 0, 'depth': -0.903, 'yaw': -88.3, 'datetime': '2018-12-12 14:23:50.924326', 'mgs': 0, 'flw2': 1.7, 'flw1': 0.0, 'flw0': 1.71, 'time': 29.85, 'compass': -105.1, 'pitch': -0.19, 'roll': 5.53}
{'lipoC2': 7.33, 'temp': 0.0, 'lipoC3S3': 11.22, 'state': 'normal', 'rot1': 283, 'rot0': 266, 'rot3': 1, 'rot2': 0, 'depth': 1.157, 'yaw': -74.52, 'datetime': '2018-12-12 14:23:51.133010', 'mgs': 0, 'flw2': 1.1, 'flw1': 0.0, 'flw0': 1.12, 'time': 30.06, 'compass': -91.32, 'pitch': -0.43, 'roll': 4.94}
{'lipoC2': 7.54, 'temp': 0.0, 'lipoC3S3': 11.34, 'state': 'normal', 'rot1': 285, 'rot0': 267, 'rot3': 1, 'rot2': 0, 'depth': -1.437, 'yaw': -62.69, 'datetime': '2018-12-12 14:23:51.342213', 'mgs': 0, 'flw2': 0.23, 'flw1': 0.0, 'flw0': 0.23, 'time': 30.27, 'compass': -79.49, 'pitch': -0.86, 'roll': 3.66}
{'lipoC2': 7.51, 'temp': 0.0, 'lipoC3S3': 11.25, 'state': 'normal', 'rot1': 286, 'rot0': 268, 'rot3': 1, 'rot2': 0, 'depth': -0.522, 'yaw': -51.64, 'datetime': '2018-12-12 14:23:51.554490', 'mgs': 0, 'flw2': 0.17, 'flw1': 0.0, 'flw0': 0.13, 'time': 30.48, 'compass': -68.44, 'pitch': -1.19, 'roll': 2.15}
{'lipoC2': 7.5, 'temp': 0.0, 'lipoC3S3': 11.19, 'state': 'normal', 'rot1': 287, 'rot0': 269, 'rot3': 1, 'rot2': 0, 'depth': 0.928, 'yaw': -41.66, 'datetime': '2018-12-12 14:23:51.762011', 'mgs': 0, 'flw2': 0.33, 'flw1': 0.0, 'flw0': 0.17, 'time': 30.69, 'compass': -58.46, 'pitch': -1.29, 'roll': 1.44}
{'lipoC2': 7.29, 'temp': 0.0, 'lipoC3S3': 11.22, 'state': 'normal', 'rot1': 288, 'rot0': 271, 'rot3': 1, 'rot2': 0, 'depth': -0.369, 'yaw': -32.48, 'datetime': '2018-12-12 14:23:51.975585', 'mgs': 0, 'flw2': 0.13, 'flw1': 0.44, 'flw0': 0.26, 'time': 30.9, 'compass': -49.28, 'pitch': -1.42, 'roll': 1.38}
{'lipoC2': 7.54, 'temp': 0.0, 'lipoC3S3': 11.32, 'state': 'normal', 'rot1': 288, 'rot0': 271, 'rot3': 1, 'rot2': 0, 'depth': -0.446, 'yaw': -24.13, 'datetime': '2018-12-12 14:23:52.185740', 'mgs': 0, 'flw2': 0.0, 'flw1': 0.21, 'flw0': 0.0, 'time': 31.11, 'compass': -40.93, 'pitch': -1.66, 'roll': 1.43}
{'lipoC2': 7.34, 'temp': 0.0, 'lipoC3S3': 11.26, 'state': 'normal', 'rot1': 288, 'rot0': 271, 'rot3': 1, 'rot2': 0, 'depth': 0.623, 'yaw': -17.08, 'datetime': '2018-12-12 14:23:52.391932', 'mgs': 0, 'flw2': 3.33, 'flw1': 0.0, 'flw0': 1.11, 'time': 31.32, 'compass': -33.88, 'pitch': -1.79, 'roll': 1.52}
{'lipoC2': 7.49, 'temp': 0.0, 'lipoC3S3': 11.17, 'state': 'normal', 'rot1': 290, 'rot0': 274, 'rot3': 1, 'rot2': 0, 'depth': -1.743, 'yaw': -9.45, 'datetime': '2018-12-12 14:23:52.602713', 'mgs': 0, 'flw2': 2.61, 'flw1': 0.0, 'flw0': 0.59, 'time': 31.52, 'compass': -26.25, 'pitch': -0.13, 'roll': 1.71}
{'lipoC2': 7.33, 'temp': 0.0, 'lipoC3S3': 11.25, 'state': 'normal', 'rot1': 292, 'rot0': 276, 'rot3': 1, 'rot2': 0, 'depth': -0.293, 'yaw': -0.97, 'datetime': '2018-12-12 14:23:52.813841', 'mgs': 0, 'flw2': 2.37, 'flw1': 0.47, 'flw0': 0.63, 'time': 31.73, 'compass': -17.77, 'pitch': 1.88, 'roll': 2.03}
{'lipoC2': 7.36, 'temp': 0.0, 'lipoC3S3': 11.22, 'state': 'normal', 'rot1': 293, 'rot0': 278, 'rot3': 1, 'rot2': 0, 'depth': 1.462, 'yaw': 7.85, 'datetime': '2018-12-12 14:23:53.020448', 'mgs': 0, 'flw2': 2.75, 'flw1': 0.0, 'flw0': 0.9, 'time': 31.94, 'compass': -8.95, 'pitch': 2.12, 'roll': 2.34}
{'lipoC2': 7.3, 'temp': 0.0, 'lipoC3S3': 11.13, 'state': 'normal', 'rot1': 294, 'rot0': 281, 'rot3': 1, 'rot2': 0, 'depth': -0.522, 'yaw': 16.73, 'datetime': '2018-12-12 14:23:53.231575', 'mgs': 0, 'flw2': 2.77, 'flw1': 0.0, 'flw0': 0.77, 'time': 32.15, 'compass': -0.07, 'pitch': 1.47, 'roll': 3.01}
{'lipoC2': 7.35, 'temp': 0.0, 'lipoC3S3': 11.29, 'state': 'normal', 'rot1': 297, 'rot0': 283, 'rot3': 1, 'rot2': 0, 'depth': -0.217, 'yaw': 24.77, 'datetime': '2018-12-12 14:23:53.437706', 'mgs': 0, 'flw2': 2.43, 'flw1': 0.12, 'flw0': 2.7, 'time': 32.36, 'compass': 7.97, 'pitch': 1.68, 'roll': 3.87}
{'lipoC2': 7.39, 'temp': 0.0, 'lipoC3S3': 11.26, 'state': 'normal', 'rot1': 299, 'rot0': 285, 'rot3': 1, 'rot2': 0, 'depth': -0.293, 'yaw': 31.16, 'datetime': '2018-12-12 14:23:53.649430', 'mgs': 0, 'flw2': 0.43, 'flw1': 0.15, 'flw0': 2.78, 'time': 32.57, 'compass': 14.36, 'pitch': 2.99, 'roll': 4.17}
{'lipoC2': 7.3, 'temp': 0.0, 'lipoC3S3': 11.52, 'state': 'normal', 'rot1': 302, 'rot0': 286, 'rot3': 1, 'rot2': 0, 'depth': 0.241, 'yaw': 34.73, 'datetime': '2018-12-12 14:23:53.857751', 'mgs': 0, 'flw2': 0.77, 'flw1': 0.0, 'flw0': 2.78, 'time': 32.78, 'compass': 17.93, 'pitch': 2.47, 'roll': 3.61}
{'lipoC2': 7.35, 'temp': 0.0, 'lipoC3S3': 11.1, 'state': 'normal', 'rot1': 304, 'rot0': 288, 'rot3': 1, 'rot2': 0, 'depth': 0.546, 'yaw': 35.79, 'datetime': '2018-12-12 14:23:54.067040', 'mgs': 0, 'flw2': 0.61, 'flw1': 0.44, 'flw0': 2.65, 'time': 32.99, 'compass': 18.99, 'pitch': 0.58, 'roll': 2.36}
{'lipoC2': 7.34, 'temp': 0.0, 'lipoC3S3': 11.59, 'state': 'normal', 'rot1': 306, 'rot0': 289, 'rot3': 1, 'rot2': 0, 'depth': 1.08, 'yaw': 35.35, 'datetime': '2018-12-12 14:23:54.274220', 'mgs': 0, 'flw2': 0.66, 'flw1': 0.0, 'flw0': 2.84, 'time': 33.2, 'compass': 18.55, 'pitch': -0.36, 'roll': 1.08}
{'lipoC2': 7.51, 'temp': 0.0, 'lipoC3S3': 11.18, 'state': 'normal', 'rot1': 308, 'rot0': 290, 'rot3': 1, 'rot2': 0, 'depth': -1.437, 'yaw': 34.04, 'datetime': '2018-12-12 14:23:54.478719', 'mgs': 0, 'flw2': 0.54, 'flw1': 0.0, 'flw0': 2.51, 'time': 33.41, 'compass': 17.24, 'pitch': 0.36, 'roll': 0.07}
{'lipoC2': 7.4, 'temp': 0.0, 'lipoC3S3': 11.18, 'state': 'normal', 'rot1': 310, 'rot0': 291, 'rot3': 1, 'rot2': 0, 'depth': 0.089, 'yaw': 32.06, 'datetime': '2018-12-12 14:23:54.688432', 'mgs': 0, 'flw2': 0.0, 'flw1': 0.53, 'flw0': 0.04, 'time': 33.62, 'compass': 15.26, 'pitch': 1.34, 'roll': -0.58}
{'lipoC2': 7.56, 'temp': 0.0, 'lipoC3S3': 11.22, 'state': 'normal', 'rot1': 311, 'rot0': 291, 'rot3': 1, 'rot2': 0, 'depth': -1.285, 'yaw': 30.78, 'datetime': '2018-12-12 14:23:54.897938', 'mgs': 0, 'flw2': 1.77, 'flw1': 0.0, 'flw0': 1.72, 'time': 33.83, 'compass': 13.98, 'pitch': -0.3, 'roll': -0.12}
{'lipoC2': 7.32, 'temp': 0.0, 'lipoC3S3': 11.31, 'state': 'normal', 'rot1': 313, 'rot0': 293, 'rot3': 1, 'rot2': 0, 'depth': -0.827, 'yaw': 29.13, 'datetime': '2018-12-12 14:23:55.104111', 'mgs': 0, 'flw2': 1.23, 'flw1': 0.0, 'flw0': 1.51, 'time': 34.03, 'compass': 12.33, 'pitch': -2.34, 'roll': 0.51}
{'lipoC2': 7.5, 'temp': 0.0, 'lipoC3S3': 11.31, 'state': 'normal', 'rot1': 315, 'rot0': 295, 'rot3': 1, 'rot2': 0, 'depth': 1.843, 'yaw': 25.95, 'datetime': '2018-12-12 14:23:55.313531', 'mgs': 0, 'flw2': 0.7, 'flw1': 0.0, 'flw0': 0.73, 'time': 34.24, 'compass': 9.15, 'pitch': -1.98, 'roll': 0.03}
{'lipoC2': 7.25, 'temp': 0.0, 'lipoC3S3': 11.18, 'state': 'normal', 'rot1': 317, 'rot0': 296, 'rot3': 1, 'rot2': 0, 'depth': -0.751, 'yaw': 22.03, 'datetime': '2018-12-12 14:23:55.522072', 'mgs': 0, 'flw2': 0.6, 'flw1': 0.21, 'flw0': 0.83, 'time': 34.45, 'compass': 5.23, 'pitch': -1.05, 'roll': -0.81}
{'lipoC2': 7.26, 'temp': 0.0, 'lipoC3S3': 11.27, 'state': 'normal', 'rot1': 319, 'rot0': 298, 'rot3': 1, 'rot2': 0, 'depth': -0.14, 'yaw': 17.31, 'datetime': '2018-12-12 14:23:55.735669', 'mgs': 0, 'flw2': 0.6, 'flw1': 0.47, 'flw0': 0.7, 'time': 34.66, 'compass': 0.51, 'pitch': -1.06, 'roll': -1.35}
{'lipoC2': 7.48, 'temp': 0.0, 'lipoC3S3': 11.31, 'state': 'normal', 'rot1': 321, 'rot0': 300, 'rot3': 1, 'rot2': 0, 'depth': -0.446, 'yaw': 12.14, 'datetime': '2018-12-12 14:23:55.946111', 'mgs': 0, 'flw2': 0.51, 'flw1': 0.0, 'flw0': 0.52, 'time': 34.87, 'compass': -4.66, 'pitch': -1.8, 'roll': -1.56}
{'lipoC2': 7.34, 'temp': 0.0, 'lipoC3S3': 11.51, 'state': 'normal', 'rot1': 322, 'rot0': 301, 'rot3': 1, 'rot2': 0, 'depth': -0.522, 'yaw': 6.68, 'datetime': '2018-12-12 14:23:56.154662', 'mgs': 0, 'flw2': 0.88, 'flw1': 0.0, 'flw0': 0.84, 'time': 35.08, 'compass': -10.12, 'pitch': -2.2, 'roll': -1.74}
{'lipoC2': 7.34, 'temp': 0.0, 'lipoC3S3': 11.61, 'state': 'normal', 'rot1': 323, 'rot0': 302, 'rot3': 1, 'rot2': 0, 'depth': 0.012, 'yaw': 1.05, 'datetime': '2018-12-12 14:23:56.364238', 'mgs': 0, 'flw2': 0.43, 'flw1': 0.0, 'flw0': 0.54, 'time': 35.29, 'compass': -15.75, 'pitch': -1.68, 'roll': -1.56}
{'lipoC2': 7.48, 'temp': 0.0, 'lipoC3S3': 11.17, 'state': 'normal', 'rot1': 325, 'rot0': 303, 'rot3': 1, 'rot2': 0, 'depth': 0.47, 'yaw': -4.54, 'datetime': '2018-12-12 14:23:56.572461', 'mgs': 0, 'flw2': 0.61, 'flw1': 0.0, 'flw0': 0.35, 'time': 35.5, 'compass': -21.34, 'pitch': -1.38, 'roll': -0.92}
{'lipoC2': 7.51, 'temp': 0.0, 'lipoC3S3': 11.34, 'state': 'normal', 'rot1': 326, 'rot0': 304, 'rot3': 1, 'rot2': 0, 'depth': -1.59, 'yaw': -9.56, 'datetime': '2018-12-12 14:23:56.779989', 'mgs': 0, 'flw2': 0.13, 'flw1': 0.0, 'flw0': 0.22, 'time': 35.71, 'compass': -26.36, 'pitch': -1.98, 'roll': -0.41}
{'lipoC2': 7.54, 'temp': 0.0, 'lipoC3S3': 11.32, 'state': 'normal', 'rot1': 327, 'rot0': 305, 'rot3': 1, 'rot2': 0, 'depth': 0.851, 'yaw': -14.45, 'datetime': '2018-12-12 14:23:56.991151', 'mgs': 0, 'flw2': 0.09, 'flw1': 0.0, 'flw0': 0.12, 'time': 35.92, 'compass': -31.25, 'pitch': -2.63, 'roll': -0.38}
{'lipoC2': 7.26, 'temp': 0.0, 'lipoC3S3': 11.31, 'state': 'normal', 'rot1': 328, 'rot0': 306, 'rot3': 1, 'rot2': 0, 'depth': -0.903, 'yaw': -19.01, 'datetime': '2018-12-12 14:23:57.200918', 'mgs': 0, 'flw2': 0.01, 'flw1': 0.62, 'flw0': 0.22, 'time': 36.13, 'compass': -35.81, 'pitch': -2.33, 'roll': -0.77}
{'lipoC2': 7.36, 'temp': 0.0, 'lipoC3S3': 11.14, 'state': 'normal', 'rot1': 330, 'rot0': 307, 'rot3': 1, 'rot2': 0, 'depth': 0.623, 'yaw': -23.53, 'datetime': '2018-12-12 14:23:57.410333', 'mgs': 0, 'flw2': 0.63, 'flw1': 0.0, 'flw0': 0.52, 'time': 36.33, 'compass': -40.33, 'pitch': -1.43, 'roll': -1.23}
{'lipoC2': 7.3, 'temp': 0.0, 'lipoC3S3': 11.63, 'state': 'normal', 'rot1': 331, 'rot0': 308, 'rot3': 1, 'rot2': 0, 'depth': 0.012, 'yaw': -28.05, 'datetime': '2018-12-12 14:23:57.618313', 'mgs': 0, 'flw2': 0.21, 'flw1': 0.32, 'flw0': 0.28, 'time': 36.54, 'compass': -44.85, 'pitch': -1.09, 'roll': -1.37}
{'lipoC2': 7.34, 'temp': 0.0, 'lipoC3S3': 11.6, 'state': 'normal', 'rot1': 331, 'rot0': 308, 'rot3': 1, 'rot2': 0, 'depth': 1.309, 'yaw': -32.13, 'datetime': '2018-12-12 14:23:57.827562', 'mgs': 0, 'flw2': 0.31, 'flw1': 0.0, 'flw0': 0.0, 'time': 36.75, 'compass': -48.93, 'pitch': -1.55, 'roll': -1.04}
{'lipoC2': 7.33, 'temp': 0.0, 'lipoC3S3': 11.75, 'state': 'normal', 'rot1': 332, 'rot0': 309, 'rot3': 1, 'rot2': 0, 'depth': -0.217, 'yaw': -35.78, 'datetime': '2018-12-12 14:23:58.036801', 'mgs': 0, 'flw2': 2.84, 'flw1': 0.0, 'flw0': 0.72, 'time': 36.96, 'compass': -52.58, 'pitch': -2.07, 'roll': -0.41}
{'lipoC2': 7.43, 'temp': 0.0, 'lipoC3S3': 11.15, 'state': 'normal', 'rot1': 334, 'rot0': 312, 'rot3': 1, 'rot2': 0, 'depth': 1.309, 'yaw': -37.71, 'datetime': '2018-12-12 14:23:58.244828', 'mgs': 0, 'flw2': 2.71, 'flw1': 0.0, 'flw0': 0.89, 'time': 37.17, 'compass': -54.51, 'pitch': -0.62, 'roll': 0.42}
{'lipoC2': 7.4, 'temp': 0.0, 'lipoC3S3': 11.17, 'state': 'normal', 'rot1': 335, 'rot0': 315, 'rot3': 1, 'rot2': 0, 'depth': -1.285, 'yaw': -37.53, 'datetime': '2018-12-12 14:23:58.457132', 'mgs': 0, 'flw2': 2.58, 'flw1': 0.0, 'flw0': 0.62, 'time': 37.38, 'compass': -54.33, 'pitch': 1.3, 'roll': 0.88}
{'lipoC2': 7.41, 'temp': 0.0, 'lipoC3S3': 11.21, 'state': 'normal', 'rot1': 337, 'rot0': 317, 'rot3': 1, 'rot2': 0, 'depth': -1.132, 'yaw': -35.74, 'datetime': '2018-12-12 14:23:58.667017', 'mgs': 0, 'flw2': 2.53, 'flw1': 0.0, 'flw0': 0.38, 'time': 37.59, 'compass': -52.54, 'pitch': 1.7, 'roll': 0.9}
{'lipoC2': 7.53, 'temp': 0.0, 'lipoC3S3': 11.15, 'state': 'normal', 'rot1': 339, 'rot0': 320, 'rot3': 1, 'rot2': 1, 'depth': -0.751, 'yaw': -32.91, 'datetime': '2018-12-12 14:23:58.875477', 'mgs': 0, 'flw2': 2.48, 'flw1': 3.52, 'flw0': 0.51, 'time': 37.8, 'compass': -49.71, 'pitch': 1.13, 'roll': 0.85}
{'lipoC2': 7.3, 'temp': 0.0, 'lipoC3S3': 11.47, 'state': 'normal', 'rot1': 341, 'rot0': 323, 'rot3': 2, 'rot2': 2, 'depth': -0.369, 'yaw': -29.34, 'datetime': '2018-12-12 14:23:59.085078', 'mgs': 0, 'flw2': 2.45, 'flw1': 2.26, 'flw0': 0.96, 'time': 38.01, 'compass': -46.14, 'pitch': 0.98, 'roll': 0.46}
{'lipoC2': 7.4, 'temp': 0.0, 'lipoC3S3': 11.14, 'state': 'normal', 'rot1': 342, 'rot0': 325, 'rot3': 2, 'rot2': 2, 'depth': -0.293, 'yaw': -25.36, 'datetime': '2018-12-12 14:23:59.297654', 'mgs': 0, 'flw2': 2.6, 'flw1': 0.0, 'flw0': 0.71, 'time': 38.22, 'compass': -42.16, 'pitch': 0.93, 'roll': 0.18}
{'lipoC2': 7.26, 'temp': 0.0, 'lipoC3S3': 11.34, 'state': 'normal', 'rot1': 344, 'rot0': 327, 'rot3': 2, 'rot2': 2, 'depth': -0.827, 'yaw': -21.12, 'datetime': '2018-12-12 14:23:59.508189', 'mgs': 0, 'flw2': 2.58, 'flw1': 0.47, 'flw0': 0.61, 'time': 38.42, 'compass': -37.92, 'pitch': 0.29, 'roll': 0.62}
{'lipoC2': 7.19, 'temp': 0.0, 'lipoC3S3': 11.46, 'state': 'normal', 'rot1': 345, 'rot0': 330, 'rot3': 2, 'rot2': 2, 'depth': -0.827, 'yaw': -16.77, 'datetime': '2018-12-12 14:23:59.717307', 'mgs': 0, 'flw2': 2.58, 'flw1': 0.0, 'flw0': 0.65, 'time': 38.63, 'compass': -33.57, 'pitch': -0.48, 'roll': 1.81}
{'lipoC2': 7.32, 'temp': 0.0, 'lipoC3S3': 11.27, 'state': 'normal', 'rot1': 346, 'rot0': 332, 'rot3': 2, 'rot2': 2, 'depth': 0.241, 'yaw': -12.22, 'datetime': '2018-12-12 14:23:59.930469', 'mgs': 0, 'flw2': 2.5, 'flw1': 0.62, 'flw0': 0.65, 'time': 38.85, 'compass': -29.02, 'pitch': -0.43, 'roll': 2.82}
{'lipoC2': 7.47, 'temp': 0.0, 'lipoC3S3': 11.27, 'state': 'normal', 'rot1': 347, 'rot0': 333, 'rot3': 2, 'rot2': 2, 'depth': -0.522, 'yaw': -7.9, 'datetime': '2018-12-12 14:24:00.137313', 'mgs': 0, 'flw2': 0.0, 'flw1': 0.03, 'flw0': 0.0, 'time': 39.05, 'compass': -24.7, 'pitch': -0.16, 'roll': 3.04}
{'lipoC2': 7.48, 'temp': 0.0, 'lipoC3S3': 11.32, 'state': 'normal', 'rot1': 347, 'rot0': 334, 'rot3': 2, 'rot2': 2, 'depth': 1.233, 'yaw': -4.44, 'datetime': '2018-12-12 14:24:00.341607', 'mgs': 0, 'flw2': 0.63, 'flw1': 0.0, 'flw0': 0.65, 'time': 39.26, 'compass': -21.24, 'pitch': -1.48, 'roll': 2.31}
{'lipoC2': 7.25, 'temp': 0.0, 'lipoC3S3': 11.36, 'state': 'normal', 'rot1': 349, 'rot0': 335, 'rot3': 2, 'rot2': 2, 'depth': -1.59, 'yaw': -2.39, 'datetime': '2018-12-12 14:24:00.551173', 'mgs': 0, 'flw2': 0.31, 'flw1': 0.56, 'flw0': 0.26, 'time': 39.47, 'compass': -19.19, 'pitch': -2.64, 'roll': 1.18}
{'lipoC2': 7.3, 'temp': 0.0, 'lipoC3S3': 11.55, 'state': 'normal', 'rot1': 350, 'rot0': 336, 'rot3': 2, 'rot2': 2, 'depth': 1.996, 'yaw': -1.44, 'datetime': '2018-12-12 14:24:00.759586', 'mgs': 0, 'flw2': 0.85, 'flw1': 0.0, 'flw0': 0.73, 'time': 39.68, 'compass': -18.23, 'pitch': -2.64, 'roll': 0.14}
{'lipoC2': 7.3, 'temp': 0.0, 'lipoC3S3': 11.52, 'state': 'normal', 'rot1': 352, 'rot0': 338, 'rot3': 2, 'rot2': 2, 'depth': -0.446, 'yaw': -1.48, 'datetime': '2018-12-12 14:24:00.974529', 'mgs': 0, 'flw2': 0.38, 'flw1': 0.0, 'flw0': 0.35, 'time': 39.89, 'compass': -18.28, 'pitch': -1.94, 'roll': -0.02}
{'lipoC2': 7.28, 'temp': 0.0, 'lipoC3S3': 11.3, 'state': 'normal', 'rot1': 354, 'rot0': 339, 'rot3': 2, 'rot2': 2, 'depth': -0.674, 'yaw': -2.17, 'datetime': '2018-12-12 14:24:01.178342', 'mgs': 0, 'flw2': 0.76, 'flw1': 0.03, 'flw0': 0.59, 'time': 40.1, 'compass': -18.97, 'pitch': -1.82, 'roll': 0.36}
{'lipoC2': 7.33, 'temp': 0.0, 'lipoC3S3': 11.63, 'state': 'normal', 'rot1': 355, 'rot0': 340, 'rot3': 2, 'rot2': 2, 'depth': 1.309, 'yaw': -3.44, 'datetime': '2018-12-12 14:24:01.387828', 'mgs': 0, 'flw2': 0.34, 'flw1': 0.0, 'flw0': 0.57, 'time': 40.31, 'compass': -20.24, 'pitch': -2.44, 'roll': 0.87}
{'lipoC2': 7.54, 'temp': 0.0, 'lipoC3S3': 11.44, 'state': 'normal', 'rot1': 356, 'rot0': 341, 'rot3': 2, 'rot2': 2, 'depth': -1.437, 'yaw': -5.21, 'datetime': '2018-12-12 14:24:01.596130', 'mgs': 0, 'flw2': 0.09, 'flw1': 0.35, 'flw0': 0.28, 'time': 40.52, 'compass': -22.01, 'pitch': -2.87, 'roll': 1.04}
{'lipoC2': 7.35, 'temp': 0.0, 'lipoC3S3': 11.3, 'state': 'normal', 'rot1': 358, 'rot0': 342, 'rot3': 2, 'rot2': 2, 'depth': 1.004, 'yaw': -7.39, 'datetime': '2018-12-12 14:24:01.811941', 'mgs': 0, 'flw2': 0.56, 'flw1': 0.0, 'flw0': 0.54, 'time': 40.73, 'compass': -24.19, 'pitch': -2.45, 'roll': 0.86}
{'lipoC2': 7.23, 'temp': 0.0, 'lipoC3S3': 11.4, 'state': 'normal', 'rot1': 358, 'rot0': 343, 'rot3': 2, 'rot2': 2, 'depth': -0.903, 'yaw': -9.76, 'datetime': '2018-12-12 14:24:02.021388', 'mgs': 0, 'flw2': 0.27, 'flw1': 0.56, 'flw0': 0.23, 'time': 40.93, 'compass': -26.56, 'pitch': -1.89, 'roll': 0.65}
{'lipoC2': 7.39, 'temp': 0.0, 'lipoC3S3': 11.17, 'state': 'normal', 'rot1': 359, 'rot0': 344, 'rot3': 2, 'rot2': 2, 'depth': -0.14, 'yaw': -12.15, 'datetime': '2018-12-12 14:24:02.231709', 'mgs': 0, 'flw2': 0.21, 'flw1': 0.0, 'flw0': 0.26, 'time': 41.14, 'compass': -28.95, 'pitch': -1.85, 'roll': 0.27}
{'lipoC2': 7.52, 'temp': 0.0, 'lipoC3S3': 11.17, 'state': 'normal', 'rot1': 360, 'rot0': 345, 'rot3': 2, 'rot2': 2, 'depth': -1.666, 'yaw': -14.81, 'datetime': '2018-12-12 14:24:02.441214', 'mgs': 0, 'flw2': 0.07, 'flw1': 0.0, 'flw0': 0.09, 'time': 41.35, 'compass': -31.61, 'pitch': -2.26, 'roll': -0.2}
{'lipoC2': 7.32, 'temp': 0.0, 'lipoC3S3': 11.61, 'state': 'normal', 'rot1': 361, 'rot0': 346, 'rot3': 2, 'rot2': 2, 'depth': 1.691, 'yaw': -17.68, 'datetime': '2018-12-12 14:24:02.649516', 'mgs': 0, 'flw2': 0.06, 'flw1': 0.0, 'flw0': 0.57, 'time': 41.56, 'compass': -34.47, 'pitch': -2.42, 'roll': -0.33}
{'lipoC2': 7.48, 'temp': 0.0, 'lipoC3S3': 11.11, 'state': 'normal', 'rot1': 363, 'rot0': 347, 'rot3': 2, 'rot2': 2, 'depth': 0.317, 'yaw': -20.88, 'datetime': '2018-12-12 14:24:02.859181', 'mgs': 0, 'flw2': 0.35, 'flw1': 0.0, 'flw0': 0.23, 'time': 41.77, 'compass': -37.68, 'pitch': -2.37, 'roll': 0.01}
{'lipoC2': 7.26, 'temp': 0.0, 'lipoC3S3': 11.48, 'state': 'normal', 'rot1': 364, 'rot0': 348, 'rot3': 2, 'rot2': 2, 'depth': -0.751, 'yaw': -24.35, 'datetime': '2018-12-12 14:24:03.067213', 'mgs': 0, 'flw2': 0.28, 'flw1': 0.18, 'flw0': 0.28, 'time': 41.98, 'compass': -41.15, 'pitch': -2.6, 'roll': 0.58}
{'lipoC2': 7.35, 'temp': 0.0, 'lipoC3S3': 11.3, 'state': 'normal', 'rot1': 365, 'rot0': 349, 'rot3': 2, 'rot2': 2, 'depth': 0.928, 'yaw': -27.87, 'datetime': '2018-12-12 14:24:03.279641', 'mgs': 0, 'flw2': 0.46, 'flw1': 0.0, 'flw0': 0.34, 'time': 42.19, 'compass': -44.67, 'pitch': -2.8, 'roll': 0.79}
{'lipoC2': 7.3, 'temp': 0.0, 'lipoC3S3': 11.4, 'state': 'normal', 'rot1': 366, 'rot0': 350, 'rot3': 2, 'rot2': 2, 'depth': -0.369, 'yaw': -31.77, 'datetime': '2018-12-12 14:24:03.488927', 'mgs': 0, 'flw2': 0.55, 'flw1': 0.0, 'flw0': 0.57, 'time': 42.4, 'compass': -48.57, 'pitch': -2.4, 'roll': 0.46}
{'lipoC2': 7.54, 'temp': 0.0, 'lipoC3S3': 11.35, 'state': 'normal', 'rot1': 366, 'rot0': 350, 'rot3': 2, 'rot2': 2, 'depth': -1.514, 'yaw': -35.59, 'datetime': '2018-12-12 14:24:03.700038', 'mgs': 0, 'flw2': 0.0, 'flw1': 0.47, 'flw0': 0.0, 'time': 42.61, 'compass': -52.39, 'pitch': -1.74, 'roll': -0.1}
{'lipoC2': 7.3, 'temp': 0.0, 'lipoC3S3': 11.52, 'state': 'normal', 'rot1': 366, 'rot0': 351, 'rot3': 2, 'rot2': 2, 'depth': -0.369, 'yaw': -38.86, 'datetime': '2018-12-12 14:24:03.906552', 'mgs': 0, 'flw2': 3.17, 'flw1': 0.0, 'flw0': 1.14, 'time': 42.82, 'compass': -55.65, 'pitch': -1.84, 'roll': -0.43}
