{'lipoC2': 7.26, 'temp': 0.0, 'lipoC3S3': 11.22, 'state': 'normal', 'rot1': 0, 'rot0': 0, 'rot3': 0, 'rot2': 0, 'depth': -0.522, 'yaw': 0.0, 'datetime': '2018-12-12 14:35:41.815656', 'mgs': 0, 'flw2': 0.35, 'flw1': 0.0, 'flw0': 0.28, 'time': 1.25, 'compass': -129.92, 'pitch': -3.99, 'roll': 0.86}
{'lipoC2': 7.14, 'temp': 0.0, 'lipoC3S3': 11.23, 'state': 'normal', 'rot1': 0, 'rot0': 0, 'rot3': 0, 'rot2': 0, 'depth': -0.369, 'yaw': -0.51, 'datetime': '2018-12-12 14:35:42.024825', 'mgs': 0, 'flw2': 0.0, 'flw1': 0.53, 'flw0': 0.0, 'time': 1.46, 'compass': -130.43, 'pitch': -3.85, 'roll': 1.03}
{'lipoC2': 7.47, 'temp': 0.0, 'lipoC3S3': 11.23, 'state': 'normal', 'rot1': 0, 'rot0': 0, 'rot3': 0, 'rot2': 0, 'depth': -1.59, 'yaw': -1.13, 'datetime': '2018-12-12 14:35:42.233778', 'mgs': 0, 'flw2': 0.0, 'flw1': 0.0, 'flw0': 0.0, 'time': 1.67, 'compass': -131.05, 'pitch': -3.86, 'roll': 1.16}
{'lipoC2': 7.32, 'temp': 0.0, 'lipoC3S3': 11.56, 'state': 'normal', 'rot1': 0, 'rot0': 0, 'rot3': 0, 'rot2': 0, 'depth': -1.132, 'yaw': -1.82, 'datetime': '2018-12-12 14:35:42.443230', 'mgs': 0, 'flw2': 0.0, 'flw1': 0.0, 'flw0': 0.0, 'time': 1.88, 'compass': -131.74, 'pitch': -3.87, 'roll': 1.11}
{'lipoC2': 7.14, 'temp': 0.0, 'lipoC3S3': 11.3, 'state': 'normal', 'rot1': 0, 'rot0': 0, 'rot3': 0, 'rot2': 0, 'depth': 1.538, 'yaw': -2.49, 'datetime': '2018-12-12 14:35:42.651310', 'mgs': 0, 'flw2': 0.22, 'flw1': 0.0, 'flw0': 0.29, 'time': 2.09, 'compass': -132.41, 'pitch': -4.11, 'roll': 0.97}
{'lipoC2': 7.15, 'temp': 0.0, 'lipoC3S3': 11.23, 'state': 'normal', 'rot1': 0, 'rot0': 0, 'rot3': 0, 'rot2': 0, 'depth': 0.699, 'yaw': -3.16, 'datetime': '2018-12-12 14:35:42.858137', 'mgs': 0, 'flw2': 0.23, 'flw1': 0.0, 'flw0': 0.0, 'time': 2.3, 'compass': -133.08, 'pitch': -4.36, 'roll': 0.96}
{'lipoC2': 7.12, 'temp': 0.0, 'lipoC3S3': 11.21, 'state': 'normal', 'rot1': 0, 'rot0': 0, 'rot3': 0, 'rot2': 0, 'depth': -0.522, 'yaw': -3.76, 'datetime': '2018-12-12 14:35:43.067064', 'mgs': 0, 'flw2': 0.0, 'flw1': 0.56, 'flw0': 0.0, 'time': 2.5, 'compass': -133.68, 'pitch': -4.32, 'roll': 1.07}
{'lipoC2': 7.22, 'temp': 0.0, 'lipoC3S3': 11.34, 'state': 'normal', 'rot1': 0, 'rot0': 0, 'rot3': 0, 'rot2': 0, 'depth': 0.012, 'yaw': -4.4, 'datetime': '2018-12-12 14:35:43.271228', 'mgs': 0, 'flw2': 0.01, 'flw1': 0.0, 'flw0': 0.0, 'time': 2.71, 'compass': -134.32, 'pitch': -3.99, 'roll': 1.23}
{'lipoC2': 7.5, 'temp': 0.0, 'lipoC3S3': 11.07, 'state': 'normal', 'rot1': 0, 'rot0': 0, 'rot3': 0, 'rot2': 0, 'depth': -1.285, 'yaw': -5.03, 'datetime': '2018-12-12 14:35:43.481105', 'mgs': 0, 'flw2': 0.04, 'flw1': 0.0, 'flw0': 0.0, 'time': 2.92, 'compass': -134.95, 'pitch': -3.87, 'roll': 1.32}
{'lipoC2': 7.24, 'temp': 0.0, 'lipoC3S3': 11.43, 'state': 'normal', 'rot1': 0, 'rot0': 0, 'rot3': 0, 'rot2': 0, 'depth': -0.522, 'yaw': -5.63, 'datetime': '2018-12-12 14:35:43.688651', 'mgs': 0, 'flw2': 0.09, 'flw1': 0.0, 'flw0': 0.2, 'time': 3.13, 'compass': -135.55, 'pitch': -4.16, 'roll': 1.28}
{'lipoC2': 7.26, 'temp': 0.0, 'lipoC3S3': 11.26, 'state': 'normal', 'rot1': 0, 'rot0': 0, 'rot3': 0, 'rot2': 0, 'depth': -1.895, 'yaw': -6.26, 'datetime': '2018-12-12 14:35:43.897378', 'mgs': 0, 'flw2': 0.0, 'flw1': 0.0, 'flw0': 0.23, 'time': 3.34, 'compass': -136.18, 'pitch': -4.63, 'roll': 1.23}
{'lipoC2': 7.18, 'temp': 0.0, 'lipoC3S3': 11.27, 'state': 'normal', 'rot1': 0, 'rot0': 0, 'rot3': 0, 'rot2': 0, 'depth': 1.08, 'yaw': -6.94, 'datetime': '2018-12-12 14:35:44.106317', 'mgs': 0, 'flw2': 0.0, 'flw1': 0.0, 'flw0': 0.0, 'time': 3.55, 'compass': -136.86, 'pitch': -4.8, 'roll': 1.13}
{'lipoC2': 7.25, 'temp': 0.0, 'lipoC3S3': 11.14, 'state': 'normal', 'rot1': 0, 'rot0': 0, 'rot3': 0, 'rot2': 0, 'depth': 0.241, 'yaw': -7.62, 'datetime': '2018-12-12 14:35:44.315415', 'mgs': 0, 'flw2': 0.2, 'flw1': 0.0, 'flw0': 0.0, 'time': 3.75, 'compass': -137.54, 'pitch': -4.56, 'roll': 0.93}
{'lipoC2': 7.23, 'temp': 0.0, 'lipoC3S3': 11.19, 'state': 'normal', 'rot1': 0, 'rot0': 0, 'rot3': 0, 'rot2': 0, 'depth': -0.446, 'yaw': -8.26, 'datetime': '2018-12-12 14:35:44.521331', 'mgs': 0, 'flw2': 0.0, 'flw1': 0.0, 'flw0': 0.28, 'time': 3.96, 'compass': -138.18, 'pitch': -4.24, 'roll': 0.89}
{'lipoC2': 7.34, 'temp': 0.0, 'lipoC3S3': 11.27, 'state': 'normal', 'rot1': 0, 'rot0': 0, 'rot3': 0, 'rot2': 0, 'depth': -1.208, 'yaw': -8.93, 'datetime': '2018-12-12 14:35:44.729670', 'mgs': 0, 'flw2': 0.1, 'flw1': 0.0, 'flw0': 0.01, 'time': 4.17, 'compass': -138.85, 'pitch': -4.14, 'roll': 1.11}
{'lipoC2': 7.28, 'temp': 0.0, 'lipoC3S3': 11.17, 'state': 'normal', 'rot1': 0, 'rot0': 0, 'rot3': 0, 'rot2': 0, 'depth': 0.775, 'yaw': -9.58, 'datetime': '2018-12-12 14:35:44.940641', 'mgs': 0, 'flw2': 0.0, 'flw1': 0.5, 'flw0': 0.0, 'time': 4.38, 'compass': -139.5, 'pitch': -4.41, 'roll': 1.48}
{'lipoC2': 7.33, 'temp': 0.0, 'lipoC3S3': 11.21, 'state': 'normal', 'rot1': 0, 'rot0': 0, 'rot3': 0, 'rot2': 0, 'depth': -1.514, 'yaw': -10.27, 'datetime': '2018-12-12 14:35:45.152037', 'mgs': 0, 'flw2': 0.2, 'flw1': 0.0, 'flw0': 0.18, 'time': 4.59, 'compass': -140.19, 'pitch': -4.96, 'roll': 1.8}
{'lipoC2': 7.15, 'temp': 0.0, 'lipoC3S3': 11.56, 'state': 'normal', 'rot1': 0, 'rot0': 0, 'rot3': 0, 'rot2': 0, 'depth': 0.47, 'yaw': -10.96, 'datetime': '2018-12-12 14:35:45.357226', 'mgs': 0, 'flw2': 0.0, 'flw1': 0.0, 'flw0': 0.17, 'time': 4.79, 'compass': -140.88, 'pitch': -5.15, 'roll': 1.82}
{'lipoC2': 7.27, 'temp': 0.0, 'lipoC3S3': 11.22, 'state': 'normal', 'rot1': 0, 'rot0': 0, 'rot3': 0, 'rot2': 0, 'depth': -0.293, 'yaw': -11.76, 'datetime': '2018-12-12 14:35:45.563952', 'mgs': 0, 'flw2': 0.0, 'flw1': 0.03, 'flw0': 0.0, 'time': 5.0, 'compass': -141.68, 'pitch': -4.96, 'roll': 1.32}
{'lipoC2': 7.22, 'temp': 0.0, 'lipoC3S3': 11.58, 'state': 'normal', 'rot1': 0, 'rot0': 0, 'rot3': 0, 'rot2': 0, 'depth': -0.446, 'yaw': -12.61, 'datetime': '2018-12-12 14:35:45.771708', 'mgs': 0, 'flw2': 0.2, 'flw1': 0.0, 'flw0': 0.0, 'time': 5.21, 'compass': -142.53, 'pitch': -4.72, 'roll': 0.71}
{'lipoC2': 7.29, 'temp': 0.0, 'lipoC3S3': 11.3, 'state': 'normal', 'rot1': 0, 'rot0': 0, 'rot3': 0, 'rot2': 0, 'depth': -1.59, 'yaw': -13.41, 'datetime': '2018-12-12 14:35:45.979320', 'mgs': 0, 'flw2': 0.0, 'flw1': 0.06, 'flw0': 0.0, 'time': 5.42, 'compass': -143.33, 'pitch': -4.7, 'roll': 0.56}
{'lipoC2': 7.14, 'temp': 0.0, 'lipoC3S3': 11.23, 'state': 'normal', 'rot1': 0, 'rot0': 0, 'rot3': 0, 'rot2': 0, 'depth': 1.462, 'yaw': -14.31, 'datetime': '2018-12-12 14:35:46.186241', 'mgs': 0, 'flw2': 0.0, 'flw1': 0.0, 'flw0': 0.0, 'time': 5.62, 'compass': -144.23, 'pitch': -4.93, 'roll': 1.11}
{'lipoC2': 7.27, 'temp': 0.0, 'lipoC3S3': 11.32, 'state': 'normal', 'rot1': 0, 'rot0': 0, 'rot3': 0, 'rot2': 0, 'depth': -0.293, 'yaw': -15.19, 'datetime': '2018-12-12 14:35:46.395849', 'mgs': 0, 'flw2': 0.23, 'flw1': 0.0, 'flw0': 0.07, 'time': 5.83, 'compass': -145.11, 'pitch': -5.41, 'roll': 1.89}
{'lipoC2': 7.58, 'temp': 0.0, 'lipoC3S3': 11.29, 'state': 'normal', 'rot1': 0, 'rot0': 0, 'rot3': 0, 'rot2': 0, 'depth': -1.056, 'yaw': -16.06, 'datetime': '2018-12-12 14:35:46.604200', 'mgs': 0, 'flw2': 0.0, 'flw1': 0.38, 'flw0': 0.0, 'time': 6.04, 'compass': -145.98, 'pitch': -5.56, 'roll': 2.11}
{'lipoC2': 7.36, 'temp': 0.0, 'lipoC3S3': 11.29, 'state': 'normal', 'rot1': 0, 'rot0': 0, 'rot3': 0, 'rot2': 0, 'depth': -1.285, 'yaw': -16.91, 'datetime': '2018-12-12 14:35:46.816012', 'mgs': 0, 'flw2': 0.0, 'flw1': 0.67, 'flw0': 0.0, 'time': 6.25, 'compass': -146.83, 'pitch': -5.08, 'roll': 1.68}
{'lipoC2': 7.34, 'temp': 0.0, 'lipoC3S3': 11.06, 'state': 'normal', 'rot1': 0, 'rot0': 0, 'rot3': 0, 'rot2': 0, 'depth': 1.309, 'yaw': -17.76, 'datetime': '2018-12-12 14:35:47.024815', 'mgs': 0, 'flw2': 0.0, 'flw1': 0.0, 'flw0': 0.1, 'time': 6.46, 'compass': -147.68, 'pitch': -4.51, 'roll': 1.01}
{'lipoC2': 7.14, 'temp': 0.0, 'lipoC3S3': 11.19, 'state': 'normal', 'rot1': 0, 'rot0': 0, 'rot3': 0, 'rot2': 0, 'depth': -0.064, 'yaw': -18.6, 'datetime': '2018-12-12 14:35:47.232004', 'mgs': 0, 'flw2': 0.0, 'flw1': 0.79, 'flw0': 0.0, 'time': 6.66, 'compass': -148.52, 'pitch': -4.48, 'roll': 0.46}
{'lipoC2': 7.21, 'temp': 0.0, 'lipoC3S3': 11.51, 'state': 'normal', 'rot1': 0, 'rot0': 0, 'rot3': 0, 'rot2': 0, 'depth': -0.446, 'yaw': -19.52, 'datetime': '2018-12-12 14:35:47.436530', 'mgs': 0, 'flw2': 0.17, 'flw1': 0.0, 'flw0': 0.0, 'time': 6.87, 'compass': -149.44, 'pitch': -5.14, 'roll': 0.48}
{'lipoC2': 7.35, 'temp': 0.0, 'lipoC3S3': 11.59, 'state': 'normal', 'rot1': 0, 'rot0': 0, 'rot3': 0, 'rot2': 0, 'depth': -1.59, 'yaw': -20.59, 'datetime': '2018-12-12 14:35:47.645254', 'mgs': 0, 'flw2': 0.22, 'flw1': 0.09, 'flw0': 0.18, 'time': 7.08, 'compass': -150.52, 'pitch': -5.93, 'roll': 0.93}
{'lipoC2': 7.29, 'temp': 0.0, 'lipoC3S3': 11.55, 'state': 'normal', 'rot1': 0, 'rot0': 0, 'rot3': 0, 'rot2': 0, 'depth': -0.98, 'yaw': -21.75, 'datetime': '2018-12-12 14:35:47.853725', 'mgs': 0, 'flw2': 0.02, 'flw1': 0.0, 'flw0': 0.57, 'time': 7.29, 'compass': -151.67, 'pitch': -5.98, 'roll': 1.41}
{'lipoC2': 7.13, 'temp': 0.0, 'lipoC3S3': 11.09, 'state': 'normal', 'rot1': 1, 'rot0': 0, 'rot3': 0, 'rot2': 0, 'depth': 1.538, 'yaw': -23.4, 'datetime': '2018-12-12 14:35:48.063082', 'mgs': 0, 'flw2': 0.21, 'flw1': 0.0, 'flw0': 4.04, 'time': 7.5, 'compass': -153.32, 'pitch': -5.05, 'roll': 1.45}
{'lipoC2': 7.26, 'temp': 0.0, 'lipoC3S3': 11.27, 'state': 'normal', 'rot1': 4, 'rot0': 0, 'rot3': 0, 'rot2': 0, 'depth': -0.751, 'yaw': -28.31, 'datetime': '2018-12-12 14:35:48.272754', 'mgs': 0, 'flw2': 0.0, 'flw1': 0.0, 'flw0': 6.95, 'time': 7.71, 'compass': -158.23, 'pitch': -3.15, 'roll': 0.16}
{'lipoC2': 7.33, 'temp': 0.0, 'lipoC3S3': 10.88, 'state': 'normal', 'rot1': 8, 'rot0': 0, 'rot3': 0, 'rot2': 0, 'depth': -1.056, 'yaw': -38.0, 'datetime': '2018-12-12 14:35:48.480170', 'mgs': 0, 'flw2': 0.0, 'flw1': 0.21, 'flw0': 6.53, 'time': 7.91, 'compass': -167.93, 'pitch': -1.32, 'roll': -2.26}
{'lipoC2': 7.25, 'temp': 0.0, 'lipoC3S3': 11.05, 'state': 'normal', 'rot1': 11, 'rot0': 0, 'rot3': 0, 'rot2': 0, 'depth': 1.691, 'yaw': -50.77, 'datetime': '2018-12-12 14:35:48.689005', 'mgs': 0, 'flw2': 3.23, 'flw1': 0.12, 'flw0': 6.62, 'time': 8.12, 'compass': 179.31, 'pitch': -0.68, 'roll': -4.4}
{'lipoC2': 7.33, 'temp': 0.0, 'lipoC3S3': 11.02, 'state': 'normal', 'rot1': 14, 'rot0': 3, 'rot3': 0, 'rot2': 0, 'depth': 1.538, 'yaw': -62.26, 'datetime': '2018-12-12 14:35:48.896900', 'mgs': 0, 'flw2': 2.82, 'flw1': 0.0, 'flw0': 2.01, 'time': 8.33, 'compass': 167.82, 'pitch': 0.3, 'roll': -5.47}
{'lipoC2': 7.24, 'temp': 0.0, 'lipoC3S3': 11.21, 'state': 'normal', 'rot1': 16, 'rot0': 5, 'rot3': 0, 'rot2': 0, 'depth': -0.674, 'yaw': -70.71, 'datetime': '2018-12-12 14:35:49.106910', 'mgs': 0, 'flw2': 1.03, 'flw1': 0.47, 'flw0': 0.39, 'time': 8.54, 'compass': 159.37, 'pitch': 0.21, 'roll': -5.37}
{'lipoC2': 7.34, 'temp': 0.0, 'lipoC3S3': 11.39, 'state': 'normal', 'rot1': 17, 'rot0': 6, 'rot3': 0, 'rot2': 0, 'depth': -1.208, 'yaw': -76.35, 'datetime': '2018-12-12 14:35:49.314439', 'mgs': 0, 'flw2': 1.99, 'flw1': 0.0, 'flw0': 0.38, 'time': 8.75, 'compass': 153.73, 'pitch': -2.51, 'roll': -4.35}
{'lipoC2': 7.27, 'temp': 0.0, 'lipoC3S3': 11.51, 'state': 'normal', 'rot1': 18, 'rot0': 8, 'rot3': 0, 'rot2': 0, 'depth': -0.522, 'yaw': -79.85, 'datetime': '2018-12-12 14:35:49.524245', 'mgs': 0, 'flw2': 2.09, 'flw1': 0.0, 'flw0': 0.98, 'time': 8.96, 'compass': 150.23, 'pitch': -3.67, 'roll': -3.6}
{'lipoC2': 7.14, 'temp': 0.0, 'lipoC3S3': 11.11, 'state': 'normal', 'rot1': 20, 'rot0': 10, 'rot3': 0, 'rot2': 0, 'depth': 0.012, 'yaw': -81.9, 'datetime': '2018-12-12 14:35:49.733085', 'mgs': 0, 'flw2': 1.94, 'flw1': 0.32, 'flw0': 1.1, 'time': 9.16, 'compass': 148.18, 'pitch': -2.57, 'roll': -3.56}
{'lipoC2': 7.28, 'temp': 0.0, 'lipoC3S3': 11.01, 'state': 'normal', 'rot1': 22, 'rot0': 12, 'rot3': 0, 'rot2': 0, 'depth': 0.699, 'yaw': -83.28, 'datetime': '2018-12-12 14:35:49.942305', 'mgs': 0, 'flw2': 2.61, 'flw1': 0.0, 'flw0': 1.53, 'time': 9.37, 'compass': 146.8, 'pitch': -1.52, 'roll': -3.97}
{'lipoC2': 7.35, 'temp': 0.0, 'lipoC3S3': 11.07, 'state': 'normal', 'rot1': 23, 'rot0': 15, 'rot3': 0, 'rot2': 0, 'depth': 2.301, 'yaw': -84.25, 'datetime': '2018-12-12 14:35:50.150334', 'mgs': 0, 'flw2': 3.78, 'flw1': 0.18, 'flw0': 1.7, 'time': 9.58, 'compass': 145.83, 'pitch': -1.64, 'roll': -4.25}
{'lipoC2': 7.33, 'temp': 0.0, 'lipoC3S3': 11.18, 'state': 'normal', 'rot1': 25, 'rot0': 18, 'rot3': 0, 'rot2': 0, 'depth': 1.233, 'yaw': -84.34, 'datetime': '2018-12-12 14:35:50.359416', 'mgs': 0, 'flw2': 3.91, 'flw1': 0.0, 'flw0': 1.83, 'time': 9.79, 'compass': 145.73, 'pitch': -2.01, 'roll': -4.24}
{'lipoC2': 7.41, 'temp': 0.0, 'lipoC3S3': 11.01, 'state': 'normal', 'rot1': 27, 'rot0': 20, 'rot3': 0, 'rot2': 0, 'depth': -0.827, 'yaw': -83.66, 'datetime': '2018-12-12 14:35:50.569748', 'mgs': 0, 'flw2': 4.43, 'flw1': 0.0, 'flw0': 2.37, 'time': 10.0, 'compass': 146.41, 'pitch': -1.58, 'roll': -3.87}
{'lipoC2': 7.5, 'temp': 0.0, 'lipoC3S3': 11.05, 'state': 'normal', 'rot1': 29, 'rot0': 23, 'rot3': 0, 'rot2': 0, 'depth': -1.285, 'yaw': -82.18, 'datetime': '2018-12-12 14:35:50.778705', 'mgs': 0, 'flw2': 5.05, 'flw1': 0.0, 'flw0': 2.66, 'time': 10.21, 'compass': 147.9, 'pitch': -0.41, 'roll': -3.14}
{'lipoC2': 7.3, 'temp': 0.0, 'lipoC3S3': 11.51, 'state': 'normal', 'rot1': 32, 'rot0': 26, 'rot3': 0, 'rot2': 0, 'depth': -0.369, 'yaw': -80.42, 'datetime': '2018-12-12 14:35:50.989492', 'mgs': 0, 'flw2': 2.08, 'flw1': 0.0, 'flw0': 3.69, 'time': 10.42, 'compass': 149.66, 'pitch': 0.13, 'roll': -2.63}
{'lipoC2': 7.29, 'temp': 0.0, 'lipoC3S3': 11.09, 'state': 'normal', 'rot1': 34, 'rot0': 28, 'rot3': 0, 'rot2': 0, 'depth': 0.012, 'yaw': -80.2, 'datetime': '2018-12-12 14:35:51.198701', 'mgs': 0, 'flw2': 0.72, 'flw1': 0.0, 'flw0': 3.97, 'time': 10.63, 'compass': 149.88, 'pitch': -0.95, 'roll': -2.8}
{'lipoC2': 7.24, 'temp': 0.0, 'lipoC3S3': 11.06, 'state': 'normal', 'rot1': 37, 'rot0': 29, 'rot3': 0, 'rot2': 0, 'depth': 0.928, 'yaw': -82.67, 'datetime': '2018-12-12 14:35:51.406644', 'mgs': 0, 'flw2': 0.84, 'flw1': 0.09, 'flw0': 4.61, 'time': 10.84, 'compass': 147.41, 'pitch': -2.34, 'roll': -3.8}
{'lipoC2': 7.21, 'temp': 0.0, 'lipoC3S3': 11.38, 'state': 'normal', 'rot1': 40, 'rot0': 31, 'rot3': 0, 'rot2': 0, 'depth': -0.064, 'yaw': -86.9, 'datetime': '2018-12-12 14:35:51.616017', 'mgs': 0, 'flw2': 2.54, 'flw1': 0.85, 'flw0': 4.53, 'time': 11.04, 'compass': 143.18, 'pitch': -1.91, 'roll': -4.75}
{'lipoC2': 7.38, 'temp': 0.0, 'lipoC3S3': 11.07, 'state': 'normal', 'rot1': 43, 'rot0': 33, 'rot3': 0, 'rot2': 0, 'depth': -0.064, 'yaw': -90.88, 'datetime': '2018-12-12 14:35:51.824641', 'mgs': 0, 'flw2': 2.73, 'flw1': 0.53, 'flw0': 4.42, 'time': 11.25, 'compass': 139.19, 'pitch': -0.02, 'roll': -5.03}
{'lipoC2': 7.27, 'temp': 0.0, 'lipoC3S3': 11.18, 'state': 'normal', 'rot1': 46, 'rot0': 35, 'rot3': 0, 'rot2': 0, 'depth': -0.674, 'yaw': -94.37, 'datetime': '2018-12-12 14:35:52.035154', 'mgs': 0, 'flw2': 3.42, 'flw1': 0.53, 'flw0': 4.53, 'time': 11.46, 'compass': 135.71, 'pitch': 1.31, 'roll': -5.05}
{'lipoC2': 7.13, 'temp': 0.0, 'lipoC3S3': 11.38, 'state': 'normal', 'rot1': 48, 'rot0': 38, 'rot3': 0, 'rot2': 0, 'depth': 1.92, 'yaw': -97.56, 'datetime': '2018-12-12 14:35:52.244449', 'mgs': 0, 'flw2': 3.96, 'flw1': 0.0, 'flw0': 4.65, 'time': 11.67, 'compass': 132.52, 'pitch': 1.5, 'roll': -4.95}
{'lipoC2': 7.26, 'temp': 0.0, 'lipoC3S3': 11.21, 'state': 'normal', 'rot1': 51, 'rot0': 41, 'rot3': 0, 'rot2': 0, 'depth': -0.369, 'yaw': -100.32, 'datetime': '2018-12-12 14:35:52.454088', 'mgs': 0, 'flw2': 4.57, 'flw1': 0.0, 'flw0': 3.72, 'time': 11.88, 'compass': 129.76, 'pitch': 0.97, 'roll': -4.82}
{'lipoC2': 7.14, 'temp': 0.0, 'lipoC3S3': 11.42, 'state': 'normal', 'rot1': 54, 'rot0': 43, 'rot3': 0, 'rot2': 0, 'depth': -0.674, 'yaw': -101.98, 'datetime': '2018-12-12 14:35:52.662712', 'mgs': 0, 'flw2': 4.68, 'flw1': 0.0, 'flw0': 2.71, 'time': 12.09, 'compass': 128.1, 'pitch': 0.36, 'roll': -4.59}
{'lipoC2': 7.26, 'temp': 0.0, 'lipoC3S3': 11.22, 'state': 'normal', 'rot1': 56, 'rot0': 46, 'rot3': 0, 'rot2': 0, 'depth': -0.446, 'yaw': -102.34, 'datetime': '2018-12-12 14:35:52.870817', 'mgs': 0, 'flw2': 4.65, 'flw1': 0.0, 'flw0': 2.73, 'time': 12.3, 'compass': 127.74, 'pitch': 0.04, 'roll': -4.35}
{'lipoC2': 7.18, 'temp': 0.0, 'lipoC3S3': 10.98, 'state': 'normal', 'rot1': 58, 'rot0': 49, 'rot3': 0, 'rot2': 0, 'depth': -0.369, 'yaw': -101.69, 'datetime': '2018-12-12 14:35:53.080245', 'mgs': 0, 'flw2': 4.8, 'flw1': 0.47, 'flw0': 2.69, 'time': 12.51, 'compass': 128.39, 'pitch': 0.08, 'roll': -4.31}
{'lipoC2': 7.3, 'temp': 0.0, 'lipoC3S3': 10.92, 'state': 'normal', 'rot1': 60, 'rot0': 52, 'rot3': 0, 'rot2': 0, 'depth': -1.361, 'yaw': -100.22, 'datetime': '2018-12-12 14:35:53.291249', 'mgs': 0, 'flw2': 4.72, 'flw1': 0.18, 'flw0': 2.69, 'time': 12.72, 'compass': 129.86, 'pitch': 0.13, 'roll': -3.93}
{'lipoC2': 7.12, 'temp': 0.0, 'lipoC3S3': 11.48, 'state': 'normal', 'rot1': 62, 'rot0': 55, 'rot3': 0, 'rot2': 0, 'depth': 0.241, 'yaw': -98.43, 'datetime': '2018-12-12 14:35:53.501487', 'mgs': 0, 'flw2': 4.88, 'flw1': 0.64, 'flw0': 2.66, 'time': 12.93, 'compass': 131.65, 'pitch': -0.0, 'roll': -3.46}
{'lipoC2': 7.11, 'temp': 0.0, 'lipoC3S3': 11.48, 'state': 'normal', 'rot1': 64, 'rot0': 59, 'rot3': 0, 'rot2': 0, 'depth': -0.369, 'yaw': -96.42, 'datetime': '2018-12-12 14:35:53.709553', 'mgs': 0, 'flw2': 4.81, 'flw1': 0.18, 'flw0': 2.72, 'time': 13.14, 'compass': 133.66, 'pitch': -0.1, 'roll': -3.06}
{'lipoC2': 7.36, 'temp': 0.0, 'lipoC3S3': 11.25, 'state': 'normal', 'rot1': 67, 'rot0': 61, 'rot3': 0, 'rot2': 0, 'depth': 0.623, 'yaw': -94.25, 'datetime': '2018-12-12 14:35:53.918689', 'mgs': 0, 'flw2': 4.86, 'flw1': 0.0, 'flw0': 2.91, 'time': 13.34, 'compass': 135.83, 'pitch': -0.07, 'roll': -2.77}
{'lipoC2': 7.28, 'temp': 0.0, 'lipoC3S3': 10.89, 'state': 'normal', 'rot1': 69, 'rot0': 65, 'rot3': 0, 'rot2': 0, 'depth': 1.996, 'yaw': -92.15, 'datetime': '2018-12-12 14:35:54.127585', 'mgs': 0, 'flw2': 4.69, 'flw1': 0.0, 'flw0': 2.76, 'time': 13.55, 'compass': 137.93, 'pitch': -0.09, 'roll': -2.62}
{'lipoC2': 7.18, 'temp': 0.0, 'lipoC3S3': 11.46, 'state': 'normal', 'rot1': 71, 'rot0': 68, 'rot3': 0, 'rot2': 0, 'depth': 0.241, 'yaw': -89.95, 'datetime': '2018-12-12 14:35:54.337684', 'mgs': 0, 'flw2': 4.97, 'flw1': 0.0, 'flw0': 3.36, 'time': 13.76, 'compass': 140.13, 'pitch': 0.2, 'roll': -2.49}
{'lipoC2': 7.24, 'temp': 0.0, 'lipoC3S3': 10.93, 'state': 'normal', 'rot1': 74, 'rot0': 71, 'rot3': 0, 'rot2': 0, 'depth': -1.285, 'yaw': -87.63, 'datetime': '2018-12-12 14:35:54.547683', 'mgs': 0, 'flw2': 5.19, 'flw1': 0.0, 'flw0': 3.36, 'time': 13.97, 'compass': 142.45, 'pitch': 0.62, 'roll': -2.05}
{'lipoC2': 7.22, 'temp': 0.0, 'lipoC3S3': 11.19, 'state': 'normal', 'rot1': 76, 'rot0': 74, 'rot3': 0, 'rot2': 0, 'depth': 0.241, 'yaw': -85.37, 'datetime': '2018-12-12 14:35:54.756186', 'mgs': 0, 'flw2': 5.38, 'flw1': 0.32, 'flw0': 3.34, 'time': 14.18, 'compass': 144.71, 'pitch': 1.05, 'roll': -1.43}
{'lipoC2': 7.35, 'temp': 0.0, 'lipoC3S3': 11.23, 'state': 'normal', 'rot1': 79, 'rot0': 77, 'rot3': 0, 'rot2': 0, 'depth': 0.394, 'yaw': -83.53, 'datetime': '2018-12-12 14:35:54.966802', 'mgs': 0, 'flw2': 2.91, 'flw1': 0.0, 'flw0': 4.13, 'time': 14.39, 'compass': 146.55, 'pitch': 1.15, 'roll': -0.68}
{'lipoC2': 7.12, 'temp': 0.0, 'lipoC3S3': 10.98, 'state': 'normal', 'rot1': 82, 'rot0': 79, 'rot3': 0, 'rot2': 0, 'depth': 1.691, 'yaw': -83.01, 'datetime': '2018-12-12 14:35:55.177720', 'mgs': 0, 'flw2': 2.71, 'flw1': 0.53, 'flw0': 4.06, 'time': 14.6, 'compass': 147.07, 'pitch': 0.41, 'roll': -0.26}
{'lipoC2': 7.12, 'temp': 0.0, 'lipoC3S3': 10.88, 'state': 'normal', 'rot1': 84, 'rot0': 81, 'rot3': 0, 'rot2': 0, 'depth': 1.767, 'yaw': -83.63, 'datetime': '2018-12-12 14:35:55.382505', 'mgs': 0, 'flw2': 2.89, 'flw1': 0.0, 'flw0': 4.47, 'time': 14.81, 'compass': 146.45, 'pitch': -0.45, 'roll': -0.47}
{'lipoC2': 7.21, 'temp': 0.0, 'lipoC3S3': 11.25, 'state': 'normal', 'rot1': 87, 'rot0': 84, 'rot3': 0, 'rot2': 0, 'depth': 0.699, 'yaw': -84.7, 'datetime': '2018-12-12 14:35:55.591959', 'mgs': 0, 'flw2': 5.24, 'flw1': 0.0, 'flw0': 4.04, 'time': 15.01, 'compass': 145.38, 'pitch': -0.96, 'roll': -1.04}
{'lipoC2': 7.41, 'temp': 0.0, 'lipoC3S3': 10.96, 'state': 'normal', 'rot1': 89, 'rot0': 87, 'rot3': 0, 'rot2': 0, 'depth': 1.92, 'yaw': -84.81, 'datetime': '2018-12-12 14:35:55.799995', 'mgs': 0, 'flw2': 5.6, 'flw1': 0.0, 'flw0': 4.14, 'time': 15.22, 'compass': 145.27, 'pitch': -0.52, 'roll': -1.36}
{'lipoC2': 7.2, 'temp': 0.0, 'lipoC3S3': 11.11, 'state': 'normal', 'rot1': 92, 'rot0': 90, 'rot3': 0, 'rot2': 0, 'depth': 2.682, 'yaw': -84.04, 'datetime': '2018-12-12 14:35:56.015531', 'mgs': 0, 'flw2': 5.16, 'flw1': 0.73, 'flw0': 4.59, 'time': 15.43, 'compass': 146.04, 'pitch': -0.1, 'roll': -1.21}
{'lipoC2': 7.28, 'temp': 0.0, 'lipoC3S3': 10.89, 'state': 'normal', 'rot1': 95, 'rot0': 93, 'rot3': 0, 'rot2': 0, 'depth': -0.217, 'yaw': -82.9, 'datetime': '2018-12-12 14:35:56.225264', 'mgs': 0, 'flw2': 5.1, 'flw1': 0.41, 'flw0': 4.25, 'time': 15.64, 'compass': 147.18, 'pitch': -0.3, 'roll': -0.78}
{'lipoC2': 7.28, 'temp': 0.0, 'lipoC3S3': 11.09, 'state': 'normal', 'rot1': 98, 'rot0': 97, 'rot3': 0, 'rot2': 0, 'depth': -0.217, 'yaw': -81.92, 'datetime': '2018-12-12 14:35:56.431969', 'mgs': 0, 'flw2': 5.22, 'flw1': 0.0, 'flw0': 4.64, 'time': 15.85, 'compass': 148.16, 'pitch': -0.67, 'roll': -0.47}
{'lipoC2': 7.51, 'temp': 0.0, 'lipoC3S3': 11.13, 'state': 'normal', 'rot1': 101, 'rot0': 100, 'rot3': 0, 'rot2': 0, 'depth': 0.089, 'yaw': -80.67, 'datetime': '2018-12-12 14:35:56.638315', 'mgs': 0, 'flw2': 5.63, 'flw1': 0.0, 'flw0': 4.64, 'time': 16.06, 'compass': 149.41, 'pitch': -0.46, 'roll': -0.37}
{'lipoC2': 7.36, 'temp': 0.0, 'lipoC3S3': 11.07, 'state': 'normal', 'rot1': 103, 'rot0': 103, 'rot3': 0, 'rot2': 0, 'depth': 0.47, 'yaw': -79.03, 'datetime': '2018-12-12 14:35:56.851916', 'mgs': 0, 'flw2': 5.29, 'flw1': 0.0, 'flw0': 4.66, 'time': 16.27, 'compass': 151.05, 'pitch': 0.11, 'roll': -0.52}
{'lipoC2': 7.38, 'temp': 0.0, 'lipoC3S3': 11.1, 'state': 'normal', 'rot1': 106, 'rot0': 106, 'rot3': 0, 'rot2': 0, 'depth': 0.851, 'yaw': -77.01, 'datetime': '2018-12-12 14:35:57.062596', 'mgs': 0, 'flw2': 5.36, 'flw1': 0.03, 'flw0': 5.46, 'time': 16.48, 'compass': 153.07, 'pitch': 0.7, 'roll': -0.47}
{'lipoC2': 7.18, 'temp': 0.0, 'lipoC3S3': 11.02, 'state': 'normal', 'rot1': 109, 'rot0': 109, 'rot3': 0, 'rot2': 0, 'depth': 0.317, 'yaw': -74.91, 'datetime': '2018-12-12 14:35:57.270436', 'mgs': 0, 'flw2': 5.6, 'flw1': 0.44, 'flw0': 5.36, 'time': 16.69, 'compass': 155.17, 'pitch': 0.93, 'roll': 0.11}
{'lipoC2': 7.5, 'temp': 0.0, 'lipoC3S3': 11.03, 'state': 'normal', 'rot1': 113, 'rot0': 112, 'rot3': 0, 'rot2': 0, 'depth': 0.928, 'yaw': -73.06, 'datetime': '2018-12-12 14:35:57.480626', 'mgs': 0, 'flw2': 5.91, 'flw1': 0.0, 'flw0': 6.32, 'time': 16.9, 'compass': 157.01, 'pitch': 0.87, 'roll': 0.58}
{'lipoC2': 7.33, 'temp': 0.0, 'lipoC3S3': 10.8, 'state': 'normal', 'rot1': 116, 'rot0': 115, 'rot3': 0, 'rot2': 0, 'depth': 0.546, 'yaw': -72.28, 'datetime': '2018-12-12 14:35:57.689446', 'mgs': 0, 'flw2': 1.12, 'flw1': 0.23, 'flw0': 6.62, 'time': 17.11, 'compass': 157.8, 'pitch': 0.8, 'roll': 0.63}
{'lipoC2': 7.14, 'temp': 0.0, 'lipoC3S3': 11.13, 'state': 'normal', 'rot1': 120, 'rot0': 116, 'rot3': 0, 'rot2': 0, 'depth': 2.301, 'yaw': -74.41, 'datetime': '2018-12-12 14:35:57.895413', 'mgs': 0, 'flw2': 1.07, 'flw1': 0.0, 'flw0': 6.74, 'time': 17.31, 'compass': 155.67, 'pitch': -0.29, 'roll': 0.33}
{'lipoC2': 7.44, 'temp': 0.0, 'lipoC3S3': 10.92, 'state': 'normal', 'rot1': 124, 'rot0': 119, 'rot3': 0, 'rot2': 0, 'depth': -1.208, 'yaw': -78.62, 'datetime': '2018-12-12 14:35:58.106176', 'mgs': 0, 'flw2': 5.11, 'flw1': 0.0, 'flw0': 6.68, 'time': 17.52, 'compass': 151.46, 'pitch': -1.68, 'roll': -0.72}
{'lipoC2': 7.36, 'temp': 0.0, 'lipoC3S3': 10.84, 'state': 'normal', 'rot1': 127, 'rot0': 122, 'rot3': 0, 'rot2': 0, 'depth': 1.538, 'yaw': -81.82, 'datetime': '2018-12-12 14:35:58.315603', 'mgs': 0, 'flw2': 5.62, 'flw1': 0.47, 'flw0': 6.76, 'time': 17.73, 'compass': 148.26, 'pitch': -1.12, 'roll': -1.77}
{'lipoC2': 7.22, 'temp': 0.0, 'lipoC3S3': 11.15, 'state': 'normal', 'rot1': 131, 'rot0': 125, 'rot3': 0, 'rot2': 0, 'depth': -0.598, 'yaw': -83.39, 'datetime': '2018-12-12 14:35:58.525936', 'mgs': 0, 'flw2': 5.69, 'flw1': 0.59, 'flw0': 6.65, 'time': 17.94, 'compass': 146.69, 'pitch': 0.18, 'roll': -2.05}
{'lipoC2': 7.14, 'temp': 0.0, 'lipoC3S3': 10.94, 'state': 'normal', 'rot1': 134, 'rot0': 128, 'rot3': 0, 'rot2': 0, 'depth': 1.004, 'yaw': -84.43, 'datetime': '2018-12-12 14:35:58.736664', 'mgs': 0, 'flw2': 5.79, 'flw1': 0.0, 'flw0': 6.82, 'time': 18.15, 'compass': 145.65, 'pitch': 0.84, 'roll': -2.02}
{'lipoC2': 7.18, 'temp': 0.0, 'lipoC3S3': 11.05, 'state': 'normal', 'rot1': 138, 'rot0': 131, 'rot3': 0, 'rot2': 0, 'depth': 0.089, 'yaw': -85.07, 'datetime': '2018-12-12 14:35:58.944417', 'mgs': 0, 'flw2': 6.03, 'flw1': 0.59, 'flw0': 6.77, 'time': 18.36, 'compass': 145.01, 'pitch': 1.36, 'roll': -1.64}
{'lipoC2': 7.33, 'temp': 0.0, 'lipoC3S3': 10.81, 'state': 'normal', 'rot1': 142, 'rot0': 134, 'rot3': 0, 'rot2': 0, 'depth': 1.538, 'yaw': -85.67, 'datetime': '2018-12-12 14:35:59.154402', 'mgs': 0, 'flw2': 2.98, 'flw1': 0.03, 'flw0': 6.48, 'time': 18.57, 'compass': 144.41, 'pitch': 1.7, 'roll': -1.3}
{'lipoC2': 7.29, 'temp': 0.0, 'lipoC3S3': 11.19, 'state': 'normal', 'rot1': 145, 'rot0': 137, 'rot3': 0, 'rot2': 0, 'depth': -1.59, 'yaw': -87.93, 'datetime': '2018-12-12 14:35:59.362897', 'mgs': 0, 'flw2': 1.71, 'flw1': 0.85, 'flw0': 7.02, 'time': 18.78, 'compass': 142.15, 'pitch': 0.74, 'roll': -1.58}
{'lipoC2': 7.24, 'temp': 0.0, 'lipoC3S3': 11.13, 'state': 'normal', 'rot1': 149, 'rot0': 139, 'rot3': 0, 'rot2': 0, 'depth': 0.317, 'yaw': -91.8, 'datetime': '2018-12-12 14:35:59.572726', 'mgs': 0, 'flw2': 3.04, 'flw1': 0.0, 'flw0': 7.06, 'time': 18.99, 'compass': 138.28, 'pitch': -0.18, 'roll': -2.33}
{'lipoC2': 7.12, 'temp': 0.0, 'lipoC3S3': 11.36, 'state': 'normal', 'rot1': 152, 'rot0': 141, 'rot3': 0, 'rot2': 0, 'depth': -0.751, 'yaw': -95.63, 'datetime': '2018-12-12 14:35:59.783741', 'mgs': 0, 'flw2': 5.6, 'flw1': 0.0, 'flw0': 5.96, 'time': 19.2, 'compass': 134.45, 'pitch': 0.46, 'roll': -3.23}
{'lipoC2': 7.27, 'temp': 0.0, 'lipoC3S3': 11.35, 'state': 'normal', 'rot1': 155, 'rot0': 145, 'rot3': 0, 'rot2': 0, 'depth': -0.446, 'yaw': -97.84, 'datetime': '2018-12-12 14:35:59.993268', 'mgs': 0, 'flw2': 6.03, 'flw1': 0.03, 'flw0': 5.8, 'time': 19.41, 'compass': 132.24, 'pitch': 1.8, 'roll': -3.96}
{'lipoC2': 7.37, 'temp': 0.0, 'lipoC3S3': 10.93, 'state': 'normal', 'rot1': 158, 'rot0': 148, 'rot3': 0, 'rot2': 0, 'depth': 1.538, 'yaw': -98.88, 'datetime': '2018-12-12 14:36:00.202852', 'mgs': 0, 'flw2': 5.92, 'flw1': 0.0, 'flw0': 5.68, 'time': 19.62, 'compass': 131.2, 'pitch': 2.47, 'roll': -4.34}
{'lipoC2': 7.43, 'temp': 0.0, 'lipoC3S3': 10.86, 'state': 'normal', 'rot1': 161, 'rot0': 152, 'rot3': 0, 'rot2': 0, 'depth': 0.623, 'yaw': -99.0, 'datetime': '2018-12-12 14:36:00.412224', 'mgs': 0, 'flw2': 6.18, 'flw1': 0.0, 'flw0': 5.14, 'time': 19.83, 'compass': 131.08, 'pitch': 2.39, 'roll': -4.26}
{'lipoC2': 7.26, 'temp': 0.0, 'lipoC3S3': 11.17, 'state': 'normal', 'rot1': 164, 'rot0': 155, 'rot3': 0, 'rot2': 0, 'depth': 1.157, 'yaw': -98.74, 'datetime': '2018-12-12 14:36:00.620709', 'mgs': 0, 'flw2': 5.74, 'flw1': 0.12, 'flw0': 3.5, 'time': 20.03, 'compass': 131.34, 'pitch': 1.78, 'roll': -4.08}
{'lipoC2': 7.37, 'temp': 0.0, 'lipoC3S3': 11.17, 'state': 'normal', 'rot1': 167, 'rot0': 158, 'rot3': 0, 'rot2': 0, 'depth': -0.751, 'yaw': -97.27, 'datetime': '2018-12-12 14:36:00.830889', 'mgs': 0, 'flw2': 5.48, 'flw1': 0.0, 'flw0': 3.48, 'time': 20.25, 'compass': 132.81, 'pitch': 0.28, 'roll': -3.57}
{'lipoC2': 7.17, 'temp': 0.0, 'lipoC3S3': 11.21, 'state': 'normal', 'rot1': 170, 'rot0': 162, 'rot3': 0, 'rot2': 0, 'depth': -0.064, 'yaw': -95.11, 'datetime': '2018-12-12 14:36:01.049438', 'mgs': 0, 'flw2': 4.02, 'flw1': 0.0, 'flw0': 4.86, 'time': 20.45, 'compass': 134.97, 'pitch': -1.07, 'roll': -3.0}
{'lipoC2': 7.3, 'temp': 0.0, 'lipoC3S3': 11.14, 'state': 'normal', 'rot1': 173, 'rot0': 165, 'rot3': 0, 'rot2': 0, 'depth': 0.165, 'yaw': -94.21, 'datetime': '2018-12-12 14:36:01.258215', 'mgs': 0, 'flw2': 2.53, 'flw1': 0.0, 'flw0': 5.64, 'time': 20.67, 'compass': 135.87, 'pitch': -1.12, 'roll': -3.04}
{'lipoC2': 7.25, 'temp': 0.0, 'lipoC3S3': 11.14, 'state': 'normal', 'rot1': 176, 'rot0': 167, 'rot3': 0, 'rot2': 0, 'depth': 0.394, 'yaw': -95.41, 'datetime': '2018-12-12 14:36:01.464953', 'mgs': 0, 'flw2': 1.94, 'flw1': 0.0, 'flw0': 6.29, 'time': 20.87, 'compass': 134.67, 'pitch': -0.91, 'roll': -3.33}
{'lipoC2': 7.54, 'temp': 0.0, 'lipoC3S3': 11.03, 'state': 'normal', 'rot1': 179, 'rot0': 169, 'rot3': 0, 'rot2': 0, 'depth': -1.514, 'yaw': -98.88, 'datetime': '2018-12-12 14:36:01.672925', 'mgs': 0, 'flw2': 1.33, 'flw1': 0.0, 'flw0': 5.99, 'time': 21.08, 'compass': 131.2, 'pitch': -1.26, 'roll': -4.02}
{'lipoC2': 7.39, 'temp': 0.0, 'lipoC3S3': 11.17, 'state': 'normal', 'rot1': 183, 'rot0': 170, 'rot3': 0, 'rot2': 0, 'depth': -0.751, 'yaw': -104.47, 'datetime': '2018-12-12 14:36:01.883341', 'mgs': 0, 'flw2': 1.18, 'flw1': 0.0, 'flw0': 6.29, 'time': 21.29, 'compass': 125.61, 'pitch': -1.25, 'roll': -5.25}
{'lipoC2': 7.12, 'temp': 0.0, 'lipoC3S3': 11.34, 'state': 'normal', 'rot1': 186, 'rot0': 172, 'rot3': 0, 'rot2': 0, 'depth': 0.851, 'yaw': -111.75, 'datetime': '2018-12-12 14:36:02.091240', 'mgs': 0, 'flw2': 3.32, 'flw1': 0.15, 'flw0': 6.25, 'time': 21.5, 'compass': 118.33, 'pitch': -0.47, 'roll': -6.51}
{'lipoC2': 7.23, 'temp': 0.0, 'lipoC3S3': 10.93, 'state': 'normal', 'rot1': 189, 'rot0': 175, 'rot3': 0, 'rot2': 0, 'depth': -0.064, 'yaw': -118.82, 'datetime': '2018-12-12 14:36:02.302664', 'mgs': 0, 'flw2': 5.75, 'flw1': 0.26, 'flw0': 5.8, 'time': 21.71, 'compass': 111.26, 'pitch': 1.03, 'roll': -7.26}
{'lipoC2': 7.4, 'temp': 0.0, 'lipoC3S3': 10.82, 'state': 'normal', 'rot1': 193, 'rot0': 178, 'rot3': 0, 'rot2': 0, 'depth': -1.132, 'yaw': -123.48, 'datetime': '2018-12-12 14:36:02.515516', 'mgs': 0, 'flw2': 5.44, 'flw1': 0.38, 'flw0': 4.97, 'time': 21.92, 'compass': 106.6, 'pitch': 2.69, 'roll': -7.23}
{'lipoC2': 7.38, 'temp': 0.0, 'lipoC3S3': 10.78, 'state': 'normal', 'rot1': 195, 'rot0': 181, 'rot3': 0, 'rot2': 0, 'depth': -1.895, 'yaw': -126.5, 'datetime': '2018-12-12 14:36:02.725230', 'mgs': 0, 'flw2': 5.63, 'flw1': 0.0, 'flw0': 4.81, 'time': 22.13, 'compass': 103.58, 'pitch': 2.92, 'roll': -6.85}
{'lipoC2': 7.35, 'temp': 0.0, 'lipoC3S3': 10.9, 'state': 'normal', 'rot1': 198, 'rot0': 184, 'rot3': 0, 'rot2': 0, 'depth': -1.132, 'yaw': -128.16, 'datetime': '2018-12-12 14:36:02.934459', 'mgs': 0, 'flw2': 5.82, 'flw1': 0.0, 'flw0': 4.48, 'time': 22.34, 'compass': 101.92, 'pitch': 2.31, 'roll': -6.7}
{'lipoC2': 7.4, 'temp': 0.0, 'lipoC3S3': 10.77, 'state': 'normal', 'rot1': 201, 'rot0': 187, 'rot3': 0, 'rot2': 0, 'depth': -0.903, 'yaw': -129.1, 'datetime': '2018-12-12 14:36:03.143605', 'mgs': 0, 'flw2': 5.99, 'flw1': 0.59, 'flw0': 4.42, 'time': 22.55, 'compass': 100.98, 'pitch': 1.68, 'roll': -6.66}
{'lipoC2': 7.36, 'temp': 0.0, 'lipoC3S3': 11.17, 'state': 'normal', 'rot1': 204, 'rot0': 191, 'rot3': 0, 'rot2': 0, 'depth': 0.928, 'yaw': -129.76, 'datetime': '2018-12-12 14:36:03.354190', 'mgs': 0, 'flw2': 5.86, 'flw1': 0.5, 'flw0': 4.71, 'time': 22.76, 'compass': 100.32, 'pitch': 1.38, 'roll': -6.86}
{'lipoC2': 7.28, 'temp': 0.0, 'lipoC3S3': 11.18, 'state': 'normal', 'rot1': 206, 'rot0': 195, 'rot3': 0, 'rot2': 0, 'depth': -1.437, 'yaw': -129.97, 'datetime': '2018-12-12 14:36:03.564119', 'mgs': 0, 'flw2': 5.87, 'flw1': 0.09, 'flw0': 4.79, 'time': 22.97, 'compass': 100.11, 'pitch': 0.91, 'roll': -7.23}
{'lipoC2': 7.42, 'temp': 0.0, 'lipoC3S3': 11.39, 'state': 'normal', 'rot1': 209, 'rot0': 198, 'rot3': 0, 'rot2': 0, 'depth': 0.623, 'yaw': -129.81, 'datetime': '2018-12-12 14:36:03.774596', 'mgs': 0, 'flw2': 5.87, 'flw1': 0.0, 'flw0': 4.74, 'time': 23.18, 'compass': 100.27, 'pitch': 0.33, 'roll': -7.09}
{'lipoC2': 7.32, 'temp': 0.0, 'lipoC3S3': 11.07, 'state': 'normal', 'rot1': 212, 'rot0': 201, 'rot3': 0, 'rot2': 0, 'depth': -1.056, 'yaw': -129.63, 'datetime': '2018-12-12 14:36:03.989191', 'mgs': 0, 'flw2': 6.16, 'flw1': 0.0, 'flw0': 3.63, 'time': 23.39, 'compass': 100.45, 'pitch': 0.58, 'roll': -6.63}
{'lipoC2': 7.24, 'temp': 0.0, 'lipoC3S3': 11.23, 'state': 'normal', 'rot1': 214, 'rot0': 204, 'rot3': 0, 'rot2': 0, 'depth': 0.47, 'yaw': -128.72, 'datetime': '2018-12-12 14:36:04.191506', 'mgs': 0, 'flw2': 6.01, 'flw1': 0.0, 'flw0': 2.36, 'time': 23.6, 'compass': 101.35, 'pitch': 0.75, 'roll': -5.88}
{'lipoC2': 7.3, 'temp': 0.0, 'lipoC3S3': 10.74, 'state': 'normal', 'rot1': 216, 'rot0': 208, 'rot3': 0, 'rot2': 0, 'depth': 1.385, 'yaw': -126.54, 'datetime': '2018-12-12 14:36:04.400353', 'mgs': 0, 'flw2': 5.62, 'flw1': 0.5, 'flw0': 1.26, 'time': 23.81, 'compass': 103.54, 'pitch': 0.17, 'roll': -4.89}
{'lipoC2': 7.5, 'temp': 0.0, 'lipoC3S3': 11.27, 'state': 'normal', 'rot1': 219, 'rot0': 213, 'rot3': 0, 'rot2': 0, 'depth': -0.827, 'yaw': -121.73, 'datetime': '2018-12-12 14:36:04.718341', 'mgs': 0, 'flw2': 5.54, 'flw1': 0.0, 'flw0': 1.45, 'time': 24.12, 'compass': 108.35, 'pitch': -0.8, 'roll': -3.15}
{'lipoC2': 7.27, 'temp': 0.0, 'lipoC3S3': 11.1, 'state': 'normal', 'rot1': 220, 'rot0': 216, 'rot3': 0, 'rot2': 0, 'depth': -0.293, 'yaw': -117.72, 'datetime': '2018-12-12 14:36:04.927942', 'mgs': 0, 'flw2': 5.81, 'flw1': 0.44, 'flw0': 1.11, 'time': 24.33, 'compass': 112.36, 'pitch': -0.71, 'roll': -2.22}
{'lipoC2': 7.37, 'temp': 0.0, 'lipoC3S3': 11.07, 'state': 'normal', 'rot1': 222, 'rot0': 219, 'rot3': 0, 'rot2': 0, 'depth': 0.851, 'yaw': -113.44, 'datetime': '2018-12-12 14:36:05.135688', 'mgs': 0, 'flw2': 5.79, 'flw1': 0.0, 'flw0': 1.92, 'time': 24.54, 'compass': 116.64, 'pitch': -0.19, 'roll': -1.3}
{'lipoC2': 7.3, 'temp': 0.0, 'lipoC3S3': 11.26, 'state': 'normal', 'rot1': 224, 'rot0': 222, 'rot3': 0, 'rot2': 0, 'depth': -2.2, 'yaw': -109.58, 'datetime': '2018-12-12 14:36:05.345682', 'mgs': 0, 'flw2': 3.47, 'flw1': 0.0, 'flw0': 2.91, 'time': 24.75, 'compass': 120.5, 'pitch': 0.24, 'roll': -0.47}
{'lipoC2': 7.5, 'temp': 0.0, 'lipoC3S3': 10.93, 'state': 'normal', 'rot1': 227, 'rot0': 224, 'rot3': 0, 'rot2': 0, 'depth': 0.317, 'yaw': -107.25, 'datetime': '2018-12-12 14:36:05.556198', 'mgs': 0, 'flw2': 2.76, 'flw1': 0.0, 'flw0': 3.03, 'time': 24.96, 'compass': 122.83, 'pitch': -0.27, 'roll': 0.01}
{'lipoC2': 7.34, 'temp': 0.0, 'lipoC3S3': 11.17, 'state': 'normal', 'rot1': 229, 'rot0': 227, 'rot3': 0, 'rot2': 0, 'depth': 0.317, 'yaw': -106.67, 'datetime': '2018-12-12 14:36:05.767018', 'mgs': 0, 'flw2': 3.59, 'flw1': 0.0, 'flw0': 3.28, 'time': 25.17, 'compass': 123.41, 'pitch': -1.42, 'roll': -0.21}
{'lipoC2': 7.15, 'temp': 0.0, 'lipoC3S3': 10.96, 'state': 'normal', 'rot1': 231, 'rot0': 230, 'rot3': 0, 'rot2': 0, 'depth': -0.064, 'yaw': -106.73, 'datetime': '2018-12-12 14:36:05.979410', 'mgs': 0, 'flw2': 3.41, 'flw1': 0.5, 'flw0': 3.26, 'time': 25.38, 'compass': 123.35, 'pitch': -2.07, 'roll': -1.06}
{'lipoC2': 7.3, 'temp': 0.0, 'lipoC3S3': 11.39, 'state': 'normal', 'rot1': 234, 'rot0': 231, 'rot3': 0, 'rot2': 0, 'depth': -1.056, 'yaw': -107.61, 'datetime': '2018-12-12 14:36:06.185628', 'mgs': 0, 'flw2': 1.95, 'flw1': 0.0, 'flw0': 4.05, 'time': 25.59, 'compass': 122.47, 'pitch': -2.32, 'roll': -2.04}
{'lipoC2': 7.33, 'temp': 0.0, 'lipoC3S3': 10.97, 'state': 'normal', 'rot1': 237, 'rot0': 234, 'rot3': 0, 'rot2': 0, 'depth': 1.462, 'yaw': -109.52, 'datetime': '2018-12-12 14:36:06.395320', 'mgs': 0, 'flw2': 5.97, 'flw1': 0.12, 'flw0': 2.83, 'time': 25.8, 'compass': 120.56, 'pitch': -2.53, 'roll': -2.76}
{'lipoC2': 7.5, 'temp': 0.0, 'lipoC3S3': 10.94, 'state': 'normal', 'rot1': 239, 'rot0': 237, 'rot3': 0, 'rot2': 0, 'depth': -0.674, 'yaw': -108.68, 'datetime': '2018-12-12 14:36:06.608366', 'mgs': 0, 'flw2': 5.86, 'flw1': 0.35, 'flw0': 1.82, 'time': 26.01, 'compass': 121.4, 'pitch': -1.6, 'roll': -2.13}
{'lipoC2': 7.12, 'temp': 0.0, 'lipoC3S3': 10.97, 'state': 'normal', 'rot1': 241, 'rot0': 240, 'rot3': 0, 'rot2': 0, 'depth': -0.064, 'yaw': -106.04, 'datetime': '2018-12-12 14:36:06.818420', 'mgs': 0, 'flw2': 5.83, 'flw1': 0.0, 'flw0': 1.12, 'time': 26.22, 'compass': 124.04, 'pitch': -1.17, 'roll': -0.77}
{'lipoC2': 7.27, 'temp': 0.0, 'lipoC3S3': 10.96, 'state': 'normal', 'rot1': 243, 'rot0': 243, 'rot3': 0, 'rot2': 0, 'depth': -0.98, 'yaw': -101.69, 'datetime': '2018-12-12 14:36:07.029199', 'mgs': 0, 'flw2': 5.05, 'flw1': 0.29, 'flw0': 2.72, 'time': 26.43, 'compass': 128.39, 'pitch': -1.6, 'roll': 0.93}
{'lipoC2': 7.36, 'temp': 0.0, 'lipoC3S3': 10.94, 'state': 'normal', 'rot1': 246, 'rot0': 246, 'rot3': 0, 'rot2': 0, 'depth': -1.285, 'yaw': -97.4, 'datetime': '2018-12-12 14:36:07.240273', 'mgs': 0, 'flw2': 5.24, 'flw1': 0.38, 'flw0': 2.0, 'time': 26.64, 'compass': 132.68, 'pitch': -1.39, 'roll': 2.02}
{'lipoC2': 7.14, 'temp': 0.0, 'lipoC3S3': 11.21, 'state': 'normal', 'rot1': 248, 'rot0': 249, 'rot3': 0, 'rot2': 0, 'depth': 1.462, 'yaw': -92.98, 'datetime': '2018-12-12 14:36:07.449215', 'mgs': 0, 'flw2': 4.85, 'flw1': 0.0, 'flw0': 2.95, 'time': 26.84, 'compass': 137.1, 'pitch': -1.19, 'roll': 2.56}
{'lipoC2': 7.38, 'temp': 0.0, 'lipoC3S3': 11.39, 'state': 'normal', 'rot1': 250, 'rot0': 252, 'rot3': 0, 'rot2': 0, 'depth': -1.514, 'yaw': -88.49, 'datetime': '2018-12-12 14:36:07.656399', 'mgs': 0, 'flw2': 4.5, 'flw1': 0.0, 'flw0': 3.14, 'time': 27.05, 'compass': 141.59, 'pitch': -1.61, 'roll': 3.1}
{'lipoC2': 7.27, 'temp': 0.0, 'lipoC3S3': 10.82, 'state': 'normal', 'rot1': 253, 'rot0': 254, 'rot3': 0, 'rot2': 0, 'depth': 0.394, 'yaw': -86.27, 'datetime': '2018-12-12 14:36:07.867523', 'mgs': 0, 'flw2': 0.23, 'flw1': 0.5, 'flw0': 4.88, 'time': 27.26, 'compass': 143.81, 'pitch': -2.48, 'roll': 3.58}
{'lipoC2': 7.39, 'temp': 0.0, 'lipoC3S3': 11.32, 'state': 'normal', 'rot1': 256, 'rot0': 255, 'rot3': 0, 'rot2': 0, 'depth': -0.98, 'yaw': -88.39, 'datetime': '2018-12-12 14:36:08.074921', 'mgs': 0, 'flw2': 0.17, 'flw1': 0.0, 'flw0': 6.56, 'time': 27.47, 'compass': 141.69, 'pitch': -3.82, 'roll': 2.58}
{'lipoC2': 7.38, 'temp': 0.0, 'lipoC3S3': 11.02, 'state': 'normal', 'rot1': 259, 'rot0': 256, 'rot3': 0, 'rot2': 0, 'depth': -1.056, 'yaw': -93.1, 'datetime': '2018-12-12 14:36:08.281454', 'mgs': 0, 'flw2': 1.37, 'flw1': 0.0, 'flw0': 5.3, 'time': 27.68, 'compass': 136.98, 'pitch': -4.52, 'roll': 0.44}
{'lipoC2': 7.18, 'temp': 0.0, 'lipoC3S3': 11.03, 'state': 'normal', 'rot1': 262, 'rot0': 258, 'rot3': 0, 'rot2': 0, 'depth': 1.157, 'yaw': -97.82, 'datetime': '2018-12-12 14:36:08.491996', 'mgs': 0, 'flw2': 5.71, 'flw1': 0.85, 'flw0': 1.57, 'time': 27.89, 'compass': 132.26, 'pitch': -4.53, 'roll': -1.48}
{'lipoC2': 7.3, 'temp': 0.0, 'lipoC3S3': 11.36, 'state': 'normal', 'rot1': 263, 'rot0': 262, 'rot3': 0, 'rot2': 0, 'depth': -0.598, 'yaw': -97.62, 'datetime': '2018-12-12 14:36:08.705437', 'mgs': 0, 'flw2': 6.08, 'flw1': 0.03, 'flw0': 0.55, 'time': 28.1, 'compass': 132.46, 'pitch': -3.65, 'roll': -0.74}
{'lipoC2': 7.15, 'temp': 0.0, 'lipoC3S3': 11.36, 'state': 'normal', 'rot1': 265, 'rot0': 265, 'rot3': 0, 'rot2': 0, 'depth': -0.522, 'yaw': -93.41, 'datetime': '2018-12-12 14:36:08.915242', 'mgs': 0, 'flw2': 5.62, 'flw1': 0.0, 'flw0': 1.06, 'time': 28.31, 'compass': 136.67, 'pitch': -4.03, 'roll': 2.13}
{'lipoC2': 7.12, 'temp': 0.0, 'lipoC3S3': 11.09, 'state': 'normal', 'rot1': 266, 'rot0': 268, 'rot3': 0, 'rot2': 0, 'depth': 0.089, 'yaw': -87.61, 'datetime': '2018-12-12 14:36:09.121082', 'mgs': 0, 'flw2': 1.94, 'flw1': 0.0, 'flw0': 3.06, 'time': 28.52, 'compass': 142.47, 'pitch': -4.37, 'roll': 4.81}
{'lipoC2': 7.22, 'temp': 0.0, 'lipoC3S3': 11.15, 'state': 'normal', 'rot1': 268, 'rot0': 270, 'rot3': 0, 'rot2': 0, 'depth': 0.165, 'yaw': -84.32, 'datetime': '2018-12-12 14:36:09.324490', 'mgs': 0, 'flw2': 1.72, 'flw1': 0.26, 'flw0': 3.66, 'time': 28.73, 'compass': 145.76, 'pitch': -4.46, 'roll': 5.46}
{'lipoC2': 7.23, 'temp': 0.0, 'lipoC3S3': 11.05, 'state': 'normal', 'rot1': 271, 'rot0': 272, 'rot3': 0, 'rot2': 0, 'depth': -0.369, 'yaw': -83.89, 'datetime': '2018-12-12 14:36:09.535270', 'mgs': 0, 'flw2': 1.78, 'flw1': 0.0, 'flw0': 5.08, 'time': 28.94, 'compass': 146.19, 'pitch': -4.48, 'roll': 4.76}
{'lipoC2': 7.48, 'temp': 0.0, 'lipoC3S3': 11.06, 'state': 'normal', 'rot1': 274, 'rot0': 274, 'rot3': 0, 'rot2': 0, 'depth': -1.285, 'yaw': -85.28, 'datetime': '2018-12-12 14:36:09.745136', 'mgs': 0, 'flw2': 2.33, 'flw1': 0.0, 'flw0': 3.91, 'time': 29.15, 'compass': 144.8, 'pitch': -4.2, 'roll': 3.37}
{'lipoC2': 7.3, 'temp': 0.0, 'lipoC3S3': 10.97, 'state': 'normal', 'rot1': 276, 'rot0': 276, 'rot3': 0, 'rot2': 0, 'depth': 0.089, 'yaw': -86.55, 'datetime': '2018-12-12 14:36:09.954608', 'mgs': 0, 'flw2': 2.65, 'flw1': 0.0, 'flw0': 3.99, 'time': 29.35, 'compass': 143.52, 'pitch': -4.0, 'roll': 1.98}
{'lipoC2': 7.43, 'temp': 0.0, 'lipoC3S3': 11.14, 'state': 'normal', 'rot1': 279, 'rot0': 278, 'rot3': 0, 'rot2': 0, 'depth': -1.208, 'yaw': -87.34, 'datetime': '2018-12-12 14:36:10.164876', 'mgs': 0, 'flw2': 2.59, 'flw1': 0.0, 'flw0': 3.37, 'time': 29.56, 'compass': 142.74, 'pitch': -3.93, 'roll': 0.88}
{'lipoC2': 7.28, 'temp': 0.0, 'lipoC3S3': 11.19, 'state': 'normal', 'rot1': 281, 'rot0': 280, 'rot3': 0, 'rot2': 0, 'depth': -0.217, 'yaw': -87.63, 'datetime': '2018-12-12 14:36:10.373179', 'mgs': 0, 'flw2': 1.62, 'flw1': 0.0, 'flw0': 3.19, 'time': 29.77, 'compass': 142.45, 'pitch': -4.15, 'roll': 0.5}
{'lipoC2': 7.5, 'temp': 0.0, 'lipoC3S3': 10.98, 'state': 'normal', 'rot1': 284, 'rot0': 282, 'rot3': 0, 'rot2': 0, 'depth': 1.233, 'yaw': -88.2, 'datetime': '2018-12-12 14:36:10.584489', 'mgs': 0, 'flw2': 1.65, 'flw1': 0.0, 'flw0': 3.13, 'time': 29.98, 'compass': 141.88, 'pitch': -4.78, 'roll': 0.71}
{'lipoC2': 7.47, 'temp': 0.0, 'lipoC3S3': 10.96, 'state': 'normal', 'rot1': 287, 'rot0': 284, 'rot3': 0, 'rot2': 0, 'depth': -1.208, 'yaw': -89.46, 'datetime': '2018-12-12 14:36:10.791373', 'mgs': 0, 'flw2': 0.26, 'flw1': 0.0, 'flw0': 4.93, 'time': 30.19, 'compass': 140.62, 'pitch': -5.12, 'roll': 0.94}
{'lipoC2': 7.28, 'temp': 0.0, 'lipoC3S3': 11.17, 'state': 'normal', 'rot1': 289, 'rot0': 285, 'rot3': 0, 'rot2': 0, 'depth': 1.538, 'yaw': -92.95, 'datetime': '2018-12-12 14:36:11.001997', 'mgs': 0, 'flw2': 0.0, 'flw1': 0.0, 'flw0': 5.18, 'time': 30.4, 'compass': 137.13, 'pitch': -5.64, 'roll': 0.59}
{'lipoC2': 7.27, 'temp': 0.0, 'lipoC3S3': 11.34, 'state': 'normal', 'rot1': 292, 'rot0': 285, 'rot3': 0, 'rot2': 0, 'depth': -0.446, 'yaw': -98.91, 'datetime': '2018-12-12 14:36:11.210259', 'mgs': 0, 'flw2': 0.0, 'flw1': 0.0, 'flw0': 1.2, 'time': 30.61, 'compass': 131.17, 'pitch': -6.76, 'roll': -0.7}
{'lipoC2': 7.38, 'temp': 0.0, 'lipoC3S3': 11.22, 'state': 'normal', 'rot1': 293, 'rot0': 285, 'rot3': 0, 'rot2': 0, 'depth': -0.903, 'yaw': -104.54, 'datetime': '2018-12-12 14:36:11.419981', 'mgs': 0, 'flw2': 0.15, 'flw1': 0.0, 'flw0': 0.01, 'time': 30.82, 'compass': 125.54, 'pitch': -8.07, 'roll': -1.66}
{'lipoC2': 7.14, 'temp': 0.0, 'lipoC3S3': 11.34, 'state': 'normal', 'rot1': 293, 'rot0': 285, 'rot3': 0, 'rot2': 0, 'depth': 1.462, 'yaw': -108.59, 'datetime': '2018-12-12 14:36:11.628370', 'mgs': 0, 'flw2': 0.26, 'flw1': 0.0, 'flw0': 0.23, 'time': 31.03, 'compass': 121.49, 'pitch': -9.02, 'roll': -1.71}
{'lipoC2': 7.24, 'temp': 0.0, 'lipoC3S3': 11.31, 'state': 'normal', 'rot1': 293, 'rot0': 285, 'rot3': 0, 'rot2': 0, 'depth': -0.598, 'yaw': -111.97, 'datetime': '2018-12-12 14:36:11.838811', 'mgs': 0, 'flw2': 0.0, 'flw1': 0.03, 'flw0': 0.04, 'time': 31.24, 'compass': 118.11, 'pitch': -8.87, 'roll': -1.81}
{'lipoC2': 7.33, 'temp': 0.0, 'lipoC3S3': 10.89, 'state': 'normal', 'rot1': 293, 'rot0': 285, 'rot3': 0, 'rot2': 0, 'depth': 1.309, 'yaw': -114.86, 'datetime': '2018-12-12 14:36:12.048438', 'mgs': 0, 'flw2': 0.07, 'flw1': 0.0, 'flw0': 0.0, 'time': 31.45, 'compass': 115.22, 'pitch': -8.36, 'roll': -2.23}
{'lipoC2': 7.12, 'temp': 0.0, 'lipoC3S3': 11.52, 'state': 'normal', 'rot1': 293, 'rot0': 285, 'rot3': 0, 'rot2': 0, 'depth': -0.903, 'yaw': -117.71, 'datetime': '2018-12-12 14:36:12.260233', 'mgs': 0, 'flw2': 0.26, 'flw1': 0.0, 'flw0': 0.0, 'time': 31.66, 'compass': 112.37, 'pitch': -8.5, 'roll': -2.62}
{'lipoC2': 7.14, 'temp': 0.0, 'lipoC3S3': 11.52, 'state': 'normal', 'rot1': 293, 'rot0': 285, 'rot3': 0, 'rot2': 0, 'depth': -0.446, 'yaw': -120.26, 'datetime': '2018-12-12 14:36:12.468538', 'mgs': 0, 'flw2': 0.56, 'flw1': 0.0, 'flw0': 0.0, 'time': 31.86, 'compass': 109.82, 'pitch': -9.02, 'roll': -2.69}
{'lipoC2': 7.12, 'temp': 0.0, 'lipoC3S3': 11.13, 'state': 'normal', 'rot1': 293, 'rot0': 286, 'rot3': 0, 'rot2': 0, 'depth': 1.538, 'yaw': -122.31, 'datetime': '2018-12-12 14:36:12.677596', 'mgs': 0, 'flw2': 0.98, 'flw1': 0.29, 'flw0': 0.0, 'time': 32.07, 'compass': 107.77, 'pitch': -8.78, 'roll': -2.63}
{'lipoC2': 7.41, 'temp': 0.0, 'lipoC3S3': 10.97, 'state': 'normal', 'rot1': 293, 'rot0': 287, 'rot3': 0, 'rot2': 0, 'depth': 0.47, 'yaw': -123.16, 'datetime': '2018-12-12 14:36:12.885953', 'mgs': 0, 'flw2': 2.23, 'flw1': 0.0, 'flw0': 0.0, 'time': 32.28, 'compass': 106.92, 'pitch': -7.68, 'roll': -2.59}
{'lipoC2': 7.3, 'temp': 0.0, 'lipoC3S3': 10.96, 'state': 'normal', 'rot1': 293, 'rot0': 289, 'rot3': 0, 'rot2': 0, 'depth': 1.08, 'yaw': -121.91, 'datetime': '2018-12-12 14:36:13.100748', 'mgs': 0, 'flw2': 2.4, 'flw1': 0.0, 'flw0': 0.0, 'time': 32.49, 'compass': 108.17, 'pitch': -6.45, 'roll': -2.4}
{'lipoC2': 7.4, 'temp': 0.0, 'lipoC3S3': 11.51, 'state': 'normal', 'rot1': 294, 'rot0': 292, 'rot3': 0, 'rot2': 0, 'depth': -1.056, 'yaw': -118.49, 'datetime': '2018-12-12 14:36:13.309941', 'mgs': 0, 'flw2': 1.42, 'flw1': 0.0, 'flw0': 1.28, 'time': 32.7, 'compass': 111.59, 'pitch': -6.27, 'roll': -2.04}
{'lipoC2': 7.26, 'temp': 0.0, 'lipoC3S3': 11.18, 'state': 'normal', 'rot1': 295, 'rot0': 293, 'rot3': 0, 'rot2': 0, 'depth': -0.903, 'yaw': -115.23, 'datetime': '2018-12-12 14:36:13.523563', 'mgs': 0, 'flw2': 0.59, 'flw1': 0.0, 'flw0': 2.37, 'time': 32.91, 'compass': 114.85, 'pitch': -6.82, 'roll': -2.07}
{'lipoC2': 7.17, 'temp': 0.0, 'lipoC3S3': 11.13, 'state': 'normal', 'rot1': 298, 'rot0': 294, 'rot3': 0, 'rot2': 0, 'depth': 0.165, 'yaw': -114.05, 'datetime': '2018-12-12 14:36:13.733240', 'mgs': 0, 'flw2': 0.0, 'flw1': 0.85, 'flw0': 6.24, 'time': 33.12, 'compass': 116.03, 'pitch': -7.2, 'roll': -2.48}
{'lipoC2': 7.36, 'temp': 0.0, 'lipoC3S3': 11.09, 'state': 'normal', 'rot1': 301, 'rot0': 294, 'rot3': 0, 'rot2': 0, 'depth': -0.674, 'yaw': -117.69, 'datetime': '2018-12-12 14:36:13.942432', 'mgs': 0, 'flw2': 0.0, 'flw1': 0.0, 'flw0': 6.38, 'time': 33.33, 'compass': 112.39, 'pitch': -6.01, 'roll': -3.66}
{'lipoC2': 7.27, 'temp': 0.0, 'lipoC3S3': 10.9, 'state': 'normal', 'rot1': 305, 'rot0': 294, 'rot3': 0, 'rot2': 0, 'depth': 1.92, 'yaw': -125.12, 'datetime': '2018-12-12 14:36:14.150953', 'mgs': 0, 'flw2': 0.0, 'flw1': 0.47, 'flw0': 5.66, 'time': 33.54, 'compass': 104.96, 'pitch': -4.34, 'roll': -5.34}
{'lipoC2': 7.28, 'temp': 0.0, 'lipoC3S3': 11.25, 'state': 'normal', 'rot1': 306, 'rot0': 294, 'rot3': 0, 'rot2': 0, 'depth': 0.241, 'yaw': -133.56, 'datetime': '2018-12-12 14:36:14.359971', 'mgs': 0, 'flw2': 0.12, 'flw1': 0.0, 'flw0': 0.16, 'time': 33.75, 'compass': 96.52, 'pitch': -4.62, 'roll': -6.69}
{'lipoC2': 7.18, 'temp': 0.0, 'lipoC3S3': 11.3, 'state': 'normal', 'rot1': 306, 'rot0': 294, 'rot3': 0, 'rot2': 0, 'depth': -0.293, 'yaw': -139.63, 'datetime': '2018-12-12 14:36:14.567308', 'mgs': 0, 'flw2': 0.11, 'flw1': 0.0, 'flw0': 3.91, 'time': 33.96, 'compass': 90.44, 'pitch': -7.45, 'roll': -6.45}
{'lipoC2': 7.12, 'temp': 0.0, 'lipoC3S3': 11.34, 'state': 'normal', 'rot1': 309, 'rot0': 294, 'rot3': 0, 'rot2': 0, 'depth': 0.851, 'yaw': -146.19, 'datetime': '2018-12-12 14:36:14.775930', 'mgs': 0, 'flw2': 0.0, 'flw1': 0.67, 'flw0': 6.73, 'time': 34.17, 'compass': 83.89, 'pitch': -6.69, 'roll': -6.55}
{'lipoC2': 7.38, 'temp': 0.0, 'lipoC3S3': 11.18, 'state': 'normal', 'rot1': 313, 'rot0': 294, 'rot3': 0, 'rot2': 0, 'depth': -1.666, 'yaw': -155.88, 'datetime': '2018-12-12 14:36:14.984808', 'mgs': 0, 'flw2': 0.61, 'flw1': 0.0, 'flw0': 6.68, 'time': 34.38, 'compass': 74.2, 'pitch': -1.73, 'roll': -8.08}
{'lipoC2': 7.23, 'temp': 0.0, 'lipoC3S3': 11.07, 'state': 'normal', 'rot1': 316, 'rot0': 296, 'rot3': 0, 'rot2': 0, 'depth': -0.903, 'yaw': -167.99, 'datetime': '2018-12-12 14:36:15.194562', 'mgs': 0, 'flw2': 4.02, 'flw1': 0.0, 'flw0': 6.75, 'time': 34.59, 'compass': 62.09, 'pitch': 1.88, 'roll': -9.63}
{'lipoC2': 7.11, 'temp': 0.0, 'lipoC3S3': 11.25, 'state': 'normal', 'rot1': 320, 'rot0': 299, 'rot3': 0, 'rot2': 0, 'depth': -0.14, 'yaw': -178.48, 'datetime': '2018-12-12 14:36:15.403179', 'mgs': 0, 'flw2': 5.42, 'flw1': 0.09, 'flw0': 5.82, 'time': 34.8, 'compass': 51.6, 'pitch': 3.39, 'roll': -11.08}
{'lipoC2': 7.23, 'temp': 0.0, 'lipoC3S3': 10.92, 'state': 'normal', 'rot1': 323, 'rot0': 302, 'rot3': 0, 'rot2': 0, 'depth': 0.317, 'yaw': 174.44, 'datetime': '2018-12-12 14:36:15.613163', 'mgs': 0, 'flw2': 5.55, 'flw1': 0.0, 'flw0': 5.75, 'time': 35.01, 'compass': 44.52, 'pitch': 4.39, 'roll': -12.01}
{'lipoC2': 7.23, 'temp': 0.0, 'lipoC3S3': 11.27, 'state': 'normal', 'rot1': 326, 'rot0': 306, 'rot3': 0, 'rot2': 0, 'depth': -0.674, 'yaw': 169.76, 'datetime': '2018-12-12 14:36:15.828525', 'mgs': 0, 'flw2': 5.76, 'flw1': 0.0, 'flw0': 5.32, 'time': 35.22, 'compass': 39.84, 'pitch': 5.76, 'roll': -12.27}
{'lipoC2': 7.22, 'temp': 0.0, 'lipoC3S3': 11.4, 'state': 'normal', 'rot1': 330, 'rot0': 310, 'rot3': 0, 'rot2': 0, 'depth': -0.369, 'yaw': 166.42, 'datetime': '2018-12-12 14:36:16.140127', 'mgs': 0, 'flw2': 6.16, 'flw1': 0.0, 'flw0': 4.09, 'time': 35.53, 'compass': 36.5, 'pitch': 6.22, 'roll': -12.28}
{'lipoC2': 7.28, 'temp': 0.0, 'lipoC3S3': 11.01, 'state': 'normal', 'rot1': 332, 'rot0': 313, 'rot3': 0, 'rot2': 0, 'depth': 1.004, 'yaw': 166.45, 'datetime': '2018-12-12 14:36:16.351412', 'mgs': 0, 'flw2': 1.95, 'flw1': 0.56, 'flw0': 0.0, 'time': 35.74, 'compass': 36.53, 'pitch': 4.47, 'roll': -12.15}
{'lipoC2': 7.24, 'temp': 0.0, 'lipoC3S3': 11.19, 'state': 'normal', 'rot1': 332, 'rot0': 316, 'rot3': 0, 'rot2': 0, 'depth': -0.751, 'yaw': 168.4, 'datetime': '2018-12-12 14:36:16.560901', 'mgs': 0, 'flw2': 3.6, 'flw1': 0.5, 'flw0': 0.39, 'time': 35.95, 'compass': 38.48, 'pitch': 0.35, 'roll': -10.66}
{'lipoC2': 7.44, 'temp': 0.0, 'lipoC3S3': 10.93, 'state': 'normal', 'rot1': 334, 'rot0': 318, 'rot3': 0, 'rot2': 0, 'depth': -2.048, 'yaw': 171.65, 'datetime': '2018-12-12 14:36:16.768725', 'mgs': 0, 'flw2': 2.48, 'flw1': 0.0, 'flw0': 1.06, 'time': 36.16, 'compass': 41.73, 'pitch': -1.77, 'roll': -8.12}
{'lipoC2': 7.26, 'temp': 0.0, 'lipoC3S3': 11.06, 'state': 'normal', 'rot1': 335, 'rot0': 321, 'rot3': 0, 'rot2': 0, 'depth': -0.293, 'yaw': 174.14, 'datetime': '2018-12-12 14:36:16.980295', 'mgs': 0, 'flw2': 2.62, 'flw1': 0.0, 'flw0': 1.59, 'time': 36.37, 'compass': 44.21, 'pitch': -1.48, 'roll': -6.81}
{'lipoC2': 7.44, 'temp': 0.0, 'lipoC3S3': 11.18, 'state': 'normal', 'rot1': 337, 'rot0': 323, 'rot3': 0, 'rot2': 0, 'depth': -1.514, 'yaw': 176.3, 'datetime': '2018-12-12 14:36:17.189413', 'mgs': 0, 'flw2': 2.6, 'flw1': 0.0, 'flw0': 1.77, 'time': 36.58, 'compass': 46.38, 'pitch': -0.61, 'roll': -6.73}
{'lipoC2': 7.26, 'temp': 0.0, 'lipoC3S3': 11.17, 'state': 'normal', 'rot1': 339, 'rot0': 325, 'rot3': 0, 'rot2': 0, 'depth': -0.064, 'yaw': 177.97, 'datetime': '2018-12-12 14:36:17.399478', 'mgs': 0, 'flw2': 0.0, 'flw1': 0.06, 'flw0': 1.79, 'time': 36.79, 'compass': 48.05, 'pitch': -0.43, 'roll': -7.0}
{'lipoC2': 7.34, 'temp': 0.0, 'lipoC3S3': 11.19, 'state': 'normal', 'rot1': 341, 'rot0': 325, 'rot3': 0, 'rot2': 0, 'depth': -1.514, 'yaw': 177.45, 'datetime': '2018-12-12 14:36:17.608495', 'mgs': 0, 'flw2': 0.01, 'flw1': 0.0, 'flw0': 2.38, 'time': 36.99, 'compass': 47.53, 'pitch': -1.54, 'roll': -7.7}
{'lipoC2': 7.15, 'temp': 0.0, 'lipoC3S3': 11.4, 'state': 'normal', 'rot1': 344, 'rot0': 325, 'rot3': 0, 'rot2': 0, 'depth': -0.446, 'yaw': 174.43, 'datetime': '2018-12-12 14:36:17.815890', 'mgs': 0, 'flw2': 0.0, 'flw1': 0.53, 'flw0': 2.31, 'time': 37.2, 'compass': 44.51, 'pitch': -2.2, 'roll': -8.74}
{'lipoC2': 7.27, 'temp': 0.0, 'lipoC3S3': 11.06, 'state': 'normal', 'rot1': 346, 'rot0': 325, 'rot3': 0, 'rot2': 0, 'depth': 1.92, 'yaw': 169.83, 'datetime': '2018-12-12 14:36:18.024062', 'mgs': 0, 'flw2': 0.06, 'flw1': 0.26, 'flw0': 1.75, 'time': 37.41, 'compass': 39.91, 'pitch': -1.01, 'roll': -9.38}
{'lipoC2': 7.28, 'temp': 0.0, 'lipoC3S3': 11.03, 'state': 'normal', 'rot1': 347, 'rot0': 326, 'rot3': 0, 'rot2': 0, 'depth': -0.98, 'yaw': 165.22, 'datetime': '2018-12-12 14:36:18.236886', 'mgs': 0, 'flw2': 1.22, 'flw1': 0.0, 'flw0': 0.38, 'time': 37.62, 'compass': 35.3, 'pitch': 0.61, 'roll': -9.41}
{'lipoC2': 7.28, 'temp': 0.0, 'lipoC3S3': 11.14, 'state': 'normal', 'rot1': 348, 'rot0': 327, 'rot3': 0, 'rot2': 0, 'depth': 1.157, 'yaw': 162.33, 'datetime': '2018-12-12 14:36:18.443261', 'mgs': 0, 'flw2': 0.87, 'flw1': 0.0, 'flw0': 0.05, 'time': 37.83, 'compass': 32.41, 'pitch': 0.85, 'roll': -8.46}
{'lipoC2': 7.23, 'temp': 0.0, 'lipoC3S3': 11.26, 'state': 'normal', 'rot1': 349, 'rot0': 329, 'rot3': 0, 'rot2': 0, 'depth': 0.317, 'yaw': 161.29, 'datetime': '2018-12-12 14:36:18.653694', 'mgs': 0, 'flw2': 1.03, 'flw1': 0.0, 'flw0': 0.6, 'time': 38.04, 'compass': 31.37, 'pitch': 0.07, 'roll': -7.19}
{'lipoC2': 7.13, 'temp': 0.0, 'lipoC3S3': 11.14, 'state': 'normal', 'rot1': 350, 'rot0': 331, 'rot3': 0, 'rot2': 0, 'depth': -0.14, 'yaw': 161.35, 'datetime': '2018-12-12 14:36:18.863339', 'mgs': 0, 'flw2': 1.4, 'flw1': 0.0, 'flw0': 0.51, 'time': 38.25, 'compass': 31.43, 'pitch': -0.43, 'roll': -6.41}
{'lipoC2': 7.43, 'temp': 0.0, 'lipoC3S3': 11.3, 'state': 'normal', 'rot1': 350, 'rot0': 332, 'rot3': 0, 'rot2': 0, 'depth': -1.132, 'yaw': 162.16, 'datetime': '2018-12-12 14:36:19.070462', 'mgs': 0, 'flw2': 1.84, 'flw1': 0.0, 'flw0': 0.0, 'time': 38.46, 'compass': 32.24, 'pitch': -0.47, 'roll': -6.52}
{'lipoC2': 7.24, 'temp': 0.0, 'lipoC3S3': 11.23, 'state': 'normal', 'rot1': 351, 'rot0': 334, 'rot3': 0, 'rot2': 0, 'depth': 1.538, 'yaw': 164.11, 'datetime': '2018-12-12 14:36:19.279617', 'mgs': 0, 'flw2': 2.34, 'flw1': 0.56, 'flw0': 0.01, 'time': 38.67, 'compass': 34.19, 'pitch': -0.08, 'roll': -6.98}
{'lipoC2': 7.41, 'temp': 0.0, 'lipoC3S3': 10.98, 'state': 'normal', 'rot1': 352, 'rot0': 337, 'rot3': 0, 'rot2': 0, 'depth': -0.293, 'yaw': 167.62, 'datetime': '2018-12-12 14:36:19.490219', 'mgs': 0, 'flw2': 3.02, 'flw1': 0.85, 'flw0': 0.0, 'time': 38.88, 'compass': 37.69, 'pitch': 0.12, 'roll': -6.95}
{'lipoC2': 7.4, 'temp': 0.0, 'lipoC3S3': 11.11, 'state': 'normal', 'rot1': 352, 'rot0': 340, 'rot3': 0, 'rot2': 0, 'depth': -1.514, 'yaw': 173.16, 'datetime': '2018-12-12 14:36:19.699968', 'mgs': 0, 'flw2': 2.32, 'flw1': 0.0, 'flw0': 0.71, 'time': 39.09, 'compass': 43.24, 'pitch': -0.39, 'roll': -6.27}
{'lipoC2': 7.37, 'temp': 0.0, 'lipoC3S3': 11.13, 'state': 'normal', 'rot1': 354, 'rot0': 341, 'rot3': 0, 'rot2': 0, 'depth': -0.674, 'yaw': 178.4, 'datetime': '2018-12-12 14:36:19.909558', 'mgs': 0, 'flw2': 0.07, 'flw1': 0.0, 'flw0': 1.7, 'time': 39.3, 'compass': 48.48, 'pitch': -1.5, 'roll': -5.55}
{'lipoC2': 7.17, 'temp': 0.0, 'lipoC3S3': 11.11, 'state': 'normal', 'rot1': 356, 'rot0': 341, 'rot3': 0, 'rot2': 0, 'depth': -0.369, 'yaw': -179.44, 'datetime': '2018-12-12 14:36:20.118220', 'mgs': 0, 'flw2': 0.0, 'flw1': 0.62, 'flw0': 2.05, 'time': 39.5, 'compass': 50.64, 'pitch': -2.76, 'roll': -5.93}
{'lipoC2': 7.27, 'temp': 0.0, 'lipoC3S3': 11.01, 'state': 'normal', 'rot1': 358, 'rot0': 341, 'rot3': 0, 'rot2': 0, 'depth': 1.92, 'yaw': -179.94, 'datetime': '2018-12-12 14:36:20.327810', 'mgs': 0, 'flw2': 0.21, 'flw1': 0.0, 'flw0': 1.93, 'time': 39.71, 'compass': 50.14, 'pitch': -3.3, 'roll': -6.94}
{'lipoC2': 7.44, 'temp': 0.0, 'lipoC3S3': 11.14, 'state': 'normal', 'rot1': 360, 'rot0': 341, 'rot3': 0, 'rot2': 0, 'depth': 0.165, 'yaw': 177.78, 'datetime': '2018-12-12 14:36:20.536369', 'mgs': 0, 'flw2': 0.0, 'flw1': 0.0, 'flw0': 1.97, 'time': 39.92, 'compass': 47.86, 'pitch': -2.93, 'roll': -7.76}
{'lipoC2': 7.26, 'temp': 0.0, 'lipoC3S3': 11.14, 'state': 'normal', 'rot1': 362, 'rot0': 341, 'rot3': 0, 'rot2': 0, 'depth': -0.064, 'yaw': 174.12, 'datetime': '2018-12-12 14:36:20.746891', 'mgs': 0, 'flw2': 0.65, 'flw1': 0.0, 'flw0': 1.71, 'time': 40.13, 'compass': 44.2, 'pitch': -2.1, 'roll': -8.13}
{'lipoC2': 7.34, 'temp': 0.0, 'lipoC3S3': 11.51, 'state': 'normal', 'rot1': 363, 'rot0': 342, 'rot3': 0, 'rot2': 0, 'depth': -0.903, 'yaw': 169.89, 'datetime': '2018-12-12 14:36:20.959093', 'mgs': 0, 'flw2': 0.52, 'flw1': 0.0, 'flw0': 0.28, 'time': 40.34, 'compass': 39.97, 'pitch': -1.93, 'roll': -7.92}
{'lipoC2': 7.39, 'temp': 0.0, 'lipoC3S3': 11.23, 'state': 'normal', 'rot1': 363, 'rot0': 343, 'rot3': 0, 'rot2': 0, 'depth': -1.361, 'yaw': 167.37, 'datetime': '2018-12-12 14:36:21.163266', 'mgs': 0, 'flw2': 0.18, 'flw1': 0.0, 'flw0': 0.06, 'time': 40.55, 'compass': 37.45, 'pitch': -2.8, 'roll': -7.04}
{'lipoC2': 7.21, 'temp': 0.0, 'lipoC3S3': 11.23, 'state': 'normal', 'rot1': 363, 'rot0': 343, 'rot3': 0, 'rot2': 0, 'depth': 1.309, 'yaw': 165.78, 'datetime': '2018-12-12 14:36:21.372736', 'mgs': 0, 'flw2': 0.0, 'flw1': 0.06, 'flw0': 0.0, 'time': 40.76, 'compass': 35.86, 'pitch': -3.22, 'roll': -6.38}
{'lipoC2': 7.28, 'temp': 0.0, 'lipoC3S3': 11.5, 'state': 'normal', 'rot1': 363, 'rot0': 343, 'rot3': 0, 'rot2': 0, 'depth': -1.666, 'yaw': 164.35, 'datetime': '2018-12-12 14:36:21.580737', 'mgs': 0, 'flw2': 0.24, 'flw1': 0.0, 'flw0': 0.06, 'time': 40.97, 'compass': 34.42, 'pitch': -2.93, 'roll': -6.36}
{'lipoC2': 7.28, 'temp': 0.0, 'lipoC3S3': 11.06, 'state': 'normal', 'rot1': 363, 'rot0': 343, 'rot3': 0, 'rot2': 0, 'depth': 0.851, 'yaw': 163.12, 'datetime': '2018-12-12 14:36:21.800359', 'mgs': 0, 'flw2': 0.01, 'flw1': 0.0, 'flw0': 0.2, 'time': 41.18, 'compass': 33.2, 'pitch': -2.22, 'roll': -6.66}
{'lipoC2': 7.51, 'temp': 0.0, 'lipoC3S3': 11.15, 'state': 'normal', 'rot1': 363, 'rot0': 343, 'rot3': 0, 'rot2': 0, 'depth': -0.598, 'yaw': 161.91, 'datetime': '2018-12-12 14:36:22.001624', 'mgs': 0, 'flw2': 0.15, 'flw1': 0.0, 'flw0': 0.0, 'time': 41.39, 'compass': 31.99, 'pitch': -1.79, 'roll': -6.77}
{'lipoC2': 7.14, 'temp': 0.0, 'lipoC3S3': 11.44, 'state': 'normal', 'rot1': 363, 'rot0': 343, 'rot3': 0, 'rot2': 0, 'depth': -0.522, 'yaw': 160.8, 'datetime': '2018-12-12 14:36:22.211163', 'mgs': 0, 'flw2': 0.07, 'flw1': 0.0, 'flw0': 0.27, 'time': 41.6, 'compass': 30.88, 'pitch': -2.01, 'roll': -6.58}
{'lipoC2': 7.42, 'temp': 0.0, 'lipoC3S3': 11.03, 'state': 'normal', 'rot1': 363, 'rot0': 343, 'rot3': 0, 'rot2': 0, 'depth': -2.2, 'yaw': 159.73, 'datetime': '2018-12-12 14:36:22.420724', 'mgs': 0, 'flw2': 0.12, 'flw1': 0.0, 'flw0': 0.0, 'time': 41.81, 'compass': 29.8, 'pitch': -2.16, 'roll': -6.32}
{'lipoC2': 7.3, 'temp': 0.0, 'lipoC3S3': 11.39, 'state': 'normal', 'rot1': 363, 'rot0': 343, 'rot3': 0, 'rot2': 0, 'depth': -1.666, 'yaw': 158.69, 'datetime': '2018-12-12 14:36:22.629067', 'mgs': 0, 'flw2': 0.0, 'flw1': 0.7, 'flw0': 0.0, 'time': 42.01, 'compass': 28.77, 'pitch': -1.83, 'roll': -6.27}
{'lipoC2': 7.36, 'temp': 0.0, 'lipoC3S3': 11.03, 'state': 'normal', 'rot1': 363, 'rot0': 343, 'rot3': 0, 'rot2': 0, 'depth': -1.819, 'yaw': 157.71, 'datetime': '2018-12-12 14:36:22.843363', 'mgs': 0, 'flw2': 0.17, 'flw1': 0.0, 'flw0': 0.07, 'time': 42.22, 'compass': 27.79, 'pitch': -1.44, 'roll': -6.39}
{'lipoC2': 7.12, 'temp': 0.0, 'lipoC3S3': 11.52, 'state': 'normal', 'rot1': 363, 'rot0': 343, 'rot3': 0, 'rot2': 0, 'depth': -1.437, 'yaw': 156.85, 'datetime': '2018-12-12 14:36:23.055746', 'mgs': 0, 'flw2': 0.09, 'flw1': 0.0, 'flw0': 0.04, 'time': 42.43, 'compass': 26.93, 'pitch': -1.32, 'roll': -6.42}
{'lipoC2': 7.27, 'temp': 0.0, 'lipoC3S3': 11.06, 'state': 'normal', 'rot1': 363, 'rot0': 343, 'rot3': 0, 'rot2': 0, 'depth': 0.165, 'yaw': 156.04, 'datetime': '2018-12-12 14:36:23.262856', 'mgs': 0, 'flw2': 0.0, 'flw1': 0.15, 'flw0': 0.0, 'time': 42.64, 'compass': 26.12, 'pitch': -1.5, 'roll': -6.44}
