{'lipoC2': 7.81, 'temp': 0.0, 'lipoC3S3': 11.6, 'state': 'normal', 'rot1': 15, 'rot0': 15, 'rot3': 0, 'rot2': 0, 'depth': 2.301, 'yaw': -0.08, 'datetime': '2018-12-12 11:24:52.846186', 'mgs': 0, 'flw2': 6.59, 'flw1': 0.0, 'flw0': 6.65, 'time': 1.26, 'compass': -61.37, 'pitch': 6.72, 'roll': 0.47}
{'lipoC2': 7.8, 'temp': 0.0, 'lipoC3S3': 11.94, 'state': 'normal', 'rot1': 20, 'rot0': 19, 'rot3': 0, 'rot2': 0, 'depth': 1.614, 'yaw': -1.49, 'datetime': '2018-12-12 11:24:53.054565', 'mgs': 0, 'flw2': 8.85, 'flw1': 0.0, 'flw0': 7.26, 'time': 1.47, 'compass': -62.78, 'pitch': 7.29, 'roll': 0.28}
{'lipoC2': 7.86, 'temp': 0.0, 'lipoC3S3': 11.65, 'state': 'normal', 'rot1': 24, 'rot0': 23, 'rot3': 0, 'rot2': 0, 'depth': 1.92, 'yaw': -1.84, 'datetime': '2018-12-12 11:24:53.263365', 'mgs': 0, 'flw2': 10.07, 'flw1': 0.32, 'flw0': 7.13, 'time': 1.67, 'compass': -63.13, 'pitch': 8.11, 'roll': 0.09}
{'lipoC2': 7.82, 'temp': 0.0, 'lipoC3S3': 12.04, 'state': 'normal', 'rot1': 30, 'rot0': 27, 'rot3': 0, 'rot2': 0, 'depth': 2.454, 'yaw': -1.03, 'datetime': '2018-12-12 11:24:53.471162', 'mgs': 0, 'flw2': 9.9, 'flw1': 0.0, 'flw0': 7.07, 'time': 1.88, 'compass': -62.32, 'pitch': 9.29, 'roll': 0.24}
{'lipoC2': 7.81, 'temp': 0.0, 'lipoC3S3': 11.58, 'state': 'normal', 'rot1': 35, 'rot0': 32, 'rot3': 0, 'rot2': 0, 'depth': 2.988, 'yaw': 0.52, 'datetime': '2018-12-12 11:24:53.680547', 'mgs': 0, 'flw2': 10.75, 'flw1': 0.0, 'flw0': 7.37, 'time': 2.09, 'compass': -60.76, 'pitch': 10.54, 'roll': 0.94}
{'lipoC2': 7.81, 'temp': 0.0, 'lipoC3S3': 11.85, 'state': 'normal', 'rot1': 40, 'rot0': 36, 'rot3': 0, 'rot2': 0, 'depth': 3.598, 'yaw': 2.44, 'datetime': '2018-12-12 11:24:53.888499', 'mgs': 0, 'flw2': 10.38, 'flw1': 0.0, 'flw0': 7.3, 'time': 2.3, 'compass': -58.85, 'pitch': 11.91, 'roll': 1.27}
{'lipoC2': 7.76, 'temp': 0.0, 'lipoC3S3': 11.68, 'state': 'normal', 'rot1': 44, 'rot0': 41, 'rot3': 0, 'rot2': 0, 'depth': 1.08, 'yaw': 4.24, 'datetime': '2018-12-12 11:24:54.098886', 'mgs': 0, 'flw2': 11.17, 'flw1': 0.0, 'flw0': 5.94, 'time': 2.51, 'compass': -57.05, 'pitch': 13.06, 'roll': 1.37}
{'lipoC2': 8.08, 'temp': 0.0, 'lipoC3S3': 11.59, 'state': 'normal', 'rot1': 49, 'rot0': 46, 'rot3': 0, 'rot2': 0, 'depth': 2.835, 'yaw': 6.75, 'datetime': '2018-12-12 11:24:54.309232', 'mgs': 0, 'flw2': 11.17, 'flw1': 0.0, 'flw0': 6.2, 'time': 2.72, 'compass': -54.54, 'pitch': 12.99, 'roll': 1.56}
{'lipoC2': 7.81, 'temp': 0.0, 'lipoC3S3': 11.96, 'state': 'normal', 'rot1': 54, 'rot0': 51, 'rot3': 0, 'rot2': 0, 'depth': 1.309, 'yaw': 10.02, 'datetime': '2018-12-12 11:24:54.517372', 'mgs': 0, 'flw2': 11.38, 'flw1': 0.0, 'flw0': 6.48, 'time': 2.92, 'compass': -51.26, 'pitch': 12.07, 'roll': 1.88}
{'lipoC2': 7.85, 'temp': 0.0, 'lipoC3S3': 11.46, 'state': 'normal', 'rot1': 59, 'rot0': 56, 'rot3': 0, 'rot2': 0, 'depth': 0.089, 'yaw': 13.56, 'datetime': '2018-12-12 11:24:54.726859', 'mgs': 0, 'flw2': 11.15, 'flw1': 0.0, 'flw0': 6.53, 'time': 3.13, 'compass': -47.73, 'pitch': 11.52, 'roll': 2.37}
{'lipoC2': 8.08, 'temp': 0.0, 'lipoC3S3': 11.43, 'state': 'normal', 'rot1': 63, 'rot0': 60, 'rot3': 0, 'rot2': 0, 'depth': -0.522, 'yaw': 17.52, 'datetime': '2018-12-12 11:24:54.938129', 'mgs': 0, 'flw2': 11.05, 'flw1': 0.0, 'flw0': 6.08, 'time': 3.34, 'compass': -43.77, 'pitch': 11.67, 'roll': 2.87}
{'lipoC2': 7.81, 'temp': 0.0, 'lipoC3S3': 11.54, 'state': 'normal', 'rot1': 68, 'rot0': 65, 'rot3': 0, 'rot2': 0, 'depth': 0.851, 'yaw': 21.24, 'datetime': '2018-12-12 11:24:55.144914', 'mgs': 0, 'flw2': 11.29, 'flw1': 0.09, 'flw0': 5.92, 'time': 3.55, 'compass': -40.05, 'pitch': 11.82, 'roll': 3.36}
{'lipoC2': 8.07, 'temp': 0.0, 'lipoC3S3': 11.48, 'state': 'normal', 'rot1': 72, 'rot0': 70, 'rot3': 0, 'rot2': 0, 'depth': 3.369, 'yaw': 24.97, 'datetime': '2018-12-12 11:24:55.356855', 'mgs': 0, 'flw2': 11.38, 'flw1': 0.0, 'flw0': 6.3, 'time': 3.76, 'compass': -36.32, 'pitch': 12.03, 'roll': 3.66}
{'lipoC2': 7.96, 'temp': 0.0, 'lipoC3S3': 11.48, 'state': 'normal', 'rot1': 76, 'rot0': 75, 'rot3': 0, 'rot2': 0, 'depth': 0.317, 'yaw': 28.4, 'datetime': '2018-12-12 11:24:55.565950', 'mgs': 0, 'flw2': 11.35, 'flw1': 0.0, 'flw0': 6.15, 'time': 3.97, 'compass': -32.89, 'pitch': 12.32, 'roll': 3.94}
{'lipoC2': 7.76, 'temp': 0.0, 'lipoC3S3': 11.63, 'state': 'normal', 'rot1': 81, 'rot0': 80, 'rot3': 0, 'rot2': 0, 'depth': 0.089, 'yaw': 31.9, 'datetime': '2018-12-12 11:24:55.774727', 'mgs': 0, 'flw2': 11.05, 'flw1': 0.5, 'flw0': 6.95, 'time': 4.18, 'compass': -29.39, 'pitch': 12.98, 'roll': 4.0}
{'lipoC2': 7.8, 'temp': 0.0, 'lipoC3S3': 11.73, 'state': 'normal', 'rot1': 86, 'rot0': 85, 'rot3': 0, 'rot2': 0, 'depth': 2.988, 'yaw': 35.31, 'datetime': '2018-12-12 11:24:55.982918', 'mgs': 0, 'flw2': 11.13, 'flw1': 0.0, 'flw0': 7.12, 'time': 4.39, 'compass': -25.98, 'pitch': 13.66, 'roll': 3.97}
{'lipoC2': 7.97, 'temp': 0.0, 'lipoC3S3': 11.46, 'state': 'normal', 'rot1': 91, 'rot0': 91, 'rot3': 0, 'rot2': 0, 'depth': 1.843, 'yaw': 38.65, 'datetime': '2018-12-12 11:24:56.191501', 'mgs': 0, 'flw2': 11.32, 'flw1': 0.0, 'flw0': 6.77, 'time': 4.59, 'compass': -22.64, 'pitch': 13.52, 'roll': 3.94}
{'lipoC2': 7.78, 'temp': 0.0, 'lipoC3S3': 11.55, 'state': 'normal', 'rot1': 96, 'rot0': 95, 'rot3': 0, 'rot2': 0, 'depth': 0.089, 'yaw': 41.89, 'datetime': '2018-12-12 11:24:56.400220', 'mgs': 0, 'flw2': 11.68, 'flw1': 0.0, 'flw0': 8.64, 'time': 4.8, 'compass': -19.4, 'pitch': 12.77, 'roll': 3.77}
{'lipoC2': 7.81, 'temp': 0.0, 'lipoC3S3': 11.55, 'state': 'normal', 'rot1': 101, 'rot0': 100, 'rot3': 0, 'rot2': 0, 'depth': 2.682, 'yaw': 44.84, 'datetime': '2018-12-12 11:24:56.608814', 'mgs': 0, 'flw2': 11.41, 'flw1': 0.0, 'flw0': 8.5, 'time': 5.01, 'compass': -16.45, 'pitch': 12.94, 'roll': 3.86}
{'lipoC2': 8.04, 'temp': 0.0, 'lipoC3S3': 11.38, 'state': 'normal', 'rot1': 107, 'rot0': 105, 'rot3': 0, 'rot2': 0, 'depth': -0.598, 'yaw': 48.04, 'datetime': '2018-12-12 11:24:56.820171', 'mgs': 0, 'flw2': 10.96, 'flw1': 0.0, 'flw0': 8.97, 'time': 5.22, 'compass': -13.25, 'pitch': 13.42, 'roll': 4.29}
{'lipoC2': 7.81, 'temp': 0.0, 'lipoC3S3': 11.59, 'state': 'normal', 'rot1': 113, 'rot0': 109, 'rot3': 0, 'rot2': 0, 'depth': -0.14, 'yaw': 51.03, 'datetime': '2018-12-12 11:24:57.029693', 'mgs': 0, 'flw2': 11.18, 'flw1': 0.0, 'flw0': 9.18, 'time': 5.43, 'compass': -10.26, 'pitch': 13.73, 'roll': 4.45}
{'lipoC2': 8.08, 'temp': 0.0, 'lipoC3S3': 11.56, 'state': 'normal', 'rot1': 119, 'rot0': 114, 'rot3': 0, 'rot2': 0, 'depth': 0.546, 'yaw': 53.49, 'datetime': '2018-12-12 11:24:57.239306', 'mgs': 0, 'flw2': 11.15, 'flw1': 0.0, 'flw0': 10.16, 'time': 5.64, 'compass': -7.8, 'pitch': 13.98, 'roll': 4.62}
{'lipoC2': 7.77, 'temp': 0.0, 'lipoC3S3': 11.55, 'state': 'normal', 'rot1': 126, 'rot0': 119, 'rot3': 0, 'rot2': 0, 'depth': 0.012, 'yaw': 55.46, 'datetime': '2018-12-12 11:24:57.446183', 'mgs': 0, 'flw2': 11.16, 'flw1': 0.7, 'flw0': 10.27, 'time': 5.85, 'compass': -5.83, 'pitch': 14.03, 'roll': 4.99}
{'lipoC2': 7.76, 'temp': 0.0, 'lipoC3S3': 11.54, 'state': 'normal', 'rot1': 133, 'rot0': 124, 'rot3': 0, 'rot2': 0, 'depth': 1.309, 'yaw': 56.9, 'datetime': '2018-12-12 11:24:57.655385', 'mgs': 0, 'flw2': 11.46, 'flw1': 0.73, 'flw0': 11.91, 'time': 6.06, 'compass': -4.39, 'pitch': 13.82, 'roll': 5.34}
{'lipoC2': 8.01, 'temp': 0.0, 'lipoC3S3': 11.47, 'state': 'normal', 'rot1': 141, 'rot0': 129, 'rot3': 0, 'rot2': 0, 'depth': 1.767, 'yaw': 57.75, 'datetime': '2018-12-12 11:24:57.864512', 'mgs': 0, 'flw2': 11.11, 'flw1': 0.41, 'flw0': 12.29, 'time': 6.27, 'compass': -3.54, 'pitch': 13.4, 'roll': 5.17}
{'lipoC2': 8.0, 'temp': 0.0, 'lipoC3S3': 11.42, 'state': 'normal', 'rot1': 149, 'rot0': 134, 'rot3': 0, 'rot2': 0, 'depth': 1.233, 'yaw': 58.33, 'datetime': '2018-12-12 11:24:58.074988', 'mgs': 0, 'flw2': 12.17, 'flw1': 0.0, 'flw0': 12.13, 'time': 6.48, 'compass': -2.96, 'pitch': 13.22, 'roll': 4.87}
{'lipoC2': 8.02, 'temp': 0.0, 'lipoC3S3': 11.39, 'state': 'normal', 'rot1': 157, 'rot0': 139, 'rot3': 0, 'rot2': 0, 'depth': 0.546, 'yaw': 58.69, 'datetime': '2018-12-12 11:24:58.285114', 'mgs': 0, 'flw2': 12.44, 'flw1': 0.0, 'flw0': 12.49, 'time': 6.69, 'compass': -2.6, 'pitch': 13.76, 'roll': 4.23}
{'lipoC2': 8.08, 'temp': 0.0, 'lipoC3S3': 11.34, 'state': 'normal', 'rot1': 167, 'rot0': 144, 'rot3': 0, 'rot2': 0, 'depth': 0.775, 'yaw': 59.02, 'datetime': '2018-12-12 11:24:58.493485', 'mgs': 0, 'flw2': 12.48, 'flw1': 0.0, 'flw0': 12.49, 'time': 6.89, 'compass': -2.27, 'pitch': 14.38, 'roll': 3.75}
{'lipoC2': 7.82, 'temp': 0.0, 'lipoC3S3': 11.92, 'state': 'normal', 'rot1': 175, 'rot0': 149, 'rot3': 0, 'rot2': 0, 'depth': 3.903, 'yaw': 59.63, 'datetime': '2018-12-12 11:24:58.703136', 'mgs': 0, 'flw2': 12.49, 'flw1': 0.06, 'flw0': 12.49, 'time': 7.1, 'compass': -1.66, 'pitch': 14.9, 'roll': 3.11}
{'lipoC2': 8.09, 'temp': 0.0, 'lipoC3S3': 11.27, 'state': 'normal', 'rot1': 185, 'rot0': 155, 'rot3': 0, 'rot2': 0, 'depth': 3.293, 'yaw': 60.71, 'datetime': '2018-12-12 11:24:58.911476', 'mgs': 0, 'flw2': 12.49, 'flw1': 0.91, 'flw0': 12.49, 'time': 7.31, 'compass': -0.58, 'pitch': 15.55, 'roll': 2.18}
{'lipoC2': 8.05, 'temp': 0.0, 'lipoC3S3': 11.35, 'state': 'normal', 'rot1': 195, 'rot0': 161, 'rot3': 0, 'rot2': 0, 'depth': 0.546, 'yaw': 62.14, 'datetime': '2018-12-12 11:24:59.121736', 'mgs': 0, 'flw2': 12.49, 'flw1': 0.0, 'flw0': 12.49, 'time': 7.52, 'compass': 0.86, 'pitch': 16.28, 'roll': 1.25}
{'lipoC2': 7.96, 'temp': 0.0, 'lipoC3S3': 11.31, 'state': 'normal', 'rot1': 205, 'rot0': 168, 'rot3': 0, 'rot2': 0, 'depth': 0.775, 'yaw': 63.6, 'datetime': '2018-12-12 11:24:59.331322', 'mgs': 0, 'flw2': 12.49, 'flw1': 0.0, 'flw0': 12.49, 'time': 7.73, 'compass': 2.31, 'pitch': 16.46, 'roll': 0.65}
{'lipoC2': 7.76, 'temp': 0.0, 'lipoC3S3': 11.52, 'state': 'normal', 'rot1': 218, 'rot0': 173, 'rot3': 0, 'rot2': 0, 'depth': -0.751, 'yaw': 64.89, 'datetime': '2018-12-12 11:24:59.542068', 'mgs': 0, 'flw2': 12.49, 'flw1': 0.0, 'flw0': 12.49, 'time': 7.94, 'compass': 3.6, 'pitch': 15.57, 'roll': 0.41}
{'lipoC2': 7.97, 'temp': 0.0, 'lipoC3S3': 11.35, 'state': 'normal', 'rot1': 230, 'rot0': 179, 'rot3': 0, 'rot2': 0, 'depth': 0.775, 'yaw': 65.75, 'datetime': '2018-12-12 11:24:59.750485', 'mgs': 0, 'flw2': 12.49, 'flw1': 0.03, 'flw0': 12.49, 'time': 8.15, 'compass': 4.47, 'pitch': 14.65, 'roll': 0.46}
{'lipoC2': 8.08, 'temp': 0.0, 'lipoC3S3': 11.42, 'state': 'normal', 'rot1': 240, 'rot0': 184, 'rot3': 0, 'rot2': 0, 'depth': 1.309, 'yaw': 66.25, 'datetime': '2018-12-12 11:24:59.959570', 'mgs': 0, 'flw2': 12.49, 'flw1': 0.0, 'flw0': 12.49, 'time': 8.36, 'compass': 4.97, 'pitch': 14.48, 'roll': 0.62}
{'lipoC2': 8.0, 'temp': 0.0, 'lipoC3S3': 11.47, 'state': 'normal', 'rot1': 250, 'rot0': 190, 'rot3': 0, 'rot2': 0, 'depth': 1.767, 'yaw': 66.75, 'datetime': '2018-12-12 11:25:00.167957', 'mgs': 0, 'flw2': 12.49, 'flw1': 0.32, 'flw0': 12.49, 'time': 8.57, 'compass': 5.46, 'pitch': 15.34, 'roll': 0.59}
{'lipoC2': 8.08, 'temp': 0.0, 'lipoC3S3': 11.27, 'state': 'normal', 'rot1': 260, 'rot0': 195, 'rot3': 0, 'rot2': 0, 'depth': 1.996, 'yaw': 67.01, 'datetime': '2018-12-12 11:25:00.377771', 'mgs': 0, 'flw2': 12.49, 'flw1': 0.64, 'flw0': 12.49, 'time': 8.78, 'compass': 5.72, 'pitch': 16.12, 'roll': 0.51}
{'lipoC2': 7.79, 'temp': 0.0, 'lipoC3S3': 11.48, 'state': 'normal', 'rot1': 269, 'rot0': 201, 'rot3': 0, 'rot2': 0, 'depth': 4.208, 'yaw': 67.08, 'datetime': '2018-12-12 11:25:00.588394', 'mgs': 0, 'flw2': 12.49, 'flw1': 0.0, 'flw0': 12.49, 'time': 8.99, 'compass': 5.79, 'pitch': 16.44, 'roll': 0.43}
{'lipoC2': 7.76, 'temp': 0.0, 'lipoC3S3': 11.27, 'state': 'normal', 'rot1': 278, 'rot0': 207, 'rot3': 0, 'rot2': 0, 'depth': 1.843, 'yaw': 67.23, 'datetime': '2018-12-12 11:25:00.798058', 'mgs': 0, 'flw2': 12.49, 'flw1': 0.38, 'flw0': 12.49, 'time': 9.2, 'compass': 5.94, 'pitch': 16.44, 'roll': 0.25}
{'lipoC2': 7.83, 'temp': 0.0, 'lipoC3S3': 11.61, 'state': 'normal', 'rot1': 288, 'rot0': 212, 'rot3': 0, 'rot2': 0, 'depth': 2.454, 'yaw': 67.53, 'datetime': '2018-12-12 11:25:01.010039', 'mgs': 0, 'flw2': 12.49, 'flw1': 0.0, 'flw0': 12.49, 'time': 9.4, 'compass': 6.25, 'pitch': 16.03, 'roll': 0.15}
{'lipoC2': 7.83, 'temp': 0.0, 'lipoC3S3': 11.72, 'state': 'normal', 'rot1': 291, 'rot0': 215, 'rot3': 0, 'rot2': 0, 'depth': 1.691, 'yaw': 67.93, 'datetime': '2018-12-12 11:25:01.220593', 'mgs': 0, 'flw2': 0.0, 'flw1': 0.18, 'flw0': 0.0, 'time': 9.61, 'compass': 6.64, 'pitch': 13.28, 'roll': -0.3}
{'lipoC2': 7.83, 'temp': 0.0, 'lipoC3S3': 12.04, 'state': 'normal', 'rot1': 291, 'rot0': 215, 'rot3': 0, 'rot2': 0, 'depth': 0.317, 'yaw': 68.78, 'datetime': '2018-12-12 11:25:01.429081', 'mgs': 0, 'flw2': 0.0, 'flw1': 0.5, 'flw0': 0.0, 'time': 9.82, 'compass': 7.49, 'pitch': 5.88, 'roll': -0.45}
{'lipoC2': 7.84, 'temp': 0.0, 'lipoC3S3': 11.64, 'state': 'normal', 'rot1': 291, 'rot0': 215, 'rot3': 0, 'rot2': 0, 'depth': 0.089, 'yaw': 69.66, 'datetime': '2018-12-12 11:25:01.640103', 'mgs': 0, 'flw2': 0.0, 'flw1': 0.12, 'flw0': 0.0, 'time': 10.03, 'compass': 8.37, 'pitch': 0.23, 'roll': 0.1}
{'lipoC2': 7.81, 'temp': 0.0, 'lipoC3S3': 11.75, 'state': 'normal', 'rot1': 291, 'rot0': 215, 'rot3': 0, 'rot2': 0, 'depth': 0.165, 'yaw': 70.5, 'datetime': '2018-12-12 11:25:01.849672', 'mgs': 0, 'flw2': 0.0, 'flw1': 0.59, 'flw0': 0.11, 'time': 10.24, 'compass': 9.21, 'pitch': -4.48, 'roll': 1.05}
{'lipoC2': 7.83, 'temp': 0.0, 'lipoC3S3': 12.06, 'state': 'normal', 'rot1': 291, 'rot0': 215, 'rot3': 0, 'rot2': 0, 'depth': 1.92, 'yaw': 71.33, 'datetime': '2018-12-12 11:25:02.059641', 'mgs': 0, 'flw2': 0.0, 'flw1': 0.0, 'flw0': 0.0, 'time': 10.45, 'compass': 10.04, 'pitch': -9.31, 'roll': 1.76}
{'lipoC2': 7.91, 'temp': 0.0, 'lipoC3S3': 11.64, 'state': 'normal', 'rot1': 291, 'rot0': 215, 'rot3': 0, 'rot2': 0, 'depth': 1.233, 'yaw': 72.14, 'datetime': '2018-12-12 11:25:02.269138', 'mgs': 0, 'flw2': 0.0, 'flw1': 0.32, 'flw0': 0.0, 'time': 10.66, 'compass': 10.86, 'pitch': -13.46, 'roll': 2.23}
{'lipoC2': 7.83, 'temp': 0.0, 'lipoC3S3': 12.04, 'state': 'normal', 'rot1': 291, 'rot0': 215, 'rot3': 0, 'rot2': 0, 'depth': 0.394, 'yaw': 73.1, 'datetime': '2018-12-12 11:25:02.475326', 'mgs': 0, 'flw2': 0.18, 'flw1': 0.0, 'flw0': 0.23, 'time': 10.87, 'compass': 11.81, 'pitch': -16.61, 'roll': 2.49}
{'lipoC2': 7.88, 'temp': 0.0, 'lipoC3S3': 11.63, 'state': 'normal', 'rot1': 291, 'rot0': 215, 'rot3': 0, 'rot2': 0, 'depth': 0.317, 'yaw': 74.19, 'datetime': '2018-12-12 11:25:02.686494', 'mgs': 0, 'flw2': 0.0, 'flw1': 0.0, 'flw0': 0.0, 'time': 11.08, 'compass': 12.9, 'pitch': -18.68, 'roll': 2.64}
{'lipoC2': 7.8, 'temp': 0.0, 'lipoC3S3': 11.9, 'state': 'normal', 'rot1': 291, 'rot0': 215, 'rot3': 0, 'rot2': 0, 'depth': 3.14, 'yaw': 75.58, 'datetime': '2018-12-12 11:25:02.895553', 'mgs': 0, 'flw2': 0.27, 'flw1': 0.0, 'flw0': 0.27, 'time': 11.28, 'compass': 14.29, 'pitch': -20.03, 'roll': 2.72}
{'lipoC2': 7.79, 'temp': 0.0, 'lipoC3S3': 12.02, 'state': 'normal', 'rot1': 291, 'rot0': 215, 'rot3': 0, 'rot2': 0, 'depth': -0.064, 'yaw': 77.3, 'datetime': '2018-12-12 11:25:03.107746', 'mgs': 0, 'flw2': 0.23, 'flw1': 0.0, 'flw0': 0.27, 'time': 11.49, 'compass': 16.01, 'pitch': -20.18, 'roll': 2.86}
{'lipoC2': 8.02, 'temp': 0.0, 'lipoC3S3': 11.8, 'state': 'normal', 'rot1': 291, 'rot0': 215, 'rot3': 0, 'rot2': 0, 'depth': 0.546, 'yaw': 79.31, 'datetime': '2018-12-12 11:25:03.317042', 'mgs': 0, 'flw2': 0.0, 'flw1': 0.23, 'flw0': 0.0, 'time': 11.7, 'compass': 18.02, 'pitch': -19.13, 'roll': 2.9}
{'lipoC2': 7.81, 'temp': 0.0, 'lipoC3S3': 11.81, 'state': 'normal', 'rot1': 291, 'rot0': 215, 'rot3': 0, 'rot2': 0, 'depth': 0.851, 'yaw': 81.51, 'datetime': '2018-12-12 11:25:03.523325', 'mgs': 0, 'flw2': 0.0, 'flw1': 0.0, 'flw0': 0.0, 'time': 11.91, 'compass': 20.22, 'pitch': -17.31, 'roll': 2.8}
{'lipoC2': 7.86, 'temp': 0.0, 'lipoC3S3': 11.79, 'state': 'normal', 'rot1': 291, 'rot0': 215, 'rot3': 0, 'rot2': 0, 'depth': 1.462, 'yaw': 83.97, 'datetime': '2018-12-12 11:25:03.733270', 'mgs': 0, 'flw2': 0.0, 'flw1': 0.0, 'flw0': 0.0, 'time': 12.12, 'compass': 22.68, 'pitch': -15.15, 'roll': 2.69}
{'lipoC2': 7.83, 'temp': 0.0, 'lipoC3S3': 12.1, 'state': 'normal', 'rot1': 291, 'rot0': 215, 'rot3': 0, 'rot2': 0, 'depth': 2.759, 'yaw': 86.4, 'datetime': '2018-12-12 11:25:03.941928', 'mgs': 0, 'flw2': 0.0, 'flw1': 0.0, 'flw0': 0.0, 'time': 12.33, 'compass': 25.11, 'pitch': -12.96, 'roll': 2.65}
{'lipoC2': 7.84, 'temp': 0.0, 'lipoC3S3': 11.8, 'state': 'normal', 'rot1': 291, 'rot0': 215, 'rot3': 0, 'rot2': 0, 'depth': 1.767, 'yaw': 88.75, 'datetime': '2018-12-12 11:25:04.148511', 'mgs': 0, 'flw2': 0.13, 'flw1': 0.0, 'flw0': 0.0, 'time': 12.54, 'compass': 27.46, 'pitch': -10.91, 'roll': 2.63}
{'lipoC2': 7.88, 'temp': 0.0, 'lipoC3S3': 11.77, 'state': 'normal', 'rot1': 291, 'rot0': 215, 'rot3': 0, 'rot2': 0, 'depth': 1.996, 'yaw': 91.89, 'datetime': '2018-12-12 11:25:04.462770', 'mgs': 0, 'flw2': 0.0, 'flw1': 0.03, 'flw0': 0.0, 'time': 12.85, 'compass': 30.6, 'pitch': -8.45, 'roll': 2.29}
{'lipoC2': 8.05, 'temp': 0.0, 'lipoC3S3': 11.76, 'state': 'normal', 'rot1': 291, 'rot0': 215, 'rot3': 0, 'rot2': 0, 'depth': 3.369, 'yaw': 93.76, 'datetime': '2018-12-12 11:25:04.675135', 'mgs': 0, 'flw2': 0.0, 'flw1': 0.62, 'flw0': 0.0, 'time': 13.06, 'compass': 32.48, 'pitch': -7.11, 'roll': 1.88}
{'lipoC2': 7.87, 'temp': 0.0, 'lipoC3S3': 11.67, 'state': 'normal', 'rot1': 291, 'rot0': 215, 'rot3': 0, 'rot2': 0, 'depth': 3.674, 'yaw': 95.37, 'datetime': '2018-12-12 11:25:04.878811', 'mgs': 0, 'flw2': 0.0, 'flw1': 0.0, 'flw0': 0.0, 'time': 13.27, 'compass': 34.09, 'pitch': -6.12, 'roll': 1.52}
{'lipoC2': 8.05, 'temp': 0.0, 'lipoC3S3': 11.76, 'state': 'normal', 'rot1': 291, 'rot0': 215, 'rot3': 0, 'rot2': 0, 'depth': 1.08, 'yaw': 96.69, 'datetime': '2018-12-12 11:25:05.088326', 'mgs': 0, 'flw2': 0.0, 'flw1': 0.64, 'flw0': 0.0, 'time': 13.48, 'compass': 35.4, 'pitch': -5.39, 'roll': 1.23}
{'lipoC2': 7.81, 'temp': 0.0, 'lipoC3S3': 11.79, 'state': 'normal', 'rot1': 291, 'rot0': 215, 'rot3': 0, 'rot2': 0, 'depth': 4.514, 'yaw': 97.89, 'datetime': '2018-12-12 11:25:05.298460', 'mgs': 0, 'flw2': 0.18, 'flw1': 0.0, 'flw0': 0.18, 'time': 13.69, 'compass': 36.6, 'pitch': -5.05, 'roll': 1.06}
{'lipoC2': 7.79, 'temp': 0.0, 'lipoC3S3': 12.08, 'state': 'normal', 'rot1': 291, 'rot0': 215, 'rot3': 0, 'rot2': 0, 'depth': 2.301, 'yaw': 98.97, 'datetime': '2018-12-12 11:25:05.505769', 'mgs': 0, 'flw2': 0.0, 'flw1': 0.59, 'flw0': 0.0, 'time': 13.9, 'compass': 37.69, 'pitch': -5.45, 'roll': 1.0}
{'lipoC2': 7.97, 'temp': 0.0, 'lipoC3S3': 11.71, 'state': 'normal', 'rot1': 291, 'rot0': 215, 'rot3': 0, 'rot2': 0, 'depth': 2.225, 'yaw': 99.89, 'datetime': '2018-12-12 11:25:05.714401', 'mgs': 0, 'flw2': 0.0, 'flw1': 0.18, 'flw0': 0.0, 'time': 14.1, 'compass': 38.6, 'pitch': -6.52, 'roll': 1.19}
{'lipoC2': 7.83, 'temp': 0.0, 'lipoC3S3': 11.75, 'state': 'normal', 'rot1': 291, 'rot0': 215, 'rot3': 0, 'rot2': 0, 'depth': 4.59, 'yaw': 100.58, 'datetime': '2018-12-12 11:25:05.927388', 'mgs': 0, 'flw2': 0.0, 'flw1': 0.47, 'flw0': 0.0, 'time': 14.31, 'compass': 39.3, 'pitch': -7.9, 'roll': 1.58}
{'lipoC2': 7.8, 'temp': 0.0, 'lipoC3S3': 11.97, 'state': 'normal', 'rot1': 291, 'rot0': 215, 'rot3': 0, 'rot2': 0, 'depth': 4.895, 'yaw': 101.08, 'datetime': '2018-12-12 11:25:06.134487', 'mgs': 0, 'flw2': 0.02, 'flw1': 0.0, 'flw0': 0.0, 'time': 14.52, 'compass': 39.79, 'pitch': -9.26, 'roll': 2.02}
{'lipoC2': 7.78, 'temp': 0.0, 'lipoC3S3': 12.08, 'state': 'normal', 'rot1': 291, 'rot0': 215, 'rot3': 0, 'rot2': 0, 'depth': 2.301, 'yaw': 101.38, 'datetime': '2018-12-12 11:25:06.344316', 'mgs': 0, 'flw2': 0.0, 'flw1': 0.53, 'flw0': 0.0, 'time': 14.73, 'compass': 40.09, 'pitch': -10.53, 'roll': 2.53}
{'lipoC2': 8.06, 'temp': 0.0, 'lipoC3S3': 11.83, 'state': 'normal', 'rot1': 291, 'rot0': 215, 'rot3': 0, 'rot2': 0, 'depth': 1.538, 'yaw': 101.5, 'datetime': '2018-12-12 11:25:06.552119', 'mgs': 0, 'flw2': 0.0, 'flw1': 0.29, 'flw0': 0.0, 'time': 14.94, 'compass': 40.21, 'pitch': -11.36, 'roll': 3.0}
{'lipoC2': 7.8, 'temp': 0.0, 'lipoC3S3': 11.84, 'state': 'normal', 'rot1': 291, 'rot0': 215, 'rot3': 0, 'rot2': 0, 'depth': 4.819, 'yaw': 101.46, 'datetime': '2018-12-12 11:25:06.758792', 'mgs': 0, 'flw2': 0.0, 'flw1': 0.62, 'flw0': 0.01, 'time': 15.15, 'compass': 40.17, 'pitch': -11.5, 'roll': 3.36}
{'lipoC2': 8.06, 'temp': 0.0, 'lipoC3S3': 11.83, 'state': 'normal', 'rot1': 291, 'rot0': 215, 'rot3': 0, 'rot2': 0, 'depth': 1.538, 'yaw': 101.38, 'datetime': '2018-12-12 11:25:06.969037', 'mgs': 0, 'flw2': 0.0, 'flw1': 0.53, 'flw0': 0.0, 'time': 15.36, 'compass': 40.09, 'pitch': -11.1, 'roll': 3.5}
{'lipoC2': 7.78, 'temp': 0.0, 'lipoC3S3': 12.08, 'state': 'normal', 'rot1': 291, 'rot0': 215, 'rot3': 0, 'rot2': 0, 'depth': 2.301, 'yaw': 101.37, 'datetime': '2018-12-12 11:25:07.180726', 'mgs': 0, 'flw2': 0.0, 'flw1': 0.62, 'flw0': 0.0, 'time': 15.57, 'compass': 40.08, 'pitch': -10.4, 'roll': 3.36}
{'lipoC2': 7.8, 'temp': 0.0, 'lipoC3S3': 12.0, 'state': 'normal', 'rot1': 291, 'rot0': 215, 'rot3': 0, 'rot2': 0, 'depth': 4.742, 'yaw': 101.23, 'datetime': '2018-12-12 11:25:07.387581', 'mgs': 0, 'flw2': 0.07, 'flw1': 0.0, 'flw0': 0.0, 'time': 15.78, 'compass': 39.94, 'pitch': -9.52, 'roll': 3.07}
{'lipoC2': 8.07, 'temp': 0.0, 'lipoC3S3': 11.79, 'state': 'normal', 'rot1': 291, 'rot0': 215, 'rot3': 0, 'rot2': 0, 'depth': 1.385, 'yaw': 101.02, 'datetime': '2018-12-12 11:25:07.597143', 'mgs': 0, 'flw2': 0.0, 'flw1': 0.59, 'flw0': 0.0, 'time': 15.98, 'compass': 39.73, 'pitch': -8.64, 'roll': 2.61}
{'lipoC2': 7.76, 'temp': 0.0, 'lipoC3S3': 11.87, 'state': 'normal', 'rot1': 291, 'rot0': 215, 'rot3': 0, 'rot2': 0, 'depth': 1.996, 'yaw': 100.76, 'datetime': '2018-12-12 11:25:07.807642', 'mgs': 0, 'flw2': 0.0, 'flw1': 0.26, 'flw0': 0.0, 'time': 16.19, 'compass': 39.47, 'pitch': -7.87, 'roll': 2.08}
{'lipoC2': 7.94, 'temp': 0.0, 'lipoC3S3': 11.67, 'state': 'normal', 'rot1': 291, 'rot0': 215, 'rot3': 0, 'rot2': 0, 'depth': 2.606, 'yaw': 100.53, 'datetime': '2018-12-12 11:25:08.016592', 'mgs': 0, 'flw2': 0.0, 'flw1': 0.18, 'flw0': 0.0, 'time': 16.4, 'compass': 39.25, 'pitch': -7.23, 'roll': 1.58}
{'lipoC2': 7.8, 'temp': 0.0, 'lipoC3S3': 11.9, 'state': 'normal', 'rot1': 291, 'rot0': 215, 'rot3': 0, 'rot2': 0, 'depth': 4.514, 'yaw': 100.35, 'datetime': '2018-12-12 11:25:08.224871', 'mgs': 0, 'flw2': 0.16, 'flw1': 0.0, 'flw0': 0.0, 'time': 16.61, 'compass': 39.06, 'pitch': -6.76, 'roll': 1.15}
{'lipoC2': 7.91, 'temp': 0.0, 'lipoC3S3': 11.81, 'state': 'normal', 'rot1': 291, 'rot0': 215, 'rot3': 0, 'rot2': 0, 'depth': 1.996, 'yaw': 100.23, 'datetime': '2018-12-12 11:25:08.435561', 'mgs': 0, 'flw2': 0.0, 'flw1': 0.12, 'flw0': 0.0, 'time': 16.82, 'compass': 38.94, 'pitch': -6.4, 'roll': 0.81}
{'lipoC2': 7.75, 'temp': 0.0, 'lipoC3S3': 11.84, 'state': 'normal', 'rot1': 291, 'rot0': 215, 'rot3': 0, 'rot2': 0, 'depth': 1.385, 'yaw': 100.22, 'datetime': '2018-12-12 11:25:08.641249', 'mgs': 0, 'flw2': 0.0, 'flw1': 0.73, 'flw0': 0.0, 'time': 17.03, 'compass': 38.93, 'pitch': -6.15, 'roll': 0.69}
{'lipoC2': 7.8, 'temp': 0.0, 'lipoC3S3': 11.98, 'state': 'normal', 'rot1': 291, 'rot0': 215, 'rot3': 0, 'rot2': 0, 'depth': 4.132, 'yaw': 100.23, 'datetime': '2018-12-12 11:25:08.849251', 'mgs': 0, 'flw2': 0.31, 'flw1': 0.0, 'flw0': 0.28, 'time': 17.24, 'compass': 38.94, 'pitch': -6.04, 'roll': 0.71}
{'lipoC2': 7.76, 'temp': 0.0, 'lipoC3S3': 11.9, 'state': 'normal', 'rot1': 291, 'rot0': 215, 'rot3': 0, 'rot2': 0, 'depth': 1.157, 'yaw': 100.37, 'datetime': '2018-12-12 11:25:09.058483', 'mgs': 0, 'flw2': 0.06, 'flw1': 0.0, 'flw0': 0.0, 'time': 17.45, 'compass': 39.08, 'pitch': -6.19, 'roll': 0.96}
{'lipoC2': 7.79, 'temp': 0.0, 'lipoC3S3': 12.05, 'state': 'normal', 'rot1': 291, 'rot0': 215, 'rot3': 0, 'rot2': 0, 'depth': 1.691, 'yaw': 100.6, 'datetime': '2018-12-12 11:25:09.269139', 'mgs': 0, 'flw2': 0.1, 'flw1': 0.0, 'flw0': 0.0, 'time': 17.66, 'compass': 39.31, 'pitch': -6.5, 'roll': 1.35}
{'lipoC2': 7.8, 'temp': 0.0, 'lipoC3S3': 12.13, 'state': 'normal', 'rot1': 291, 'rot0': 215, 'rot3': 0, 'rot2': 0, 'depth': 0.47, 'yaw': 100.9, 'datetime': '2018-12-12 11:25:09.486421', 'mgs': 0, 'flw2': 0.0, 'flw1': 0.62, 'flw0': 0.0, 'time': 17.87, 'compass': 39.61, 'pitch': -6.75, 'roll': 1.85}
{'lipoC2': 7.91, 'temp': 0.0, 'lipoC3S3': 11.69, 'state': 'normal', 'rot1': 291, 'rot0': 215, 'rot3': 0, 'rot2': 0, 'depth': 2.072, 'yaw': 101.18, 'datetime': '2018-12-12 11:25:09.696988', 'mgs': 0, 'flw2': 0.0, 'flw1': 0.0, 'flw0': 0.0, 'time': 18.08, 'compass': 39.89, 'pitch': -6.83, 'roll': 2.38}
{'lipoC2': 7.95, 'temp': 0.0, 'lipoC3S3': 11.81, 'state': 'normal', 'rot1': 291, 'rot0': 215, 'rot3': 0, 'rot2': 0, 'depth': 1.004, 'yaw': 101.31, 'datetime': '2018-12-12 11:25:09.908659', 'mgs': 0, 'flw2': 0.04, 'flw1': 0.0, 'flw0': 0.06, 'time': 18.28, 'compass': 40.02, 'pitch': -6.87, 'roll': 2.73}
{'lipoC2': 7.82, 'temp': 0.0, 'lipoC3S3': 11.81, 'state': 'normal', 'rot1': 291, 'rot0': 215, 'rot3': 0, 'rot2': 0, 'depth': 2.835, 'yaw': 101.26, 'datetime': '2018-12-12 11:25:10.222125', 'mgs': 0, 'flw2': 0.0, 'flw1': 0.67, 'flw0': 0.0, 'time': 18.6, 'compass': 39.97, 'pitch': -6.93, 'roll': 2.94}
{'lipoC2': 7.82, 'temp': 0.0, 'lipoC3S3': 11.79, 'state': 'normal', 'rot1': 291, 'rot0': 215, 'rot3': 0, 'rot2': 0, 'depth': 2.606, 'yaw': 101.25, 'datetime': '2018-12-12 11:25:10.431897', 'mgs': 0, 'flw2': 0.0, 'flw1': 0.21, 'flw0': 0.0, 'time': 18.81, 'compass': 39.96, 'pitch': -6.83, 'roll': 2.75}
{'lipoC2': 7.76, 'temp': 0.0, 'lipoC3S3': 11.94, 'state': 'normal', 'rot1': 291, 'rot0': 215, 'rot3': 0, 'rot2': 0, 'depth': 0.089, 'yaw': 101.18, 'datetime': '2018-12-12 11:25:10.641851', 'mgs': 0, 'flw2': 0.0, 'flw1': 0.47, 'flw0': 0.0, 'time': 19.02, 'compass': 39.89, 'pitch': -6.35, 'roll': 2.51}
{'lipoC2': 7.82, 'temp': 0.0, 'lipoC3S3': 12.14, 'state': 'normal', 'rot1': 291, 'rot0': 215, 'rot3': 0, 'rot2': 0, 'depth': 2.148, 'yaw': 101.02, 'datetime': '2018-12-12 11:25:10.853039', 'mgs': 0, 'flw2': 0.0, 'flw1': 0.0, 'flw0': 0.0, 'time': 19.23, 'compass': 39.73, 'pitch': -5.53, 'roll': 2.19}
{'lipoC2': 7.79, 'temp': 0.0, 'lipoC3S3': 12.05, 'state': 'normal', 'rot1': 291, 'rot0': 215, 'rot3': 0, 'rot2': 0, 'depth': 0.394, 'yaw': 100.86, 'datetime': '2018-12-12 11:25:11.056896', 'mgs': 0, 'flw2': 0.24, 'flw1': 0.0, 'flw0': 0.29, 'time': 19.43, 'compass': 39.57, 'pitch': -4.5, 'roll': 1.98}
{'lipoC2': 7.77, 'temp': 0.0, 'lipoC3S3': 12.27, 'state': 'normal', 'rot1': 291, 'rot0': 215, 'rot3': 0, 'rot2': 0, 'depth': 2.911, 'yaw': 100.67, 'datetime': '2018-12-12 11:25:11.268436', 'mgs': 0, 'flw2': 0.29, 'flw1': 0.0, 'flw0': 0.2, 'time': 19.64, 'compass': 39.39, 'pitch': -3.65, 'roll': 1.94}
{'lipoC2': 7.76, 'temp': 0.0, 'lipoC3S3': 11.93, 'state': 'normal', 'rot1': 291, 'rot0': 215, 'rot3': 0, 'rot2': 0, 'depth': 0.775, 'yaw': 100.45, 'datetime': '2018-12-12 11:25:11.469670', 'mgs': 0, 'flw2': 0.31, 'flw1': 0.0, 'flw0': 0.09, 'time': 19.85, 'compass': 39.16, 'pitch': -3.29, 'roll': 1.97}
{'lipoC2': 7.91, 'temp': 0.0, 'lipoC3S3': 11.81, 'state': 'normal', 'rot1': 291, 'rot0': 215, 'rot3': 0, 'rot2': 0, 'depth': 0.546, 'yaw': 100.23, 'datetime': '2018-12-12 11:25:11.679391', 'mgs': 0, 'flw2': 0.23, 'flw1': 0.0, 'flw0': 0.21, 'time': 20.06, 'compass': 38.94, 'pitch': -3.13, 'roll': 1.96}
{'lipoC2': 7.86, 'temp': 0.0, 'lipoC3S3': 11.71, 'state': 'normal', 'rot1': 291, 'rot0': 215, 'rot3': 0, 'rot2': 0, 'depth': 1.996, 'yaw': 100.07, 'datetime': '2018-12-12 11:25:11.890335', 'mgs': 0, 'flw2': 0.0, 'flw1': 0.0, 'flw0': 0.0, 'time': 20.27, 'compass': 38.78, 'pitch': -2.88, 'roll': 2.15}
{'lipoC2': 7.91, 'temp': 0.0, 'lipoC3S3': 11.83, 'state': 'normal', 'rot1': 291, 'rot0': 215, 'rot3': 0, 'rot2': 0, 'depth': 0.089, 'yaw': 100.02, 'datetime': '2018-12-12 11:25:12.097514', 'mgs': 0, 'flw2': 0.0, 'flw1': 0.0, 'flw0': 0.0, 'time': 20.48, 'compass': 38.73, 'pitch': -2.78, 'roll': 2.46}
{'lipoC2': 7.9, 'temp': 0.0, 'lipoC3S3': 11.84, 'state': 'normal', 'rot1': 291, 'rot0': 215, 'rot3': 0, 'rot2': 0, 'depth': 0.241, 'yaw': 100.02, 'datetime': '2018-12-12 11:25:12.309488', 'mgs': 0, 'flw2': 0.0, 'flw1': 0.0, 'flw0': 0.0, 'time': 20.69, 'compass': 38.73, 'pitch': -3.06, 'roll': 2.49}
{'lipoC2': 8.04, 'temp': 0.0, 'lipoC3S3': 11.77, 'state': 'normal', 'rot1': 291, 'rot0': 215, 'rot3': 0, 'rot2': 0, 'depth': -0.446, 'yaw': 100.03, 'datetime': '2018-12-12 11:25:12.517751', 'mgs': 0, 'flw2': 0.13, 'flw1': 0.0, 'flw0': 0.17, 'time': 20.9, 'compass': 38.74, 'pitch': -3.25, 'roll': 2.34}
{'lipoC2': 7.78, 'temp': 0.0, 'lipoC3S3': 12.05, 'state': 'normal', 'rot1': 291, 'rot0': 215, 'rot3': 0, 'rot2': 0, 'depth': 0.317, 'yaw': 100.04, 'datetime': '2018-12-12 11:25:12.727597', 'mgs': 0, 'flw2': 0.21, 'flw1': 0.0, 'flw0': 0.29, 'time': 21.11, 'compass': 38.76, 'pitch': -3.27, 'roll': 2.34}
{'lipoC2': 7.95, 'temp': 0.0, 'lipoC3S3': 11.68, 'state': 'normal', 'rot1': 291, 'rot0': 215, 'rot3': 0, 'rot2': 0, 'depth': 1.08, 'yaw': 100.15, 'datetime': '2018-12-12 11:25:12.941332', 'mgs': 0, 'flw2': 0.0, 'flw1': 0.0, 'flw0': 0.0, 'time': 21.32, 'compass': 38.86, 'pitch': -3.68, 'roll': 2.24}
{'lipoC2': 7.79, 'temp': 0.0, 'lipoC3S3': 12.16, 'state': 'normal', 'rot1': 291, 'rot0': 215, 'rot3': 0, 'rot2': 0, 'depth': 0.47, 'yaw': 100.34, 'datetime': '2018-12-12 11:25:13.156110', 'mgs': 0, 'flw2': 0.0, 'flw1': 0.0, 'flw0': 0.0, 'time': 21.53, 'compass': 39.05, 'pitch': -4.04, 'roll': 2.04}
{'lipoC2': 7.82, 'temp': 0.0, 'lipoC3S3': 12.09, 'state': 'normal', 'rot1': 291, 'rot0': 215, 'rot3': 0, 'rot2': 0, 'depth': 0.623, 'yaw': 100.62, 'datetime': '2018-12-12 11:25:13.361971', 'mgs': 0, 'flw2': 0.0, 'flw1': 0.0, 'flw0': 0.0, 'time': 21.74, 'compass': 39.34, 'pitch': -3.9, 'roll': 1.84}
{'lipoC2': 7.77, 'temp': 0.0, 'lipoC3S3': 12.08, 'state': 'normal', 'rot1': 291, 'rot0': 215, 'rot3': 0, 'rot2': 0, 'depth': -0.064, 'yaw': 100.96, 'datetime': '2018-12-12 11:25:13.573896', 'mgs': 0, 'flw2': 0.0, 'flw1': 0.59, 'flw0': 0.0, 'time': 21.95, 'compass': 39.68, 'pitch': -3.8, 'roll': 1.72}
{'lipoC2': 7.87, 'temp': 0.0, 'lipoC3S3': 11.69, 'state': 'normal', 'rot1': 291, 'rot0': 215, 'rot3': 0, 'rot2': 0, 'depth': 0.394, 'yaw': 101.35, 'datetime': '2018-12-12 11:25:13.781095', 'mgs': 0, 'flw2': 0.13, 'flw1': 0.0, 'flw0': 0.07, 'time': 22.16, 'compass': 40.06, 'pitch': -3.8, 'roll': 1.69}
{'lipoC2': 7.87, 'temp': 0.0, 'lipoC3S3': 11.72, 'state': 'normal', 'rot1': 291, 'rot0': 215, 'rot3': 0, 'rot2': 0, 'depth': 0.47, 'yaw': 101.78, 'datetime': '2018-12-12 11:25:13.990001', 'mgs': 0, 'flw2': 0.0, 'flw1': 0.0, 'flw0': 0.0, 'time': 22.36, 'compass': 40.49, 'pitch': -3.89, 'roll': 1.86}
{'lipoC2': 7.96, 'temp': 0.0, 'lipoC3S3': 11.69, 'state': 'normal', 'rot1': 291, 'rot0': 215, 'rot3': 0, 'rot2': 0, 'depth': -0.751, 'yaw': 102.27, 'datetime': '2018-12-12 11:25:14.198185', 'mgs': 0, 'flw2': 0.0, 'flw1': 0.15, 'flw0': 0.0, 'time': 22.57, 'compass': 40.98, 'pitch': -4.13, 'roll': 2.07}
{'lipoC2': 7.81, 'temp': 0.0, 'lipoC3S3': 12.02, 'state': 'normal', 'rot1': 291, 'rot0': 215, 'rot3': 0, 'rot2': 0, 'depth': 1.462, 'yaw': 102.75, 'datetime': '2018-12-12 11:25:14.406688', 'mgs': 0, 'flw2': 0.28, 'flw1': 0.23, 'flw0': 0.0, 'time': 22.78, 'compass': 41.46, 'pitch': -4.17, 'roll': 2.04}
{'lipoC2': 7.76, 'temp': 0.0, 'lipoC3S3': 11.88, 'state': 'normal', 'rot1': 292, 'rot0': 217, 'rot3': 0, 'rot2': 0, 'depth': 1.309, 'yaw': 104.42, 'datetime': '2018-12-12 11:25:14.617956', 'mgs': 0, 'flw2': 4.54, 'flw1': 0.0, 'flw0': 2.54, 'time': 22.99, 'compass': 43.13, 'pitch': -3.24, 'roll': 2.3}
{'lipoC2': 7.87, 'temp': 0.0, 'lipoC3S3': 11.68, 'state': 'normal', 'rot1': 296, 'rot0': 220, 'rot3': 0, 'rot2': 0, 'depth': 2.301, 'yaw': 108.04, 'datetime': '2018-12-12 11:25:14.826768', 'mgs': 0, 'flw2': 4.48, 'flw1': 0.38, 'flw0': 7.81, 'time': 23.2, 'compass': 46.75, 'pitch': 0.11, 'roll': 2.77}
{'lipoC2': 8.06, 'temp': 0.0, 'lipoC3S3': 11.76, 'state': 'normal', 'rot1': 301, 'rot0': 223, 'rot3': 0, 'rot2': 0, 'depth': 3.369, 'yaw': 109.22, 'datetime': '2018-12-12 11:25:15.036096', 'mgs': 0, 'flw2': 4.74, 'flw1': 0.0, 'flw0': 8.12, 'time': 23.41, 'compass': 47.93, 'pitch': 5.01, 'roll': 2.65}
{'lipoC2': 7.86, 'temp': 0.0, 'lipoC3S3': 11.59, 'state': 'normal', 'rot1': 307, 'rot0': 227, 'rot3': 0, 'rot2': 0, 'depth': 3.903, 'yaw': 108.44, 'datetime': '2018-12-12 11:25:15.244243', 'mgs': 0, 'flw2': 4.28, 'flw1': 0.64, 'flw0': 7.43, 'time': 23.62, 'compass': 47.15, 'pitch': 10.35, 'roll': 2.24}
{'lipoC2': 7.78, 'temp': 0.0, 'lipoC3S3': 11.84, 'state': 'normal', 'rot1': 312, 'rot0': 230, 'rot3': 0, 'rot2': 0, 'depth': 0.165, 'yaw': 106.27, 'datetime': '2018-12-12 11:25:15.458971', 'mgs': 0, 'flw2': 2.21, 'flw1': 0.0, 'flw0': 8.56, 'time': 23.83, 'compass': 44.98, 'pitch': 14.78, 'roll': 1.72}
{'lipoC2': 7.76, 'temp': 0.0, 'lipoC3S3': 11.84, 'state': 'normal', 'rot1': 316, 'rot0': 233, 'rot3': 0, 'rot2': 0, 'depth': 1.691, 'yaw': 102.17, 'datetime': '2018-12-12 11:25:15.665890', 'mgs': 0, 'flw2': 2.78, 'flw1': 0.0, 'flw0': 8.76, 'time': 24.03, 'compass': 40.88, 'pitch': 17.55, 'roll': 1.22}
{'lipoC2': 7.77, 'temp': 0.0, 'lipoC3S3': 11.76, 'state': 'normal', 'rot1': 324, 'rot0': 236, 'rot3': 0, 'rot2': 0, 'depth': 0.775, 'yaw': 94.1, 'datetime': '2018-12-12 11:25:15.974565', 'mgs': 0, 'flw2': 3.67, 'flw1': 0.53, 'flw0': 7.4, 'time': 24.35, 'compass': 32.81, 'pitch': 18.79, 'roll': 0.5}
{'lipoC2': 7.81, 'temp': 0.0, 'lipoC3S3': 11.71, 'state': 'normal', 'rot1': 328, 'rot0': 239, 'rot3': 0, 'rot2': 0, 'depth': 3.445, 'yaw': 88.7, 'datetime': '2018-12-12 11:25:16.184142', 'mgs': 0, 'flw2': 4.09, 'flw1': 0.0, 'flw0': 6.15, 'time': 24.56, 'compass': 27.41, 'pitch': 18.35, 'roll': -0.33}
{'lipoC2': 7.81, 'temp': 0.0, 'lipoC3S3': 11.71, 'state': 'normal', 'rot1': 330, 'rot0': 242, 'rot3': 0, 'rot2': 0, 'depth': 0.47, 'yaw': 83.62, 'datetime': '2018-12-12 11:25:16.392668', 'mgs': 0, 'flw2': 3.56, 'flw1': 0.0, 'flw0': 4.68, 'time': 24.77, 'compass': 22.33, 'pitch': 15.9, 'roll': -1.45}
{'lipoC2': 7.78, 'temp': 0.0, 'lipoC3S3': 11.96, 'state': 'normal', 'rot1': 333, 'rot0': 245, 'rot3': 0, 'rot2': 0, 'depth': -0.064, 'yaw': 79.94, 'datetime': '2018-12-12 11:25:16.602794', 'mgs': 0, 'flw2': 5.55, 'flw1': 0.0, 'flw0': 0.96, 'time': 24.98, 'compass': 18.65, 'pitch': 11.13, 'roll': -2.65}
{'lipoC2': 7.77, 'temp': 0.0, 'lipoC3S3': 11.77, 'state': 'normal', 'rot1': 335, 'rot0': 248, 'rot3': 0, 'rot2': 0, 'depth': 0.012, 'yaw': 79.82, 'datetime': '2018-12-12 11:25:16.810692', 'mgs': 0, 'flw2': 3.98, 'flw1': 0.0, 'flw0': 0.61, 'time': 25.19, 'compass': 18.53, 'pitch': 5.69, 'roll': -3.26}
{'lipoC2': 7.82, 'temp': 0.0, 'lipoC3S3': 11.63, 'state': 'normal', 'rot1': 337, 'rot0': 251, 'rot3': 0, 'rot2': 0, 'depth': -0.064, 'yaw': 82.17, 'datetime': '2018-12-12 11:25:17.021257', 'mgs': 0, 'flw2': 4.2, 'flw1': 0.0, 'flw0': 1.46, 'time': 25.4, 'compass': 20.88, 'pitch': 2.57, 'roll': -3.11}
{'lipoC2': 7.82, 'temp': 0.0, 'lipoC3S3': 11.59, 'state': 'normal', 'rot1': 339, 'rot0': 254, 'rot3': 0, 'rot2': 0, 'depth': -0.217, 'yaw': 85.39, 'datetime': '2018-12-12 11:25:17.236664', 'mgs': 0, 'flw2': 4.21, 'flw1': 0.0, 'flw0': 0.93, 'time': 25.61, 'compass': 24.1, 'pitch': 1.65, 'roll': -2.87}
{'lipoC2': 7.79, 'temp': 0.0, 'lipoC3S3': 11.92, 'state': 'normal', 'rot1': 340, 'rot0': 258, 'rot3': 0, 'rot2': 0, 'depth': 3.293, 'yaw': 89.44, 'datetime': '2018-12-12 11:25:17.437920', 'mgs': 0, 'flw2': 3.78, 'flw1': 0.64, 'flw0': 2.26, 'time': 25.81, 'compass': 28.15, 'pitch': 0.52, 'roll': -2.42}
{'lipoC2': 7.83, 'temp': 0.0, 'lipoC3S3': 11.72, 'state': 'normal', 'rot1': 343, 'rot0': 260, 'rot3': 0, 'rot2': 0, 'depth': 2.225, 'yaw': 92.71, 'datetime': '2018-12-12 11:25:17.647442', 'mgs': 0, 'flw2': 3.54, 'flw1': 0.62, 'flw0': 2.56, 'time': 26.02, 'compass': 31.42, 'pitch': -0.02, 'roll': -1.35}
{'lipoC2': 7.97, 'temp': 0.0, 'lipoC3S3': 11.58, 'state': 'normal', 'rot1': 347, 'rot0': 263, 'rot3': 0, 'rot2': 0, 'depth': 0.546, 'yaw': 94.8, 'datetime': '2018-12-12 11:25:17.855719', 'mgs': 0, 'flw2': 2.43, 'flw1': 0.0, 'flw0': 5.08, 'time': 26.23, 'compass': 33.51, 'pitch': 0.54, 'roll': 0.06}
{'lipoC2': 7.84, 'temp': 0.0, 'lipoC3S3': 11.65, 'state': 'normal', 'rot1': 350, 'rot0': 266, 'rot3': 0, 'rot2': 0, 'depth': 0.546, 'yaw': 94.09, 'datetime': '2018-12-12 11:25:18.068824', 'mgs': 0, 'flw2': 3.26, 'flw1': 0.53, 'flw0': 5.21, 'time': 26.44, 'compass': 32.8, 'pitch': 2.18, 'roll': 0.82}
{'lipoC2': 8.06, 'temp': 0.0, 'lipoC3S3': 11.93, 'state': 'normal', 'rot1': 353, 'rot0': 268, 'rot3': 0, 'rot2': 0, 'depth': 2.988, 'yaw': 92.52, 'datetime': '2018-12-12 11:25:18.278510', 'mgs': 0, 'flw2': 3.66, 'flw1': 0.67, 'flw0': 0.77, 'time': 26.65, 'compass': 31.23, 'pitch': 4.31, 'roll': 0.69}
{'lipoC2': 7.83, 'temp': 0.0, 'lipoC3S3': 12.08, 'state': 'normal', 'rot1': 354, 'rot0': 272, 'rot3': 0, 'rot2': 0, 'depth': 3.14, 'yaw': 92.91, 'datetime': '2018-12-12 11:25:18.488677', 'mgs': 0, 'flw2': 5.35, 'flw1': 0.47, 'flw0': 0.22, 'time': 26.86, 'compass': 31.62, 'pitch': 6.02, 'roll': 0.16}
{'lipoC2': 7.75, 'temp': 0.0, 'lipoC3S3': 11.79, 'state': 'normal', 'rot1': 354, 'rot0': 275, 'rot3': 0, 'rot2': 0, 'depth': 0.546, 'yaw': 96.86, 'datetime': '2018-12-12 11:25:18.697705', 'mgs': 0, 'flw2': 5.24, 'flw1': 0.26, 'flw0': 0.81, 'time': 27.07, 'compass': 35.58, 'pitch': 6.96, 'roll': -0.15}
{'lipoC2': 7.88, 'temp': 0.0, 'lipoC3S3': 11.64, 'state': 'normal', 'rot1': 356, 'rot0': 278, 'rot3': 0, 'rot2': 0, 'depth': 1.385, 'yaw': 102.64, 'datetime': '2018-12-12 11:25:18.905977', 'mgs': 0, 'flw2': 5.19, 'flw1': 0.5, 'flw0': 3.25, 'time': 27.28, 'compass': 41.35, 'pitch': 6.89, 'roll': -0.14}
{'lipoC2': 7.78, 'temp': 0.0, 'lipoC3S3': 11.8, 'state': 'normal', 'rot1': 358, 'rot0': 282, 'rot3': 0, 'rot2': 0, 'depth': 0.699, 'yaw': 108.09, 'datetime': '2018-12-12 11:25:19.115416', 'mgs': 0, 'flw2': 5.26, 'flw1': 0.0, 'flw0': 4.85, 'time': 27.49, 'compass': 46.8, 'pitch': 7.01, 'roll': 0.07}
{'lipoC2': 7.8, 'temp': 0.0, 'lipoC3S3': 11.71, 'state': 'normal', 'rot1': 362, 'rot0': 285, 'rot3': 0, 'rot2': 0, 'depth': 0.851, 'yaw': 111.32, 'datetime': '2018-12-12 11:25:19.324088', 'mgs': 0, 'flw2': 4.66, 'flw1': 0.0, 'flw0': 6.25, 'time': 27.69, 'compass': 50.04, 'pitch': 7.82, 'roll': 0.4}
{'lipoC2': 7.79, 'temp': 0.0, 'lipoC3S3': 11.8, 'state': 'normal', 'rot1': 366, 'rot0': 289, 'rot3': 0, 'rot2': 0, 'depth': 0.775, 'yaw': 113.16, 'datetime': '2018-12-12 11:25:19.535140', 'mgs': 0, 'flw2': 6.38, 'flw1': 0.0, 'flw0': 1.16, 'time': 27.91, 'compass': 51.88, 'pitch': 9.16, 'roll': 0.81}
{'lipoC2': 7.77, 'temp': 0.0, 'lipoC3S3': 11.76, 'state': 'normal', 'rot1': 368, 'rot0': 292, 'rot3': 0, 'rot2': 0, 'depth': 1.385, 'yaw': 116.24, 'datetime': '2018-12-12 11:25:19.744585', 'mgs': 0, 'flw2': 7.18, 'flw1': 0.0, 'flw0': 2.77, 'time': 28.11, 'compass': 54.95, 'pitch': 10.11, 'roll': 1.11}
{'lipoC2': 7.77, 'temp': 0.0, 'lipoC3S3': 11.8, 'state': 'normal', 'rot1': 370, 'rot0': 296, 'rot3': 0, 'rot2': 0, 'depth': -0.064, 'yaw': 121.11, 'datetime': '2018-12-12 11:25:19.954255', 'mgs': 0, 'flw2': 6.92, 'flw1': 0.26, 'flw0': 2.34, 'time': 28.32, 'compass': 59.82, 'pitch': 11.1, 'roll': 1.34}
{'lipoC2': 7.84, 'temp': 0.0, 'lipoC3S3': 11.68, 'state': 'normal', 'rot1': 373, 'rot0': 299, 'rot3': 0, 'rot2': 0, 'depth': 2.148, 'yaw': 126.61, 'datetime': '2018-12-12 11:25:20.163271', 'mgs': 0, 'flw2': 6.97, 'flw1': 0.5, 'flw0': 4.81, 'time': 28.53, 'compass': 65.32, 'pitch': 12.13, 'roll': 1.62}
{'lipoC2': 7.9, 'temp': 0.0, 'lipoC3S3': 11.68, 'state': 'normal', 'rot1': 376, 'rot0': 303, 'rot3': 0, 'rot2': 0, 'depth': 2.454, 'yaw': 131.76, 'datetime': '2018-12-12 11:25:20.371620', 'mgs': 0, 'flw2': 6.95, 'flw1': 0.62, 'flw0': 4.55, 'time': 28.74, 'compass': 70.47, 'pitch': 13.23, 'roll': 1.76}
{'lipoC2': 7.86, 'temp': 0.0, 'lipoC3S3': 11.56, 'state': 'normal', 'rot1': 380, 'rot0': 306, 'rot3': 0, 'rot2': 0, 'depth': 2.377, 'yaw': 136.17, 'datetime': '2018-12-12 11:25:20.581516', 'mgs': 0, 'flw2': 6.95, 'flw1': 0.0, 'flw0': 4.53, 'time': 28.95, 'compass': 74.88, 'pitch': 14.11, 'roll': 2.25}
{'lipoC2': 7.79, 'temp': 0.0, 'lipoC3S3': 11.61, 'state': 'normal', 'rot1': 383, 'rot0': 310, 'rot3': 0, 'rot2': 0, 'depth': 1.309, 'yaw': 140.37, 'datetime': '2018-12-12 11:25:20.791414', 'mgs': 0, 'flw2': 6.91, 'flw1': 0.38, 'flw0': 4.44, 'time': 29.16, 'compass': 79.09, 'pitch': 14.25, 'roll': 2.93}
{'lipoC2': 7.82, 'temp': 0.0, 'lipoC3S3': 11.5, 'state': 'normal', 'rot1': 386, 'rot0': 313, 'rot3': 0, 'rot2': 0, 'depth': 2.682, 'yaw': 144.7, 'datetime': '2018-12-12 11:25:21.002152', 'mgs': 0, 'flw2': 7.08, 'flw1': 0.35, 'flw0': 4.8, 'time': 29.37, 'compass': 83.41, 'pitch': 12.95, 'roll': 3.48}
{'lipoC2': 7.83, 'temp': 0.0, 'lipoC3S3': 12.02, 'state': 'normal', 'rot1': 389, 'rot0': 317, 'rot3': 0, 'rot2': 0, 'depth': 2.377, 'yaw': 148.48, 'datetime': '2018-12-12 11:25:21.210531', 'mgs': 0, 'flw2': 7.2, 'flw1': 0.0, 'flw0': 5.65, 'time': 29.58, 'compass': 87.19, 'pitch': 11.31, 'roll': 3.95}
{'lipoC2': 7.98, 'temp': 0.0, 'lipoC3S3': 11.65, 'state': 'normal', 'rot1': 393, 'rot0': 320, 'rot3': 0, 'rot2': 0, 'depth': 1.08, 'yaw': 151.83, 'datetime': '2018-12-12 11:25:21.419916', 'mgs': 0, 'flw2': 6.92, 'flw1': 0.41, 'flw0': 5.0, 'time': 29.79, 'compass': 90.54, 'pitch': 10.36, 'roll': 4.39}
{'lipoC2': 7.82, 'temp': 0.0, 'lipoC3S3': 11.92, 'state': 'normal', 'rot1': 396, 'rot0': 324, 'rot3': 0, 'rot2': 0, 'depth': 1.004, 'yaw': 154.9, 'datetime': '2018-12-12 11:25:21.629344', 'mgs': 0, 'flw2': 6.84, 'flw1': 0.0, 'flw0': 5.35, 'time': 30.0, 'compass': 93.62, 'pitch': 10.02, 'roll': 4.8}
{'lipoC2': 7.82, 'temp': 0.0, 'lipoC3S3': 12.01, 'state': 'normal', 'rot1': 400, 'rot0': 327, 'rot3': 0, 'rot2': 0, 'depth': 1.691, 'yaw': 158.07, 'datetime': '2018-12-12 11:25:21.849206', 'mgs': 0, 'flw2': 7.2, 'flw1': 0.0, 'flw0': 6.37, 'time': 30.2, 'compass': 96.78, 'pitch': 9.91, 'roll': 5.19}
{'lipoC2': 7.8, 'temp': 0.0, 'lipoC3S3': 11.85, 'state': 'normal', 'rot1': 403, 'rot0': 331, 'rot3': 0, 'rot2': 0, 'depth': 3.751, 'yaw': 160.83, 'datetime': '2018-12-12 11:25:22.058114', 'mgs': 0, 'flw2': 6.54, 'flw1': 0.0, 'flw0': 7.09, 'time': 30.41, 'compass': 99.54, 'pitch': 9.6, 'roll': 5.4}
{'lipoC2': 7.83, 'temp': 0.0, 'lipoC3S3': 11.64, 'state': 'normal', 'rot1': 407, 'rot0': 334, 'rot3': 0, 'rot2': 0, 'depth': 3.369, 'yaw': 163.0, 'datetime': '2018-12-12 11:25:22.267717', 'mgs': 0, 'flw2': 6.6, 'flw1': 0.0, 'flw0': 6.64, 'time': 30.62, 'compass': 101.71, 'pitch': 9.55, 'roll': 5.55}
{'lipoC2': 8.02, 'temp': 0.0, 'lipoC3S3': 11.65, 'state': 'normal', 'rot1': 411, 'rot0': 338, 'rot3': 0, 'rot2': 0, 'depth': -0.293, 'yaw': 164.75, 'datetime': '2018-12-12 11:25:22.471866', 'mgs': 0, 'flw2': 5.93, 'flw1': 0.29, 'flw0': 7.01, 'time': 30.83, 'compass': 103.47, 'pitch': 10.01, 'roll': 5.61}
{'lipoC2': 7.87, 'temp': 0.0, 'lipoC3S3': 11.51, 'state': 'normal', 'rot1': 415, 'rot0': 341, 'rot3': 0, 'rot2': 0, 'depth': 3.14, 'yaw': 166.28, 'datetime': '2018-12-12 11:25:22.684206', 'mgs': 0, 'flw2': 6.24, 'flw1': 0.0, 'flw0': 6.53, 'time': 31.04, 'compass': 105.0, 'pitch': 10.46, 'roll': 5.46}
{'lipoC2': 8.04, 'temp': 0.0, 'lipoC3S3': 11.55, 'state': 'normal', 'rot1': 419, 'rot0': 345, 'rot3': 0, 'rot2': 0, 'depth': 2.835, 'yaw': 168.03, 'datetime': '2018-12-12 11:25:22.888527', 'mgs': 0, 'flw2': 6.03, 'flw1': 0.03, 'flw0': 6.91, 'time': 31.25, 'compass': 106.74, 'pitch': 10.73, 'roll': 5.25}
{'lipoC2': 7.78, 'temp': 0.0, 'lipoC3S3': 11.9, 'state': 'normal', 'rot1': 423, 'rot0': 348, 'rot3': 0, 'rot2': 0, 'depth': -0.446, 'yaw': 170.2, 'datetime': '2018-12-12 11:25:23.094212', 'mgs': 0, 'flw2': 3.83, 'flw1': 0.0, 'flw0': 3.59, 'time': 31.46, 'compass': 108.92, 'pitch': 10.7, 'roll': 4.83}
{'lipoC2': 8.07, 'temp': 0.0, 'lipoC3S3': 11.59, 'state': 'normal', 'rot1': 427, 'rot0': 351, 'rot3': 0, 'rot2': 0, 'depth': 3.14, 'yaw': 172.42, 'datetime': '2018-12-12 11:25:23.302712', 'mgs': 0, 'flw2': 2.87, 'flw1': 0.0, 'flw0': 0.45, 'time': 31.67, 'compass': 111.13, 'pitch': 9.87, 'roll': 4.35}
{'lipoC2': 7.8, 'temp': 0.0, 'lipoC3S3': 12.0, 'state': 'normal', 'rot1': 428, 'rot0': 352, 'rot3': 0, 'rot2': 0, 'depth': 0.089, 'yaw': 175.53, 'datetime': '2018-12-12 11:25:23.512667', 'mgs': 0, 'flw2': 0.0, 'flw1': 0.03, 'flw0': 0.0, 'time': 31.88, 'compass': 114.24, 'pitch': 7.05, 'roll': 3.8}
{'lipoC2': 7.82, 'temp': 0.0, 'lipoC3S3': 12.14, 'state': 'normal', 'rot1': 428, 'rot0': 352, 'rot3': 0, 'rot2': 0, 'depth': 1.233, 'yaw': 178.73, 'datetime': '2018-12-12 11:25:23.736769', 'mgs': 0, 'flw2': 0.0, 'flw1': 0.59, 'flw0': 0.0, 'time': 32.09, 'compass': 117.44, 'pitch': 3.0, 'roll': 3.26}
{'lipoC2': 7.92, 'temp': 0.0, 'lipoC3S3': 11.65, 'state': 'normal', 'rot1': 428, 'rot0': 352, 'rot3': 0, 'rot2': 0, 'depth': 0.317, 'yaw': -177.88, 'datetime': '2018-12-12 11:25:23.942594', 'mgs': 0, 'flw2': 0.0, 'flw1': 0.0, 'flw0': 0.0, 'time': 32.3, 'compass': 120.84, 'pitch': -1.01, 'roll': 3.23}
{'lipoC2': 7.82, 'temp': 0.0, 'lipoC3S3': 11.79, 'state': 'normal', 'rot1': 428, 'rot0': 352, 'rot3': 0, 'rot2': 0, 'depth': -0.14, 'yaw': -174.32, 'datetime': '2018-12-12 11:25:24.154365', 'mgs': 0, 'flw2': 0.0, 'flw1': 0.0, 'flw0': 0.06, 'time': 32.51, 'compass': 124.39, 'pitch': -5.05, 'roll': 3.23}
{'lipoC2': 7.83, 'temp': 0.0, 'lipoC3S3': 11.72, 'state': 'normal', 'rot1': 428, 'rot0': 352, 'rot3': 0, 'rot2': 0, 'depth': -0.064, 'yaw': -170.79, 'datetime': '2018-12-12 11:25:24.360306', 'mgs': 0, 'flw2': 0.0, 'flw1': 0.0, 'flw0': 0.0, 'time': 32.71, 'compass': 127.92, 'pitch': -8.91, 'roll': 3.15}
{'lipoC2': 8.01, 'temp': 0.0, 'lipoC3S3': 11.81, 'state': 'normal', 'rot1': 428, 'rot0': 352, 'rot3': 0, 'rot2': 0, 'depth': -0.293, 'yaw': -166.93, 'datetime': '2018-12-12 11:25:24.562667', 'mgs': 0, 'flw2': 0.0, 'flw1': 0.41, 'flw0': 0.0, 'time': 32.92, 'compass': 131.78, 'pitch': -12.24, 'roll': 3.38}
{'lipoC2': 7.85, 'temp': 0.0, 'lipoC3S3': 11.72, 'state': 'normal', 'rot1': 428, 'rot0': 352, 'rot3': 0, 'rot2': 0, 'depth': 1.996, 'yaw': -163.01, 'datetime': '2018-12-12 11:25:24.775437', 'mgs': 0, 'flw2': 0.16, 'flw1': 0.0, 'flw0': 0.09, 'time': 33.13, 'compass': 135.7, 'pitch': -13.95, 'roll': 3.76}
{'lipoC2': 7.83, 'temp': 0.0, 'lipoC3S3': 12.14, 'state': 'normal', 'rot1': 428, 'rot0': 352, 'rot3': 0, 'rot2': 0, 'depth': -0.14, 'yaw': -159.05, 'datetime': '2018-12-12 11:25:24.983227', 'mgs': 0, 'flw2': 0.04, 'flw1': 0.0, 'flw0': 0.1, 'time': 33.34, 'compass': 139.66, 'pitch': -13.91, 'roll': 4.01}
{'lipoC2': 7.8, 'temp': 0.0, 'lipoC3S3': 12.14, 'state': 'normal', 'rot1': 428, 'rot0': 352, 'rot3': 0, 'rot2': 0, 'depth': 0.394, 'yaw': -155.14, 'datetime': '2018-12-12 11:25:25.190531', 'mgs': 0, 'flw2': 0.28, 'flw1': 0.0, 'flw0': 0.29, 'time': 33.55, 'compass': 143.58, 'pitch': -12.57, 'roll': 4.21}
{'lipoC2': 7.82, 'temp': 0.0, 'lipoC3S3': 11.75, 'state': 'normal', 'rot1': 428, 'rot0': 352, 'rot3': 0, 'rot2': 0, 'depth': 2.835, 'yaw': -151.37, 'datetime': '2018-12-12 11:25:25.399882', 'mgs': 0, 'flw2': 0.0, 'flw1': 0.0, 'flw0': 0.0, 'time': 33.76, 'compass': 147.35, 'pitch': -10.51, 'roll': 4.31}
{'lipoC2': 7.83, 'temp': 0.0, 'lipoC3S3': 11.72, 'state': 'normal', 'rot1': 428, 'rot0': 352, 'rot3': 0, 'rot2': 0, 'depth': 0.47, 'yaw': -147.72, 'datetime': '2018-12-12 11:25:25.610961', 'mgs': 0, 'flw2': 0.09, 'flw1': 0.0, 'flw0': 0.13, 'time': 33.97, 'compass': 150.99, 'pitch': -7.73, 'roll': 4.22}
{'lipoC2': 7.8, 'temp': 0.0, 'lipoC3S3': 11.96, 'state': 'normal', 'rot1': 428, 'rot0': 352, 'rot3': 0, 'rot2': 0, 'depth': 0.623, 'yaw': -144.35, 'datetime': '2018-12-12 11:25:25.819032', 'mgs': 0, 'flw2': 0.27, 'flw1': 0.0, 'flw0': 0.28, 'time': 34.18, 'compass': 154.36, 'pitch': -4.85, 'roll': 3.99}
{'lipoC2': 7.95, 'temp': 0.0, 'lipoC3S3': 11.81, 'state': 'normal', 'rot1': 428, 'rot0': 352, 'rot3': 0, 'rot2': 0, 'depth': 2.835, 'yaw': -140.92, 'datetime': '2018-12-12 11:25:26.029682', 'mgs': 0, 'flw2': 0.0, 'flw1': 0.64, 'flw0': 0.0, 'time': 34.39, 'compass': 157.79, 'pitch': -2.68, 'roll': 3.69}
{'lipoC2': 7.92, 'temp': 0.0, 'lipoC3S3': 11.68, 'state': 'normal', 'rot1': 428, 'rot0': 352, 'rot3': 0, 'rot2': 0, 'depth': 1.309, 'yaw': -137.6, 'datetime': '2018-12-12 11:25:26.238379', 'mgs': 0, 'flw2': 0.22, 'flw1': 0.0, 'flw0': 0.0, 'time': 34.6, 'compass': 161.11, 'pitch': -1.75, 'roll': 3.5}
{'lipoC2': 7.88, 'temp': 0.0, 'lipoC3S3': 11.8, 'state': 'normal', 'rot1': 428, 'rot0': 352, 'rot3': 0, 'rot2': 0, 'depth': 1.08, 'yaw': -134.35, 'datetime': '2018-12-12 11:25:26.446698', 'mgs': 0, 'flw2': 0.0, 'flw1': 0.0, 'flw0': 0.0, 'time': 34.81, 'compass': 164.36, 'pitch': -1.57, 'roll': 3.32}
{'lipoC2': 7.81, 'temp': 0.0, 'lipoC3S3': 12.06, 'state': 'normal', 'rot1': 428, 'rot0': 352, 'rot3': 0, 'rot2': 0, 'depth': 0.928, 'yaw': -131.08, 'datetime': '2018-12-12 11:25:26.656360', 'mgs': 0, 'flw2': 0.0, 'flw1': 0.0, 'flw0': 0.23, 'time': 35.01, 'compass': 167.63, 'pitch': -1.8, 'roll': 3.22}
{'lipoC2': 7.9, 'temp': 0.0, 'lipoC3S3': 11.81, 'state': 'normal', 'rot1': 428, 'rot0': 352, 'rot3': 0, 'rot2': 0, 'depth': 1.157, 'yaw': -127.98, 'datetime': '2018-12-12 11:25:26.873811', 'mgs': 0, 'flw2': 0.0, 'flw1': 0.41, 'flw0': 0.21, 'time': 35.22, 'compass': 170.73, 'pitch': -2.39, 'roll': 3.13}
{'lipoC2': 7.8, 'temp': 0.0, 'lipoC3S3': 11.96, 'state': 'normal', 'rot1': 428, 'rot0': 352, 'rot3': 0, 'rot2': 0, 'depth': 3.217, 'yaw': -124.72, 'datetime': '2018-12-12 11:25:27.085225', 'mgs': 0, 'flw2': 0.27, 'flw1': 0.0, 'flw0': 0.27, 'time': 35.43, 'compass': 173.99, 'pitch': -3.15, 'roll': 2.94}
{'lipoC2': 7.82, 'temp': 0.0, 'lipoC3S3': 11.83, 'state': 'normal', 'rot1': 428, 'rot0': 352, 'rot3': 0, 'rot2': 0, 'depth': 0.623, 'yaw': -121.39, 'datetime': '2018-12-12 11:25:27.289362', 'mgs': 0, 'flw2': 0.27, 'flw1': 0.0, 'flw0': 0.27, 'time': 35.64, 'compass': 177.32, 'pitch': -3.71, 'roll': 2.73}
{'lipoC2': 7.76, 'temp': 0.0, 'lipoC3S3': 11.92, 'state': 'normal', 'rot1': 428, 'rot0': 352, 'rot3': 0, 'rot2': 0, 'depth': 0.317, 'yaw': -117.96, 'datetime': '2018-12-12 11:25:27.504930', 'mgs': 0, 'flw2': 0.0, 'flw1': 0.15, 'flw0': 0.0, 'time': 35.85, 'compass': -179.25, 'pitch': -4.13, 'roll': 2.6}
{'lipoC2': 7.76, 'temp': 0.0, 'lipoC3S3': 11.9, 'state': 'normal', 'rot1': 428, 'rot0': 352, 'rot3': 0, 'rot2': 0, 'depth': -0.064, 'yaw': -114.47, 'datetime': '2018-12-12 11:25:27.712064', 'mgs': 0, 'flw2': 0.11, 'flw1': 0.0, 'flw0': 0.0, 'time': 36.06, 'compass': -175.76, 'pitch': -4.57, 'roll': 2.54}
{'lipoC2': 7.82, 'temp': 0.0, 'lipoC3S3': 11.83, 'state': 'normal', 'rot1': 428, 'rot0': 352, 'rot3': 0, 'rot2': 0, 'depth': 2.988, 'yaw': -110.95, 'datetime': '2018-12-12 11:25:27.922606', 'mgs': 0, 'flw2': 0.22, 'flw1': 0.0, 'flw0': 0.18, 'time': 36.27, 'compass': -172.24, 'pitch': -4.74, 'roll': 2.45}
{'lipoC2': 7.81, 'temp': 0.0, 'lipoC3S3': 12.13, 'state': 'normal', 'rot1': 428, 'rot0': 352, 'rot3': 0, 'rot2': 0, 'depth': 1.233, 'yaw': -107.4, 'datetime': '2018-12-12 11:25:28.125613', 'mgs': 0, 'flw2': 0.0, 'flw1': 0.62, 'flw0': 0.0, 'time': 36.48, 'compass': -168.69, 'pitch': -4.26, 'roll': 2.36}
{'lipoC2': 7.76, 'temp': 0.0, 'lipoC3S3': 11.87, 'state': 'normal', 'rot1': 428, 'rot0': 352, 'rot3': 0, 'rot2': 0, 'depth': 0.394, 'yaw': -104.03, 'datetime': '2018-12-12 11:25:28.338032', 'mgs': 0, 'flw2': 0.0, 'flw1': 0.0, 'flw0': 0.0, 'time': 36.69, 'compass': -165.32, 'pitch': -3.45, 'roll': 2.38}
{'lipoC2': 7.87, 'temp': 0.0, 'lipoC3S3': 11.8, 'state': 'normal', 'rot1': 428, 'rot0': 352, 'rot3': 0, 'rot2': 0, 'depth': 1.004, 'yaw': -100.53, 'datetime': '2018-12-12 11:25:28.548319', 'mgs': 0, 'flw2': 0.0, 'flw1': 0.06, 'flw0': 0.0, 'time': 36.9, 'compass': -161.82, 'pitch': -2.86, 'roll': 2.39}
{'lipoC2': 7.81, 'temp': 0.0, 'lipoC3S3': 11.81, 'state': 'normal', 'rot1': 428, 'rot0': 352, 'rot3': 0, 'rot2': 0, 'depth': 0.623, 'yaw': -97.09, 'datetime': '2018-12-12 11:25:28.760942', 'mgs': 0, 'flw2': 0.2, 'flw1': 0.0, 'flw0': 0.21, 'time': 37.11, 'compass': -158.38, 'pitch': -2.68, 'roll': 2.4}
{'lipoC2': 7.77, 'temp': 0.0, 'lipoC3S3': 12.02, 'state': 'normal', 'rot1': 428, 'rot0': 352, 'rot3': 0, 'rot2': 0, 'depth': -0.14, 'yaw': -93.69, 'datetime': '2018-12-12 11:25:28.967045', 'mgs': 0, 'flw2': 0.0, 'flw1': 0.29, 'flw0': 0.0, 'time': 37.32, 'compass': -154.98, 'pitch': -2.78, 'roll': 2.37}
{'lipoC2': 7.78, 'temp': 0.0, 'lipoC3S3': 11.87, 'state': 'normal', 'rot1': 428, 'rot0': 352, 'rot3': 0, 'rot2': 0, 'depth': 0.699, 'yaw': -90.32, 'datetime': '2018-12-12 11:25:29.173782', 'mgs': 0, 'flw2': 0.0, 'flw1': 0.06, 'flw0': 0.0, 'time': 37.53, 'compass': -151.61, 'pitch': -3.19, 'roll': 2.31}
{'lipoC2': 8.02, 'temp': 0.0, 'lipoC3S3': 11.72, 'state': 'normal', 'rot1': 428, 'rot0': 352, 'rot3': 0, 'rot2': 0, 'depth': -0.293, 'yaw': -86.97, 'datetime': '2018-12-12 11:25:29.382930', 'mgs': 0, 'flw2': 0.0, 'flw1': 0.0, 'flw0': 0.0, 'time': 37.73, 'compass': -148.26, 'pitch': -3.57, 'roll': 2.21}
{'lipoC2': 7.77, 'temp': 0.0, 'lipoC3S3': 12.02, 'state': 'normal', 'rot1': 428, 'rot0': 352, 'rot3': 0, 'rot2': 0, 'depth': -0.293, 'yaw': -83.83, 'datetime': '2018-12-12 11:25:29.592792', 'mgs': 0, 'flw2': 0.0, 'flw1': 0.62, 'flw0': 0.0, 'time': 37.94, 'compass': -145.11, 'pitch': -3.54, 'roll': 2.23}
{'lipoC2': 7.83, 'temp': 0.0, 'lipoC3S3': 12.17, 'state': 'normal', 'rot1': 428, 'rot0': 352, 'rot3': 0, 'rot2': 0, 'depth': 0.47, 'yaw': -80.56, 'datetime': '2018-12-12 11:25:29.803134', 'mgs': 0, 'flw2': 0.0, 'flw1': 0.64, 'flw0': 0.0, 'time': 38.15, 'compass': -141.84, 'pitch': -3.3, 'roll': 2.23}
{'lipoC2': 7.84, 'temp': 0.0, 'lipoC3S3': 11.76, 'state': 'normal', 'rot1': 428, 'rot0': 352, 'rot3': 0, 'rot2': 0, 'depth': 2.454, 'yaw': -77.3, 'datetime': '2018-12-12 11:25:30.012567', 'mgs': 0, 'flw2': 0.13, 'flw1': 0.0, 'flw0': 0.11, 'time': 38.36, 'compass': -138.59, 'pitch': -3.36, 'roll': 2.14}
{'lipoC2': 7.76, 'temp': 0.0, 'lipoC3S3': 11.96, 'state': 'normal', 'rot1': 428, 'rot0': 352, 'rot3': 0, 'rot2': 0, 'depth': -0.14, 'yaw': -74.07, 'datetime': '2018-12-12 11:25:30.221237', 'mgs': 0, 'flw2': 0.23, 'flw1': 0.0, 'flw0': 0.0, 'time': 38.57, 'compass': -135.36, 'pitch': -3.53, 'roll': 1.97}
{'lipoC2': 7.8, 'temp': 0.0, 'lipoC3S3': 12.06, 'state': 'normal', 'rot1': 428, 'rot0': 352, 'rot3': 0, 'rot2': 0, 'depth': 2.911, 'yaw': -70.85, 'datetime': '2018-12-12 11:25:30.429856', 'mgs': 0, 'flw2': 0.26, 'flw1': 0.0, 'flw0': 0.29, 'time': 38.78, 'compass': -132.14, 'pitch': -3.2, 'roll': 1.85}
