{'lipoC2': 0.14, 'temp': 0.0, 'lipoC3S3': 11.68, 'state': 'normal', 'rot1': 0, 'rot0': 0, 'rot3': 0, 'rot2': 0, 'depth': 0.089, 'yaw': 0.0, 'datetime': '2018-12-18 21:02:53.880972', 'mgs': 0, 'flw2': 0.1, 'flw1': 0.32, 'flw0': 0.0, 'time': 1.26, 'compass': -53.59, 'pitch': -1.25, 'roll': -0.76}
{'lipoC2': 0.06, 'temp': 0.0, 'lipoC3S3': 11.65, 'state': 'normal', 'rot1': 0, 'rot0': 0, 'rot3': 0, 'rot2': 0, 'depth': -0.217, 'yaw': 3.61, 'datetime': '2018-12-18 21:02:54.087584', 'mgs': 0, 'flw2': 0.13, 'flw1': 0.12, 'flw0': 0.0, 'time': 1.46, 'compass': -49.98, 'pitch': -1.15, 'roll': -0.74}
{'lipoC2': 0.14, 'temp': 0.0, 'lipoC3S3': 11.75, 'state': 'normal', 'rot1': 0, 'rot0': 0, 'rot3': 0, 'rot2': 0, 'depth': 0.317, 'yaw': 8.07, 'datetime': '2018-12-18 21:02:54.292695', 'mgs': 0, 'flw2': 0.0, 'flw1': 0.5, 'flw0': 0.0, 'time': 1.67, 'compass': -45.52, 'pitch': -1.01, 'roll': -0.86}
{'lipoC2': 0.0, 'temp': 0.0, 'lipoC3S3': 12.08, 'state': 'normal', 'rot1': 0, 'rot0': 0, 'rot3': 0, 'rot2': 0, 'depth': 1.385, 'yaw': 10.18, 'datetime': '2018-12-18 21:02:54.499490', 'mgs': 0, 'flw2': 0.0, 'flw1': 0.44, 'flw0': 0.0, 'time': 1.88, 'compass': -43.41, 'pitch': -0.88, 'roll': -0.85}
{'lipoC2': 0.17, 'temp': 0.0, 'lipoC3S3': 11.83, 'state': 'normal', 'rot1': 0, 'rot0': 0, 'rot3': 0, 'rot2': 0, 'depth': -1.437, 'yaw': 12.93, 'datetime': '2018-12-18 21:02:54.705024', 'mgs': 0, 'flw2': 0.71, 'flw1': 0.38, 'flw0': 0.54, 'time': 2.09, 'compass': -40.66, 'pitch': -0.79, 'roll': -0.79}
{'lipoC2': 0.0, 'temp': 0.0, 'lipoC3S3': 12.12, 'state': 'normal', 'rot1': 2, 'rot0': 1, 'rot3': 0, 'rot2': 0, 'depth': 1.614, 'yaw': 15.87, 'datetime': '2018-12-18 21:02:54.912875', 'mgs': 0, 'flw2': 0.5, 'flw1': 0.09, 'flw0': 0.02, 'time': 2.29, 'compass': -37.72, 'pitch': -0.63, 'roll': -0.7}
{'lipoC2': 0.18, 'temp': 0.0, 'lipoC3S3': 11.68, 'state': 'normal', 'rot1': 2, 'rot0': 2, 'rot3': 0, 'rot2': 0, 'depth': 0.089, 'yaw': 19.21, 'datetime': '2018-12-18 21:02:55.121668', 'mgs': 0, 'flw2': 0.28, 'flw1': 0.0, 'flw0': 0.59, 'time': 2.5, 'compass': -34.38, 'pitch': -0.4, 'roll': -0.41}
{'lipoC2': 0.0, 'temp': 0.0, 'lipoC3S3': 11.98, 'state': 'normal', 'rot1': 3, 'rot0': 3, 'rot3': 0, 'rot2': 0, 'depth': 1.233, 'yaw': 23.21, 'datetime': '2018-12-18 21:02:55.327077', 'mgs': 0, 'flw2': 0.0, 'flw1': 0.29, 'flw0': 0.48, 'time': 2.71, 'compass': -30.38, 'pitch': -0.51, 'roll': -0.02}
{'lipoC2': 0.0, 'temp': 0.0, 'lipoC3S3': 11.81, 'state': 'normal', 'rot1': 5, 'rot0': 4, 'rot3': 0, 'rot2': 0, 'depth': -0.293, 'yaw': 27.7, 'datetime': '2018-12-18 21:02:55.547275', 'mgs': 0, 'flw2': 0.39, 'flw1': 0.38, 'flw0': 0.26, 'time': 2.92, 'compass': -25.89, 'pitch': -0.76, 'roll': 0.1}
{'lipoC2': 0.01, 'temp': 0.0, 'lipoC3S3': 11.71, 'state': 'normal', 'rot1': 6, 'rot0': 5, 'rot3': 0, 'rot2': 0, 'depth': 1.08, 'yaw': 32.69, 'datetime': '2018-12-18 21:02:55.753327', 'mgs': 0, 'flw2': 0.55, 'flw1': 0.0, 'flw0': 0.12, 'time': 3.13, 'compass': -20.89, 'pitch': -0.5, 'roll': -0.05}
{'lipoC2': 0.0, 'temp': 0.0, 'lipoC3S3': 12.05, 'state': 'normal', 'rot1': 7, 'rot0': 6, 'rot3': 0, 'rot2': 0, 'depth': 1.385, 'yaw': 37.69, 'datetime': '2018-12-18 21:02:55.961972', 'mgs': 0, 'flw2': 0.27, 'flw1': 0.0, 'flw0': 0.56, 'time': 3.33, 'compass': -15.9, 'pitch': -0.03, 'roll': -0.41}
{'lipoC2': 0.15, 'temp': 0.0, 'lipoC3S3': 11.71, 'state': 'normal', 'rot1': 7, 'rot0': 7, 'rot3': 0, 'rot2': 0, 'depth': 0.165, 'yaw': 43.05, 'datetime': '2018-12-18 21:02:56.169919', 'mgs': 0, 'flw2': 0.48, 'flw1': 0.21, 'flw0': 0.1, 'time': 3.54, 'compass': -10.54, 'pitch': -0.19, 'roll': -0.52}
{'lipoC2': 0.0, 'temp': 0.0, 'lipoC3S3': 11.87, 'state': 'normal', 'rot1': 8, 'rot0': 7, 'rot3': 0, 'rot2': 0, 'depth': -0.293, 'yaw': 48.27, 'datetime': '2018-12-18 21:02:56.374817', 'mgs': 0, 'flw2': 0.0, 'flw1': 0.44, 'flw0': 0.0, 'time': 3.75, 'compass': -5.32, 'pitch': -0.79, 'roll': -0.3}
{'lipoC2': 0.0, 'temp': 0.0, 'lipoC3S3': 11.69, 'state': 'normal', 'rot1': 8, 'rot0': 7, 'rot3': 0, 'rot2': 0, 'depth': -1.437, 'yaw': 53.37, 'datetime': '2018-12-18 21:02:56.581688', 'mgs': 0, 'flw2': 0.0, 'flw1': 0.0, 'flw0': 0.18, 'time': 3.95, 'compass': -0.21, 'pitch': -1.22, 'roll': -0.23}
{'lipoC2': 0.14, 'temp': 0.0, 'lipoC3S3': 11.83, 'state': 'normal', 'rot1': 8, 'rot0': 7, 'rot3': 0, 'rot2': 0, 'depth': -2.353, 'yaw': 58.04, 'datetime': '2018-12-18 21:02:56.790172', 'mgs': 0, 'flw2': 0.01, 'flw1': 0.56, 'flw0': 0.0, 'time': 4.16, 'compass': 4.45, 'pitch': -1.13, 'roll': -0.39}
{'lipoC2': 0.0, 'temp': 0.0, 'lipoC3S3': 11.68, 'state': 'normal', 'rot1': 8, 'rot0': 7, 'rot3': 0, 'rot2': 0, 'depth': 1.233, 'yaw': 62.23, 'datetime': '2018-12-18 21:02:57.001299', 'mgs': 0, 'flw2': 0.6, 'flw1': 0.18, 'flw0': 0.16, 'time': 4.37, 'compass': 8.64, 'pitch': -0.89, 'roll': -0.47}
{'lipoC2': 0.0, 'temp': 0.0, 'lipoC3S3': 11.83, 'state': 'normal', 'rot1': 9, 'rot0': 9, 'rot3': 0, 'rot2': 0, 'depth': -0.522, 'yaw': 65.71, 'datetime': '2018-12-18 21:02:57.210223', 'mgs': 0, 'flw2': 0.33, 'flw1': 0.47, 'flw0': 0.27, 'time': 4.58, 'compass': 12.12, 'pitch': -0.77, 'roll': -0.73}
{'lipoC2': 0.03, 'temp': 0.0, 'lipoC3S3': 11.94, 'state': 'normal', 'rot1': 10, 'rot0': 10, 'rot3': 0, 'rot2': 0, 'depth': -1.971, 'yaw': 68.18, 'datetime': '2018-12-18 21:02:57.415815', 'mgs': 0, 'flw2': 0.54, 'flw1': 0.0, 'flw0': 0.09, 'time': 4.79, 'compass': 14.6, 'pitch': -1.01, 'roll': -0.97}
{'lipoC2': 0.09, 'temp': 0.0, 'lipoC3S3': 11.97, 'state': 'normal', 'rot1': 12, 'rot0': 11, 'rot3': 0, 'rot2': 0, 'depth': -2.277, 'yaw': 69.79, 'datetime': '2018-12-18 21:02:57.624977', 'mgs': 0, 'flw2': 0.12, 'flw1': 0.5, 'flw0': 0.32, 'time': 4.99, 'compass': 16.2, 'pitch': -1.05, 'roll': -0.91}
{'lipoC2': 0.09, 'temp': 0.0, 'lipoC3S3': 11.67, 'state': 'normal', 'rot1': 12, 'rot0': 12, 'rot3': 0, 'rot2': 0, 'depth': 0.775, 'yaw': 70.71, 'datetime': '2018-12-18 21:02:57.832479', 'mgs': 0, 'flw2': 0.32, 'flw1': 0.0, 'flw0': 0.13, 'time': 5.2, 'compass': 17.12, 'pitch': -0.65, 'roll': -0.69}
{'lipoC2': 0.0, 'temp': 0.0, 'lipoC3S3': 11.88, 'state': 'normal', 'rot1': 13, 'rot0': 13, 'rot3': 0, 'rot2': 0, 'depth': 0.089, 'yaw': 70.89, 'datetime': '2018-12-18 21:02:58.043577', 'mgs': 0, 'flw2': 0.56, 'flw1': 0.0, 'flw0': 0.13, 'time': 5.41, 'compass': 17.31, 'pitch': -0.15, 'roll': -0.63}
{'lipoC2': 0.14, 'temp': 0.0, 'lipoC3S3': 11.87, 'state': 'normal', 'rot1': 14, 'rot0': 14, 'rot3': 0, 'rot2': 0, 'depth': -1.743, 'yaw': 70.45, 'datetime': '2018-12-18 21:02:58.252739', 'mgs': 0, 'flw2': 0.54, 'flw1': 0.0, 'flw0': 0.29, 'time': 5.62, 'compass': 16.86, 'pitch': -0.14, 'roll': -0.74}
{'lipoC2': 0.0, 'temp': 0.0, 'lipoC3S3': 11.81, 'state': 'normal', 'rot1': 15, 'rot0': 15, 'rot3': 0, 'rot2': 0, 'depth': -0.674, 'yaw': 69.41, 'datetime': '2018-12-18 21:02:58.459495', 'mgs': 0, 'flw2': 0.27, 'flw1': 0.5, 'flw0': 0.32, 'time': 5.83, 'compass': 15.83, 'pitch': -0.37, 'roll': -0.96}
{'lipoC2': 0.0, 'temp': 0.0, 'lipoC3S3': 12.0, 'state': 'normal', 'rot1': 16, 'rot0': 16, 'rot3': 0, 'rot2': 0, 'depth': 0.699, 'yaw': 67.84, 'datetime': '2018-12-18 21:02:58.669832', 'mgs': 0, 'flw2': 0.54, 'flw1': 0.0, 'flw0': 0.07, 'time': 6.04, 'compass': 14.25, 'pitch': -0.28, 'roll': -1.18}
{'lipoC2': 0.06, 'temp': 0.0, 'lipoC3S3': 11.9, 'state': 'normal', 'rot1': 17, 'rot0': 17, 'rot3': 0, 'rot2': 0, 'depth': -2.2, 'yaw': 65.89, 'datetime': '2018-12-18 21:02:58.879814', 'mgs': 0, 'flw2': 0.56, 'flw1': 0.0, 'flw0': 0.15, 'time': 6.25, 'compass': 12.3, 'pitch': -0.07, 'roll': -1.28}
{'lipoC2': 0.0, 'temp': 0.0, 'lipoC3S3': 12.08, 'state': 'normal', 'rot1': 18, 'rot0': 18, 'rot3': 0, 'rot2': 0, 'depth': 1.462, 'yaw': 63.54, 'datetime': '2018-12-18 21:02:59.088682', 'mgs': 0, 'flw2': 0.39, 'flw1': 0.35, 'flw0': 0.18, 'time': 6.45, 'compass': 9.95, 'pitch': -0.12, 'roll': -1.27}
{'lipoC2': 0.0, 'temp': 0.0, 'lipoC3S3': 12.06, 'state': 'normal', 'rot1': 19, 'rot0': 19, 'rot3': 0, 'rot2': 0, 'depth': 1.462, 'yaw': 60.99, 'datetime': '2018-12-18 21:02:59.296595', 'mgs': 0, 'flw2': 0.42, 'flw1': 0.29, 'flw0': 0.13, 'time': 6.66, 'compass': 7.4, 'pitch': 0.0, 'roll': -1.27}
{'lipoC2': 0.0, 'temp': 0.0, 'lipoC3S3': 11.8, 'state': 'normal', 'rot1': 20, 'rot0': 20, 'rot3': 0, 'rot2': 0, 'depth': 0.928, 'yaw': 58.03, 'datetime': '2018-12-18 21:02:59.503113', 'mgs': 0, 'flw2': 0.2, 'flw1': 0.5, 'flw0': 0.31, 'time': 6.87, 'compass': 4.44, 'pitch': 0.5, 'roll': -1.44}
{'lipoC2': 0.0, 'temp': 0.0, 'lipoC3S3': 11.68, 'state': 'normal', 'rot1': 20, 'rot0': 20, 'rot3': 0, 'rot2': 0, 'depth': -1.895, 'yaw': 55.1, 'datetime': '2018-12-18 21:02:59.711797', 'mgs': 0, 'flw2': 0.0, 'flw1': 0.0, 'flw0': 0.18, 'time': 7.08, 'compass': 1.52, 'pitch': 0.69, 'roll': -1.45}
{'lipoC2': 0.1, 'temp': 0.0, 'lipoC3S3': 11.63, 'state': 'normal', 'rot1': 20, 'rot0': 20, 'rot3': 0, 'rot2': 0, 'depth': -0.217, 'yaw': 52.72, 'datetime': '2018-12-18 21:02:59.923120', 'mgs': 0, 'flw2': 0.07, 'flw1': 0.44, 'flw0': 0.0, 'time': 7.29, 'compass': -0.86, 'pitch': 0.21, 'roll': -1.09}
{'lipoC2': 0.0, 'temp': 0.0, 'lipoC3S3': 12.08, 'state': 'normal', 'rot1': 20, 'rot0': 20, 'rot3': 0, 'rot2': 0, 'depth': 1.614, 'yaw': 50.74, 'datetime': '2018-12-18 21:03:00.133568', 'mgs': 0, 'flw2': 0.0, 'flw1': 0.5, 'flw0': 0.0, 'time': 7.5, 'compass': -2.85, 'pitch': -0.12, 'roll': -0.86}
{'lipoC2': 0.0, 'temp': 0.0, 'lipoC3S3': 11.88, 'state': 'normal', 'rot1': 20, 'rot0': 20, 'rot3': 0, 'rot2': 0, 'depth': -0.064, 'yaw': 49.14, 'datetime': '2018-12-18 21:03:00.340473', 'mgs': 0, 'flw2': 0.21, 'flw1': 0.0, 'flw0': 0.0, 'time': 7.7, 'compass': -4.45, 'pitch': 0.35, 'roll': -0.95}
{'lipoC2': 0.0, 'temp': 0.0, 'lipoC3S3': 12.08, 'state': 'normal', 'rot1': 20, 'rot0': 20, 'rot3': 0, 'rot2': 0, 'depth': 1.538, 'yaw': 47.73, 'datetime': '2018-12-18 21:03:00.549116', 'mgs': 0, 'flw2': 0.0, 'flw1': 0.5, 'flw0': 0.0, 'time': 7.91, 'compass': -5.85, 'pitch': 0.98, 'roll': -1.15}
{'lipoC2': 0.0, 'temp': 0.0, 'lipoC3S3': 11.87, 'state': 'normal', 'rot1': 20, 'rot0': 20, 'rot3': 0, 'rot2': 0, 'depth': 0.317, 'yaw': 46.47, 'datetime': '2018-12-18 21:03:00.757442', 'mgs': 0, 'flw2': 0.23, 'flw1': 0.0, 'flw0': 0.0, 'time': 8.12, 'compass': -7.11, 'pitch': 0.85, 'roll': -1.19}
{'lipoC2': 0.0, 'temp': 0.0, 'lipoC3S3': 12.09, 'state': 'normal', 'rot1': 20, 'rot0': 20, 'rot3': 0, 'rot2': 0, 'depth': 1.462, 'yaw': 45.43, 'datetime': '2018-12-18 21:03:00.966821', 'mgs': 0, 'flw2': 0.0, 'flw1': 0.53, 'flw0': 0.0, 'time': 8.33, 'compass': -8.16, 'pitch': 0.22, 'roll': -1.18}
{'lipoC2': 0.15, 'temp': 0.0, 'lipoC3S3': 11.84, 'state': 'normal', 'rot1': 21, 'rot0': 21, 'rot3': 0, 'rot2': 0, 'depth': 0.928, 'yaw': 44.71, 'datetime': '2018-12-18 21:03:01.174323', 'mgs': 0, 'flw2': 0.31, 'flw1': 0.5, 'flw0': 0.34, 'time': 8.54, 'compass': -8.87, 'pitch': 0.12, 'roll': -1.14}
{'lipoC2': 0.15, 'temp': 0.0, 'lipoC3S3': 11.85, 'state': 'normal', 'rot1': 22, 'rot0': 22, 'rot3': 0, 'rot2': 0, 'depth': -1.666, 'yaw': 44.96, 'datetime': '2018-12-18 21:03:01.382556', 'mgs': 0, 'flw2': 0.15, 'flw1': 0.47, 'flw0': 0.29, 'time': 8.75, 'compass': -8.63, 'pitch': 0.9, 'roll': -1.03}
{'lipoC2': 0.08, 'temp': 0.0, 'lipoC3S3': 11.89, 'state': 'normal', 'rot1': 23, 'rot0': 23, 'rot3': 0, 'rot2': 0, 'depth': -2.277, 'yaw': 45.94, 'datetime': '2018-12-18 21:03:01.592304', 'mgs': 0, 'flw2': 0.56, 'flw1': 0.0, 'flw0': 0.18, 'time': 8.96, 'compass': -7.65, 'pitch': 1.18, 'roll': -0.89}
{'lipoC2': 0.0, 'temp': 0.0, 'lipoC3S3': 11.96, 'state': 'normal', 'rot1': 24, 'rot0': 23, 'rot3': 0, 'rot2': 0, 'depth': 0.546, 'yaw': 47.27, 'datetime': '2018-12-18 21:03:01.799782', 'mgs': 0, 'flw2': 0.0, 'flw1': 0.29, 'flw0': 0.11, 'time': 9.16, 'compass': -6.31, 'pitch': 0.44, 'roll': -0.68}
{'lipoC2': 0.0, 'temp': 0.0, 'lipoC3S3': 11.84, 'state': 'normal', 'rot1': 24, 'rot0': 23, 'rot3': 0, 'rot2': 0, 'depth': 0.546, 'yaw': 48.35, 'datetime': '2018-12-18 21:03:02.009106', 'mgs': 0, 'flw2': 0.0, 'flw1': 0.53, 'flw0': 0.0, 'time': 9.37, 'compass': -5.24, 'pitch': -0.16, 'roll': -0.85}
{'lipoC2': 0.0, 'temp': 0.0, 'lipoC3S3': 12.06, 'state': 'normal', 'rot1': 24, 'rot0': 23, 'rot3': 0, 'rot2': 0, 'depth': -0.98, 'yaw': 50.33, 'datetime': '2018-12-18 21:03:02.217679', 'mgs': 0, 'flw2': 0.0, 'flw1': 0.5, 'flw0': 0.0, 'time': 9.58, 'compass': -3.25, 'pitch': 0.1, 'roll': -1.22}
{'lipoC2': 0.0, 'temp': 0.0, 'lipoC3S3': 12.09, 'state': 'normal', 'rot1': 24, 'rot0': 23, 'rot3': 0, 'rot2': 0, 'depth': 1.538, 'yaw': 51.25, 'datetime': '2018-12-18 21:03:02.426288', 'mgs': 0, 'flw2': 0.07, 'flw1': 0.41, 'flw0': 0.0, 'time': 9.79, 'compass': -2.34, 'pitch': 0.45, 'roll': -1.44}
{'lipoC2': 0.1, 'temp': 0.0, 'lipoC3S3': 11.89, 'state': 'normal', 'rot1': 24, 'rot0': 23, 'rot3': 0, 'rot2': 0, 'depth': -2.353, 'yaw': 52.16, 'datetime': '2018-12-18 21:03:02.635952', 'mgs': 0, 'flw2': 0.22, 'flw1': 0.0, 'flw0': 0.0, 'time': 10.0, 'compass': -1.43, 'pitch': 0.16, 'roll': -1.35}
{'lipoC2': 0.04, 'temp': 0.0, 'lipoC3S3': 11.93, 'state': 'normal', 'rot1': 24, 'rot0': 23, 'rot3': 0, 'rot2': 0, 'depth': -2.048, 'yaw': 53.12, 'datetime': '2018-12-18 21:03:02.844506', 'mgs': 0, 'flw2': 0.21, 'flw1': 0.0, 'flw0': 0.0, 'time': 10.21, 'compass': -0.47, 'pitch': -0.23, 'roll': -1.33}
{'lipoC2': 0.0, 'temp': 0.0, 'lipoC3S3': 12.08, 'state': 'normal', 'rot1': 24, 'rot0': 23, 'rot3': 0, 'rot2': 0, 'depth': 1.538, 'yaw': 53.93, 'datetime': '2018-12-18 21:03:03.054165', 'mgs': 0, 'flw2': 0.09, 'flw1': 0.44, 'flw0': 0.0, 'time': 10.41, 'compass': 0.34, 'pitch': -0.3, 'roll': -1.32}
{'lipoC2': 0.17, 'temp': 0.0, 'lipoC3S3': 11.8, 'state': 'normal', 'rot1': 24, 'rot0': 23, 'rot3': 0, 'rot2': 0, 'depth': -0.598, 'yaw': 54.76, 'datetime': '2018-12-18 21:03:03.262114', 'mgs': 0, 'flw2': 0.0, 'flw1': 0.5, 'flw0': 0.0, 'time': 10.62, 'compass': 1.18, 'pitch': -0.08, 'roll': -1.21}
{'lipoC2': 0.0, 'temp': 0.0, 'lipoC3S3': 11.76, 'state': 'normal', 'rot1': 24, 'rot0': 23, 'rot3': 0, 'rot2': 0, 'depth': -1.208, 'yaw': 55.94, 'datetime': '2018-12-18 21:03:03.470776', 'mgs': 0, 'flw2': 0.0, 'flw1': 0.53, 'flw0': 0.0, 'time': 10.83, 'compass': 2.35, 'pitch': 0.0, 'roll': -1.2}
{'lipoC2': 0.0, 'temp': 0.0, 'lipoC3S3': 12.08, 'state': 'normal', 'rot1': 24, 'rot0': 23, 'rot3': 0, 'rot2': 0, 'depth': 1.385, 'yaw': 57.04, 'datetime': '2018-12-18 21:03:03.678271', 'mgs': 0, 'flw2': 0.0, 'flw1': 0.53, 'flw0': 0.0, 'time': 11.04, 'compass': 3.45, 'pitch': -0.24, 'roll': -1.25}
{'lipoC2': 0.16, 'temp': 0.0, 'lipoC3S3': 11.73, 'state': 'normal', 'rot1': 24, 'rot0': 23, 'rot3': 0, 'rot2': 0, 'depth': 0.165, 'yaw': 57.84, 'datetime': '2018-12-18 21:03:03.887336', 'mgs': 0, 'flw2': 0.0, 'flw1': 0.53, 'flw0': 0.0, 'time': 11.25, 'compass': 4.25, 'pitch': -0.53, 'roll': -1.35}
{'lipoC2': 0.0, 'temp': 0.0, 'lipoC3S3': 11.73, 'state': 'normal', 'rot1': 24, 'rot0': 23, 'rot3': 0, 'rot2': 0, 'depth': -1.285, 'yaw': 58.48, 'datetime': '2018-12-18 21:03:04.096273', 'mgs': 0, 'flw2': 0.0, 'flw1': 0.53, 'flw0': 0.0, 'time': 11.46, 'compass': 4.89, 'pitch': -0.37, 'roll': -1.4}
{'lipoC2': 0.0, 'temp': 0.0, 'lipoC3S3': 12.06, 'state': 'normal', 'rot1': 24, 'rot0': 24, 'rot3': 0, 'rot2': 0, 'depth': 1.309, 'yaw': 58.95, 'datetime': '2018-12-18 21:03:04.306838', 'mgs': 0, 'flw2': 0.32, 'flw1': 0.0, 'flw0': 0.57, 'time': 11.67, 'compass': 5.36, 'pitch': 0.08, 'roll': -1.55}
{'lipoC2': 0.16, 'temp': 0.0, 'lipoC3S3': 11.81, 'state': 'normal', 'rot1': 25, 'rot0': 25, 'rot3': 0, 'rot2': 0, 'depth': 0.623, 'yaw': 58.7, 'datetime': '2018-12-18 21:03:04.514857', 'mgs': 0, 'flw2': 0.24, 'flw1': 0.47, 'flw0': 0.32, 'time': 11.87, 'compass': 5.12, 'pitch': 0.28, 'roll': -1.73}
{'lipoC2': 0.0, 'temp': 0.0, 'lipoC3S3': 12.02, 'state': 'normal', 'rot1': 26, 'rot0': 26, 'rot3': 0, 'rot2': 0, 'depth': 1.92, 'yaw': 57.59, 'datetime': '2018-12-18 21:03:04.717589', 'mgs': 0, 'flw2': 0.16, 'flw1': 0.53, 'flw0': 0.35, 'time': 12.08, 'compass': 4.0, 'pitch': -0.02, 'roll': -1.66}
{'lipoC2': 0.15, 'temp': 0.0, 'lipoC3S3': 11.85, 'state': 'normal', 'rot1': 27, 'rot0': 26, 'rot3': 0, 'rot2': 0, 'depth': -2.048, 'yaw': 56.07, 'datetime': '2018-12-18 21:03:04.924788', 'mgs': 0, 'flw2': 0.0, 'flw1': 0.5, 'flw0': 0.0, 'time': 12.29, 'compass': 2.49, 'pitch': -0.14, 'roll': -1.56}
{'lipoC2': 0.0, 'temp': 0.0, 'lipoC3S3': 11.68, 'state': 'normal', 'rot1': 27, 'rot0': 26, 'rot3': 0, 'rot2': 0, 'depth': -1.514, 'yaw': 54.88, 'datetime': '2018-12-18 21:03:05.134921', 'mgs': 0, 'flw2': 0.1, 'flw1': 0.35, 'flw0': 0.0, 'time': 12.5, 'compass': 1.29, 'pitch': 0.17, 'roll': -1.2}
{'lipoC2': 0.0, 'temp': 0.0, 'lipoC3S3': 12.08, 'state': 'normal', 'rot1': 27, 'rot0': 26, 'rot3': 0, 'rot2': 0, 'depth': 1.385, 'yaw': 53.79, 'datetime': '2018-12-18 21:03:05.356252', 'mgs': 0, 'flw2': 0.0, 'flw1': 0.56, 'flw0': 0.0, 'time': 12.71, 'compass': 0.2, 'pitch': 0.39, 'roll': -0.88}
{'lipoC2': 0.0, 'temp': 0.0, 'lipoC3S3': 11.8, 'state': 'normal', 'rot1': 27, 'rot0': 26, 'rot3': 0, 'rot2': 0, 'depth': -0.446, 'yaw': 52.8, 'datetime': '2018-12-18 21:03:05.562840', 'mgs': 0, 'flw2': 0.0, 'flw1': 0.53, 'flw0': 0.0, 'time': 12.92, 'compass': -0.78, 'pitch': 0.1, 'roll': -1.0}
{'lipoC2': 0.0, 'temp': 0.0, 'lipoC3S3': 12.08, 'state': 'normal', 'rot1': 27, 'rot0': 26, 'rot3': 0, 'rot2': 0, 'depth': 1.462, 'yaw': 51.95, 'datetime': '2018-12-18 21:03:05.770928', 'mgs': 0, 'flw2': 0.0, 'flw1': 0.5, 'flw0': 0.0, 'time': 13.13, 'compass': -1.63, 'pitch': -0.25, 'roll': -1.26}
{'lipoC2': 0.0, 'temp': 0.0, 'lipoC3S3': 12.09, 'state': 'normal', 'rot1': 27, 'rot0': 26, 'rot3': 0, 'rot2': 0, 'depth': -0.674, 'yaw': 51.19, 'datetime': '2018-12-18 21:03:05.979160', 'mgs': 0, 'flw2': 0.0, 'flw1': 0.53, 'flw0': 0.0, 'time': 13.33, 'compass': -2.4, 'pitch': -0.04, 'roll': -1.39}
{'lipoC2': 0.0, 'temp': 0.0, 'lipoC3S3': 11.94, 'state': 'normal', 'rot1': 27, 'rot0': 26, 'rot3': 0, 'rot2': 0, 'depth': -1.666, 'yaw': 50.53, 'datetime': '2018-12-18 21:03:06.192266', 'mgs': 0, 'flw2': 0.0, 'flw1': 0.29, 'flw0': 0.1, 'time': 13.54, 'compass': -3.05, 'pitch': 0.32, 'roll': -1.37}
{'lipoC2': 0.15, 'temp': 0.0, 'lipoC3S3': 11.72, 'state': 'normal', 'rot1': 27, 'rot0': 26, 'rot3': 0, 'rot2': 0, 'depth': 0.089, 'yaw': 49.64, 'datetime': '2018-12-18 21:03:06.497672', 'mgs': 0, 'flw2': 0.02, 'flw1': 0.0, 'flw0': 0.15, 'time': 13.85, 'compass': -3.95, 'pitch': 0.21, 'roll': -1.34}
{'lipoC2': 0.0, 'temp': 0.0, 'lipoC3S3': 12.08, 'state': 'normal', 'rot1': 27, 'rot0': 26, 'rot3': 0, 'rot2': 0, 'depth': 1.538, 'yaw': 49.09, 'datetime': '2018-12-18 21:03:06.706756', 'mgs': 0, 'flw2': 0.0, 'flw1': 0.47, 'flw0': 0.0, 'time': 14.06, 'compass': -4.5, 'pitch': 0.16, 'roll': -1.34}
{'lipoC2': 0.0, 'temp': 0.0, 'lipoC3S3': 11.77, 'state': 'normal', 'rot1': 27, 'rot0': 26, 'rot3': 0, 'rot2': 0, 'depth': -0.598, 'yaw': 48.58, 'datetime': '2018-12-18 21:03:06.916063', 'mgs': 0, 'flw2': 0.06, 'flw1': 0.44, 'flw0': 0.12, 'time': 14.27, 'compass': -5.01, 'pitch': 0.24, 'roll': -1.27}
{'lipoC2': 0.0, 'temp': 0.0, 'lipoC3S3': 12.08, 'state': 'normal', 'rot1': 27, 'rot0': 26, 'rot3': 0, 'rot2': 0, 'depth': 1.538, 'yaw': 48.11, 'datetime': '2018-12-18 21:03:07.124862', 'mgs': 0, 'flw2': 0.0, 'flw1': 0.5, 'flw0': 0.0, 'time': 14.48, 'compass': -5.47, 'pitch': 0.26, 'roll': -1.26}
{'lipoC2': 0.14, 'temp': 0.0, 'lipoC3S3': 11.68, 'state': 'normal', 'rot1': 27, 'rot0': 26, 'rot3': 0, 'rot2': 0, 'depth': -0.217, 'yaw': 47.71, 'datetime': '2018-12-18 21:03:07.333415', 'mgs': 0, 'flw2': 0.02, 'flw1': 0.0, 'flw0': 0.17, 'time': 14.69, 'compass': -5.88, 'pitch': 0.26, 'roll': -1.4}
{'lipoC2': 0.0, 'temp': 0.0, 'lipoC3S3': 12.08, 'state': 'normal', 'rot1': 27, 'rot0': 26, 'rot3': 0, 'rot2': 0, 'depth': -0.827, 'yaw': 47.36, 'datetime': '2018-12-18 21:03:07.542453', 'mgs': 0, 'flw2': 0.0, 'flw1': 0.5, 'flw0': 0.0, 'time': 14.9, 'compass': -6.23, 'pitch': 0.18, 'roll': -1.55}
{'lipoC2': 0.15, 'temp': 0.0, 'lipoC3S3': 11.85, 'state': 'normal', 'rot1': 27, 'rot0': 26, 'rot3': 0, 'rot2': 0, 'depth': -1.819, 'yaw': 47.0, 'datetime': '2018-12-18 21:03:07.749894', 'mgs': 0, 'flw2': 0.0, 'flw1': 0.41, 'flw0': 0.0, 'time': 15.1, 'compass': -6.59, 'pitch': 0.04, 'roll': -1.5}
{'lipoC2': 0.01, 'temp': 0.0, 'lipoC3S3': 11.94, 'state': 'normal', 'rot1': 27, 'rot0': 26, 'rot3': 0, 'rot2': 0, 'depth': -1.895, 'yaw': 46.74, 'datetime': '2018-12-18 21:03:07.960295', 'mgs': 0, 'flw2': 0.0, 'flw1': 0.35, 'flw0': 0.07, 'time': 15.31, 'compass': -6.85, 'pitch': 0.0, 'roll': -1.43}
{'lipoC2': 0.09, 'temp': 0.0, 'lipoC3S3': 11.65, 'state': 'normal', 'rot1': 27, 'rot0': 26, 'rot3': 0, 'rot2': 0, 'depth': 0.775, 'yaw': 46.51, 'datetime': '2018-12-18 21:03:08.169270', 'mgs': 0, 'flw2': 0.12, 'flw1': 0.26, 'flw0': 0.0, 'time': 15.52, 'compass': -7.08, 'pitch': 0.13, 'roll': -1.48}
{'lipoC2': 0.0, 'temp': 0.0, 'lipoC3S3': 11.87, 'state': 'normal', 'rot1': 27, 'rot0': 26, 'rot3': 0, 'rot2': 0, 'depth': 0.394, 'yaw': 46.32, 'datetime': '2018-12-18 21:03:08.378833', 'mgs': 0, 'flw2': 0.16, 'flw1': 0.0, 'flw0': 0.04, 'time': 15.73, 'compass': -7.27, 'pitch': 0.22, 'roll': -1.41}
{'lipoC2': 0.09, 'temp': 0.0, 'lipoC3S3': 11.64, 'state': 'normal', 'rot1': 27, 'rot0': 26, 'rot3': 0, 'rot2': 0, 'depth': 0.775, 'yaw': 46.17, 'datetime': '2018-12-18 21:03:08.586315', 'mgs': 0, 'flw2': 0.09, 'flw1': 0.32, 'flw0': 0.0, 'time': 15.94, 'compass': -7.42, 'pitch': 0.01, 'roll': -1.35}
{'lipoC2': 0.11, 'temp': 0.0, 'lipoC3S3': 12.06, 'state': 'normal', 'rot1': 27, 'rot0': 26, 'rot3': 0, 'rot2': 0, 'depth': -0.14, 'yaw': 46.08, 'datetime': '2018-12-18 21:03:08.795715', 'mgs': 0, 'flw2': 0.0, 'flw1': 0.09, 'flw0': 0.24, 'time': 16.15, 'compass': -7.51, 'pitch': -0.01, 'roll': -1.37}
{'lipoC2': 0.1, 'temp': 0.0, 'lipoC3S3': 11.64, 'state': 'normal', 'rot1': 27, 'rot0': 26, 'rot3': 0, 'rot2': 0, 'depth': 0.546, 'yaw': 46.05, 'datetime': '2018-12-18 21:03:09.005224', 'mgs': 0, 'flw2': 0.0, 'flw1': 0.23, 'flw0': 0.16, 'time': 16.36, 'compass': -7.53, 'pitch': 0.1, 'roll': -1.4}
{'lipoC2': 0.16, 'temp': 0.0, 'lipoC3S3': 11.69, 'state': 'normal', 'rot1': 27, 'rot0': 26, 'rot3': 0, 'rot2': 0, 'depth': 0.165, 'yaw': 46.05, 'datetime': '2018-12-18 21:03:09.216125', 'mgs': 0, 'flw2': 0.0, 'flw1': 0.0, 'flw0': 0.23, 'time': 16.57, 'compass': -7.53, 'pitch': 0.04, 'roll': -1.32}
{'lipoC2': 0.06, 'temp': 0.0, 'lipoC3S3': 11.64, 'state': 'normal', 'rot1': 27, 'rot0': 26, 'rot3': 0, 'rot2': 0, 'depth': 0.775, 'yaw': 46.05, 'datetime': '2018-12-18 21:03:09.425212', 'mgs': 0, 'flw2': 0.0, 'flw1': 0.32, 'flw0': 0.12, 'time': 16.78, 'compass': -7.53, 'pitch': 0.08, 'roll': -1.26}
{'lipoC2': 0.05, 'temp': 0.0, 'lipoC3S3': 11.92, 'state': 'normal', 'rot1': 27, 'rot0': 26, 'rot3': 0, 'rot2': 0, 'depth': -2.2, 'yaw': 46.05, 'datetime': '2018-12-18 21:03:09.634454', 'mgs': 0, 'flw2': 0.0, 'flw1': 0.44, 'flw0': 0.04, 'time': 16.99, 'compass': -7.53, 'pitch': 0.31, 'roll': -1.34}
{'lipoC2': 0.0, 'temp': 0.0, 'lipoC3S3': 11.93, 'state': 'normal', 'rot1': 27, 'rot0': 26, 'rot3': 0, 'rot2': 0, 'depth': 0.546, 'yaw': 46.05, 'datetime': '2018-12-18 21:03:09.844496', 'mgs': 0, 'flw2': 0.21, 'flw1': 0.0, 'flw0': 0.0, 'time': 17.19, 'compass': -7.53, 'pitch': 0.28, 'roll': -1.38}
{'lipoC2': 0.06, 'temp': 0.0, 'lipoC3S3': 11.89, 'state': 'normal', 'rot1': 27, 'rot0': 26, 'rot3': 0, 'rot2': 0, 'depth': -2.277, 'yaw': 46.05, 'datetime': '2018-12-18 21:03:10.055605', 'mgs': 0, 'flw2': 0.15, 'flw1': 0.0, 'flw0': 0.01, 'time': 17.4, 'compass': -7.54, 'pitch': -0.1, 'roll': -1.3}
{'lipoC2': 0.13, 'temp': 0.0, 'lipoC3S3': 11.64, 'state': 'normal', 'rot1': 27, 'rot0': 26, 'rot3': 0, 'rot2': 0, 'depth': -0.064, 'yaw': 46.05, 'datetime': '2018-12-18 21:03:10.262958', 'mgs': 0, 'flw2': 0.12, 'flw1': 0.21, 'flw0': 0.0, 'time': 17.61, 'compass': -7.54, 'pitch': -0.26, 'roll': -1.24}
{'lipoC2': 0.0, 'temp': 0.0, 'lipoC3S3': 11.85, 'state': 'normal', 'rot1': 27, 'rot0': 26, 'rot3': 0, 'rot2': 0, 'depth': 0.165, 'yaw': 46.05, 'datetime': '2018-12-18 21:03:10.471497', 'mgs': 0, 'flw2': 0.0, 'flw1': 0.53, 'flw0': 0.0, 'time': 17.82, 'compass': -7.54, 'pitch': -0.01, 'roll': -1.19}
{'lipoC2': 0.09, 'temp': 0.0, 'lipoC3S3': 11.65, 'state': 'normal', 'rot1': 27, 'rot0': 26, 'rot3': 0, 'rot2': 0, 'depth': 0.699, 'yaw': 46.05, 'datetime': '2018-12-18 21:03:10.680780', 'mgs': 0, 'flw2': 0.12, 'flw1': 0.29, 'flw0': 0.0, 'time': 18.03, 'compass': -7.54, 'pitch': 0.16, 'roll': -1.27}
{'lipoC2': 0.09, 'temp': 0.0, 'lipoC3S3': 11.88, 'state': 'normal', 'rot1': 27, 'rot0': 26, 'rot3': 0, 'rot2': 0, 'depth': -2.277, 'yaw': 46.05, 'datetime': '2018-12-18 21:03:10.888874', 'mgs': 0, 'flw2': 0.23, 'flw1': 0.0, 'flw0': 0.0, 'time': 18.24, 'compass': -7.54, 'pitch': 0.04, 'roll': -1.31}
{'lipoC2': 0.18, 'temp': 0.0, 'lipoC3S3': 11.77, 'state': 'normal', 'rot1': 27, 'rot0': 26, 'rot3': 0, 'rot2': 0, 'depth': 0.928, 'yaw': 46.05, 'datetime': '2018-12-18 21:03:11.101806', 'mgs': 0, 'flw2': 0.0, 'flw1': 0.0, 'flw0': 0.21, 'time': 18.45, 'compass': -7.54, 'pitch': -0.27, 'roll': -1.32}
{'lipoC2': 0.0, 'temp': 0.0, 'lipoC3S3': 11.72, 'state': 'normal', 'rot1': 27, 'rot0': 26, 'rot3': 0, 'rot2': 0, 'depth': -0.598, 'yaw': 46.05, 'datetime': '2018-12-18 21:03:11.306449', 'mgs': 0, 'flw2': 0.0, 'flw1': 0.0, 'flw0': 0.2, 'time': 18.66, 'compass': -7.53, 'pitch': -0.35, 'roll': -1.38}
{'lipoC2': 0.02, 'temp': 0.0, 'lipoC3S3': 11.94, 'state': 'normal', 'rot1': 27, 'rot0': 26, 'rot3': 0, 'rot2': 0, 'depth': -1.743, 'yaw': 46.08, 'datetime': '2018-12-18 21:03:11.513747', 'mgs': 0, 'flw2': 0.16, 'flw1': 0.0, 'flw0': 0.0, 'time': 18.86, 'compass': -7.51, 'pitch': -0.15, 'roll': -1.39}
{'lipoC2': 0.02, 'temp': 0.0, 'lipoC3S3': 11.68, 'state': 'normal', 'rot1': 27, 'rot0': 26, 'rot3': 0, 'rot2': 0, 'depth': -0.293, 'yaw': 46.17, 'datetime': '2018-12-18 21:03:11.724865', 'mgs': 0, 'flw2': 0.15, 'flw1': 0.0, 'flw0': 0.0, 'time': 19.07, 'compass': -7.42, 'pitch': -0.03, 'roll': -1.33}
{'lipoC2': 0.17, 'temp': 0.0, 'lipoC3S3': 11.76, 'state': 'normal', 'rot1': 27, 'rot0': 26, 'rot3': 0, 'rot2': 0, 'depth': -0.98, 'yaw': 46.22, 'datetime': '2018-12-18 21:03:11.934470', 'mgs': 0, 'flw2': 0.0, 'flw1': 0.0, 'flw0': 0.22, 'time': 19.28, 'compass': -7.36, 'pitch': -0.02, 'roll': -1.26}
{'lipoC2': 0.0, 'temp': 0.0, 'lipoC3S3': 11.73, 'state': 'normal', 'rot1': 27, 'rot0': 26, 'rot3': 0, 'rot2': 0, 'depth': -0.98, 'yaw': 46.32, 'datetime': '2018-12-18 21:03:12.145901', 'mgs': 0, 'flw2': 0.07, 'flw1': 0.44, 'flw0': 0.0, 'time': 19.49, 'compass': -7.26, 'pitch': -0.12, 'roll': -1.14}
{'lipoC2': 0.08, 'temp': 0.0, 'lipoC3S3': 11.88, 'state': 'normal', 'rot1': 27, 'rot0': 26, 'rot3': 0, 'rot2': 0, 'depth': -2.353, 'yaw': 46.42, 'datetime': '2018-12-18 21:03:12.354936', 'mgs': 0, 'flw2': 0.22, 'flw1': 0.0, 'flw0': 0.0, 'time': 19.7, 'compass': -7.17, 'pitch': -0.1, 'roll': -1.2}
{'lipoC2': 0.18, 'temp': 0.0, 'lipoC3S3': 11.72, 'state': 'normal', 'rot1': 27, 'rot0': 26, 'rot3': 0, 'rot2': 0, 'depth': -0.446, 'yaw': 46.54, 'datetime': '2018-12-18 21:03:12.561896', 'mgs': 0, 'flw2': 0.0, 'flw1': 0.0, 'flw0': 0.22, 'time': 19.91, 'compass': -7.04, 'pitch': 0.1, 'roll': -1.35}
{'lipoC2': 0.16, 'temp': 0.0, 'lipoC3S3': 11.71, 'state': 'normal', 'rot1': 27, 'rot0': 26, 'rot3': 0, 'rot2': 0, 'depth': 0.241, 'yaw': 46.7, 'datetime': '2018-12-18 21:03:12.765920', 'mgs': 0, 'flw2': 0.09, 'flw1': 0.38, 'flw0': 0.0, 'time': 20.11, 'compass': -6.89, 'pitch': -0.03, 'roll': -1.52}
{'lipoC2': 0.0, 'temp': 0.0, 'lipoC3S3': 12.08, 'state': 'normal', 'rot1': 27, 'rot0': 26, 'rot3': 0, 'rot2': 0, 'depth': -2.124, 'yaw': 46.85, 'datetime': '2018-12-18 21:03:12.973511', 'mgs': 0, 'flw2': 0.11, 'flw1': 0.29, 'flw0': 0.0, 'time': 20.32, 'compass': -6.74, 'pitch': -0.34, 'roll': -1.51}
{'lipoC2': 0.0, 'temp': 0.0, 'lipoC3S3': 11.81, 'state': 'normal', 'rot1': 27, 'rot0': 26, 'rot3': 0, 'rot2': 0, 'depth': -0.293, 'yaw': 47.03, 'datetime': '2018-12-18 21:03:13.183104', 'mgs': 0, 'flw2': 0.0, 'flw1': 0.53, 'flw0': 0.0, 'time': 20.53, 'compass': -6.56, 'pitch': -0.3, 'roll': -1.33}
{'lipoC2': 0.01, 'temp': 0.0, 'lipoC3S3': 11.68, 'state': 'normal', 'rot1': 27, 'rot0': 26, 'rot3': 0, 'rot2': 0, 'depth': -0.369, 'yaw': 47.2, 'datetime': '2018-12-18 21:03:13.390994', 'mgs': 0, 'flw2': 0.18, 'flw1': 0.03, 'flw0': 0.0, 'time': 20.74, 'compass': -6.39, 'pitch': 0.02, 'roll': -1.27}
{'lipoC2': 0.16, 'temp': 0.0, 'lipoC3S3': 11.71, 'state': 'normal', 'rot1': 27, 'rot0': 26, 'rot3': 0, 'rot2': 0, 'depth': 0.241, 'yaw': 47.39, 'datetime': '2018-12-18 21:03:13.600093', 'mgs': 0, 'flw2': 0.04, 'flw1': 0.41, 'flw0': 0.0, 'time': 20.95, 'compass': -6.19, 'pitch': 0.1, 'roll': -1.24}
{'lipoC2': 0.0, 'temp': 0.0, 'lipoC3S3': 12.09, 'state': 'normal', 'rot1': 27, 'rot0': 26, 'rot3': 0, 'rot2': 0, 'depth': 1.538, 'yaw': 47.58, 'datetime': '2018-12-18 21:03:13.809269', 'mgs': 0, 'flw2': 0.05, 'flw1': 0.44, 'flw0': 0.0, 'time': 21.16, 'compass': -6.0, 'pitch': 0.0, 'roll': -1.09}
{'lipoC2': 0.11, 'temp': 0.0, 'lipoC3S3': 12.06, 'state': 'normal', 'rot1': 27, 'rot0': 26, 'rot3': 0, 'rot2': 0, 'depth': 0.699, 'yaw': 47.72, 'datetime': '2018-12-18 21:03:14.019330', 'mgs': 0, 'flw2': 0.11, 'flw1': 0.29, 'flw0': 0.0, 'time': 21.37, 'compass': -5.86, 'pitch': -0.0, 'roll': -1.13}
{'lipoC2': 0.0, 'temp': 0.0, 'lipoC3S3': 12.09, 'state': 'normal', 'rot1': 27, 'rot0': 26, 'rot3': 0, 'rot2': 0, 'depth': 1.538, 'yaw': 47.88, 'datetime': '2018-12-18 21:03:14.226899', 'mgs': 0, 'flw2': 0.09, 'flw1': 0.38, 'flw0': 0.0, 'time': 21.58, 'compass': -5.7, 'pitch': -0.03, 'roll': -1.41}
{'lipoC2': 0.0, 'temp': 0.0, 'lipoC3S3': 12.01, 'state': 'normal', 'rot1': 27, 'rot0': 26, 'rot3': 0, 'rot2': 0, 'depth': 1.004, 'yaw': 48.05, 'datetime': '2018-12-18 21:03:14.435028', 'mgs': 0, 'flw2': 0.0, 'flw1': 0.18, 'flw0': 0.2, 'time': 21.78, 'compass': -5.54, 'pitch': -0.4, 'roll': -1.49}
{'lipoC2': 0.14, 'temp': 0.0, 'lipoC3S3': 11.85, 'state': 'normal', 'rot1': 27, 'rot0': 26, 'rot3': 0, 'rot2': 0, 'depth': -2.124, 'yaw': 48.22, 'datetime': '2018-12-18 21:03:14.644046', 'mgs': 0, 'flw2': 0.0, 'flw1': 0.38, 'flw0': 0.0, 'time': 21.99, 'compass': -5.37, 'pitch': -0.49, 'roll': -1.43}
{'lipoC2': 0.0, 'temp': 0.0, 'lipoC3S3': 11.72, 'state': 'normal', 'rot1': 27, 'rot0': 26, 'rot3': 0, 'rot2': 0, 'depth': -1.132, 'yaw': 48.4, 'datetime': '2018-12-18 21:03:14.853771', 'mgs': 0, 'flw2': 0.0, 'flw1': 0.0, 'flw0': 0.18, 'time': 22.2, 'compass': -5.19, 'pitch': -0.02, 'roll': -1.36}
{'lipoC2': 0.18, 'temp': 0.0, 'lipoC3S3': 11.77, 'state': 'normal', 'rot1': 27, 'rot0': 26, 'rot3': 0, 'rot2': 0, 'depth': -0.674, 'yaw': 48.53, 'datetime': '2018-12-18 21:03:15.064069', 'mgs': 0, 'flw2': 0.0, 'flw1': 0.5, 'flw0': 0.0, 'time': 22.41, 'compass': -5.06, 'pitch': 0.31, 'roll': -1.27}
{'lipoC2': 0.0, 'temp': 0.0, 'lipoC3S3': 11.81, 'state': 'normal', 'rot1': 27, 'rot0': 26, 'rot3': 0, 'rot2': 0, 'depth': -0.751, 'yaw': 48.66, 'datetime': '2018-12-18 21:03:15.277117', 'mgs': 0, 'flw2': 0.0, 'flw1': 0.53, 'flw0': 0.0, 'time': 22.62, 'compass': -4.93, 'pitch': -0.14, 'roll': -1.2}
{'lipoC2': 0.17, 'temp': 0.0, 'lipoC3S3': 11.81, 'state': 'normal', 'rot1': 27, 'rot0': 26, 'rot3': 0, 'rot2': 0, 'depth': -0.674, 'yaw': 48.72, 'datetime': '2018-12-18 21:03:15.481727', 'mgs': 0, 'flw2': 0.0, 'flw1': 0.5, 'flw0': 0.0, 'time': 22.83, 'compass': -4.86, 'pitch': -0.69, 'roll': -1.33}
{'lipoC2': 0.0, 'temp': 0.0, 'lipoC3S3': 12.04, 'state': 'normal', 'rot1': 27, 'rot0': 26, 'rot3': 0, 'rot2': 0, 'depth': 1.233, 'yaw': 48.85, 'datetime': '2018-12-18 21:03:15.693729', 'mgs': 0, 'flw2': 0.0, 'flw1': 0.0, 'flw0': 0.21, 'time': 23.03, 'compass': -4.74, 'pitch': -0.49, 'roll': -1.46}
{'lipoC2': 0.08, 'temp': 0.0, 'lipoC3S3': 11.64, 'state': 'normal', 'rot1': 27, 'rot0': 26, 'rot3': 0, 'rot2': 0, 'depth': -0.217, 'yaw': 48.99, 'datetime': '2018-12-18 21:03:15.901020', 'mgs': 0, 'flw2': 0.13, 'flw1': 0.18, 'flw0': 0.0, 'time': 23.24, 'compass': -4.59, 'pitch': 0.17, 'roll': -1.54}
{'lipoC2': 0.13, 'temp': 0.0, 'lipoC3S3': 11.87, 'state': 'normal', 'rot1': 27, 'rot0': 26, 'rot3': 0, 'rot2': 0, 'depth': -2.277, 'yaw': 49.14, 'datetime': '2018-12-18 21:03:16.111686', 'mgs': 0, 'flw2': 0.26, 'flw1': 0.0, 'flw0': 0.0, 'time': 23.45, 'compass': -4.45, 'pitch': 0.47, 'roll': -1.44}
{'lipoC2': 0.04, 'temp': 0.0, 'lipoC3S3': 11.64, 'state': 'normal', 'rot1': 27, 'rot0': 26, 'rot3': 0, 'rot2': 0, 'depth': 1.004, 'yaw': 49.16, 'datetime': '2018-12-18 21:03:16.317853', 'mgs': 0, 'flw2': 0.17, 'flw1': 0.0, 'flw0': 0.0, 'time': 23.66, 'compass': -4.43, 'pitch': 0.11, 'roll': -1.32}
{'lipoC2': 0.12, 'temp': 0.0, 'lipoC3S3': 11.87, 'state': 'normal', 'rot1': 27, 'rot0': 26, 'rot3': 0, 'rot2': 0, 'depth': -2.505, 'yaw': 49.26, 'datetime': '2018-12-18 21:03:16.526834', 'mgs': 0, 'flw2': 0.16, 'flw1': 0.0, 'flw0': 0.02, 'time': 23.87, 'compass': -4.33, 'pitch': -0.45, 'roll': -1.24}
{'lipoC2': 0.14, 'temp': 0.0, 'lipoC3S3': 11.87, 'state': 'normal', 'rot1': 27, 'rot0': 26, 'rot3': 0, 'rot2': 0, 'depth': -2.2, 'yaw': 49.33, 'datetime': '2018-12-18 21:03:16.735312', 'mgs': 0, 'flw2': 0.0, 'flw1': 0.38, 'flw0': 0.0, 'time': 24.08, 'compass': -4.25, 'pitch': -0.53, 'roll': -1.27}
{'lipoC2': 0.0, 'temp': 0.0, 'lipoC3S3': 11.73, 'state': 'normal', 'rot1': 27, 'rot0': 26, 'rot3': 0, 'rot2': 0, 'depth': -0.98, 'yaw': 49.47, 'datetime': '2018-12-18 21:03:16.947079', 'mgs': 0, 'flw2': 0.04, 'flw1': 0.5, 'flw0': 0.0, 'time': 24.29, 'compass': -4.11, 'pitch': 0.02, 'roll': -1.43}
{'lipoC2': 0.14, 'temp': 0.0, 'lipoC3S3': 11.69, 'state': 'normal', 'rot1': 27, 'rot0': 26, 'rot3': 0, 'rot2': 0, 'depth': 0.012, 'yaw': 49.57, 'datetime': '2018-12-18 21:03:17.153353', 'mgs': 0, 'flw2': 0.0, 'flw1': 0.47, 'flw0': 0.0, 'time': 24.5, 'compass': -4.02, 'pitch': 0.29, 'roll': -1.56}
{'lipoC2': 0.0, 'temp': 0.0, 'lipoC3S3': 11.85, 'state': 'normal', 'rot1': 27, 'rot0': 26, 'rot3': 0, 'rot2': 0, 'depth': -0.064, 'yaw': 49.59, 'datetime': '2018-12-18 21:03:17.364113', 'mgs': 0, 'flw2': 0.0, 'flw1': 0.47, 'flw0': 0.0, 'time': 24.7, 'compass': -3.99, 'pitch': -0.17, 'roll': -1.47}
{'lipoC2': 0.12, 'temp': 0.0, 'lipoC3S3': 11.61, 'state': 'normal', 'rot1': 27, 'rot0': 26, 'rot3': 0, 'rot2': 0, 'depth': -0.14, 'yaw': 49.7, 'datetime': '2018-12-18 21:03:17.574065', 'mgs': 0, 'flw2': 0.16, 'flw1': 0.12, 'flw0': 0.0, 'time': 24.91, 'compass': -3.89, 'pitch': -0.63, 'roll': -1.35}
{'lipoC2': 0.0, 'temp': 0.0, 'lipoC3S3': 11.88, 'state': 'normal', 'rot1': 27, 'rot0': 26, 'rot3': 0, 'rot2': 0, 'depth': -0.369, 'yaw': 49.82, 'datetime': '2018-12-18 21:03:17.782379', 'mgs': 0, 'flw2': 0.0, 'flw1': 0.0, 'flw0': 0.0, 'time': 25.12, 'compass': -3.77, 'pitch': -0.41, 'roll': -1.42}
{'lipoC2': 0.0, 'temp': 0.0, 'lipoC3S3': 11.83, 'state': 'normal', 'rot1': 27, 'rot0': 26, 'rot3': 0, 'rot2': 0, 'depth': -0.293, 'yaw': 49.94, 'datetime': '2018-12-18 21:03:17.993610', 'mgs': 0, 'flw2': 0.0, 'flw1': 0.56, 'flw0': 0.0, 'time': 25.33, 'compass': -3.65, 'pitch': 0.06, 'roll': -1.49}
{'lipoC2': 0.0, 'temp': 0.0, 'lipoC3S3': 11.76, 'state': 'normal', 'rot1': 27, 'rot0': 26, 'rot3': 0, 'rot2': 0, 'depth': 0.928, 'yaw': 50.04, 'datetime': '2018-12-18 21:03:18.201718', 'mgs': 0, 'flw2': 0.02, 'flw1': 0.56, 'flw0': 0.0, 'time': 25.54, 'compass': -3.54, 'pitch': 0.16, 'roll': -1.44}
{'lipoC2': 0.1, 'temp': 0.0, 'lipoC3S3': 11.88, 'state': 'normal', 'rot1': 27, 'rot0': 26, 'rot3': 0, 'rot2': 0, 'depth': -2.505, 'yaw': 50.16, 'datetime': '2018-12-18 21:03:18.408564', 'mgs': 0, 'flw2': 0.23, 'flw1': 0.0, 'flw0': 0.0, 'time': 25.75, 'compass': -3.43, 'pitch': -0.17, 'roll': -1.44}
{'lipoC2': 0.0, 'temp': 0.0, 'lipoC3S3': 12.04, 'state': 'normal', 'rot1': 27, 'rot0': 26, 'rot3': 0, 'rot2': 0, 'depth': 1.462, 'yaw': 50.31, 'datetime': '2018-12-18 21:03:18.616140', 'mgs': 0, 'flw2': 0.0, 'flw1': 0.23, 'flw0': 0.17, 'time': 25.95, 'compass': -3.28, 'pitch': -0.64, 'roll': -1.44}
{'lipoC2': 0.0, 'temp': 0.0, 'lipoC3S3': 11.75, 'state': 'normal', 'rot1': 27, 'rot0': 26, 'rot3': 0, 'rot2': 0, 'depth': -1.437, 'yaw': 50.45, 'datetime': '2018-12-18 21:03:18.826087', 'mgs': 0, 'flw2': 0.0, 'flw1': 0.0, 'flw0': 0.2, 'time': 26.16, 'compass': -3.13, 'pitch': -0.58, 'roll': -1.42}
{'lipoC2': 0.17, 'temp': 0.0, 'lipoC3S3': 11.75, 'state': 'normal', 'rot1': 27, 'rot0': 26, 'rot3': 0, 'rot2': 0, 'depth': -0.293, 'yaw': 51.56, 'datetime': '2018-12-18 21:03:19.037491', 'mgs': 0, 'flw2': 0.0, 'flw1': 0.53, 'flw0': 0.0, 'time': 26.37, 'compass': -2.03, 'pitch': 0.12, 'roll': -1.49}
{'lipoC2': 0.14, 'temp': 0.0, 'lipoC3S3': 11.65, 'state': 'normal', 'rot1': 27, 'rot0': 26, 'rot3': 0, 'rot2': 0, 'depth': -0.064, 'yaw': 52.17, 'datetime': '2018-12-18 21:03:19.247094', 'mgs': 0, 'flw2': 0.16, 'flw1': 0.18, 'flw0': 0.0, 'time': 26.58, 'compass': -1.42, 'pitch': 0.49, 'roll': -1.49}
{'lipoC2': 0.0, 'temp': 0.0, 'lipoC3S3': 11.81, 'state': 'normal', 'rot1': 27, 'rot0': 26, 'rot3': 0, 'rot2': 0, 'depth': 0.851, 'yaw': 52.39, 'datetime': '2018-12-18 21:03:19.454596', 'mgs': 0, 'flw2': 0.02, 'flw1': 0.0, 'flw0': 0.17, 'time': 26.79, 'compass': -1.2, 'pitch': -0.14, 'roll': -1.38}
{'lipoC2': 0.0, 'temp': 0.0, 'lipoC3S3': 12.06, 'state': 'normal', 'rot1': 27, 'rot0': 26, 'rot3': 0, 'rot2': 0, 'depth': 1.309, 'yaw': 52.65, 'datetime': '2018-12-18 21:03:19.663296', 'mgs': 0, 'flw2': 0.04, 'flw1': 0.47, 'flw0': 0.0, 'time': 27.0, 'compass': -0.94, 'pitch': -0.88, 'roll': -1.27}
{'lipoC2': 0.0, 'temp': 0.0, 'lipoC3S3': 11.72, 'state': 'normal', 'rot1': 27, 'rot0': 26, 'rot3': 0, 'rot2': 0, 'depth': -1.59, 'yaw': 52.8, 'datetime': '2018-12-18 21:03:19.872877', 'mgs': 0, 'flw2': 0.01, 'flw1': 0.0, 'flw0': 0.18, 'time': 27.21, 'compass': -0.79, 'pitch': -0.57, 'roll': -1.22}
{'lipoC2': 0.06, 'temp': 0.0, 'lipoC3S3': 11.9, 'state': 'normal', 'rot1': 27, 'rot0': 26, 'rot3': 0, 'rot2': 0, 'depth': -2.353, 'yaw': 52.95, 'datetime': '2018-12-18 21:03:20.081990', 'mgs': 0, 'flw2': 0.0, 'flw1': 0.44, 'flw0': 0.02, 'time': 27.42, 'compass': -0.64, 'pitch': 0.16, 'roll': -1.36}
{'lipoC2': 0.15, 'temp': 0.0, 'lipoC3S3': 11.87, 'state': 'normal', 'rot1': 27, 'rot0': 26, 'rot3': 0, 'rot2': 0, 'depth': -1.819, 'yaw': 53.45, 'datetime': '2018-12-18 21:03:20.291544', 'mgs': 0, 'flw2': 0.22, 'flw1': 0.0, 'flw0': 0.0, 'time': 27.63, 'compass': -0.14, 'pitch': 0.07, 'roll': -1.54}
{'lipoC2': 0.08, 'temp': 0.0, 'lipoC3S3': 11.89, 'state': 'normal', 'rot1': 27, 'rot0': 26, 'rot3': 0, 'rot2': 0, 'depth': -2.429, 'yaw': 53.9, 'datetime': '2018-12-18 21:03:20.500744', 'mgs': 0, 'flw2': 0.13, 'flw1': 0.0, 'flw0': 0.0, 'time': 27.83, 'compass': 0.32, 'pitch': -0.57, 'roll': -1.54}
{'lipoC2': 0.0, 'temp': 0.0, 'lipoC3S3': 11.77, 'state': 'normal', 'rot1': 27, 'rot0': 26, 'rot3': 0, 'rot2': 0, 'depth': 0.928, 'yaw': 54.13, 'datetime': '2018-12-18 21:03:20.709005', 'mgs': 0, 'flw2': 0.0, 'flw1': 0.53, 'flw0': 0.0, 'time': 28.04, 'compass': 0.54, 'pitch': -0.62, 'roll': -1.47}
{'lipoC2': 0.12, 'temp': 0.0, 'lipoC3S3': 11.87, 'state': 'normal', 'rot1': 27, 'rot0': 26, 'rot3': 0, 'rot2': 0, 'depth': 1.385, 'yaw': 54.63, 'datetime': '2018-12-18 21:03:20.917732', 'mgs': 0, 'flw2': 0.22, 'flw1': 0.0, 'flw0': 0.0, 'time': 28.25, 'compass': 1.04, 'pitch': -0.1, 'roll': -1.47}
{'lipoC2': 0.02, 'temp': 0.0, 'lipoC3S3': 11.67, 'state': 'normal', 'rot1': 27, 'rot0': 26, 'rot3': 0, 'rot2': 0, 'depth': 1.157, 'yaw': 54.84, 'datetime': '2018-12-18 21:03:21.127080', 'mgs': 0, 'flw2': 0.15, 'flw1': 0.15, 'flw0': 0.0, 'time': 28.46, 'compass': 1.25, 'pitch': 0.18, 'roll': -1.39}
{'lipoC2': 0.17, 'temp': 0.0, 'lipoC3S3': 11.81, 'state': 'normal', 'rot1': 27, 'rot0': 26, 'rot3': 0, 'rot2': 0, 'depth': -1.59, 'yaw': 55.01, 'datetime': '2018-12-18 21:03:21.335645', 'mgs': 0, 'flw2': 0.0, 'flw1': 0.5, 'flw0': 0.0, 'time': 28.67, 'compass': 1.43, 'pitch': 0.05, 'roll': -1.26}
{'lipoC2': 0.0, 'temp': 0.0, 'lipoC3S3': 11.87, 'state': 'normal', 'rot1': 27, 'rot0': 26, 'rot3': 0, 'rot2': 0, 'depth': 0.012, 'yaw': 55.19, 'datetime': '2018-12-18 21:03:21.543901', 'mgs': 0, 'flw2': 0.22, 'flw1': 0.0, 'flw0': 0.0, 'time': 28.88, 'compass': 1.61, 'pitch': -0.45, 'roll': -1.25}
{'lipoC2': 0.13, 'temp': 0.0, 'lipoC3S3': 11.65, 'state': 'normal', 'rot1': 27, 'rot0': 26, 'rot3': 0, 'rot2': 0, 'depth': -0.064, 'yaw': 55.39, 'datetime': '2018-12-18 21:03:21.753358', 'mgs': 0, 'flw2': 0.0, 'flw1': 0.29, 'flw0': 0.0, 'time': 29.08, 'compass': 1.8, 'pitch': -0.59, 'roll': -1.24}
{'lipoC2': 0.0, 'temp': 0.0, 'lipoC3S3': 12.04, 'state': 'normal', 'rot1': 27, 'rot0': 26, 'rot3': 0, 'rot2': 0, 'depth': 1.538, 'yaw': 55.58, 'datetime': '2018-12-18 21:03:21.963438', 'mgs': 0, 'flw2': 0.0, 'flw1': 0.18, 'flw0': 0.17, 'time': 29.29, 'compass': 2.0, 'pitch': -0.15, 'roll': -1.28}
{'lipoC2': 0.05, 'temp': 0.0, 'lipoC3S3': 12.0, 'state': 'normal', 'rot1': 27, 'rot0': 26, 'rot3': 0, 'rot2': 0, 'depth': -0.217, 'yaw': 55.77, 'datetime': '2018-12-18 21:03:22.172034', 'mgs': 0, 'flw2': 0.2, 'flw1': 0.0, 'flw0': 0.0, 'time': 29.5, 'compass': 2.18, 'pitch': 0.1, 'roll': -1.45}
{'lipoC2': 0.0, 'temp': 0.0, 'lipoC3S3': 11.85, 'state': 'normal', 'rot1': 27, 'rot0': 26, 'rot3': 0, 'rot2': 0, 'depth': 0.165, 'yaw': 55.94, 'datetime': '2018-12-18 21:03:22.378919', 'mgs': 0, 'flw2': 0.0, 'flw1': 0.5, 'flw0': 0.0, 'time': 29.71, 'compass': 2.36, 'pitch': -0.04, 'roll': -1.4}
{'lipoC2': 0.0, 'temp': 0.0, 'lipoC3S3': 11.85, 'state': 'normal', 'rot1': 27, 'rot0': 26, 'rot3': 0, 'rot2': 0, 'depth': 0.241, 'yaw': 56.12, 'datetime': '2018-12-18 21:03:22.588471', 'mgs': 0, 'flw2': 0.0, 'flw1': 0.5, 'flw0': 0.0, 'time': 29.92, 'compass': 2.54, 'pitch': -0.29, 'roll': -1.3}
{'lipoC2': 0.18, 'temp': 0.0, 'lipoC3S3': 11.77, 'state': 'normal', 'rot1': 27, 'rot0': 26, 'rot3': 0, 'rot2': 0, 'depth': -1.132, 'yaw': 56.3, 'datetime': '2018-12-18 21:03:22.797425', 'mgs': 0, 'flw2': 0.0, 'flw1': 0.0, 'flw0': 0.17, 'time': 30.13, 'compass': 2.72, 'pitch': -0.33, 'roll': -1.24}
{'lipoC2': 0.0, 'temp': 0.0, 'lipoC3S3': 12.04, 'state': 'normal', 'rot1': 27, 'rot0': 26, 'rot3': 0, 'rot2': 0, 'depth': 1.385, 'yaw': 56.51, 'datetime': '2018-12-18 21:03:23.007216', 'mgs': 0, 'flw2': 0.16, 'flw1': 0.0, 'flw0': 0.0, 'time': 30.34, 'compass': 2.92, 'pitch': -0.28, 'roll': -1.17}
{'lipoC2': 0.0, 'temp': 0.0, 'lipoC3S3': 11.68, 'state': 'normal', 'rot1': 27, 'rot0': 26, 'rot3': 0, 'rot2': 0, 'depth': -1.132, 'yaw': 56.68, 'datetime': '2018-12-18 21:03:23.215564', 'mgs': 0, 'flw2': 0.0, 'flw1': 0.0, 'flw0': 0.23, 'time': 30.54, 'compass': 3.09, 'pitch': -0.37, 'roll': -1.09}
{'lipoC2': 0.15, 'temp': 0.0, 'lipoC3S3': 11.84, 'state': 'normal', 'rot1': 27, 'rot0': 26, 'rot3': 0, 'rot2': 0, 'depth': -1.819, 'yaw': 56.88, 'datetime': '2018-12-18 21:03:23.424675', 'mgs': 0, 'flw2': 0.0, 'flw1': 0.53, 'flw0': 0.0, 'time': 30.75, 'compass': 3.29, 'pitch': -0.49, 'roll': -1.11}
{'lipoC2': 0.0, 'temp': 0.0, 'lipoC3S3': 12.08, 'state': 'normal', 'rot1': 27, 'rot0': 26, 'rot3': 0, 'rot2': 0, 'depth': -0.827, 'yaw': 57.05, 'datetime': '2018-12-18 21:03:23.633280', 'mgs': 0, 'flw2': 0.07, 'flw1': 0.47, 'flw0': 0.0, 'time': 30.96, 'compass': 3.46, 'pitch': -0.27, 'roll': -1.29}
{'lipoC2': 0.0, 'temp': 0.0, 'lipoC3S3': 12.08, 'state': 'normal', 'rot1': 27, 'rot0': 26, 'rot3': 0, 'rot2': 0, 'depth': 1.538, 'yaw': 57.25, 'datetime': '2018-12-18 21:03:23.842455', 'mgs': 0, 'flw2': 0.11, 'flw1': 0.35, 'flw0': 0.0, 'time': 31.17, 'compass': 3.66, 'pitch': -0.23, 'roll': -1.36}
{'lipoC2': 0.02, 'temp': 0.0, 'lipoC3S3': 11.94, 'state': 'normal', 'rot1': 27, 'rot0': 26, 'rot3': 0, 'rot2': 0, 'depth': -1.819, 'yaw': 57.44, 'datetime': '2018-12-18 21:03:24.051476', 'mgs': 0, 'flw2': 0.0, 'flw1': 0.35, 'flw0': 0.06, 'time': 31.38, 'compass': 3.85, 'pitch': -0.51, 'roll': -1.35}
{'lipoC2': 0.12, 'temp': 0.0, 'lipoC3S3': 11.87, 'state': 'normal', 'rot1': 27, 'rot0': 26, 'rot3': 0, 'rot2': 0, 'depth': 1.462, 'yaw': 57.62, 'datetime': '2018-12-18 21:03:24.260204', 'mgs': 0, 'flw2': 0.13, 'flw1': 0.0, 'flw0': 0.07, 'time': 31.59, 'compass': 4.03, 'pitch': -0.58, 'roll': -1.43}
{'lipoC2': 0.13, 'temp': 0.0, 'lipoC3S3': 11.85, 'state': 'normal', 'rot1': 27, 'rot0': 26, 'rot3': 0, 'rot2': 0, 'depth': -2.048, 'yaw': 57.83, 'datetime': '2018-12-18 21:03:24.469540', 'mgs': 0, 'flw2': 0.0, 'flw1': 0.5, 'flw0': 0.0, 'time': 31.8, 'compass': 4.24, 'pitch': -0.33, 'roll': -1.34}
{'lipoC2': 0.0, 'temp': 0.0, 'lipoC3S3': 12.08, 'state': 'normal', 'rot1': 27, 'rot0': 26, 'rot3': 0, 'rot2': 0, 'depth': 1.691, 'yaw': 58.03, 'datetime': '2018-12-18 21:03:24.677901', 'mgs': 0, 'flw2': 0.05, 'flw1': 0.44, 'flw0': 0.0, 'time': 32.01, 'compass': 4.44, 'pitch': -0.13, 'roll': -1.25}
{'lipoC2': 0.06, 'temp': 0.0, 'lipoC3S3': 11.63, 'state': 'normal', 'rot1': 27, 'rot0': 26, 'rot3': 0, 'rot2': 0, 'depth': 0.775, 'yaw': 58.24, 'datetime': '2018-12-18 21:03:24.886706', 'mgs': 0, 'flw2': 0.16, 'flw1': 0.0, 'flw0': 0.0, 'time': 32.22, 'compass': 4.65, 'pitch': -0.25, 'roll': -1.2}
{'lipoC2': 0.09, 'temp': 0.0, 'lipoC3S3': 11.65, 'state': 'normal', 'rot1': 27, 'rot0': 26, 'rot3': 0, 'rot2': 0, 'depth': -0.14, 'yaw': 58.43, 'datetime': '2018-12-18 21:03:25.095346', 'mgs': 0, 'flw2': 0.63, 'flw1': 0.03, 'flw0': 0.1, 'time': 32.42, 'compass': 4.85, 'pitch': -0.56, 'roll': -1.15}
{'lipoC2': 0.0, 'temp': 0.0, 'lipoC3S3': 12.05, 'state': 'normal', 'rot1': 28, 'rot0': 27, 'rot3': 0, 'rot2': 0, 'depth': 1.233, 'yaw': 57.99, 'datetime': '2018-12-18 21:03:25.303644', 'mgs': 0, 'flw2': 0.34, 'flw1': 0.0, 'flw0': 0.5, 'time': 32.63, 'compass': 4.41, 'pitch': -0.42, 'roll': -1.4}
{'lipoC2': 0.11, 'temp': 0.0, 'lipoC3S3': 11.87, 'state': 'normal', 'rot1': 28, 'rot0': 27, 'rot3': 0, 'rot2': 0, 'depth': -2.277, 'yaw': 56.96, 'datetime': '2018-12-18 21:03:25.513283', 'mgs': 0, 'flw2': 0.0, 'flw1': 0.38, 'flw0': 0.0, 'time': 32.84, 'compass': 3.37, 'pitch': -0.0, 'roll': -1.71}
{'lipoC2': 0.0, 'temp': 0.0, 'lipoC3S3': 12.04, 'state': 'normal', 'rot1': 28, 'rot0': 27, 'rot3': 0, 'rot2': 0, 'depth': 1.462, 'yaw': 56.02, 'datetime': '2018-12-18 21:03:25.722807', 'mgs': 0, 'flw2': 0.0, 'flw1': 0.09, 'flw0': 0.2, 'time': 33.05, 'compass': 2.43, 'pitch': -0.0, 'roll': -1.72}
{'lipoC2': 0.15, 'temp': 0.0, 'lipoC3S3': 11.68, 'state': 'normal', 'rot1': 28, 'rot0': 27, 'rot3': 0, 'rot2': 0, 'depth': 0.012, 'yaw': 55.19, 'datetime': '2018-12-18 21:03:25.931444', 'mgs': 0, 'flw2': 0.1, 'flw1': 0.32, 'flw0': 0.0, 'time': 33.26, 'compass': 1.61, 'pitch': -0.29, 'roll': -1.56}
{'lipoC2': 0.0, 'temp': 0.0, 'lipoC3S3': 11.85, 'state': 'normal', 'rot1': 28, 'rot0': 27, 'rot3': 0, 'rot2': 0, 'depth': 0.241, 'yaw': 54.43, 'datetime': '2018-12-18 21:03:26.137234', 'mgs': 0, 'flw2': 0.0, 'flw1': 0.5, 'flw0': 0.0, 'time': 33.47, 'compass': 0.84, 'pitch': -0.28, 'roll': -1.38}
{'lipoC2': 0.0, 'temp': 0.0, 'lipoC3S3': 11.85, 'state': 'normal', 'rot1': 28, 'rot0': 27, 'rot3': 0, 'rot2': 0, 'depth': 0.317, 'yaw': 53.75, 'datetime': '2018-12-18 21:03:26.346311', 'mgs': 0, 'flw2': 0.0, 'flw1': 0.44, 'flw0': 0.0, 'time': 33.67, 'compass': 0.16, 'pitch': 0.01, 'roll': -1.28}
