{'lipoC2': 0.11, 'temp': 0.0, 'lipoC3S3': 12.5, 'state': 'normal', 'rot1': 0, 'rot0': 0, 'rot3': 0, 'rot2': 0, 'depth': -2.124, 'yaw': -0.05, 'datetime': '2018-12-18 17:13:19.282555', 'mgs': 0, 'flw2': 0.18, 'flw1': 0.0, 'flw0': 0.0, 'time': 1.26, 'compass': -96.3, 'pitch': 0.08, 'roll': 1.95}
{'lipoC2': 0.0, 'temp': 0.0, 'lipoC3S3': 12.54, 'state': 'normal', 'rot1': 0, 'rot0': 0, 'rot3': 0, 'rot2': 0, 'depth': -0.369, 'yaw': -1.21, 'datetime': '2018-12-18 17:13:19.489793', 'mgs': 0, 'flw2': 0.18, 'flw1': 0.03, 'flw0': 0.0, 'time': 1.47, 'compass': -97.46, 'pitch': 0.14, 'roll': 1.95}
{'lipoC2': 0.0, 'temp': 0.0, 'lipoC3S3': 12.5, 'state': 'normal', 'rot1': 0, 'rot0': 0, 'rot3': 0, 'rot2': 0, 'depth': 0.317, 'yaw': -2.42, 'datetime': '2018-12-18 17:13:19.697600', 'mgs': 0, 'flw2': 0.0, 'flw1': 0.41, 'flw0': 0.02, 'time': 1.67, 'compass': -98.67, 'pitch': 0.14, 'roll': 1.96}
{'lipoC2': 0.0, 'temp': 0.0, 'lipoC3S3': 12.5, 'state': 'normal', 'rot1': 0, 'rot0': 0, 'rot3': 0, 'rot2': 0, 'depth': 0.47, 'yaw': -3.6, 'datetime': '2018-12-18 17:13:19.902969', 'mgs': 0, 'flw2': 0.0, 'flw1': 0.26, 'flw0': 0.1, 'time': 1.88, 'compass': -99.85, 'pitch': -0.06, 'roll': 1.98}
{'lipoC2': 0.0, 'temp': 0.0, 'lipoC3S3': 12.56, 'state': 'normal', 'rot1': 0, 'rot0': 0, 'rot3': 0, 'rot2': 0, 'depth': 0.699, 'yaw': -4.69, 'datetime': '2018-12-18 17:13:20.107105', 'mgs': 0, 'flw2': 1.06, 'flw1': 0.0, 'flw0': 0.56, 'time': 2.09, 'compass': -100.94, 'pitch': -0.36, 'roll': 1.98}
{'lipoC2': 0.0, 'temp': 0.0, 'lipoC3S3': 12.5, 'state': 'normal', 'rot1': 2, 'rot0': 2, 'rot3': 0, 'rot2': 0, 'depth': 0.241, 'yaw': -4.84, 'datetime': '2018-12-18 17:13:20.313908', 'mgs': 0, 'flw2': 0.7, 'flw1': 0.47, 'flw0': 0.88, 'time': 2.3, 'compass': -101.09, 'pitch': -0.4, 'roll': 2.1}
{'lipoC2': 0.0, 'temp': 0.0, 'lipoC3S3': 12.3, 'state': 'normal', 'rot1': 4, 'rot0': 3, 'rot3': 0, 'rot2': 0, 'depth': -1.59, 'yaw': -3.03, 'datetime': '2018-12-18 17:13:20.522172', 'mgs': 0, 'flw2': 0.94, 'flw1': 0.0, 'flw0': 1.05, 'time': 2.5, 'compass': -99.28, 'pitch': 0.05, 'roll': 2.57}
{'lipoC2': 0.15, 'temp': 0.0, 'lipoC3S3': 12.47, 'state': 'normal', 'rot1': 5, 'rot0': 5, 'rot3': 0, 'rot2': 0, 'depth': -1.895, 'yaw': 0.35, 'datetime': '2018-12-18 17:13:20.731641', 'mgs': 0, 'flw2': 1.06, 'flw1': 0.0, 'flw0': 0.96, 'time': 2.71, 'compass': -95.9, 'pitch': 0.52, 'roll': 2.94}
{'lipoC2': 0.12, 'temp': 0.0, 'lipoC3S3': 12.62, 'state': 'normal', 'rot1': 7, 'rot0': 6, 'rot3': 0, 'rot2': 0, 'depth': -1.895, 'yaw': 4.67, 'datetime': '2018-12-18 17:13:20.949727', 'mgs': 0, 'flw2': 0.87, 'flw1': 0.0, 'flw0': 0.93, 'time': 2.92, 'compass': -91.58, 'pitch': 0.54, 'roll': 2.91}
{'lipoC2': 0.1, 'temp': 0.0, 'lipoC3S3': 12.51, 'state': 'normal', 'rot1': 9, 'rot0': 8, 'rot3': 0, 'rot2': 0, 'depth': -2.277, 'yaw': 9.97, 'datetime': '2018-12-18 17:13:21.158065', 'mgs': 0, 'flw2': 0.85, 'flw1': 0.0, 'flw0': 0.56, 'time': 3.13, 'compass': -86.28, 'pitch': 0.01, 'roll': 2.79}
{'lipoC2': 0.0, 'temp': 0.0, 'lipoC3S3': 12.35, 'state': 'normal', 'rot1': 10, 'rot0': 11, 'rot3': 0, 'rot2': 0, 'depth': -1.285, 'yaw': 15.64, 'datetime': '2018-12-18 17:13:21.366730', 'mgs': 0, 'flw2': 0.68, 'flw1': 0.47, 'flw0': 0.48, 'time': 3.34, 'compass': -80.61, 'pitch': -0.5, 'roll': 2.82}
{'lipoC2': 0.0, 'temp': 0.0, 'lipoC3S3': 12.52, 'state': 'normal', 'rot1': 12, 'rot0': 21, 'rot3': 0, 'rot2': 0, 'depth': -0.369, 'yaw': 21.2, 'datetime': '2018-12-18 17:13:21.572669', 'mgs': 0, 'flw2': 0.21, 'flw1': 0.35, 'flw0': 0.56, 'time': 3.55, 'compass': -75.05, 'pitch': -0.36, 'roll': 2.86}
{'lipoC2': 0.0, 'temp': 0.0, 'lipoC3S3': 12.48, 'state': 'normal', 'rot1': 13, 'rot0': 32, 'rot3': 0, 'rot2': 0, 'depth': 0.851, 'yaw': 27.09, 'datetime': '2018-12-18 17:13:21.780335', 'mgs': 0, 'flw2': 0.02, 'flw1': 0.29, 'flw0': 0.52, 'time': 3.75, 'compass': -69.16, 'pitch': 0.23, 'roll': 2.86}
{'lipoC2': 0.08, 'temp': 0.0, 'lipoC3S3': 12.54, 'state': 'normal', 'rot1': 15, 'rot0': 43, 'rot3': 0, 'rot2': 0, 'depth': -2.2, 'yaw': 32.94, 'datetime': '2018-12-18 17:13:21.992705', 'mgs': 0, 'flw2': 0.0, 'flw1': 0.26, 'flw0': 0.48, 'time': 3.96, 'compass': -63.31, 'pitch': 0.37, 'roll': 2.83}
{'lipoC2': 0.0, 'temp': 0.0, 'lipoC3S3': 12.64, 'state': 'normal', 'rot1': 16, 'rot0': 54, 'rot3': 0, 'rot2': 0, 'depth': 1.233, 'yaw': 38.59, 'datetime': '2018-12-18 17:13:22.202703', 'mgs': 0, 'flw2': 0.35, 'flw1': 0.0, 'flw0': 0.6, 'time': 4.17, 'compass': -57.66, 'pitch': -0.09, 'roll': 2.82}
{'lipoC2': 0.06, 'temp': 0.0, 'lipoC3S3': 12.23, 'state': 'normal', 'rot1': 17, 'rot0': 54, 'rot3': 0, 'rot2': 0, 'depth': -0.064, 'yaw': 43.83, 'datetime': '2018-12-18 17:13:22.415247', 'mgs': 0, 'flw2': 0.38, 'flw1': 0.0, 'flw0': 0.59, 'time': 4.38, 'compass': -52.42, 'pitch': -0.15, 'roll': 2.83}
{'lipoC2': 0.12, 'temp': 0.0, 'lipoC3S3': 12.25, 'state': 'normal', 'rot1': 19, 'rot0': 61, 'rot3': 0, 'rot2': 0, 'depth': 0.241, 'yaw': 49.25, 'datetime': '2018-12-18 17:13:22.618428', 'mgs': 0, 'flw2': 0.52, 'flw1': 0.09, 'flw0': 0.01, 'time': 4.59, 'compass': -47.0, 'pitch': 0.24, 'roll': 2.83}
{'lipoC2': 0.06, 'temp': 0.0, 'lipoC3S3': 12.23, 'state': 'normal', 'rot1': 20, 'rot0': 68, 'rot3': 0, 'rot2': 0, 'depth': 1.08, 'yaw': 54.63, 'datetime': '2018-12-18 17:13:22.826651', 'mgs': 0, 'flw2': 0.52, 'flw1': 0.09, 'flw0': 0.01, 'time': 4.8, 'compass': -41.62, 'pitch': 0.41, 'roll': 2.93}
{'lipoC2': 0.0, 'temp': 0.0, 'lipoC3S3': 12.66, 'state': 'normal', 'rot1': 21, 'rot0': 70, 'rot3': 0, 'rot2': 0, 'depth': 1.385, 'yaw': 59.73, 'datetime': '2018-12-18 17:13:23.037515', 'mgs': 0, 'flw2': 0.33, 'flw1': 0.0, 'flw0': 0.61, 'time': 5.01, 'compass': -36.52, 'pitch': 0.1, 'roll': 3.14}
{'lipoC2': 0.06, 'temp': 0.0, 'lipoC3S3': 12.55, 'state': 'normal', 'rot1': 22, 'rot0': 71, 'rot3': 0, 'rot2': 0, 'depth': -2.429, 'yaw': 65.03, 'datetime': '2018-12-18 17:13:23.247172', 'mgs': 0, 'flw2': 0.0, 'flw1': 0.26, 'flw0': 0.54, 'time': 5.22, 'compass': -31.22, 'pitch': -0.04, 'roll': 3.28}
{'lipoC2': 0.0, 'temp': 0.0, 'lipoC3S3': 12.67, 'state': 'normal', 'rot1': 24, 'rot0': 72, 'rot3': 0, 'rot2': 0, 'depth': 1.462, 'yaw': 70.36, 'datetime': '2018-12-18 17:13:23.455653', 'mgs': 0, 'flw2': 0.45, 'flw1': 0.38, 'flw0': 0.21, 'time': 5.43, 'compass': -25.89, 'pitch': 0.41, 'roll': 3.22}
{'lipoC2': 0.08, 'temp': 0.0, 'lipoC3S3': 12.54, 'state': 'normal', 'rot1': 25, 'rot0': 73, 'rot3': 0, 'rot2': 0, 'depth': -2.277, 'yaw': 75.81, 'datetime': '2018-12-18 17:13:23.663845', 'mgs': 0, 'flw2': 0.56, 'flw1': 0.0, 'flw0': 0.15, 'time': 5.63, 'compass': -20.45, 'pitch': 0.9, 'roll': 3.02}
{'lipoC2': 0.17, 'temp': 0.0, 'lipoC3S3': 12.3, 'state': 'normal', 'rot1': 27, 'rot0': 74, 'rot3': 0, 'rot2': 0, 'depth': 0.623, 'yaw': 81.38, 'datetime': '2018-12-18 17:13:23.874021', 'mgs': 0, 'flw2': 0.39, 'flw1': 0.41, 'flw0': 0.27, 'time': 5.84, 'compass': -14.87, 'pitch': 0.86, 'roll': 2.96}
{'lipoC2': 0.0, 'temp': 0.0, 'lipoC3S3': 12.62, 'state': 'normal', 'rot1': 28, 'rot0': 75, 'rot3': 0, 'rot2': 0, 'depth': 1.004, 'yaw': 86.73, 'datetime': '2018-12-18 17:13:24.084802', 'mgs': 0, 'flw2': 0.56, 'flw1': 0.03, 'flw0': 0.01, 'time': 6.05, 'compass': -9.52, 'pitch': 0.6, 'roll': 3.08}
{'lipoC2': 0.0, 'temp': 0.0, 'lipoC3S3': 12.37, 'state': 'normal', 'rot1': 29, 'rot0': 76, 'rot3': 0, 'rot2': 0, 'depth': -1.056, 'yaw': 92.41, 'datetime': '2018-12-18 17:13:24.292310', 'mgs': 0, 'flw2': 0.09, 'flw1': 0.0, 'flw0': 0.15, 'time': 6.26, 'compass': -3.84, 'pitch': 0.52, 'roll': 3.21}
{'lipoC2': 0.14, 'temp': 0.0, 'lipoC3S3': 12.48, 'state': 'normal', 'rot1': 29, 'rot0': 76, 'rot3': 0, 'rot2': 0, 'depth': -1.971, 'yaw': 97.5, 'datetime': '2018-12-18 17:13:24.502087', 'mgs': 0, 'flw2': 0.21, 'flw1': 0.0, 'flw0': 0.0, 'time': 6.47, 'compass': 1.25, 'pitch': 0.56, 'roll': 3.13}
{'lipoC2': 0.0, 'temp': 0.0, 'lipoC3S3': 12.5, 'state': 'normal', 'rot1': 29, 'rot0': 76, 'rot3': 0, 'rot2': 0, 'depth': 0.165, 'yaw': 102.07, 'datetime': '2018-12-18 17:13:24.711865', 'mgs': 0, 'flw2': 0.21, 'flw1': 0.0, 'flw0': 0.0, 'time': 6.68, 'compass': 5.82, 'pitch': 0.65, 'roll': 2.94}
{'lipoC2': 0.0, 'temp': 0.0, 'lipoC3S3': 12.5, 'state': 'normal', 'rot1': 29, 'rot0': 76, 'rot3': 0, 'rot2': 0, 'depth': 0.394, 'yaw': 106.04, 'datetime': '2018-12-18 17:13:24.921818', 'mgs': 0, 'flw2': 0.26, 'flw1': 0.41, 'flw0': 0.5, 'time': 6.89, 'compass': 9.79, 'pitch': 0.68, 'roll': 2.74}
{'lipoC2': 0.15, 'temp': 0.0, 'lipoC3S3': 12.41, 'state': 'normal', 'rot1': 30, 'rot0': 77, 'rot3': 0, 'rot2': 0, 'depth': -0.674, 'yaw': 109.24, 'datetime': '2018-12-18 17:13:25.131872', 'mgs': 0, 'flw2': 0.42, 'flw1': 0.0, 'flw0': 0.5, 'time': 7.1, 'compass': 12.99, 'pitch': 0.78, 'roll': 2.5}
{'lipoC2': 0.16, 'temp': 0.0, 'lipoC3S3': 12.38, 'state': 'normal', 'rot1': 31, 'rot0': 78, 'rot3': 0, 'rot2': 0, 'depth': -0.598, 'yaw': 111.49, 'datetime': '2018-12-18 17:13:25.341439', 'mgs': 0, 'flw2': 0.39, 'flw1': 0.38, 'flw0': 0.28, 'time': 7.3, 'compass': 15.24, 'pitch': 0.88, 'roll': 2.43}
{'lipoC2': 0.0, 'temp': 0.0, 'lipoC3S3': 12.5, 'state': 'normal', 'rot1': 33, 'rot0': 79, 'rot3': 0, 'rot2': 0, 'depth': 0.317, 'yaw': 112.97, 'datetime': '2018-12-18 17:13:25.549426', 'mgs': 0, 'flw2': 0.17, 'flw1': 0.44, 'flw0': 0.39, 'time': 7.51, 'compass': 16.72, 'pitch': 0.86, 'roll': 2.59}
{'lipoC2': 0.0, 'temp': 0.0, 'lipoC3S3': 12.63, 'state': 'normal', 'rot1': 35, 'rot0': 81, 'rot3': 0, 'rot2': 0, 'depth': 1.309, 'yaw': 113.91, 'datetime': '2018-12-18 17:13:25.851475', 'mgs': 0, 'flw2': 0.0, 'flw1': 0.32, 'flw0': 0.54, 'time': 7.82, 'compass': 17.66, 'pitch': 0.92, 'roll': 3.06}
{'lipoC2': 0.0, 'temp': 0.0, 'lipoC3S3': 12.62, 'state': 'normal', 'rot1': 36, 'rot0': 82, 'rot3': 0, 'rot2': 0, 'depth': 1.157, 'yaw': 113.72, 'datetime': '2018-12-18 17:13:26.061910', 'mgs': 0, 'flw2': 0.57, 'flw1': 0.12, 'flw0': 0.55, 'time': 8.03, 'compass': 17.47, 'pitch': 0.94, 'roll': 3.1}
{'lipoC2': 0.0, 'temp': 0.0, 'lipoC3S3': 12.66, 'state': 'normal', 'rot1': 38, 'rot0': 83, 'rot3': 0, 'rot2': 0, 'depth': 1.309, 'yaw': 112.95, 'datetime': '2018-12-18 17:13:26.271733', 'mgs': 0, 'flw2': 0.46, 'flw1': 0.26, 'flw0': 0.0, 'time': 8.24, 'compass': 16.7, 'pitch': 0.82, 'roll': 2.98}
{'lipoC2': 0.0, 'temp': 0.0, 'lipoC3S3': 12.5, 'state': 'normal', 'rot1': 39, 'rot0': 85, 'rot3': 0, 'rot2': 0, 'depth': 0.623, 'yaw': 111.61, 'datetime': '2018-12-18 17:13:26.490025', 'mgs': 0, 'flw2': 0.02, 'flw1': 0.35, 'flw0': 0.43, 'time': 8.45, 'compass': 15.36, 'pitch': 0.56, 'roll': 2.89}
{'lipoC2': 0.0, 'temp': 0.0, 'lipoC3S3': 12.52, 'state': 'normal', 'rot1': 40, 'rot0': 86, 'rot3': 0, 'rot2': 0, 'depth': -0.064, 'yaw': 109.76, 'datetime': '2018-12-18 17:13:26.699410', 'mgs': 0, 'flw2': 0.0, 'flw1': 0.29, 'flw0': 0.45, 'time': 8.66, 'compass': 13.51, 'pitch': 0.39, 'roll': 2.91}
{'lipoC2': 0.0, 'temp': 0.0, 'lipoC3S3': 12.33, 'state': 'normal', 'rot1': 42, 'rot0': 87, 'rot3': 0, 'rot2': 0, 'depth': -1.361, 'yaw': 107.44, 'datetime': '2018-12-18 17:13:26.906782', 'mgs': 0, 'flw2': 0.42, 'flw1': 0.35, 'flw0': 0.22, 'time': 8.87, 'compass': 11.19, 'pitch': 0.26, 'roll': 2.92}
{'lipoC2': 0.0, 'temp': 0.0, 'lipoC3S3': 12.48, 'state': 'normal', 'rot1': 43, 'rot0': 88, 'rot3': 0, 'rot2': 0, 'depth': 0.623, 'yaw': 104.85, 'datetime': '2018-12-18 17:13:27.116934', 'mgs': 0, 'flw2': 0.02, 'flw1': 0.32, 'flw0': 0.45, 'time': 9.08, 'compass': 8.6, 'pitch': 0.14, 'roll': 2.93}
{'lipoC2': 0.0, 'temp': 0.0, 'lipoC3S3': 12.5, 'state': 'normal', 'rot1': 44, 'rot0': 89, 'rot3': 0, 'rot2': 0, 'depth': 0.317, 'yaw': 101.79, 'datetime': '2018-12-18 17:13:27.322438', 'mgs': 0, 'flw2': 0.0, 'flw1': 0.26, 'flw0': 0.51, 'time': 9.28, 'compass': 5.54, 'pitch': -0.02, 'roll': 2.93}
{'lipoC2': 0.04, 'temp': 0.0, 'lipoC3S3': 12.29, 'state': 'normal', 'rot1': 45, 'rot0': 90, 'rot3': 0, 'rot2': 0, 'depth': -0.14, 'yaw': 98.45, 'datetime': '2018-12-18 17:13:27.526182', 'mgs': 0, 'flw2': 0.21, 'flw1': 0.0, 'flw0': 0.2, 'time': 9.49, 'compass': 2.2, 'pitch': -0.19, 'roll': 2.93}
{'lipoC2': 0.03, 'temp': 0.0, 'lipoC3S3': 12.58, 'state': 'normal', 'rot1': 45, 'rot0': 90, 'rot3': 0, 'rot2': 0, 'depth': -1.895, 'yaw': 95.46, 'datetime': '2018-12-18 17:13:27.736952', 'mgs': 0, 'flw2': 0.0, 'flw1': 0.15, 'flw0': 0.2, 'time': 9.7, 'compass': -0.79, 'pitch': -0.35, 'roll': 3.11}
{'lipoC2': 0.0, 'temp': 0.0, 'lipoC3S3': 12.64, 'state': 'normal', 'rot1': 45, 'rot0': 90, 'rot3': 0, 'rot2': 0, 'depth': 1.385, 'yaw': 93.0, 'datetime': '2018-12-18 17:13:27.947618', 'mgs': 0, 'flw2': 0.0, 'flw1': 0.18, 'flw0': 0.2, 'time': 9.91, 'compass': -3.25, 'pitch': -0.48, 'roll': 3.25}
{'lipoC2': 0.14, 'temp': 0.0, 'lipoC3S3': 12.19, 'state': 'normal', 'rot1': 45, 'rot0': 90, 'rot3': 0, 'rot2': 0, 'depth': 0.241, 'yaw': 90.68, 'datetime': '2018-12-18 17:13:28.159443', 'mgs': 0, 'flw2': 0.0, 'flw1': 0.09, 'flw0': 0.24, 'time': 10.12, 'compass': -5.57, 'pitch': -0.62, 'roll': 3.28}
{'lipoC2': 0.09, 'temp': 0.0, 'lipoC3S3': 12.51, 'state': 'normal', 'rot1': 45, 'rot0': 90, 'rot3': 0, 'rot2': 0, 'depth': -2.582, 'yaw': 88.56, 'datetime': '2018-12-18 17:13:28.368181', 'mgs': 0, 'flw2': 0.22, 'flw1': 0.0, 'flw0': 0.0, 'time': 10.33, 'compass': -7.69, 'pitch': -0.89, 'roll': 3.26}
{'lipoC2': 0.0, 'temp': 0.0, 'lipoC3S3': 12.38, 'state': 'normal', 'rot1': 45, 'rot0': 90, 'rot3': 0, 'rot2': 0, 'depth': -0.751, 'yaw': 86.71, 'datetime': '2018-12-18 17:13:28.569364', 'mgs': 0, 'flw2': 0.49, 'flw1': 0.0, 'flw0': 0.63, 'time': 10.54, 'compass': -9.54, 'pitch': -1.08, 'roll': 3.19}
{'lipoC2': 0.0, 'temp': 0.0, 'lipoC3S3': 12.7, 'state': 'normal', 'rot1': 47, 'rot0': 91, 'rot3': 0, 'rot2': 0, 'depth': 1.691, 'yaw': 85.53, 'datetime': '2018-12-18 17:13:28.778899', 'mgs': 0, 'flw2': 0.5, 'flw1': 0.21, 'flw0': 0.05, 'time': 10.75, 'compass': -10.72, 'pitch': -0.87, 'roll': 3.16}
{'lipoC2': 0.16, 'temp': 0.0, 'lipoC3S3': 12.41, 'state': 'normal', 'rot1': 48, 'rot0': 92, 'rot3': 0, 'rot2': 0, 'depth': 0.928, 'yaw': 85.2, 'datetime': '2018-12-18 17:13:28.988566', 'mgs': 0, 'flw2': 0.52, 'flw1': 0.0, 'flw0': 0.43, 'time': 10.96, 'compass': -11.05, 'pitch': -0.36, 'roll': 3.15}
{'lipoC2': 0.04, 'temp': 0.0, 'lipoC3S3': 12.25, 'state': 'normal', 'rot1': 50, 'rot0': 93, 'rot3': 0, 'rot2': 0, 'depth': -0.064, 'yaw': 85.63, 'datetime': '2018-12-18 17:13:29.204098', 'mgs': 0, 'flw2': 0.51, 'flw1': 0.18, 'flw0': 0.0, 'time': 11.16, 'compass': -10.62, 'pitch': -0.34, 'roll': 3.18}
{'lipoC2': 0.0, 'temp': 0.0, 'lipoC3S3': 12.68, 'state': 'normal', 'rot1': 51, 'rot0': 95, 'rot3': 0, 'rot2': 0, 'depth': 1.691, 'yaw': 86.72, 'datetime': '2018-12-18 17:13:29.406563', 'mgs': 0, 'flw2': 0.5, 'flw1': 0.29, 'flw0': 0.12, 'time': 11.37, 'compass': -9.53, 'pitch': -0.93, 'roll': 3.33}
{'lipoC2': 0.0, 'temp': 0.0, 'lipoC3S3': 12.68, 'state': 'normal', 'rot1': 52, 'rot0': 96, 'rot3': 0, 'rot2': 0, 'depth': 1.614, 'yaw': 88.32, 'datetime': '2018-12-18 17:13:29.614445', 'mgs': 0, 'flw2': 0.46, 'flw1': 0.35, 'flw0': 0.0, 'time': 11.58, 'compass': -7.93, 'pitch': -1.29, 'roll': 3.47}
{'lipoC2': 0.0, 'temp': 0.0, 'lipoC3S3': 12.3, 'state': 'normal', 'rot1': 53, 'rot0': 96, 'rot3': 0, 'rot2': 0, 'depth': -1.437, 'yaw': 90.26, 'datetime': '2018-12-18 17:13:29.823694', 'mgs': 0, 'flw2': 0.01, 'flw1': 0.59, 'flw0': 0.0, 'time': 11.79, 'compass': -5.99, 'pitch': -0.97, 'roll': 3.47}
{'lipoC2': 0.0, 'temp': 0.0, 'lipoC3S3': 12.31, 'state': 'normal', 'rot1': 53, 'rot0': 96, 'rot3': 0, 'rot2': 0, 'depth': 1.08, 'yaw': 91.9, 'datetime': '2018-12-18 17:13:30.040712', 'mgs': 0, 'flw2': 0.0, 'flw1': 0.5, 'flw0': 0.0, 'time': 12.0, 'compass': -4.35, 'pitch': -0.64, 'roll': 3.29}
{'lipoC2': 0.0, 'temp': 0.0, 'lipoC3S3': 12.45, 'state': 'normal', 'rot1': 53, 'rot0': 96, 'rot3': 0, 'rot2': 0, 'depth': 0.928, 'yaw': 93.38, 'datetime': '2018-12-18 17:13:30.248413', 'mgs': 0, 'flw2': 0.15, 'flw1': 0.0, 'flw0': 0.11, 'time': 12.21, 'compass': -2.87, 'pitch': -0.9, 'roll': 3.28}
{'lipoC2': 0.0, 'temp': 0.0, 'lipoC3S3': 12.33, 'state': 'normal', 'rot1': 53, 'rot0': 96, 'rot3': 0, 'rot2': 0, 'depth': -1.132, 'yaw': 94.66, 'datetime': '2018-12-18 17:13:30.454957', 'mgs': 0, 'flw2': 0.0, 'flw1': 0.47, 'flw0': 0.0, 'time': 12.42, 'compass': -1.59, 'pitch': -1.31, 'roll': 3.31}
{'lipoC2': 0.16, 'temp': 0.0, 'lipoC3S3': 12.38, 'state': 'normal', 'rot1': 53, 'rot0': 96, 'rot3': 0, 'rot2': 0, 'depth': -0.293, 'yaw': 95.9, 'datetime': '2018-12-18 17:13:30.666430', 'mgs': 0, 'flw2': 0.13, 'flw1': 0.0, 'flw0': 0.1, 'time': 12.63, 'compass': -0.35, 'pitch': -1.35, 'roll': 3.33}
{'lipoC2': 0.13, 'temp': 0.0, 'lipoC3S3': 12.26, 'state': 'normal', 'rot1': 53, 'rot0': 96, 'rot3': 0, 'rot2': 0, 'depth': 0.165, 'yaw': 97.1, 'datetime': '2018-12-18 17:13:30.871446', 'mgs': 0, 'flw2': 0.04, 'flw1': 0.41, 'flw0': 0.0, 'time': 12.83, 'compass': 0.85, 'pitch': -1.14, 'roll': 3.36}
{'lipoC2': 0.0, 'temp': 0.0, 'lipoC3S3': 12.33, 'state': 'normal', 'rot1': 53, 'rot0': 96, 'rot3': 0, 'rot2': 0, 'depth': -1.437, 'yaw': 98.25, 'datetime': '2018-12-18 17:13:31.082175', 'mgs': 0, 'flw2': 0.0, 'flw1': 0.5, 'flw0': 0.0, 'time': 13.04, 'compass': 2.0, 'pitch': -1.05, 'roll': 3.38}
{'lipoC2': 0.02, 'temp': 0.0, 'lipoC3S3': 12.3, 'state': 'normal', 'rot1': 53, 'rot0': 96, 'rot3': 0, 'rot2': 0, 'depth': 1.385, 'yaw': 99.3, 'datetime': '2018-12-18 17:13:31.289875', 'mgs': 0, 'flw2': 0.17, 'flw1': 0.12, 'flw0': 0.0, 'time': 13.25, 'compass': 3.04, 'pitch': -1.16, 'roll': 3.4}
{'lipoC2': 0.0, 'temp': 0.0, 'lipoC3S3': 12.3, 'state': 'normal', 'rot1': 53, 'rot0': 96, 'rot3': 0, 'rot2': 0, 'depth': -1.895, 'yaw': 100.35, 'datetime': '2018-12-18 17:13:31.497522', 'mgs': 0, 'flw2': 0.0, 'flw1': 0.47, 'flw0': 0.0, 'time': 13.46, 'compass': 4.1, 'pitch': -1.32, 'roll': 3.42}
{'lipoC2': 0.17, 'temp': 0.0, 'lipoC3S3': 12.3, 'state': 'normal', 'rot1': 53, 'rot0': 96, 'rot3': 0, 'rot2': 0, 'depth': 0.394, 'yaw': 101.39, 'datetime': '2018-12-18 17:13:31.705682', 'mgs': 0, 'flw2': 0.0, 'flw1': 0.44, 'flw0': 0.0, 'time': 13.67, 'compass': 5.14, 'pitch': -1.23, 'roll': 3.44}
{'lipoC2': 0.0, 'temp': 0.0, 'lipoC3S3': 12.67, 'state': 'normal', 'rot1': 54, 'rot0': 97, 'rot3': 0, 'rot2': 0, 'depth': 1.538, 'yaw': 102.2, 'datetime': '2018-12-18 17:13:31.919252', 'mgs': 0, 'flw2': 0.51, 'flw1': 0.23, 'flw0': 0.1, 'time': 13.88, 'compass': 5.95, 'pitch': -1.0, 'roll': 3.46}
{'lipoC2': 0.0, 'temp': 0.0, 'lipoC3S3': 12.6, 'state': 'normal', 'rot1': 55, 'rot0': 98, 'rot3': 0, 'rot2': 0, 'depth': 1.08, 'yaw': 102.08, 'datetime': '2018-12-18 17:13:32.126691', 'mgs': 0, 'flw2': 0.0, 'flw1': 0.26, 'flw0': 0.51, 'time': 14.09, 'compass': 5.83, 'pitch': -1.05, 'roll': 3.4}
{'lipoC2': 0.0, 'temp': 0.0, 'lipoC3S3': 12.64, 'state': 'normal', 'rot1': 56, 'rot0': 99, 'rot3': 0, 'rot2': 0, 'depth': 1.462, 'yaw': 101.17, 'datetime': '2018-12-18 17:13:32.332896', 'mgs': 0, 'flw2': 0.29, 'flw1': 0.0, 'flw0': 0.57, 'time': 14.3, 'compass': 4.92, 'pitch': -1.39, 'roll': 3.27}
{'lipoC2': 0.13, 'temp': 0.0, 'lipoC3S3': 12.48, 'state': 'normal', 'rot1': 56, 'rot0': 100, 'rot3': 0, 'rot2': 0, 'depth': -2.2, 'yaw': 99.59, 'datetime': '2018-12-18 17:13:32.541851', 'mgs': 0, 'flw2': 0.13, 'flw1': 0.0, 'flw0': 0.09, 'time': 14.5, 'compass': 3.34, 'pitch': -1.56, 'roll': 3.16}
{'lipoC2': 0.13, 'temp': 0.0, 'lipoC3S3': 12.47, 'state': 'normal', 'rot1': 57, 'rot0': 100, 'rot3': 0, 'rot2': 0, 'depth': -1.895, 'yaw': 98.16, 'datetime': '2018-12-18 17:13:32.750077', 'mgs': 0, 'flw2': 0.23, 'flw1': 0.0, 'flw0': 0.0, 'time': 14.71, 'compass': 1.91, 'pitch': -1.45, 'roll': 3.31}
{'lipoC2': 0.15, 'temp': 0.0, 'lipoC3S3': 12.26, 'state': 'normal', 'rot1': 57, 'rot0': 100, 'rot3': 0, 'rot2': 0, 'depth': 0.165, 'yaw': 96.85, 'datetime': '2018-12-18 17:13:32.960433', 'mgs': 0, 'flw2': 0.0, 'flw1': 0.5, 'flw0': 0.0, 'time': 14.92, 'compass': 0.6, 'pitch': -1.45, 'roll': 3.69}
{'lipoC2': 0.0, 'temp': 0.0, 'lipoC3S3': 12.5, 'state': 'normal', 'rot1': 57, 'rot0': 100, 'rot3': 0, 'rot2': 0, 'depth': 0.241, 'yaw': 95.65, 'datetime': '2018-12-18 17:13:33.169083', 'mgs': 0, 'flw2': 0.21, 'flw1': 0.0, 'flw0': 0.0, 'time': 15.13, 'compass': -0.6, 'pitch': -1.76, 'roll': 3.96}
{'lipoC2': 0.16, 'temp': 0.0, 'lipoC3S3': 12.43, 'state': 'normal', 'rot1': 57, 'rot0': 100, 'rot3': 0, 'rot2': 0, 'depth': 1.08, 'yaw': 94.56, 'datetime': '2018-12-18 17:13:33.378781', 'mgs': 0, 'flw2': 0.0, 'flw1': 0.44, 'flw0': 0.0, 'time': 15.34, 'compass': -1.69, 'pitch': -2.23, 'roll': 3.95}
{'lipoC2': 0.12, 'temp': 0.0, 'lipoC3S3': 12.48, 'state': 'normal', 'rot1': 57, 'rot0': 100, 'rot3': 0, 'rot2': 0, 'depth': -2.353, 'yaw': 93.54, 'datetime': '2018-12-18 17:13:33.587829', 'mgs': 0, 'flw2': 0.11, 'flw1': 0.0, 'flw0': 0.11, 'time': 15.55, 'compass': -2.71, 'pitch': -2.36, 'roll': 3.68}
{'lipoC2': 0.15, 'temp': 0.0, 'lipoC3S3': 12.45, 'state': 'normal', 'rot1': 57, 'rot0': 100, 'rot3': 0, 'rot2': 0, 'depth': -1.666, 'yaw': 88.8, 'datetime': '2018-12-18 17:13:34.738007', 'mgs': 0, 'flw2': 0.0, 'flw1': 0.53, 'flw0': 0.0, 'time': 16.7, 'compass': -7.45, 'pitch': -2.37, 'roll': 3.51}
{'lipoC2': 0.17, 'temp': 0.0, 'lipoC3S3': 12.31, 'state': 'normal', 'rot1': 57, 'rot0': 100, 'rot3': 0, 'rot2': 0, 'depth': 0.851, 'yaw': 88.0, 'datetime': '2018-12-18 17:13:34.946610', 'mgs': 0, 'flw2': 0.0, 'flw1': 0.56, 'flw0': 0.0, 'time': 16.91, 'compass': -8.25, 'pitch': -2.64, 'roll': 3.48}
{'lipoC2': 0.03, 'temp': 0.0, 'lipoC3S3': 12.48, 'state': 'normal', 'rot1': 58, 'rot0': 100, 'rot3': 0, 'rot2': 0, 'depth': -1.971, 'yaw': 87.49, 'datetime': '2018-12-18 17:13:35.156048', 'mgs': 0, 'flw2': 0.04, 'flw1': 0.32, 'flw0': 0.52, 'time': 17.11, 'compass': -8.76, 'pitch': -2.95, 'roll': 3.46}
{'lipoC2': 0.15, 'temp': 0.0, 'lipoC3S3': 12.45, 'state': 'normal', 'rot1': 59, 'rot0': 101, 'rot3': 0, 'rot2': 0, 'depth': -1.285, 'yaw': 87.88, 'datetime': '2018-12-18 17:13:35.367228', 'mgs': 0, 'flw2': 0.28, 'flw1': 0.5, 'flw0': 0.35, 'time': 17.32, 'compass': -8.37, 'pitch': -2.77, 'roll': 3.49}
{'lipoC2': 0.0, 'temp': 0.0, 'lipoC3S3': 12.41, 'state': 'normal', 'rot1': 60, 'rot0': 102, 'rot3': 0, 'rot2': 0, 'depth': -0.751, 'yaw': 89.08, 'datetime': '2018-12-18 17:13:35.574954', 'mgs': 0, 'flw2': 0.18, 'flw1': 0.0, 'flw0': 0.07, 'time': 17.53, 'compass': -7.17, 'pitch': -2.18, 'roll': 3.59}
{'lipoC2': 0.16, 'temp': 0.0, 'lipoC3S3': 12.37, 'state': 'normal', 'rot1': 61, 'rot0': 102, 'rot3': 0, 'rot2': 0, 'depth': 1.004, 'yaw': 90.28, 'datetime': '2018-12-18 17:13:35.785368', 'mgs': 0, 'flw2': 0.13, 'flw1': 0.0, 'flw0': 0.11, 'time': 17.74, 'compass': -5.97, 'pitch': -2.02, 'roll': 3.45}
{'lipoC2': 0.0, 'temp': 0.0, 'lipoC3S3': 12.66, 'state': 'normal', 'rot1': 61, 'rot0': 102, 'rot3': 0, 'rot2': 0, 'depth': 1.385, 'yaw': 91.39, 'datetime': '2018-12-18 17:13:35.995161', 'mgs': 0, 'flw2': 0.0, 'flw1': 0.0, 'flw0': 0.22, 'time': 17.95, 'compass': -4.86, 'pitch': -2.58, 'roll': 3.29}
{'lipoC2': 0.17, 'temp': 0.0, 'lipoC3S3': 12.38, 'state': 'normal', 'rot1': 61, 'rot0': 102, 'rot3': 0, 'rot2': 0, 'depth': 0.928, 'yaw': 92.37, 'datetime': '2018-12-18 17:13:36.204619', 'mgs': 0, 'flw2': 0.0, 'flw1': 0.5, 'flw0': 0.0, 'time': 18.16, 'compass': -3.88, 'pitch': -3.16, 'roll': 3.34}
{'lipoC2': 0.03, 'temp': 0.0, 'lipoC3S3': 12.27, 'state': 'normal', 'rot1': 61, 'rot0': 102, 'rot3': 0, 'rot2': 0, 'depth': 1.233, 'yaw': 93.33, 'datetime': '2018-12-18 17:13:36.413910', 'mgs': 0, 'flw2': 0.17, 'flw1': 0.09, 'flw0': 0.0, 'time': 18.37, 'compass': -2.92, 'pitch': -3.19, 'roll': 3.4}
{'lipoC2': 0.0, 'temp': 0.0, 'lipoC3S3': 12.58, 'state': 'normal', 'rot1': 61, 'rot0': 102, 'rot3': 0, 'rot2': 0, 'depth': 0.775, 'yaw': 94.24, 'datetime': '2018-12-18 17:13:36.621783', 'mgs': 0, 'flw2': 0.18, 'flw1': 0.06, 'flw0': 0.0, 'time': 18.58, 'compass': -2.01, 'pitch': -2.85, 'roll': 3.45}
{'lipoC2': 0.16, 'temp': 0.0, 'lipoC3S3': 12.38, 'state': 'normal', 'rot1': 61, 'rot0': 102, 'rot3': 0, 'rot2': 0, 'depth': 0.928, 'yaw': 95.11, 'datetime': '2018-12-18 17:13:36.830706', 'mgs': 0, 'flw2': 0.12, 'flw1': 0.0, 'flw0': 0.12, 'time': 18.78, 'compass': -1.14, 'pitch': -2.76, 'roll': 3.64}
{'lipoC2': 0.0, 'temp': 0.0, 'lipoC3S3': 12.35, 'state': 'normal', 'rot1': 61, 'rot0': 102, 'rot3': 0, 'rot2': 0, 'depth': 0.928, 'yaw': 95.9, 'datetime': '2018-12-18 17:13:37.039930', 'mgs': 0, 'flw2': 0.0, 'flw1': 0.47, 'flw0': 0.0, 'time': 19.0, 'compass': -0.35, 'pitch': -3.01, 'roll': 3.89}
{'lipoC2': 0.14, 'temp': 0.0, 'lipoC3S3': 12.47, 'state': 'normal', 'rot1': 61, 'rot0': 102, 'rot3': 0, 'rot2': 0, 'depth': -1.819, 'yaw': 96.69, 'datetime': '2018-12-18 17:13:37.250292', 'mgs': 0, 'flw2': 0.2, 'flw1': 0.0, 'flw0': 0.05, 'time': 19.2, 'compass': 0.44, 'pitch': -3.14, 'roll': 3.96}
{'lipoC2': 0.18, 'temp': 0.0, 'lipoC3S3': 12.39, 'state': 'normal', 'rot1': 61, 'rot0': 102, 'rot3': 0, 'rot2': 0, 'depth': -0.446, 'yaw': 97.49, 'datetime': '2018-12-18 17:13:37.458514', 'mgs': 0, 'flw2': 0.18, 'flw1': 0.0, 'flw0': 0.09, 'time': 19.41, 'compass': 1.24, 'pitch': -2.9, 'roll': 3.81}
{'lipoC2': 0.0, 'temp': 0.0, 'lipoC3S3': 12.29, 'state': 'normal', 'rot1': 61, 'rot0': 102, 'rot3': 0, 'rot2': 0, 'depth': -1.59, 'yaw': 98.24, 'datetime': '2018-12-18 17:13:37.668890', 'mgs': 0, 'flw2': 0.05, 'flw1': 0.0, 'flw0': 0.18, 'time': 19.62, 'compass': 1.99, 'pitch': -2.7, 'roll': 3.8}
{'lipoC2': 0.17, 'temp': 0.0, 'lipoC3S3': 12.34, 'state': 'normal', 'rot1': 61, 'rot0': 102, 'rot3': 0, 'rot2': 0, 'depth': 0.47, 'yaw': 98.93, 'datetime': '2018-12-18 17:13:37.876862', 'mgs': 0, 'flw2': 0.0, 'flw1': 0.47, 'flw0': 0.0, 'time': 19.83, 'compass': 2.68, 'pitch': -2.91, 'roll': 3.83}
{'lipoC2': 0.0, 'temp': 0.0, 'lipoC3S3': 12.55, 'state': 'normal', 'rot1': 61, 'rot0': 102, 'rot3': 0, 'rot2': 0, 'depth': 0.546, 'yaw': 99.64, 'datetime': '2018-12-18 17:13:38.085721', 'mgs': 0, 'flw2': 0.0, 'flw1': 0.23, 'flw0': 0.15, 'time': 20.04, 'compass': 3.39, 'pitch': -3.27, 'roll': 3.86}
{'lipoC2': 0.13, 'temp': 0.0, 'lipoC3S3': 12.23, 'state': 'normal', 'rot1': 61, 'rot0': 102, 'rot3': 0, 'rot2': 0, 'depth': 0.241, 'yaw': 100.34, 'datetime': '2018-12-18 17:13:38.294926', 'mgs': 0, 'flw2': 0.11, 'flw1': 0.38, 'flw0': 0.0, 'time': 20.25, 'compass': 4.09, 'pitch': -3.29, 'roll': 3.91}
{'lipoC2': 0.0, 'temp': 0.0, 'lipoC3S3': 12.5, 'state': 'normal', 'rot1': 61, 'rot0': 102, 'rot3': 0, 'rot2': 0, 'depth': 0.165, 'yaw': 101.0, 'datetime': '2018-12-18 17:13:38.505580', 'mgs': 0, 'flw2': 0.0, 'flw1': 0.32, 'flw0': 0.1, 'time': 20.46, 'compass': 4.75, 'pitch': -3.05, 'roll': 4.06}
{'lipoC2': 0.11, 'temp': 0.0, 'lipoC3S3': 12.5, 'state': 'normal', 'rot1': 61, 'rot0': 102, 'rot3': 0, 'rot2': 0, 'depth': -2.048, 'yaw': 101.6, 'datetime': '2018-12-18 17:13:38.715798', 'mgs': 0, 'flw2': 0.26, 'flw1': 0.41, 'flw0': 0.5, 'time': 20.67, 'compass': 5.35, 'pitch': -2.96, 'roll': 4.33}
{'lipoC2': 0.03, 'temp': 0.0, 'lipoC3S3': 12.26, 'state': 'normal', 'rot1': 61, 'rot0': 103, 'rot3': 0, 'rot2': 0, 'depth': 1.309, 'yaw': 101.56, 'datetime': '2018-12-18 17:13:38.929126', 'mgs': 0, 'flw2': 0.34, 'flw1': 0.0, 'flw0': 0.59, 'time': 20.88, 'compass': 5.31, 'pitch': -3.07, 'roll': 4.21}
{'lipoC2': 0.08, 'temp': 0.0, 'lipoC3S3': 12.25, 'state': 'normal', 'rot1': 62, 'rot0': 104, 'rot3': 0, 'rot2': 0, 'depth': 0.089, 'yaw': 100.7, 'datetime': '2018-12-18 17:13:39.135093', 'mgs': 0, 'flw2': 0.51, 'flw1': 0.18, 'flw0': 0.02, 'time': 21.08, 'compass': 4.45, 'pitch': -3.2, 'roll': 3.78}
{'lipoC2': 0.0, 'temp': 0.0, 'lipoC3S3': 12.64, 'state': 'normal', 'rot1': 63, 'rot0': 104, 'rot3': 0, 'rot2': 0, 'depth': 1.157, 'yaw': 99.35, 'datetime': '2018-12-18 17:13:39.345640', 'mgs': 0, 'flw2': 0.0, 'flw1': 0.0, 'flw0': 0.22, 'time': 21.29, 'compass': 3.1, 'pitch': -3.43, 'roll': 3.52}
{'lipoC2': 0.04, 'temp': 0.0, 'lipoC3S3': 12.27, 'state': 'normal', 'rot1': 63, 'rot0': 104, 'rot3': 0, 'rot2': 0, 'depth': -0.293, 'yaw': 98.16, 'datetime': '2018-12-18 17:13:39.550322', 'mgs': 0, 'flw2': 0.0, 'flw1': 0.0, 'flw0': 0.22, 'time': 21.5, 'compass': 1.91, 'pitch': -3.62, 'roll': 3.6}
{'lipoC2': 0.0, 'temp': 0.0, 'lipoC3S3': 12.43, 'state': 'normal', 'rot1': 63, 'rot0': 104, 'rot3': 0, 'rot2': 0, 'depth': 0.851, 'yaw': 97.13, 'datetime': '2018-12-18 17:13:39.761016', 'mgs': 0, 'flw2': 0.0, 'flw1': 0.44, 'flw0': 0.0, 'time': 21.71, 'compass': 0.88, 'pitch': -3.58, 'roll': 3.79}
{'lipoC2': 0.08, 'temp': 0.0, 'lipoC3S3': 12.23, 'state': 'normal', 'rot1': 63, 'rot0': 104, 'rot3': 0, 'rot2': 0, 'depth': -0.064, 'yaw': 96.14, 'datetime': '2018-12-18 17:13:39.972429', 'mgs': 0, 'flw2': 0.13, 'flw1': 0.23, 'flw0': 0.0, 'time': 21.92, 'compass': -0.11, 'pitch': -3.48, 'roll': 3.97}
{'lipoC2': 0.0, 'temp': 0.0, 'lipoC3S3': 12.66, 'state': 'normal', 'rot1': 63, 'rot0': 104, 'rot3': 0, 'rot2': 0, 'depth': 1.385, 'yaw': 95.18, 'datetime': '2018-12-18 17:13:40.181137', 'mgs': 0, 'flw2': 0.0, 'flw1': 0.03, 'flw0': 0.22, 'time': 22.13, 'compass': -1.07, 'pitch': -3.7, 'roll': 4.09}
{'lipoC2': 0.0, 'temp': 0.0, 'lipoC3S3': 12.6, 'state': 'normal', 'rot1': 63, 'rot0': 104, 'rot3': 0, 'rot2': 0, 'depth': 0.775, 'yaw': 94.26, 'datetime': '2018-12-18 17:13:40.392284', 'mgs': 0, 'flw2': 0.0, 'flw1': 0.18, 'flw0': 0.2, 'time': 22.34, 'compass': -1.99, 'pitch': -4.07, 'roll': 4.05}
{'lipoC2': 0.11, 'temp': 0.0, 'lipoC3S3': 12.5, 'state': 'normal', 'rot1': 63, 'rot0': 104, 'rot3': 0, 'rot2': 0, 'depth': 1.538, 'yaw': 93.47, 'datetime': '2018-12-18 17:13:40.597863', 'mgs': 0, 'flw2': 0.22, 'flw1': 0.0, 'flw0': 0.0, 'time': 22.55, 'compass': -2.78, 'pitch': -4.16, 'roll': 3.79}
{'lipoC2': 0.0, 'temp': 0.0, 'lipoC3S3': 12.6, 'state': 'normal', 'rot1': 63, 'rot0': 104, 'rot3': 0, 'rot2': 0, 'depth': 1.614, 'yaw': 92.7, 'datetime': '2018-12-18 17:13:40.804050', 'mgs': 0, 'flw2': 0.0, 'flw1': 0.38, 'flw0': 0.06, 'time': 22.75, 'compass': -3.55, 'pitch': -4.06, 'roll': 3.47}
{'lipoC2': 0.0, 'temp': 0.0, 'lipoC3S3': 12.74, 'state': 'normal', 'rot1': 63, 'rot0': 104, 'rot3': 0, 'rot2': 0, 'depth': -2.048, 'yaw': 91.94, 'datetime': '2018-12-18 17:13:41.013288', 'mgs': 0, 'flw2': 0.0, 'flw1': 0.0, 'flw0': 0.23, 'time': 22.96, 'compass': -4.31, 'pitch': -4.01, 'roll': 3.37}
{'lipoC2': 0.0, 'temp': 0.0, 'lipoC3S3': 12.27, 'state': 'normal', 'rot1': 63, 'rot0': 104, 'rot3': 0, 'rot2': 0, 'depth': -1.59, 'yaw': 91.21, 'datetime': '2018-12-18 17:13:41.221882', 'mgs': 0, 'flw2': 0.02, 'flw1': 0.0, 'flw0': 0.2, 'time': 23.17, 'compass': -5.04, 'pitch': -4.14, 'roll': 3.36}
{'lipoC2': 0.0, 'temp': 0.0, 'lipoC3S3': 12.31, 'state': 'normal', 'rot1': 63, 'rot0': 104, 'rot3': 0, 'rot2': 0, 'depth': 1.233, 'yaw': 90.52, 'datetime': '2018-12-18 17:13:41.435166', 'mgs': 0, 'flw2': 0.1, 'flw1': 0.0, 'flw0': 0.13, 'time': 23.38, 'compass': -5.73, 'pitch': -4.51, 'roll': 3.5}
{'lipoC2': 0.0, 'temp': 0.0, 'lipoC3S3': 12.63, 'state': 'normal', 'rot1': 63, 'rot0': 104, 'rot3': 0, 'rot2': 0, 'depth': 1.614, 'yaw': 89.89, 'datetime': '2018-12-18 17:13:41.642623', 'mgs': 0, 'flw2': 0.0, 'flw1': 0.53, 'flw0': 0.09, 'time': 23.59, 'compass': -6.36, 'pitch': -4.77, 'roll': 3.58}
{'lipoC2': 0.15, 'temp': 0.0, 'lipoC3S3': 12.27, 'state': 'normal', 'rot1': 63, 'rot0': 104, 'rot3': 0, 'rot2': 0, 'depth': 0.394, 'yaw': 89.27, 'datetime': '2018-12-18 17:13:41.851970', 'mgs': 0, 'flw2': 0.0, 'flw1': 0.0, 'flw0': 0.18, 'time': 23.8, 'compass': -6.98, 'pitch': -4.61, 'roll': 3.53}
{'lipoC2': 0.0, 'temp': 0.0, 'lipoC3S3': 12.68, 'state': 'normal', 'rot1': 63, 'rot0': 104, 'rot3': 0, 'rot2': 0, 'depth': 1.538, 'yaw': 88.7, 'datetime': '2018-12-18 17:13:42.060043', 'mgs': 0, 'flw2': 0.04, 'flw1': 0.0, 'flw0': 0.2, 'time': 24.01, 'compass': -7.55, 'pitch': -4.26, 'roll': 3.42}
{'lipoC2': 0.06, 'temp': 0.0, 'lipoC3S3': 12.25, 'state': 'normal', 'rot1': 63, 'rot0': 104, 'rot3': 0, 'rot2': 0, 'depth': 1.08, 'yaw': 88.12, 'datetime': '2018-12-18 17:13:42.267186', 'mgs': 0, 'flw2': 0.2, 'flw1': 0.06, 'flw0': 0.0, 'time': 24.22, 'compass': -8.13, 'pitch': -4.42, 'roll': 3.38}
{'lipoC2': 0.0, 'temp': 0.0, 'lipoC3S3': 12.38, 'state': 'normal', 'rot1': 63, 'rot0': 104, 'rot3': 0, 'rot2': 0, 'depth': 0.623, 'yaw': 87.59, 'datetime': '2018-12-18 17:13:42.477995', 'mgs': 0, 'flw2': 0.1, 'flw1': 0.56, 'flw0': 0.0, 'time': 24.42, 'compass': -8.66, 'pitch': -4.88, 'roll': 3.34}
{'lipoC2': 0.0, 'temp': 0.0, 'lipoC3S3': 12.64, 'state': 'normal', 'rot1': 64, 'rot0': 105, 'rot3': 0, 'rot2': 0, 'depth': 1.385, 'yaw': 87.29, 'datetime': '2018-12-18 17:13:42.687828', 'mgs': 0, 'flw2': 0.01, 'flw1': 0.15, 'flw0': 0.6, 'time': 24.64, 'compass': -8.96, 'pitch': -5.03, 'roll': 3.31}
{'lipoC2': 0.09, 'temp': 0.0, 'lipoC3S3': 12.21, 'state': 'normal', 'rot1': 65, 'rot0': 106, 'rot3': 0, 'rot2': 0, 'depth': 1.08, 'yaw': 87.91, 'datetime': '2018-12-18 17:13:42.897270', 'mgs': 0, 'flw2': 0.38, 'flw1': 0.0, 'flw0': 0.0, 'time': 24.84, 'compass': -8.34, 'pitch': -4.67, 'roll': 3.37}
{'lipoC2': 0.0, 'temp': 0.0, 'lipoC3S3': 12.59, 'state': 'normal', 'rot1': 67, 'rot0': 107, 'rot3': 0, 'rot2': 0, 'depth': 1.157, 'yaw': 89.3, 'datetime': '2018-12-18 17:13:43.108986', 'mgs': 0, 'flw2': 0.0, 'flw1': 0.38, 'flw0': 0.11, 'time': 25.05, 'compass': -6.95, 'pitch': -4.35, 'roll': 3.61}
{'lipoC2': 0.0, 'temp': 0.0, 'lipoC3S3': 12.51, 'state': 'normal', 'rot1': 67, 'rot0': 107, 'rot3': 0, 'rot2': 0, 'depth': 0.089, 'yaw': 90.64, 'datetime': '2018-12-18 17:13:43.319355', 'mgs': 0, 'flw2': 0.16, 'flw1': 0.0, 'flw0': 0.0, 'time': 25.26, 'compass': -5.61, 'pitch': -4.56, 'roll': 3.74}
{'lipoC2': 0.0, 'temp': 0.0, 'lipoC3S3': 12.64, 'state': 'normal', 'rot1': 67, 'rot0': 107, 'rot3': 0, 'rot2': 0, 'depth': 1.309, 'yaw': 91.93, 'datetime': '2018-12-18 17:13:43.530347', 'mgs': 0, 'flw2': 0.0, 'flw1': 0.03, 'flw0': 0.21, 'time': 25.47, 'compass': -4.32, 'pitch': -5.04, 'roll': 3.8}
{'lipoC2': 0.15, 'temp': 0.0, 'lipoC3S3': 12.3, 'state': 'normal', 'rot1': 67, 'rot0': 107, 'rot3': 0, 'rot2': 0, 'depth': 0.394, 'yaw': 93.16, 'datetime': '2018-12-18 17:13:43.733639', 'mgs': 0, 'flw2': 0.0, 'flw1': 0.47, 'flw0': 0.0, 'time': 25.68, 'compass': -3.09, 'pitch': -5.09, 'roll': 3.72}
{'lipoC2': 0.16, 'temp': 0.0, 'lipoC3S3': 12.31, 'state': 'normal', 'rot1': 67, 'rot0': 107, 'rot3': 0, 'rot2': 0, 'depth': 0.47, 'yaw': 94.31, 'datetime': '2018-12-18 17:13:43.945132', 'mgs': 0, 'flw2': 0.0, 'flw1': 0.47, 'flw0': 0.0, 'time': 25.89, 'compass': -1.94, 'pitch': -4.95, 'roll': 3.78}
{'lipoC2': 0.08, 'temp': 0.0, 'lipoC3S3': 12.23, 'state': 'normal', 'rot1': 67, 'rot0': 107, 'rot3': 0, 'rot2': 0, 'depth': 0.012, 'yaw': 95.4, 'datetime': '2018-12-18 17:13:44.157611', 'mgs': 0, 'flw2': 0.15, 'flw1': 0.21, 'flw0': 0.0, 'time': 26.1, 'compass': -0.85, 'pitch': -4.93, 'roll': 4.02}
{'lipoC2': 0.17, 'temp': 0.0, 'lipoC3S3': 12.37, 'state': 'normal', 'rot1': 67, 'rot0': 107, 'rot3': 0, 'rot2': 0, 'depth': -0.598, 'yaw': 96.37, 'datetime': '2018-12-18 17:13:44.367507', 'mgs': 0, 'flw2': 0.06, 'flw1': 0.0, 'flw0': 0.15, 'time': 26.31, 'compass': 0.12, 'pitch': -4.99, 'roll': 4.21}
{'lipoC2': 0.14, 'temp': 0.0, 'lipoC3S3': 12.26, 'state': 'normal', 'rot1': 67, 'rot0': 107, 'rot3': 0, 'rot2': 0, 'depth': 0.699, 'yaw': 97.34, 'datetime': '2018-12-18 17:13:44.572730', 'mgs': 0, 'flw2': 0.07, 'flw1': 0.0, 'flw0': 0.15, 'time': 26.51, 'compass': 1.09, 'pitch': -4.92, 'roll': 4.23}
{'lipoC2': 0.11, 'temp': 0.0, 'lipoC3S3': 12.51, 'state': 'normal', 'rot1': 67, 'rot0': 107, 'rot3': 0, 'rot2': 0, 'depth': -2.277, 'yaw': 98.3, 'datetime': '2018-12-18 17:13:44.786628', 'mgs': 0, 'flw2': 0.0, 'flw1': 0.23, 'flw0': 0.15, 'time': 26.72, 'compass': 2.05, 'pitch': -4.86, 'roll': 4.23}
{'lipoC2': 0.0, 'temp': 0.0, 'lipoC3S3': 12.7, 'state': 'normal', 'rot1': 67, 'rot0': 107, 'rot3': 0, 'rot2': 0, 'depth': 1.462, 'yaw': 99.2, 'datetime': '2018-12-18 17:13:44.992941', 'mgs': 0, 'flw2': 0.0, 'flw1': 0.47, 'flw0': 0.0, 'time': 26.93, 'compass': 2.95, 'pitch': -4.94, 'roll': 4.35}
{'lipoC2': 0.15, 'temp': 0.0, 'lipoC3S3': 12.47, 'state': 'normal', 'rot1': 67, 'rot0': 107, 'rot3': 0, 'rot2': 0, 'depth': -1.666, 'yaw': 100.01, 'datetime': '2018-12-18 17:13:45.201790', 'mgs': 0, 'flw2': 0.0, 'flw1': 0.35, 'flw0': 0.07, 'time': 27.14, 'compass': 3.76, 'pitch': -4.94, 'roll': 4.58}
{'lipoC2': 0.02, 'temp': 0.0, 'lipoC3S3': 12.27, 'state': 'normal', 'rot1': 67, 'rot0': 107, 'rot3': 0, 'rot2': 0, 'depth': 1.309, 'yaw': 100.85, 'datetime': '2018-12-18 17:13:45.413873', 'mgs': 0, 'flw2': 0.0, 'flw1': 0.0, 'flw0': 0.23, 'time': 27.35, 'compass': 4.6, 'pitch': -4.87, 'roll': 4.65}
{'lipoC2': 0.0, 'temp': 0.0, 'lipoC3S3': 12.33, 'state': 'normal', 'rot1': 67, 'rot0': 107, 'rot3': 0, 'rot2': 0, 'depth': -1.666, 'yaw': 101.63, 'datetime': '2018-12-18 17:13:45.620540', 'mgs': 0, 'flw2': 0.49, 'flw1': 0.41, 'flw0': 0.34, 'time': 27.56, 'compass': 5.38, 'pitch': -4.8, 'roll': 4.71}
{'lipoC2': 0.04, 'temp': 0.0, 'lipoC3S3': 12.58, 'state': 'normal', 'rot1': 68, 'rot0': 108, 'rot3': 0, 'rot2': 0, 'depth': -2.277, 'yaw': 101.74, 'datetime': '2018-12-18 17:13:45.831610', 'mgs': 0, 'flw2': 0.02, 'flw1': 0.15, 'flw0': 0.55, 'time': 27.77, 'compass': 5.49, 'pitch': -4.84, 'roll': 4.68}
{'lipoC2': 0.0, 'temp': 0.0, 'lipoC3S3': 12.35, 'state': 'normal', 'rot1': 69, 'rot0': 109, 'rot3': 0, 'rot2': 0, 'depth': -1.437, 'yaw': 101.0, 'datetime': '2018-12-18 17:13:46.037085', 'mgs': 0, 'flw2': 0.24, 'flw1': 0.44, 'flw0': 0.35, 'time': 27.98, 'compass': 4.75, 'pitch': -4.92, 'roll': 4.57}
{'lipoC2': 0.0, 'temp': 0.0, 'lipoC3S3': 12.43, 'state': 'normal', 'rot1': 70, 'rot0': 110, 'rot3': 0, 'rot2': 0, 'depth': 0.851, 'yaw': 99.63, 'datetime': '2018-12-18 17:13:46.246227', 'mgs': 0, 'flw2': 0.0, 'flw1': 0.44, 'flw0': 0.0, 'time': 28.18, 'compass': 3.38, 'pitch': -4.92, 'roll': 4.29}
{'lipoC2': 0.04, 'temp': 0.0, 'lipoC3S3': 12.27, 'state': 'normal', 'rot1': 70, 'rot0': 110, 'rot3': 0, 'rot2': 0, 'depth': -0.217, 'yaw': 98.16, 'datetime': '2018-12-18 17:13:46.454134', 'mgs': 0, 'flw2': 0.0, 'flw1': 0.0, 'flw0': 0.22, 'time': 28.39, 'compass': 1.91, 'pitch': -4.89, 'roll': 4.27}
{'lipoC2': 0.13, 'temp': 0.0, 'lipoC3S3': 12.26, 'state': 'normal', 'rot1': 70, 'rot0': 110, 'rot3': 0, 'rot2': 0, 'depth': 0.241, 'yaw': 96.82, 'datetime': '2018-12-18 17:13:46.664727', 'mgs': 0, 'flw2': 0.02, 'flw1': 0.44, 'flw0': 0.0, 'time': 28.6, 'compass': 0.57, 'pitch': -5.26, 'roll': 4.5}
{'lipoC2': 0.0, 'temp': 0.0, 'lipoC3S3': 12.33, 'state': 'normal', 'rot1': 70, 'rot0': 110, 'rot3': 0, 'rot2': 0, 'depth': -1.743, 'yaw': 95.55, 'datetime': '2018-12-18 17:13:46.874088', 'mgs': 0, 'flw2': 0.0, 'flw1': 0.47, 'flw0': 0.0, 'time': 28.81, 'compass': -0.7, 'pitch': -5.86, 'roll': 4.69}
{'lipoC2': 0.13, 'temp': 0.0, 'lipoC3S3': 12.48, 'state': 'normal', 'rot1': 70, 'rot0': 110, 'rot3': 0, 'rot2': 0, 'depth': -1.971, 'yaw': 94.42, 'datetime': '2018-12-18 17:13:47.084693', 'mgs': 0, 'flw2': 0.0, 'flw1': 0.38, 'flw0': 0.06, 'time': 29.02, 'compass': -1.83, 'pitch': -5.99, 'roll': 4.63}
{'lipoC2': 0.01, 'temp': 0.0, 'lipoC3S3': 12.31, 'state': 'normal', 'rot1': 70, 'rot0': 110, 'rot3': 0, 'rot2': 0, 'depth': 1.538, 'yaw': 93.33, 'datetime': '2018-12-18 17:13:47.293460', 'mgs': 0, 'flw2': 0.0, 'flw1': 0.0, 'flw0': 0.22, 'time': 29.23, 'compass': -2.92, 'pitch': -5.72, 'roll': 4.33}
{'lipoC2': 0.16, 'temp': 0.0, 'lipoC3S3': 12.46, 'state': 'normal', 'rot1': 70, 'rot0': 110, 'rot3': 0, 'rot2': 0, 'depth': -0.827, 'yaw': 92.29, 'datetime': '2018-12-18 17:13:47.501980', 'mgs': 0, 'flw2': 0.0, 'flw1': 0.5, 'flw0': 0.01, 'time': 29.44, 'compass': -3.96, 'pitch': -5.71, 'roll': 3.94}
{'lipoC2': 0.0, 'temp': 0.0, 'lipoC3S3': 12.52, 'state': 'normal', 'rot1': 70, 'rot0': 110, 'rot3': 0, 'rot2': 0, 'depth': -0.369, 'yaw': 91.28, 'datetime': '2018-12-18 17:13:47.710790', 'mgs': 0, 'flw2': 0.0, 'flw1': 0.35, 'flw0': 0.06, 'time': 29.65, 'compass': -4.97, 'pitch': -5.94, 'roll': 3.72}
{'lipoC2': 0.0, 'temp': 0.0, 'lipoC3S3': 12.64, 'state': 'normal', 'rot1': 70, 'rot0': 110, 'rot3': 0, 'rot2': 0, 'depth': 1.233, 'yaw': 90.36, 'datetime': '2018-12-18 17:13:47.919904', 'mgs': 0, 'flw2': 0.0, 'flw1': 0.0, 'flw0': 0.22, 'time': 29.86, 'compass': -5.89, 'pitch': -6.12, 'roll': 3.63}
{'lipoC2': 0.0, 'temp': 0.0, 'lipoC3S3': 12.68, 'state': 'normal', 'rot1': 70, 'rot0': 110, 'rot3': 0, 'rot2': 0, 'depth': -1.666, 'yaw': 89.45, 'datetime': '2018-12-18 17:13:48.129885', 'mgs': 0, 'flw2': 0.07, 'flw1': 0.0, 'flw0': 0.15, 'time': 30.07, 'compass': -6.8, 'pitch': -6.17, 'roll': 3.53}
{'lipoC2': 0.15, 'temp': 0.0, 'lipoC3S3': 12.27, 'state': 'normal', 'rot1': 70, 'rot0': 110, 'rot3': 0, 'rot2': 0, 'depth': 0.317, 'yaw': 88.57, 'datetime': '2018-12-18 17:13:48.339090', 'mgs': 0, 'flw2': 0.09, 'flw1': 0.0, 'flw0': 0.13, 'time': 30.27, 'compass': -7.68, 'pitch': -6.23, 'roll': 3.44}
{'lipoC2': 0.17, 'temp': 0.0, 'lipoC3S3': 12.39, 'state': 'normal', 'rot1': 70, 'rot0': 110, 'rot3': 0, 'rot2': 0, 'depth': -0.827, 'yaw': 87.71, 'datetime': '2018-12-18 17:13:48.548856', 'mgs': 0, 'flw2': 0.13, 'flw1': 0.0, 'flw0': 0.11, 'time': 30.48, 'compass': -8.54, 'pitch': -6.29, 'roll': 3.5}
{'lipoC2': 0.0, 'temp': 0.0, 'lipoC3S3': 12.68, 'state': 'normal', 'rot1': 70, 'rot0': 110, 'rot3': 0, 'rot2': 0, 'depth': -1.361, 'yaw': 86.91, 'datetime': '2018-12-18 17:13:48.756833', 'mgs': 0, 'flw2': 0.56, 'flw1': 0.41, 'flw0': 0.34, 'time': 30.69, 'compass': -9.34, 'pitch': -6.4, 'roll': 3.48}
{'lipoC2': 0.0, 'temp': 0.0, 'lipoC3S3': 12.68, 'state': 'normal', 'rot1': 71, 'rot0': 111, 'rot3': 0, 'rot2': 0, 'depth': 1.538, 'yaw': 86.79, 'datetime': '2018-12-18 17:13:48.967661', 'mgs': 0, 'flw2': 0.46, 'flw1': 0.32, 'flw0': 0.15, 'time': 30.9, 'compass': -9.46, 'pitch': -6.35, 'roll': 3.49}
{'lipoC2': 0.0, 'temp': 0.0, 'lipoC3S3': 12.33, 'state': 'normal', 'rot1': 73, 'rot0': 112, 'rot3': 0, 'rot2': 0, 'depth': -1.743, 'yaw': 87.55, 'datetime': '2018-12-18 17:13:49.176849', 'mgs': 0, 'flw2': 0.44, 'flw1': 0.32, 'flw0': 0.17, 'time': 31.11, 'compass': -8.7, 'pitch': -6.06, 'roll': 3.57}
{'lipoC2': 0.0, 'temp': 0.0, 'lipoC3S3': 12.63, 'state': 'normal', 'rot1': 74, 'rot0': 113, 'rot3': 0, 'rot2': 0, 'depth': 1.385, 'yaw': 89.07, 'datetime': '2018-12-18 17:13:49.386386', 'mgs': 0, 'flw2': 0.0, 'flw1': 0.21, 'flw0': 0.17, 'time': 31.32, 'compass': -7.18, 'pitch': -5.88, 'roll': 3.73}
{'lipoC2': 0.06, 'temp': 0.0, 'lipoC3S3': 12.64, 'state': 'normal', 'rot1': 74, 'rot0': 113, 'rot3': 0, 'rot2': 0, 'depth': 1.08, 'yaw': 90.58, 'datetime': '2018-12-18 17:13:49.595485', 'mgs': 0, 'flw2': 0.0, 'flw1': 0.21, 'flw0': 0.2, 'time': 31.53, 'compass': -5.67, 'pitch': -6.14, 'roll': 3.76}
{'lipoC2': 0.06, 'temp': 0.0, 'lipoC3S3': 12.25, 'state': 'normal', 'rot1': 74, 'rot0': 113, 'rot3': 0, 'rot2': 0, 'depth': 1.157, 'yaw': 91.95, 'datetime': '2018-12-18 17:13:49.804644', 'mgs': 0, 'flw2': 0.12, 'flw1': 0.29, 'flw0': 0.0, 'time': 31.74, 'compass': -4.3, 'pitch': -6.7, 'roll': 3.68}
{'lipoC2': 0.0, 'temp': 0.0, 'lipoC3S3': 12.48, 'state': 'normal', 'rot1': 74, 'rot0': 113, 'rot3': 0, 'rot2': 0, 'depth': 0.241, 'yaw': 93.19, 'datetime': '2018-12-18 17:13:50.014152', 'mgs': 0, 'flw2': 0.0, 'flw1': 0.35, 'flw0': 0.07, 'time': 31.95, 'compass': -3.06, 'pitch': -6.84, 'roll': 3.62}
{'lipoC2': 0.02, 'temp': 0.0, 'lipoC3S3': 12.29, 'state': 'normal', 'rot1': 74, 'rot0': 113, 'rot3': 0, 'rot2': 0, 'depth': 1.309, 'yaw': 94.4, 'datetime': '2018-12-18 17:13:50.222103', 'mgs': 0, 'flw2': 0.0, 'flw1': 0.0, 'flw0': 0.22, 'time': 32.16, 'compass': -1.85, 'pitch': -6.49, 'roll': 3.75}
{'lipoC2': 0.02, 'temp': 0.0, 'lipoC3S3': 12.58, 'state': 'normal', 'rot1': 74, 'rot0': 113, 'rot3': 0, 'rot2': 0, 'depth': 1.385, 'yaw': 95.53, 'datetime': '2018-12-18 17:13:50.431641', 'mgs': 0, 'flw2': 0.0, 'flw1': 0.18, 'flw0': 0.17, 'time': 32.37, 'compass': -0.72, 'pitch': -6.23, 'roll': 4.09}
{'lipoC2': 0.11, 'temp': 0.0, 'lipoC3S3': 12.23, 'state': 'normal', 'rot1': 74, 'rot0': 113, 'rot3': 0, 'rot2': 0, 'depth': 1.004, 'yaw': 96.58, 'datetime': '2018-12-18 17:13:50.643733', 'mgs': 0, 'flw2': 0.0, 'flw1': 0.47, 'flw0': 0.0, 'time': 32.57, 'compass': 0.33, 'pitch': -6.42, 'roll': 4.55}
{'lipoC2': 0.14, 'temp': 0.0, 'lipoC3S3': 12.48, 'state': 'normal', 'rot1': 74, 'rot0': 113, 'rot3': 0, 'rot2': 0, 'depth': -1.59, 'yaw': 97.58, 'datetime': '2018-12-18 17:13:50.851151', 'mgs': 0, 'flw2': 0.0, 'flw1': 0.32, 'flw0': 0.12, 'time': 32.78, 'compass': 1.33, 'pitch': -6.74, 'roll': 4.81}
{'lipoC2': 0.0, 'temp': 0.0, 'lipoC3S3': 12.33, 'state': 'normal', 'rot1': 74, 'rot0': 113, 'rot3': 0, 'rot2': 0, 'depth': 1.233, 'yaw': 98.51, 'datetime': '2018-12-18 17:13:51.061291', 'mgs': 0, 'flw2': 0.0, 'flw1': 0.5, 'flw0': 0.0, 'time': 32.99, 'compass': 2.26, 'pitch': -6.76, 'roll': 4.82}
{'lipoC2': 0.03, 'temp': 0.0, 'lipoC3S3': 12.59, 'state': 'normal', 'rot1': 74, 'rot0': 113, 'rot3': 0, 'rot2': 0, 'depth': -2.277, 'yaw': 99.47, 'datetime': '2018-12-18 17:13:51.269520', 'mgs': 0, 'flw2': 0.0, 'flw1': 0.21, 'flw0': 0.16, 'time': 33.2, 'compass': 3.22, 'pitch': -6.42, 'roll': 4.68}
{'lipoC2': 0.0, 'temp': 0.0, 'lipoC3S3': 12.46, 'state': 'normal', 'rot1': 74, 'rot0': 113, 'rot3': 0, 'rot2': 0, 'depth': 0.851, 'yaw': 100.37, 'datetime': '2018-12-18 17:13:51.478833', 'mgs': 0, 'flw2': 0.22, 'flw1': 0.0, 'flw0': 0.0, 'time': 33.41, 'compass': 4.12, 'pitch': -6.11, 'roll': 4.7}
{'lipoC2': 0.14, 'temp': 0.0, 'lipoC3S3': 12.3, 'state': 'normal', 'rot1': 74, 'rot0': 113, 'rot3': 0, 'rot2': 0, 'depth': 0.699, 'yaw': 101.19, 'datetime': '2018-12-18 17:13:51.686704', 'mgs': 0, 'flw2': 0.17, 'flw1': 0.0, 'flw0': 0.11, 'time': 33.62, 'compass': 4.94, 'pitch': -6.2, 'roll': 4.78}
{'lipoC2': 0.06, 'temp': 0.0, 'lipoC3S3': 12.58, 'state': 'normal', 'rot1': 74, 'rot0': 113, 'rot3': 0, 'rot2': 0, 'depth': -2.2, 'yaw': 101.98, 'datetime': '2018-12-18 17:13:51.897193', 'mgs': 0, 'flw2': 0.5, 'flw1': 0.0, 'flw0': 0.63, 'time': 33.83, 'compass': 5.73, 'pitch': -6.57, 'roll': 5.08}
{'lipoC2': 0.0, 'temp': 0.0, 'lipoC3S3': 12.67, 'state': 'normal', 'rot1': 75, 'rot0': 114, 'rot3': 0, 'rot2': 0, 'depth': 1.462, 'yaw': 102.16, 'datetime': '2018-12-18 17:13:52.106092', 'mgs': 0, 'flw2': 0.45, 'flw1': 0.0, 'flw0': 0.51, 'time': 34.04, 'compass': 5.91, 'pitch': -6.71, 'roll': 5.17}
{'lipoC2': 0.0, 'temp': 0.0, 'lipoC3S3': 12.38, 'state': 'normal', 'rot1': 76, 'rot0': 115, 'rot3': 0, 'rot2': 0, 'depth': -1.285, 'yaw': 101.49, 'datetime': '2018-12-18 17:13:52.315390', 'mgs': 0, 'flw2': 0.54, 'flw1': 0.0, 'flw0': 0.4, 'time': 34.25, 'compass': 5.24, 'pitch': -6.36, 'roll': 4.96}
{'lipoC2': 0.03, 'temp': 0.0, 'lipoC3S3': 12.59, 'state': 'normal', 'rot1': 77, 'rot0': 116, 'rot3': 0, 'rot2': 0, 'depth': -2.2, 'yaw': 100.04, 'datetime': '2018-12-18 17:13:52.524616', 'mgs': 0, 'flw2': 0.11, 'flw1': 0.03, 'flw0': 0.55, 'time': 34.46, 'compass': 3.78, 'pitch': -6.21, 'roll': 4.54}
{'lipoC2': 0.05, 'temp': 0.0, 'lipoC3S3': 12.25, 'state': 'normal', 'rot1': 77, 'rot0': 116, 'rot3': 0, 'rot2': 0, 'depth': 1.157, 'yaw': 98.24, 'datetime': '2018-12-18 17:13:52.733911', 'mgs': 0, 'flw2': 0.12, 'flw1': 0.26, 'flw0': 0.0, 'time': 34.66, 'compass': 1.99, 'pitch': -6.75, 'roll': 4.36}
{'lipoC2': 0.01, 'temp': 0.0, 'lipoC3S3': 12.31, 'state': 'normal', 'rot1': 77, 'rot0': 116, 'rot3': 0, 'rot2': 0, 'depth': 1.385, 'yaw': 96.53, 'datetime': '2018-12-18 17:13:52.941842', 'mgs': 0, 'flw2': 0.0, 'flw1': 0.0, 'flw0': 0.22, 'time': 34.87, 'compass': 0.28, 'pitch': -7.42, 'roll': 4.48}
{'lipoC2': 0.0, 'temp': 0.0, 'lipoC3S3': 12.7, 'state': 'normal', 'rot1': 77, 'rot0': 116, 'rot3': 0, 'rot2': 0, 'depth': 1.538, 'yaw': 94.96, 'datetime': '2018-12-18 17:13:53.150966', 'mgs': 0, 'flw2': 0.0, 'flw1': 0.47, 'flw0': 0.0, 'time': 35.08, 'compass': -1.29, 'pitch': -7.5, 'roll': 4.56}
{'lipoC2': 0.09, 'temp': 0.0, 'lipoC3S3': 12.52, 'state': 'normal', 'rot1': 77, 'rot0': 116, 'rot3': 0, 'rot2': 0, 'depth': -2.505, 'yaw': 93.52, 'datetime': '2018-12-18 17:13:53.366309', 'mgs': 0, 'flw2': 0.0, 'flw1': 0.41, 'flw0': 0.06, 'time': 35.29, 'compass': -2.73, 'pitch': -7.25, 'roll': 4.38}
{'lipoC2': 0.0, 'temp': 0.0, 'lipoC3S3': 12.68, 'state': 'normal', 'rot1': 77, 'rot0': 116, 'rot3': 0, 'rot2': 0, 'depth': 1.538, 'yaw': 92.16, 'datetime': '2018-12-18 17:13:53.569925', 'mgs': 0, 'flw2': 0.0, 'flw1': 0.47, 'flw0': 0.0, 'time': 35.5, 'compass': -4.09, 'pitch': -7.24, 'roll': 4.17}
{'lipoC2': 0.1, 'temp': 0.0, 'lipoC3S3': 12.5, 'state': 'normal', 'rot1': 77, 'rot0': 116, 'rot3': 0, 'rot2': 0, 'depth': -2.582, 'yaw': 90.95, 'datetime': '2018-12-18 17:13:53.779907', 'mgs': 0, 'flw2': 0.0, 'flw1': 0.53, 'flw0': 0.01, 'time': 35.71, 'compass': -5.3, 'pitch': -7.59, 'roll': 3.97}
{'lipoC2': 0.08, 'temp': 0.0, 'lipoC3S3': 12.23, 'state': 'normal', 'rot1': 77, 'rot0': 116, 'rot3': 0, 'rot2': 0, 'depth': -0.14, 'yaw': 89.73, 'datetime': '2018-12-18 17:13:53.989074', 'mgs': 0, 'flw2': 0.17, 'flw1': 0.21, 'flw0': 0.0, 'time': 35.92, 'compass': -6.52, 'pitch': -7.88, 'roll': 3.8}
{'lipoC2': 0.0, 'temp': 0.0, 'lipoC3S3': 12.54, 'state': 'normal', 'rot1': 77, 'rot0': 116, 'rot3': 0, 'rot2': 0, 'depth': -0.064, 'yaw': 88.58, 'datetime': '2018-12-18 17:13:54.204175', 'mgs': 0, 'flw2': 0.0, 'flw1': 0.29, 'flw0': 0.13, 'time': 36.13, 'compass': -7.67, 'pitch': -7.82, 'roll': 3.64}
{'lipoC2': 0.15, 'temp': 0.0, 'lipoC3S3': 12.45, 'state': 'normal', 'rot1': 77, 'rot0': 116, 'rot3': 0, 'rot2': 0, 'depth': -0.751, 'yaw': 87.5, 'datetime': '2018-12-18 17:13:54.411710', 'mgs': 0, 'flw2': 0.0, 'flw1': 0.41, 'flw0': 0.01, 'time': 36.33, 'compass': -8.75, 'pitch': -7.8, 'roll': 3.5}
{'lipoC2': 0.15, 'temp': 0.0, 'lipoC3S3': 12.37, 'state': 'normal', 'rot1': 78, 'rot0': 117, 'rot3': 0, 'rot2': 0, 'depth': 0.47, 'yaw': 86.67, 'datetime': '2018-12-18 17:13:54.621668', 'mgs': 0, 'flw2': 0.59, 'flw1': 0.0, 'flw0': 0.42, 'time': 36.54, 'compass': -9.58, 'pitch': -7.88, 'roll': 3.43}
{'lipoC2': 0.05, 'temp': 0.0, 'lipoC3S3': 12.58, 'state': 'normal', 'rot1': 79, 'rot0': 118, 'rot3': 0, 'rot2': 0, 'depth': -2.353, 'yaw': 86.71, 'datetime': '2018-12-18 17:13:54.831286', 'mgs': 0, 'flw2': 0.45, 'flw1': 0.29, 'flw0': 0.0, 'time': 36.76, 'compass': -9.54, 'pitch': -7.87, 'roll': 3.7}
{'lipoC2': 0.0, 'temp': 0.0, 'lipoC3S3': 12.68, 'state': 'normal', 'rot1': 81, 'rot0': 119, 'rot3': 0, 'rot2': 0, 'depth': 1.614, 'yaw': 87.57, 'datetime': '2018-12-18 17:13:55.044760', 'mgs': 0, 'flw2': 0.34, 'flw1': 0.44, 'flw0': 0.33, 'time': 36.96, 'compass': -8.68, 'pitch': -7.75, 'roll': 4.07}
{'lipoC2': 0.0, 'temp': 0.0, 'lipoC3S3': 12.58, 'state': 'normal', 'rot1': 82, 'rot0': 120, 'rot3': 0, 'rot2': 0, 'depth': 0.699, 'yaw': 90.05, 'datetime': '2018-12-18 17:13:55.348105', 'mgs': 0, 'flw2': 0.26, 'flw1': 0.03, 'flw0': 0.0, 'time': 37.28, 'compass': -6.2, 'pitch': -7.6, 'roll': 4.34}
{'lipoC2': 0.0, 'temp': 0.0, 'lipoC3S3': 12.29, 'state': 'normal', 'rot1': 82, 'rot0': 120, 'rot3': 0, 'rot2': 0, 'depth': 1.08, 'yaw': 91.64, 'datetime': '2018-12-18 17:13:55.557457', 'mgs': 0, 'flw2': 0.0, 'flw1': 0.0, 'flw0': 0.23, 'time': 37.49, 'compass': -4.61, 'pitch': -7.8, 'roll': 4.22}
{'lipoC2': 0.0, 'temp': 0.0, 'lipoC3S3': 12.62, 'state': 'normal', 'rot1': 82, 'rot0': 120, 'rot3': 0, 'rot2': 0, 'depth': 1.385, 'yaw': 93.11, 'datetime': '2018-12-18 17:13:55.765497', 'mgs': 0, 'flw2': 0.0, 'flw1': 0.09, 'flw0': 0.21, 'time': 37.69, 'compass': -3.14, 'pitch': -8.09, 'roll': 4.06}
{'lipoC2': 0.12, 'temp': 0.0, 'lipoC3S3': 12.23, 'state': 'normal', 'rot1': 82, 'rot0': 120, 'rot3': 0, 'rot2': 0, 'depth': 0.012, 'yaw': 94.42, 'datetime': '2018-12-18 17:13:55.982808', 'mgs': 0, 'flw2': 0.0, 'flw1': 0.44, 'flw0': 0.0, 'time': 37.9, 'compass': -1.83, 'pitch': -8.15, 'roll': 4.12}
{'lipoC2': 0.14, 'temp': 0.0, 'lipoC3S3': 12.47, 'state': 'normal', 'rot1': 82, 'rot0': 120, 'rot3': 0, 'rot2': 0, 'depth': 1.233, 'yaw': 95.68, 'datetime': '2018-12-18 17:13:56.193618', 'mgs': 0, 'flw2': 0.0, 'flw1': 0.29, 'flw0': 0.1, 'time': 38.11, 'compass': -0.57, 'pitch': -8.0, 'roll': 4.43}
{'lipoC2': 0.0, 'temp': 0.0, 'lipoC3S3': 12.37, 'state': 'normal', 'rot1': 82, 'rot0': 120, 'rot3': 0, 'rot2': 0, 'depth': -1.285, 'yaw': 96.85, 'datetime': '2018-12-18 17:13:56.400094', 'mgs': 0, 'flw2': 0.17, 'flw1': 0.0, 'flw0': 0.1, 'time': 38.32, 'compass': 0.6, 'pitch': -7.74, 'roll': 5.01}
{'lipoC2': 0.11, 'temp': 0.0, 'lipoC3S3': 12.51, 'state': 'normal', 'rot1': 82, 'rot0': 120, 'rot3': 0, 'rot2': 0, 'depth': -2.277, 'yaw': 97.93, 'datetime': '2018-12-18 17:13:56.609446', 'mgs': 0, 'flw2': 0.0, 'flw1': 0.29, 'flw0': 0.0, 'time': 38.53, 'compass': 1.68, 'pitch': -7.73, 'roll': 5.59}
{'lipoC2': 0.1, 'temp': 0.0, 'lipoC3S3': 12.51, 'state': 'normal', 'rot1': 82, 'rot0': 120, 'rot3': 0, 'rot2': 0, 'depth': -2.277, 'yaw': 98.96, 'datetime': '2018-12-18 17:13:56.816083', 'mgs': 0, 'flw2': 0.0, 'flw1': 0.26, 'flw0': 0.15, 'time': 38.74, 'compass': 2.71, 'pitch': -8.04, 'roll': 5.86}
{'lipoC2': 0.08, 'temp': 0.0, 'lipoC3S3': 12.23, 'state': 'normal', 'rot1': 82, 'rot0': 120, 'rot3': 0, 'rot2': 0, 'depth': 1.08, 'yaw': 99.94, 'datetime': '2018-12-18 17:13:57.028105', 'mgs': 0, 'flw2': 0.12, 'flw1': 0.29, 'flw0': 0.0, 'time': 38.95, 'compass': 3.69, 'pitch': -8.32, 'roll': 5.83}
{'lipoC2': 0.0, 'temp': 0.0, 'lipoC3S3': 12.68, 'state': 'normal', 'rot1': 82, 'rot0': 120, 'rot3': 0, 'rot2': 0, 'depth': 1.462, 'yaw': 100.93, 'datetime': '2018-12-18 17:13:57.233634', 'mgs': 0, 'flw2': 0.0, 'flw1': 0.47, 'flw0': 0.0, 'time': 39.15, 'compass': 4.68, 'pitch': -8.26, 'roll': 5.62}
{'lipoC2': 0.0, 'temp': 0.0, 'lipoC3S3': 12.55, 'state': 'normal', 'rot1': 82, 'rot0': 120, 'rot3': 0, 'rot2': 0, 'depth': 0.546, 'yaw': 101.63, 'datetime': '2018-12-18 17:13:57.443686', 'mgs': 0, 'flw2': 0.01, 'flw1': 0.26, 'flw0': 0.51, 'time': 39.36, 'compass': 5.38, 'pitch': -7.93, 'roll': 5.39}
{'lipoC2': 0.0, 'temp': 0.0, 'lipoC3S3': 12.67, 'state': 'normal', 'rot1': 83, 'rot0': 121, 'rot3': 0, 'rot2': 0, 'depth': 1.538, 'yaw': 101.43, 'datetime': '2018-12-18 17:13:57.655712', 'mgs': 0, 'flw2': 0.44, 'flw1': 0.41, 'flw0': 0.21, 'time': 39.57, 'compass': 5.18, 'pitch': -7.68, 'roll': 5.14}
{'lipoC2': 0.06, 'temp': 0.0, 'lipoC3S3': 12.56, 'state': 'normal', 'rot1': 85, 'rot0': 123, 'rot3': 0, 'rot2': 0, 'depth': -2.353, 'yaw': 99.68, 'datetime': '2018-12-18 17:13:57.968299', 'mgs': 0, 'flw2': 0.18, 'flw1': 0.09, 'flw0': 0.0, 'time': 39.89, 'compass': 3.43, 'pitch': -8.05, 'roll': 5.09}
{'lipoC2': 0.0, 'temp': 0.0, 'lipoC3S3': 12.58, 'state': 'normal', 'rot1': 85, 'rot0': 123, 'rot3': 0, 'rot2': 0, 'depth': 0.699, 'yaw': 98.27, 'datetime': '2018-12-18 17:13:58.180812', 'mgs': 0, 'flw2': 0.13, 'flw1': 0.21, 'flw0': 0.0, 'time': 40.1, 'compass': 2.02, 'pitch': -8.48, 'roll': 5.43}
{'lipoC2': 0.02, 'temp': 0.0, 'lipoC3S3': 12.27, 'state': 'normal', 'rot1': 85, 'rot0': 123, 'rot3': 0, 'rot2': 0, 'depth': 1.309, 'yaw': 97.08, 'datetime': '2018-12-18 17:13:58.385693', 'mgs': 0, 'flw2': 0.0, 'flw1': 0.0, 'flw0': 0.23, 'time': 40.3, 'compass': 0.83, 'pitch': -8.56, 'roll': 5.74}
{'lipoC2': 0.0, 'temp': 0.0, 'lipoC3S3': 12.5, 'state': 'normal', 'rot1': 85, 'rot0': 123, 'rot3': 0, 'rot2': 0, 'depth': 0.394, 'yaw': 95.96, 'datetime': '2018-12-18 17:13:58.590761', 'mgs': 0, 'flw2': 0.0, 'flw1': 0.29, 'flw0': 0.12, 'time': 40.51, 'compass': -0.29, 'pitch': -8.46, 'roll': 5.7}
{'lipoC2': 0.05, 'temp': 0.0, 'lipoC3S3': 12.25, 'state': 'normal', 'rot1': 85, 'rot0': 123, 'rot3': 0, 'rot2': 0, 'depth': 1.157, 'yaw': 94.94, 'datetime': '2018-12-18 17:13:58.802904', 'mgs': 0, 'flw2': 0.11, 'flw1': 0.32, 'flw0': 0.0, 'time': 40.72, 'compass': -1.31, 'pitch': -8.66, 'roll': 5.24}
{'lipoC2': 0.0, 'temp': 0.0, 'lipoC3S3': 12.33, 'state': 'normal', 'rot1': 85, 'rot0': 123, 'rot3': 0, 'rot2': 0, 'depth': -1.514, 'yaw': 94.01, 'datetime': '2018-12-18 17:13:59.012408', 'mgs': 0, 'flw2': 0.0, 'flw1': 0.53, 'flw0': 0.0, 'time': 40.93, 'compass': -2.25, 'pitch': -9.18, 'roll': 4.69}
{'lipoC2': 0.0, 'temp': 0.0, 'lipoC3S3': 12.59, 'state': 'normal', 'rot1': 85, 'rot0': 123, 'rot3': 0, 'rot2': 0, 'depth': 0.546, 'yaw': 93.17, 'datetime': '2018-12-18 17:13:59.223147', 'mgs': 0, 'flw2': 0.0, 'flw1': 0.15, 'flw0': 0.18, 'time': 41.14, 'compass': -3.08, 'pitch': -9.44, 'roll': 4.33}
{'lipoC2': 0.0, 'temp': 0.0, 'lipoC3S3': 12.35, 'state': 'normal', 'rot1': 85, 'rot0': 123, 'rot3': 0, 'rot2': 0, 'depth': -1.208, 'yaw': 92.31, 'datetime': '2018-12-18 17:13:59.429549', 'mgs': 0, 'flw2': 0.0, 'flw1': 0.47, 'flw0': 0.0, 'time': 41.35, 'compass': -3.94, 'pitch': -9.16, 'roll': 4.18}
{'lipoC2': 0.12, 'temp': 0.0, 'lipoC3S3': 12.5, 'state': 'normal', 'rot1': 85, 'rot0': 123, 'rot3': 0, 'rot2': 0, 'depth': -2.124, 'yaw': 91.48, 'datetime': '2018-12-18 17:13:59.639955', 'mgs': 0, 'flw2': 0.17, 'flw1': 0.0, 'flw0': 0.0, 'time': 41.56, 'compass': -4.77, 'pitch': -8.85, 'roll': 4.17}
{'lipoC2': 0.13, 'temp': 0.0, 'lipoC3S3': 12.23, 'state': 'normal', 'rot1': 85, 'rot0': 123, 'rot3': 0, 'rot2': 0, 'depth': 0.089, 'yaw': 90.66, 'datetime': '2018-12-18 17:13:59.848775', 'mgs': 0, 'flw2': 0.0, 'flw1': 0.47, 'flw0': 0.0, 'time': 41.76, 'compass': -5.59, 'pitch': -9.09, 'roll': 4.36}
{'lipoC2': 0.0, 'temp': 0.0, 'lipoC3S3': 12.43, 'state': 'normal', 'rot1': 85, 'rot0': 123, 'rot3': 0, 'rot2': 0, 'depth': 0.928, 'yaw': 89.91, 'datetime': '2018-12-18 17:14:00.057088', 'mgs': 0, 'flw2': 0.0, 'flw1': 0.41, 'flw0': 0.0, 'time': 41.97, 'compass': -6.34, 'pitch': -9.52, 'roll': 4.52}
{'lipoC2': 0.15, 'temp': 0.0, 'lipoC3S3': 12.29, 'state': 'normal', 'rot1': 85, 'rot0': 123, 'rot3': 0, 'rot2': 0, 'depth': 0.394, 'yaw': 89.19, 'datetime': '2018-12-18 17:14:00.267007', 'mgs': 0, 'flw2': 0.0, 'flw1': 0.5, 'flw0': 0.0, 'time': 42.18, 'compass': -7.06, 'pitch': -9.65, 'roll': 4.45}
{'lipoC2': 0.11, 'temp': 0.0, 'lipoC3S3': 12.6, 'state': 'normal', 'rot1': 85, 'rot0': 123, 'rot3': 0, 'rot2': 0, 'depth': -2.429, 'yaw': 88.55, 'datetime': '2018-12-18 17:14:00.478572', 'mgs': 0, 'flw2': 0.17, 'flw1': 0.0, 'flw0': 0.09, 'time': 42.39, 'compass': -7.7, 'pitch': -9.45, 'roll': 4.13}
{'lipoC2': 0.0, 'temp': 0.0, 'lipoC3S3': 12.68, 'state': 'normal', 'rot1': 85, 'rot0': 123, 'rot3': 0, 'rot2': 0, 'depth': -2.277, 'yaw': 87.96, 'datetime': '2018-12-18 17:14:00.688509', 'mgs': 0, 'flw2': 0.02, 'flw1': 0.5, 'flw0': 0.0, 'time': 42.6, 'compass': -8.29, 'pitch': -9.39, 'roll': 3.72}
{'lipoC2': 0.0, 'temp': 0.0, 'lipoC3S3': 12.58, 'state': 'normal', 'rot1': 85, 'rot0': 123, 'rot3': 0, 'rot2': 0, 'depth': 0.699, 'yaw': 87.38, 'datetime': '2018-12-18 17:14:00.894153', 'mgs': 0, 'flw2': 0.65, 'flw1': 0.03, 'flw0': 0.09, 'time': 42.81, 'compass': -8.87, 'pitch': -9.69, 'roll': 3.51}
{'lipoC2': 0.0, 'temp': 0.0, 'lipoC3S3': 12.52, 'state': 'normal', 'rot1': 86, 'rot0': 124, 'rot3': 0, 'rot2': 0, 'depth': -0.522, 'yaw': 87.43, 'datetime': '2018-12-18 17:14:01.100208', 'mgs': 0, 'flw2': 0.61, 'flw1': 0.0, 'flw0': 0.24, 'time': 43.02, 'compass': -8.82, 'pitch': -9.89, 'roll': 3.74}
{'lipoC2': 0.13, 'temp': 0.0, 'lipoC3S3': 12.5, 'state': 'normal', 'rot1': 88, 'rot0': 124, 'rot3': 0, 'rot2': 0, 'depth': -1.743, 'yaw': 88.27, 'datetime': '2018-12-18 17:14:01.308457', 'mgs': 0, 'flw2': 0.59, 'flw1': 0.0, 'flw0': 0.17, 'time': 43.23, 'compass': -7.98, 'pitch': -9.7, 'roll': 4.35}
{'lipoC2': 0.13, 'temp': 0.0, 'lipoC3S3': 12.23, 'state': 'normal', 'rot1': 88, 'rot0': 125, 'rot3': 0, 'rot2': 0, 'depth': 1.004, 'yaw': 89.61, 'datetime': '2018-12-18 17:14:01.517767', 'mgs': 0, 'flw2': 0.0, 'flw1': 0.5, 'flw0': 0.0, 'time': 43.44, 'compass': -6.64, 'pitch': -9.43, 'roll': 4.81}
{'lipoC2': 0.0, 'temp': 0.0, 'lipoC3S3': 12.68, 'state': 'normal', 'rot1': 88, 'rot0': 125, 'rot3': 0, 'rot2': 0, 'depth': 1.538, 'yaw': 90.85, 'datetime': '2018-12-18 17:14:01.728406', 'mgs': 0, 'flw2': 0.0, 'flw1': 0.47, 'flw0': 0.0, 'time': 43.65, 'compass': -5.4, 'pitch': -9.52, 'roll': 4.8}
{'lipoC2': 0.0, 'temp': 0.0, 'lipoC3S3': 12.64, 'state': 'normal', 'rot1': 88, 'rot0': 125, 'rot3': 0, 'rot2': 0, 'depth': 1.157, 'yaw': 91.97, 'datetime': '2018-12-18 17:14:01.945457', 'mgs': 0, 'flw2': 0.0, 'flw1': 0.0, 'flw0': 0.22, 'time': 43.86, 'compass': -4.28, 'pitch': -9.9, 'roll': 4.69}
{'lipoC2': 0.0, 'temp': 0.0, 'lipoC3S3': 12.34, 'state': 'normal', 'rot1': 88, 'rot0': 125, 'rot3': 0, 'rot2': 0, 'depth': -1.514, 'yaw': 93.06, 'datetime': '2018-12-18 17:14:02.153685', 'mgs': 0, 'flw2': 0.0, 'flw1': 0.47, 'flw0': 0.0, 'time': 44.06, 'compass': -3.19, 'pitch': -10.04, 'roll': 4.68}
