{'lipoC2': 7.97, 'temp': 0.0, 'lipoC3S3': 12.05, 'state': 'normal', 'rot1': 0, 'rot0': 0, 'rot3': 0, 'rot2': 1, 'depth': 2.454, 'yaw': 0.03, 'datetime': '2018-12-12 11:00:59.172605', 'mgs': 0, 'flw2': 0.13, 'flw1': 0.0, 'flw0': 0.0, 'time': 1.36, 'compass': 73.51, 'pitch': -4.09, 'roll': 2.41}
{'lipoC2': 7.97, 'temp': 0.0, 'lipoC3S3': 12.1, 'state': 'normal', 'rot1': 0, 'rot0': 0, 'rot3': 0, 'rot2': 1, 'depth': 2.225, 'yaw': 0.11, 'datetime': '2018-12-12 11:00:59.380772', 'mgs': 0, 'flw2': 0.0, 'flw1': 1.55, 'flw0': 0.05, 'time': 1.57, 'compass': 73.59, 'pitch': -3.8, 'roll': 2.74}
{'lipoC2': 8.26, 'temp': 0.0, 'lipoC3S3': 12.02, 'state': 'normal', 'rot1': 0, 'rot0': 0, 'rot3': 1, 'rot2': 2, 'depth': -0.827, 'yaw': 0.12, 'datetime': '2018-12-12 11:00:59.589421', 'mgs': 0, 'flw2': 0.0, 'flw1': 2.37, 'flw0': 0.0, 'time': 1.78, 'compass': 73.6, 'pitch': -3.37, 'roll': 2.88}
{'lipoC2': 8.16, 'temp': 0.0, 'lipoC3S3': 12.19, 'state': 'normal', 'rot1': 0, 'rot0': 0, 'rot3': 2, 'rot2': 3, 'depth': 0.394, 'yaw': 0.14, 'datetime': '2018-12-12 11:00:59.797556', 'mgs': 0, 'flw2': 0.0, 'flw1': 4.75, 'flw0': 0.0, 'time': 1.99, 'compass': 73.62, 'pitch': -2.86, 'roll': 2.47}
{'lipoC2': 7.97, 'temp': 0.0, 'lipoC3S3': 11.98, 'state': 'normal', 'rot1': 0, 'rot0': 0, 'rot3': 3, 'rot2': 4, 'depth': 0.012, 'yaw': 0.17, 'datetime': '2018-12-12 11:01:00.007198', 'mgs': 0, 'flw2': 0.0, 'flw1': 4.28, 'flw0': 0.0, 'time': 2.19, 'compass': 73.65, 'pitch': -2.03, 'roll': 1.95}
{'lipoC2': 8.13, 'temp': 0.0, 'lipoC3S3': 11.92, 'state': 'normal', 'rot1': 0, 'rot0': 0, 'rot3': 4, 'rot2': 5, 'depth': -0.522, 'yaw': 0.17, 'datetime': '2018-12-12 11:01:00.214148', 'mgs': 0, 'flw2': 0.0, 'flw1': 5.51, 'flw0': 0.0, 'time': 2.4, 'compass': 73.65, 'pitch': -1.3, 'roll': 1.86}
{'lipoC2': 7.97, 'temp': 0.0, 'lipoC3S3': 12.05, 'state': 'normal', 'rot1': 0, 'rot0': 0, 'rot3': 5, 'rot2': 7, 'depth': 2.225, 'yaw': 0.11, 'datetime': '2018-12-12 11:01:00.422473', 'mgs': 0, 'flw2': 0.0, 'flw1': 5.95, 'flw0': 0.0, 'time': 2.61, 'compass': 73.6, 'pitch': -0.81, 'roll': 1.85}
{'lipoC2': 7.94, 'temp': 0.0, 'lipoC3S3': 12.33, 'state': 'normal', 'rot1': 0, 'rot0': 0, 'rot3': 6, 'rot2': 8, 'depth': -0.293, 'yaw': -0.11, 'datetime': '2018-12-12 11:01:00.629905', 'mgs': 0, 'flw2': 0.26, 'flw1': 4.69, 'flw0': 0.31, 'time': 2.82, 'compass': 73.37, 'pitch': -0.75, 'roll': 1.4}
{'lipoC2': 8.22, 'temp': 0.0, 'lipoC3S3': 11.94, 'state': 'normal', 'rot1': 0, 'rot0': 0, 'rot3': 7, 'rot2': 10, 'depth': -0.446, 'yaw': -0.16, 'datetime': '2018-12-12 11:01:00.839455', 'mgs': 0, 'flw2': 0.28, 'flw1': 4.16, 'flw0': 0.13, 'time': 3.02, 'compass': 73.32, 'pitch': -1.21, 'roll': 1.03}
{'lipoC2': 7.97, 'temp': 0.0, 'lipoC3S3': 11.88, 'state': 'normal', 'rot1': 0, 'rot0': 0, 'rot3': 8, 'rot2': 12, 'depth': 2.454, 'yaw': -0.16, 'datetime': '2018-12-12 11:01:01.049503', 'mgs': 0, 'flw2': 0.0, 'flw1': 4.01, 'flw0': 0.04, 'time': 3.23, 'compass': 73.32, 'pitch': -2.06, 'roll': 1.22}
{'lipoC2': 7.98, 'temp': 0.0, 'lipoC3S3': 12.09, 'state': 'normal', 'rot1': 0, 'rot0': 0, 'rot3': 9, 'rot2': 13, 'depth': 1.309, 'yaw': -0.19, 'datetime': '2018-12-12 11:01:01.257962', 'mgs': 0, 'flw2': 0.0, 'flw1': 4.19, 'flw0': 0.12, 'time': 3.44, 'compass': 73.29, 'pitch': -2.93, 'roll': 1.71}
{'lipoC2': 8.22, 'temp': 0.0, 'lipoC3S3': 11.94, 'state': 'normal', 'rot1': 0, 'rot0': 0, 'rot3': 10, 'rot2': 15, 'depth': -0.674, 'yaw': -0.32, 'datetime': '2018-12-12 11:01:01.467081', 'mgs': 0, 'flw2': 0.31, 'flw1': 4.42, 'flw0': 0.12, 'time': 3.65, 'compass': 73.16, 'pitch': -3.24, 'roll': 1.96}
{'lipoC2': 8.23, 'temp': 0.0, 'lipoC3S3': 11.97, 'state': 'normal', 'rot1': 0, 'rot0': 0, 'rot3': 11, 'rot2': 16, 'depth': -0.674, 'yaw': -0.47, 'datetime': '2018-12-12 11:01:01.678300', 'mgs': 0, 'flw2': 0.26, 'flw1': 3.98, 'flw0': 0.01, 'time': 3.86, 'compass': 73.01, 'pitch': -3.08, 'roll': 1.85}
{'lipoC2': 8.2, 'temp': 0.0, 'lipoC3S3': 11.97, 'state': 'normal', 'rot1': 0, 'rot0': 0, 'rot3': 12, 'rot2': 18, 'depth': -0.446, 'yaw': -0.67, 'datetime': '2018-12-12 11:01:01.887561', 'mgs': 0, 'flw2': 0.24, 'flw1': 3.84, 'flw0': 0.04, 'time': 4.07, 'compass': 72.81, 'pitch': -2.94, 'roll': 1.65}
{'lipoC2': 8.09, 'temp': 0.0, 'lipoC3S3': 11.89, 'state': 'normal', 'rot1': 0, 'rot0': 0, 'rot3': 13, 'rot2': 19, 'depth': 1.614, 'yaw': -0.85, 'datetime': '2018-12-12 11:01:02.097708', 'mgs': 0, 'flw2': 0.29, 'flw1': 3.93, 'flw0': 0.23, 'time': 4.28, 'compass': 72.63, 'pitch': -3.2, 'roll': 1.74}
{'lipoC2': 8.08, 'temp': 0.0, 'lipoC3S3': 11.83, 'state': 'normal', 'rot1': 0, 'rot0': 0, 'rot3': 14, 'rot2': 20, 'depth': 1.462, 'yaw': -1.06, 'datetime': '2018-12-12 11:01:02.305157', 'mgs': 0, 'flw2': 0.0, 'flw1': 4.66, 'flw0': 0.0, 'time': 4.49, 'compass': 72.42, 'pitch': -3.46, 'roll': 1.83}
{'lipoC2': 8.16, 'temp': 0.0, 'lipoC3S3': 11.97, 'state': 'normal', 'rot1': 0, 'rot0': 0, 'rot3': 15, 'rot2': 22, 'depth': -0.903, 'yaw': -1.28, 'datetime': '2018-12-12 11:01:02.516410', 'mgs': 0, 'flw2': 0.0, 'flw1': 4.98, 'flw0': 0.0, 'time': 4.7, 'compass': 72.2, 'pitch': -3.47, 'roll': 1.74}
{'lipoC2': 8.07, 'temp': 0.0, 'lipoC3S3': 11.85, 'state': 'normal', 'rot1': 0, 'rot0': 0, 'rot3': 16, 'rot2': 23, 'depth': 1.462, 'yaw': -1.5, 'datetime': '2018-12-12 11:01:02.727964', 'mgs': 0, 'flw2': 0.0, 'flw1': 5.36, 'flw0': 0.0, 'time': 4.9, 'compass': 71.98, 'pitch': -3.21, 'roll': 1.54}
{'lipoC2': 8.09, 'temp': 0.0, 'lipoC3S3': 11.88, 'state': 'normal', 'rot1': 0, 'rot0': 0, 'rot3': 17, 'rot2': 25, 'depth': 1.385, 'yaw': -1.71, 'datetime': '2018-12-12 11:01:02.935514', 'mgs': 0, 'flw2': 0.27, 'flw1': 3.05, 'flw0': 0.29, 'time': 5.11, 'compass': 71.77, 'pitch': -2.66, 'roll': 1.32}
{'lipoC2': 8.26, 'temp': 0.0, 'lipoC3S3': 11.94, 'state': 'normal', 'rot1': 0, 'rot0': 0, 'rot3': 18, 'rot2': 26, 'depth': -1.361, 'yaw': -1.9, 'datetime': '2018-12-12 11:01:03.143942', 'mgs': 0, 'flw2': 0.0, 'flw1': 3.78, 'flw0': 0.0, 'time': 5.32, 'compass': 71.58, 'pitch': -2.27, 'roll': 1.07}
{'lipoC2': 8.05, 'temp': 0.0, 'lipoC3S3': 11.84, 'state': 'normal', 'rot1': 0, 'rot0': 0, 'rot3': 19, 'rot2': 27, 'depth': 1.92, 'yaw': -2.06, 'datetime': '2018-12-12 11:01:03.353130', 'mgs': 0, 'flw2': 0.0, 'flw1': 4.34, 'flw0': 0.0, 'time': 5.53, 'compass': 71.43, 'pitch': -2.62, 'roll': 1.19}
{'lipoC2': 8.26, 'temp': 0.0, 'lipoC3S3': 12.01, 'state': 'normal', 'rot1': 0, 'rot0': 0, 'rot3': 20, 'rot2': 28, 'depth': -1.132, 'yaw': -2.11, 'datetime': '2018-12-12 11:01:03.565412', 'mgs': 0, 'flw2': 0.0, 'flw1': 3.34, 'flw0': 0.0, 'time': 5.74, 'compass': 71.38, 'pitch': -3.17, 'roll': 1.8}
{'lipoC2': 7.93, 'temp': 0.0, 'lipoC3S3': 12.31, 'state': 'normal', 'rot1': 0, 'rot0': 0, 'rot3': 20, 'rot2': 30, 'depth': -0.98, 'yaw': -2.18, 'datetime': '2018-12-12 11:01:03.772905', 'mgs': 0, 'flw2': 0.31, 'flw1': 3.75, 'flw0': 0.28, 'time': 5.95, 'compass': 71.3, 'pitch': -2.95, 'roll': 2.44}
{'lipoC2': 8.25, 'temp': 0.0, 'lipoC3S3': 11.88, 'state': 'normal', 'rot1': 0, 'rot0': 0, 'rot3': 21, 'rot2': 31, 'depth': -1.59, 'yaw': -2.26, 'datetime': '2018-12-12 11:01:03.978923', 'mgs': 0, 'flw2': 0.0, 'flw1': 3.13, 'flw0': 0.32, 'time': 6.16, 'compass': 71.23, 'pitch': -2.09, 'roll': 2.74}
{'lipoC2': 7.98, 'temp': 0.0, 'lipoC3S3': 12.04, 'state': 'normal', 'rot1': 0, 'rot0': 0, 'rot3': 22, 'rot2': 32, 'depth': 1.92, 'yaw': -2.33, 'datetime': '2018-12-12 11:01:04.184647', 'mgs': 0, 'flw2': 0.0, 'flw1': 3.46, 'flw0': 0.0, 'time': 6.37, 'compass': 71.15, 'pitch': -1.38, 'roll': 2.79}
{'lipoC2': 7.96, 'temp': 0.0, 'lipoC3S3': 11.96, 'state': 'normal', 'rot1': 0, 'rot0': 0, 'rot3': 23, 'rot2': 34, 'depth': 2.072, 'yaw': -2.47, 'datetime': '2018-12-12 11:01:04.396626', 'mgs': 0, 'flw2': 0.0, 'flw1': 4.13, 'flw0': 0.0, 'time': 6.58, 'compass': 71.02, 'pitch': -1.15, 'roll': 2.69}
{'lipoC2': 7.94, 'temp': 0.0, 'lipoC3S3': 12.1, 'state': 'normal', 'rot1': 0, 'rot0': 0, 'rot3': 24, 'rot2': 35, 'depth': -0.293, 'yaw': -2.62, 'datetime': '2018-12-12 11:01:04.607484', 'mgs': 0, 'flw2': 0.34, 'flw1': 2.64, 'flw0': 0.28, 'time': 6.79, 'compass': 70.86, 'pitch': -1.5, 'roll': 2.42}
{'lipoC2': 8.24, 'temp': 0.0, 'lipoC3S3': 12.0, 'state': 'normal', 'rot1': 0, 'rot0': 0, 'rot3': 25, 'rot2': 36, 'depth': -1.59, 'yaw': -2.75, 'datetime': '2018-12-12 11:01:04.821140', 'mgs': 0, 'flw2': 0.0, 'flw1': 3.81, 'flw0': 0.0, 'time': 6.99, 'compass': 70.73, 'pitch': -2.05, 'roll': 2.29}
{'lipoC2': 8.25, 'temp': 0.0, 'lipoC3S3': 11.94, 'state': 'normal', 'rot1': 0, 'rot0': 0, 'rot3': 25, 'rot2': 37, 'depth': -1.361, 'yaw': -2.86, 'datetime': '2018-12-12 11:01:05.027363', 'mgs': 0, 'flw2': 0.0, 'flw1': 3.28, 'flw0': 0.0, 'time': 7.2, 'compass': 70.62, 'pitch': -2.19, 'roll': 2.28}
{'lipoC2': 7.99, 'temp': 0.0, 'lipoC3S3': 12.18, 'state': 'normal', 'rot1': 0, 'rot0': 0, 'rot3': 26, 'rot2': 38, 'depth': -0.674, 'yaw': -3.04, 'datetime': '2018-12-12 11:01:05.242603', 'mgs': 0, 'flw2': 0.0, 'flw1': 3.4, 'flw0': 0.0, 'time': 7.41, 'compass': 70.45, 'pitch': -2.09, 'roll': 2.27}
{'lipoC2': 7.99, 'temp': 0.0, 'lipoC3S3': 12.23, 'state': 'normal', 'rot1': 2, 'rot0': 0, 'rot3': 27, 'rot2': 39, 'depth': 0.241, 'yaw': -3.78, 'datetime': '2018-12-12 11:01:05.552916', 'mgs': 0, 'flw2': 0.43, 'flw1': 2.37, 'flw0': 1.39, 'time': 7.73, 'compass': 69.71, 'pitch': -1.66, 'roll': 2.56}
{'lipoC2': 7.92, 'temp': 0.0, 'lipoC3S3': 12.17, 'state': 'normal', 'rot1': 6, 'rot0': 1, 'rot3': 28, 'rot2': 41, 'depth': -0.674, 'yaw': -5.82, 'datetime': '2018-12-12 11:01:05.757040', 'mgs': 0, 'flw2': 0.43, 'flw1': 3.52, 'flw0': 2.39, 'time': 7.94, 'compass': 67.66, 'pitch': -1.23, 'roll': 2.72}
{'lipoC2': 8.24, 'temp': 0.0, 'lipoC3S3': 11.96, 'state': 'normal', 'rot1': 10, 'rot0': 3, 'rot3': 29, 'rot2': 42, 'depth': -0.598, 'yaw': -9.28, 'datetime': '2018-12-12 11:01:05.966496', 'mgs': 0, 'flw2': 0.46, 'flw1': 3.28, 'flw0': 2.67, 'time': 8.15, 'compass': 64.2, 'pitch': 0.01, 'roll': 2.67}
{'lipoC2': 8.26, 'temp': 0.0, 'lipoC3S3': 12.0, 'state': 'normal', 'rot1': 13, 'rot0': 4, 'rot3': 30, 'rot2': 43, 'depth': 1.004, 'yaw': -13.93, 'datetime': '2018-12-12 11:01:06.180232', 'mgs': 0, 'flw2': 0.32, 'flw1': 2.58, 'flw0': 0.11, 'time': 8.35, 'compass': 59.55, 'pitch': 1.83, 'roll': 2.6}
{'lipoC2': 7.93, 'temp': 0.0, 'lipoC3S3': 12.05, 'state': 'normal', 'rot1': 13, 'rot0': 4, 'rot3': 31, 'rot2': 44, 'depth': -0.293, 'yaw': -18.11, 'datetime': '2018-12-12 11:01:06.387686', 'mgs': 0, 'flw2': 0.0, 'flw1': 2.31, 'flw0': 0.0, 'time': 8.56, 'compass': 55.37, 'pitch': 1.05, 'roll': 2.9}
{'lipoC2': 8.26, 'temp': 0.0, 'lipoC3S3': 12.0, 'state': 'normal', 'rot1': 13, 'rot0': 4, 'rot3': 31, 'rot2': 45, 'depth': -1.361, 'yaw': -21.78, 'datetime': '2018-12-12 11:01:06.596152', 'mgs': 0, 'flw2': 0.0, 'flw1': 2.64, 'flw0': 0.0, 'time': 8.77, 'compass': 51.7, 'pitch': -1.11, 'roll': 3.13}
{'lipoC2': 7.99, 'temp': 0.0, 'lipoC3S3': 12.25, 'state': 'normal', 'rot1': 13, 'rot0': 4, 'rot3': 32, 'rot2': 46, 'depth': 1.157, 'yaw': -25.04, 'datetime': '2018-12-12 11:01:06.805523', 'mgs': 0, 'flw2': 0.33, 'flw1': 2.58, 'flw0': 0.09, 'time': 8.98, 'compass': 48.45, 'pitch': -2.06, 'roll': 3.08}
{'lipoC2': 7.93, 'temp': 0.0, 'lipoC3S3': 12.14, 'state': 'normal', 'rot1': 13, 'rot0': 4, 'rot3': 33, 'rot2': 47, 'depth': -0.598, 'yaw': -27.84, 'datetime': '2018-12-12 11:01:07.020353', 'mgs': 0, 'flw2': 0.0, 'flw1': 2.49, 'flw0': 0.0, 'time': 9.19, 'compass': 45.64, 'pitch': -1.85, 'roll': 3.03}
{'lipoC2': 8.17, 'temp': 0.0, 'lipoC3S3': 11.97, 'state': 'normal', 'rot1': 13, 'rot0': 4, 'rot3': 34, 'rot2': 48, 'depth': 2.606, 'yaw': -30.28, 'datetime': '2018-12-12 11:01:07.229899', 'mgs': 0, 'flw2': 0.0, 'flw1': 3.52, 'flw0': 0.0, 'time': 9.4, 'compass': 43.21, 'pitch': -1.78, 'roll': 3.44}
{'lipoC2': 7.92, 'temp': 0.0, 'lipoC3S3': 12.23, 'state': 'normal', 'rot1': 13, 'rot0': 4, 'rot3': 35, 'rot2': 49, 'depth': -0.522, 'yaw': -32.74, 'datetime': '2018-12-12 11:01:07.436388', 'mgs': 0, 'flw2': 0.29, 'flw1': 2.37, 'flw0': 0.32, 'time': 9.61, 'compass': 40.74, 'pitch': -2.29, 'roll': 4.31}
{'lipoC2': 7.96, 'temp': 0.0, 'lipoC3S3': 12.13, 'state': 'normal', 'rot1': 13, 'rot0': 4, 'rot3': 36, 'rot2': 50, 'depth': 1.462, 'yaw': -35.12, 'datetime': '2018-12-12 11:01:07.646357', 'mgs': 0, 'flw2': 0.0, 'flw1': 2.34, 'flw0': 0.0, 'time': 9.82, 'compass': 38.36, 'pitch': -3.28, 'roll': 5.09}
{'lipoC2': 8.25, 'temp': 0.0, 'lipoC3S3': 12.01, 'state': 'normal', 'rot1': 13, 'rot0': 4, 'rot3': 36, 'rot2': 51, 'depth': -0.98, 'yaw': -37.47, 'datetime': '2018-12-12 11:01:07.859104', 'mgs': 0, 'flw2': 0.0, 'flw1': 2.31, 'flw0': 0.0, 'time': 10.03, 'compass': 36.01, 'pitch': -3.43, 'roll': 5.39}
{'lipoC2': 7.93, 'temp': 0.0, 'lipoC3S3': 12.22, 'state': 'normal', 'rot1': 13, 'rot0': 4, 'rot3': 38, 'rot2': 53, 'depth': -0.522, 'yaw': -40.71, 'datetime': '2018-12-12 11:01:08.171721', 'mgs': 0, 'flw2': 0.0, 'flw1': 3.52, 'flw0': 0.0, 'time': 10.34, 'compass': 32.78, 'pitch': -2.05, 'roll': 5.61}
{'lipoC2': 8.23, 'temp': 0.0, 'lipoC3S3': 12.0, 'state': 'normal', 'rot1': 13, 'rot0': 4, 'rot3': 38, 'rot2': 54, 'depth': 0.089, 'yaw': -42.92, 'datetime': '2018-12-12 11:01:08.379164', 'mgs': 0, 'flw2': 0.0, 'flw1': 3.11, 'flw0': 0.0, 'time': 10.55, 'compass': 30.57, 'pitch': -1.62, 'roll': 5.78}
{'lipoC2': 7.99, 'temp': 0.0, 'lipoC3S3': 12.09, 'state': 'normal', 'rot1': 13, 'rot0': 4, 'rot3': 39, 'rot2': 55, 'depth': 1.843, 'yaw': -45.14, 'datetime': '2018-12-12 11:01:08.588902', 'mgs': 0, 'flw2': 0.31, 'flw1': 2.78, 'flw0': 0.27, 'time': 10.76, 'compass': 28.34, 'pitch': -1.85, 'roll': 5.69}
{'lipoC2': 8.26, 'temp': 0.0, 'lipoC3S3': 12.38, 'state': 'normal', 'rot1': 13, 'rot0': 4, 'rot3': 40, 'rot2': 56, 'depth': -0.751, 'yaw': -47.43, 'datetime': '2018-12-12 11:01:08.799250', 'mgs': 0, 'flw2': 0.4, 'flw1': 2.67, 'flw0': 0.22, 'time': 10.97, 'compass': 26.05, 'pitch': -2.21, 'roll': 5.43}
{'lipoC2': 8.21, 'temp': 0.0, 'lipoC3S3': 11.94, 'state': 'normal', 'rot1': 13, 'rot0': 6, 'rot3': 41, 'rot2': 57, 'depth': 2.301, 'yaw': -49.17, 'datetime': '2018-12-12 11:01:09.010753', 'mgs': 0, 'flw2': 4.44, 'flw1': 3.54, 'flw0': 0.0, 'time': 11.18, 'compass': 24.31, 'pitch': -1.65, 'roll': 5.24}
{'lipoC2': 8.08, 'temp': 0.0, 'lipoC3S3': 11.72, 'state': 'normal', 'rot1': 13, 'rot0': 10, 'rot3': 42, 'rot2': 58, 'depth': 1.996, 'yaw': -47.12, 'datetime': '2018-12-12 11:01:09.219922', 'mgs': 0, 'flw2': 4.35, 'flw1': 3.05, 'flw0': 0.0, 'time': 11.39, 'compass': 26.36, 'pitch': 1.36, 'roll': 5.27}
{'lipoC2': 7.93, 'temp': 0.0, 'lipoC3S3': 12.06, 'state': 'normal', 'rot1': 13, 'rot0': 12, 'rot3': 42, 'rot2': 59, 'depth': -0.446, 'yaw': -42.29, 'datetime': '2018-12-12 11:01:09.428173', 'mgs': 0, 'flw2': 1.82, 'flw1': 2.43, 'flw0': 2.22, 'time': 11.6, 'compass': 31.19, 'pitch': 4.1, 'roll': 5.17}
{'lipoC2': 8.0, 'temp': 0.0, 'lipoC3S3': 11.81, 'state': 'normal', 'rot1': 16, 'rot0': 14, 'rot3': 43, 'rot2': 60, 'depth': 2.682, 'yaw': -37.7, 'datetime': '2018-12-12 11:01:09.640618', 'mgs': 0, 'flw2': 1.62, 'flw1': 2.9, 'flw0': 1.68, 'time': 11.81, 'compass': 35.78, 'pitch': 5.19, 'roll': 4.69}
{'lipoC2': 8.11, 'temp': 0.0, 'lipoC3S3': 11.81, 'state': 'normal', 'rot1': 19, 'rot0': 16, 'rot3': 44, 'rot2': 61, 'depth': 1.157, 'yaw': -35.27, 'datetime': '2018-12-12 11:01:09.851654', 'mgs': 0, 'flw2': 1.5, 'flw1': 3.31, 'flw0': 5.2, 'time': 12.02, 'compass': 38.21, 'pitch': 4.83, 'roll': 4.26}
{'lipoC2': 8.27, 'temp': 0.0, 'lipoC3S3': 11.88, 'state': 'normal', 'rot1': 23, 'rot0': 19, 'rot3': 45, 'rot2': 62, 'depth': -0.674, 'yaw': -35.74, 'datetime': '2018-12-12 11:01:10.061352', 'mgs': 0, 'flw2': 4.59, 'flw1': 3.34, 'flw0': 5.02, 'time': 12.23, 'compass': 37.74, 'pitch': 4.76, 'roll': 3.81}
{'lipoC2': 8.11, 'temp': 0.0, 'lipoC3S3': 11.83, 'state': 'normal', 'rot1': 26, 'rot0': 22, 'rot3': 46, 'rot2': 63, 'depth': 0.089, 'yaw': -36.82, 'datetime': '2018-12-12 11:01:10.273632', 'mgs': 0, 'flw2': 4.76, 'flw1': 3.4, 'flw0': 0.0, 'time': 12.44, 'compass': 36.66, 'pitch': 5.34, 'roll': 3.35}
{'lipoC2': 7.97, 'temp': 0.0, 'lipoC3S3': 12.3, 'state': 'normal', 'rot1': 26, 'rot0': 25, 'rot3': 46, 'rot2': 64, 'depth': 0.546, 'yaw': -34.51, 'datetime': '2018-12-12 11:01:10.482414', 'mgs': 0, 'flw2': 6.01, 'flw1': 2.7, 'flw0': 0.27, 'time': 12.65, 'compass': 38.97, 'pitch': 4.45, 'roll': 3.0}
{'lipoC2': 7.99, 'temp': 0.0, 'lipoC3S3': 12.12, 'state': 'normal', 'rot1': 27, 'rot0': 28, 'rot3': 47, 'rot2': 65, 'depth': 0.47, 'yaw': -28.77, 'datetime': '2018-12-12 11:01:10.689616', 'mgs': 0, 'flw2': 4.63, 'flw1': 2.29, 'flw0': 1.6, 'time': 12.86, 'compass': 44.71, 'pitch': 3.16, 'roll': 3.09}
{'lipoC2': 7.98, 'temp': 0.0, 'lipoC3S3': 11.58, 'state': 'normal', 'rot1': 29, 'rot0': 31, 'rot3': 48, 'rot2': 66, 'depth': 2.454, 'yaw': -22.03, 'datetime': '2018-12-12 11:01:10.900397', 'mgs': 0, 'flw2': 4.09, 'flw1': 2.61, 'flw0': 2.95, 'time': 13.07, 'compass': 51.45, 'pitch': 3.14, 'roll': 3.94}
{'lipoC2': 7.97, 'temp': 0.0, 'lipoC3S3': 11.97, 'state': 'normal', 'rot1': 32, 'rot0': 35, 'rot3': 49, 'rot2': 67, 'depth': 2.148, 'yaw': -16.93, 'datetime': '2018-12-12 11:01:11.111180', 'mgs': 0, 'flw2': 4.24, 'flw1': 2.7, 'flw0': 3.15, 'time': 13.28, 'compass': 56.55, 'pitch': 4.77, 'roll': 4.73}
{'lipoC2': 8.26, 'temp': 0.0, 'lipoC3S3': 11.73, 'state': 'normal', 'rot1': 36, 'rot0': 38, 'rot3': 49, 'rot2': 68, 'depth': -1.208, 'yaw': -13.29, 'datetime': '2018-12-12 11:01:11.320538', 'mgs': 0, 'flw2': 4.08, 'flw1': 3.4, 'flw0': 3.15, 'time': 13.49, 'compass': 60.2, 'pitch': 5.99, 'roll': 5.09}
{'lipoC2': 8.0, 'temp': 0.0, 'lipoC3S3': 11.76, 'state': 'normal', 'rot1': 39, 'rot0': 41, 'rot3': 50, 'rot2': 69, 'depth': 3.522, 'yaw': -10.41, 'datetime': '2018-12-12 11:01:11.530727', 'mgs': 0, 'flw2': 4.37, 'flw1': 2.93, 'flw0': 3.08, 'time': 13.7, 'compass': 63.07, 'pitch': 5.66, 'roll': 5.76}
{'lipoC2': 7.97, 'temp': 0.0, 'lipoC3S3': 11.97, 'state': 'normal', 'rot1': 42, 'rot0': 44, 'rot3': 51, 'rot2': 71, 'depth': 3.14, 'yaw': -7.98, 'datetime': '2018-12-12 11:01:11.743411', 'mgs': 0, 'flw2': 4.32, 'flw1': 2.34, 'flw0': 3.48, 'time': 13.91, 'compass': 65.5, 'pitch': 4.92, 'roll': 6.32}
{'lipoC2': 7.94, 'temp': 0.0, 'lipoC3S3': 12.17, 'state': 'normal', 'rot1': 45, 'rot0': 46, 'rot3': 52, 'rot2': 72, 'depth': -0.598, 'yaw': -5.63, 'datetime': '2018-12-12 11:01:11.952307', 'mgs': 0, 'flw2': 4.6, 'flw1': 2.52, 'flw0': 0.31, 'time': 14.12, 'compass': 67.86, 'pitch': 4.83, 'roll': 6.43}
{'lipoC2': 8.0, 'temp': 0.0, 'lipoC3S3': 12.05, 'state': 'normal', 'rot1': 45, 'rot0': 48, 'rot3': 53, 'rot2': 73, 'depth': 1.92, 'yaw': -1.63, 'datetime': '2018-12-12 11:01:12.161648', 'mgs': 0, 'flw2': 0.0, 'flw1': 2.4, 'flw0': 0.11, 'time': 14.33, 'compass': 71.85, 'pitch': 4.07, 'roll': 6.19}
{'lipoC2': 8.25, 'temp': 0.0, 'lipoC3S3': 11.98, 'state': 'normal', 'rot1': 45, 'rot0': 48, 'rot3': 53, 'rot2': 74, 'depth': -1.056, 'yaw': 1.63, 'datetime': '2018-12-12 11:01:12.375123', 'mgs': 0, 'flw2': 0.0, 'flw1': 2.37, 'flw0': 0.0, 'time': 14.54, 'compass': 75.12, 'pitch': 2.04, 'roll': 5.95}
{'lipoC2': 7.94, 'temp': 0.0, 'lipoC3S3': 12.13, 'state': 'normal', 'rot1': 45, 'rot0': 48, 'rot3': 54, 'rot2': 75, 'depth': 0.089, 'yaw': 4.45, 'datetime': '2018-12-12 11:01:12.581727', 'mgs': 0, 'flw2': 0.0, 'flw1': 2.37, 'flw0': 0.0, 'time': 14.75, 'compass': 77.93, 'pitch': 0.82, 'roll': 6.2}
{'lipoC2': 7.93, 'temp': 0.0, 'lipoC3S3': 12.16, 'state': 'normal', 'rot1': 45, 'rot0': 48, 'rot3': 55, 'rot2': 76, 'depth': -0.446, 'yaw': 7.09, 'datetime': '2018-12-12 11:01:12.790994', 'mgs': 0, 'flw2': 0.1, 'flw1': 1.49, 'flw0': 0.28, 'time': 14.96, 'compass': 80.57, 'pitch': 0.33, 'roll': 6.74}
{'lipoC2': 8.23, 'temp': 0.0, 'lipoC3S3': 11.94, 'state': 'normal', 'rot1': 45, 'rot0': 48, 'rot3': 55, 'rot2': 76, 'depth': 0.317, 'yaw': 9.69, 'datetime': '2018-12-12 11:01:13.001928', 'mgs': 0, 'flw2': 0.0, 'flw1': 1.55, 'flw0': 0.0, 'time': 15.17, 'compass': 83.17, 'pitch': -0.66, 'roll': 7.64}
{'lipoC2': 8.2, 'temp': 0.0, 'lipoC3S3': 11.97, 'state': 'normal', 'rot1': 45, 'rot0': 48, 'rot3': 56, 'rot2': 77, 'depth': 2.53, 'yaw': 12.11, 'datetime': '2018-12-12 11:01:13.210562', 'mgs': 0, 'flw2': 0.0, 'flw1': 2.72, 'flw0': 0.0, 'time': 15.38, 'compass': 85.6, 'pitch': -2.21, 'roll': 8.5}
{'lipoC2': 7.95, 'temp': 0.0, 'lipoC3S3': 12.37, 'state': 'normal', 'rot1': 45, 'rot0': 48, 'rot3': 57, 'rot2': 78, 'depth': -0.674, 'yaw': 14.47, 'datetime': '2018-12-12 11:01:13.422699', 'mgs': 0, 'flw2': 0.0, 'flw1': 1.32, 'flw0': 0.0, 'time': 15.59, 'compass': 87.95, 'pitch': -3.28, 'roll': 9.08}
{'lipoC2': 7.93, 'temp': 0.0, 'lipoC3S3': 12.25, 'state': 'normal', 'rot1': 45, 'rot0': 48, 'rot3': 57, 'rot2': 79, 'depth': -0.598, 'yaw': 16.78, 'datetime': '2018-12-12 11:01:13.634292', 'mgs': 0, 'flw2': 0.27, 'flw1': 1.55, 'flw0': 0.31, 'time': 15.8, 'compass': 90.26, 'pitch': -3.05, 'roll': 9.22}
{'lipoC2': 7.93, 'temp': 0.0, 'lipoC3S3': 12.22, 'state': 'normal', 'rot1': 45, 'rot0': 48, 'rot3': 58, 'rot2': 80, 'depth': 0.47, 'yaw': 18.96, 'datetime': '2018-12-12 11:01:13.845849', 'mgs': 0, 'flw2': 0.01, 'flw1': 1.46, 'flw0': 0.24, 'time': 16.01, 'compass': 92.44, 'pitch': -2.25, 'roll': 9.03}
{'lipoC2': 8.13, 'temp': 0.0, 'lipoC3S3': 11.88, 'state': 'normal', 'rot1': 45, 'rot0': 48, 'rot3': 59, 'rot2': 81, 'depth': -0.064, 'yaw': 21.12, 'datetime': '2018-12-12 11:01:14.055496', 'mgs': 0, 'flw2': 0.0, 'flw1': 3.11, 'flw0': 0.0, 'time': 16.22, 'compass': 94.6, 'pitch': -1.64, 'roll': 8.69}
{'lipoC2': 7.97, 'temp': 0.0, 'lipoC3S3': 12.06, 'state': 'normal', 'rot1': 45, 'rot0': 48, 'rot3': 60, 'rot2': 82, 'depth': 0.165, 'yaw': 23.08, 'datetime': '2018-12-12 11:01:14.264150', 'mgs': 0, 'flw2': 0.0, 'flw1': 3.34, 'flw0': 0.0, 'time': 16.43, 'compass': 96.57, 'pitch': -0.69, 'roll': 8.17}
{'lipoC2': 7.93, 'temp': 0.0, 'lipoC3S3': 12.25, 'state': 'normal', 'rot1': 45, 'rot0': 48, 'rot3': 60, 'rot2': 83, 'depth': -0.14, 'yaw': 24.88, 'datetime': '2018-12-12 11:01:14.475673', 'mgs': 0, 'flw2': 0.1, 'flw1': 2.34, 'flw0': 0.29, 'time': 16.64, 'compass': 98.36, 'pitch': 0.79, 'roll': 7.5}
{'lipoC2': 8.14, 'temp': 0.0, 'lipoC3S3': 11.88, 'state': 'normal', 'rot1': 45, 'rot0': 48, 'rot3': 61, 'rot2': 84, 'depth': 0.012, 'yaw': 26.42, 'datetime': '2018-12-12 11:01:14.687278', 'mgs': 0, 'flw2': 0.29, 'flw1': 2.52, 'flw0': 0.18, 'time': 16.85, 'compass': 99.9, 'pitch': 2.23, 'roll': 6.7}
{'lipoC2': 8.0, 'temp': 0.0, 'lipoC3S3': 12.3, 'state': 'normal', 'rot1': 45, 'rot0': 48, 'rot3': 62, 'rot2': 85, 'depth': 0.775, 'yaw': 27.74, 'datetime': '2018-12-12 11:01:14.898122', 'mgs': 0, 'flw2': 0.0, 'flw1': 2.14, 'flw0': 0.0, 'time': 17.06, 'compass': 101.22, 'pitch': 2.96, 'roll': 5.97}
{'lipoC2': 7.97, 'temp': 0.0, 'lipoC3S3': 11.93, 'state': 'normal', 'rot1': 45, 'rot0': 48, 'rot3': 63, 'rot2': 86, 'depth': 2.072, 'yaw': 28.95, 'datetime': '2018-12-12 11:01:15.108608', 'mgs': 0, 'flw2': 0.0, 'flw1': 2.14, 'flw0': 0.1, 'time': 17.26, 'compass': 102.44, 'pitch': 3.15, 'roll': 5.62}
{'lipoC2': 8.1, 'temp': 0.0, 'lipoC3S3': 11.8, 'state': 'normal', 'rot1': 45, 'rot0': 48, 'rot3': 64, 'rot2': 87, 'depth': 1.309, 'yaw': 30.05, 'datetime': '2018-12-12 11:01:15.312074', 'mgs': 0, 'flw2': 0.0, 'flw1': 3.37, 'flw0': 0.0, 'time': 17.47, 'compass': 103.53, 'pitch': 3.25, 'roll': 5.67}
{'lipoC2': 8.12, 'temp': 0.0, 'lipoC3S3': 11.87, 'state': 'normal', 'rot1': 45, 'rot0': 48, 'rot3': 64, 'rot2': 88, 'depth': -0.369, 'yaw': 31.03, 'datetime': '2018-12-12 11:01:15.526102', 'mgs': 0, 'flw2': 0.28, 'flw1': 2.78, 'flw0': 0.28, 'time': 17.68, 'compass': 104.51, 'pitch': 3.04, 'roll': 5.78}
{'lipoC2': 7.98, 'temp': 0.0, 'lipoC3S3': 11.83, 'state': 'normal', 'rot1': 45, 'rot0': 48, 'rot3': 65, 'rot2': 89, 'depth': 2.454, 'yaw': 31.96, 'datetime': '2018-12-12 11:01:15.736131', 'mgs': 0, 'flw2': 0.0, 'flw1': 3.43, 'flw0': 0.0, 'time': 17.89, 'compass': 105.44, 'pitch': 2.55, 'roll': 6.02}
{'lipoC2': 7.94, 'temp': 0.0, 'lipoC3S3': 12.3, 'state': 'normal', 'rot1': 45, 'rot0': 48, 'rot3': 66, 'rot2': 90, 'depth': -0.446, 'yaw': 32.79, 'datetime': '2018-12-12 11:01:15.946471', 'mgs': 0, 'flw2': 0.0, 'flw1': 2.58, 'flw0': 0.0, 'time': 18.1, 'compass': 106.28, 'pitch': 2.09, 'roll': 6.52}
{'lipoC2': 8.17, 'temp': 0.0, 'lipoC3S3': 11.96, 'state': 'normal', 'rot1': 45, 'rot0': 48, 'rot3': 67, 'rot2': 91, 'depth': -0.522, 'yaw': 33.56, 'datetime': '2018-12-12 11:01:16.157007', 'mgs': 0, 'flw2': 0.0, 'flw1': 2.34, 'flw0': 0.0, 'time': 18.31, 'compass': 107.04, 'pitch': 1.44, 'roll': 7.07}
{'lipoC2': 8.0, 'temp': 0.0, 'lipoC3S3': 12.27, 'state': 'normal', 'rot1': 45, 'rot0': 48, 'rot3': 68, 'rot2': 93, 'depth': -0.751, 'yaw': 34.22, 'datetime': '2018-12-12 11:01:16.364760', 'mgs': 0, 'flw2': 0.21, 'flw1': 2.46, 'flw0': 0.0, 'time': 18.52, 'compass': 107.7, 'pitch': 0.58, 'roll': 7.37}
{'lipoC2': 8.14, 'temp': 0.0, 'lipoC3S3': 11.87, 'state': 'normal', 'rot1': 45, 'rot0': 48, 'rot3': 68, 'rot2': 94, 'depth': 0.546, 'yaw': 34.9, 'datetime': '2018-12-12 11:01:16.571795', 'mgs': 0, 'flw2': 0.24, 'flw1': 2.52, 'flw0': 0.32, 'time': 18.73, 'compass': 108.38, 'pitch': 0.39, 'roll': 7.57}
{'lipoC2': 7.97, 'temp': 0.0, 'lipoC3S3': 11.96, 'state': 'normal', 'rot1': 45, 'rot0': 48, 'rot3': 69, 'rot2': 95, 'depth': -0.293, 'yaw': 35.64, 'datetime': '2018-12-12 11:01:16.780019', 'mgs': 0, 'flw2': 0.0, 'flw1': 2.26, 'flw0': 0.0, 'time': 18.94, 'compass': 109.12, 'pitch': 1.16, 'roll': 8.05}
{'lipoC2': 7.94, 'temp': 0.0, 'lipoC3S3': 12.33, 'state': 'normal', 'rot1': 45, 'rot0': 48, 'rot3': 70, 'rot2': 96, 'depth': -0.674, 'yaw': 36.32, 'datetime': '2018-12-12 11:01:16.991038', 'mgs': 0, 'flw2': 0.0, 'flw1': 2.17, 'flw0': 0.28, 'time': 19.15, 'compass': 109.8, 'pitch': 1.79, 'roll': 8.57}
{'lipoC2': 8.09, 'temp': 0.0, 'lipoC3S3': 11.93, 'state': 'normal', 'rot1': 45, 'rot0': 48, 'rot3': 71, 'rot2': 97, 'depth': -0.293, 'yaw': 36.94, 'datetime': '2018-12-12 11:01:17.201352', 'mgs': 0, 'flw2': 0.02, 'flw1': 2.02, 'flw0': 0.28, 'time': 19.36, 'compass': 110.42, 'pitch': 1.91, 'roll': 8.72}
{'lipoC2': 8.1, 'temp': 0.0, 'lipoC3S3': 11.94, 'state': 'normal', 'rot1': 45, 'rot0': 48, 'rot3': 72, 'rot2': 98, 'depth': -0.293, 'yaw': 37.57, 'datetime': '2018-12-12 11:01:17.415219', 'mgs': 0, 'flw2': 0.33, 'flw1': 2.43, 'flw0': 0.15, 'time': 19.57, 'compass': 111.05, 'pitch': 2.45, 'roll': 8.66}
{'lipoC2': 7.97, 'temp': 0.0, 'lipoC3S3': 11.92, 'state': 'normal', 'rot1': 45, 'rot0': 48, 'rot3': 72, 'rot2': 99, 'depth': 2.606, 'yaw': 38.19, 'datetime': '2018-12-12 11:01:17.623175', 'mgs': 0, 'flw2': 0.0, 'flw1': 2.26, 'flw0': 0.15, 'time': 19.78, 'compass': 111.67, 'pitch': 3.28, 'roll': 8.36}
{'lipoC2': 7.93, 'temp': 0.0, 'lipoC3S3': 12.14, 'state': 'normal', 'rot1': 45, 'rot0': 48, 'rot3': 73, 'rot2': 100, 'depth': 0.394, 'yaw': 38.85, 'datetime': '2018-12-12 11:01:17.834366', 'mgs': 0, 'flw2': 0.0, 'flw1': 1.9, 'flw0': 0.13, 'time': 19.99, 'compass': 112.34, 'pitch': 3.7, 'roll': 7.98}
{'lipoC2': 8.07, 'temp': 0.0, 'lipoC3S3': 11.85, 'state': 'normal', 'rot1': 45, 'rot0': 48, 'rot3': 74, 'rot2': 101, 'depth': 1.614, 'yaw': 39.39, 'datetime': '2018-12-12 11:01:18.045393', 'mgs': 0, 'flw2': 0.0, 'flw1': 3.46, 'flw0': 0.0, 'time': 20.2, 'compass': 112.87, 'pitch': 3.48, 'roll': 7.67}
{'lipoC2': 7.91, 'temp': 0.0, 'lipoC3S3': 12.18, 'state': 'normal', 'rot1': 45, 'rot0': 48, 'rot3': 75, 'rot2': 103, 'depth': 0.241, 'yaw': 39.79, 'datetime': '2018-12-12 11:01:18.253506', 'mgs': 0, 'flw2': 0.0, 'flw1': 3.4, 'flw0': 0.0, 'time': 20.41, 'compass': 113.27, 'pitch': 3.16, 'roll': 7.53}
{'lipoC2': 8.27, 'temp': 0.0, 'lipoC3S3': 11.93, 'state': 'normal', 'rot1': 45, 'rot0': 48, 'rot3': 76, 'rot2': 104, 'depth': -1.208, 'yaw': 40.2, 'datetime': '2018-12-12 11:01:18.463288', 'mgs': 0, 'flw2': 0.1, 'flw1': 2.31, 'flw0': 0.37, 'time': 20.62, 'compass': 113.68, 'pitch': 3.33, 'roll': 7.69}
{'lipoC2': 8.14, 'temp': 0.0, 'lipoC3S3': 11.88, 'state': 'normal', 'rot1': 45, 'rot0': 48, 'rot3': 76, 'rot2': 105, 'depth': 0.546, 'yaw': 40.65, 'datetime': '2018-12-12 11:01:18.674143', 'mgs': 0, 'flw2': 0.0, 'flw1': 3.49, 'flw0': 0.0, 'time': 20.83, 'compass': 114.13, 'pitch': 3.36, 'roll': 8.04}
{'lipoC2': 7.96, 'temp': 0.0, 'lipoC3S3': 12.31, 'state': 'normal', 'rot1': 45, 'rot0': 48, 'rot3': 77, 'rot2': 106, 'depth': -0.522, 'yaw': 41.09, 'datetime': '2018-12-12 11:01:18.885872', 'mgs': 0, 'flw2': 0.04, 'flw1': 2.05, 'flw0': 0.0, 'time': 21.04, 'compass': 114.58, 'pitch': 2.83, 'roll': 8.23}
{'lipoC2': 7.96, 'temp': 0.0, 'lipoC3S3': 12.35, 'state': 'normal', 'rot1': 45, 'rot0': 48, 'rot3': 78, 'rot2': 107, 'depth': -0.446, 'yaw': 41.49, 'datetime': '2018-12-12 11:01:19.096345', 'mgs': 0, 'flw2': 0.0, 'flw1': 2.67, 'flw0': 0.0, 'time': 21.25, 'compass': 114.98, 'pitch': 2.1, 'roll': 8.11}
{'lipoC2': 8.04, 'temp': 0.0, 'lipoC3S3': 12.02, 'state': 'normal', 'rot1': 45, 'rot0': 48, 'rot3': 79, 'rot2': 108, 'depth': -0.293, 'yaw': 41.9, 'datetime': '2018-12-12 11:01:19.307310', 'mgs': 0, 'flw2': 0.04, 'flw1': 2.17, 'flw0': 0.16, 'time': 21.46, 'compass': 115.38, 'pitch': 2.12, 'roll': 7.76}
{'lipoC2': 7.97, 'temp': 0.0, 'lipoC3S3': 11.9, 'state': 'normal', 'rot1': 45, 'rot0': 48, 'rot3': 79, 'rot2': 109, 'depth': -0.14, 'yaw': 42.25, 'datetime': '2018-12-12 11:01:19.518089', 'mgs': 0, 'flw2': 0.0, 'flw1': 3.69, 'flw0': 0.0, 'time': 21.67, 'compass': 115.73, 'pitch': 2.46, 'roll': 7.65}
{'lipoC2': 7.95, 'temp': 0.0, 'lipoC3S3': 12.34, 'state': 'normal', 'rot1': 45, 'rot0': 48, 'rot3': 80, 'rot2': 110, 'depth': -0.598, 'yaw': 42.6, 'datetime': '2018-12-12 11:01:19.730755', 'mgs': 0, 'flw2': 0.32, 'flw1': 2.55, 'flw0': 0.22, 'time': 21.88, 'compass': 116.08, 'pitch': 2.83, 'roll': 7.64}
{'lipoC2': 7.93, 'temp': 0.0, 'lipoC3S3': 12.26, 'state': 'normal', 'rot1': 45, 'rot0': 48, 'rot3': 81, 'rot2': 111, 'depth': -0.217, 'yaw': 42.93, 'datetime': '2018-12-12 11:01:19.940044', 'mgs': 0, 'flw2': 0.0, 'flw1': 2.29, 'flw0': 0.0, 'time': 22.09, 'compass': 116.41, 'pitch': 3.14, 'roll': 7.59}
{'lipoC2': 7.95, 'temp': 0.0, 'lipoC3S3': 12.34, 'state': 'normal', 'rot1': 45, 'rot0': 48, 'rot3': 82, 'rot2': 112, 'depth': -0.14, 'yaw': 43.24, 'datetime': '2018-12-12 11:01:20.146657', 'mgs': 0, 'flw2': 0.0, 'flw1': 3.16, 'flw0': 0.0, 'time': 22.3, 'compass': 116.72, 'pitch': 3.3, 'roll': 7.33}
{'lipoC2': 7.96, 'temp': 0.0, 'lipoC3S3': 12.29, 'state': 'normal', 'rot1': 45, 'rot0': 48, 'rot3': 83, 'rot2': 114, 'depth': -0.522, 'yaw': 43.45, 'datetime': '2018-12-12 11:01:20.358722', 'mgs': 0, 'flw2': 0.27, 'flw1': 2.49, 'flw0': 0.0, 'time': 22.51, 'compass': 116.93, 'pitch': 3.14, 'roll': 7.04}
{'lipoC2': 8.01, 'temp': 0.0, 'lipoC3S3': 11.81, 'state': 'normal', 'rot1': 45, 'rot0': 48, 'rot3': 83, 'rot2': 115, 'depth': 2.301, 'yaw': 43.5, 'datetime': '2018-12-12 11:01:20.570979', 'mgs': 0, 'flw2': 0.0, 'flw1': 2.9, 'flw0': 0.0, 'time': 22.72, 'compass': 116.98, 'pitch': 2.79, 'roll': 6.79}
{'lipoC2': 7.95, 'temp': 0.0, 'lipoC3S3': 12.37, 'state': 'normal', 'rot1': 45, 'rot0': 48, 'rot3': 84, 'rot2': 116, 'depth': -0.598, 'yaw': 43.63, 'datetime': '2018-12-12 11:01:20.781417', 'mgs': 0, 'flw2': 0.0, 'flw1': 3.08, 'flw0': 0.0, 'time': 22.93, 'compass': 117.11, 'pitch': 2.9, 'roll': 6.78}
{'lipoC2': 8.04, 'temp': 0.0, 'lipoC3S3': 11.85, 'state': 'normal', 'rot1': 45, 'rot0': 48, 'rot3': 85, 'rot2': 117, 'depth': 2.377, 'yaw': 43.76, 'datetime': '2018-12-12 11:01:20.991372', 'mgs': 0, 'flw2': 0.0, 'flw1': 2.9, 'flw0': 0.0, 'time': 23.14, 'compass': 117.25, 'pitch': 3.6, 'roll': 6.78}
{'lipoC2': 8.24, 'temp': 0.0, 'lipoC3S3': 11.98, 'state': 'normal', 'rot1': 45, 'rot0': 48, 'rot3': 86, 'rot2': 118, 'depth': 1.843, 'yaw': 43.76, 'datetime': '2018-12-12 11:01:21.199603', 'mgs': 0, 'flw2': 0.0, 'flw1': 3.54, 'flw0': 0.0, 'time': 23.35, 'compass': 117.24, 'pitch': 3.93, 'roll': 6.76}
{'lipoC2': 8.01, 'temp': 0.0, 'lipoC3S3': 11.84, 'state': 'normal', 'rot1': 45, 'rot0': 48, 'rot3': 87, 'rot2': 119, 'depth': 2.377, 'yaw': 43.78, 'datetime': '2018-12-12 11:01:21.409051', 'mgs': 0, 'flw2': 0.0, 'flw1': 3.11, 'flw0': 0.0, 'time': 23.56, 'compass': 117.26, 'pitch': 3.48, 'roll': 6.86}
{'lipoC2': 8.1, 'temp': 0.0, 'lipoC3S3': 12.02, 'state': 'normal', 'rot1': 45, 'rot0': 48, 'rot3': 87, 'rot2': 120, 'depth': -0.446, 'yaw': 43.76, 'datetime': '2018-12-12 11:01:21.622518', 'mgs': 0, 'flw2': 0.15, 'flw1': 2.49, 'flw0': 0.22, 'time': 23.77, 'compass': 117.24, 'pitch': 3.11, 'roll': 7.26}
{'lipoC2': 8.0, 'temp': 0.0, 'lipoC3S3': 11.85, 'state': 'normal', 'rot1': 45, 'rot0': 48, 'rot3': 88, 'rot2': 121, 'depth': -0.217, 'yaw': 43.77, 'datetime': '2018-12-12 11:01:21.834922', 'mgs': 0, 'flw2': 0.0, 'flw1': 2.72, 'flw0': 0.0, 'time': 23.98, 'compass': 117.25, 'pitch': 3.15, 'roll': 7.6}
{'lipoC2': 8.0, 'temp': 0.0, 'lipoC3S3': 11.65, 'state': 'normal', 'rot1': 46, 'rot0': 49, 'rot3': 89, 'rot2': 123, 'depth': 2.225, 'yaw': 43.74, 'datetime': '2018-12-12 11:01:22.043005', 'mgs': 0, 'flw2': 4.65, 'flw1': 3.31, 'flw0': 6.3, 'time': 24.19, 'compass': 117.22, 'pitch': 3.34, 'roll': 7.61}
{'lipoC2': 8.13, 'temp': 0.0, 'lipoC3S3': 11.76, 'state': 'normal', 'rot1': 50, 'rot0': 51, 'rot3': 90, 'rot2': 124, 'depth': 0.47, 'yaw': 42.83, 'datetime': '2018-12-12 11:01:22.256649', 'mgs': 0, 'flw2': 5.8, 'flw1': 2.4, 'flw0': 6.43, 'time': 24.4, 'compass': 116.31, 'pitch': 6.04, 'roll': 7.64}
{'lipoC2': 7.94, 'temp': 0.0, 'lipoC3S3': 12.04, 'state': 'normal', 'rot1': 55, 'rot0': 56, 'rot3': 91, 'rot2': 125, 'depth': 1.462, 'yaw': 41.37, 'datetime': '2018-12-12 11:01:22.463322', 'mgs': 0, 'flw2': 8.72, 'flw1': 2.43, 'flw0': 6.4, 'time': 24.61, 'compass': 114.85, 'pitch': 10.75, 'roll': 8.04}
{'lipoC2': 8.24, 'temp': 0.0, 'lipoC3S3': 12.06, 'state': 'normal', 'rot1': 58, 'rot0': 59, 'rot3': 91, 'rot2': 126, 'depth': -0.674, 'yaw': 41.0, 'datetime': '2018-12-12 11:01:22.676324', 'mgs': 0, 'flw2': 8.53, 'flw1': 2.43, 'flw0': 4.9, 'time': 24.83, 'compass': 114.48, 'pitch': 13.89, 'roll': 8.29}
{'lipoC2': 7.99, 'temp': 0.0, 'lipoC3S3': 11.69, 'state': 'normal', 'rot1': 61, 'rot0': 63, 'rot3': 92, 'rot2': 127, 'depth': 2.606, 'yaw': 41.86, 'datetime': '2018-12-12 11:01:22.885213', 'mgs': 0, 'flw2': 9.13, 'flw1': 3.4, 'flw0': 1.92, 'time': 25.04, 'compass': 115.35, 'pitch': 14.09, 'roll': 7.75}
{'lipoC2': 7.99, 'temp': 0.0, 'lipoC3S3': 11.63, 'state': 'normal', 'rot1': 64, 'rot0': 68, 'rot3': 93, 'rot2': 128, 'depth': 3.14, 'yaw': 45.84, 'datetime': '2018-12-12 11:01:23.094371', 'mgs': 0, 'flw2': 9.28, 'flw1': 3.37, 'flw0': 1.87, 'time': 25.25, 'compass': 119.32, 'pitch': 12.77, 'roll': 6.54}
{'lipoC2': 8.25, 'temp': 0.0, 'lipoC3S3': 11.87, 'state': 'normal', 'rot1': 66, 'rot0': 73, 'rot3': 94, 'rot2': 129, 'depth': 1.462, 'yaw': 51.72, 'datetime': '2018-12-12 11:01:23.304723', 'mgs': 0, 'flw2': 9.52, 'flw1': 2.58, 'flw0': 1.84, 'time': 25.45, 'compass': 125.2, 'pitch': 12.37, 'roll': 5.33}
{'lipoC2': 7.99, 'temp': 0.0, 'lipoC3S3': 12.08, 'state': 'normal', 'rot1': 69, 'rot0': 77, 'rot3': 94, 'rot2': 130, 'depth': 0.47, 'yaw': 58.88, 'datetime': '2018-12-12 11:01:23.516063', 'mgs': 0, 'flw2': 9.13, 'flw1': 2.58, 'flw0': 5.14, 'time': 25.67, 'compass': 132.37, 'pitch': 12.94, 'roll': 4.3}
{'lipoC2': 7.97, 'temp': 0.0, 'lipoC3S3': 11.69, 'state': 'normal', 'rot1': 72, 'rot0': 81, 'rot3': 95, 'rot2': 131, 'depth': 2.606, 'yaw': 65.06, 'datetime': '2018-12-12 11:01:23.727782', 'mgs': 0, 'flw2': 9.55, 'flw1': 2.84, 'flw0': 4.88, 'time': 25.88, 'compass': 138.54, 'pitch': 14.13, 'roll': 3.98}
{'lipoC2': 8.02, 'temp': 0.0, 'lipoC3S3': 11.56, 'state': 'normal', 'rot1': 76, 'rot0': 85, 'rot3': 96, 'rot2': 132, 'depth': 3.445, 'yaw': 70.65, 'datetime': '2018-12-12 11:01:23.938243', 'mgs': 0, 'flw2': 9.53, 'flw1': 3.37, 'flw0': 4.99, 'time': 26.09, 'compass': 144.13, 'pitch': 14.82, 'roll': 4.29}
{'lipoC2': 8.05, 'temp': 0.0, 'lipoC3S3': 11.71, 'state': 'normal', 'rot1': 80, 'rot0': 89, 'rot3': 97, 'rot2': 133, 'depth': 2.454, 'yaw': 76.09, 'datetime': '2018-12-12 11:01:24.148344', 'mgs': 0, 'flw2': 9.53, 'flw1': 3.54, 'flw0': 5.26, 'time': 26.3, 'compass': 149.57, 'pitch': 14.89, 'roll': 4.73}
{'lipoC2': 8.19, 'temp': 0.0, 'lipoC3S3': 11.89, 'state': 'normal', 'rot1': 85, 'rot0': 93, 'rot3': 97, 'rot2': 134, 'depth': 0.241, 'yaw': 81.31, 'datetime': '2018-12-12 11:01:24.357425', 'mgs': 0, 'flw2': 9.72, 'flw1': 2.58, 'flw0': 7.32, 'time': 26.51, 'compass': 154.79, 'pitch': 14.61, 'roll': 5.2}
{'lipoC2': 8.06, 'temp': 0.0, 'lipoC3S3': 12.12, 'state': 'normal', 'rot1': 90, 'rot0': 97, 'rot3': 98, 'rot2': 135, 'depth': 0.928, 'yaw': 85.47, 'datetime': '2018-12-12 11:01:24.567669', 'mgs': 0, 'flw2': 9.8, 'flw1': 2.64, 'flw0': 7.48, 'time': 26.72, 'compass': 158.95, 'pitch': 14.96, 'roll': 5.54}
{'lipoC2': 8.17, 'temp': 0.0, 'lipoC3S3': 11.6, 'state': 'normal', 'rot1': 94, 'rot0': 102, 'rot3': 99, 'rot2': 136, 'depth': -0.369, 'yaw': 88.54, 'datetime': '2018-12-12 11:01:24.778825', 'mgs': 0, 'flw2': 9.47, 'flw1': 2.96, 'flw0': 7.34, 'time': 26.93, 'compass': 162.02, 'pitch': 15.27, 'roll': 5.89}
{'lipoC2': 7.97, 'temp': 0.0, 'lipoC3S3': 11.73, 'state': 'normal', 'rot1': 98, 'rot0': 106, 'rot3': 100, 'rot2': 138, 'depth': 2.988, 'yaw': 91.15, 'datetime': '2018-12-12 11:01:24.989912', 'mgs': 0, 'flw2': 9.56, 'flw1': 3.31, 'flw0': 7.15, 'time': 27.14, 'compass': 164.64, 'pitch': 15.54, 'roll': 5.84}
{'lipoC2': 8.0, 'temp': 0.0, 'lipoC3S3': 11.54, 'state': 'normal', 'rot1': 103, 'rot0': 111, 'rot3': 100, 'rot2': 139, 'depth': 1.233, 'yaw': 93.29, 'datetime': '2018-12-12 11:01:25.200909', 'mgs': 0, 'flw2': 9.36, 'flw1': 3.52, 'flw0': 7.51, 'time': 27.35, 'compass': 166.77, 'pitch': 15.71, 'roll': 5.12}
{'lipoC2': 7.96, 'temp': 0.0, 'lipoC3S3': 12.16, 'state': 'normal', 'rot1': 108, 'rot0': 115, 'rot3': 101, 'rot2': 140, 'depth': 1.08, 'yaw': 95.62, 'datetime': '2018-12-12 11:01:25.411089', 'mgs': 0, 'flw2': 9.52, 'flw1': 2.52, 'flw0': 7.57, 'time': 27.56, 'compass': 169.1, 'pitch': 15.6, 'roll': 4.88}
{'lipoC2': 7.99, 'temp': 0.0, 'lipoC3S3': 11.61, 'state': 'normal', 'rot1': 113, 'rot0': 119, 'rot3': 102, 'rot2': 141, 'depth': 0.165, 'yaw': 98.34, 'datetime': '2018-12-12 11:01:25.623916', 'mgs': 0, 'flw2': 9.42, 'flw1': 3.46, 'flw0': 7.7, 'time': 27.77, 'compass': 171.82, 'pitch': 15.84, 'roll': 4.95}
{'lipoC2': 7.98, 'temp': 0.0, 'lipoC3S3': 11.54, 'state': 'normal', 'rot1': 117, 'rot0': 123, 'rot3': 103, 'rot2': 142, 'depth': 0.928, 'yaw': 101.06, 'datetime': '2018-12-12 11:01:25.833749', 'mgs': 0, 'flw2': 9.85, 'flw1': 2.29, 'flw0': 7.31, 'time': 27.98, 'compass': 174.54, 'pitch': 16.5, 'roll': 4.42}
{'lipoC2': 7.96, 'temp': 0.0, 'lipoC3S3': 12.02, 'state': 'normal', 'rot1': 123, 'rot0': 127, 'rot3': 103, 'rot2': 143, 'depth': 1.309, 'yaw': 103.59, 'datetime': '2018-12-12 11:01:26.048754', 'mgs': 0, 'flw2': 9.99, 'flw1': 2.81, 'flw0': 7.65, 'time': 28.19, 'compass': 177.08, 'pitch': 16.9, 'roll': 3.6}
{'lipoC2': 7.94, 'temp': 0.0, 'lipoC3S3': 12.09, 'state': 'normal', 'rot1': 128, 'rot0': 132, 'rot3': 104, 'rot2': 144, 'depth': 1.309, 'yaw': 106.26, 'datetime': '2018-12-12 11:01:26.257811', 'mgs': 0, 'flw2': 9.39, 'flw1': 3.13, 'flw0': 7.32, 'time': 28.4, 'compass': 179.74, 'pitch': 17.01, 'roll': 3.42}
{'lipoC2': 8.01, 'temp': 0.0, 'lipoC3S3': 11.5, 'state': 'normal', 'rot1': 133, 'rot0': 136, 'rot3': 105, 'rot2': 145, 'depth': 0.012, 'yaw': 109.33, 'datetime': '2018-12-12 11:01:26.466710', 'mgs': 0, 'flw2': 9.61, 'flw1': 2.64, 'flw0': 7.59, 'time': 28.61, 'compass': -177.19, 'pitch': 16.81, 'roll': 3.63}
{'lipoC2': 8.17, 'temp': 0.0, 'lipoC3S3': 11.55, 'state': 'normal', 'rot1': 139, 'rot0': 140, 'rot3': 106, 'rot2': 146, 'depth': -0.293, 'yaw': 112.31, 'datetime': '2018-12-12 11:01:26.678720', 'mgs': 0, 'flw2': 9.67, 'flw1': 2.2, 'flw0': 7.46, 'time': 28.82, 'compass': -174.21, 'pitch': 16.62, 'roll': 3.52}
{'lipoC2': 7.92, 'temp': 0.0, 'lipoC3S3': 11.87, 'state': 'normal', 'rot1': 143, 'rot0': 144, 'rot3': 106, 'rot2': 147, 'depth': -0.064, 'yaw': 114.94, 'datetime': '2018-12-12 11:01:26.892780', 'mgs': 0, 'flw2': 9.24, 'flw1': 3.25, 'flw0': 7.42, 'time': 29.03, 'compass': -171.58, 'pitch': 16.75, 'roll': 3.1}
{'lipoC2': 8.13, 'temp': 0.0, 'lipoC3S3': 11.73, 'state': 'normal', 'rot1': 147, 'rot0': 149, 'rot3': 107, 'rot2': 148, 'depth': 0.165, 'yaw': 117.61, 'datetime': '2018-12-12 11:01:27.103124', 'mgs': 0, 'flw2': 9.7, 'flw1': 3.28, 'flw0': 7.3, 'time': 29.25, 'compass': -168.91, 'pitch': 16.9, 'roll': 2.94}
{'lipoC2': 7.99, 'temp': 0.0, 'lipoC3S3': 11.93, 'state': 'normal', 'rot1': 152, 'rot0': 153, 'rot3': 108, 'rot2': 149, 'depth': -0.064, 'yaw': 120.38, 'datetime': '2018-12-12 11:01:27.316130', 'mgs': 0, 'flw2': 1.38, 'flw1': 3.08, 'flw0': 0.68, 'time': 29.46, 'compass': -166.14, 'pitch': 17.21, 'roll': 2.77}
{'lipoC2': 8.17, 'temp': 0.0, 'lipoC3S3': 11.75, 'state': 'normal', 'rot1': 158, 'rot0': 153, 'rot3': 109, 'rot2': 151, 'depth': 1.385, 'yaw': 121.32, 'datetime': '2018-12-12 11:01:27.523916', 'mgs': 0, 'flw2': 0.0, 'flw1': 3.54, 'flw0': 10.79, 'time': 29.67, 'compass': -165.2, 'pitch': 15.46, 'roll': 2.49}
{'lipoC2': 7.93, 'temp': 0.0, 'lipoC3S3': 11.94, 'state': 'normal', 'rot1': 163, 'rot0': 153, 'rot3': 110, 'rot2': 152, 'depth': 0.623, 'yaw': 115.96, 'datetime': '2018-12-12 11:01:27.737850', 'mgs': 0, 'flw2': 0.0, 'flw1': 3.11, 'flw0': 10.64, 'time': 29.88, 'compass': -170.56, 'pitch': 13.18, 'roll': 2.65}
{'lipoC2': 7.94, 'temp': 0.0, 'lipoC3S3': 12.01, 'state': 'normal', 'rot1': 170, 'rot0': 153, 'rot3': 110, 'rot2': 153, 'depth': -0.598, 'yaw': 107.36, 'datetime': '2018-12-12 11:01:27.948098', 'mgs': 0, 'flw2': 0.28, 'flw1': 2.81, 'flw0': 10.84, 'time': 30.09, 'compass': -179.16, 'pitch': 11.76, 'roll': 3.34}
{'lipoC2': 7.98, 'temp': 0.0, 'lipoC3S3': 11.81, 'state': 'normal', 'rot1': 175, 'rot0': 153, 'rot3': 111, 'rot2': 154, 'depth': 0.089, 'yaw': 96.86, 'datetime': '2018-12-12 11:01:28.159634', 'mgs': 0, 'flw2': 0.0, 'flw1': 3.78, 'flw0': 0.0, 'time': 30.3, 'compass': 170.34, 'pitch': 10.83, 'roll': 3.99}
{'lipoC2': 7.98, 'temp': 0.0, 'lipoC3S3': 11.8, 'state': 'normal', 'rot1': 175, 'rot0': 153, 'rot3': 112, 'rot2': 155, 'depth': 2.682, 'yaw': 89.28, 'datetime': '2018-12-12 11:01:28.369065', 'mgs': 0, 'flw2': 0.0, 'flw1': 3.6, 'flw0': 0.0, 'time': 30.51, 'compass': 162.76, 'pitch': 8.28, 'roll': 4.24}
{'lipoC2': 8.12, 'temp': 0.0, 'lipoC3S3': 11.92, 'state': 'normal', 'rot1': 175, 'rot0': 153, 'rot3': 113, 'rot2': 156, 'depth': -0.751, 'yaw': 84.72, 'datetime': '2018-12-12 11:01:28.578464', 'mgs': 0, 'flw2': 0.28, 'flw1': 2.52, 'flw0': 0.31, 'time': 30.72, 'compass': 158.21, 'pitch': 5.22, 'roll': 4.79}
{'lipoC2': 8.23, 'temp': 0.0, 'lipoC3S3': 11.88, 'state': 'normal', 'rot1': 175, 'rot0': 153, 'rot3': 113, 'rot2': 157, 'depth': -0.293, 'yaw': 81.63, 'datetime': '2018-12-12 11:01:28.788948', 'mgs': 0, 'flw2': 0.0, 'flw1': 3.31, 'flw0': 0.0, 'time': 30.93, 'compass': 155.11, 'pitch': 2.56, 'roll': 5.62}
{'lipoC2': 8.24, 'temp': 0.0, 'lipoC3S3': 11.92, 'state': 'normal', 'rot1': 175, 'rot0': 153, 'rot3': 114, 'rot2': 158, 'depth': -0.98, 'yaw': 79.65, 'datetime': '2018-12-12 11:01:28.999849', 'mgs': 0, 'flw2': 0.18, 'flw1': 2.37, 'flw0': 0.0, 'time': 31.14, 'compass': 153.13, 'pitch': 0.7, 'roll': 6.46}
{'lipoC2': 8.24, 'temp': 0.0, 'lipoC3S3': 11.93, 'state': 'normal', 'rot1': 175, 'rot0': 153, 'rot3': 115, 'rot2': 159, 'depth': 1.233, 'yaw': 78.25, 'datetime': '2018-12-12 11:01:29.212782', 'mgs': 0, 'flw2': 0.0, 'flw1': 3.43, 'flw0': 0.0, 'time': 31.35, 'compass': 151.73, 'pitch': -0.55, 'roll': 6.83}
{'lipoC2': 8.13, 'temp': 0.0, 'lipoC3S3': 11.85, 'state': 'normal', 'rot1': 175, 'rot0': 153, 'rot3': 116, 'rot2': 160, 'depth': 1.08, 'yaw': 77.28, 'datetime': '2018-12-12 11:01:29.421927', 'mgs': 0, 'flw2': 0.0, 'flw1': 3.08, 'flw0': 0.0, 'time': 31.56, 'compass': 150.76, 'pitch': -1.19, 'roll': 6.73}
{'lipoC2': 8.17, 'temp': 0.0, 'lipoC3S3': 11.92, 'state': 'normal', 'rot1': 175, 'rot0': 153, 'rot3': 116, 'rot2': 161, 'depth': -0.903, 'yaw': 76.85, 'datetime': '2018-12-12 11:01:29.632006', 'mgs': 0, 'flw2': 0.0, 'flw1': 3.63, 'flw0': 0.0, 'time': 31.77, 'compass': 150.33, 'pitch': -0.91, 'roll': 6.53}
{'lipoC2': 8.0, 'temp': 0.0, 'lipoC3S3': 11.77, 'state': 'normal', 'rot1': 175, 'rot0': 153, 'rot3': 117, 'rot2': 162, 'depth': -0.064, 'yaw': 76.96, 'datetime': '2018-12-12 11:01:29.840801', 'mgs': 0, 'flw2': 0.24, 'flw1': 2.72, 'flw0': 0.33, 'time': 31.98, 'compass': 150.44, 'pitch': 0.23, 'roll': 6.24}
{'lipoC2': 8.17, 'temp': 0.0, 'lipoC3S3': 11.8, 'state': 'normal', 'rot1': 175, 'rot0': 153, 'rot3': 118, 'rot2': 163, 'depth': 0.317, 'yaw': 77.51, 'datetime': '2018-12-12 11:01:30.053383', 'mgs': 0, 'flw2': 0.0, 'flw1': 3.81, 'flw0': 0.0, 'time': 32.19, 'compass': 150.99, 'pitch': 1.64, 'roll': 5.62}
{'lipoC2': 7.94, 'temp': 0.0, 'lipoC3S3': 11.81, 'state': 'normal', 'rot1': 175, 'rot0': 153, 'rot3': 119, 'rot2': 164, 'depth': -0.369, 'yaw': 78.32, 'datetime': '2018-12-12 11:01:30.265980', 'mgs': 0, 'flw2': 0.0, 'flw1': 2.61, 'flw0': 0.0, 'time': 32.41, 'compass': 151.81, 'pitch': 2.73, 'roll': 4.83}
{'lipoC2': 7.98, 'temp': 0.0, 'lipoC3S3': 12.26, 'state': 'normal', 'rot1': 175, 'rot0': 153, 'rot3': 120, 'rot2': 166, 'depth': -1.132, 'yaw': 79.42, 'datetime': '2018-12-12 11:01:30.477916', 'mgs': 0, 'flw2': 0.09, 'flw1': 2.37, 'flw0': 0.0, 'time': 32.62, 'compass': 152.9, 'pitch': 4.19, 'roll': 4.18}
{'lipoC2': 8.24, 'temp': 0.0, 'lipoC3S3': 11.94, 'state': 'normal', 'rot1': 175, 'rot0': 153, 'rot3': 120, 'rot2': 167, 'depth': 1.157, 'yaw': 80.72, 'datetime': '2018-12-12 11:01:30.691061', 'mgs': 0, 'flw2': 0.11, 'flw1': 2.49, 'flw0': 0.0, 'time': 32.83, 'compass': 154.2, 'pitch': 5.93, 'roll': 3.62}
{'lipoC2': 7.98, 'temp': 0.0, 'lipoC3S3': 11.83, 'state': 'normal', 'rot1': 175, 'rot0': 153, 'rot3': 121, 'rot2': 168, 'depth': -0.064, 'yaw': 82.11, 'datetime': '2018-12-12 11:01:30.901699', 'mgs': 0, 'flw2': 0.0, 'flw1': 3.75, 'flw0': 0.0, 'time': 33.04, 'compass': 155.59, 'pitch': 6.65, 'roll': 3.11}
{'lipoC2': 8.12, 'temp': 0.0, 'lipoC3S3': 11.85, 'state': 'normal', 'rot1': 175, 'rot0': 153, 'rot3': 122, 'rot2': 169, 'depth': 1.767, 'yaw': 83.57, 'datetime': '2018-12-12 11:01:31.110300', 'mgs': 0, 'flw2': 0.0, 'flw1': 2.55, 'flw0': 0.0, 'time': 33.25, 'compass': 157.05, 'pitch': 6.29, 'roll': 2.68}
{'lipoC2': 7.97, 'temp': 0.0, 'lipoC3S3': 12.29, 'state': 'normal', 'rot1': 175, 'rot0': 153, 'rot3': 123, 'rot2': 170, 'depth': -0.293, 'yaw': 85.24, 'datetime': '2018-12-12 11:01:31.322058', 'mgs': 0, 'flw2': 0.0, 'flw1': 3.69, 'flw0': 0.0, 'time': 33.46, 'compass': 158.72, 'pitch': 6.39, 'roll': 2.51}
{'lipoC2': 7.93, 'temp': 0.0, 'lipoC3S3': 12.22, 'state': 'normal', 'rot1': 175, 'rot0': 153, 'rot3': 124, 'rot2': 171, 'depth': 0.012, 'yaw': 86.83, 'datetime': '2018-12-12 11:01:31.532918', 'mgs': 0, 'flw2': 0.23, 'flw1': 2.81, 'flw0': 0.31, 'time': 33.67, 'compass': 160.32, 'pitch': 6.89, 'roll': 2.51}
{'lipoC2': 7.99, 'temp': 0.0, 'lipoC3S3': 12.26, 'state': 'normal', 'rot1': 175, 'rot0': 153, 'rot3': 124, 'rot2': 172, 'depth': -0.903, 'yaw': 88.31, 'datetime': '2018-12-12 11:01:31.743202', 'mgs': 0, 'flw2': 0.1, 'flw1': 2.29, 'flw0': 0.0, 'time': 33.88, 'compass': 161.79, 'pitch': 6.4, 'roll': 2.15}
{'lipoC2': 7.93, 'temp': 0.0, 'lipoC3S3': 12.23, 'state': 'normal', 'rot1': 175, 'rot0': 153, 'rot3': 125, 'rot2': 173, 'depth': 0.317, 'yaw': 89.75, 'datetime': '2018-12-12 11:01:31.955870', 'mgs': 0, 'flw2': 0.28, 'flw1': 2.67, 'flw0': 0.26, 'time': 34.09, 'compass': 163.23, 'pitch': 5.17, 'roll': 1.73}
{'lipoC2': 8.17, 'temp': 0.0, 'lipoC3S3': 11.94, 'state': 'normal', 'rot1': 175, 'rot0': 153, 'rot3': 126, 'rot2': 174, 'depth': -0.98, 'yaw': 91.19, 'datetime': '2018-12-12 11:01:32.164897', 'mgs': 0, 'flw2': 0.0, 'flw1': 3.37, 'flw0': 0.0, 'time': 34.3, 'compass': 164.67, 'pitch': 4.79, 'roll': 1.84}
{'lipoC2': 7.94, 'temp': 0.0, 'lipoC3S3': 12.25, 'state': 'normal', 'rot1': 175, 'rot0': 153, 'rot3': 127, 'rot2': 175, 'depth': -0.369, 'yaw': 92.6, 'datetime': '2018-12-12 11:01:32.376659', 'mgs': 0, 'flw2': 0.27, 'flw1': 2.7, 'flw0': 0.18, 'time': 34.51, 'compass': 166.09, 'pitch': 5.7, 'roll': 2.13}
{'lipoC2': 7.97, 'temp': 0.0, 'lipoC3S3': 12.02, 'state': 'normal', 'rot1': 175, 'rot0': 153, 'rot3': 127, 'rot2': 176, 'depth': 0.089, 'yaw': 93.88, 'datetime': '2018-12-12 11:01:32.586790', 'mgs': 0, 'flw2': 0.0, 'flw1': 2.87, 'flw0': 0.17, 'time': 34.72, 'compass': 167.36, 'pitch': 6.52, 'roll': 1.79}
{'lipoC2': 8.17, 'temp': 0.0, 'lipoC3S3': 11.92, 'state': 'normal', 'rot1': 175, 'rot0': 153, 'rot3': 128, 'rot2': 177, 'depth': -0.751, 'yaw': 95.24, 'datetime': '2018-12-12 11:01:32.796448', 'mgs': 0, 'flw2': 0.0, 'flw1': 3.57, 'flw0': 0.0, 'time': 34.93, 'compass': 168.72, 'pitch': 6.2, 'roll': 1.28}
{'lipoC2': 7.99, 'temp': 0.0, 'lipoC3S3': 11.8, 'state': 'normal', 'rot1': 175, 'rot0': 153, 'rot3': 129, 'rot2': 178, 'depth': 2.301, 'yaw': 96.79, 'datetime': '2018-12-12 11:01:33.007012', 'mgs': 0, 'flw2': 0.0, 'flw1': 3.19, 'flw0': 0.0, 'time': 35.14, 'compass': 170.27, 'pitch': 5.5, 'roll': 1.09}
{'lipoC2': 7.98, 'temp': 0.0, 'lipoC3S3': 12.04, 'state': 'normal', 'rot1': 175, 'rot0': 153, 'rot3': 130, 'rot2': 179, 'depth': 1.996, 'yaw': 98.52, 'datetime': '2018-12-12 11:01:33.218610', 'mgs': 0, 'flw2': 0.0, 'flw1': 2.93, 'flw0': 0.0, 'time': 35.35, 'compass': 172.0, 'pitch': 5.82, 'roll': 1.19}
{'lipoC2': 7.97, 'temp': 0.0, 'lipoC3S3': 12.09, 'state': 'normal', 'rot1': 175, 'rot0': 153, 'rot3': 130, 'rot2': 181, 'depth': 0.089, 'yaw': 100.43, 'datetime': '2018-12-12 11:01:33.429242', 'mgs': 0, 'flw2': 0.0, 'flw1': 2.99, 'flw0': 0.0, 'time': 35.56, 'compass': 173.91, 'pitch': 6.97, 'roll': 1.58}
{'lipoC2': 8.07, 'temp': 0.0, 'lipoC3S3': 11.81, 'state': 'normal', 'rot1': 175, 'rot0': 153, 'rot3': 131, 'rot2': 182, 'depth': -0.064, 'yaw': 102.56, 'datetime': '2018-12-12 11:01:33.641404', 'mgs': 0, 'flw2': 0.0, 'flw1': 3.57, 'flw0': 0.0, 'time': 35.78, 'compass': 176.04, 'pitch': 7.81, 'roll': 1.9}
{'lipoC2': 7.99, 'temp': 0.0, 'lipoC3S3': 12.12, 'state': 'normal', 'rot1': 175, 'rot0': 153, 'rot3': 132, 'rot2': 183, 'depth': -0.14, 'yaw': 104.73, 'datetime': '2018-12-12 11:01:33.850962', 'mgs': 0, 'flw2': 0.0, 'flw1': 3.13, 'flw0': 0.0, 'time': 35.99, 'compass': 178.21, 'pitch': 8.0, 'roll': 1.65}
{'lipoC2': 7.98, 'temp': 0.0, 'lipoC3S3': 11.83, 'state': 'normal', 'rot1': 175, 'rot0': 153, 'rot3': 133, 'rot2': 184, 'depth': 2.835, 'yaw': 106.9, 'datetime': '2018-12-12 11:01:34.061838', 'mgs': 0, 'flw2': 0.0, 'flw1': 3.66, 'flw0': 0.0, 'time': 36.2, 'compass': -179.62, 'pitch': 8.04, 'roll': 0.92}
{'lipoC2': 8.17, 'temp': 0.0, 'lipoC3S3': 11.94, 'state': 'normal', 'rot1': 175, 'rot0': 153, 'rot3': 134, 'rot2': 185, 'depth': -0.598, 'yaw': 109.2, 'datetime': '2018-12-12 11:01:34.272653', 'mgs': 0, 'flw2': 0.0, 'flw1': 2.34, 'flw0': 0.01, 'time': 36.41, 'compass': -177.32, 'pitch': 8.07, 'roll': 0.55}
{'lipoC2': 8.17, 'temp': 0.0, 'lipoC3S3': 11.92, 'state': 'normal', 'rot1': 175, 'rot0': 153, 'rot3': 134, 'rot2': 186, 'depth': -1.056, 'yaw': 111.67, 'datetime': '2018-12-12 11:01:34.485031', 'mgs': 0, 'flw2': 0.0, 'flw1': 3.28, 'flw0': 0.0, 'time': 36.62, 'compass': -174.85, 'pitch': 8.09, 'roll': 0.65}
{'lipoC2': 8.25, 'temp': 0.0, 'lipoC3S3': 11.96, 'state': 'normal', 'rot1': 175, 'rot0': 153, 'rot3': 135, 'rot2': 187, 'depth': -0.674, 'yaw': 114.28, 'datetime': '2018-12-12 11:01:34.696968', 'mgs': 0, 'flw2': 0.2, 'flw1': 2.46, 'flw0': 0.0, 'time': 36.83, 'compass': -172.24, 'pitch': 7.92, 'roll': 0.48}
{'lipoC2': 8.09, 'temp': 0.0, 'lipoC3S3': 11.87, 'state': 'normal', 'rot1': 175, 'rot0': 153, 'rot3': 136, 'rot2': 188, 'depth': 2.225, 'yaw': 116.92, 'datetime': '2018-12-12 11:01:34.906746', 'mgs': 0, 'flw2': 0.0, 'flw1': 3.28, 'flw0': 0.0, 'time': 37.04, 'compass': -169.59, 'pitch': 7.49, 'roll': -0.18}
{'lipoC2': 8.04, 'temp': 0.0, 'lipoC3S3': 11.81, 'state': 'normal', 'rot1': 175, 'rot0': 153, 'rot3': 137, 'rot2': 189, 'depth': 2.682, 'yaw': 119.72, 'datetime': '2018-12-12 11:01:35.117681', 'mgs': 0, 'flw2': 0.0, 'flw1': 2.78, 'flw0': 0.0, 'time': 37.25, 'compass': -166.8, 'pitch': 7.16, 'roll': -0.67}
{'lipoC2': 8.06, 'temp': 0.0, 'lipoC3S3': 12.29, 'state': 'normal', 'rot1': 175, 'rot0': 153, 'rot3': 137, 'rot2': 190, 'depth': 2.225, 'yaw': 122.75, 'datetime': '2018-12-12 11:01:35.328171', 'mgs': 0, 'flw2': 0.01, 'flw1': 2.23, 'flw0': 0.0, 'time': 37.46, 'compass': -163.77, 'pitch': 7.12, 'roll': -0.56}
{'lipoC2': 8.2, 'temp': 0.0, 'lipoC3S3': 11.93, 'state': 'normal', 'rot1': 175, 'rot0': 153, 'rot3': 138, 'rot2': 191, 'depth': -0.064, 'yaw': 125.92, 'datetime': '2018-12-12 11:01:35.539763', 'mgs': 0, 'flw2': 0.0, 'flw1': 3.43, 'flw0': 0.0, 'time': 37.67, 'compass': -160.59, 'pitch': 6.94, 'roll': -0.35}
{'lipoC2': 7.99, 'temp': 0.0, 'lipoC3S3': 11.97, 'state': 'normal', 'rot1': 177, 'rot0': 153, 'rot3': 139, 'rot2': 193, 'depth': 0.699, 'yaw': 128.74, 'datetime': '2018-12-12 11:01:35.752493', 'mgs': 0, 'flw2': 0.0, 'flw1': 2.84, 'flw0': 2.43, 'time': 37.88, 'compass': -157.78, 'pitch': 6.75, 'roll': -0.58}
{'lipoC2': 8.04, 'temp': 0.0, 'lipoC3S3': 11.94, 'state': 'normal', 'rot1': 180, 'rot0': 153, 'rot3': 140, 'rot2': 194, 'depth': -0.217, 'yaw': 128.8, 'datetime': '2018-12-12 11:01:35.961915', 'mgs': 0, 'flw2': 0.0, 'flw1': 3.37, 'flw0': 2.83, 'time': 38.09, 'compass': -157.71, 'pitch': 7.53, 'roll': -1.27}
{'lipoC2': 8.2, 'temp': 0.0, 'lipoC3S3': 11.9, 'state': 'normal', 'rot1': 183, 'rot0': 153, 'rot3': 140, 'rot2': 195, 'depth': 1.004, 'yaw': 125.85, 'datetime': '2018-12-12 11:01:36.173273', 'mgs': 0, 'flw2': 0.24, 'flw1': 2.64, 'flw0': 5.1, 'time': 38.3, 'compass': -160.67, 'pitch': 8.9, 'roll': -1.22}
{'lipoC2': 7.99, 'temp': 0.0, 'lipoC3S3': 11.83, 'state': 'normal', 'rot1': 187, 'rot0': 153, 'rot3': 141, 'rot2': 196, 'depth': 1.004, 'yaw': 119.63, 'datetime': '2018-12-12 11:01:36.382962', 'mgs': 0, 'flw2': 0.0, 'flw1': 2.78, 'flw0': 4.99, 'time': 38.51, 'compass': -166.89, 'pitch': 10.79, 'roll': 0.16}
{'lipoC2': 7.98, 'temp': 0.0, 'lipoC3S3': 11.8, 'state': 'normal', 'rot1': 191, 'rot0': 153, 'rot3': 142, 'rot2': 197, 'depth': 0.089, 'yaw': 111.03, 'datetime': '2018-12-12 11:01:36.595558', 'mgs': 0, 'flw2': 0.0, 'flw1': 3.28, 'flw0': 4.99, 'time': 38.72, 'compass': -175.49, 'pitch': 12.5, 'roll': 1.7}
{'lipoC2': 8.12, 'temp': 0.0, 'lipoC3S3': 11.73, 'state': 'normal', 'rot1': 194, 'rot0': 153, 'rot3': 142, 'rot2': 198, 'depth': 1.691, 'yaw': 100.59, 'datetime': '2018-12-12 11:01:36.807427', 'mgs': 0, 'flw2': 0.0, 'flw1': 3.25, 'flw0': 4.88, 'time': 38.94, 'compass': 174.07, 'pitch': 13.29, 'roll': 2.95}
{'lipoC2': 7.95, 'temp': 0.0, 'lipoC3S3': 12.14, 'state': 'normal', 'rot1': 197, 'rot0': 153, 'rot3': 143, 'rot2': 199, 'depth': -0.446, 'yaw': 88.85, 'datetime': '2018-12-12 11:01:37.017350', 'mgs': 0, 'flw2': 0.2, 'flw1': 2.64, 'flw0': 5.1, 'time': 39.15, 'compass': 162.33, 'pitch': 12.67, 'roll': 4.26}
{'lipoC2': 7.98, 'temp': 0.0, 'lipoC3S3': 11.76, 'state': 'normal', 'rot1': 201, 'rot0': 153, 'rot3': 144, 'rot2': 200, 'depth': 0.241, 'yaw': 76.27, 'datetime': '2018-12-12 11:01:37.228231', 'mgs': 0, 'flw2': 0.15, 'flw1': 3.25, 'flw0': 3.03, 'time': 39.36, 'compass': 149.75, 'pitch': 11.34, 'roll': 5.7}
{'lipoC2': 7.99, 'temp': 0.0, 'lipoC3S3': 11.75, 'state': 'normal', 'rot1': 204, 'rot0': 154, 'rot3': 144, 'rot2': 201, 'depth': 2.454, 'yaw': 63.8, 'datetime': '2018-12-12 11:01:37.438091', 'mgs': 0, 'flw2': 0.07, 'flw1': 3.11, 'flw0': 3.05, 'time': 39.57, 'compass': 137.29, 'pitch': 9.7, 'roll': 6.51}
{'lipoC2': 8.02, 'temp': 0.0, 'lipoC3S3': 11.77, 'state': 'normal', 'rot1': 206, 'rot0': 155, 'rot3': 145, 'rot2': 202, 'depth': 2.835, 'yaw': 51.35, 'datetime': '2018-12-12 11:01:37.649518', 'mgs': 0, 'flw2': 0.46, 'flw1': 2.46, 'flw0': 3.26, 'time': 39.78, 'compass': 124.83, 'pitch': 8.24, 'roll': 6.48}
{'lipoC2': 8.24, 'temp': 0.0, 'lipoC3S3': 11.94, 'state': 'normal', 'rot1': 209, 'rot0': 156, 'rot3': 146, 'rot2': 203, 'depth': -0.903, 'yaw': 39.01, 'datetime': '2018-12-12 11:01:37.860878', 'mgs': 0, 'flw2': 0.06, 'flw1': 2.96, 'flw0': 3.08, 'time': 39.99, 'compass': 112.49, 'pitch': 7.23, 'roll': 6.39}
{'lipoC2': 7.93, 'temp': 0.0, 'lipoC3S3': 12.22, 'state': 'normal', 'rot1': 212, 'rot0': 157, 'rot3': 147, 'rot2': 204, 'depth': 0.851, 'yaw': 26.79, 'datetime': '2018-12-12 11:01:38.071179', 'mgs': 0, 'flw2': 0.46, 'flw1': 2.61, 'flw0': 3.48, 'time': 40.2, 'compass': 100.27, 'pitch': 6.49, 'roll': 6.56}
{'lipoC2': 8.07, 'temp': 0.0, 'lipoC3S3': 11.96, 'state': 'normal', 'rot1': 215, 'rot0': 157, 'rot3': 147, 'rot2': 205, 'depth': 2.225, 'yaw': 14.34, 'datetime': '2018-12-12 11:01:38.282292', 'mgs': 0, 'flw2': 0.6, 'flw1': 2.43, 'flw0': 3.5, 'time': 40.41, 'compass': 87.82, 'pitch': 5.9, 'roll': 6.36}
{'lipoC2': 8.24, 'temp': 0.0, 'lipoC3S3': 11.84, 'state': 'normal', 'rot1': 217, 'rot0': 158, 'rot3': 148, 'rot2': 206, 'depth': -0.903, 'yaw': 1.71, 'datetime': '2018-12-12 11:01:38.492920', 'mgs': 0, 'flw2': 0.22, 'flw1': 2.4, 'flw0': 3.31, 'time': 40.62, 'compass': 75.19, 'pitch': 5.18, 'roll': 5.46}
{'lipoC2': 8.07, 'temp': 0.0, 'lipoC3S3': 11.92, 'state': 'normal', 'rot1': 219, 'rot0': 160, 'rot3': 149, 'rot2': 208, 'depth': -0.446, 'yaw': -10.13, 'datetime': '2018-12-12 11:01:38.704884', 'mgs': 0, 'flw2': 4.14, 'flw1': 2.84, 'flw0': 0.0, 'time': 40.83, 'compass': 63.36, 'pitch': 4.09, 'roll': 4.8}
{'lipoC2': 7.99, 'temp': 0.0, 'lipoC3S3': 11.85, 'state': 'normal', 'rot1': 220, 'rot0': 164, 'rot3': 150, 'rot2': 209, 'depth': 0.775, 'yaw': -16.61, 'datetime': '2018-12-12 11:01:38.915731', 'mgs': 0, 'flw2': 4.33, 'flw1': 3.34, 'flw0': 0.06, 'time': 41.04, 'compass': 56.87, 'pitch': 3.23, 'roll': 4.91}
{'lipoC2': 8.19, 'temp': 0.0, 'lipoC3S3': 11.89, 'state': 'normal', 'rot1': 220, 'rot0': 166, 'rot3': 150, 'rot2': 210, 'depth': 2.377, 'yaw': -18.43, 'datetime': '2018-12-12 11:01:39.127551', 'mgs': 0, 'flw2': 4.17, 'flw1': 3.54, 'flw0': 0.0, 'time': 41.25, 'compass': 55.05, 'pitch': 2.48, 'roll': 5.01}
{'lipoC2': 7.93, 'temp': 0.0, 'lipoC3S3': 12.19, 'state': 'normal', 'rot1': 221, 'rot0': 169, 'rot3': 151, 'rot2': 211, 'depth': 0.089, 'yaw': -16.95, 'datetime': '2018-12-12 11:01:39.337570', 'mgs': 0, 'flw2': 4.39, 'flw1': 2.52, 'flw0': 0.34, 'time': 41.46, 'compass': 56.54, 'pitch': 1.82, 'roll': 5.01}
{'lipoC2': 8.0, 'temp': 0.0, 'lipoC3S3': 11.77, 'state': 'normal', 'rot1': 221, 'rot0': 172, 'rot3': 152, 'rot2': 212, 'depth': -0.217, 'yaw': -13.06, 'datetime': '2018-12-12 11:01:39.550475', 'mgs': 0, 'flw2': 4.32, 'flw1': 2.55, 'flw0': 0.48, 'time': 41.67, 'compass': 60.42, 'pitch': 1.63, 'roll': 5.62}
{'lipoC2': 7.98, 'temp': 0.0, 'lipoC3S3': 11.88, 'state': 'normal', 'rot1': 222, 'rot0': 175, 'rot3': 153, 'rot2': 213, 'depth': 1.157, 'yaw': -7.3, 'datetime': '2018-12-12 11:01:39.764642', 'mgs': 0, 'flw2': 4.21, 'flw1': 3.22, 'flw0': 0.0, 'time': 41.88, 'compass': 66.19, 'pitch': 1.8, 'roll': 7.1}
{'lipoC2': 7.95, 'temp': 0.0, 'lipoC3S3': 12.04, 'state': 'normal', 'rot1': 223, 'rot0': 178, 'rot3': 153, 'rot2': 214, 'depth': 1.92, 'yaw': -0.04, 'datetime': '2018-12-12 11:01:39.974253', 'mgs': 0, 'flw2': 7.01, 'flw1': 2.58, 'flw0': 1.99, 'time': 42.1, 'compass': 73.44, 'pitch': 1.93, 'roll': 8.77}
{'lipoC2': 8.21, 'temp': 0.0, 'lipoC3S3': 11.81, 'state': 'normal', 'rot1': 225, 'rot0': 182, 'rot3': 154, 'rot2': 215, 'depth': 1.92, 'yaw': 8.0, 'datetime': '2018-12-12 11:01:40.186541', 'mgs': 0, 'flw2': 6.37, 'flw1': 2.23, 'flw0': 1.44, 'time': 42.31, 'compass': 81.49, 'pitch': 3.36, 'roll': 9.49}
{'lipoC2': 7.96, 'temp': 0.0, 'lipoC3S3': 11.67, 'state': 'normal', 'rot1': 226, 'rot0': 185, 'rot3': 155, 'rot2': 216, 'depth': -0.446, 'yaw': 16.29, 'datetime': '2018-12-12 11:01:40.395115', 'mgs': 0, 'flw2': 6.59, 'flw1': 3.34, 'flw0': 1.34, 'time': 42.52, 'compass': 89.77, 'pitch': 5.9, 'roll': 9.45}
{'lipoC2': 8.07, 'temp': 0.0, 'lipoC3S3': 11.72, 'state': 'normal', 'rot1': 228, 'rot0': 189, 'rot3': 156, 'rot2': 217, 'depth': 0.241, 'yaw': 25.2, 'datetime': '2018-12-12 11:01:40.605085', 'mgs': 0, 'flw2': 6.76, 'flw1': 2.37, 'flw0': 1.51, 'time': 42.73, 'compass': 98.69, 'pitch': 8.58, 'roll': 10.05}
{'lipoC2': 8.05, 'temp': 0.0, 'lipoC3S3': 11.76, 'state': 'normal', 'rot1': 230, 'rot0': 193, 'rot3': 156, 'rot2': 219, 'depth': -0.369, 'yaw': 35.01, 'datetime': '2018-12-12 11:01:40.818275', 'mgs': 0, 'flw2': 2.38, 'flw1': 2.52, 'flw0': 5.47, 'time': 42.94, 'compass': 108.49, 'pitch': 10.9, 'roll': 11.08}
