{'lipoC2': 7.59, 'temp': 25.19, 'lipoC3S3': 12.06, 'state': 'normal', 'rot1': 31, 'rot0': 8, 'rot3': 1, 'rot2': 1, 'depth': 0.928, 'yaw': -0.01, 'datetime': '2018-11-26 11:30:52.087368', 'mgs': 0, 'flw2': 2.89, 'flw1': 3.31, 'flw0': 2.6, 'time': 1.47, 'compass': -15.33, 'pitch': 1.9, 'roll': -6.39}
{'lipoC2': 7.59, 'temp': 25.19, 'lipoC3S3': 12.06, 'state': 'normal', 'rot1': 79, 'rot0': 14, 'rot3': 2, 'rot2': 2, 'depth': -0.064, 'yaw': -0.02, 'datetime': '2018-11-26 11:30:52.299384', 'mgs': 0, 'flw2': 2.29, 'flw1': 2.34, 'flw0': 2.23, 'time': 1.68, 'compass': -15.33, 'pitch': 1.9, 'roll': -6.41}
{'lipoC2': 7.59, 'temp': 25.25, 'lipoC3S3': 12.08, 'state': 'normal', 'rot1': 129, 'rot0': 21, 'rot3': 3, 'rot2': 4, 'depth': -0.14, 'yaw': -0.04, 'datetime': '2018-11-26 11:30:52.509033', 'mgs': 0, 'flw2': 2.16, 'flw1': 2.2, 'flw0': 2.2, 'time': 1.89, 'compass': -15.35, 'pitch': 1.92, 'roll': -6.38}
{'lipoC2': 7.59, 'temp': 25.19, 'lipoC3S3': 11.98, 'state': 'normal', 'rot1': 178, 'rot0': 27, 'rot3': 4, 'rot2': 5, 'depth': -0.14, 'yaw': -0.04, 'datetime': '2018-11-26 11:30:52.719724', 'mgs': 0, 'flw2': 2.15, 'flw1': 2.14, 'flw0': 2.25, 'time': 2.1, 'compass': -15.36, 'pitch': 1.93, 'roll': -6.38}
{'lipoC2': 7.59, 'temp': 25.25, 'lipoC3S3': 12.05, 'state': 'normal', 'rot1': 227, 'rot0': 34, 'rot3': 5, 'rot2': 6, 'depth': 0.546, 'yaw': -0.05, 'datetime': '2018-11-26 11:30:52.928466', 'mgs': 0, 'flw2': 2.36, 'flw1': 2.08, 'flw0': 2.22, 'time': 2.31, 'compass': -15.36, 'pitch': 1.95, 'roll': -6.37}
{'lipoC2': 7.59, 'temp': 25.19, 'lipoC3S3': 12.0, 'state': 'normal', 'rot1': 277, 'rot0': 40, 'rot3': 6, 'rot2': 8, 'depth': -0.217, 'yaw': -0.06, 'datetime': '2018-11-26 11:30:53.139448', 'mgs': 0, 'flw2': 2.1, 'flw1': 2.67, 'flw0': 2.17, 'time': 2.52, 'compass': -15.37, 'pitch': 1.96, 'roll': -6.38}
{'lipoC2': 7.59, 'temp': 25.25, 'lipoC3S3': 12.06, 'state': 'normal', 'rot1': 327, 'rot0': 46, 'rot3': 7, 'rot2': 9, 'depth': 1.309, 'yaw': -0.06, 'datetime': '2018-11-26 11:30:53.349081', 'mgs': 0, 'flw2': 2.32, 'flw1': 2.26, 'flw0': 2.09, 'time': 2.73, 'compass': -15.37, 'pitch': 1.95, 'roll': -6.37}
{'lipoC2': 7.59, 'temp': 25.25, 'lipoC3S3': 11.98, 'state': 'normal', 'rot1': 375, 'rot0': 53, 'rot3': 8, 'rot2': 11, 'depth': -0.14, 'yaw': -0.07, 'datetime': '2018-11-26 11:30:53.555435', 'mgs': 0, 'flw2': 2.08, 'flw1': 2.29, 'flw0': 2.29, 'time': 2.95, 'compass': -15.38, 'pitch': 1.94, 'roll': -6.37}
{'lipoC2': 7.59, 'temp': 25.19, 'lipoC3S3': 12.05, 'state': 'normal', 'rot1': 424, 'rot0': 59, 'rot3': 9, 'rot2': 12, 'depth': -0.217, 'yaw': -0.1, 'datetime': '2018-11-26 11:30:53.767495', 'mgs': 0, 'flw2': 2.17, 'flw1': 2.31, 'flw0': 2.21, 'time': 3.16, 'compass': -15.41, 'pitch': 1.96, 'roll': -6.36}
{'lipoC2': 7.59, 'temp': 25.19, 'lipoC3S3': 12.04, 'state': 'normal', 'rot1': 474, 'rot0': 65, 'rot3': 10, 'rot2': 13, 'depth': -0.217, 'yaw': -0.11, 'datetime': '2018-11-26 11:30:53.977364', 'mgs': 0, 'flw2': 2.25, 'flw1': 2.17, 'flw0': 2.33, 'time': 3.37, 'compass': -15.42, 'pitch': 1.98, 'roll': -6.36}
{'lipoC2': 7.61, 'temp': 25.19, 'lipoC3S3': 12.06, 'state': 'normal', 'rot1': 522, 'rot0': 71, 'rot3': 11, 'rot2': 15, 'depth': 0.775, 'yaw': -0.14, 'datetime': '2018-11-26 11:30:54.188618', 'mgs': 0, 'flw2': 2.37, 'flw1': 2.58, 'flw0': 2.11, 'time': 3.58, 'compass': -15.45, 'pitch': 2.0, 'roll': -6.36}
{'lipoC2': 7.59, 'temp': 25.25, 'lipoC3S3': 12.06, 'state': 'normal', 'rot1': 572, 'rot0': 77, 'rot3': 12, 'rot2': 16, 'depth': 0.928, 'yaw': -0.15, 'datetime': '2018-11-26 11:30:54.401156', 'mgs': 0, 'flw2': 2.25, 'flw1': 2.23, 'flw0': 2.1, 'time': 3.79, 'compass': -15.46, 'pitch': 2.01, 'roll': -6.36}
{'lipoC2': 7.59, 'temp': 25.25, 'lipoC3S3': 11.94, 'state': 'normal', 'rot1': 621, 'rot0': 84, 'rot3': 12, 'rot2': 18, 'depth': -0.217, 'yaw': -0.17, 'datetime': '2018-11-26 11:30:54.617493', 'mgs': 0, 'flw2': 2.16, 'flw1': 2.14, 'flw0': 2.27, 'time': 4.0, 'compass': -15.48, 'pitch': 2.01, 'roll': -6.35}
{'lipoC2': 7.59, 'temp': 25.19, 'lipoC3S3': 12.1, 'state': 'normal', 'rot1': 669, 'rot0': 90, 'rot3': 13, 'rot2': 19, 'depth': -0.14, 'yaw': -0.19, 'datetime': '2018-11-26 11:30:54.825295', 'mgs': 0, 'flw2': 2.25, 'flw1': 2.81, 'flw0': 2.22, 'time': 4.21, 'compass': -15.5, 'pitch': 2.01, 'roll': -6.35}
{'lipoC2': 7.59, 'temp': 25.19, 'lipoC3S3': 11.97, 'state': 'normal', 'rot1': 719, 'rot0': 96, 'rot3': 14, 'rot2': 20, 'depth': -0.14, 'yaw': -0.2, 'datetime': '2018-11-26 11:30:55.036802', 'mgs': 0, 'flw2': 2.17, 'flw1': 2.46, 'flw0': 2.34, 'time': 4.43, 'compass': -15.51, 'pitch': 2.0, 'roll': -6.35}
{'lipoC2': 7.59, 'temp': 25.19, 'lipoC3S3': 12.08, 'state': 'normal', 'rot1': 768, 'rot0': 103, 'rot3': 15, 'rot2': 22, 'depth': -0.217, 'yaw': -0.2, 'datetime': '2018-11-26 11:30:55.248797', 'mgs': 0, 'flw2': 2.31, 'flw1': 2.17, 'flw0': 2.44, 'time': 4.64, 'compass': -15.52, 'pitch': 2.02, 'roll': -6.35}
{'lipoC2': 7.59, 'temp': 25.19, 'lipoC3S3': 12.06, 'state': 'normal', 'rot1': 819, 'rot0': 109, 'rot3': 16, 'rot2': 23, 'depth': -0.064, 'yaw': -0.2, 'datetime': '2018-11-26 11:30:55.461373', 'mgs': 0, 'flw2': 2.27, 'flw1': 2.75, 'flw0': 2.19, 'time': 4.85, 'compass': -15.51, 'pitch': 2.02, 'roll': -6.34}
{'lipoC2': 7.59, 'temp': 25.19, 'lipoC3S3': 11.94, 'state': 'normal', 'rot1': 868, 'rot0': 116, 'rot3': 17, 'rot2': 25, 'depth': -0.14, 'yaw': -0.2, 'datetime': '2018-11-26 11:30:55.672172', 'mgs': 0, 'flw2': 2.25, 'flw1': 2.17, 'flw0': 2.19, 'time': 5.06, 'compass': -15.51, 'pitch': 2.01, 'roll': -6.34}
{'lipoC2': 7.59, 'temp': 25.25, 'lipoC3S3': 12.05, 'state': 'normal', 'rot1': 917, 'rot0': 122, 'rot3': 18, 'rot2': 26, 'depth': -0.064, 'yaw': -0.2, 'datetime': '2018-11-26 11:30:55.883359', 'mgs': 0, 'flw2': 2.2, 'flw1': 2.87, 'flw0': 2.16, 'time': 5.27, 'compass': -15.52, 'pitch': 2.01, 'roll': -6.35}
{'lipoC2': 7.59, 'temp': 25.25, 'lipoC3S3': 12.05, 'state': 'normal', 'rot1': 966, 'rot0': 128, 'rot3': 19, 'rot2': 27, 'depth': 0.851, 'yaw': -0.21, 'datetime': '2018-11-26 11:30:56.096401', 'mgs': 0, 'flw2': 2.27, 'flw1': 2.93, 'flw0': 2.06, 'time': 5.48, 'compass': -15.52, 'pitch': 2.01, 'roll': -6.36}
{'lipoC2': 7.59, 'temp': 25.25, 'lipoC3S3': 11.9, 'state': 'normal', 'rot1': 1016, 'rot0': 135, 'rot3': 20, 'rot2': 29, 'depth': -0.293, 'yaw': -0.23, 'datetime': '2018-11-26 11:30:56.308222', 'mgs': 0, 'flw2': 2.1, 'flw1': 2.58, 'flw0': 2.27, 'time': 5.7, 'compass': -15.54, 'pitch': 2.0, 'roll': -6.35}
{'lipoC2': 7.59, 'temp': 25.25, 'lipoC3S3': 11.9, 'state': 'normal', 'rot1': 1065, 'rot0': 141, 'rot3': 21, 'rot2': 30, 'depth': -0.369, 'yaw': -0.23, 'datetime': '2018-11-26 11:30:56.521333', 'mgs': 0, 'flw2': 2.11, 'flw1': 2.05, 'flw0': 2.21, 'time': 5.91, 'compass': -15.54, 'pitch': 2.0, 'roll': -6.35}
{'lipoC2': 7.59, 'temp': 25.25, 'lipoC3S3': 12.05, 'state': 'normal', 'rot1': 1114, 'rot0': 148, 'rot3': 22, 'rot2': 32, 'depth': -0.217, 'yaw': -0.23, 'datetime': '2018-11-26 11:30:56.730959', 'mgs': 0, 'flw2': 2.26, 'flw1': 2.58, 'flw0': 2.27, 'time': 6.12, 'compass': -15.54, 'pitch': 2.01, 'roll': -6.37}
{'lipoC2': 7.59, 'temp': 25.19, 'lipoC3S3': 12.06, 'state': 'normal', 'rot1': 1163, 'rot0': 154, 'rot3': 23, 'rot2': 33, 'depth': -0.14, 'yaw': -0.24, 'datetime': '2018-11-26 11:30:56.942648', 'mgs': 0, 'flw2': 2.27, 'flw1': 2.52, 'flw0': 2.16, 'time': 6.33, 'compass': -15.55, 'pitch': 2.01, 'roll': -6.38}
{'lipoC2': 7.59, 'temp': 25.25, 'lipoC3S3': 12.12, 'state': 'normal', 'rot1': 1212, 'rot0': 160, 'rot3': 24, 'rot2': 35, 'depth': -0.14, 'yaw': -0.24, 'datetime': '2018-11-26 11:30:57.154539', 'mgs': 0, 'flw2': 2.26, 'flw1': 2.78, 'flw0': 2.4, 'time': 6.54, 'compass': -15.55, 'pitch': 2.03, 'roll': -6.37}
{'lipoC2': 7.59, 'temp': 25.25, 'lipoC3S3': 11.93, 'state': 'normal', 'rot1': 1262, 'rot0': 166, 'rot3': 25, 'rot2': 36, 'depth': -0.598, 'yaw': -0.23, 'datetime': '2018-11-26 11:30:57.366991', 'mgs': 0, 'flw2': 2.15, 'flw1': 2.4, 'flw0': 2.29, 'time': 6.76, 'compass': -15.54, 'pitch': 2.04, 'roll': -6.36}
{'lipoC2': 7.59, 'temp': 25.19, 'lipoC3S3': 12.05, 'state': 'normal', 'rot1': 1311, 'rot0': 173, 'rot3': 26, 'rot2': 37, 'depth': -0.217, 'yaw': -0.24, 'datetime': '2018-11-26 11:30:57.581017', 'mgs': 0, 'flw2': 2.15, 'flw1': 2.31, 'flw0': 2.19, 'time': 6.97, 'compass': -15.55, 'pitch': 2.04, 'roll': -6.35}
{'lipoC2': 7.59, 'temp': 25.25, 'lipoC3S3': 12.0, 'state': 'normal', 'rot1': 1361, 'rot0': 179, 'rot3': 27, 'rot2': 39, 'depth': -0.217, 'yaw': -0.26, 'datetime': '2018-11-26 11:30:57.787832', 'mgs': 0, 'flw2': 2.21, 'flw1': 2.37, 'flw0': 2.25, 'time': 7.18, 'compass': -15.57, 'pitch': 2.04, 'roll': -6.35}
{'lipoC2': 7.59, 'temp': 25.25, 'lipoC3S3': 11.97, 'state': 'normal', 'rot1': 1410, 'rot0': 186, 'rot3': 28, 'rot2': 40, 'depth': -0.14, 'yaw': -0.27, 'datetime': '2018-11-26 11:30:58.000811', 'mgs': 0, 'flw2': 2.09, 'flw1': 2.05, 'flw0': 2.2, 'time': 7.39, 'compass': -15.58, 'pitch': 2.03, 'roll': -6.36}
{'lipoC2': 7.59, 'temp': 25.25, 'lipoC3S3': 12.1, 'state': 'normal', 'rot1': 1459, 'rot0': 192, 'rot3': 29, 'rot2': 42, 'depth': -0.217, 'yaw': -0.28, 'datetime': '2018-11-26 11:30:58.217003', 'mgs': 0, 'flw2': 2.16, 'flw1': 2.26, 'flw0': 2.19, 'time': 7.61, 'compass': -15.6, 'pitch': 2.05, 'roll': -6.38}
{'lipoC2': 7.59, 'temp': 25.25, 'lipoC3S3': 12.02, 'state': 'normal', 'rot1': 1509, 'rot0': 198, 'rot3': 30, 'rot2': 43, 'depth': -0.14, 'yaw': -0.29, 'datetime': '2018-11-26 11:30:58.426561', 'mgs': 0, 'flw2': 2.27, 'flw1': 2.37, 'flw0': 2.27, 'time': 7.82, 'compass': -15.6, 'pitch': 2.06, 'roll': -6.37}
{'lipoC2': 7.59, 'temp': 25.25, 'lipoC3S3': 12.05, 'state': 'normal', 'rot1': 1558, 'rot0': 204, 'rot3': 31, 'rot2': 44, 'depth': 1.385, 'yaw': -0.29, 'datetime': '2018-11-26 11:30:58.639144', 'mgs': 0, 'flw2': 2.32, 'flw1': 2.72, 'flw0': 2.23, 'time': 8.03, 'compass': -15.6, 'pitch': 2.08, 'roll': -6.36}
{'lipoC2': 7.59, 'temp': 25.25, 'lipoC3S3': 11.98, 'state': 'normal', 'rot1': 1607, 'rot0': 211, 'rot3': 32, 'rot2': 46, 'depth': -0.217, 'yaw': -0.29, 'datetime': '2018-11-26 11:30:58.849156', 'mgs': 0, 'flw2': 2.25, 'flw1': 2.58, 'flw0': 2.19, 'time': 8.24, 'compass': -15.6, 'pitch': 2.08, 'roll': -6.37}
{'lipoC2': 7.58, 'temp': 25.25, 'lipoC3S3': 12.02, 'state': 'normal', 'rot1': 1657, 'rot0': 217, 'rot3': 33, 'rot2': 47, 'depth': -0.217, 'yaw': -0.31, 'datetime': '2018-11-26 11:30:59.062469', 'mgs': 0, 'flw2': 2.21, 'flw1': 2.81, 'flw0': 2.17, 'time': 8.45, 'compass': -15.62, 'pitch': 2.09, 'roll': -6.36}
{'lipoC2': 7.59, 'temp': 25.25, 'lipoC3S3': 12.02, 'state': 'normal', 'rot1': 1706, 'rot0': 224, 'rot3': 34, 'rot2': 49, 'depth': -0.14, 'yaw': -0.32, 'datetime': '2018-11-26 11:30:59.282642', 'mgs': 0, 'flw2': 2.26, 'flw1': 2.61, 'flw0': 2.28, 'time': 8.66, 'compass': -15.63, 'pitch': 2.09, 'roll': -6.35}
{'lipoC2': 7.58, 'temp': 25.25, 'lipoC3S3': 11.97, 'state': 'normal', 'rot1': 1756, 'rot0': 230, 'rot3': 35, 'rot2': 50, 'depth': -0.14, 'yaw': -0.33, 'datetime': '2018-11-26 11:30:59.487784', 'mgs': 0, 'flw2': 2.22, 'flw1': 2.67, 'flw0': 2.33, 'time': 8.88, 'compass': -15.64, 'pitch': 2.09, 'roll': -6.36}
{'lipoC2': 7.59, 'temp': 25.25, 'lipoC3S3': 12.16, 'state': 'normal', 'rot1': 1804, 'rot0': 237, 'rot3': 36, 'rot2': 52, 'depth': -0.14, 'yaw': -0.33, 'datetime': '2018-11-26 11:30:59.698633', 'mgs': 0, 'flw2': 2.27, 'flw1': 2.46, 'flw0': 2.33, 'time': 9.09, 'compass': -15.64, 'pitch': 2.09, 'roll': -6.33}
{'lipoC2': 7.59, 'temp': 25.19, 'lipoC3S3': 12.06, 'state': 'normal', 'rot1': 1853, 'rot0': 243, 'rot3': 37, 'rot2': 53, 'depth': -0.14, 'yaw': -0.34, 'datetime': '2018-11-26 11:30:59.911177', 'mgs': 0, 'flw2': 2.25, 'flw1': 2.58, 'flw0': 2.31, 'time': 9.3, 'compass': -15.66, 'pitch': 2.12, 'roll': -6.35}
{'lipoC2': 7.59, 'temp': 25.25, 'lipoC3S3': 11.98, 'state': 'normal', 'rot1': 1903, 'rot0': 249, 'rot3': 38, 'rot2': 54, 'depth': -0.14, 'yaw': -0.35, 'datetime': '2018-11-26 11:31:00.123415', 'mgs': 0, 'flw2': 2.12, 'flw1': 2.67, 'flw0': 2.15, 'time': 9.51, 'compass': -15.66, 'pitch': 2.12, 'roll': -6.36}
{'lipoC2': 7.61, 'temp': 25.25, 'lipoC3S3': 12.04, 'state': 'normal', 'rot1': 1952, 'rot0': 256, 'rot3': 39, 'rot2': 56, 'depth': 0.699, 'yaw': -0.35, 'datetime': '2018-11-26 11:31:00.334598', 'mgs': 0, 'flw2': 2.2, 'flw1': 2.81, 'flw0': 2.12, 'time': 9.72, 'compass': -15.66, 'pitch': 2.14, 'roll': -6.36}
{'lipoC2': 7.58, 'temp': 25.25, 'lipoC3S3': 11.94, 'state': 'normal', 'rot1': 2002, 'rot0': 262, 'rot3': 40, 'rot2': 57, 'depth': -0.14, 'yaw': -0.37, 'datetime': '2018-11-26 11:31:00.545148', 'mgs': 0, 'flw2': 2.17, 'flw1': 2.64, 'flw0': 2.21, 'time': 9.94, 'compass': -15.68, 'pitch': 2.13, 'roll': -6.35}
{'lipoC2': 7.59, 'temp': 25.25, 'lipoC3S3': 11.9, 'state': 'normal', 'rot1': 2050, 'rot0': 268, 'rot3': 41, 'rot2': 59, 'depth': -0.522, 'yaw': -0.38, 'datetime': '2018-11-26 11:31:00.761708', 'mgs': 0, 'flw2': 2.14, 'flw1': 2.58, 'flw0': 2.21, 'time': 10.15, 'compass': -15.69, 'pitch': 2.14, 'roll': -6.35}
{'lipoC2': 7.59, 'temp': 25.19, 'lipoC3S3': 12.04, 'state': 'normal', 'rot1': 2100, 'rot0': 274, 'rot3': 42, 'rot2': 60, 'depth': 1.233, 'yaw': -0.39, 'datetime': '2018-11-26 11:31:00.974570', 'mgs': 0, 'flw2': 2.26, 'flw1': 2.55, 'flw0': 2.29, 'time': 10.36, 'compass': -15.71, 'pitch': 2.13, 'roll': -6.34}
{'lipoC2': 7.59, 'temp': 25.19, 'lipoC3S3': 12.04, 'state': 'normal', 'rot1': 2150, 'rot0': 281, 'rot3': 43, 'rot2': 62, 'depth': -0.14, 'yaw': -0.4, 'datetime': '2018-11-26 11:31:01.186140', 'mgs': 0, 'flw2': 2.12, 'flw1': 2.67, 'flw0': 2.37, 'time': 10.57, 'compass': -15.71, 'pitch': 2.14, 'roll': -6.33}
{'lipoC2': 7.59, 'temp': 25.19, 'lipoC3S3': 11.98, 'state': 'normal', 'rot1': 2199, 'rot0': 287, 'rot3': 44, 'rot2': 63, 'depth': -0.217, 'yaw': -0.42, 'datetime': '2018-11-26 11:31:01.395538', 'mgs': 0, 'flw2': 2.21, 'flw1': 2.55, 'flw0': 2.25, 'time': 10.78, 'compass': -15.73, 'pitch': 2.14, 'roll': -6.34}
{'lipoC2': 7.59, 'temp': 25.25, 'lipoC3S3': 11.94, 'state': 'normal', 'rot1': 2249, 'rot0': 294, 'rot3': 45, 'rot2': 64, 'depth': -0.14, 'yaw': -0.42, 'datetime': '2018-11-26 11:31:01.606746', 'mgs': 0, 'flw2': 2.16, 'flw1': 2.61, 'flw0': 2.2, 'time': 11.0, 'compass': -15.73, 'pitch': 2.15, 'roll': -6.34}
{'lipoC2': 7.59, 'temp': 25.25, 'lipoC3S3': 12.09, 'state': 'normal', 'rot1': 2299, 'rot0': 300, 'rot3': 46, 'rot2': 66, 'depth': -0.217, 'yaw': -0.44, 'datetime': '2018-11-26 11:31:01.820683', 'mgs': 0, 'flw2': 2.26, 'flw1': 2.84, 'flw0': 2.2, 'time': 11.21, 'compass': -15.75, 'pitch': 2.15, 'roll': -6.33}
{'lipoC2': 7.59, 'temp': 25.25, 'lipoC3S3': 12.1, 'state': 'normal', 'rot1': 2348, 'rot0': 307, 'rot3': 47, 'rot2': 67, 'depth': -0.14, 'yaw': -0.44, 'datetime': '2018-11-26 11:31:02.030629', 'mgs': 0, 'flw2': 2.28, 'flw1': 2.58, 'flw0': 2.25, 'time': 11.42, 'compass': -15.75, 'pitch': 2.17, 'roll': -6.36}
{'lipoC2': 7.59, 'temp': 25.25, 'lipoC3S3': 12.09, 'state': 'normal', 'rot1': 2397, 'rot0': 313, 'rot3': 47, 'rot2': 69, 'depth': -0.14, 'yaw': -0.44, 'datetime': '2018-11-26 11:31:02.244369', 'mgs': 0, 'flw2': 2.25, 'flw1': 2.52, 'flw0': 2.38, 'time': 11.63, 'compass': -15.75, 'pitch': 2.19, 'roll': -6.35}
{'lipoC2': 7.59, 'temp': 25.25, 'lipoC3S3': 12.02, 'state': 'normal', 'rot1': 2446, 'rot0': 319, 'rot3': 48, 'rot2': 70, 'depth': 1.004, 'yaw': -0.46, 'datetime': '2018-11-26 11:31:02.454769', 'mgs': 0, 'flw2': 2.36, 'flw1': 2.78, 'flw0': 2.1, 'time': 11.85, 'compass': -15.77, 'pitch': 2.2, 'roll': -6.34}
{'lipoC2': 7.59, 'temp': 25.25, 'lipoC3S3': 12.02, 'state': 'normal', 'rot1': 2496, 'rot0': 325, 'rot3': 50, 'rot2': 72, 'depth': 0.928, 'yaw': -0.48, 'datetime': '2018-11-26 11:31:02.667539', 'mgs': 0, 'flw2': 2.28, 'flw1': 2.49, 'flw0': 2.17, 'time': 12.06, 'compass': -15.79, 'pitch': 2.2, 'roll': -6.32}
{'lipoC2': 7.59, 'temp': 25.25, 'lipoC3S3': 11.96, 'state': 'normal', 'rot1': 2546, 'rot0': 332, 'rot3': 51, 'rot2': 73, 'depth': -0.14, 'yaw': -0.5, 'datetime': '2018-11-26 11:31:02.878541', 'mgs': 0, 'flw2': 2.2, 'flw1': 2.49, 'flw0': 2.23, 'time': 12.27, 'compass': -15.81, 'pitch': 2.2, 'roll': -6.31}
{'lipoC2': 7.59, 'temp': 25.25, 'lipoC3S3': 11.96, 'state': 'normal', 'rot1': 2595, 'rot0': 338, 'rot3': 52, 'rot2': 74, 'depth': -0.217, 'yaw': -0.5, 'datetime': '2018-11-26 11:31:03.092410', 'mgs': 0, 'flw2': 2.16, 'flw1': 2.31, 'flw0': 2.21, 'time': 12.48, 'compass': -15.81, 'pitch': 2.22, 'roll': -6.31}
{'lipoC2': 7.59, 'temp': 25.25, 'lipoC3S3': 12.04, 'state': 'normal', 'rot1': 2644, 'rot0': 345, 'rot3': 53, 'rot2': 76, 'depth': -0.14, 'yaw': -0.51, 'datetime': '2018-11-26 11:31:03.304748', 'mgs': 0, 'flw2': 2.19, 'flw1': 2.37, 'flw0': 2.22, 'time': 12.69, 'compass': -15.82, 'pitch': 2.24, 'roll': -6.28}
{'lipoC2': 7.59, 'temp': 25.25, 'lipoC3S3': 12.02, 'state': 'normal', 'rot1': 2693, 'rot0': 351, 'rot3': 54, 'rot2': 77, 'depth': 0.699, 'yaw': -0.53, 'datetime': '2018-11-26 11:31:03.512890', 'mgs': 0, 'flw2': 2.28, 'flw1': 2.58, 'flw0': 2.23, 'time': 12.9, 'compass': -15.84, 'pitch': 2.27, 'roll': -6.28}
{'lipoC2': 7.59, 'temp': 25.25, 'lipoC3S3': 12.02, 'state': 'normal', 'rot1': 2743, 'rot0': 357, 'rot3': 55, 'rot2': 79, 'depth': 0.47, 'yaw': -0.54, 'datetime': '2018-11-26 11:31:03.725297', 'mgs': 0, 'flw2': 2.34, 'flw1': 2.52, 'flw0': 2.06, 'time': 13.12, 'compass': -15.85, 'pitch': 2.28, 'roll': -6.28}
{'lipoC2': 7.59, 'temp': 25.25, 'lipoC3S3': 12.0, 'state': 'normal', 'rot1': 2793, 'rot0': 364, 'rot3': 56, 'rot2': 80, 'depth': -0.14, 'yaw': -0.55, 'datetime': '2018-11-26 11:31:03.937028', 'mgs': 0, 'flw2': 2.21, 'flw1': 2.4, 'flw0': 2.25, 'time': 13.33, 'compass': -15.86, 'pitch': 2.28, 'roll': -6.29}
{'lipoC2': 7.59, 'temp': 25.25, 'lipoC3S3': 12.04, 'state': 'normal', 'rot1': 2841, 'rot0': 370, 'rot3': 57, 'rot2': 82, 'depth': 1.233, 'yaw': -0.55, 'datetime': '2018-11-26 11:31:04.149572', 'mgs': 0, 'flw2': 2.21, 'flw1': 2.78, 'flw0': 2.23, 'time': 13.54, 'compass': -15.86, 'pitch': 2.28, 'roll': -6.3}
{'lipoC2': 7.59, 'temp': 25.25, 'lipoC3S3': 12.04, 'state': 'normal', 'rot1': 2891, 'rot0': 377, 'rot3': 57, 'rot2': 83, 'depth': 1.004, 'yaw': -0.56, 'datetime': '2018-11-26 11:31:04.358793', 'mgs': 0, 'flw2': 2.25, 'flw1': 2.58, 'flw0': 2.22, 'time': 13.75, 'compass': -15.87, 'pitch': 2.28, 'roll': -6.29}
{'lipoC2': 7.58, 'temp': 25.25, 'lipoC3S3': 12.0, 'state': 'normal', 'rot1': 2941, 'rot0': 384, 'rot3': 58, 'rot2': 84, 'depth': -0.217, 'yaw': -0.56, 'datetime': '2018-11-26 11:31:04.573931', 'mgs': 0, 'flw2': 2.17, 'flw1': 2.67, 'flw0': 2.27, 'time': 13.97, 'compass': -15.87, 'pitch': 2.29, 'roll': -6.28}
{'lipoC2': 7.59, 'temp': 25.25, 'lipoC3S3': 11.96, 'state': 'normal', 'rot1': 2990, 'rot0': 390, 'rot3': 59, 'rot2': 86, 'depth': -0.14, 'yaw': -0.57, 'datetime': '2018-11-26 11:31:04.785962', 'mgs': 0, 'flw2': 2.11, 'flw1': 2.4, 'flw0': 2.31, 'time': 14.18, 'compass': -15.88, 'pitch': 2.31, 'roll': -6.29}
{'lipoC2': 7.59, 'temp': 25.19, 'lipoC3S3': 11.92, 'state': 'normal', 'rot1': 3039, 'rot0': 396, 'rot3': 60, 'rot2': 87, 'depth': -0.217, 'yaw': -0.58, 'datetime': '2018-11-26 11:31:04.998735', 'mgs': 0, 'flw2': 2.16, 'flw1': 2.43, 'flw0': 2.15, 'time': 14.39, 'compass': -15.89, 'pitch': 2.32, 'roll': -6.27}
{'lipoC2': 7.59, 'temp': 25.25, 'lipoC3S3': 12.1, 'state': 'normal', 'rot1': 3089, 'rot0': 403, 'rot3': 61, 'rot2': 89, 'depth': -0.217, 'yaw': -0.58, 'datetime': '2018-11-26 11:31:05.228318', 'mgs': 0, 'flw2': 2.14, 'flw1': 2.72, 'flw0': 2.17, 'time': 14.6, 'compass': -15.89, 'pitch': 2.34, 'roll': -6.26}
{'lipoC2': 7.61, 'temp': 25.25, 'lipoC3S3': 12.01, 'state': 'normal', 'rot1': 3163, 'rot0': 412, 'rot3': 62, 'rot2': 91, 'depth': 0.394, 'yaw': -0.62, 'datetime': '2018-11-26 11:31:05.520009', 'mgs': 0, 'flw2': 2.28, 'flw1': 2.64, 'flw0': 2.19, 'time': 14.92, 'compass': -15.93, 'pitch': 2.35, 'roll': -6.27}
{'lipoC2': 7.59, 'temp': 25.25, 'lipoC3S3': 12.01, 'state': 'normal', 'rot1': 3213, 'rot0': 418, 'rot3': 63, 'rot2': 92, 'depth': 0.546, 'yaw': -0.62, 'datetime': '2018-11-26 11:31:05.731601', 'mgs': 0, 'flw2': 2.31, 'flw1': 2.52, 'flw0': 2.19, 'time': 15.13, 'compass': -15.93, 'pitch': 2.34, 'roll': -6.27}
{'lipoC2': 7.58, 'temp': 25.19, 'lipoC3S3': 11.94, 'state': 'normal', 'rot1': 3263, 'rot0': 425, 'rot3': 64, 'rot2': 94, 'depth': -0.14, 'yaw': -0.62, 'datetime': '2018-11-26 11:31:05.946646', 'mgs': 0, 'flw2': 2.14, 'flw1': 2.49, 'flw0': 2.15, 'time': 15.34, 'compass': -15.93, 'pitch': 2.34, 'roll': -6.26}
{'lipoC2': 7.59, 'temp': 25.19, 'lipoC3S3': 11.94, 'state': 'normal', 'rot1': 3313, 'rot0': 431, 'rot3': 65, 'rot2': 95, 'depth': -0.14, 'yaw': -0.63, 'datetime': '2018-11-26 11:31:06.157760', 'mgs': 0, 'flw2': 2.15, 'flw1': 2.37, 'flw0': 2.28, 'time': 15.56, 'compass': -15.94, 'pitch': 2.35, 'roll': -6.27}
{'lipoC2': 7.59, 'temp': 25.25, 'lipoC3S3': 11.96, 'state': 'normal', 'rot1': 3363, 'rot0': 437, 'rot3': 66, 'rot2': 97, 'depth': -0.217, 'yaw': -0.65, 'datetime': '2018-11-26 11:31:06.369997', 'mgs': 0, 'flw2': 2.2, 'flw1': 2.55, 'flw0': 2.26, 'time': 15.77, 'compass': -15.96, 'pitch': 2.36, 'roll': -6.25}
{'lipoC2': 7.59, 'temp': 25.25, 'lipoC3S3': 12.01, 'state': 'normal', 'rot1': 3413, 'rot0': 444, 'rot3': 67, 'rot2': 98, 'depth': 0.241, 'yaw': -0.65, 'datetime': '2018-11-26 11:31:06.580667', 'mgs': 0, 'flw2': 2.26, 'flw1': 2.23, 'flw0': 2.2, 'time': 15.98, 'compass': -15.97, 'pitch': 2.38, 'roll': -6.26}
{'lipoC2': 7.59, 'temp': 25.25, 'lipoC3S3': 12.01, 'state': 'normal', 'rot1': 3463, 'rot0': 450, 'rot3': 68, 'rot2': 100, 'depth': 0.47, 'yaw': -0.66, 'datetime': '2018-11-26 11:31:06.793171', 'mgs': 0, 'flw2': 2.25, 'flw1': 2.7, 'flw0': 2.2, 'time': 16.19, 'compass': -15.97, 'pitch': 2.39, 'roll': -6.27}
{'lipoC2': 7.59, 'temp': 25.19, 'lipoC3S3': 11.89, 'state': 'normal', 'rot1': 3512, 'rot0': 456, 'rot3': 69, 'rot2': 101, 'depth': -0.446, 'yaw': -0.66, 'datetime': '2018-11-26 11:31:07.004459', 'mgs': 0, 'flw2': 2.08, 'flw1': 2.46, 'flw0': 2.21, 'time': 16.4, 'compass': -15.97, 'pitch': 2.4, 'roll': -6.27}
{'lipoC2': 7.59, 'temp': 25.31, 'lipoC3S3': 12.06, 'state': 'normal', 'rot1': 3562, 'rot0': 462, 'rot3': 70, 'rot2': 102, 'depth': -0.14, 'yaw': -0.68, 'datetime': '2018-11-26 11:31:07.216139', 'mgs': 0, 'flw2': 2.19, 'flw1': 2.67, 'flw0': 2.22, 'time': 16.62, 'compass': -15.99, 'pitch': 2.42, 'roll': -6.26}
{'lipoC2': 7.59, 'temp': 25.25, 'lipoC3S3': 12.01, 'state': 'normal', 'rot1': 3611, 'rot0': 469, 'rot3': 71, 'rot2': 104, 'depth': 0.012, 'yaw': -0.7, 'datetime': '2018-11-26 11:31:07.429179', 'mgs': 0, 'flw2': 2.12, 'flw1': 2.52, 'flw0': 2.17, 'time': 16.83, 'compass': -16.01, 'pitch': 2.42, 'roll': -6.26}
{'lipoC2': 7.59, 'temp': 25.25, 'lipoC3S3': 12.02, 'state': 'normal', 'rot1': 3661, 'rot0': 475, 'rot3': 72, 'rot2': 105, 'depth': 0.699, 'yaw': -0.71, 'datetime': '2018-11-26 11:31:07.641952', 'mgs': 0, 'flw2': 2.21, 'flw1': 2.58, 'flw0': 2.09, 'time': 17.04, 'compass': -16.02, 'pitch': 2.42, 'roll': -6.26}
{'lipoC2': 7.59, 'temp': 25.25, 'lipoC3S3': 12.02, 'state': 'normal', 'rot1': 3710, 'rot0': 481, 'rot3': 73, 'rot2': 107, 'depth': 1.004, 'yaw': -0.72, 'datetime': '2018-11-26 11:31:07.852072', 'mgs': 0, 'flw2': 2.22, 'flw1': 2.55, 'flw0': 2.1, 'time': 17.25, 'compass': -16.03, 'pitch': 2.42, 'roll': -6.25}
{'lipoC2': 7.59, 'temp': 25.25, 'lipoC3S3': 12.02, 'state': 'normal', 'rot1': 3760, 'rot0': 487, 'rot3': 74, 'rot2': 108, 'depth': 0.928, 'yaw': -0.73, 'datetime': '2018-11-26 11:31:08.063785', 'mgs': 0, 'flw2': 2.32, 'flw1': 2.52, 'flw0': 2.12, 'time': 17.46, 'compass': -16.04, 'pitch': 2.44, 'roll': -6.32}
{'lipoC2': 7.59, 'temp': 25.25, 'lipoC3S3': 11.9, 'state': 'normal', 'rot1': 3809, 'rot0': 494, 'rot3': 75, 'rot2': 110, 'depth': -0.827, 'yaw': -0.74, 'datetime': '2018-11-26 11:31:08.276041', 'mgs': 0, 'flw2': 2.17, 'flw1': 2.34, 'flw0': 2.12, 'time': 17.68, 'compass': -16.05, 'pitch': 2.46, 'roll': -6.31}
{'lipoC2': 7.61, 'temp': 25.25, 'lipoC3S3': 12.02, 'state': 'normal', 'rot1': 3859, 'rot0': 500, 'rot3': 76, 'rot2': 111, 'depth': 0.775, 'yaw': -0.74, 'datetime': '2018-11-26 11:31:08.487358', 'mgs': 0, 'flw2': 2.29, 'flw1': 2.61, 'flw0': 2.14, 'time': 17.89, 'compass': -16.05, 'pitch': 2.47, 'roll': -6.31}
{'lipoC2': 7.59, 'temp': 25.25, 'lipoC3S3': 12.01, 'state': 'normal', 'rot1': 3908, 'rot0': 506, 'rot3': 76, 'rot2': 113, 'depth': 0.47, 'yaw': -0.75, 'datetime': '2018-11-26 11:31:08.699546', 'mgs': 0, 'flw2': 2.23, 'flw1': 2.7, 'flw0': 2.16, 'time': 18.1, 'compass': -16.06, 'pitch': 2.49, 'roll': -6.29}
{'lipoC2': 7.59, 'temp': 25.25, 'lipoC3S3': 12.02, 'state': 'normal', 'rot1': 3957, 'rot0': 513, 'rot3': 77, 'rot2': 114, 'depth': 1.157, 'yaw': -0.77, 'datetime': '2018-11-26 11:31:08.912397', 'mgs': 0, 'flw2': 2.26, 'flw1': 2.99, 'flw0': 2.26, 'time': 18.31, 'compass': -16.08, 'pitch': 2.5, 'roll': -6.28}
{'lipoC2': 7.59, 'temp': 25.31, 'lipoC3S3': 12.1, 'state': 'normal', 'rot1': 4007, 'rot0': 519, 'rot3': 78, 'rot2': 115, 'depth': -0.14, 'yaw': -0.77, 'datetime': '2018-11-26 11:31:09.124049', 'mgs': 0, 'flw2': 2.17, 'flw1': 2.61, 'flw0': 2.43, 'time': 18.53, 'compass': -16.08, 'pitch': 2.5, 'roll': -6.28}
{'lipoC2': 7.61, 'temp': 25.25, 'lipoC3S3': 12.02, 'state': 'normal', 'rot1': 4056, 'rot0': 525, 'rot3': 79, 'rot2': 117, 'depth': 0.623, 'yaw': -0.78, 'datetime': '2018-11-26 11:31:09.336099', 'mgs': 0, 'flw2': 2.26, 'flw1': 2.67, 'flw0': 2.22, 'time': 18.74, 'compass': -16.09, 'pitch': 2.49, 'roll': -6.29}
{'lipoC2': 7.59, 'temp': 25.25, 'lipoC3S3': 12.02, 'state': 'normal', 'rot1': 4105, 'rot0': 532, 'rot3': 80, 'rot2': 118, 'depth': 1.309, 'yaw': -0.78, 'datetime': '2018-11-26 11:31:09.549523', 'mgs': 0, 'flw2': 2.21, 'flw1': 3.08, 'flw0': 2.09, 'time': 18.95, 'compass': -16.09, 'pitch': 2.5, 'roll': -6.3}
{'lipoC2': 7.59, 'temp': 25.25, 'lipoC3S3': 11.9, 'state': 'normal', 'rot1': 4154, 'rot0': 538, 'rot3': 81, 'rot2': 120, 'depth': -1.132, 'yaw': -0.78, 'datetime': '2018-11-26 11:31:09.764539', 'mgs': 0, 'flw2': 2.2, 'flw1': 2.52, 'flw0': 2.23, 'time': 19.16, 'compass': -16.09, 'pitch': 2.53, 'roll': -6.29}
{'lipoC2': 7.59, 'temp': 25.25, 'lipoC3S3': 11.93, 'state': 'normal', 'rot1': 4204, 'rot0': 545, 'rot3': 82, 'rot2': 121, 'depth': -0.217, 'yaw': -0.78, 'datetime': '2018-11-26 11:31:09.974109', 'mgs': 0, 'flw2': 2.14, 'flw1': 2.58, 'flw0': 2.23, 'time': 19.38, 'compass': -16.1, 'pitch': 2.54, 'roll': -6.29}
{'lipoC2': 7.59, 'temp': 25.25, 'lipoC3S3': 12.0, 'state': 'normal', 'rot1': 4253, 'rot0': 551, 'rot3': 83, 'rot2': 123, 'depth': 0.012, 'yaw': -0.79, 'datetime': '2018-11-26 11:31:10.187897', 'mgs': 0, 'flw2': 2.19, 'flw1': 2.43, 'flw0': 2.2, 'time': 19.59, 'compass': -16.1, 'pitch': 2.56, 'roll': -6.28}
{'lipoC2': 7.59, 'temp': 25.25, 'lipoC3S3': 12.04, 'state': 'normal', 'rot1': 4304, 'rot0': 557, 'rot3': 84, 'rot2': 124, 'depth': -0.064, 'yaw': -0.79, 'datetime': '2018-11-26 11:31:10.400551', 'mgs': 0, 'flw2': 2.19, 'flw1': 2.7, 'flw0': 2.2, 'time': 19.8, 'compass': -16.1, 'pitch': 2.57, 'roll': -6.27}
{'lipoC2': 7.58, 'temp': 25.31, 'lipoC3S3': 12.02, 'state': 'normal', 'rot1': 4353, 'rot0': 564, 'rot3': 85, 'rot2': 126, 'depth': 1.309, 'yaw': -0.81, 'datetime': '2018-11-26 11:31:10.609565', 'mgs': 0, 'flw2': 2.26, 'flw1': 2.96, 'flw0': 2.26, 'time': 20.01, 'compass': -16.12, 'pitch': 2.59, 'roll': -6.27}
{'lipoC2': 7.59, 'temp': 25.31, 'lipoC3S3': 12.02, 'state': 'normal', 'rot1': 4404, 'rot0': 570, 'rot3': 85, 'rot2': 127, 'depth': -0.064, 'yaw': -0.81, 'datetime': '2018-11-26 11:31:10.822543', 'mgs': 0, 'flw2': 2.17, 'flw1': 2.52, 'flw0': 2.36, 'time': 20.22, 'compass': -16.13, 'pitch': 2.58, 'roll': -6.27}
{'lipoC2': 7.59, 'temp': 25.19, 'lipoC3S3': 12.05, 'state': 'normal', 'rot1': 4453, 'rot0': 576, 'rot3': 86, 'rot2': 129, 'depth': -0.217, 'yaw': -0.83, 'datetime': '2018-11-26 11:31:11.036671', 'mgs': 0, 'flw2': 2.15, 'flw1': 2.7, 'flw0': 2.4, 'time': 20.43, 'compass': -16.14, 'pitch': 2.58, 'roll': -6.3}
{'lipoC2': 7.59, 'temp': 25.25, 'lipoC3S3': 12.08, 'state': 'normal', 'rot1': 4504, 'rot0': 583, 'rot3': 87, 'rot2': 130, 'depth': -0.14, 'yaw': -0.84, 'datetime': '2018-11-26 11:31:11.246658', 'mgs': 0, 'flw2': 2.17, 'flw1': 3.05, 'flw0': 2.26, 'time': 20.65, 'compass': -16.15, 'pitch': 2.57, 'roll': -6.3}
{'lipoC2': 7.59, 'temp': 25.31, 'lipoC3S3': 12.04, 'state': 'normal', 'rot1': 4553, 'rot0': 589, 'rot3': 88, 'rot2': 131, 'depth': -0.14, 'yaw': -0.86, 'datetime': '2018-11-26 11:31:11.460702', 'mgs': 0, 'flw2': 2.14, 'flw1': 2.4, 'flw0': 2.23, 'time': 20.86, 'compass': -16.17, 'pitch': 2.58, 'roll': -6.3}
{'lipoC2': 7.58, 'temp': 25.31, 'lipoC3S3': 12.01, 'state': 'normal', 'rot1': 4603, 'rot0': 596, 'rot3': 89, 'rot2': 133, 'depth': -0.14, 'yaw': -0.86, 'datetime': '2018-11-26 11:31:11.671864', 'mgs': 0, 'flw2': 2.15, 'flw1': 2.78, 'flw0': 2.26, 'time': 21.07, 'compass': -16.18, 'pitch': 2.6, 'roll': -6.27}
{'lipoC2': 7.58, 'temp': 25.31, 'lipoC3S3': 11.97, 'state': 'normal', 'rot1': 4653, 'rot0': 602, 'rot3': 90, 'rot2': 134, 'depth': -0.14, 'yaw': -0.88, 'datetime': '2018-11-26 11:31:11.881350', 'mgs': 0, 'flw2': 2.11, 'flw1': 2.72, 'flw0': 2.28, 'time': 21.28, 'compass': -16.19, 'pitch': 2.61, 'roll': -6.3}
{'lipoC2': 7.59, 'temp': 25.25, 'lipoC3S3': 12.0, 'state': 'normal', 'rot1': 4702, 'rot0': 608, 'rot3': 91, 'rot2': 136, 'depth': 0.012, 'yaw': -0.9, 'datetime': '2018-11-26 11:31:12.095621', 'mgs': 0, 'flw2': 2.15, 'flw1': 2.55, 'flw0': 2.14, 'time': 21.5, 'compass': -16.21, 'pitch': 2.63, 'roll': -6.3}
{'lipoC2': 7.59, 'temp': 25.25, 'lipoC3S3': 12.02, 'state': 'normal', 'rot1': 4751, 'rot0': 615, 'rot3': 92, 'rot2': 137, 'depth': 0.775, 'yaw': -0.9, 'datetime': '2018-11-26 11:31:12.306111', 'mgs': 0, 'flw2': 2.2, 'flw1': 2.7, 'flw0': 2.1, 'time': 21.71, 'compass': -16.21, 'pitch': 2.64, 'roll': -6.29}
{'lipoC2': 7.59, 'temp': 25.25, 'lipoC3S3': 12.02, 'state': 'normal', 'rot1': 4801, 'rot0': 621, 'rot3': 93, 'rot2': 139, 'depth': -0.064, 'yaw': -0.92, 'datetime': '2018-11-26 11:31:12.519976', 'mgs': 0, 'flw2': 2.23, 'flw1': 2.72, 'flw0': 2.25, 'time': 21.92, 'compass': -16.23, 'pitch': 2.64, 'roll': -6.31}
{'lipoC2': 7.58, 'temp': 25.25, 'lipoC3S3': 11.98, 'state': 'normal', 'rot1': 4851, 'rot0': 627, 'rot3': 94, 'rot2': 140, 'depth': -0.217, 'yaw': -0.93, 'datetime': '2018-11-26 11:31:12.727629', 'mgs': 0, 'flw2': 2.15, 'flw1': 2.72, 'flw0': 2.16, 'time': 22.13, 'compass': -16.24, 'pitch': 2.64, 'roll': -6.31}
{'lipoC2': 7.59, 'temp': 25.25, 'lipoC3S3': 11.87, 'state': 'normal', 'rot1': 4901, 'rot0': 634, 'rot3': 94, 'rot2': 142, 'depth': -0.369, 'yaw': -0.91, 'datetime': '2018-11-26 11:31:12.939723', 'mgs': 0, 'flw2': 2.12, 'flw1': 2.7, 'flw0': 2.33, 'time': 22.35, 'compass': -16.22, 'pitch': 2.65, 'roll': -6.29}
{'lipoC2': 7.59, 'temp': 25.25, 'lipoC3S3': 11.88, 'state': 'normal', 'rot1': 4950, 'rot0': 640, 'rot3': 95, 'rot2': 143, 'depth': -0.446, 'yaw': -0.93, 'datetime': '2018-11-26 11:31:13.151932', 'mgs': 0, 'flw2': 2.17, 'flw1': 2.55, 'flw0': 2.12, 'time': 22.56, 'compass': -16.24, 'pitch': 2.66, 'roll': -6.29}
{'lipoC2': 7.59, 'temp': 25.25, 'lipoC3S3': 11.88, 'state': 'normal', 'rot1': 5000, 'rot0': 646, 'rot3': 96, 'rot2': 145, 'depth': -0.751, 'yaw': -0.93, 'datetime': '2018-11-26 11:31:13.363582', 'mgs': 0, 'flw2': 2.17, 'flw1': 2.37, 'flw0': 2.12, 'time': 22.77, 'compass': -16.24, 'pitch': 2.67, 'roll': -6.29}
{'lipoC2': 7.59, 'temp': 25.25, 'lipoC3S3': 11.88, 'state': 'normal', 'rot1': 5049, 'rot0': 652, 'rot3': 97, 'rot2': 146, 'depth': -1.285, 'yaw': -0.93, 'datetime': '2018-11-26 11:31:13.573522', 'mgs': 0, 'flw2': 2.2, 'flw1': 2.67, 'flw0': 2.15, 'time': 22.98, 'compass': -16.24, 'pitch': 2.68, 'roll': -6.28}
{'lipoC2': 7.59, 'temp': 25.31, 'lipoC3S3': 12.01, 'state': 'normal', 'rot1': 5100, 'rot0': 659, 'rot3': 98, 'rot2': 147, 'depth': 1.08, 'yaw': -0.95, 'datetime': '2018-11-26 11:31:13.786760', 'mgs': 0, 'flw2': 2.28, 'flw1': 2.9, 'flw0': 2.15, 'time': 23.19, 'compass': -16.26, 'pitch': 2.7, 'roll': -6.28}
{'lipoC2': 7.59, 'temp': 25.25, 'lipoC3S3': 12.02, 'state': 'normal', 'rot1': 5149, 'rot0': 665, 'rot3': 99, 'rot2': 149, 'depth': -0.14, 'yaw': -0.96, 'datetime': '2018-11-26 11:31:13.999290', 'mgs': 0, 'flw2': 2.26, 'flw1': 2.87, 'flw0': 2.26, 'time': 23.41, 'compass': -16.27, 'pitch': 2.71, 'roll': -6.27}
{'lipoC2': 7.59, 'temp': 25.25, 'lipoC3S3': 12.05, 'state': 'normal', 'rot1': 5199, 'rot0': 671, 'rot3': 100, 'rot2': 150, 'depth': -0.14, 'yaw': -0.97, 'datetime': '2018-11-26 11:31:14.212155', 'mgs': 0, 'flw2': 2.22, 'flw1': 2.43, 'flw0': 2.34, 'time': 23.62, 'compass': -16.28, 'pitch': 2.73, 'roll': -6.26}
{'lipoC2': 7.58, 'temp': 25.25, 'lipoC3S3': 12.01, 'state': 'normal', 'rot1': 5248, 'rot0': 678, 'rot3': 101, 'rot2': 152, 'depth': 0.851, 'yaw': -0.99, 'datetime': '2018-11-26 11:31:14.424899', 'mgs': 0, 'flw2': 2.34, 'flw1': 2.78, 'flw0': 2.08, 'time': 23.83, 'compass': -16.3, 'pitch': 2.72, 'roll': -6.27}
{'lipoC2': 7.59, 'temp': 25.25, 'lipoC3S3': 12.02, 'state': 'normal', 'rot1': 5298, 'rot0': 684, 'rot3': 102, 'rot2': 153, 'depth': -0.217, 'yaw': -0.99, 'datetime': '2018-11-26 11:31:14.636829', 'mgs': 0, 'flw2': 2.22, 'flw1': 2.61, 'flw0': 2.28, 'time': 24.05, 'compass': -16.3, 'pitch': 2.72, 'roll': -6.27}
{'lipoC2': 7.59, 'temp': 25.31, 'lipoC3S3': 11.96, 'state': 'normal', 'rot1': 5349, 'rot0': 690, 'rot3': 103, 'rot2': 155, 'depth': -0.217, 'yaw': -0.99, 'datetime': '2018-11-26 11:31:14.850502', 'mgs': 0, 'flw2': 2.2, 'flw1': 2.55, 'flw0': 2.27, 'time': 24.26, 'compass': -16.31, 'pitch': 2.73, 'roll': -6.29}
{'lipoC2': 7.59, 'temp': 25.31, 'lipoC3S3': 12.01, 'state': 'normal', 'rot1': 5398, 'rot0': 697, 'rot3': 103, 'rot2': 156, 'depth': 0.699, 'yaw': -0.99, 'datetime': '2018-11-26 11:31:15.062278', 'mgs': 0, 'flw2': 2.28, 'flw1': 2.87, 'flw0': 2.2, 'time': 24.47, 'compass': -16.3, 'pitch': 2.76, 'roll': -6.29}
{'lipoC2': 7.59, 'temp': 25.31, 'lipoC3S3': 12.01, 'state': 'normal', 'rot1': 5447, 'rot0': 703, 'rot3': 104, 'rot2': 158, 'depth': 1.309, 'yaw': -1.0, 'datetime': '2018-11-26 11:31:15.272678', 'mgs': 0, 'flw2': 2.29, 'flw1': 2.75, 'flw0': 2.17, 'time': 24.68, 'compass': -16.31, 'pitch': 2.77, 'roll': -6.28}
{'lipoC2': 7.59, 'temp': 25.31, 'lipoC3S3': 11.94, 'state': 'normal', 'rot1': 5497, 'rot0': 709, 'rot3': 105, 'rot2': 159, 'depth': -0.14, 'yaw': -1.0, 'datetime': '2018-11-26 11:31:15.484883', 'mgs': 0, 'flw2': 2.15, 'flw1': 2.23, 'flw0': 2.17, 'time': 24.89, 'compass': -16.31, 'pitch': 2.77, 'roll': -6.26}
{'lipoC2': 7.59, 'temp': 25.25, 'lipoC3S3': 12.02, 'state': 'normal', 'rot1': 5547, 'rot0': 716, 'rot3': 106, 'rot2': 161, 'depth': 0.928, 'yaw': -1.01, 'datetime': '2018-11-26 11:31:15.697203', 'mgs': 0, 'flw2': 2.22, 'flw1': 2.9, 'flw0': 2.05, 'time': 25.11, 'compass': -16.32, 'pitch': 2.78, 'roll': -6.26}
{'lipoC2': 7.59, 'temp': 25.25, 'lipoC3S3': 12.05, 'state': 'normal', 'rot1': 5598, 'rot0': 722, 'rot3': 107, 'rot2': 162, 'depth': -0.14, 'yaw': -1.04, 'datetime': '2018-11-26 11:31:15.909510', 'mgs': 0, 'flw2': 2.15, 'flw1': 2.29, 'flw0': 2.12, 'time': 25.32, 'compass': -16.36, 'pitch': 2.77, 'roll': -6.25}
{'lipoC2': 7.59, 'temp': 25.31, 'lipoC3S3': 12.02, 'state': 'normal', 'rot1': 5648, 'rot0': 728, 'rot3': 108, 'rot2': 164, 'depth': -0.14, 'yaw': -1.06, 'datetime': '2018-11-26 11:31:16.122398', 'mgs': 0, 'flw2': 2.2, 'flw1': 2.81, 'flw0': 2.25, 'time': 25.53, 'compass': -16.37, 'pitch': 2.77, 'roll': -6.25}
{'lipoC2': 7.59, 'temp': 25.25, 'lipoC3S3': 11.89, 'state': 'normal', 'rot1': 5697, 'rot0': 735, 'rot3': 109, 'rot2': 165, 'depth': -0.903, 'yaw': -1.08, 'datetime': '2018-11-26 11:31:16.334887', 'mgs': 0, 'flw2': 2.09, 'flw1': 2.72, 'flw0': 2.21, 'time': 25.74, 'compass': -16.39, 'pitch': 2.76, 'roll': -6.27}
{'lipoC2': 7.59, 'temp': 25.25, 'lipoC3S3': 12.02, 'state': 'normal', 'rot1': 5746, 'rot0': 741, 'rot3': 110, 'rot2': 166, 'depth': -0.14, 'yaw': -1.08, 'datetime': '2018-11-26 11:31:16.546893', 'mgs': 0, 'flw2': 2.2, 'flw1': 2.26, 'flw0': 2.26, 'time': 25.96, 'compass': -16.39, 'pitch': 2.76, 'roll': -6.28}
{'lipoC2': 7.59, 'temp': 25.25, 'lipoC3S3': 11.87, 'state': 'normal', 'rot1': 5795, 'rot0': 747, 'rot3': 111, 'rot2': 168, 'depth': -0.293, 'yaw': -1.07, 'datetime': '2018-11-26 11:31:16.758824', 'mgs': 0, 'flw2': 2.08, 'flw1': 2.58, 'flw0': 2.19, 'time': 26.17, 'compass': -16.38, 'pitch': 2.77, 'roll': -6.29}
{'lipoC2': 7.59, 'temp': 25.25, 'lipoC3S3': 11.88, 'state': 'normal', 'rot1': 5845, 'rot0': 753, 'rot3': 112, 'rot2': 169, 'depth': -0.369, 'yaw': -1.08, 'datetime': '2018-11-26 11:31:16.971442', 'mgs': 0, 'flw2': 2.11, 'flw1': 2.78, 'flw0': 2.09, 'time': 26.38, 'compass': -16.39, 'pitch': 2.79, 'roll': -6.29}
{'lipoC2': 7.59, 'temp': 25.25, 'lipoC3S3': 11.89, 'state': 'normal', 'rot1': 5895, 'rot0': 760, 'rot3': 113, 'rot2': 171, 'depth': -0.98, 'yaw': -1.09, 'datetime': '2018-11-26 11:31:17.183562', 'mgs': 0, 'flw2': 2.1, 'flw1': 2.64, 'flw0': 2.26, 'time': 26.59, 'compass': -16.4, 'pitch': 2.82, 'roll': -6.28}
{'lipoC2': 7.59, 'temp': 25.25, 'lipoC3S3': 12.02, 'state': 'normal', 'rot1': 5945, 'rot0': 766, 'rot3': 113, 'rot2': 172, 'depth': -0.14, 'yaw': -1.08, 'datetime': '2018-11-26 11:31:17.396036', 'mgs': 0, 'flw2': 2.16, 'flw1': 2.61, 'flw0': 2.15, 'time': 26.81, 'compass': -16.4, 'pitch': 2.83, 'roll': -6.26}
{'lipoC2': 7.58, 'temp': 25.25, 'lipoC3S3': 11.96, 'state': 'normal', 'rot1': 5995, 'rot0': 772, 'rot3': 114, 'rot2': 174, 'depth': -0.14, 'yaw': -1.1, 'datetime': '2018-11-26 11:31:17.608512', 'mgs': 0, 'flw2': 2.14, 'flw1': 2.46, 'flw0': 2.25, 'time': 27.02, 'compass': -16.41, 'pitch': 2.84, 'roll': -6.26}
{'lipoC2': 7.59, 'temp': 25.25, 'lipoC3S3': 11.93, 'state': 'normal', 'rot1': 6044, 'rot0': 779, 'rot3': 115, 'rot2': 175, 'depth': -0.217, 'yaw': -1.11, 'datetime': '2018-11-26 11:31:17.819126', 'mgs': 0, 'flw2': 2.17, 'flw1': 2.2, 'flw0': 2.28, 'time': 27.23, 'compass': -16.42, 'pitch': 2.85, 'roll': -6.26}
{'lipoC2': 7.59, 'temp': 25.31, 'lipoC3S3': 12.01, 'state': 'normal', 'rot1': 6094, 'rot0': 785, 'rot3': 116, 'rot2': 177, 'depth': -0.369, 'yaw': -1.12, 'datetime': '2018-11-26 11:31:18.032204', 'mgs': 0, 'flw2': 2.27, 'flw1': 3.11, 'flw0': 2.26, 'time': 27.44, 'compass': -16.43, 'pitch': 2.85, 'roll': -6.27}
{'lipoC2': 7.59, 'temp': 25.25, 'lipoC3S3': 11.93, 'state': 'normal', 'rot1': 6144, 'rot0': 791, 'rot3': 117, 'rot2': 178, 'depth': -0.217, 'yaw': -1.14, 'datetime': '2018-11-26 11:31:18.244941', 'mgs': 0, 'flw2': 2.16, 'flw1': 1.96, 'flw0': 2.25, 'time': 27.66, 'compass': -16.45, 'pitch': 2.84, 'roll': -6.28}
{'lipoC2': 7.59, 'temp': 25.25, 'lipoC3S3': 12.01, 'state': 'normal', 'rot1': 6194, 'rot0': 798, 'rot3': 118, 'rot2': 180, 'depth': 1.462, 'yaw': -1.14, 'datetime': '2018-11-26 11:31:18.457724', 'mgs': 0, 'flw2': 2.23, 'flw1': 2.75, 'flw0': 2.26, 'time': 27.87, 'compass': -16.45, 'pitch': 2.85, 'roll': -6.28}
{'lipoC2': 7.59, 'temp': 25.25, 'lipoC3S3': 12.04, 'state': 'normal', 'rot1': 6243, 'rot0': 804, 'rot3': 119, 'rot2': 181, 'depth': -0.217, 'yaw': -1.15, 'datetime': '2018-11-26 11:31:18.669354', 'mgs': 0, 'flw2': 2.22, 'flw1': 2.72, 'flw0': 2.26, 'time': 28.08, 'compass': -16.46, 'pitch': 2.86, 'roll': -6.3}
{'lipoC2': 7.59, 'temp': 25.25, 'lipoC3S3': 11.98, 'state': 'normal', 'rot1': 6293, 'rot0': 810, 'rot3': 120, 'rot2': 183, 'depth': -0.217, 'yaw': -1.16, 'datetime': '2018-11-26 11:31:18.882746', 'mgs': 0, 'flw2': 2.17, 'flw1': 2.72, 'flw0': 2.26, 'time': 28.29, 'compass': -16.47, 'pitch': 2.89, 'roll': -6.28}
{'lipoC2': 7.59, 'temp': 25.31, 'lipoC3S3': 12.01, 'state': 'normal', 'rot1': 6343, 'rot0': 817, 'rot3': 121, 'rot2': 184, 'depth': 1.08, 'yaw': -1.17, 'datetime': '2018-11-26 11:31:19.093459', 'mgs': 0, 'flw2': 2.2, 'flw1': 2.46, 'flw0': 2.05, 'time': 28.51, 'compass': -16.48, 'pitch': 2.91, 'roll': -6.28}
{'lipoC2': 7.59, 'temp': 25.31, 'lipoC3S3': 12.01, 'state': 'normal', 'rot1': 6392, 'rot0': 823, 'rot3': 122, 'rot2': 185, 'depth': -0.14, 'yaw': -1.17, 'datetime': '2018-11-26 11:31:19.307398', 'mgs': 0, 'flw2': 2.11, 'flw1': 2.78, 'flw0': 2.34, 'time': 28.72, 'compass': -16.48, 'pitch': 2.93, 'roll': -6.27}
{'lipoC2': 7.59, 'temp': 25.25, 'lipoC3S3': 11.9, 'state': 'normal', 'rot1': 6442, 'rot0': 829, 'rot3': 122, 'rot2': 187, 'depth': -0.98, 'yaw': -1.17, 'datetime': '2018-11-26 11:31:19.520410', 'mgs': 0, 'flw2': 2.1, 'flw1': 2.02, 'flw0': 2.17, 'time': 28.93, 'compass': -16.48, 'pitch': 2.94, 'roll': -6.26}
{'lipoC2': 7.58, 'temp': 25.25, 'lipoC3S3': 11.97, 'state': 'normal', 'rot1': 6491, 'rot0': 836, 'rot3': 123, 'rot2': 188, 'depth': -0.217, 'yaw': -1.17, 'datetime': '2018-11-26 11:31:19.731295', 'mgs': 0, 'flw2': 2.14, 'flw1': 2.08, 'flw0': 2.19, 'time': 29.14, 'compass': -16.48, 'pitch': 2.93, 'roll': -6.22}
{'lipoC2': 7.59, 'temp': 25.25, 'lipoC3S3': 12.01, 'state': 'normal', 'rot1': 6541, 'rot0': 842, 'rot3': 124, 'rot2': 190, 'depth': 0.851, 'yaw': -1.2, 'datetime': '2018-11-26 11:31:19.944089', 'mgs': 0, 'flw2': 2.19, 'flw1': 2.43, 'flw0': 2.16, 'time': 29.36, 'compass': -16.51, 'pitch': 2.94, 'roll': -6.22}
{'lipoC2': 7.59, 'temp': 25.31, 'lipoC3S3': 12.01, 'state': 'normal', 'rot1': 6592, 'rot0': 848, 'rot3': 125, 'rot2': 191, 'depth': -0.14, 'yaw': -1.24, 'datetime': '2018-11-26 11:31:20.157478', 'mgs': 0, 'flw2': 2.14, 'flw1': 2.9, 'flw0': 2.37, 'time': 29.57, 'compass': -16.55, 'pitch': 2.94, 'roll': -6.23}
