{'lipoC2': 0.0, 'temp': 0.0, 'lipoC3S3': 12.7, 'state': 'normal', 'rot1': 0, 'rot0': 0, 'rot3': 0, 'rot2': 0, 'depth': 1.691, 'yaw': 0.0, 'datetime': '2018-12-18 16:49:51.288074', 'mgs': 0, 'flw2': 0.0, 'flw1': 0.32, 'flw0': 0.09, 'time': 1.26, 'compass': 136.17, 'pitch': -0.06, 'roll': 2.18}
{'lipoC2': 0.0, 'temp': 0.0, 'lipoC3S3': 12.71, 'state': 'normal', 'rot1': 0, 'rot0': 0, 'rot3': 0, 'rot2': 0, 'depth': 1.691, 'yaw': 0.35, 'datetime': '2018-12-18 16:49:51.495890', 'mgs': 0, 'flw2': 0.18, 'flw1': 0.0, 'flw0': 0.0, 'time': 1.46, 'compass': 136.52, 'pitch': -0.29, 'roll': 2.11}
{'lipoC2': 0.0, 'temp': 0.0, 'lipoC3S3': 12.7, 'state': 'normal', 'rot1': 0, 'rot0': 0, 'rot3': 0, 'rot2': 0, 'depth': 1.691, 'yaw': 0.68, 'datetime': '2018-12-18 16:49:51.703685', 'mgs': 0, 'flw2': 0.0, 'flw1': 0.38, 'flw0': 0.07, 'time': 1.67, 'compass': 136.85, 'pitch': -0.32, 'roll': 2.03}
{'lipoC2': 0.0, 'temp': 0.0, 'lipoC3S3': 12.74, 'state': 'normal', 'rot1': 0, 'rot0': 0, 'rot3': 0, 'rot2': 0, 'depth': 1.538, 'yaw': 1.02, 'datetime': '2018-12-18 16:49:51.910458', 'mgs': 0, 'flw2': 0.0, 'flw1': 0.15, 'flw0': 0.2, 'time': 1.88, 'compass': 137.19, 'pitch': 0.0, 'roll': 1.98}
{'lipoC2': 0.0, 'temp': 0.0, 'lipoC3S3': 12.48, 'state': 'normal', 'rot1': 0, 'rot0': 0, 'rot3': 0, 'rot2': 0, 'depth': 0.394, 'yaw': 1.37, 'datetime': '2018-12-18 16:49:52.118118', 'mgs': 0, 'flw2': 5.82, 'flw1': 0.0, 'flw0': 5.99, 'time': 2.09, 'compass': 137.53, 'pitch': 0.26, 'roll': 1.95}
{'lipoC2': 0.0, 'temp': 0.0, 'lipoC3S3': 12.74, 'state': 'normal', 'rot1': 4, 'rot0': 3, 'rot3': 0, 'rot2': 0, 'depth': 1.767, 'yaw': -2.58, 'datetime': '2018-12-18 16:49:52.323315', 'mgs': 0, 'flw2': 6.3, 'flw1': 0.0, 'flw0': 6.02, 'time': 2.29, 'compass': 133.59, 'pitch': 0.76, 'roll': 0.96}
{'lipoC2': 0.0, 'temp': 0.0, 'lipoC3S3': 12.59, 'state': 'normal', 'rot1': 9, 'rot0': 7, 'rot3': 0, 'rot2': 0, 'depth': 1.385, 'yaw': -14.41, 'datetime': '2018-12-18 16:49:52.532613', 'mgs': 0, 'flw2': 5.6, 'flw1': 0.5, 'flw0': 5.68, 'time': 2.5, 'compass': 121.76, 'pitch': 1.63, 'roll': -0.97}
{'lipoC2': 0.0, 'temp': 0.0, 'lipoC3S3': 12.62, 'state': 'normal', 'rot1': 13, 'rot0': 10, 'rot3': 0, 'rot2': 0, 'depth': 1.385, 'yaw': -30.09, 'datetime': '2018-12-18 16:49:52.741049', 'mgs': 0, 'flw2': 4.25, 'flw1': 0.0, 'flw0': 4.82, 'time': 2.71, 'compass': 106.07, 'pitch': 1.76, 'roll': -2.19}
{'lipoC2': 0.02, 'temp': 0.0, 'lipoC3S3': 12.45, 'state': 'normal', 'rot1': 16, 'rot0': 13, 'rot3': 0, 'rot2': 0, 'depth': 1.462, 'yaw': -45.87, 'datetime': '2018-12-18 16:49:52.953535', 'mgs': 0, 'flw2': 3.2, 'flw1': 0.0, 'flw0': 3.66, 'time': 2.92, 'compass': 90.3, 'pitch': 1.73, 'roll': -2.22}
{'lipoC2': 0.0, 'temp': 0.0, 'lipoC3S3': 12.55, 'state': 'normal', 'rot1': 19, 'rot0': 21, 'rot3': 0, 'rot2': 0, 'depth': 0.699, 'yaw': -61.54, 'datetime': '2018-12-18 16:49:53.162651', 'mgs': 0, 'flw2': 2.43, 'flw1': 0.26, 'flw0': 2.37, 'time': 3.13, 'compass': 74.63, 'pitch': 1.75, 'roll': -0.86}
{'lipoC2': 0.09, 'temp': 0.0, 'lipoC3S3': 12.68, 'state': 'normal', 'rot1': 21, 'rot0': 28, 'rot3': 0, 'rot2': 0, 'depth': -1.971, 'yaw': -76.1, 'datetime': '2018-12-18 16:49:53.370820', 'mgs': 0, 'flw2': 1.75, 'flw1': 0.0, 'flw0': 1.89, 'time': 3.34, 'compass': 60.06, 'pitch': 1.37, 'roll': 0.65}
{'lipoC2': 0.03, 'temp': 0.0, 'lipoC3S3': 12.6, 'state': 'normal', 'rot1': 23, 'rot0': 37, 'rot3': 0, 'rot2': 0, 'depth': -1.285, 'yaw': -89.84, 'datetime': '2018-12-18 16:49:53.579946', 'mgs': 0, 'flw2': 1.14, 'flw1': 0.0, 'flw0': 1.23, 'time': 3.54, 'compass': 46.33, 'pitch': 0.71, 'roll': 1.25}
{'lipoC2': 0.0, 'temp': 0.0, 'lipoC3S3': 12.67, 'state': 'normal', 'rot1': 24, 'rot0': 41, 'rot3': 0, 'rot2': 0, 'depth': 1.538, 'yaw': -102.09, 'datetime': '2018-12-18 16:49:53.787982', 'mgs': 0, 'flw2': 0.78, 'flw1': 0.0, 'flw0': 0.43, 'time': 3.75, 'compass': 34.07, 'pitch': 0.18, 'roll': 1.12}
{'lipoC2': 0.14, 'temp': 0.0, 'lipoC3S3': 12.33, 'state': 'normal', 'rot1': 25, 'rot0': 42, 'rot3': 0, 'rot2': 0, 'depth': 0.928, 'yaw': -113.82, 'datetime': '2018-12-18 16:49:53.997303', 'mgs': 0, 'flw2': 0.51, 'flw1': 0.12, 'flw0': 0.0, 'time': 3.96, 'compass': 22.35, 'pitch': -0.37, 'roll': 0.85}
{'lipoC2': 0.0, 'temp': 0.0, 'lipoC3S3': 12.63, 'state': 'normal', 'rot1': 26, 'rot0': 44, 'rot3': 0, 'rot2': 0, 'depth': 1.385, 'yaw': -124.42, 'datetime': '2018-12-18 16:49:54.205970', 'mgs': 0, 'flw2': 0.33, 'flw1': 0.47, 'flw0': 0.37, 'time': 4.17, 'compass': 11.75, 'pitch': -0.61, 'roll': 0.74}
{'lipoC2': 0.04, 'temp': 0.0, 'lipoC3S3': 12.64, 'state': 'normal', 'rot1': 28, 'rot0': 44, 'rot3': 0, 'rot2': 0, 'depth': 0.241, 'yaw': -134.11, 'datetime': '2018-12-18 16:49:54.416148', 'mgs': 0, 'flw2': 0.22, 'flw1': 0.44, 'flw0': 0.42, 'time': 4.38, 'compass': 2.05, 'pitch': -0.7, 'roll': 0.64}
{'lipoC2': 0.15, 'temp': 0.0, 'lipoC3S3': 12.29, 'state': 'normal', 'rot1': 28, 'rot0': 45, 'rot3': 0, 'rot2': 0, 'depth': 0.928, 'yaw': -142.64, 'datetime': '2018-12-18 16:49:54.625333', 'mgs': 0, 'flw2': 0.2, 'flw1': 0.12, 'flw0': 0.0, 'time': 4.59, 'compass': -6.48, 'pitch': -0.75, 'roll': 0.72}
{'lipoC2': 0.08, 'temp': 0.0, 'lipoC3S3': 12.34, 'state': 'normal', 'rot1': 28, 'rot0': 45, 'rot3': 0, 'rot2': 0, 'depth': 1.08, 'yaw': -150.61, 'datetime': '2018-12-18 16:49:54.833202', 'mgs': 0, 'flw2': 0.21, 'flw1': 0.0, 'flw0': 0.0, 'time': 4.8, 'compass': -14.44, 'pitch': -0.79, 'roll': 0.99}
{'lipoC2': 0.05, 'temp': 0.0, 'lipoC3S3': 12.35, 'state': 'normal', 'rot1': 28, 'rot0': 45, 'rot3': 0, 'rot2': 0, 'depth': 0.317, 'yaw': -157.56, 'datetime': '2018-12-18 16:49:55.041278', 'mgs': 0, 'flw2': 0.56, 'flw1': 0.0, 'flw0': 0.29, 'time': 5.0, 'compass': -21.39, 'pitch': -0.56, 'roll': 1.2}
{'lipoC2': 0.0, 'temp': 0.0, 'lipoC3S3': 12.74, 'state': 'normal', 'rot1': 30, 'rot0': 46, 'rot3': 0, 'rot2': 0, 'depth': -0.14, 'yaw': -163.08, 'datetime': '2018-12-18 16:49:55.250409', 'mgs': 0, 'flw2': 0.6, 'flw1': 0.0, 'flw0': 0.04, 'time': 5.21, 'compass': -26.91, 'pitch': -0.29, 'roll': 1.47}
{'lipoC2': 0.12, 'temp': 0.0, 'lipoC3S3': 12.31, 'state': 'normal', 'rot1': 31, 'rot0': 47, 'rot3': 0, 'rot2': 0, 'depth': 0.623, 'yaw': -167.33, 'datetime': '2018-12-18 16:49:55.460470', 'mgs': 0, 'flw2': 0.56, 'flw1': 0.0, 'flw0': 0.01, 'time': 5.42, 'compass': -31.16, 'pitch': -0.13, 'roll': 1.44}
{'lipoC2': 0.08, 'temp': 0.0, 'lipoC3S3': 12.34, 'state': 'normal', 'rot1': 32, 'rot0': 48, 'rot3': 0, 'rot2': 0, 'depth': 0.394, 'yaw': -170.91, 'datetime': '2018-12-18 16:49:55.669828', 'mgs': 0, 'flw2': 0.56, 'flw1': 0.0, 'flw0': 0.21, 'time': 5.63, 'compass': -34.75, 'pitch': -0.14, 'roll': 1.3}
{'lipoC2': 0.0, 'temp': 0.0, 'lipoC3S3': 12.68, 'state': 'normal', 'rot1': 33, 'rot0': 49, 'rot3': 0, 'rot2': 0, 'depth': 1.767, 'yaw': -173.72, 'datetime': '2018-12-18 16:49:55.878494', 'mgs': 0, 'flw2': 0.55, 'flw1': 0.0, 'flw0': 0.28, 'time': 5.84, 'compass': -37.55, 'pitch': -0.04, 'roll': 1.27}
{'lipoC2': 0.12, 'temp': 0.0, 'lipoC3S3': 12.5, 'state': 'normal', 'rot1': 35, 'rot0': 50, 'rot3': 0, 'rot2': 0, 'depth': -2.124, 'yaw': -175.7, 'datetime': '2018-12-18 16:49:56.086292', 'mgs': 0, 'flw2': 0.71, 'flw1': 0.06, 'flw0': 0.23, 'time': 6.05, 'compass': -39.54, 'pitch': 0.02, 'roll': 1.32}
{'lipoC2': 0.16, 'temp': 0.0, 'lipoC3S3': 12.33, 'state': 'normal', 'rot1': 36, 'rot0': 52, 'rot3': 0, 'rot2': 0, 'depth': 0.928, 'yaw': -176.65, 'datetime': '2018-12-18 16:49:56.295639', 'mgs': 0, 'flw2': 0.71, 'flw1': 0.0, 'flw0': 0.2, 'time': 6.26, 'compass': -40.48, 'pitch': 0.06, 'roll': 1.39}
{'lipoC2': 0.04, 'temp': 0.0, 'lipoC3S3': 12.41, 'state': 'normal', 'rot1': 38, 'rot0': 53, 'rot3': 0, 'rot2': 0, 'depth': 0.241, 'yaw': -176.78, 'datetime': '2018-12-18 16:49:56.505369', 'mgs': 0, 'flw2': 0.76, 'flw1': 0.0, 'flw0': 0.57, 'time': 6.47, 'compass': -40.61, 'pitch': 0.05, 'roll': 1.62}
{'lipoC2': 0.0, 'temp': 0.0, 'lipoC3S3': 12.74, 'state': 'normal', 'rot1': 39, 'rot0': 55, 'rot3': 0, 'rot2': 0, 'depth': 1.538, 'yaw': -175.94, 'datetime': '2018-12-18 16:49:56.715448', 'mgs': 0, 'flw2': 0.15, 'flw1': 0.26, 'flw0': 0.71, 'time': 6.68, 'compass': -39.78, 'pitch': 0.04, 'roll': 1.85}
{'lipoC2': 0.15, 'temp': 0.0, 'lipoC3S3': 12.41, 'state': 'normal', 'rot1': 41, 'rot0': 56, 'rot3': 0, 'rot2': 0, 'depth': -1.056, 'yaw': -174.31, 'datetime': '2018-12-18 16:49:56.924481', 'mgs': 0, 'flw2': 0.72, 'flw1': 0.0, 'flw0': 0.13, 'time': 6.88, 'compass': -38.14, 'pitch': 0.1, 'roll': 1.88}
{'lipoC2': 0.16, 'temp': 0.0, 'lipoC3S3': 12.45, 'state': 'normal', 'rot1': 42, 'rot0': 57, 'rot3': 0, 'rot2': 0, 'depth': -1.208, 'yaw': -172.05, 'datetime': '2018-12-18 16:49:57.134103', 'mgs': 0, 'flw2': 0.65, 'flw1': 0.21, 'flw0': 0.27, 'time': 7.09, 'compass': -35.89, 'pitch': 0.01, 'roll': 1.88}
{'lipoC2': 0.16, 'temp': 0.0, 'lipoC3S3': 12.39, 'state': 'normal', 'rot1': 43, 'rot0': 58, 'rot3': 0, 'rot2': 0, 'depth': -0.903, 'yaw': -169.37, 'datetime': '2018-12-18 16:49:57.345908', 'mgs': 0, 'flw2': 0.33, 'flw1': 0.0, 'flw0': 0.56, 'time': 7.3, 'compass': -33.21, 'pitch': -0.45, 'roll': 1.89}
{'lipoC2': 0.0, 'temp': 0.0, 'lipoC3S3': 12.35, 'state': 'normal', 'rot1': 44, 'rot0': 59, 'rot3': 0, 'rot2': 0, 'depth': -0.903, 'yaw': -166.73, 'datetime': '2018-12-18 16:49:57.551342', 'mgs': 0, 'flw2': 0.5, 'flw1': 0.23, 'flw0': 0.0, 'time': 7.51, 'compass': -30.56, 'pitch': -0.64, 'roll': 1.84}
{'lipoC2': 0.02, 'temp': 0.0, 'lipoC3S3': 12.62, 'state': 'normal', 'rot1': 45, 'rot0': 60, 'rot3': 0, 'rot2': 0, 'depth': -1.208, 'yaw': -163.84, 'datetime': '2018-12-18 16:49:57.761218', 'mgs': 0, 'flw2': 0.35, 'flw1': 0.47, 'flw0': 0.38, 'time': 7.72, 'compass': -27.67, 'pitch': -0.26, 'roll': 1.77}
{'lipoC2': 0.0, 'temp': 0.0, 'lipoC3S3': 12.66, 'state': 'normal', 'rot1': 46, 'rot0': 61, 'rot3': 0, 'rot2': 0, 'depth': 1.462, 'yaw': -160.81, 'datetime': '2018-12-18 16:49:57.969245', 'mgs': 0, 'flw2': 0.51, 'flw1': 0.0, 'flw0': 0.35, 'time': 7.93, 'compass': -24.65, 'pitch': 0.16, 'roll': 1.77}
{'lipoC2': 0.04, 'temp': 0.0, 'lipoC3S3': 12.59, 'state': 'normal', 'rot1': 47, 'rot0': 62, 'rot3': 0, 'rot2': 0, 'depth': -1.208, 'yaw': -157.63, 'datetime': '2018-12-18 16:49:58.180266', 'mgs': 0, 'flw2': 0.48, 'flw1': 0.38, 'flw0': 0.33, 'time': 8.14, 'compass': -21.46, 'pitch': -0.15, 'roll': 1.94}
{'lipoC2': 0.04, 'temp': 0.0, 'lipoC3S3': 12.42, 'state': 'normal', 'rot1': 48, 'rot0': 63, 'rot3': 0, 'rot2': 0, 'depth': 1.233, 'yaw': -154.3, 'datetime': '2018-12-18 16:49:58.390118', 'mgs': 0, 'flw2': 0.48, 'flw1': 0.0, 'flw0': 0.43, 'time': 8.35, 'compass': -18.13, 'pitch': -0.66, 'roll': 2.32}
{'lipoC2': 0.0, 'temp': 0.0, 'lipoC3S3': 12.74, 'state': 'normal', 'rot1': 49, 'rot0': 64, 'rot3': 0, 'rot2': 0, 'depth': 1.691, 'yaw': -150.92, 'datetime': '2018-12-18 16:49:58.598389', 'mgs': 0, 'flw2': 0.56, 'flw1': 0.06, 'flw0': 0.01, 'time': 8.55, 'compass': -14.75, 'pitch': -0.48, 'roll': 2.47}
{'lipoC2': 0.05, 'temp': 0.0, 'lipoC3S3': 12.59, 'state': 'normal', 'rot1': 50, 'rot0': 65, 'rot3': 0, 'rot2': 0, 'depth': -1.59, 'yaw': -147.22, 'datetime': '2018-12-18 16:49:58.807298', 'mgs': 0, 'flw2': 0.5, 'flw1': 0.0, 'flw0': 0.43, 'time': 8.76, 'compass': -11.05, 'pitch': 0.2, 'roll': 2.37}
{'lipoC2': 0.0, 'temp': 0.0, 'lipoC3S3': 12.55, 'state': 'normal', 'rot1': 51, 'rot0': 66, 'rot3': 0, 'rot2': 0, 'depth': 0.012, 'yaw': -143.33, 'datetime': '2018-12-18 16:49:59.014717', 'mgs': 0, 'flw2': 0.51, 'flw1': 0.26, 'flw0': 0.22, 'time': 8.97, 'compass': -7.17, 'pitch': 0.38, 'roll': 2.27}
{'lipoC2': 0.06, 'temp': 0.0, 'lipoC3S3': 12.37, 'state': 'normal', 'rot1': 51, 'rot0': 66, 'rot3': 0, 'rot2': 0, 'depth': 1.157, 'yaw': -139.69, 'datetime': '2018-12-18 16:49:59.224329', 'mgs': 0, 'flw2': 0.0, 'flw1': 0.35, 'flw0': 0.11, 'time': 9.18, 'compass': -3.53, 'pitch': -0.1, 'roll': 2.21}
{'lipoC2': 0.0, 'temp': 0.0, 'lipoC3S3': 12.33, 'state': 'normal', 'rot1': 51, 'rot0': 66, 'rot3': 0, 'rot2': 0, 'depth': -0.903, 'yaw': -136.53, 'datetime': '2018-12-18 16:49:59.433515', 'mgs': 0, 'flw2': 0.2, 'flw1': 0.06, 'flw0': 0.0, 'time': 9.39, 'compass': -0.36, 'pitch': -0.57, 'roll': 2.13}
{'lipoC2': 0.16, 'temp': 0.0, 'lipoC3S3': 12.45, 'state': 'normal', 'rot1': 51, 'rot0': 66, 'rot3': 0, 'rot2': 0, 'depth': -1.819, 'yaw': -133.78, 'datetime': '2018-12-18 16:49:59.643395', 'mgs': 0, 'flw2': 0.18, 'flw1': 0.18, 'flw0': 0.0, 'time': 9.6, 'compass': 2.39, 'pitch': -0.32, 'roll': 1.9}
{'lipoC2': 0.0, 'temp': 0.0, 'lipoC3S3': 12.46, 'state': 'normal', 'rot1': 51, 'rot0': 66, 'rot3': 0, 'rot2': 0, 'depth': 0.317, 'yaw': -131.31, 'datetime': '2018-12-18 16:49:59.850445', 'mgs': 0, 'flw2': 0.18, 'flw1': 0.23, 'flw0': 0.0, 'time': 9.81, 'compass': 4.86, 'pitch': 0.13, 'roll': 1.79}
{'lipoC2': 0.0, 'temp': 0.0, 'lipoC3S3': 12.6, 'state': 'normal', 'rot1': 52, 'rot0': 67, 'rot3': 0, 'rot2': 0, 'depth': -1.971, 'yaw': -129.31, 'datetime': '2018-12-18 16:50:00.059933', 'mgs': 0, 'flw2': 0.45, 'flw1': 0.47, 'flw0': 0.38, 'time': 10.02, 'compass': 6.86, 'pitch': 0.22, 'roll': 1.85}
{'lipoC2': 0.05, 'temp': 0.0, 'lipoC3S3': 12.59, 'state': 'normal', 'rot1': 54, 'rot0': 68, 'rot3': 0, 'rot2': 0, 'depth': -1.59, 'yaw': -128.39, 'datetime': '2018-12-18 16:50:00.268078', 'mgs': 0, 'flw2': 0.49, 'flw1': 0.44, 'flw0': 0.32, 'time': 10.22, 'compass': 7.77, 'pitch': 0.12, 'roll': 1.8}
{'lipoC2': 0.12, 'temp': 0.0, 'lipoC3S3': 12.72, 'state': 'normal', 'rot1': 55, 'rot0': 69, 'rot3': 0, 'rot2': 0, 'depth': -2.505, 'yaw': -128.32, 'datetime': '2018-12-18 16:50:00.475124', 'mgs': 0, 'flw2': 0.0, 'flw1': 0.18, 'flw0': 0.63, 'time': 10.43, 'compass': 7.84, 'pitch': 0.16, 'roll': 1.76}
{'lipoC2': 0.08, 'temp': 0.0, 'lipoC3S3': 12.34, 'state': 'normal', 'rot1': 56, 'rot0': 70, 'rot3': 0, 'rot2': 0, 'depth': 0.317, 'yaw': -129.03, 'datetime': '2018-12-18 16:50:00.687667', 'mgs': 0, 'flw2': 0.57, 'flw1': 0.0, 'flw0': 0.22, 'time': 10.64, 'compass': 7.14, 'pitch': 0.39, 'roll': 1.71}
{'lipoC2': 0.11, 'temp': 0.0, 'lipoC3S3': 12.55, 'state': 'normal', 'rot1': 57, 'rot0': 72, 'rot3': 0, 'rot2': 0, 'depth': -2.048, 'yaw': -130.48, 'datetime': '2018-12-18 16:50:00.897649', 'mgs': 0, 'flw2': 0.55, 'flw1': 0.18, 'flw0': 0.18, 'time': 10.85, 'compass': 5.68, 'pitch': 0.56, 'roll': 1.65}
{'lipoC2': 0.0, 'temp': 0.0, 'lipoC3S3': 12.46, 'state': 'normal', 'rot1': 58, 'rot0': 72, 'rot3': 0, 'rot2': 0, 'depth': 0.851, 'yaw': -132.57, 'datetime': '2018-12-18 16:50:01.133865', 'mgs': 0, 'flw2': 0.34, 'flw1': 0.0, 'flw0': 0.56, 'time': 11.06, 'compass': 3.6, 'pitch': 0.46, 'roll': 1.65}
{'lipoC2': 0.0, 'temp': 0.0, 'lipoC3S3': 12.63, 'state': 'normal', 'rot1': 59, 'rot0': 73, 'rot3': 0, 'rot2': 0, 'depth': -2.277, 'yaw': -136.06, 'datetime': '2018-12-18 16:50:01.416829', 'mgs': 0, 'flw2': 0.0, 'flw1': 0.5, 'flw0': 0.0, 'time': 11.37, 'compass': 0.11, 'pitch': -0.05, 'roll': 1.74}
{'lipoC2': 0.04, 'temp': 0.0, 'lipoC3S3': 12.42, 'state': 'normal', 'rot1': 59, 'rot0': 73, 'rot3': 0, 'rot2': 0, 'depth': 1.309, 'yaw': -137.97, 'datetime': '2018-12-18 16:50:01.625033', 'mgs': 0, 'flw2': 0.11, 'flw1': 0.0, 'flw0': 0.02, 'time': 11.58, 'compass': -1.8, 'pitch': -0.08, 'roll': 1.94}
{'lipoC2': 0.09, 'temp': 0.0, 'lipoC3S3': 12.68, 'state': 'normal', 'rot1': 59, 'rot0': 73, 'rot3': 0, 'rot2': 0, 'depth': -1.971, 'yaw': -139.8, 'datetime': '2018-12-18 16:50:01.834466', 'mgs': 0, 'flw2': 0.07, 'flw1': 0.0, 'flw0': 0.11, 'time': 11.79, 'compass': -3.64, 'pitch': 0.07, 'roll': 2.14}
{'lipoC2': 0.0, 'temp': 0.0, 'lipoC3S3': 12.62, 'state': 'normal', 'rot1': 59, 'rot0': 73, 'rot3': 0, 'rot2': 0, 'depth': 1.157, 'yaw': -141.51, 'datetime': '2018-12-18 16:50:02.048239', 'mgs': 0, 'flw2': 0.23, 'flw1': 0.0, 'flw0': 0.0, 'time': 12.0, 'compass': -5.35, 'pitch': -0.05, 'roll': 2.19}
{'lipoC2': 0.06, 'temp': 0.0, 'lipoC3S3': 12.35, 'state': 'normal', 'rot1': 59, 'rot0': 73, 'rot3': 0, 'rot2': 0, 'depth': 1.157, 'yaw': -143.14, 'datetime': '2018-12-18 16:50:02.260979', 'mgs': 0, 'flw2': 0.22, 'flw1': 0.0, 'flw0': 0.0, 'time': 12.21, 'compass': -6.98, 'pitch': -0.35, 'roll': 2.03}
{'lipoC2': 0.0, 'temp': 0.0, 'lipoC3S3': 12.75, 'state': 'normal', 'rot1': 59, 'rot0': 73, 'rot3': 0, 'rot2': 0, 'depth': 1.691, 'yaw': -144.69, 'datetime': '2018-12-18 16:50:02.465200', 'mgs': 0, 'flw2': 0.0, 'flw1': 0.21, 'flw0': 0.2, 'time': 12.42, 'compass': -8.53, 'pitch': -0.41, 'roll': 1.7}
{'lipoC2': 0.0, 'temp': 0.0, 'lipoC3S3': 12.75, 'state': 'normal', 'rot1': 59, 'rot0': 73, 'rot3': 0, 'rot2': 0, 'depth': 1.767, 'yaw': -146.12, 'datetime': '2018-12-18 16:50:02.673083', 'mgs': 0, 'flw2': 0.63, 'flw1': 0.12, 'flw0': 0.13, 'time': 12.62, 'compass': -9.96, 'pitch': -0.21, 'roll': 1.66}
{'lipoC2': 0.01, 'temp': 0.0, 'lipoC3S3': 12.45, 'state': 'normal', 'rot1': 60, 'rot0': 74, 'rot3': 0, 'rot2': 0, 'depth': -0.14, 'yaw': -146.92, 'datetime': '2018-12-18 16:50:02.882045', 'mgs': 0, 'flw2': 0.59, 'flw1': 0.0, 'flw0': 0.29, 'time': 12.83, 'compass': -10.75, 'pitch': 0.06, 'roll': 2.09}
{'lipoC2': 0.0, 'temp': 0.0, 'lipoC3S3': 12.72, 'state': 'normal', 'rot1': 61, 'rot0': 75, 'rot3': 0, 'rot2': 0, 'depth': 1.614, 'yaw': -146.81, 'datetime': '2018-12-18 16:50:03.091307', 'mgs': 0, 'flw2': 0.01, 'flw1': 0.21, 'flw0': 0.56, 'time': 13.04, 'compass': -10.64, 'pitch': 0.14, 'roll': 2.49}
{'lipoC2': 0.1, 'temp': 0.0, 'lipoC3S3': 12.31, 'state': 'normal', 'rot1': 62, 'rot0': 76, 'rot3': 0, 'rot2': 0, 'depth': 0.394, 'yaw': -145.91, 'datetime': '2018-12-18 16:50:03.299124', 'mgs': 0, 'flw2': 0.05, 'flw1': 0.03, 'flw0': 0.61, 'time': 13.25, 'compass': -9.74, 'pitch': 0.07, 'roll': 2.68}
{'lipoC2': 0.13, 'temp': 0.0, 'lipoC3S3': 12.31, 'state': 'normal', 'rot1': 63, 'rot0': 77, 'rot3': 0, 'rot2': 0, 'depth': 0.623, 'yaw': -144.43, 'datetime': '2018-12-18 16:50:03.509716', 'mgs': 0, 'flw2': 0.52, 'flw1': 0.0, 'flw0': 0.04, 'time': 13.46, 'compass': -8.27, 'pitch': 0.07, 'roll': 2.67}
{'lipoC2': 0.06, 'temp': 0.0, 'lipoC3S3': 12.59, 'state': 'normal', 'rot1': 64, 'rot0': 78, 'rot3': 0, 'rot2': 0, 'depth': -1.819, 'yaw': -142.36, 'datetime': '2018-12-18 16:50:03.719014', 'mgs': 0, 'flw2': 0.0, 'flw1': 0.5, 'flw0': 0.0, 'time': 13.67, 'compass': -6.19, 'pitch': 0.25, 'roll': 2.58}
{'lipoC2': 0.05, 'temp': 0.0, 'lipoC3S3': 12.59, 'state': 'normal', 'rot1': 64, 'rot0': 78, 'rot3': 0, 'rot2': 0, 'depth': -1.743, 'yaw': -140.44, 'datetime': '2018-12-18 16:50:03.928325', 'mgs': 0, 'flw2': 0.07, 'flw1': 0.5, 'flw0': 0.07, 'time': 13.88, 'compass': -4.28, 'pitch': 0.3, 'roll': 2.15}
{'lipoC2': 0.02, 'temp': 0.0, 'lipoC3S3': 12.63, 'state': 'normal', 'rot1': 64, 'rot0': 78, 'rot3': 0, 'rot2': 0, 'depth': -1.437, 'yaw': -138.83, 'datetime': '2018-12-18 16:50:04.136237', 'mgs': 0, 'flw2': 0.21, 'flw1': 0.0, 'flw0': 0.0, 'time': 14.09, 'compass': -2.66, 'pitch': 0.16, 'roll': 1.7}
{'lipoC2': 0.02, 'temp': 0.0, 'lipoC3S3': 12.46, 'state': 'normal', 'rot1': 64, 'rot0': 78, 'rot3': 0, 'rot2': 0, 'depth': 0.012, 'yaw': -137.48, 'datetime': '2018-12-18 16:50:04.345659', 'mgs': 0, 'flw2': 0.0, 'flw1': 0.47, 'flw0': 0.04, 'time': 14.29, 'compass': -1.31, 'pitch': 0.14, 'roll': 1.57}
{'lipoC2': 0.0, 'temp': 0.0, 'lipoC3S3': 12.31, 'state': 'normal', 'rot1': 64, 'rot0': 78, 'rot3': 0, 'rot2': 0, 'depth': 1.233, 'yaw': -136.18, 'datetime': '2018-12-18 16:50:04.553910', 'mgs': 0, 'flw2': 0.0, 'flw1': 0.06, 'flw0': 0.22, 'time': 14.5, 'compass': -0.01, 'pitch': 0.1, 'roll': 1.8}
{'lipoC2': 0.16, 'temp': 0.0, 'lipoC3S3': 12.37, 'state': 'normal', 'rot1': 64, 'rot0': 78, 'rot3': 0, 'rot2': 0, 'depth': -1.132, 'yaw': -134.99, 'datetime': '2018-12-18 16:50:04.763023', 'mgs': 0, 'flw2': 0.0, 'flw1': 0.0, 'flw0': 0.21, 'time': 14.71, 'compass': 1.17, 'pitch': -0.14, 'roll': 2.29}
{'lipoC2': 0.02, 'temp': 0.0, 'lipoC3S3': 12.6, 'state': 'normal', 'rot1': 64, 'rot0': 78, 'rot3': 0, 'rot2': 0, 'depth': -1.285, 'yaw': -133.91, 'datetime': '2018-12-18 16:50:04.972074', 'mgs': 0, 'flw2': 0.0, 'flw1': 0.44, 'flw0': 0.0, 'time': 14.92, 'compass': 2.26, 'pitch': -0.3, 'roll': 2.69}
{'lipoC2': 0.0, 'temp': 0.0, 'lipoC3S3': 12.75, 'state': 'normal', 'rot1': 64, 'rot0': 78, 'rot3': 0, 'rot2': 0, 'depth': 1.691, 'yaw': -132.87, 'datetime': '2018-12-18 16:50:05.182396', 'mgs': 0, 'flw2': 0.0, 'flw1': 0.32, 'flw0': 0.15, 'time': 15.13, 'compass': 3.3, 'pitch': -0.1, 'roll': 2.77}
{'lipoC2': 0.15, 'temp': 0.0, 'lipoC3S3': 12.45, 'state': 'normal', 'rot1': 64, 'rot0': 78, 'rot3': 0, 'rot2': 0, 'depth': -2.048, 'yaw': -131.93, 'datetime': '2018-12-18 16:50:05.390547', 'mgs': 0, 'flw2': 0.18, 'flw1': 0.18, 'flw0': 0.0, 'time': 15.34, 'compass': 4.24, 'pitch': 0.31, 'roll': 2.51}
{'lipoC2': 0.0, 'temp': 0.0, 'lipoC3S3': 12.38, 'state': 'normal', 'rot1': 64, 'rot0': 78, 'rot3': 0, 'rot2': 0, 'depth': -0.293, 'yaw': -131.01, 'datetime': '2018-12-18 16:50:05.599746', 'mgs': 0, 'flw2': 0.67, 'flw1': 0.03, 'flw0': 0.11, 'time': 15.55, 'compass': 5.16, 'pitch': 0.47, 'roll': 2.12}
{'lipoC2': 0.0, 'temp': 0.0, 'lipoC3S3': 12.34, 'state': 'normal', 'rot1': 65, 'rot0': 79, 'rot3': 0, 'rot2': 0, 'depth': -0.674, 'yaw': -130.75, 'datetime': '2018-12-18 16:50:05.808854', 'mgs': 0, 'flw2': 0.52, 'flw1': 0.0, 'flw0': 0.01, 'time': 15.75, 'compass': 5.42, 'pitch': 0.29, 'roll': 1.7}
{'lipoC2': 0.0, 'temp': 0.0, 'lipoC3S3': 12.55, 'state': 'normal', 'rot1': 66, 'rot0': 79, 'rot3': 0, 'rot2': 0, 'depth': -0.14, 'yaw': -131.42, 'datetime': '2018-12-18 16:50:06.016637', 'mgs': 0, 'flw2': 0.44, 'flw1': 0.0, 'flw0': 0.5, 'time': 15.96, 'compass': 4.75, 'pitch': 0.16, 'roll': 1.56}
{'lipoC2': 0.16, 'temp': 0.0, 'lipoC3S3': 12.43, 'state': 'normal', 'rot1': 67, 'rot0': 80, 'rot3': 0, 'rot2': 0, 'depth': -1.895, 'yaw': -132.8, 'datetime': '2018-12-18 16:50:06.226809', 'mgs': 0, 'flw2': 0.17, 'flw1': 0.23, 'flw0': 0.0, 'time': 16.17, 'compass': 3.37, 'pitch': 0.36, 'roll': 1.56}
{'lipoC2': 0.12, 'temp': 0.0, 'lipoC3S3': 12.54, 'state': 'normal', 'rot1': 67, 'rot0': 80, 'rot3': 0, 'rot2': 0, 'depth': -2.2, 'yaw': -134.22, 'datetime': '2018-12-18 16:50:06.436136', 'mgs': 0, 'flw2': 0.12, 'flw1': 0.44, 'flw0': 0.0, 'time': 16.38, 'compass': 1.95, 'pitch': 0.58, 'roll': 1.94}
{'lipoC2': 0.16, 'temp': 0.0, 'lipoC3S3': 12.37, 'state': 'normal', 'rot1': 67, 'rot0': 80, 'rot3': 0, 'rot2': 0, 'depth': -0.751, 'yaw': -135.43, 'datetime': '2018-12-18 16:50:06.645234', 'mgs': 0, 'flw2': 0.0, 'flw1': 0.0, 'flw0': 0.23, 'time': 16.59, 'compass': 0.73, 'pitch': 0.32, 'roll': 2.5}
{'lipoC2': 0.03, 'temp': 0.0, 'lipoC3S3': 12.41, 'state': 'normal', 'rot1': 67, 'rot0': 80, 'rot3': 0, 'rot2': 0, 'depth': 1.309, 'yaw': -136.59, 'datetime': '2018-12-18 16:50:06.853280', 'mgs': 0, 'flw2': 0.21, 'flw1': 0.0, 'flw0': 0.0, 'time': 16.8, 'compass': -0.42, 'pitch': -0.13, 'roll': 2.8}
{'lipoC2': 0.16, 'temp': 0.0, 'lipoC3S3': 12.39, 'state': 'normal', 'rot1': 67, 'rot0': 80, 'rot3': 0, 'rot2': 0, 'depth': -1.514, 'yaw': -137.61, 'datetime': '2018-12-18 16:50:07.062523', 'mgs': 0, 'flw2': 0.0, 'flw1': 0.0, 'flw0': 0.22, 'time': 17.01, 'compass': -1.44, 'pitch': -0.28, 'roll': 2.61}
{'lipoC2': 0.08, 'temp': 0.0, 'lipoC3S3': 12.35, 'state': 'normal', 'rot1': 67, 'rot0': 80, 'rot3': 0, 'rot2': 0, 'depth': 1.08, 'yaw': -138.62, 'datetime': '2018-12-18 16:50:07.270964', 'mgs': 0, 'flw2': 0.22, 'flw1': 0.0, 'flw0': 0.0, 'time': 17.22, 'compass': -2.46, 'pitch': -0.07, 'roll': 2.05}
{'lipoC2': 0.0, 'temp': 0.0, 'lipoC3S3': 12.58, 'state': 'normal', 'rot1': 67, 'rot0': 80, 'rot3': 0, 'rot2': 0, 'depth': 1.004, 'yaw': -139.59, 'datetime': '2018-12-18 16:50:07.479932', 'mgs': 0, 'flw2': 0.09, 'flw1': 0.47, 'flw0': 0.0, 'time': 17.42, 'compass': -3.42, 'pitch': 0.15, 'roll': 1.63}
{'lipoC2': 0.02, 'temp': 0.0, 'lipoC3S3': 12.6, 'state': 'normal', 'rot1': 67, 'rot0': 80, 'rot3': 0, 'rot2': 0, 'depth': -1.285, 'yaw': -140.52, 'datetime': '2018-12-18 16:50:07.688954', 'mgs': 0, 'flw2': 0.11, 'flw1': 0.0, 'flw0': 0.0, 'time': 17.63, 'compass': -4.35, 'pitch': -0.0, 'roll': 1.71}
{'lipoC2': 0.04, 'temp': 0.0, 'lipoC3S3': 12.41, 'state': 'normal', 'rot1': 67, 'rot0': 80, 'rot3': 0, 'rot2': 0, 'depth': 1.233, 'yaw': -141.41, 'datetime': '2018-12-18 16:50:07.898923', 'mgs': 0, 'flw2': 0.09, 'flw1': 0.0, 'flw0': 0.07, 'time': 17.84, 'compass': -5.24, 'pitch': -0.29, 'roll': 2.12}
{'lipoC2': 0.05, 'temp': 0.0, 'lipoC3S3': 12.39, 'state': 'normal', 'rot1': 67, 'rot0': 80, 'rot3': 0, 'rot2': 0, 'depth': 0.241, 'yaw': -142.22, 'datetime': '2018-12-18 16:50:08.107926', 'mgs': 0, 'flw2': 0.0, 'flw1': 0.44, 'flw0': 0.06, 'time': 18.05, 'compass': -6.05, 'pitch': -0.17, 'roll': 2.51}
{'lipoC2': 0.09, 'temp': 0.0, 'lipoC3S3': 12.56, 'state': 'normal', 'rot1': 67, 'rot0': 80, 'rot3': 0, 'rot2': 0, 'depth': -2.048, 'yaw': -143.03, 'datetime': '2018-12-18 16:50:08.315940', 'mgs': 0, 'flw2': 0.02, 'flw1': 0.0, 'flw0': 0.13, 'time': 18.26, 'compass': -6.86, 'pitch': 0.12, 'roll': 2.73}
{'lipoC2': 0.01, 'temp': 0.0, 'lipoC3S3': 12.48, 'state': 'normal', 'rot1': 67, 'rot0': 80, 'rot3': 0, 'rot2': 0, 'depth': -0.14, 'yaw': -143.83, 'datetime': '2018-12-18 16:50:08.525439', 'mgs': 0, 'flw2': 0.0, 'flw1': 0.47, 'flw0': 0.04, 'time': 18.47, 'compass': -7.67, 'pitch': 0.02, 'roll': 2.74}
{'lipoC2': 0.12, 'temp': 0.0, 'lipoC3S3': 12.3, 'state': 'normal', 'rot1': 67, 'rot0': 80, 'rot3': 0, 'rot2': 0, 'depth': 0.775, 'yaw': -144.61, 'datetime': '2018-12-18 16:50:08.733738', 'mgs': 0, 'flw2': 0.16, 'flw1': 0.18, 'flw0': 0.0, 'time': 18.68, 'compass': -8.44, 'pitch': -0.39, 'roll': 2.57}
{'lipoC2': 0.0, 'temp': 0.0, 'lipoC3S3': 12.75, 'state': 'normal', 'rot1': 67, 'rot0': 80, 'rot3': 0, 'rot2': 0, 'depth': -0.14, 'yaw': -145.3, 'datetime': '2018-12-18 16:50:08.944297', 'mgs': 0, 'flw2': 0.65, 'flw1': 0.0, 'flw0': 0.11, 'time': 18.89, 'compass': -9.14, 'pitch': -0.53, 'roll': 2.29}
{'lipoC2': 0.05, 'temp': 0.0, 'lipoC3S3': 12.34, 'state': 'normal', 'rot1': 68, 'rot0': 81, 'rot3': 0, 'rot2': 0, 'depth': 0.241, 'yaw': -145.36, 'datetime': '2018-12-18 16:50:09.153512', 'mgs': 0, 'flw2': 0.57, 'flw1': 0.0, 'flw0': 0.21, 'time': 19.09, 'compass': -9.2, 'pitch': -0.16, 'roll': 2.11}
{'lipoC2': 0.0, 'temp': 0.0, 'lipoC3S3': 12.63, 'state': 'normal', 'rot1': 70, 'rot0': 82, 'rot3': 0, 'rot2': 0, 'depth': 1.309, 'yaw': -144.54, 'datetime': '2018-12-18 16:50:09.362673', 'mgs': 0, 'flw2': 0.55, 'flw1': 0.0, 'flw0': 0.37, 'time': 19.3, 'compass': -8.37, 'pitch': 0.36, 'roll': 2.26}
{'lipoC2': 0.0, 'temp': 0.0, 'lipoC3S3': 12.66, 'state': 'normal', 'rot1': 71, 'rot0': 83, 'rot3': 0, 'rot2': 0, 'depth': 1.538, 'yaw': -142.98, 'datetime': '2018-12-18 16:50:09.570581', 'mgs': 0, 'flw2': 0.11, 'flw1': 0.0, 'flw0': 0.01, 'time': 19.51, 'compass': -6.81, 'pitch': 0.56, 'roll': 2.6}
{'lipoC2': 0.12, 'temp': 0.0, 'lipoC3S3': 12.54, 'state': 'normal', 'rot1': 71, 'rot0': 83, 'rot3': 0, 'rot2': 0, 'depth': -2.2, 'yaw': -141.58, 'datetime': '2018-12-18 16:50:09.779820', 'mgs': 0, 'flw2': 0.0, 'flw1': 0.44, 'flw0': 0.0, 'time': 19.72, 'compass': -5.41, 'pitch': 0.18, 'roll': 2.64}
{'lipoC2': 0.0, 'temp': 0.0, 'lipoC3S3': 12.51, 'state': 'normal', 'rot1': 71, 'rot0': 83, 'rot3': 0, 'rot2': 0, 'depth': 0.317, 'yaw': -140.34, 'datetime': '2018-12-18 16:50:09.987578', 'mgs': 0, 'flw2': 0.01, 'flw1': 0.0, 'flw0': 0.16, 'time': 19.93, 'compass': -4.17, 'pitch': -0.18, 'roll': 2.36}
{'lipoC2': 0.03, 'temp': 0.0, 'lipoC3S3': 12.59, 'state': 'normal', 'rot1': 71, 'rot0': 83, 'rot3': 0, 'rot2': 0, 'depth': -1.361, 'yaw': -139.22, 'datetime': '2018-12-18 16:50:10.196651', 'mgs': 0, 'flw2': 0.09, 'flw1': 0.0, 'flw0': 0.09, 'time': 20.14, 'compass': -3.06, 'pitch': 0.03, 'roll': 1.88}
