{'lipoC2': 7.44, 'temp': 0.0, 'lipoC3S3': 11.87, 'state': 'normal', 'rot1': 0, 'rot0': 0, 'rot3': 0, 'rot2': 0, 'depth': 2.759, 'yaw': 0.11, 'datetime': '2018-12-12 13:23:21.060636', 'mgs': 0, 'flw2': 0.04, 'flw1': 0.0, 'flw0': 0.28, 'time': 1.68, 'compass': -126.3, 'pitch': -3.46, 'roll': 2.35}
{'lipoC2': 7.46, 'temp': 0.0, 'lipoC3S3': 11.48, 'state': 'normal', 'rot1': 0, 'rot0': 0, 'rot3': 0, 'rot2': 0, 'depth': 2.606, 'yaw': 0.27, 'datetime': '2018-12-12 13:23:21.266167', 'mgs': 0, 'flw2': 0.0, 'flw1': 0.53, 'flw0': 0.0, 'time': 1.88, 'compass': -126.13, 'pitch': -3.71, 'roll': 2.36}
{'lipoC2': 7.43, 'temp': 0.0, 'lipoC3S3': 11.92, 'state': 'normal', 'rot1': 0, 'rot0': 0, 'rot3': 0, 'rot2': 0, 'depth': 0.241, 'yaw': 0.46, 'datetime': '2018-12-12 13:23:21.476014', 'mgs': 0, 'flw2': 0.0, 'flw1': 0.41, 'flw0': 0.0, 'time': 2.09, 'compass': -125.94, 'pitch': -3.71, 'roll': 2.37}
{'lipoC2': 7.44, 'temp': 0.0, 'lipoC3S3': 11.92, 'state': 'normal', 'rot1': 0, 'rot0': 0, 'rot3': 0, 'rot2': 0, 'depth': 2.759, 'yaw': 0.71, 'datetime': '2018-12-12 13:23:21.684808', 'mgs': 0, 'flw2': 0.0, 'flw1': 0.29, 'flw0': 0.0, 'time': 2.3, 'compass': -125.7, 'pitch': -4.03, 'roll': 2.4}
{'lipoC2': 7.42, 'temp': 0.0, 'lipoC3S3': 11.93, 'state': 'normal', 'rot1': 0, 'rot0': 0, 'rot3': 0, 'rot2': 0, 'depth': 0.089, 'yaw': 0.99, 'datetime': '2018-12-12 13:23:21.892999', 'mgs': 0, 'flw2': 0.0, 'flw1': 0.0, 'flw0': 0.0, 'time': 2.51, 'compass': -125.41, 'pitch': -4.38, 'roll': 2.62}
{'lipoC2': 7.47, 'temp': 0.0, 'lipoC3S3': 11.83, 'state': 'normal', 'rot1': 0, 'rot0': 0, 'rot3': 0, 'rot2': 0, 'depth': 2.301, 'yaw': 1.3, 'datetime': '2018-12-12 13:23:22.101820', 'mgs': 0, 'flw2': 0.0, 'flw1': 0.62, 'flw0': 0.0, 'time': 2.71, 'compass': -125.1, 'pitch': -4.17, 'roll': 2.74}
{'lipoC2': 7.42, 'temp': 0.0, 'lipoC3S3': 11.89, 'state': 'normal', 'rot1': 0, 'rot0': 0, 'rot3': 0, 'rot2': 0, 'depth': 0.089, 'yaw': 1.65, 'datetime': '2018-12-12 13:23:22.313800', 'mgs': 0, 'flw2': 0.0, 'flw1': 0.38, 'flw0': 0.0, 'time': 2.92, 'compass': -124.76, 'pitch': -3.87, 'roll': 2.77}
{'lipoC2': 7.61, 'temp': 0.0, 'lipoC3S3': 11.65, 'state': 'normal', 'rot1': 0, 'rot0': 0, 'rot3': 0, 'rot2': 0, 'depth': 1.843, 'yaw': 2.05, 'datetime': '2018-12-12 13:23:22.522167', 'mgs': 0, 'flw2': 0.0, 'flw1': 0.0, 'flw0': 0.0, 'time': 3.13, 'compass': -124.35, 'pitch': -3.9, 'roll': 2.92}
{'lipoC2': 7.42, 'temp': 0.0, 'lipoC3S3': 11.94, 'state': 'normal', 'rot1': 0, 'rot0': 0, 'rot3': 0, 'rot2': 0, 'depth': 2.454, 'yaw': 2.42, 'datetime': '2018-12-12 13:23:22.728058', 'mgs': 0, 'flw2': 0.05, 'flw1': 0.0, 'flw0': 0.28, 'time': 3.34, 'compass': -123.98, 'pitch': -3.81, 'roll': 3.1}
{'lipoC2': 7.41, 'temp': 0.0, 'lipoC3S3': 11.67, 'state': 'normal', 'rot1': 0, 'rot0': 0, 'rot3': 0, 'rot2': 0, 'depth': 0.165, 'yaw': 2.78, 'datetime': '2018-12-12 13:23:22.936445', 'mgs': 0, 'flw2': 0.0, 'flw1': 0.21, 'flw0': 0.0, 'time': 3.55, 'compass': -123.62, 'pitch': -3.43, 'roll': 3.09}
{'lipoC2': 7.42, 'temp': 0.0, 'lipoC3S3': 11.69, 'state': 'normal', 'rot1': 0, 'rot0': 0, 'rot3': 0, 'rot2': 0, 'depth': 1.385, 'yaw': 3.15, 'datetime': '2018-12-12 13:23:23.143711', 'mgs': 0, 'flw2': 0.0, 'flw1': 0.53, 'flw0': 0.0, 'time': 3.76, 'compass': -123.26, 'pitch': -3.3, 'roll': 3.01}
{'lipoC2': 7.62, 'temp': 0.0, 'lipoC3S3': 11.48, 'state': 'normal', 'rot1': 0, 'rot0': 0, 'rot3': 0, 'rot2': 0, 'depth': -0.598, 'yaw': 3.45, 'datetime': '2018-12-12 13:23:23.354562', 'mgs': 0, 'flw2': 0.0, 'flw1': 0.0, 'flw0': 0.0, 'time': 3.96, 'compass': -122.95, 'pitch': -3.74, 'roll': 3.03}
{'lipoC2': 7.42, 'temp': 0.0, 'lipoC3S3': 11.92, 'state': 'normal', 'rot1': 0, 'rot0': 0, 'rot3': 0, 'rot2': 0, 'depth': 2.53, 'yaw': 3.78, 'datetime': '2018-12-12 13:23:23.561467', 'mgs': 0, 'flw2': 0.0, 'flw1': 0.32, 'flw0': 0.0, 'time': 4.17, 'compass': -122.63, 'pitch': -4.28, 'roll': 3.06}
{'lipoC2': 7.42, 'temp': 0.0, 'lipoC3S3': 11.69, 'state': 'normal', 'rot1': 0, 'rot0': 0, 'rot3': 0, 'rot2': 0, 'depth': 1.614, 'yaw': 4.07, 'datetime': '2018-12-12 13:23:23.767725', 'mgs': 0, 'flw2': 0.0, 'flw1': 0.41, 'flw0': 0.0, 'time': 4.38, 'compass': -122.34, 'pitch': -4.33, 'roll': 3.05}
{'lipoC2': 7.42, 'temp': 0.0, 'lipoC3S3': 11.94, 'state': 'normal', 'rot1': 0, 'rot0': 0, 'rot3': 0, 'rot2': 0, 'depth': 0.012, 'yaw': 4.34, 'datetime': '2018-12-12 13:23:23.977399', 'mgs': 0, 'flw2': 0.0, 'flw1': 0.0, 'flw0': 0.0, 'time': 4.59, 'compass': -122.06, 'pitch': -4.01, 'roll': 2.86}
{'lipoC2': 7.49, 'temp': 0.0, 'lipoC3S3': 11.93, 'state': 'normal', 'rot1': 0, 'rot0': 0, 'rot3': 0, 'rot2': 0, 'depth': -0.369, 'yaw': 4.59, 'datetime': '2018-12-12 13:23:24.185190', 'mgs': 0, 'flw2': 0.0, 'flw1': 0.0, 'flw0': 0.0, 'time': 4.8, 'compass': -121.82, 'pitch': -3.96, 'roll': 2.87}
{'lipoC2': 7.46, 'temp': 0.0, 'lipoC3S3': 11.8, 'state': 'normal', 'rot1': 0, 'rot0': 0, 'rot3': 0, 'rot2': 0, 'depth': 0.47, 'yaw': 4.82, 'datetime': '2018-12-12 13:23:24.391825', 'mgs': 0, 'flw2': 0.0, 'flw1': 0.0, 'flw0': 0.11, 'time': 5.0, 'compass': -121.59, 'pitch': -4.25, 'roll': 3.11}
{'lipoC2': 7.44, 'temp': 0.0, 'lipoC3S3': 11.76, 'state': 'normal', 'rot1': 0, 'rot0': 0, 'rot3': 0, 'rot2': 0, 'depth': 0.012, 'yaw': 5.05, 'datetime': '2018-12-12 13:23:24.605561', 'mgs': 0, 'flw2': 0.0, 'flw1': 0.0, 'flw0': 0.12, 'time': 5.21, 'compass': -121.36, 'pitch': -4.29, 'roll': 3.22}
{'lipoC2': 7.44, 'temp': 0.0, 'lipoC3S3': 11.79, 'state': 'normal', 'rot1': 0, 'rot0': 0, 'rot3': 0, 'rot2': 0, 'depth': 1.309, 'yaw': 5.27, 'datetime': '2018-12-12 13:23:24.814087', 'mgs': 0, 'flw2': 0.0, 'flw1': 0.35, 'flw0': 0.0, 'time': 5.42, 'compass': -121.14, 'pitch': -4.11, 'roll': 3.23}
{'lipoC2': 7.42, 'temp': 0.0, 'lipoC3S3': 11.85, 'state': 'normal', 'rot1': 0, 'rot0': 0, 'rot3': 0, 'rot2': 0, 'depth': 1.691, 'yaw': 5.48, 'datetime': '2018-12-12 13:23:25.021842', 'mgs': 0, 'flw2': 0.09, 'flw1': 0.0, 'flw0': 0.0, 'time': 5.63, 'compass': -120.92, 'pitch': -4.22, 'roll': 3.33}
{'lipoC2': 7.53, 'temp': 0.0, 'lipoC3S3': 11.64, 'state': 'normal', 'rot1': 0, 'rot0': 0, 'rot3': 0, 'rot2': 0, 'depth': 0.928, 'yaw': 5.71, 'datetime': '2018-12-12 13:23:25.229424', 'mgs': 0, 'flw2': 0.0, 'flw1': 0.0, 'flw0': 0.0, 'time': 5.84, 'compass': -120.69, 'pitch': -4.5, 'roll': 3.66}
{'lipoC2': 7.55, 'temp': 0.0, 'lipoC3S3': 11.64, 'state': 'normal', 'rot1': 0, 'rot0': 0, 'rot3': 0, 'rot2': 0, 'depth': 0.546, 'yaw': 5.95, 'datetime': '2018-12-12 13:23:25.439897', 'mgs': 0, 'flw2': 0.0, 'flw1': 0.12, 'flw0': 0.0, 'time': 6.05, 'compass': -120.46, 'pitch': -4.4, 'roll': 3.81}
{'lipoC2': 7.66, 'temp': 0.0, 'lipoC3S3': 11.81, 'state': 'normal', 'rot1': 0, 'rot0': 0, 'rot3': 0, 'rot2': 0, 'depth': 0.546, 'yaw': 6.19, 'datetime': '2018-12-12 13:23:25.647084', 'mgs': 0, 'flw2': 0.0, 'flw1': 0.18, 'flw0': 0.0, 'time': 6.25, 'compass': -120.22, 'pitch': -4.07, 'roll': 3.82}
{'lipoC2': 7.43, 'temp': 0.0, 'lipoC3S3': 11.9, 'state': 'normal', 'rot1': 0, 'rot0': 0, 'rot3': 0, 'rot2': 0, 'depth': 0.165, 'yaw': 6.42, 'datetime': '2018-12-12 13:23:25.856240', 'mgs': 0, 'flw2': 0.0, 'flw1': 0.0, 'flw0': 0.0, 'time': 6.46, 'compass': -119.99, 'pitch': -3.94, 'roll': 3.87}
{'lipoC2': 7.59, 'temp': 0.0, 'lipoC3S3': 11.48, 'state': 'normal', 'rot1': 0, 'rot0': 0, 'rot3': 0, 'rot2': 0, 'depth': -0.674, 'yaw': 6.67, 'datetime': '2018-12-12 13:23:26.064845', 'mgs': 0, 'flw2': 0.0, 'flw1': 0.29, 'flw0': 0.0, 'time': 6.67, 'compass': -119.73, 'pitch': -4.04, 'roll': 3.88}
{'lipoC2': 7.46, 'temp': 0.0, 'lipoC3S3': 11.61, 'state': 'normal', 'rot1': 0, 'rot0': 0, 'rot3': 0, 'rot2': 0, 'depth': 0.165, 'yaw': 6.94, 'datetime': '2018-12-12 13:23:26.271381', 'mgs': 0, 'flw2': 0.16, 'flw1': 0.0, 'flw0': 0.0, 'time': 6.88, 'compass': -119.47, 'pitch': -4.25, 'roll': 3.83}
{'lipoC2': 7.46, 'temp': 0.0, 'lipoC3S3': 11.8, 'state': 'normal', 'rot1': 0, 'rot0': 0, 'rot3': 0, 'rot2': 0, 'depth': 1.614, 'yaw': 7.22, 'datetime': '2018-12-12 13:23:26.479350', 'mgs': 0, 'flw2': 0.11, 'flw1': 0.29, 'flw0': 0.0, 'time': 7.09, 'compass': -119.18, 'pitch': -4.65, 'roll': 3.76}
{'lipoC2': 7.44, 'temp': 0.0, 'lipoC3S3': 11.65, 'state': 'normal', 'rot1': 0, 'rot0': 0, 'rot3': 0, 'rot2': 0, 'depth': 0.089, 'yaw': 7.54, 'datetime': '2018-12-12 13:23:26.687595', 'mgs': 0, 'flw2': 0.0, 'flw1': 0.0, 'flw0': 0.0, 'time': 7.29, 'compass': -118.87, 'pitch': -4.95, 'roll': 3.76}
{'lipoC2': 7.58, 'temp': 0.0, 'lipoC3S3': 11.64, 'state': 'normal', 'rot1': 0, 'rot0': 0, 'rot3': 0, 'rot2': 0, 'depth': 0.546, 'yaw': 7.89, 'datetime': '2018-12-12 13:23:26.896725', 'mgs': 0, 'flw2': 0.0, 'flw1': 0.0, 'flw0': 0.0, 'time': 7.5, 'compass': -118.51, 'pitch': -4.76, 'roll': 3.79}
{'lipoC2': 7.43, 'temp': 0.0, 'lipoC3S3': 11.76, 'state': 'normal', 'rot1': 0, 'rot0': 0, 'rot3': 0, 'rot2': 0, 'depth': 0.394, 'yaw': 8.22, 'datetime': '2018-12-12 13:23:27.103944', 'mgs': 0, 'flw2': 0.22, 'flw1': 0.0, 'flw0': 0.0, 'time': 7.71, 'compass': -118.19, 'pitch': -4.39, 'roll': 3.82}
{'lipoC2': 7.57, 'temp': 0.0, 'lipoC3S3': 11.5, 'state': 'normal', 'rot1': 0, 'rot0': 0, 'rot3': 0, 'rot2': 0, 'depth': 1.843, 'yaw': 8.58, 'datetime': '2018-12-12 13:23:27.328006', 'mgs': 0, 'flw2': 0.01, 'flw1': 0.0, 'flw0': 0.22, 'time': 7.92, 'compass': -117.83, 'pitch': -4.32, 'roll': 3.85}
{'lipoC2': 7.46, 'temp': 0.0, 'lipoC3S3': 11.61, 'state': 'normal', 'rot1': 0, 'rot0': 0, 'rot3': 0, 'rot2': 0, 'depth': 0.089, 'yaw': 9.15, 'datetime': '2018-12-12 13:23:27.631446', 'mgs': 0, 'flw2': 0.0, 'flw1': 0.0, 'flw0': 0.0, 'time': 8.23, 'compass': -117.26, 'pitch': -4.42, 'roll': 4.2}
{'lipoC2': 7.62, 'temp': 0.0, 'lipoC3S3': 11.5, 'state': 'normal', 'rot1': 0, 'rot0': 0, 'rot3': 0, 'rot2': 0, 'depth': -0.522, 'yaw': 9.52, 'datetime': '2018-12-12 13:23:27.840092', 'mgs': 0, 'flw2': 0.0, 'flw1': 0.26, 'flw0': 0.0, 'time': 8.44, 'compass': -116.88, 'pitch': -4.6, 'roll': 4.41}
{'lipoC2': 7.42, 'temp': 0.0, 'lipoC3S3': 11.71, 'state': 'normal', 'rot1': 0, 'rot0': 1, 'rot3': 0, 'rot2': 0, 'depth': 3.064, 'yaw': 10.04, 'datetime': '2018-12-12 13:23:28.048598', 'mgs': 0, 'flw2': 7.76, 'flw1': 0.0, 'flw0': 0.0, 'time': 8.65, 'compass': -116.36, 'pitch': -4.89, 'roll': 4.63}
{'lipoC2': 7.58, 'temp': 0.0, 'lipoC3S3': 11.58, 'state': 'normal', 'rot1': 0, 'rot0': 5, 'rot3': 0, 'rot2': 0, 'depth': 0.546, 'yaw': 14.73, 'datetime': '2018-12-12 13:23:28.255882', 'mgs': 0, 'flw2': 6.43, 'flw1': 0.0, 'flw0': 0.0, 'time': 8.85, 'compass': -111.67, 'pitch': -2.41, 'roll': 5.76}
{'lipoC2': 7.66, 'temp': 0.0, 'lipoC3S3': 11.75, 'state': 'normal', 'rot1': 0, 'rot0': 7, 'rot3': 0, 'rot2': 0, 'depth': 0.546, 'yaw': 23.3, 'datetime': '2018-12-12 13:23:28.463826', 'mgs': 0, 'flw2': 0.0, 'flw1': 0.38, 'flw0': 0.0, 'time': 9.06, 'compass': -103.11, 'pitch': 1.76, 'roll': 6.66}
{'lipoC2': 7.51, 'temp': 0.0, 'lipoC3S3': 11.5, 'state': 'normal', 'rot1': 0, 'rot0': 7, 'rot3': 0, 'rot2': 0, 'depth': 0.317, 'yaw': 30.35, 'datetime': '2018-12-12 13:23:28.672560', 'mgs': 0, 'flw2': 0.0, 'flw1': 0.0, 'flw0': 6.38, 'time': 9.27, 'compass': -96.05, 'pitch': 3.26, 'roll': 6.42}
{'lipoC2': 7.42, 'temp': 0.0, 'lipoC3S3': 11.71, 'state': 'normal', 'rot1': 7, 'rot0': 7, 'rot3': 0, 'rot2': 0, 'depth': 3.14, 'yaw': 32.41, 'datetime': '2018-12-12 13:23:28.881146', 'mgs': 0, 'flw2': 0.0, 'flw1': 0.64, 'flw0': 12.49, 'time': 9.48, 'compass': -94.0, 'pitch': 4.58, 'roll': 5.59}
{'lipoC2': 7.44, 'temp': 0.0, 'lipoC3S3': 11.59, 'state': 'normal', 'rot1': 13, 'rot0': 7, 'rot3': 0, 'rot2': 0, 'depth': 1.614, 'yaw': 26.08, 'datetime': '2018-12-12 13:23:29.086426', 'mgs': 0, 'flw2': 0.0, 'flw1': 0.0, 'flw0': 10.3, 'time': 9.68, 'compass': -100.32, 'pitch': 6.86, 'roll': 4.55}
{'lipoC2': 7.43, 'temp': 0.0, 'lipoC3S3': 11.76, 'state': 'normal', 'rot1': 14, 'rot0': 7, 'rot3': 0, 'rot2': 0, 'depth': 1.462, 'yaw': 15.72, 'datetime': '2018-12-12 13:23:29.290631', 'mgs': 0, 'flw2': 0.0, 'flw1': 0.0, 'flw0': 0.21, 'time': 9.89, 'compass': -110.68, 'pitch': 7.77, 'roll': 3.58}
{'lipoC2': 7.43, 'temp': 0.0, 'lipoC3S3': 11.63, 'state': 'normal', 'rot1': 14, 'rot0': 7, 'rot3': 0, 'rot2': 0, 'depth': 0.089, 'yaw': 7.96, 'datetime': '2018-12-12 13:23:29.504620', 'mgs': 0, 'flw2': 0.0, 'flw1': 0.0, 'flw0': 0.0, 'time': 10.1, 'compass': -118.44, 'pitch': 5.72, 'roll': 3.05}
{'lipoC2': 7.44, 'temp': 0.0, 'lipoC3S3': 11.81, 'state': 'normal', 'rot1': 14, 'rot0': 7, 'rot3': 0, 'rot2': 0, 'depth': 0.394, 'yaw': 2.6, 'datetime': '2018-12-12 13:23:29.711579', 'mgs': 0, 'flw2': 0.0, 'flw1': 0.0, 'flw0': 0.0, 'time': 10.31, 'compass': -123.81, 'pitch': 2.62, 'roll': 2.98}
{'lipoC2': 7.43, 'temp': 0.0, 'lipoC3S3': 11.64, 'state': 'normal', 'rot1': 14, 'rot0': 7, 'rot3': 0, 'rot2': 0, 'depth': 0.012, 'yaw': -1.7, 'datetime': '2018-12-12 13:23:29.922015', 'mgs': 0, 'flw2': 0.0, 'flw1': 0.0, 'flw0': 0.0, 'time': 10.52, 'compass': -128.11, 'pitch': -0.18, 'roll': 3.03}
{'lipoC2': 7.59, 'temp': 0.0, 'lipoC3S3': 11.48, 'state': 'normal', 'rot1': 14, 'rot0': 7, 'rot3': 0, 'rot2': 0, 'depth': -0.751, 'yaw': -5.2, 'datetime': '2018-12-12 13:23:30.128664', 'mgs': 0, 'flw2': 0.05, 'flw1': 0.0, 'flw0': 0.23, 'time': 10.73, 'compass': -131.61, 'pitch': -2.25, 'roll': 3.2}
{'lipoC2': 7.51, 'temp': 0.0, 'lipoC3S3': 11.61, 'state': 'normal', 'rot1': 14, 'rot0': 7, 'rot3': 0, 'rot2': 0, 'depth': 0.928, 'yaw': -8.09, 'datetime': '2018-12-12 13:23:30.334488', 'mgs': 0, 'flw2': 0.0, 'flw1': 0.0, 'flw0': 0.0, 'time': 10.94, 'compass': -134.5, 'pitch': -4.09, 'roll': 3.23}
{'lipoC2': 7.44, 'temp': 0.0, 'lipoC3S3': 11.93, 'state': 'normal', 'rot1': 14, 'rot0': 7, 'rot3': 0, 'rot2': 0, 'depth': 0.089, 'yaw': -10.84, 'datetime': '2018-12-12 13:23:30.545614', 'mgs': 0, 'flw2': 0.0, 'flw1': 0.0, 'flw0': 0.0, 'time': 11.14, 'compass': -137.25, 'pitch': -6.17, 'roll': 3.0}
{'lipoC2': 7.47, 'temp': 0.0, 'lipoC3S3': 11.88, 'state': 'normal', 'rot1': 14, 'rot0': 7, 'rot3': 0, 'rot2': 0, 'depth': 1.691, 'yaw': -13.35, 'datetime': '2018-12-12 13:23:30.754254', 'mgs': 0, 'flw2': 0.0, 'flw1': 0.0, 'flw0': 0.0, 'time': 11.35, 'compass': -139.76, 'pitch': -7.84, 'roll': 2.69}
{'lipoC2': 7.46, 'temp': 0.0, 'lipoC3S3': 11.75, 'state': 'normal', 'rot1': 14, 'rot0': 7, 'rot3': 0, 'rot2': 0, 'depth': 0.317, 'yaw': -15.67, 'datetime': '2018-12-12 13:23:30.962000', 'mgs': 0, 'flw2': 0.02, 'flw1': 0.0, 'flw0': 0.0, 'time': 11.56, 'compass': -142.08, 'pitch': -8.24, 'roll': 2.44}
{'lipoC2': 7.46, 'temp': 0.0, 'lipoC3S3': 11.48, 'state': 'normal', 'rot1': 14, 'rot0': 7, 'rot3': 0, 'rot2': 0, 'depth': 0.394, 'yaw': -17.84, 'datetime': '2018-12-12 13:23:31.169824', 'mgs': 0, 'flw2': 0.0, 'flw1': 0.38, 'flw0': 0.0, 'time': 11.77, 'compass': -144.24, 'pitch': -7.45, 'roll': 2.33}
{'lipoC2': 7.55, 'temp': 0.0, 'lipoC3S3': 11.9, 'state': 'normal', 'rot1': 14, 'rot0': 7, 'rot3': 0, 'rot2': 0, 'depth': 1.233, 'yaw': -19.75, 'datetime': '2018-12-12 13:23:31.379932', 'mgs': 0, 'flw2': 0.0, 'flw1': 0.0, 'flw0': 0.0, 'time': 11.98, 'compass': -146.15, 'pitch': -6.55, 'roll': 2.19}
{'lipoC2': 7.53, 'temp': 0.0, 'lipoC3S3': 11.56, 'state': 'normal', 'rot1': 14, 'rot0': 7, 'rot3': 0, 'rot2': 0, 'depth': -0.293, 'yaw': -21.63, 'datetime': '2018-12-12 13:23:31.590567', 'mgs': 0, 'flw2': 0.02, 'flw1': 0.0, 'flw0': 0.21, 'time': 12.19, 'compass': -148.03, 'pitch': -6.02, 'roll': 1.82}
{'lipoC2': 7.59, 'temp': 0.0, 'lipoC3S3': 11.5, 'state': 'normal', 'rot1': 14, 'rot0': 7, 'rot3': 0, 'rot2': 0, 'depth': -0.674, 'yaw': -23.41, 'datetime': '2018-12-12 13:23:31.797056', 'mgs': 0, 'flw2': 0.0, 'flw1': 0.0, 'flw0': 0.22, 'time': 12.39, 'compass': -149.81, 'pitch': -5.73, 'roll': 1.66}
{'lipoC2': 7.42, 'temp': 0.0, 'lipoC3S3': 11.6, 'state': 'normal', 'rot1': 14, 'rot0': 7, 'rot3': 0, 'rot2': 0, 'depth': 0.012, 'yaw': -25.0, 'datetime': '2018-12-12 13:23:32.006298', 'mgs': 0, 'flw2': 0.0, 'flw1': 0.0, 'flw0': 0.0, 'time': 12.6, 'compass': -151.41, 'pitch': -5.52, 'roll': 1.87}
{'lipoC2': 7.58, 'temp': 0.0, 'lipoC3S3': 11.47, 'state': 'normal', 'rot1': 14, 'rot0': 7, 'rot3': 0, 'rot2': 0, 'depth': -0.674, 'yaw': -26.56, 'datetime': '2018-12-12 13:23:32.215362', 'mgs': 0, 'flw2': 0.04, 'flw1': 0.0, 'flw0': 0.28, 'time': 12.81, 'compass': -152.96, 'pitch': -5.53, 'roll': 2.02}
{'lipoC2': 7.49, 'temp': 0.0, 'lipoC3S3': 11.58, 'state': 'normal', 'rot1': 14, 'rot0': 7, 'rot3': 0, 'rot2': 0, 'depth': 0.546, 'yaw': -28.0, 'datetime': '2018-12-12 13:23:32.423687', 'mgs': 0, 'flw2': 0.0, 'flw1': 0.0, 'flw0': 0.2, 'time': 13.02, 'compass': -154.4, 'pitch': -5.6, 'roll': 1.88}
{'lipoC2': 7.46, 'temp': 0.0, 'lipoC3S3': 11.72, 'state': 'normal', 'rot1': 14, 'rot0': 7, 'rot3': 0, 'rot2': 0, 'depth': 0.317, 'yaw': -29.39, 'datetime': '2018-12-12 13:23:32.632974', 'mgs': 0, 'flw2': 0.0, 'flw1': 0.53, 'flw0': 0.0, 'time': 13.23, 'compass': -155.8, 'pitch': -5.95, 'roll': 1.78}
{'lipoC2': 7.46, 'temp': 0.0, 'lipoC3S3': 11.85, 'state': 'normal', 'rot1': 14, 'rot0': 7, 'rot3': 0, 'rot2': 0, 'depth': 2.454, 'yaw': -30.69, 'datetime': '2018-12-12 13:23:32.840430', 'mgs': 0, 'flw2': 0.0, 'flw1': 0.44, 'flw0': 0.0, 'time': 13.44, 'compass': -157.09, 'pitch': -6.77, 'roll': 1.75}
{'lipoC2': 7.46, 'temp': 0.0, 'lipoC3S3': 11.83, 'state': 'normal', 'rot1': 14, 'rot0': 7, 'rot3': 0, 'rot2': 0, 'depth': 0.47, 'yaw': -31.94, 'datetime': '2018-12-12 13:23:33.049245', 'mgs': 0, 'flw2': 0.0, 'flw1': 0.53, 'flw0': 0.0, 'time': 13.64, 'compass': -158.35, 'pitch': -7.76, 'roll': 1.6}
{'lipoC2': 7.63, 'temp': 0.0, 'lipoC3S3': 11.6, 'state': 'normal', 'rot1': 14, 'rot0': 7, 'rot3': 0, 'rot2': 0, 'depth': 0.699, 'yaw': -33.13, 'datetime': '2018-12-12 13:23:33.256770', 'mgs': 0, 'flw2': 0.0, 'flw1': 0.53, 'flw0': 0.0, 'time': 13.85, 'compass': -159.54, 'pitch': -8.31, 'roll': 1.43}
{'lipoC2': 7.43, 'temp': 0.0, 'lipoC3S3': 11.63, 'state': 'normal', 'rot1': 16, 'rot0': 7, 'rot3': 0, 'rot2': 0, 'depth': 1.614, 'yaw': -34.45, 'datetime': '2018-12-12 13:23:33.466461', 'mgs': 0, 'flw2': 0.0, 'flw1': 0.06, 'flw0': 6.32, 'time': 14.06, 'compass': -160.85, 'pitch': -8.29, 'roll': 1.22}
{'lipoC2': 7.65, 'temp': 0.0, 'lipoC3S3': 11.52, 'state': 'normal', 'rot1': 20, 'rot0': 7, 'rot3': 0, 'rot2': 0, 'depth': 2.911, 'yaw': -39.45, 'datetime': '2018-12-12 13:23:33.676212', 'mgs': 0, 'flw2': 0.24, 'flw1': 0.0, 'flw0': 6.92, 'time': 14.27, 'compass': -165.86, 'pitch': -6.08, 'roll': -0.24}
{'lipoC2': 7.46, 'temp': 0.0, 'lipoC3S3': 11.73, 'state': 'normal', 'rot1': 24, 'rot0': 7, 'rot3': 0, 'rot2': 0, 'depth': 3.293, 'yaw': -48.72, 'datetime': '2018-12-12 13:23:33.884365', 'mgs': 0, 'flw2': 0.0, 'flw1': 0.32, 'flw0': 7.59, 'time': 14.48, 'compass': -175.13, 'pitch': -2.15, 'roll': -2.34}
{'lipoC2': 7.43, 'temp': 0.0, 'lipoC3S3': 11.77, 'state': 'normal', 'rot1': 29, 'rot0': 7, 'rot3': 0, 'rot2': 0, 'depth': 0.47, 'yaw': -61.23, 'datetime': '2018-12-12 13:23:34.092735', 'mgs': 0, 'flw2': 3.06, 'flw1': 0.23, 'flw0': 6.64, 'time': 14.69, 'compass': 172.36, 'pitch': 2.13, 'roll': -4.16}
{'lipoC2': 7.42, 'temp': 0.0, 'lipoC3S3': 11.71, 'state': 'normal', 'rot1': 32, 'rot0': 10, 'rot3': 0, 'rot2': 0, 'depth': 0.47, 'yaw': -72.91, 'datetime': '2018-12-12 13:23:34.300693', 'mgs': 0, 'flw2': 3.25, 'flw1': 0.56, 'flw0': 6.65, 'time': 14.9, 'compass': 160.69, 'pitch': 6.43, 'roll': -5.0}
{'lipoC2': 7.44, 'temp': 0.0, 'lipoC3S3': 11.65, 'state': 'normal', 'rot1': 36, 'rot0': 13, 'rot3': 0, 'rot2': 0, 'depth': 3.14, 'yaw': -82.26, 'datetime': '2018-12-12 13:23:34.509875', 'mgs': 0, 'flw2': 3.99, 'flw1': 0.38, 'flw0': 3.02, 'time': 15.1, 'compass': 151.34, 'pitch': 10.06, 'roll': -5.25}
{'lipoC2': 7.42, 'temp': 0.0, 'lipoC3S3': 11.8, 'state': 'normal', 'rot1': 38, 'rot0': 15, 'rot3': 0, 'rot2': 0, 'depth': 3.14, 'yaw': -88.61, 'datetime': '2018-12-12 13:23:34.724416', 'mgs': 0, 'flw2': 6.59, 'flw1': 0.41, 'flw0': 2.8, 'time': 15.31, 'compass': 144.99, 'pitch': 11.76, 'roll': -5.32}
{'lipoC2': 7.43, 'temp': 0.0, 'lipoC3S3': 11.75, 'state': 'normal', 'rot1': 40, 'rot0': 19, 'rot3': 0, 'rot2': 0, 'depth': 0.165, 'yaw': -92.38, 'datetime': '2018-12-12 13:23:34.934626', 'mgs': 0, 'flw2': 7.43, 'flw1': 0.62, 'flw0': 2.54, 'time': 15.52, 'compass': 141.22, 'pitch': 11.97, 'roll': -5.51}
{'lipoC2': 7.47, 'temp': 0.0, 'lipoC3S3': 11.5, 'state': 'normal', 'rot1': 43, 'rot0': 23, 'rot3': 0, 'rot2': 0, 'depth': -0.14, 'yaw': -92.88, 'datetime': '2018-12-12 13:23:35.143725', 'mgs': 0, 'flw2': 7.87, 'flw1': 0.47, 'flw0': 1.33, 'time': 15.73, 'compass': 140.71, 'pitch': 11.02, 'roll': -5.84}
{'lipoC2': 7.42, 'temp': 0.0, 'lipoC3S3': 11.73, 'state': 'normal', 'rot1': 45, 'rot0': 28, 'rot3': 0, 'rot2': 0, 'depth': 0.012, 'yaw': -90.47, 'datetime': '2018-12-12 13:23:35.349333', 'mgs': 0, 'flw2': 7.67, 'flw1': 0.59, 'flw0': 1.31, 'time': 15.94, 'compass': 143.13, 'pitch': 7.97, 'roll': -5.86}
{'lipoC2': 7.46, 'temp': 0.0, 'lipoC3S3': 11.27, 'state': 'normal', 'rot1': 47, 'rot0': 32, 'rot3': 0, 'rot2': 0, 'depth': 0.47, 'yaw': -86.17, 'datetime': '2018-12-12 13:23:35.560921', 'mgs': 0, 'flw2': 8.07, 'flw1': 0.0, 'flw0': 1.72, 'time': 16.15, 'compass': 147.43, 'pitch': 4.4, 'roll': -5.28}
{'lipoC2': 7.49, 'temp': 0.0, 'lipoC3S3': 11.42, 'state': 'normal', 'rot1': 48, 'rot0': 36, 'rot3': 0, 'rot2': 0, 'depth': 0.089, 'yaw': -81.05, 'datetime': '2018-12-12 13:23:35.768087', 'mgs': 0, 'flw2': 7.91, 'flw1': 0.0, 'flw0': 0.96, 'time': 16.36, 'compass': 152.54, 'pitch': 2.47, 'roll': -4.3}
{'lipoC2': 7.46, 'temp': 0.0, 'lipoC3S3': 11.76, 'state': 'normal', 'rot1': 50, 'rot0': 39, 'rot3': 0, 'rot2': 0, 'depth': 2.301, 'yaw': -74.91, 'datetime': '2018-12-12 13:23:35.976794', 'mgs': 0, 'flw2': 6.15, 'flw1': 0.62, 'flw0': 0.79, 'time': 16.57, 'compass': 158.68, 'pitch': 1.99, 'roll': -3.01}
{'lipoC2': 7.44, 'temp': 0.0, 'lipoC3S3': 11.56, 'state': 'normal', 'rot1': 51, 'rot0': 43, 'rot3': 0, 'rot2': 0, 'depth': 0.241, 'yaw': -67.94, 'datetime': '2018-12-12 13:23:36.187164', 'mgs': 0, 'flw2': 12.49, 'flw1': 0.56, 'flw0': 0.0, 'time': 16.77, 'compass': 165.66, 'pitch': 1.64, 'roll': -1.31}
{'lipoC2': 7.42, 'temp': 0.0, 'lipoC3S3': 11.6, 'state': 'normal', 'rot1': 51, 'rot0': 44, 'rot3': 0, 'rot2': 0, 'depth': -0.217, 'yaw': -60.2, 'datetime': '2018-12-12 13:23:36.394198', 'mgs': 0, 'flw2': 0.2, 'flw1': 0.0, 'flw0': 0.21, 'time': 16.99, 'compass': 173.39, 'pitch': 0.66, 'roll': 0.6}
{'lipoC2': 7.43, 'temp': 0.0, 'lipoC3S3': 11.84, 'state': 'normal', 'rot1': 51, 'rot0': 44, 'rot3': 0, 'rot2': 0, 'depth': -0.217, 'yaw': -54.96, 'datetime': '2018-12-12 13:23:36.604172', 'mgs': 0, 'flw2': 0.0, 'flw1': 0.0, 'flw0': 0.0, 'time': 17.19, 'compass': 178.63, 'pitch': -1.57, 'roll': 1.64}
{'lipoC2': 7.42, 'temp': 0.0, 'lipoC3S3': 11.92, 'state': 'normal', 'rot1': 51, 'rot0': 44, 'rot3': 0, 'rot2': 0, 'depth': 2.072, 'yaw': -51.28, 'datetime': '2018-12-12 13:23:36.814188', 'mgs': 0, 'flw2': 0.0, 'flw1': 0.0, 'flw0': 0.0, 'time': 17.4, 'compass': -177.69, 'pitch': -3.75, 'roll': 2.06}
{'lipoC2': 7.39, 'temp': 0.0, 'lipoC3S3': 11.61, 'state': 'normal', 'rot1': 51, 'rot0': 44, 'rot3': 0, 'rot2': 0, 'depth': -0.522, 'yaw': -48.22, 'datetime': '2018-12-12 13:23:37.033921', 'mgs': 0, 'flw2': 0.0, 'flw1': 0.38, 'flw0': 0.0, 'time': 17.61, 'compass': -174.63, 'pitch': -6.46, 'roll': 2.57}
{'lipoC2': 7.54, 'temp': 0.0, 'lipoC3S3': 11.58, 'state': 'normal', 'rot1': 51, 'rot0': 44, 'rot3': 0, 'rot2': 0, 'depth': -0.827, 'yaw': -44.66, 'datetime': '2018-12-12 13:23:37.332267', 'mgs': 0, 'flw2': 0.0, 'flw1': 0.0, 'flw0': 0.0, 'time': 17.92, 'compass': -171.06, 'pitch': -10.56, 'roll': 3.41}
{'lipoC2': 7.42, 'temp': 0.0, 'lipoC3S3': 11.71, 'state': 'normal', 'rot1': 51, 'rot0': 44, 'rot3': 0, 'rot2': 0, 'depth': 0.394, 'yaw': -42.67, 'datetime': '2018-12-12 13:23:37.542067', 'mgs': 0, 'flw2': 0.0, 'flw1': 0.23, 'flw0': 0.0, 'time': 18.13, 'compass': -169.07, 'pitch': -12.24, 'roll': 3.59}
{'lipoC2': 7.43, 'temp': 0.0, 'lipoC3S3': 11.93, 'state': 'normal', 'rot1': 51, 'rot0': 44, 'rot3': 0, 'rot2': 0, 'depth': 2.53, 'yaw': -40.97, 'datetime': '2018-12-12 13:23:37.750257', 'mgs': 0, 'flw2': 0.26, 'flw1': 0.0, 'flw0': 0.01, 'time': 18.34, 'compass': -167.38, 'pitch': -12.88, 'roll': 3.7}
{'lipoC2': 7.43, 'temp': 0.0, 'lipoC3S3': 11.59, 'state': 'normal', 'rot1': 51, 'rot0': 44, 'rot3': 0, 'rot2': 0, 'depth': -0.14, 'yaw': -39.49, 'datetime': '2018-12-12 13:23:37.976342', 'mgs': 0, 'flw2': 0.0, 'flw1': 0.0, 'flw0': 0.0, 'time': 18.55, 'compass': -165.9, 'pitch': -12.87, 'roll': 3.74}
{'lipoC2': 7.47, 'temp': 0.0, 'lipoC3S3': 11.47, 'state': 'normal', 'rot1': 51, 'rot0': 44, 'rot3': 0, 'rot2': 0, 'depth': 2.301, 'yaw': -38.13, 'datetime': '2018-12-12 13:23:38.180879', 'mgs': 0, 'flw2': 0.16, 'flw1': 0.0, 'flw0': 0.26, 'time': 18.76, 'compass': -164.54, 'pitch': -12.05, 'roll': 3.49}
{'lipoC2': 7.5, 'temp': 0.0, 'lipoC3S3': 11.63, 'state': 'normal', 'rot1': 51, 'rot0': 44, 'rot3': 0, 'rot2': 0, 'depth': 0.394, 'yaw': -36.99, 'datetime': '2018-12-12 13:23:38.388409', 'mgs': 0, 'flw2': 0.0, 'flw1': 0.0, 'flw0': 0.0, 'time': 18.97, 'compass': -163.4, 'pitch': -10.66, 'roll': 3.17}
{'lipoC2': 7.42, 'temp': 0.0, 'lipoC3S3': 11.85, 'state': 'normal', 'rot1': 51, 'rot0': 44, 'rot3': 0, 'rot2': 0, 'depth': 0.47, 'yaw': -35.99, 'datetime': '2018-12-12 13:23:38.594882', 'mgs': 0, 'flw2': 0.0, 'flw1': 0.0, 'flw0': 0.0, 'time': 19.18, 'compass': -162.39, 'pitch': -9.27, 'roll': 2.96}
{'lipoC2': 7.43, 'temp': 0.0, 'lipoC3S3': 11.9, 'state': 'normal', 'rot1': 51, 'rot0': 44, 'rot3': 0, 'rot2': 0, 'depth': 3.064, 'yaw': -35.14, 'datetime': '2018-12-12 13:23:38.804093', 'mgs': 0, 'flw2': 0.01, 'flw1': 0.0, 'flw0': 0.0, 'time': 19.39, 'compass': -161.55, 'pitch': -8.44, 'roll': 2.77}
{'lipoC2': 7.41, 'temp': 0.0, 'lipoC3S3': 11.71, 'state': 'normal', 'rot1': 51, 'rot0': 44, 'rot3': 0, 'rot2': 0, 'depth': 1.385, 'yaw': -34.41, 'datetime': '2018-12-12 13:23:39.018731', 'mgs': 0, 'flw2': 0.0, 'flw1': 0.59, 'flw0': 0.0, 'time': 19.59, 'compass': -160.81, 'pitch': -8.02, 'roll': 2.62}
{'lipoC2': 7.42, 'temp': 0.0, 'lipoC3S3': 11.64, 'state': 'normal', 'rot1': 51, 'rot0': 44, 'rot3': 0, 'rot2': 0, 'depth': 0.623, 'yaw': -33.81, 'datetime': '2018-12-12 13:23:39.227345', 'mgs': 0, 'flw2': 0.27, 'flw1': 0.0, 'flw0': 0.04, 'time': 19.81, 'compass': -160.22, 'pitch': -8.05, 'roll': 2.66}
{'lipoC2': 7.59, 'temp': 0.0, 'lipoC3S3': 11.63, 'state': 'normal', 'rot1': 51, 'rot0': 44, 'rot3': 0, 'rot2': 0, 'depth': 1.08, 'yaw': -33.35, 'datetime': '2018-12-12 13:23:39.433136', 'mgs': 0, 'flw2': 0.27, 'flw1': 0.0, 'flw0': 0.05, 'time': 20.01, 'compass': -159.75, 'pitch': -8.8, 'roll': 2.81}
{'lipoC2': 7.46, 'temp': 0.0, 'lipoC3S3': 11.75, 'state': 'normal', 'rot1': 51, 'rot0': 44, 'rot3': 0, 'rot2': 0, 'depth': 1.462, 'yaw': -32.94, 'datetime': '2018-12-12 13:23:39.646860', 'mgs': 0, 'flw2': 0.06, 'flw1': 0.0, 'flw0': 0.0, 'time': 20.22, 'compass': -159.35, 'pitch': -9.85, 'roll': 3.06}
{'lipoC2': 7.46, 'temp': 0.0, 'lipoC3S3': 11.71, 'state': 'normal', 'rot1': 51, 'rot0': 44, 'rot3': 0, 'rot2': 0, 'depth': 1.691, 'yaw': -32.65, 'datetime': '2018-12-12 13:23:39.850765', 'mgs': 0, 'flw2': 0.0, 'flw1': 0.0, 'flw0': 0.07, 'time': 20.43, 'compass': -159.05, 'pitch': -10.49, 'roll': 3.31}
{'lipoC2': 7.46, 'temp': 0.0, 'lipoC3S3': 11.92, 'state': 'normal', 'rot1': 51, 'rot0': 44, 'rot3': 0, 'rot2': 0, 'depth': 3.217, 'yaw': -32.47, 'datetime': '2018-12-12 13:23:40.058636', 'mgs': 0, 'flw2': 0.0, 'flw1': 0.0, 'flw0': 0.0, 'time': 20.64, 'compass': -158.87, 'pitch': -10.78, 'roll': 3.66}
{'lipoC2': 7.38, 'temp': 0.0, 'lipoC3S3': 11.6, 'state': 'normal', 'rot1': 51, 'rot0': 44, 'rot3': 0, 'rot2': 0, 'depth': 0.775, 'yaw': -32.39, 'datetime': '2018-12-12 13:23:40.266466', 'mgs': 0, 'flw2': 0.0, 'flw1': 0.47, 'flw0': 0.0, 'time': 20.85, 'compass': -158.8, 'pitch': -11.05, 'roll': 4.1}
{'lipoC2': 7.43, 'temp': 0.0, 'lipoC3S3': 11.93, 'state': 'normal', 'rot1': 51, 'rot0': 44, 'rot3': 0, 'rot2': 0, 'depth': 3.14, 'yaw': -32.42, 'datetime': '2018-12-12 13:23:40.477871', 'mgs': 0, 'flw2': 0.0, 'flw1': 0.0, 'flw0': 0.0, 'time': 21.06, 'compass': -158.82, 'pitch': -11.14, 'roll': 4.37}
{'lipoC2': 7.43, 'temp': 0.0, 'lipoC3S3': 11.9, 'state': 'normal', 'rot1': 51, 'rot0': 44, 'rot3': 0, 'rot2': 0, 'depth': 0.623, 'yaw': -32.42, 'datetime': '2018-12-12 13:23:40.687460', 'mgs': 0, 'flw2': 0.24, 'flw1': 0.0, 'flw0': 0.01, 'time': 21.27, 'compass': -158.83, 'pitch': -10.87, 'roll': 4.4}
{'lipoC2': 7.46, 'temp': 0.0, 'lipoC3S3': 11.87, 'state': 'normal', 'rot1': 51, 'rot0': 44, 'rot3': 0, 'rot2': 0, 'depth': 0.775, 'yaw': -32.41, 'datetime': '2018-12-12 13:23:40.893936', 'mgs': 0, 'flw2': 0.16, 'flw1': 0.0, 'flw0': 0.22, 'time': 21.48, 'compass': -158.82, 'pitch': -10.32, 'roll': 4.39}
{'lipoC2': 7.46, 'temp': 0.0, 'lipoC3S3': 11.6, 'state': 'normal', 'rot1': 51, 'rot0': 44, 'rot3': 0, 'rot2': 0, 'depth': 0.851, 'yaw': -32.4, 'datetime': '2018-12-12 13:23:41.106104', 'mgs': 0, 'flw2': 0.0, 'flw1': 0.0, 'flw0': 0.0, 'time': 21.68, 'compass': -158.81, 'pitch': -9.88, 'roll': 4.3}
{'lipoC2': 7.43, 'temp': 0.0, 'lipoC3S3': 11.87, 'state': 'normal', 'rot1': 51, 'rot0': 44, 'rot3': 0, 'rot2': 0, 'depth': 2.911, 'yaw': -32.37, 'datetime': '2018-12-12 13:23:41.311250', 'mgs': 0, 'flw2': 0.0, 'flw1': 0.23, 'flw0': 0.0, 'time': 21.89, 'compass': -158.77, 'pitch': -9.58, 'roll': 4.1}
{'lipoC2': 7.42, 'temp': 0.0, 'lipoC3S3': 11.6, 'state': 'normal', 'rot1': 51, 'rot0': 44, 'rot3': 0, 'rot2': 0, 'depth': 0.165, 'yaw': -32.35, 'datetime': '2018-12-12 13:23:41.525033', 'mgs': 0, 'flw2': 0.0, 'flw1': 0.32, 'flw0': 0.0, 'time': 22.1, 'compass': -158.76, 'pitch': -9.4, 'roll': 3.98}
{'lipoC2': 7.43, 'temp': 0.0, 'lipoC3S3': 11.63, 'state': 'normal', 'rot1': 51, 'rot0': 44, 'rot3': 0, 'rot2': 0, 'depth': 2.759, 'yaw': -32.35, 'datetime': '2018-12-12 13:23:41.731381', 'mgs': 0, 'flw2': 0.0, 'flw1': 0.0, 'flw0': 0.0, 'time': 22.31, 'compass': -158.75, 'pitch': -9.49, 'roll': 3.98}
{'lipoC2': 7.42, 'temp': 0.0, 'lipoC3S3': 11.92, 'state': 'normal', 'rot1': 51, 'rot0': 44, 'rot3': 0, 'rot2': 0, 'depth': 2.759, 'yaw': -32.36, 'datetime': '2018-12-12 13:23:41.947084', 'mgs': 0, 'flw2': 0.0, 'flw1': 0.0, 'flw0': 0.0, 'time': 22.52, 'compass': -158.76, 'pitch': -9.95, 'roll': 4.03}
{'lipoC2': 7.42, 'temp': 0.0, 'lipoC3S3': 11.93, 'state': 'normal', 'rot1': 51, 'rot0': 44, 'rot3': 0, 'rot2': 0, 'depth': 2.682, 'yaw': -32.37, 'datetime': '2018-12-12 13:23:42.151042', 'mgs': 0, 'flw2': 0.0, 'flw1': 0.0, 'flw0': 0.0, 'time': 22.73, 'compass': -158.77, 'pitch': -10.44, 'roll': 4.1}
{'lipoC2': 7.42, 'temp': 0.0, 'lipoC3S3': 11.93, 'state': 'normal', 'rot1': 51, 'rot0': 44, 'rot3': 0, 'rot2': 0, 'depth': 0.47, 'yaw': -32.4, 'datetime': '2018-12-12 13:23:42.359918', 'mgs': 0, 'flw2': 0.0, 'flw1': 0.0, 'flw0': 0.0, 'time': 22.94, 'compass': -158.8, 'pitch': -10.62, 'roll': 4.09}
{'lipoC2': 7.43, 'temp': 0.0, 'lipoC3S3': 11.88, 'state': 'normal', 'rot1': 51, 'rot0': 44, 'rot3': 0, 'rot2': 0, 'depth': 2.53, 'yaw': -32.52, 'datetime': '2018-12-12 13:23:42.568687', 'mgs': 0, 'flw2': 0.01, 'flw1': 0.03, 'flw0': 0.0, 'time': 23.15, 'compass': -158.93, 'pitch': -10.63, 'roll': 4.26}
{'lipoC2': 7.43, 'temp': 0.0, 'lipoC3S3': 11.92, 'state': 'normal', 'rot1': 51, 'rot0': 44, 'rot3': 0, 'rot2': 0, 'depth': 2.911, 'yaw': -32.76, 'datetime': '2018-12-12 13:23:42.778590', 'mgs': 0, 'flw2': 0.0, 'flw1': 0.0, 'flw0': 0.0, 'time': 23.36, 'compass': -159.17, 'pitch': -10.65, 'roll': 4.61}
{'lipoC2': 7.42, 'temp': 0.0, 'lipoC3S3': 11.71, 'state': 'normal', 'rot1': 51, 'rot0': 44, 'rot3': 0, 'rot2': 0, 'depth': 1.157, 'yaw': -33.0, 'datetime': '2018-12-12 13:23:42.988374', 'mgs': 0, 'flw2': 0.0, 'flw1': 0.62, 'flw0': 0.0, 'time': 23.57, 'compass': -159.4, 'pitch': -10.67, 'roll': 4.86}
{'lipoC2': 7.4, 'temp': 0.0, 'lipoC3S3': 11.69, 'state': 'normal', 'rot1': 51, 'rot0': 44, 'rot3': 0, 'rot2': 0, 'depth': 0.012, 'yaw': -33.22, 'datetime': '2018-12-12 13:23:43.197002', 'mgs': 0, 'flw2': 0.26, 'flw1': 0.0, 'flw0': 0.11, 'time': 23.77, 'compass': -159.62, 'pitch': -10.28, 'roll': 4.86}
{'lipoC2': 7.44, 'temp': 0.0, 'lipoC3S3': 11.93, 'state': 'normal', 'rot1': 51, 'rot0': 44, 'rot3': 0, 'rot2': 0, 'depth': 0.47, 'yaw': -33.48, 'datetime': '2018-12-12 13:23:43.405224', 'mgs': 0, 'flw2': 0.0, 'flw1': 0.0, 'flw0': 0.0, 'time': 23.98, 'compass': -159.88, 'pitch': -9.68, 'roll': 4.81}
{'lipoC2': 7.44, 'temp': 0.0, 'lipoC3S3': 11.65, 'state': 'normal', 'rot1': 51, 'rot0': 44, 'rot3': 0, 'rot2': 0, 'depth': 0.317, 'yaw': -33.74, 'datetime': '2018-12-12 13:23:43.615223', 'mgs': 0, 'flw2': 0.09, 'flw1': 0.0, 'flw0': 0.06, 'time': 24.19, 'compass': -160.14, 'pitch': -9.67, 'roll': 4.77}
{'lipoC2': 7.38, 'temp': 0.0, 'lipoC3S3': 11.6, 'state': 'normal', 'rot1': 51, 'rot0': 44, 'rot3': 0, 'rot2': 0, 'depth': -0.14, 'yaw': -34.04, 'datetime': '2018-12-12 13:23:43.824238', 'mgs': 0, 'flw2': 0.0, 'flw1': 0.0, 'flw0': 0.0, 'time': 24.4, 'compass': -160.44, 'pitch': -10.09, 'roll': 4.7}
{'lipoC2': 7.42, 'temp': 0.0, 'lipoC3S3': 11.92, 'state': 'normal', 'rot1': 51, 'rot0': 44, 'rot3': 0, 'rot2': 0, 'depth': 2.225, 'yaw': -34.32, 'datetime': '2018-12-12 13:23:44.035470', 'mgs': 0, 'flw2': 0.0, 'flw1': 0.0, 'flw0': 0.0, 'time': 24.61, 'compass': -160.73, 'pitch': -9.8, 'roll': 4.47}
{'lipoC2': 7.44, 'temp': 0.0, 'lipoC3S3': 11.81, 'state': 'normal', 'rot1': 51, 'rot0': 44, 'rot3': 0, 'rot2': 0, 'depth': 0.623, 'yaw': -34.67, 'datetime': '2018-12-12 13:23:44.247943', 'mgs': 0, 'flw2': 0.0, 'flw1': 0.0, 'flw0': 0.0, 'time': 24.82, 'compass': -161.07, 'pitch': -9.07, 'roll': 4.37}
{'lipoC2': 7.4, 'temp': 0.0, 'lipoC3S3': 11.63, 'state': 'normal', 'rot1': 51, 'rot0': 44, 'rot3': 0, 'rot2': 0, 'depth': -0.14, 'yaw': -35.05, 'datetime': '2018-12-12 13:23:44.459551', 'mgs': 0, 'flw2': 0.0, 'flw1': 0.32, 'flw0': 0.0, 'time': 25.03, 'compass': -161.45, 'pitch': -9.15, 'roll': 4.4}
{'lipoC2': 7.42, 'temp': 0.0, 'lipoC3S3': 11.61, 'state': 'normal', 'rot1': 51, 'rot0': 44, 'rot3': 0, 'rot2': 0, 'depth': 0.012, 'yaw': -35.43, 'datetime': '2018-12-12 13:23:44.669961', 'mgs': 0, 'flw2': 0.0, 'flw1': 0.32, 'flw0': 0.0, 'time': 25.24, 'compass': -161.84, 'pitch': -9.74, 'roll': 4.27}
{'lipoC2': 7.46, 'temp': 0.0, 'lipoC3S3': 11.8, 'state': 'normal', 'rot1': 51, 'rot0': 44, 'rot3': 0, 'rot2': 0, 'depth': 2.606, 'yaw': -36.08, 'datetime': '2018-12-12 13:23:44.968400', 'mgs': 0, 'flw2': 0.0, 'flw1': 0.59, 'flw0': 0.0, 'time': 25.55, 'compass': -162.49, 'pitch': -9.57, 'roll': 4.2}
{'lipoC2': 7.42, 'temp': 0.0, 'lipoC3S3': 11.92, 'state': 'normal', 'rot1': 51, 'rot0': 44, 'rot3': 0, 'rot2': 0, 'depth': 1.691, 'yaw': -36.56, 'datetime': '2018-12-12 13:23:45.177638', 'mgs': 0, 'flw2': 0.0, 'flw1': 0.0, 'flw0': 0.0, 'time': 25.76, 'compass': -162.97, 'pitch': -9.29, 'roll': 4.55}
{'lipoC2': 7.44, 'temp': 0.0, 'lipoC3S3': 11.93, 'state': 'normal', 'rot1': 51, 'rot0': 44, 'rot3': 0, 'rot2': 0, 'depth': -0.064, 'yaw': -37.1, 'datetime': '2018-12-12 13:23:45.386284', 'mgs': 0, 'flw2': 0.0, 'flw1': 0.0, 'flw0': 0.0, 'time': 25.97, 'compass': -163.51, 'pitch': -9.56, 'roll': 4.77}
{'lipoC2': 7.56, 'temp': 0.0, 'lipoC3S3': 11.51, 'state': 'normal', 'rot1': 51, 'rot0': 44, 'rot3': 0, 'rot2': 0, 'depth': -0.522, 'yaw': -37.62, 'datetime': '2018-12-12 13:23:45.604052', 'mgs': 0, 'flw2': 0.13, 'flw1': 0.0, 'flw0': 0.28, 'time': 26.18, 'compass': -164.02, 'pitch': -9.81, 'roll': 4.68}
{'lipoC2': 7.61, 'temp': 0.0, 'lipoC3S3': 11.64, 'state': 'normal', 'rot1': 51, 'rot0': 44, 'rot3': 0, 'rot2': 0, 'depth': 0.546, 'yaw': -38.09, 'datetime': '2018-12-12 13:23:45.810695', 'mgs': 0, 'flw2': 0.0, 'flw1': 0.0, 'flw0': 0.0, 'time': 26.39, 'compass': -164.5, 'pitch': -9.69, 'roll': 4.61}
{'lipoC2': 7.44, 'temp': 0.0, 'lipoC3S3': 11.79, 'state': 'normal', 'rot1': 51, 'rot0': 44, 'rot3': 0, 'rot2': 0, 'depth': 1.08, 'yaw': -38.61, 'datetime': '2018-12-12 13:23:46.019861', 'mgs': 0, 'flw2': 0.0, 'flw1': 0.0, 'flw0': 0.0, 'time': 26.59, 'compass': -165.02, 'pitch': -9.73, 'roll': 4.74}
{'lipoC2': 7.39, 'temp': 0.0, 'lipoC3S3': 11.63, 'state': 'normal', 'rot1': 51, 'rot0': 44, 'rot3': 0, 'rot2': 0, 'depth': 0.546, 'yaw': -39.13, 'datetime': '2018-12-12 13:23:46.228771', 'mgs': 0, 'flw2': 0.0, 'flw1': 0.26, 'flw0': 0.0, 'time': 26.8, 'compass': -165.54, 'pitch': -9.77, 'roll': 4.69}
{'lipoC2': 7.43, 'temp': 0.0, 'lipoC3S3': 11.75, 'state': 'normal', 'rot1': 51, 'rot0': 44, 'rot3': 0, 'rot2': 0, 'depth': 0.47, 'yaw': -39.64, 'datetime': '2018-12-12 13:23:46.437924', 'mgs': 0, 'flw2': 0.0, 'flw1': 0.44, 'flw0': 0.0, 'time': 27.01, 'compass': -166.05, 'pitch': -9.54, 'roll': 4.53}
{'lipoC2': 7.37, 'temp': 0.0, 'lipoC3S3': 11.61, 'state': 'normal', 'rot1': 51, 'rot0': 44, 'rot3': 0, 'rot2': 0, 'depth': -0.674, 'yaw': -40.12, 'datetime': '2018-12-12 13:23:46.647912', 'mgs': 0, 'flw2': 0.0, 'flw1': 0.0, 'flw0': 0.0, 'time': 27.22, 'compass': -166.53, 'pitch': -9.42, 'roll': 4.45}
{'lipoC2': 7.65, 'temp': 0.0, 'lipoC3S3': 11.52, 'state': 'normal', 'rot1': 51, 'rot0': 44, 'rot3': 0, 'rot2': 0, 'depth': -0.522, 'yaw': -40.64, 'datetime': '2018-12-12 13:23:46.864930', 'mgs': 0, 'flw2': 0.0, 'flw1': 0.15, 'flw0': 0.16, 'time': 27.43, 'compass': -167.04, 'pitch': -9.67, 'roll': 4.29}
{'lipoC2': 7.63, 'temp': 0.0, 'lipoC3S3': 11.47, 'state': 'normal', 'rot1': 51, 'rot0': 44, 'rot3': 0, 'rot2': 0, 'depth': 2.225, 'yaw': -41.15, 'datetime': '2018-12-12 13:23:47.069602', 'mgs': 0, 'flw2': 0.04, 'flw1': 0.0, 'flw0': 0.26, 'time': 27.64, 'compass': -167.56, 'pitch': -9.95, 'roll': 3.94}
{'lipoC2': 7.42, 'temp': 0.0, 'lipoC3S3': 11.6, 'state': 'normal', 'rot1': 51, 'rot0': 44, 'rot3': 0, 'rot2': 0, 'depth': -0.217, 'yaw': -41.67, 'datetime': '2018-12-12 13:23:47.279367', 'mgs': 0, 'flw2': 0.0, 'flw1': 0.29, 'flw0': 0.0, 'time': 27.85, 'compass': -168.07, 'pitch': -9.98, 'roll': 3.81}
{'lipoC2': 7.42, 'temp': 0.0, 'lipoC3S3': 11.9, 'state': 'normal', 'rot1': 51, 'rot0': 44, 'rot3': 0, 'rot2': 0, 'depth': 2.225, 'yaw': -42.23, 'datetime': '2018-12-12 13:23:47.480920', 'mgs': 0, 'flw2': 0.0, 'flw1': 0.0, 'flw0': 0.0, 'time': 28.06, 'compass': -168.63, 'pitch': -10.03, 'roll': 3.91}
{'lipoC2': 7.46, 'temp': 0.0, 'lipoC3S3': 11.84, 'state': 'normal', 'rot1': 51, 'rot0': 44, 'rot3': 0, 'rot2': 0, 'depth': 2.53, 'yaw': -42.8, 'datetime': '2018-12-12 13:23:47.688937', 'mgs': 0, 'flw2': 0.0, 'flw1': 0.62, 'flw0': 0.0, 'time': 28.26, 'compass': -169.2, 'pitch': -10.44, 'roll': 4.01}
{'lipoC2': 7.39, 'temp': 0.0, 'lipoC3S3': 11.61, 'state': 'normal', 'rot1': 51, 'rot0': 44, 'rot3': 0, 'rot2': 0, 'depth': -0.369, 'yaw': -43.35, 'datetime': '2018-12-12 13:23:47.899278', 'mgs': 0, 'flw2': 0.0, 'flw1': 0.0, 'flw0': 0.0, 'time': 28.47, 'compass': -169.75, 'pitch': -10.98, 'roll': 4.2}
{'lipoC2': 7.46, 'temp': 0.0, 'lipoC3S3': 11.89, 'state': 'normal', 'rot1': 51, 'rot0': 44, 'rot3': 0, 'rot2': 0, 'depth': 0.089, 'yaw': -43.93, 'datetime': '2018-12-12 13:23:48.108478', 'mgs': 0, 'flw2': 0.13, 'flw1': 0.0, 'flw0': 0.23, 'time': 28.68, 'compass': -170.33, 'pitch': -10.96, 'roll': 4.4}
{'lipoC2': 7.42, 'temp': 0.0, 'lipoC3S3': 11.93, 'state': 'normal', 'rot1': 51, 'rot0': 44, 'rot3': 0, 'rot2': 0, 'depth': 0.089, 'yaw': -44.51, 'datetime': '2018-12-12 13:23:48.318766', 'mgs': 0, 'flw2': 0.0, 'flw1': 0.0, 'flw0': 0.0, 'time': 28.89, 'compass': -170.92, 'pitch': -10.64, 'roll': 4.44}
{'lipoC2': 7.43, 'temp': 0.0, 'lipoC3S3': 11.65, 'state': 'normal', 'rot1': 51, 'rot0': 44, 'rot3': 0, 'rot2': 0, 'depth': 1.767, 'yaw': -45.04, 'datetime': '2018-12-12 13:23:48.526470', 'mgs': 0, 'flw2': 0.0, 'flw1': 0.0, 'flw0': 0.0, 'time': 29.1, 'compass': -171.44, 'pitch': -10.65, 'roll': 4.34}
{'lipoC2': 7.56, 'temp': 0.0, 'lipoC3S3': 11.65, 'state': 'normal', 'rot1': 51, 'rot0': 44, 'rot3': 0, 'rot2': 0, 'depth': 0.394, 'yaw': -45.58, 'datetime': '2018-12-12 13:23:48.735462', 'mgs': 0, 'flw2': 0.27, 'flw1': 0.0, 'flw0': 0.15, 'time': 29.31, 'compass': -171.99, 'pitch': -10.68, 'roll': 4.24}
{'lipoC2': 7.43, 'temp': 0.0, 'lipoC3S3': 11.76, 'state': 'normal', 'rot1': 51, 'rot0': 44, 'rot3': 0, 'rot2': 0, 'depth': 0.317, 'yaw': -46.12, 'datetime': '2018-12-12 13:23:48.944512', 'mgs': 0, 'flw2': 0.0, 'flw1': 0.0, 'flw0': 0.21, 'time': 29.52, 'compass': -172.53, 'pitch': -10.56, 'roll': 4.14}
{'lipoC2': 7.47, 'temp': 0.0, 'lipoC3S3': 11.9, 'state': 'normal', 'rot1': 51, 'rot0': 44, 'rot3': 0, 'rot2': 0, 'depth': 2.606, 'yaw': -46.67, 'datetime': '2018-12-12 13:23:49.157793', 'mgs': 0, 'flw2': 0.0, 'flw1': 0.0, 'flw0': 0.0, 'time': 29.73, 'compass': -173.08, 'pitch': -10.76, 'roll': 4.04}
{'lipoC2': 7.54, 'temp': 0.0, 'lipoC3S3': 11.51, 'state': 'normal', 'rot1': 51, 'rot0': 44, 'rot3': 0, 'rot2': 0, 'depth': 1.538, 'yaw': -47.22, 'datetime': '2018-12-12 13:23:49.368441', 'mgs': 0, 'flw2': 0.0, 'flw1': 0.0, 'flw0': 0.21, 'time': 29.94, 'compass': -173.63, 'pitch': -11.15, 'roll': 3.93}
{'lipoC2': 7.61, 'temp': 0.0, 'lipoC3S3': 11.89, 'state': 'normal', 'rot1': 51, 'rot0': 44, 'rot3': 0, 'rot2': 0, 'depth': 1.843, 'yaw': -47.83, 'datetime': '2018-12-12 13:23:49.574603', 'mgs': 0, 'flw2': 0.0, 'flw1': 0.0, 'flw0': 0.0, 'time': 30.15, 'compass': -174.23, 'pitch': -11.14, 'roll': 3.81}
{'lipoC2': 7.43, 'temp': 0.0, 'lipoC3S3': 11.76, 'state': 'normal', 'rot1': 51, 'rot0': 44, 'rot3': 0, 'rot2': 0, 'depth': 0.165, 'yaw': -48.44, 'datetime': '2018-12-12 13:23:49.786416', 'mgs': 0, 'flw2': 0.0, 'flw1': 0.47, 'flw0': 0.0, 'time': 30.35, 'compass': -174.84, 'pitch': -11.09, 'roll': 3.69}
{'lipoC2': 7.43, 'temp': 0.0, 'lipoC3S3': 11.85, 'state': 'normal', 'rot1': 51, 'rot0': 44, 'rot3': 0, 'rot2': 0, 'depth': 0.089, 'yaw': -49.39, 'datetime': '2018-12-12 13:23:50.095798', 'mgs': 0, 'flw2': 0.24, 'flw1': 0.0, 'flw0': 0.16, 'time': 30.67, 'compass': -175.79, 'pitch': -11.6, 'roll': 3.52}
{'lipoC2': 7.62, 'temp': 0.0, 'lipoC3S3': 11.47, 'state': 'normal', 'rot1': 51, 'rot0': 44, 'rot3': 0, 'rot2': 0, 'depth': -0.446, 'yaw': -50.04, 'datetime': '2018-12-12 13:23:50.306985', 'mgs': 0, 'flw2': 0.0, 'flw1': 0.0, 'flw0': 0.18, 'time': 30.88, 'compass': -176.45, 'pitch': -11.91, 'roll': 3.74}
{'lipoC2': 7.37, 'temp': 0.0, 'lipoC3S3': 11.61, 'state': 'normal', 'rot1': 51, 'rot0': 44, 'rot3': 0, 'rot2': 0, 'depth': 0.546, 'yaw': -50.73, 'datetime': '2018-12-12 13:23:50.517214', 'mgs': 0, 'flw2': 0.05, 'flw1': 0.06, 'flw0': 0.0, 'time': 31.08, 'compass': -177.14, 'pitch': -12.1, 'roll': 4.03}
{'lipoC2': 7.43, 'temp': 0.0, 'lipoC3S3': 11.87, 'state': 'normal', 'rot1': 51, 'rot0': 44, 'rot3': 0, 'rot2': 0, 'depth': 0.165, 'yaw': -51.4, 'datetime': '2018-12-12 13:23:50.728726', 'mgs': 0, 'flw2': 0.0, 'flw1': 0.21, 'flw0': 0.0, 'time': 31.3, 'compass': -177.8, 'pitch': -12.13, 'roll': 3.98}
{'lipoC2': 7.46, 'temp': 0.0, 'lipoC3S3': 11.94, 'state': 'normal', 'rot1': 51, 'rot0': 44, 'rot3': 0, 'rot2': 0, 'depth': 2.759, 'yaw': -52.04, 'datetime': '2018-12-12 13:23:50.936817', 'mgs': 0, 'flw2': 0.0, 'flw1': 0.26, 'flw0': 0.0, 'time': 31.5, 'compass': -178.44, 'pitch': -11.95, 'roll': 3.73}
{'lipoC2': 7.39, 'temp': 0.0, 'lipoC3S3': 11.64, 'state': 'normal', 'rot1': 51, 'rot0': 44, 'rot3': 0, 'rot2': 0, 'depth': -0.522, 'yaw': -52.62, 'datetime': '2018-12-12 13:23:51.142910', 'mgs': 0, 'flw2': 0.0, 'flw1': 0.59, 'flw0': 0.0, 'time': 31.71, 'compass': -179.03, 'pitch': -11.97, 'roll': 3.63}
{'lipoC2': 7.41, 'temp': 0.0, 'lipoC3S3': 11.68, 'state': 'normal', 'rot1': 51, 'rot0': 44, 'rot3': 0, 'rot2': 0, 'depth': 0.394, 'yaw': -53.29, 'datetime': '2018-12-12 13:23:51.351287', 'mgs': 0, 'flw2': 0.0, 'flw1': 0.38, 'flw0': 0.0, 'time': 31.92, 'compass': -179.69, 'pitch': -12.11, 'roll': 3.8}
{'lipoC2': 7.57, 'temp': 0.0, 'lipoC3S3': 11.56, 'state': 'normal', 'rot1': 51, 'rot0': 44, 'rot3': 0, 'rot2': 0, 'depth': -0.598, 'yaw': -53.92, 'datetime': '2018-12-12 13:23:51.560280', 'mgs': 0, 'flw2': 0.05, 'flw1': 0.0, 'flw0': 0.0, 'time': 32.13, 'compass': 179.67, 'pitch': -12.15, 'roll': 3.94}
{'lipoC2': 7.37, 'temp': 0.0, 'lipoC3S3': 11.87, 'state': 'normal', 'rot1': 51, 'rot0': 44, 'rot3': 0, 'rot2': 0, 'depth': 0.546, 'yaw': -54.53, 'datetime': '2018-12-12 13:23:51.771981', 'mgs': 0, 'flw2': 0.0, 'flw1': 0.0, 'flw0': 0.0, 'time': 32.34, 'compass': 179.07, 'pitch': -12.19, 'roll': 3.79}
{'lipoC2': 7.5, 'temp': 0.0, 'lipoC3S3': 11.65, 'state': 'normal', 'rot1': 51, 'rot0': 44, 'rot3': 0, 'rot2': 0, 'depth': -0.064, 'yaw': -55.14, 'datetime': '2018-12-12 13:23:51.980809', 'mgs': 0, 'flw2': 0.24, 'flw1': 0.0, 'flw0': 0.16, 'time': 32.55, 'compass': 178.45, 'pitch': -12.23, 'roll': 3.54}
{'lipoC2': 7.58, 'temp': 0.0, 'lipoC3S3': 11.51, 'state': 'normal', 'rot1': 51, 'rot0': 44, 'rot3': 0, 'rot2': 0, 'depth': 2.301, 'yaw': -55.7, 'datetime': '2018-12-12 13:23:52.189083', 'mgs': 0, 'flw2': 0.0, 'flw1': 0.0, 'flw0': 0.12, 'time': 32.76, 'compass': 177.89, 'pitch': -12.09, 'roll': 3.41}
{'lipoC2': 7.55, 'temp': 0.0, 'lipoC3S3': 11.55, 'state': 'normal', 'rot1': 51, 'rot0': 44, 'rot3': 0, 'rot2': 0, 'depth': -0.446, 'yaw': -56.29, 'datetime': '2018-12-12 13:23:52.398872', 'mgs': 0, 'flw2': 0.0, 'flw1': 0.0, 'flw0': 0.09, 'time': 32.97, 'compass': 177.31, 'pitch': -11.89, 'roll': 3.31}
{'lipoC2': 7.46, 'temp': 0.0, 'lipoC3S3': 11.61, 'state': 'normal', 'rot1': 51, 'rot0': 44, 'rot3': 0, 'rot2': 0, 'depth': 0.317, 'yaw': -56.91, 'datetime': '2018-12-12 13:23:52.605748', 'mgs': 0, 'flw2': 0.0, 'flw1': 0.0, 'flw0': 0.0, 'time': 33.17, 'compass': 176.68, 'pitch': -12.24, 'roll': 3.17}
{'lipoC2': 7.49, 'temp': 0.0, 'lipoC3S3': 11.94, 'state': 'normal', 'rot1': 51, 'rot0': 44, 'rot3': 0, 'rot2': 0, 'depth': 0.165, 'yaw': -57.53, 'datetime': '2018-12-12 13:23:52.814557', 'mgs': 0, 'flw2': 0.0, 'flw1': 0.0, 'flw0': 0.0, 'time': 33.38, 'compass': 176.06, 'pitch': -12.8, 'roll': 3.03}
{'lipoC2': 7.61, 'temp': 0.0, 'lipoC3S3': 11.64, 'state': 'normal', 'rot1': 51, 'rot0': 44, 'rot3': 0, 'rot2': 0, 'depth': 0.699, 'yaw': -58.13, 'datetime': '2018-12-12 13:23:53.024759', 'mgs': 0, 'flw2': 0.26, 'flw1': 0.0, 'flw0': 0.09, 'time': 33.59, 'compass': 175.47, 'pitch': -12.87, 'roll': 3.1}
{'lipoC2': 7.43, 'temp': 0.0, 'lipoC3S3': 11.72, 'state': 'normal', 'rot1': 51, 'rot0': 44, 'rot3': 0, 'rot2': 0, 'depth': 0.47, 'yaw': -58.73, 'datetime': '2018-12-12 13:23:53.234154', 'mgs': 0, 'flw2': 0.0, 'flw1': 0.47, 'flw0': 0.0, 'time': 33.8, 'compass': 174.86, 'pitch': -12.54, 'roll': 3.13}
{'lipoC2': 7.44, 'temp': 0.0, 'lipoC3S3': 11.8, 'state': 'normal', 'rot1': 51, 'rot0': 44, 'rot3': 0, 'rot2': 0, 'depth': 0.241, 'yaw': -59.33, 'datetime': '2018-12-12 13:23:53.444234', 'mgs': 0, 'flw2': 0.01, 'flw1': 0.0, 'flw0': 0.0, 'time': 34.01, 'compass': 174.26, 'pitch': -12.12, 'roll': 3.0}
{'lipoC2': 7.43, 'temp': 0.0, 'lipoC3S3': 11.89, 'state': 'normal', 'rot1': 51, 'rot0': 44, 'rot3': 0, 'rot2': 0, 'depth': 0.165, 'yaw': -59.99, 'datetime': '2018-12-12 13:23:53.652803', 'mgs': 0, 'flw2': 0.0, 'flw1': 0.41, 'flw0': 0.0, 'time': 34.22, 'compass': 173.61, 'pitch': -11.91, 'roll': 3.04}
{'lipoC2': 7.43, 'temp': 0.0, 'lipoC3S3': 11.9, 'state': 'normal', 'rot1': 51, 'rot0': 44, 'rot3': 0, 'rot2': 0, 'depth': 0.012, 'yaw': -60.6, 'datetime': '2018-12-12 13:23:53.861860', 'mgs': 0, 'flw2': 0.24, 'flw1': 0.0, 'flw0': 0.1, 'time': 34.43, 'compass': 172.99, 'pitch': -12.28, 'roll': 3.14}
{'lipoC2': 7.42, 'temp': 0.0, 'lipoC3S3': 11.96, 'state': 'normal', 'rot1': 51, 'rot0': 44, 'rot3': 0, 'rot2': 0, 'depth': 0.089, 'yaw': -61.17, 'datetime': '2018-12-12 13:23:54.070296', 'mgs': 0, 'flw2': 0.0, 'flw1': 0.35, 'flw0': 0.0, 'time': 34.63, 'compass': 172.43, 'pitch': -12.76, 'roll': 3.06}
{'lipoC2': 7.43, 'temp': 0.0, 'lipoC3S3': 11.94, 'state': 'normal', 'rot1': 51, 'rot0': 44, 'rot3': 0, 'rot2': 0, 'depth': 0.394, 'yaw': -61.79, 'datetime': '2018-12-12 13:23:54.281867', 'mgs': 0, 'flw2': 0.0, 'flw1': 0.0, 'flw0': 0.0, 'time': 34.84, 'compass': 171.81, 'pitch': -12.61, 'roll': 2.92}
{'lipoC2': 7.44, 'temp': 0.0, 'lipoC3S3': 11.93, 'state': 'normal', 'rot1': 51, 'rot0': 44, 'rot3': 0, 'rot2': 0, 'depth': 0.394, 'yaw': -62.42, 'datetime': '2018-12-12 13:23:54.490137', 'mgs': 0, 'flw2': 0.0, 'flw1': 0.06, 'flw0': 0.0, 'time': 35.05, 'compass': 171.17, 'pitch': -12.31, 'roll': 2.78}
{'lipoC2': 7.43, 'temp': 0.0, 'lipoC3S3': 11.65, 'state': 'normal', 'rot1': 51, 'rot0': 44, 'rot3': 0, 'rot2': 0, 'depth': 0.165, 'yaw': -63.04, 'datetime': '2018-12-12 13:23:54.697154', 'mgs': 0, 'flw2': 0.0, 'flw1': 0.0, 'flw0': 0.0, 'time': 35.26, 'compass': 170.55, 'pitch': -12.51, 'roll': 2.65}
{'lipoC2': 7.43, 'temp': 0.0, 'lipoC3S3': 11.93, 'state': 'normal', 'rot1': 51, 'rot0': 44, 'rot3': 0, 'rot2': 0, 'depth': 2.682, 'yaw': -63.68, 'datetime': '2018-12-12 13:23:54.907524', 'mgs': 0, 'flw2': 0.0, 'flw1': 0.35, 'flw0': 0.0, 'time': 35.47, 'compass': 169.92, 'pitch': -12.7, 'roll': 2.5}
{'lipoC2': 7.44, 'temp': 0.0, 'lipoC3S3': 11.79, 'state': 'normal', 'rot1': 51, 'rot0': 44, 'rot3': 0, 'rot2': 0, 'depth': 0.623, 'yaw': -64.29, 'datetime': '2018-12-12 13:23:55.117711', 'mgs': 0, 'flw2': 0.0, 'flw1': 0.0, 'flw0': 0.0, 'time': 35.68, 'compass': 169.31, 'pitch': -12.65, 'roll': 2.37}
{'lipoC2': 7.59, 'temp': 0.0, 'lipoC3S3': 11.6, 'state': 'normal', 'rot1': 51, 'rot0': 44, 'rot3': 0, 'rot2': 0, 'depth': -0.598, 'yaw': -64.91, 'datetime': '2018-12-12 13:23:55.322859', 'mgs': 0, 'flw2': 0.0, 'flw1': 0.0, 'flw0': 0.0, 'time': 35.89, 'compass': 168.68, 'pitch': -12.69, 'roll': 2.27}
{'lipoC2': 7.43, 'temp': 0.0, 'lipoC3S3': 11.89, 'state': 'normal', 'rot1': 51, 'rot0': 44, 'rot3': 0, 'rot2': 0, 'depth': 2.148, 'yaw': -65.56, 'datetime': '2018-12-12 13:23:55.531904', 'mgs': 0, 'flw2': 0.0, 'flw1': 0.21, 'flw0': 0.0, 'time': 36.1, 'compass': 168.04, 'pitch': -12.98, 'roll': 2.23}
{'lipoC2': 7.46, 'temp': 0.0, 'lipoC3S3': 11.81, 'state': 'normal', 'rot1': 51, 'rot0': 44, 'rot3': 0, 'rot2': 0, 'depth': 1.614, 'yaw': -66.16, 'datetime': '2018-12-12 13:23:55.746128', 'mgs': 0, 'flw2': 0.0, 'flw1': 0.32, 'flw0': 0.0, 'time': 36.3, 'compass': 167.44, 'pitch': -13.05, 'roll': 2.09}
{'lipoC2': 7.47, 'temp': 0.0, 'lipoC3S3': 11.89, 'state': 'normal', 'rot1': 51, 'rot0': 44, 'rot3': 0, 'rot2': 0, 'depth': 2.225, 'yaw': -66.74, 'datetime': '2018-12-12 13:23:55.957619', 'mgs': 0, 'flw2': 0.0, 'flw1': 0.0, 'flw0': 0.0, 'time': 36.51, 'compass': 166.86, 'pitch': -12.96, 'roll': 2.09}
{'lipoC2': 7.41, 'temp': 0.0, 'lipoC3S3': 11.71, 'state': 'normal', 'rot1': 51, 'rot0': 44, 'rot3': 0, 'rot2': 0, 'depth': -0.064, 'yaw': -67.39, 'datetime': '2018-12-12 13:23:56.164797', 'mgs': 0, 'flw2': 0.0, 'flw1': 0.59, 'flw0': 0.0, 'time': 36.72, 'compass': 166.2, 'pitch': -12.92, 'roll': 2.19}
{'lipoC2': 7.47, 'temp': 0.0, 'lipoC3S3': 11.48, 'state': 'normal', 'rot1': 51, 'rot0': 44, 'rot3': 0, 'rot2': 0, 'depth': 2.53, 'yaw': -68.05, 'datetime': '2018-12-12 13:23:56.372687', 'mgs': 0, 'flw2': 0.0, 'flw1': 0.0, 'flw0': 0.23, 'time': 36.93, 'compass': 165.54, 'pitch': -12.95, 'roll': 2.25}
{'lipoC2': 7.43, 'temp': 0.0, 'lipoC3S3': 11.85, 'state': 'normal', 'rot1': 51, 'rot0': 44, 'rot3': 0, 'rot2': 0, 'depth': 0.089, 'yaw': -68.66, 'datetime': '2018-12-12 13:23:56.581957', 'mgs': 0, 'flw2': 0.0, 'flw1': 0.0, 'flw0': 0.0, 'time': 37.14, 'compass': 164.93, 'pitch': -12.98, 'roll': 2.17}
{'lipoC2': 7.43, 'temp': 0.0, 'lipoC3S3': 11.93, 'state': 'normal', 'rot1': 51, 'rot0': 44, 'rot3': 0, 'rot2': 0, 'depth': 2.682, 'yaw': -69.23, 'datetime': '2018-12-12 13:23:56.793956', 'mgs': 0, 'flw2': 0.0, 'flw1': 0.0, 'flw0': 0.0, 'time': 37.35, 'compass': 164.36, 'pitch': -13.14, 'roll': 2.03}
{'lipoC2': 7.39, 'temp': 0.0, 'lipoC3S3': 11.65, 'state': 'normal', 'rot1': 51, 'rot0': 44, 'rot3': 0, 'rot2': 0, 'depth': 0.775, 'yaw': -69.86, 'datetime': '2018-12-12 13:23:57.006460', 'mgs': 0, 'flw2': 0.0, 'flw1': 0.62, 'flw0': 0.0, 'time': 37.56, 'compass': 163.73, 'pitch': -13.17, 'roll': 1.89}
{'lipoC2': 7.43, 'temp': 0.0, 'lipoC3S3': 11.73, 'state': 'normal', 'rot1': 51, 'rot0': 44, 'rot3': 0, 'rot2': 0, 'depth': 1.538, 'yaw': -70.49, 'datetime': '2018-12-12 13:23:57.212049', 'mgs': 0, 'flw2': 0.0, 'flw1': 0.0, 'flw0': 0.11, 'time': 37.77, 'compass': 163.1, 'pitch': -13.13, 'roll': 1.74}
{'lipoC2': 7.43, 'temp': 0.0, 'lipoC3S3': 11.61, 'state': 'normal', 'rot1': 51, 'rot0': 44, 'rot3': 0, 'rot2': 0, 'depth': -0.369, 'yaw': -71.11, 'datetime': '2018-12-12 13:23:57.419941', 'mgs': 0, 'flw2': 0.0, 'flw1': 0.0, 'flw0': 0.0, 'time': 37.98, 'compass': 162.48, 'pitch': -13.23, 'roll': 1.59}
{'lipoC2': 7.64, 'temp': 0.0, 'lipoC3S3': 11.48, 'state': 'normal', 'rot1': 51, 'rot0': 44, 'rot3': 0, 'rot2': 0, 'depth': -0.446, 'yaw': -71.76, 'datetime': '2018-12-12 13:23:57.629927', 'mgs': 0, 'flw2': 0.0, 'flw1': 0.56, 'flw0': 0.0, 'time': 38.18, 'compass': 161.84, 'pitch': -13.46, 'roll': 1.45}
{'lipoC2': 7.46, 'temp': 0.0, 'lipoC3S3': 11.5, 'state': 'normal', 'rot1': 51, 'rot0': 44, 'rot3': 0, 'rot2': 0, 'depth': 0.394, 'yaw': -72.4, 'datetime': '2018-12-12 13:23:57.840336', 'mgs': 0, 'flw2': 0.04, 'flw1': 0.0, 'flw0': 0.27, 'time': 38.39, 'compass': 161.2, 'pitch': -13.48, 'roll': 1.31}
{'lipoC2': 7.44, 'temp': 0.0, 'lipoC3S3': 11.84, 'state': 'normal', 'rot1': 51, 'rot0': 44, 'rot3': 0, 'rot2': 0, 'depth': 1.538, 'yaw': -73.06, 'datetime': '2018-12-12 13:23:58.049997', 'mgs': 0, 'flw2': 0.1, 'flw1': 0.0, 'flw0': 0.0, 'time': 38.6, 'compass': 160.53, 'pitch': -13.32, 'roll': 1.26}
{'lipoC2': 7.4, 'temp': 0.0, 'lipoC3S3': 11.67, 'state': 'normal', 'rot1': 51, 'rot0': 44, 'rot3': 0, 'rot2': 0, 'depth': 0.089, 'yaw': -73.73, 'datetime': '2018-12-12 13:23:58.253616', 'mgs': 0, 'flw2': 0.0, 'flw1': 0.5, 'flw0': 0.0, 'time': 38.81, 'compass': 159.86, 'pitch': -13.43, 'roll': 1.28}
{'lipoC2': 7.44, 'temp': 0.0, 'lipoC3S3': 11.93, 'state': 'normal', 'rot1': 51, 'rot0': 44, 'rot3': 0, 'rot2': 0, 'depth': 0.089, 'yaw': -74.46, 'datetime': '2018-12-12 13:23:58.464610', 'mgs': 0, 'flw2': 0.0, 'flw1': 0.0, 'flw0': 0.0, 'time': 39.02, 'compass': 159.13, 'pitch': -13.71, 'roll': 1.11}
{'lipoC2': 7.43, 'temp': 0.0, 'lipoC3S3': 11.85, 'state': 'normal', 'rot1': 51, 'rot0': 44, 'rot3': 0, 'rot2': 0, 'depth': 0.165, 'yaw': -75.19, 'datetime': '2018-12-12 13:23:58.676202', 'mgs': 0, 'flw2': 0.0, 'flw1': 0.0, 'flw0': 0.0, 'time': 39.23, 'compass': 158.4, 'pitch': -13.74, 'roll': 0.93}
{'lipoC2': 7.42, 'temp': 0.0, 'lipoC3S3': 11.94, 'state': 'normal', 'rot1': 51, 'rot0': 44, 'rot3': 0, 'rot2': 0, 'depth': 0.089, 'yaw': -75.89, 'datetime': '2018-12-12 13:23:58.886624', 'mgs': 0, 'flw2': 0.0, 'flw1': 0.0, 'flw0': 0.0, 'time': 39.44, 'compass': 157.7, 'pitch': -13.75, 'roll': 0.89}
{'lipoC2': 7.44, 'temp': 0.0, 'lipoC3S3': 11.94, 'state': 'normal', 'rot1': 51, 'rot0': 44, 'rot3': 0, 'rot2': 0, 'depth': 2.682, 'yaw': -76.63, 'datetime': '2018-12-12 13:23:59.092862', 'mgs': 0, 'flw2': 0.0, 'flw1': 0.0, 'flw0': 0.0, 'time': 39.65, 'compass': 156.96, 'pitch': -13.78, 'roll': 0.73}
{'lipoC2': 7.39, 'temp': 0.0, 'lipoC3S3': 11.65, 'state': 'normal', 'rot1': 51, 'rot0': 44, 'rot3': 0, 'rot2': 0, 'depth': 0.546, 'yaw': -77.43, 'datetime': '2018-12-12 13:23:59.297077', 'mgs': 0, 'flw2': 0.0, 'flw1': 0.38, 'flw0': 0.0, 'time': 39.85, 'compass': 156.16, 'pitch': -13.65, 'roll': 0.54}
{'lipoC2': 7.47, 'temp': 0.0, 'lipoC3S3': 11.84, 'state': 'normal', 'rot1': 51, 'rot0': 44, 'rot3': 0, 'rot2': 0, 'depth': 1.996, 'yaw': -78.29, 'datetime': '2018-12-12 13:23:59.504115', 'mgs': 0, 'flw2': 0.0, 'flw1': 0.5, 'flw0': 0.0, 'time': 40.06, 'compass': 155.31, 'pitch': -13.55, 'roll': 0.47}
{'lipoC2': 7.46, 'temp': 0.0, 'lipoC3S3': 11.81, 'state': 'normal', 'rot1': 51, 'rot0': 44, 'rot3': 0, 'rot2': 0, 'depth': 0.623, 'yaw': -79.15, 'datetime': '2018-12-12 13:23:59.714789', 'mgs': 0, 'flw2': 0.0, 'flw1': 0.56, 'flw0': 0.0, 'time': 40.27, 'compass': 154.45, 'pitch': -13.74, 'roll': 0.62}
{'lipoC2': 7.64, 'temp': 0.0, 'lipoC3S3': 11.51, 'state': 'normal', 'rot1': 51, 'rot0': 44, 'rot3': 0, 'rot2': 0, 'depth': -0.446, 'yaw': -80.05, 'datetime': '2018-12-12 13:23:59.923296', 'mgs': 0, 'flw2': 0.21, 'flw1': 0.0, 'flw0': 0.26, 'time': 40.48, 'compass': 153.55, 'pitch': -13.89, 'roll': 0.59}
{'lipoC2': 7.67, 'temp': 0.0, 'lipoC3S3': 11.6, 'state': 'normal', 'rot1': 51, 'rot0': 44, 'rot3': 0, 'rot2': 0, 'depth': 2.225, 'yaw': -80.91, 'datetime': '2018-12-12 13:24:00.132709', 'mgs': 0, 'flw2': 0.16, 'flw1': 0.0, 'flw0': 0.23, 'time': 40.69, 'compass': 152.69, 'pitch': -13.7, 'roll': 0.33}
{'lipoC2': 7.62, 'temp': 0.0, 'lipoC3S3': 11.48, 'state': 'normal', 'rot1': 51, 'rot0': 44, 'rot3': 0, 'rot2': 0, 'depth': -0.522, 'yaw': -81.8, 'datetime': '2018-12-12 13:24:00.342572', 'mgs': 0, 'flw2': 0.0, 'flw1': 0.0, 'flw0': 0.17, 'time': 40.9, 'compass': 151.79, 'pitch': -13.69, 'roll': 0.07}
{'lipoC2': 7.43, 'temp': 0.0, 'lipoC3S3': 11.94, 'state': 'normal', 'rot1': 51, 'rot0': 44, 'rot3': 0, 'rot2': 0, 'depth': 0.012, 'yaw': -82.73, 'datetime': '2018-12-12 13:24:00.549910', 'mgs': 0, 'flw2': 0.0, 'flw1': 0.0, 'flw0': 0.0, 'time': 41.11, 'compass': 150.86, 'pitch': -14.31, 'roll': -0.13}
{'lipoC2': 7.58, 'temp': 0.0, 'lipoC3S3': 11.67, 'state': 'normal', 'rot1': 51, 'rot0': 44, 'rot3': 0, 'rot2': 0, 'depth': 0.546, 'yaw': -83.62, 'datetime': '2018-12-12 13:24:00.759072', 'mgs': 0, 'flw2': 0.27, 'flw1': 0.0, 'flw0': 0.09, 'time': 41.31, 'compass': 149.97, 'pitch': -14.55, 'roll': -0.27}
{'lipoC2': 7.42, 'temp': 0.0, 'lipoC3S3': 11.89, 'state': 'normal', 'rot1': 51, 'rot0': 44, 'rot3': 0, 'rot2': 0, 'depth': 0.165, 'yaw': -84.54, 'datetime': '2018-12-12 13:24:00.967251', 'mgs': 0, 'flw2': 0.06, 'flw1': 0.0, 'flw0': 0.0, 'time': 41.52, 'compass': 149.06, 'pitch': -13.99, 'roll': -0.5}
{'lipoC2': 7.4, 'temp': 0.0, 'lipoC3S3': 11.67, 'state': 'normal', 'rot1': 51, 'rot0': 44, 'rot3': 0, 'rot2': 0, 'depth': 0.165, 'yaw': -85.6, 'datetime': '2018-12-12 13:24:01.177051', 'mgs': 0, 'flw2': 0.0, 'flw1': 0.32, 'flw0': 0.0, 'time': 41.73, 'compass': 147.99, 'pitch': -14.05, 'roll': -0.36}
{'lipoC2': 7.46, 'temp': 0.0, 'lipoC3S3': 11.88, 'state': 'normal', 'rot1': 51, 'rot0': 44, 'rot3': 0, 'rot2': 0, 'depth': 1.767, 'yaw': -86.73, 'datetime': '2018-12-12 13:24:01.385910', 'mgs': 0, 'flw2': 0.0, 'flw1': 0.0, 'flw0': 0.0, 'time': 41.94, 'compass': 146.87, 'pitch': -14.8, 'roll': -0.3}
