{'lipoC2': 7.07, 'temp': 29.63, 'lipoC3S3': 11.22, 'state': 'normal', 'rot1': 0, 'rot0': 0, 'rot3': 0, 'rot2': 0, 'depth': 1.92, 'yaw': -0.22, 'datetime': '2018-11-26 13:20:01.686912', 'mgs': 0, 'flw2': 0.0, 'flw1': 0.0, 'flw0': 0.0, 'time': 1.36, 'compass': 66.39, 'pitch': 0.41, 'roll': -2.2}
{'lipoC2': 7.06, 'temp': 29.19, 'lipoC3S3': 11.22, 'state': 'normal', 'rot1': 0, 'rot0': 0, 'rot3': 0, 'rot2': 0, 'depth': 1.92, 'yaw': -0.64, 'datetime': '2018-11-26 13:20:01.895198', 'mgs': 0, 'flw2': 0.0, 'flw1': 0.0, 'flw0': 0.0, 'time': 1.57, 'compass': 65.97, 'pitch': 0.71, 'roll': -2.43}
{'lipoC2': 7.05, 'temp': 29.31, 'lipoC3S3': 11.22, 'state': 'normal', 'rot1': 0, 'rot0': 0, 'rot3': 0, 'rot2': 0, 'depth': 1.614, 'yaw': -1.09, 'datetime': '2018-11-26 13:20:02.104317', 'mgs': 0, 'flw2': 0.0, 'flw1': 0.0, 'flw0': 0.01, 'time': 1.78, 'compass': 65.51, 'pitch': 0.75, 'roll': -2.81}
{'lipoC2': 7.06, 'temp': 29.13, 'lipoC3S3': 11.22, 'state': 'normal', 'rot1': 0, 'rot0': 0, 'rot3': 0, 'rot2': 0, 'depth': 1.843, 'yaw': -1.51, 'datetime': '2018-11-26 13:20:02.312591', 'mgs': 0, 'flw2': 0.0, 'flw1': 0.0, 'flw0': 0.0, 'time': 1.99, 'compass': 65.09, 'pitch': 0.43, 'roll': -3.38}
{'lipoC2': 7.12, 'temp': 28.81, 'lipoC3S3': 11.25, 'state': 'normal', 'rot1': 0, 'rot0': 0, 'rot3': 0, 'rot2': 0, 'depth': 2.072, 'yaw': -1.9, 'datetime': '2018-11-26 13:20:02.518171', 'mgs': 0, 'flw2': 0.0, 'flw1': 0.0, 'flw0': 0.0, 'time': 2.19, 'compass': 64.7, 'pitch': -0.13, 'roll': -4.05}
{'lipoC2': 7.06, 'temp': 28.81, 'lipoC3S3': 11.22, 'state': 'normal', 'rot1': 0, 'rot0': 0, 'rot3': 0, 'rot2': 0, 'depth': 1.767, 'yaw': -2.26, 'datetime': '2018-11-26 13:20:02.728020', 'mgs': 0, 'flw2': 0.0, 'flw1': 0.0, 'flw0': 0.0, 'time': 2.4, 'compass': 64.34, 'pitch': -0.72, 'roll': -4.56}
{'lipoC2': 7.05, 'temp': 29.63, 'lipoC3S3': 11.6, 'state': 'normal', 'rot1': 0, 'rot0': 0, 'rot3': 0, 'rot2': 0, 'depth': 1.767, 'yaw': -2.58, 'datetime': '2018-11-26 13:20:02.937848', 'mgs': 0, 'flw2': 0.0, 'flw1': 0.0, 'flw0': 0.0, 'time': 2.61, 'compass': 64.02, 'pitch': -1.17, 'roll': -4.83}
{'lipoC2': 7.06, 'temp': 29.13, 'lipoC3S3': 11.22, 'state': 'normal', 'rot1': 0, 'rot0': 0, 'rot3': 0, 'rot2': 0, 'depth': 1.92, 'yaw': -2.87, 'datetime': '2018-11-26 13:20:03.146414', 'mgs': 0, 'flw2': 0.0, 'flw1': 0.0, 'flw0': 0.0, 'time': 2.82, 'compass': 63.73, 'pitch': -1.4, 'roll': -5.04}
{'lipoC2': 7.07, 'temp': 29.0, 'lipoC3S3': 11.22, 'state': 'normal', 'rot1': 0, 'rot0': 0, 'rot3': 0, 'rot2': 0, 'depth': 1.767, 'yaw': -3.17, 'datetime': '2018-11-26 13:20:03.356818', 'mgs': 0, 'flw2': 0.0, 'flw1': 0.0, 'flw0': 0.09, 'time': 3.03, 'compass': 63.43, 'pitch': -1.41, 'roll': -5.23}
{'lipoC2': 7.06, 'temp': 29.25, 'lipoC3S3': 11.22, 'state': 'normal', 'rot1': 0, 'rot0': 0, 'rot3': 0, 'rot2': 0, 'depth': 1.843, 'yaw': -3.47, 'datetime': '2018-11-26 13:20:03.562129', 'mgs': 0, 'flw2': 0.11, 'flw1': 0.0, 'flw0': 0.0, 'time': 3.24, 'compass': 63.13, 'pitch': -1.15, 'roll': -5.08}
{'lipoC2': 7.06, 'temp': 29.44, 'lipoC3S3': 11.22, 'state': 'normal', 'rot1': 0, 'rot0': 0, 'rot3': 0, 'rot2': 0, 'depth': 1.843, 'yaw': -3.8, 'datetime': '2018-11-26 13:20:03.770343', 'mgs': 0, 'flw2': 0.0, 'flw1': 0.0, 'flw0': 0.0, 'time': 3.45, 'compass': 62.8, 'pitch': -0.73, 'roll': -4.81}
{'lipoC2': 7.05, 'temp': 29.0, 'lipoC3S3': 11.22, 'state': 'normal', 'rot1': 0, 'rot0': 0, 'rot3': 0, 'rot2': 0, 'depth': 1.767, 'yaw': -4.16, 'datetime': '2018-11-26 13:20:03.981817', 'mgs': 0, 'flw2': 0.0, 'flw1': 0.0, 'flw0': 0.0, 'time': 3.66, 'compass': 62.44, 'pitch': -0.24, 'roll': -4.61}
{'lipoC2': 7.23, 'temp': 29.0, 'lipoC3S3': 11.25, 'state': 'normal', 'rot1': 0, 'rot0': 0, 'rot3': 0, 'rot2': 0, 'depth': 1.233, 'yaw': -4.53, 'datetime': '2018-11-26 13:20:04.187596', 'mgs': 0, 'flw2': 0.0, 'flw1': 0.0, 'flw0': 0.0, 'time': 3.87, 'compass': 62.07, 'pitch': 0.15, 'roll': -4.53}
{'lipoC2': 7.21, 'temp': 28.94, 'lipoC3S3': 11.34, 'state': 'normal', 'rot1': 0, 'rot0': 0, 'rot3': 0, 'rot2': 0, 'depth': 1.843, 'yaw': -4.87, 'datetime': '2018-11-26 13:20:04.392137', 'mgs': 0, 'flw2': 0.0, 'flw1': 0.0, 'flw0': 0.0, 'time': 4.07, 'compass': 61.74, 'pitch': 0.32, 'roll': -4.55}
{'lipoC2': 7.07, 'temp': 29.0, 'lipoC3S3': 11.25, 'state': 'normal', 'rot1': 1, 'rot0': 1, 'rot3': 0, 'rot2': 0, 'depth': 1.843, 'yaw': -5.1, 'datetime': '2018-11-26 13:20:04.601601', 'mgs': 0, 'flw2': 2.58, 'flw1': 0.0, 'flw0': 1.31, 'time': 4.28, 'compass': 61.5, 'pitch': 0.31, 'roll': -4.09}
{'lipoC2': 7.07, 'temp': 29.0, 'lipoC3S3': 11.22, 'state': 'normal', 'rot1': 3, 'rot0': 3, 'rot3': 0, 'rot2': 0, 'depth': 1.843, 'yaw': -4.36, 'datetime': '2018-11-26 13:20:04.809426', 'mgs': 0, 'flw2': 2.61, 'flw1': 0.0, 'flw0': 1.22, 'time': 4.49, 'compass': 62.24, 'pitch': 0.24, 'roll': -2.07}
{'lipoC2': 7.08, 'temp': 29.13, 'lipoC3S3': 11.25, 'state': 'normal', 'rot1': 6, 'rot0': 4, 'rot3': 0, 'rot2': 0, 'depth': 1.843, 'yaw': -2.64, 'datetime': '2018-11-26 13:20:05.018748', 'mgs': 0, 'flw2': 2.62, 'flw1': 3.72, 'flw0': 1.17, 'time': 4.7, 'compass': 63.97, 'pitch': 0.0, 'roll': 0.67}
{'lipoC2': 7.07, 'temp': 29.0, 'lipoC3S3': 11.21, 'state': 'normal', 'rot1': 8, 'rot0': 6, 'rot3': 1, 'rot2': 1, 'depth': 2.377, 'yaw': -0.41, 'datetime': '2018-11-26 13:20:05.226895', 'mgs': 0, 'flw2': 2.56, 'flw1': 3.43, 'flw0': 1.35, 'time': 4.91, 'compass': 66.19, 'pitch': -0.58, 'roll': 3.53}
{'lipoC2': 7.06, 'temp': 28.94, 'lipoC3S3': 11.5, 'state': 'normal', 'rot1': 10, 'rot0': 8, 'rot3': 1, 'rot2': 2, 'depth': 1.843, 'yaw': 1.99, 'datetime': '2018-11-26 13:20:05.436122', 'mgs': 0, 'flw2': 2.56, 'flw1': 3.81, 'flw0': 2.76, 'time': 5.12, 'compass': 68.6, 'pitch': -1.2, 'roll': 5.84}
{'lipoC2': 7.06, 'temp': 28.94, 'lipoC3S3': 11.19, 'state': 'normal', 'rot1': 13, 'rot0': 10, 'rot3': 2, 'rot2': 4, 'depth': 2.225, 'yaw': 3.76, 'datetime': '2018-11-26 13:20:05.646053', 'mgs': 0, 'flw2': 2.59, 'flw1': 5.07, 'flw0': 2.73, 'time': 5.33, 'compass': 70.36, 'pitch': -1.59, 'roll': 7.89}
{'lipoC2': 7.06, 'temp': 28.94, 'lipoC3S3': 11.18, 'state': 'normal', 'rot1': 14, 'rot0': 13, 'rot3': 3, 'rot2': 5, 'depth': 2.072, 'yaw': 4.45, 'datetime': '2018-11-26 13:20:05.863380', 'mgs': 0, 'flw2': 1.2, 'flw1': 5.01, 'flw0': 2.78, 'time': 5.54, 'compass': 71.05, 'pitch': -1.74, 'roll': 9.5}
{'lipoC2': 7.06, 'temp': 28.75, 'lipoC3S3': 11.18, 'state': 'normal', 'rot1': 16, 'rot0': 15, 'rot3': 4, 'rot2': 6, 'depth': 2.454, 'yaw': 3.69, 'datetime': '2018-11-26 13:20:06.072041', 'mgs': 0, 'flw2': 1.23, 'flw1': 3.31, 'flw0': 2.84, 'time': 5.74, 'compass': 70.29, 'pitch': -1.61, 'roll': 10.01}
{'lipoC2': 7.06, 'temp': 28.94, 'lipoC3S3': 11.21, 'state': 'normal', 'rot1': 18, 'rot0': 17, 'rot3': 5, 'rot2': 7, 'depth': 1.309, 'yaw': 2.02, 'datetime': '2018-11-26 13:20:06.284322', 'mgs': 0, 'flw2': 1.22, 'flw1': 0.0, 'flw0': 2.78, 'time': 5.95, 'compass': 68.63, 'pitch': -1.31, 'roll': 8.78}
{'lipoC2': 7.12, 'temp': 29.0, 'lipoC3S3': 11.21, 'state': 'normal', 'rot1': 19, 'rot0': 19, 'rot3': 5, 'rot2': 7, 'depth': 1.996, 'yaw': -0.08, 'datetime': '2018-11-26 13:20:06.489915', 'mgs': 0, 'flw2': 1.27, 'flw1': 0.0, 'flw0': 2.59, 'time': 6.16, 'compass': 66.52, 'pitch': -1.01, 'roll': 5.74}
{'lipoC2': 7.06, 'temp': 28.94, 'lipoC3S3': 11.18, 'state': 'normal', 'rot1': 21, 'rot0': 21, 'rot3': 5, 'rot2': 7, 'depth': 1.462, 'yaw': -2.86, 'datetime': '2018-11-26 13:20:06.700208', 'mgs': 0, 'flw2': 2.88, 'flw1': 3.49, 'flw0': 1.07, 'time': 6.38, 'compass': 63.74, 'pitch': -0.92, 'roll': 2.8}
{'lipoC2': 7.06, 'temp': 28.94, 'lipoC3S3': 11.56, 'state': 'normal', 'rot1': 23, 'rot0': 23, 'rot3': 6, 'rot2': 8, 'depth': 2.072, 'yaw': -4.45, 'datetime': '2018-11-26 13:20:06.910931', 'mgs': 0, 'flw2': 2.76, 'flw1': 0.0, 'flw0': 1.15, 'time': 6.59, 'compass': 62.16, 'pitch': -1.04, 'roll': 2.12}
{'lipoC2': 7.23, 'temp': 29.0, 'lipoC3S3': 11.14, 'state': 'normal', 'rot1': 25, 'rot0': 25, 'rot3': 6, 'rot2': 8, 'depth': 0.47, 'yaw': -4.22, 'datetime': '2018-11-26 13:20:07.120099', 'mgs': 0, 'flw2': 2.58, 'flw1': 0.0, 'flw0': 1.2, 'time': 6.79, 'compass': 62.38, 'pitch': -1.18, 'roll': 2.68}
{'lipoC2': 7.11, 'temp': 29.0, 'lipoC3S3': 11.13, 'state': 'normal', 'rot1': 28, 'rot0': 26, 'rot3': 6, 'rot2': 8, 'depth': 1.691, 'yaw': -2.99, 'datetime': '2018-11-26 13:20:07.327887', 'mgs': 0, 'flw2': 2.54, 'flw1': 0.0, 'flw0': 1.21, 'time': 7.0, 'compass': 63.61, 'pitch': -1.43, 'roll': 2.98}
{'lipoC2': 7.06, 'temp': 28.94, 'lipoC3S3': 11.19, 'state': 'normal', 'rot1': 30, 'rot0': 28, 'rot3': 6, 'rot2': 8, 'depth': 1.157, 'yaw': -1.15, 'datetime': '2018-11-26 13:20:07.536181', 'mgs': 0, 'flw2': 2.5, 'flw1': 0.0, 'flw0': 1.25, 'time': 7.21, 'compass': 65.46, 'pitch': -1.54, 'roll': 3.32}
{'lipoC2': 7.06, 'temp': 29.0, 'lipoC3S3': 11.19, 'state': 'normal', 'rot1': 32, 'rot0': 30, 'rot3': 6, 'rot2': 8, 'depth': 1.309, 'yaw': 1.04, 'datetime': '2018-11-26 13:20:07.746015', 'mgs': 0, 'flw2': 2.53, 'flw1': 0.0, 'flw0': 1.26, 'time': 7.42, 'compass': 67.64, 'pitch': -1.63, 'roll': 4.1}
{'lipoC2': 7.06, 'temp': 28.94, 'lipoC3S3': 11.15, 'state': 'normal', 'rot1': 34, 'rot0': 31, 'rot3': 6, 'rot2': 8, 'depth': 1.309, 'yaw': 3.46, 'datetime': '2018-11-26 13:20:07.958310', 'mgs': 0, 'flw2': 1.06, 'flw1': 0.0, 'flw0': 2.86, 'time': 7.63, 'compass': 70.06, 'pitch': -1.61, 'roll': 4.85}
{'lipoC2': 7.22, 'temp': 28.94, 'lipoC3S3': 11.21, 'state': 'normal', 'rot1': 36, 'rot0': 34, 'rot3': 6, 'rot2': 8, 'depth': 0.623, 'yaw': 4.55, 'datetime': '2018-11-26 13:20:08.166572', 'mgs': 0, 'flw2': 1.17, 'flw1': 5.04, 'flw0': 2.7, 'time': 7.84, 'compass': 71.15, 'pitch': -1.39, 'roll': 5.22}
{'lipoC2': 7.06, 'temp': 28.94, 'lipoC3S3': 11.48, 'state': 'normal', 'rot1': 38, 'rot0': 36, 'rot3': 7, 'rot2': 9, 'depth': 1.843, 'yaw': 3.91, 'datetime': '2018-11-26 13:20:08.374755', 'mgs': 0, 'flw2': 1.17, 'flw1': 4.01, 'flw0': 2.72, 'time': 8.05, 'compass': 70.51, 'pitch': -1.28, 'roll': 5.38}
{'lipoC2': 7.06, 'temp': 29.0, 'lipoC3S3': 11.17, 'state': 'normal', 'rot1': 40, 'rot0': 38, 'rot3': 7, 'rot2': 10, 'depth': 1.309, 'yaw': 2.09, 'datetime': '2018-11-26 13:20:08.584031', 'mgs': 0, 'flw2': 1.2, 'flw1': 0.0, 'flw0': 2.77, 'time': 8.26, 'compass': 68.7, 'pitch': -1.32, 'roll': 5.61}
{'lipoC2': 7.06, 'temp': 29.0, 'lipoC3S3': 11.19, 'state': 'normal', 'rot1': 41, 'rot0': 41, 'rot3': 7, 'rot2': 10, 'depth': 1.385, 'yaw': -0.26, 'datetime': '2018-11-26 13:20:08.793946', 'mgs': 0, 'flw2': 1.18, 'flw1': 0.0, 'flw0': 2.77, 'time': 8.47, 'compass': 66.34, 'pitch': -1.28, 'roll': 5.15}
{'lipoC2': 7.06, 'temp': 29.0, 'lipoC3S3': 11.11, 'state': 'normal', 'rot1': 43, 'rot0': 43, 'rot3': 7, 'rot2': 10, 'depth': 1.385, 'yaw': -2.98, 'datetime': '2018-11-26 13:20:09.006102', 'mgs': 0, 'flw2': 2.59, 'flw1': 0.0, 'flw0': 2.73, 'time': 8.68, 'compass': 63.63, 'pitch': -1.31, 'roll': 4.44}
{'lipoC2': 7.07, 'temp': 29.0, 'lipoC3S3': 11.27, 'state': 'normal', 'rot1': 46, 'rot0': 45, 'rot3': 7, 'rot2': 10, 'depth': 1.385, 'yaw': -5.01, 'datetime': '2018-11-26 13:20:09.214802', 'mgs': 0, 'flw2': 2.5, 'flw1': 0.0, 'flw0': 1.12, 'time': 8.89, 'compass': 61.59, 'pitch': -1.28, 'roll': 4.5}
{'lipoC2': 7.23, 'temp': 29.0, 'lipoC3S3': 11.25, 'state': 'normal', 'rot1': 48, 'rot0': 47, 'rot3': 7, 'rot2': 10, 'depth': 1.92, 'yaw': -5.96, 'datetime': '2018-11-26 13:20:09.424464', 'mgs': 0, 'flw2': 2.66, 'flw1': 4.1, 'flw0': 1.16, 'time': 9.1, 'compass': 60.64, 'pitch': -1.2, 'roll': 4.15}
{'lipoC2': 7.06, 'temp': 28.94, 'lipoC3S3': 11.18, 'state': 'normal', 'rot1': 51, 'rot0': 49, 'rot3': 8, 'rot2': 11, 'depth': 1.92, 'yaw': -5.94, 'datetime': '2018-11-26 13:20:09.634779', 'mgs': 0, 'flw2': 2.64, 'flw1': 3.54, 'flw0': 1.27, 'time': 9.31, 'compass': 60.66, 'pitch': -1.35, 'roll': 3.71}
{'lipoC2': 7.07, 'temp': 29.0, 'lipoC3S3': 11.1, 'state': 'normal', 'rot1': 53, 'rot0': 50, 'rot3': 9, 'rot2': 12, 'depth': 1.385, 'yaw': -5.25, 'datetime': '2018-11-26 13:20:09.843949', 'mgs': 0, 'flw2': 2.5, 'flw1': 3.43, 'flw0': 1.17, 'time': 9.52, 'compass': 61.35, 'pitch': -1.64, 'roll': 3.67}
{'lipoC2': 7.23, 'temp': 28.94, 'lipoC3S3': 11.22, 'state': 'normal', 'rot1': 55, 'rot0': 52, 'rot3': 10, 'rot2': 13, 'depth': 1.538, 'yaw': -3.98, 'datetime': '2018-11-26 13:20:10.053417', 'mgs': 0, 'flw2': 2.67, 'flw1': 0.0, 'flw0': 1.25, 'time': 9.73, 'compass': 62.62, 'pitch': -1.73, 'roll': 3.81}
{'lipoC2': 7.07, 'temp': 29.0, 'lipoC3S3': 11.19, 'state': 'normal', 'rot1': 58, 'rot0': 53, 'rot3': 10, 'rot2': 13, 'depth': 2.225, 'yaw': -2.17, 'datetime': '2018-11-26 13:20:10.260535', 'mgs': 0, 'flw2': 2.67, 'flw1': 0.0, 'flw0': 1.2, 'time': 9.94, 'compass': 64.43, 'pitch': -1.55, 'roll': 3.67}
{'lipoC2': 7.06, 'temp': 29.0, 'lipoC3S3': 11.19, 'state': 'normal', 'rot1': 71, 'rot0': 68, 'rot3': 13, 'rot2': 17, 'depth': 1.385, 'yaw': -1.15, 'datetime': '2018-11-26 13:20:12.616558', 'mgs': 0, 'flw2': 2.77, 'flw1': 0.0, 'flw0': 2.77, 'time': 11.41, 'compass': 65.46, 'pitch': -1.09, 'roll': 4.51}
{'lipoC2': 7.07, 'temp': 29.0, 'lipoC3S3': 11.27, 'state': 'normal', 'rot1': 84, 'rot0': 78, 'rot3': 14, 'rot2': 19, 'depth': 1.309, 'yaw': -0.99, 'datetime': '2018-11-26 13:20:12.882482', 'mgs': 0, 'flw2': 2.54, 'flw1': 0.0, 'flw0': 1.22, 'time': 12.57, 'compass': 65.61, 'pitch': -0.77, 'roll': 4.16}
{'lipoC2': 7.07, 'temp': 28.94, 'lipoC3S3': 11.21, 'state': 'normal', 'rot1': 86, 'rot0': 80, 'rot3': 14, 'rot2': 19, 'depth': 2.377, 'yaw': 1.04, 'datetime': '2018-11-26 13:20:13.095122', 'mgs': 0, 'flw2': 2.65, 'flw1': 0.21, 'flw0': 2.49, 'time': 12.78, 'compass': 67.64, 'pitch': -0.38, 'roll': 3.55}
{'lipoC2': 7.09, 'temp': 28.88, 'lipoC3S3': 11.09, 'state': 'normal', 'rot1': 88, 'rot0': 82, 'rot3': 15, 'rot2': 19, 'depth': 1.996, 'yaw': 2.19, 'datetime': '2018-11-26 13:20:13.312245', 'mgs': 0, 'flw2': 1.09, 'flw1': 3.87, 'flw0': 2.66, 'time': 12.99, 'compass': 68.79, 'pitch': -0.06, 'roll': 3.64}
{'lipoC2': 7.06, 'temp': 29.0, 'lipoC3S3': 11.18, 'state': 'normal', 'rot1': 90, 'rot0': 84, 'rot3': 16, 'rot2': 20, 'depth': 1.385, 'yaw': 2.13, 'datetime': '2018-11-26 13:20:13.516115', 'mgs': 0, 'flw2': 1.18, 'flw1': 0.0, 'flw0': 2.77, 'time': 13.2, 'compass': 68.74, 'pitch': 0.06, 'roll': 4.01}
{'lipoC2': 7.06, 'temp': 28.94, 'lipoC3S3': 11.14, 'state': 'normal', 'rot1': 92, 'rot0': 86, 'rot3': 16, 'rot2': 20, 'depth': 1.385, 'yaw': 1.07, 'datetime': '2018-11-26 13:20:13.726804', 'mgs': 0, 'flw2': 1.18, 'flw1': 0.0, 'flw0': 2.73, 'time': 13.41, 'compass': 67.67, 'pitch': 0.19, 'roll': 3.81}
{'lipoC2': 7.06, 'temp': 29.0, 'lipoC3S3': 11.02, 'state': 'normal', 'rot1': 93, 'rot0': 89, 'rot3': 16, 'rot2': 20, 'depth': 1.538, 'yaw': -0.69, 'datetime': '2018-11-26 13:20:13.936424', 'mgs': 0, 'flw2': 2.82, 'flw1': 0.0, 'flw0': 2.67, 'time': 13.63, 'compass': 65.91, 'pitch': 0.03, 'roll': 3.3}
{'lipoC2': 7.06, 'temp': 29.06, 'lipoC3S3': 11.18, 'state': 'normal', 'rot1': 96, 'rot0': 91, 'rot3': 16, 'rot2': 20, 'depth': 1.538, 'yaw': -2.37, 'datetime': '2018-11-26 13:20:14.147210', 'mgs': 0, 'flw2': 2.7, 'flw1': 0.0, 'flw0': 2.88, 'time': 13.84, 'compass': 64.23, 'pitch': -0.32, 'roll': 3.43}
{'lipoC2': 7.05, 'temp': 29.06, 'lipoC3S3': 11.13, 'state': 'normal', 'rot1': 98, 'rot0': 93, 'rot3': 16, 'rot2': 20, 'depth': 1.538, 'yaw': -3.21, 'datetime': '2018-11-26 13:20:14.357334', 'mgs': 0, 'flw2': 2.42, 'flw1': 0.0, 'flw0': 1.21, 'time': 14.05, 'compass': 63.39, 'pitch': -0.65, 'roll': 3.6}
{'lipoC2': 7.06, 'temp': 29.0, 'lipoC3S3': 11.46, 'state': 'normal', 'rot1': 100, 'rot0': 95, 'rot3': 16, 'rot2': 20, 'depth': 1.538, 'yaw': -2.48, 'datetime': '2018-11-26 13:20:14.567752', 'mgs': 0, 'flw2': 2.6, 'flw1': 0.0, 'flw0': 1.26, 'time': 14.26, 'compass': 64.12, 'pitch': -0.96, 'roll': 3.0}
{'lipoC2': 7.06, 'temp': 29.0, 'lipoC3S3': 11.15, 'state': 'normal', 'rot1': 103, 'rot0': 96, 'rot3': 16, 'rot2': 20, 'depth': 1.538, 'yaw': -0.71, 'datetime': '2018-11-26 13:20:14.783226', 'mgs': 0, 'flw2': 2.61, 'flw1': 0.0, 'flw0': 1.28, 'time': 14.47, 'compass': 65.89, 'pitch': -1.13, 'roll': 2.34}
{'lipoC2': 7.24, 'temp': 29.0, 'lipoC3S3': 11.29, 'state': 'normal', 'rot1': 105, 'rot0': 98, 'rot3': 16, 'rot2': 20, 'depth': 2.835, 'yaw': 1.38, 'datetime': '2018-11-26 13:20:14.995012', 'mgs': 0, 'flw2': 2.72, 'flw1': 0.0, 'flw0': 2.71, 'time': 14.68, 'compass': 67.98, 'pitch': -1.19, 'roll': 2.24}
{'lipoC2': 7.06, 'temp': 29.0, 'lipoC3S3': 11.09, 'state': 'normal', 'rot1': 107, 'rot0': 101, 'rot3': 16, 'rot2': 21, 'depth': 1.614, 'yaw': 2.86, 'datetime': '2018-11-26 13:20:15.202977', 'mgs': 0, 'flw2': 1.01, 'flw1': 4.42, 'flw0': 2.62, 'time': 14.89, 'compass': 69.47, 'pitch': -1.17, 'roll': 2.82}
{'lipoC2': 7.06, 'temp': 29.0, 'lipoC3S3': 11.17, 'state': 'normal', 'rot1': 109, 'rot0': 103, 'rot3': 17, 'rot2': 22, 'depth': 2.682, 'yaw': 2.95, 'datetime': '2018-11-26 13:20:15.411557', 'mgs': 0, 'flw2': 1.18, 'flw1': 3.75, 'flw0': 2.64, 'time': 15.1, 'compass': 69.55, 'pitch': -1.25, 'roll': 3.33}
{'lipoC2': 7.23, 'temp': 28.94, 'lipoC3S3': 11.19, 'state': 'normal', 'rot1': 111, 'rot0': 105, 'rot3': 18, 'rot2': 23, 'depth': 2.148, 'yaw': 1.88, 'datetime': '2018-11-26 13:20:15.623611', 'mgs': 0, 'flw2': 1.15, 'flw1': 3.93, 'flw0': 2.82, 'time': 15.31, 'compass': 68.48, 'pitch': -1.16, 'roll': 4.1}
{'lipoC2': 7.06, 'temp': 29.06, 'lipoC3S3': 11.17, 'state': 'normal', 'rot1': 112, 'rot0': 108, 'rot3': 19, 'rot2': 24, 'depth': 1.614, 'yaw': -0.1, 'datetime': '2018-11-26 13:20:15.832120', 'mgs': 0, 'flw2': 2.7, 'flw1': 3.43, 'flw0': 2.73, 'time': 15.52, 'compass': 66.51, 'pitch': -1.03, 'roll': 5.2}
{'lipoC2': 7.08, 'temp': 29.06, 'lipoC3S3': 11.39, 'state': 'normal', 'rot1': 115, 'rot0': 110, 'rot3': 19, 'rot2': 25, 'depth': 1.614, 'yaw': -1.76, 'datetime': '2018-11-26 13:20:16.044357', 'mgs': 0, 'flw2': 2.59, 'flw1': 0.0, 'flw0': 2.69, 'time': 15.73, 'compass': 64.84, 'pitch': -1.07, 'roll': 6.57}
{'lipoC2': 7.08, 'temp': 29.25, 'lipoC3S3': 11.39, 'state': 'normal', 'rot1': 117, 'rot0': 112, 'rot3': 19, 'rot2': 25, 'depth': 1.614, 'yaw': -2.64, 'datetime': '2018-11-26 13:20:16.256500', 'mgs': 0, 'flw2': 2.51, 'flw1': 0.0, 'flw0': 1.21, 'time': 15.94, 'compass': 63.96, 'pitch': -1.3, 'roll': 7.25}
{'lipoC2': 7.06, 'temp': 29.06, 'lipoC3S3': 11.19, 'state': 'normal', 'rot1': 119, 'rot0': 113, 'rot3': 19, 'rot2': 25, 'depth': 1.462, 'yaw': -2.03, 'datetime': '2018-11-26 13:20:16.466754', 'mgs': 0, 'flw2': 2.64, 'flw1': 0.0, 'flw0': 1.25, 'time': 16.15, 'compass': 64.57, 'pitch': -1.43, 'roll': 6.87}
{'lipoC2': 7.22, 'temp': 29.13, 'lipoC3S3': 11.18, 'state': 'normal', 'rot1': 121, 'rot0': 115, 'rot3': 19, 'rot2': 25, 'depth': 0.928, 'yaw': -0.33, 'datetime': '2018-11-26 13:20:16.672264', 'mgs': 0, 'flw2': 2.66, 'flw1': 0.0, 'flw0': 1.29, 'time': 16.36, 'compass': 66.28, 'pitch': -1.59, 'roll': 6.08}
{'lipoC2': 7.06, 'temp': 29.0, 'lipoC3S3': 11.15, 'state': 'normal', 'rot1': 124, 'rot0': 117, 'rot3': 19, 'rot2': 25, 'depth': 1.385, 'yaw': 1.67, 'datetime': '2018-11-26 13:20:16.883187', 'mgs': 0, 'flw2': 2.66, 'flw1': 0.0, 'flw0': 2.87, 'time': 16.57, 'compass': 68.27, 'pitch': -1.55, 'roll': 5.15}
{'lipoC2': 7.29, 'temp': 29.19, 'lipoC3S3': 11.17, 'state': 'normal', 'rot1': 126, 'rot0': 119, 'rot3': 19, 'rot2': 25, 'depth': 1.309, 'yaw': 2.64, 'datetime': '2018-11-26 13:20:17.094549', 'mgs': 0, 'flw2': 1.07, 'flw1': 0.0, 'flw0': 2.83, 'time': 16.78, 'compass': 69.24, 'pitch': -1.34, 'roll': 4.73}
{'lipoC2': 7.05, 'temp': 29.0, 'lipoC3S3': 11.18, 'state': 'normal', 'rot1': 128, 'rot0': 121, 'rot3': 19, 'rot2': 25, 'depth': 1.385, 'yaw': 2.24, 'datetime': '2018-11-26 13:20:17.308074', 'mgs': 0, 'flw2': 1.26, 'flw1': 0.09, 'flw0': 2.83, 'time': 17.0, 'compass': 68.84, 'pitch': -1.04, 'roll': 3.88}
{'lipoC2': 7.06, 'temp': 28.94, 'lipoC3S3': 11.17, 'state': 'normal', 'rot1': 129, 'rot0': 124, 'rot3': 19, 'rot2': 25, 'depth': 1.767, 'yaw': 0.67, 'datetime': '2018-11-26 13:20:17.514975', 'mgs': 0, 'flw2': 1.25, 'flw1': 0.0, 'flw0': 2.72, 'time': 17.21, 'compass': 67.27, 'pitch': -0.82, 'roll': 2.73}
{'lipoC2': 7.05, 'temp': 28.94, 'lipoC3S3': 11.19, 'state': 'normal', 'rot1': 131, 'rot0': 126, 'rot3': 19, 'rot2': 25, 'depth': 1.996, 'yaw': -1.65, 'datetime': '2018-11-26 13:20:17.726590', 'mgs': 0, 'flw2': 2.87, 'flw1': 0.0, 'flw0': 2.6, 'time': 17.42, 'compass': 64.96, 'pitch': -0.74, 'roll': 1.96}
{'lipoC2': 7.07, 'temp': 29.0, 'lipoC3S3': 11.32, 'state': 'normal', 'rot1': 133, 'rot0': 129, 'rot3': 20, 'rot2': 25, 'depth': 2.911, 'yaw': -3.68, 'datetime': '2018-11-26 13:20:17.935510', 'mgs': 0, 'flw2': 2.66, 'flw1': 4.39, 'flw0': 2.56, 'time': 17.63, 'compass': 62.92, 'pitch': -0.77, 'roll': 1.87}
{'lipoC2': 7.05, 'temp': 29.0, 'lipoC3S3': 11.17, 'state': 'normal', 'rot1': 136, 'rot0': 131, 'rot3': 20, 'rot2': 26, 'depth': 1.996, 'yaw': -4.92, 'datetime': '2018-11-26 13:20:18.146272', 'mgs': 0, 'flw2': 2.66, 'flw1': 3.52, 'flw0': 1.33, 'time': 17.84, 'compass': 61.68, 'pitch': -1.02, 'roll': 2.08}
{'lipoC2': 7.05, 'temp': 29.06, 'lipoC3S3': 11.09, 'state': 'normal', 'rot1': 138, 'rot0': 132, 'rot3': 21, 'rot2': 27, 'depth': 1.462, 'yaw': -4.95, 'datetime': '2018-11-26 13:20:18.358181', 'mgs': 0, 'flw2': 2.55, 'flw1': 3.57, 'flw0': 1.18, 'time': 18.05, 'compass': 61.65, 'pitch': -1.21, 'roll': 2.37}
{'lipoC2': 7.1, 'temp': 29.0, 'lipoC3S3': 11.22, 'state': 'normal', 'rot1': 140, 'rot0': 134, 'rot3': 22, 'rot2': 28, 'depth': 2.53, 'yaw': -4.13, 'datetime': '2018-11-26 13:20:18.569632', 'mgs': 0, 'flw2': 2.7, 'flw1': 0.0, 'flw0': 1.18, 'time': 18.26, 'compass': 62.47, 'pitch': -1.28, 'roll': 3.04}
{'lipoC2': 7.05, 'temp': 29.0, 'lipoC3S3': 11.17, 'state': 'normal', 'rot1': 142, 'rot0': 135, 'rot3': 22, 'rot2': 28, 'depth': 1.462, 'yaw': -2.74, 'datetime': '2018-11-26 13:20:18.782811', 'mgs': 0, 'flw2': 2.64, 'flw1': 0.21, 'flw0': 1.17, 'time': 18.47, 'compass': 63.87, 'pitch': -1.24, 'roll': 3.53}
{'lipoC2': 7.05, 'temp': 29.0, 'lipoC3S3': 11.26, 'state': 'normal', 'rot1': 145, 'rot0': 137, 'rot3': 22, 'rot2': 28, 'depth': 1.462, 'yaw': -0.76, 'datetime': '2018-11-26 13:20:18.990506', 'mgs': 0, 'flw2': 2.56, 'flw1': 0.0, 'flw0': 1.23, 'time': 18.68, 'compass': 65.85, 'pitch': -0.94, 'roll': 3.4}
{'lipoC2': 7.26, 'temp': 29.0, 'lipoC3S3': 11.13, 'state': 'normal', 'rot1': 147, 'rot0': 139, 'rot3': 22, 'rot2': 28, 'depth': 1.538, 'yaw': 1.87, 'datetime': '2018-11-26 13:20:19.199845', 'mgs': 0, 'flw2': 2.51, 'flw1': 0.0, 'flw0': 1.21, 'time': 18.89, 'compass': 68.47, 'pitch': -0.49, 'roll': 3.05}
{'lipoC2': 7.1, 'temp': 29.0, 'lipoC3S3': 11.19, 'state': 'normal', 'rot1': 149, 'rot0': 141, 'rot3': 22, 'rot2': 28, 'depth': 2.072, 'yaw': 4.49, 'datetime': '2018-11-26 13:20:19.411337', 'mgs': 0, 'flw2': 1.23, 'flw1': 0.0, 'flw0': 2.86, 'time': 19.1, 'compass': 71.09, 'pitch': 0.0, 'roll': 2.73}
{'lipoC2': 7.06, 'temp': 29.06, 'lipoC3S3': 11.18, 'state': 'normal', 'rot1': 150, 'rot0': 143, 'rot3': 22, 'rot2': 29, 'depth': 1.538, 'yaw': 5.12, 'datetime': '2018-11-26 13:20:19.622019', 'mgs': 0, 'flw2': 1.17, 'flw1': 3.49, 'flw0': 2.81, 'time': 19.32, 'compass': 71.72, 'pitch': 0.35, 'roll': 2.51}
{'lipoC2': 7.06, 'temp': 28.94, 'lipoC3S3': 11.17, 'state': 'normal', 'rot1': 152, 'rot0': 146, 'rot3': 23, 'rot2': 30, 'depth': 1.614, 'yaw': 4.22, 'datetime': '2018-11-26 13:20:19.832254', 'mgs': 0, 'flw2': 1.16, 'flw1': 3.4, 'flw0': 2.72, 'time': 19.52, 'compass': 70.82, 'pitch': 0.22, 'roll': 2.81}
{'lipoC2': 7.22, 'temp': 29.06, 'lipoC3S3': 11.07, 'state': 'normal', 'rot1': 154, 'rot0': 148, 'rot3': 24, 'rot2': 31, 'depth': 0.928, 'yaw': 2.31, 'datetime': '2018-11-26 13:20:20.042061', 'mgs': 0, 'flw2': 1.16, 'flw1': 3.22, 'flw0': 2.65, 'time': 19.74, 'compass': 68.91, 'pitch': -0.25, 'roll': 3.74}
{'lipoC2': 7.06, 'temp': 29.0, 'lipoC3S3': 11.13, 'state': 'normal', 'rot1': 155, 'rot0': 150, 'rot3': 24, 'rot2': 31, 'depth': 1.538, 'yaw': -0.31, 'datetime': '2018-11-26 13:20:20.256726', 'mgs': 0, 'flw2': 1.26, 'flw1': 0.0, 'flw0': 2.75, 'time': 19.95, 'compass': 66.29, 'pitch': -0.83, 'roll': 4.72}
{'lipoC2': 7.06, 'temp': 29.0, 'lipoC3S3': 11.1, 'state': 'normal', 'rot1': 157, 'rot0': 152, 'rot3': 24, 'rot2': 31, 'depth': 1.614, 'yaw': -3.62, 'datetime': '2018-11-26 13:20:20.465105', 'mgs': 0, 'flw2': 1.18, 'flw1': 0.0, 'flw0': 2.67, 'time': 20.16, 'compass': 62.98, 'pitch': -1.57, 'roll': 4.79}
{'lipoC2': 7.06, 'temp': 29.0, 'lipoC3S3': 11.52, 'state': 'normal', 'rot1': 159, 'rot0': 154, 'rot3': 24, 'rot2': 31, 'depth': 2.454, 'yaw': -6.67, 'datetime': '2018-11-26 13:20:20.676433', 'mgs': 0, 'flw2': 2.75, 'flw1': 0.0, 'flw0': 1.26, 'time': 20.37, 'compass': 59.93, 'pitch': -2.04, 'roll': 4.44}
{'lipoC2': 7.07, 'temp': 29.0, 'lipoC3S3': 11.3, 'state': 'normal', 'rot1': 161, 'rot0': 156, 'rot3': 24, 'rot2': 32, 'depth': 2.072, 'yaw': -8.08, 'datetime': '2018-11-26 13:20:20.883951', 'mgs': 0, 'flw2': 2.64, 'flw1': 4.01, 'flw0': 1.25, 'time': 20.58, 'compass': 58.53, 'pitch': -2.19, 'roll': 3.9}
{'lipoC2': 7.06, 'temp': 28.81, 'lipoC3S3': 11.19, 'state': 'normal', 'rot1': 163, 'rot0': 157, 'rot3': 25, 'rot2': 33, 'depth': 1.843, 'yaw': -8.54, 'datetime': '2018-11-26 13:20:21.096290', 'mgs': 0, 'flw2': 2.67, 'flw1': 0.0, 'flw0': 1.27, 'time': 20.79, 'compass': 58.06, 'pitch': -2.22, 'roll': 3.73}
{'lipoC2': 7.06, 'temp': 29.06, 'lipoC3S3': 11.13, 'state': 'normal', 'rot1': 166, 'rot0': 159, 'rot3': 25, 'rot2': 33, 'depth': 1.614, 'yaw': -8.31, 'datetime': '2018-11-26 13:20:21.307132', 'mgs': 0, 'flw2': 2.54, 'flw1': 0.0, 'flw0': 1.22, 'time': 21.0, 'compass': 58.29, 'pitch': -1.75, 'roll': 3.73}
{'lipoC2': 7.07, 'temp': 29.06, 'lipoC3S3': 11.21, 'state': 'normal', 'rot1': 168, 'rot0': 161, 'rot3': 25, 'rot2': 33, 'depth': 2.454, 'yaw': -7.54, 'datetime': '2018-11-26 13:20:21.516254', 'mgs': 0, 'flw2': 2.67, 'flw1': 0.0, 'flw0': 1.23, 'time': 21.21, 'compass': 59.06, 'pitch': -1.23, 'roll': 3.61}
{'lipoC2': 7.08, 'temp': 28.94, 'lipoC3S3': 11.17, 'state': 'normal', 'rot1': 170, 'rot0': 162, 'rot3': 25, 'rot2': 33, 'depth': 2.225, 'yaw': -6.44, 'datetime': '2018-11-26 13:20:21.726212', 'mgs': 0, 'flw2': 2.69, 'flw1': 5.07, 'flw0': 1.22, 'time': 21.42, 'compass': 60.16, 'pitch': -0.77, 'roll': 3.44}
{'lipoC2': 7.06, 'temp': 29.0, 'lipoC3S3': 11.18, 'state': 'normal', 'rot1': 173, 'rot0': 164, 'rot3': 26, 'rot2': 34, 'depth': 2.072, 'yaw': -5.24, 'datetime': '2018-11-26 13:20:21.935953', 'mgs': 0, 'flw2': 2.56, 'flw1': 4.25, 'flw0': 1.32, 'time': 21.63, 'compass': 61.36, 'pitch': -0.49, 'roll': 3.38}
{'lipoC2': 7.06, 'temp': 29.0, 'lipoC3S3': 11.07, 'state': 'normal', 'rot1': 175, 'rot0': 165, 'rot3': 27, 'rot2': 35, 'depth': 1.462, 'yaw': -4.2, 'datetime': '2018-11-26 13:20:22.152884', 'mgs': 0, 'flw2': 2.58, 'flw1': 3.16, 'flw0': 1.25, 'time': 21.84, 'compass': 62.4, 'pitch': -0.29, 'roll': 3.56}
{'lipoC2': 7.23, 'temp': 29.0, 'lipoC3S3': 11.19, 'state': 'normal', 'rot1': 177, 'rot0': 167, 'rot3': 28, 'rot2': 36, 'depth': 1.538, 'yaw': -3.02, 'datetime': '2018-11-26 13:20:22.363573', 'mgs': 0, 'flw2': 2.6, 'flw1': 0.0, 'flw0': 1.22, 'time': 22.06, 'compass': 63.58, 'pitch': -0.34, 'roll': 3.91}
{'lipoC2': 7.06, 'temp': 29.0, 'lipoC3S3': 11.42, 'state': 'normal', 'rot1': 179, 'rot0': 169, 'rot3': 28, 'rot2': 36, 'depth': 1.462, 'yaw': -1.62, 'datetime': '2018-11-26 13:20:22.573731', 'mgs': 0, 'flw2': 2.49, 'flw1': 0.0, 'flw0': 1.23, 'time': 22.27, 'compass': 64.98, 'pitch': -0.41, 'roll': 4.18}
{'lipoC2': 7.07, 'temp': 28.94, 'lipoC3S3': 11.15, 'state': 'normal', 'rot1': 182, 'rot0': 170, 'rot3': 28, 'rot2': 36, 'depth': 1.614, 'yaw': 0.03, 'datetime': '2018-11-26 13:20:22.796973', 'mgs': 0, 'flw2': 2.64, 'flw1': 0.0, 'flw0': 2.83, 'time': 22.48, 'compass': 66.63, 'pitch': -0.17, 'roll': 4.04}
{'lipoC2': 7.07, 'temp': 29.06, 'lipoC3S3': 11.21, 'state': 'normal', 'rot1': 185, 'rot0': 174, 'rot3': 28, 'rot2': 36, 'depth': 1.309, 'yaw': 1.19, 'datetime': '2018-11-26 13:20:23.093861', 'mgs': 0, 'flw2': 1.16, 'flw1': 0.0, 'flw0': 2.78, 'time': 22.79, 'compass': 67.79, 'pitch': 0.46, 'roll': 3.99}
{'lipoC2': 7.22, 'temp': 29.06, 'lipoC3S3': 11.19, 'state': 'normal', 'rot1': 187, 'rot0': 176, 'rot3': 28, 'rot2': 36, 'depth': 0.928, 'yaw': 0.25, 'datetime': '2018-11-26 13:20:23.307405', 'mgs': 0, 'flw2': 1.23, 'flw1': 0.0, 'flw0': 2.72, 'time': 23.0, 'compass': 66.85, 'pitch': 0.69, 'roll': 3.67}
{'lipoC2': 7.06, 'temp': 29.0, 'lipoC3S3': 11.18, 'state': 'normal', 'rot1': 190, 'rot0': 179, 'rot3': 28, 'rot2': 36, 'depth': 1.385, 'yaw': -3.27, 'datetime': '2018-11-26 13:20:23.635788', 'mgs': 0, 'flw2': 2.71, 'flw1': 0.0, 'flw0': 2.73, 'time': 23.32, 'compass': 63.33, 'pitch': 0.64, 'roll': 3.23}
{'lipoC2': 7.05, 'temp': 29.0, 'lipoC3S3': 11.19, 'state': 'normal', 'rot1': 192, 'rot0': 181, 'rot3': 28, 'rot2': 36, 'depth': 1.462, 'yaw': -5.22, 'datetime': '2018-11-26 13:20:23.841673', 'mgs': 0, 'flw2': 2.58, 'flw1': 0.09, 'flw0': 1.03, 'time': 23.53, 'compass': 61.39, 'pitch': 0.44, 'roll': 3.28}
{'lipoC2': 7.06, 'temp': 29.0, 'lipoC3S3': 11.15, 'state': 'normal', 'rot1': 194, 'rot0': 183, 'rot3': 28, 'rot2': 36, 'depth': 1.462, 'yaw': -5.98, 'datetime': '2018-11-26 13:20:24.050171', 'mgs': 0, 'flw2': 2.49, 'flw1': 0.0, 'flw0': 1.21, 'time': 23.74, 'compass': 60.63, 'pitch': 0.25, 'roll': 2.86}
{'lipoC2': 7.05, 'temp': 29.0, 'lipoC3S3': 11.14, 'state': 'normal', 'rot1': 197, 'rot0': 184, 'rot3': 28, 'rot2': 36, 'depth': 1.538, 'yaw': -5.99, 'datetime': '2018-11-26 13:20:24.260603', 'mgs': 0, 'flw2': 2.47, 'flw1': 0.0, 'flw0': 1.21, 'time': 23.95, 'compass': 60.61, 'pitch': 0.1, 'roll': 2.21}
{'lipoC2': 7.07, 'temp': 29.06, 'lipoC3S3': 11.51, 'state': 'normal', 'rot1': 199, 'rot0': 186, 'rot3': 28, 'rot2': 36, 'depth': 1.538, 'yaw': -5.34, 'datetime': '2018-11-26 13:20:24.471167', 'mgs': 0, 'flw2': 2.51, 'flw1': 0.0, 'flw0': 1.2, 'time': 24.16, 'compass': 61.26, 'pitch': 0.06, 'roll': 2.0}
{'lipoC2': 7.07, 'temp': 28.94, 'lipoC3S3': 11.22, 'state': 'normal', 'rot1': 202, 'rot0': 188, 'rot3': 28, 'rot2': 36, 'depth': 1.691, 'yaw': -4.22, 'datetime': '2018-11-26 13:20:24.681254', 'mgs': 0, 'flw2': 2.59, 'flw1': 0.0, 'flw0': 1.23, 'time': 24.37, 'compass': 62.38, 'pitch': -0.01, 'roll': 2.13}
{'lipoC2': 7.06, 'temp': 29.25, 'lipoC3S3': 11.54, 'state': 'normal', 'rot1': 204, 'rot0': 189, 'rot3': 28, 'rot2': 36, 'depth': 1.843, 'yaw': -2.85, 'datetime': '2018-11-26 13:20:24.892365', 'mgs': 0, 'flw2': 2.58, 'flw1': 0.0, 'flw0': 1.23, 'time': 24.58, 'compass': 63.75, 'pitch': 0.01, 'roll': 2.31}
{'lipoC2': 7.06, 'temp': 29.06, 'lipoC3S3': 11.18, 'state': 'normal', 'rot1': 207, 'rot0': 191, 'rot3': 28, 'rot2': 36, 'depth': 1.843, 'yaw': -1.5, 'datetime': '2018-11-26 13:20:25.098560', 'mgs': 0, 'flw2': 2.59, 'flw1': 0.0, 'flw0': 1.28, 'time': 24.8, 'compass': 65.1, 'pitch': 0.11, 'roll': 2.51}
{'lipoC2': 7.08, 'temp': 29.06, 'lipoC3S3': 11.22, 'state': 'normal', 'rot1': 209, 'rot0': 193, 'rot3': 28, 'rot2': 36, 'depth': 1.92, 'yaw': 0.06, 'datetime': '2018-11-26 13:20:25.311586', 'mgs': 0, 'flw2': 2.7, 'flw1': 0.0, 'flw0': 2.82, 'time': 25.0, 'compass': 66.66, 'pitch': 0.34, 'roll': 2.84}
{'lipoC2': 7.06, 'temp': 29.5, 'lipoC3S3': 11.18, 'state': 'normal', 'rot1': 211, 'rot0': 195, 'rot3': 28, 'rot2': 36, 'depth': 1.843, 'yaw': 0.79, 'datetime': '2018-11-26 13:20:25.519322', 'mgs': 0, 'flw2': 2.58, 'flw1': 0.03, 'flw0': 2.8, 'time': 25.22, 'compass': 67.39, 'pitch': 0.6, 'roll': 3.47}
{'lipoC2': 7.24, 'temp': 29.5, 'lipoC3S3': 11.26, 'state': 'normal', 'rot1': 213, 'rot0': 197, 'rot3': 28, 'rot2': 36, 'depth': 1.92, 'yaw': 0.33, 'datetime': '2018-11-26 13:20:25.729511', 'mgs': 0, 'flw2': 2.55, 'flw1': 0.0, 'flw0': 2.8, 'time': 25.43, 'compass': 66.93, 'pitch': 0.74, 'roll': 4.09}
{'lipoC2': 7.34, 'temp': 29.0, 'lipoC3S3': 11.18, 'state': 'normal', 'rot1': 216, 'rot0': 200, 'rot3': 28, 'rot2': 37, 'depth': 1.92, 'yaw': -1.06, 'datetime': '2018-11-26 13:20:25.943646', 'mgs': 0, 'flw2': 2.49, 'flw1': 3.4, 'flw0': 2.7, 'time': 25.64, 'compass': 65.55, 'pitch': 0.65, 'roll': 4.69}
{'lipoC2': 7.06, 'temp': 29.06, 'lipoC3S3': 11.05, 'state': 'normal', 'rot1': 218, 'rot0': 202, 'rot3': 29, 'rot2': 38, 'depth': 1.996, 'yaw': -3.11, 'datetime': '2018-11-26 13:20:26.153120', 'mgs': 0, 'flw2': 2.49, 'flw1': 3.11, 'flw0': 2.84, 'time': 25.85, 'compass': 63.49, 'pitch': 0.15, 'roll': 5.31}
{'lipoC2': 7.07, 'temp': 29.06, 'lipoC3S3': 11.1, 'state': 'normal', 'rot1': 220, 'rot0': 204, 'rot3': 30, 'rot2': 39, 'depth': 2.225, 'yaw': -5.36, 'datetime': '2018-11-26 13:20:26.359494', 'mgs': 0, 'flw2': 2.59, 'flw1': 3.43, 'flw0': 1.03, 'time': 26.06, 'compass': 61.24, 'pitch': -0.5, 'roll': 5.91}
{'lipoC2': 7.06, 'temp': 29.19, 'lipoC3S3': 11.17, 'state': 'normal', 'rot1': 223, 'rot0': 206, 'rot3': 30, 'rot2': 40, 'depth': 2.454, 'yaw': -6.96, 'datetime': '2018-11-26 13:20:26.574206', 'mgs': 0, 'flw2': 2.59, 'flw1': 3.75, 'flw0': 1.26, 'time': 26.27, 'compass': 59.64, 'pitch': -1.29, 'roll': 6.18}
{'lipoC2': 7.06, 'temp': 29.06, 'lipoC3S3': 11.15, 'state': 'normal', 'rot1': 225, 'rot0': 207, 'rot3': 31, 'rot2': 41, 'depth': 3.064, 'yaw': -7.99, 'datetime': '2018-11-26 13:20:26.786100', 'mgs': 0, 'flw2': 2.65, 'flw1': 4.25, 'flw0': 1.35, 'time': 26.48, 'compass': 58.61, 'pitch': -1.96, 'roll': 6.34}
{'lipoC2': 7.06, 'temp': 29.0, 'lipoC3S3': 11.17, 'state': 'normal', 'rot1': 227, 'rot0': 209, 'rot3': 32, 'rot2': 42, 'depth': 1.767, 'yaw': -8.46, 'datetime': '2018-11-26 13:20:26.996699', 'mgs': 0, 'flw2': 2.7, 'flw1': 4.22, 'flw0': 1.25, 'time': 26.69, 'compass': 58.14, 'pitch': -2.49, 'roll': 6.47}
{'lipoC2': 7.06, 'temp': 29.06, 'lipoC3S3': 11.18, 'state': 'normal', 'rot1': 230, 'rot0': 210, 'rot3': 33, 'rot2': 42, 'depth': 2.072, 'yaw': -8.55, 'datetime': '2018-11-26 13:20:27.206326', 'mgs': 0, 'flw2': 2.69, 'flw1': 0.0, 'flw0': 1.22, 'time': 26.91, 'compass': 58.05, 'pitch': -2.6, 'roll': 6.45}
{'lipoC2': 7.06, 'temp': 29.06, 'lipoC3S3': 11.48, 'state': 'normal', 'rot1': 232, 'rot0': 212, 'rot3': 33, 'rot2': 42, 'depth': 1.538, 'yaw': -8.32, 'datetime': '2018-11-26 13:20:27.415320', 'mgs': 0, 'flw2': 2.62, 'flw1': 0.0, 'flw0': 1.27, 'time': 27.11, 'compass': 58.29, 'pitch': -1.95, 'roll': 5.72}
{'lipoC2': 7.06, 'temp': 29.06, 'lipoC3S3': 11.5, 'state': 'normal', 'rot1': 234, 'rot0': 214, 'rot3': 33, 'rot2': 42, 'depth': 1.462, 'yaw': -7.7, 'datetime': '2018-11-26 13:20:27.630043', 'mgs': 0, 'flw2': 2.64, 'flw1': 0.0, 'flw0': 1.26, 'time': 27.33, 'compass': 58.9, 'pitch': -0.97, 'roll': 4.8}
{'lipoC2': 7.06, 'temp': 29.0, 'lipoC3S3': 11.19, 'state': 'normal', 'rot1': 236, 'rot0': 215, 'rot3': 33, 'rot2': 42, 'depth': 1.385, 'yaw': -6.99, 'datetime': '2018-11-26 13:20:27.835196', 'mgs': 0, 'flw2': 2.6, 'flw1': 0.0, 'flw0': 1.26, 'time': 27.54, 'compass': 59.61, 'pitch': -0.15, 'roll': 3.91}
{'lipoC2': 7.06, 'temp': 29.06, 'lipoC3S3': 11.19, 'state': 'normal', 'rot1': 239, 'rot0': 217, 'rot3': 33, 'rot2': 42, 'depth': 1.309, 'yaw': -6.32, 'datetime': '2018-11-26 13:20:28.047794', 'mgs': 0, 'flw2': 2.58, 'flw1': 0.0, 'flw0': 1.27, 'time': 27.75, 'compass': 60.28, 'pitch': 0.41, 'roll': 3.04}
{'lipoC2': 7.06, 'temp': 29.06, 'lipoC3S3': 11.18, 'state': 'normal', 'rot1': 241, 'rot0': 218, 'rot3': 33, 'rot2': 42, 'depth': 1.385, 'yaw': -5.42, 'datetime': '2018-11-26 13:20:28.256312', 'mgs': 0, 'flw2': 2.6, 'flw1': 0.0, 'flw0': 1.27, 'time': 27.96, 'compass': 61.18, 'pitch': 0.79, 'roll': 2.34}
{'lipoC2': 7.22, 'temp': 28.69, 'lipoC3S3': 11.21, 'state': 'normal', 'rot1': 243, 'rot0': 220, 'rot3': 33, 'rot2': 42, 'depth': 0.928, 'yaw': -4.45, 'datetime': '2018-11-26 13:20:28.467302', 'mgs': 0, 'flw2': 2.56, 'flw1': 0.0, 'flw0': 1.26, 'time': 28.17, 'compass': 62.15, 'pitch': 0.89, 'roll': 2.05}
{'lipoC2': 7.06, 'temp': 29.19, 'lipoC3S3': 11.17, 'state': 'normal', 'rot1': 246, 'rot0': 222, 'rot3': 33, 'rot2': 42, 'depth': 1.309, 'yaw': -3.49, 'datetime': '2018-11-26 13:20:28.678591', 'mgs': 0, 'flw2': 2.58, 'flw1': 0.06, 'flw0': 1.25, 'time': 28.38, 'compass': 63.11, 'pitch': 0.77, 'roll': 2.17}
{'lipoC2': 7.06, 'temp': 29.19, 'lipoC3S3': 11.17, 'state': 'normal', 'rot1': 248, 'rot0': 223, 'rot3': 33, 'rot2': 42, 'depth': 1.767, 'yaw': -2.69, 'datetime': '2018-11-26 13:20:28.889229', 'mgs': 0, 'flw2': 2.67, 'flw1': 0.06, 'flw0': 1.2, 'time': 28.59, 'compass': 63.92, 'pitch': 0.3, 'roll': 2.04}
{'lipoC2': 7.11, 'temp': 29.0, 'lipoC3S3': 11.18, 'state': 'normal', 'rot1': 250, 'rot0': 225, 'rot3': 33, 'rot2': 42, 'depth': 2.835, 'yaw': -1.74, 'datetime': '2018-11-26 13:20:29.102202', 'mgs': 0, 'flw2': 2.7, 'flw1': 0.0, 'flw0': 1.17, 'time': 28.8, 'compass': 64.87, 'pitch': -0.1, 'roll': 1.93}
{'lipoC2': 7.07, 'temp': 29.0, 'lipoC3S3': 11.14, 'state': 'normal', 'rot1': 252, 'rot0': 226, 'rot3': 33, 'rot2': 42, 'depth': 3.14, 'yaw': -0.72, 'datetime': '2018-11-26 13:20:29.312622', 'mgs': 0, 'flw2': 2.69, 'flw1': 4.28, 'flw0': 1.12, 'time': 29.01, 'compass': 65.88, 'pitch': -0.27, 'roll': 1.92}
{'lipoC2': 7.06, 'temp': 29.0, 'lipoC3S3': 11.17, 'state': 'normal', 'rot1': 255, 'rot0': 229, 'rot3': 33, 'rot2': 43, 'depth': 1.614, 'yaw': 0.1, 'datetime': '2018-11-26 13:20:29.524123', 'mgs': 0, 'flw2': 2.59, 'flw1': 3.84, 'flw0': 2.73, 'time': 29.22, 'compass': 66.7, 'pitch': -0.46, 'roll': 2.5}
{'lipoC2': 7.08, 'temp': 29.06, 'lipoC3S3': 11.39, 'state': 'normal', 'rot1': 257, 'rot0': 231, 'rot3': 34, 'rot2': 44, 'depth': 1.538, 'yaw': -0.12, 'datetime': '2018-11-26 13:20:29.727972', 'mgs': 0, 'flw2': 2.5, 'flw1': 0.0, 'flw0': 2.67, 'time': 29.43, 'compass': 66.48, 'pitch': -0.74, 'roll': 3.72}
{'lipoC2': 7.06, 'temp': 29.0, 'lipoC3S3': 11.48, 'state': 'normal', 'rot1': 259, 'rot0': 233, 'rot3': 34, 'rot2': 44, 'depth': 1.614, 'yaw': -0.92, 'datetime': '2018-11-26 13:20:29.938749', 'mgs': 0, 'flw2': 2.51, 'flw1': 0.0, 'flw0': 2.62, 'time': 29.64, 'compass': 65.69, 'pitch': -1.16, 'roll': 4.5}
{'lipoC2': 7.05, 'temp': 28.88, 'lipoC3S3': 11.07, 'state': 'normal', 'rot1': 262, 'rot0': 235, 'rot3': 34, 'rot2': 44, 'depth': 1.691, 'yaw': -2.03, 'datetime': '2018-11-26 13:20:30.149165', 'mgs': 0, 'flw2': 2.47, 'flw1': 0.0, 'flw0': 2.64, 'time': 29.85, 'compass': 64.57, 'pitch': -1.41, 'roll': 5.13}
{'lipoC2': 7.07, 'temp': 29.13, 'lipoC3S3': 11.17, 'state': 'normal', 'rot1': 264, 'rot0': 238, 'rot3': 34, 'rot2': 44, 'depth': 1.767, 'yaw': -3.43, 'datetime': '2018-11-26 13:20:30.361065', 'mgs': 0, 'flw2': 2.54, 'flw1': 0.0, 'flw0': 1.1, 'time': 30.06, 'compass': 63.17, 'pitch': -1.55, 'roll': 5.8}
{'lipoC2': 7.07, 'temp': 29.13, 'lipoC3S3': 11.15, 'state': 'normal', 'rot1': 266, 'rot0': 239, 'rot3': 34, 'rot2': 44, 'depth': 2.759, 'yaw': -4.2, 'datetime': '2018-11-26 13:20:30.571892', 'mgs': 0, 'flw2': 2.72, 'flw1': 4.92, 'flw0': 1.21, 'time': 30.27, 'compass': 62.4, 'pitch': -1.53, 'roll': 5.62}
{'lipoC2': 7.23, 'temp': 29.0, 'lipoC3S3': 11.07, 'state': 'normal', 'rot1': 269, 'rot0': 241, 'rot3': 35, 'rot2': 45, 'depth': 0.928, 'yaw': -4.12, 'datetime': '2018-11-26 13:20:30.782684', 'mgs': 0, 'flw2': 2.54, 'flw1': 3.63, 'flw0': 1.22, 'time': 30.49, 'compass': 62.48, 'pitch': -1.47, 'roll': 5.06}
{'lipoC2': 7.1, 'temp': 29.19, 'lipoC3S3': 11.39, 'state': 'normal', 'rot1': 271, 'rot0': 243, 'rot3': 35, 'rot2': 45, 'depth': 1.538, 'yaw': -3.64, 'datetime': '2018-11-26 13:20:30.995949', 'mgs': 0, 'flw2': 2.56, 'flw1': 0.0, 'flw0': 1.26, 'time': 30.69, 'compass': 62.96, 'pitch': -1.39, 'roll': 4.89}
{'lipoC2': 7.07, 'temp': 29.06, 'lipoC3S3': 11.27, 'state': 'normal', 'rot1': 273, 'rot0': 244, 'rot3': 35, 'rot2': 45, 'depth': 1.538, 'yaw': -2.86, 'datetime': '2018-11-26 13:20:31.205149', 'mgs': 0, 'flw2': 2.55, 'flw1': 0.0, 'flw0': 1.22, 'time': 30.91, 'compass': 63.74, 'pitch': -1.2, 'roll': 4.38}
{'lipoC2': 7.13, 'temp': 29.0, 'lipoC3S3': 11.17, 'state': 'normal', 'rot1': 275, 'rot0': 246, 'rot3': 35, 'rot2': 45, 'depth': 1.462, 'yaw': -2.06, 'datetime': '2018-11-26 13:20:31.411038', 'mgs': 0, 'flw2': 2.48, 'flw1': 0.0, 'flw0': 1.2, 'time': 31.12, 'compass': 64.54, 'pitch': -0.92, 'roll': 3.65}
{'lipoC2': 7.06, 'temp': 29.06, 'lipoC3S3': 11.18, 'state': 'normal', 'rot1': 278, 'rot0': 248, 'rot3': 35, 'rot2': 45, 'depth': 2.454, 'yaw': -1.09, 'datetime': '2018-11-26 13:20:31.622952', 'mgs': 0, 'flw2': 2.81, 'flw1': 0.0, 'flw0': 1.17, 'time': 31.33, 'compass': 65.51, 'pitch': -0.61, 'roll': 2.7}
{'lipoC2': 7.06, 'temp': 29.0, 'lipoC3S3': 11.15, 'state': 'normal', 'rot1': 280, 'rot0': 250, 'rot3': 35, 'rot2': 45, 'depth': 1.614, 'yaw': 0.39, 'datetime': '2018-11-26 13:20:31.835018', 'mgs': 0, 'flw2': 2.54, 'flw1': 0.0, 'flw0': 1.21, 'time': 31.54, 'compass': 66.99, 'pitch': -0.23, 'roll': 2.03}
{'lipoC2': 7.06, 'temp': 29.06, 'lipoC3S3': 11.07, 'state': 'normal', 'rot1': 283, 'rot0': 252, 'rot3': 35, 'rot2': 45, 'depth': 1.462, 'yaw': 1.63, 'datetime': '2018-11-26 13:20:32.046339', 'mgs': 0, 'flw2': 2.51, 'flw1': 0.0, 'flw0': 2.67, 'time': 31.75, 'compass': 68.23, 'pitch': 0.23, 'roll': 2.04}
{'lipoC2': 7.06, 'temp': 29.06, 'lipoC3S3': 11.44, 'state': 'normal', 'rot1': 285, 'rot0': 254, 'rot3': 35, 'rot2': 45, 'depth': 1.538, 'yaw': 1.71, 'datetime': '2018-11-26 13:20:32.254904', 'mgs': 0, 'flw2': 1.05, 'flw1': 0.0, 'flw0': 2.7, 'time': 31.96, 'compass': 68.31, 'pitch': 0.47, 'roll': 2.48}
{'lipoC2': 7.13, 'temp': 29.0, 'lipoC3S3': 11.17, 'state': 'normal', 'rot1': 286, 'rot0': 256, 'rot3': 35, 'rot2': 45, 'depth': 1.233, 'yaw': 0.36, 'datetime': '2018-11-26 13:20:32.466464', 'mgs': 0, 'flw2': 1.15, 'flw1': 0.0, 'flw0': 2.66, 'time': 32.17, 'compass': 66.96, 'pitch': 0.21, 'roll': 2.44}
{'lipoC2': 7.06, 'temp': 29.06, 'lipoC3S3': 11.17, 'state': 'normal', 'rot1': 289, 'rot0': 258, 'rot3': 35, 'rot2': 45, 'depth': 2.759, 'yaw': -1.99, 'datetime': '2018-11-26 13:20:32.672549', 'mgs': 0, 'flw2': 2.71, 'flw1': 0.0, 'flw0': 2.6, 'time': 32.38, 'compass': 64.61, 'pitch': -0.48, 'roll': 2.32}
{'lipoC2': 7.06, 'temp': 29.06, 'lipoC3S3': 11.06, 'state': 'normal', 'rot1': 291, 'rot0': 261, 'rot3': 35, 'rot2': 46, 'depth': 1.767, 'yaw': -4.16, 'datetime': '2018-11-26 13:20:32.885397', 'mgs': 0, 'flw2': 2.48, 'flw1': 4.42, 'flw0': 1.14, 'time': 32.59, 'compass': 62.44, 'pitch': -1.19, 'roll': 3.07}
{'lipoC2': 7.07, 'temp': 29.0, 'lipoC3S3': 11.17, 'state': 'normal', 'rot1': 293, 'rot0': 262, 'rot3': 36, 'rot2': 47, 'depth': 1.538, 'yaw': -5.51, 'datetime': '2018-11-26 13:20:33.096625', 'mgs': 0, 'flw2': 2.69, 'flw1': 0.0, 'flw0': 1.2, 'time': 32.8, 'compass': 61.1, 'pitch': -1.86, 'roll': 4.12}
{'lipoC2': 7.06, 'temp': 29.06, 'lipoC3S3': 11.17, 'state': 'normal', 'rot1': 296, 'rot0': 264, 'rot3': 36, 'rot2': 47, 'depth': 1.92, 'yaw': -5.95, 'datetime': '2018-11-26 13:20:33.308809', 'mgs': 0, 'flw2': 2.54, 'flw1': 0.0, 'flw0': 1.16, 'time': 33.01, 'compass': 60.65, 'pitch': -1.99, 'roll': 4.96}
{'lipoC2': 7.06, 'temp': 29.06, 'lipoC3S3': 11.15, 'state': 'normal', 'rot1': 298, 'rot0': 266, 'rot3': 37, 'rot2': 48, 'depth': 2.835, 'yaw': -5.79, 'datetime': '2018-11-26 13:20:33.518656', 'mgs': 0, 'flw2': 2.73, 'flw1': 3.19, 'flw0': 1.16, 'time': 33.22, 'compass': 60.81, 'pitch': -2.12, 'roll': 4.96}
{'lipoC2': 7.07, 'temp': 29.06, 'lipoC3S3': 11.51, 'state': 'normal', 'rot1': 300, 'rot0': 267, 'rot3': 37, 'rot2': 48, 'depth': 1.614, 'yaw': -5.26, 'datetime': '2018-11-26 13:20:33.727737', 'mgs': 0, 'flw2': 2.56, 'flw1': 0.0, 'flw0': 1.17, 'time': 33.43, 'compass': 61.34, 'pitch': -2.53, 'roll': 4.84}
{'lipoC2': 7.09, 'temp': 29.06, 'lipoC3S3': 11.15, 'state': 'normal', 'rot1': 302, 'rot0': 269, 'rot3': 37, 'rot2': 48, 'depth': 2.377, 'yaw': -4.44, 'datetime': '2018-11-26 13:20:33.934924', 'mgs': 0, 'flw2': 2.54, 'flw1': 0.0, 'flw0': 1.18, 'time': 33.64, 'compass': 62.16, 'pitch': -2.9, 'roll': 4.3}
{'lipoC2': 7.07, 'temp': 29.06, 'lipoC3S3': 11.22, 'state': 'normal', 'rot1': 305, 'rot0': 271, 'rot3': 38, 'rot2': 49, 'depth': 1.538, 'yaw': -2.92, 'datetime': '2018-11-26 13:20:34.145360', 'mgs': 0, 'flw2': 2.53, 'flw1': 3.69, 'flw0': 1.17, 'time': 33.85, 'compass': 63.68, 'pitch': -2.92, 'roll': 3.69}
{'lipoC2': 7.07, 'temp': 28.94, 'lipoC3S3': 11.18, 'state': 'normal', 'rot1': 307, 'rot0': 272, 'rot3': 39, 'rot2': 50, 'depth': 2.606, 'yaw': -1.03, 'datetime': '2018-11-26 13:20:34.356335', 'mgs': 0, 'flw2': 2.69, 'flw1': 3.16, 'flw0': 1.2, 'time': 34.07, 'compass': 65.57, 'pitch': -2.74, 'roll': 3.68}
{'lipoC2': 7.06, 'temp': 29.06, 'lipoC3S3': 11.17, 'state': 'normal', 'rot1': 309, 'rot0': 274, 'rot3': 39, 'rot2': 51, 'depth': 1.92, 'yaw': 1.0, 'datetime': '2018-11-26 13:20:34.572098', 'mgs': 0, 'flw2': 2.62, 'flw1': 3.52, 'flw0': 1.28, 'time': 34.28, 'compass': 67.6, 'pitch': -2.43, 'roll': 4.02}
{'lipoC2': 7.22, 'temp': 29.06, 'lipoC3S3': 11.18, 'state': 'normal', 'rot1': 311, 'rot0': 275, 'rot3': 40, 'rot2': 52, 'depth': 1.233, 'yaw': 3.26, 'datetime': '2018-11-26 13:20:34.786319', 'mgs': 0, 'flw2': 1.09, 'flw1': 3.37, 'flw0': 2.93, 'time': 34.49, 'compass': 69.87, 'pitch': -2.18, 'roll': 4.31}
{'lipoC2': 7.06, 'temp': 29.06, 'lipoC3S3': 11.17, 'state': 'normal', 'rot1': 313, 'rot0': 278, 'rot3': 41, 'rot2': 53, 'depth': 1.309, 'yaw': 3.93, 'datetime': '2018-11-26 13:20:34.998567', 'mgs': 0, 'flw2': 1.17, 'flw1': 0.0, 'flw0': 2.7, 'time': 34.7, 'compass': 70.53, 'pitch': -1.98, 'roll': 4.61}
{'lipoC2': 7.06, 'temp': 29.0, 'lipoC3S3': 11.18, 'state': 'normal', 'rot1': 315, 'rot0': 281, 'rot3': 41, 'rot2': 53, 'depth': 1.92, 'yaw': 0.95, 'datetime': '2018-11-26 13:20:35.303867', 'mgs': 0, 'flw2': 1.22, 'flw1': 0.06, 'flw0': 2.6, 'time': 35.01, 'compass': 67.55, 'pitch': -1.95, 'roll': 3.75}
{'lipoC2': 7.07, 'temp': 29.0, 'lipoC3S3': 11.19, 'state': 'normal', 'rot1': 318, 'rot0': 283, 'rot3': 41, 'rot2': 53, 'depth': 2.301, 'yaw': -2.33, 'datetime': '2018-11-26 13:20:35.512684', 'mgs': 0, 'flw2': 2.71, 'flw1': 0.0, 'flw0': 2.59, 'time': 35.22, 'compass': 64.27, 'pitch': -1.65, 'roll': 3.46}
{'lipoC2': 7.07, 'temp': 29.0, 'lipoC3S3': 11.18, 'state': 'normal', 'rot1': 320, 'rot0': 285, 'rot3': 41, 'rot2': 54, 'depth': 1.843, 'yaw': -5.34, 'datetime': '2018-11-26 13:20:35.724938', 'mgs': 0, 'flw2': 2.66, 'flw1': 3.75, 'flw0': 1.25, 'time': 35.44, 'compass': 61.26, 'pitch': -1.52, 'roll': 3.86}
{'lipoC2': 7.05, 'temp': 29.06, 'lipoC3S3': 11.14, 'state': 'normal', 'rot1': 322, 'rot0': 287, 'rot3': 42, 'rot2': 55, 'depth': 1.462, 'yaw': -7.36, 'datetime': '2018-11-26 13:20:35.938420', 'mgs': 0, 'flw2': 2.59, 'flw1': 0.09, 'flw0': 1.17, 'time': 35.65, 'compass': 59.24, 'pitch': -1.86, 'roll': 4.06}
{'lipoC2': 7.06, 'temp': 29.06, 'lipoC3S3': 11.44, 'state': 'normal', 'rot1': 324, 'rot0': 289, 'rot3': 42, 'rot2': 55, 'depth': 1.462, 'yaw': -8.46, 'datetime': '2018-11-26 13:20:36.149525', 'mgs': 0, 'flw2': 2.56, 'flw1': 0.0, 'flw0': 1.28, 'time': 35.86, 'compass': 58.14, 'pitch': -2.11, 'roll': 3.73}
{'lipoC2': 7.06, 'temp': 29.06, 'lipoC3S3': 11.17, 'state': 'normal', 'rot1': 327, 'rot0': 290, 'rot3': 42, 'rot2': 55, 'depth': 1.462, 'yaw': -9.06, 'datetime': '2018-11-26 13:20:36.359241', 'mgs': 0, 'flw2': 2.53, 'flw1': 0.0, 'flw0': 1.25, 'time': 36.07, 'compass': 57.54, 'pitch': -2.05, 'roll': 3.2}
{'lipoC2': 7.09, 'temp': 29.06, 'lipoC3S3': 11.15, 'state': 'normal', 'rot1': 329, 'rot0': 292, 'rot3': 42, 'rot2': 55, 'depth': 3.293, 'yaw': -9.6, 'datetime': '2018-11-26 13:20:36.571260', 'mgs': 0, 'flw2': 2.7, 'flw1': 4.07, 'flw0': 1.2, 'time': 36.28, 'compass': 57.0, 'pitch': -1.91, 'roll': 2.62}
{'lipoC2': 7.12, 'temp': 29.0, 'lipoC3S3': 11.17, 'state': 'normal', 'rot1': 331, 'rot0': 293, 'rot3': 43, 'rot2': 56, 'depth': 1.462, 'yaw': -10.15, 'datetime': '2018-11-26 13:20:36.781347', 'mgs': 0, 'flw2': 2.64, 'flw1': 3.52, 'flw0': 1.27, 'time': 36.49, 'compass': 56.45, 'pitch': -1.74, 'roll': 2.44}
{'lipoC2': 7.06, 'temp': 29.13, 'lipoC3S3': 11.17, 'state': 'normal', 'rot1': 334, 'rot0': 295, 'rot3': 43, 'rot2': 56, 'depth': 1.614, 'yaw': -10.87, 'datetime': '2018-11-26 13:20:36.994590', 'mgs': 0, 'flw2': 2.56, 'flw1': 0.0, 'flw0': 1.29, 'time': 36.7, 'compass': 55.73, 'pitch': -1.69, 'roll': 2.64}
{'lipoC2': 7.05, 'temp': 29.0, 'lipoC3S3': 11.18, 'state': 'normal', 'rot1': 336, 'rot0': 297, 'rot3': 43, 'rot2': 56, 'depth': 1.614, 'yaw': -11.46, 'datetime': '2018-11-26 13:20:37.204606', 'mgs': 0, 'flw2': 2.59, 'flw1': 0.0, 'flw0': 1.35, 'time': 36.91, 'compass': 55.14, 'pitch': -1.19, 'roll': 2.9}
{'lipoC2': 7.12, 'temp': 29.0, 'lipoC3S3': 11.18, 'state': 'normal', 'rot1': 338, 'rot0': 298, 'rot3': 43, 'rot2': 56, 'depth': 2.072, 'yaw': -12.13, 'datetime': '2018-11-26 13:20:37.412092', 'mgs': 0, 'flw2': 2.6, 'flw1': 0.0, 'flw0': 1.27, 'time': 37.12, 'compass': 54.47, 'pitch': -0.79, 'roll': 3.06}
{'lipoC2': 7.06, 'temp': 28.88, 'lipoC3S3': 11.17, 'state': 'normal', 'rot1': 341, 'rot0': 300, 'rot3': 44, 'rot2': 57, 'depth': 1.767, 'yaw': -12.78, 'datetime': '2018-11-26 13:20:37.622900', 'mgs': 0, 'flw2': 2.49, 'flw1': 3.49, 'flw0': 1.29, 'time': 37.33, 'compass': 53.83, 'pitch': -0.57, 'roll': 3.15}
{'lipoC2': 7.21, 'temp': 28.88, 'lipoC3S3': 11.26, 'state': 'normal', 'rot1': 343, 'rot0': 301, 'rot3': 44, 'rot2': 58, 'depth': 1.691, 'yaw': -13.38, 'datetime': '2018-11-26 13:20:37.834325', 'mgs': 0, 'flw2': 2.62, 'flw1': 0.0, 'flw0': 1.25, 'time': 37.54, 'compass': 53.23, 'pitch': -0.54, 'roll': 3.62}
{'lipoC2': 7.06, 'temp': 29.31, 'lipoC3S3': 11.11, 'state': 'normal', 'rot1': 346, 'rot0': 303, 'rot3': 44, 'rot2': 58, 'depth': 1.691, 'yaw': -13.88, 'datetime': '2018-11-26 13:20:38.049047', 'mgs': 0, 'flw2': 2.58, 'flw1': 0.0, 'flw0': 1.17, 'time': 37.76, 'compass': 52.72, 'pitch': -0.53, 'roll': 3.69}
{'lipoC2': 7.06, 'temp': 29.06, 'lipoC3S3': 11.1, 'state': 'normal', 'rot1': 348, 'rot0': 305, 'rot3': 44, 'rot2': 58, 'depth': 1.691, 'yaw': -14.24, 'datetime': '2018-11-26 13:20:38.258460', 'mgs': 0, 'flw2': 2.53, 'flw1': 0.12, 'flw0': 1.17, 'time': 37.97, 'compass': 52.36, 'pitch': -0.46, 'roll': 3.59}
{'lipoC2': 7.06, 'temp': 29.06, 'lipoC3S3': 11.17, 'state': 'normal', 'rot1': 350, 'rot0': 306, 'rot3': 44, 'rot2': 58, 'depth': 1.767, 'yaw': -14.44, 'datetime': '2018-11-26 13:20:38.472806', 'mgs': 0, 'flw2': 2.67, 'flw1': 0.0, 'flw0': 1.29, 'time': 38.18, 'compass': 52.16, 'pitch': -0.41, 'roll': 3.51}
{'lipoC2': 7.22, 'temp': 29.63, 'lipoC3S3': 11.18, 'state': 'normal', 'rot1': 352, 'rot0': 308, 'rot3': 44, 'rot2': 58, 'depth': 1.233, 'yaw': -14.69, 'datetime': '2018-11-26 13:20:38.678164', 'mgs': 0, 'flw2': 2.54, 'flw1': 0.0, 'flw0': 1.27, 'time': 38.39, 'compass': 51.91, 'pitch': -0.35, 'roll': 3.12}
{'lipoC2': 7.05, 'temp': 29.06, 'lipoC3S3': 11.18, 'state': 'normal', 'rot1': 355, 'rot0': 309, 'rot3': 44, 'rot2': 58, 'depth': 2.759, 'yaw': -15.1, 'datetime': '2018-11-26 13:20:38.888742', 'mgs': 0, 'flw2': 2.66, 'flw1': 0.0, 'flw0': 1.37, 'time': 38.6, 'compass': 51.51, 'pitch': -0.11, 'roll': 2.66}
{'lipoC2': 7.07, 'temp': 28.94, 'lipoC3S3': 11.11, 'state': 'normal', 'rot1': 357, 'rot0': 311, 'rot3': 44, 'rot2': 58, 'depth': 2.53, 'yaw': -15.63, 'datetime': '2018-11-26 13:20:39.100049', 'mgs': 0, 'flw2': 2.53, 'flw1': 0.0, 'flw0': 1.25, 'time': 38.81, 'compass': 50.97, 'pitch': 0.21, 'roll': 2.35}
{'lipoC2': 7.08, 'temp': 29.13, 'lipoC3S3': 11.39, 'state': 'normal', 'rot1': 360, 'rot0': 313, 'rot3': 44, 'rot2': 58, 'depth': 1.614, 'yaw': -15.96, 'datetime': '2018-11-26 13:20:39.310294', 'mgs': 0, 'flw2': 2.56, 'flw1': 0.0, 'flw0': 1.21, 'time': 39.02, 'compass': 50.64, 'pitch': 0.32, 'roll': 1.8}
{'lipoC2': 7.06, 'temp': 29.13, 'lipoC3S3': 11.17, 'state': 'normal', 'rot1': 362, 'rot0': 314, 'rot3': 44, 'rot2': 58, 'depth': 1.996, 'yaw': -15.89, 'datetime': '2018-11-26 13:20:39.524070', 'mgs': 0, 'flw2': 2.64, 'flw1': 0.0, 'flw0': 1.21, 'time': 39.23, 'compass': 50.72, 'pitch': 0.17, 'roll': 1.28}
{'lipoC2': 7.05, 'temp': 29.06, 'lipoC3S3': 11.15, 'state': 'normal', 'rot1': 364, 'rot0': 316, 'rot3': 44, 'rot2': 58, 'depth': 2.148, 'yaw': -15.46, 'datetime': '2018-11-26 13:20:39.730960', 'mgs': 0, 'flw2': 2.59, 'flw1': 5.19, 'flw0': 1.23, 'time': 39.44, 'compass': 51.14, 'pitch': 0.09, 'roll': 0.96}
{'lipoC2': 7.07, 'temp': 29.13, 'lipoC3S3': 11.1, 'state': 'normal', 'rot1': 366, 'rot0': 317, 'rot3': 45, 'rot2': 59, 'depth': 2.53, 'yaw': -14.8, 'datetime': '2018-11-26 13:20:39.941290', 'mgs': 0, 'flw2': 2.45, 'flw1': 3.9, 'flw0': 1.16, 'time': 39.65, 'compass': 51.8, 'pitch': -0.21, 'roll': 1.29}
{'lipoC2': 7.06, 'temp': 29.25, 'lipoC3S3': 11.15, 'state': 'normal', 'rot1': 369, 'rot0': 319, 'rot3': 46, 'rot2': 60, 'depth': 2.454, 'yaw': -13.9, 'datetime': '2018-11-26 13:20:40.151297', 'mgs': 0, 'flw2': 2.71, 'flw1': 3.72, 'flw0': 1.0, 'time': 39.87, 'compass': 52.7, 'pitch': -0.63, 'roll': 2.22}
{'lipoC2': 7.22, 'temp': 29.0, 'lipoC3S3': 11.17, 'state': 'normal', 'rot1': 371, 'rot0': 321, 'rot3': 47, 'rot2': 61, 'depth': 1.538, 'yaw': -12.76, 'datetime': '2018-11-26 13:20:40.361581', 'mgs': 0, 'flw2': 2.6, 'flw1': 4.04, 'flw0': 1.23, 'time': 40.08, 'compass': 53.84, 'pitch': -1.19, 'roll': 3.43}
{'lipoC2': 7.22, 'temp': 29.13, 'lipoC3S3': 11.18, 'state': 'normal', 'rot1': 373, 'rot0': 323, 'rot3': 48, 'rot2': 62, 'depth': 1.538, 'yaw': -11.13, 'datetime': '2018-11-26 13:20:40.572083', 'mgs': 0, 'flw2': 2.62, 'flw1': 4.13, 'flw0': 1.22, 'time': 40.29, 'compass': 55.48, 'pitch': -1.89, 'roll': 4.76}
{'lipoC2': 7.06, 'temp': 29.06, 'lipoC3S3': 11.18, 'state': 'normal', 'rot1': 375, 'rot0': 324, 'rot3': 48, 'rot2': 62, 'depth': 1.462, 'yaw': -9.16, 'datetime': '2018-11-26 13:20:40.781411', 'mgs': 0, 'flw2': 2.55, 'flw1': 0.0, 'flw0': 1.23, 'time': 40.5, 'compass': 57.44, 'pitch': -2.33, 'roll': 5.7}
{'lipoC2': 7.05, 'temp': 29.06, 'lipoC3S3': 11.1, 'state': 'normal', 'rot1': 378, 'rot0': 326, 'rot3': 48, 'rot2': 62, 'depth': 1.462, 'yaw': -6.74, 'datetime': '2018-11-26 13:20:40.998326', 'mgs': 0, 'flw2': 2.64, 'flw1': 0.18, 'flw0': 1.03, 'time': 40.71, 'compass': 59.87, 'pitch': -2.19, 'roll': 5.82}
{'lipoC2': 7.06, 'temp': 29.06, 'lipoC3S3': 11.27, 'state': 'normal', 'rot1': 380, 'rot0': 328, 'rot3': 48, 'rot2': 62, 'depth': 1.691, 'yaw': -3.79, 'datetime': '2018-11-26 13:20:41.207110', 'mgs': 0, 'flw2': 2.67, 'flw1': 0.0, 'flw0': 1.18, 'time': 40.92, 'compass': 62.81, 'pitch': -1.68, 'roll': 5.31}
{'lipoC2': 7.11, 'temp': 29.06, 'lipoC3S3': 11.29, 'state': 'normal', 'rot1': 382, 'rot0': 329, 'rot3': 48, 'rot2': 62, 'depth': 1.309, 'yaw': -0.66, 'datetime': '2018-11-26 13:20:41.413916', 'mgs': 0, 'flw2': 2.58, 'flw1': 0.0, 'flw0': 1.28, 'time': 41.13, 'compass': 65.94, 'pitch': -0.94, 'roll': 4.5}
{'lipoC2': 7.06, 'temp': 29.0, 'lipoC3S3': 11.18, 'state': 'normal', 'rot1': 385, 'rot0': 331, 'rot3': 48, 'rot2': 62, 'depth': 1.462, 'yaw': 2.74, 'datetime': '2018-11-26 13:20:41.624609', 'mgs': 0, 'flw2': 2.58, 'flw1': 0.0, 'flw0': 1.26, 'time': 41.34, 'compass': 69.34, 'pitch': -0.01, 'roll': 3.61}
{'lipoC2': 7.13, 'temp': 29.13, 'lipoC3S3': 11.18, 'state': 'normal', 'rot1': 387, 'rot0': 333, 'rot3': 48, 'rot2': 62, 'depth': 1.004, 'yaw': 5.3, 'datetime': '2018-11-26 13:20:41.836009', 'mgs': 0, 'flw2': 1.16, 'flw1': 0.0, 'flw0': 2.75, 'time': 41.55, 'compass': 71.91, 'pitch': 0.85, 'roll': 2.78}
{'lipoC2': 7.06, 'temp': 29.06, 'lipoC3S3': 11.17, 'state': 'normal', 'rot1': 388, 'rot0': 335, 'rot3': 48, 'rot2': 62, 'depth': 1.309, 'yaw': 5.32, 'datetime': '2018-11-26 13:20:42.047205', 'mgs': 0, 'flw2': 1.18, 'flw1': 0.0, 'flw0': 2.69, 'time': 41.76, 'compass': 71.92, 'pitch': 1.12, 'roll': 1.95}
{'lipoC2': 7.06, 'temp': 29.06, 'lipoC3S3': 11.14, 'state': 'normal', 'rot1': 390, 'rot0': 337, 'rot3': 48, 'rot2': 62, 'depth': 1.309, 'yaw': 3.22, 'datetime': '2018-11-26 13:20:42.256847', 'mgs': 0, 'flw2': 1.16, 'flw1': 0.0, 'flw0': 2.76, 'time': 41.97, 'compass': 69.82, 'pitch': 0.71, 'roll': 1.2}
{'lipoC2': 7.06, 'temp': 29.13, 'lipoC3S3': 11.13, 'state': 'normal', 'rot1': 392, 'rot0': 340, 'rot3': 48, 'rot2': 62, 'depth': 1.691, 'yaw': -0.23, 'datetime': '2018-11-26 13:20:42.469412', 'mgs': 0, 'flw2': 1.12, 'flw1': 0.0, 'flw0': 2.71, 'time': 42.18, 'compass': 66.37, 'pitch': 0.08, 'roll': 0.84}
{'lipoC2': 7.08, 'temp': 29.13, 'lipoC3S3': 11.09, 'state': 'normal', 'rot1': 393, 'rot0': 342, 'rot3': 48, 'rot2': 62, 'depth': 2.072, 'yaw': -4.53, 'datetime': '2018-11-26 13:20:42.675692', 'mgs': 0, 'flw2': 2.7, 'flw1': 0.0, 'flw0': 1.17, 'time': 42.39, 'compass': 62.07, 'pitch': -0.67, 'roll': 0.72}
{'lipoC2': 7.07, 'temp': 29.06, 'lipoC3S3': 11.27, 'state': 'normal', 'rot1': 396, 'rot0': 343, 'rot3': 48, 'rot2': 62, 'depth': 1.538, 'yaw': -7.46, 'datetime': '2018-11-26 13:20:42.888414', 'mgs': 0, 'flw2': 2.5, 'flw1': 0.0, 'flw0': 1.16, 'time': 42.6, 'compass': 59.14, 'pitch': -0.89, 'roll': 0.76}
{'lipoC2': 7.07, 'temp': 29.13, 'lipoC3S3': 11.17, 'state': 'normal', 'rot1': 398, 'rot0': 345, 'rot3': 48, 'rot2': 62, 'depth': 1.996, 'yaw': -8.69, 'datetime': '2018-11-26 13:20:43.098159', 'mgs': 0, 'flw2': 2.59, 'flw1': 0.0, 'flw0': 1.17, 'time': 42.81, 'compass': 57.91, 'pitch': -0.8, 'roll': 0.88}
{'lipoC2': 7.06, 'temp': 29.13, 'lipoC3S3': 11.17, 'state': 'normal', 'rot1': 400, 'rot0': 347, 'rot3': 49, 'rot2': 63, 'depth': 1.767, 'yaw': -9.05, 'datetime': '2018-11-26 13:20:43.313220', 'mgs': 0, 'flw2': 2.49, 'flw1': 3.52, 'flw0': 1.22, 'time': 43.02, 'compass': 57.56, 'pitch': -0.61, 'roll': 0.84}
{'lipoC2': 7.2, 'temp': 29.06, 'lipoC3S3': 11.18, 'state': 'normal', 'rot1': 403, 'rot0': 348, 'rot3': 49, 'rot2': 64, 'depth': 1.767, 'yaw': -9.14, 'datetime': '2018-11-26 13:20:43.529867', 'mgs': 0, 'flw2': 2.55, 'flw1': 0.0, 'flw0': 1.22, 'time': 43.24, 'compass': 57.46, 'pitch': -0.58, 'roll': 1.24}
{'lipoC2': 7.08, 'temp': 29.0, 'lipoC3S3': 11.19, 'state': 'normal', 'rot1': 406, 'rot0': 351, 'rot3': 49, 'rot2': 64, 'depth': 1.691, 'yaw': -9.34, 'datetime': '2018-11-26 13:20:43.833140', 'mgs': 0, 'flw2': 2.77, 'flw1': 0.0, 'flw0': 1.27, 'time': 43.55, 'compass': 57.26, 'pitch': -0.53, 'roll': 1.72}
{'lipoC2': 7.08, 'temp': 28.75, 'lipoC3S3': 11.39, 'state': 'normal', 'rot1': 408, 'rot0': 352, 'rot3': 49, 'rot2': 64, 'depth': 1.767, 'yaw': -9.66, 'datetime': '2018-11-26 13:20:44.044654', 'mgs': 0, 'flw2': 2.55, 'flw1': 0.0, 'flw0': 1.25, 'time': 43.76, 'compass': 56.95, 'pitch': -0.46, 'roll': 1.84}
{'lipoC2': 7.06, 'temp': 29.13, 'lipoC3S3': 11.14, 'state': 'normal', 'rot1': 411, 'rot0': 354, 'rot3': 49, 'rot2': 64, 'depth': 1.92, 'yaw': -10.3, 'datetime': '2018-11-26 13:20:44.255996', 'mgs': 0, 'flw2': 2.64, 'flw1': 0.0, 'flw0': 1.16, 'time': 43.97, 'compass': 56.3, 'pitch': -0.18, 'roll': 2.02}
{'lipoC2': 7.07, 'temp': 28.75, 'lipoC3S3': 11.18, 'state': 'normal', 'rot1': 413, 'rot0': 356, 'rot3': 49, 'rot2': 64, 'depth': 2.225, 'yaw': -11.11, 'datetime': '2018-11-26 13:20:44.465951', 'mgs': 0, 'flw2': 2.59, 'flw1': 0.0, 'flw0': 1.17, 'time': 44.18, 'compass': 55.49, 'pitch': 0.09, 'roll': 2.14}
{'lipoC2': 7.1, 'temp': 29.25, 'lipoC3S3': 11.18, 'state': 'normal', 'rot1': 415, 'rot0': 357, 'rot3': 49, 'rot2': 64, 'depth': 2.682, 'yaw': -12.07, 'datetime': '2018-11-26 13:20:44.676341', 'mgs': 0, 'flw2': 2.6, 'flw1': 0.0, 'flw0': 1.22, 'time': 44.4, 'compass': 54.54, 'pitch': 0.16, 'roll': 1.93}
{'lipoC2': 7.06, 'temp': 29.25, 'lipoC3S3': 11.14, 'state': 'normal', 'rot1': 417, 'rot0': 359, 'rot3': 50, 'rot2': 65, 'depth': 3.064, 'yaw': -13.11, 'datetime': '2018-11-26 13:20:44.886766', 'mgs': 0, 'flw2': 2.72, 'flw1': 4.01, 'flw0': 1.18, 'time': 44.6, 'compass': 53.49, 'pitch': 0.07, 'roll': 1.63}
{'lipoC2': 7.12, 'temp': 29.25, 'lipoC3S3': 11.23, 'state': 'normal', 'rot1': 420, 'rot0': 361, 'rot3': 51, 'rot2': 66, 'depth': 1.843, 'yaw': -14.49, 'datetime': '2018-11-26 13:20:45.098044', 'mgs': 0, 'flw2': 2.56, 'flw1': 4.6, 'flw0': 1.23, 'time': 44.82, 'compass': 52.11, 'pitch': -0.72, 'roll': 1.66}
{'lipoC2': 7.08, 'temp': 29.06, 'lipoC3S3': 11.1, 'state': 'normal', 'rot1': 422, 'rot0': 362, 'rot3': 52, 'rot2': 67, 'depth': 1.767, 'yaw': -16.54, 'datetime': '2018-11-26 13:20:45.309083', 'mgs': 0, 'flw2': 2.48, 'flw1': 4.25, 'flw0': 1.34, 'time': 45.03, 'compass': 50.06, 'pitch': -2.12, 'roll': 1.87}
{'lipoC2': 7.06, 'temp': 28.69, 'lipoC3S3': 11.18, 'state': 'normal', 'rot1': 424, 'rot0': 364, 'rot3': 52, 'rot2': 67, 'depth': 1.767, 'yaw': -18.95, 'datetime': '2018-11-26 13:20:45.519736', 'mgs': 0, 'flw2': 2.77, 'flw1': 0.0, 'flw0': 1.27, 'time': 45.24, 'compass': 47.65, 'pitch': -3.71, 'roll': 1.85}
