{'lipoC2': 0.09, 'temp': 0.0, 'lipoC3S3': 12.55, 'state': 'normal', 'rot1': 0, 'rot0': 0, 'rot3': 0, 'rot2': 0, 'depth': 1.843, 'yaw': 0.0, 'datetime': '2018-12-18 16:58:10.451523', 'mgs': 0, 'flw2': 0.0, 'flw1': 0.44, 'flw0': 0.0, 'time': 1.26, 'compass': 16.37, 'pitch': 1.02, 'roll': 1.03}
{'lipoC2': 0.0, 'temp': 0.0, 'lipoC3S3': 12.71, 'state': 'normal', 'rot1': 0, 'rot0': 0, 'rot3': 0, 'rot2': 0, 'depth': 1.614, 'yaw': 0.0, 'datetime': '2018-12-18 16:58:10.661756', 'mgs': 0, 'flw2': 0.11, 'flw1': 0.35, 'flw0': 0.0, 'time': 1.47, 'compass': 16.37, 'pitch': 1.02, 'roll': 1.03}
{'lipoC2': 0.0, 'temp': 0.0, 'lipoC3S3': 12.67, 'state': 'normal', 'rot1': 0, 'rot0': 0, 'rot3': 0, 'rot2': 0, 'depth': 1.691, 'yaw': 0.0, 'datetime': '2018-12-18 16:58:10.871177', 'mgs': 0, 'flw2': 0.18, 'flw1': 0.03, 'flw0': 0.0, 'time': 1.68, 'compass': 16.37, 'pitch': 1.02, 'roll': 1.03}
{'lipoC2': 0.0, 'temp': 0.0, 'lipoC3S3': 12.31, 'state': 'normal', 'rot1': 0, 'rot0': 0, 'rot3': 0, 'rot2': 0, 'depth': -1.056, 'yaw': 0.17, 'datetime': '2018-12-18 16:58:11.080158', 'mgs': 0, 'flw2': 0.12, 'flw1': 0.0, 'flw0': 0.2, 'time': 1.88, 'compass': 16.54, 'pitch': 1.0, 'roll': 1.03}
{'lipoC2': 0.15, 'temp': 0.0, 'lipoC3S3': 12.41, 'state': 'normal', 'rot1': 0, 'rot0': 2, 'rot3': 0, 'rot2': 0, 'depth': -0.751, 'yaw': 0.57, 'datetime': '2018-12-18 16:58:11.283944', 'mgs': 0, 'flw2': 2.64, 'flw1': 0.18, 'flw0': 3.33, 'time': 2.09, 'compass': 16.94, 'pitch': 1.21, 'roll': 0.93}
{'lipoC2': 0.18, 'temp': 0.0, 'lipoC3S3': 12.41, 'state': 'normal', 'rot1': 4, 'rot0': 15, 'rot3': 0, 'rot2': 0, 'depth': -1.056, 'yaw': 3.26, 'datetime': '2018-12-18 16:58:11.492105', 'mgs': 0, 'flw2': 2.0, 'flw1': 0.18, 'flw0': 1.73, 'time': 2.3, 'compass': 19.63, 'pitch': 1.76, 'roll': 1.29}
{'lipoC2': 0.06, 'temp': 0.0, 'lipoC3S3': 12.58, 'state': 'normal', 'rot1': 6, 'rot0': 27, 'rot3': 0, 'rot2': 0, 'depth': 1.92, 'yaw': 9.48, 'datetime': '2018-12-18 16:58:11.701273', 'mgs': 0, 'flw2': 1.82, 'flw1': 0.0, 'flw0': 1.62, 'time': 2.51, 'compass': 25.85, 'pitch': 2.31, 'roll': 1.97}
{'lipoC2': 0.11, 'temp': 0.0, 'lipoC3S3': 12.26, 'state': 'normal', 'rot1': 9, 'rot0': 37, 'rot3': 0, 'rot2': 0, 'depth': 0.623, 'yaw': 17.89, 'datetime': '2018-12-18 16:58:11.909213', 'mgs': 0, 'flw2': 1.39, 'flw1': 0.06, 'flw0': 0.95, 'time': 2.72, 'compass': 34.26, 'pitch': 2.3, 'roll': 2.27}
{'lipoC2': 0.0, 'temp': 0.0, 'lipoC3S3': 12.72, 'state': 'normal', 'rot1': 11, 'rot0': 39, 'rot3': 0, 'rot2': 0, 'depth': 1.767, 'yaw': 26.62, 'datetime': '2018-12-18 16:58:12.119218', 'mgs': 0, 'flw2': 0.81, 'flw1': 0.0, 'flw0': 1.25, 'time': 2.93, 'compass': 42.99, 'pitch': 2.05, 'roll': 1.94}
{'lipoC2': 0.03, 'temp': 0.0, 'lipoC3S3': 12.59, 'state': 'normal', 'rot1': 12, 'rot0': 40, 'rot3': 0, 'rot2': 0, 'depth': -1.361, 'yaw': 35.58, 'datetime': '2018-12-18 16:58:12.328527', 'mgs': 0, 'flw2': 0.76, 'flw1': 0.0, 'flw0': 0.57, 'time': 3.13, 'compass': 51.95, 'pitch': 2.01, 'roll': 1.14}
{'lipoC2': 0.0, 'temp': 0.0, 'lipoC3S3': 12.71, 'state': 'normal', 'rot1': 14, 'rot0': 41, 'rot3': 0, 'rot2': 0, 'depth': 1.767, 'yaw': 44.09, 'datetime': '2018-12-18 16:58:12.539269', 'mgs': 0, 'flw2': 0.62, 'flw1': 0.06, 'flw0': 0.1, 'time': 3.34, 'compass': 60.46, 'pitch': 1.71, 'roll': 0.25}
{'lipoC2': 0.04, 'temp': 0.0, 'lipoC3S3': 12.37, 'state': 'normal', 'rot1': 15, 'rot0': 42, 'rot3': 0, 'rot2': 0, 'depth': 1.385, 'yaw': 52.04, 'datetime': '2018-12-18 16:58:12.749388', 'mgs': 0, 'flw2': 0.05, 'flw1': 0.29, 'flw0': 0.51, 'time': 3.55, 'compass': 68.41, 'pitch': 1.12, 'roll': -0.06}
{'lipoC2': 0.0, 'temp': 0.0, 'lipoC3S3': 12.72, 'state': 'normal', 'rot1': 16, 'rot0': 43, 'rot3': 0, 'rot2': 0, 'depth': 1.767, 'yaw': 59.1, 'datetime': '2018-12-18 16:58:12.957686', 'mgs': 0, 'flw2': 0.0, 'flw1': 0.18, 'flw0': 0.57, 'time': 3.76, 'compass': 75.47, 'pitch': 0.76, 'roll': 0.13}
{'lipoC2': 0.0, 'temp': 0.0, 'lipoC3S3': 12.33, 'state': 'normal', 'rot1': 18, 'rot0': 44, 'rot3': 0, 'rot2': 0, 'depth': -0.674, 'yaw': 66.17, 'datetime': '2018-12-18 16:58:13.167324', 'mgs': 0, 'flw2': 0.54, 'flw1': 0.0, 'flw0': 0.02, 'time': 3.97, 'compass': 82.54, 'pitch': 0.58, 'roll': 0.42}
{'lipoC2': 0.0, 'temp': 0.0, 'lipoC3S3': 12.37, 'state': 'normal', 'rot1': 19, 'rot0': 45, 'rot3': 0, 'rot2': 0, 'depth': -0.293, 'yaw': 73.09, 'datetime': '2018-12-18 16:58:13.375357', 'mgs': 0, 'flw2': 0.33, 'flw1': 0.0, 'flw0': 0.59, 'time': 4.18, 'compass': 89.46, 'pitch': 0.51, 'roll': 0.49}
{'lipoC2': 0.16, 'temp': 0.0, 'lipoC3S3': 12.41, 'state': 'normal', 'rot1': 20, 'rot0': 45, 'rot3': 0, 'rot2': 0, 'depth': -1.285, 'yaw': 79.38, 'datetime': '2018-12-18 16:58:13.581421', 'mgs': 0, 'flw2': 0.0, 'flw1': 0.29, 'flw0': 0.0, 'time': 4.39, 'compass': 95.75, 'pitch': 0.24, 'roll': 0.32}
{'lipoC2': 0.0, 'temp': 0.0, 'lipoC3S3': 12.58, 'state': 'normal', 'rot1': 20, 'rot0': 46, 'rot3': 0, 'rot2': 0, 'depth': 1.08, 'yaw': 84.98, 'datetime': '2018-12-18 16:58:13.792849', 'mgs': 0, 'flw2': 0.44, 'flw1': 0.47, 'flw0': 0.4, 'time': 4.59, 'compass': 101.35, 'pitch': -0.18, 'roll': -0.09}
{'lipoC2': 0.0, 'temp': 0.0, 'lipoC3S3': 12.48, 'state': 'normal', 'rot1': 21, 'rot0': 47, 'rot3': 0, 'rot2': 0, 'depth': 1.08, 'yaw': 89.1, 'datetime': '2018-12-18 16:58:14.005988', 'mgs': 0, 'flw2': 0.44, 'flw1': 0.0, 'flw0': 0.46, 'time': 4.8, 'compass': 105.47, 'pitch': -0.34, 'roll': -0.48}
{'lipoC2': 0.13, 'temp': 0.0, 'lipoC3S3': 12.47, 'state': 'normal', 'rot1': 22, 'rot0': 48, 'rot3': 0, 'rot2': 0, 'depth': -1.59, 'yaw': 92.2, 'datetime': '2018-12-18 16:58:14.212762', 'mgs': 0, 'flw2': 0.39, 'flw1': 0.0, 'flw0': 0.5, 'time': 5.01, 'compass': 108.57, 'pitch': -0.34, 'roll': -0.54}
{'lipoC2': 0.0, 'temp': 0.0, 'lipoC3S3': 12.71, 'state': 'normal', 'rot1': 23, 'rot0': 49, 'rot3': 0, 'rot2': 0, 'depth': 1.614, 'yaw': 94.44, 'datetime': '2018-12-18 16:58:14.420917', 'mgs': 0, 'flw2': 0.52, 'flw1': 0.09, 'flw0': 0.05, 'time': 5.22, 'compass': 110.81, 'pitch': -0.12, 'roll': -0.42}
{'lipoC2': 0.06, 'temp': 0.0, 'lipoC3S3': 12.31, 'state': 'normal', 'rot1': 24, 'rot0': 50, 'rot3': 0, 'rot2': 0, 'depth': 1.309, 'yaw': 95.86, 'datetime': '2018-12-18 16:58:14.632272', 'mgs': 0, 'flw2': 0.0, 'flw1': 0.15, 'flw0': 0.59, 'time': 5.43, 'compass': 112.23, 'pitch': 0.18, 'roll': -0.02}
{'lipoC2': 0.0, 'temp': 0.0, 'lipoC3S3': 12.63, 'state': 'normal', 'rot1': 26, 'rot0': 51, 'rot3': 0, 'rot2': 0, 'depth': 1.309, 'yaw': 96.72, 'datetime': '2018-12-18 16:58:14.841273', 'mgs': 0, 'flw2': 0.04, 'flw1': 0.35, 'flw0': 0.46, 'time': 5.64, 'compass': 113.09, 'pitch': 0.28, 'roll': 0.37}
{'lipoC2': 0.0, 'temp': 0.0, 'lipoC3S3': 12.55, 'state': 'normal', 'rot1': 27, 'rot0': 52, 'rot3': 0, 'rot2': 0, 'depth': 0.699, 'yaw': 96.88, 'datetime': '2018-12-18 16:58:15.049328', 'mgs': 0, 'flw2': 0.35, 'flw1': 0.44, 'flw0': 0.39, 'time': 5.85, 'compass': 113.25, 'pitch': -0.05, 'roll': 0.48}
{'lipoC2': 0.0, 'temp': 0.0, 'lipoC3S3': 12.55, 'state': 'normal', 'rot1': 28, 'rot0': 53, 'rot3': 0, 'rot2': 0, 'depth': 0.699, 'yaw': 96.4, 'datetime': '2018-12-18 16:58:15.256135', 'mgs': 0, 'flw2': 0.24, 'flw1': 0.44, 'flw0': 0.39, 'time': 6.06, 'compass': 112.77, 'pitch': -0.33, 'roll': 0.23}
{'lipoC2': 0.14, 'temp': 0.0, 'lipoC3S3': 12.31, 'state': 'normal', 'rot1': 29, 'rot0': 54, 'rot3': 0, 'rot2': 0, 'depth': 0.851, 'yaw': 95.36, 'datetime': '2018-12-18 16:58:15.468255', 'mgs': 0, 'flw2': 0.5, 'flw1': 0.29, 'flw0': 0.17, 'time': 6.27, 'compass': 111.73, 'pitch': -0.14, 'roll': -0.26}
{'lipoC2': 0.1, 'temp': 0.0, 'lipoC3S3': 12.54, 'state': 'normal', 'rot1': 30, 'rot0': 55, 'rot3': 0, 'rot2': 0, 'depth': -1.971, 'yaw': 93.95, 'datetime': '2018-12-18 16:58:15.677668', 'mgs': 0, 'flw2': 0.11, 'flw1': 0.38, 'flw0': 0.43, 'time': 6.47, 'compass': 110.32, 'pitch': 0.22, 'roll': -0.54}
{'lipoC2': 0.0, 'temp': 0.0, 'lipoC3S3': 12.35, 'state': 'normal', 'rot1': 31, 'rot0': 56, 'rot3': 0, 'rot2': 0, 'depth': -0.293, 'yaw': 92.05, 'datetime': '2018-12-18 16:58:15.885812', 'mgs': 0, 'flw2': 0.56, 'flw1': 0.0, 'flw0': 0.01, 'time': 6.68, 'compass': 108.42, 'pitch': 0.32, 'roll': -0.54}
{'lipoC2': 0.0, 'temp': 0.0, 'lipoC3S3': 12.55, 'state': 'normal', 'rot1': 32, 'rot0': 57, 'rot3': 0, 'rot2': 0, 'depth': 0.699, 'yaw': 89.77, 'datetime': '2018-12-18 16:58:16.092055', 'mgs': 0, 'flw2': 0.52, 'flw1': 0.0, 'flw0': 0.37, 'time': 6.89, 'compass': 106.14, 'pitch': 0.13, 'roll': -0.29}
{'lipoC2': 0.04, 'temp': 0.0, 'lipoC3S3': 12.34, 'state': 'normal', 'rot1': 33, 'rot0': 58, 'rot3': 0, 'rot2': 0, 'depth': 1.309, 'yaw': 87.27, 'datetime': '2018-12-18 16:58:16.304477', 'mgs': 0, 'flw2': 0.55, 'flw1': 0.0, 'flw0': 0.18, 'time': 7.1, 'compass': 103.64, 'pitch': -0.1, 'roll': 0.03}
{'lipoC2': 0.09, 'temp': 0.0, 'lipoC3S3': 12.29, 'state': 'normal', 'rot1': 34, 'rot0': 59, 'rot3': 0, 'rot2': 0, 'depth': 1.233, 'yaw': 84.33, 'datetime': '2018-12-18 16:58:16.513851', 'mgs': 0, 'flw2': 0.51, 'flw1': 0.12, 'flw0': 0.04, 'time': 7.31, 'compass': 100.7, 'pitch': -0.06, 'roll': 0.11}
{'lipoC2': 0.0, 'temp': 0.0, 'lipoC3S3': 12.63, 'state': 'normal', 'rot1': 36, 'rot0': 60, 'rot3': 0, 'rot2': 0, 'depth': 1.462, 'yaw': 81.15, 'datetime': '2018-12-18 16:58:16.724940', 'mgs': 0, 'flw2': 0.1, 'flw1': 0.38, 'flw0': 0.48, 'time': 7.52, 'compass': 97.52, 'pitch': 0.33, 'roll': -0.14}
{'lipoC2': 0.04, 'temp': 0.0, 'lipoC3S3': 12.35, 'state': 'normal', 'rot1': 37, 'rot0': 61, 'rot3': 0, 'rot2': 0, 'depth': 1.385, 'yaw': 77.75, 'datetime': '2018-12-18 16:58:16.929203', 'mgs': 0, 'flw2': 0.6, 'flw1': 0.0, 'flw0': 0.18, 'time': 7.73, 'compass': 94.12, 'pitch': 0.69, 'roll': -0.37}
{'lipoC2': 0.14, 'temp': 0.0, 'lipoC3S3': 12.29, 'state': 'normal', 'rot1': 38, 'rot0': 62, 'rot3': 0, 'rot2': 0, 'depth': 0.775, 'yaw': 74.1, 'datetime': '2018-12-18 16:58:17.142320', 'mgs': 0, 'flw2': 0.17, 'flw1': 0.15, 'flw0': 0.0, 'time': 7.94, 'compass': 90.47, 'pitch': 0.64, 'roll': -0.36}
{'lipoC2': 0.0, 'temp': 0.0, 'lipoC3S3': 12.51, 'state': 'normal', 'rot1': 38, 'rot0': 62, 'rot3': 0, 'rot2': 0, 'depth': 0.546, 'yaw': 71.05, 'datetime': '2018-12-18 16:58:17.347356', 'mgs': 0, 'flw2': 0.0, 'flw1': 0.47, 'flw0': 0.01, 'time': 8.15, 'compass': 87.42, 'pitch': 0.54, 'roll': -0.14}
{'lipoC2': 0.11, 'temp': 0.0, 'lipoC3S3': 12.54, 'state': 'normal', 'rot1': 38, 'rot0': 62, 'rot3': 0, 'rot2': 0, 'depth': 1.767, 'yaw': 68.35, 'datetime': '2018-12-18 16:58:17.559304', 'mgs': 0, 'flw2': 0.24, 'flw1': 0.38, 'flw0': 0.52, 'time': 8.35, 'compass': 84.72, 'pitch': 0.78, 'roll': 0.17}
{'lipoC2': 0.15, 'temp': 0.0, 'lipoC3S3': 12.3, 'state': 'normal', 'rot1': 39, 'rot0': 63, 'rot3': 0, 'rot2': 0, 'depth': 0.928, 'yaw': 66.65, 'datetime': '2018-12-18 16:58:17.764386', 'mgs': 0, 'flw2': 0.55, 'flw1': 0.12, 'flw0': 0.0, 'time': 8.56, 'compass': 83.02, 'pitch': 1.15, 'roll': 0.62}
{'lipoC2': 0.02, 'temp': 0.0, 'lipoC3S3': 12.41, 'state': 'normal', 'rot1': 41, 'rot0': 64, 'rot3': 0, 'rot2': 0, 'depth': 1.538, 'yaw': 65.92, 'datetime': '2018-12-18 16:58:17.976310', 'mgs': 0, 'flw2': 0.57, 'flw1': 0.0, 'flw0': 0.29, 'time': 8.77, 'compass': 82.29, 'pitch': 1.18, 'roll': 0.88}
{'lipoC2': 0.11, 'temp': 0.0, 'lipoC3S3': 12.67, 'state': 'normal', 'rot1': 42, 'rot0': 65, 'rot3': 0, 'rot2': 0, 'depth': -1.971, 'yaw': 65.96, 'datetime': '2018-12-18 16:58:18.185153', 'mgs': 0, 'flw2': 0.44, 'flw1': 0.0, 'flw0': 0.51, 'time': 8.98, 'compass': 82.33, 'pitch': 1.01, 'roll': 0.76}
{'lipoC2': 0.15, 'temp': 0.0, 'lipoC3S3': 12.42, 'state': 'normal', 'rot1': 43, 'rot0': 66, 'rot3': 0, 'rot2': 0, 'depth': -0.903, 'yaw': 66.72, 'datetime': '2018-12-18 16:58:18.396563', 'mgs': 0, 'flw2': 0.54, 'flw1': 0.26, 'flw0': 0.13, 'time': 9.19, 'compass': 83.09, 'pitch': 1.22, 'roll': 0.4}
{'lipoC2': 0.09, 'temp': 0.0, 'lipoC3S3': 12.29, 'state': 'normal', 'rot1': 44, 'rot0': 67, 'rot3': 0, 'rot2': 0, 'depth': 0.47, 'yaw': 68.19, 'datetime': '2018-12-18 16:58:18.600516', 'mgs': 0, 'flw2': 0.0, 'flw1': 0.18, 'flw0': 0.57, 'time': 9.4, 'compass': 84.56, 'pitch': 1.62, 'roll': 0.04}
{'lipoC2': 0.0, 'temp': 0.0, 'lipoC3S3': 12.35, 'state': 'normal', 'rot1': 45, 'rot0': 68, 'rot3': 0, 'rot2': 0, 'depth': 1.157, 'yaw': 70.23, 'datetime': '2018-12-18 16:58:18.811896', 'mgs': 0, 'flw2': 0.57, 'flw1': 0.03, 'flw0': 0.02, 'time': 9.61, 'compass': 86.6, 'pitch': 1.5, 'roll': -0.19}
{'lipoC2': 0.0, 'temp': 0.0, 'lipoC3S3': 12.72, 'state': 'normal', 'rot1': 45, 'rot0': 69, 'rot3': 0, 'rot2': 0, 'depth': 1.691, 'yaw': 72.68, 'datetime': '2018-12-18 16:58:19.022441', 'mgs': 0, 'flw2': 0.0, 'flw1': 0.26, 'flw0': 0.21, 'time': 9.81, 'compass': 89.05, 'pitch': 1.0, 'roll': -0.11}
{'lipoC2': 0.17, 'temp': 0.0, 'lipoC3S3': 12.34, 'state': 'normal', 'rot1': 45, 'rot0': 69, 'rot3': 0, 'rot2': 0, 'depth': -0.446, 'yaw': 75.05, 'datetime': '2018-12-18 16:58:19.232841', 'mgs': 0, 'flw2': 0.17, 'flw1': 0.18, 'flw0': 0.0, 'time': 10.02, 'compass': 91.42, 'pitch': 0.73, 'roll': 0.13}
{'lipoC2': 0.06, 'temp': 0.0, 'lipoC3S3': 12.55, 'state': 'normal', 'rot1': 45, 'rot0': 69, 'rot3': 0, 'rot2': 0, 'depth': -1.743, 'yaw': 77.13, 'datetime': '2018-12-18 16:58:19.440301', 'mgs': 0, 'flw2': 0.0, 'flw1': 0.53, 'flw0': 0.0, 'time': 10.23, 'compass': 93.5, 'pitch': 0.82, 'roll': 0.19}
{'lipoC2': 0.0, 'temp': 0.0, 'lipoC3S3': 12.63, 'state': 'normal', 'rot1': 46, 'rot0': 69, 'rot3': 0, 'rot2': 0, 'depth': 1.691, 'yaw': 78.97, 'datetime': '2018-12-18 16:58:19.651792', 'mgs': 0, 'flw2': 0.34, 'flw1': 0.47, 'flw0': 0.48, 'time': 10.44, 'compass': 95.34, 'pitch': 0.87, 'roll': -0.07}
{'lipoC2': 0.0, 'temp': 0.0, 'lipoC3S3': 12.58, 'state': 'normal', 'rot1': 47, 'rot0': 71, 'rot3': 0, 'rot2': 0, 'depth': 1.004, 'yaw': 80.06, 'datetime': '2018-12-18 16:58:19.860861', 'mgs': 0, 'flw2': 0.05, 'flw1': 0.32, 'flw0': 0.46, 'time': 10.65, 'compass': 96.43, 'pitch': 0.77, 'roll': -0.52}
{'lipoC2': 0.0, 'temp': 0.0, 'lipoC3S3': 12.43, 'state': 'normal', 'rot1': 48, 'rot0': 72, 'rot3': 0, 'rot2': 0, 'depth': 0.851, 'yaw': 80.27, 'datetime': '2018-12-18 16:58:20.069582', 'mgs': 0, 'flw2': 0.55, 'flw1': 0.12, 'flw0': 0.09, 'time': 10.86, 'compass': 96.64, 'pitch': 0.7, 'roll': -0.76}
{'lipoC2': 0.0, 'temp': 0.0, 'lipoC3S3': 12.75, 'state': 'normal', 'rot1': 49, 'rot0': 72, 'rot3': 0, 'rot2': 0, 'depth': 1.691, 'yaw': 79.71, 'datetime': '2018-12-18 16:58:20.279453', 'mgs': 0, 'flw2': 0.01, 'flw1': 0.26, 'flw0': 0.55, 'time': 11.07, 'compass': 96.08, 'pitch': 0.73, 'roll': -0.76}
{'lipoC2': 0.14, 'temp': 0.0, 'lipoC3S3': 12.46, 'state': 'normal', 'rot1': 51, 'rot0': 74, 'rot3': 0, 'rot2': 0, 'depth': 1.843, 'yaw': 78.44, 'datetime': '2018-12-18 16:58:20.482977', 'mgs': 0, 'flw2': 0.54, 'flw1': 0.12, 'flw0': 0.07, 'time': 11.28, 'compass': 94.81, 'pitch': 0.8, 'roll': -0.55}
{'lipoC2': 0.0, 'temp': 0.0, 'lipoC3S3': 12.7, 'state': 'normal', 'rot1': 51, 'rot0': 75, 'rot3': 0, 'rot2': 0, 'depth': 1.767, 'yaw': 76.55, 'datetime': '2018-12-18 16:58:20.695702', 'mgs': 0, 'flw2': 0.2, 'flw1': 0.09, 'flw0': 0.0, 'time': 11.49, 'compass': 92.92, 'pitch': 0.82, 'roll': -0.22}
{'lipoC2': 0.17, 'temp': 0.0, 'lipoC3S3': 12.33, 'state': 'normal', 'rot1': 51, 'rot0': 75, 'rot3': 0, 'rot2': 0, 'depth': -0.293, 'yaw': 74.79, 'datetime': '2018-12-18 16:58:20.904885', 'mgs': 0, 'flw2': 0.15, 'flw1': 0.23, 'flw0': 0.0, 'time': 11.7, 'compass': 91.15, 'pitch': 0.86, 'roll': 0.05}
{'lipoC2': 0.0, 'temp': 0.0, 'lipoC3S3': 12.68, 'state': 'normal', 'rot1': 51, 'rot0': 75, 'rot3': 0, 'rot2': 0, 'depth': 1.691, 'yaw': 73.38, 'datetime': '2018-12-18 16:58:21.115424', 'mgs': 0, 'flw2': 0.21, 'flw1': 0.03, 'flw0': 0.0, 'time': 11.9, 'compass': 89.75, 'pitch': 1.01, 'roll': 0.08}
{'lipoC2': 0.02, 'temp': 0.0, 'lipoC3S3': 12.39, 'state': 'normal', 'rot1': 51, 'rot0': 75, 'rot3': 0, 'rot2': 0, 'depth': 1.538, 'yaw': 72.08, 'datetime': '2018-12-18 16:58:21.325935', 'mgs': 0, 'flw2': 0.0, 'flw1': 0.35, 'flw0': 0.12, 'time': 12.11, 'compass': 88.45, 'pitch': 1.1, 'roll': 0.1}
{'lipoC2': 0.0, 'temp': 0.0, 'lipoC3S3': 12.62, 'state': 'normal', 'rot1': 51, 'rot0': 75, 'rot3': 0, 'rot2': 0, 'depth': 1.385, 'yaw': 70.92, 'datetime': '2018-12-18 16:58:21.533025', 'mgs': 0, 'flw2': 0.0, 'flw1': 0.44, 'flw0': 0.06, 'time': 12.32, 'compass': 87.29, 'pitch': 1.1, 'roll': 0.08}
{'lipoC2': 0.12, 'temp': 0.0, 'lipoC3S3': 12.29, 'state': 'normal', 'rot1': 52, 'rot0': 75, 'rot3': 0, 'rot2': 0, 'depth': 0.775, 'yaw': 69.88, 'datetime': '2018-12-18 16:58:21.743839', 'mgs': 0, 'flw2': 0.38, 'flw1': 0.0, 'flw0': 0.7, 'time': 12.53, 'compass': 86.25, 'pitch': 1.02, 'roll': -0.02}
{'lipoC2': 0.0, 'temp': 0.0, 'lipoC3S3': 12.71, 'state': 'normal', 'rot1': 53, 'rot0': 76, 'rot3': 0, 'rot2': 0, 'depth': -0.369, 'yaw': 69.7, 'datetime': '2018-12-18 16:58:22.051893', 'mgs': 0, 'flw2': 0.55, 'flw1': 0.12, 'flw0': 0.05, 'time': 12.84, 'compass': 86.07, 'pitch': 1.04, 'roll': 0.06}
{'lipoC2': 0.09, 'temp': 0.0, 'lipoC3S3': 12.29, 'state': 'normal', 'rot1': 54, 'rot0': 77, 'rot3': 0, 'rot2': 0, 'depth': 0.394, 'yaw': 70.65, 'datetime': '2018-12-18 16:58:22.262432', 'mgs': 0, 'flw2': 0.0, 'flw1': 0.15, 'flw0': 0.57, 'time': 13.05, 'compass': 87.02, 'pitch': 1.44, 'roll': 0.21}
{'lipoC2': 0.0, 'temp': 0.0, 'lipoC3S3': 12.54, 'state': 'normal', 'rot1': 55, 'rot0': 77, 'rot3': 0, 'rot2': 0, 'depth': -0.14, 'yaw': 71.99, 'datetime': '2018-12-18 16:58:22.474136', 'mgs': 0, 'flw2': 0.11, 'flw1': 0.0, 'flw0': 0.09, 'time': 13.26, 'compass': 88.36, 'pitch': 1.68, 'roll': 0.24}
{'lipoC2': 0.01, 'temp': 0.0, 'lipoC3S3': 12.45, 'state': 'normal', 'rot1': 55, 'rot0': 77, 'rot3': 0, 'rot2': 0, 'depth': -0.369, 'yaw': 73.15, 'datetime': '2018-12-18 16:58:22.683299', 'mgs': 0, 'flw2': 0.21, 'flw1': 0.0, 'flw0': 0.0, 'time': 13.47, 'compass': 89.52, 'pitch': 1.42, 'roll': 0.03}
{'lipoC2': 0.0, 'temp': 0.0, 'lipoC3S3': 12.54, 'state': 'normal', 'rot1': 55, 'rot0': 77, 'rot3': 0, 'rot2': 0, 'depth': 0.546, 'yaw': 74.17, 'datetime': '2018-12-18 16:58:22.887640', 'mgs': 0, 'flw2': 0.16, 'flw1': 0.0, 'flw0': 0.04, 'time': 13.68, 'compass': 90.53, 'pitch': 0.99, 'roll': -0.35}
{'lipoC2': 0.0, 'temp': 0.0, 'lipoC3S3': 12.67, 'state': 'normal', 'rot1': 55, 'rot0': 77, 'rot3': 0, 'rot2': 0, 'depth': 1.614, 'yaw': 75.07, 'datetime': '2018-12-18 16:58:23.095532', 'mgs': 0, 'flw2': 0.0, 'flw1': 0.26, 'flw0': 0.15, 'time': 13.89, 'compass': 91.44, 'pitch': 0.9, 'roll': -0.48}
{'lipoC2': 0.14, 'temp': 0.0, 'lipoC3S3': 12.5, 'state': 'normal', 'rot1': 55, 'rot0': 77, 'rot3': 0, 'rot2': 0, 'depth': 1.767, 'yaw': 75.98, 'datetime': '2018-12-18 16:58:23.305631', 'mgs': 0, 'flw2': 0.0, 'flw1': 0.5, 'flw0': 0.0, 'time': 14.1, 'compass': 92.35, 'pitch': 1.16, 'roll': -0.34}
{'lipoC2': 0.0, 'temp': 0.0, 'lipoC3S3': 12.54, 'state': 'normal', 'rot1': 55, 'rot0': 77, 'rot3': 0, 'rot2': 0, 'depth': -0.751, 'yaw': 76.88, 'datetime': '2018-12-18 16:58:23.514204', 'mgs': 0, 'flw2': 0.06, 'flw1': 0.0, 'flw0': 0.12, 'time': 14.31, 'compass': 93.25, 'pitch': 1.3, 'roll': -0.09}
{'lipoC2': 0.0, 'temp': 0.0, 'lipoC3S3': 12.31, 'state': 'normal', 'rot1': 55, 'rot0': 77, 'rot3': 0, 'rot2': 0, 'depth': 0.241, 'yaw': 77.71, 'datetime': '2018-12-18 16:58:23.723863', 'mgs': 0, 'flw2': 0.0, 'flw1': 0.0, 'flw0': 0.23, 'time': 14.51, 'compass': 94.08, 'pitch': 1.16, 'roll': -0.01}
{'lipoC2': 0.0, 'temp': 0.0, 'lipoC3S3': 12.59, 'state': 'normal', 'rot1': 55, 'rot0': 77, 'rot3': 0, 'rot2': 0, 'depth': 1.08, 'yaw': 78.54, 'datetime': '2018-12-18 16:58:23.932728', 'mgs': 0, 'flw2': 0.22, 'flw1': 0.0, 'flw0': 0.0, 'time': 14.72, 'compass': 94.9, 'pitch': 0.93, 'roll': -0.1}
{'lipoC2': 0.02, 'temp': 0.0, 'lipoC3S3': 12.38, 'state': 'normal', 'rot1': 55, 'rot0': 78, 'rot3': 0, 'rot2': 0, 'depth': -0.14, 'yaw': 79.12, 'datetime': '2018-12-18 16:58:24.143261', 'mgs': 0, 'flw2': 0.59, 'flw1': 0.0, 'flw0': 0.22, 'time': 14.93, 'compass': 95.49, 'pitch': 0.93, 'roll': -0.42}
{'lipoC2': 0.0, 'temp': 0.0, 'lipoC3S3': 12.51, 'state': 'normal', 'rot1': 56, 'rot0': 79, 'rot3': 0, 'rot2': 0, 'depth': 0.394, 'yaw': 78.83, 'datetime': '2018-12-18 16:58:24.351104', 'mgs': 0, 'flw2': 0.33, 'flw1': 0.47, 'flw0': 0.39, 'time': 15.14, 'compass': 95.2, 'pitch': 1.18, 'roll': -0.79}
{'lipoC2': 0.17, 'temp': 0.0, 'lipoC3S3': 12.41, 'state': 'normal', 'rot1': 57, 'rot0': 80, 'rot3': 0, 'rot2': 0, 'depth': 1.233, 'yaw': 77.76, 'datetime': '2018-12-18 16:58:24.560225', 'mgs': 0, 'flw2': 0.51, 'flw1': 0.26, 'flw0': 0.09, 'time': 15.35, 'compass': 94.13, 'pitch': 1.45, 'roll': -0.89}
{'lipoC2': 0.14, 'temp': 0.0, 'lipoC3S3': 12.48, 'state': 'normal', 'rot1': 58, 'rot0': 81, 'rot3': 0, 'rot2': 0, 'depth': -1.895, 'yaw': 76.02, 'datetime': '2018-12-18 16:58:24.769197', 'mgs': 0, 'flw2': 0.04, 'flw1': 0.0, 'flw0': 0.15, 'time': 15.56, 'compass': 92.39, 'pitch': 1.45, 'roll': -0.67}
{'lipoC2': 0.1, 'temp': 0.0, 'lipoC3S3': 12.54, 'state': 'normal', 'rot1': 58, 'rot0': 81, 'rot3': 0, 'rot2': 0, 'depth': 1.92, 'yaw': 74.44, 'datetime': '2018-12-18 16:58:24.978929', 'mgs': 0, 'flw2': 0.0, 'flw1': 0.53, 'flw0': 0.01, 'time': 15.77, 'compass': 90.81, 'pitch': 1.3, 'roll': -0.18}
{'lipoC2': 0.17, 'temp': 0.0, 'lipoC3S3': 12.37, 'state': 'normal', 'rot1': 58, 'rot0': 81, 'rot3': 0, 'rot2': 0, 'depth': 1.233, 'yaw': 72.99, 'datetime': '2018-12-18 16:58:25.188805', 'mgs': 0, 'flw2': 0.01, 'flw1': 0.0, 'flw0': 0.18, 'time': 15.98, 'compass': 89.36, 'pitch': 1.43, 'roll': 0.19}
{'lipoC2': 0.0, 'temp': 0.0, 'lipoC3S3': 12.35, 'state': 'normal', 'rot1': 58, 'rot0': 81, 'rot3': 0, 'rot2': 0, 'depth': -0.751, 'yaw': 71.68, 'datetime': '2018-12-18 16:58:25.396665', 'mgs': 0, 'flw2': 0.12, 'flw1': 0.38, 'flw0': 0.0, 'time': 16.18, 'compass': 88.05, 'pitch': 1.7, 'roll': 0.34}
{'lipoC2': 0.02, 'temp': 0.0, 'lipoC3S3': 12.38, 'state': 'normal', 'rot1': 58, 'rot0': 81, 'rot3': 0, 'rot2': 0, 'depth': -0.064, 'yaw': 70.47, 'datetime': '2018-12-18 16:58:25.605600', 'mgs': 0, 'flw2': 0.0, 'flw1': 0.32, 'flw0': 0.12, 'time': 16.39, 'compass': 86.84, 'pitch': 1.63, 'roll': 0.27}
{'lipoC2': 0.04, 'temp': 0.0, 'lipoC3S3': 12.34, 'state': 'normal', 'rot1': 58, 'rot0': 82, 'rot3': 0, 'rot2': 0, 'depth': 0.394, 'yaw': 69.39, 'datetime': '2018-12-18 16:58:25.813537', 'mgs': 0, 'flw2': 0.12, 'flw1': 0.26, 'flw0': 0.63, 'time': 16.6, 'compass': 85.76, 'pitch': 1.45, 'roll': -0.21}
{'lipoC2': 0.0, 'temp': 0.0, 'lipoC3S3': 12.29, 'state': 'normal', 'rot1': 59, 'rot0': 83, 'rot3': 0, 'rot2': 0, 'depth': -0.98, 'yaw': 68.98, 'datetime': '2018-12-18 16:58:26.022611', 'mgs': 0, 'flw2': 0.55, 'flw1': 0.0, 'flw0': 0.59, 'time': 16.81, 'compass': 85.35, 'pitch': 1.57, 'roll': -0.45}
{'lipoC2': 0.1, 'temp': 0.0, 'lipoC3S3': 12.54, 'state': 'normal', 'rot1': 60, 'rot0': 83, 'rot3': 0, 'rot2': 0, 'depth': 1.92, 'yaw': 69.52, 'datetime': '2018-12-18 16:58:26.232025', 'mgs': 0, 'flw2': 0.46, 'flw1': 0.38, 'flw0': 0.33, 'time': 17.02, 'compass': 85.89, 'pitch': 2.04, 'roll': -0.38}
{'lipoC2': 0.0, 'temp': 0.0, 'lipoC3S3': 12.7, 'state': 'normal', 'rot1': 61, 'rot0': 85, 'rot3': 0, 'rot2': 0, 'depth': 1.767, 'yaw': 70.84, 'datetime': '2018-12-18 16:58:26.440360', 'mgs': 0, 'flw2': 0.56, 'flw1': 0.0, 'flw0': 0.02, 'time': 17.23, 'compass': 87.21, 'pitch': 2.24, 'roll': -0.15}
{'lipoC2': 0.11, 'temp': 0.0, 'lipoC3S3': 12.52, 'state': 'normal', 'rot1': 62, 'rot0': 85, 'rot3': 0, 'rot2': 0, 'depth': -2.2, 'yaw': 72.51, 'datetime': '2018-12-18 16:58:26.650664', 'mgs': 0, 'flw2': 0.0, 'flw1': 0.47, 'flw0': 0.0, 'time': 17.43, 'compass': 88.87, 'pitch': 2.01, 'roll': 0.06}
{'lipoC2': 0.0, 'temp': 0.0, 'lipoC3S3': 12.51, 'state': 'normal', 'rot1': 62, 'rot0': 85, 'rot3': 0, 'rot2': 0, 'depth': 0.165, 'yaw': 74.0, 'datetime': '2018-12-18 16:58:26.858301', 'mgs': 0, 'flw2': 0.05, 'flw1': 0.0, 'flw0': 0.15, 'time': 17.64, 'compass': 90.37, 'pitch': 1.62, 'roll': 0.06}
{'lipoC2': 0.16, 'temp': 0.0, 'lipoC3S3': 12.43, 'state': 'normal', 'rot1': 62, 'rot0': 85, 'rot3': 0, 'rot2': 0, 'depth': -1.361, 'yaw': 75.34, 'datetime': '2018-12-18 16:58:27.067617', 'mgs': 0, 'flw2': 0.12, 'flw1': 0.38, 'flw0': 0.0, 'time': 17.85, 'compass': 91.71, 'pitch': 1.44, 'roll': -0.08}
{'lipoC2': 0.0, 'temp': 0.0, 'lipoC3S3': 12.71, 'state': 'normal', 'rot1': 62, 'rot0': 85, 'rot3': 0, 'rot2': 0, 'depth': 1.691, 'yaw': 76.52, 'datetime': '2018-12-18 16:58:27.275031', 'mgs': 0, 'flw2': 0.12, 'flw1': 0.32, 'flw0': 0.0, 'time': 18.06, 'compass': 92.89, 'pitch': 1.61, 'roll': -0.42}
{'lipoC2': 0.11, 'temp': 0.0, 'lipoC3S3': 12.27, 'state': 'normal', 'rot1': 62, 'rot0': 85, 'rot3': 0, 'rot2': 0, 'depth': 1.004, 'yaw': 77.7, 'datetime': '2018-12-18 16:58:27.484960', 'mgs': 0, 'flw2': 0.0, 'flw1': 0.21, 'flw0': 0.18, 'time': 18.27, 'compass': 94.07, 'pitch': 1.9, 'roll': -0.71}
{'lipoC2': 0.0, 'temp': 0.0, 'lipoC3S3': 12.72, 'state': 'normal', 'rot1': 62, 'rot0': 85, 'rot3': 0, 'rot2': 0, 'depth': 1.691, 'yaw': 78.84, 'datetime': '2018-12-18 16:58:27.694799', 'mgs': 0, 'flw2': 0.0, 'flw1': 0.18, 'flw0': 0.2, 'time': 18.48, 'compass': 95.21, 'pitch': 1.62, 'roll': -0.74}
{'lipoC2': 0.0, 'temp': 0.0, 'lipoC3S3': 12.58, 'state': 'normal', 'rot1': 63, 'rot0': 85, 'rot3': 0, 'rot2': 0, 'depth': 1.004, 'yaw': 79.72, 'datetime': '2018-12-18 16:58:27.904072', 'mgs': 0, 'flw2': 0.24, 'flw1': 0.41, 'flw0': 0.43, 'time': 18.69, 'compass': 96.09, 'pitch': 0.96, 'roll': -0.75}
{'lipoC2': 0.03, 'temp': 0.0, 'lipoC3S3': 12.38, 'state': 'normal', 'rot1': 64, 'rot0': 86, 'rot3': 0, 'rot2': 0, 'depth': 0.165, 'yaw': 79.67, 'datetime': '2018-12-18 16:58:28.114556', 'mgs': 0, 'flw2': 0.52, 'flw1': 0.0, 'flw0': 0.29, 'time': 18.9, 'compass': 96.04, 'pitch': 1.05, 'roll': -0.75}
{'lipoC2': 0.06, 'temp': 0.0, 'lipoC3S3': 12.56, 'state': 'normal', 'rot1': 65, 'rot0': 87, 'rot3': 0, 'rot2': 0, 'depth': 1.843, 'yaw': 78.83, 'datetime': '2018-12-18 16:58:28.322762', 'mgs': 0, 'flw2': 0.51, 'flw1': 0.0, 'flw0': 0.4, 'time': 19.1, 'compass': 95.2, 'pitch': 1.85, 'roll': -0.76}
{'lipoC2': 0.03, 'temp': 0.0, 'lipoC3S3': 12.59, 'state': 'normal', 'rot1': 66, 'rot0': 88, 'rot3': 0, 'rot2': 0, 'depth': -1.59, 'yaw': 77.22, 'datetime': '2018-12-18 16:58:28.531533', 'mgs': 0, 'flw2': 0.13, 'flw1': 0.38, 'flw0': 0.45, 'time': 19.31, 'compass': 93.59, 'pitch': 2.3, 'roll': -0.72}
{'lipoC2': 0.0, 'temp': 0.0, 'lipoC3S3': 12.6, 'state': 'normal', 'rot1': 66, 'rot0': 89, 'rot3': 0, 'rot2': 0, 'depth': 1.385, 'yaw': 75.18, 'datetime': '2018-12-18 16:58:28.740084', 'mgs': 0, 'flw2': 0.0, 'flw1': 0.47, 'flw0': 0.02, 'time': 19.52, 'compass': 91.55, 'pitch': 1.93, 'roll': -0.5}
{'lipoC2': 0.0, 'temp': 0.0, 'lipoC3S3': 12.66, 'state': 'normal', 'rot1': 66, 'rot0': 89, 'rot3': 0, 'rot2': 0, 'depth': 1.614, 'yaw': 73.42, 'datetime': '2018-12-18 16:58:28.949415', 'mgs': 0, 'flw2': 0.17, 'flw1': 0.0, 'flw0': 0.0, 'time': 19.73, 'compass': 89.79, 'pitch': 1.53, 'roll': -0.19}
{'lipoC2': 0.0, 'temp': 0.0, 'lipoC3S3': 12.51, 'state': 'normal', 'rot1': 66, 'rot0': 89, 'rot3': 0, 'rot2': 0, 'depth': 0.47, 'yaw': 71.9, 'datetime': '2018-12-18 16:58:29.159023', 'mgs': 0, 'flw2': 0.07, 'flw1': 0.0, 'flw0': 0.12, 'time': 19.94, 'compass': 88.27, 'pitch': 1.69, 'roll': -0.1}
{'lipoC2': 0.15, 'temp': 0.0, 'lipoC3S3': 12.47, 'state': 'normal', 'rot1': 66, 'rot0': 89, 'rot3': 0, 'rot2': 0, 'depth': -1.666, 'yaw': 70.42, 'datetime': '2018-12-18 16:58:29.368826', 'mgs': 0, 'flw2': 0.02, 'flw1': 0.0, 'flw0': 0.16, 'time': 20.15, 'compass': 86.79, 'pitch': 2.12, 'roll': -0.19}
{'lipoC2': 0.0, 'temp': 0.0, 'lipoC3S3': 12.66, 'state': 'normal', 'rot1': 67, 'rot0': 89, 'rot3': 0, 'rot2': 0, 'depth': 1.462, 'yaw': 69.28, 'datetime': '2018-12-18 16:58:29.576768', 'mgs': 0, 'flw2': 0.56, 'flw1': 0.0, 'flw0': 0.09, 'time': 20.36, 'compass': 85.65, 'pitch': 2.06, 'roll': -0.08}
{'lipoC2': 0.1, 'temp': 0.0, 'lipoC3S3': 12.56, 'state': 'normal', 'rot1': 68, 'rot0': 91, 'rot3': 0, 'rot2': 0, 'depth': -1.895, 'yaw': 69.14, 'datetime': '2018-12-18 16:58:29.786544', 'mgs': 0, 'flw2': 0.59, 'flw1': 0.0, 'flw0': 0.23, 'time': 20.57, 'compass': 85.51, 'pitch': 1.95, 'roll': 0.16}
{'lipoC2': 0.1, 'temp': 0.0, 'lipoC3S3': 12.54, 'state': 'normal', 'rot1': 69, 'rot0': 92, 'rot3': 0, 'rot2': 0, 'depth': 1.843, 'yaw': 69.78, 'datetime': '2018-12-18 16:58:29.995485', 'mgs': 0, 'flw2': 0.34, 'flw1': 0.5, 'flw0': 0.35, 'time': 20.77, 'compass': 86.15, 'pitch': 2.16, 'roll': 0.14}
{'lipoC2': 0.08, 'temp': 0.0, 'lipoC3S3': 12.27, 'state': 'normal', 'rot1': 70, 'rot0': 92, 'rot3': 0, 'rot2': 0, 'depth': 0.47, 'yaw': 71.2, 'datetime': '2018-12-18 16:58:30.204412', 'mgs': 0, 'flw2': 0.51, 'flw1': 0.23, 'flw0': 0.1, 'time': 20.98, 'compass': 87.57, 'pitch': 2.57, 'roll': 0.08}
{'lipoC2': 0.0, 'temp': 0.0, 'lipoC3S3': 12.45, 'state': 'normal', 'rot1': 71, 'rot0': 93, 'rot3': 0, 'rot2': 0, 'depth': -0.293, 'yaw': 73.07, 'datetime': '2018-12-18 16:58:30.414764', 'mgs': 0, 'flw2': 0.0, 'flw1': 0.47, 'flw0': 0.0, 'time': 21.19, 'compass': 89.44, 'pitch': 2.65, 'roll': -0.12}
{'lipoC2': 0.11, 'temp': 0.0, 'lipoC3S3': 12.27, 'state': 'normal', 'rot1': 71, 'rot0': 93, 'rot3': 0, 'rot2': 0, 'depth': 1.157, 'yaw': 74.74, 'datetime': '2018-12-18 16:58:30.623086', 'mgs': 0, 'flw2': 0.11, 'flw1': 0.38, 'flw0': 0.0, 'time': 21.4, 'compass': 91.11, 'pitch': 2.21, 'roll': -0.3}
{'lipoC2': 0.04, 'temp': 0.0, 'lipoC3S3': 12.33, 'state': 'normal', 'rot1': 71, 'rot0': 93, 'rot3': 0, 'rot2': 0, 'depth': 1.385, 'yaw': 76.25, 'datetime': '2018-12-18 16:58:30.834017', 'mgs': 0, 'flw2': 0.21, 'flw1': 0.03, 'flw0': 0.0, 'time': 21.61, 'compass': 92.62, 'pitch': 1.85, 'roll': -0.35}
{'lipoC2': 0.14, 'temp': 0.0, 'lipoC3S3': 12.3, 'state': 'normal', 'rot1': 71, 'rot0': 93, 'rot3': 0, 'rot2': 0, 'depth': 0.546, 'yaw': 77.6, 'datetime': '2018-12-18 16:58:31.044480', 'mgs': 0, 'flw2': 0.11, 'flw1': 0.35, 'flw0': 0.0, 'time': 21.82, 'compass': 93.96, 'pitch': 1.86, 'roll': -0.4}
{'lipoC2': 0.0, 'temp': 0.0, 'lipoC3S3': 12.64, 'state': 'normal', 'rot1': 71, 'rot0': 93, 'rot3': 0, 'rot2': 0, 'depth': 1.538, 'yaw': 78.94, 'datetime': '2018-12-18 16:58:31.253917', 'mgs': 0, 'flw2': 0.0, 'flw1': 0.35, 'flw0': 0.1, 'time': 22.03, 'compass': 95.31, 'pitch': 2.02, 'roll': -0.32}
{'lipoC2': 0.09, 'temp': 0.0, 'lipoC3S3': 12.29, 'state': 'normal', 'rot1': 71, 'rot0': 93, 'rot3': 0, 'rot2': 0, 'depth': 0.47, 'yaw': 79.98, 'datetime': '2018-12-18 16:58:31.459937', 'mgs': 0, 'flw2': 0.23, 'flw1': 0.0, 'flw0': 0.61, 'time': 22.24, 'compass': 96.35, 'pitch': 2.01, 'roll': -0.34}
{'lipoC2': 0.13, 'temp': 0.0, 'lipoC3S3': 12.29, 'state': 'normal', 'rot1': 72, 'rot0': 94, 'rot3': 0, 'rot2': 0, 'depth': 0.623, 'yaw': 80.01, 'datetime': '2018-12-18 16:58:31.669412', 'mgs': 0, 'flw2': 0.37, 'flw1': 0.0, 'flw0': 0.56, 'time': 22.45, 'compass': 96.38, 'pitch': 1.96, 'roll': -0.73}
{'lipoC2': 0.0, 'temp': 0.0, 'lipoC3S3': 12.59, 'state': 'normal', 'rot1': 73, 'rot0': 96, 'rot3': 0, 'rot2': 0, 'depth': 1.08, 'yaw': 79.21, 'datetime': '2018-12-18 16:58:31.879573', 'mgs': 0, 'flw2': 0.07, 'flw1': 0.38, 'flw0': 0.45, 'time': 22.65, 'compass': 95.58, 'pitch': 1.96, 'roll': -1.05}
{'lipoC2': 0.01, 'temp': 0.0, 'lipoC3S3': 12.62, 'state': 'normal', 'rot1': 74, 'rot0': 97, 'rot3': 0, 'rot2': 0, 'depth': -1.361, 'yaw': 77.71, 'datetime': '2018-12-18 16:58:32.089043', 'mgs': 0, 'flw2': 0.55, 'flw1': 0.0, 'flw0': 0.04, 'time': 22.86, 'compass': 94.08, 'pitch': 2.02, 'roll': -1.02}
{'lipoC2': 0.15, 'temp': 0.0, 'lipoC3S3': 12.46, 'state': 'normal', 'rot1': 75, 'rot0': 97, 'rot3': 0, 'rot2': 0, 'depth': -1.514, 'yaw': 75.75, 'datetime': '2018-12-18 16:58:32.299139', 'mgs': 0, 'flw2': 0.05, 'flw1': 0.0, 'flw0': 0.15, 'time': 23.07, 'compass': 92.12, 'pitch': 2.28, 'roll': -0.7}
{'lipoC2': 0.1, 'temp': 0.0, 'lipoC3S3': 12.29, 'state': 'normal', 'rot1': 75, 'rot0': 97, 'rot3': 0, 'rot2': 0, 'depth': 1.004, 'yaw': 74.08, 'datetime': '2018-12-18 16:58:32.505675', 'mgs': 0, 'flw2': 0.0, 'flw1': 0.15, 'flw0': 0.21, 'time': 23.28, 'compass': 90.45, 'pitch': 2.36, 'roll': -0.23}
{'lipoC2': 0.0, 'temp': 0.0, 'lipoC3S3': 12.74, 'state': 'normal', 'rot1': 75, 'rot0': 97, 'rot3': 0, 'rot2': 0, 'depth': 1.614, 'yaw': 72.58, 'datetime': '2018-12-18 16:58:32.714575', 'mgs': 0, 'flw2': 0.0, 'flw1': 0.38, 'flw0': 0.0, 'time': 23.49, 'compass': 88.95, 'pitch': 2.25, 'roll': 0.15}
{'lipoC2': 0.05, 'temp': 0.0, 'lipoC3S3': 12.33, 'state': 'normal', 'rot1': 75, 'rot0': 97, 'rot3': 0, 'rot2': 0, 'depth': 0.165, 'yaw': 71.24, 'datetime': '2018-12-18 16:58:32.926371', 'mgs': 0, 'flw2': 0.22, 'flw1': 0.0, 'flw0': 0.0, 'time': 23.7, 'compass': 87.61, 'pitch': 2.27, 'roll': 0.26}
{'lipoC2': 0.14, 'temp': 0.0, 'lipoC3S3': 12.5, 'state': 'normal', 'rot1': 75, 'rot0': 97, 'rot3': 0, 'rot2': 0, 'depth': -1.285, 'yaw': 69.92, 'datetime': '2018-12-18 16:58:33.133475', 'mgs': 0, 'flw2': 0.0, 'flw1': 0.5, 'flw0': 0.01, 'time': 23.91, 'compass': 86.29, 'pitch': 2.59, 'roll': 0.05}
{'lipoC2': 0.0, 'temp': 0.0, 'lipoC3S3': 12.67, 'state': 'normal', 'rot1': 76, 'rot0': 97, 'rot3': 0, 'rot2': 0, 'depth': 1.538, 'yaw': 68.92, 'datetime': '2018-12-18 16:58:33.343907', 'mgs': 0, 'flw2': 0.51, 'flw1': 0.0, 'flw0': 0.04, 'time': 24.12, 'compass': 85.29, 'pitch': 2.87, 'roll': -0.2}
{'lipoC2': 0.09, 'temp': 0.0, 'lipoC3S3': 12.56, 'state': 'normal', 'rot1': 77, 'rot0': 98, 'rot3': 0, 'rot2': 0, 'depth': -2.048, 'yaw': 68.9, 'datetime': '2018-12-18 16:58:33.555657', 'mgs': 0, 'flw2': 0.57, 'flw1': 0.0, 'flw0': 0.27, 'time': 24.33, 'compass': 85.26, 'pitch': 2.77, 'roll': -0.22}
{'lipoC2': 0.13, 'temp': 0.0, 'lipoC3S3': 12.52, 'state': 'normal', 'rot1': 78, 'rot0': 99, 'rot3': 0, 'rot2': 0, 'depth': -1.971, 'yaw': 69.66, 'datetime': '2018-12-18 16:58:33.760773', 'mgs': 0, 'flw2': 0.4, 'flw1': 0.44, 'flw0': 0.34, 'time': 24.53, 'compass': 86.03, 'pitch': 2.67, 'roll': -0.11}
{'lipoC2': 0.02, 'temp': 0.0, 'lipoC3S3': 12.37, 'state': 'normal', 'rot1': 79, 'rot0': 100, 'rot3': 0, 'rot2': 0, 'depth': 1.538, 'yaw': 71.21, 'datetime': '2018-12-18 16:58:33.967582', 'mgs': 0, 'flw2': 0.0, 'flw1': 0.15, 'flw0': 0.56, 'time': 24.74, 'compass': 87.58, 'pitch': 2.81, 'roll': 0.02}
{'lipoC2': 0.17, 'temp': 0.0, 'lipoC3S3': 12.43, 'state': 'normal', 'rot1': 80, 'rot0': 101, 'rot3': 0, 'rot2': 0, 'depth': 1.233, 'yaw': 73.21, 'datetime': '2018-12-18 16:58:34.177208', 'mgs': 0, 'flw2': 0.0, 'flw1': 0.53, 'flw0': 0.0, 'time': 24.95, 'compass': 89.58, 'pitch': 2.89, 'roll': 0.05}
{'lipoC2': 0.02, 'temp': 0.0, 'lipoC3S3': 12.35, 'state': 'normal', 'rot1': 80, 'rot0': 101, 'rot3': 0, 'rot2': 0, 'depth': 1.462, 'yaw': 74.93, 'datetime': '2018-12-18 16:58:34.385779', 'mgs': 0, 'flw2': 0.17, 'flw1': 0.0, 'flw0': 0.0, 'time': 25.16, 'compass': 91.3, 'pitch': 2.69, 'roll': -0.19}
{'lipoC2': 0.1, 'temp': 0.0, 'lipoC3S3': 12.55, 'state': 'normal', 'rot1': 80, 'rot0': 101, 'rot3': 0, 'rot2': 0, 'depth': 1.843, 'yaw': 76.48, 'datetime': '2018-12-18 16:58:34.596211', 'mgs': 0, 'flw2': 0.0, 'flw1': 0.38, 'flw0': 0.0, 'time': 25.37, 'compass': 92.85, 'pitch': 2.6, 'roll': -0.54}
{'lipoC2': 0.05, 'temp': 0.0, 'lipoC3S3': 12.6, 'state': 'normal', 'rot1': 80, 'rot0': 101, 'rot3': 0, 'rot2': 0, 'depth': -1.819, 'yaw': 77.89, 'datetime': '2018-12-18 16:58:34.805667', 'mgs': 0, 'flw2': 0.0, 'flw1': 0.38, 'flw0': 0.06, 'time': 25.58, 'compass': 94.26, 'pitch': 2.51, 'roll': -0.7}
{'lipoC2': 0.09, 'temp': 0.0, 'lipoC3S3': 12.29, 'state': 'normal', 'rot1': 81, 'rot0': 101, 'rot3': 0, 'rot2': 0, 'depth': 1.309, 'yaw': 79.03, 'datetime': '2018-12-18 16:58:35.014937', 'mgs': 0, 'flw2': 0.55, 'flw1': 0.0, 'flw0': 0.04, 'time': 25.79, 'compass': 95.4, 'pitch': 2.29, 'roll': -0.76}
{'lipoC2': 0.0, 'temp': 0.0, 'lipoC3S3': 12.5, 'state': 'normal', 'rot1': 82, 'rot0': 102, 'rot3': 0, 'rot2': 0, 'depth': 0.851, 'yaw': 79.2, 'datetime': '2018-12-18 16:58:35.223382', 'mgs': 0, 'flw2': 0.12, 'flw1': 0.41, 'flw0': 0.42, 'time': 26.0, 'compass': 95.57, 'pitch': 2.27, 'roll': -0.78}
{'lipoC2': 0.15, 'temp': 0.0, 'lipoC3S3': 12.46, 'state': 'normal', 'rot1': 83, 'rot0': 103, 'rot3': 0, 'rot2': 0, 'depth': -1.132, 'yaw': 78.46, 'datetime': '2018-12-18 16:58:35.432636', 'mgs': 0, 'flw2': 0.43, 'flw1': 0.0, 'flw0': 0.51, 'time': 26.2, 'compass': 94.83, 'pitch': 2.42, 'roll': -0.75}
{'lipoC2': 0.03, 'temp': 0.0, 'lipoC3S3': 12.34, 'state': 'normal', 'rot1': 84, 'rot0': 104, 'rot3': 0, 'rot2': 0, 'depth': 1.462, 'yaw': 77.05, 'datetime': '2018-12-18 16:58:35.641750', 'mgs': 0, 'flw2': 0.57, 'flw1': 0.0, 'flw0': 0.16, 'time': 26.41, 'compass': 93.42, 'pitch': 2.46, 'roll': -0.69}
{'lipoC2': 0.0, 'temp': 0.0, 'lipoC3S3': 12.74, 'state': 'normal', 'rot1': 85, 'rot0': 105, 'rot3': 0, 'rot2': 0, 'depth': 1.767, 'yaw': 75.09, 'datetime': '2018-12-18 16:58:35.851748', 'mgs': 0, 'flw2': 0.13, 'flw1': 0.32, 'flw0': 0.0, 'time': 26.62, 'compass': 91.46, 'pitch': 2.52, 'roll': -0.51}
{'lipoC2': 0.14, 'temp': 0.0, 'lipoC3S3': 12.3, 'state': 'normal', 'rot1': 85, 'rot0': 105, 'rot3': 0, 'rot2': 0, 'depth': 0.623, 'yaw': 73.39, 'datetime': '2018-12-18 16:58:36.061366', 'mgs': 0, 'flw2': 0.02, 'flw1': 0.0, 'flw0': 0.17, 'time': 26.83, 'compass': 89.76, 'pitch': 2.65, 'roll': -0.1}
{'lipoC2': 0.03, 'temp': 0.0, 'lipoC3S3': 12.62, 'state': 'normal', 'rot1': 85, 'rot0': 105, 'rot3': 0, 'rot2': 0, 'depth': -1.59, 'yaw': 71.86, 'datetime': '2018-12-18 16:58:36.270146', 'mgs': 0, 'flw2': 0.0, 'flw1': 0.38, 'flw0': 0.06, 'time': 27.04, 'compass': 88.23, 'pitch': 2.64, 'roll': 0.23}
{'lipoC2': 0.01, 'temp': 0.0, 'lipoC3S3': 12.41, 'state': 'normal', 'rot1': 85, 'rot0': 105, 'rot3': 0, 'rot2': 0, 'depth': -0.369, 'yaw': 70.47, 'datetime': '2018-12-18 16:58:36.479233', 'mgs': 0, 'flw2': 0.21, 'flw1': 0.0, 'flw0': 0.0, 'time': 27.25, 'compass': 86.84, 'pitch': 2.63, 'roll': 0.34}
{'lipoC2': 0.0, 'temp': 0.0, 'lipoC3S3': 12.6, 'state': 'normal', 'rot1': 86, 'rot0': 105, 'rot3': 0, 'rot2': 0, 'depth': 1.309, 'yaw': 69.42, 'datetime': '2018-12-18 16:58:36.687536', 'mgs': 0, 'flw2': 0.05, 'flw1': 0.32, 'flw0': 0.49, 'time': 27.46, 'compass': 85.79, 'pitch': 2.68, 'roll': 0.34}
