{'lipoC3S3': 0.0, 'datetime': '2019-02-27 09:56:24.990824', 'pitch': 0.97, 'rot1': 0, 'rot0': 0, 'rot3': 0, 'rot2': 0, 'state': 'normal', 'flw3': 0, 'flw2': 0, 'flw1': 0, 'flw0': 0, 'roll': 0.05, 'cur2': 0.0, 'cur0': 0.0, 'cur1': 0.0, 'mgs': 0, 'compass': -2.33, 'lipoC2': 0.0, 'temp': 24.83, 'thr3': 37.0, 'depth': 0.119, 'time': 1.39, 'thr2': 31.0, 'yaw': 0.0, 'thr0': 26.0, 'thr1': 26.0}
{'lipoC3S3': 0.0, 'datetime': '2019-02-27 09:56:25.313977', 'pitch': 0.97, 'rot1': 0, 'rot0': 0, 'rot3': 0, 'rot2': 0, 'state': 'normal', 'flw3': 0, 'flw2': 0, 'flw1': 0, 'flw0': 0, 'roll': 0.05, 'cur2': 0.0, 'cur0': 0.0, 'cur1': 0.0, 'mgs': 0, 'compass': -2.33, 'lipoC2': 0.0, 'temp': 24.78, 'thr3': 36.0, 'depth': 0.119, 'time': 1.71, 'thr2': 31.0, 'yaw': 0.0, 'thr0': 26.0, 'thr1': 26.0}
{'lipoC3S3': 0.0, 'datetime': '2019-02-27 09:56:25.624642', 'pitch': 0.97, 'rot1': 0, 'rot0': 0, 'rot3': 0, 'rot2': 0, 'state': 'normal', 'flw3': 0, 'flw2': 0, 'flw1': 0, 'flw0': 0, 'roll': 0.05, 'cur2': 0.0, 'cur0': 0.0, 'cur1': 0.0, 'mgs': 0, 'compass': -2.33, 'lipoC2': 0.0, 'temp': 24.78, 'thr3': 36.0, 'depth': 0.119, 'time': 2.03, 'thr2': 31.0, 'yaw': 0.0, 'thr0': 26.0, 'thr1': 26.0}
{'lipoC3S3': 0.0, 'datetime': '2019-02-27 09:56:25.948086', 'pitch': 0.97, 'rot1': 0, 'rot0': 0, 'rot3': 0, 'rot2': 0, 'state': 'normal', 'flw3': 0, 'flw2': 0, 'flw1': 0, 'flw0': 0, 'roll': 0.05, 'cur2': 0.0, 'cur0': 0.0, 'cur1': 0.0, 'mgs': 0, 'compass': -2.33, 'lipoC2': 0.0, 'temp': 24.79, 'thr3': 36.0, 'depth': 0.119, 'time': 2.36, 'thr2': 31.0, 'yaw': 0.0, 'thr0': 26.0, 'thr1': 26.0}
{'lipoC3S3': 0.0, 'datetime': '2019-02-27 09:56:26.268004', 'pitch': 0.97, 'rot1': 0, 'rot0': 0, 'rot3': 0, 'rot2': 0, 'state': 'normal', 'flw3': 0, 'flw2': 0, 'flw1': 0, 'flw0': 0, 'roll': 0.05, 'cur2': 0.0, 'cur0': 0.0, 'cur1': 0.0, 'mgs': 0, 'compass': -2.33, 'lipoC2': 0.0, 'temp': 24.79, 'thr3': 35.0, 'depth': 0.119, 'time': 2.67, 'thr2': 31.0, 'yaw': 0.0, 'thr0': 26.0, 'thr1': 26.0}
{'lipoC3S3': 0.0, 'datetime': '2019-02-27 09:56:26.597526', 'pitch': 0.97, 'rot1': 0, 'rot0': 0, 'rot3': 0, 'rot2': 0, 'state': 'normal', 'flw3': 0, 'flw2': 0, 'flw1': 0, 'flw0': 0, 'roll': 0.05, 'cur2': 0.0, 'cur0': 0.0, 'cur1': 0.0, 'mgs': 0, 'compass': -2.33, 'lipoC2': 0.0, 'temp': 24.79, 'thr3': 35.0, 'depth': 0.119, 'time': 3.0, 'thr2': 31.0, 'yaw': 0.0, 'thr0': 26.0, 'thr1': 26.0}
{'lipoC3S3': 0.0, 'datetime': '2019-02-27 09:56:26.911568', 'pitch': 0.97, 'rot1': 0, 'rot0': 0, 'rot3': 0, 'rot2': 0, 'state': 'normal', 'flw3': 0, 'flw2': 0, 'flw1': 0, 'flw0': 0, 'roll': 0.05, 'cur2': 0.0, 'cur0': 0.0, 'cur1': 0.0, 'mgs': 0, 'compass': -2.33, 'lipoC2': 0.0, 'temp': 24.79, 'thr3': 35.0, 'depth': 0.119, 'time': 3.32, 'thr2': 31.0, 'yaw': 0.0, 'thr0': 26.0, 'thr1': 26.0}
{'lipoC3S3': 0.0, 'datetime': '2019-02-27 09:56:27.233829', 'pitch': 0.97, 'rot1': 0, 'rot0': 0, 'rot3': 0, 'rot2': 0, 'state': 'normal', 'flw3': 0, 'flw2': 0, 'flw1': 0, 'flw0': 0, 'roll': 0.05, 'cur2': 0.0, 'cur0': 0.0, 'cur1': 0.0, 'mgs': 0, 'compass': -2.33, 'lipoC2': 0.0, 'temp': 24.79, 'thr3': 35.0, 'depth': 0.119, 'time': 3.64, 'thr2': 31.0, 'yaw': 0.0, 'thr0': 26.0, 'thr1': 26.0}
{'lipoC3S3': 0.0, 'datetime': '2019-02-27 09:56:27.566227', 'pitch': 0.97, 'rot1': 0, 'rot0': 0, 'rot3': 0, 'rot2': 0, 'state': 'normal', 'flw3': 0, 'flw2': 0, 'flw1': 0, 'flw0': 0, 'roll': 0.05, 'cur2': 0.0, 'cur0': 0.0, 'cur1': 0.0, 'mgs': 0, 'compass': -2.33, 'lipoC2': 0.0, 'temp': 24.79, 'thr3': 35.0, 'depth': 0.119, 'time': 3.96, 'thr2': 31.0, 'yaw': 0.0, 'thr0': 26.0, 'thr1': 26.0}
{'lipoC3S3': 0.0, 'datetime': '2019-02-27 09:56:27.889589', 'pitch': 0.97, 'rot1': 0, 'rot0': 0, 'rot3': 0, 'rot2': 0, 'state': 'normal', 'flw3': 0, 'flw2': 0, 'flw1': 0, 'flw0': 0, 'roll': 0.05, 'cur2': 0.0, 'cur0': 0.0, 'cur1': 0.0, 'mgs': 0, 'compass': -2.33, 'lipoC2': 0.0, 'temp': 24.79, 'thr3': 35.0, 'depth': 0.119, 'time': 4.28, 'thr2': 31.0, 'yaw': 0.0, 'thr0': 26.0, 'thr1': 26.0}
{'lipoC3S3': 0.0, 'datetime': '2019-02-27 09:56:28.205399', 'pitch': 0.97, 'rot1': 0, 'rot0': 0, 'rot3': 0, 'rot2': 0, 'state': 'normal', 'flw3': 0, 'flw2': 0, 'flw1': 0, 'flw0': 0, 'roll': 0.05, 'cur2': 0.0, 'cur0': 0.0, 'cur1': 0.0, 'mgs': 0, 'compass': -2.33, 'lipoC2': 0.0, 'temp': 24.8, 'thr3': 35.0, 'depth': 0.119, 'time': 4.6, 'thr2': 31.0, 'yaw': 0.0, 'thr0': 26.0, 'thr1': 26.0}
{'lipoC3S3': 0.0, 'datetime': '2019-02-27 09:56:28.526861', 'pitch': 0.97, 'rot1': 0, 'rot0': 0, 'rot3': 0, 'rot2': 0, 'state': 'normal', 'flw3': 0, 'flw2': 0, 'flw1': 0, 'flw0': 0, 'roll': 0.05, 'cur2': 0.0, 'cur0': 0.0, 'cur1': 0.0, 'mgs': 0, 'compass': -2.33, 'lipoC2': 0.0, 'temp': 24.8, 'thr3': 35.0, 'depth': 0.119, 'time': 4.92, 'thr2': 31.0, 'yaw': 0.0, 'thr0': 26.0, 'thr1': 26.0}
{'lipoC3S3': 0.0, 'datetime': '2019-02-27 09:56:28.852264', 'pitch': 0.97, 'rot1': 0, 'rot0': 0, 'rot3': 0, 'rot2': 0, 'state': 'normal', 'flw3': 0, 'flw2': 0, 'flw1': 0, 'flw0': 0, 'roll': 0.05, 'cur2': 0.0, 'cur0': 0.0, 'cur1': 0.0, 'mgs': 0, 'compass': -2.33, 'lipoC2': 0.0, 'temp': 24.8, 'thr3': 35.0, 'depth': 0.119, 'time': 5.24, 'thr2': 31.0, 'yaw': 0.0, 'thr0': 26.0, 'thr1': 26.0}
{'lipoC3S3': 0.0, 'datetime': '2019-02-27 09:56:29.170879', 'pitch': 0.97, 'rot1': 0, 'rot0': 0, 'rot3': 0, 'rot2': 0, 'state': 'normal', 'flw3': 0, 'flw2': 0, 'flw1': 0, 'flw0': 0, 'roll': 0.05, 'cur2': 0.0, 'cur0': 0.0, 'cur1': 0.0, 'mgs': 0, 'compass': -2.33, 'lipoC2': 0.0, 'temp': 24.8, 'thr3': 35.0, 'depth': 0.119, 'time': 5.57, 'thr2': 31.0, 'yaw': 0.0, 'thr0': 26.0, 'thr1': 26.0}
{'lipoC3S3': 0.0, 'datetime': '2019-02-27 09:56:29.493057', 'pitch': 0.97, 'rot1': 0, 'rot0': 0, 'rot3': 0, 'rot2': 0, 'state': 'normal', 'flw3': 0, 'flw2': 0, 'flw1': 0, 'flw0': 0, 'roll': 0.05, 'cur2': 0.0, 'cur0': 0.0, 'cur1': 0.0, 'mgs': 0, 'compass': -2.33, 'lipoC2': 0.0, 'temp': 24.8, 'thr3': 35.0, 'depth': 0.119, 'time': 5.89, 'thr2': 31.0, 'yaw': 0.0, 'thr0': 26.0, 'thr1': 26.0}
{'lipoC3S3': 0.0, 'datetime': '2019-02-27 09:56:29.814715', 'pitch': 0.97, 'rot1': 0, 'rot0': 0, 'rot3': 0, 'rot2': 0, 'state': 'normal', 'flw3': 0, 'flw2': 0, 'flw1': 0, 'flw0': 0, 'roll': 0.05, 'cur2': 0.0, 'cur0': 0.0, 'cur1': 0.0, 'mgs': 0, 'compass': -2.33, 'lipoC2': 0.0, 'temp': 24.8, 'thr3': 35.0, 'depth': 0.119, 'time': 6.21, 'thr2': 31.0, 'yaw': 0.0, 'thr0': 26.0, 'thr1': 26.0}
{'lipoC3S3': 0.0, 'datetime': '2019-02-27 09:56:30.136070', 'pitch': 0.97, 'rot1': 0, 'rot0': 0, 'rot3': 0, 'rot2': 0, 'state': 'normal', 'flw3': 0, 'flw2': 0, 'flw1': 0, 'flw0': 0, 'roll': 0.05, 'cur2': 0.0, 'cur0': 0.0, 'cur1': 0.0, 'mgs': 0, 'compass': -2.33, 'lipoC2': 0.0, 'temp': 24.8, 'thr3': 35.0, 'depth': 0.119, 'time': 6.53, 'thr2': 31.0, 'yaw': 0.0, 'thr0': 26.0, 'thr1': 26.0}
{'lipoC3S3': 0.0, 'datetime': '2019-02-27 09:56:30.457892', 'pitch': 0.97, 'rot1': 0, 'rot0': 0, 'rot3': 0, 'rot2': 0, 'state': 'normal', 'flw3': 0, 'flw2': 0, 'flw1': 0, 'flw0': 0, 'roll': 0.05, 'cur2': 0.0, 'cur0': 0.0, 'cur1': 0.0, 'mgs': 0, 'compass': -2.33, 'lipoC2': 0.0, 'temp': 24.8, 'thr3': 35.0, 'depth': 0.119, 'time': 6.85, 'thr2': 31.0, 'yaw': 0.0, 'thr0': 26.0, 'thr1': 26.0}
{'lipoC3S3': 0.0, 'datetime': '2019-02-27 09:56:30.775099', 'pitch': 0.97, 'rot1': 0, 'rot0': 0, 'rot3': 0, 'rot2': 0, 'state': 'normal', 'flw3': 0, 'flw2': 0, 'flw1': 0, 'flw0': 0, 'roll': 0.05, 'cur2': 0.0, 'cur0': 0.0, 'cur1': 0.0, 'mgs': 0, 'compass': -2.33, 'lipoC2': 0.0, 'temp': 24.8, 'thr3': 35.0, 'depth': 0.119, 'time': 7.17, 'thr2': 31.0, 'yaw': 0.0, 'thr0': 26.0, 'thr1': 26.0}
{'lipoC3S3': 0.0, 'datetime': '2019-02-27 09:56:31.097824', 'pitch': 0.97, 'rot1': 0, 'rot0': 0, 'rot3': 0, 'rot2': 0, 'state': 'normal', 'flw3': 0, 'flw2': 0, 'flw1': 0, 'flw0': 0, 'roll': 0.05, 'cur2': 0.0, 'cur0': 0.0, 'cur1': 0.0, 'mgs': 0, 'compass': -2.33, 'lipoC2': 0.0, 'temp': 24.8, 'thr3': 35.0, 'depth': 0.119, 'time': 7.49, 'thr2': 31.0, 'yaw': 0.0, 'thr0': 26.0, 'thr1': 26.0}
{'lipoC3S3': 0.0, 'datetime': '2019-02-27 09:56:31.419100', 'pitch': 0.97, 'rot1': 0, 'rot0': 0, 'rot3': 0, 'rot2': 0, 'state': 'normal', 'flw3': 0, 'flw2': 0, 'flw1': 0, 'flw0': 0, 'roll': 0.05, 'cur2': 0.0, 'cur0': 0.0, 'cur1': 0.0, 'mgs': 0, 'compass': -2.33, 'lipoC2': 0.0, 'temp': 24.8, 'thr3': 35.0, 'depth': 0.119, 'time': 7.82, 'thr2': 31.0, 'yaw': 0.0, 'thr0': 26.0, 'thr1': 26.0}
{'lipoC3S3': 0.0, 'datetime': '2019-02-27 09:56:31.744977', 'pitch': 0.97, 'rot1': 0, 'rot0': 0, 'rot3': 0, 'rot2': 0, 'state': 'normal', 'flw3': 0, 'flw2': 0, 'flw1': 0, 'flw0': 0, 'roll': 0.05, 'cur2': 0.0, 'cur0': 0.0, 'cur1': 0.0, 'mgs': 0, 'compass': -2.33, 'lipoC2': 0.0, 'temp': 24.8, 'thr3': 35.0, 'depth': 0.119, 'time': 8.14, 'thr2': 31.0, 'yaw': 0.0, 'thr0': 26.0, 'thr1': 26.0}
{'lipoC3S3': 0.0, 'datetime': '2019-02-27 09:56:32.070005', 'pitch': 0.97, 'rot1': 0, 'rot0': 0, 'rot3': 0, 'rot2': 0, 'state': 'normal', 'flw3': 0, 'flw2': 0, 'flw1': 0, 'flw0': 0, 'roll': 0.05, 'cur2': 0.0, 'cur0': 0.0, 'cur1': 0.0, 'mgs': 0, 'compass': -2.33, 'lipoC2': 0.0, 'temp': 24.8, 'thr3': 35.0, 'depth': 0.119, 'time': 8.46, 'thr2': 31.0, 'yaw': 0.0, 'thr0': 26.0, 'thr1': 26.0}
{'lipoC3S3': 0.0, 'datetime': '2019-02-27 09:56:32.391028', 'pitch': 0.97, 'rot1': 0, 'rot0': 0, 'rot3': 0, 'rot2': 0, 'state': 'normal', 'flw3': 0, 'flw2': 0, 'flw1': 0, 'flw0': 0, 'roll': 0.05, 'cur2': 0.0, 'cur0': 0.0, 'cur1': 0.0, 'mgs': 0, 'compass': -2.33, 'lipoC2': 0.0, 'temp': 24.8, 'thr3': 35.0, 'depth': 0.119, 'time': 8.78, 'thr2': 31.0, 'yaw': 0.0, 'thr0': 26.0, 'thr1': 26.0}
{'lipoC3S3': 0.0, 'datetime': '2019-02-27 09:56:32.713544', 'pitch': 0.97, 'rot1': 0, 'rot0': 0, 'rot3': 0, 'rot2': 0, 'state': 'normal', 'flw3': 0, 'flw2': 0, 'flw1': 0, 'flw0': 0, 'roll': 0.05, 'cur2': 0.0, 'cur0': 0.0, 'cur1': 0.0, 'mgs': 0, 'compass': -2.33, 'lipoC2': 0.0, 'temp': 24.8, 'thr3': 35.0, 'depth': 0.119, 'time': 9.1, 'thr2': 31.0, 'yaw': 0.0, 'thr0': 26.0, 'thr1': 26.0}
{'lipoC3S3': 0.0, 'datetime': '2019-02-27 09:56:33.029331', 'pitch': 0.97, 'rot1': 0, 'rot0': 0, 'rot3': 0, 'rot2': 0, 'state': 'normal', 'flw3': 0, 'flw2': 0, 'flw1': 0, 'flw0': 0, 'roll': 0.05, 'cur2': 0.0, 'cur0': 0.0, 'cur1': 0.0, 'mgs': 0, 'compass': -2.33, 'lipoC2': 0.0, 'temp': 24.8, 'thr3': 35.0, 'depth': 0.109, 'time': 9.42, 'thr2': 31.0, 'yaw': 0.0, 'thr0': 26.0, 'thr1': 26.0}
{'lipoC3S3': 0.0, 'datetime': '2019-02-27 09:56:33.353221', 'pitch': 0.97, 'rot1': 0, 'rot0': 0, 'rot3': 0, 'rot2': 0, 'state': 'normal', 'flw3': 0, 'flw2': 0, 'flw1': 0, 'flw0': 0, 'roll': 0.05, 'cur2': 0.0, 'cur0': 0.0, 'cur1': 0.0, 'mgs': 0, 'compass': -2.33, 'lipoC2': 0.0, 'temp': 24.8, 'thr3': 35.0, 'depth': 0.119, 'time': 9.74, 'thr2': 31.0, 'yaw': 0.0, 'thr0': 26.0, 'thr1': 26.0}
{'lipoC3S3': 0.0, 'datetime': '2019-02-27 09:56:33.667972', 'pitch': 0.97, 'rot1': 0, 'rot0': 0, 'rot3': 0, 'rot2': 0, 'state': 'normal', 'flw3': 0, 'flw2': 0, 'flw1': 0, 'flw0': 0, 'roll': 0.05, 'cur2': 0.0, 'cur0': 0.0, 'cur1': 0.0, 'mgs': 0, 'compass': -2.33, 'lipoC2': 0.0, 'temp': 24.8, 'thr3': 35.0, 'depth': 0.119, 'time': 10.06, 'thr2': 31.0, 'yaw': 0.0, 'thr0': 26.0, 'thr1': 26.0}
{'lipoC3S3': 0.0, 'datetime': '2019-02-27 09:56:33.991476', 'pitch': 0.97, 'rot1': 0, 'rot0': 0, 'rot3': 0, 'rot2': 0, 'state': 'normal', 'flw3': 0, 'flw2': 0, 'flw1': 0, 'flw0': 0, 'roll': 0.05, 'cur2': 0.0, 'cur0': 0.0, 'cur1': 0.0, 'mgs': 0, 'compass': -2.33, 'lipoC2': 0.0, 'temp': 24.8, 'thr3': 35.0, 'depth': 0.119, 'time': 10.39, 'thr2': 31.0, 'yaw': 0.0, 'thr0': 26.0, 'thr1': 26.0}
{'lipoC3S3': 0.0, 'datetime': '2019-02-27 09:56:34.318492', 'pitch': 0.97, 'rot1': 0, 'rot0': 0, 'rot3': 0, 'rot2': 0, 'state': 'normal', 'flw3': 0, 'flw2': 0, 'flw1': 0, 'flw0': 0, 'roll': 0.05, 'cur2': 0.0, 'cur0': 0.0, 'cur1': 0.0, 'mgs': 0, 'compass': -2.33, 'lipoC2': 0.0, 'temp': 24.8, 'thr3': 35.0, 'depth': 0.119, 'time': 10.71, 'thr2': 31.0, 'yaw': 0.0, 'thr0': 26.0, 'thr1': 26.0}
{'lipoC3S3': 0.0, 'datetime': '2019-02-27 09:56:34.639380', 'pitch': 0.97, 'rot1': 0, 'rot0': 0, 'rot3': 0, 'rot2': 0, 'state': 'normal', 'flw3': 0, 'flw2': 0, 'flw1': 0, 'flw0': 0, 'roll': 0.05, 'cur2': 0.0, 'cur0': 0.0, 'cur1': 0.0, 'mgs': 0, 'compass': -2.33, 'lipoC2': 0.0, 'temp': 24.8, 'thr3': 35.0, 'depth': 0.119, 'time': 11.03, 'thr2': 31.0, 'yaw': 0.0, 'thr0': 26.0, 'thr1': 26.0}
{'lipoC3S3': 0.0, 'datetime': '2019-02-27 09:56:34.958093', 'pitch': 0.97, 'rot1': 0, 'rot0': 0, 'rot3': 0, 'rot2': 0, 'state': 'normal', 'flw3': 0, 'flw2': 0, 'flw1': 0, 'flw0': 0, 'roll': 0.05, 'cur2': 0.0, 'cur0': 0.0, 'cur1': 0.0, 'mgs': 0, 'compass': -2.33, 'lipoC2': 0.0, 'temp': 24.8, 'thr3': 35.0, 'depth': 0.119, 'time': 11.35, 'thr2': 31.0, 'yaw': 0.0, 'thr0': 26.0, 'thr1': 26.0}
{'lipoC3S3': 0.0, 'datetime': '2019-02-27 09:56:35.288279', 'pitch': 0.97, 'rot1': 0, 'rot0': 0, 'rot3': 0, 'rot2': 0, 'state': 'normal', 'flw3': 0, 'flw2': 0, 'flw1': 0, 'flw0': 0, 'roll': 0.05, 'cur2': 0.0, 'cur0': 0.0, 'cur1': 0.0, 'mgs': 0, 'compass': -2.33, 'lipoC2': 0.0, 'temp': 24.8, 'thr3': 35.0, 'depth': 0.119, 'time': 11.67, 'thr2': 31.0, 'yaw': 0.0, 'thr0': 26.0, 'thr1': 26.0}
{'lipoC3S3': 0.0, 'datetime': '2019-02-27 09:56:35.606567', 'pitch': 0.97, 'rot1': 0, 'rot0': 0, 'rot3': 0, 'rot2': 0, 'state': 'normal', 'flw3': 0, 'flw2': 0, 'flw1': 0, 'flw0': 0, 'roll': 0.05, 'cur2': 0.0, 'cur0': 0.0, 'cur1': 0.0, 'mgs': 0, 'compass': -2.33, 'lipoC2': 0.0, 'temp': 24.8, 'thr3': 35.0, 'depth': 0.119, 'time': 11.99, 'thr2': 31.0, 'yaw': 0.0, 'thr0': 26.0, 'thr1': 26.0}
{'lipoC3S3': 0.0, 'datetime': '2019-02-27 09:56:35.923121', 'pitch': 0.97, 'rot1': 0, 'rot0': 0, 'rot3': 0, 'rot2': 0, 'state': 'normal', 'flw3': 0, 'flw2': 0, 'flw1': 0, 'flw0': 0, 'roll': 0.05, 'cur2': 0.0, 'cur0': 0.0, 'cur1': 0.0, 'mgs': 0, 'compass': -2.33, 'lipoC2': 0.0, 'temp': 24.81, 'thr3': 35.0, 'depth': 0.119, 'time': 12.31, 'thr2': 31.0, 'yaw': 0.0, 'thr0': 26.0, 'thr1': 26.0}
{'lipoC3S3': 0.0, 'datetime': '2019-02-27 09:56:36.244690', 'pitch': 0.97, 'rot1': 0, 'rot0': 0, 'rot3': 0, 'rot2': 0, 'state': 'normal', 'flw3': 0, 'flw2': 0, 'flw1': 0, 'flw0': 0, 'roll': 0.05, 'cur2': 0.0, 'cur0': 0.0, 'cur1': 0.0, 'mgs': 0, 'compass': -2.33, 'lipoC2': 0.0, 'temp': 24.8, 'thr3': 35.0, 'depth': 0.119, 'time': 12.64, 'thr2': 31.0, 'yaw': 0.0, 'thr0': 26.0, 'thr1': 26.0}
{'lipoC3S3': 0.0, 'datetime': '2019-02-27 09:56:36.566907', 'pitch': 0.97, 'rot1': 0, 'rot0': 0, 'rot3': 0, 'rot2': 0, 'state': 'normal', 'flw3': 0, 'flw2': 0, 'flw1': 0, 'flw0': 0, 'roll': 0.05, 'cur2': 0.0, 'cur0': 0.0, 'cur1': 0.0, 'mgs': 0, 'compass': -2.33, 'lipoC2': 0.0, 'temp': 24.8, 'thr3': 35.0, 'depth': 0.119, 'time': 12.96, 'thr2': 31.0, 'yaw': 0.0, 'thr0': 26.0, 'thr1': 26.0}
{'lipoC3S3': 0.0, 'datetime': '2019-02-27 09:56:36.888170', 'pitch': 0.97, 'rot1': 0, 'rot0': 0, 'rot3': 0, 'rot2': 0, 'state': 'normal', 'flw3': 0, 'flw2': 0, 'flw1': 0, 'flw0': 0, 'roll': 0.05, 'cur2': 0.0, 'cur0': 0.0, 'cur1': 0.0, 'mgs': 0, 'compass': -2.33, 'lipoC2': 0.0, 'temp': 24.8, 'thr3': 35.0, 'depth': 0.119, 'time': 13.28, 'thr2': 31.0, 'yaw': 0.0, 'thr0': 26.0, 'thr1': 26.0}
{'lipoC3S3': 0.0, 'datetime': '2019-02-27 09:56:37.215469', 'pitch': 0.97, 'rot1': 0, 'rot0': 0, 'rot3': 0, 'rot2': 0, 'state': 'normal', 'flw3': 0, 'flw2': 0, 'flw1': 0, 'flw0': 0, 'roll': 0.05, 'cur2': 0.0, 'cur0': 0.0, 'cur1': 0.0, 'mgs': 0, 'compass': -2.33, 'lipoC2': 0.0, 'temp': 24.8, 'thr3': 35.0, 'depth': 0.119, 'time': 13.6, 'thr2': 31.0, 'yaw': 0.0, 'thr0': 26.0, 'thr1': 26.0}
{'lipoC3S3': 0.0, 'datetime': '2019-02-27 09:56:37.537480', 'pitch': 0.97, 'rot1': 0, 'rot0': 0, 'rot3': 0, 'rot2': 0, 'state': 'normal', 'flw3': 0, 'flw2': 0, 'flw1': 0, 'flw0': 0, 'roll': 0.05, 'cur2': 0.0, 'cur0': 0.0, 'cur1': 0.0, 'mgs': 0, 'compass': -2.33, 'lipoC2': 0.0, 'temp': 24.8, 'thr3': 35.0, 'depth': 0.119, 'time': 13.92, 'thr2': 31.0, 'yaw': 0.0, 'thr0': 26.0, 'thr1': 26.0}
{'lipoC3S3': 0.0, 'datetime': '2019-02-27 09:56:37.860550', 'pitch': 0.97, 'rot1': 0, 'rot0': 0, 'rot3': 0, 'rot2': 0, 'state': 'normal', 'flw3': 0, 'flw2': 0, 'flw1': 0, 'flw0': 0, 'roll': 0.05, 'cur2': 0.0, 'cur0': 0.0, 'cur1': 0.0, 'mgs': 0, 'compass': -2.33, 'lipoC2': 0.0, 'temp': 24.8, 'thr3': 35.0, 'depth': 0.119, 'time': 14.24, 'thr2': 31.0, 'yaw': 0.0, 'thr0': 26.0, 'thr1': 26.0}
{'lipoC3S3': 0.0, 'datetime': '2019-02-27 09:56:38.179978', 'pitch': 0.97, 'rot1': 0, 'rot0': 0, 'rot3': 0, 'rot2': 0, 'state': 'normal', 'flw3': 0, 'flw2': 0, 'flw1': 0, 'flw0': 0, 'roll': 0.05, 'cur2': 0.0, 'cur0': 0.0, 'cur1': 0.0, 'mgs': 0, 'compass': -2.33, 'lipoC2': 0.0, 'temp': 24.8, 'thr3': 35.0, 'depth': 0.109, 'time': 14.56, 'thr2': 31.0, 'yaw': 0.0, 'thr0': 26.0, 'thr1': 26.0}
{'lipoC3S3': 0.0, 'datetime': '2019-02-27 09:56:38.503564', 'pitch': 0.97, 'rot1': 0, 'rot0': 0, 'rot3': 0, 'rot2': 0, 'state': 'normal', 'flw3': 0, 'flw2': 0, 'flw1': 0, 'flw0': 0, 'roll': 0.05, 'cur2': 0.0, 'cur0': 0.0, 'cur1': 0.0, 'mgs': 0, 'compass': -2.33, 'lipoC2': 0.0, 'temp': 24.8, 'thr3': 35.0, 'depth': 0.109, 'time': 14.88, 'thr2': 31.0, 'yaw': 0.0, 'thr0': 26.0, 'thr1': 26.0}
{'lipoC3S3': 0.0, 'datetime': '2019-02-27 09:56:38.821454', 'pitch': 0.97, 'rot1': 0, 'rot0': 0, 'rot3': 0, 'rot2': 0, 'state': 'normal', 'flw3': 0, 'flw2': 0, 'flw1': 0, 'flw0': 0, 'roll': 0.05, 'cur2': 0.0, 'cur0': 0.0, 'cur1': 0.0, 'mgs': 0, 'compass': -2.33, 'lipoC2': 0.0, 'temp': 24.8, 'thr3': 35.0, 'depth': 0.109, 'time': 15.21, 'thr2': 31.0, 'yaw': 0.0, 'thr0': 26.0, 'thr1': 26.0}
{'lipoC3S3': 0.0, 'datetime': '2019-02-27 09:56:39.140880', 'pitch': 0.97, 'rot1': 0, 'rot0': 0, 'rot3': 0, 'rot2': 0, 'state': 'normal', 'flw3': 0, 'flw2': 0, 'flw1': 0, 'flw0': 0, 'roll': 0.05, 'cur2': 0.0, 'cur0': 0.0, 'cur1': 0.0, 'mgs': 0, 'compass': -2.33, 'lipoC2': 0.0, 'temp': 24.8, 'thr3': 35.0, 'depth': 0.119, 'time': 15.53, 'thr2': 31.0, 'yaw': 0.0, 'thr0': 26.0, 'thr1': 26.0}
{'lipoC3S3': 0.0, 'datetime': '2019-02-27 09:56:39.465126', 'pitch': 0.97, 'rot1': 0, 'rot0': 0, 'rot3': 0, 'rot2': 0, 'state': 'normal', 'flw3': 0, 'flw2': 0, 'flw1': 0, 'flw0': 0, 'roll': 0.05, 'cur2': 0.0, 'cur0': 0.0, 'cur1': 0.0, 'mgs': 0, 'compass': -2.33, 'lipoC2': 0.0, 'temp': 24.81, 'thr3': 35.0, 'depth': 0.119, 'time': 15.85, 'thr2': 31.0, 'yaw': 0.0, 'thr0': 26.0, 'thr1': 26.0}
{'lipoC3S3': 0.0, 'datetime': '2019-02-27 09:56:39.790616', 'pitch': 0.97, 'rot1': 0, 'rot0': 0, 'rot3': 0, 'rot2': 0, 'state': 'normal', 'flw3': 0, 'flw2': 0, 'flw1': 0, 'flw0': 0, 'roll': 0.05, 'cur2': 0.0, 'cur0': 0.0, 'cur1': 0.0, 'mgs': 0, 'compass': -2.33, 'lipoC2': 0.0, 'temp': 24.8, 'thr3': 35.0, 'depth': 0.119, 'time': 16.17, 'thr2': 31.0, 'yaw': 0.0, 'thr0': 26.0, 'thr1': 26.0}
{'lipoC3S3': 0.0, 'datetime': '2019-02-27 09:56:40.111380', 'pitch': 0.97, 'rot1': 0, 'rot0': 0, 'rot3': 0, 'rot2': 0, 'state': 'normal', 'flw3': 0, 'flw2': 0, 'flw1': 0, 'flw0': 0, 'roll': 0.05, 'cur2': 0.0, 'cur0': 0.0, 'cur1': 0.0, 'mgs': 0, 'compass': -2.33, 'lipoC2': 0.0, 'temp': 24.8, 'thr3': 35.0, 'depth': 0.119, 'time': 16.49, 'thr2': 31.0, 'yaw': 0.0, 'thr0': 26.0, 'thr1': 26.0}
{'lipoC3S3': 0.0, 'datetime': '2019-02-27 09:56:40.434000', 'pitch': 0.97, 'rot1': 0, 'rot0': 0, 'rot3': 0, 'rot2': 0, 'state': 'normal', 'flw3': 0, 'flw2': 0, 'flw1': 0, 'flw0': 0, 'roll': 0.05, 'cur2': 0.0, 'cur0': 0.0, 'cur1': 0.0, 'mgs': 0, 'compass': -2.33, 'lipoC2': 0.0, 'temp': 24.8, 'thr3': 35.0, 'depth': 0.119, 'time': 16.81, 'thr2': 31.0, 'yaw': 0.0, 'thr0': 26.0, 'thr1': 26.0}
{'lipoC3S3': 0.0, 'datetime': '2019-02-27 09:56:40.759133', 'pitch': 0.97, 'rot1': 0, 'rot0': 0, 'rot3': 0, 'rot2': 0, 'state': 'normal', 'flw3': 0, 'flw2': 0, 'flw1': 0, 'flw0': 0, 'roll': 0.05, 'cur2': 0.0, 'cur0': 0.0, 'cur1': 0.0, 'mgs': 0, 'compass': -2.33, 'lipoC2': 0.0, 'temp': 24.8, 'thr3': 35.0, 'depth': 0.119, 'time': 17.13, 'thr2': 31.0, 'yaw': 0.0, 'thr0': 26.0, 'thr1': 26.0}
{'lipoC3S3': 0.0, 'datetime': '2019-02-27 09:56:41.078669', 'pitch': 0.97, 'rot1': 0, 'rot0': 0, 'rot3': 0, 'rot2': 0, 'state': 'normal', 'flw3': 0, 'flw2': 0, 'flw1': 0, 'flw0': 0, 'roll': 0.05, 'cur2': 0.0, 'cur0': 0.0, 'cur1': 0.0, 'mgs': 0, 'compass': -2.33, 'lipoC2': 0.0, 'temp': 24.81, 'thr3': 35.0, 'depth': 0.119, 'time': 17.45, 'thr2': 31.0, 'yaw': 0.0, 'thr0': 26.0, 'thr1': 26.0}
{'lipoC3S3': 0.0, 'datetime': '2019-02-27 09:56:41.399877', 'pitch': 0.97, 'rot1': 0, 'rot0': 0, 'rot3': 0, 'rot2': 0, 'state': 'normal', 'flw3': 0, 'flw2': 0, 'flw1': 0, 'flw0': 0, 'roll': 0.05, 'cur2': 0.0, 'cur0': 0.0, 'cur1': 0.0, 'mgs': 0, 'compass': -2.33, 'lipoC2': 0.0, 'temp': 24.81, 'thr3': 35.0, 'depth': 0.119, 'time': 17.78, 'thr2': 31.0, 'yaw': 0.0, 'thr0': 26.0, 'thr1': 26.0}
{'lipoC3S3': 0.0, 'datetime': '2019-02-27 09:56:41.723384', 'pitch': 0.97, 'rot1': 0, 'rot0': 0, 'rot3': 0, 'rot2': 0, 'state': 'normal', 'flw3': 0, 'flw2': 0, 'flw1': 0, 'flw0': 0, 'roll': 0.05, 'cur2': 0.0, 'cur0': 0.0, 'cur1': 0.0, 'mgs': 0, 'compass': -2.33, 'lipoC2': 0.0, 'temp': 24.8, 'thr3': 35.0, 'depth': 0.119, 'time': 18.1, 'thr2': 31.0, 'yaw': 0.0, 'thr0': 26.0, 'thr1': 26.0}
{'lipoC3S3': 0.0, 'datetime': '2019-02-27 09:56:42.047328', 'pitch': 0.97, 'rot1': 0, 'rot0': 0, 'rot3': 0, 'rot2': 0, 'state': 'normal', 'flw3': 0, 'flw2': 0, 'flw1': 0, 'flw0': 0, 'roll': 0.05, 'cur2': 0.0, 'cur0': 0.0, 'cur1': 0.0, 'mgs': 0, 'compass': -2.33, 'lipoC2': 0.0, 'temp': 24.81, 'thr3': 35.0, 'depth': 0.119, 'time': 18.42, 'thr2': 31.0, 'yaw': 0.0, 'thr0': 26.0, 'thr1': 26.0}
{'lipoC3S3': 0.0, 'datetime': '2019-02-27 09:56:42.359817', 'pitch': 0.97, 'rot1': 0, 'rot0': 0, 'rot3': 0, 'rot2': 0, 'state': 'normal', 'flw3': 0, 'flw2': 0, 'flw1': 0, 'flw0': 0, 'roll': 0.05, 'cur2': 0.0, 'cur0': 0.0, 'cur1': 0.0, 'mgs': 0, 'compass': -2.33, 'lipoC2': 0.0, 'temp': 24.81, 'thr3': 35.0, 'depth': 0.119, 'time': 18.74, 'thr2': 31.0, 'yaw': 0.0, 'thr0': 26.0, 'thr1': 26.0}
{'lipoC3S3': 0.0, 'datetime': '2019-02-27 09:56:42.683942', 'pitch': 0.97, 'rot1': 0, 'rot0': 0, 'rot3': 0, 'rot2': 0, 'state': 'normal', 'flw3': 0, 'flw2': 0, 'flw1': 0, 'flw0': 0, 'roll': 0.05, 'cur2': 0.0, 'cur0': 0.0, 'cur1': 0.0, 'mgs': 0, 'compass': -2.33, 'lipoC2': 0.0, 'temp': 24.81, 'thr3': 35.0, 'depth': 0.119, 'time': 19.06, 'thr2': 31.0, 'yaw': 0.0, 'thr0': 26.0, 'thr1': 26.0}
{'lipoC3S3': 0.0, 'datetime': '2019-02-27 09:56:43.008463', 'pitch': 0.98, 'rot1': 0, 'rot0': 0, 'rot3': 0, 'rot2': 0, 'state': 'normal', 'flw3': 0, 'flw2': 0, 'flw1': 0, 'flw0': 0, 'roll': 0.05, 'cur2': 0.0, 'cur0': 0.0, 'cur1': 0.0, 'mgs': 0, 'compass': -2.33, 'lipoC2': 0.0, 'temp': 24.8, 'thr3': 35.0, 'depth': 0.119, 'time': 19.38, 'thr2': 31.0, 'yaw': 0.0, 'thr0': 26.0, 'thr1': 26.0}
{'lipoC3S3': 0.0, 'datetime': '2019-02-27 09:56:43.325517', 'pitch': 0.99, 'rot1': 0, 'rot0': 0, 'rot3': 0, 'rot2': 0, 'state': 'normal', 'flw3': 0, 'flw2': 0, 'flw1': 0, 'flw0': 0, 'roll': 0.06, 'cur2': 0.0, 'cur0': 0.0, 'cur1': 0.0, 'mgs': 0, 'compass': -2.33, 'lipoC2': 0.0, 'temp': 24.8, 'thr3': 35.0, 'depth': 0.119, 'time': 19.7, 'thr2': 31.0, 'yaw': 0.0, 'thr0': 26.0, 'thr1': 26.0}
{'lipoC3S3': 0.0, 'datetime': '2019-02-27 09:56:43.646081', 'pitch': 0.92, 'rot1': 0, 'rot0': 0, 'rot3': 0, 'rot2': 0, 'state': 'normal', 'flw3': 0, 'flw2': 0, 'flw1': 0, 'flw0': 0, 'roll': 0.05, 'cur2': 0.0, 'cur0': 0.0, 'cur1': 0.0, 'mgs': 0, 'compass': -2.33, 'lipoC2': 0.0, 'temp': 24.8, 'thr3': 35.0, 'depth': 0.119, 'time': 20.03, 'thr2': 31.0, 'yaw': -0.0, 'thr0': 26.0, 'thr1': 26.0}
{'lipoC3S3': 0.0, 'datetime': '2019-02-27 09:56:43.967696', 'pitch': 0.86, 'rot1': 0, 'rot0': 0, 'rot3': 0, 'rot2': 0, 'state': 'normal', 'flw3': 0, 'flw2': 0, 'flw1': 0, 'flw0': 0, 'roll': 0.05, 'cur2': 0.0, 'cur0': 0.0, 'cur1': 0.0, 'mgs': 0, 'compass': -2.33, 'lipoC2': 0.0, 'temp': 24.8, 'thr3': 35.0, 'depth': 0.119, 'time': 20.35, 'thr2': 31.0, 'yaw': -0.0, 'thr0': 26.0, 'thr1': 26.0}
{'lipoC3S3': 0.0, 'datetime': '2019-02-27 09:56:44.293215', 'pitch': 0.83, 'rot1': 0, 'rot0': 0, 'rot3': 0, 'rot2': 0, 'state': 'normal', 'flw3': 0, 'flw2': 0, 'flw1': 0, 'flw0': 0, 'roll': 0.05, 'cur2': 0.0, 'cur0': 0.0, 'cur1': 0.0, 'mgs': 0, 'compass': -2.36, 'lipoC2': 0.0, 'temp': 24.8, 'thr3': 35.0, 'depth': 0.119, 'time': 20.67, 'thr2': 31.0, 'yaw': -0.03, 'thr0': 26.0, 'thr1': 26.0}
{'lipoC3S3': 0.0, 'datetime': '2019-02-27 09:56:44.614247', 'pitch': 0.83, 'rot1': 0, 'rot0': 0, 'rot3': 0, 'rot2': 0, 'state': 'normal', 'flw3': 0, 'flw2': 0, 'flw1': 0, 'flw0': 0, 'roll': 0.07, 'cur2': 0.0, 'cur0': 0.0, 'cur1': 0.0, 'mgs': 0, 'compass': -3.43, 'lipoC2': 0.0, 'temp': 24.8, 'thr3': 35.0, 'depth': 0.119, 'time': 20.99, 'thr2': 31.0, 'yaw': -1.11, 'thr0': 26.0, 'thr1': 26.0}
{'lipoC3S3': 0.0, 'datetime': '2019-02-27 09:56:44.933291', 'pitch': 0.83, 'rot1': 0, 'rot0': 0, 'rot3': 0, 'rot2': 0, 'state': 'normal', 'flw3': 0, 'flw2': 0, 'flw1': 0, 'flw0': 0, 'roll': 0.09, 'cur2': 0.0, 'cur0': 0.0, 'cur1': 0.0, 'mgs': 0, 'compass': -4.81, 'lipoC2': 0.0, 'temp': 24.81, 'thr3': 35.0, 'depth': 0.119, 'time': 21.31, 'thr2': 31.0, 'yaw': -2.48, 'thr0': 26.0, 'thr1': 26.0}
{'lipoC3S3': 0.0, 'datetime': '2019-02-27 09:56:45.249944', 'pitch': 0.83, 'rot1': 0, 'rot0': 0, 'rot3': 0, 'rot2': 0, 'state': 'normal', 'flw3': 0, 'flw2': 0, 'flw1': 0, 'flw0': 0, 'roll': 0.09, 'cur2': 0.0, 'cur0': 0.0, 'cur1': 0.0, 'mgs': 0, 'compass': -4.95, 'lipoC2': 0.0, 'temp': 24.8, 'thr3': 35.0, 'depth': 0.119, 'time': 21.63, 'thr2': 31.0, 'yaw': -2.62, 'thr0': 26.0, 'thr1': 26.0}
{'lipoC3S3': 0.0, 'datetime': '2019-02-27 09:56:45.568697', 'pitch': 0.83, 'rot1': 0, 'rot0': 0, 'rot3': 0, 'rot2': 0, 'state': 'normal', 'flw3': 0, 'flw2': 0, 'flw1': 0, 'flw0': 0, 'roll': 0.09, 'cur2': 0.0, 'cur0': 0.0, 'cur1': 0.0, 'mgs': 0, 'compass': -4.91, 'lipoC2': 0.0, 'temp': 24.8, 'thr3': 35.0, 'depth': 0.119, 'time': 21.95, 'thr2': 31.0, 'yaw': -2.58, 'thr0': 26.0, 'thr1': 26.0}
{'lipoC3S3': 0.0, 'datetime': '2019-02-27 09:56:45.888128', 'pitch': 0.83, 'rot1': 0, 'rot0': 0, 'rot3': 0, 'rot2': 0, 'state': 'normal', 'flw3': 0, 'flw2': 0, 'flw1': 0, 'flw0': 0, 'roll': 0.09, 'cur2': 0.0, 'cur0': 0.0, 'cur1': 0.0, 'mgs': 0, 'compass': -4.91, 'lipoC2': 0.0, 'temp': 24.8, 'thr3': 35.0, 'depth': 0.119, 'time': 22.26, 'thr2': 31.0, 'yaw': -2.58, 'thr0': 26.0, 'thr1': 26.0}
{'lipoC3S3': 0.0, 'datetime': '2019-02-27 09:56:46.210641', 'pitch': 0.83, 'rot1': 0, 'rot0': 0, 'rot3': 0, 'rot2': 0, 'state': 'normal', 'flw3': 0, 'flw2': 0, 'flw1': 0, 'flw0': 0, 'roll': 0.09, 'cur2': 0.0, 'cur0': 0.0, 'cur1': 0.0, 'mgs': 0, 'compass': -4.91, 'lipoC2': 0.0, 'temp': 24.81, 'thr3': 35.0, 'depth': 0.119, 'time': 22.59, 'thr2': 31.0, 'yaw': -2.58, 'thr0': 26.0, 'thr1': 26.0}
{'lipoC3S3': 0.0, 'datetime': '2019-02-27 09:56:46.538844', 'pitch': 0.83, 'rot1': 0, 'rot0': 0, 'rot3': 0, 'rot2': 0, 'state': 'normal', 'flw3': 0, 'flw2': 0, 'flw1': 0, 'flw0': 0, 'roll': 0.09, 'cur2': 0.0, 'cur0': 0.0, 'cur1': 0.0, 'mgs': 0, 'compass': -4.91, 'lipoC2': 0.0, 'temp': 24.8, 'thr3': 35.0, 'depth': 0.119, 'time': 22.91, 'thr2': 31.0, 'yaw': -2.58, 'thr0': 26.0, 'thr1': 26.0}
{'lipoC3S3': 0.0, 'datetime': '2019-02-27 09:56:46.856822', 'pitch': 0.83, 'rot1': 0, 'rot0': 0, 'rot3': 0, 'rot2': 0, 'state': 'normal', 'flw3': 0, 'flw2': 0, 'flw1': 0, 'flw0': 0, 'roll': 0.09, 'cur2': 0.0, 'cur0': 0.0, 'cur1': 0.0, 'mgs': 0, 'compass': -4.91, 'lipoC2': 0.0, 'temp': 24.81, 'thr3': 35.0, 'depth': 0.119, 'time': 23.23, 'thr2': 31.0, 'yaw': -2.58, 'thr0': 26.0, 'thr1': 26.0}
{'lipoC3S3': 0.0, 'datetime': '2019-02-27 09:56:47.177171', 'pitch': 0.83, 'rot1': 0, 'rot0': 0, 'rot3': 0, 'rot2': 0, 'state': 'normal', 'flw3': 0, 'flw2': 0, 'flw1': 0, 'flw0': 0, 'roll': 0.09, 'cur2': 0.0, 'cur0': 0.0, 'cur1': 0.0, 'mgs': 0, 'compass': -4.91, 'lipoC2': 0.0, 'temp': 24.81, 'thr3': 35.0, 'depth': 0.119, 'time': 23.55, 'thr2': 31.0, 'yaw': -2.58, 'thr0': 26.0, 'thr1': 26.0}
{'lipoC3S3': 0.0, 'datetime': '2019-02-27 09:56:47.500045', 'pitch': 0.83, 'rot1': 0, 'rot0': 0, 'rot3': 0, 'rot2': 0, 'state': 'normal', 'flw3': 0, 'flw2': 0, 'flw1': 0, 'flw0': 0, 'roll': 0.09, 'cur2': 0.0, 'cur0': 0.0, 'cur1': 0.0, 'mgs': 0, 'compass': -4.91, 'lipoC2': 0.0, 'temp': 24.81, 'thr3': 35.0, 'depth': 0.119, 'time': 23.87, 'thr2': 31.0, 'yaw': -2.58, 'thr0': 26.0, 'thr1': 26.0}
{'lipoC3S3': 0.0, 'datetime': '2019-02-27 09:56:47.826333', 'pitch': 0.83, 'rot1': 0, 'rot0': 0, 'rot3': 0, 'rot2': 0, 'state': 'normal', 'flw3': 0, 'flw2': 0, 'flw1': 0, 'flw0': 0, 'roll': 0.09, 'cur2': 0.0, 'cur0': 0.0, 'cur1': 0.0, 'mgs': 0, 'compass': -4.91, 'lipoC2': 0.0, 'temp': 24.81, 'thr3': 35.0, 'depth': 0.109, 'time': 24.19, 'thr2': 31.0, 'yaw': -2.58, 'thr0': 26.0, 'thr1': 26.0}
{'lipoC3S3': 0.0, 'datetime': '2019-02-27 09:56:48.143580', 'pitch': 0.83, 'rot1': 0, 'rot0': 0, 'rot3': 0, 'rot2': 0, 'state': 'normal', 'flw3': 0, 'flw2': 0, 'flw1': 0, 'flw0': 0, 'roll': 0.09, 'cur2': 0.0, 'cur0': 0.0, 'cur1': 0.0, 'mgs': 0, 'compass': -4.91, 'lipoC2': 0.0, 'temp': 24.81, 'thr3': 35.0, 'depth': 0.119, 'time': 24.51, 'thr2': 31.0, 'yaw': -2.58, 'thr0': 26.0, 'thr1': 26.0}
{'lipoC3S3': 0.0, 'datetime': '2019-02-27 09:56:48.464382', 'pitch': 0.83, 'rot1': 0, 'rot0': 0, 'rot3': 0, 'rot2': 0, 'state': 'normal', 'flw3': 0, 'flw2': 0, 'flw1': 0, 'flw0': 0, 'roll': 0.09, 'cur2': 0.0, 'cur0': 0.0, 'cur1': 0.0, 'mgs': 0, 'compass': -4.91, 'lipoC2': 0.0, 'temp': 24.8, 'thr3': 35.0, 'depth': 0.119, 'time': 24.84, 'thr2': 31.0, 'yaw': -2.58, 'thr0': 26.0, 'thr1': 26.0}
{'lipoC3S3': 0.0, 'datetime': '2019-02-27 09:56:48.787839', 'pitch': 0.83, 'rot1': 0, 'rot0': 0, 'rot3': 0, 'rot2': 0, 'state': 'normal', 'flw3': 0, 'flw2': 0, 'flw1': 0, 'flw0': 0, 'roll': 0.09, 'cur2': 0.0, 'cur0': 0.0, 'cur1': 0.0, 'mgs': 0, 'compass': -4.88, 'lipoC2': 0.0, 'temp': 24.81, 'thr3': 35.0, 'depth': 0.119, 'time': 25.16, 'thr2': 31.0, 'yaw': -2.55, 'thr0': 26.0, 'thr1': 26.0}
{'lipoC3S3': 0.0, 'datetime': '2019-02-27 09:56:49.113749', 'pitch': 0.83, 'rot1': 0, 'rot0': 0, 'rot3': 0, 'rot2': 0, 'state': 'normal', 'flw3': 0, 'flw2': 0, 'flw1': 0, 'flw0': 0, 'roll': 0.08, 'cur2': 0.0, 'cur0': 0.0, 'cur1': 0.0, 'mgs': 0, 'compass': -4.33, 'lipoC2': 0.0, 'temp': 24.81, 'thr3': 35.0, 'depth': 0.119, 'time': 25.48, 'thr2': 31.0, 'yaw': -2.0, 'thr0': 26.0, 'thr1': 26.0}
{'lipoC3S3': 0.0, 'datetime': '2019-02-27 09:56:49.427253', 'pitch': 0.83, 'rot1': 0, 'rot0': 0, 'rot3': 0, 'rot2': 0, 'state': 'normal', 'flw3': 0, 'flw2': 0, 'flw1': 0, 'flw0': 0, 'roll': 0.08, 'cur2': 0.0, 'cur0': 0.0, 'cur1': 0.0, 'mgs': 0, 'compass': -3.83, 'lipoC2': 0.0, 'temp': 24.81, 'thr3': 35.0, 'depth': 0.119, 'time': 25.8, 'thr2': 31.0, 'yaw': -1.5, 'thr0': 26.0, 'thr1': 26.0}
{'lipoC3S3': 0.0, 'datetime': '2019-02-27 09:56:49.751903', 'pitch': 0.83, 'rot1': 0, 'rot0': 0, 'rot3': 0, 'rot2': 0, 'state': 'normal', 'flw3': 0, 'flw2': 0, 'flw1': 0, 'flw0': 0, 'roll': 0.08, 'cur2': 0.0, 'cur0': 0.0, 'cur1': 0.0, 'mgs': 0, 'compass': -3.83, 'lipoC2': 0.0, 'temp': 24.81, 'thr3': 35.0, 'depth': 0.119, 'time': 26.12, 'thr2': 31.0, 'yaw': -1.5, 'thr0': 26.0, 'thr1': 26.0}
{'lipoC3S3': 0.0, 'datetime': '2019-02-27 09:56:50.072577', 'pitch': 0.83, 'rot1': 0, 'rot0': 0, 'rot3': 0, 'rot2': 0, 'state': 'normal', 'flw3': 0, 'flw2': 0, 'flw1': 0, 'flw0': 0, 'roll': 0.08, 'cur2': 0.0, 'cur0': 0.0, 'cur1': 0.0, 'mgs': 0, 'compass': -3.83, 'lipoC2': 0.0, 'temp': 24.81, 'thr3': 35.0, 'depth': 0.119, 'time': 26.44, 'thr2': 31.0, 'yaw': -1.5, 'thr0': 26.0, 'thr1': 26.0}
{'lipoC3S3': 0.0, 'datetime': '2019-02-27 09:56:50.395447', 'pitch': 0.83, 'rot1': 0, 'rot0': 0, 'rot3': 0, 'rot2': 0, 'state': 'normal', 'flw3': 0, 'flw2': 0, 'flw1': 0, 'flw0': 0, 'roll': 0.08, 'cur2': 0.0, 'cur0': 0.0, 'cur1': 0.0, 'mgs': 0, 'compass': -3.83, 'lipoC2': 0.0, 'temp': 24.81, 'thr3': 35.0, 'depth': 0.119, 'time': 26.76, 'thr2': 31.0, 'yaw': -1.5, 'thr0': 26.0, 'thr1': 26.0}
{'lipoC3S3': 0.0, 'datetime': '2019-02-27 09:56:50.715859', 'pitch': 0.83, 'rot1': 0, 'rot0': 0, 'rot3': 0, 'rot2': 0, 'state': 'normal', 'flw3': 0, 'flw2': 0, 'flw1': 0, 'flw0': 0, 'roll': 0.08, 'cur2': 0.0, 'cur0': 0.0, 'cur1': 0.0, 'mgs': 0, 'compass': -3.83, 'lipoC2': 0.0, 'temp': 24.81, 'thr3': 35.0, 'depth': 0.119, 'time': 27.08, 'thr2': 31.0, 'yaw': -1.5, 'thr0': 26.0, 'thr1': 26.0}
{'lipoC3S3': 0.0, 'datetime': '2019-02-27 09:56:51.039579', 'pitch': 0.83, 'rot1': 0, 'rot0': 0, 'rot3': 0, 'rot2': 0, 'state': 'normal', 'flw3': 0, 'flw2': 0, 'flw1': 0, 'flw0': 0, 'roll': 0.08, 'cur2': 0.0, 'cur0': 0.0, 'cur1': 0.0, 'mgs': 0, 'compass': -3.83, 'lipoC2': 0.0, 'temp': 24.81, 'thr3': 35.0, 'depth': 0.119, 'time': 27.41, 'thr2': 31.0, 'yaw': -1.5, 'thr0': 26.0, 'thr1': 26.0}
{'lipoC3S3': 0.0, 'datetime': '2019-02-27 09:56:51.357740', 'pitch': 0.83, 'rot1': 0, 'rot0': 0, 'rot3': 0, 'rot2': 0, 'state': 'normal', 'flw3': 0, 'flw2': 0, 'flw1': 0, 'flw0': 0, 'roll': 0.08, 'cur2': 0.0, 'cur0': 0.0, 'cur1': 0.0, 'mgs': 0, 'compass': -3.83, 'lipoC2': 0.0, 'temp': 24.81, 'thr3': 35.0, 'depth': 0.119, 'time': 27.73, 'thr2': 31.0, 'yaw': -1.5, 'thr0': 26.0, 'thr1': 26.0}
{'lipoC3S3': 0.0, 'datetime': '2019-02-27 09:56:51.680632', 'pitch': 0.82, 'rot1': 0, 'rot0': 0, 'rot3': 0, 'rot2': 0, 'state': 'normal', 'flw3': 0, 'flw2': 0, 'flw1': 0, 'flw0': 0, 'roll': 0.08, 'cur2': 0.0, 'cur0': 0.0, 'cur1': 0.0, 'mgs': 0, 'compass': -3.9, 'lipoC2': 0.0, 'temp': 24.81, 'thr3': 35.0, 'depth': 0.119, 'time': 28.05, 'thr2': 31.0, 'yaw': -1.57, 'thr0': 26.0, 'thr1': 26.0}
{'lipoC3S3': 0.0, 'datetime': '2019-02-27 09:56:52.006522', 'pitch': 0.82, 'rot1': 0, 'rot0': 0, 'rot3': 0, 'rot2': 0, 'state': 'normal', 'flw3': 0, 'flw2': 0, 'flw1': 0, 'flw0': 0, 'roll': 0.08, 'cur2': 0.0, 'cur0': 0.0, 'cur1': 0.0, 'mgs': 0, 'compass': -3.9, 'lipoC2': 0.0, 'temp': 24.81, 'thr3': 35.0, 'depth': 0.119, 'time': 28.37, 'thr2': 31.0, 'yaw': -1.57, 'thr0': 26.0, 'thr1': 26.0}
{'lipoC3S3': 0.0, 'datetime': '2019-02-27 09:56:52.323202', 'pitch': 0.81, 'rot1': 0, 'rot0': 0, 'rot3': 0, 'rot2': 0, 'state': 'normal', 'flw3': 0, 'flw2': 0, 'flw1': 0, 'flw0': 0, 'roll': 0.08, 'cur2': 0.0, 'cur0': 0.0, 'cur1': 0.0, 'mgs': 0, 'compass': -3.9, 'lipoC2': 0.0, 'temp': 24.81, 'thr3': 35.0, 'depth': 0.119, 'time': 28.69, 'thr2': 31.0, 'yaw': -1.57, 'thr0': 26.0, 'thr1': 26.0}
{'lipoC3S3': 0.0, 'datetime': '2019-02-27 09:56:52.643361', 'pitch': 0.81, 'rot1': 0, 'rot0': 0, 'rot3': 0, 'rot2': 0, 'state': 'normal', 'flw3': 0, 'flw2': 0, 'flw1': 0, 'flw0': 0, 'roll': 0.08, 'cur2': 0.0, 'cur0': 0.0, 'cur1': 0.0, 'mgs': 0, 'compass': -3.9, 'lipoC2': 0.0, 'temp': 24.8, 'thr3': 35.0, 'depth': 0.119, 'time': 29.01, 'thr2': 31.0, 'yaw': -1.57, 'thr0': 26.0, 'thr1': 26.0}
{'lipoC3S3': 0.0, 'datetime': '2019-02-27 09:56:52.965878', 'pitch': 0.81, 'rot1': 0, 'rot0': 0, 'rot3': 0, 'rot2': 0, 'state': 'normal', 'flw3': 0, 'flw2': 0, 'flw1': 0, 'flw0': 0, 'roll': 0.08, 'cur2': 0.0, 'cur0': 0.0, 'cur1': 0.0, 'mgs': 0, 'compass': -3.9, 'lipoC2': 0.0, 'temp': 24.8, 'thr3': 35.0, 'depth': 0.119, 'time': 29.33, 'thr2': 31.0, 'yaw': -1.57, 'thr0': 26.0, 'thr1': 26.0}
{'lipoC3S3': 0.0, 'datetime': '2019-02-27 09:56:53.297741', 'pitch': 0.81, 'rot1': 0, 'rot0': 0, 'rot3': 0, 'rot2': 0, 'state': 'normal', 'flw3': 0, 'flw2': 0, 'flw1': 0, 'flw0': 0, 'roll': 0.08, 'cur2': 0.0, 'cur0': 0.0, 'cur1': 0.0, 'mgs': 0, 'compass': -3.9, 'lipoC2': 0.0, 'temp': 24.8, 'thr3': 35.0, 'depth': 0.119, 'time': 29.66, 'thr2': 31.0, 'yaw': -1.57, 'thr0': 26.0, 'thr1': 26.0}
{'lipoC3S3': 0.0, 'datetime': '2019-02-27 09:56:53.619904', 'pitch': 0.81, 'rot1': 0, 'rot0': 0, 'rot3': 0, 'rot2': 0, 'state': 'normal', 'flw3': 0, 'flw2': 0, 'flw1': 0, 'flw0': 0, 'roll': 0.08, 'cur2': 0.0, 'cur0': 0.0, 'cur1': 0.0, 'mgs': 0, 'compass': -3.9, 'lipoC2': 0.0, 'temp': 24.81, 'thr3': 35.0, 'depth': 0.119, 'time': 29.98, 'thr2': 31.0, 'yaw': -1.57, 'thr0': 26.0, 'thr1': 26.0}
{'lipoC3S3': 0.0, 'datetime': '2019-02-27 09:56:53.941725', 'pitch': 0.81, 'rot1': 0, 'rot0': 0, 'rot3': 0, 'rot2': 0, 'state': 'normal', 'flw3': 0, 'flw2': 0, 'flw1': 0, 'flw0': 0, 'roll': 0.08, 'cur2': 0.0, 'cur0': 0.0, 'cur1': 0.0, 'mgs': 0, 'compass': -3.9, 'lipoC2': 0.0, 'temp': 24.81, 'thr3': 35.0, 'depth': 0.119, 'time': 30.3, 'thr2': 31.0, 'yaw': -1.57, 'thr0': 26.0, 'thr1': 26.0}
{'lipoC3S3': 0.0, 'datetime': '2019-02-27 09:56:54.251718', 'pitch': 0.81, 'rot1': 0, 'rot0': 0, 'rot3': 0, 'rot2': 0, 'state': 'normal', 'flw3': 0, 'flw2': 0, 'flw1': 0, 'flw0': 0, 'roll': 0.08, 'cur2': 0.0, 'cur0': 0.0, 'cur1': 0.0, 'mgs': 0, 'compass': -3.9, 'lipoC2': 0.0, 'temp': 24.8, 'thr3': 35.0, 'depth': 0.119, 'time': 30.62, 'thr2': 31.0, 'yaw': -1.57, 'thr0': 26.0, 'thr1': 26.0}
{'lipoC3S3': 0.0, 'datetime': '2019-02-27 09:56:54.575170', 'pitch': 0.81, 'rot1': 0, 'rot0': 0, 'rot3': 0, 'rot2': 0, 'state': 'normal', 'flw3': 0, 'flw2': 0, 'flw1': 0, 'flw0': 0, 'roll': 0.08, 'cur2': 0.0, 'cur0': 0.0, 'cur1': 0.0, 'mgs': 0, 'compass': -3.9, 'lipoC2': 0.0, 'temp': 24.81, 'thr3': 35.0, 'depth': 0.119, 'time': 30.94, 'thr2': 31.0, 'yaw': -1.57, 'thr0': 26.0, 'thr1': 26.0}
{'lipoC3S3': 0.0, 'datetime': '2019-02-27 09:56:54.906768', 'pitch': 0.81, 'rot1': 0, 'rot0': 0, 'rot3': 0, 'rot2': 0, 'state': 'normal', 'flw3': 0, 'flw2': 0, 'flw1': 0, 'flw0': 0, 'roll': 0.08, 'cur2': 0.0, 'cur0': 0.0, 'cur1': 0.0, 'mgs': 0, 'compass': -3.9, 'lipoC2': 0.0, 'temp': 24.8, 'thr3': 35.0, 'depth': 0.119, 'time': 31.26, 'thr2': 31.0, 'yaw': -1.57, 'thr0': 26.0, 'thr1': 26.0}
{'lipoC3S3': 0.0, 'datetime': '2019-02-27 09:56:55.228440', 'pitch': 0.81, 'rot1': 0, 'rot0': 0, 'rot3': 0, 'rot2': 0, 'state': 'normal', 'flw3': 0, 'flw2': 0, 'flw1': 0, 'flw0': 0, 'roll': 0.08, 'cur2': 0.0, 'cur0': 0.0, 'cur1': 0.0, 'mgs': 0, 'compass': -3.9, 'lipoC2': 0.0, 'temp': 24.81, 'thr3': 35.0, 'depth': 0.119, 'time': 31.58, 'thr2': 31.0, 'yaw': -1.57, 'thr0': 26.0, 'thr1': 26.0}
{'lipoC3S3': 0.0, 'datetime': '2019-02-27 09:56:55.548761', 'pitch': 0.81, 'rot1': 0, 'rot0': 0, 'rot3': 0, 'rot2': 0, 'state': 'normal', 'flw3': 0, 'flw2': 0, 'flw1': 0, 'flw0': 0, 'roll': 0.08, 'cur2': 0.0, 'cur0': 0.0, 'cur1': 0.0, 'mgs': 0, 'compass': -3.9, 'lipoC2': 0.0, 'temp': 24.81, 'thr3': 35.0, 'depth': 0.119, 'time': 31.9, 'thr2': 31.0, 'yaw': -1.57, 'thr0': 26.0, 'thr1': 26.0}
{'lipoC3S3': 0.0, 'datetime': '2019-02-27 09:56:55.872852', 'pitch': 0.81, 'rot1': 0, 'rot0': 0, 'rot3': 0, 'rot2': 0, 'state': 'normal', 'flw3': 0, 'flw2': 0, 'flw1': 0, 'flw0': 0, 'roll': 0.08, 'cur2': 0.0, 'cur0': 0.0, 'cur1': 0.0, 'mgs': 0, 'compass': -3.9, 'lipoC2': 0.0, 'temp': 24.81, 'thr3': 35.0, 'depth': 0.109, 'time': 32.23, 'thr2': 31.0, 'yaw': -1.57, 'thr0': 26.0, 'thr1': 26.0}
{'lipoC3S3': 0.0, 'datetime': '2019-02-27 09:56:56.193198', 'pitch': 0.81, 'rot1': 0, 'rot0': 0, 'rot3': 0, 'rot2': 0, 'state': 'normal', 'flw3': 0, 'flw2': 0, 'flw1': 0, 'flw0': 0, 'roll': 0.08, 'cur2': 0.0, 'cur0': 0.0, 'cur1': 0.0, 'mgs': 0, 'compass': -3.9, 'lipoC2': 0.0, 'temp': 24.81, 'thr3': 35.0, 'depth': 0.119, 'time': 32.55, 'thr2': 31.0, 'yaw': -1.57, 'thr0': 26.0, 'thr1': 26.0}
{'lipoC3S3': 0.0, 'datetime': '2019-02-27 09:56:56.516378', 'pitch': 0.81, 'rot1': 0, 'rot0': 0, 'rot3': 0, 'rot2': 0, 'state': 'normal', 'flw3': 0, 'flw2': 0, 'flw1': 0, 'flw0': 0, 'roll': 0.08, 'cur2': 0.0, 'cur0': 0.0, 'cur1': 0.0, 'mgs': 0, 'compass': -3.9, 'lipoC2': 0.0, 'temp': 24.81, 'thr3': 35.0, 'depth': 0.119, 'time': 32.87, 'thr2': 31.0, 'yaw': -1.57, 'thr0': 26.0, 'thr1': 26.0}
{'lipoC3S3': 0.0, 'datetime': '2019-02-27 09:56:56.841600', 'pitch': 0.81, 'rot1': 0, 'rot0': 0, 'rot3': 0, 'rot2': 0, 'state': 'normal', 'flw3': 0, 'flw2': 0, 'flw1': 0, 'flw0': 0, 'roll': 0.08, 'cur2': 0.0, 'cur0': 0.0, 'cur1': 0.0, 'mgs': 0, 'compass': -3.9, 'lipoC2': 0.0, 'temp': 24.81, 'thr3': 35.0, 'depth': 0.109, 'time': 33.19, 'thr2': 31.0, 'yaw': -1.57, 'thr0': 26.0, 'thr1': 26.0}
{'lipoC3S3': 0.0, 'datetime': '2019-02-27 09:56:57.148454', 'pitch': 0.81, 'rot1': 0, 'rot0': 0, 'rot3': 0, 'rot2': 0, 'state': 'normal', 'flw3': 0, 'flw2': 0, 'flw1': 0, 'flw0': 0, 'roll': 0.08, 'cur2': 0.0, 'cur0': 0.0, 'cur1': 0.0, 'mgs': 0, 'compass': -3.9, 'lipoC2': 0.0, 'temp': 24.8, 'thr3': 35.0, 'depth': 0.119, 'time': 33.51, 'thr2': 31.0, 'yaw': -1.57, 'thr0': 26.0, 'thr1': 26.0}
{'lipoC3S3': 0.0, 'datetime': '2019-02-27 09:56:57.470621', 'pitch': 0.81, 'rot1': 0, 'rot0': 0, 'rot3': 0, 'rot2': 0, 'state': 'normal', 'flw3': 0, 'flw2': 0, 'flw1': 0, 'flw0': 0, 'roll': 0.08, 'cur2': 0.0, 'cur0': 0.0, 'cur1': 0.0, 'mgs': 0, 'compass': -3.9, 'lipoC2': 0.0, 'temp': 24.81, 'thr3': 35.0, 'depth': 0.119, 'time': 33.83, 'thr2': 31.0, 'yaw': -1.57, 'thr0': 26.0, 'thr1': 26.0}
{'lipoC3S3': 0.0, 'datetime': '2019-02-27 09:56:57.800649', 'pitch': 0.81, 'rot1': 0, 'rot0': 0, 'rot3': 0, 'rot2': 0, 'state': 'normal', 'flw3': 0, 'flw2': 0, 'flw1': 0, 'flw0': 0, 'roll': 0.08, 'cur2': 0.0, 'cur0': 0.0, 'cur1': 0.0, 'mgs': 0, 'compass': -3.9, 'lipoC2': 0.0, 'temp': 24.81, 'thr3': 35.0, 'depth': 0.119, 'time': 34.15, 'thr2': 31.0, 'yaw': -1.57, 'thr0': 26.0, 'thr1': 26.0}
{'lipoC3S3': 0.0, 'datetime': '2019-02-27 09:56:58.116106', 'pitch': 0.81, 'rot1': 0, 'rot0': 0, 'rot3': 0, 'rot2': 0, 'state': 'normal', 'flw3': 0, 'flw2': 0, 'flw1': 0, 'flw0': 0, 'roll': 0.08, 'cur2': 0.0, 'cur0': 0.0, 'cur1': 0.0, 'mgs': 0, 'compass': -3.9, 'lipoC2': 0.0, 'temp': 24.81, 'thr3': 35.0, 'depth': 0.119, 'time': 34.48, 'thr2': 31.0, 'yaw': -1.57, 'thr0': 26.0, 'thr1': 26.0}
{'lipoC3S3': 0.0, 'datetime': '2019-02-27 09:56:58.445146', 'pitch': 0.81, 'rot1': 0, 'rot0': 0, 'rot3': 0, 'rot2': 0, 'state': 'normal', 'flw3': 0, 'flw2': 0, 'flw1': 0, 'flw0': 0, 'roll': 0.08, 'cur2': 0.0, 'cur0': 0.0, 'cur1': 0.0, 'mgs': 0, 'compass': -3.9, 'lipoC2': 0.0, 'temp': 24.81, 'thr3': 35.0, 'depth': 0.119, 'time': 34.8, 'thr2': 31.0, 'yaw': -1.57, 'thr0': 26.0, 'thr1': 26.0}
{'lipoC3S3': 0.0, 'datetime': '2019-02-27 09:56:58.764767', 'pitch': 0.81, 'rot1': 0, 'rot0': 0, 'rot3': 0, 'rot2': 0, 'state': 'normal', 'flw3': 0, 'flw2': 0, 'flw1': 0, 'flw0': 0, 'roll': 0.08, 'cur2': 0.0, 'cur0': 0.0, 'cur1': 0.0, 'mgs': 0, 'compass': -3.9, 'lipoC2': 0.0, 'temp': 24.81, 'thr3': 35.0, 'depth': 0.109, 'time': 35.12, 'thr2': 31.0, 'yaw': -1.57, 'thr0': 26.0, 'thr1': 26.0}
{'lipoC3S3': 0.0, 'datetime': '2019-02-27 09:56:59.085383', 'pitch': 0.81, 'rot1': 0, 'rot0': 0, 'rot3': 0, 'rot2': 0, 'state': 'normal', 'flw3': 0, 'flw2': 0, 'flw1': 0, 'flw0': 0, 'roll': 0.08, 'cur2': 0.0, 'cur0': 0.0, 'cur1': 0.0, 'mgs': 0, 'compass': -3.9, 'lipoC2': 0.0, 'temp': 24.81, 'thr3': 35.0, 'depth': 0.109, 'time': 35.44, 'thr2': 31.0, 'yaw': -1.57, 'thr0': 26.0, 'thr1': 26.0}
{'lipoC3S3': 0.0, 'datetime': '2019-02-27 09:56:59.407494', 'pitch': 0.81, 'rot1': 0, 'rot0': 0, 'rot3': 0, 'rot2': 0, 'state': 'normal', 'flw3': 0, 'flw2': 0, 'flw1': 0, 'flw0': 0, 'roll': 0.08, 'cur2': 0.0, 'cur0': 0.0, 'cur1': 0.0, 'mgs': 0, 'compass': -3.9, 'lipoC2': 0.0, 'temp': 24.81, 'thr3': 35.0, 'depth': 0.119, 'time': 35.76, 'thr2': 31.0, 'yaw': -1.57, 'thr0': 26.0, 'thr1': 26.0}
{'lipoC3S3': 0.0, 'datetime': '2019-02-27 09:56:59.729023', 'pitch': 0.81, 'rot1': 0, 'rot0': 0, 'rot3': 0, 'rot2': 0, 'state': 'normal', 'flw3': 0, 'flw2': 0, 'flw1': 0, 'flw0': 0, 'roll': 0.08, 'cur2': 0.0, 'cur0': 0.0, 'cur1': 0.0, 'mgs': 0, 'compass': -3.9, 'lipoC2': 0.0, 'temp': 24.81, 'thr3': 35.0, 'depth': 0.119, 'time': 36.08, 'thr2': 31.0, 'yaw': -1.57, 'thr0': 26.0, 'thr1': 26.0}
{'lipoC3S3': 0.0, 'datetime': '2019-02-27 09:57:00.051606', 'pitch': 0.81, 'rot1': 0, 'rot0': 0, 'rot3': 0, 'rot2': 0, 'state': 'normal', 'flw3': 0, 'flw2': 0, 'flw1': 0, 'flw0': 0, 'roll': 0.08, 'cur2': 0.0, 'cur0': 0.0, 'cur1': 0.0, 'mgs': 0, 'compass': -3.9, 'lipoC2': 0.0, 'temp': 24.81, 'thr3': 35.0, 'depth': 0.119, 'time': 36.4, 'thr2': 31.0, 'yaw': -1.57, 'thr0': 26.0, 'thr1': 26.0}
{'lipoC3S3': 0.0, 'datetime': '2019-02-27 09:57:00.373847', 'pitch': 0.81, 'rot1': 0, 'rot0': 0, 'rot3': 0, 'rot2': 0, 'state': 'normal', 'flw3': 0, 'flw2': 0, 'flw1': 0, 'flw0': 0, 'roll': 0.08, 'cur2': 0.0, 'cur0': 0.0, 'cur1': 0.0, 'mgs': 0, 'compass': -3.9, 'lipoC2': 0.0, 'temp': 24.81, 'thr3': 35.0, 'depth': 0.119, 'time': 36.72, 'thr2': 31.0, 'yaw': -1.57, 'thr0': 26.0, 'thr1': 26.0}
{'lipoC3S3': 0.0, 'datetime': '2019-02-27 09:57:00.692590', 'pitch': 0.81, 'rot1': 0, 'rot0': 0, 'rot3': 0, 'rot2': 0, 'state': 'normal', 'flw3': 0, 'flw2': 0, 'flw1': 0, 'flw0': 0, 'roll': 0.08, 'cur2': 0.0, 'cur0': 0.0, 'cur1': 0.0, 'mgs': 0, 'compass': -3.9, 'lipoC2': 0.0, 'temp': 24.81, 'thr3': 35.0, 'depth': 0.119, 'time': 37.05, 'thr2': 31.0, 'yaw': -1.57, 'thr0': 26.0, 'thr1': 26.0}
{'lipoC3S3': 0.0, 'datetime': '2019-02-27 09:57:01.016509', 'pitch': 0.81, 'rot1': 0, 'rot0': 0, 'rot3': 0, 'rot2': 0, 'state': 'normal', 'flw3': 0, 'flw2': 0, 'flw1': 0, 'flw0': 0, 'roll': 0.07, 'cur2': 0.0, 'cur0': 0.0, 'cur1': 0.0, 'mgs': 0, 'compass': -3.69, 'lipoC2': 0.0, 'temp': 24.81, 'thr3': 35.0, 'depth': 0.119, 'time': 37.37, 'thr2': 31.0, 'yaw': -1.36, 'thr0': 26.0, 'thr1': 26.0}
{'lipoC3S3': 0.0, 'datetime': '2019-02-27 09:57:01.341378', 'pitch': 0.85, 'rot1': 0, 'rot0': 0, 'rot3': 0, 'rot2': 0, 'state': 'normal', 'flw3': 0, 'flw2': 0, 'flw1': 0, 'flw0': 0, 'roll': 0.1, 'cur2': 0.0, 'cur0': 0.0, 'cur1': 0.0, 'mgs': 0, 'compass': -3.24, 'lipoC2': 0.0, 'temp': 24.81, 'thr3': 35.0, 'depth': 0.119, 'time': 37.69, 'thr2': 31.0, 'yaw': -0.91, 'thr0': 26.0, 'thr1': 26.0}
{'lipoC3S3': 0.0, 'datetime': '2019-02-27 09:57:01.660450', 'pitch': 0.84, 'rot1': 0, 'rot0': 0, 'rot3': 0, 'rot2': 0, 'state': 'normal', 'flw3': 0, 'flw2': 0, 'flw1': 0, 'flw0': 0, 'roll': 0.12, 'cur2': 0.0, 'cur0': 0.0, 'cur1': 0.0, 'mgs': 0, 'compass': -3.1, 'lipoC2': 0.0, 'temp': 24.81, 'thr3': 35.0, 'depth': 0.119, 'time': 38.01, 'thr2': 31.0, 'yaw': -0.77, 'thr0': 26.0, 'thr1': 26.0}
{'lipoC3S3': 0.0, 'datetime': '2019-02-27 09:57:01.980064', 'pitch': 0.89, 'rot1': 0, 'rot0': 0, 'rot3': 0, 'rot2': 0, 'state': 'normal', 'flw3': 0, 'flw2': 0, 'flw1': 0, 'flw0': 0, 'roll': 0.15, 'cur2': 0.0, 'cur0': 0.0, 'cur1': 0.0, 'mgs': 0, 'compass': -2.54, 'lipoC2': 0.0, 'temp': 24.81, 'thr3': 35.0, 'depth': 0.119, 'time': 38.33, 'thr2': 31.0, 'yaw': -0.21, 'thr0': 26.0, 'thr1': 26.0}
{'lipoC3S3': 0.0, 'datetime': '2019-02-27 09:57:02.300892', 'pitch': 0.88, 'rot1': 0, 'rot0': 0, 'rot3': 0, 'rot2': 0, 'state': 'normal', 'flw3': 0, 'flw2': 0, 'flw1': 0, 'flw0': 0, 'roll': 0.17, 'cur2': 0.0, 'cur0': 0.0, 'cur1': 0.0, 'mgs': 0, 'compass': -2.54, 'lipoC2': 0.0, 'temp': 24.81, 'thr3': 35.0, 'depth': 0.119, 'time': 38.65, 'thr2': 31.0, 'yaw': -0.22, 'thr0': 26.0, 'thr1': 26.0}
{'lipoC3S3': 0.0, 'datetime': '2019-02-27 09:57:02.620505', 'pitch': 0.88, 'rot1': 0, 'rot0': 0, 'rot3': 0, 'rot2': 0, 'state': 'normal', 'flw3': 0, 'flw2': 0, 'flw1': 0, 'flw0': 0, 'roll': 0.17, 'cur2': 0.0, 'cur0': 0.0, 'cur1': 0.0, 'mgs': 0, 'compass': -2.54, 'lipoC2': 0.0, 'temp': 24.81, 'thr3': 35.0, 'depth': 0.119, 'time': 38.97, 'thr2': 31.0, 'yaw': -0.22, 'thr0': 26.0, 'thr1': 26.0}
{'lipoC3S3': 0.0, 'datetime': '2019-02-27 09:57:02.947216', 'pitch': 0.88, 'rot1': 0, 'rot0': 0, 'rot3': 0, 'rot2': 0, 'state': 'normal', 'flw3': 0, 'flw2': 0, 'flw1': 0, 'flw0': 0, 'roll': 0.17, 'cur2': 0.0, 'cur0': 0.0, 'cur1': 0.0, 'mgs': 0, 'compass': -2.54, 'lipoC2': 0.0, 'temp': 24.81, 'thr3': 35.0, 'depth': 0.119, 'time': 39.29, 'thr2': 31.0, 'yaw': -0.22, 'thr0': 26.0, 'thr1': 26.0}
{'lipoC3S3': 0.0, 'datetime': '2019-02-27 09:57:03.267482', 'pitch': 0.87, 'rot1': 0, 'rot0': 0, 'rot3': 0, 'rot2': 0, 'state': 'normal', 'flw3': 0, 'flw2': 0, 'flw1': 0, 'flw0': 0, 'roll': 0.17, 'cur2': 0.0, 'cur0': 0.0, 'cur1': 0.0, 'mgs': 0, 'compass': -2.54, 'lipoC2': 0.0, 'temp': 24.81, 'thr3': 35.0, 'depth': 0.109, 'time': 39.61, 'thr2': 31.0, 'yaw': -0.22, 'thr0': 26.0, 'thr1': 26.0}
{'lipoC3S3': 0.0, 'datetime': '2019-02-27 09:57:03.589661', 'pitch': 0.87, 'rot1': 0, 'rot0': 0, 'rot3': 0, 'rot2': 0, 'state': 'normal', 'flw3': 0, 'flw2': 0, 'flw1': 0, 'flw0': 0, 'roll': 0.17, 'cur2': 0.0, 'cur0': 0.0, 'cur1': 0.0, 'mgs': 0, 'compass': -2.54, 'lipoC2': 0.0, 'temp': 24.81, 'thr3': 35.0, 'depth': 0.119, 'time': 39.93, 'thr2': 31.0, 'yaw': -0.22, 'thr0': 26.0, 'thr1': 26.0}
{'lipoC3S3': 0.0, 'datetime': '2019-02-27 09:57:03.907513', 'pitch': 0.87, 'rot1': 0, 'rot0': 0, 'rot3': 0, 'rot2': 0, 'state': 'normal', 'flw3': 0, 'flw2': 0, 'flw1': 0, 'flw0': 0, 'roll': 0.17, 'cur2': 0.0, 'cur0': 0.0, 'cur1': 0.0, 'mgs': 0, 'compass': -2.54, 'lipoC2': 0.0, 'temp': 24.81, 'thr3': 35.0, 'depth': 0.119, 'time': 40.26, 'thr2': 31.0, 'yaw': -0.22, 'thr0': 26.0, 'thr1': 26.0}
{'lipoC3S3': 0.0, 'datetime': '2019-02-27 09:57:04.230690', 'pitch': 0.87, 'rot1': 0, 'rot0': 0, 'rot3': 0, 'rot2': 0, 'state': 'normal', 'flw3': 0, 'flw2': 0, 'flw1': 0, 'flw0': 0, 'roll': 0.17, 'cur2': 0.0, 'cur0': 0.0, 'cur1': 0.0, 'mgs': 0, 'compass': -2.54, 'lipoC2': 0.0, 'temp': 24.81, 'thr3': 35.0, 'depth': 0.119, 'time': 40.58, 'thr2': 31.0, 'yaw': -0.22, 'thr0': 26.0, 'thr1': 26.0}
{'lipoC3S3': 0.0, 'datetime': '2019-02-27 09:57:04.549816', 'pitch': 0.87, 'rot1': 0, 'rot0': 0, 'rot3': 0, 'rot2': 0, 'state': 'normal', 'flw3': 0, 'flw2': 0, 'flw1': 0, 'flw0': 0, 'roll': 0.17, 'cur2': 0.0, 'cur0': 0.0, 'cur1': 0.0, 'mgs': 0, 'compass': -2.54, 'lipoC2': 0.0, 'temp': 24.81, 'thr3': 35.0, 'depth': 0.119, 'time': 40.89, 'thr2': 31.0, 'yaw': -0.22, 'thr0': 26.0, 'thr1': 26.0}
{'lipoC3S3': 0.0, 'datetime': '2019-02-27 09:57:04.868611', 'pitch': 0.87, 'rot1': 0, 'rot0': 0, 'rot3': 0, 'rot2': 0, 'state': 'normal', 'flw3': 0, 'flw2': 0, 'flw1': 0, 'flw0': 0, 'roll': 0.17, 'cur2': 0.0, 'cur0': 0.0, 'cur1': 0.0, 'mgs': 0, 'compass': -2.54, 'lipoC2': 0.0, 'temp': 24.81, 'thr3': 35.0, 'depth': 0.119, 'time': 41.21, 'thr2': 31.0, 'yaw': -0.22, 'thr0': 26.0, 'thr1': 26.0}
{'lipoC3S3': 0.0, 'datetime': '2019-02-27 09:57:05.193087', 'pitch': 0.87, 'rot1': 0, 'rot0': 1, 'rot3': 0, 'rot2': 0, 'state': 'normal', 'flw3': 0, 'flw2': 0, 'flw1': 0, 'flw0': 0, 'roll': 0.17, 'cur2': 0.0, 'cur0': 0.0, 'cur1': 0.0, 'mgs': 0, 'compass': -2.54, 'lipoC2': 0.0, 'temp': 24.81, 'thr3': 35.0, 'depth': 0.119, 'time': 41.53, 'thr2': 31.0, 'yaw': -0.22, 'thr0': 26.0, 'thr1': 26.0}
{'lipoC3S3': 0.0, 'datetime': '2019-02-27 09:57:05.503288', 'pitch': 0.87, 'rot1': 0, 'rot0': 1, 'rot3': 0, 'rot2': 0, 'state': 'normal', 'flw3': 0, 'flw2': 0, 'flw1': 0, 'flw0': 0, 'roll': 0.16, 'cur2': 0.0, 'cur0': 0.0, 'cur1': 0.0, 'mgs': 0, 'compass': -2.25, 'lipoC2': 0.0, 'temp': 24.81, 'thr3': 35.0, 'depth': 0.119, 'time': 41.86, 'thr2': 31.0, 'yaw': 0.08, 'thr0': 26.0, 'thr1': 26.0}
{'lipoC3S3': 0.0, 'datetime': '2019-02-27 09:57:05.825970', 'pitch': 0.87, 'rot1': 0, 'rot0': 1, 'rot3': 0, 'rot2': 0, 'state': 'normal', 'flw3': 0, 'flw2': 0, 'flw1': 0, 'flw0': 0, 'roll': 0.16, 'cur2': 0.0, 'cur0': 0.0, 'cur1': 0.0, 'mgs': 0, 'compass': -2.08, 'lipoC2': 0.0, 'temp': 24.81, 'thr3': 35.0, 'depth': 0.119, 'time': 42.18, 'thr2': 31.0, 'yaw': 0.25, 'thr0': 26.0, 'thr1': 26.0}
{'lipoC3S3': 0.0, 'datetime': '2019-02-27 09:57:06.146873', 'pitch': 0.87, 'rot1': 0, 'rot0': 1, 'rot3': 0, 'rot2': 0, 'state': 'normal', 'flw3': 0, 'flw2': 0, 'flw1': 0, 'flw0': 0, 'roll': 0.16, 'cur2': 0.0, 'cur0': 0.0, 'cur1': 0.0, 'mgs': 0, 'compass': -2.08, 'lipoC2': 0.0, 'temp': 24.81, 'thr3': 35.0, 'depth': 0.119, 'time': 42.5, 'thr2': 31.0, 'yaw': 0.25, 'thr0': 26.0, 'thr1': 26.0}
{'lipoC3S3': 0.0, 'datetime': '2019-02-27 09:57:06.469224', 'pitch': 0.86, 'rot1': 0, 'rot0': 1, 'rot3': 0, 'rot2': 0, 'state': 'normal', 'flw3': 0, 'flw2': 0, 'flw1': 0, 'flw0': 0, 'roll': 0.16, 'cur2': 0.0, 'cur0': 0.0, 'cur1': 0.0, 'mgs': 0, 'compass': -2.08, 'lipoC2': 0.0, 'temp': 24.81, 'thr3': 35.0, 'depth': 0.119, 'time': 42.82, 'thr2': 31.0, 'yaw': 0.25, 'thr0': 26.0, 'thr1': 26.0}
{'lipoC3S3': 0.0, 'datetime': '2019-02-27 09:57:06.791447', 'pitch': 0.86, 'rot1': 0, 'rot0': 1, 'rot3': 0, 'rot2': 0, 'state': 'normal', 'flw3': 0, 'flw2': 0, 'flw1': 0, 'flw0': 0, 'roll': 0.16, 'cur2': 0.0, 'cur0': 0.0, 'cur1': 0.0, 'mgs': 0, 'compass': -2.08, 'lipoC2': 0.0, 'temp': 24.81, 'thr3': 35.0, 'depth': 0.119, 'time': 43.14, 'thr2': 31.0, 'yaw': 0.25, 'thr0': 26.0, 'thr1': 26.0}
{'lipoC3S3': 0.0, 'datetime': '2019-02-27 09:57:07.121995', 'pitch': 0.9, 'rot1': 0, 'rot0': 1, 'rot3': 0, 'rot2': 0, 'state': 'normal', 'flw3': 0, 'flw2': 0, 'flw1': 0, 'flw0': 0, 'roll': 0.16, 'cur2': 0.0, 'cur0': 0.0, 'cur1': 0.0, 'mgs': 0, 'compass': -2.08, 'lipoC2': 0.0, 'temp': 24.81, 'thr3': 35.0, 'depth': 0.119, 'time': 43.46, 'thr2': 31.0, 'yaw': 0.25, 'thr0': 26.0, 'thr1': 26.0}
{'lipoC3S3': 0.0, 'datetime': '2019-02-27 09:57:07.444219', 'pitch': 0.9, 'rot1': 0, 'rot0': 1, 'rot3': 0, 'rot2': 0, 'state': 'normal', 'flw3': 0, 'flw2': 0, 'flw1': 0, 'flw0': 0, 'roll': 0.16, 'cur2': 0.0, 'cur0': 0.0, 'cur1': 0.0, 'mgs': 0, 'compass': -2.08, 'lipoC2': 0.0, 'temp': 24.81, 'thr3': 35.0, 'depth': 0.119, 'time': 43.78, 'thr2': 31.0, 'yaw': 0.25, 'thr0': 26.0, 'thr1': 26.0}
{'lipoC3S3': 0.0, 'datetime': '2019-02-27 09:57:07.760007', 'pitch': 0.89, 'rot1': 0, 'rot0': 1, 'rot3': 0, 'rot2': 0, 'state': 'normal', 'flw3': 0, 'flw2': 0, 'flw1': 0, 'flw0': 0, 'roll': 0.16, 'cur2': 0.0, 'cur0': 0.0, 'cur1': 0.0, 'mgs': 0, 'compass': -2.08, 'lipoC2': 0.0, 'temp': 24.81, 'thr3': 35.0, 'depth': 0.119, 'time': 44.1, 'thr2': 31.0, 'yaw': 0.25, 'thr0': 26.0, 'thr1': 26.0}
{'lipoC3S3': 0.0, 'datetime': '2019-02-27 09:57:08.078812', 'pitch': 0.89, 'rot1': 0, 'rot0': 1, 'rot3': 0, 'rot2': 0, 'state': 'normal', 'flw3': 0, 'flw2': 0, 'flw1': 0, 'flw0': 0, 'roll': 0.15, 'cur2': 0.0, 'cur0': 0.0, 'cur1': 0.0, 'mgs': 0, 'compass': -2.08, 'lipoC2': 0.0, 'temp': 24.81, 'thr3': 35.0, 'depth': 0.119, 'time': 44.43, 'thr2': 31.0, 'yaw': 0.25, 'thr0': 26.0, 'thr1': 26.0}
{'lipoC3S3': 0.0, 'datetime': '2019-02-27 09:57:08.398757', 'pitch': 0.9, 'rot1': 0, 'rot0': 1, 'rot3': 0, 'rot2': 0, 'state': 'normal', 'flw3': 0, 'flw2': 0, 'flw1': 0, 'flw0': 0, 'roll': 0.16, 'cur2': 0.0, 'cur0': 0.0, 'cur1': 0.0, 'mgs': 0, 'compass': -2.08, 'lipoC2': 0.0, 'temp': 24.81, 'thr3': 35.0, 'depth': 0.119, 'time': 44.75, 'thr2': 31.0, 'yaw': 0.25, 'thr0': 26.0, 'thr1': 26.0}
{'lipoC3S3': 0.0, 'datetime': '2019-02-27 09:57:08.723953', 'pitch': 0.9, 'rot1': 0, 'rot0': 1, 'rot3': 0, 'rot2': 0, 'state': 'normal', 'flw3': 0, 'flw2': 0, 'flw1': 0, 'flw0': 0, 'roll': 0.16, 'cur2': 0.0, 'cur0': 0.0, 'cur1': 0.0, 'mgs': 0, 'compass': -2.08, 'lipoC2': 0.0, 'temp': 24.81, 'thr3': 35.0, 'depth': 0.119, 'time': 45.07, 'thr2': 31.0, 'yaw': 0.25, 'thr0': 26.0, 'thr1': 26.0}
{'lipoC3S3': 0.0, 'datetime': '2019-02-27 09:57:09.051079', 'pitch': 0.9, 'rot1': 0, 'rot0': 1, 'rot3': 0, 'rot2': 0, 'state': 'normal', 'flw3': 0, 'flw2': 0, 'flw1': 0, 'flw0': 0, 'roll': 0.16, 'cur2': 0.0, 'cur0': 0.0, 'cur1': 0.0, 'mgs': 0, 'compass': -2.08, 'lipoC2': 0.0, 'temp': 24.81, 'thr3': 35.0, 'depth': 0.109, 'time': 45.39, 'thr2': 31.0, 'yaw': 0.25, 'thr0': 26.0, 'thr1': 26.0}
{'lipoC3S3': 0.0, 'datetime': '2019-02-27 09:57:09.367327', 'pitch': 0.89, 'rot1': 0, 'rot0': 1, 'rot3': 0, 'rot2': 0, 'state': 'normal', 'flw3': 0, 'flw2': 0, 'flw1': 0, 'flw0': 0, 'roll': 0.16, 'cur2': 0.0, 'cur0': 0.0, 'cur1': 0.0, 'mgs': 0, 'compass': -2.08, 'lipoC2': 0.0, 'temp': 24.81, 'thr3': 35.0, 'depth': 0.119, 'time': 45.71, 'thr2': 31.0, 'yaw': 0.25, 'thr0': 26.0, 'thr1': 26.0}
{'lipoC3S3': 0.0, 'datetime': '2019-02-27 09:57:09.690697', 'pitch': 0.83, 'rot1': 0, 'rot0': 1, 'rot3': 0, 'rot2': 0, 'state': 'normal', 'flw3': 0, 'flw2': 0, 'flw1': 0, 'flw0': 0, 'roll': 0.15, 'cur2': 0.0, 'cur0': 0.0, 'cur1': 0.0, 'mgs': 0, 'compass': -2.08, 'lipoC2': 0.0, 'temp': 24.81, 'thr3': 35.0, 'depth': 0.119, 'time': 46.03, 'thr2': 31.0, 'yaw': 0.25, 'thr0': 26.0, 'thr1': 26.0}
{'lipoC3S3': 0.0, 'datetime': '2019-02-27 09:57:10.013861', 'pitch': 0.83, 'rot1': 0, 'rot0': 1, 'rot3': 0, 'rot2': 0, 'state': 'normal', 'flw3': 0, 'flw2': 0, 'flw1': 0, 'flw0': 0, 'roll': 0.15, 'cur2': 0.0, 'cur0': 0.0, 'cur1': 0.0, 'mgs': 0, 'compass': -2.08, 'lipoC2': 0.0, 'temp': 24.81, 'thr3': 35.0, 'depth': 0.109, 'time': 46.35, 'thr2': 31.0, 'yaw': 0.25, 'thr0': 26.0, 'thr1': 26.0}
{'lipoC3S3': 0.0, 'datetime': '2019-02-27 09:57:10.335263', 'pitch': 0.83, 'rot1': 0, 'rot0': 1, 'rot3': 0, 'rot2': 0, 'state': 'normal', 'flw3': 0, 'flw2': 0, 'flw1': 0, 'flw0': 0, 'roll': 0.15, 'cur2': 0.0, 'cur0': 0.0, 'cur1': 0.0, 'mgs': 0, 'compass': -2.08, 'lipoC2': 0.0, 'temp': 24.81, 'thr3': 35.0, 'depth': 0.119, 'time': 46.67, 'thr2': 31.0, 'yaw': 0.25, 'thr0': 26.0, 'thr1': 26.0}
{'lipoC3S3': 0.0, 'datetime': '2019-02-27 09:57:10.654740', 'pitch': 0.83, 'rot1': 0, 'rot0': 1, 'rot3': 0, 'rot2': 0, 'state': 'normal', 'flw3': 0, 'flw2': 0, 'flw1': 0, 'flw0': 0, 'roll': 0.15, 'cur2': 0.0, 'cur0': 0.0, 'cur1': 0.0, 'mgs': 0, 'compass': -2.08, 'lipoC2': 0.0, 'temp': 24.81, 'thr3': 35.0, 'depth': 0.119, 'time': 46.99, 'thr2': 31.0, 'yaw': 0.25, 'thr0': 26.0, 'thr1': 26.0}
{'lipoC3S3': 0.0, 'datetime': '2019-02-27 09:57:10.984604', 'pitch': 0.83, 'rot1': 0, 'rot0': 1, 'rot3': 0, 'rot2': 0, 'state': 'normal', 'flw3': 0, 'flw2': 0, 'flw1': 0, 'flw0': 0, 'roll': 0.15, 'cur2': 0.0, 'cur0': 0.0, 'cur1': 0.0, 'mgs': 0, 'compass': -2.08, 'lipoC2': 0.0, 'temp': 24.81, 'thr3': 35.0, 'depth': 0.119, 'time': 47.32, 'thr2': 31.0, 'yaw': 0.25, 'thr0': 26.0, 'thr1': 26.0}
{'lipoC3S3': 0.0, 'datetime': '2019-02-27 09:57:11.303342', 'pitch': 0.84, 'rot1': 0, 'rot0': 1, 'rot3': 0, 'rot2': 0, 'state': 'normal', 'flw3': 0, 'flw2': 0, 'flw1': 0, 'flw0': 0, 'roll': 0.15, 'cur2': 0.0, 'cur0': 0.0, 'cur1': 0.0, 'mgs': 0, 'compass': -1.99, 'lipoC2': 0.0, 'temp': 24.81, 'thr3': 35.0, 'depth': 0.119, 'time': 47.64, 'thr2': 31.0, 'yaw': 0.34, 'thr0': 26.0, 'thr1': 26.0}
{'lipoC3S3': 0.0, 'datetime': '2019-02-27 09:57:11.624474', 'pitch': 0.9, 'rot1': 0, 'rot0': 1, 'rot3': 0, 'rot2': 0, 'state': 'normal', 'flw3': 0, 'flw2': 0, 'flw1': 0, 'flw0': 0, 'roll': 0.22, 'cur2': 0.0, 'cur0': 0.0, 'cur1': 0.0, 'mgs': 0, 'compass': -1.94, 'lipoC2': 0.0, 'temp': 24.81, 'thr3': 35.0, 'depth': 0.119, 'time': 47.96, 'thr2': 31.0, 'yaw': 0.39, 'thr0': 26.0, 'thr1': 26.0}
{'lipoC3S3': 0.0, 'datetime': '2019-02-27 09:57:11.947808', 'pitch': 0.94, 'rot1': 0, 'rot0': 2, 'rot3': 0, 'rot2': 0, 'state': 'normal', 'flw3': 0, 'flw2': 0, 'flw1': 0, 'flw0': 0, 'roll': 0.21, 'cur2': 0.0, 'cur0': 0.0, 'cur1': 0.0, 'mgs': 0, 'compass': -1.96, 'lipoC2': 0.0, 'temp': 24.81, 'thr3': 35.0, 'depth': 0.119, 'time': 48.28, 'thr2': 31.0, 'yaw': 0.37, 'thr0': 26.0, 'thr1': 26.0}
{'lipoC3S3': 0.0, 'datetime': '2019-02-27 09:57:12.264871', 'pitch': 0.93, 'rot1': 0, 'rot0': 2, 'rot3': 0, 'rot2': 0, 'state': 'normal', 'flw3': 0, 'flw2': 0, 'flw1': 0, 'flw0': 0, 'roll': 0.23, 'cur2': 0.0, 'cur0': 0.0, 'cur1': 0.0, 'mgs': 0, 'compass': -1.96, 'lipoC2': 0.0, 'temp': 24.81, 'thr3': 35.0, 'depth': 0.119, 'time': 48.6, 'thr2': 31.0, 'yaw': 0.37, 'thr0': 26.0, 'thr1': 26.0}
{'lipoC3S3': 0.0, 'datetime': '2019-02-27 09:57:12.587151', 'pitch': 0.93, 'rot1': 0, 'rot0': 2, 'rot3': 0, 'rot2': 0, 'state': 'normal', 'flw3': 0, 'flw2': 0, 'flw1': 0, 'flw0': 0, 'roll': 0.25, 'cur2': 0.0, 'cur0': 0.0, 'cur1': 0.0, 'mgs': 0, 'compass': -1.96, 'lipoC2': 0.0, 'temp': 24.81, 'thr3': 35.0, 'depth': 0.119, 'time': 48.92, 'thr2': 31.0, 'yaw': 0.37, 'thr0': 26.0, 'thr1': 26.0}
{'lipoC3S3': 0.0, 'datetime': '2019-02-27 09:57:12.908430', 'pitch': 0.93, 'rot1': 0, 'rot0': 2, 'rot3': 0, 'rot2': 0, 'state': 'normal', 'flw3': 0, 'flw2': 0, 'flw1': 0, 'flw0': 0, 'roll': 0.25, 'cur2': 0.0, 'cur0': 0.0, 'cur1': 0.0, 'mgs': 0, 'compass': -1.96, 'lipoC2': 0.0, 'temp': 24.82, 'thr3': 35.0, 'depth': 0.119, 'time': 49.24, 'thr2': 31.0, 'yaw': 0.37, 'thr0': 26.0, 'thr1': 26.0}
{'lipoC3S3': 0.0, 'datetime': '2019-02-27 09:57:13.232718', 'pitch': 0.93, 'rot1': 0, 'rot0': 2, 'rot3': 0, 'rot2': 0, 'state': 'normal', 'flw3': 0, 'flw2': 0, 'flw1': 0, 'flw0': 0, 'roll': 0.25, 'cur2': 0.0, 'cur0': 0.0, 'cur1': 0.0, 'mgs': 0, 'compass': -1.96, 'lipoC2': 0.0, 'temp': 24.82, 'thr3': 35.0, 'depth': 0.109, 'time': 49.56, 'thr2': 31.0, 'yaw': 0.37, 'thr0': 26.0, 'thr1': 26.0}
{'lipoC3S3': 0.0, 'datetime': '2019-02-27 09:57:13.552844', 'pitch': 0.93, 'rot1': 0, 'rot0': 2, 'rot3': 0, 'rot2': 0, 'state': 'normal', 'flw3': 0, 'flw2': 0, 'flw1': 0, 'flw0': 0, 'roll': 0.25, 'cur2': 0.0, 'cur0': 0.0, 'cur1': 0.0, 'mgs': 0, 'compass': -1.96, 'lipoC2': 0.0, 'temp': 24.81, 'thr3': 35.0, 'depth': 0.109, 'time': 49.89, 'thr2': 31.0, 'yaw': 0.37, 'thr0': 26.0, 'thr1': 26.0}
{'lipoC3S3': 0.0, 'datetime': '2019-02-27 09:57:13.873848', 'pitch': 0.93, 'rot1': 0, 'rot0': 2, 'rot3': 0, 'rot2': 0, 'state': 'normal', 'flw3': 0, 'flw2': 0, 'flw1': 0, 'flw0': 0, 'roll': 0.24, 'cur2': 0.0, 'cur0': 0.0, 'cur1': 0.0, 'mgs': 0, 'compass': -1.54, 'lipoC2': 0.0, 'temp': 24.81, 'thr3': 35.0, 'depth': 0.119, 'time': 50.21, 'thr2': 31.0, 'yaw': 0.79, 'thr0': 26.0, 'thr1': 26.0}
