{'lipoC2': 0.0, 'temp': 0.0, 'lipoC3S3': 11.87, 'state': 'normal', 'rot1': 0, 'rot0': 0, 'rot3': 0, 'rot2': 0, 'depth': -0.293, 'yaw': 0.0, 'datetime': '2018-12-18 21:11:25.272945', 'mgs': 0, 'flw2': 0.2, 'flw1': 0.0, 'flw0': 0.0, 'time': 1.25, 'compass': -129.79, 'pitch': -0.22, 'roll': -0.85}
{'lipoC2': 0.04, 'temp': 0.0, 'lipoC3S3': 11.89, 'state': 'normal', 'rot1': 0, 'rot0': 0, 'rot3': 0, 'rot2': 0, 'depth': -2.429, 'yaw': -2.37, 'datetime': '2018-12-18 21:11:25.482770', 'mgs': 0, 'flw2': 0.0, 'flw1': 0.29, 'flw0': 0.07, 'time': 1.46, 'compass': -132.15, 'pitch': -0.06, 'roll': -0.88}
{'lipoC2': 0.0, 'temp': 0.0, 'lipoC3S3': 11.85, 'state': 'normal', 'rot1': 0, 'rot0': 0, 'rot3': 0, 'rot2': 0, 'depth': 0.241, 'yaw': -3.56, 'datetime': '2018-12-18 21:11:25.688809', 'mgs': 0, 'flw2': 0.0, 'flw1': 0.26, 'flw0': 0.0, 'time': 1.67, 'compass': -133.35, 'pitch': 0.3, 'roll': -1.01}
{'lipoC2': 0.1, 'temp': 0.0, 'lipoC3S3': 11.96, 'state': 'normal', 'rot1': 0, 'rot0': 0, 'rot3': 0, 'rot2': 0, 'depth': -2.277, 'yaw': -5.17, 'datetime': '2018-12-18 21:11:25.897045', 'mgs': 0, 'flw2': 0.2, 'flw1': 0.0, 'flw0': 0.0, 'time': 1.88, 'compass': -134.95, 'pitch': 0.47, 'roll': -1.05}
{'lipoC2': 0.14, 'temp': 0.0, 'lipoC3S3': 11.73, 'state': 'normal', 'rot1': 0, 'rot0': 0, 'rot3': 0, 'rot2': 0, 'depth': 0.012, 'yaw': -6.47, 'datetime': '2018-12-18 21:11:26.105829', 'mgs': 0, 'flw2': 0.0, 'flw1': 0.44, 'flw0': 0.0, 'time': 2.09, 'compass': -136.26, 'pitch': 0.33, 'roll': -0.98}
{'lipoC2': 0.06, 'temp': 0.0, 'lipoC3S3': 11.89, 'state': 'normal', 'rot1': 0, 'rot0': 0, 'rot3': 0, 'rot2': 0, 'depth': -2.353, 'yaw': -7.51, 'datetime': '2018-12-18 21:11:26.312685', 'mgs': 0, 'flw2': 0.0, 'flw1': 0.26, 'flw0': 0.1, 'time': 2.29, 'compass': -137.29, 'pitch': 0.15, 'roll': -0.83}
{'lipoC2': 0.1, 'temp': 0.0, 'lipoC3S3': 11.87, 'state': 'normal', 'rot1': 0, 'rot0': 0, 'rot3': 0, 'rot2': 0, 'depth': -2.2, 'yaw': -8.7, 'datetime': '2018-12-18 21:11:26.519858', 'mgs': 0, 'flw2': 0.0, 'flw1': 0.35, 'flw0': 0.04, 'time': 2.5, 'compass': -138.49, 'pitch': 0.16, 'roll': -0.85}
{'lipoC2': 0.0, 'temp': 0.0, 'lipoC3S3': 12.04, 'state': 'normal', 'rot1': 0, 'rot0': 0, 'rot3': 0, 'rot2': 0, 'depth': 1.157, 'yaw': -9.62, 'datetime': '2018-12-18 21:11:26.729064', 'mgs': 0, 'flw2': 0.06, 'flw1': 0.29, 'flw0': 0.15, 'time': 2.71, 'compass': -139.4, 'pitch': 0.22, 'roll': -1.06}
{'lipoC2': 0.08, 'temp': 0.0, 'lipoC3S3': 11.89, 'state': 'normal', 'rot1': 0, 'rot0': 0, 'rot3': 0, 'rot2': 0, 'depth': 1.309, 'yaw': -10.46, 'datetime': '2018-12-18 21:11:26.938177', 'mgs': 0, 'flw2': 0.12, 'flw1': 0.0, 'flw0': 0.0, 'time': 2.92, 'compass': -140.24, 'pitch': 0.23, 'roll': -1.14}
{'lipoC2': 0.0, 'temp': 0.0, 'lipoC3S3': 11.87, 'state': 'normal', 'rot1': 0, 'rot0': 0, 'rot3': 0, 'rot2': 0, 'depth': -0.369, 'yaw': -11.32, 'datetime': '2018-12-18 21:11:27.145755', 'mgs': 0, 'flw2': 0.0, 'flw1': 0.41, 'flw0': 0.01, 'time': 3.13, 'compass': -141.11, 'pitch': 0.16, 'roll': -1.05}
{'lipoC2': 0.03, 'temp': 0.0, 'lipoC3S3': 11.65, 'state': 'normal', 'rot1': 0, 'rot0': 0, 'rot3': 0, 'rot2': 0, 'depth': 0.775, 'yaw': -12.21, 'datetime': '2018-12-18 21:11:27.352917', 'mgs': 0, 'flw2': 0.23, 'flw1': 0.0, 'flw0': 0.0, 'time': 3.33, 'compass': -141.99, 'pitch': 0.26, 'roll': -1.0}
{'lipoC2': 0.0, 'temp': 0.0, 'lipoC3S3': 11.81, 'state': 'normal', 'rot1': 0, 'rot0': 0, 'rot3': 0, 'rot2': 0, 'depth': -0.598, 'yaw': -13.02, 'datetime': '2018-12-18 21:11:27.560841', 'mgs': 0, 'flw2': 0.0, 'flw1': 0.53, 'flw0': 0.0, 'time': 3.54, 'compass': -142.81, 'pitch': 0.54, 'roll': -0.99}
{'lipoC2': 0.04, 'temp': 0.0, 'lipoC3S3': 11.9, 'state': 'normal', 'rot1': 0, 'rot0': 0, 'rot3': 0, 'rot2': 0, 'depth': -2.277, 'yaw': -13.85, 'datetime': '2018-12-18 21:11:27.767616', 'mgs': 0, 'flw2': 0.15, 'flw1': 0.0, 'flw0': 0.0, 'time': 3.75, 'compass': -143.64, 'pitch': 0.6, 'roll': -0.99}
{'lipoC2': 0.0, 'temp': 0.0, 'lipoC3S3': 12.06, 'state': 'normal', 'rot1': 0, 'rot0': 0, 'rot3': 0, 'rot2': 0, 'depth': 1.157, 'yaw': -14.69, 'datetime': '2018-12-18 21:11:27.977231', 'mgs': 0, 'flw2': 0.0, 'flw1': 0.0, 'flw0': 0.22, 'time': 3.95, 'compass': -144.48, 'pitch': 0.3, 'roll': -0.98}
{'lipoC2': 0.05, 'temp': 0.0, 'lipoC3S3': 11.64, 'state': 'normal', 'rot1': 0, 'rot0': 0, 'rot3': 0, 'rot2': 0, 'depth': 0.775, 'yaw': -15.49, 'datetime': '2018-12-18 21:11:28.185877', 'mgs': 0, 'flw2': 0.18, 'flw1': 0.06, 'flw0': 0.0, 'time': 4.16, 'compass': -145.27, 'pitch': 0.21, 'roll': -0.97}
{'lipoC2': 0.0, 'temp': 0.0, 'lipoC3S3': 11.84, 'state': 'normal', 'rot1': 0, 'rot0': 0, 'rot3': 0, 'rot2': 0, 'depth': -0.522, 'yaw': -16.31, 'datetime': '2018-12-18 21:11:28.393088', 'mgs': 0, 'flw2': 0.0, 'flw1': 0.47, 'flw0': 0.0, 'time': 4.37, 'compass': -146.09, 'pitch': 0.57, 'roll': -0.97}
{'lipoC2': 0.0, 'temp': 0.0, 'lipoC3S3': 12.05, 'state': 'normal', 'rot1': 0, 'rot0': 0, 'rot3': 0, 'rot2': 0, 'depth': 1.157, 'yaw': -17.13, 'datetime': '2018-12-18 21:11:28.601652', 'mgs': 0, 'flw2': 0.0, 'flw1': 0.0, 'flw0': 0.22, 'time': 4.58, 'compass': -146.91, 'pitch': 0.82, 'roll': -0.96}
{'lipoC2': 0.17, 'temp': 0.0, 'lipoC3S3': 11.76, 'state': 'normal', 'rot1': 0, 'rot0': 0, 'rot3': 0, 'rot2': 0, 'depth': -0.674, 'yaw': -17.9, 'datetime': '2018-12-18 21:11:28.809547', 'mgs': 0, 'flw2': 0.12, 'flw1': 0.0, 'flw0': 0.0, 'time': 4.79, 'compass': -147.69, 'pitch': 0.66, 'roll': -0.95}
{'lipoC2': 0.0, 'temp': 0.0, 'lipoC3S3': 11.76, 'state': 'normal', 'rot1': 0, 'rot0': 0, 'rot3': 0, 'rot2': 0, 'depth': -1.208, 'yaw': -18.72, 'datetime': '2018-12-18 21:11:29.018069', 'mgs': 0, 'flw2': 0.0, 'flw1': 0.53, 'flw0': 0.0, 'time': 4.99, 'compass': -148.5, 'pitch': 0.37, 'roll': -0.94}
{'lipoC2': 0.0, 'temp': 0.0, 'lipoC3S3': 12.06, 'state': 'normal', 'rot1': 0, 'rot0': 0, 'rot3': 0, 'rot2': 0, 'depth': 1.385, 'yaw': -19.51, 'datetime': '2018-12-18 21:11:29.225448', 'mgs': 0, 'flw2': 0.0, 'flw1': 0.0, 'flw0': 0.24, 'time': 5.2, 'compass': -149.3, 'pitch': 0.45, 'roll': -0.88}
{'lipoC2': 0.1, 'temp': 0.0, 'lipoC3S3': 11.87, 'state': 'normal', 'rot1': 0, 'rot0': 0, 'rot3': 0, 'rot2': 0, 'depth': -2.277, 'yaw': -20.25, 'datetime': '2018-12-18 21:11:29.433836', 'mgs': 0, 'flw2': 0.12, 'flw1': 0.0, 'flw0': 0.0, 'time': 5.41, 'compass': -150.03, 'pitch': 0.69, 'roll': -0.8}
{'lipoC2': 0.0, 'temp': 0.0, 'lipoC3S3': 12.04, 'state': 'normal', 'rot1': 0, 'rot0': 0, 'rot3': 0, 'rot2': 0, 'depth': 1.309, 'yaw': -21.04, 'datetime': '2018-12-18 21:11:29.643158', 'mgs': 0, 'flw2': 0.0, 'flw1': 0.0, 'flw0': 0.23, 'time': 5.62, 'compass': -150.82, 'pitch': 0.73, 'roll': -0.79}
{'lipoC2': 0.09, 'temp': 0.0, 'lipoC3S3': 11.65, 'state': 'normal', 'rot1': 0, 'rot0': 0, 'rot3': 0, 'rot2': 0, 'depth': 0.775, 'yaw': -21.81, 'datetime': '2018-12-18 21:11:29.850321', 'mgs': 0, 'flw2': 0.0, 'flw1': 0.44, 'flw0': 0.0, 'time': 5.83, 'compass': -151.59, 'pitch': 0.71, 'roll': -0.78}
{'lipoC2': 0.06, 'temp': 0.0, 'lipoC3S3': 11.9, 'state': 'normal', 'rot1': 0, 'rot0': 0, 'rot3': 0, 'rot2': 0, 'depth': -2.582, 'yaw': -22.58, 'datetime': '2018-12-18 21:11:30.060706', 'mgs': 0, 'flw2': 0.0, 'flw1': 0.26, 'flw0': 0.07, 'time': 6.03, 'compass': -152.37, 'pitch': 0.72, 'roll': -0.77}
{'lipoC2': 0.0, 'temp': 0.0, 'lipoC3S3': 11.67, 'state': 'normal', 'rot1': 2, 'rot0': 1, 'rot3': 0, 'rot2': 0, 'depth': -0.827, 'yaw': -24.05, 'datetime': '2018-12-18 21:11:30.366200', 'mgs': 0, 'flw2': 2.82, 'flw1': 0.26, 'flw0': 0.99, 'time': 6.35, 'compass': -153.83, 'pitch': 1.21, 'roll': -0.92}
{'lipoC2': 0.0, 'temp': 0.0, 'lipoC3S3': 12.0, 'state': 'normal', 'rot1': 4, 'rot0': 4, 'rot3': 0, 'rot2': 0, 'depth': 1.538, 'yaw': -23.75, 'datetime': '2018-12-18 21:11:30.572908', 'mgs': 0, 'flw2': 2.88, 'flw1': 0.0, 'flw0': 0.38, 'time': 6.55, 'compass': -153.54, 'pitch': 3.07, 'roll': -0.74}
{'lipoC2': 0.0, 'temp': 0.0, 'lipoC3S3': 12.09, 'state': 'normal', 'rot1': 6, 'rot0': 7, 'rot3': 0, 'rot2': 0, 'depth': 1.92, 'yaw': -21.69, 'datetime': '2018-12-18 21:11:30.781102', 'mgs': 0, 'flw2': 2.97, 'flw1': 0.0, 'flw0': 0.39, 'time': 6.76, 'compass': -151.48, 'pitch': 4.27, 'roll': -0.31}
{'lipoC2': 0.0, 'temp': 0.0, 'lipoC3S3': 12.12, 'state': 'normal', 'rot1': 8, 'rot0': 10, 'rot3': 0, 'rot2': 0, 'depth': -1.285, 'yaw': -18.39, 'datetime': '2018-12-18 21:11:30.989931', 'mgs': 0, 'flw2': 2.88, 'flw1': 0.0, 'flw0': 0.35, 'time': 6.97, 'compass': -148.18, 'pitch': 3.97, 'roll': 0.1}
{'lipoC2': 0.14, 'temp': 0.0, 'lipoC3S3': 11.85, 'state': 'normal', 'rot1': 10, 'rot0': 12, 'rot3': 0, 'rot2': 0, 'depth': -1.819, 'yaw': -14.59, 'datetime': '2018-12-18 21:11:31.199639', 'mgs': 0, 'flw2': 2.42, 'flw1': 0.53, 'flw0': 0.72, 'time': 7.18, 'compass': -144.38, 'pitch': 3.5, 'roll': 0.03}
{'lipoC2': 0.0, 'temp': 0.0, 'lipoC3S3': 11.84, 'state': 'normal', 'rot1': 12, 'rot0': 15, 'rot3': 0, 'rot2': 0, 'depth': -0.293, 'yaw': -10.12, 'datetime': '2018-12-18 21:11:31.407965', 'mgs': 0, 'flw2': 2.42, 'flw1': 0.53, 'flw0': 0.72, 'time': 7.39, 'compass': -139.91, 'pitch': 3.48, 'roll': -0.27}
{'lipoC2': 0.08, 'temp': 0.0, 'lipoC3S3': 11.89, 'state': 'normal', 'rot1': 13, 'rot0': 18, 'rot3': 0, 'rot2': 0, 'depth': 1.385, 'yaw': -5.31, 'datetime': '2018-12-18 21:11:31.631864', 'mgs': 0, 'flw2': 2.71, 'flw1': 0.0, 'flw0': 0.46, 'time': 7.6, 'compass': -135.09, 'pitch': 3.39, 'roll': -0.37}
{'lipoC2': 0.0, 'temp': 0.0, 'lipoC3S3': 12.06, 'state': 'normal', 'rot1': 15, 'rot0': 21, 'rot3': 0, 'rot2': 0, 'depth': 1.385, 'yaw': 2.13, 'datetime': '2018-12-18 21:11:31.936799', 'mgs': 0, 'flw2': 2.77, 'flw1': 0.32, 'flw0': 2.73, 'time': 7.91, 'compass': -127.66, 'pitch': 2.89, 'roll': 0.21}
{'lipoC2': 0.18, 'temp': 0.0, 'lipoC3S3': 11.79, 'state': 'normal', 'rot1': 18, 'rot0': 23, 'rot3': 0, 'rot2': 0, 'depth': -0.827, 'yaw': 5.49, 'datetime': '2018-12-18 21:11:32.146083', 'mgs': 0, 'flw2': 2.59, 'flw1': 0.56, 'flw0': 2.86, 'time': 8.12, 'compass': -124.3, 'pitch': 3.63, 'roll': 0.72}
{'lipoC2': 0.17, 'temp': 0.0, 'lipoC3S3': 11.81, 'state': 'normal', 'rot1': 20, 'rot0': 25, 'rot3': 0, 'rot2': 0, 'depth': 0.47, 'yaw': 6.47, 'datetime': '2018-12-18 21:11:32.354689', 'mgs': 0, 'flw2': 0.5, 'flw1': 0.5, 'flw0': 2.78, 'time': 8.32, 'compass': -123.32, 'pitch': 4.1, 'roll': 0.95}
{'lipoC2': 0.16, 'temp': 0.0, 'lipoC3S3': 11.83, 'state': 'normal', 'rot1': 23, 'rot0': 26, 'rot3': 0, 'rot2': 0, 'depth': 0.851, 'yaw': 5.85, 'datetime': '2018-12-18 21:11:32.564197', 'mgs': 0, 'flw2': 0.52, 'flw1': 0.53, 'flw0': 2.91, 'time': 8.53, 'compass': -123.94, 'pitch': 3.01, 'roll': 0.76}
{'lipoC2': 0.0, 'temp': 0.0, 'lipoC3S3': 12.04, 'state': 'normal', 'rot1': 25, 'rot0': 28, 'rot3': 0, 'rot2': 0, 'depth': 1.614, 'yaw': 3.0, 'datetime': '2018-12-18 21:11:32.773934', 'mgs': 0, 'flw2': 0.71, 'flw1': 0.0, 'flw0': 2.89, 'time': 8.74, 'compass': -126.78, 'pitch': 1.9, 'roll': 0.2}
{'lipoC2': 0.0, 'temp': 0.0, 'lipoC3S3': 11.87, 'state': 'normal', 'rot1': 28, 'rot0': 30, 'rot3': 0, 'rot2': 0, 'depth': -0.217, 'yaw': 0.25, 'datetime': '2018-12-18 21:11:32.983005', 'mgs': 0, 'flw2': 2.67, 'flw1': 0.62, 'flw0': 2.76, 'time': 8.95, 'compass': -129.54, 'pitch': 2.09, 'roll': -0.38}
{'lipoC2': 0.0, 'temp': 0.0, 'lipoC3S3': 11.89, 'state': 'normal', 'rot1': 30, 'rot0': 32, 'rot3': 0, 'rot2': 0, 'depth': -1.208, 'yaw': -1.76, 'datetime': '2018-12-18 21:11:33.192079', 'mgs': 0, 'flw2': 2.84, 'flw1': 0.0, 'flw0': 2.62, 'time': 9.16, 'compass': -131.55, 'pitch': 3.4, 'roll': -0.6}
{'lipoC2': 0.0, 'temp': 0.0, 'lipoC3S3': 11.85, 'state': 'normal', 'rot1': 31, 'rot0': 32, 'rot3': 0, 'rot2': 0, 'depth': 0.47, 'yaw': -2.59, 'datetime': '2018-12-18 21:11:33.399379', 'mgs': 0, 'flw2': 0.0, 'flw1': 0.29, 'flw0': 0.0, 'time': 9.37, 'compass': -132.38, 'pitch': 3.25, 'roll': -0.33}
{'lipoC2': 0.13, 'temp': 0.0, 'lipoC3S3': 11.85, 'state': 'normal', 'rot1': 31, 'rot0': 32, 'rot3': 0, 'rot2': 0, 'depth': -2.353, 'yaw': -3.46, 'datetime': '2018-12-18 21:11:33.608934', 'mgs': 0, 'flw2': 0.0, 'flw1': 0.29, 'flw0': 0.0, 'time': 9.58, 'compass': -133.25, 'pitch': 0.58, 'roll': 0.09}
{'lipoC2': 0.1, 'temp': 0.0, 'lipoC3S3': 11.64, 'state': 'normal', 'rot1': 33, 'rot0': 34, 'rot3': 0, 'rot2': 0, 'depth': -0.369, 'yaw': -4.54, 'datetime': '2018-12-18 21:11:33.818316', 'mgs': 0, 'flw2': 2.67, 'flw1': 0.26, 'flw0': 2.61, 'time': 9.79, 'compass': -134.33, 'pitch': -0.26, 'roll': 0.0}
{'lipoC2': 0.0, 'temp': 0.0, 'lipoC3S3': 11.84, 'state': 'normal', 'rot1': 35, 'rot0': 36, 'rot3': 0, 'rot2': 0, 'depth': 0.623, 'yaw': -5.42, 'datetime': '2018-12-18 21:11:34.027368', 'mgs': 0, 'flw2': 2.51, 'flw1': 0.47, 'flw0': 0.62, 'time': 10.0, 'compass': -135.21, 'pitch': 2.82, 'roll': -0.45}
{'lipoC2': 0.14, 'temp': 0.0, 'lipoC3S3': 11.69, 'state': 'normal', 'rot1': 36, 'rot0': 39, 'rot3': 0, 'rot2': 0, 'depth': -0.217, 'yaw': -4.99, 'datetime': '2018-12-18 21:11:34.237692', 'mgs': 0, 'flw2': 2.49, 'flw1': 0.41, 'flw0': 0.84, 'time': 10.21, 'compass': -134.78, 'pitch': 4.02, 'roll': -0.45}
{'lipoC2': 0.0, 'temp': 0.0, 'lipoC3S3': 11.73, 'state': 'normal', 'rot1': 38, 'rot0': 41, 'rot3': 0, 'rot2': 0, 'depth': -1.361, 'yaw': -3.73, 'datetime': '2018-12-18 21:11:34.446109', 'mgs': 0, 'flw2': 2.5, 'flw1': 0.44, 'flw0': 0.66, 'time': 10.41, 'compass': -133.51, 'pitch': 2.75, 'roll': 0.05}
{'lipoC2': 0.13, 'temp': 0.0, 'lipoC3S3': 11.65, 'state': 'normal', 'rot1': 39, 'rot0': 43, 'rot3': 0, 'rot2': 0, 'depth': -0.217, 'yaw': -0.84, 'datetime': '2018-12-18 21:11:34.654093', 'mgs': 0, 'flw2': 2.6, 'flw1': 0.18, 'flw0': 2.71, 'time': 10.62, 'compass': -130.63, 'pitch': 1.92, 'roll': 0.62}
{'lipoC2': 0.04, 'temp': 0.0, 'lipoC3S3': 11.64, 'state': 'normal', 'rot1': 42, 'rot0': 45, 'rot3': 0, 'rot2': 0, 'depth': -0.369, 'yaw': 1.51, 'datetime': '2018-12-18 21:11:34.864346', 'mgs': 0, 'flw2': 2.67, 'flw1': 0.03, 'flw0': 2.6, 'time': 10.83, 'compass': -128.28, 'pitch': 3.24, 'roll': 0.7}
{'lipoC2': 0.13, 'temp': 0.0, 'lipoC3S3': 11.87, 'state': 'normal', 'rot1': 44, 'rot0': 48, 'rot3': 0, 'rot2': 0, 'depth': 1.233, 'yaw': 2.98, 'datetime': '2018-12-18 21:11:35.072841', 'mgs': 0, 'flw2': 2.36, 'flw1': 0.44, 'flw0': 2.67, 'time': 11.04, 'compass': -126.81, 'pitch': 4.74, 'roll': 0.44}
{'lipoC2': 0.0, 'temp': 0.0, 'lipoC3S3': 12.05, 'state': 'normal', 'rot1': 46, 'rot0': 50, 'rot3': 0, 'rot2': 0, 'depth': -2.582, 'yaw': 2.36, 'datetime': '2018-12-18 21:11:35.282706', 'mgs': 0, 'flw2': 2.58, 'flw1': 0.0, 'flw0': 3.06, 'time': 11.25, 'compass': -127.43, 'pitch': 5.04, 'roll': 0.08}
{'lipoC2': 0.0, 'temp': 0.0, 'lipoC3S3': 11.81, 'state': 'normal', 'rot1': 49, 'rot0': 52, 'rot3': 0, 'rot2': 0, 'depth': -0.446, 'yaw': 1.49, 'datetime': '2018-12-18 21:11:35.493442', 'mgs': 0, 'flw2': 2.5, 'flw1': 0.5, 'flw0': 2.73, 'time': 11.46, 'compass': -128.29, 'pitch': 4.45, 'roll': -0.1}
{'lipoC2': 0.0, 'temp': 0.0, 'lipoC3S3': 11.87, 'state': 'normal', 'rot1': 51, 'rot0': 54, 'rot3': 0, 'rot2': 0, 'depth': 0.394, 'yaw': 0.91, 'datetime': '2018-12-18 21:11:35.701818', 'mgs': 0, 'flw2': 2.97, 'flw1': 0.0, 'flw0': 2.59, 'time': 11.67, 'compass': -128.88, 'pitch': 3.86, 'roll': -0.13}
{'lipoC2': 0.15, 'temp': 0.0, 'lipoC3S3': 11.71, 'state': 'normal', 'rot1': 53, 'rot0': 57, 'rot3': 0, 'rot2': 0, 'depth': 0.394, 'yaw': -0.36, 'datetime': '2018-12-18 21:11:35.910331', 'mgs': 0, 'flw2': 2.73, 'flw1': 0.32, 'flw0': 2.7, 'time': 11.88, 'compass': -130.15, 'pitch': 3.75, 'roll': -0.29}
{'lipoC2': 0.18, 'temp': 0.0, 'lipoC3S3': 11.77, 'state': 'normal', 'rot1': 56, 'rot0': 59, 'rot3': 0, 'rot2': 0, 'depth': -0.827, 'yaw': -1.47, 'datetime': '2018-12-18 21:11:36.120429', 'mgs': 0, 'flw2': 2.56, 'flw1': 0.47, 'flw0': 2.89, 'time': 12.09, 'compass': -131.26, 'pitch': 3.77, 'roll': -0.38}
{'lipoC2': 0.0, 'temp': 0.0, 'lipoC3S3': 11.83, 'state': 'normal', 'rot1': 59, 'rot0': 62, 'rot3': 0, 'rot2': 0, 'depth': -0.446, 'yaw': -2.81, 'datetime': '2018-12-18 21:11:36.330973', 'mgs': 0, 'flw2': 2.55, 'flw1': 0.5, 'flw0': 2.78, 'time': 12.3, 'compass': -132.6, 'pitch': 3.86, 'roll': -0.2}
{'lipoC2': 0.0, 'temp': 0.0, 'lipoC3S3': 12.06, 'state': 'normal', 'rot1': 62, 'rot0': 64, 'rot3': 0, 'rot2': 0, 'depth': 1.614, 'yaw': -4.19, 'datetime': '2018-12-18 21:11:36.540162', 'mgs': 0, 'flw2': 2.66, 'flw1': 0.0, 'flw0': 2.83, 'time': 12.51, 'compass': -133.98, 'pitch': 3.64, 'roll': 0.12}
{'lipoC2': 0.11, 'temp': 0.0, 'lipoC3S3': 11.87, 'state': 'normal', 'rot1': 62, 'rot0': 64, 'rot3': 0, 'rot2': 0, 'depth': -2.429, 'yaw': -5.17, 'datetime': '2018-12-18 21:11:36.749779', 'mgs': 0, 'flw2': 0.2, 'flw1': 0.0, 'flw0': 0.0, 'time': 12.71, 'compass': -134.96, 'pitch': 2.41, 'roll': 0.35}
{'lipoC2': 0.13, 'temp': 0.0, 'lipoC3S3': 11.85, 'state': 'normal', 'rot1': 62, 'rot0': 64, 'rot3': 0, 'rot2': 0, 'depth': -2.124, 'yaw': -6.38, 'datetime': '2018-12-18 21:11:36.958606', 'mgs': 0, 'flw2': 0.11, 'flw1': 0.41, 'flw0': 0.0, 'time': 12.92, 'compass': -136.17, 'pitch': 0.0, 'roll': 0.4}
{'lipoC2': 0.0, 'temp': 0.0, 'lipoC3S3': 11.81, 'state': 'normal', 'rot1': 62, 'rot0': 64, 'rot3': 0, 'rot2': 0, 'depth': 0.241, 'yaw': -7.47, 'datetime': '2018-12-18 21:11:37.161569', 'mgs': 0, 'flw2': 0.0, 'flw1': 0.5, 'flw0': 0.0, 'time': 13.13, 'compass': -137.26, 'pitch': -0.94, 'roll': 0.23}
{'lipoC2': 0.14, 'temp': 0.0, 'lipoC3S3': 11.85, 'state': 'normal', 'rot1': 63, 'rot0': 65, 'rot3': 0, 'rot2': 0, 'depth': 1.233, 'yaw': -7.84, 'datetime': '2018-12-18 21:11:37.371037', 'mgs': 0, 'flw2': 0.05, 'flw1': 0.5, 'flw0': 0.38, 'time': 13.34, 'compass': -137.63, 'pitch': -0.33, 'roll': -0.08}
{'lipoC2': 0.14, 'temp': 0.0, 'lipoC3S3': 11.68, 'state': 'normal', 'rot1': 64, 'rot0': 66, 'rot3': 0, 'rot2': 0, 'depth': 0.546, 'yaw': -7.12, 'datetime': '2018-12-18 21:11:37.579425', 'mgs': 0, 'flw2': 0.37, 'flw1': 0.0, 'flw0': 0.49, 'time': 13.55, 'compass': -136.91, 'pitch': 0.13, 'roll': -0.16}
{'lipoC2': 0.0, 'temp': 0.0, 'lipoC3S3': 11.77, 'state': 'normal', 'rot1': 65, 'rot0': 67, 'rot3': 0, 'rot2': 0, 'depth': 0.851, 'yaw': -6.01, 'datetime': '2018-12-18 21:11:37.788946', 'mgs': 0, 'flw2': 0.0, 'flw1': 0.47, 'flw0': 0.0, 'time': 13.76, 'compass': -135.8, 'pitch': -0.01, 'roll': -0.15}
{'lipoC2': 0.0, 'temp': 0.0, 'lipoC3S3': 11.84, 'state': 'normal', 'rot1': 65, 'rot0': 67, 'rot3': 0, 'rot2': 0, 'depth': -0.674, 'yaw': -5.9, 'datetime': '2018-12-18 21:11:38.004105', 'mgs': 0, 'flw2': 0.0, 'flw1': 0.26, 'flw0': 0.0, 'time': 13.97, 'compass': -135.69, 'pitch': -0.26, 'roll': -0.15}
{'lipoC2': 0.14, 'temp': 0.0, 'lipoC3S3': 11.85, 'state': 'normal', 'rot1': 65, 'rot0': 67, 'rot3': 0, 'rot2': 0, 'depth': -1.743, 'yaw': -5.2, 'datetime': '2018-12-18 21:11:38.213990', 'mgs': 0, 'flw2': 0.0, 'flw1': 0.29, 'flw0': 0.05, 'time': 14.18, 'compass': -134.99, 'pitch': -0.17, 'roll': -0.27}
{'lipoC2': 0.01, 'temp': 0.0, 'lipoC3S3': 11.65, 'state': 'normal', 'rot1': 65, 'rot0': 67, 'rot3': 0, 'rot2': 0, 'depth': 1.08, 'yaw': -4.78, 'datetime': '2018-12-18 21:11:38.421684', 'mgs': 0, 'flw2': 0.09, 'flw1': 0.29, 'flw0': 0.0, 'time': 14.38, 'compass': -134.57, 'pitch': 0.14, 'roll': -0.33}
{'lipoC2': 0.0, 'temp': 0.0, 'lipoC3S3': 11.76, 'state': 'normal', 'rot1': 65, 'rot0': 67, 'rot3': 0, 'rot2': 0, 'depth': -1.895, 'yaw': -4.44, 'datetime': '2018-12-18 21:11:38.630841', 'mgs': 0, 'flw2': 0.0, 'flw1': 0.38, 'flw0': 0.0, 'time': 14.59, 'compass': -134.23, 'pitch': 0.19, 'roll': -0.33}
{'lipoC2': 0.15, 'temp': 0.0, 'lipoC3S3': 11.85, 'state': 'normal', 'rot1': 65, 'rot0': 67, 'rot3': 0, 'rot2': 0, 'depth': -1.285, 'yaw': -3.73, 'datetime': '2018-12-18 21:11:38.838948', 'mgs': 0, 'flw2': 0.0, 'flw1': 0.44, 'flw0': 0.01, 'time': 14.8, 'compass': -133.51, 'pitch': -0.14, 'roll': -0.33}
{'lipoC2': 0.0, 'temp': 0.0, 'lipoC3S3': 11.81, 'state': 'normal', 'rot1': 65, 'rot0': 67, 'rot3': 0, 'rot2': 0, 'depth': -0.903, 'yaw': -2.78, 'datetime': '2018-12-18 21:11:39.048702', 'mgs': 0, 'flw2': 0.0, 'flw1': 0.5, 'flw0': 0.0, 'time': 15.01, 'compass': -132.56, 'pitch': -0.22, 'roll': -0.34}
{'lipoC2': 0.03, 'temp': 0.0, 'lipoC3S3': 11.63, 'state': 'normal', 'rot1': 65, 'rot0': 67, 'rot3': 0, 'rot2': 0, 'depth': 1.004, 'yaw': -1.8, 'datetime': '2018-12-18 21:11:39.258981', 'mgs': 0, 'flw2': 0.06, 'flw1': 0.38, 'flw0': 0.0, 'time': 15.22, 'compass': -131.58, 'pitch': 0.04, 'roll': -0.43}
{'lipoC2': 0.0, 'temp': 0.0, 'lipoC3S3': 11.85, 'state': 'normal', 'rot1': 66, 'rot0': 68, 'rot3': 0, 'rot2': 0, 'depth': 0.012, 'yaw': -0.91, 'datetime': '2018-12-18 21:11:39.468026', 'mgs': 0, 'flw2': 2.27, 'flw1': 0.5, 'flw0': 2.84, 'time': 15.43, 'compass': -130.7, 'pitch': 0.89, 'roll': -0.46}
{'lipoC2': 0.0, 'temp': 0.0, 'lipoC3S3': 12.08, 'state': 'normal', 'rot1': 68, 'rot0': 71, 'rot3': 0, 'rot2': 0, 'depth': 1.309, 'yaw': -0.18, 'datetime': '2018-12-18 21:11:39.677104', 'mgs': 0, 'flw2': 2.58, 'flw1': 0.0, 'flw0': 3.0, 'time': 15.64, 'compass': -129.96, 'pitch': 3.57, 'roll': -0.33}
{'lipoC2': 0.0, 'temp': 0.0, 'lipoC3S3': 11.85, 'state': 'normal', 'rot1': 71, 'rot0': 73, 'rot3': 0, 'rot2': 0, 'depth': -0.446, 'yaw': 0.38, 'datetime': '2018-12-18 21:11:39.885495', 'mgs': 0, 'flw2': 2.32, 'flw1': 0.5, 'flw0': 2.88, 'time': 15.85, 'compass': -129.41, 'pitch': 4.92, 'roll': -0.1}
{'lipoC2': 0.04, 'temp': 0.0, 'lipoC3S3': 11.93, 'state': 'normal', 'rot1': 73, 'rot0': 75, 'rot3': 0, 'rot2': 0, 'depth': -2.429, 'yaw': 0.75, 'datetime': '2018-12-18 21:11:40.095055', 'mgs': 0, 'flw2': 2.73, 'flw1': 0.0, 'flw0': 2.47, 'time': 16.05, 'compass': -129.04, 'pitch': 4.63, 'roll': 0.14}
{'lipoC2': 0.0, 'temp': 0.0, 'lipoC3S3': 12.05, 'state': 'normal', 'rot1': 75, 'rot0': 78, 'rot3': 0, 'rot2': 0, 'depth': 1.233, 'yaw': 1.04, 'datetime': '2018-12-18 21:11:40.303935', 'mgs': 0, 'flw2': 2.75, 'flw1': 0.0, 'flw0': 2.84, 'time': 16.26, 'compass': -128.75, 'pitch': 4.18, 'roll': 0.22}
{'lipoC2': 0.16, 'temp': 0.0, 'lipoC3S3': 11.84, 'state': 'normal', 'rot1': 77, 'rot0': 80, 'rot3': 0, 'rot2': 0, 'depth': -1.514, 'yaw': 1.4, 'datetime': '2018-12-18 21:11:40.514606', 'mgs': 0, 'flw2': 2.53, 'flw1': 0.56, 'flw0': 2.76, 'time': 16.47, 'compass': -128.39, 'pitch': 4.36, 'roll': 0.28}
{'lipoC2': 0.15, 'temp': 0.0, 'lipoC3S3': 11.67, 'state': 'normal', 'rot1': 79, 'rot0': 82, 'rot3': 0, 'rot2': 0, 'depth': -0.14, 'yaw': 0.98, 'datetime': '2018-12-18 21:11:40.724502', 'mgs': 0, 'flw2': 2.7, 'flw1': 0.35, 'flw0': 2.6, 'time': 16.68, 'compass': -128.81, 'pitch': 4.64, 'roll': 0.37}
{'lipoC2': 0.0, 'temp': 0.0, 'lipoC3S3': 11.71, 'state': 'normal', 'rot1': 82, 'rot0': 84, 'rot3': 0, 'rot2': 0, 'depth': -1.666, 'yaw': 0.66, 'datetime': '2018-12-18 21:11:40.932733', 'mgs': 0, 'flw2': 2.55, 'flw1': 0.56, 'flw0': 2.69, 'time': 16.89, 'compass': -129.13, 'pitch': 4.63, 'roll': 0.18}
{'lipoC2': 0.0, 'temp': 0.0, 'lipoC3S3': 11.87, 'state': 'normal', 'rot1': 84, 'rot0': 87, 'rot3': 0, 'rot2': 0, 'depth': 0.394, 'yaw': 0.18, 'datetime': '2018-12-18 21:11:41.141729', 'mgs': 0, 'flw2': 2.83, 'flw1': 0.0, 'flw0': 2.45, 'time': 17.1, 'compass': -129.61, 'pitch': 4.46, 'roll': 0.02}
{'lipoC2': 0.14, 'temp': 0.0, 'lipoC3S3': 11.72, 'state': 'normal', 'rot1': 87, 'rot0': 89, 'rot3': 0, 'rot2': 0, 'depth': -0.217, 'yaw': 0.27, 'datetime': '2018-12-18 21:11:41.349607', 'mgs': 0, 'flw2': 2.5, 'flw1': 0.59, 'flw0': 2.71, 'time': 17.31, 'compass': -129.52, 'pitch': 4.22, 'roll': 0.11}
{'lipoC2': 0.17, 'temp': 0.0, 'lipoC3S3': 11.84, 'state': 'normal', 'rot1': 89, 'rot0': 91, 'rot3': 0, 'rot2': 0, 'depth': -1.361, 'yaw': 0.32, 'datetime': '2018-12-18 21:11:41.558926', 'mgs': 0, 'flw2': 2.34, 'flw1': 0.59, 'flw0': 2.82, 'time': 17.52, 'compass': -129.47, 'pitch': 3.79, 'roll': 0.3}
{'lipoC2': 0.15, 'temp': 0.0, 'lipoC3S3': 11.84, 'state': 'normal', 'rot1': 91, 'rot0': 94, 'rot3': 0, 'rot2': 0, 'depth': -1.437, 'yaw': 0.34, 'datetime': '2018-12-18 21:11:41.768128', 'mgs': 0, 'flw2': 2.38, 'flw1': 0.53, 'flw0': 2.84, 'time': 17.73, 'compass': -129.44, 'pitch': 3.43, 'roll': 0.39}
{'lipoC2': 0.02, 'temp': 0.0, 'lipoC3S3': 11.97, 'state': 'normal', 'rot1': 94, 'rot0': 96, 'rot3': 0, 'rot2': 0, 'depth': -2.277, 'yaw': 0.56, 'datetime': '2018-12-18 21:11:41.977341', 'mgs': 0, 'flw2': 2.78, 'flw1': 0.06, 'flw0': 2.58, 'time': 17.93, 'compass': -129.23, 'pitch': 3.3, 'roll': 0.22}
{'lipoC2': 0.0, 'temp': 0.0, 'lipoC3S3': 11.73, 'state': 'normal', 'rot1': 96, 'rot0': 98, 'rot3': 0, 'rot2': 0, 'depth': -2.124, 'yaw': 0.87, 'datetime': '2018-12-18 21:11:42.188591', 'mgs': 0, 'flw2': 2.5, 'flw1': 0.59, 'flw0': 2.65, 'time': 18.14, 'compass': -128.92, 'pitch': 3.35, 'roll': -0.2}
{'lipoC2': 0.0, 'temp': 0.0, 'lipoC3S3': 11.89, 'state': 'normal', 'rot1': 97, 'rot0': 99, 'rot3': 0, 'rot2': 0, 'depth': -0.217, 'yaw': 1.3, 'datetime': '2018-12-18 21:11:42.396844', 'mgs': 0, 'flw2': 0.17, 'flw1': 0.06, 'flw0': 0.0, 'time': 18.35, 'compass': -128.49, 'pitch': 2.62, 'roll': -0.46}
{'lipoC2': 0.0, 'temp': 0.0, 'lipoC3S3': 11.8, 'state': 'normal', 'rot1': 97, 'rot0': 99, 'rot3': 0, 'rot2': 0, 'depth': -1.361, 'yaw': 1.81, 'datetime': '2018-12-18 21:11:42.605109', 'mgs': 0, 'flw2': 0.0, 'flw1': 0.44, 'flw0': 0.0, 'time': 18.56, 'compass': -127.97, 'pitch': 0.26, 'roll': -0.5}
{'lipoC2': 0.0, 'temp': 0.0, 'lipoC3S3': 11.83, 'state': 'normal', 'rot1': 99, 'rot0': 101, 'rot3': 0, 'rot2': 0, 'depth': -0.522, 'yaw': 1.88, 'datetime': '2018-12-18 21:11:42.814197', 'mgs': 0, 'flw2': 0.37, 'flw1': 0.44, 'flw0': 2.84, 'time': 18.77, 'compass': -127.91, 'pitch': -0.28, 'roll': -0.49}
{'lipoC2': 0.0, 'temp': 0.0, 'lipoC3S3': 11.72, 'state': 'normal', 'rot1': 101, 'rot0': 102, 'rot3': 0, 'rot2': 0, 'depth': -1.666, 'yaw': 0.22, 'datetime': '2018-12-18 21:11:43.022903', 'mgs': 0, 'flw2': 0.68, 'flw1': 0.5, 'flw0': 2.67, 'time': 18.98, 'compass': -129.57, 'pitch': 1.85, 'roll': -0.5}
{'lipoC2': 0.0, 'temp': 0.0, 'lipoC3S3': 11.75, 'state': 'normal', 'rot1': 104, 'rot0': 103, 'rot3': 0, 'rot2': 0, 'depth': 0.928, 'yaw': -2.7, 'datetime': '2018-12-18 21:11:43.234220', 'mgs': 0, 'flw2': 0.6, 'flw1': 0.53, 'flw0': 2.81, 'time': 19.19, 'compass': -132.49, 'pitch': 3.16, 'roll': -0.52}
{'lipoC2': 0.0, 'temp': 0.0, 'lipoC3S3': 11.69, 'state': 'normal', 'rot1': 106, 'rot0': 105, 'rot3': 0, 'rot2': 0, 'depth': -1.666, 'yaw': -6.05, 'datetime': '2018-12-18 21:11:43.443716', 'mgs': 0, 'flw2': 2.69, 'flw1': 0.47, 'flw0': 2.7, 'time': 19.4, 'compass': -135.83, 'pitch': 3.19, 'roll': -0.68}
{'lipoC2': 0.0, 'temp': 0.0, 'lipoC3S3': 12.05, 'state': 'normal', 'rot1': 108, 'rot0': 108, 'rot3': 0, 'rot2': 0, 'depth': 1.462, 'yaw': -8.63, 'datetime': '2018-12-18 21:11:43.651839', 'mgs': 0, 'flw2': 2.7, 'flw1': 0.0, 'flw0': 0.89, 'time': 19.61, 'compass': -138.41, 'pitch': 3.57, 'roll': -1.0}
{'lipoC2': 0.0, 'temp': 0.0, 'lipoC3S3': 11.81, 'state': 'normal', 'rot1': 109, 'rot0': 111, 'rot3': 0, 'rot2': 0, 'depth': 0.851, 'yaw': -8.99, 'datetime': '2018-12-18 21:11:43.861813', 'mgs': 0, 'flw2': 2.33, 'flw1': 0.47, 'flw0': 0.7, 'time': 19.82, 'compass': -138.77, 'pitch': 3.38, 'roll': -1.13}
{'lipoC2': 0.0, 'temp': 0.0, 'lipoC3S3': 12.04, 'state': 'normal', 'rot1': 111, 'rot0': 113, 'rot3': 0, 'rot2': 0, 'depth': 1.538, 'yaw': -7.03, 'datetime': '2018-12-18 21:11:44.070591', 'mgs': 0, 'flw2': 2.93, 'flw1': 0.0, 'flw0': 0.79, 'time': 20.02, 'compass': -136.82, 'pitch': 2.94, 'roll': -0.64}
{'lipoC2': 0.0, 'temp': 0.0, 'lipoC3S3': 12.05, 'state': 'normal', 'rot1': 112, 'rot0': 115, 'rot3': 0, 'rot2': 0, 'depth': 1.08, 'yaw': -3.79, 'datetime': '2018-12-18 21:11:44.279593', 'mgs': 0, 'flw2': 2.7, 'flw1': 0.0, 'flw0': 0.9, 'time': 20.23, 'compass': -133.58, 'pitch': 3.28, 'roll': 0.24}
{'lipoC2': 0.0, 'temp': 0.0, 'lipoC3S3': 12.05, 'state': 'normal', 'rot1': 113, 'rot0': 118, 'rot3': 0, 'rot2': 0, 'depth': 1.614, 'yaw': -0.13, 'datetime': '2018-12-18 21:11:44.489024', 'mgs': 0, 'flw2': 2.59, 'flw1': 0.47, 'flw0': 0.67, 'time': 20.44, 'compass': -129.92, 'pitch': 3.82, 'roll': 1.04}
{'lipoC2': 0.01, 'temp': 0.0, 'lipoC3S3': 11.97, 'state': 'normal', 'rot1': 115, 'rot0': 120, 'rot3': 0, 'rot2': 0, 'depth': -1.971, 'yaw': 3.5, 'datetime': '2018-12-18 21:11:44.700495', 'mgs': 0, 'flw2': 2.73, 'flw1': 0.15, 'flw0': 2.43, 'time': 20.65, 'compass': -126.28, 'pitch': 4.13, 'roll': 1.33}
{'lipoC2': 0.14, 'temp': 0.0, 'lipoC3S3': 11.85, 'state': 'normal', 'rot1': 118, 'rot0': 122, 'rot3': 0, 'rot2': 0, 'depth': 1.233, 'yaw': 5.88, 'datetime': '2018-12-18 21:11:44.909433', 'mgs': 0, 'flw2': 0.27, 'flw1': 0.44, 'flw0': 2.71, 'time': 20.86, 'compass': -123.91, 'pitch': 4.53, 'roll': 1.06}
{'lipoC2': 0.0, 'temp': 0.0, 'lipoC3S3': 11.77, 'state': 'normal', 'rot1': 120, 'rot0': 124, 'rot3': 0, 'rot2': 0, 'depth': 0.928, 'yaw': 6.05, 'datetime': '2018-12-18 21:11:45.119291', 'mgs': 0, 'flw2': 0.6, 'flw1': 0.56, 'flw0': 2.72, 'time': 21.07, 'compass': -123.73, 'pitch': 4.13, 'roll': 0.49}
{'lipoC2': 0.0, 'temp': 0.0, 'lipoC3S3': 12.04, 'state': 'normal', 'rot1': 123, 'rot0': 125, 'rot3': 0, 'rot2': 0, 'depth': 1.462, 'yaw': 4.77, 'datetime': '2018-12-18 21:11:45.327860', 'mgs': 0, 'flw2': 0.87, 'flw1': 0.0, 'flw0': 2.77, 'time': 21.28, 'compass': -125.02, 'pitch': 3.44, 'roll': -0.23}
{'lipoC2': 0.08, 'temp': 0.0, 'lipoC3S3': 11.64, 'state': 'normal', 'rot1': 125, 'rot0': 126, 'rot3': 0, 'rot2': 0, 'depth': 0.775, 'yaw': 2.52, 'datetime': '2018-12-18 21:11:45.536738', 'mgs': 0, 'flw2': 0.77, 'flw1': 0.38, 'flw0': 2.51, 'time': 21.49, 'compass': -127.26, 'pitch': 3.08, 'roll': -0.9}
{'lipoC2': 0.0, 'temp': 0.0, 'lipoC3S3': 12.0, 'state': 'normal', 'rot1': 127, 'rot0': 128, 'rot3': 0, 'rot2': 0, 'depth': 0.775, 'yaw': -0.54, 'datetime': '2018-12-18 21:11:45.748432', 'mgs': 0, 'flw2': 0.85, 'flw1': 0.26, 'flw0': 2.47, 'time': 21.7, 'compass': -130.32, 'pitch': 3.08, 'roll': -1.36}
{'lipoC2': 0.13, 'temp': 0.0, 'lipoC3S3': 11.85, 'state': 'normal', 'rot1': 129, 'rot0': 129, 'rot3': 0, 'rot2': 0, 'depth': 1.233, 'yaw': -3.74, 'datetime': '2018-12-18 21:11:45.958556', 'mgs': 0, 'flw2': 0.0, 'flw1': 0.44, 'flw0': 0.01, 'time': 21.91, 'compass': -133.52, 'pitch': 3.16, 'roll': -1.24}
{'lipoC2': 0.09, 'temp': 0.0, 'lipoC3S3': 11.88, 'state': 'normal', 'rot1': 129, 'rot0': 129, 'rot3': 0, 'rot2': 0, 'depth': -2.582, 'yaw': -6.03, 'datetime': '2018-12-18 21:11:46.160241', 'mgs': 0, 'flw2': 0.0, 'flw1': 0.5, 'flw0': 0.04, 'time': 22.12, 'compass': -135.82, 'pitch': 1.75, 'roll': -0.4}
{'lipoC2': 0.06, 'temp': 0.0, 'lipoC3S3': 11.92, 'state': 'normal', 'rot1': 130, 'rot0': 129, 'rot3': 0, 'rot2': 0, 'depth': -2.582, 'yaw': -7.98, 'datetime': '2018-12-18 21:11:46.369868', 'mgs': 0, 'flw2': 3.23, 'flw1': 0.0, 'flw0': 2.8, 'time': 22.33, 'compass': -137.77, 'pitch': 0.39, 'roll': 0.34}
{'lipoC2': 0.09, 'temp': 0.0, 'lipoC3S3': 11.88, 'state': 'normal', 'rot1': 133, 'rot0': 132, 'rot3': 0, 'rot2': 0, 'depth': -2.582, 'yaw': -9.83, 'datetime': '2018-12-18 21:11:46.578293', 'mgs': 0, 'flw2': 2.28, 'flw1': 0.26, 'flw0': 2.81, 'time': 22.53, 'compass': -139.62, 'pitch': 2.58, 'roll': 0.2}
{'lipoC2': 0.0, 'temp': 0.0, 'lipoC3S3': 12.05, 'state': 'normal', 'rot1': 134, 'rot0': 135, 'rot3': 0, 'rot2': 0, 'depth': 1.462, 'yaw': -10.43, 'datetime': '2018-12-18 21:11:46.791761', 'mgs': 0, 'flw2': 2.69, 'flw1': 0.0, 'flw0': 0.88, 'time': 22.74, 'compass': -140.22, 'pitch': 4.66, 'roll': -0.08}
{'lipoC2': 0.1, 'temp': 0.0, 'lipoC3S3': 11.88, 'state': 'normal', 'rot1': 136, 'rot0': 137, 'rot3': 0, 'rot2': 0, 'depth': 1.233, 'yaw': -8.12, 'datetime': '2018-12-18 21:11:47.005698', 'mgs': 0, 'flw2': 2.72, 'flw1': 0.0, 'flw0': 0.44, 'time': 22.95, 'compass': -137.91, 'pitch': 3.75, 'roll': 0.06}
{'lipoC2': 0.0, 'temp': 0.0, 'lipoC3S3': 11.84, 'state': 'normal', 'rot1': 137, 'rot0': 139, 'rot3': 0, 'rot2': 0, 'depth': -0.903, 'yaw': -4.73, 'datetime': '2018-12-18 21:11:47.216001', 'mgs': 0, 'flw2': 2.29, 'flw1': 0.32, 'flw0': 0.77, 'time': 23.16, 'compass': -134.52, 'pitch': 2.13, 'roll': 0.39}
{'lipoC2': 0.0, 'temp': 0.0, 'lipoC3S3': 12.06, 'state': 'normal', 'rot1': 139, 'rot0': 142, 'rot3': 0, 'rot2': 0, 'depth': 1.767, 'yaw': -0.87, 'datetime': '2018-12-18 21:11:47.423848', 'mgs': 0, 'flw2': 2.73, 'flw1': 0.41, 'flw0': 2.7, 'time': 23.37, 'compass': -130.66, 'pitch': 2.39, 'roll': 0.74}
{'lipoC2': 0.0, 'temp': 0.0, 'lipoC3S3': 11.76, 'state': 'normal', 'rot1': 141, 'rot0': 144, 'rot3': 0, 'rot2': 0, 'depth': -1.819, 'yaw': 1.53, 'datetime': '2018-12-18 21:11:47.633333', 'mgs': 0, 'flw2': 0.34, 'flw1': 0.47, 'flw0': 2.81, 'time': 23.58, 'compass': -128.26, 'pitch': 4.03, 'roll': 0.61}
{'lipoC2': 0.0, 'temp': 0.0, 'lipoC3S3': 11.89, 'state': 'normal', 'rot1': 144, 'rot0': 145, 'rot3': 0, 'rot2': 0, 'depth': -0.293, 'yaw': 1.65, 'datetime': '2018-12-18 21:11:47.841850', 'mgs': 0, 'flw2': 0.66, 'flw1': 0.0, 'flw0': 3.05, 'time': 23.79, 'compass': -128.13, 'pitch': 4.19, 'roll': -0.14}
{'lipoC2': 0.0, 'temp': 0.0, 'lipoC3S3': 11.85, 'state': 'normal', 'rot1': 146, 'rot0': 146, 'rot3': 0, 'rot2': 0, 'depth': 0.47, 'yaw': 0.26, 'datetime': '2018-12-18 21:11:48.051598', 'mgs': 0, 'flw2': 0.34, 'flw1': 0.29, 'flw0': 2.88, 'time': 24.0, 'compass': -129.52, 'pitch': 3.23, 'roll': -0.88}
{'lipoC2': 0.18, 'temp': 0.0, 'lipoC3S3': 11.83, 'state': 'normal', 'rot1': 149, 'rot0': 148, 'rot3': 0, 'rot2': 0, 'depth': 0.623, 'yaw': -1.95, 'datetime': '2018-12-18 21:11:48.262855', 'mgs': 0, 'flw2': 2.55, 'flw1': 0.41, 'flw0': 2.76, 'time': 24.21, 'compass': -131.74, 'pitch': 2.69, 'roll': -1.14}
{'lipoC2': 0.0, 'temp': 0.0, 'lipoC3S3': 11.85, 'state': 'normal', 'rot1': 151, 'rot0': 150, 'rot3': 0, 'rot2': 0, 'depth': -0.446, 'yaw': -3.61, 'datetime': '2018-12-18 21:11:48.472787', 'mgs': 0, 'flw2': 2.31, 'flw1': 0.35, 'flw0': 2.76, 'time': 24.42, 'compass': -133.4, 'pitch': 3.51, 'roll': -0.95}
{'lipoC2': 0.0, 'temp': 0.0, 'lipoC3S3': 12.06, 'state': 'normal', 'rot1': 153, 'rot0': 153, 'rot3': 0, 'rot2': 0, 'depth': 1.538, 'yaw': -4.06, 'datetime': '2018-12-18 21:11:48.682044', 'mgs': 0, 'flw2': 2.72, 'flw1': 0.0, 'flw0': 2.86, 'time': 24.63, 'compass': -133.84, 'pitch': 4.53, 'roll': -0.71}
{'lipoC2': 0.19, 'temp': 0.0, 'lipoC3S3': 11.79, 'state': 'normal', 'rot1': 155, 'rot0': 155, 'rot3': 0, 'rot2': 0, 'depth': -0.827, 'yaw': -3.47, 'datetime': '2018-12-18 21:11:48.891304', 'mgs': 0, 'flw2': 2.4, 'flw1': 0.56, 'flw0': 2.69, 'time': 24.84, 'compass': -133.26, 'pitch': 4.6, 'roll': -0.69}
{'lipoC2': 0.0, 'temp': 0.0, 'lipoC3S3': 11.76, 'state': 'normal', 'rot1': 158, 'rot0': 157, 'rot3': 0, 'rot2': 0, 'depth': -1.819, 'yaw': -3.89, 'datetime': '2018-12-18 21:11:49.100460', 'mgs': 0, 'flw2': 2.45, 'flw1': 0.5, 'flw0': 2.77, 'time': 25.05, 'compass': -133.67, 'pitch': 4.1, 'roll': -0.57}
{'lipoC2': 0.16, 'temp': 0.0, 'lipoC3S3': 11.84, 'state': 'normal', 'rot1': 160, 'rot0': 159, 'rot3': 0, 'rot2': 0, 'depth': -1.208, 'yaw': -4.24, 'datetime': '2018-12-18 21:11:49.309243', 'mgs': 0, 'flw2': 0.21, 'flw1': 0.0, 'flw0': 0.05, 'time': 25.25, 'compass': -134.03, 'pitch': 3.76, 'roll': -0.32}
{'lipoC2': 0.15, 'temp': 0.0, 'lipoC3S3': 11.69, 'state': 'normal', 'rot1': 160, 'rot0': 159, 'rot3': 0, 'rot2': 0, 'depth': 0.546, 'yaw': -4.86, 'datetime': '2018-12-18 21:11:49.519991', 'mgs': 0, 'flw2': 0.0, 'flw1': 0.5, 'flw0': 0.0, 'time': 25.46, 'compass': -134.65, 'pitch': 1.92, 'roll': -0.01}
{'lipoC2': 0.14, 'temp': 0.0, 'lipoC3S3': 11.85, 'state': 'normal', 'rot1': 160, 'rot0': 160, 'rot3': 0, 'rot2': 0, 'depth': -2.048, 'yaw': -4.97, 'datetime': '2018-12-18 21:11:49.728748', 'mgs': 0, 'flw2': 3.25, 'flw1': 0.0, 'flw0': 2.88, 'time': 25.67, 'compass': -134.75, 'pitch': 0.31, 'roll': 0.11}
{'lipoC2': 0.0, 'temp': 0.0, 'lipoC3S3': 12.05, 'state': 'normal', 'rot1': 163, 'rot0': 162, 'rot3': 0, 'rot2': 0, 'depth': 1.309, 'yaw': -4.77, 'datetime': '2018-12-18 21:11:49.939491', 'mgs': 0, 'flw2': 2.71, 'flw1': 0.0, 'flw0': 2.8, 'time': 25.88, 'compass': -134.56, 'pitch': 2.09, 'roll': -0.3}
{'lipoC2': 0.0, 'temp': 0.0, 'lipoC3S3': 12.06, 'state': 'normal', 'rot1': 165, 'rot0': 165, 'rot3': 0, 'rot2': 0, 'depth': 1.614, 'yaw': -5.06, 'datetime': '2018-12-18 21:11:50.147552', 'mgs': 0, 'flw2': 2.51, 'flw1': 0.59, 'flw0': 2.8, 'time': 26.09, 'compass': -134.85, 'pitch': 4.38, 'roll': -0.9}
{'lipoC2': 0.17, 'temp': 0.0, 'lipoC3S3': 11.8, 'state': 'normal', 'rot1': 167, 'rot0': 167, 'rot3': 0, 'rot2': 0, 'depth': 0.317, 'yaw': -5.53, 'datetime': '2018-12-18 21:11:50.357236', 'mgs': 0, 'flw2': 2.34, 'flw1': 0.44, 'flw0': 2.7, 'time': 26.3, 'compass': -135.32, 'pitch': 4.51, 'roll': -1.23}
{'lipoC2': 0.11, 'temp': 0.0, 'lipoC3S3': 11.88, 'state': 'normal', 'rot1': 169, 'rot0': 170, 'rot3': 0, 'rot2': 0, 'depth': -2.353, 'yaw': -6.2, 'datetime': '2018-12-18 21:11:50.566990', 'mgs': 0, 'flw2': 2.67, 'flw1': 0.0, 'flw0': 2.47, 'time': 26.51, 'compass': -135.99, 'pitch': 4.11, 'roll': -1.28}
{'lipoC2': 0.0, 'temp': 0.0, 'lipoC3S3': 12.05, 'state': 'normal', 'rot1': 172, 'rot0': 172, 'rot3': 0, 'rot2': 0, 'depth': 1.385, 'yaw': -6.83, 'datetime': '2018-12-18 21:11:50.775881', 'mgs': 0, 'flw2': 2.86, 'flw1': 0.0, 'flw0': 2.81, 'time': 26.72, 'compass': -136.62, 'pitch': 4.25, 'roll': -1.21}
{'lipoC2': 0.0, 'temp': 0.0, 'lipoC3S3': 11.71, 'state': 'normal', 'rot1': 174, 'rot0': 175, 'rot3': 0, 'rot2': 0, 'depth': 1.538, 'yaw': -7.22, 'datetime': '2018-12-18 21:11:50.985477', 'mgs': 0, 'flw2': 2.31, 'flw1': 0.56, 'flw0': 2.66, 'time': 26.93, 'compass': -137.0, 'pitch': 4.67, 'roll': -1.13}
{'lipoC2': 0.0, 'temp': 0.0, 'lipoC3S3': 12.06, 'state': 'normal', 'rot1': 177, 'rot0': 177, 'rot3': 0, 'rot2': 0, 'depth': 1.309, 'yaw': -8.09, 'datetime': '2018-12-18 21:11:51.195909', 'mgs': 0, 'flw2': 2.45, 'flw1': 0.59, 'flw0': 2.62, 'time': 27.14, 'compass': -137.88, 'pitch': 4.98, 'roll': -1.0}
{'lipoC2': 0.0, 'temp': 0.0, 'lipoC3S3': 12.04, 'state': 'normal', 'rot1': 179, 'rot0': 179, 'rot3': 0, 'rot2': 0, 'depth': -2.277, 'yaw': -7.72, 'datetime': '2018-12-18 21:11:51.404922', 'mgs': 0, 'flw2': 2.7, 'flw1': 0.0, 'flw0': 0.93, 'time': 27.35, 'compass': -137.51, 'pitch': 4.76, 'roll': -0.63}
{'lipoC2': 0.16, 'temp': 0.0, 'lipoC3S3': 11.73, 'state': 'normal', 'rot1': 180, 'rot0': 182, 'rot3': 0, 'rot2': 0, 'depth': 0.089, 'yaw': -5.65, 'datetime': '2018-12-18 21:11:51.613343', 'mgs': 0, 'flw2': 2.48, 'flw1': 0.44, 'flw0': 2.76, 'time': 27.56, 'compass': -135.44, 'pitch': 3.9, 'roll': -0.04}
{'lipoC2': 0.02, 'temp': 0.0, 'lipoC3S3': 12.02, 'state': 'normal', 'rot1': 182, 'rot0': 184, 'rot3': 0, 'rot2': 0, 'depth': 1.157, 'yaw': -4.17, 'datetime': '2018-12-18 21:11:51.822941', 'mgs': 0, 'flw2': 2.58, 'flw1': 0.0, 'flw0': 2.97, 'time': 27.76, 'compass': -133.96, 'pitch': 3.88, 'roll': 0.22}
{'lipoC2': 0.0, 'temp': 0.0, 'lipoC3S3': 11.8, 'state': 'normal', 'rot1': 185, 'rot0': 186, 'rot3': 0, 'rot2': 0, 'depth': -0.827, 'yaw': -3.76, 'datetime': '2018-12-18 21:11:52.032977', 'mgs': 0, 'flw2': 2.48, 'flw1': 0.53, 'flw0': 2.71, 'time': 27.97, 'compass': -133.55, 'pitch': 4.37, 'roll': -0.08}
{'lipoC2': 0.0, 'temp': 0.0, 'lipoC3S3': 12.06, 'state': 'normal', 'rot1': 187, 'rot0': 188, 'rot3': 0, 'rot2': 0, 'depth': 1.309, 'yaw': -3.74, 'datetime': '2018-12-18 21:11:52.241479', 'mgs': 0, 'flw2': 0.72, 'flw1': 0.0, 'flw0': 2.84, 'time': 28.18, 'compass': -133.53, 'pitch': 4.2, 'roll': -0.48}
{'lipoC2': 0.0, 'temp': 0.0, 'lipoC3S3': 12.05, 'state': 'normal', 'rot1': 190, 'rot0': 190, 'rot3': 0, 'rot2': 0, 'depth': 1.385, 'yaw': -5.72, 'datetime': '2018-12-18 21:11:52.452220', 'mgs': 0, 'flw2': 0.5, 'flw1': 0.53, 'flw0': 2.81, 'time': 28.39, 'compass': -135.5, 'pitch': 2.98, 'roll': -0.76}
{'lipoC2': 0.0, 'temp': 0.0, 'lipoC3S3': 11.87, 'state': 'normal', 'rot1': 191, 'rot0': 192, 'rot3': 0, 'rot2': 0, 'depth': -0.293, 'yaw': -8.89, 'datetime': '2018-12-18 21:11:52.660742', 'mgs': 0, 'flw2': 0.17, 'flw1': 0.03, 'flw0': 0.0, 'time': 28.6, 'compass': -138.68, 'pitch': 2.5, 'roll': -0.95}
{'lipoC2': 0.03, 'temp': 0.0, 'lipoC3S3': 11.94, 'state': 'normal', 'rot1': 191, 'rot0': 192, 'rot3': 0, 'rot2': 0, 'depth': -2.353, 'yaw': -11.74, 'datetime': '2018-12-18 21:11:52.870831', 'mgs': 0, 'flw2': 0.11, 'flw1': 0.21, 'flw0': 0.0, 'time': 28.81, 'compass': -141.53, 'pitch': 1.69, 'roll': -0.86}
{'lipoC2': 0.18, 'temp': 0.0, 'lipoC3S3': 11.72, 'state': 'normal', 'rot1': 191, 'rot0': 192, 'rot3': 0, 'rot2': 0, 'depth': -0.598, 'yaw': -13.57, 'datetime': '2018-12-18 21:11:53.079038', 'mgs': 0, 'flw2': 0.07, 'flw1': 0.0, 'flw0': 0.15, 'time': 29.02, 'compass': -143.36, 'pitch': 0.8, 'roll': -0.43}
{'lipoC2': 0.0, 'temp': 0.0, 'lipoC3S3': 11.77, 'state': 'normal', 'rot1': 192, 'rot0': 193, 'rot3': 0, 'rot2': 0, 'depth': -1.437, 'yaw': -15.65, 'datetime': '2018-12-18 21:11:53.283092', 'mgs': 0, 'flw2': 2.55, 'flw1': 0.56, 'flw0': 0.68, 'time': 29.23, 'compass': -145.44, 'pitch': 1.19, 'roll': -0.07}
{'lipoC2': 0.0, 'temp': 0.0, 'lipoC3S3': 11.83, 'state': 'normal', 'rot1': 193, 'rot0': 195, 'rot3': 0, 'rot2': 0, 'depth': 0.241, 'yaw': -16.22, 'datetime': '2018-12-18 21:11:53.493110', 'mgs': 0, 'flw2': 2.26, 'flw1': 0.38, 'flw0': 0.76, 'time': 29.44, 'compass': -146.01, 'pitch': 3.0, 'roll': 0.22}
{'lipoC2': 0.16, 'temp': 0.0, 'lipoC3S3': 11.76, 'state': 'normal', 'rot1': 195, 'rot0': 198, 'rot3': 0, 'rot2': 0, 'depth': -0.064, 'yaw': -15.47, 'datetime': '2018-12-18 21:11:53.703985', 'mgs': 0, 'flw2': 2.76, 'flw1': 0.0, 'flw0': 0.85, 'time': 29.65, 'compass': -145.26, 'pitch': 3.87, 'roll': 0.41}
{'lipoC2': 0.1, 'temp': 0.0, 'lipoC3S3': 11.89, 'state': 'normal', 'rot1': 196, 'rot0': 200, 'rot3': 0, 'rot2': 0, 'depth': -2.048, 'yaw': -13.82, 'datetime': '2018-12-18 21:11:53.919632', 'mgs': 0, 'flw2': 2.69, 'flw1': 0.0, 'flw0': 0.4, 'time': 29.86, 'compass': -143.61, 'pitch': 3.42, 'roll': 0.38}
{'lipoC2': 0.06, 'temp': 0.0, 'lipoC3S3': 11.88, 'state': 'normal', 'rot1': 198, 'rot0': 202, 'rot3': 0, 'rot2': 0, 'depth': -2.277, 'yaw': -11.32, 'datetime': '2018-12-18 21:11:54.128935', 'mgs': 0, 'flw2': 2.53, 'flw1': 0.12, 'flw0': 0.87, 'time': 30.07, 'compass': -141.11, 'pitch': 2.75, 'roll': 0.34}
{'lipoC2': 0.0, 'temp': 0.0, 'lipoC3S3': 12.06, 'state': 'normal', 'rot1': 199, 'rot0': 205, 'rot3': 0, 'rot2': 0, 'depth': 1.309, 'yaw': -8.11, 'datetime': '2018-12-18 21:11:54.337839', 'mgs': 0, 'flw2': 2.44, 'flw1': 0.44, 'flw0': 0.68, 'time': 30.27, 'compass': -137.9, 'pitch': 2.66, 'roll': 0.63}
{'lipoC2': 0.04, 'temp': 0.0, 'lipoC3S3': 11.64, 'state': 'normal', 'rot1': 200, 'rot0': 207, 'rot3': 0, 'rot2': 0, 'depth': -0.369, 'yaw': -4.44, 'datetime': '2018-12-18 21:11:54.546831', 'mgs': 0, 'flw2': 2.59, 'flw1': 0.29, 'flw0': 0.51, 'time': 30.48, 'compass': -134.23, 'pitch': 2.93, 'roll': 0.89}
{'lipoC2': 0.0, 'temp': 0.0, 'lipoC3S3': 11.85, 'state': 'normal', 'rot1': 202, 'rot0': 210, 'rot3': 0, 'rot2': 0, 'depth': 0.089, 'yaw': -0.92, 'datetime': '2018-12-18 21:11:54.756823', 'mgs': 0, 'flw2': 2.66, 'flw1': 0.0, 'flw0': 2.82, 'time': 30.69, 'compass': -130.71, 'pitch': 3.12, 'roll': 0.82}
{'lipoC2': 0.0, 'temp': 0.0, 'lipoC3S3': 12.06, 'state': 'normal', 'rot1': 205, 'rot0': 212, 'rot3': 0, 'rot2': 0, 'depth': -2.277, 'yaw': 0.97, 'datetime': '2018-12-18 21:11:54.968144', 'mgs': 0, 'flw2': 0.62, 'flw1': 0.0, 'flw0': 2.97, 'time': 30.9, 'compass': -128.82, 'pitch': 3.49, 'roll': 0.56}
{'lipoC2': 0.0, 'temp': 0.0, 'lipoC3S3': 12.05, 'state': 'normal', 'rot1': 207, 'rot0': 213, 'rot3': 0, 'rot2': 0, 'depth': 1.309, 'yaw': 0.68, 'datetime': '2018-12-18 21:11:55.176734', 'mgs': 0, 'flw2': 0.83, 'flw1': 0.0, 'flw0': 2.86, 'time': 31.11, 'compass': -129.11, 'pitch': 2.95, 'roll': 0.01}
{'lipoC2': 0.16, 'temp': 0.0, 'lipoC3S3': 11.81, 'state': 'normal', 'rot1': 209, 'rot0': 214, 'rot3': 0, 'rot2': 0, 'depth': 0.317, 'yaw': -1.61, 'datetime': '2018-12-18 21:11:55.386285', 'mgs': 0, 'flw2': 0.46, 'flw1': 0.47, 'flw0': 2.83, 'time': 31.32, 'compass': -131.4, 'pitch': 2.07, 'roll': -1.0}
{'lipoC2': 0.17, 'temp': 0.0, 'lipoC3S3': 11.81, 'state': 'normal', 'rot1': 212, 'rot0': 216, 'rot3': 0, 'rot2': 0, 'depth': 0.241, 'yaw': -5.02, 'datetime': '2018-12-18 21:11:55.595103', 'mgs': 0, 'flw2': 0.4, 'flw1': 0.32, 'flw0': 2.75, 'time': 31.53, 'compass': -134.81, 'pitch': 2.01, 'roll': -1.89}
{'lipoC2': 0.0, 'temp': 0.0, 'lipoC3S3': 11.77, 'state': 'normal', 'rot1': 214, 'rot0': 217, 'rot3': 0, 'rot2': 0, 'depth': 1.233, 'yaw': -8.88, 'datetime': '2018-12-18 21:11:55.804624', 'mgs': 0, 'flw2': 0.93, 'flw1': 0.0, 'flw0': 2.6, 'time': 31.74, 'compass': -138.67, 'pitch': 2.55, 'roll': -1.96}
{'lipoC2': 0.0, 'temp': 0.0, 'lipoC3S3': 11.84, 'state': 'normal', 'rot1': 216, 'rot0': 219, 'rot3': 0, 'rot2': 0, 'depth': 0.623, 'yaw': -12.2, 'datetime': '2018-12-18 21:11:56.013603', 'mgs': 0, 'flw2': 2.33, 'flw1': 0.38, 'flw0': 0.73, 'time': 31.95, 'compass': -141.98, 'pitch': 2.89, 'roll': -1.32}
{'lipoC2': 0.0, 'temp': 0.0, 'lipoC3S3': 12.05, 'state': 'normal', 'rot1': 217, 'rot0': 221, 'rot3': 0, 'rot2': 0, 'depth': 1.157, 'yaw': -12.72, 'datetime': '2018-12-18 21:11:56.224691', 'mgs': 0, 'flw2': 2.64, 'flw1': 0.0, 'flw0': 0.9, 'time': 32.16, 'compass': -142.5, 'pitch': 2.75, 'roll': -0.11}
{'lipoC2': 0.0, 'temp': 0.0, 'lipoC3S3': 11.89, 'state': 'normal', 'rot1': 219, 'rot0': 224, 'rot3': 0, 'rot2': 0, 'depth': -0.064, 'yaw': -11.74, 'datetime': '2018-12-18 21:11:56.433790', 'mgs': 0, 'flw2': 2.43, 'flw1': 0.23, 'flw0': 0.83, 'time': 32.37, 'compass': -141.53, 'pitch': 2.43, 'roll': 0.91}
{'lipoC2': 0.16, 'temp': 0.0, 'lipoC3S3': 11.84, 'state': 'normal', 'rot1': 220, 'rot0': 226, 'rot3': 0, 'rot2': 0, 'depth': -0.98, 'yaw': -9.85, 'datetime': '2018-12-18 21:11:56.641849', 'mgs': 0, 'flw2': 0.22, 'flw1': 0.0, 'flw0': 0.0, 'time': 32.58, 'compass': -139.64, 'pitch': 2.54, 'roll': 1.4}
{'lipoC2': 0.12, 'temp': 0.0, 'lipoC3S3': 11.69, 'state': 'normal', 'rot1': 220, 'rot0': 226, 'rot3': 0, 'rot2': 0, 'depth': 0.546, 'yaw': -8.35, 'datetime': '2018-12-18 21:11:56.849849', 'mgs': 0, 'flw2': 0.16, 'flw1': 0.0, 'flw0': 0.1, 'time': 32.78, 'compass': -138.14, 'pitch': 1.84, 'roll': 1.14}
{'lipoC2': 0.17, 'temp': 0.0, 'lipoC3S3': 11.76, 'state': 'normal', 'rot1': 220, 'rot0': 226, 'rot3': 0, 'rot2': 0, 'depth': 0.241, 'yaw': -7.34, 'datetime': '2018-12-18 21:11:57.060607', 'mgs': 0, 'flw2': 0.0, 'flw1': 0.47, 'flw0': 0.0, 'time': 32.99, 'compass': -137.13, 'pitch': 0.77, 'roll': 0.59}
{'lipoC2': 0.14, 'temp': 0.0, 'lipoC3S3': 11.67, 'state': 'normal', 'rot1': 221, 'rot0': 227, 'rot3': 0, 'rot2': 0, 'depth': -0.217, 'yaw': -6.55, 'datetime': '2018-12-18 21:11:57.264189', 'mgs': 0, 'flw2': 2.7, 'flw1': 0.5, 'flw0': 2.73, 'time': 33.2, 'compass': -136.34, 'pitch': 0.55, 'roll': 0.16}
{'lipoC2': 0.0, 'temp': 0.0, 'lipoC3S3': 11.72, 'state': 'normal', 'rot1': 223, 'rot0': 230, 'rot3': 0, 'rot2': 0, 'depth': -1.895, 'yaw': -6.85, 'datetime': '2018-12-18 21:11:57.474105', 'mgs': 0, 'flw2': 2.8, 'flw1': 0.0, 'flw0': 2.78, 'time': 33.41, 'compass': -136.63, 'pitch': 2.86, 'roll': 0.01}
{'lipoC2': 0.0, 'temp': 0.0, 'lipoC3S3': 11.81, 'state': 'normal', 'rot1': 225, 'rot0': 233, 'rot3': 0, 'rot2': 0, 'depth': -0.598, 'yaw': -7.15, 'datetime': '2018-12-18 21:11:57.682470', 'mgs': 0, 'flw2': 2.36, 'flw1': 0.56, 'flw0': 2.89, 'time': 33.62, 'compass': -136.94, 'pitch': 4.98, 'roll': 0.07}
{'lipoC2': 0.0, 'temp': 0.0, 'lipoC3S3': 11.84, 'state': 'normal', 'rot1': 228, 'rot0': 235, 'rot3': 0, 'rot2': 0, 'depth': -0.903, 'yaw': -7.77, 'datetime': '2018-12-18 21:11:57.899588', 'mgs': 0, 'flw2': 2.29, 'flw1': 0.44, 'flw0': 2.78, 'time': 33.83, 'compass': -137.55, 'pitch': 4.85, 'roll': 0.1}
{'lipoC2': 0.0, 'temp': 0.0, 'lipoC3S3': 12.06, 'state': 'normal', 'rot1': 230, 'rot0': 237, 'rot3': 0, 'rot2': 0, 'depth': 1.462, 'yaw': -8.43, 'datetime': '2018-12-18 21:11:58.106336', 'mgs': 0, 'flw2': 2.53, 'flw1': 0.53, 'flw0': 2.72, 'time': 34.04, 'compass': -138.22, 'pitch': 4.22, 'roll': -0.13}
{'lipoC2': 0.16, 'temp': 0.0, 'lipoC3S3': 11.75, 'state': 'normal', 'rot1': 233, 'rot0': 240, 'rot3': 0, 'rot2': 0, 'depth': 0.012, 'yaw': -8.99, 'datetime': '2018-12-18 21:11:58.315935', 'mgs': 0, 'flw2': 2.51, 'flw1': 0.62, 'flw0': 2.75, 'time': 34.25, 'compass': -138.78, 'pitch': 4.49, 'roll': -0.34}
{'lipoC2': 0.0, 'temp': 0.0, 'lipoC3S3': 11.97, 'state': 'normal', 'rot1': 235, 'rot0': 242, 'rot3': 0, 'rot2': 0, 'depth': 0.699, 'yaw': -9.67, 'datetime': '2018-12-18 21:11:58.527622', 'mgs': 0, 'flw2': 2.82, 'flw1': 0.18, 'flw0': 2.36, 'time': 34.46, 'compass': -139.45, 'pitch': 5.39, 'roll': -0.36}
{'lipoC2': 0.0, 'temp': 0.0, 'lipoC3S3': 12.05, 'state': 'normal', 'rot1': 238, 'rot0': 245, 'rot3': 0, 'rot2': 0, 'depth': -2.277, 'yaw': -10.19, 'datetime': '2018-12-18 21:11:58.733725', 'mgs': 0, 'flw2': 2.83, 'flw1': 0.15, 'flw0': 2.29, 'time': 34.67, 'compass': -139.97, 'pitch': 5.96, 'roll': -0.35}
{'lipoC2': 0.0, 'temp': 0.0, 'lipoC3S3': 11.84, 'state': 'normal', 'rot1': 240, 'rot0': 247, 'rot3': 0, 'rot2': 0, 'depth': -0.751, 'yaw': -10.75, 'datetime': '2018-12-18 21:11:58.946805', 'mgs': 0, 'flw2': 2.23, 'flw1': 0.44, 'flw0': 2.82, 'time': 34.88, 'compass': -140.54, 'pitch': 5.61, 'roll': -0.24}
{'lipoC2': 0.17, 'temp': 0.0, 'lipoC3S3': 11.75, 'state': 'normal', 'rot1': 242, 'rot0': 250, 'rot3': 0, 'rot2': 0, 'depth': 0.394, 'yaw': -11.47, 'datetime': '2018-12-18 21:11:59.154925', 'mgs': 0, 'flw2': 2.44, 'flw1': 0.62, 'flw0': 2.7, 'time': 35.09, 'compass': -141.26, 'pitch': 4.64, 'roll': 0.04}
{'lipoC2': 0.0, 'temp': 0.0, 'lipoC3S3': 12.06, 'state': 'normal', 'rot1': 244, 'rot0': 252, 'rot3': 0, 'rot2': 0, 'depth': 1.385, 'yaw': -11.77, 'datetime': '2018-12-18 21:11:59.367142', 'mgs': 0, 'flw2': 2.25, 'flw1': 0.44, 'flw0': 0.68, 'time': 35.3, 'compass': -141.56, 'pitch': 3.87, 'roll': 0.26}
{'lipoC2': 0.0, 'temp': 0.0, 'lipoC3S3': 12.06, 'state': 'normal', 'rot1': 245, 'rot0': 255, 'rot3': 0, 'rot2': 0, 'depth': 1.157, 'yaw': -10.04, 'datetime': '2018-12-18 21:11:59.574536', 'mgs': 0, 'flw2': 2.59, 'flw1': 0.47, 'flw0': 0.72, 'time': 35.51, 'compass': -139.83, 'pitch': 3.01, 'roll': 0.38}
{'lipoC2': 0.0, 'temp': 0.0, 'lipoC3S3': 11.72, 'state': 'normal', 'rot1': 246, 'rot0': 257, 'rot3': 0, 'rot2': 0, 'depth': -2.048, 'yaw': -7.24, 'datetime': '2018-12-18 21:11:59.782146', 'mgs': 0, 'flw2': 2.88, 'flw1': 0.0, 'flw0': 0.73, 'time': 35.72, 'compass': -137.03, 'pitch': 2.5, 'roll': 0.55}
{'lipoC2': 0.0, 'temp': 0.0, 'lipoC3S3': 12.06, 'state': 'normal', 'rot1': 248, 'rot0': 259, 'rot3': 0, 'rot2': 0, 'depth': 1.309, 'yaw': -5.24, 'datetime': '2018-12-18 21:11:59.992948', 'mgs': 0, 'flw2': 2.47, 'flw1': 0.59, 'flw0': 2.78, 'time': 35.92, 'compass': -135.02, 'pitch': 2.61, 'roll': 0.69}
{'lipoC2': 0.0, 'temp': 0.0, 'lipoC3S3': 11.8, 'state': 'normal', 'rot1': 250, 'rot0': 261, 'rot3': 0, 'rot2': 0, 'depth': -0.751, 'yaw': -4.09, 'datetime': '2018-12-18 21:12:00.202025', 'mgs': 0, 'flw2': 2.83, 'flw1': 0.0, 'flw0': 2.75, 'time': 36.13, 'compass': -133.88, 'pitch': 3.43, 'roll': 0.47}
{'lipoC2': 0.0, 'temp': 0.0, 'lipoC3S3': 11.8, 'state': 'normal', 'rot1': 251, 'rot0': 262, 'rot3': 0, 'rot2': 0, 'depth': -1.666, 'yaw': -3.42, 'datetime': '2018-12-18 21:12:00.408934', 'mgs': 0, 'flw2': 0.0, 'flw1': 0.41, 'flw0': 0.0, 'time': 36.34, 'compass': -133.21, 'pitch': 2.81, 'roll': 0.16}
{'lipoC2': 0.0, 'temp': 0.0, 'lipoC3S3': 12.02, 'state': 'normal', 'rot1': 251, 'rot0': 262, 'rot3': 0, 'rot2': 0, 'depth': 0.699, 'yaw': -2.55, 'datetime': '2018-12-18 21:12:00.617170', 'mgs': 0, 'flw2': 0.0, 'flw1': 0.53, 'flw0': 0.0, 'time': 36.55, 'compass': -132.34, 'pitch': 0.3, 'roll': 0.02}
{'lipoC2': 0.0, 'temp': 0.0, 'lipoC3S3': 11.84, 'state': 'normal', 'rot1': 251, 'rot0': 262, 'rot3': 0, 'rot2': 0, 'depth': -0.522, 'yaw': -2.36, 'datetime': '2018-12-18 21:12:00.827658', 'mgs': 0, 'flw2': 0.0, 'flw1': 0.32, 'flw0': 0.05, 'time': 36.76, 'compass': -132.15, 'pitch': -0.65, 'roll': 0.01}
{'lipoC2': 0.0, 'temp': 0.0, 'lipoC3S3': 11.85, 'state': 'normal', 'rot1': 252, 'rot0': 263, 'rot3': 0, 'rot2': 0, 'depth': 0.546, 'yaw': -2.12, 'datetime': '2018-12-18 21:12:01.035776', 'mgs': 0, 'flw2': 0.51, 'flw1': 0.53, 'flw0': 0.23, 'time': 36.97, 'compass': -131.91, 'pitch': 0.18, 'roll': -0.12}
{'lipoC2': 0.2, 'temp': 0.0, 'lipoC3S3': 11.68, 'state': 'normal', 'rot1': 253, 'rot0': 264, 'rot3': 0, 'rot2': 0, 'depth': 0.165, 'yaw': -2.44, 'datetime': '2018-12-18 21:12:01.245586', 'mgs': 0, 'flw2': 0.49, 'flw1': 0.29, 'flw0': 0.09, 'time': 37.18, 'compass': -132.23, 'pitch': 0.88, 'roll': -0.44}
{'lipoC2': 0.04, 'temp': 0.0, 'lipoC3S3': 11.94, 'state': 'normal', 'rot1': 255, 'rot0': 265, 'rot3': 0, 'rot2': 0, 'depth': -2.582, 'yaw': -3.32, 'datetime': '2018-12-18 21:12:01.455174', 'mgs': 0, 'flw2': 0.26, 'flw1': 0.0, 'flw0': 0.57, 'time': 37.39, 'compass': -133.11, 'pitch': 0.52, 'roll': -0.69}
{'lipoC2': 0.16, 'temp': 0.0, 'lipoC3S3': 11.8, 'state': 'normal', 'rot1': 256, 'rot0': 266, 'rot3': 0, 'rot2': 0, 'depth': -0.14, 'yaw': -3.9, 'datetime': '2018-12-18 21:12:01.665992', 'mgs': 0, 'flw2': 0.52, 'flw1': 0.0, 'flw0': 0.34, 'time': 37.6, 'compass': -133.69, 'pitch': 0.02, 'roll': -0.72}
{'lipoC2': 0.0, 'temp': 0.0, 'lipoC3S3': 11.73, 'state': 'normal', 'rot1': 257, 'rot0': 267, 'rot3': 0, 'rot2': 0, 'depth': -2.048, 'yaw': -4.81, 'datetime': '2018-12-18 21:12:01.875553', 'mgs': 0, 'flw2': 0.18, 'flw1': 0.53, 'flw0': 0.29, 'time': 37.81, 'compass': -134.59, 'pitch': 0.33, 'roll': -0.71}
{'lipoC2': 0.0, 'temp': 0.0, 'lipoC3S3': 11.71, 'state': 'normal', 'rot1': 258, 'rot0': 268, 'rot3': 0, 'rot2': 0, 'depth': -2.277, 'yaw': -5.96, 'datetime': '2018-12-18 21:12:02.085208', 'mgs': 0, 'flw2': 0.15, 'flw1': 0.53, 'flw0': 0.31, 'time': 38.02, 'compass': -135.74, 'pitch': 0.91, 'roll': -0.69}
{'lipoC2': 0.16, 'temp': 0.0, 'lipoC3S3': 11.81, 'state': 'normal', 'rot1': 259, 'rot0': 269, 'rot3': 0, 'rot2': 0, 'depth': -0.293, 'yaw': -7.44, 'datetime': '2018-12-18 21:12:02.295923', 'mgs': 0, 'flw2': 0.54, 'flw1': 0.0, 'flw0': 0.42, 'time': 38.22, 'compass': -137.23, 'pitch': 0.9, 'roll': -0.64}
{'lipoC2': 0.0, 'temp': 0.0, 'lipoC3S3': 11.75, 'state': 'normal', 'rot1': 259, 'rot0': 269, 'rot3': 0, 'rot2': 0, 'depth': -2.124, 'yaw': -9.83, 'datetime': '2018-12-18 21:12:02.506583', 'mgs': 0, 'flw2': 0.0, 'flw1': 0.38, 'flw0': 0.0, 'time': 38.44, 'compass': -139.61, 'pitch': 0.44, 'roll': -0.5}
{'lipoC2': 0.0, 'temp': 0.0, 'lipoC3S3': 11.84, 'state': 'normal', 'rot1': 260, 'rot0': 269, 'rot3': 0, 'rot2': 0, 'depth': -0.446, 'yaw': -12.32, 'datetime': '2018-12-18 21:12:02.715728', 'mgs': 0, 'flw2': 2.84, 'flw1': 0.44, 'flw0': 3.22, 'time': 38.64, 'compass': -142.11, 'pitch': 0.35, 'roll': -0.3}
{'lipoC2': 0.01, 'temp': 0.0, 'lipoC3S3': 11.64, 'state': 'normal', 'rot1': 262, 'rot0': 272, 'rot3': 0, 'rot2': 0, 'depth': -0.98, 'yaw': -14.16, 'datetime': '2018-12-18 21:12:02.928793', 'mgs': 0, 'flw2': 2.47, 'flw1': 0.12, 'flw0': 2.5, 'time': 38.85, 'compass': -143.94, 'pitch': 2.62, 'roll': -0.27}
{'lipoC2': 0.0, 'temp': 0.0, 'lipoC3S3': 12.06, 'state': 'normal', 'rot1': 264, 'rot0': 274, 'rot3': 0, 'rot2': 0, 'depth': 1.157, 'yaw': -15.87, 'datetime': '2018-12-18 21:12:03.136843', 'mgs': 0, 'flw2': 2.76, 'flw1': 0.0, 'flw0': 2.83, 'time': 39.06, 'compass': -145.65, 'pitch': 5.11, 'roll': -0.37}
{'lipoC2': 0.0, 'temp': 0.0, 'lipoC3S3': 12.02, 'state': 'normal', 'rot1': 267, 'rot0': 276, 'rot3': 0, 'rot2': 0, 'depth': 1.309, 'yaw': -16.98, 'datetime': '2018-12-18 21:12:03.343169', 'mgs': 0, 'flw2': 2.43, 'flw1': 0.35, 'flw0': 0.7, 'time': 39.27, 'compass': -146.77, 'pitch': 5.37, 'roll': -0.44}
{'lipoC2': 0.0, 'temp': 0.0, 'lipoC3S3': 12.05, 'state': 'normal', 'rot1': 268, 'rot0': 278, 'rot3': 0, 'rot2': 0, 'depth': 1.309, 'yaw': -16.46, 'datetime': '2018-12-18 21:12:03.553739', 'mgs': 0, 'flw2': 2.92, 'flw1': 0.0, 'flw0': 0.85, 'time': 39.48, 'compass': -146.25, 'pitch': 3.81, 'roll': -0.45}
{'lipoC2': 0.0, 'temp': 0.0, 'lipoC3S3': 11.84, 'state': 'normal', 'rot1': 269, 'rot0': 280, 'rot3': 0, 'rot2': 0, 'depth': -1.056, 'yaw': -14.55, 'datetime': '2018-12-18 21:12:03.765176', 'mgs': 0, 'flw2': 2.82, 'flw1': 0.0, 'flw0': 0.73, 'time': 39.69, 'compass': -144.33, 'pitch': 2.69, 'roll': -0.29}
{'lipoC2': 0.18, 'temp': 0.0, 'lipoC3S3': 11.83, 'state': 'normal', 'rot1': 271, 'rot0': 283, 'rot3': 0, 'rot2': 0, 'depth': -0.751, 'yaw': -11.65, 'datetime': '2018-12-18 21:12:03.974623', 'mgs': 0, 'flw2': 2.81, 'flw1': 0.0, 'flw0': 2.98, 'time': 39.9, 'compass': -141.43, 'pitch': 3.11, 'roll': -0.05}
{'lipoC2': 0.0, 'temp': 0.0, 'lipoC3S3': 11.89, 'state': 'normal', 'rot1': 273, 'rot0': 285, 'rot3': 0, 'rot2': 0, 'depth': -0.064, 'yaw': -9.93, 'datetime': '2018-12-18 21:12:04.185701', 'mgs': 0, 'flw2': 2.65, 'flw1': 0.0, 'flw0': 2.38, 'time': 40.11, 'compass': -139.71, 'pitch': 4.51, 'roll': 0.1}
{'lipoC2': 0.0, 'temp': 0.0, 'lipoC3S3': 12.06, 'state': 'normal', 'rot1': 275, 'rot0': 287, 'rot3': 0, 'rot2': 0, 'depth': 1.385, 'yaw': -8.77, 'datetime': '2018-12-18 21:12:04.391146', 'mgs': 0, 'flw2': 2.45, 'flw1': 0.5, 'flw0': 2.72, 'time': 40.32, 'compass': -138.56, 'pitch': 5.37, 'roll': 0.21}
{'lipoC2': 0.01, 'temp': 0.0, 'lipoC3S3': 11.64, 'state': 'normal', 'rot1': 278, 'rot0': 289, 'rot3': 0, 'rot2': 0, 'depth': 1.462, 'yaw': -8.01, 'datetime': '2018-12-18 21:12:04.599339', 'mgs': 0, 'flw2': 2.86, 'flw1': 0.12, 'flw0': 2.33, 'time': 40.53, 'compass': -137.79, 'pitch': 5.01, 'roll': 0.38}
{'lipoC2': 0.01, 'temp': 0.0, 'lipoC3S3': 11.97, 'state': 'normal', 'rot1': 280, 'rot0': 292, 'rot3': 0, 'rot2': 0, 'depth': -2.353, 'yaw': -7.3, 'datetime': '2018-12-18 21:12:04.809792', 'mgs': 0, 'flw2': 2.71, 'flw1': 0.18, 'flw0': 2.58, 'time': 40.73, 'compass': -137.09, 'pitch': 3.96, 'roll': 0.37}
{'lipoC2': 0.0, 'temp': 0.0, 'lipoC3S3': 11.72, 'state': 'normal', 'rot1': 282, 'rot0': 294, 'rot3': 0, 'rot2': 0, 'depth': 1.233, 'yaw': -6.64, 'datetime': '2018-12-18 21:12:05.019690', 'mgs': 0, 'flw2': 2.58, 'flw1': 0.5, 'flw0': 2.78, 'time': 40.94, 'compass': -136.43, 'pitch': 3.23, 'roll': -0.03}
{'lipoC2': 0.0, 'temp': 0.0, 'lipoC3S3': 12.06, 'state': 'normal', 'rot1': 285, 'rot0': 296, 'rot3': 0, 'rot2': 0, 'depth': 1.157, 'yaw': -6.07, 'datetime': '2018-12-18 21:12:05.231622', 'mgs': 0, 'flw2': 0.67, 'flw1': 0.0, 'flw0': 2.88, 'time': 41.15, 'compass': -135.86, 'pitch': 3.13, 'roll': -0.41}
{'lipoC2': 0.0, 'temp': 0.0, 'lipoC3S3': 11.8, 'state': 'normal', 'rot1': 287, 'rot0': 298, 'rot3': 0, 'rot2': 0, 'depth': -1.361, 'yaw': -6.78, 'datetime': '2018-12-18 21:12:05.440487', 'mgs': 0, 'flw2': 0.45, 'flw1': 0.5, 'flw0': 2.71, 'time': 41.36, 'compass': -136.57, 'pitch': 2.68, 'roll': -0.52}
{'lipoC2': 0.0, 'temp': 0.0, 'lipoC3S3': 12.05, 'state': 'normal', 'rot1': 289, 'rot0': 299, 'rot3': 0, 'rot2': 0, 'depth': 1.157, 'yaw': -8.79, 'datetime': '2018-12-18 21:12:05.649140', 'mgs': 0, 'flw2': 0.74, 'flw1': 0.0, 'flw0': 2.92, 'time': 41.57, 'compass': -138.57, 'pitch': 2.16, 'roll': -0.43}
{'lipoC2': 0.08, 'temp': 0.0, 'lipoC3S3': 11.92, 'state': 'normal', 'rot1': 292, 'rot0': 301, 'rot3': 0, 'rot2': 0, 'depth': -2.658, 'yaw': -11.88, 'datetime': '2018-12-18 21:12:05.858729', 'mgs': 0, 'flw2': 2.97, 'flw1': 0.03, 'flw0': 2.34, 'time': 41.78, 'compass': -141.67, 'pitch': 2.36, 'roll': -0.33}
{'lipoC2': 0.0, 'temp': 0.0, 'lipoC3S3': 12.06, 'state': 'normal', 'rot1': 293, 'rot0': 301, 'rot3': 0, 'rot2': 0, 'depth': 1.462, 'yaw': -14.58, 'datetime': '2018-12-18 21:12:06.069929', 'mgs': 0, 'flw2': 0.02, 'flw1': 0.0, 'flw0': 0.2, 'time': 41.99, 'compass': -144.37, 'pitch': 2.6, 'roll': -0.28}
{'lipoC2': 0.16, 'temp': 0.0, 'lipoC3S3': 11.73, 'state': 'normal', 'rot1': 293, 'rot0': 301, 'rot3': 0, 'rot2': 0, 'depth': -0.064, 'yaw': -16.58, 'datetime': '2018-12-18 21:12:06.280798', 'mgs': 0, 'flw2': 0.11, 'flw1': 0.0, 'flw0': 0.12, 'time': 42.2, 'compass': -146.37, 'pitch': 1.06, 'roll': -0.18}
{'lipoC2': 0.0, 'temp': 0.0, 'lipoC3S3': 11.89, 'state': 'normal', 'rot1': 293, 'rot0': 303, 'rot3': 0, 'rot2': 0, 'depth': -0.293, 'yaw': -17.83, 'datetime': '2018-12-18 21:12:06.489558', 'mgs': 0, 'flw2': 2.73, 'flw1': 0.0, 'flw0': 0.42, 'time': 42.41, 'compass': -147.62, 'pitch': 0.37, 'roll': -0.07}
{'lipoC2': 0.0, 'temp': 0.0, 'lipoC3S3': 11.75, 'state': 'normal', 'rot1': 295, 'rot0': 305, 'rot3': 0, 'rot2': 0, 'depth': -2.048, 'yaw': -17.04, 'datetime': '2018-12-18 21:12:06.699145', 'mgs': 0, 'flw2': 2.45, 'flw1': 0.5, 'flw0': 0.7, 'time': 42.62, 'compass': -146.83, 'pitch': 2.17, 'roll': 0.27}
