{'lipoC2': 0.05, 'temp': 0.0, 'lipoC3S3': 11.65, 'state': 'normal', 'rot1': 0, 'rot0': 0, 'rot3': 0, 'rot2': 0, 'depth': 0.012, 'yaw': 0.0, 'datetime': '2018-12-18 21:01:08.734138', 'mgs': 0, 'flw2': 0.0, 'flw1': 0.18, 'flw0': 0.15, 'time': 1.26, 'compass': -3.02, 'pitch': 0.27, 'roll': -1.27}
{'lipoC2': 0.14, 'temp': 0.0, 'lipoC3S3': 11.71, 'state': 'normal', 'rot1': 0, 'rot0': 0, 'rot3': 0, 'rot2': 0, 'depth': 0.317, 'yaw': 0.32, 'datetime': '2018-12-18 21:01:08.937927', 'mgs': 0, 'flw2': 0.02, 'flw1': 0.47, 'flw0': 0.0, 'time': 1.46, 'compass': -2.7, 'pitch': -0.09, 'roll': -1.27}
{'lipoC2': 0.15, 'temp': 0.0, 'lipoC3S3': 11.76, 'state': 'normal', 'rot1': 0, 'rot0': 0, 'rot3': 0, 'rot2': 0, 'depth': 0.47, 'yaw': 0.63, 'datetime': '2018-12-18 21:01:09.148817', 'mgs': 0, 'flw2': 0.0, 'flw1': 0.0, 'flw0': 0.18, 'time': 1.67, 'compass': -2.39, 'pitch': -0.42, 'roll': -1.27}
{'lipoC2': 0.06, 'temp': 0.0, 'lipoC3S3': 11.65, 'state': 'normal', 'rot1': 0, 'rot0': 0, 'rot3': 0, 'rot2': 0, 'depth': 1.157, 'yaw': 0.94, 'datetime': '2018-12-18 21:01:09.354666', 'mgs': 0, 'flw2': 0.12, 'flw1': 0.18, 'flw0': 0.0, 'time': 1.88, 'compass': -2.08, 'pitch': -0.27, 'roll': -1.26}
{'lipoC2': 0.15, 'temp': 0.0, 'lipoC3S3': 11.81, 'state': 'normal', 'rot1': 0, 'rot0': 0, 'rot3': 0, 'rot2': 0, 'depth': -1.208, 'yaw': 1.26, 'datetime': '2018-12-18 21:01:09.564171', 'mgs': 0, 'flw2': 0.0, 'flw1': 0.47, 'flw0': 0.0, 'time': 2.09, 'compass': -1.76, 'pitch': -0.04, 'roll': -1.24}
{'lipoC2': 0.0, 'temp': 0.0, 'lipoC3S3': 11.87, 'state': 'normal', 'rot1': 0, 'rot0': 0, 'rot3': 0, 'rot2': 0, 'depth': 0.165, 'yaw': 1.56, 'datetime': '2018-12-18 21:01:09.770239', 'mgs': 0, 'flw2': 0.12, 'flw1': 0.0, 'flw0': 0.05, 'time': 2.29, 'compass': -1.45, 'pitch': -0.09, 'roll': -1.31}
{'lipoC2': 0.15, 'temp': 0.0, 'lipoC3S3': 11.71, 'state': 'normal', 'rot1': 0, 'rot0': 0, 'rot3': 0, 'rot2': 0, 'depth': -0.293, 'yaw': 1.86, 'datetime': '2018-12-18 21:01:09.976266', 'mgs': 0, 'flw2': 0.04, 'flw1': 0.41, 'flw0': 0.0, 'time': 2.5, 'compass': -1.16, 'pitch': -0.23, 'roll': -1.35}
{'lipoC2': 0.06, 'temp': 0.0, 'lipoC3S3': 11.65, 'state': 'normal', 'rot1': 0, 'rot0': 0, 'rot3': 0, 'rot2': 0, 'depth': 0.165, 'yaw': 2.17, 'datetime': '2018-12-18 21:01:10.183121', 'mgs': 0, 'flw2': 0.17, 'flw1': 0.03, 'flw0': 0.0, 'time': 2.71, 'compass': -0.85, 'pitch': -0.12, 'roll': -1.27}
{'lipoC2': 0.17, 'temp': 0.0, 'lipoC3S3': 11.81, 'state': 'normal', 'rot1': 0, 'rot0': 0, 'rot3': 0, 'rot2': 0, 'depth': 1.233, 'yaw': 2.36, 'datetime': '2018-12-18 21:01:10.392884', 'mgs': 0, 'flw2': 0.01, 'flw1': 0.0, 'flw0': 7.03, 'time': 2.92, 'compass': -0.66, 'pitch': 0.04, 'roll': -1.31}
{'lipoC2': 0.02, 'temp': 0.0, 'lipoC3S3': 11.93, 'state': 'normal', 'rot1': 9, 'rot0': 0, 'rot3': 0, 'rot2': 0, 'depth': 1.614, 'yaw': -2.08, 'datetime': '2018-12-18 21:01:10.605913', 'mgs': 0, 'flw2': 0.33, 'flw1': 0.0, 'flw0': 12.49, 'time': 3.13, 'compass': -5.09, 'pitch': 2.89, 'roll': -2.11}
{'lipoC2': 0.11, 'temp': 0.0, 'lipoC3S3': 11.87, 'state': 'normal', 'rot1': 21, 'rot0': 0, 'rot3': 0, 'rot2': 0, 'depth': -1.59, 'yaw': -15.13, 'datetime': '2018-12-18 21:01:10.812302', 'mgs': 0, 'flw2': 0.0, 'flw1': 0.5, 'flw0': 12.49, 'time': 3.33, 'compass': -18.14, 'pitch': 7.66, 'roll': -2.86}
{'lipoC2': 0.0, 'temp': 0.0, 'lipoC3S3': 11.96, 'state': 'normal', 'rot1': 30, 'rot0': 0, 'rot3': 0, 'rot2': 0, 'depth': 1.233, 'yaw': -32.98, 'datetime': '2018-12-18 21:01:11.017879', 'mgs': 0, 'flw2': 0.0, 'flw1': 0.26, 'flw0': 12.49, 'time': 3.54, 'compass': -36.0, 'pitch': 9.14, 'roll': -2.87}
{'lipoC2': 0.0, 'temp': 0.0, 'lipoC3S3': 11.94, 'state': 'normal', 'rot1': 36, 'rot0': 0, 'rot3': 0, 'rot2': 0, 'depth': 1.233, 'yaw': -52.1, 'datetime': '2018-12-18 21:01:11.226379', 'mgs': 0, 'flw2': 3.15, 'flw1': 0.41, 'flw0': 0.04, 'time': 3.75, 'compass': -55.11, 'pitch': 8.2, 'roll': -2.77}
{'lipoC2': 0.0, 'temp': 0.0, 'lipoC3S3': 11.94, 'state': 'normal', 'rot1': 36, 'rot0': 4, 'rot3': 0, 'rot2': 0, 'depth': 1.462, 'yaw': -65.17, 'datetime': '2018-12-18 21:01:11.437012', 'mgs': 0, 'flw2': 12.49, 'flw1': 0.29, 'flw0': 0.1, 'time': 3.95, 'compass': -68.19, 'pitch': 5.06, 'roll': -1.71}
{'lipoC2': 0.0, 'temp': 0.0, 'lipoC3S3': 12.06, 'state': 'normal', 'rot1': 40, 'rot0': 10, 'rot3': 0, 'rot2': 0, 'depth': 2.454, 'yaw': -66.42, 'datetime': '2018-12-18 21:01:11.642712', 'mgs': 0, 'flw2': 12.49, 'flw1': 0.18, 'flw0': 12.49, 'time': 4.16, 'compass': -69.44, 'pitch': 6.39, 'roll': -0.37}
{'lipoC2': 0.0, 'temp': 0.0, 'lipoC3S3': 11.89, 'state': 'normal', 'rot1': 54, 'rot0': 17, 'rot3': 0, 'rot2': 0, 'depth': 1.462, 'yaw': -56.96, 'datetime': '2018-12-18 21:01:11.851486', 'mgs': 0, 'flw2': 12.49, 'flw1': 0.0, 'flw0': 12.49, 'time': 4.37, 'compass': -59.98, 'pitch': 6.79, 'roll': 0.63}
{'lipoC2': 0.0, 'temp': 0.0, 'lipoC3S3': 12.06, 'state': 'normal', 'rot1': 68, 'rot0': 24, 'rot3': 0, 'rot2': 0, 'depth': 2.072, 'yaw': -40.66, 'datetime': '2018-12-18 21:01:12.061443', 'mgs': 0, 'flw2': 12.49, 'flw1': 0.44, 'flw0': 12.49, 'time': 4.58, 'compass': -43.68, 'pitch': 4.43, 'roll': 2.29}
{'lipoC2': 0.14, 'temp': 0.0, 'lipoC3S3': 11.84, 'state': 'normal', 'rot1': 81, 'rot0': 30, 'rot3': 0, 'rot2': 0, 'depth': -1.208, 'yaw': -18.96, 'datetime': '2018-12-18 21:01:12.269338', 'mgs': 0, 'flw2': 12.49, 'flw1': 0.73, 'flw0': 12.49, 'time': 4.79, 'compass': -21.98, 'pitch': 2.46, 'roll': 4.9}
{'lipoC2': 0.0, 'temp': 0.0, 'lipoC3S3': 11.69, 'state': 'normal', 'rot1': 96, 'rot0': 37, 'rot3': 0, 'rot2': 0, 'depth': -0.522, 'yaw': 5.56, 'datetime': '2018-12-18 21:01:12.478524', 'mgs': 0, 'flw2': 12.49, 'flw1': 0.38, 'flw0': 12.49, 'time': 5.0, 'compass': 2.54, 'pitch': 3.33, 'roll': 7.0}
{'lipoC2': 0.01, 'temp': 0.0, 'lipoC3S3': 11.97, 'state': 'normal', 'rot1': 108, 'rot0': 44, 'rot3': 0, 'rot2': 0, 'depth': 0.165, 'yaw': 30.42, 'datetime': '2018-12-18 21:01:12.687179', 'mgs': 0, 'flw2': 12.49, 'flw1': 0.76, 'flw0': 12.49, 'time': 5.21, 'compass': 27.4, 'pitch': 6.21, 'roll': 8.09}
{'lipoC2': 0.13, 'temp': 0.0, 'lipoC3S3': 11.68, 'state': 'normal', 'rot1': 123, 'rot0': 51, 'rot3': 0, 'rot2': 0, 'depth': 1.157, 'yaw': 53.92, 'datetime': '2018-12-18 21:01:12.896052', 'mgs': 0, 'flw2': 12.49, 'flw1': 0.5, 'flw0': 12.49, 'time': 5.42, 'compass': 50.9, 'pitch': 7.7, 'roll': 7.93}
{'lipoC2': 0.0, 'temp': 0.0, 'lipoC3S3': 12.06, 'state': 'normal', 'rot1': 136, 'rot0': 57, 'rot3': 0, 'rot2': 0, 'depth': 2.988, 'yaw': 79.31, 'datetime': '2018-12-18 21:01:13.106642', 'mgs': 0, 'flw2': 12.49, 'flw1': 0.5, 'flw0': 12.49, 'time': 5.63, 'compass': 76.29, 'pitch': 7.64, 'roll': 7.76}
{'lipoC2': 0.0, 'temp': 0.0, 'lipoC3S3': 12.08, 'state': 'normal', 'rot1': 151, 'rot0': 63, 'rot3': 0, 'rot2': 0, 'depth': 0.165, 'yaw': 105.66, 'datetime': '2018-12-18 21:01:13.316155', 'mgs': 0, 'flw2': 12.49, 'flw1': 0.29, 'flw0': 12.49, 'time': 5.84, 'compass': 102.65, 'pitch': 7.02, 'roll': 8.72}
{'lipoC2': 0.0, 'temp': 0.0, 'lipoC3S3': 11.9, 'state': 'normal', 'rot1': 163, 'rot0': 70, 'rot3': 0, 'rot2': 0, 'depth': 0.165, 'yaw': 133.63, 'datetime': '2018-12-18 21:01:13.525399', 'mgs': 0, 'flw2': 12.49, 'flw1': 0.0, 'flw0': 12.49, 'time': 6.04, 'compass': 130.61, 'pitch': 7.28, 'roll': 10.41}
{'lipoC2': 0.0, 'temp': 0.0, 'lipoC3S3': 12.06, 'state': 'normal', 'rot1': 176, 'rot0': 76, 'rot3': 0, 'rot2': 0, 'depth': 2.301, 'yaw': 163.43, 'datetime': '2018-12-18 21:01:13.733096', 'mgs': 0, 'flw2': 12.49, 'flw1': 0.44, 'flw0': 12.49, 'time': 6.25, 'compass': 160.41, 'pitch': 8.68, 'roll': 12.0}
{'lipoC2': 0.12, 'temp': 0.0, 'lipoC3S3': 11.88, 'state': 'normal', 'rot1': 178, 'rot0': 78, 'rot3': 0, 'rot2': 0, 'depth': -1.743, 'yaw': -168.77, 'datetime': '2018-12-18 21:01:13.942854', 'mgs': 0, 'flw2': 0.0, 'flw1': 0.0, 'flw0': 0.02, 'time': 6.46, 'compass': -171.79, 'pitch': 9.49, 'roll': 12.28}
{'lipoC2': 0.13, 'temp': 0.0, 'lipoC3S3': 11.67, 'state': 'normal', 'rot1': 179, 'rot0': 78, 'rot3': 0, 'rot2': 0, 'depth': 0.851, 'yaw': -148.51, 'datetime': '2018-12-18 21:01:14.152319', 'mgs': 0, 'flw2': 0.44, 'flw1': 0.0, 'flw0': 4.54, 'time': 6.67, 'compass': -151.53, 'pitch': 5.87, 'roll': 9.25}
{'lipoC2': 0.06, 'temp': 0.0, 'lipoC3S3': 11.89, 'state': 'normal', 'rot1': 191, 'rot0': 81, 'rot3': 0, 'rot2': 0, 'depth': -1.437, 'yaw': -136.42, 'datetime': '2018-12-18 21:01:14.361179', 'mgs': 0, 'flw2': 12.49, 'flw1': 0.0, 'flw0': 12.49, 'time': 6.88, 'compass': -139.44, 'pitch': 4.48, 'roll': 4.9}
{'lipoC2': 0.0, 'temp': 0.0, 'lipoC3S3': 11.76, 'state': 'normal', 'rot1': 201, 'rot0': 87, 'rot3': 0, 'rot2': 0, 'depth': 1.233, 'yaw': -128.35, 'datetime': '2018-12-18 21:01:14.570921', 'mgs': 0, 'flw2': 12.49, 'flw1': 0.32, 'flw0': 12.49, 'time': 7.09, 'compass': -131.36, 'pitch': 11.12, 'roll': 2.63}
{'lipoC2': 0.06, 'temp': 0.0, 'lipoC3S3': 11.89, 'state': 'normal', 'rot1': 214, 'rot0': 92, 'rot3': 0, 'rot2': 0, 'depth': -1.971, 'yaw': -121.3, 'datetime': '2018-12-18 21:01:14.781042', 'mgs': 0, 'flw2': 12.49, 'flw1': 0.0, 'flw0': 12.49, 'time': 7.3, 'compass': -124.32, 'pitch': 15.09, 'roll': 2.08}
{'lipoC2': 0.0, 'temp': 0.0, 'lipoC3S3': 11.73, 'state': 'normal', 'rot1': 225, 'rot0': 97, 'rot3': 0, 'rot2': 0, 'depth': -0.827, 'yaw': -116.04, 'datetime': '2018-12-18 21:01:14.990797', 'mgs': 0, 'flw2': 12.49, 'flw1': 0.23, 'flw0': 12.49, 'time': 7.51, 'compass': -119.05, 'pitch': 12.45, 'roll': 2.53}
{'lipoC2': 0.0, 'temp': 0.0, 'lipoC3S3': 11.94, 'state': 'normal', 'rot1': 235, 'rot0': 100, 'rot3': 0, 'rot2': 0, 'depth': 1.004, 'yaw': -113.31, 'datetime': '2018-12-18 21:01:15.199263', 'mgs': 0, 'flw2': 8.41, 'flw1': 0.67, 'flw0': 10.07, 'time': 7.72, 'compass': -116.33, 'pitch': 8.53, 'roll': 2.68}
{'lipoC2': 0.06, 'temp': 0.0, 'lipoC3S3': 11.65, 'state': 'normal', 'rot1': 248, 'rot0': 105, 'rot3': 0, 'rot2': 0, 'depth': 0.623, 'yaw': -111.47, 'datetime': '2018-12-18 21:01:15.410632', 'mgs': 0, 'flw2': 12.49, 'flw1': 0.12, 'flw0': 12.49, 'time': 7.93, 'compass': -114.49, 'pitch': -0.5, 'roll': 1.93}
{'lipoC2': 0.13, 'temp': 0.0, 'lipoC3S3': 11.88, 'state': 'normal', 'rot1': 260, 'rot0': 112, 'rot3': 0, 'rot2': 0, 'depth': -1.056, 'yaw': -109.87, 'datetime': '2018-12-18 21:01:15.620115', 'mgs': 0, 'flw2': 12.49, 'flw1': 0.0, 'flw0': 12.49, 'time': 8.14, 'compass': -112.89, 'pitch': -8.45, 'roll': 1.16}
{'lipoC2': 0.0, 'temp': 0.0, 'lipoC3S3': 11.88, 'state': 'normal', 'rot1': 276, 'rot0': 117, 'rot3': 0, 'rot2': 0, 'depth': 0.546, 'yaw': -108.13, 'datetime': '2018-12-18 21:01:15.829918', 'mgs': 0, 'flw2': 12.49, 'flw1': 0.0, 'flw0': 12.49, 'time': 8.35, 'compass': -111.14, 'pitch': -9.33, 'roll': 0.07}
{'lipoC2': 0.0, 'temp': 0.0, 'lipoC3S3': 12.05, 'state': 'normal', 'rot1': 291, 'rot0': 123, 'rot3': 0, 'rot2': 0, 'depth': -1.361, 'yaw': -107.31, 'datetime': '2018-12-18 21:01:16.040733', 'mgs': 0, 'flw2': 12.49, 'flw1': 0.09, 'flw0': 12.49, 'time': 8.56, 'compass': -110.33, 'pitch': -6.54, 'roll': -0.91}
{'lipoC2': 0.09, 'temp': 0.0, 'lipoC3S3': 11.96, 'state': 'normal', 'rot1': 301, 'rot0': 129, 'rot3': 0, 'rot2': 0, 'depth': -2.124, 'yaw': -107.57, 'datetime': '2018-12-18 21:01:16.249310', 'mgs': 0, 'flw2': 2.21, 'flw1': 0.0, 'flw0': 0.44, 'time': 8.76, 'compass': -110.58, 'pitch': -4.42, 'roll': -1.31}
{'lipoC2': 0.02, 'temp': 0.0, 'lipoC3S3': 11.68, 'state': 'normal', 'rot1': 301, 'rot0': 129, 'rot3': 0, 'rot2': 0, 'depth': -0.14, 'yaw': -107.9, 'datetime': '2018-12-18 21:01:16.458926', 'mgs': 0, 'flw2': 0.0, 'flw1': 0.0, 'flw0': 0.21, 'time': 8.97, 'compass': -110.92, 'pitch': -0.04, 'roll': -1.37}
{'lipoC2': 0.13, 'temp': 0.0, 'lipoC3S3': 11.88, 'state': 'normal', 'rot1': 301, 'rot0': 129, 'rot3': 0, 'rot2': 0, 'depth': -1.514, 'yaw': -107.4, 'datetime': '2018-12-18 21:01:16.671291', 'mgs': 0, 'flw2': 0.2, 'flw1': 0.26, 'flw0': 0.0, 'time': 9.18, 'compass': -110.42, 'pitch': 3.31, 'roll': -0.67}
{'lipoC2': 0.06, 'temp': 0.0, 'lipoC3S3': 11.65, 'state': 'normal', 'rot1': 301, 'rot0': 129, 'rot3': 0, 'rot2': 0, 'depth': 1.157, 'yaw': -106.67, 'datetime': '2018-12-18 21:01:16.881607', 'mgs': 0, 'flw2': 0.05, 'flw1': 1.52, 'flw0': 0.0, 'time': 9.39, 'compass': -109.69, 'pitch': 3.57, 'roll': 0.36}
{'lipoC2': 0.12, 'temp': 0.0, 'lipoC3S3': 11.68, 'state': 'normal', 'rot1': 301, 'rot0': 129, 'rot3': 1, 'rot2': 1, 'depth': 0.394, 'yaw': -105.47, 'datetime': '2018-12-18 21:01:17.090430', 'mgs': 0, 'flw2': 0.02, 'flw1': 4.1, 'flw0': 0.0, 'time': 9.6, 'compass': -108.49, 'pitch': 1.84, 'roll': 0.74}
{'lipoC2': 0.06, 'temp': 0.0, 'lipoC3S3': 11.9, 'state': 'normal', 'rot1': 301, 'rot0': 129, 'rot3': 2, 'rot2': 1, 'depth': -1.895, 'yaw': -104.45, 'datetime': '2018-12-18 21:01:17.301297', 'mgs': 0, 'flw2': 0.22, 'flw1': 4.25, 'flw0': 0.0, 'time': 9.81, 'compass': -107.47, 'pitch': 0.48, 'roll': 0.64}
{'lipoC2': 0.13, 'temp': 0.0, 'lipoC3S3': 11.72, 'state': 'normal', 'rot1': 301, 'rot0': 129, 'rot3': 3, 'rot2': 2, 'depth': 0.394, 'yaw': -103.22, 'datetime': '2018-12-18 21:01:17.508486', 'mgs': 0, 'flw2': 0.0, 'flw1': 5.77, 'flw0': 0.0, 'time': 10.02, 'compass': -106.24, 'pitch': 0.28, 'roll': 0.83}
{'lipoC2': 0.16, 'temp': 0.0, 'lipoC3S3': 11.81, 'state': 'normal', 'rot1': 301, 'rot0': 129, 'rot3': 4, 'rot2': 3, 'depth': -0.446, 'yaw': -101.85, 'datetime': '2018-12-18 21:01:17.722871', 'mgs': 0, 'flw2': 0.0, 'flw1': 6.74, 'flw0': 0.0, 'time': 10.23, 'compass': -104.86, 'pitch': 0.89, 'roll': 1.46}
{'lipoC2': 0.13, 'temp': 0.0, 'lipoC3S3': 11.69, 'state': 'normal', 'rot1': 301, 'rot0': 129, 'rot3': 6, 'rot2': 4, 'depth': 0.623, 'yaw': -100.27, 'datetime': '2018-12-18 21:01:17.930033', 'mgs': 0, 'flw2': 0.0, 'flw1': 6.74, 'flw0': 0.17, 'time': 10.44, 'compass': -103.29, 'pitch': 1.36, 'roll': 1.92}
{'lipoC2': 0.12, 'temp': 0.0, 'lipoC3S3': 11.88, 'state': 'normal', 'rot1': 301, 'rot0': 129, 'rot3': 7, 'rot2': 6, 'depth': -1.361, 'yaw': -98.44, 'datetime': '2018-12-18 21:01:18.141009', 'mgs': 0, 'flw2': 0.22, 'flw1': 9.96, 'flw0': 0.0, 'time': 10.65, 'compass': -101.46, 'pitch': 1.28, 'roll': 2.42}
{'lipoC2': 0.03, 'temp': 0.0, 'lipoC3S3': 11.96, 'state': 'normal', 'rot1': 301, 'rot0': 129, 'rot3': 9, 'rot2': 7, 'depth': -1.514, 'yaw': -96.54, 'datetime': '2018-12-18 21:01:18.353318', 'mgs': 0, 'flw2': 0.0, 'flw1': 9.61, 'flw0': 0.13, 'time': 10.86, 'compass': -99.56, 'pitch': 1.64, 'roll': 3.45}
{'lipoC2': 0.0, 'temp': 0.0, 'lipoC3S3': 12.08, 'state': 'normal', 'rot1': 301, 'rot0': 129, 'rot3': 11, 'rot2': 8, 'depth': -0.369, 'yaw': -94.37, 'datetime': '2018-12-18 21:01:18.558065', 'mgs': 0, 'flw2': 0.0, 'flw1': 10.61, 'flw0': 0.0, 'time': 11.07, 'compass': -97.39, 'pitch': 2.45, 'roll': 4.77}
{'lipoC2': 0.1, 'temp': 0.0, 'lipoC3S3': 11.89, 'state': 'normal', 'rot1': 301, 'rot0': 129, 'rot3': 13, 'rot2': 9, 'depth': -1.59, 'yaw': -91.98, 'datetime': '2018-12-18 21:01:18.768951', 'mgs': 0, 'flw2': 0.23, 'flw1': 9.73, 'flw0': 0.0, 'time': 11.28, 'compass': -95.0, 'pitch': 2.98, 'roll': 5.89}
{'lipoC2': 0.14, 'temp': 0.0, 'lipoC3S3': 11.88, 'state': 'normal', 'rot1': 301, 'rot0': 129, 'rot3': 15, 'rot2': 11, 'depth': -1.056, 'yaw': -89.35, 'datetime': '2018-12-18 21:01:18.978547', 'mgs': 0, 'flw2': 0.07, 'flw1': 8.79, 'flw0': 0.05, 'time': 11.49, 'compass': -92.36, 'pitch': 2.96, 'roll': 6.91}
{'lipoC2': 0.15, 'temp': 0.0, 'lipoC3S3': 11.71, 'state': 'normal', 'rot1': 301, 'rot0': 129, 'rot3': 16, 'rot2': 13, 'depth': 0.699, 'yaw': -86.56, 'datetime': '2018-12-18 21:01:19.192269', 'mgs': 0, 'flw2': 0.0, 'flw1': 9.05, 'flw0': 0.22, 'time': 11.7, 'compass': -89.58, 'pitch': 3.16, 'roll': 7.35}
{'lipoC2': 0.0, 'temp': 0.0, 'lipoC3S3': 12.02, 'state': 'normal', 'rot1': 303, 'rot0': 130, 'rot3': 18, 'rot2': 14, 'depth': 1.385, 'yaw': -83.67, 'datetime': '2018-12-18 21:01:19.399573', 'mgs': 0, 'flw2': 10.79, 'flw1': 8.91, 'flw0': 12.49, 'time': 11.91, 'compass': -86.69, 'pitch': 3.14, 'roll': 7.04}
{'lipoC2': 0.0, 'temp': 0.0, 'lipoC3S3': 12.08, 'state': 'normal', 'rot1': 318, 'rot0': 136, 'rot3': 20, 'rot2': 15, 'depth': 2.53, 'yaw': -73.66, 'datetime': '2018-12-18 21:01:19.612724', 'mgs': 0, 'flw2': 12.49, 'flw1': 8.41, 'flw0': 12.49, 'time': 12.12, 'compass': -76.68, 'pitch': 4.56, 'roll': 7.67}
{'lipoC2': 0.0, 'temp': 0.0, 'lipoC3S3': 12.01, 'state': 'normal', 'rot1': 333, 'rot0': 142, 'rot3': 22, 'rot2': 17, 'depth': -2.658, 'yaw': -54.4, 'datetime': '2018-12-18 21:01:19.827766', 'mgs': 0, 'flw2': 12.49, 'flw1': 8.99, 'flw0': 12.49, 'time': 12.33, 'compass': -57.42, 'pitch': 7.53, 'roll': 8.76}
{'lipoC2': 0.0, 'temp': 0.0, 'lipoC3S3': 12.05, 'state': 'normal', 'rot1': 335, 'rot0': 146, 'rot3': 22, 'rot2': 17, 'depth': 1.691, 'yaw': -35.92, 'datetime': '2018-12-18 21:01:20.035050', 'mgs': 0, 'flw2': 0.0, 'flw1': 0.0, 'flw0': 0.2, 'time': 12.54, 'compass': -38.93, 'pitch': 8.94, 'roll': 7.55}
{'lipoC2': 0.0, 'temp': 0.0, 'lipoC3S3': 12.06, 'state': 'normal', 'rot1': 335, 'rot0': 146, 'rot3': 22, 'rot2': 17, 'depth': -0.446, 'yaw': -24.47, 'datetime': '2018-12-18 21:01:20.242692', 'mgs': 0, 'flw2': 0.06, 'flw1': 0.0, 'flw0': 0.13, 'time': 12.74, 'compass': -27.49, 'pitch': 6.76, 'roll': 3.45}
{'lipoC2': 0.0, 'temp': 0.0, 'lipoC3S3': 11.93, 'state': 'normal', 'rot1': 335, 'rot0': 146, 'rot3': 22, 'rot2': 17, 'depth': -0.674, 'yaw': -15.73, 'datetime': '2018-12-18 21:01:20.452835', 'mgs': 0, 'flw2': 0.12, 'flw1': 0.0, 'flw0': 0.0, 'time': 12.95, 'compass': -18.75, 'pitch': 3.87, 'roll': 0.33}
{'lipoC2': 0.03, 'temp': 0.0, 'lipoC3S3': 11.67, 'state': 'normal', 'rot1': 335, 'rot0': 146, 'rot3': 22, 'rot2': 17, 'depth': 0.089, 'yaw': -7.58, 'datetime': '2018-12-18 21:01:20.664418', 'mgs': 0, 'flw2': 0.16, 'flw1': 0.12, 'flw0': 0.0, 'time': 13.17, 'compass': -10.6, 'pitch': 1.74, 'roll': -0.67}
{'lipoC2': 0.0, 'temp': 0.0, 'lipoC3S3': 12.09, 'state': 'normal', 'rot1': 335, 'rot0': 146, 'rot3': 22, 'rot2': 17, 'depth': 1.767, 'yaw': -0.28, 'datetime': '2018-12-18 21:01:20.873599', 'mgs': 0, 'flw2': 0.09, 'flw1': 0.38, 'flw0': 0.0, 'time': 13.38, 'compass': -3.3, 'pitch': 0.82, 'roll': -0.76}
{'lipoC2': 0.0, 'temp': 0.0, 'lipoC3S3': 11.9, 'state': 'normal', 'rot1': 335, 'rot0': 146, 'rot3': 22, 'rot2': 17, 'depth': 0.546, 'yaw': 6.55, 'datetime': '2018-12-18 21:01:21.082738', 'mgs': 0, 'flw2': 0.0, 'flw1': 0.44, 'flw0': 0.02, 'time': 13.59, 'compass': 3.53, 'pitch': 0.34, 'roll': -0.28}
{'lipoC2': 0.16, 'temp': 0.0, 'lipoC3S3': 11.83, 'state': 'normal', 'rot1': 335, 'rot0': 146, 'rot3': 22, 'rot2': 17, 'depth': -1.743, 'yaw': 12.67, 'datetime': '2018-12-18 21:01:21.292756', 'mgs': 0, 'flw2': 0.05, 'flw1': 0.47, 'flw0': 0.0, 'time': 13.8, 'compass': 9.65, 'pitch': -0.24, 'roll': 0.51}
{'lipoC2': 0.0, 'temp': 0.0, 'lipoC3S3': 12.04, 'state': 'normal', 'rot1': 335, 'rot0': 146, 'rot3': 22, 'rot2': 17, 'depth': 1.462, 'yaw': 18.63, 'datetime': '2018-12-18 21:01:21.501368', 'mgs': 0, 'flw2': 0.0, 'flw1': 0.0, 'flw0': 0.21, 'time': 14.01, 'compass': 15.61, 'pitch': -0.95, 'roll': 1.37}
{'lipoC2': 0.15, 'temp': 0.0, 'lipoC3S3': 11.8, 'state': 'normal', 'rot1': 335, 'rot0': 146, 'rot3': 22, 'rot2': 17, 'depth': 0.623, 'yaw': 23.51, 'datetime': '2018-12-18 21:01:21.712714', 'mgs': 0, 'flw2': 0.17, 'flw1': 0.0, 'flw0': 0.0, 'time': 14.22, 'compass': 20.49, 'pitch': -1.37, 'roll': 1.6}
{'lipoC2': 0.12, 'temp': 0.0, 'lipoC3S3': 11.68, 'state': 'normal', 'rot1': 335, 'rot0': 146, 'rot3': 22, 'rot2': 17, 'depth': 0.089, 'yaw': 28.14, 'datetime': '2018-12-18 21:01:21.924842', 'mgs': 0, 'flw2': 0.0, 'flw1': 0.47, 'flw0': 0.0, 'time': 14.43, 'compass': 25.13, 'pitch': -1.31, 'roll': 1.07}
{'lipoC2': 0.08, 'temp': 0.0, 'lipoC3S3': 11.89, 'state': 'normal', 'rot1': 335, 'rot0': 146, 'rot3': 22, 'rot2': 17, 'depth': 1.843, 'yaw': 32.55, 'datetime': '2018-12-18 21:01:22.132850', 'mgs': 0, 'flw2': 0.18, 'flw1': 0.0, 'flw0': 0.0, 'time': 14.64, 'compass': 29.53, 'pitch': -0.8, 'roll': 0.42}
{'lipoC2': 0.15, 'temp': 0.0, 'lipoC3S3': 11.76, 'state': 'normal', 'rot1': 335, 'rot0': 146, 'rot3': 22, 'rot2': 17, 'depth': 0.47, 'yaw': 36.57, 'datetime': '2018-12-18 21:01:22.342507', 'mgs': 0, 'flw2': 0.0, 'flw1': 0.47, 'flw0': 0.0, 'time': 14.84, 'compass': 33.55, 'pitch': -0.53, 'roll': -0.13}
{'lipoC2': 0.14, 'temp': 0.0, 'lipoC3S3': 11.87, 'state': 'normal', 'rot1': 335, 'rot0': 146, 'rot3': 22, 'rot2': 17, 'depth': -1.361, 'yaw': 40.41, 'datetime': '2018-12-18 21:01:22.552242', 'mgs': 0, 'flw2': 0.2, 'flw1': 0.0, 'flw0': 0.0, 'time': 15.05, 'compass': 37.4, 'pitch': -0.8, 'roll': -0.33}
{'lipoC2': 0.0, 'temp': 0.0, 'lipoC3S3': 12.06, 'state': 'normal', 'rot1': 335, 'rot0': 146, 'rot3': 22, 'rot2': 17, 'depth': 1.538, 'yaw': 44.1, 'datetime': '2018-12-18 21:01:22.762486', 'mgs': 0, 'flw2': 0.0, 'flw1': 0.0, 'flw0': 0.21, 'time': 15.26, 'compass': 41.09, 'pitch': -1.07, 'roll': 0.03}
{'lipoC2': 0.16, 'temp': 0.0, 'lipoC3S3': 11.77, 'state': 'normal', 'rot1': 335, 'rot0': 146, 'rot3': 22, 'rot2': 17, 'depth': 0.851, 'yaw': 47.55, 'datetime': '2018-12-18 21:01:22.972374', 'mgs': 0, 'flw2': 0.0, 'flw1': 0.53, 'flw0': 0.0, 'time': 15.47, 'compass': 44.53, 'pitch': -0.86, 'roll': 0.49}
{'lipoC2': 0.11, 'temp': 0.0, 'lipoC3S3': 11.88, 'state': 'normal', 'rot1': 335, 'rot0': 146, 'rot3': 22, 'rot2': 17, 'depth': -1.819, 'yaw': 51.08, 'datetime': '2018-12-18 21:01:23.184005', 'mgs': 0, 'flw2': 0.0, 'flw1': 0.38, 'flw0': 0.0, 'time': 15.68, 'compass': 48.06, 'pitch': -0.38, 'roll': 0.64}
{'lipoC2': 0.13, 'temp': 0.0, 'lipoC3S3': 11.71, 'state': 'normal', 'rot1': 335, 'rot0': 146, 'rot3': 22, 'rot2': 17, 'depth': 0.317, 'yaw': 54.48, 'datetime': '2018-12-18 21:01:23.392917', 'mgs': 0, 'flw2': 0.07, 'flw1': 0.38, 'flw0': 0.0, 'time': 15.89, 'compass': 51.46, 'pitch': -0.27, 'roll': 0.45}
{'lipoC2': 0.01, 'temp': 0.0, 'lipoC3S3': 11.69, 'state': 'normal', 'rot1': 335, 'rot0': 146, 'rot3': 22, 'rot2': 17, 'depth': -0.064, 'yaw': 57.8, 'datetime': '2018-12-18 21:01:23.603005', 'mgs': 0, 'flw2': 0.0, 'flw1': 0.06, 'flw0': 0.18, 'time': 16.1, 'compass': 54.79, 'pitch': -0.82, 'roll': 0.11}
{'lipoC2': 0.11, 'temp': 0.0, 'lipoC3S3': 11.67, 'state': 'normal', 'rot1': 335, 'rot0': 146, 'rot3': 22, 'rot2': 17, 'depth': 0.165, 'yaw': 61.06, 'datetime': '2018-12-18 21:01:23.813276', 'mgs': 0, 'flw2': 0.0, 'flw1': 0.35, 'flw0': 0.0, 'time': 16.31, 'compass': 58.04, 'pitch': -1.28, 'roll': -0.09}
{'lipoC2': 0.0, 'temp': 0.0, 'lipoC3S3': 12.06, 'state': 'normal', 'rot1': 335, 'rot0': 146, 'rot3': 22, 'rot2': 17, 'depth': 1.614, 'yaw': 64.29, 'datetime': '2018-12-18 21:01:24.023654', 'mgs': 0, 'flw2': 0.0, 'flw1': 0.44, 'flw0': 0.0, 'time': 16.52, 'compass': 61.27, 'pitch': -1.15, 'roll': -0.26}
{'lipoC2': 0.08, 'temp': 0.0, 'lipoC3S3': 11.67, 'state': 'normal', 'rot1': 335, 'rot0': 146, 'rot3': 22, 'rot2': 17, 'depth': 0.089, 'yaw': 67.5, 'datetime': '2018-12-18 21:01:24.234508', 'mgs': 0, 'flw2': 0.01, 'flw1': 0.38, 'flw0': 0.0, 'time': 16.73, 'compass': 64.48, 'pitch': -0.61, 'roll': -0.39}
{'lipoC2': 0.03, 'temp': 0.0, 'lipoC3S3': 11.65, 'state': 'normal', 'rot1': 335, 'rot0': 146, 'rot3': 22, 'rot2': 17, 'depth': 1.309, 'yaw': 70.66, 'datetime': '2018-12-18 21:01:24.445335', 'mgs': 0, 'flw2': 0.11, 'flw1': 0.26, 'flw0': 0.0, 'time': 16.94, 'compass': 67.64, 'pitch': -0.42, 'roll': -0.29}
{'lipoC2': 0.14, 'temp': 0.0, 'lipoC3S3': 11.71, 'state': 'normal', 'rot1': 335, 'rot0': 146, 'rot3': 22, 'rot2': 17, 'depth': 0.394, 'yaw': 73.74, 'datetime': '2018-12-18 21:01:24.654301', 'mgs': 0, 'flw2': 0.0, 'flw1': 0.44, 'flw0': 0.0, 'time': 17.15, 'compass': 70.72, 'pitch': -0.8, 'roll': 0.11}
{'lipoC2': 0.0, 'temp': 0.0, 'lipoC3S3': 11.85, 'state': 'normal', 'rot1': 335, 'rot0': 146, 'rot3': 22, 'rot2': 17, 'depth': 0.851, 'yaw': 76.61, 'datetime': '2018-12-18 21:01:24.864842', 'mgs': 0, 'flw2': 0.09, 'flw1': 0.0, 'flw0': 0.12, 'time': 17.36, 'compass': 73.59, 'pitch': -1.14, 'roll': 0.24}
{'lipoC2': 0.05, 'temp': 0.0, 'lipoC3S3': 11.67, 'state': 'normal', 'rot1': 335, 'rot0': 146, 'rot3': 22, 'rot2': 17, 'depth': 0.012, 'yaw': 79.63, 'datetime': '2018-12-18 21:01:25.073749', 'mgs': 0, 'flw2': 0.05, 'flw1': 0.32, 'flw0': 0.0, 'time': 17.57, 'compass': 76.61, 'pitch': -1.15, 'roll': -0.06}
{'lipoC2': 0.15, 'temp': 0.0, 'lipoC3S3': 11.84, 'state': 'normal', 'rot1': 335, 'rot0': 146, 'rot3': 22, 'rot2': 17, 'depth': -0.446, 'yaw': 82.56, 'datetime': '2018-12-18 21:01:25.285459', 'mgs': 0, 'flw2': 0.0, 'flw1': 0.38, 'flw0': 0.0, 'time': 17.78, 'compass': 79.55, 'pitch': -0.77, 'roll': -0.41}
{'lipoC2': 0.0, 'temp': 0.0, 'lipoC3S3': 11.8, 'state': 'normal', 'rot1': 335, 'rot0': 146, 'rot3': 22, 'rot2': 17, 'depth': -0.751, 'yaw': 85.39, 'datetime': '2018-12-18 21:01:25.496223', 'mgs': 0, 'flw2': 0.0, 'flw1': 0.44, 'flw0': 0.0, 'time': 17.99, 'compass': 82.37, 'pitch': -0.54, 'roll': -0.67}
{'lipoC2': 0.08, 'temp': 0.0, 'lipoC3S3': 11.9, 'state': 'normal', 'rot1': 335, 'rot0': 146, 'rot3': 22, 'rot2': 17, 'depth': -2.048, 'yaw': 88.16, 'datetime': '2018-12-18 21:01:25.705159', 'mgs': 0, 'flw2': 0.18, 'flw1': 0.0, 'flw0': 0.0, 'time': 18.2, 'compass': 85.15, 'pitch': -0.93, 'roll': -0.77}
{'lipoC2': 0.03, 'temp': 0.0, 'lipoC3S3': 12.01, 'state': 'normal', 'rot1': 335, 'rot0': 146, 'rot3': 22, 'rot2': 17, 'depth': 1.157, 'yaw': 90.87, 'datetime': '2018-12-18 21:01:25.915415', 'mgs': 0, 'flw2': 0.0, 'flw1': 0.0, 'flw0': 0.22, 'time': 18.41, 'compass': 87.85, 'pitch': -1.2, 'roll': -0.7}
