{'lipoC2': 0.0, 'temp': 0.0, 'lipoC3S3': 12.62, 'state': 'normal', 'rot1': 0, 'rot0': 0, 'rot3': 0, 'rot2': 0, 'depth': 1.538, 'yaw': 0.0, 'datetime': '2018-12-18 17:17:12.627473', 'mgs': 0, 'flw2': 0.2, 'flw1': 0.06, 'flw0': 0.0, 'time': 1.26, 'compass': 47.33, 'pitch': 2.39, 'roll': 0.88}
{'lipoC2': 0.02, 'temp': 0.0, 'lipoC3S3': 12.33, 'state': 'normal', 'rot1': 0, 'rot0': 0, 'rot3': 0, 'rot2': 0, 'depth': 1.462, 'yaw': 1.37, 'datetime': '2018-12-18 17:17:12.835465', 'mgs': 0, 'flw2': 0.17, 'flw1': 0.0, 'flw0': 0.0, 'time': 1.46, 'compass': 48.71, 'pitch': 1.96, 'roll': 1.01}
{'lipoC2': 0.0, 'temp': 0.0, 'lipoC3S3': 12.39, 'state': 'normal', 'rot1': 0, 'rot0': 0, 'rot3': 0, 'rot2': 0, 'depth': 1.233, 'yaw': 3.08, 'datetime': '2018-12-18 17:17:13.043912', 'mgs': 0, 'flw2': 0.11, 'flw1': 0.0, 'flw0': 0.11, 'time': 1.67, 'compass': 50.41, 'pitch': 1.81, 'roll': 1.08}
{'lipoC2': 0.09, 'temp': 0.0, 'lipoC3S3': 12.5, 'state': 'normal', 'rot1': 0, 'rot0': 0, 'rot3': 0, 'rot2': 0, 'depth': -1.895, 'yaw': 3.67, 'datetime': '2018-12-18 17:17:13.254811', 'mgs': 0, 'flw2': 0.18, 'flw1': 0.0, 'flw0': 0.0, 'time': 1.88, 'compass': 51.0, 'pitch': 1.86, 'roll': 1.12}
{'lipoC2': 0.0, 'temp': 0.0, 'lipoC3S3': 12.56, 'state': 'normal', 'rot1': 0, 'rot0': 0, 'rot3': 0, 'rot2': 0, 'depth': 1.157, 'yaw': 4.68, 'datetime': '2018-12-18 17:17:13.460449', 'mgs': 0, 'flw2': 0.16, 'flw1': 0.0, 'flw0': 0.0, 'time': 2.09, 'compass': 52.02, 'pitch': 1.72, 'roll': 1.19}
{'lipoC2': 0.0, 'temp': 0.0, 'lipoC3S3': 12.66, 'state': 'normal', 'rot1': 0, 'rot0': 0, 'rot3': 0, 'rot2': 0, 'depth': 1.614, 'yaw': 5.58, 'datetime': '2018-12-18 17:17:13.669234', 'mgs': 0, 'flw2': 0.0, 'flw1': 0.06, 'flw0': 0.21, 'time': 2.3, 'compass': 52.91, 'pitch': 1.55, 'roll': 1.14}
{'lipoC2': 0.02, 'temp': 0.0, 'lipoC3S3': 12.3, 'state': 'normal', 'rot1': 0, 'rot0': 0, 'rot3': 0, 'rot2': 0, 'depth': -0.064, 'yaw': 5.82, 'datetime': '2018-12-18 17:17:13.877107', 'mgs': 0, 'flw2': 0.17, 'flw1': 0.06, 'flw0': 0.0, 'time': 2.5, 'compass': 53.15, 'pitch': 1.6, 'roll': 1.04}
{'lipoC2': 0.11, 'temp': 0.0, 'lipoC3S3': 12.25, 'state': 'normal', 'rot1': 0, 'rot0': 0, 'rot3': 0, 'rot2': 0, 'depth': 1.08, 'yaw': 6.36, 'datetime': '2018-12-18 17:17:14.084167', 'mgs': 0, 'flw2': 0.12, 'flw1': 0.23, 'flw0': 0.0, 'time': 2.71, 'compass': 53.7, 'pitch': 1.85, 'roll': 1.05}
{'lipoC2': 0.04, 'temp': 0.0, 'lipoC3S3': 12.3, 'state': 'normal', 'rot1': 0, 'rot0': 0, 'rot3': 0, 'rot2': 0, 'depth': 0.241, 'yaw': 6.55, 'datetime': '2018-12-18 17:17:14.292539', 'mgs': 0, 'flw2': 0.0, 'flw1': 0.12, 'flw0': 0.18, 'time': 2.92, 'compass': 53.88, 'pitch': 1.89, 'roll': 1.04}
{'lipoC2': 0.0, 'temp': 0.0, 'lipoC3S3': 12.64, 'state': 'normal', 'rot1': 0, 'rot0': 0, 'rot3': 0, 'rot2': 0, 'depth': 1.538, 'yaw': 6.62, 'datetime': '2018-12-18 17:17:14.499553', 'mgs': 0, 'flw2': 0.0, 'flw1': 0.0, 'flw0': 0.18, 'time': 3.13, 'compass': 53.96, 'pitch': 1.82, 'roll': 1.18}
{'lipoC2': 0.0, 'temp': 0.0, 'lipoC3S3': 12.51, 'state': 'normal', 'rot1': 0, 'rot0': 0, 'rot3': 0, 'rot2': 0, 'depth': -0.064, 'yaw': 6.81, 'datetime': '2018-12-18 17:17:14.706222', 'mgs': 0, 'flw2': 0.0, 'flw1': 0.29, 'flw0': 0.09, 'time': 3.33, 'compass': 54.15, 'pitch': 1.76, 'roll': 1.41}
{'lipoC2': 0.0, 'temp': 0.0, 'lipoC3S3': 12.37, 'state': 'normal', 'rot1': 0, 'rot0': 0, 'rot3': 0, 'rot2': 0, 'depth': -0.446, 'yaw': 6.81, 'datetime': '2018-12-18 17:17:14.914389', 'mgs': 0, 'flw2': 0.06, 'flw1': 0.0, 'flw0': 0.13, 'time': 3.54, 'compass': 54.14, 'pitch': 1.8, 'roll': 1.5}
{'lipoC2': 0.12, 'temp': 0.0, 'lipoC3S3': 12.29, 'state': 'normal', 'rot1': 0, 'rot0': 0, 'rot3': 0, 'rot2': 0, 'depth': 0.623, 'yaw': 6.81, 'datetime': '2018-12-18 17:17:15.124442', 'mgs': 0, 'flw2': 0.05, 'flw1': 0.0, 'flw0': 0.16, 'time': 3.75, 'compass': 54.14, 'pitch': 1.83, 'roll': 1.42}
{'lipoC2': 0.13, 'temp': 0.0, 'lipoC3S3': 12.26, 'state': 'normal', 'rot1': 0, 'rot0': 0, 'rot3': 0, 'rot2': 0, 'depth': 0.47, 'yaw': 6.79, 'datetime': '2018-12-18 17:17:15.332378', 'mgs': 0, 'flw2': 0.11, 'flw1': 0.29, 'flw0': 0.0, 'time': 3.96, 'compass': 54.13, 'pitch': 1.67, 'roll': 1.2}
{'lipoC2': 0.0, 'temp': 0.0, 'lipoC3S3': 12.63, 'state': 'normal', 'rot1': 0, 'rot0': 0, 'rot3': 0, 'rot2': 0, 'depth': 1.691, 'yaw': 6.79, 'datetime': '2018-12-18 17:17:15.538125', 'mgs': 0, 'flw2': 0.0, 'flw1': 0.0, 'flw0': 0.18, 'time': 4.17, 'compass': 54.13, 'pitch': 1.64, 'roll': 1.14}
{'lipoC2': 0.09, 'temp': 0.0, 'lipoC3S3': 12.23, 'state': 'normal', 'rot1': 0, 'rot0': 0, 'rot3': 0, 'rot2': 0, 'depth': 1.233, 'yaw': 6.79, 'datetime': '2018-12-18 17:17:15.744877', 'mgs': 0, 'flw2': 0.16, 'flw1': 0.15, 'flw0': 0.0, 'time': 4.37, 'compass': 54.12, 'pitch': 1.74, 'roll': 1.22}
{'lipoC2': 0.0, 'temp': 0.0, 'lipoC3S3': 12.68, 'state': 'normal', 'rot1': 0, 'rot0': 0, 'rot3': 0, 'rot2': 0, 'depth': 1.767, 'yaw': 6.79, 'datetime': '2018-12-18 17:17:15.949974', 'mgs': 0, 'flw2': 0.72, 'flw1': 0.09, 'flw0': 0.13, 'time': 4.58, 'compass': 54.13, 'pitch': 1.67, 'roll': 1.26}
{'lipoC2': 0.0, 'temp': 0.0, 'lipoC3S3': 12.38, 'state': 'normal', 'rot1': 0, 'rot0': 1, 'rot3': 0, 'rot2': 0, 'depth': 0.699, 'yaw': 7.17, 'datetime': '2018-12-18 17:17:16.157785', 'mgs': 0, 'flw2': 0.63, 'flw1': 0.0, 'flw0': 0.0, 'time': 4.79, 'compass': 54.5, 'pitch': 1.57, 'roll': 1.29}
{'lipoC2': 0.12, 'temp': 0.0, 'lipoC3S3': 12.45, 'state': 'normal', 'rot1': 3, 'rot0': 2, 'rot3': 0, 'rot2': 0, 'depth': -2.353, 'yaw': 6.6, 'datetime': '2018-12-18 17:17:16.366704', 'mgs': 0, 'flw2': 0.23, 'flw1': 0.0, 'flw0': 0.6, 'time': 5.0, 'compass': 53.93, 'pitch': 1.85, 'roll': 1.17}
{'lipoC2': 0.0, 'temp': 0.0, 'lipoC3S3': 12.62, 'state': 'normal', 'rot1': 4, 'rot0': 3, 'rot3': 0, 'rot2': 0, 'depth': 2.225, 'yaw': 6.35, 'datetime': '2018-12-18 17:17:16.571911', 'mgs': 0, 'flw2': 0.28, 'flw1': 0.0, 'flw0': 0.57, 'time': 5.2, 'compass': 53.69, 'pitch': 2.33, 'roll': 1.03}
{'lipoC2': 0.04, 'temp': 0.0, 'lipoC3S3': 12.31, 'state': 'normal', 'rot1': 6, 'rot0': 5, 'rot3': 0, 'rot2': 0, 'depth': 0.165, 'yaw': 4.96, 'datetime': '2018-12-18 17:17:16.780975', 'mgs': 0, 'flw2': 0.09, 'flw1': 0.41, 'flw0': 0.49, 'time': 5.41, 'compass': 52.3, 'pitch': 2.34, 'roll': 0.98}
{'lipoC2': 0.0, 'temp': 0.0, 'lipoC3S3': 12.45, 'state': 'normal', 'rot1': 7, 'rot0': 6, 'rot3': 0, 'rot2': 0, 'depth': 0.317, 'yaw': 2.56, 'datetime': '2018-12-18 17:17:16.989034', 'mgs': 0, 'flw2': 0.48, 'flw1': 0.38, 'flw0': 0.27, 'time': 5.62, 'compass': 49.89, 'pitch': 1.73, 'roll': 1.06}
{'lipoC2': 0.0, 'temp': 0.0, 'lipoC3S3': 12.51, 'state': 'normal', 'rot1': 8, 'rot0': 7, 'rot3': 0, 'rot2': 0, 'depth': 1.004, 'yaw': -0.19, 'datetime': '2018-12-18 17:17:17.197977', 'mgs': 0, 'flw2': 0.55, 'flw1': 0.0, 'flw0': 0.33, 'time': 5.83, 'compass': 47.14, 'pitch': 1.32, 'roll': 1.15}
{'lipoC2': 0.15, 'temp': 0.0, 'lipoC3S3': 12.26, 'state': 'normal', 'rot1': 10, 'rot0': 8, 'rot3': 0, 'rot2': 0, 'depth': 0.546, 'yaw': -3.54, 'datetime': '2018-12-18 17:17:17.408463', 'mgs': 0, 'flw2': 0.51, 'flw1': 0.15, 'flw0': 0.07, 'time': 6.03, 'compass': 43.79, 'pitch': 1.75, 'roll': 1.24}
{'lipoC2': 0.0, 'temp': 0.0, 'lipoC3S3': 12.66, 'state': 'normal', 'rot1': 11, 'rot0': 9, 'rot3': 0, 'rot2': 0, 'depth': 1.691, 'yaw': -7.33, 'datetime': '2018-12-18 17:17:17.616160', 'mgs': 0, 'flw2': 0.34, 'flw1': 0.0, 'flw0': 0.57, 'time': 6.24, 'compass': 40.0, 'pitch': 2.29, 'roll': 1.35}
{'lipoC2': 0.03, 'temp': 0.0, 'lipoC3S3': 12.29, 'state': 'normal', 'rot1': 12, 'rot0': 10, 'rot3': 0, 'rot2': 0, 'depth': -0.064, 'yaw': -11.5, 'datetime': '2018-12-18 17:17:17.824898', 'mgs': 0, 'flw2': 0.54, 'flw1': 0.0, 'flw0': 0.09, 'time': 6.45, 'compass': 35.83, 'pitch': 2.21, 'roll': 1.51}
{'lipoC2': 0.0, 'temp': 0.0, 'lipoC3S3': 12.68, 'state': 'normal', 'rot1': 12, 'rot0': 11, 'rot3': 0, 'rot2': 0, 'depth': -1.208, 'yaw': -15.71, 'datetime': '2018-12-18 17:17:18.034005', 'mgs': 0, 'flw2': 0.1, 'flw1': 0.44, 'flw0': 0.0, 'time': 6.66, 'compass': 31.63, 'pitch': 1.47, 'roll': 1.71}
{'lipoC2': 0.03, 'temp': 0.0, 'lipoC3S3': 12.3, 'state': 'normal', 'rot1': 13, 'rot0': 11, 'rot3': 0, 'rot2': 0, 'depth': 1.309, 'yaw': -19.62, 'datetime': '2018-12-18 17:17:18.244036', 'mgs': 0, 'flw2': 3.49, 'flw1': 0.0, 'flw0': 3.26, 'time': 6.87, 'compass': 27.72, 'pitch': 1.1, 'roll': 1.95}
{'lipoC2': 0.02, 'temp': 0.0, 'lipoC3S3': 12.56, 'state': 'normal', 'rot1': 16, 'rot0': 14, 'rot3': 0, 'rot2': 0, 'depth': 0.012, 'yaw': -23.09, 'datetime': '2018-12-18 17:17:18.452212', 'mgs': 0, 'flw2': 3.03, 'flw1': 0.0, 'flw0': 2.87, 'time': 7.08, 'compass': 24.25, 'pitch': 3.85, 'roll': 2.01}
{'lipoC2': 0.09, 'temp': 0.0, 'lipoC3S3': 12.48, 'state': 'normal', 'rot1': 18, 'rot0': 17, 'rot3': 0, 'rot2': 0, 'depth': -1.971, 'yaw': -25.71, 'datetime': '2018-12-18 17:17:18.665385', 'mgs': 0, 'flw2': 3.0, 'flw1': 0.35, 'flw0': 0.81, 'time': 7.29, 'compass': 21.62, 'pitch': 6.96, 'roll': 1.99}
{'lipoC2': 0.0, 'temp': 0.0, 'lipoC3S3': 12.48, 'state': 'normal', 'rot1': 19, 'rot0': 19, 'rot3': 0, 'rot2': 0, 'depth': 0.165, 'yaw': -25.79, 'datetime': '2018-12-18 17:17:18.872805', 'mgs': 0, 'flw2': 2.98, 'flw1': 0.0, 'flw0': 0.85, 'time': 7.49, 'compass': 21.54, 'pitch': 6.38, 'roll': 2.21}
{'lipoC2': 0.0, 'temp': 0.0, 'lipoC3S3': 12.47, 'state': 'normal', 'rot1': 21, 'rot0': 22, 'rot3': 0, 'rot2': 0, 'depth': 0.317, 'yaw': -23.91, 'datetime': '2018-12-18 17:17:19.078182', 'mgs': 0, 'flw2': 3.06, 'flw1': 0.0, 'flw0': 0.87, 'time': 7.7, 'compass': 23.43, 'pitch': 4.61, 'roll': 2.61}
{'lipoC2': 0.0, 'temp': 0.0, 'lipoC3S3': 12.43, 'state': 'normal', 'rot1': 23, 'rot0': 25, 'rot3': 0, 'rot2': 0, 'depth': 0.851, 'yaw': -19.88, 'datetime': '2018-12-18 17:17:19.286214', 'mgs': 0, 'flw2': 3.02, 'flw1': 0.0, 'flw0': 1.0, 'time': 7.91, 'compass': 27.46, 'pitch': 4.38, 'roll': 2.7}
{'lipoC2': 0.0, 'temp': 0.0, 'lipoC3S3': 12.68, 'state': 'normal', 'rot1': 26, 'rot0': 28, 'rot3': 0, 'rot2': 0, 'depth': 2.072, 'yaw': -15.02, 'datetime': '2018-12-18 17:17:19.493149', 'mgs': 0, 'flw2': 2.65, 'flw1': 0.5, 'flw0': 3.11, 'time': 8.12, 'compass': 32.32, 'pitch': 5.74, 'roll': 2.57}
{'lipoC2': 0.0, 'temp': 0.0, 'lipoC3S3': 12.54, 'state': 'normal', 'rot1': 29, 'rot0': 31, 'rot3': 0, 'rot2': 0, 'depth': 1.157, 'yaw': -11.66, 'datetime': '2018-12-18 17:17:19.700995', 'mgs': 0, 'flw2': 2.56, 'flw1': 0.53, 'flw0': 3.03, 'time': 8.33, 'compass': 35.67, 'pitch': 6.94, 'roll': 2.32}
{'lipoC2': 0.13, 'temp': 0.0, 'lipoC3S3': 12.26, 'state': 'normal', 'rot1': 32, 'rot0': 33, 'rot3': 0, 'rot2': 0, 'depth': 0.623, 'yaw': -10.68, 'datetime': '2018-12-18 17:17:19.917062', 'mgs': 0, 'flw2': 0.02, 'flw1': 0.0, 'flw0': 0.18, 'time': 8.54, 'compass': 36.65, 'pitch': 6.59, 'roll': 2.17}
{'lipoC2': 0.11, 'temp': 0.0, 'lipoC3S3': 12.21, 'state': 'normal', 'rot1': 32, 'rot0': 33, 'rot3': 0, 'rot2': 0, 'depth': 1.157, 'yaw': -10.75, 'datetime': '2018-12-18 17:17:20.126369', 'mgs': 0, 'flw2': 0.2, 'flw1': 0.06, 'flw0': 0.0, 'time': 8.74, 'compass': 36.58, 'pitch': 3.1, 'roll': 2.19}
{'lipoC2': 0.17, 'temp': 0.0, 'lipoC3S3': 12.27, 'state': 'normal', 'rot1': 32, 'rot0': 33, 'rot3': 0, 'rot2': 0, 'depth': 0.928, 'yaw': -10.94, 'datetime': '2018-12-18 17:17:20.332757', 'mgs': 0, 'flw2': 0.0, 'flw1': 0.0, 'flw0': 0.22, 'time': 8.95, 'compass': 36.4, 'pitch': 0.47, 'roll': 2.27}
{'lipoC2': 0.0, 'temp': 0.0, 'lipoC3S3': 12.63, 'state': 'normal', 'rot1': 32, 'rot0': 33, 'rot3': 0, 'rot2': 0, 'depth': 1.691, 'yaw': -10.7, 'datetime': '2018-12-18 17:17:20.542678', 'mgs': 0, 'flw2': 0.0, 'flw1': 0.23, 'flw0': 0.16, 'time': 9.16, 'compass': 36.64, 'pitch': 0.58, 'roll': 2.21}
{'lipoC2': 0.0, 'temp': 0.0, 'lipoC3S3': 12.59, 'state': 'normal', 'rot1': 32, 'rot0': 33, 'rot3': 0, 'rot2': 0, 'depth': 1.462, 'yaw': -10.46, 'datetime': '2018-12-18 17:17:20.754904', 'mgs': 0, 'flw2': 0.0, 'flw1': 0.32, 'flw0': 0.1, 'time': 9.37, 'compass': 36.88, 'pitch': 1.6, 'roll': 2.02}
{'lipoC2': 0.13, 'temp': 0.0, 'lipoC3S3': 12.23, 'state': 'normal', 'rot1': 34, 'rot0': 34, 'rot3': 0, 'rot2': 0, 'depth': 0.394, 'yaw': -10.21, 'datetime': '2018-12-18 17:17:21.059686', 'mgs': 0, 'flw2': 0.67, 'flw1': 0.0, 'flw0': 3.32, 'time': 9.68, 'compass': 37.13, 'pitch': 1.78, 'roll': 1.8}
{'lipoC2': 0.09, 'temp': 0.0, 'lipoC3S3': 12.5, 'state': 'normal', 'rot1': 37, 'rot0': 35, 'rot3': 0, 'rot2': 0, 'depth': -2.048, 'yaw': -12.0, 'datetime': '2018-12-18 17:17:21.269335', 'mgs': 0, 'flw2': 0.65, 'flw1': 0.47, 'flw0': 3.09, 'time': 9.89, 'compass': 35.33, 'pitch': 3.05, 'roll': 1.36}
{'lipoC2': 0.0, 'temp': 0.0, 'lipoC3S3': 12.68, 'state': 'normal', 'rot1': 40, 'rot0': 37, 'rot3': 0, 'rot2': 0, 'depth': 1.767, 'yaw': -15.52, 'datetime': '2018-12-18 17:17:21.478852', 'mgs': 0, 'flw2': 0.98, 'flw1': 0.06, 'flw0': 2.62, 'time': 10.1, 'compass': 31.81, 'pitch': 4.26, 'roll': 1.09}
{'lipoC2': 0.0, 'temp': 0.0, 'lipoC3S3': 12.45, 'state': 'normal', 'rot1': 43, 'rot0': 40, 'rot3': 0, 'rot2': 0, 'depth': 0.623, 'yaw': -19.37, 'datetime': '2018-12-18 17:17:21.691854', 'mgs': 0, 'flw2': 2.97, 'flw1': 0.44, 'flw0': 3.05, 'time': 10.31, 'compass': 27.96, 'pitch': 4.31, 'roll': 1.26}
{'lipoC2': 0.0, 'temp': 0.0, 'lipoC3S3': 12.64, 'state': 'normal', 'rot1': 46, 'rot0': 42, 'rot3': 0, 'rot2': 0, 'depth': 1.996, 'yaw': -22.09, 'datetime': '2018-12-18 17:17:21.900068', 'mgs': 0, 'flw2': 2.67, 'flw1': 0.12, 'flw0': 3.09, 'time': 10.52, 'compass': 25.24, 'pitch': 4.66, 'roll': 1.65}
{'lipoC2': 0.02, 'temp': 0.0, 'lipoC3S3': 12.3, 'state': 'normal', 'rot1': 48, 'rot0': 45, 'rot3': 0, 'rot2': 0, 'depth': -0.064, 'yaw': -23.97, 'datetime': '2018-12-18 17:17:22.108231', 'mgs': 0, 'flw2': 2.7, 'flw1': 0.29, 'flw0': 3.1, 'time': 10.73, 'compass': 23.37, 'pitch': 5.27, 'roll': 1.84}
{'lipoC2': 0.0, 'temp': 0.0, 'lipoC3S3': 12.45, 'state': 'normal', 'rot1': 50, 'rot0': 47, 'rot3': 0, 'rot2': 0, 'depth': 0.928, 'yaw': -25.17, 'datetime': '2018-12-18 17:17:22.317992', 'mgs': 0, 'flw2': 2.75, 'flw1': 0.47, 'flw0': 0.76, 'time': 10.93, 'compass': 22.16, 'pitch': 5.56, 'roll': 2.14}
{'lipoC2': 0.14, 'temp': 0.0, 'lipoC3S3': 12.31, 'state': 'normal', 'rot1': 52, 'rot0': 50, 'rot3': 0, 'rot2': 0, 'depth': 0.928, 'yaw': -24.31, 'datetime': '2018-12-18 17:17:22.527156', 'mgs': 0, 'flw2': 2.89, 'flw1': 0.26, 'flw0': 0.59, 'time': 11.14, 'compass': 23.02, 'pitch': 4.84, 'roll': 2.78}
{'lipoC2': 0.0, 'temp': 0.0, 'lipoC3S3': 12.39, 'state': 'normal', 'rot1': 53, 'rot0': 52, 'rot3': 0, 'rot2': 0, 'depth': 1.233, 'yaw': -22.12, 'datetime': '2018-12-18 17:17:22.738164', 'mgs': 0, 'flw2': 2.93, 'flw1': 0.0, 'flw0': 0.92, 'time': 11.35, 'compass': 25.22, 'pitch': 4.45, 'roll': 3.24}
{'lipoC2': 0.0, 'temp': 0.0, 'lipoC3S3': 12.63, 'state': 'normal', 'rot1': 55, 'rot0': 54, 'rot3': 0, 'rot2': 0, 'depth': 1.614, 'yaw': -18.82, 'datetime': '2018-12-18 17:17:22.945606', 'mgs': 0, 'flw2': 0.0, 'flw1': 0.18, 'flw0': 0.18, 'time': 11.56, 'compass': 28.51, 'pitch': 4.55, 'roll': 3.24}
{'lipoC2': 0.05, 'temp': 0.0, 'lipoC3S3': 12.52, 'state': 'normal', 'rot1': 55, 'rot0': 54, 'rot3': 0, 'rot2': 0, 'depth': -1.743, 'yaw': -16.56, 'datetime': '2018-12-18 17:17:23.156746', 'mgs': 0, 'flw2': 0.16, 'flw1': 0.0, 'flw0': 0.0, 'time': 11.77, 'compass': 30.78, 'pitch': 3.26, 'roll': 2.74}
{'lipoC2': 0.0, 'temp': 0.0, 'lipoC3S3': 12.55, 'state': 'normal', 'rot1': 55, 'rot0': 54, 'rot3': 0, 'rot2': 0, 'depth': 1.004, 'yaw': -15.07, 'datetime': '2018-12-18 17:17:23.362419', 'mgs': 0, 'flw2': 0.0, 'flw1': 0.35, 'flw0': 0.09, 'time': 11.98, 'compass': 32.27, 'pitch': 1.57, 'roll': 2.02}
{'lipoC2': 0.0, 'temp': 0.0, 'lipoC3S3': 12.66, 'state': 'normal', 'rot1': 55, 'rot0': 55, 'rot3': 0, 'rot2': 0, 'depth': 1.614, 'yaw': -13.43, 'datetime': '2018-12-18 17:17:23.567887', 'mgs': 0, 'flw2': 1.22, 'flw1': 0.44, 'flw0': 3.86, 'time': 12.19, 'compass': 33.91, 'pitch': 0.97, 'roll': 1.44}
{'lipoC2': 0.05, 'temp': 0.0, 'lipoC3S3': 12.27, 'state': 'normal', 'rot1': 58, 'rot0': 56, 'rot3': 0, 'rot2': 0, 'depth': 0.089, 'yaw': -13.24, 'datetime': '2018-12-18 17:17:23.775958', 'mgs': 0, 'flw2': 1.0, 'flw1': 0.0, 'flw0': 2.71, 'time': 12.4, 'compass': 34.1, 'pitch': 2.53, 'roll': 1.12}
{'lipoC2': 0.0, 'temp': 0.0, 'lipoC3S3': 12.27, 'state': 'normal', 'rot1': 61, 'rot0': 58, 'rot3': 0, 'rot2': 0, 'depth': -1.361, 'yaw': -15.29, 'datetime': '2018-12-18 17:17:23.985867', 'mgs': 0, 'flw2': 0.79, 'flw1': 0.0, 'flw0': 3.13, 'time': 12.6, 'compass': 32.05, 'pitch': 4.52, 'roll': 1.09}
{'lipoC2': 0.0, 'temp': 0.0, 'lipoC3S3': 12.68, 'state': 'normal', 'rot1': 64, 'rot0': 60, 'rot3': 0, 'rot2': 0, 'depth': 1.691, 'yaw': -18.73, 'datetime': '2018-12-18 17:17:24.197074', 'mgs': 0, 'flw2': 0.95, 'flw1': 0.18, 'flw0': 2.75, 'time': 12.81, 'compass': 28.61, 'pitch': 4.24, 'roll': 1.32}
{'lipoC2': 0.08, 'temp': 0.0, 'lipoC3S3': 12.23, 'state': 'normal', 'rot1': 67, 'rot0': 62, 'rot3': 0, 'rot2': 0, 'depth': 1.385, 'yaw': -22.71, 'datetime': '2018-12-18 17:17:24.410972', 'mgs': 0, 'flw2': 3.15, 'flw1': 0.0, 'flw0': 2.53, 'time': 13.02, 'compass': 24.62, 'pitch': 3.26, 'roll': 1.28}
{'lipoC2': 0.1, 'temp': 0.0, 'lipoC3S3': 12.66, 'state': 'normal', 'rot1': 69, 'rot0': 64, 'rot3': 0, 'rot2': 0, 'depth': 0.47, 'yaw': -25.22, 'datetime': '2018-12-18 17:17:24.619224', 'mgs': 0, 'flw2': 2.83, 'flw1': 0.0, 'flw0': 0.89, 'time': 13.23, 'compass': 22.11, 'pitch': 4.1, 'roll': 1.13}
{'lipoC2': 0.0, 'temp': 0.0, 'lipoC3S3': 12.5, 'state': 'normal', 'rot1': 71, 'rot0': 66, 'rot3': 0, 'rot2': 0, 'depth': 0.317, 'yaw': -25.7, 'datetime': '2018-12-18 17:17:24.827380', 'mgs': 0, 'flw2': 3.04, 'flw1': 0.0, 'flw0': 0.62, 'time': 13.44, 'compass': 21.64, 'pitch': 4.51, 'roll': 1.37}
{'lipoC2': 0.0, 'temp': 0.0, 'lipoC3S3': 12.66, 'state': 'normal', 'rot1': 72, 'rot0': 69, 'rot3': 0, 'rot2': 0, 'depth': 1.996, 'yaw': -24.24, 'datetime': '2018-12-18 17:17:25.036079', 'mgs': 0, 'flw2': 2.92, 'flw1': 0.0, 'flw0': 1.0, 'time': 13.65, 'compass': 23.09, 'pitch': 4.26, 'roll': 2.03}
{'lipoC2': 0.12, 'temp': 0.0, 'lipoC3S3': 12.23, 'state': 'normal', 'rot1': 74, 'rot0': 71, 'rot3': 1, 'rot2': 1, 'depth': 1.157, 'yaw': -21.57, 'datetime': '2018-12-18 17:17:25.246037', 'mgs': 0, 'flw2': 2.99, 'flw1': 3.78, 'flw0': 0.4, 'time': 13.85, 'compass': 25.77, 'pitch': 4.25, 'roll': 2.5}
{'lipoC2': 0.0, 'temp': 0.0, 'lipoC3S3': 12.31, 'state': 'normal', 'rot1': 76, 'rot0': 74, 'rot3': 2, 'rot2': 2, 'depth': -1.056, 'yaw': -17.73, 'datetime': '2018-12-18 17:17:25.451048', 'mgs': 0, 'flw2': 2.67, 'flw1': 0.44, 'flw0': 0.82, 'time': 14.06, 'compass': 29.6, 'pitch': 4.84, 'roll': 2.24}
{'lipoC2': 0.0, 'temp': 0.0, 'lipoC3S3': 12.68, 'state': 'normal', 'rot1': 77, 'rot0': 76, 'rot3': 2, 'rot2': 2, 'depth': 1.691, 'yaw': -13.96, 'datetime': '2018-12-18 17:17:25.663870', 'mgs': 0, 'flw2': 0.06, 'flw1': 0.5, 'flw0': 0.0, 'time': 14.27, 'compass': 33.37, 'pitch': 5.13, 'roll': 1.97}
{'lipoC2': 0.0, 'temp': 0.0, 'lipoC3S3': 12.68, 'state': 'normal', 'rot1': 77, 'rot0': 76, 'rot3': 2, 'rot2': 2, 'depth': 1.691, 'yaw': -11.89, 'datetime': '2018-12-18 17:17:25.868177', 'mgs': 0, 'flw2': 0.1, 'flw1': 0.41, 'flw0': 0.0, 'time': 14.48, 'compass': 35.44, 'pitch': 2.73, 'roll': 1.6}
{'lipoC2': 0.14, 'temp': 0.0, 'lipoC3S3': 12.43, 'state': 'normal', 'rot1': 78, 'rot0': 76, 'rot3': 2, 'rot2': 2, 'depth': -1.132, 'yaw': -10.31, 'datetime': '2018-12-18 17:17:26.074103', 'mgs': 0, 'flw2': 0.46, 'flw1': 0.0, 'flw0': 0.54, 'time': 14.69, 'compass': 37.02, 'pitch': 0.14, 'roll': 1.13}
{'lipoC2': 0.12, 'temp': 0.0, 'lipoC3S3': 12.48, 'state': 'normal', 'rot1': 80, 'rot0': 78, 'rot3': 2, 'rot2': 2, 'depth': -2.048, 'yaw': -9.94, 'datetime': '2018-12-18 17:17:26.283594', 'mgs': 0, 'flw2': 0.05, 'flw1': 0.35, 'flw0': 0.45, 'time': 14.9, 'compass': 37.39, 'pitch': -0.05, 'roll': 0.8}
{'lipoC2': 0.14, 'temp': 0.0, 'lipoC3S3': 12.46, 'state': 'normal', 'rot1': 81, 'rot0': 78, 'rot3': 2, 'rot2': 2, 'depth': -2.048, 'yaw': -10.2, 'datetime': '2018-12-18 17:17:26.492123', 'mgs': 0, 'flw2': 0.48, 'flw1': 0.0, 'flw0': 0.48, 'time': 15.11, 'compass': 37.14, 'pitch': 0.91, 'roll': 0.88}
{'lipoC2': 0.0, 'temp': 0.0, 'lipoC3S3': 12.27, 'state': 'normal', 'rot1': 82, 'rot0': 80, 'rot3': 2, 'rot2': 2, 'depth': -1.285, 'yaw': -10.83, 'datetime': '2018-12-18 17:17:26.704639', 'mgs': 0, 'flw2': 0.39, 'flw1': 0.0, 'flw0': 0.54, 'time': 15.32, 'compass': 36.5, 'pitch': 1.42, 'roll': 1.37}
{'lipoC2': 0.08, 'temp': 0.0, 'lipoC3S3': 12.23, 'state': 'normal', 'rot1': 83, 'rot0': 81, 'rot3': 2, 'rot2': 2, 'depth': 0.394, 'yaw': -12.56, 'datetime': '2018-12-18 17:17:26.916114', 'mgs': 0, 'flw2': 0.55, 'flw1': 0.06, 'flw0': 0.01, 'time': 15.52, 'compass': 34.77, 'pitch': 1.04, 'roll': 1.74}
{'lipoC2': 0.0, 'temp': 0.0, 'lipoC3S3': 12.64, 'state': 'normal', 'rot1': 85, 'rot0': 82, 'rot3': 2, 'rot2': 2, 'depth': 1.538, 'yaw': -15.05, 'datetime': '2018-12-18 17:17:27.122758', 'mgs': 0, 'flw2': 0.27, 'flw1': 0.0, 'flw0': 0.59, 'time': 15.73, 'compass': 32.28, 'pitch': 0.77, 'roll': 1.69}
{'lipoC2': 0.02, 'temp': 0.0, 'lipoC3S3': 12.27, 'state': 'normal', 'rot1': 86, 'rot0': 83, 'rot3': 2, 'rot2': 2, 'depth': 1.462, 'yaw': -17.86, 'datetime': '2018-12-18 17:17:27.331393', 'mgs': 0, 'flw2': 0.34, 'flw1': 0.0, 'flw0': 0.6, 'time': 15.94, 'compass': 29.47, 'pitch': 1.18, 'roll': 1.48}
{'lipoC2': 0.0, 'temp': 0.0, 'lipoC3S3': 12.64, 'state': 'normal', 'rot1': 86, 'rot0': 83, 'rot3': 2, 'rot2': 2, 'depth': 1.538, 'yaw': -20.93, 'datetime': '2018-12-18 17:17:27.538563', 'mgs': 0, 'flw2': 0.0, 'flw1': 0.09, 'flw0': 0.2, 'time': 16.15, 'compass': 26.41, 'pitch': 1.71, 'roll': 1.42}
{'lipoC2': 0.08, 'temp': 0.0, 'lipoC3S3': 12.51, 'state': 'normal', 'rot1': 87, 'rot0': 83, 'rot3': 2, 'rot2': 2, 'depth': -2.048, 'yaw': -23.57, 'datetime': '2018-12-18 17:17:27.747928', 'mgs': 0, 'flw2': 3.06, 'flw1': 0.41, 'flw0': 3.36, 'time': 16.36, 'compass': 23.77, 'pitch': 2.06, 'roll': 1.65}
{'lipoC2': 0.1, 'temp': 0.0, 'lipoC3S3': 12.5, 'state': 'normal', 'rot1': 90, 'rot0': 86, 'rot3': 2, 'rot2': 2, 'depth': -2.124, 'yaw': -26.12, 'datetime': '2018-12-18 17:17:27.956027', 'mgs': 0, 'flw2': 3.04, 'flw1': 0.0, 'flw0': 2.99, 'time': 16.57, 'compass': 21.21, 'pitch': 4.27, 'roll': 1.86}
{'lipoC2': 0.13, 'temp': 0.0, 'lipoC3S3': 12.48, 'state': 'normal', 'rot1': 92, 'rot0': 89, 'rot3': 2, 'rot2': 2, 'depth': -1.743, 'yaw': -27.88, 'datetime': '2018-12-18 17:17:28.166270', 'mgs': 0, 'flw2': 2.48, 'flw1': 0.32, 'flw0': 0.89, 'time': 16.78, 'compass': 19.45, 'pitch': 6.21, 'roll': 1.99}
{'lipoC2': 0.0, 'temp': 0.0, 'lipoC3S3': 12.48, 'state': 'normal', 'rot1': 93, 'rot0': 91, 'rot3': 2, 'rot2': 2, 'depth': 0.47, 'yaw': -27.51, 'datetime': '2018-12-18 17:17:28.375624', 'mgs': 0, 'flw2': 2.58, 'flw1': 0.38, 'flw0': 0.83, 'time': 16.99, 'compass': 19.82, 'pitch': 5.49, 'roll': 2.29}
{'lipoC2': 0.0, 'temp': 0.0, 'lipoC3S3': 12.63, 'state': 'normal', 'rot1': 95, 'rot0': 93, 'rot3': 2, 'rot2': 2, 'depth': -1.971, 'yaw': -25.52, 'datetime': '2018-12-18 17:17:28.584294', 'mgs': 0, 'flw2': 2.55, 'flw1': 0.09, 'flw0': 1.0, 'time': 17.19, 'compass': 21.81, 'pitch': 4.26, 'roll': 2.66}
{'lipoC2': 0.05, 'temp': 0.0, 'lipoC3S3': 12.54, 'state': 'normal', 'rot1': 96, 'rot0': 96, 'rot3': 2, 'rot2': 2, 'depth': -1.743, 'yaw': -21.45, 'datetime': '2018-12-18 17:17:28.792179', 'mgs': 0, 'flw2': 3.04, 'flw1': 0.0, 'flw0': 0.63, 'time': 17.4, 'compass': 25.88, 'pitch': 4.42, 'roll': 2.89}
{'lipoC2': 0.0, 'temp': 0.0, 'lipoC3S3': 12.62, 'state': 'normal', 'rot1': 98, 'rot0': 98, 'rot3': 2, 'rot2': 2, 'depth': 1.385, 'yaw': -17.38, 'datetime': '2018-12-18 17:17:29.001611', 'mgs': 0, 'flw2': 0.84, 'flw1': 0.03, 'flw0': 2.89, 'time': 17.61, 'compass': 29.96, 'pitch': 5.48, 'roll': 2.92}
{'lipoC2': 0.1, 'temp': 0.0, 'lipoC3S3': 12.5, 'state': 'normal', 'rot1': 101, 'rot0': 99, 'rot3': 2, 'rot2': 2, 'depth': -1.743, 'yaw': -16.46, 'datetime': '2018-12-18 17:17:29.209345', 'mgs': 0, 'flw2': 0.54, 'flw1': 0.41, 'flw0': 3.04, 'time': 17.82, 'compass': 30.87, 'pitch': 5.94, 'roll': 2.47}
{'lipoC2': 0.0, 'temp': 0.0, 'lipoC3S3': 12.62, 'state': 'normal', 'rot1': 103, 'rot0': 101, 'rot3': 2, 'rot2': 2, 'depth': 1.538, 'yaw': -18.0, 'datetime': '2018-12-18 17:17:29.419403', 'mgs': 0, 'flw2': 0.73, 'flw1': 0.0, 'flw0': 3.17, 'time': 18.03, 'compass': 29.33, 'pitch': 5.45, 'roll': 1.74}
{'lipoC2': 0.16, 'temp': 0.0, 'lipoC3S3': 12.39, 'state': 'normal', 'rot1': 106, 'rot0': 102, 'rot3': 2, 'rot2': 2, 'depth': 1.233, 'yaw': -20.73, 'datetime': '2018-12-18 17:17:29.628659', 'mgs': 0, 'flw2': 0.84, 'flw1': 0.0, 'flw0': 3.14, 'time': 18.24, 'compass': 26.61, 'pitch': 4.72, 'roll': 1.29}
{'lipoC2': 0.04, 'temp': 0.0, 'lipoC3S3': 12.54, 'state': 'normal', 'rot1': 107, 'rot0': 103, 'rot3': 2, 'rot2': 2, 'depth': -1.666, 'yaw': -24.02, 'datetime': '2018-12-18 17:17:29.839101', 'mgs': 0, 'flw2': 0.21, 'flw1': 0.0, 'flw0': 0.0, 'time': 18.45, 'compass': 23.31, 'pitch': 3.55, 'roll': 1.22}
{'lipoC2': 0.11, 'temp': 0.0, 'lipoC3S3': 12.5, 'state': 'normal', 'rot1': 107, 'rot0': 103, 'rot3': 2, 'rot2': 2, 'depth': 1.691, 'yaw': -25.55, 'datetime': '2018-12-18 17:17:30.047003', 'mgs': 0, 'flw2': 0.2, 'flw1': 0.0, 'flw0': 0.0, 'time': 18.66, 'compass': 21.79, 'pitch': 1.72, 'roll': 1.32}
{'lipoC2': 0.09, 'temp': 0.0, 'lipoC3S3': 12.23, 'state': 'normal', 'rot1': 107, 'rot0': 103, 'rot3': 2, 'rot2': 2, 'depth': 1.157, 'yaw': -26.63, 'datetime': '2018-12-18 17:17:30.258076', 'mgs': 0, 'flw2': 0.0, 'flw1': 0.0, 'flw0': 0.22, 'time': 18.86, 'compass': 20.7, 'pitch': 0.99, 'roll': 1.47}
{'lipoC2': 0.05, 'temp': 0.0, 'lipoC3S3': 12.25, 'state': 'normal', 'rot1': 107, 'rot0': 103, 'rot3': 2, 'rot2': 2, 'depth': 1.309, 'yaw': -28.05, 'datetime': '2018-12-18 17:17:30.465566', 'mgs': 0, 'flw2': 0.18, 'flw1': 0.0, 'flw0': 0.2, 'time': 19.07, 'compass': 19.29, 'pitch': 1.2, 'roll': 1.65}
{'lipoC2': 0.14, 'temp': 0.0, 'lipoC3S3': 12.33, 'state': 'normal', 'rot1': 107, 'rot0': 103, 'rot3': 2, 'rot2': 2, 'depth': 0.928, 'yaw': -29.58, 'datetime': '2018-12-18 17:17:30.675056', 'mgs': 0, 'flw2': 0.04, 'flw1': 0.41, 'flw0': 0.0, 'time': 19.28, 'compass': 17.76, 'pitch': 1.12, 'roll': 1.74}
{'lipoC2': 0.05, 'temp': 0.0, 'lipoC3S3': 12.27, 'state': 'normal', 'rot1': 107, 'rot0': 103, 'rot3': 2, 'rot2': 2, 'depth': 0.241, 'yaw': -31.05, 'datetime': '2018-12-18 17:17:30.886634', 'mgs': 0, 'flw2': 0.0, 'flw1': 0.23, 'flw0': 0.18, 'time': 19.49, 'compass': 16.28, 'pitch': 0.88, 'roll': 1.75}
{'lipoC2': 0.09, 'temp': 0.0, 'lipoC3S3': 12.23, 'state': 'normal', 'rot1': 107, 'rot0': 103, 'rot3': 2, 'rot2': 2, 'depth': 0.241, 'yaw': -32.51, 'datetime': '2018-12-18 17:17:31.097774', 'mgs': 0, 'flw2': 0.18, 'flw1': 0.12, 'flw0': 0.0, 'time': 19.7, 'compass': 14.82, 'pitch': 0.94, 'roll': 1.73}
{'lipoC2': 0.0, 'temp': 0.0, 'lipoC3S3': 12.38, 'state': 'normal', 'rot1': 107, 'rot0': 103, 'rot3': 2, 'rot2': 2, 'depth': 1.233, 'yaw': -33.51, 'datetime': '2018-12-18 17:17:31.306853', 'mgs': 0, 'flw2': 0.0, 'flw1': 0.47, 'flw0': 0.0, 'time': 19.91, 'compass': 13.83, 'pitch': 1.42, 'roll': 1.75}
{'lipoC2': 0.02, 'temp': 0.0, 'lipoC3S3': 12.54, 'state': 'normal', 'rot1': 107, 'rot0': 103, 'rot3': 2, 'rot2': 2, 'depth': -1.59, 'yaw': -34.83, 'datetime': '2018-12-18 17:17:31.513984', 'mgs': 0, 'flw2': 0.22, 'flw1': 0.0, 'flw0': 0.0, 'time': 20.12, 'compass': 12.5, 'pitch': 1.78, 'roll': 1.79}
{'lipoC2': 0.02, 'temp': 0.0, 'lipoC3S3': 12.33, 'state': 'normal', 'rot1': 107, 'rot0': 103, 'rot3': 2, 'rot2': 2, 'depth': 1.462, 'yaw': -36.1, 'datetime': '2018-12-18 17:17:31.721510', 'mgs': 0, 'flw2': 0.23, 'flw1': 0.0, 'flw0': 0.0, 'time': 20.33, 'compass': 11.23, 'pitch': 1.74, 'roll': 1.83}
{'lipoC2': 0.14, 'temp': 0.0, 'lipoC3S3': 12.43, 'state': 'normal', 'rot1': 107, 'rot0': 103, 'rot3': 2, 'rot2': 2, 'depth': -1.666, 'yaw': -35.94, 'datetime': '2018-12-18 17:17:31.932217', 'mgs': 0, 'flw2': 0.06, 'flw1': 0.0, 'flw0': 0.13, 'time': 20.53, 'compass': 11.39, 'pitch': 1.53, 'roll': 1.91}
{'lipoC2': 0.0, 'temp': 0.0, 'lipoC3S3': 12.63, 'state': 'normal', 'rot1': 107, 'rot0': 103, 'rot3': 2, 'rot2': 2, 'depth': 1.767, 'yaw': -36.47, 'datetime': '2018-12-18 17:17:32.139935', 'mgs': 0, 'flw2': 0.0, 'flw1': 0.18, 'flw0': 0.17, 'time': 20.74, 'compass': 10.86, 'pitch': 1.54, 'roll': 1.93}
{'lipoC2': 0.0, 'temp': 0.0, 'lipoC3S3': 12.34, 'state': 'normal', 'rot1': 107, 'rot0': 103, 'rot3': 2, 'rot2': 2, 'depth': -1.056, 'yaw': -36.98, 'datetime': '2018-12-18 17:17:32.350646', 'mgs': 0, 'flw2': 0.0, 'flw1': 0.47, 'flw0': 0.0, 'time': 20.95, 'compass': 10.36, 'pitch': 1.78, 'roll': 1.9}
{'lipoC2': 0.0, 'temp': 0.0, 'lipoC3S3': 12.23, 'state': 'normal', 'rot1': 107, 'rot0': 103, 'rot3': 2, 'rot2': 2, 'depth': -1.361, 'yaw': -37.6, 'datetime': '2018-12-18 17:17:32.560659', 'mgs': 0, 'flw2': 0.12, 'flw1': 0.29, 'flw0': 0.0, 'time': 21.16, 'compass': 9.74, 'pitch': 1.77, 'roll': 1.9}
{'lipoC2': 0.0, 'temp': 0.0, 'lipoC3S3': 12.63, 'state': 'normal', 'rot1': 107, 'rot0': 103, 'rot3': 2, 'rot2': 2, 'depth': 1.691, 'yaw': -38.2, 'datetime': '2018-12-18 17:17:32.768639', 'mgs': 0, 'flw2': 0.0, 'flw1': 0.0, 'flw0': 0.18, 'time': 21.37, 'compass': 9.14, 'pitch': 1.61, 'roll': 1.86}
{'lipoC2': 0.0, 'temp': 0.0, 'lipoC3S3': 12.48, 'state': 'normal', 'rot1': 107, 'rot0': 103, 'rot3': 2, 'rot2': 2, 'depth': 0.012, 'yaw': -38.86, 'datetime': '2018-12-18 17:17:32.976005', 'mgs': 0, 'flw2': 0.23, 'flw1': 0.0, 'flw0': 0.0, 'time': 21.58, 'compass': 8.48, 'pitch': 1.68, 'roll': 1.69}
{'lipoC2': 0.11, 'temp': 0.0, 'lipoC3S3': 12.48, 'state': 'normal', 'rot1': 107, 'rot0': 103, 'rot3': 2, 'rot2': 2, 'depth': 1.691, 'yaw': -39.77, 'datetime': '2018-12-18 17:17:33.187400', 'mgs': 0, 'flw2': 0.13, 'flw1': 0.0, 'flw0': 0.05, 'time': 21.79, 'compass': 7.57, 'pitch': 2.04, 'roll': 1.55}
{'lipoC2': 0.05, 'temp': 0.0, 'lipoC3S3': 12.62, 'state': 'normal', 'rot1': 107, 'rot0': 103, 'rot3': 2, 'rot2': 2, 'depth': 1.385, 'yaw': -40.73, 'datetime': '2018-12-18 17:17:33.393605', 'mgs': 0, 'flw2': 0.12, 'flw1': 0.26, 'flw0': 0.0, 'time': 22.0, 'compass': 6.6, 'pitch': 2.07, 'roll': 1.62}
{'lipoC2': 0.0, 'temp': 0.0, 'lipoC3S3': 12.56, 'state': 'normal', 'rot1': 108, 'rot0': 104, 'rot3': 2, 'rot2': 2, 'depth': 1.157, 'yaw': -41.94, 'datetime': '2018-12-18 17:17:33.601057', 'mgs': 0, 'flw2': 1.71, 'flw1': 0.0, 'flw0': 1.16, 'time': 22.2, 'compass': 5.39, 'pitch': 1.76, 'roll': 1.75}
{'lipoC2': 0.15, 'temp': 0.0, 'lipoC3S3': 12.22, 'state': 'normal', 'rot1': 111, 'rot0': 106, 'rot3': 2, 'rot2': 2, 'depth': 0.623, 'yaw': -45.8, 'datetime': '2018-12-18 17:17:33.810824', 'mgs': 0, 'flw2': 1.46, 'flw1': 0.18, 'flw0': 1.07, 'time': 22.41, 'compass': 1.54, 'pitch': 2.03, 'roll': 1.36}
{'lipoC2': 0.0, 'temp': 0.0, 'lipoC3S3': 12.48, 'state': 'normal', 'rot1': 113, 'rot0': 108, 'rot3': 2, 'rot2': 2, 'depth': 0.699, 'yaw': -52.2, 'datetime': '2018-12-18 17:17:34.020077', 'mgs': 0, 'flw2': 0.87, 'flw1': 0.38, 'flw0': 1.29, 'time': 22.62, 'compass': -4.87, 'pitch': 2.7, 'roll': 0.69}
{'lipoC2': 0.1, 'temp': 0.0, 'lipoC3S3': 12.48, 'state': 'normal', 'rot1': 115, 'rot0': 111, 'rot3': 2, 'rot2': 2, 'depth': 1.843, 'yaw': -59.9, 'datetime': '2018-12-18 17:17:34.228070', 'mgs': 0, 'flw2': 1.14, 'flw1': 0.0, 'flw0': 0.95, 'time': 22.83, 'compass': -12.56, 'pitch': 2.98, 'roll': 0.32}
{'lipoC2': 0.04, 'temp': 0.0, 'lipoC3S3': 12.27, 'state': 'normal', 'rot1': 118, 'rot0': 112, 'rot3': 2, 'rot2': 2, 'depth': 0.241, 'yaw': -68.27, 'datetime': '2018-12-18 17:17:34.438041', 'mgs': 0, 'flw2': 0.39, 'flw1': 0.06, 'flw0': 0.98, 'time': 23.04, 'compass': -20.94, 'pitch': 2.61, 'roll': 0.61}
{'lipoC2': 0.11, 'temp': 0.0, 'lipoC3S3': 12.46, 'state': 'normal', 'rot1': 119, 'rot0': 114, 'rot3': 2, 'rot2': 2, 'depth': -1.971, 'yaw': -76.48, 'datetime': '2018-12-18 17:17:34.647637', 'mgs': 0, 'flw2': 0.59, 'flw1': 0.5, 'flw0': 0.68, 'time': 23.25, 'compass': -29.15, 'pitch': 1.94, 'roll': 1.34}
{'lipoC2': 0.12, 'temp': 0.0, 'lipoC3S3': 12.46, 'state': 'normal', 'rot1': 121, 'rot0': 116, 'rot3': 2, 'rot2': 2, 'depth': -1.743, 'yaw': -84.2, 'datetime': '2018-12-18 17:17:34.858745', 'mgs': 0, 'flw2': 0.65, 'flw1': 0.47, 'flw0': 0.52, 'time': 23.46, 'compass': -36.86, 'pitch': 1.82, 'roll': 1.92}
{'lipoC2': 0.14, 'temp': 0.0, 'lipoC3S3': 12.43, 'state': 'normal', 'rot1': 123, 'rot0': 117, 'rot3': 2, 'rot2': 2, 'depth': -1.285, 'yaw': -92.19, 'datetime': '2018-12-18 17:17:35.073485', 'mgs': 0, 'flw2': 0.42, 'flw1': 0.44, 'flw0': 0.4, 'time': 23.67, 'compass': -44.85, 'pitch': 2.34, 'roll': 2.39}
{'lipoC2': 0.13, 'temp': 0.0, 'lipoC3S3': 12.22, 'state': 'normal', 'rot1': 124, 'rot0': 118, 'rot3': 2, 'rot2': 2, 'depth': 0.394, 'yaw': -100.1, 'datetime': '2018-12-18 17:17:35.282134', 'mgs': 0, 'flw2': 0.48, 'flw1': 0.0, 'flw0': 0.59, 'time': 23.88, 'compass': -52.76, 'pitch': 2.63, 'roll': 2.82}
{'lipoC2': 0.09, 'temp': 0.0, 'lipoC3S3': 12.23, 'state': 'normal', 'rot1': 125, 'rot0': 119, 'rot3': 2, 'rot2': 2, 'depth': 1.157, 'yaw': -107.46, 'datetime': '2018-12-18 17:17:35.488676', 'mgs': 0, 'flw2': 0.52, 'flw1': 0.23, 'flw0': 0.0, 'time': 24.09, 'compass': -60.13, 'pitch': 2.29, 'roll': 3.06}
{'lipoC2': 0.08, 'temp': 0.0, 'lipoC3S3': 12.25, 'state': 'normal', 'rot1': 126, 'rot0': 120, 'rot3': 2, 'rot2': 2, 'depth': 0.317, 'yaw': -114.63, 'datetime': '2018-12-18 17:17:35.699853', 'mgs': 0, 'flw2': 0.52, 'flw1': 0.12, 'flw0': 0.04, 'time': 24.3, 'compass': -67.29, 'pitch': 1.78, 'roll': 2.87}
{'lipoC2': 0.03, 'temp': 0.0, 'lipoC3S3': 12.27, 'state': 'normal', 'rot1': 127, 'rot0': 121, 'rot3': 2, 'rot2': 2, 'depth': 0.012, 'yaw': -121.11, 'datetime': '2018-12-18 17:17:35.911041', 'mgs': 0, 'flw2': 0.27, 'flw1': 0.0, 'flw0': 0.56, 'time': 24.5, 'compass': -73.77, 'pitch': 1.67, 'roll': 2.4}
{'lipoC2': 0.0, 'temp': 0.0, 'lipoC3S3': 12.37, 'state': 'normal', 'rot1': 128, 'rot0': 122, 'rot3': 2, 'rot2': 2, 'depth': -0.674, 'yaw': -128.36, 'datetime': '2018-12-18 17:17:36.119662', 'mgs': 0, 'flw2': 0.42, 'flw1': 0.0, 'flw0': 0.51, 'time': 24.71, 'compass': -81.03, 'pitch': 2.02, 'roll': 1.93}
{'lipoC2': 0.01, 'temp': 0.0, 'lipoC3S3': 12.34, 'state': 'normal', 'rot1': 129, 'rot0': 123, 'rot3': 2, 'rot2': 2, 'depth': 0.012, 'yaw': -134.82, 'datetime': '2018-12-18 17:17:36.328468', 'mgs': 0, 'flw2': 0.02, 'flw1': 0.29, 'flw0': 0.48, 'time': 24.92, 'compass': -87.48, 'pitch': 2.17, 'roll': 1.7}
{'lipoC2': 0.15, 'temp': 0.0, 'lipoC3S3': 12.38, 'state': 'normal', 'rot1': 130, 'rot0': 124, 'rot3': 2, 'rot2': 2, 'depth': 1.309, 'yaw': -141.72, 'datetime': '2018-12-18 17:17:36.535563', 'mgs': 0, 'flw2': 0.48, 'flw1': 0.32, 'flw0': 0.22, 'time': 25.13, 'compass': -94.39, 'pitch': 1.82, 'roll': 1.72}
{'lipoC2': 0.15, 'temp': 0.0, 'lipoC3S3': 12.45, 'state': 'normal', 'rot1': 131, 'rot0': 125, 'rot3': 2, 'rot2': 2, 'depth': -1.819, 'yaw': -148.94, 'datetime': '2018-12-18 17:17:36.744227', 'mgs': 0, 'flw2': 0.43, 'flw1': 0.44, 'flw0': 0.32, 'time': 25.34, 'compass': -101.61, 'pitch': 1.23, 'roll': 1.81}
{'lipoC2': 0.12, 'temp': 0.0, 'lipoC3S3': 12.47, 'state': 'normal', 'rot1': 131, 'rot0': 125, 'rot3': 2, 'rot2': 2, 'depth': -2.124, 'yaw': -155.64, 'datetime': '2018-12-18 17:17:36.955122', 'mgs': 0, 'flw2': 0.12, 'flw1': 0.0, 'flw0': 0.09, 'time': 25.55, 'compass': -108.31, 'pitch': 1.02, 'roll': 1.91}
{'lipoC2': 0.0, 'temp': 0.0, 'lipoC3S3': 12.5, 'state': 'normal', 'rot1': 132, 'rot0': 125, 'rot3': 2, 'rot2': 2, 'depth': 0.546, 'yaw': -161.47, 'datetime': '2018-12-18 17:17:37.164069', 'mgs': 0, 'flw2': 2.95, 'flw1': 0.38, 'flw0': 0.98, 'time': 25.76, 'compass': -114.14, 'pitch': 1.36, 'roll': 2.2}
{'lipoC2': 0.01, 'temp': 0.0, 'lipoC3S3': 12.31, 'state': 'normal', 'rot1': 133, 'rot0': 127, 'rot3': 2, 'rot2': 2, 'depth': 1.462, 'yaw': -165.54, 'datetime': '2018-12-18 17:17:37.373404', 'mgs': 0, 'flw2': 2.55, 'flw1': 0.15, 'flw0': 0.98, 'time': 25.97, 'compass': -118.2, 'pitch': 3.14, 'roll': 2.56}
{'lipoC2': 0.1, 'temp': 0.0, 'lipoC3S3': 12.23, 'state': 'normal', 'rot1': 134, 'rot0': 130, 'rot3': 2, 'rot2': 2, 'depth': 0.623, 'yaw': -167.37, 'datetime': '2018-12-18 17:17:37.583141', 'mgs': 0, 'flw2': 3.08, 'flw1': 0.0, 'flw0': 0.4, 'time': 26.18, 'compass': -120.04, 'pitch': 4.94, 'roll': 2.81}
{'lipoC2': 0.0, 'temp': 0.0, 'lipoC3S3': 12.51, 'state': 'normal', 'rot1': 136, 'rot0': 132, 'rot3': 2, 'rot2': 2, 'depth': 1.004, 'yaw': -167.22, 'datetime': '2018-12-18 17:17:37.792750', 'mgs': 0, 'flw2': 3.15, 'flw1': 0.0, 'flw0': 0.74, 'time': 26.39, 'compass': -119.88, 'pitch': 5.14, 'roll': 2.81}
{'lipoC2': 0.0, 'temp': 0.0, 'lipoC3S3': 12.35, 'state': 'normal', 'rot1': 137, 'rot0': 135, 'rot3': 2, 'rot2': 2, 'depth': 1.233, 'yaw': -165.94, 'datetime': '2018-12-18 17:17:38.002574', 'mgs': 0, 'flw2': 2.81, 'flw1': 0.29, 'flw0': 0.61, 'time': 26.6, 'compass': -118.61, 'pitch': 4.58, 'roll': 2.68}
{'lipoC2': 0.02, 'temp': 0.0, 'lipoC3S3': 12.55, 'state': 'normal', 'rot1': 139, 'rot0': 137, 'rot3': 2, 'rot2': 2, 'depth': -1.285, 'yaw': -164.06, 'datetime': '2018-12-18 17:17:38.210972', 'mgs': 0, 'flw2': 2.58, 'flw1': 0.38, 'flw0': 0.9, 'time': 26.81, 'compass': -116.73, 'pitch': 4.43, 'roll': 2.49}
{'lipoC2': 0.0, 'temp': 0.0, 'lipoC3S3': 12.52, 'state': 'normal', 'rot1': 140, 'rot0': 140, 'rot3': 2, 'rot2': 2, 'depth': 1.157, 'yaw': -161.57, 'datetime': '2018-12-18 17:17:38.420758', 'mgs': 0, 'flw2': 2.75, 'flw1': 0.38, 'flw0': 0.84, 'time': 27.01, 'compass': -114.23, 'pitch': 4.69, 'roll': 2.48}
{'lipoC2': 0.0, 'temp': 0.0, 'lipoC3S3': 12.27, 'state': 'normal', 'rot1': 141, 'rot0': 142, 'rot3': 2, 'rot2': 2, 'depth': -1.514, 'yaw': -158.67, 'datetime': '2018-12-18 17:17:38.629552', 'mgs': 0, 'flw2': 2.78, 'flw1': 0.0, 'flw0': 0.98, 'time': 27.22, 'compass': -111.34, 'pitch': 4.84, 'roll': 2.76}
{'lipoC2': 0.06, 'temp': 0.0, 'lipoC3S3': 12.25, 'state': 'normal', 'rot1': 143, 'rot0': 144, 'rot3': 2, 'rot2': 2, 'depth': 0.241, 'yaw': -154.79, 'datetime': '2018-12-18 17:17:38.840276', 'mgs': 0, 'flw2': 2.91, 'flw1': 0.0, 'flw0': 0.46, 'time': 27.43, 'compass': -107.46, 'pitch': 4.69, 'roll': 3.18}
{'lipoC2': 0.05, 'temp': 0.0, 'lipoC3S3': 12.62, 'state': 'normal', 'rot1': 145, 'rot0': 147, 'rot3': 2, 'rot2': 2, 'depth': 0.089, 'yaw': -150.79, 'datetime': '2018-12-18 17:17:39.050880', 'mgs': 0, 'flw2': 3.0, 'flw1': 0.0, 'flw0': 2.86, 'time': 27.64, 'compass': -103.46, 'pitch': 4.68, 'roll': 3.56}
{'lipoC2': 0.0, 'temp': 0.0, 'lipoC3S3': 12.64, 'state': 'normal', 'rot1': 147, 'rot0': 150, 'rot3': 2, 'rot2': 2, 'depth': 2.072, 'yaw': -148.01, 'datetime': '2018-12-18 17:17:39.259459', 'mgs': 0, 'flw2': 2.5, 'flw1': 0.32, 'flw0': 3.1, 'time': 27.85, 'compass': -100.68, 'pitch': 5.52, 'roll': 3.6}
{'lipoC2': 0.14, 'temp': 0.0, 'lipoC3S3': 12.43, 'state': 'normal', 'rot1': 149, 'rot0': 151, 'rot3': 2, 'rot2': 2, 'depth': -1.285, 'yaw': -147.85, 'datetime': '2018-12-18 17:17:39.469277', 'mgs': 0, 'flw2': 0.0, 'flw1': 0.44, 'flw0': 0.0, 'time': 28.06, 'compass': -100.52, 'pitch': 6.01, 'roll': 3.36}
{'lipoC2': 0.01, 'temp': 0.0, 'lipoC3S3': 12.3, 'state': 'normal', 'rot1': 150, 'rot0': 152, 'rot3': 2, 'rot2': 2, 'depth': 1.614, 'yaw': -148.96, 'datetime': '2018-12-18 17:17:39.678976', 'mgs': 0, 'flw2': 0.1, 'flw1': 0.03, 'flw0': 0.56, 'time': 28.27, 'compass': -101.62, 'pitch': 3.35, 'roll': 2.79}
{'lipoC2': 0.01, 'temp': 0.0, 'lipoC3S3': 12.33, 'state': 'normal', 'rot1': 151, 'rot0': 153, 'rot3': 2, 'rot2': 2, 'depth': -0.217, 'yaw': -150.2, 'datetime': '2018-12-18 17:17:39.889420', 'mgs': 0, 'flw2': 0.55, 'flw1': 0.0, 'flw0': 0.11, 'time': 28.48, 'compass': -102.86, 'pitch': 0.95, 'roll': 2.04}
{'lipoC2': 0.0, 'temp': 0.0, 'lipoC3S3': 12.5, 'state': 'normal', 'rot1': 152, 'rot0': 154, 'rot3': 2, 'rot2': 2, 'depth': 0.012, 'yaw': -151.65, 'datetime': '2018-12-18 17:17:40.098587', 'mgs': 0, 'flw2': 0.05, 'flw1': 0.35, 'flw0': 0.45, 'time': 28.69, 'compass': -104.31, 'pitch': 1.06, 'roll': 1.5}
{'lipoC2': 0.05, 'temp': 0.0, 'lipoC3S3': 12.27, 'state': 'normal', 'rot1': 153, 'rot0': 155, 'rot3': 2, 'rot2': 2, 'depth': 0.089, 'yaw': -153.53, 'datetime': '2018-12-18 17:17:40.310402', 'mgs': 0, 'flw2': 0.22, 'flw1': 0.0, 'flw0': 0.2, 'time': 28.9, 'compass': -106.2, 'pitch': 1.91, 'roll': 1.26}
{'lipoC2': 0.04, 'temp': 0.0, 'lipoC3S3': 12.27, 'state': 'normal', 'rot1': 153, 'rot0': 155, 'rot3': 2, 'rot2': 2, 'depth': 0.089, 'yaw': -154.94, 'datetime': '2018-12-18 17:17:40.521025', 'mgs': 0, 'flw2': 0.22, 'flw1': 0.09, 'flw0': 0.22, 'time': 29.11, 'compass': -107.61, 'pitch': 2.06, 'roll': 1.44}
{'lipoC2': 0.03, 'temp': 0.0, 'lipoC3S3': 12.27, 'state': 'normal', 'rot1': 154, 'rot0': 156, 'rot3': 2, 'rot2': 2, 'depth': 1.385, 'yaw': -156.45, 'datetime': '2018-12-18 17:17:40.728689', 'mgs': 0, 'flw2': 0.48, 'flw1': 0.03, 'flw0': 3.16, 'time': 29.32, 'compass': -109.12, 'pitch': 2.15, 'roll': 1.66}
{'lipoC2': 0.0, 'temp': 0.0, 'lipoC3S3': 12.63, 'state': 'normal', 'rot1': 157, 'rot0': 157, 'rot3': 2, 'rot2': 2, 'depth': 1.614, 'yaw': -159.99, 'datetime': '2018-12-18 17:17:40.939047', 'mgs': 0, 'flw2': 2.61, 'flw1': 0.23, 'flw0': 3.19, 'time': 29.53, 'compass': -112.66, 'pitch': 3.68, 'roll': 1.46}
{'lipoC2': 0.0, 'temp': 0.0, 'lipoC3S3': 12.62, 'state': 'normal', 'rot1': 159, 'rot0': 159, 'rot3': 2, 'rot2': 2, 'depth': 1.691, 'yaw': -163.55, 'datetime': '2018-12-18 17:17:41.148347', 'mgs': 0, 'flw2': 3.08, 'flw1': 0.0, 'flw0': 2.64, 'time': 29.74, 'compass': -116.22, 'pitch': 5.23, 'roll': 1.29}
{'lipoC2': 0.1, 'temp': 0.0, 'lipoC3S3': 12.23, 'state': 'normal', 'rot1': 161, 'rot0': 162, 'rot3': 2, 'rot2': 2, 'depth': 0.394, 'yaw': -165.9, 'datetime': '2018-12-18 17:17:41.358099', 'mgs': 0, 'flw2': 2.84, 'flw1': 0.06, 'flw0': 0.42, 'time': 29.95, 'compass': -118.57, 'pitch': 5.66, 'roll': 1.27}
{'lipoC2': 0.08, 'temp': 0.0, 'lipoC3S3': 12.25, 'state': 'normal', 'rot1': 163, 'rot0': 165, 'rot3': 2, 'rot2': 2, 'depth': 1.309, 'yaw': -166.06, 'datetime': '2018-12-18 17:17:41.566589', 'mgs': 0, 'flw2': 2.84, 'flw1': 0.0, 'flw0': 0.44, 'time': 30.16, 'compass': -118.73, 'pitch': 4.85, 'roll': 1.61}
{'lipoC2': 0.0, 'temp': 0.0, 'lipoC3S3': 12.5, 'state': 'normal', 'rot1': 164, 'rot0': 167, 'rot3': 2, 'rot2': 2, 'depth': -0.369, 'yaw': -164.65, 'datetime': '2018-12-18 17:17:41.779661', 'mgs': 0, 'flw2': 2.71, 'flw1': 0.47, 'flw0': 0.84, 'time': 30.36, 'compass': -117.32, 'pitch': 4.57, 'roll': 1.99}
{'lipoC2': 0.0, 'temp': 0.0, 'lipoC3S3': 12.66, 'state': 'normal', 'rot1': 166, 'rot0': 170, 'rot3': 2, 'rot2': 2, 'depth': -1.743, 'yaw': -161.27, 'datetime': '2018-12-18 17:17:41.989512', 'mgs': 0, 'flw2': 2.67, 'flw1': 0.0, 'flw0': 1.0, 'time': 30.57, 'compass': -113.94, 'pitch': 4.99, 'roll': 2.28}
{'lipoC2': 0.0, 'temp': 0.0, 'lipoC3S3': 12.67, 'state': 'normal', 'rot1': 168, 'rot0': 173, 'rot3': 2, 'rot2': 2, 'depth': 1.767, 'yaw': -157.7, 'datetime': '2018-12-18 17:17:42.198467', 'mgs': 0, 'flw2': 2.87, 'flw1': 0.15, 'flw0': 0.46, 'time': 30.78, 'compass': -110.36, 'pitch': 5.33, 'roll': 2.36}
{'lipoC2': 0.0, 'temp': 0.0, 'lipoC3S3': 12.29, 'state': 'normal', 'rot1': 169, 'rot0': 175, 'rot3': 2, 'rot2': 2, 'depth': -0.903, 'yaw': -153.53, 'datetime': '2018-12-18 17:17:42.406384', 'mgs': 0, 'flw2': 2.91, 'flw1': 0.0, 'flw0': 0.99, 'time': 30.99, 'compass': -106.2, 'pitch': 5.04, 'roll': 2.22}
{'lipoC2': 0.0, 'temp': 0.0, 'lipoC3S3': 12.66, 'state': 'normal', 'rot1': 172, 'rot0': 177, 'rot3': 2, 'rot2': 2, 'depth': 1.767, 'yaw': -150.18, 'datetime': '2018-12-18 17:17:42.616152', 'mgs': 0, 'flw2': 0.87, 'flw1': 0.23, 'flw0': 2.86, 'time': 31.2, 'compass': -102.85, 'pitch': 4.52, 'roll': 2.15}
{'lipoC2': 0.02, 'temp': 0.0, 'lipoC3S3': 12.58, 'state': 'normal', 'rot1': 174, 'rot0': 179, 'rot3': 2, 'rot2': 2, 'depth': -1.437, 'yaw': -150.28, 'datetime': '2018-12-18 17:17:42.829218', 'mgs': 0, 'flw2': 0.98, 'flw1': 0.0, 'flw0': 2.64, 'time': 31.41, 'compass': -102.95, 'pitch': 4.35, 'roll': 2.0}
{'lipoC2': 0.13, 'temp': 0.0, 'lipoC3S3': 12.46, 'state': 'normal', 'rot1': 175, 'rot0': 179, 'rot3': 2, 'rot2': 2, 'depth': -1.59, 'yaw': -151.22, 'datetime': '2018-12-18 17:17:43.037581', 'mgs': 0, 'flw2': 0.17, 'flw1': 0.0, 'flw0': 0.05, 'time': 31.62, 'compass': -103.89, 'pitch': 3.38, 'roll': 1.71}
{'lipoC2': 0.0, 'temp': 0.0, 'lipoC3S3': 12.63, 'state': 'normal', 'rot1': 175, 'rot0': 179, 'rot3': 2, 'rot2': 2, 'depth': 1.691, 'yaw': -152.1, 'datetime': '2018-12-18 17:17:43.243987', 'mgs': 0, 'flw2': 0.0, 'flw1': 0.12, 'flw0': 0.18, 'time': 31.83, 'compass': -104.76, 'pitch': 1.3, 'roll': 1.66}
{'lipoC2': 0.0, 'temp': 0.0, 'lipoC3S3': 12.56, 'state': 'normal', 'rot1': 175, 'rot0': 179, 'rot3': 2, 'rot2': 2, 'depth': -1.59, 'yaw': -152.91, 'datetime': '2018-12-18 17:17:43.452663', 'mgs': 0, 'flw2': 0.0, 'flw1': 0.23, 'flw0': 0.18, 'time': 32.04, 'compass': -105.57, 'pitch': 0.37, 'roll': 1.65}
{'lipoC2': 0.0, 'temp': 0.0, 'lipoC3S3': 12.64, 'state': 'normal', 'rot1': 176, 'rot0': 180, 'rot3': 2, 'rot2': 2, 'depth': 1.691, 'yaw': -153.71, 'datetime': '2018-12-18 17:17:43.661375', 'mgs': 0, 'flw2': 0.55, 'flw1': 0.0, 'flw0': 0.6, 'time': 32.25, 'compass': -106.37, 'pitch': 0.78, 'roll': 1.6}
{'lipoC2': 0.0, 'temp': 0.0, 'lipoC3S3': 12.38, 'state': 'normal', 'rot1': 177, 'rot0': 181, 'rot3': 2, 'rot2': 2, 'depth': 0.851, 'yaw': -155.34, 'datetime': '2018-12-18 17:17:43.870235', 'mgs': 0, 'flw2': 0.26, 'flw1': 0.0, 'flw0': 0.12, 'time': 32.46, 'compass': -108.01, 'pitch': 1.28, 'roll': 1.32}
{'lipoC2': 0.17, 'temp': 0.0, 'lipoC3S3': 12.17, 'state': 'normal', 'rot1': 179, 'rot0': 183, 'rot3': 2, 'rot2': 2, 'depth': 0.928, 'yaw': -157.49, 'datetime': '2018-12-18 17:17:44.080370', 'mgs': 0, 'flw2': 0.0, 'flw1': 0.12, 'flw0': 0.67, 'time': 32.67, 'compass': -110.15, 'pitch': 1.27, 'roll': 1.08}
{'lipoC2': 0.0, 'temp': 0.0, 'lipoC3S3': 12.51, 'state': 'normal', 'rot1': 180, 'rot0': 184, 'rot3': 2, 'rot2': 2, 'depth': -0.14, 'yaw': -160.06, 'datetime': '2018-12-18 17:17:44.292561', 'mgs': 0, 'flw2': 0.56, 'flw1': 0.0, 'flw0': 0.15, 'time': 32.88, 'compass': -112.72, 'pitch': 1.14, 'roll': 1.08}
{'lipoC2': 0.11, 'temp': 0.0, 'lipoC3S3': 12.23, 'state': 'normal', 'rot1': 181, 'rot0': 185, 'rot3': 2, 'rot2': 2, 'depth': 1.08, 'yaw': -162.87, 'datetime': '2018-12-18 17:17:44.501303', 'mgs': 0, 'flw2': 0.51, 'flw1': 0.06, 'flw0': 0.04, 'time': 33.09, 'compass': -115.54, 'pitch': 1.2, 'roll': 1.0}
{'lipoC2': 0.0, 'temp': 0.0, 'lipoC3S3': 12.66, 'state': 'normal', 'rot1': 183, 'rot0': 186, 'rot3': 2, 'rot2': 2, 'depth': 1.691, 'yaw': -166.13, 'datetime': '2018-12-18 17:17:44.709754', 'mgs': 0, 'flw2': 0.46, 'flw1': 0.26, 'flw0': 0.1, 'time': 33.29, 'compass': -118.79, 'pitch': 1.47, 'roll': 0.94}
{'lipoC2': 0.08, 'temp': 0.0, 'lipoC3S3': 12.5, 'state': 'normal', 'rot1': 184, 'rot0': 187, 'rot3': 2, 'rot2': 2, 'depth': 1.843, 'yaw': -169.61, 'datetime': '2018-12-18 17:17:44.918474', 'mgs': 0, 'flw2': 0.18, 'flw1': 0.0, 'flw0': 0.04, 'time': 33.5, 'compass': -122.28, 'pitch': 1.43, 'roll': 1.18}
{'lipoC2': 0.16, 'temp': 0.0, 'lipoC3S3': 12.42, 'state': 'normal', 'rot1': 184, 'rot0': 187, 'rot3': 2, 'rot2': 2, 'depth': -2.2, 'yaw': -172.74, 'datetime': '2018-12-18 17:17:45.127330', 'mgs': 0, 'flw2': 0.09, 'flw1': 0.0, 'flw0': 0.13, 'time': 33.71, 'compass': -125.4, 'pitch': 1.16, 'roll': 1.69}
{'lipoC2': 0.0, 'temp': 0.0, 'lipoC3S3': 12.67, 'state': 'normal', 'rot1': 186, 'rot0': 189, 'rot3': 2, 'rot2': 2, 'depth': -1.437, 'yaw': -175.59, 'datetime': '2018-12-18 17:17:45.339706', 'mgs': 0, 'flw2': 3.1, 'flw1': 0.15, 'flw0': 2.62, 'time': 33.92, 'compass': -128.25, 'pitch': 2.02, 'roll': 1.99}
{'lipoC2': 0.0, 'temp': 0.0, 'lipoC3S3': 12.48, 'state': 'normal', 'rot1': 189, 'rot0': 192, 'rot3': 2, 'rot2': 2, 'depth': 0.317, 'yaw': -178.15, 'datetime': '2018-12-18 17:17:45.549324', 'mgs': 0, 'flw2': 2.94, 'flw1': 0.0, 'flw0': 0.72, 'time': 34.13, 'compass': -130.82, 'pitch': 5.1, 'roll': 1.87}
{'lipoC2': 0.0, 'temp': 0.0, 'lipoC3S3': 12.6, 'state': 'normal', 'rot1': 191, 'rot0': 194, 'rot3': 2, 'rot2': 2, 'depth': 1.385, 'yaw': -178.91, 'datetime': '2018-12-18 17:17:45.772528', 'mgs': 0, 'flw2': 2.81, 'flw1': 0.0, 'flw0': 1.01, 'time': 34.34, 'compass': -131.58, 'pitch': 5.84, 'roll': 1.76}
{'lipoC2': 0.0, 'temp': 0.0, 'lipoC3S3': 12.5, 'state': 'normal', 'rot1': 193, 'rot0': 197, 'rot3': 2, 'rot2': 2, 'depth': 0.546, 'yaw': -176.61, 'datetime': '2018-12-18 17:17:45.980866', 'mgs': 0, 'flw2': 2.94, 'flw1': 0.0, 'flw0': 0.63, 'time': 34.55, 'compass': -129.27, 'pitch': 4.42, 'roll': 1.84}
{'lipoC2': 0.04, 'temp': 0.0, 'lipoC3S3': 12.26, 'state': 'normal', 'rot1': 194, 'rot0': 199, 'rot3': 2, 'rot2': 2, 'depth': 0.165, 'yaw': -172.56, 'datetime': '2018-12-18 17:17:46.189874', 'mgs': 0, 'flw2': 2.95, 'flw1': 0.0, 'flw0': 0.49, 'time': 34.76, 'compass': -125.22, 'pitch': 3.64, 'roll': 1.86}
{'lipoC2': 0.02, 'temp': 0.0, 'lipoC3S3': 12.27, 'state': 'normal', 'rot1': 196, 'rot0': 202, 'rot3': 2, 'rot2': 2, 'depth': 1.691, 'yaw': -168.48, 'datetime': '2018-12-18 17:17:46.396475', 'mgs': 0, 'flw2': 2.87, 'flw1': 0.0, 'flw0': 1.03, 'time': 34.97, 'compass': -121.15, 'pitch': 4.41, 'roll': 1.9}
{'lipoC2': 0.0, 'temp': 0.0, 'lipoC3S3': 12.27, 'state': 'normal', 'rot1': 198, 'rot0': 204, 'rot3': 2, 'rot2': 2, 'depth': -0.827, 'yaw': -164.77, 'datetime': '2018-12-18 17:17:46.604194', 'mgs': 0, 'flw2': 2.93, 'flw1': 0.0, 'flw0': 3.09, 'time': 35.18, 'compass': -117.43, 'pitch': 5.5, 'roll': 2.13}
{'lipoC2': 0.0, 'temp': 0.0, 'lipoC3S3': 12.51, 'state': 'normal', 'rot1': 201, 'rot0': 206, 'rot3': 2, 'rot2': 2, 'depth': 0.775, 'yaw': -162.76, 'datetime': '2018-12-18 17:17:46.814716', 'mgs': 0, 'flw2': 0.83, 'flw1': 0.0, 'flw0': 2.81, 'time': 35.39, 'compass': -115.42, 'pitch': 6.17, 'roll': 2.33}
{'lipoC2': 0.04, 'temp': 0.0, 'lipoC3S3': 12.26, 'state': 'normal', 'rot1': 203, 'rot0': 208, 'rot3': 2, 'rot2': 2, 'depth': 0.165, 'yaw': -162.96, 'datetime': '2018-12-18 17:17:47.026705', 'mgs': 0, 'flw2': 0.94, 'flw1': 0.03, 'flw0': 2.62, 'time': 35.6, 'compass': -115.63, 'pitch': 5.44, 'roll': 2.25}
{'lipoC2': 0.1, 'temp': 0.0, 'lipoC3S3': 12.48, 'state': 'normal', 'rot1': 205, 'rot0': 209, 'rot3': 2, 'rot2': 2, 'depth': -2.048, 'yaw': -165.55, 'datetime': '2018-12-18 17:17:47.238327', 'mgs': 0, 'flw2': 0.2, 'flw1': 0.0, 'flw0': 0.0, 'time': 35.81, 'compass': -118.22, 'pitch': 3.97, 'roll': 1.65}
{'lipoC2': 0.0, 'temp': 0.0, 'lipoC3S3': 12.63, 'state': 'normal', 'rot1': 205, 'rot0': 209, 'rot3': 2, 'rot2': 2, 'depth': 1.767, 'yaw': -167.67, 'datetime': '2018-12-18 17:17:47.445547', 'mgs': 0, 'flw2': 0.0, 'flw1': 0.47, 'flw0': 0.11, 'time': 36.02, 'compass': -120.34, 'pitch': 1.8, 'roll': 0.97}
{'lipoC2': 0.16, 'temp': 0.0, 'lipoC3S3': 12.41, 'state': 'normal', 'rot1': 206, 'rot0': 210, 'rot3': 2, 'rot2': 2, 'depth': -1.056, 'yaw': -169.66, 'datetime': '2018-12-18 17:17:47.646767', 'mgs': 0, 'flw2': 0.48, 'flw1': 0.44, 'flw0': 0.28, 'time': 36.23, 'compass': -122.32, 'pitch': 0.65, 'roll': 0.93}
{'lipoC2': 0.1, 'temp': 0.0, 'lipoC3S3': 12.48, 'state': 'normal', 'rot1': 208, 'rot0': 211, 'rot3': 2, 'rot2': 2, 'depth': -2.124, 'yaw': -171.85, 'datetime': '2018-12-18 17:17:47.855742', 'mgs': 0, 'flw2': 0.55, 'flw1': 0.0, 'flw0': 0.37, 'time': 36.44, 'compass': -124.52, 'pitch': 0.68, 'roll': 1.31}
{'lipoC2': 0.01, 'temp': 0.0, 'lipoC3S3': 12.3, 'state': 'normal', 'rot1': 209, 'rot0': 212, 'rot3': 2, 'rot2': 2, 'depth': 1.538, 'yaw': -174.39, 'datetime': '2018-12-18 17:17:48.065337', 'mgs': 0, 'flw2': 0.02, 'flw1': 0.09, 'flw0': 0.57, 'time': 36.65, 'compass': -127.06, 'pitch': 0.96, 'roll': 1.69}
{'lipoC2': 0.1, 'temp': 0.0, 'lipoC3S3': 12.22, 'state': 'normal', 'rot1': 210, 'rot0': 213, 'rot3': 2, 'rot2': 2, 'depth': 0.241, 'yaw': -177.31, 'datetime': '2018-12-18 17:17:48.285315', 'mgs': 0, 'flw2': 0.35, 'flw1': 0.0, 'flw0': 0.12, 'time': 36.85, 'compass': -129.97, 'pitch': 1.03, 'roll': 1.78}
{'lipoC2': 0.1, 'temp': 0.0, 'lipoC3S3': 12.48, 'state': 'normal', 'rot1': 210, 'rot0': 213, 'rot3': 2, 'rot2': 2, 'depth': -2.124, 'yaw': 179.74, 'datetime': '2018-12-18 17:17:48.490818', 'mgs': 0, 'flw2': 0.0, 'flw1': 0.38, 'flw0': 0.06, 'time': 37.06, 'compass': -132.93, 'pitch': 1.09, 'roll': 1.56}
{'lipoC2': 0.16, 'temp': 0.0, 'lipoC3S3': 12.39, 'state': 'normal', 'rot1': 211, 'rot0': 214, 'rot3': 2, 'rot2': 2, 'depth': -0.674, 'yaw': 177.72, 'datetime': '2018-12-18 17:17:48.700613', 'mgs': 0, 'flw2': 3.47, 'flw1': 0.0, 'flw0': 3.63, 'time': 37.27, 'compass': -134.94, 'pitch': 1.38, 'roll': 1.3}
{'lipoC2': 0.04, 'temp': 0.0, 'lipoC3S3': 12.27, 'state': 'normal', 'rot1': 213, 'rot0': 216, 'rot3': 2, 'rot2': 2, 'depth': 0.012, 'yaw': 176.2, 'datetime': '2018-12-18 17:17:48.910024', 'mgs': 0, 'flw2': 2.58, 'flw1': 0.18, 'flw0': 3.33, 'time': 37.48, 'compass': -136.47, 'pitch': 3.72, 'roll': 1.01}
{'lipoC2': 0.0, 'temp': 0.0, 'lipoC3S3': 12.56, 'state': 'normal', 'rot1': 216, 'rot0': 219, 'rot3': 2, 'rot2': 2, 'depth': 1.004, 'yaw': 174.66, 'datetime': '2018-12-18 17:17:49.123909', 'mgs': 0, 'flw2': 2.58, 'flw1': 0.38, 'flw0': 3.17, 'time': 37.69, 'compass': -138.01, 'pitch': 5.82, 'roll': 0.85}
{'lipoC2': 0.0, 'temp': 0.0, 'lipoC3S3': 12.54, 'state': 'normal', 'rot1': 218, 'rot0': 221, 'rot3': 2, 'rot2': 2, 'depth': 1.08, 'yaw': 173.36, 'datetime': '2018-12-18 17:17:49.330892', 'mgs': 0, 'flw2': 2.62, 'flw1': 0.35, 'flw0': 0.73, 'time': 37.9, 'compass': -139.3, 'pitch': 5.81, 'roll': 0.96}
{'lipoC2': 0.09, 'temp': 0.0, 'lipoC3S3': 12.51, 'state': 'normal', 'rot1': 220, 'rot0': 224, 'rot3': 2, 'rot2': 2, 'depth': -2.048, 'yaw': 174.24, 'datetime': '2018-12-18 17:17:49.539231', 'mgs': 0, 'flw2': 2.5, 'flw1': 0.38, 'flw0': 0.83, 'time': 38.11, 'compass': -138.43, 'pitch': 4.8, 'roll': 1.05}
{'lipoC2': 0.0, 'temp': 0.0, 'lipoC3S3': 12.47, 'state': 'normal', 'rot1': 221, 'rot0': 226, 'rot3': 2, 'rot2': 2, 'depth': 0.47, 'yaw': 176.43, 'datetime': '2018-12-18 17:17:49.750325', 'mgs': 0, 'flw2': 2.93, 'flw1': 0.0, 'flw0': 0.82, 'time': 38.32, 'compass': -136.24, 'pitch': 4.41, 'roll': 1.12}
{'lipoC2': 0.09, 'temp': 0.0, 'lipoC3S3': 12.22, 'state': 'normal', 'rot1': 223, 'rot0': 229, 'rot3': 2, 'rot2': 2, 'depth': 1.309, 'yaw': 179.81, 'datetime': '2018-12-18 17:17:49.959585', 'mgs': 0, 'flw2': 2.91, 'flw1': 0.06, 'flw0': 2.82, 'time': 38.53, 'compass': -132.85, 'pitch': 4.94, 'roll': 1.4}
{'lipoC2': 0.0, 'temp': 0.0, 'lipoC3S3': 12.52, 'state': 'normal', 'rot1': 225, 'rot0': 231, 'rot3': 2, 'rot2': 2, 'depth': 0.775, 'yaw': -177.74, 'datetime': '2018-12-18 17:17:50.168831', 'mgs': 0, 'flw2': 2.88, 'flw1': 0.0, 'flw0': 2.81, 'time': 38.74, 'compass': -130.41, 'pitch': 6.09, 'roll': 1.73}
{'lipoC2': 0.0, 'temp': 0.0, 'lipoC3S3': 12.62, 'state': 'normal', 'rot1': 228, 'rot0': 233, 'rot3': 2, 'rot2': 2, 'depth': 1.462, 'yaw': -177.41, 'datetime': '2018-12-18 17:17:50.379907', 'mgs': 0, 'flw2': 0.38, 'flw1': 0.21, 'flw0': 3.14, 'time': 38.95, 'compass': -130.08, 'pitch': 6.67, 'roll': 1.71}
{'lipoC2': 0.0, 'temp': 0.0, 'lipoC3S3': 12.66, 'state': 'normal', 'rot1': 230, 'rot0': 235, 'rot3': 2, 'rot2': 2, 'depth': 1.691, 'yaw': -179.46, 'datetime': '2018-12-18 17:17:50.588868', 'mgs': 0, 'flw2': 0.76, 'flw1': 0.0, 'flw0': 3.2, 'time': 39.16, 'compass': -132.12, 'pitch': 5.3, 'roll': 1.33}
{'lipoC2': 0.06, 'temp': 0.0, 'lipoC3S3': 12.25, 'state': 'normal', 'rot1': 231, 'rot0': 235, 'rot3': 2, 'rot2': 2, 'depth': 0.394, 'yaw': 179.24, 'datetime': '2018-12-18 17:17:50.798469', 'mgs': 0, 'flw2': 0.12, 'flw1': 0.23, 'flw0': 0.0, 'time': 39.37, 'compass': -133.43, 'pitch': 2.99, 'roll': 0.98}
{'lipoC2': 0.02, 'temp': 0.0, 'lipoC3S3': 12.56, 'state': 'normal', 'rot1': 232, 'rot0': 236, 'rot3': 2, 'rot2': 2, 'depth': -1.666, 'yaw': 177.85, 'datetime': '2018-12-18 17:17:51.001844', 'mgs': 0, 'flw2': 0.61, 'flw1': 0.0, 'flw0': 0.04, 'time': 39.58, 'compass': -134.81, 'pitch': 0.54, 'roll': 1.08}
{'lipoC2': 0.12, 'temp': 0.0, 'lipoC3S3': 12.18, 'state': 'normal', 'rot1': 233, 'rot0': 237, 'rot3': 2, 'rot2': 2, 'depth': 0.317, 'yaw': 175.97, 'datetime': '2018-12-18 17:17:51.210641', 'mgs': 0, 'flw2': 0.28, 'flw1': 0.0, 'flw0': 0.57, 'time': 39.79, 'compass': -136.69, 'pitch': -0.06, 'roll': 1.3}
{'lipoC2': 0.11, 'temp': 0.0, 'lipoC3S3': 12.48, 'state': 'normal', 'rot1': 235, 'rot0': 238, 'rot3': 2, 'rot2': 2, 'depth': 1.843, 'yaw': 173.64, 'datetime': '2018-12-18 17:17:51.419934', 'mgs': 0, 'flw2': 0.55, 'flw1': 0.0, 'flw0': 0.32, 'time': 40.0, 'compass': -139.03, 'pitch': 0.42, 'roll': 1.36}
{'lipoC2': 0.14, 'temp': 0.0, 'lipoC3S3': 12.42, 'state': 'normal', 'rot1': 236, 'rot0': 239, 'rot3': 2, 'rot2': 2, 'depth': -1.437, 'yaw': 171.14, 'datetime': '2018-12-18 17:17:51.639115', 'mgs': 0, 'flw2': 0.4, 'flw1': 0.0, 'flw0': 0.51, 'time': 40.21, 'compass': -141.52, 'pitch': 0.81, 'roll': 1.06}
{'lipoC2': 0.0, 'temp': 0.0, 'lipoC3S3': 12.66, 'state': 'normal', 'rot1': 237, 'rot0': 240, 'rot3': 2, 'rot2': 2, 'depth': 1.614, 'yaw': 168.54, 'datetime': '2018-12-18 17:17:51.848935', 'mgs': 0, 'flw2': 0.37, 'flw1': 0.0, 'flw0': 0.57, 'time': 40.42, 'compass': -144.12, 'pitch': 0.93, 'roll': 0.74}
{'lipoC2': 0.15, 'temp': 0.0, 'lipoC3S3': 12.45, 'state': 'normal', 'rot1': 238, 'rot0': 241, 'rot3': 2, 'rot2': 2, 'depth': -1.361, 'yaw': 165.56, 'datetime': '2018-12-18 17:17:52.058904', 'mgs': 0, 'flw2': 0.0, 'flw1': 0.35, 'flw0': 0.0, 'time': 40.63, 'compass': -147.11, 'pitch': 0.86, 'roll': 0.71}
{'lipoC2': 0.0, 'temp': 0.0, 'lipoC3S3': 12.56, 'state': 'normal', 'rot1': 238, 'rot0': 241, 'rot3': 2, 'rot2': 2, 'depth': 1.004, 'yaw': 162.13, 'datetime': '2018-12-18 17:17:52.268503', 'mgs': 0, 'flw2': 0.0, 'flw1': 0.26, 'flw0': 0.15, 'time': 40.83, 'compass': -150.53, 'pitch': 0.89, 'roll': 0.87}
{'lipoC2': 0.0, 'temp': 0.0, 'lipoC3S3': 12.67, 'state': 'normal', 'rot1': 240, 'rot0': 243, 'rot3': 2, 'rot2': 2, 'depth': 1.614, 'yaw': 158.89, 'datetime': '2018-12-18 17:17:52.474201', 'mgs': 0, 'flw2': 3.04, 'flw1': 0.0, 'flw0': 3.2, 'time': 41.04, 'compass': -153.77, 'pitch': 2.13, 'roll': 1.05}
{'lipoC2': 0.0, 'temp': 0.0, 'lipoC3S3': 12.5, 'state': 'normal', 'rot1': 242, 'rot0': 245, 'rot3': 2, 'rot2': 2, 'depth': -0.217, 'yaw': 155.79, 'datetime': '2018-12-18 17:17:52.683526', 'mgs': 0, 'flw2': 2.51, 'flw1': 0.44, 'flw0': 0.77, 'time': 41.25, 'compass': -156.87, 'pitch': 5.37, 'roll': 1.17}
{'lipoC2': 0.13, 'temp': 0.0, 'lipoC3S3': 12.46, 'state': 'normal', 'rot1': 243, 'rot0': 247, 'rot3': 2, 'rot2': 2, 'depth': -1.666, 'yaw': 155.83, 'datetime': '2018-12-18 17:17:52.894572', 'mgs': 0, 'flw2': 2.94, 'flw1': 0.0, 'flw0': 0.87, 'time': 41.46, 'compass': -156.84, 'pitch': 5.81, 'roll': 1.29}
{'lipoC2': 0.04, 'temp': 0.0, 'lipoC3S3': 12.25, 'state': 'normal', 'rot1': 245, 'rot0': 250, 'rot3': 2, 'rot2': 2, 'depth': 1.691, 'yaw': 157.9, 'datetime': '2018-12-18 17:17:53.106671', 'mgs': 0, 'flw2': 3.05, 'flw1': 0.03, 'flw0': 0.44, 'time': 41.67, 'compass': -154.77, 'pitch': 4.26, 'roll': 1.41}
{'lipoC2': 0.0, 'temp': 0.0, 'lipoC3S3': 12.46, 'state': 'normal', 'rot1': 247, 'rot0': 252, 'rot3': 2, 'rot2': 2, 'depth': 1.08, 'yaw': 160.77, 'datetime': '2018-12-18 17:17:53.314697', 'mgs': 0, 'flw2': 2.89, 'flw1': 0.0, 'flw0': 0.79, 'time': 41.88, 'compass': -151.89, 'pitch': 3.56, 'roll': 1.24}
{'lipoC2': 0.0, 'temp': 0.0, 'lipoC3S3': 12.54, 'state': 'normal', 'rot1': 248, 'rot0': 255, 'rot3': 2, 'rot2': 2, 'depth': 1.004, 'yaw': 164.69, 'datetime': '2018-12-18 17:17:53.524093', 'mgs': 0, 'flw2': 3.0, 'flw1': 0.0, 'flw0': 0.54, 'time': 42.09, 'compass': -147.98, 'pitch': 4.41, 'roll': 1.2}
{'lipoC2': 0.0, 'temp': 0.0, 'lipoC3S3': 12.52, 'state': 'normal', 'rot1': 250, 'rot0': 257, 'rot3': 2, 'rot2': 2, 'depth': 0.775, 'yaw': 168.33, 'datetime': '2018-12-18 17:17:53.733204', 'mgs': 0, 'flw2': 2.86, 'flw1': 0.0, 'flw0': 2.76, 'time': 42.3, 'compass': -144.33, 'pitch': 5.58, 'roll': 1.29}
{'lipoC2': 0.03, 'temp': 0.0, 'lipoC3S3': 12.26, 'state': 'normal', 'rot1': 252, 'rot0': 260, 'rot3': 2, 'rot2': 2, 'depth': 1.538, 'yaw': 170.16, 'datetime': '2018-12-18 17:17:53.942530', 'mgs': 0, 'flw2': 0.79, 'flw1': 0.06, 'flw0': 2.72, 'time': 42.51, 'compass': -142.51, 'pitch': 6.41, 'roll': 1.31}
{'lipoC2': 0.0, 'temp': 0.0, 'lipoC3S3': 12.5, 'state': 'normal', 'rot1': 255, 'rot0': 262, 'rot3': 2, 'rot2': 2, 'depth': 0.546, 'yaw': 169.6, 'datetime': '2018-12-18 17:17:54.154464', 'mgs': 0, 'flw2': 0.4, 'flw1': 0.0, 'flw0': 2.88, 'time': 42.72, 'compass': -143.07, 'pitch': 5.68, 'roll': 1.42}
