{'lipoC2': 7.56, 'temp': 29.38, 'lipoC3S3': 12.08, 'state': 'normal', 'rot1': 0, 'rot0': 0, 'rot3': 0, 'rot2': 0, 'depth': 1.538, 'yaw': 0.0, 'datetime': '2018-11-26 11:51:34.043965', 'mgs': 0, 'flw2': 0.0, 'flw1': 0.0, 'flw0': 0.0, 'time': 1.26, 'compass': -104.2, 'pitch': 2.89, 'roll': -4.56}
{'lipoC2': 7.56, 'temp': 29.31, 'lipoC3S3': 12.08, 'state': 'normal', 'rot1': 0, 'rot0': 0, 'rot3': 0, 'rot2': 0, 'depth': 1.538, 'yaw': 0.23, 'datetime': '2018-11-26 11:51:34.248981', 'mgs': 0, 'flw2': 0.0, 'flw1': 0.0, 'flw0': 0.0, 'time': 1.47, 'compass': -103.97, 'pitch': 2.58, 'roll': -4.97}
{'lipoC2': 7.56, 'temp': 29.31, 'lipoC3S3': 12.04, 'state': 'normal', 'rot1': 0, 'rot0': 0, 'rot3': 0, 'rot2': 0, 'depth': 1.538, 'yaw': 0.47, 'datetime': '2018-11-26 11:51:34.457862', 'mgs': 0, 'flw2': 3.19, 'flw1': 0.0, 'flw0': 3.34, 'time': 1.68, 'compass': -103.74, 'pitch': 2.53, 'roll': -5.04}
{'lipoC2': 7.56, 'temp': 29.31, 'lipoC3S3': 12.04, 'state': 'normal', 'rot1': 2, 'rot0': 2, 'rot3': 0, 'rot2': 0, 'depth': 1.538, 'yaw': 0.52, 'datetime': '2018-11-26 11:51:34.666611', 'mgs': 0, 'flw2': 2.75, 'flw1': 0.0, 'flw0': 2.88, 'time': 1.89, 'compass': -103.68, 'pitch': 2.71, 'roll': -3.75}
{'lipoC2': 7.55, 'temp': 29.38, 'lipoC3S3': 12.05, 'state': 'normal', 'rot1': 5, 'rot0': 5, 'rot3': 0, 'rot2': 0, 'depth': 1.614, 'yaw': 0.51, 'datetime': '2018-11-26 11:51:34.876047', 'mgs': 0, 'flw2': 2.84, 'flw1': 0.0, 'flw0': 3.02, 'time': 2.1, 'compass': -103.69, 'pitch': 3.02, 'roll': -3.48}
{'lipoC2': 7.56, 'temp': 29.31, 'lipoC3S3': 12.0, 'state': 'normal', 'rot1': 7, 'rot0': 7, 'rot3': 0, 'rot2': 0, 'depth': 1.538, 'yaw': 0.3, 'datetime': '2018-11-26 11:51:35.085472', 'mgs': 0, 'flw2': 2.75, 'flw1': 0.0, 'flw0': 2.93, 'time': 2.31, 'compass': -103.9, 'pitch': 3.05, 'roll': -2.38}
{'lipoC2': 7.56, 'temp': 29.38, 'lipoC3S3': 12.05, 'state': 'normal', 'rot1': 10, 'rot0': 10, 'rot3': 0, 'rot2': 0, 'depth': 2.53, 'yaw': 0.18, 'datetime': '2018-11-26 11:51:35.295465', 'mgs': 0, 'flw2': 2.89, 'flw1': 0.0, 'flw0': 2.8, 'time': 2.51, 'compass': -104.03, 'pitch': 2.88, 'roll': 0.07}
{'lipoC2': 7.56, 'temp': 29.38, 'lipoC3S3': 12.05, 'state': 'normal', 'rot1': 12, 'rot0': 12, 'rot3': 0, 'rot2': 0, 'depth': 2.53, 'yaw': -0.03, 'datetime': '2018-11-26 11:51:35.506550', 'mgs': 0, 'flw2': 2.86, 'flw1': 0.0, 'flw0': 2.82, 'time': 2.72, 'compass': -104.23, 'pitch': 2.6, 'roll': 3.04}
{'lipoC2': 7.56, 'temp': 29.38, 'lipoC3S3': 12.05, 'state': 'normal', 'rot1': 14, 'rot0': 14, 'rot3': 0, 'rot2': 0, 'depth': 1.233, 'yaw': -0.31, 'datetime': '2018-11-26 11:51:35.718210', 'mgs': 0, 'flw2': 2.81, 'flw1': 0.0, 'flw0': 2.97, 'time': 2.93, 'compass': -104.51, 'pitch': 2.18, 'roll': 5.94}
{'lipoC2': 7.56, 'temp': 29.38, 'lipoC3S3': 12.05, 'state': 'normal', 'rot1': 17, 'rot0': 17, 'rot3': 0, 'rot2': 0, 'depth': 1.614, 'yaw': -0.66, 'datetime': '2018-11-26 11:51:35.924562', 'mgs': 0, 'flw2': 2.89, 'flw1': 0.0, 'flw0': 3.04, 'time': 3.14, 'compass': -104.86, 'pitch': 1.79, 'roll': 7.93}
{'lipoC2': 7.56, 'temp': 29.31, 'lipoC3S3': 12.05, 'state': 'normal', 'rot1': 19, 'rot0': 19, 'rot3': 0, 'rot2': 0, 'depth': 1.538, 'yaw': -0.99, 'datetime': '2018-11-26 11:51:36.134200', 'mgs': 0, 'flw2': 2.84, 'flw1': 0.0, 'flw0': 3.02, 'time': 3.35, 'compass': -105.2, 'pitch': 1.68, 'roll': 8.76}
{'lipoC2': 7.56, 'temp': 29.38, 'lipoC3S3': 12.05, 'state': 'normal', 'rot1': 22, 'rot0': 22, 'rot3': 0, 'rot2': 0, 'depth': 1.462, 'yaw': -1.3, 'datetime': '2018-11-26 11:51:36.345280', 'mgs': 0, 'flw2': 2.82, 'flw1': 0.0, 'flw0': 1.22, 'time': 3.57, 'compass': -105.5, 'pitch': 1.72, 'roll': 8.42}
{'lipoC2': 7.56, 'temp': 29.31, 'lipoC3S3': 12.04, 'state': 'normal', 'rot1': 24, 'rot0': 23, 'rot3': 0, 'rot2': 0, 'depth': 1.309, 'yaw': -0.72, 'datetime': '2018-11-26 11:51:36.553356', 'mgs': 0, 'flw2': 2.67, 'flw1': 0.0, 'flw0': 1.28, 'time': 3.77, 'compass': -104.92, 'pitch': 1.6, 'roll': 6.9}
{'lipoC2': 7.56, 'temp': 29.38, 'lipoC3S3': 11.94, 'state': 'normal', 'rot1': 27, 'rot0': 25, 'rot3': 0, 'rot2': 0, 'depth': 1.233, 'yaw': 0.45, 'datetime': '2018-11-26 11:51:36.763685', 'mgs': 0, 'flw2': 2.73, 'flw1': 0.0, 'flw0': 2.95, 'time': 3.98, 'compass': -103.75, 'pitch': 1.41, 'roll': 5.25}
{'lipoC2': 7.56, 'temp': 29.31, 'lipoC3S3': 12.0, 'state': 'normal', 'rot1': 29, 'rot0': 28, 'rot3': 0, 'rot2': 0, 'depth': 1.157, 'yaw': 1.11, 'datetime': '2018-11-26 11:51:36.971987', 'mgs': 0, 'flw2': 2.75, 'flw1': 0.0, 'flw0': 2.98, 'time': 4.19, 'compass': -103.09, 'pitch': 1.48, 'roll': 4.31}
{'lipoC2': 7.56, 'temp': 29.38, 'lipoC3S3': 11.93, 'state': 'normal', 'rot1': 32, 'rot0': 31, 'rot3': 0, 'rot2': 0, 'depth': 1.157, 'yaw': 1.43, 'datetime': '2018-11-26 11:51:37.181449', 'mgs': 0, 'flw2': 2.73, 'flw1': 0.0, 'flw0': 2.89, 'time': 4.4, 'compass': -102.77, 'pitch': 1.68, 'roll': 3.65}
{'lipoC2': 7.56, 'temp': 29.38, 'lipoC3S3': 12.05, 'state': 'normal', 'rot1': 33, 'rot0': 33, 'rot3': 0, 'rot2': 0, 'depth': 1.233, 'yaw': 1.36, 'datetime': '2018-11-26 11:51:37.391220', 'mgs': 0, 'flw2': 1.25, 'flw1': 0.0, 'flw0': 3.03, 'time': 4.61, 'compass': -102.84, 'pitch': 1.82, 'roll': 3.09}
{'lipoC2': 7.56, 'temp': 29.38, 'lipoC3S3': 12.01, 'state': 'normal', 'rot1': 35, 'rot0': 35, 'rot3': 0, 'rot2': 0, 'depth': 1.309, 'yaw': 0.16, 'datetime': '2018-11-26 11:51:37.594646', 'mgs': 0, 'flw2': 2.81, 'flw1': 0.0, 'flw0': 2.93, 'time': 4.82, 'compass': -104.04, 'pitch': 1.77, 'roll': 2.44}
{'lipoC2': 7.56, 'temp': 29.38, 'lipoC3S3': 12.05, 'state': 'normal', 'rot1': 38, 'rot0': 38, 'rot3': 0, 'rot2': 0, 'depth': 1.309, 'yaw': -1.08, 'datetime': '2018-11-26 11:51:37.803541', 'mgs': 0, 'flw2': 2.71, 'flw1': 0.0, 'flw0': 2.94, 'time': 5.03, 'compass': -105.28, 'pitch': 1.75, 'roll': 2.61}
{'lipoC2': 7.55, 'temp': 29.31, 'lipoC3S3': 12.05, 'state': 'normal', 'rot1': 40, 'rot0': 40, 'rot3': 0, 'rot2': 0, 'depth': 1.309, 'yaw': -1.54, 'datetime': '2018-11-26 11:51:38.015109', 'mgs': 0, 'flw2': 2.77, 'flw1': 0.0, 'flw0': 1.29, 'time': 5.24, 'compass': -105.74, 'pitch': 1.71, 'roll': 3.11}
{'lipoC2': 7.56, 'temp': 29.31, 'lipoC3S3': 12.05, 'state': 'normal', 'rot1': 43, 'rot0': 42, 'rot3': 0, 'rot2': 0, 'depth': 1.462, 'yaw': -0.65, 'datetime': '2018-11-26 11:51:38.228133', 'mgs': 0, 'flw2': 2.76, 'flw1': 0.0, 'flw0': 1.33, 'time': 5.45, 'compass': -104.85, 'pitch': 1.79, 'roll': 3.3}
{'lipoC2': 7.56, 'temp': 29.31, 'lipoC3S3': 12.04, 'state': 'normal', 'rot1': 45, 'rot0': 43, 'rot3': 0, 'rot2': 0, 'depth': 1.538, 'yaw': 0.89, 'datetime': '2018-11-26 11:51:38.442159', 'mgs': 0, 'flw2': 2.75, 'flw1': 0.0, 'flw0': 1.29, 'time': 5.66, 'compass': -103.31, 'pitch': 1.99, 'roll': 3.48}
{'lipoC2': 7.56, 'temp': 29.38, 'lipoC3S3': 12.04, 'state': 'normal', 'rot1': 48, 'rot0': 46, 'rot3': 0, 'rot2': 0, 'depth': 2.148, 'yaw': 2.74, 'datetime': '2018-11-26 11:51:38.650888', 'mgs': 0, 'flw2': 2.82, 'flw1': 0.0, 'flw0': 2.89, 'time': 5.87, 'compass': -101.47, 'pitch': 2.26, 'roll': 3.71}
{'lipoC2': 7.55, 'temp': 29.38, 'lipoC3S3': 12.04, 'state': 'normal', 'rot1': 50, 'rot0': 48, 'rot3': 0, 'rot2': 0, 'depth': 2.301, 'yaw': 3.64, 'datetime': '2018-11-26 11:51:38.860061', 'mgs': 0, 'flw2': 1.18, 'flw1': 0.0, 'flw0': 2.82, 'time': 6.08, 'compass': -100.56, 'pitch': 2.5, 'roll': 4.16}
{'lipoC2': 7.56, 'temp': 29.38, 'lipoC3S3': 12.04, 'state': 'normal', 'rot1': 52, 'rot0': 50, 'rot3': 0, 'rot2': 0, 'depth': 2.072, 'yaw': 3.27, 'datetime': '2018-11-26 11:51:39.069037', 'mgs': 0, 'flw2': 1.31, 'flw1': 0.0, 'flw0': 2.77, 'time': 6.29, 'compass': -100.93, 'pitch': 2.55, 'roll': 4.06}
{'lipoC2': 7.56, 'temp': 29.31, 'lipoC3S3': 12.04, 'state': 'normal', 'rot1': 54, 'rot0': 53, 'rot3': 0, 'rot2': 0, 'depth': 1.996, 'yaw': 1.74, 'datetime': '2018-11-26 11:51:39.279272', 'mgs': 0, 'flw2': 1.31, 'flw1': 0.0, 'flw0': 2.81, 'time': 6.5, 'compass': -102.46, 'pitch': 2.56, 'roll': 3.42}
{'lipoC2': 7.55, 'temp': 29.44, 'lipoC3S3': 12.04, 'state': 'normal', 'rot1': 56, 'rot0': 55, 'rot3': 0, 'rot2': 0, 'depth': 2.759, 'yaw': -0.5, 'datetime': '2018-11-26 11:51:39.487494', 'mgs': 0, 'flw2': 3.02, 'flw1': 0.0, 'flw0': 2.86, 'time': 6.71, 'compass': -104.71, 'pitch': 2.61, 'roll': 2.63}
{'lipoC2': 7.55, 'temp': 29.31, 'lipoC3S3': 11.94, 'state': 'normal', 'rot1': 58, 'rot0': 58, 'rot3': 0, 'rot2': 0, 'depth': 1.691, 'yaw': -2.39, 'datetime': '2018-11-26 11:51:39.694632', 'mgs': 0, 'flw2': 2.67, 'flw1': 0.0, 'flw0': 2.92, 'time': 6.92, 'compass': -106.59, 'pitch': 2.35, 'roll': 2.44}
{'lipoC2': 7.56, 'temp': 29.38, 'lipoC3S3': 11.97, 'state': 'normal', 'rot1': 61, 'rot0': 60, 'rot3': 0, 'rot2': 0, 'depth': 1.767, 'yaw': -3.24, 'datetime': '2018-11-26 11:51:39.908433', 'mgs': 0, 'flw2': 2.73, 'flw1': 0.0, 'flw0': 1.29, 'time': 7.13, 'compass': -107.44, 'pitch': 1.94, 'roll': 2.66}
{'lipoC2': 7.56, 'temp': 29.31, 'lipoC3S3': 11.97, 'state': 'normal', 'rot1': 63, 'rot0': 61, 'rot3': 0, 'rot2': 0, 'depth': 1.767, 'yaw': -2.74, 'datetime': '2018-11-26 11:51:40.115418', 'mgs': 0, 'flw2': 2.72, 'flw1': 0.0, 'flw0': 1.28, 'time': 7.34, 'compass': -106.94, 'pitch': 1.74, 'roll': 2.54}
{'lipoC2': 7.56, 'temp': 29.31, 'lipoC3S3': 11.98, 'state': 'normal', 'rot1': 66, 'rot0': 63, 'rot3': 0, 'rot2': 0, 'depth': 1.843, 'yaw': -1.2, 'datetime': '2018-11-26 11:51:40.323615', 'mgs': 0, 'flw2': 2.71, 'flw1': 0.0, 'flw0': 1.31, 'time': 7.55, 'compass': -105.4, 'pitch': 1.75, 'roll': 2.3}
{'lipoC2': 7.55, 'temp': 29.38, 'lipoC3S3': 11.94, 'state': 'normal', 'rot1': 68, 'rot0': 65, 'rot3': 0, 'rot2': 0, 'depth': 1.767, 'yaw': 1.12, 'datetime': '2018-11-26 11:51:40.534268', 'mgs': 0, 'flw2': 2.67, 'flw1': 0.0, 'flw0': 1.32, 'time': 7.76, 'compass': -103.09, 'pitch': 2.03, 'roll': 2.25}
{'lipoC2': 7.56, 'temp': 29.38, 'lipoC3S3': 12.05, 'state': 'normal', 'rot1': 70, 'rot0': 67, 'rot3': 0, 'rot2': 0, 'depth': 1.843, 'yaw': 3.7, 'datetime': '2018-11-26 11:51:40.743722', 'mgs': 0, 'flw2': 1.15, 'flw1': 0.0, 'flw0': 3.14, 'time': 7.97, 'compass': -100.5, 'pitch': 2.32, 'roll': 2.35}
{'lipoC2': 7.55, 'temp': 29.31, 'lipoC3S3': 12.05, 'state': 'normal', 'rot1': 72, 'rot0': 69, 'rot3': 0, 'rot2': 0, 'depth': 1.843, 'yaw': 4.76, 'datetime': '2018-11-26 11:51:40.952976', 'mgs': 0, 'flw2': 1.28, 'flw1': 0.0, 'flw0': 2.97, 'time': 8.18, 'compass': -99.45, 'pitch': 2.44, 'roll': 2.39}
{'lipoC2': 7.56, 'temp': 29.38, 'lipoC3S3': 12.05, 'state': 'normal', 'rot1': 74, 'rot0': 71, 'rot3': 0, 'rot2': 0, 'depth': 1.92, 'yaw': 4.1, 'datetime': '2018-11-26 11:51:41.163069', 'mgs': 0, 'flw2': 1.28, 'flw1': 0.0, 'flw0': 2.97, 'time': 8.39, 'compass': -100.1, 'pitch': 2.47, 'roll': 2.29}
{'lipoC2': 7.56, 'temp': 29.31, 'lipoC3S3': 12.05, 'state': 'normal', 'rot1': 76, 'rot0': 74, 'rot3': 0, 'rot2': 0, 'depth': 1.92, 'yaw': 2.51, 'datetime': '2018-11-26 11:51:41.369924', 'mgs': 0, 'flw2': 1.31, 'flw1': 0.0, 'flw0': 2.98, 'time': 8.6, 'compass': -101.69, 'pitch': 2.44, 'roll': 2.2}
{'lipoC2': 7.55, 'temp': 29.31, 'lipoC3S3': 12.04, 'state': 'normal', 'rot1': 77, 'rot0': 76, 'rot3': 0, 'rot2': 0, 'depth': 1.92, 'yaw': 0.24, 'datetime': '2018-11-26 11:51:41.580493', 'mgs': 0, 'flw2': 1.32, 'flw1': 0.0, 'flw0': 2.95, 'time': 8.81, 'compass': -103.96, 'pitch': 2.14, 'roll': 2.22}
{'lipoC2': 7.55, 'temp': 29.31, 'lipoC3S3': 12.04, 'state': 'normal', 'rot1': 80, 'rot0': 78, 'rot3': 0, 'rot2': 0, 'depth': 1.538, 'yaw': -2.1, 'datetime': '2018-11-26 11:51:41.789776', 'mgs': 0, 'flw2': 2.87, 'flw1': 0.0, 'flw0': 2.91, 'time': 9.01, 'compass': -106.3, 'pitch': 1.57, 'roll': 2.34}
{'lipoC2': 7.55, 'temp': 29.31, 'lipoC3S3': 11.98, 'state': 'normal', 'rot1': 82, 'rot0': 81, 'rot3': 0, 'rot2': 0, 'depth': 1.996, 'yaw': -3.56, 'datetime': '2018-11-26 11:51:41.999606', 'mgs': 0, 'flw2': 2.7, 'flw1': 0.0, 'flw0': 1.22, 'time': 9.22, 'compass': -107.76, 'pitch': 1.1, 'roll': 2.89}
{'lipoC2': 7.56, 'temp': 29.31, 'lipoC3S3': 12.04, 'state': 'normal', 'rot1': 84, 'rot0': 83, 'rot3': 0, 'rot2': 0, 'depth': 1.843, 'yaw': -3.58, 'datetime': '2018-11-26 11:51:42.207140', 'mgs': 0, 'flw2': 2.75, 'flw1': 0.0, 'flw0': 1.28, 'time': 9.44, 'compass': -107.78, 'pitch': 0.99, 'roll': 3.02}
{'lipoC2': 7.56, 'temp': 29.38, 'lipoC3S3': 12.02, 'state': 'normal', 'rot1': 87, 'rot0': 84, 'rot3': 0, 'rot2': 0, 'depth': 1.92, 'yaw': -2.37, 'datetime': '2018-11-26 11:51:42.420960', 'mgs': 0, 'flw2': 2.69, 'flw1': 0.0, 'flw0': 1.34, 'time': 9.64, 'compass': -106.58, 'pitch': 1.3, 'roll': 2.9}
{'lipoC2': 7.56, 'temp': 29.38, 'lipoC3S3': 11.97, 'state': 'normal', 'rot1': 89, 'rot0': 86, 'rot3': 0, 'rot2': 0, 'depth': 1.92, 'yaw': -0.61, 'datetime': '2018-11-26 11:51:42.627570', 'mgs': 0, 'flw2': 2.61, 'flw1': 0.0, 'flw0': 1.31, 'time': 9.85, 'compass': -104.82, 'pitch': 1.87, 'roll': 2.59}
{'lipoC2': 7.56, 'temp': 29.38, 'lipoC3S3': 11.93, 'state': 'normal', 'rot1': 92, 'rot0': 88, 'rot3': 0, 'rot2': 0, 'depth': 1.92, 'yaw': 1.57, 'datetime': '2018-11-26 11:51:42.837825', 'mgs': 0, 'flw2': 2.71, 'flw1': 0.0, 'flw0': 1.34, 'time': 10.06, 'compass': -102.63, 'pitch': 2.44, 'roll': 2.4}
{'lipoC2': 7.56, 'temp': 29.38, 'lipoC3S3': 12.05, 'state': 'normal', 'rot1': 94, 'rot0': 90, 'rot3': 0, 'rot2': 0, 'depth': 1.843, 'yaw': 3.39, 'datetime': '2018-11-26 11:51:43.047301', 'mgs': 0, 'flw2': 1.22, 'flw1': 0.0, 'flw0': 3.13, 'time': 10.27, 'compass': -100.81, 'pitch': 2.88, 'roll': 2.39}
{'lipoC2': 7.56, 'temp': 29.38, 'lipoC3S3': 12.05, 'state': 'normal', 'rot1': 95, 'rot0': 92, 'rot3': 0, 'rot2': 0, 'depth': 1.92, 'yaw': 3.12, 'datetime': '2018-11-26 11:51:43.257158', 'mgs': 0, 'flw2': 1.27, 'flw1': 0.0, 'flw0': 3.0, 'time': 10.48, 'compass': -101.08, 'pitch': 3.12, 'roll': 2.3}
{'lipoC2': 7.56, 'temp': 29.38, 'lipoC3S3': 12.05, 'state': 'normal', 'rot1': 97, 'rot0': 95, 'rot3': 0, 'rot2': 0, 'depth': 1.843, 'yaw': 1.68, 'datetime': '2018-11-26 11:51:43.468646', 'mgs': 0, 'flw2': 1.26, 'flw1': 0.0, 'flw0': 3.0, 'time': 10.69, 'compass': -102.52, 'pitch': 2.98, 'roll': 1.96}
{'lipoC2': 7.56, 'temp': 29.38, 'lipoC3S3': 12.04, 'state': 'normal', 'rot1': 99, 'rot0': 97, 'rot3': 0, 'rot2': 0, 'depth': 1.843, 'yaw': -0.59, 'datetime': '2018-11-26 11:51:43.675556', 'mgs': 0, 'flw2': 1.26, 'flw1': 0.0, 'flw0': 2.99, 'time': 10.9, 'compass': -104.79, 'pitch': 2.41, 'roll': 1.6}
{'lipoC2': 7.56, 'temp': 29.38, 'lipoC3S3': 12.05, 'state': 'normal', 'rot1': 101, 'rot0': 99, 'rot3': 0, 'rot2': 0, 'depth': 1.92, 'yaw': -3.34, 'datetime': '2018-11-26 11:51:43.885552', 'mgs': 0, 'flw2': 2.92, 'flw1': 0.0, 'flw0': 1.25, 'time': 11.11, 'compass': -107.55, 'pitch': 1.77, 'roll': 1.37}
{'lipoC2': 7.56, 'temp': 29.38, 'lipoC3S3': 12.04, 'state': 'normal', 'rot1': 103, 'rot0': 101, 'rot3': 0, 'rot2': 0, 'depth': 2.301, 'yaw': -4.59, 'datetime': '2018-11-26 11:51:44.095146', 'mgs': 0, 'flw2': 2.87, 'flw1': 0.0, 'flw0': 1.29, 'time': 11.32, 'compass': -108.8, 'pitch': 1.43, 'roll': 1.28}
{'lipoC2': 7.56, 'temp': 29.38, 'lipoC3S3': 11.96, 'state': 'normal', 'rot1': 106, 'rot0': 103, 'rot3': 0, 'rot2': 0, 'depth': 1.92, 'yaw': -4.17, 'datetime': '2018-11-26 11:51:44.306928', 'mgs': 0, 'flw2': 2.69, 'flw1': 0.0, 'flw0': 1.29, 'time': 11.53, 'compass': -108.38, 'pitch': 1.26, 'roll': 1.32}
{'lipoC2': 7.56, 'temp': 29.38, 'lipoC3S3': 12.05, 'state': 'normal', 'rot1': 108, 'rot0': 104, 'rot3': 0, 'rot2': 0, 'depth': 2.072, 'yaw': -2.93, 'datetime': '2018-11-26 11:51:44.514197', 'mgs': 0, 'flw2': 2.82, 'flw1': 0.0, 'flw0': 1.38, 'time': 11.74, 'compass': -107.13, 'pitch': 1.35, 'roll': 1.48}
{'lipoC2': 7.55, 'temp': 29.38, 'lipoC3S3': 12.02, 'state': 'normal', 'rot1': 111, 'rot0': 106, 'rot3': 0, 'rot2': 0, 'depth': 1.996, 'yaw': -1.0, 'datetime': '2018-11-26 11:51:44.723427', 'mgs': 0, 'flw2': 2.69, 'flw1': 0.0, 'flw0': 1.35, 'time': 11.95, 'compass': -105.2, 'pitch': 1.75, 'roll': 1.7}
{'lipoC2': 7.56, 'temp': 29.38, 'lipoC3S3': 12.02, 'state': 'normal', 'rot1': 113, 'rot0': 108, 'rot3': 0, 'rot2': 0, 'depth': 1.92, 'yaw': 1.0, 'datetime': '2018-11-26 11:51:44.932965', 'mgs': 0, 'flw2': 2.7, 'flw1': 0.0, 'flw0': 2.91, 'time': 12.16, 'compass': -103.2, 'pitch': 2.41, 'roll': 2.12}
{'lipoC2': 7.56, 'temp': 29.38, 'lipoC3S3': 12.05, 'state': 'normal', 'rot1': 115, 'rot0': 111, 'rot3': 0, 'rot2': 0, 'depth': 2.072, 'yaw': 1.92, 'datetime': '2018-11-26 11:51:45.143039', 'mgs': 0, 'flw2': 1.2, 'flw1': 0.0, 'flw0': 3.1, 'time': 12.37, 'compass': -102.28, 'pitch': 3.0, 'roll': 2.91}
{'lipoC2': 7.56, 'temp': 29.38, 'lipoC3S3': 12.04, 'state': 'normal', 'rot1': 117, 'rot0': 113, 'rot3': 0, 'rot2': 0, 'depth': 2.759, 'yaw': 1.32, 'datetime': '2018-11-26 11:51:45.352027', 'mgs': 0, 'flw2': 1.31, 'flw1': 0.0, 'flw0': 2.93, 'time': 12.58, 'compass': -102.89, 'pitch': 3.21, 'roll': 3.25}
{'lipoC2': 7.55, 'temp': 29.38, 'lipoC3S3': 12.04, 'state': 'normal', 'rot1': 119, 'rot0': 115, 'rot3': 0, 'rot2': 0, 'depth': 1.996, 'yaw': -0.74, 'datetime': '2018-11-26 11:51:45.562825', 'mgs': 0, 'flw2': 1.31, 'flw1': 0.0, 'flw0': 2.95, 'time': 12.79, 'compass': -104.94, 'pitch': 2.93, 'roll': 3.16}
{'lipoC2': 7.56, 'temp': 29.38, 'lipoC3S3': 11.96, 'state': 'normal', 'rot1': 121, 'rot0': 118, 'rot3': 0, 'rot2': 0, 'depth': 1.996, 'yaw': -3.49, 'datetime': '2018-11-26 11:51:45.771690', 'mgs': 0, 'flw2': 2.83, 'flw1': 0.0, 'flw0': 1.26, 'time': 13.0, 'compass': -107.69, 'pitch': 2.2, 'roll': 2.92}
{'lipoC2': 7.56, 'temp': 29.38, 'lipoC3S3': 12.05, 'state': 'normal', 'rot1': 123, 'rot0': 120, 'rot3': 0, 'rot2': 0, 'depth': 2.606, 'yaw': -4.79, 'datetime': '2018-11-26 11:51:45.981505', 'mgs': 0, 'flw2': 2.91, 'flw1': 0.0, 'flw0': 1.34, 'time': 13.21, 'compass': -108.99, 'pitch': 1.46, 'roll': 2.71}
{'lipoC2': 7.56, 'temp': 29.38, 'lipoC3S3': 12.04, 'state': 'normal', 'rot1': 126, 'rot0': 121, 'rot3': 0, 'rot2': 0, 'depth': 2.148, 'yaw': -4.33, 'datetime': '2018-11-26 11:51:46.193276', 'mgs': 0, 'flw2': 2.8, 'flw1': 0.0, 'flw0': 1.31, 'time': 13.42, 'compass': -108.54, 'pitch': 1.11, 'roll': 2.58}
{'lipoC2': 7.56, 'temp': 29.31, 'lipoC3S3': 12.05, 'state': 'normal', 'rot1': 128, 'rot0': 123, 'rot3': 0, 'rot2': 0, 'depth': 1.996, 'yaw': -2.69, 'datetime': '2018-11-26 11:51:46.402492', 'mgs': 0, 'flw2': 2.77, 'flw1': 0.0, 'flw0': 1.35, 'time': 13.63, 'compass': -106.89, 'pitch': 1.16, 'roll': 2.24}
{'lipoC2': 7.56, 'temp': 29.38, 'lipoC3S3': 11.94, 'state': 'normal', 'rot1': 131, 'rot0': 125, 'rot3': 1, 'rot2': 0, 'depth': 1.92, 'yaw': -0.25, 'datetime': '2018-11-26 11:51:46.613614', 'mgs': 0, 'flw2': 2.7, 'flw1': 4.31, 'flw0': 1.31, 'time': 13.84, 'compass': -104.46, 'pitch': 1.68, 'roll': 1.81}
{'lipoC2': 7.56, 'temp': 29.38, 'lipoC3S3': 12.02, 'state': 'normal', 'rot1': 133, 'rot0': 127, 'rot3': 1, 'rot2': 1, 'depth': 1.92, 'yaw': 2.2, 'datetime': '2018-11-26 11:51:46.826814', 'mgs': 0, 'flw2': 2.75, 'flw1': 3.54, 'flw0': 2.98, 'time': 14.05, 'compass': -102.0, 'pitch': 2.25, 'roll': 1.97}
{'lipoC2': 7.56, 'temp': 29.38, 'lipoC3S3': 12.02, 'state': 'normal', 'rot1': 136, 'rot0': 129, 'rot3': 2, 'rot2': 1, 'depth': 1.843, 'yaw': 3.45, 'datetime': '2018-11-26 11:51:47.036743', 'mgs': 0, 'flw2': 1.16, 'flw1': 0.0, 'flw0': 2.94, 'time': 14.26, 'compass': -100.75, 'pitch': 2.7, 'roll': 2.97}
{'lipoC2': 7.56, 'temp': 29.38, 'lipoC3S3': 12.04, 'state': 'normal', 'rot1': 137, 'rot0': 132, 'rot3': 2, 'rot2': 1, 'depth': 1.843, 'yaw': 3.1, 'datetime': '2018-11-26 11:51:47.242420', 'mgs': 0, 'flw2': 1.28, 'flw1': 0.0, 'flw0': 2.98, 'time': 14.47, 'compass': -101.1, 'pitch': 2.94, 'roll': 3.66}
{'lipoC2': 7.55, 'temp': 29.38, 'lipoC3S3': 12.02, 'state': 'normal', 'rot1': 139, 'rot0': 134, 'rot3': 2, 'rot2': 1, 'depth': 1.92, 'yaw': 1.36, 'datetime': '2018-11-26 11:51:47.455919', 'mgs': 0, 'flw2': 1.33, 'flw1': 0.0, 'flw0': 2.94, 'time': 14.69, 'compass': -102.85, 'pitch': 2.91, 'roll': 3.83}
{'lipoC2': 7.56, 'temp': 29.31, 'lipoC3S3': 12.01, 'state': 'normal', 'rot1': 141, 'rot0': 136, 'rot3': 2, 'rot2': 1, 'depth': 1.767, 'yaw': -1.18, 'datetime': '2018-11-26 11:51:47.666062', 'mgs': 0, 'flw2': 2.87, 'flw1': 0.0, 'flw0': 2.93, 'time': 14.9, 'compass': -105.38, 'pitch': 2.53, 'roll': 3.6}
{'lipoC2': 7.56, 'temp': 29.38, 'lipoC3S3': 12.02, 'state': 'normal', 'rot1': 143, 'rot0': 139, 'rot3': 2, 'rot2': 1, 'depth': 1.385, 'yaw': -3.24, 'datetime': '2018-11-26 11:51:47.875388', 'mgs': 0, 'flw2': 2.93, 'flw1': 0.0, 'flw0': 2.98, 'time': 15.11, 'compass': -107.44, 'pitch': 1.95, 'roll': 3.48}
{'lipoC2': 7.56, 'temp': 29.38, 'lipoC3S3': 12.02, 'state': 'normal', 'rot1': 146, 'rot0': 141, 'rot3': 2, 'rot2': 1, 'depth': 1.767, 'yaw': -4.04, 'datetime': '2018-11-26 11:51:48.086418', 'mgs': 0, 'flw2': 2.84, 'flw1': 0.0, 'flw0': 1.31, 'time': 15.31, 'compass': -108.25, 'pitch': 1.36, 'roll': 3.46}
{'lipoC2': 7.56, 'temp': 29.38, 'lipoC3S3': 12.02, 'state': 'normal', 'rot1': 148, 'rot0': 142, 'rot3': 2, 'rot2': 1, 'depth': 1.767, 'yaw': -3.13, 'datetime': '2018-11-26 11:51:48.299337', 'mgs': 0, 'flw2': 2.8, 'flw1': 0.0, 'flw0': 1.27, 'time': 15.52, 'compass': -107.33, 'pitch': 1.27, 'roll': 3.28}
{'lipoC2': 7.56, 'temp': 29.38, 'lipoC3S3': 12.04, 'state': 'normal', 'rot1': 150, 'rot0': 144, 'rot3': 2, 'rot2': 1, 'depth': 1.767, 'yaw': -1.08, 'datetime': '2018-11-26 11:51:48.502846', 'mgs': 0, 'flw2': 2.71, 'flw1': 0.0, 'flw0': 1.34, 'time': 15.74, 'compass': -105.29, 'pitch': 1.65, 'roll': 3.0}
{'lipoC2': 7.56, 'temp': 29.38, 'lipoC3S3': 12.04, 'state': 'normal', 'rot1': 153, 'rot0': 146, 'rot3': 2, 'rot2': 1, 'depth': 1.843, 'yaw': 1.56, 'datetime': '2018-11-26 11:51:48.714478', 'mgs': 0, 'flw2': 2.75, 'flw1': 0.0, 'flw0': 1.37, 'time': 15.95, 'compass': -102.64, 'pitch': 2.24, 'roll': 2.65}
{'lipoC2': 7.55, 'temp': 29.38, 'lipoC3S3': 12.0, 'state': 'normal', 'rot1': 155, 'rot0': 148, 'rot3': 2, 'rot2': 1, 'depth': 1.691, 'yaw': 4.31, 'datetime': '2018-11-26 11:51:48.924668', 'mgs': 0, 'flw2': 1.1, 'flw1': 0.0, 'flw0': 3.02, 'time': 16.16, 'compass': -99.89, 'pitch': 2.77, 'roll': 2.26}
{'lipoC2': 7.56, 'temp': 29.31, 'lipoC3S3': 12.02, 'state': 'normal', 'rot1': 157, 'rot0': 150, 'rot3': 2, 'rot2': 1, 'depth': 1.691, 'yaw': 5.47, 'datetime': '2018-11-26 11:51:49.132719', 'mgs': 0, 'flw2': 1.23, 'flw1': 0.0, 'flw0': 2.94, 'time': 16.37, 'compass': -98.73, 'pitch': 3.05, 'roll': 1.85}
{'lipoC2': 7.56, 'temp': 29.38, 'lipoC3S3': 12.04, 'state': 'normal', 'rot1': 159, 'rot0': 152, 'rot3': 2, 'rot2': 1, 'depth': 2.454, 'yaw': 4.76, 'datetime': '2018-11-26 11:51:49.345716', 'mgs': 0, 'flw2': 1.33, 'flw1': 0.0, 'flw0': 2.91, 'time': 16.58, 'compass': -99.44, 'pitch': 3.06, 'roll': 1.42}
{'lipoC2': 7.56, 'temp': 29.38, 'lipoC3S3': 12.01, 'state': 'normal', 'rot1': 161, 'rot0': 155, 'rot3': 2, 'rot2': 1, 'depth': 1.767, 'yaw': 3.04, 'datetime': '2018-11-26 11:51:49.554535', 'mgs': 0, 'flw2': 1.32, 'flw1': 0.0, 'flw0': 2.97, 'time': 16.79, 'compass': -101.16, 'pitch': 2.71, 'roll': 1.27}
{'lipoC2': 7.56, 'temp': 29.38, 'lipoC3S3': 12.04, 'state': 'normal', 'rot1': 162, 'rot0': 157, 'rot3': 2, 'rot2': 1, 'depth': 2.759, 'yaw': 0.6, 'datetime': '2018-11-26 11:51:49.764463', 'mgs': 0, 'flw2': 1.34, 'flw1': 0.0, 'flw0': 2.83, 'time': 17.0, 'compass': -103.6, 'pitch': 2.08, 'roll': 1.44}
{'lipoC2': 7.55, 'temp': 29.38, 'lipoC3S3': 11.96, 'state': 'normal', 'rot1': 165, 'rot0': 160, 'rot3': 2, 'rot2': 1, 'depth': 1.92, 'yaw': -1.9, 'datetime': '2018-11-26 11:51:49.975042', 'mgs': 0, 'flw2': 2.82, 'flw1': 0.0, 'flw0': 2.88, 'time': 17.21, 'compass': -106.1, 'pitch': 1.47, 'roll': 1.84}
{'lipoC2': 7.55, 'temp': 29.38, 'lipoC3S3': 12.02, 'state': 'normal', 'rot1': 167, 'rot0': 162, 'rot3': 2, 'rot2': 1, 'depth': 2.53, 'yaw': -3.36, 'datetime': '2018-11-26 11:51:50.176729', 'mgs': 0, 'flw2': 2.8, 'flw1': 0.0, 'flw0': 1.17, 'time': 17.42, 'compass': -107.56, 'pitch': 1.11, 'roll': 2.66}
{'lipoC2': 7.55, 'temp': 29.38, 'lipoC3S3': 12.04, 'state': 'normal', 'rot1': 170, 'rot0': 164, 'rot3': 2, 'rot2': 1, 'depth': 1.92, 'yaw': -3.63, 'datetime': '2018-11-26 11:51:50.385302', 'mgs': 0, 'flw2': 2.73, 'flw1': 0.0, 'flw0': 1.33, 'time': 17.63, 'compass': -107.84, 'pitch': 1.13, 'roll': 3.14}
{'lipoC2': 7.56, 'temp': 29.31, 'lipoC3S3': 12.04, 'state': 'normal', 'rot1': 172, 'rot0': 166, 'rot3': 2, 'rot2': 1, 'depth': 2.759, 'yaw': -2.75, 'datetime': '2018-11-26 11:51:50.598143', 'mgs': 0, 'flw2': 2.82, 'flw1': 0.0, 'flw0': 1.27, 'time': 17.84, 'compass': -106.96, 'pitch': 1.54, 'roll': 3.2}
{'lipoC2': 7.56, 'temp': 29.38, 'lipoC3S3': 11.97, 'state': 'normal', 'rot1': 175, 'rot0': 167, 'rot3': 2, 'rot2': 2, 'depth': 2.072, 'yaw': -1.21, 'datetime': '2018-11-26 11:51:50.808100', 'mgs': 0, 'flw2': 2.73, 'flw1': 3.46, 'flw0': 1.29, 'time': 18.05, 'compass': -105.41, 'pitch': 2.18, 'roll': 3.23}
{'lipoC2': 7.55, 'temp': 29.38, 'lipoC3S3': 12.04, 'state': 'normal', 'rot1': 177, 'rot0': 169, 'rot3': 3, 'rot2': 3, 'depth': 1.996, 'yaw': 0.61, 'datetime': '2018-11-26 11:51:51.016034', 'mgs': 0, 'flw2': 2.78, 'flw1': 0.0, 'flw0': 1.38, 'time': 18.26, 'compass': -103.59, 'pitch': 2.7, 'roll': 3.58}
{'lipoC2': 7.55, 'temp': 29.31, 'lipoC3S3': 11.94, 'state': 'normal', 'rot1': 179, 'rot0': 171, 'rot3': 3, 'rot2': 3, 'depth': 1.92, 'yaw': 2.4, 'datetime': '2018-11-26 11:51:51.225891', 'mgs': 0, 'flw2': 2.66, 'flw1': 0.0, 'flw0': 2.98, 'time': 18.47, 'compass': -101.8, 'pitch': 3.07, 'roll': 4.04}
{'lipoC2': 7.56, 'temp': 29.38, 'lipoC3S3': 12.02, 'state': 'normal', 'rot1': 182, 'rot0': 174, 'rot3': 3, 'rot2': 3, 'depth': 2.682, 'yaw': 3.21, 'datetime': '2018-11-26 11:51:51.436439', 'mgs': 0, 'flw2': 1.23, 'flw1': 0.0, 'flw0': 2.88, 'time': 18.68, 'compass': -100.99, 'pitch': 3.07, 'roll': 4.53}
{'lipoC2': 7.56, 'temp': 29.38, 'lipoC3S3': 11.94, 'state': 'normal', 'rot1': 183, 'rot0': 176, 'rot3': 3, 'rot2': 3, 'depth': 1.843, 'yaw': 2.75, 'datetime': '2018-11-26 11:51:51.648522', 'mgs': 0, 'flw2': 1.25, 'flw1': 0.0, 'flw0': 3.0, 'time': 18.89, 'compass': -101.45, 'pitch': 2.91, 'roll': 4.49}
{'lipoC2': 7.56, 'temp': 29.31, 'lipoC3S3': 12.04, 'state': 'normal', 'rot1': 185, 'rot0': 178, 'rot3': 3, 'rot2': 3, 'depth': 1.843, 'yaw': 1.01, 'datetime': '2018-11-26 11:51:51.859117', 'mgs': 0, 'flw2': 1.31, 'flw1': 0.0, 'flw0': 3.13, 'time': 19.1, 'compass': -103.19, 'pitch': 2.64, 'roll': 4.08}
{'lipoC2': 7.56, 'temp': 29.38, 'lipoC3S3': 12.01, 'state': 'normal', 'rot1': 187, 'rot0': 181, 'rot3': 3, 'rot2': 3, 'depth': 1.691, 'yaw': -1.59, 'datetime': '2018-11-26 11:51:52.067561', 'mgs': 0, 'flw2': 2.87, 'flw1': 0.0, 'flw0': 2.95, 'time': 19.31, 'compass': -105.79, 'pitch': 2.14, 'roll': 3.57}
{'lipoC2': 7.56, 'temp': 29.38, 'lipoC3S3': 12.02, 'state': 'normal', 'rot1': 189, 'rot0': 183, 'rot3': 3, 'rot2': 3, 'depth': 1.843, 'yaw': -3.69, 'datetime': '2018-11-26 11:51:52.277294', 'mgs': 0, 'flw2': 2.98, 'flw1': 0.0, 'flw0': 2.94, 'time': 19.52, 'compass': -107.89, 'pitch': 1.44, 'roll': 3.46}
{'lipoC2': 7.56, 'temp': 29.31, 'lipoC3S3': 12.0, 'state': 'normal', 'rot1': 192, 'rot0': 185, 'rot3': 3, 'rot2': 3, 'depth': 1.767, 'yaw': -4.43, 'datetime': '2018-11-26 11:51:52.485571', 'mgs': 0, 'flw2': 2.78, 'flw1': 0.0, 'flw0': 1.28, 'time': 19.73, 'compass': -108.63, 'pitch': 1.0, 'roll': 3.38}
{'lipoC2': 7.56, 'temp': 29.38, 'lipoC3S3': 12.04, 'state': 'normal', 'rot1': 194, 'rot0': 186, 'rot3': 3, 'rot2': 3, 'depth': 2.53, 'yaw': -3.44, 'datetime': '2018-11-26 11:51:52.699469', 'mgs': 0, 'flw2': 2.82, 'flw1': 0.0, 'flw0': 1.26, 'time': 19.94, 'compass': -107.64, 'pitch': 1.07, 'roll': 2.88}
{'lipoC2': 7.56, 'temp': 29.38, 'lipoC3S3': 12.02, 'state': 'normal', 'rot1': 197, 'rot0': 188, 'rot3': 3, 'rot2': 3, 'depth': 2.454, 'yaw': -1.53, 'datetime': '2018-11-26 11:51:52.910239', 'mgs': 0, 'flw2': 2.82, 'flw1': 0.0, 'flw0': 1.28, 'time': 20.15, 'compass': -105.73, 'pitch': 1.65, 'roll': 2.38}
{'lipoC2': 7.56, 'temp': 29.38, 'lipoC3S3': 12.04, 'state': 'normal', 'rot1': 199, 'rot0': 190, 'rot3': 3, 'rot2': 3, 'depth': 1.614, 'yaw': 0.8, 'datetime': '2018-11-26 11:51:53.118834', 'mgs': 0, 'flw2': 2.82, 'flw1': 0.0, 'flw0': 1.39, 'time': 20.36, 'compass': -103.4, 'pitch': 2.37, 'roll': 1.95}
{'lipoC2': 7.56, 'temp': 29.38, 'lipoC3S3': 11.94, 'state': 'normal', 'rot1': 201, 'rot0': 192, 'rot3': 3, 'rot2': 3, 'depth': 1.614, 'yaw': 3.28, 'datetime': '2018-11-26 11:51:53.327698', 'mgs': 0, 'flw2': 1.12, 'flw1': 0.0, 'flw0': 3.02, 'time': 20.57, 'compass': -100.92, 'pitch': 3.04, 'roll': 1.42}
{'lipoC2': 7.56, 'temp': 29.38, 'lipoC3S3': 12.04, 'state': 'normal', 'rot1': 203, 'rot0': 194, 'rot3': 3, 'rot2': 3, 'depth': 2.377, 'yaw': 4.21, 'datetime': '2018-11-26 11:51:53.536316', 'mgs': 0, 'flw2': 1.31, 'flw1': 0.0, 'flw0': 2.97, 'time': 20.78, 'compass': -99.99, 'pitch': 3.44, 'roll': 1.06}
{'lipoC2': 7.56, 'temp': 29.38, 'lipoC3S3': 12.01, 'state': 'normal', 'rot1': 205, 'rot0': 197, 'rot3': 3, 'rot2': 3, 'depth': 1.691, 'yaw': 3.32, 'datetime': '2018-11-26 11:51:53.747721', 'mgs': 0, 'flw2': 1.27, 'flw1': 0.0, 'flw0': 2.94, 'time': 20.99, 'compass': -100.88, 'pitch': 3.51, 'roll': 0.88}
{'lipoC2': 7.56, 'temp': 29.38, 'lipoC3S3': 12.04, 'state': 'normal', 'rot1': 207, 'rot0': 200, 'rot3': 3, 'rot2': 3, 'depth': 1.843, 'yaw': 1.27, 'datetime': '2018-11-26 11:51:53.958668', 'mgs': 0, 'flw2': 1.31, 'flw1': 0.0, 'flw0': 2.95, 'time': 21.2, 'compass': -102.94, 'pitch': 3.21, 'roll': 0.72}
{'lipoC2': 7.56, 'temp': 29.38, 'lipoC3S3': 11.97, 'state': 'normal', 'rot1': 208, 'rot0': 202, 'rot3': 3, 'rot2': 3, 'depth': 1.843, 'yaw': -1.5, 'datetime': '2018-11-26 11:51:54.168072', 'mgs': 0, 'flw2': 1.25, 'flw1': 0.0, 'flw0': 2.97, 'time': 21.41, 'compass': -105.7, 'pitch': 2.7, 'roll': 0.76}
{'lipoC2': 7.56, 'temp': 29.38, 'lipoC3S3': 12.04, 'state': 'normal', 'rot1': 210, 'rot0': 204, 'rot3': 3, 'rot2': 3, 'depth': 1.996, 'yaw': -4.04, 'datetime': '2018-11-26 11:51:54.378449', 'mgs': 0, 'flw2': 2.81, 'flw1': 0.0, 'flw0': 1.34, 'time': 21.62, 'compass': -108.24, 'pitch': 2.17, 'roll': 0.82}
{'lipoC2': 7.56, 'temp': 29.38, 'lipoC3S3': 12.0, 'state': 'normal', 'rot1': 213, 'rot0': 206, 'rot3': 3, 'rot2': 3, 'depth': 1.92, 'yaw': -4.53, 'datetime': '2018-11-26 11:51:54.588465', 'mgs': 0, 'flw2': 2.71, 'flw1': 0.0, 'flw0': 1.32, 'time': 21.83, 'compass': -108.73, 'pitch': 1.92, 'roll': 0.85}
{'lipoC2': 7.55, 'temp': 29.38, 'lipoC3S3': 12.02, 'state': 'normal', 'rot1': 215, 'rot0': 208, 'rot3': 3, 'rot2': 3, 'depth': 2.606, 'yaw': -3.68, 'datetime': '2018-11-26 11:51:54.799246', 'mgs': 0, 'flw2': 2.86, 'flw1': 0.0, 'flw0': 1.25, 'time': 22.04, 'compass': -107.88, 'pitch': 1.92, 'roll': 1.01}
{'lipoC2': 7.56, 'temp': 29.38, 'lipoC3S3': 11.93, 'state': 'normal', 'rot1': 218, 'rot0': 209, 'rot3': 3, 'rot2': 3, 'depth': 2.072, 'yaw': -1.95, 'datetime': '2018-11-26 11:51:55.010124', 'mgs': 0, 'flw2': 2.65, 'flw1': 0.0, 'flw0': 1.34, 'time': 22.25, 'compass': -106.16, 'pitch': 2.25, 'roll': 1.27}
{'lipoC2': 7.55, 'temp': 29.38, 'lipoC3S3': 12.02, 'state': 'normal', 'rot1': 220, 'rot0': 211, 'rot3': 3, 'rot2': 3, 'depth': 1.996, 'yaw': 0.36, 'datetime': '2018-11-26 11:51:55.219535', 'mgs': 0, 'flw2': 2.76, 'flw1': 0.0, 'flw0': 3.14, 'time': 22.46, 'compass': -103.84, 'pitch': 2.7, 'roll': 1.7}
{'lipoC2': 7.56, 'temp': 29.38, 'lipoC3S3': 11.85, 'state': 'normal', 'rot1': 223, 'rot0': 214, 'rot3': 3, 'rot2': 3, 'depth': 1.996, 'yaw': 2.18, 'datetime': '2018-11-26 11:51:55.428541', 'mgs': 0, 'flw2': 2.61, 'flw1': 4.54, 'flw0': 2.94, 'time': 22.67, 'compass': -102.02, 'pitch': 3.05, 'roll': 2.63}
{'lipoC2': 7.56, 'temp': 29.38, 'lipoC3S3': 12.02, 'state': 'normal', 'rot1': 225, 'rot0': 216, 'rot3': 4, 'rot2': 4, 'depth': 2.682, 'yaw': 2.68, 'datetime': '2018-11-26 11:51:55.639690', 'mgs': 0, 'flw2': 1.27, 'flw1': 3.9, 'flw0': 3.06, 'time': 22.88, 'compass': -101.52, 'pitch': 3.01, 'roll': 3.98}
{'lipoC2': 7.56, 'temp': 29.31, 'lipoC3S3': 11.94, 'state': 'normal', 'rot1': 227, 'rot0': 218, 'rot3': 4, 'rot2': 4, 'depth': 2.072, 'yaw': 1.73, 'datetime': '2018-11-26 11:51:55.851907', 'mgs': 0, 'flw2': 1.25, 'flw1': 0.0, 'flw0': 2.98, 'time': 23.09, 'compass': -102.47, 'pitch': 2.69, 'roll': 5.05}
{'lipoC2': 7.56, 'temp': 29.38, 'lipoC3S3': 12.04, 'state': 'normal', 'rot1': 229, 'rot0': 221, 'rot3': 4, 'rot2': 4, 'depth': 2.072, 'yaw': -0.19, 'datetime': '2018-11-26 11:51:56.062547', 'mgs': 0, 'flw2': 1.29, 'flw1': 0.0, 'flw0': 3.0, 'time': 23.3, 'compass': -104.39, 'pitch': 2.3, 'roll': 5.51}
{'lipoC2': 7.56, 'temp': 29.38, 'lipoC3S3': 12.02, 'state': 'normal', 'rot1': 231, 'rot0': 223, 'rot3': 4, 'rot2': 4, 'depth': 3.369, 'yaw': -2.43, 'datetime': '2018-11-26 11:51:56.274295', 'mgs': 0, 'flw2': 2.92, 'flw1': 0.0, 'flw0': 2.84, 'time': 23.51, 'compass': -106.63, 'pitch': 2.0, 'roll': 5.76}
{'lipoC2': 7.56, 'temp': 29.38, 'lipoC3S3': 11.96, 'state': 'normal', 'rot1': 233, 'rot0': 226, 'rot3': 5, 'rot2': 5, 'depth': 2.072, 'yaw': -3.94, 'datetime': '2018-11-26 11:51:56.485654', 'mgs': 0, 'flw2': 2.7, 'flw1': 4.57, 'flw0': 1.23, 'time': 23.72, 'compass': -108.14, 'pitch': 1.55, 'roll': 6.24}
{'lipoC2': 7.56, 'temp': 29.38, 'lipoC3S3': 12.02, 'state': 'normal', 'rot1': 236, 'rot0': 228, 'rot3': 6, 'rot2': 6, 'depth': 1.843, 'yaw': -4.17, 'datetime': '2018-11-26 11:51:56.695671', 'mgs': 0, 'flw2': 2.88, 'flw1': 0.0, 'flw0': 1.38, 'time': 23.93, 'compass': -108.37, 'pitch': 0.85, 'roll': 6.67}
{'lipoC2': 7.56, 'temp': 29.38, 'lipoC3S3': 12.01, 'state': 'normal', 'rot1': 238, 'rot0': 229, 'rot3': 6, 'rot2': 6, 'depth': 1.843, 'yaw': -2.94, 'datetime': '2018-11-26 11:51:56.905363', 'mgs': 0, 'flw2': 2.82, 'flw1': 0.0, 'flw0': 1.38, 'time': 24.14, 'compass': -107.14, 'pitch': 0.53, 'roll': 6.46}
{'lipoC2': 7.56, 'temp': 29.38, 'lipoC3S3': 12.04, 'state': 'normal', 'rot1': 240, 'rot0': 231, 'rot3': 6, 'rot2': 6, 'depth': 1.92, 'yaw': -0.56, 'datetime': '2018-11-26 11:51:57.112337', 'mgs': 0, 'flw2': 2.93, 'flw1': 0.0, 'flw0': 1.39, 'time': 24.35, 'compass': -104.76, 'pitch': 0.46, 'roll': 5.6}
{'lipoC2': 7.56, 'temp': 29.44, 'lipoC3S3': 12.02, 'state': 'normal', 'rot1': 243, 'rot0': 233, 'rot3': 6, 'rot2': 6, 'depth': 1.691, 'yaw': 2.34, 'datetime': '2018-11-26 11:51:57.324590', 'mgs': 0, 'flw2': 2.8, 'flw1': 0.0, 'flw0': 1.38, 'time': 24.56, 'compass': -101.86, 'pitch': 0.61, 'roll': 4.66}
{'lipoC2': 7.56, 'temp': 29.38, 'lipoC3S3': 12.02, 'state': 'normal', 'rot1': 245, 'rot0': 235, 'rot3': 6, 'rot2': 6, 'depth': 1.767, 'yaw': 5.07, 'datetime': '2018-11-26 11:51:57.534162', 'mgs': 0, 'flw2': 1.25, 'flw1': 0.0, 'flw0': 2.84, 'time': 24.77, 'compass': -99.14, 'pitch': 1.11, 'roll': 3.82}
{'lipoC2': 7.56, 'temp': 29.38, 'lipoC3S3': 12.02, 'state': 'normal', 'rot1': 247, 'rot0': 237, 'rot3': 6, 'rot2': 6, 'depth': 2.148, 'yaw': 5.69, 'datetime': '2018-11-26 11:51:57.743937', 'mgs': 0, 'flw2': 1.31, 'flw1': 0.0, 'flw0': 2.92, 'time': 24.98, 'compass': -98.51, 'pitch': 1.94, 'roll': 3.02}
{'lipoC2': 7.56, 'temp': 29.38, 'lipoC3S3': 12.02, 'state': 'normal', 'rot1': 248, 'rot0': 239, 'rot3': 6, 'rot2': 6, 'depth': 2.148, 'yaw': 4.7, 'datetime': '2018-11-26 11:51:57.951989', 'mgs': 0, 'flw2': 1.28, 'flw1': 0.0, 'flw0': 3.0, 'time': 25.19, 'compass': -99.5, 'pitch': 2.69, 'roll': 2.29}
{'lipoC2': 7.56, 'temp': 29.38, 'lipoC3S3': 11.94, 'state': 'normal', 'rot1': 250, 'rot0': 242, 'rot3': 6, 'rot2': 6, 'depth': 1.538, 'yaw': 2.36, 'datetime': '2018-11-26 11:51:58.164805', 'mgs': 0, 'flw2': 1.26, 'flw1': 0.0, 'flw0': 2.94, 'time': 25.4, 'compass': -101.84, 'pitch': 2.87, 'roll': 1.67}
{'lipoC2': 7.56, 'temp': 29.38, 'lipoC3S3': 11.92, 'state': 'normal', 'rot1': 252, 'rot0': 244, 'rot3': 6, 'rot2': 6, 'depth': 1.538, 'yaw': -0.65, 'datetime': '2018-11-26 11:51:58.372274', 'mgs': 0, 'flw2': 2.84, 'flw1': 0.0, 'flw0': 2.87, 'time': 25.61, 'compass': -104.85, 'pitch': 2.76, 'roll': 1.03}
{'lipoC2': 7.55, 'temp': 29.38, 'lipoC3S3': 12.02, 'state': 'normal', 'rot1': 254, 'rot0': 247, 'rot3': 6, 'rot2': 6, 'depth': 2.606, 'yaw': -3.11, 'datetime': '2018-11-26 11:51:58.583204', 'mgs': 0, 'flw2': 2.87, 'flw1': 0.0, 'flw0': 2.83, 'time': 25.83, 'compass': -107.31, 'pitch': 2.74, 'roll': 0.7}
{'lipoC2': 7.55, 'temp': 29.38, 'lipoC3S3': 12.04, 'state': 'normal', 'rot1': 257, 'rot0': 249, 'rot3': 6, 'rot2': 6, 'depth': 1.614, 'yaw': -4.49, 'datetime': '2018-11-26 11:51:58.793115', 'mgs': 0, 'flw2': 2.75, 'flw1': 0.0, 'flw0': 1.33, 'time': 26.03, 'compass': -108.69, 'pitch': 2.4, 'roll': 0.93}
{'lipoC2': 7.56, 'temp': 29.38, 'lipoC3S3': 12.02, 'state': 'normal', 'rot1': 259, 'rot0': 250, 'rot3': 6, 'rot2': 6, 'depth': 1.691, 'yaw': -4.28, 'datetime': '2018-11-26 11:51:59.003269', 'mgs': 0, 'flw2': 2.71, 'flw1': 0.0, 'flw0': 1.26, 'time': 26.25, 'compass': -108.48, 'pitch': 2.1, 'roll': 1.05}
{'lipoC2': 7.56, 'temp': 29.38, 'lipoC3S3': 11.97, 'state': 'normal', 'rot1': 262, 'rot0': 252, 'rot3': 6, 'rot2': 6, 'depth': 1.767, 'yaw': -3.1, 'datetime': '2018-11-26 11:51:59.215543', 'mgs': 0, 'flw2': 2.69, 'flw1': 0.0, 'flw0': 1.34, 'time': 26.46, 'compass': -107.3, 'pitch': 2.06, 'roll': 1.09}
{'lipoC2': 7.56, 'temp': 29.38, 'lipoC3S3': 12.04, 'state': 'normal', 'rot1': 264, 'rot0': 254, 'rot3': 6, 'rot2': 6, 'depth': 1.767, 'yaw': -1.27, 'datetime': '2018-11-26 11:51:59.424202', 'mgs': 0, 'flw2': 2.77, 'flw1': 0.0, 'flw0': 1.38, 'time': 26.67, 'compass': -105.47, 'pitch': 2.31, 'roll': 1.18}
{'lipoC2': 7.56, 'temp': 29.38, 'lipoC3S3': 11.9, 'state': 'normal', 'rot1': 267, 'rot0': 256, 'rot3': 6, 'rot2': 6, 'depth': 1.92, 'yaw': 0.97, 'datetime': '2018-11-26 11:51:59.634961', 'mgs': 0, 'flw2': 2.73, 'flw1': 0.0, 'flw0': 3.06, 'time': 26.88, 'compass': -103.23, 'pitch': 2.65, 'roll': 1.43}
{'lipoC2': 7.56, 'temp': 29.38, 'lipoC3S3': 12.02, 'state': 'normal', 'rot1': 269, 'rot0': 258, 'rot3': 6, 'rot2': 6, 'depth': 2.911, 'yaw': 2.63, 'datetime': '2018-11-26 11:51:59.844516', 'mgs': 0, 'flw2': 2.91, 'flw1': 0.0, 'flw0': 2.87, 'time': 27.09, 'compass': -101.57, 'pitch': 2.94, 'roll': 2.11}
{'lipoC2': 7.55, 'temp': 29.38, 'lipoC3S3': 12.02, 'state': 'normal', 'rot1': 271, 'rot0': 260, 'rot3': 6, 'rot2': 6, 'depth': 1.996, 'yaw': 3.37, 'datetime': '2018-11-26 11:52:00.052583', 'mgs': 0, 'flw2': 1.25, 'flw1': 0.0, 'flw0': 3.0, 'time': 27.3, 'compass': -100.83, 'pitch': 3.06, 'roll': 2.86}
{'lipoC2': 7.55, 'temp': 29.38, 'lipoC3S3': 12.0, 'state': 'normal', 'rot1': 273, 'rot0': 263, 'rot3': 6, 'rot2': 6, 'depth': 2.148, 'yaw': 2.66, 'datetime': '2018-11-26 11:52:00.264518', 'mgs': 0, 'flw2': 1.25, 'flw1': 0.0, 'flw0': 2.99, 'time': 27.51, 'compass': -101.54, 'pitch': 2.92, 'roll': 3.11}
{'lipoC2': 7.56, 'temp': 29.38, 'lipoC3S3': 11.97, 'state': 'normal', 'rot1': 274, 'rot0': 265, 'rot3': 6, 'rot2': 6, 'depth': 2.072, 'yaw': 0.88, 'datetime': '2018-11-26 11:52:00.471900', 'mgs': 0, 'flw2': 1.22, 'flw1': 0.0, 'flw0': 2.84, 'time': 27.72, 'compass': -103.32, 'pitch': 2.59, 'roll': 3.18}
{'lipoC2': 7.56, 'temp': 29.38, 'lipoC3S3': 12.02, 'state': 'normal', 'rot1': 277, 'rot0': 268, 'rot3': 6, 'rot2': 6, 'depth': 3.369, 'yaw': -1.25, 'datetime': '2018-11-26 11:52:00.681586', 'mgs': 0, 'flw2': 2.86, 'flw1': 0.0, 'flw0': 2.76, 'time': 27.93, 'compass': -105.45, 'pitch': 2.32, 'roll': 3.16}
{'lipoC2': 7.56, 'temp': 29.38, 'lipoC3S3': 11.96, 'state': 'normal', 'rot1': 279, 'rot0': 270, 'rot3': 6, 'rot2': 7, 'depth': 2.225, 'yaw': -2.54, 'datetime': '2018-11-26 11:52:00.894534', 'mgs': 0, 'flw2': 2.73, 'flw1': 4.22, 'flw0': 1.2, 'time': 28.14, 'compass': -106.74, 'pitch': 1.93, 'roll': 3.48}
{'lipoC2': 7.56, 'temp': 29.38, 'lipoC3S3': 11.96, 'state': 'normal', 'rot1': 282, 'rot0': 272, 'rot3': 7, 'rot2': 8, 'depth': 2.148, 'yaw': -2.67, 'datetime': '2018-11-26 11:52:01.102473', 'mgs': 0, 'flw2': 2.67, 'flw1': 0.0, 'flw0': 1.29, 'time': 28.35, 'compass': -106.87, 'pitch': 1.54, 'roll': 4.24}
{'lipoC2': 7.56, 'temp': 29.38, 'lipoC3S3': 11.93, 'state': 'normal', 'rot1': 284, 'rot0': 273, 'rot3': 7, 'rot2': 8, 'depth': 2.072, 'yaw': -1.32, 'datetime': '2018-11-26 11:52:01.313557', 'mgs': 0, 'flw2': 2.69, 'flw1': 0.0, 'flw0': 1.34, 'time': 28.56, 'compass': -105.52, 'pitch': 1.56, 'roll': 4.69}
{'lipoC2': 7.55, 'temp': 29.38, 'lipoC3S3': 11.85, 'state': 'normal', 'rot1': 287, 'rot0': 275, 'rot3': 7, 'rot2': 8, 'depth': 2.072, 'yaw': 0.98, 'datetime': '2018-11-26 11:52:01.523885', 'mgs': 0, 'flw2': 2.72, 'flw1': 0.0, 'flw0': 3.05, 'time': 28.77, 'compass': -103.22, 'pitch': 1.98, 'roll': 4.78}
{'lipoC2': 7.56, 'temp': 29.38, 'lipoC3S3': 12.02, 'state': 'normal', 'rot1': 289, 'rot0': 277, 'rot3': 7, 'rot2': 8, 'depth': 3.369, 'yaw': 2.99, 'datetime': '2018-11-26 11:52:01.731841', 'mgs': 0, 'flw2': 2.95, 'flw1': 0.0, 'flw0': 2.89, 'time': 28.98, 'compass': -101.21, 'pitch': 2.54, 'roll': 5.2}
{'lipoC2': 7.56, 'temp': 29.38, 'lipoC3S3': 12.02, 'state': 'normal', 'rot1': 291, 'rot0': 280, 'rot3': 7, 'rot2': 8, 'depth': 1.996, 'yaw': 4.04, 'datetime': '2018-11-26 11:52:01.941647', 'mgs': 0, 'flw2': 1.28, 'flw1': 0.0, 'flw0': 2.94, 'time': 29.19, 'compass': -100.16, 'pitch': 3.04, 'roll': 5.51}
{'lipoC2': 7.56, 'temp': 29.38, 'lipoC3S3': 12.02, 'state': 'normal', 'rot1': 293, 'rot0': 282, 'rot3': 7, 'rot2': 8, 'depth': 1.843, 'yaw': 3.48, 'datetime': '2018-11-26 11:52:02.151143', 'mgs': 0, 'flw2': 1.29, 'flw1': 0.0, 'flw0': 3.0, 'time': 29.4, 'compass': -100.72, 'pitch': 3.26, 'roll': 4.93}
{'lipoC2': 7.55, 'temp': 29.38, 'lipoC3S3': 11.93, 'state': 'normal', 'rot1': 295, 'rot0': 284, 'rot3': 7, 'rot2': 8, 'depth': 1.767, 'yaw': 1.72, 'datetime': '2018-11-26 11:52:02.361263', 'mgs': 0, 'flw2': 1.23, 'flw1': 0.0, 'flw0': 2.99, 'time': 29.61, 'compass': -102.48, 'pitch': 3.18, 'roll': 4.17}
{'lipoC2': 7.56, 'temp': 29.38, 'lipoC3S3': 12.02, 'state': 'normal', 'rot1': 297, 'rot0': 287, 'rot3': 7, 'rot2': 8, 'depth': 1.767, 'yaw': -0.72, 'datetime': '2018-11-26 11:52:02.572337', 'mgs': 0, 'flw2': 1.28, 'flw1': 0.0, 'flw0': 3.06, 'time': 29.82, 'compass': -104.92, 'pitch': 2.77, 'roll': 3.31}
{'lipoC2': 7.56, 'temp': 29.38, 'lipoC3S3': 12.01, 'state': 'normal', 'rot1': 299, 'rot0': 289, 'rot3': 7, 'rot2': 8, 'depth': 1.614, 'yaw': -3.4, 'datetime': '2018-11-26 11:52:02.784707', 'mgs': 0, 'flw2': 2.8, 'flw1': 0.0, 'flw0': 1.17, 'time': 30.03, 'compass': -107.6, 'pitch': 2.32, 'roll': 2.24}
{'lipoC2': 7.55, 'temp': 29.38, 'lipoC3S3': 12.04, 'state': 'normal', 'rot1': 301, 'rot0': 291, 'rot3': 7, 'rot2': 8, 'depth': 1.614, 'yaw': -4.59, 'datetime': '2018-11-26 11:52:02.987041', 'mgs': 0, 'flw2': 2.71, 'flw1': 0.0, 'flw0': 1.29, 'time': 30.24, 'compass': -108.79, 'pitch': 2.0, 'roll': 1.37}
{'lipoC2': 7.56, 'temp': 29.38, 'lipoC3S3': 12.01, 'state': 'normal', 'rot1': 304, 'rot0': 293, 'rot3': 7, 'rot2': 8, 'depth': 1.691, 'yaw': -4.19, 'datetime': '2018-11-26 11:52:03.196818', 'mgs': 0, 'flw2': 2.67, 'flw1': 0.0, 'flw0': 1.28, 'time': 30.45, 'compass': -108.39, 'pitch': 1.87, 'roll': 0.8}
{'lipoC2': 7.55, 'temp': 29.38, 'lipoC3S3': 12.02, 'state': 'normal', 'rot1': 306, 'rot0': 294, 'rot3': 7, 'rot2': 8, 'depth': 1.691, 'yaw': -2.73, 'datetime': '2018-11-26 11:52:03.406357', 'mgs': 0, 'flw2': 2.75, 'flw1': 0.0, 'flw0': 1.35, 'time': 30.66, 'compass': -106.93, 'pitch': 1.93, 'roll': 0.35}
{'lipoC2': 7.56, 'temp': 29.38, 'lipoC3S3': 12.01, 'state': 'normal', 'rot1': 309, 'rot0': 296, 'rot3': 7, 'rot2': 8, 'depth': 1.691, 'yaw': -0.6, 'datetime': '2018-11-26 11:52:03.631678', 'mgs': 0, 'flw2': 2.67, 'flw1': 0.0, 'flw0': 1.33, 'time': 30.87, 'compass': -104.8, 'pitch': 2.27, 'roll': 0.14}
{'lipoC2': 7.55, 'temp': 29.38, 'lipoC3S3': 12.01, 'state': 'normal', 'rot1': 313, 'rot0': 299, 'rot3': 7, 'rot2': 8, 'depth': 1.691, 'yaw': 1.86, 'datetime': '2018-11-26 11:52:03.933698', 'mgs': 0, 'flw2': 2.8, 'flw1': 0.0, 'flw0': 3.15, 'time': 31.19, 'compass': -102.34, 'pitch': 2.94, 'roll': 0.99}
{'lipoC2': 7.55, 'temp': 29.38, 'lipoC3S3': 11.94, 'state': 'normal', 'rot1': 314, 'rot0': 302, 'rot3': 7, 'rot2': 8, 'depth': 1.691, 'yaw': 1.95, 'datetime': '2018-11-26 11:52:04.142219', 'mgs': 0, 'flw2': 1.21, 'flw1': 0.0, 'flw0': 2.98, 'time': 31.4, 'compass': -102.26, 'pitch': 3.14, 'roll': 2.21}
{'lipoC2': 7.55, 'temp': 29.31, 'lipoC3S3': 12.02, 'state': 'normal', 'rot1': 316, 'rot0': 304, 'rot3': 7, 'rot2': 8, 'depth': 2.377, 'yaw': 0.42, 'datetime': '2018-11-26 11:52:04.354050', 'mgs': 0, 'flw2': 1.28, 'flw1': 0.0, 'flw0': 2.91, 'time': 31.6, 'compass': -103.79, 'pitch': 3.05, 'roll': 2.79}
{'lipoC2': 7.56, 'temp': 29.31, 'lipoC3S3': 12.02, 'state': 'normal', 'rot1': 318, 'rot0': 306, 'rot3': 7, 'rot2': 8, 'depth': 1.843, 'yaw': -2.15, 'datetime': '2018-11-26 11:52:04.565295', 'mgs': 0, 'flw2': 1.26, 'flw1': 0.0, 'flw0': 3.02, 'time': 31.82, 'compass': -106.35, 'pitch': 2.73, 'roll': 3.01}
{'lipoC2': 7.56, 'temp': 29.44, 'lipoC3S3': 12.02, 'state': 'normal', 'rot1': 320, 'rot0': 308, 'rot3': 7, 'rot2': 8, 'depth': 1.92, 'yaw': -4.55, 'datetime': '2018-11-26 11:52:04.773891', 'mgs': 0, 'flw2': 2.82, 'flw1': 0.0, 'flw0': 1.29, 'time': 32.03, 'compass': -108.76, 'pitch': 2.28, 'roll': 2.95}
{'lipoC2': 7.56, 'temp': 29.38, 'lipoC3S3': 11.97, 'state': 'normal', 'rot1': 323, 'rot0': 310, 'rot3': 7, 'rot2': 8, 'depth': 1.92, 'yaw': -4.89, 'datetime': '2018-11-26 11:52:04.985584', 'mgs': 0, 'flw2': 2.61, 'flw1': 0.0, 'flw0': 1.27, 'time': 32.24, 'compass': -109.09, 'pitch': 1.99, 'roll': 2.68}
{'lipoC2': 7.56, 'temp': 29.38, 'lipoC3S3': 12.02, 'state': 'normal', 'rot1': 325, 'rot0': 312, 'rot3': 7, 'rot2': 8, 'depth': 1.92, 'yaw': -3.93, 'datetime': '2018-11-26 11:52:05.194540', 'mgs': 0, 'flw2': 2.76, 'flw1': 0.0, 'flw0': 1.35, 'time': 32.45, 'compass': -108.14, 'pitch': 1.82, 'roll': 2.25}
{'lipoC2': 7.56, 'temp': 29.44, 'lipoC3S3': 12.01, 'state': 'normal', 'rot1': 328, 'rot0': 314, 'rot3': 7, 'rot2': 8, 'depth': 2.148, 'yaw': -2.18, 'datetime': '2018-11-26 11:52:05.403507', 'mgs': 0, 'flw2': 2.71, 'flw1': 0.0, 'flw0': 1.31, 'time': 32.66, 'compass': -106.38, 'pitch': 1.96, 'roll': 1.83}
{'lipoC2': 7.56, 'temp': 29.38, 'lipoC3S3': 12.01, 'state': 'normal', 'rot1': 330, 'rot0': 315, 'rot3': 7, 'rot2': 8, 'depth': 1.92, 'yaw': 0.14, 'datetime': '2018-11-26 11:52:05.612707', 'mgs': 0, 'flw2': 2.67, 'flw1': 0.0, 'flw0': 1.32, 'time': 32.87, 'compass': -104.06, 'pitch': 2.25, 'roll': 1.53}
{'lipoC2': 7.56, 'temp': 29.38, 'lipoC3S3': 12.02, 'state': 'normal', 'rot1': 333, 'rot0': 317, 'rot3': 7, 'rot2': 8, 'depth': 1.996, 'yaw': 2.74, 'datetime': '2018-11-26 11:52:05.823148', 'mgs': 0, 'flw2': 2.77, 'flw1': 0.0, 'flw0': 1.42, 'time': 33.08, 'compass': -101.46, 'pitch': 2.57, 'roll': 1.46}
{'lipoC2': 7.56, 'temp': 29.38, 'lipoC3S3': 12.01, 'state': 'normal', 'rot1': 335, 'rot0': 319, 'rot3': 7, 'rot2': 8, 'depth': 1.996, 'yaw': 4.86, 'datetime': '2018-11-26 11:52:06.034169', 'mgs': 0, 'flw2': 1.22, 'flw1': 0.0, 'flw0': 2.89, 'time': 33.29, 'compass': -99.34, 'pitch': 2.77, 'roll': 1.55}
{'lipoC2': 7.56, 'temp': 29.44, 'lipoC3S3': 11.94, 'state': 'normal', 'rot1': 337, 'rot0': 321, 'rot3': 7, 'rot2': 8, 'depth': 1.996, 'yaw': 4.92, 'datetime': '2018-11-26 11:52:06.265899', 'mgs': 0, 'flw2': 1.18, 'flw1': 0.0, 'flw0': 2.93, 'time': 33.5, 'compass': -99.28, 'pitch': 2.76, 'roll': 1.71}
{'lipoC2': 7.56, 'temp': 29.38, 'lipoC3S3': 11.94, 'state': 'normal', 'rot1': 339, 'rot0': 325, 'rot3': 7, 'rot2': 8, 'depth': 2.072, 'yaw': 2.9, 'datetime': '2018-11-26 11:52:06.556623', 'mgs': 0, 'flw2': 1.27, 'flw1': 0.0, 'flw0': 2.92, 'time': 33.81, 'compass': -101.3, 'pitch': 2.4, 'roll': 1.92}
{'lipoC2': 7.56, 'temp': 29.38, 'lipoC3S3': 12.02, 'state': 'normal', 'rot1': 341, 'rot0': 328, 'rot3': 7, 'rot2': 8, 'depth': 1.996, 'yaw': 0.63, 'datetime': '2018-11-26 11:52:06.767741', 'mgs': 0, 'flw2': 1.27, 'flw1': 0.0, 'flw0': 2.95, 'time': 34.03, 'compass': -103.57, 'pitch': 1.95, 'roll': 2.03}
{'lipoC2': 7.55, 'temp': 29.38, 'lipoC3S3': 12.01, 'state': 'normal', 'rot1': 343, 'rot0': 330, 'rot3': 7, 'rot2': 8, 'depth': 2.988, 'yaw': -1.72, 'datetime': '2018-11-26 11:52:06.977719', 'mgs': 0, 'flw2': 2.94, 'flw1': 0.0, 'flw0': 2.81, 'time': 34.24, 'compass': -105.92, 'pitch': 1.53, 'roll': 2.3}
{'lipoC2': 7.56, 'temp': 29.38, 'lipoC3S3': 11.9, 'state': 'normal', 'rot1': 346, 'rot0': 332, 'rot3': 7, 'rot2': 9, 'depth': 2.072, 'yaw': -3.2, 'datetime': '2018-11-26 11:52:07.194266', 'mgs': 0, 'flw2': 2.67, 'flw1': 3.87, 'flw0': 1.23, 'time': 34.45, 'compass': -107.4, 'pitch': 1.27, 'roll': 3.33}
{'lipoC2': 7.55, 'temp': 29.38, 'lipoC3S3': 12.01, 'state': 'normal', 'rot1': 348, 'rot0': 334, 'rot3': 8, 'rot2': 10, 'depth': 2.148, 'yaw': -3.63, 'datetime': '2018-11-26 11:52:07.402113', 'mgs': 0, 'flw2': 2.78, 'flw1': 0.0, 'flw0': 1.38, 'time': 34.65, 'compass': -107.83, 'pitch': 1.16, 'roll': 4.6}
{'lipoC2': 7.55, 'temp': 29.44, 'lipoC3S3': 12.01, 'state': 'normal', 'rot1': 351, 'rot0': 336, 'rot3': 8, 'rot2': 10, 'depth': 2.072, 'yaw': -2.94, 'datetime': '2018-11-26 11:52:07.612617', 'mgs': 0, 'flw2': 2.81, 'flw1': 0.0, 'flw0': 1.38, 'time': 34.87, 'compass': -107.14, 'pitch': 1.53, 'roll': 5.28}
{'lipoC2': 7.56, 'temp': 29.44, 'lipoC3S3': 12.02, 'state': 'normal', 'rot1': 353, 'rot0': 338, 'rot3': 8, 'rot2': 10, 'depth': 2.072, 'yaw': -1.52, 'datetime': '2018-11-26 11:52:07.824140', 'mgs': 0, 'flw2': 2.78, 'flw1': 0.0, 'flw0': 1.44, 'time': 35.08, 'compass': -105.73, 'pitch': 2.05, 'roll': 5.37}
{'lipoC2': 7.56, 'temp': 29.38, 'lipoC3S3': 12.02, 'state': 'normal', 'rot1': 355, 'rot0': 339, 'rot3': 8, 'rot2': 10, 'depth': 2.759, 'yaw': 0.43, 'datetime': '2018-11-26 11:52:08.036604', 'mgs': 0, 'flw2': 2.83, 'flw1': 0.0, 'flw0': 1.29, 'time': 35.29, 'compass': -103.78, 'pitch': 2.54, 'roll': 5.12}
{'lipoC2': 7.56, 'temp': 29.44, 'lipoC3S3': 12.01, 'state': 'normal', 'rot1': 358, 'rot0': 342, 'rot3': 8, 'rot2': 10, 'depth': 2.759, 'yaw': 2.48, 'datetime': '2018-11-26 11:52:08.243442', 'mgs': 0, 'flw2': 2.83, 'flw1': 0.0, 'flw0': 2.95, 'time': 35.5, 'compass': -101.72, 'pitch': 2.87, 'roll': 4.63}
{'lipoC2': 7.56, 'temp': 29.38, 'lipoC3S3': 12.01, 'state': 'normal', 'rot1': 360, 'rot0': 344, 'rot3': 9, 'rot2': 10, 'depth': 2.225, 'yaw': 3.53, 'datetime': '2018-11-26 11:52:08.453529', 'mgs': 0, 'flw2': 1.26, 'flw1': 3.57, 'flw0': 2.99, 'time': 35.71, 'compass': -100.67, 'pitch': 2.79, 'roll': 4.56}
{'lipoC2': 7.56, 'temp': 29.38, 'lipoC3S3': 11.94, 'state': 'normal', 'rot1': 362, 'rot0': 346, 'rot3': 10, 'rot2': 11, 'depth': 1.767, 'yaw': 3.25, 'datetime': '2018-11-26 11:52:08.664857', 'mgs': 0, 'flw2': 1.25, 'flw1': 0.0, 'flw0': 2.94, 'time': 35.92, 'compass': -100.96, 'pitch': 2.21, 'roll': 4.88}
{'lipoC2': 7.56, 'temp': 29.44, 'lipoC3S3': 12.02, 'state': 'normal', 'rot1': 364, 'rot0': 349, 'rot3': 10, 'rot2': 11, 'depth': 1.767, 'yaw': 1.56, 'datetime': '2018-11-26 11:52:08.875986', 'mgs': 0, 'flw2': 1.28, 'flw1': 0.0, 'flw0': 3.06, 'time': 36.13, 'compass': -102.64, 'pitch': 1.74, 'roll': 4.91}
{'lipoC2': 7.56, 'temp': 29.44, 'lipoC3S3': 12.0, 'state': 'normal', 'rot1': 365, 'rot0': 351, 'rot3': 10, 'rot2': 11, 'depth': 1.767, 'yaw': -0.79, 'datetime': '2018-11-26 11:52:09.087909', 'mgs': 0, 'flw2': 2.84, 'flw1': 0.0, 'flw0': 2.83, 'time': 36.34, 'compass': -104.99, 'pitch': 1.46, 'roll': 4.56}
{'lipoC2': 7.56, 'temp': 29.44, 'lipoC3S3': 12.01, 'state': 'normal', 'rot1': 368, 'rot0': 354, 'rot3': 10, 'rot2': 11, 'depth': 1.767, 'yaw': -2.61, 'datetime': '2018-11-26 11:52:09.297246', 'mgs': 0, 'flw2': 2.77, 'flw1': 0.0, 'flw0': 2.91, 'time': 36.55, 'compass': -106.81, 'pitch': 1.3, 'roll': 4.41}
{'lipoC2': 7.55, 'temp': 29.38, 'lipoC3S3': 12.01, 'state': 'normal', 'rot1': 370, 'rot0': 356, 'rot3': 10, 'rot2': 11, 'depth': 1.614, 'yaw': -3.66, 'datetime': '2018-11-26 11:52:09.505718', 'mgs': 0, 'flw2': 2.78, 'flw1': 0.0, 'flw0': 1.38, 'time': 36.76, 'compass': -107.86, 'pitch': 1.15, 'roll': 4.0}
{'lipoC2': 7.56, 'temp': 29.38, 'lipoC3S3': 12.02, 'state': 'normal', 'rot1': 373, 'rot0': 357, 'rot3': 10, 'rot2': 11, 'depth': 1.538, 'yaw': -3.17, 'datetime': '2018-11-26 11:52:09.717831', 'mgs': 0, 'flw2': 2.65, 'flw1': 0.0, 'flw0': 1.32, 'time': 36.97, 'compass': -107.37, 'pitch': 1.2, 'roll': 3.08}
{'lipoC2': 7.55, 'temp': 29.38, 'lipoC3S3': 12.02, 'state': 'normal', 'rot1': 375, 'rot0': 359, 'rot3': 10, 'rot2': 11, 'depth': 1.538, 'yaw': -1.74, 'datetime': '2018-11-26 11:52:09.927425', 'mgs': 0, 'flw2': 2.8, 'flw1': 0.0, 'flw0': 1.37, 'time': 37.19, 'compass': -105.94, 'pitch': 1.7, 'roll': 2.25}
{'lipoC2': 7.56, 'temp': 29.38, 'lipoC3S3': 12.02, 'state': 'normal', 'rot1': 378, 'rot0': 361, 'rot3': 10, 'rot2': 11, 'depth': 2.377, 'yaw': 0.33, 'datetime': '2018-11-26 11:52:10.140400', 'mgs': 0, 'flw2': 2.82, 'flw1': 0.0, 'flw0': 1.28, 'time': 37.4, 'compass': -103.87, 'pitch': 2.55, 'roll': 1.7}
{'lipoC2': 7.56, 'temp': 29.44, 'lipoC3S3': 12.0, 'state': 'normal', 'rot1': 380, 'rot0': 363, 'rot3': 10, 'rot2': 11, 'depth': 1.462, 'yaw': 2.63, 'datetime': '2018-11-26 11:52:10.353452', 'mgs': 0, 'flw2': 1.1, 'flw1': 0.0, 'flw0': 3.08, 'time': 37.61, 'compass': -101.57, 'pitch': 3.44, 'roll': 1.37}
{'lipoC2': 7.56, 'temp': 29.38, 'lipoC3S3': 12.01, 'state': 'normal', 'rot1': 382, 'rot0': 365, 'rot3': 10, 'rot2': 11, 'depth': 2.301, 'yaw': 3.38, 'datetime': '2018-11-26 11:52:10.560340', 'mgs': 0, 'flw2': 1.27, 'flw1': 0.0, 'flw0': 2.91, 'time': 37.82, 'compass': -100.82, 'pitch': 3.96, 'roll': 1.1}
{'lipoC2': 7.56, 'temp': 29.38, 'lipoC3S3': 12.02, 'state': 'normal', 'rot1': 384, 'rot0': 368, 'rot3': 10, 'rot2': 11, 'depth': 1.538, 'yaw': 2.43, 'datetime': '2018-11-26 11:52:10.772059', 'mgs': 0, 'flw2': 1.26, 'flw1': 0.0, 'flw0': 3.04, 'time': 38.03, 'compass': -101.77, 'pitch': 4.05, 'roll': 0.74}
{'lipoC2': 7.56, 'temp': 29.38, 'lipoC3S3': 12.01, 'state': 'normal', 'rot1': 386, 'rot0': 370, 'rot3': 10, 'rot2': 11, 'depth': 2.225, 'yaw': 0.53, 'datetime': '2018-11-26 11:52:10.988835', 'mgs': 0, 'flw2': 1.33, 'flw1': 0.0, 'flw0': 2.92, 'time': 38.24, 'compass': -103.67, 'pitch': 3.86, 'roll': 0.61}
{'lipoC2': 7.55, 'temp': 29.38, 'lipoC3S3': 12.01, 'state': 'normal', 'rot1': 387, 'rot0': 373, 'rot3': 10, 'rot2': 11, 'depth': 1.691, 'yaw': -2.1, 'datetime': '2018-11-26 11:52:11.195270', 'mgs': 0, 'flw2': 1.27, 'flw1': 0.0, 'flw0': 2.99, 'time': 38.45, 'compass': -106.3, 'pitch': 3.35, 'roll': 0.86}
{'lipoC2': 7.56, 'temp': 29.38, 'lipoC3S3': 11.94, 'state': 'normal', 'rot1': 389, 'rot0': 374, 'rot3': 10, 'rot2': 11, 'depth': 1.843, 'yaw': -4.66, 'datetime': '2018-11-26 11:52:11.404635', 'mgs': 0, 'flw2': 2.7, 'flw1': 0.0, 'flw0': 1.27, 'time': 38.66, 'compass': -108.86, 'pitch': 2.7, 'roll': 1.28}
{'lipoC2': 7.55, 'temp': 29.44, 'lipoC3S3': 12.02, 'state': 'normal', 'rot1': 392, 'rot0': 376, 'rot3': 10, 'rot2': 11, 'depth': 1.996, 'yaw': -5.16, 'datetime': '2018-11-26 11:52:11.619994', 'mgs': 0, 'flw2': 2.76, 'flw1': 0.0, 'flw0': 1.32, 'time': 38.88, 'compass': -109.36, 'pitch': 2.26, 'roll': 1.68}
{'lipoC2': 7.56, 'temp': 29.44, 'lipoC3S3': 12.02, 'state': 'normal', 'rot1': 394, 'rot0': 378, 'rot3': 10, 'rot2': 11, 'depth': 2.072, 'yaw': -4.18, 'datetime': '2018-11-26 11:52:11.828920', 'mgs': 0, 'flw2': 2.7, 'flw1': 0.0, 'flw0': 1.34, 'time': 39.09, 'compass': -108.38, 'pitch': 2.02, 'roll': 1.82}
{'lipoC2': 7.56, 'temp': 29.38, 'lipoC3S3': 12.02, 'state': 'normal', 'rot1': 397, 'rot0': 380, 'rot3': 10, 'rot2': 11, 'depth': 2.606, 'yaw': -2.33, 'datetime': '2018-11-26 11:52:12.037316', 'mgs': 0, 'flw2': 2.8, 'flw1': 0.0, 'flw0': 1.31, 'time': 39.3, 'compass': -106.54, 'pitch': 1.91, 'roll': 1.9}
{'lipoC2': 7.55, 'temp': 29.38, 'lipoC3S3': 12.02, 'state': 'normal', 'rot1': 399, 'rot0': 381, 'rot3': 10, 'rot2': 11, 'depth': 2.072, 'yaw': 0.04, 'datetime': '2018-11-26 11:52:12.251240', 'mgs': 0, 'flw2': 2.78, 'flw1': 0.0, 'flw0': 1.37, 'time': 39.51, 'compass': -104.16, 'pitch': 1.97, 'roll': 2.15}
{'lipoC2': 7.55, 'temp': 29.38, 'lipoC3S3': 11.9, 'state': 'normal', 'rot1': 402, 'rot0': 383, 'rot3': 10, 'rot2': 11, 'depth': 2.148, 'yaw': 2.68, 'datetime': '2018-11-26 11:52:12.459646', 'mgs': 0, 'flw2': 2.66, 'flw1': 0.0, 'flw0': 1.34, 'time': 39.72, 'compass': -101.53, 'pitch': 2.17, 'roll': 2.44}
{'lipoC2': 7.56, 'temp': 29.38, 'lipoC3S3': 12.01, 'state': 'normal', 'rot1': 404, 'rot0': 385, 'rot3': 10, 'rot2': 11, 'depth': 2.835, 'yaw': 5.04, 'datetime': '2018-11-26 11:52:12.671269', 'mgs': 0, 'flw2': 1.29, 'flw1': 0.0, 'flw0': 2.88, 'time': 39.93, 'compass': -99.17, 'pitch': 2.42, 'roll': 2.53}
{'lipoC2': 7.55, 'temp': 29.44, 'lipoC3S3': 12.01, 'state': 'normal', 'rot1': 406, 'rot0': 388, 'rot3': 10, 'rot2': 12, 'depth': 2.225, 'yaw': 5.41, 'datetime': '2018-11-26 11:52:12.882749', 'mgs': 0, 'flw2': 1.26, 'flw1': 3.72, 'flw0': 2.98, 'time': 40.14, 'compass': -98.79, 'pitch': 2.5, 'roll': 2.61}
{'lipoC2': 7.55, 'temp': 29.38, 'lipoC3S3': 12.0, 'state': 'normal', 'rot1': 407, 'rot0': 390, 'rot3': 11, 'rot2': 13, 'depth': 3.14, 'yaw': 4.64, 'datetime': '2018-11-26 11:52:13.093188', 'mgs': 0, 'flw2': 1.33, 'flw1': 3.34, 'flw0': 2.84, 'time': 40.35, 'compass': -99.56, 'pitch': 2.32, 'roll': 3.23}
{'lipoC2': 7.55, 'temp': 29.31, 'lipoC3S3': 12.01, 'state': 'normal', 'rot1': 409, 'rot0': 393, 'rot3': 12, 'rot2': 14, 'depth': 2.148, 'yaw': 3.15, 'datetime': '2018-11-26 11:52:13.304949', 'mgs': 0, 'flw2': 1.25, 'flw1': 3.49, 'flw0': 2.98, 'time': 40.56, 'compass': -101.05, 'pitch': 1.77, 'roll': 4.28}
{'lipoC2': 7.56, 'temp': 29.44, 'lipoC3S3': 12.0, 'state': 'normal', 'rot1': 411, 'rot0': 395, 'rot3': 12, 'rot2': 15, 'depth': 2.148, 'yaw': 0.97, 'datetime': '2018-11-26 11:52:13.514054', 'mgs': 0, 'flw2': 1.31, 'flw1': 0.0, 'flw0': 2.91, 'time': 40.77, 'compass': -103.23, 'pitch': 1.34, 'roll': 5.39}
{'lipoC2': 7.56, 'temp': 29.44, 'lipoC3S3': 12.0, 'state': 'normal', 'rot1': 413, 'rot0': 397, 'rot3': 12, 'rot2': 15, 'depth': 2.148, 'yaw': -1.66, 'datetime': '2018-11-26 11:52:13.727854', 'mgs': 0, 'flw2': 1.34, 'flw1': 0.0, 'flw0': 2.89, 'time': 40.99, 'compass': -105.87, 'pitch': 1.41, 'roll': 5.92}
{'lipoC2': 7.55, 'temp': 29.44, 'lipoC3S3': 11.97, 'state': 'normal', 'rot1': 415, 'rot0': 399, 'rot3': 12, 'rot2': 15, 'depth': 1.996, 'yaw': -4.09, 'datetime': '2018-11-26 11:52:13.937616', 'mgs': 0, 'flw2': 2.81, 'flw1': 0.0, 'flw0': 1.34, 'time': 41.2, 'compass': -108.29, 'pitch': 1.67, 'roll': 5.87}
{'lipoC2': 7.55, 'temp': 29.38, 'lipoC3S3': 12.01, 'state': 'normal', 'rot1': 417, 'rot0': 401, 'rot3': 12, 'rot2': 15, 'depth': 1.614, 'yaw': -4.66, 'datetime': '2018-11-26 11:52:14.150108', 'mgs': 0, 'flw2': 2.89, 'flw1': 0.0, 'flw0': 1.38, 'time': 41.41, 'compass': -108.86, 'pitch': 1.96, 'roll': 5.17}
{'lipoC2': 7.55, 'temp': 29.44, 'lipoC3S3': 12.01, 'state': 'normal', 'rot1': 418, 'rot0': 401, 'rot3': 13, 'rot2': 15, 'depth': 2.301, 'yaw': -4.41, 'datetime': '2018-11-26 11:52:14.360189', 'mgs': 0, 'flw2': 0.0, 'flw1': 5.74, 'flw0': 0.0, 'time': 41.62, 'compass': -108.61, 'pitch': 2.16, 'roll': 3.58}
{'lipoC2': 7.55, 'temp': 29.38, 'lipoC3S3': 12.01, 'state': 'normal', 'rot1': 418, 'rot0': 401, 'rot3': 14, 'rot2': 17, 'depth': 1.767, 'yaw': -4.78, 'datetime': '2018-11-26 11:52:14.569466', 'mgs': 0, 'flw2': 0.0, 'flw1': 5.33, 'flw0': 0.0, 'time': 41.83, 'compass': -108.98, 'pitch': 2.02, 'roll': 1.12}
{'lipoC2': 7.56, 'temp': 29.38, 'lipoC3S3': 12.01, 'state': 'normal', 'rot1': 418, 'rot0': 401, 'rot3': 15, 'rot2': 18, 'depth': 1.996, 'yaw': -5.41, 'datetime': '2018-11-26 11:52:14.778844', 'mgs': 0, 'flw2': 0.0, 'flw1': 5.21, 'flw0': 0.0, 'time': 42.04, 'compass': -109.61, 'pitch': 1.71, 'roll': -0.9}
{'lipoC2': 7.56, 'temp': 29.38, 'lipoC3S3': 12.02, 'state': 'normal', 'rot1': 418, 'rot0': 401, 'rot3': 16, 'rot2': 19, 'depth': 1.92, 'yaw': -6.04, 'datetime': '2018-11-26 11:52:14.989631', 'mgs': 0, 'flw2': 0.0, 'flw1': 5.39, 'flw0': 0.0, 'time': 42.25, 'compass': -110.24, 'pitch': 1.41, 'roll': -2.42}
{'lipoC2': 7.55, 'temp': 29.38, 'lipoC3S3': 12.0, 'state': 'normal', 'rot1': 418, 'rot0': 401, 'rot3': 17, 'rot2': 21, 'depth': 1.309, 'yaw': -6.69, 'datetime': '2018-11-26 11:52:15.200736', 'mgs': 0, 'flw2': 0.0, 'flw1': 5.07, 'flw0': 0.0, 'time': 42.46, 'compass': -110.9, 'pitch': 0.91, 'roll': -3.5}
{'lipoC2': 7.55, 'temp': 29.44, 'lipoC3S3': 11.98, 'state': 'normal', 'rot1': 418, 'rot0': 401, 'rot3': 18, 'rot2': 22, 'depth': 1.157, 'yaw': -7.18, 'datetime': '2018-11-26 11:52:15.411794', 'mgs': 0, 'flw2': 0.0, 'flw1': 5.01, 'flw0': 0.0, 'time': 42.67, 'compass': -111.38, 'pitch': 0.32, 'roll': -3.97}
