{'lipoC2': 7.59, 'temp': 33.56, 'lipoC3S3': 12.06, 'state': 'normal', 'rot1': 17, 'rot0': 17, 'rot3': 0, 'rot2': 0, 'depth': 0.241, 'yaw': 0.0, 'datetime': '2018-12-10 15:22:53.113637', 'mgs': 0, 'flw2': 1.26, 'flw1': 0.0, 'flw0': 1.17, 'time': 1.26, 'compass': -56.2, 'pitch': -3.16, 'roll': 0.87}
{'lipoC2': 7.59, 'temp': 33.56, 'lipoC3S3': 11.96, 'state': 'normal', 'rot1': 21, 'rot0': 21, 'rot3': 0, 'rot2': 0, 'depth': -0.217, 'yaw': 0.0, 'datetime': '2018-12-10 15:22:53.324153', 'mgs': 0, 'flw2': 1.17, 'flw1': 0.0, 'flw0': 1.14, 'time': 1.47, 'compass': -56.2, 'pitch': -3.16, 'roll': 0.87}
{'lipoC2': 7.59, 'temp': 33.56, 'lipoC3S3': 12.0, 'state': 'normal', 'rot1': 25, 'rot0': 24, 'rot3': 0, 'rot2': 0, 'depth': -0.217, 'yaw': 0.0, 'datetime': '2018-12-10 15:22:53.535003', 'mgs': 0, 'flw2': 1.15, 'flw1': 0.0, 'flw0': 1.17, 'time': 1.68, 'compass': -56.2, 'pitch': -3.16, 'roll': 0.87}
{'lipoC2': 7.59, 'temp': 33.56, 'lipoC3S3': 11.98, 'state': 'normal', 'rot1': 29, 'rot0': 28, 'rot3': 0, 'rot2': 0, 'depth': -0.217, 'yaw': 0.0, 'datetime': '2018-12-10 15:22:53.744183', 'mgs': 0, 'flw2': 1.18, 'flw1': 0.0, 'flw0': 1.18, 'time': 1.89, 'compass': -56.2, 'pitch': -3.16, 'roll': 0.87}
{'lipoC2': 7.59, 'temp': 33.5, 'lipoC3S3': 11.94, 'state': 'normal', 'rot1': 33, 'rot0': 32, 'rot3': 0, 'rot2': 0, 'depth': -0.14, 'yaw': 0.0, 'datetime': '2018-12-10 15:22:53.955201', 'mgs': 0, 'flw2': 1.21, 'flw1': 0.0, 'flw0': 1.26, 'time': 2.1, 'compass': -56.2, 'pitch': -3.16, 'roll': 0.87}
{'lipoC2': 7.59, 'temp': 33.5, 'lipoC3S3': 12.05, 'state': 'normal', 'rot1': 36, 'rot0': 35, 'rot3': 0, 'rot2': 0, 'depth': -0.14, 'yaw': 0.0, 'datetime': '2018-12-10 15:22:54.164974', 'mgs': 0, 'flw2': 1.12, 'flw1': 0.0, 'flw0': 1.25, 'time': 2.31, 'compass': -56.2, 'pitch': -3.16, 'roll': 0.87}
{'lipoC2': 7.59, 'temp': 33.56, 'lipoC3S3': 12.08, 'state': 'normal', 'rot1': 40, 'rot0': 39, 'rot3': 0, 'rot2': 0, 'depth': -0.217, 'yaw': 0.0, 'datetime': '2018-12-10 15:22:54.373870', 'mgs': 0, 'flw2': 1.17, 'flw1': 0.0, 'flw0': 1.22, 'time': 2.52, 'compass': -56.2, 'pitch': -3.16, 'roll': 0.87}
{'lipoC2': 7.59, 'temp': 33.56, 'lipoC3S3': 12.01, 'state': 'normal', 'rot1': 44, 'rot0': 43, 'rot3': 0, 'rot2': 0, 'depth': -0.14, 'yaw': -0.0, 'datetime': '2018-12-10 15:22:54.584615', 'mgs': 0, 'flw2': 1.2, 'flw1': 0.0, 'flw0': 1.21, 'time': 2.73, 'compass': -56.2, 'pitch': -3.17, 'roll': 0.87}
{'lipoC2': 7.59, 'temp': 33.56, 'lipoC3S3': 11.97, 'state': 'normal', 'rot1': 48, 'rot0': 46, 'rot3': 0, 'rot2': 0, 'depth': -0.14, 'yaw': -0.0, 'datetime': '2018-12-10 15:22:54.793830', 'mgs': 0, 'flw2': 1.17, 'flw1': 0.0, 'flw0': 1.25, 'time': 2.94, 'compass': -56.2, 'pitch': -3.18, 'roll': 0.86}
{'lipoC2': 7.61, 'temp': 33.56, 'lipoC3S3': 12.05, 'state': 'normal', 'rot1': 51, 'rot0': 50, 'rot3': 0, 'rot2': 0, 'depth': -0.14, 'yaw': -0.0, 'datetime': '2018-12-10 15:22:55.004636', 'mgs': 0, 'flw2': 1.16, 'flw1': 0.0, 'flw0': 1.18, 'time': 3.15, 'compass': -56.2, 'pitch': -3.18, 'roll': 0.87}
{'lipoC2': 7.59, 'temp': 33.56, 'lipoC3S3': 12.06, 'state': 'normal', 'rot1': 55, 'rot0': 54, 'rot3': 0, 'rot2': 0, 'depth': -0.293, 'yaw': -0.0, 'datetime': '2018-12-10 15:22:55.220979', 'mgs': 0, 'flw2': 1.26, 'flw1': 0.0, 'flw0': 1.22, 'time': 3.36, 'compass': -56.2, 'pitch': -3.18, 'roll': 0.87}
{'lipoC2': 7.59, 'temp': 33.5, 'lipoC3S3': 12.06, 'state': 'normal', 'rot1': 59, 'rot0': 57, 'rot3': 0, 'rot2': 0, 'depth': -0.217, 'yaw': -0.0, 'datetime': '2018-12-10 15:22:55.425432', 'mgs': 0, 'flw2': 1.18, 'flw1': 0.0, 'flw0': 1.16, 'time': 3.57, 'compass': -56.2, 'pitch': -3.18, 'roll': 0.87}
{'lipoC2': 7.59, 'temp': 33.5, 'lipoC3S3': 12.06, 'state': 'normal', 'rot1': 62, 'rot0': 61, 'rot3': 0, 'rot2': 0, 'depth': -0.217, 'yaw': -0.0, 'datetime': '2018-12-10 15:22:55.641337', 'mgs': 0, 'flw2': 1.2, 'flw1': 0.0, 'flw0': 1.28, 'time': 3.78, 'compass': -56.2, 'pitch': -3.18, 'roll': 0.87}
{'lipoC2': 7.59, 'temp': 33.56, 'lipoC3S3': 12.06, 'state': 'normal', 'rot1': 66, 'rot0': 64, 'rot3': 0, 'rot2': 0, 'depth': -0.14, 'yaw': -0.0, 'datetime': '2018-12-10 15:22:55.845328', 'mgs': 0, 'flw2': 1.21, 'flw1': 0.0, 'flw0': 1.27, 'time': 3.99, 'compass': -56.2, 'pitch': -3.18, 'roll': 0.87}
{'lipoC2': 7.59, 'temp': 33.56, 'lipoC3S3': 12.06, 'state': 'normal', 'rot1': 70, 'rot0': 68, 'rot3': 0, 'rot2': 0, 'depth': 0.241, 'yaw': -0.0, 'datetime': '2018-12-10 15:22:56.055484', 'mgs': 0, 'flw2': 1.25, 'flw1': 0.0, 'flw0': 1.14, 'time': 4.2, 'compass': -56.2, 'pitch': -3.19, 'roll': 0.86}
{'lipoC2': 7.61, 'temp': 33.56, 'lipoC3S3': 12.04, 'state': 'normal', 'rot1': 73, 'rot0': 72, 'rot3': 0, 'rot2': 0, 'depth': -0.14, 'yaw': -0.0, 'datetime': '2018-12-10 15:22:56.267021', 'mgs': 0, 'flw2': 1.16, 'flw1': 0.0, 'flw0': 1.16, 'time': 4.41, 'compass': -56.2, 'pitch': -3.19, 'roll': 0.86}
{'lipoC2': 7.59, 'temp': 33.56, 'lipoC3S3': 12.05, 'state': 'normal', 'rot1': 77, 'rot0': 75, 'rot3': 0, 'rot2': 0, 'depth': 0.241, 'yaw': 0.0, 'datetime': '2018-12-10 15:22:56.479784', 'mgs': 0, 'flw2': 1.27, 'flw1': 0.0, 'flw0': 1.23, 'time': 4.62, 'compass': -56.2, 'pitch': -3.18, 'roll': 0.85}
{'lipoC2': 7.59, 'temp': 33.56, 'lipoC3S3': 12.04, 'state': 'normal', 'rot1': 81, 'rot0': 79, 'rot3': 0, 'rot2': 0, 'depth': -0.217, 'yaw': 0.0, 'datetime': '2018-12-10 15:22:56.684866', 'mgs': 0, 'flw2': 1.2, 'flw1': 0.0, 'flw0': 1.18, 'time': 4.83, 'compass': -56.2, 'pitch': -3.18, 'roll': 0.85}
{'lipoC2': 7.59, 'temp': 33.5, 'lipoC3S3': 12.06, 'state': 'normal', 'rot1': 85, 'rot0': 83, 'rot3': 0, 'rot2': 0, 'depth': 0.089, 'yaw': 0.0, 'datetime': '2018-12-10 15:22:56.895882', 'mgs': 0, 'flw2': 1.22, 'flw1': 0.0, 'flw0': 1.15, 'time': 5.04, 'compass': -56.2, 'pitch': -3.18, 'roll': 0.85}
{'lipoC2': 7.59, 'temp': 33.56, 'lipoC3S3': 12.05, 'state': 'normal', 'rot1': 89, 'rot0': 86, 'rot3': 0, 'rot2': 0, 'depth': 0.47, 'yaw': 0.0, 'datetime': '2018-12-10 15:22:57.106132', 'mgs': 0, 'flw2': 1.25, 'flw1': 0.0, 'flw0': 1.2, 'time': 5.25, 'compass': -56.2, 'pitch': -3.18, 'roll': 0.85}
{'lipoC2': 7.59, 'temp': 33.56, 'lipoC3S3': 12.1, 'state': 'normal', 'rot1': 90, 'rot0': 87, 'rot3': 0, 'rot2': 0, 'depth': -0.217, 'yaw': -0.0, 'datetime': '2018-12-10 15:22:57.312185', 'mgs': 0, 'flw2': 0.0, 'flw1': 0.0, 'flw0': 0.0, 'time': 5.46, 'compass': -56.2, 'pitch': -3.19, 'roll': 0.86}
{'lipoC2': 7.59, 'temp': 33.56, 'lipoC3S3': 12.01, 'state': 'normal', 'rot1': 92, 'rot0': 89, 'rot3': 0, 'rot2': 0, 'depth': 0.165, 'yaw': -0.0, 'datetime': '2018-12-10 15:22:57.523013', 'mgs': 0, 'flw2': 2.45, 'flw1': 0.0, 'flw0': 2.11, 'time': 5.67, 'compass': -56.2, 'pitch': -3.19, 'roll': 0.86}
{'lipoC2': 7.59, 'temp': 33.56, 'lipoC3S3': 12.06, 'state': 'normal', 'rot1': 95, 'rot0': 92, 'rot3': 0, 'rot2': 0, 'depth': -0.14, 'yaw': -0.0, 'datetime': '2018-12-10 15:22:57.732748', 'mgs': 0, 'flw2': 1.27, 'flw1': 0.0, 'flw0': 1.28, 'time': 5.88, 'compass': -56.2, 'pitch': -3.19, 'roll': 0.86}
