{'lipoC2': 7.33, 'temp': 0.0, 'lipoC3S3': 11.36, 'state': 'normal', 'rot1': 0, 'rot0': 0, 'rot3': 0, 'rot2': 0, 'depth': -0.598, 'yaw': 0.0, 'datetime': '2018-12-12 14:17:06.573691', 'mgs': 0, 'flw2': 0.0, 'flw1': 0.38, 'flw0': 0.0, 'time': 1.26, 'compass': -28.14, 'pitch': -1.29, 'roll': 0.57}
{'lipoC2': 7.3, 'temp': 0.0, 'lipoC3S3': 11.38, 'state': 'normal', 'rot1': 0, 'rot0': 0, 'rot3': 0, 'rot2': 0, 'depth': -0.674, 'yaw': 0.0, 'datetime': '2018-12-12 14:17:06.780986', 'mgs': 0, 'flw2': 0.0, 'flw1': 0.29, 'flw0': 0.0, 'time': 1.46, 'compass': -28.14, 'pitch': -1.03, 'roll': 0.43}
{'lipoC2': 7.34, 'temp': 0.0, 'lipoC3S3': 11.52, 'state': 'normal', 'rot1': 0, 'rot0': 0, 'rot3': 0, 'rot2': 0, 'depth': 1.309, 'yaw': 0.02, 'datetime': '2018-12-12 14:17:06.989023', 'mgs': 0, 'flw2': 0.0, 'flw1': 0.56, 'flw0': 0.0, 'time': 1.67, 'compass': -28.12, 'pitch': -1.69, 'roll': 0.56}
{'lipoC2': 7.32, 'temp': 0.0, 'lipoC3S3': 11.63, 'state': 'normal', 'rot1': 0, 'rot0': 0, 'rot3': 0, 'rot2': 0, 'depth': -0.598, 'yaw': 0.04, 'datetime': '2018-12-12 14:17:07.196159', 'mgs': 0, 'flw2': 0.0, 'flw1': 0.0, 'flw0': 0.09, 'time': 1.88, 'compass': -28.11, 'pitch': -2.5, 'roll': 0.79}
{'lipoC2': 7.27, 'temp': 0.0, 'lipoC3S3': 11.39, 'state': 'normal', 'rot1': 0, 'rot0': 0, 'rot3': 0, 'rot2': 0, 'depth': -1.285, 'yaw': 0.04, 'datetime': '2018-12-12 14:17:07.405179', 'mgs': 0, 'flw2': 0.0, 'flw1': 0.53, 'flw0': 0.0, 'time': 2.09, 'compass': -28.1, 'pitch': -2.39, 'roll': 0.77}
{'lipoC2': 7.36, 'temp': 0.0, 'lipoC3S3': 11.63, 'state': 'normal', 'rot1': 0, 'rot0': 0, 'rot3': 0, 'rot2': 0, 'depth': 0.012, 'yaw': 0.04, 'datetime': '2018-12-12 14:17:07.612544', 'mgs': 0, 'flw2': 0.0, 'flw1': 0.0, 'flw0': 0.0, 'time': 2.29, 'compass': -28.1, 'pitch': -1.64, 'roll': 0.46}
{'lipoC2': 7.35, 'temp': 0.0, 'lipoC3S3': 11.69, 'state': 'normal', 'rot1': 0, 'rot0': 0, 'rot3': 0, 'rot2': 0, 'depth': -0.14, 'yaw': 0.06, 'datetime': '2018-12-12 14:17:07.821725', 'mgs': 0, 'flw2': 0.26, 'flw1': 0.0, 'flw0': 0.12, 'time': 2.5, 'compass': -28.08, 'pitch': -1.25, 'roll': 0.09}
{'lipoC2': 7.35, 'temp': 0.0, 'lipoC3S3': 11.59, 'state': 'normal', 'rot1': 0, 'rot0': 0, 'rot3': 0, 'rot2': 0, 'depth': -0.522, 'yaw': 0.06, 'datetime': '2018-12-12 14:17:08.026486', 'mgs': 0, 'flw2': 0.0, 'flw1': 0.41, 'flw0': 0.0, 'time': 2.71, 'compass': -28.08, 'pitch': -1.48, 'roll': -0.15}
{'lipoC2': 7.33, 'temp': 0.0, 'lipoC3S3': 11.59, 'state': 'normal', 'rot1': 0, 'rot0': 0, 'rot3': 0, 'rot2': 0, 'depth': 1.385, 'yaw': 0.05, 'datetime': '2018-12-12 14:17:08.235684', 'mgs': 0, 'flw2': 0.38, 'flw1': 0.0, 'flw0': 0.0, 'time': 2.92, 'compass': -28.09, 'pitch': -1.94, 'roll': 0.06}
{'lipoC2': 7.3, 'temp': 0.0, 'lipoC3S3': 11.65, 'state': 'normal', 'rot1': 0, 'rot0': 1, 'rot3': 0, 'rot2': 0, 'depth': -0.446, 'yaw': 0.58, 'datetime': '2018-12-12 14:17:08.443465', 'mgs': 0, 'flw2': 1.62, 'flw1': 0.53, 'flw0': 1.22, 'time': 3.13, 'compass': -27.56, 'pitch': -1.96, 'roll': 0.69}
{'lipoC2': 7.35, 'temp': 0.0, 'lipoC3S3': 11.67, 'state': 'normal', 'rot1': 1, 'rot0': 3, 'rot3': 0, 'rot2': 0, 'depth': 2.148, 'yaw': 2.35, 'datetime': '2018-12-12 14:17:08.653511', 'mgs': 0, 'flw2': 1.37, 'flw1': 0.0, 'flw0': 0.59, 'time': 3.33, 'compass': -25.79, 'pitch': -0.38, 'roll': 1.11}
{'lipoC2': 7.3, 'temp': 0.0, 'lipoC3S3': 11.39, 'state': 'normal', 'rot1': 3, 'rot0': 5, 'rot3': 0, 'rot2': 0, 'depth': 1.157, 'yaw': 4.54, 'datetime': '2018-12-12 14:17:08.857775', 'mgs': 0, 'flw2': 1.17, 'flw1': 0.0, 'flw0': 0.0, 'time': 3.54, 'compass': -23.6, 'pitch': 0.89, 'roll': 1.09}
{'lipoC2': 7.35, 'temp': 0.0, 'lipoC3S3': 11.56, 'state': 'normal', 'rot1': 4, 'rot0': 7, 'rot3': 0, 'rot2': 0, 'depth': 0.165, 'yaw': 7.66, 'datetime': '2018-12-12 14:17:09.066817', 'mgs': 0, 'flw2': 1.77, 'flw1': 0.64, 'flw0': 0.11, 'time': 3.75, 'compass': -20.48, 'pitch': 0.58, 'roll': 1.17}
{'lipoC2': 7.46, 'temp': 0.0, 'lipoC3S3': 11.23, 'state': 'normal', 'rot1': 5, 'rot0': 9, 'rot3': 0, 'rot2': 0, 'depth': 0.928, 'yaw': 12.03, 'datetime': '2018-12-12 14:17:09.274479', 'mgs': 0, 'flw2': 2.09, 'flw1': 0.0, 'flw0': 0.56, 'time': 3.95, 'compass': -16.11, 'pitch': -0.02, 'roll': 1.57}
{'lipoC2': 7.55, 'temp': 0.0, 'lipoC3S3': 11.32, 'state': 'normal', 'rot1': 6, 'rot0': 11, 'rot3': 0, 'rot2': 0, 'depth': -0.827, 'yaw': 17.27, 'datetime': '2018-12-12 14:17:09.485802', 'mgs': 0, 'flw2': 0.59, 'flw1': 0.0, 'flw0': 0.49, 'time': 4.16, 'compass': -10.88, 'pitch': 0.27, 'roll': 1.7}
{'lipoC2': 7.5, 'temp': 0.0, 'lipoC3S3': 11.25, 'state': 'normal', 'rot1': 7, 'rot0': 12, 'rot3': 0, 'rot2': 0, 'depth': -1.285, 'yaw': 21.76, 'datetime': '2018-12-12 14:17:09.696133', 'mgs': 0, 'flw2': 0.87, 'flw1': 0.0, 'flw0': 0.71, 'time': 4.37, 'compass': -6.38, 'pitch': 0.41, 'roll': 1.5}
{'lipoC2': 7.37, 'temp': 0.0, 'lipoC3S3': 11.64, 'state': 'normal', 'rot1': 8, 'rot0': 14, 'rot3': 0, 'rot2': 0, 'depth': 0.012, 'yaw': 25.45, 'datetime': '2018-12-12 14:17:09.903691', 'mgs': 0, 'flw2': 0.34, 'flw1': 0.56, 'flw0': 0.66, 'time': 4.58, 'compass': -2.7, 'pitch': -0.3, 'roll': 1.26}
{'lipoC2': 7.28, 'temp': 0.0, 'lipoC3S3': 11.36, 'state': 'normal', 'rot1': 10, 'rot0': 15, 'rot3': 0, 'rot2': 0, 'depth': -0.522, 'yaw': 28.01, 'datetime': '2018-12-12 14:17:10.113114', 'mgs': 0, 'flw2': 0.29, 'flw1': 0.29, 'flw0': 0.77, 'time': 4.79, 'compass': -0.14, 'pitch': -1.05, 'roll': 1.03}
{'lipoC2': 7.42, 'temp': 0.0, 'lipoC3S3': 11.22, 'state': 'normal', 'rot1': 12, 'rot0': 16, 'rot3': 0, 'rot2': 0, 'depth': -0.446, 'yaw': 29.38, 'datetime': '2018-12-12 14:17:10.320810', 'mgs': 0, 'flw2': 0.37, 'flw1': 0.0, 'flw0': 1.98, 'time': 5.0, 'compass': 1.24, 'pitch': -0.93, 'roll': 0.63}
{'lipoC2': 7.38, 'temp': 0.0, 'lipoC3S3': 11.32, 'state': 'normal', 'rot1': 14, 'rot0': 16, 'rot3': 0, 'rot2': 0, 'depth': -0.293, 'yaw': 28.78, 'datetime': '2018-12-12 14:17:10.529943', 'mgs': 0, 'flw2': 0.0, 'flw1': 0.0, 'flw0': 1.57, 'time': 5.21, 'compass': 0.64, 'pitch': -0.23, 'roll': 0.23}
{'lipoC2': 7.29, 'temp': 0.0, 'lipoC3S3': 11.44, 'state': 'normal', 'rot1': 16, 'rot0': 17, 'rot3': 0, 'rot2': 0, 'depth': -0.293, 'yaw': 26.51, 'datetime': '2018-12-12 14:17:10.738340', 'mgs': 0, 'flw2': 0.0, 'flw1': 0.47, 'flw0': 1.75, 'time': 5.41, 'compass': -1.64, 'pitch': -0.07, 'roll': -0.0}
{'lipoC2': 7.35, 'temp': 0.0, 'lipoC3S3': 11.65, 'state': 'normal', 'rot1': 18, 'rot0': 18, 'rot3': 0, 'rot2': 0, 'depth': 1.538, 'yaw': 23.69, 'datetime': '2018-12-12 14:17:10.947260', 'mgs': 0, 'flw2': 0.01, 'flw1': 0.0, 'flw0': 1.83, 'time': 5.62, 'compass': -4.45, 'pitch': -0.42, 'roll': 0.06}
{'lipoC2': 7.34, 'temp': 0.0, 'lipoC3S3': 11.67, 'state': 'normal', 'rot1': 20, 'rot0': 18, 'rot3': 0, 'rot2': 0, 'depth': 0.012, 'yaw': 19.56, 'datetime': '2018-12-12 14:17:11.156383', 'mgs': 0, 'flw2': 0.43, 'flw1': 0.0, 'flw0': 1.77, 'time': 5.83, 'compass': -8.58, 'pitch': -0.46, 'roll': 0.29}
{'lipoC2': 7.35, 'temp': 0.0, 'lipoC3S3': 11.43, 'state': 'normal', 'rot1': 22, 'rot0': 19, 'rot3': 0, 'rot2': 0, 'depth': 0.775, 'yaw': 15.23, 'datetime': '2018-12-12 14:17:11.365440', 'mgs': 0, 'flw2': 0.46, 'flw1': 0.0, 'flw0': 1.94, 'time': 6.04, 'compass': -12.91, 'pitch': -0.21, 'roll': 0.32}
{'lipoC2': 7.35, 'temp': 0.0, 'lipoC3S3': 11.65, 'state': 'normal', 'rot1': 24, 'rot0': 20, 'rot3': 0, 'rot2': 0, 'depth': 0.928, 'yaw': 10.27, 'datetime': '2018-12-12 14:17:11.573258', 'mgs': 0, 'flw2': 0.55, 'flw1': 0.0, 'flw0': 1.67, 'time': 6.25, 'compass': -17.87, 'pitch': 0.29, 'roll': -0.06}
{'lipoC2': 7.4, 'temp': 0.0, 'lipoC3S3': 11.29, 'state': 'normal', 'rot1': 26, 'rot0': 21, 'rot3': 0, 'rot2': 0, 'depth': -0.674, 'yaw': 5.31, 'datetime': '2018-12-12 14:17:11.782601', 'mgs': 0, 'flw2': 0.35, 'flw1': 0.59, 'flw0': 1.76, 'time': 6.46, 'compass': -22.83, 'pitch': 0.39, 'roll': -0.64}
{'lipoC2': 7.51, 'temp': 0.0, 'lipoC3S3': 11.25, 'state': 'normal', 'rot1': 28, 'rot0': 22, 'rot3': 0, 'rot2': 0, 'depth': -1.208, 'yaw': 0.32, 'datetime': '2018-12-12 14:17:11.991057', 'mgs': 0, 'flw2': 0.94, 'flw1': 0.0, 'flw0': 1.89, 'time': 6.66, 'compass': -27.82, 'pitch': 0.14, 'roll': -0.98}
{'lipoC2': 7.36, 'temp': 0.0, 'lipoC3S3': 11.29, 'state': 'normal', 'rot1': 30, 'rot0': 23, 'rot3': 0, 'rot2': 0, 'depth': 0.089, 'yaw': -4.22, 'datetime': '2018-12-12 14:17:12.200496', 'mgs': 0, 'flw2': 0.0, 'flw1': 0.0, 'flw0': 0.0, 'time': 6.88, 'compass': -32.36, 'pitch': -0.26, 'roll': -0.98}
{'lipoC2': 7.41, 'temp': 0.0, 'lipoC3S3': 11.39, 'state': 'normal', 'rot1': 30, 'rot0': 23, 'rot3': 0, 'rot2': 0, 'depth': 0.928, 'yaw': -8.03, 'datetime': '2018-12-12 14:17:12.409344', 'mgs': 0, 'flw2': 0.0, 'flw1': 0.26, 'flw0': 0.0, 'time': 7.08, 'compass': -36.17, 'pitch': -1.51, 'roll': -0.48}
{'lipoC2': 7.35, 'temp': 0.0, 'lipoC3S3': 11.6, 'state': 'normal', 'rot1': 30, 'rot0': 23, 'rot3': 0, 'rot2': 0, 'depth': -0.369, 'yaw': -11.49, 'datetime': '2018-12-12 14:17:12.618300', 'mgs': 0, 'flw2': 0.0, 'flw1': 0.0, 'flw0': 0.0, 'time': 7.29, 'compass': -39.63, 'pitch': -2.11, 'roll': 0.27}
{'lipoC2': 7.46, 'temp': 0.0, 'lipoC3S3': 11.26, 'state': 'normal', 'rot1': 30, 'rot0': 23, 'rot3': 0, 'rot2': 0, 'depth': 0.47, 'yaw': -14.66, 'datetime': '2018-12-12 14:17:12.826100', 'mgs': 0, 'flw2': 0.0, 'flw1': 0.56, 'flw0': 0.0, 'time': 7.5, 'compass': -42.8, 'pitch': -1.54, 'roll': 0.46}
{'lipoC2': 7.56, 'temp': 0.0, 'lipoC3S3': 11.31, 'state': 'normal', 'rot1': 30, 'rot0': 23, 'rot3': 0, 'rot2': 0, 'depth': -0.98, 'yaw': -17.51, 'datetime': '2018-12-12 14:17:13.036040', 'mgs': 0, 'flw2': 0.0, 'flw1': 0.0, 'flw0': 0.0, 'time': 7.71, 'compass': -45.65, 'pitch': -0.96, 'roll': 0.13}
{'lipoC2': 7.36, 'temp': 0.0, 'lipoC3S3': 11.68, 'state': 'normal', 'rot1': 30, 'rot0': 23, 'rot3': 0, 'rot2': 0, 'depth': -0.064, 'yaw': -20.08, 'datetime': '2018-12-12 14:17:13.245031', 'mgs': 0, 'flw2': 0.01, 'flw1': 0.0, 'flw0': 0.0, 'time': 7.92, 'compass': -48.22, 'pitch': -1.31, 'roll': -0.45}
{'lipoC2': 7.36, 'temp': 0.0, 'lipoC3S3': 11.59, 'state': 'normal', 'rot1': 30, 'rot0': 23, 'rot3': 0, 'rot2': 0, 'depth': 1.309, 'yaw': -22.37, 'datetime': '2018-12-12 14:17:13.454348', 'mgs': 0, 'flw2': 0.0, 'flw1': 0.41, 'flw0': 0.0, 'time': 8.13, 'compass': -50.51, 'pitch': -2.03, 'roll': -0.77}
{'lipoC2': 7.35, 'temp': 0.0, 'lipoC3S3': 11.54, 'state': 'normal', 'rot1': 30, 'rot0': 23, 'rot3': 0, 'rot2': 0, 'depth': -0.14, 'yaw': -24.63, 'datetime': '2018-12-12 14:17:13.663210', 'mgs': 0, 'flw2': 0.0, 'flw1': 0.62, 'flw0': 0.0, 'time': 8.34, 'compass': -52.77, 'pitch': -2.16, 'roll': -0.56}
{'lipoC2': 7.46, 'temp': 0.0, 'lipoC3S3': 11.25, 'state': 'normal', 'rot1': 30, 'rot0': 23, 'rot3': 0, 'rot2': 0, 'depth': -0.98, 'yaw': -26.62, 'datetime': '2018-12-12 14:17:13.873257', 'mgs': 0, 'flw2': 0.21, 'flw1': 0.0, 'flw0': 0.26, 'time': 8.55, 'compass': -54.76, 'pitch': -1.66, 'roll': -0.08}
{'lipoC2': 7.39, 'temp': 0.0, 'lipoC3S3': 11.3, 'state': 'normal', 'rot1': 30, 'rot0': 23, 'rot3': 0, 'rot2': 0, 'depth': -0.217, 'yaw': -28.4, 'datetime': '2018-12-12 14:17:14.080982', 'mgs': 0, 'flw2': 0.0, 'flw1': 0.0, 'flw0': 0.0, 'time': 8.75, 'compass': -56.55, 'pitch': -0.93, 'roll': 0.39}
{'lipoC2': 7.42, 'temp': 0.0, 'lipoC3S3': 11.27, 'state': 'normal', 'rot1': 30, 'rot0': 23, 'rot3': 0, 'rot2': 0, 'depth': 0.317, 'yaw': -30.23, 'datetime': '2018-12-12 14:17:14.289799', 'mgs': 0, 'flw2': 0.13, 'flw1': 0.0, 'flw0': 0.26, 'time': 8.96, 'compass': -58.37, 'pitch': -0.55, 'roll': 0.5}
{'lipoC2': 7.52, 'temp': 0.0, 'lipoC3S3': 11.4, 'state': 'normal', 'rot1': 30, 'rot0': 24, 'rot3': 0, 'rot2': 0, 'depth': 1.843, 'yaw': -31.99, 'datetime': '2018-12-12 14:17:14.498891', 'mgs': 0, 'flw2': 0.44, 'flw1': 0.0, 'flw0': 0.43, 'time': 9.17, 'compass': -60.13, 'pitch': -0.96, 'roll': 0.04}
{'lipoC2': 7.34, 'temp': 0.0, 'lipoC3S3': 11.39, 'state': 'normal', 'rot1': 31, 'rot0': 25, 'rot3': 0, 'rot2': 0, 'depth': -0.064, 'yaw': -33.24, 'datetime': '2018-12-12 14:17:14.707083', 'mgs': 0, 'flw2': 0.68, 'flw1': 0.0, 'flw0': 1.31, 'time': 9.38, 'compass': -61.38, 'pitch': -1.25, 'roll': -0.32}
{'lipoC2': 7.36, 'temp': 0.0, 'lipoC3S3': 11.63, 'state': 'normal', 'rot1': 32, 'rot0': 26, 'rot3': 0, 'rot2': 0, 'depth': 0.012, 'yaw': -34.82, 'datetime': '2018-12-12 14:17:14.918203', 'mgs': 0, 'flw2': 0.65, 'flw1': 0.0, 'flw0': 1.03, 'time': 9.59, 'compass': -62.96, 'pitch': -0.42, 'roll': -0.7}
{'lipoC2': 7.35, 'temp': 0.0, 'lipoC3S3': 11.65, 'state': 'normal', 'rot1': 34, 'rot0': 27, 'rot3': 0, 'rot2': 0, 'depth': 1.691, 'yaw': -36.8, 'datetime': '2018-12-12 14:17:15.127626', 'mgs': 0, 'flw2': 1.45, 'flw1': 0.0, 'flw0': 0.79, 'time': 9.8, 'compass': -64.95, 'pitch': 0.82, 'roll': -1.06}
{'lipoC2': 7.42, 'temp': 0.0, 'lipoC3S3': 11.34, 'state': 'normal', 'rot1': 35, 'rot0': 29, 'rot3': 0, 'rot2': 0, 'depth': 0.47, 'yaw': -38.63, 'datetime': '2018-12-12 14:17:15.335773', 'mgs': 0, 'flw2': 1.78, 'flw1': 0.0, 'flw0': 0.57, 'time': 10.01, 'compass': -66.77, 'pitch': 1.22, 'roll': -0.96}
{'lipoC2': 7.55, 'temp': 0.0, 'lipoC3S3': 11.3, 'state': 'normal', 'rot1': 37, 'rot0': 31, 'rot3': 0, 'rot2': 0, 'depth': -1.056, 'yaw': -39.86, 'datetime': '2018-12-12 14:17:15.544957', 'mgs': 0, 'flw2': 2.65, 'flw1': 0.0, 'flw0': 0.89, 'time': 10.21, 'compass': -68.0, 'pitch': 0.9, 'roll': -0.14}
{'lipoC2': 7.33, 'temp': 0.0, 'lipoC3S3': 11.36, 'state': 'normal', 'rot1': 38, 'rot0': 34, 'rot3': 0, 'rot2': 0, 'depth': 0.012, 'yaw': -38.4, 'datetime': '2018-12-12 14:17:15.753065', 'mgs': 0, 'flw2': 2.5, 'flw1': 0.0, 'flw0': 0.59, 'time': 10.42, 'compass': -66.55, 'pitch': 0.58, 'roll': 0.77}
{'lipoC2': 7.36, 'temp': 0.0, 'lipoC3S3': 11.61, 'state': 'normal', 'rot1': 40, 'rot0': 36, 'rot3': 0, 'rot2': 0, 'depth': 1.309, 'yaw': -35.96, 'datetime': '2018-12-12 14:17:15.963206', 'mgs': 0, 'flw2': 2.55, 'flw1': 0.44, 'flw0': 0.71, 'time': 10.63, 'compass': -64.11, 'pitch': 0.56, 'roll': 1.09}
{'lipoC2': 7.36, 'temp': 0.0, 'lipoC3S3': 11.64, 'state': 'normal', 'rot1': 42, 'rot0': 39, 'rot3': 0, 'rot2': 0, 'depth': 0.012, 'yaw': -33.01, 'datetime': '2018-12-12 14:17:16.172479', 'mgs': 0, 'flw2': 2.58, 'flw1': 0.09, 'flw0': 1.28, 'time': 10.84, 'compass': -61.15, 'pitch': 0.89, 'roll': 0.94}
{'lipoC2': 7.36, 'temp': 0.0, 'lipoC3S3': 11.54, 'state': 'normal', 'rot1': 43, 'rot0': 41, 'rot3': 0, 'rot2': 0, 'depth': 0.012, 'yaw': -30.42, 'datetime': '2018-12-12 14:17:16.381252', 'mgs': 0, 'flw2': 2.49, 'flw1': 0.35, 'flw0': 1.42, 'time': 11.05, 'compass': -58.56, 'pitch': 1.49, 'roll': 0.55}
{'lipoC2': 7.33, 'temp': 0.0, 'lipoC3S3': 11.6, 'state': 'normal', 'rot1': 45, 'rot0': 43, 'rot3': 0, 'rot2': 0, 'depth': 0.165, 'yaw': -28.03, 'datetime': '2018-12-12 14:17:16.591191', 'mgs': 0, 'flw2': 2.61, 'flw1': 0.0, 'flw0': 1.65, 'time': 11.26, 'compass': -56.17, 'pitch': 1.72, 'roll': 0.19}
{'lipoC2': 7.35, 'temp': 0.0, 'lipoC3S3': 11.42, 'state': 'normal', 'rot1': 47, 'rot0': 46, 'rot3': 0, 'rot2': 0, 'depth': 0.165, 'yaw': -26.28, 'datetime': '2018-12-12 14:17:16.802790', 'mgs': 0, 'flw2': 2.8, 'flw1': 0.0, 'flw0': 1.95, 'time': 11.47, 'compass': -54.42, 'pitch': 1.12, 'roll': -0.01}
{'lipoC2': 7.39, 'temp': 0.0, 'lipoC3S3': 11.32, 'state': 'normal', 'rot1': 49, 'rot0': 48, 'rot3': 0, 'rot2': 0, 'depth': 1.233, 'yaw': -23.84, 'datetime': '2018-12-12 14:17:17.010691', 'mgs': 0, 'flw2': 2.59, 'flw1': 0.0, 'flw0': 1.68, 'time': 11.67, 'compass': -51.98, 'pitch': 0.41, 'roll': 0.4}
{'lipoC2': 7.36, 'temp': 0.0, 'lipoC3S3': 11.58, 'state': 'normal', 'rot1': 50, 'rot0': 51, 'rot3': 0, 'rot2': 0, 'depth': 0.47, 'yaw': -21.06, 'datetime': '2018-12-12 14:17:17.219308', 'mgs': 0, 'flw2': 2.56, 'flw1': 0.0, 'flw0': 1.38, 'time': 11.88, 'compass': -49.2, 'pitch': 0.52, 'roll': 1.1}
{'lipoC2': 7.36, 'temp': 0.0, 'lipoC3S3': 11.51, 'state': 'normal', 'rot1': 52, 'rot0': 54, 'rot3': 0, 'rot2': 0, 'depth': 1.538, 'yaw': -18.36, 'datetime': '2018-12-12 14:17:17.426658', 'mgs': 0, 'flw2': 2.32, 'flw1': 0.62, 'flw0': 1.51, 'time': 12.09, 'compass': -46.5, 'pitch': 0.95, 'roll': 1.24}
{'lipoC2': 7.3, 'temp': 0.0, 'lipoC3S3': 11.39, 'state': 'normal', 'rot1': 54, 'rot0': 56, 'rot3': 0, 'rot2': 0, 'depth': 0.012, 'yaw': -15.98, 'datetime': '2018-12-12 14:17:17.636416', 'mgs': 0, 'flw2': 2.6, 'flw1': 0.18, 'flw0': 1.61, 'time': 12.3, 'compass': -44.12, 'pitch': 0.95, 'roll': 1.26}
{'lipoC2': 7.54, 'temp': 0.0, 'lipoC3S3': 11.15, 'state': 'normal', 'rot1': 56, 'rot0': 58, 'rot3': 0, 'rot2': 0, 'depth': -1.056, 'yaw': -13.65, 'datetime': '2018-12-12 14:17:17.848356', 'mgs': 0, 'flw2': 2.38, 'flw1': 0.0, 'flw0': 1.81, 'time': 12.51, 'compass': -41.79, 'pitch': 0.89, 'roll': 1.52}
{'lipoC2': 7.33, 'temp': 0.0, 'lipoC3S3': 11.55, 'state': 'normal', 'rot1': 58, 'rot0': 61, 'rot3': 0, 'rot2': 0, 'depth': -0.369, 'yaw': -11.18, 'datetime': '2018-12-12 14:17:18.054018', 'mgs': 0, 'flw2': 2.59, 'flw1': 0.0, 'flw0': 1.65, 'time': 12.72, 'compass': -39.33, 'pitch': 0.92, 'roll': 1.55}
{'lipoC2': 7.54, 'temp': 0.0, 'lipoC3S3': 11.39, 'state': 'normal', 'rot1': 60, 'rot0': 63, 'rot3': 0, 'rot2': 0, 'depth': 1.843, 'yaw': -8.65, 'datetime': '2018-12-12 14:17:18.265746', 'mgs': 0, 'flw2': 2.47, 'flw1': 0.47, 'flw0': 1.51, 'time': 12.93, 'compass': -36.79, 'pitch': 1.2, 'roll': 1.48}
{'lipoC2': 7.34, 'temp': 0.0, 'lipoC3S3': 11.29, 'state': 'normal', 'rot1': 62, 'rot0': 65, 'rot3': 0, 'rot2': 0, 'depth': 0.012, 'yaw': -5.89, 'datetime': '2018-12-12 14:17:18.470732', 'mgs': 0, 'flw2': 2.86, 'flw1': 0.0, 'flw0': 1.99, 'time': 13.14, 'compass': -34.03, 'pitch': 1.18, 'roll': 1.65}
{'lipoC2': 7.35, 'temp': 0.0, 'lipoC3S3': 11.51, 'state': 'normal', 'rot1': 64, 'rot0': 67, 'rot3': 0, 'rot2': 0, 'depth': -0.064, 'yaw': -3.42, 'datetime': '2018-12-12 14:17:18.680311', 'mgs': 0, 'flw2': 2.51, 'flw1': 0.0, 'flw0': 1.78, 'time': 13.34, 'compass': -31.57, 'pitch': 1.08, 'roll': 1.84}
{'lipoC2': 7.35, 'temp': 0.0, 'lipoC3S3': 11.27, 'state': 'normal', 'rot1': 66, 'rot0': 70, 'rot3': 0, 'rot2': 0, 'depth': 1.08, 'yaw': -1.07, 'datetime': '2018-12-12 14:17:18.890772', 'mgs': 0, 'flw2': 2.31, 'flw1': 0.0, 'flw0': 1.56, 'time': 13.55, 'compass': -29.22, 'pitch': 1.28, 'roll': 1.78}
{'lipoC2': 7.5, 'temp': 0.0, 'lipoC3S3': 11.03, 'state': 'normal', 'rot1': 67, 'rot0': 72, 'rot3': 0, 'rot2': 0, 'depth': -1.208, 'yaw': 1.21, 'datetime': '2018-12-12 14:17:19.097979', 'mgs': 0, 'flw2': 2.77, 'flw1': 0.0, 'flw0': 2.17, 'time': 13.76, 'compass': -26.93, 'pitch': 1.6, 'roll': 1.76}
{'lipoC2': 7.36, 'temp': 0.0, 'lipoC3S3': 11.6, 'state': 'normal', 'rot1': 69, 'rot0': 74, 'rot3': 0, 'rot2': 0, 'depth': 1.309, 'yaw': 3.28, 'datetime': '2018-12-12 14:17:19.309805', 'mgs': 0, 'flw2': 2.65, 'flw1': 0.18, 'flw0': 2.1, 'time': 13.97, 'compass': -24.86, 'pitch': 1.96, 'roll': 1.75}
{'lipoC2': 7.46, 'temp': 0.0, 'lipoC3S3': 11.18, 'state': 'normal', 'rot1': 72, 'rot0': 77, 'rot3': 0, 'rot2': 0, 'depth': -0.903, 'yaw': 4.99, 'datetime': '2018-12-12 14:17:19.516362', 'mgs': 0, 'flw2': 2.53, 'flw1': 0.5, 'flw0': 2.19, 'time': 14.18, 'compass': -23.15, 'pitch': 2.14, 'roll': 1.67}
{'lipoC2': 7.56, 'temp': 0.0, 'lipoC3S3': 11.29, 'state': 'normal', 'rot1': 74, 'rot0': 79, 'rot3': 0, 'rot2': 0, 'depth': -0.598, 'yaw': 6.7, 'datetime': '2018-12-12 14:17:19.725596', 'mgs': 0, 'flw2': 2.8, 'flw1': 0.0, 'flw0': 2.71, 'time': 14.39, 'compass': -21.44, 'pitch': 1.95, 'roll': 1.65}
{'lipoC2': 7.56, 'temp': 0.0, 'lipoC3S3': 11.21, 'state': 'normal', 'rot1': 76, 'rot0': 81, 'rot3': 0, 'rot2': 0, 'depth': 1.614, 'yaw': 8.17, 'datetime': '2018-12-12 14:17:19.931354', 'mgs': 0, 'flw2': 2.5, 'flw1': 0.0, 'flw0': 2.8, 'time': 14.6, 'compass': -19.97, 'pitch': 1.89, 'roll': 1.88}
{'lipoC2': 7.57, 'temp': 0.0, 'lipoC3S3': 11.21, 'state': 'normal', 'rot1': 79, 'rot0': 83, 'rot3': 0, 'rot2': 0, 'depth': -0.293, 'yaw': 9.49, 'datetime': '2018-12-12 14:17:20.140742', 'mgs': 0, 'flw2': 2.56, 'flw1': 0.0, 'flw0': 2.87, 'time': 14.8, 'compass': -18.65, 'pitch': 1.85, 'roll': 2.22}
{'lipoC2': 7.41, 'temp': 0.0, 'lipoC3S3': 11.14, 'state': 'normal', 'rot1': 82, 'rot0': 86, 'rot3': 0, 'rot2': 0, 'depth': 0.394, 'yaw': 10.5, 'datetime': '2018-12-12 14:17:20.349249', 'mgs': 0, 'flw2': 2.65, 'flw1': 0.0, 'flw0': 2.75, 'time': 15.01, 'compass': -17.64, 'pitch': 1.91, 'roll': 2.29}
{'lipoC2': 7.29, 'temp': 0.0, 'lipoC3S3': 11.38, 'state': 'normal', 'rot1': 86, 'rot0': 89, 'rot3': 0, 'rot2': 0, 'depth': 1.004, 'yaw': 11.23, 'datetime': '2018-12-12 14:17:20.560701', 'mgs': 0, 'flw2': 2.62, 'flw1': 0.18, 'flw0': 2.58, 'time': 15.22, 'compass': -16.92, 'pitch': 1.89, 'roll': 2.11}
{'lipoC2': 7.36, 'temp': 0.0, 'lipoC3S3': 11.54, 'state': 'normal', 'rot1': 88, 'rot0': 91, 'rot3': 0, 'rot2': 0, 'depth': 0.089, 'yaw': 11.89, 'datetime': '2018-12-12 14:17:20.773398', 'mgs': 0, 'flw2': 2.49, 'flw1': 0.56, 'flw0': 2.76, 'time': 15.43, 'compass': -16.25, 'pitch': 1.86, 'roll': 1.51}
{'lipoC2': 7.36, 'temp': 0.0, 'lipoC3S3': 11.6, 'state': 'normal', 'rot1': 90, 'rot0': 94, 'rot3': 0, 'rot2': 0, 'depth': 0.089, 'yaw': 12.36, 'datetime': '2018-12-12 14:17:20.982554', 'mgs': 0, 'flw2': 2.84, 'flw1': 0.0, 'flw0': 2.99, 'time': 15.64, 'compass': -15.78, 'pitch': 1.83, 'roll': 0.88}
{'lipoC2': 7.36, 'temp': 0.0, 'lipoC3S3': 11.6, 'state': 'normal', 'rot1': 93, 'rot0': 96, 'rot3': 0, 'rot2': 0, 'depth': 0.012, 'yaw': 12.83, 'datetime': '2018-12-12 14:17:21.186802', 'mgs': 0, 'flw2': 2.56, 'flw1': 0.38, 'flw0': 2.71, 'time': 15.85, 'compass': -15.32, 'pitch': 1.82, 'roll': 0.87}
{'lipoC2': 7.28, 'temp': 0.0, 'lipoC3S3': 11.25, 'state': 'normal', 'rot1': 95, 'rot0': 99, 'rot3': 0, 'rot2': 0, 'depth': -0.293, 'yaw': 13.31, 'datetime': '2018-12-12 14:17:21.401476', 'mgs': 0, 'flw2': 2.56, 'flw1': 0.44, 'flw0': 2.67, 'time': 16.06, 'compass': -14.83, 'pitch': 2.15, 'roll': 1.17}
{'lipoC2': 7.44, 'temp': 0.0, 'lipoC3S3': 11.34, 'state': 'normal', 'rot1': 97, 'rot0': 101, 'rot3': 0, 'rot2': 0, 'depth': 0.394, 'yaw': 13.95, 'datetime': '2018-12-12 14:17:21.603670', 'mgs': 0, 'flw2': 2.87, 'flw1': 0.0, 'flw0': 2.64, 'time': 16.27, 'compass': -14.19, 'pitch': 2.31, 'roll': 1.49}
{'lipoC2': 7.55, 'temp': 0.0, 'lipoC3S3': 11.13, 'state': 'normal', 'rot1': 100, 'rot0': 104, 'rot3': 0, 'rot2': 0, 'depth': 2.759, 'yaw': 14.7, 'datetime': '2018-12-12 14:17:21.816173', 'mgs': 0, 'flw2': 2.75, 'flw1': 0.0, 'flw0': 2.86, 'time': 16.48, 'compass': -13.44, 'pitch': 2.33, 'roll': 1.8}
{'lipoC2': 7.36, 'temp': 0.0, 'lipoC3S3': 11.59, 'state': 'normal', 'rot1': 103, 'rot0': 107, 'rot3': 0, 'rot2': 0, 'depth': 0.012, 'yaw': 15.32, 'datetime': '2018-12-12 14:17:22.024367', 'mgs': 0, 'flw2': 2.55, 'flw1': 0.38, 'flw0': 2.93, 'time': 16.69, 'compass': -12.82, 'pitch': 2.29, 'roll': 2.07}
{'lipoC2': 7.35, 'temp': 0.0, 'lipoC3S3': 11.58, 'state': 'normal', 'rot1': 106, 'rot0': 110, 'rot3': 0, 'rot2': 0, 'depth': 1.767, 'yaw': 15.83, 'datetime': '2018-12-12 14:17:22.233953', 'mgs': 0, 'flw2': 2.55, 'flw1': 0.64, 'flw0': 2.8, 'time': 16.89, 'compass': -12.31, 'pitch': 2.26, 'roll': 2.03}
{'lipoC2': 7.28, 'temp': 0.0, 'lipoC3S3': 11.31, 'state': 'normal', 'rot1': 109, 'rot0': 113, 'rot3': 0, 'rot2': 0, 'depth': -0.446, 'yaw': 16.4, 'datetime': '2018-12-12 14:17:22.449754', 'mgs': 0, 'flw2': 2.69, 'flw1': 0.41, 'flw0': 2.99, 'time': 17.1, 'compass': -11.75, 'pitch': 2.24, 'roll': 1.78}
{'lipoC2': 7.42, 'temp': 0.0, 'lipoC3S3': 11.3, 'state': 'normal', 'rot1': 111, 'rot0': 115, 'rot3': 0, 'rot2': 0, 'depth': 0.775, 'yaw': 17.09, 'datetime': '2018-12-12 14:17:22.655717', 'mgs': 0, 'flw2': 2.93, 'flw1': 0.0, 'flw0': 2.71, 'time': 17.31, 'compass': -11.05, 'pitch': 2.36, 'roll': 1.3}
{'lipoC2': 7.36, 'temp': 0.0, 'lipoC3S3': 11.6, 'state': 'normal', 'rot1': 113, 'rot0': 117, 'rot3': 0, 'rot2': 0, 'depth': -0.064, 'yaw': 18.1, 'datetime': '2018-12-12 14:17:22.870574', 'mgs': 0, 'flw2': 3.14, 'flw1': 0.09, 'flw0': 2.95, 'time': 17.52, 'compass': -10.04, 'pitch': 2.79, 'roll': 1.07}
{'lipoC2': 7.38, 'temp': 0.0, 'lipoC3S3': 11.18, 'state': 'normal', 'rot1': 116, 'rot0': 120, 'rot3': 0, 'rot2': 0, 'depth': 0.623, 'yaw': 19.43, 'datetime': '2018-12-12 14:17:23.079382', 'mgs': 0, 'flw2': 3.19, 'flw1': 0.0, 'flw0': 3.31, 'time': 17.73, 'compass': -8.72, 'pitch': 3.29, 'roll': 1.16}
{'lipoC2': 7.35, 'temp': 0.0, 'lipoC3S3': 11.39, 'state': 'normal', 'rot1': 118, 'rot0': 122, 'rot3': 0, 'rot2': 0, 'depth': 0.699, 'yaw': 20.8, 'datetime': '2018-12-12 14:17:23.288440', 'mgs': 0, 'flw2': 2.84, 'flw1': 0.59, 'flw0': 2.98, 'time': 17.94, 'compass': -7.34, 'pitch': 3.38, 'roll': 1.44}
{'lipoC2': 7.53, 'temp': 0.0, 'lipoC3S3': 11.21, 'state': 'normal', 'rot1': 121, 'rot0': 125, 'rot3': 0, 'rot2': 0, 'depth': -0.751, 'yaw': 21.95, 'datetime': '2018-12-12 14:17:23.497119', 'mgs': 0, 'flw2': 3.27, 'flw1': 0.0, 'flw0': 3.22, 'time': 18.15, 'compass': -6.19, 'pitch': 3.16, 'roll': 1.31}
{'lipoC2': 7.35, 'temp': 0.0, 'lipoC3S3': 11.46, 'state': 'normal', 'rot1': 123, 'rot0': 128, 'rot3': 0, 'rot2': 0, 'depth': 0.089, 'yaw': 22.71, 'datetime': '2018-12-12 14:17:23.707318', 'mgs': 0, 'flw2': 3.04, 'flw1': 0.18, 'flw0': 3.03, 'time': 18.36, 'compass': -5.43, 'pitch': 2.89, 'roll': 1.34}
{'lipoC2': 7.32, 'temp': 0.0, 'lipoC3S3': 11.54, 'state': 'normal', 'rot1': 127, 'rot0': 131, 'rot3': 0, 'rot2': 0, 'depth': 0.394, 'yaw': 24.32, 'datetime': '2018-12-12 14:17:24.018391', 'mgs': 0, 'flw2': 3.13, 'flw1': 0.0, 'flw0': 3.03, 'time': 18.67, 'compass': -3.83, 'pitch': 2.76, 'roll': 2.14}
{'lipoC2': 7.51, 'temp': 0.0, 'lipoC3S3': 11.38, 'state': 'normal', 'rot1': 129, 'rot0': 133, 'rot3': 0, 'rot2': 0, 'depth': 1.843, 'yaw': 25.35, 'datetime': '2018-12-12 14:17:24.227710', 'mgs': 0, 'flw2': 0.99, 'flw1': 0.0, 'flw0': 0.56, 'time': 18.88, 'compass': -2.79, 'pitch': 2.81, 'roll': 2.13}
{'lipoC2': 7.35, 'temp': 0.0, 'lipoC3S3': 11.4, 'state': 'normal', 'rot1': 130, 'rot0': 134, 'rot3': 0, 'rot2': 0, 'depth': 1.004, 'yaw': 26.16, 'datetime': '2018-12-12 14:17:24.437822', 'mgs': 0, 'flw2': 0.0, 'flw1': 0.35, 'flw0': 0.0, 'time': 19.09, 'compass': -1.98, 'pitch': 1.25, 'roll': 1.55}
{'lipoC2': 7.38, 'temp': 0.0, 'lipoC3S3': 11.35, 'state': 'normal', 'rot1': 130, 'rot0': 134, 'rot3': 0, 'rot2': 0, 'depth': -0.293, 'yaw': 27.0, 'datetime': '2018-12-12 14:17:24.647122', 'mgs': 0, 'flw2': 0.0, 'flw1': 0.5, 'flw0': 0.0, 'time': 19.3, 'compass': -1.14, 'pitch': -1.79, 'roll': 1.01}
{'lipoC2': 7.36, 'temp': 0.0, 'lipoC3S3': 11.65, 'state': 'normal', 'rot1': 130, 'rot0': 134, 'rot3': 0, 'rot2': 0, 'depth': 0.012, 'yaw': 28.05, 'datetime': '2018-12-12 14:17:24.856864', 'mgs': 0, 'flw2': 0.11, 'flw1': 0.0, 'flw0': 0.0, 'time': 19.51, 'compass': -0.09, 'pitch': -2.74, 'roll': 0.94}
{'lipoC2': 7.36, 'temp': 0.0, 'lipoC3S3': 11.25, 'state': 'normal', 'rot1': 130, 'rot0': 134, 'rot3': 0, 'rot2': 0, 'depth': 0.012, 'yaw': 29.26, 'datetime': '2018-12-12 14:17:25.064938', 'mgs': 0, 'flw2': 0.22, 'flw1': 0.0, 'flw0': 0.1, 'time': 19.72, 'compass': 1.11, 'pitch': -1.93, 'roll': 1.16}
{'lipoC2': 7.37, 'temp': 0.0, 'lipoC3S3': 11.34, 'state': 'normal', 'rot1': 130, 'rot0': 134, 'rot3': 0, 'rot2': 0, 'depth': 0.699, 'yaw': 30.46, 'datetime': '2018-12-12 14:17:25.273926', 'mgs': 0, 'flw2': 0.18, 'flw1': 0.0, 'flw0': 0.27, 'time': 19.92, 'compass': 2.32, 'pitch': -1.42, 'roll': 1.29}
{'lipoC2': 7.4, 'temp': 0.0, 'lipoC3S3': 11.27, 'state': 'normal', 'rot1': 130, 'rot0': 134, 'rot3': 0, 'rot2': 0, 'depth': 0.012, 'yaw': 31.71, 'datetime': '2018-12-12 14:17:25.483725', 'mgs': 0, 'flw2': 0.0, 'flw1': 0.41, 'flw0': 0.0, 'time': 20.13, 'compass': 3.57, 'pitch': -1.81, 'roll': 1.06}
{'lipoC2': 7.29, 'temp': 0.0, 'lipoC3S3': 11.34, 'state': 'normal', 'rot1': 130, 'rot0': 134, 'rot3': 0, 'rot2': 0, 'depth': -0.674, 'yaw': 33.1, 'datetime': '2018-12-12 14:17:25.693036', 'mgs': 0, 'flw2': 0.0, 'flw1': 0.59, 'flw0': 0.0, 'time': 20.34, 'compass': 4.96, 'pitch': -2.21, 'roll': 0.85}
{'lipoC2': 7.35, 'temp': 0.0, 'lipoC3S3': 11.61, 'state': 'normal', 'rot1': 130, 'rot0': 134, 'rot3': 0, 'rot2': 0, 'depth': 0.546, 'yaw': 34.62, 'datetime': '2018-12-12 14:17:25.903212', 'mgs': 0, 'flw2': 0.04, 'flw1': 0.0, 'flw0': 0.0, 'time': 20.55, 'compass': 6.48, 'pitch': -1.89, 'roll': 0.86}
{'lipoC2': 7.36, 'temp': 0.0, 'lipoC3S3': 11.64, 'state': 'normal', 'rot1': 130, 'rot0': 134, 'rot3': 0, 'rot2': 0, 'depth': -0.217, 'yaw': 36.15, 'datetime': '2018-12-12 14:17:26.111924', 'mgs': 0, 'flw2': 0.16, 'flw1': 0.0, 'flw0': 0.0, 'time': 20.76, 'compass': 8.01, 'pitch': -1.48, 'roll': 0.9}
{'lipoC2': 7.33, 'temp': 0.0, 'lipoC3S3': 11.39, 'state': 'normal', 'rot1': 130, 'rot0': 134, 'rot3': 0, 'rot2': 0, 'depth': 1.691, 'yaw': 37.67, 'datetime': '2018-12-12 14:17:26.319580', 'mgs': 0, 'flw2': 0.0, 'flw1': 0.41, 'flw0': 0.0, 'time': 20.97, 'compass': 9.52, 'pitch': -1.8, 'roll': 0.94}
{'lipoC2': 7.53, 'temp': 0.0, 'lipoC3S3': 11.39, 'state': 'normal', 'rot1': 130, 'rot0': 134, 'rot3': 0, 'rot2': 0, 'depth': 1.843, 'yaw': 39.29, 'datetime': '2018-12-12 14:17:26.529137', 'mgs': 0, 'flw2': 0.0, 'flw1': 0.0, 'flw0': 0.0, 'time': 21.18, 'compass': 11.15, 'pitch': -1.99, 'roll': 0.97}
{'lipoC2': 7.55, 'temp': 0.0, 'lipoC3S3': 11.39, 'state': 'normal', 'rot1': 130, 'rot0': 134, 'rot3': 0, 'rot2': 0, 'depth': -0.598, 'yaw': 40.88, 'datetime': '2018-12-12 14:17:26.738340', 'mgs': 0, 'flw2': 0.0, 'flw1': 0.0, 'flw0': 0.0, 'time': 21.39, 'compass': 12.74, 'pitch': -1.41, 'roll': 1.21}
{'lipoC2': 7.46, 'temp': 0.0, 'lipoC3S3': 11.38, 'state': 'normal', 'rot1': 130, 'rot0': 134, 'rot3': 0, 'rot2': 0, 'depth': 0.851, 'yaw': 42.42, 'datetime': '2018-12-12 14:17:26.948441', 'mgs': 0, 'flw2': 0.2, 'flw1': 0.0, 'flw0': 0.24, 'time': 21.6, 'compass': 14.28, 'pitch': -1.08, 'roll': 1.23}
{'lipoC2': 7.43, 'temp': 0.0, 'lipoC3S3': 11.26, 'state': 'normal', 'rot1': 130, 'rot0': 134, 'rot3': 0, 'rot2': 0, 'depth': 0.241, 'yaw': 43.99, 'datetime': '2018-12-12 14:17:27.158254', 'mgs': 0, 'flw2': 0.0, 'flw1': 0.0, 'flw0': 0.26, 'time': 21.81, 'compass': 15.85, 'pitch': -1.48, 'roll': 0.89}
{'lipoC2': 7.51, 'temp': 0.0, 'lipoC3S3': 11.26, 'state': 'normal', 'rot1': 130, 'rot0': 134, 'rot3': 0, 'rot2': 0, 'depth': 0.928, 'yaw': 45.41, 'datetime': '2018-12-12 14:17:27.367474', 'mgs': 0, 'flw2': 0.24, 'flw1': 0.0, 'flw0': 0.13, 'time': 22.01, 'compass': 17.27, 'pitch': -2.01, 'roll': 0.62}
{'lipoC2': 7.36, 'temp': 0.0, 'lipoC3S3': 11.38, 'state': 'normal', 'rot1': 130, 'rot0': 134, 'rot3': 0, 'rot2': 0, 'depth': 0.699, 'yaw': 46.94, 'datetime': '2018-12-12 14:17:27.575694', 'mgs': 0, 'flw2': 0.18, 'flw1': 0.0, 'flw0': 0.0, 'time': 22.22, 'compass': 18.8, 'pitch': -2.09, 'roll': 0.59}
{'lipoC2': 7.52, 'temp': 0.0, 'lipoC3S3': 11.19, 'state': 'normal', 'rot1': 130, 'rot0': 134, 'rot3': 0, 'rot2': 0, 'depth': -1.208, 'yaw': 48.46, 'datetime': '2018-12-12 14:17:27.785227', 'mgs': 0, 'flw2': 0.0, 'flw1': 2.81, 'flw0': 0.27, 'time': 22.43, 'compass': 20.32, 'pitch': -1.54, 'roll': 0.42}
{'lipoC2': 7.57, 'temp': 0.0, 'lipoC3S3': 11.06, 'state': 'normal', 'rot1': 132, 'rot0': 136, 'rot3': 1, 'rot2': 1, 'depth': 0.699, 'yaw': 49.16, 'datetime': '2018-12-12 14:17:27.989442', 'mgs': 0, 'flw2': 8.62, 'flw1': 1.99, 'flw0': 8.7, 'time': 22.64, 'compass': 21.02, 'pitch': -0.75, 'roll': 0.26}
{'lipoC2': 7.62, 'temp': 0.0, 'lipoC3S3': 11.17, 'state': 'normal', 'rot1': 138, 'rot0': 141, 'rot3': 2, 'rot2': 2, 'depth': 2.072, 'yaw': 41.82, 'datetime': '2018-12-12 14:17:28.198062', 'mgs': 0, 'flw2': 8.65, 'flw1': 2.17, 'flw0': 8.52, 'time': 22.85, 'compass': 13.68, 'pitch': 0.74, 'roll': -1.79}
{'lipoC2': 7.28, 'temp': 0.0, 'lipoC3S3': 10.94, 'state': 'normal', 'rot1': 144, 'rot0': 146, 'rot3': 3, 'rot2': 3, 'depth': -0.369, 'yaw': 27.7, 'datetime': '2018-12-12 14:17:28.410181', 'mgs': 0, 'flw2': 6.93, 'flw1': 1.9, 'flw0': 7.37, 'time': 23.06, 'compass': -0.45, 'pitch': 1.63, 'roll': -3.81}
{'lipoC2': 7.41, 'temp': 0.0, 'lipoC3S3': 11.06, 'state': 'normal', 'rot1': 149, 'rot0': 151, 'rot3': 4, 'rot2': 4, 'depth': -0.827, 'yaw': 22.16, 'datetime': '2018-12-12 14:17:28.619787', 'mgs': 0, 'flw2': 6.95, 'flw1': 2.29, 'flw0': 7.23, 'time': 23.27, 'compass': -5.98, 'pitch': 0.31, 'roll': -1.69}
{'lipoC2': 7.29, 'temp': 0.0, 'lipoC3S3': 11.03, 'state': 'normal', 'rot1': 155, 'rot0': 156, 'rot3': 5, 'rot2': 5, 'depth': 0.851, 'yaw': 25.63, 'datetime': '2018-12-12 14:17:28.828201', 'mgs': 0, 'flw2': 8.17, 'flw1': 1.85, 'flw0': 8.37, 'time': 23.48, 'compass': -2.51, 'pitch': 0.22, 'roll': 2.21}
{'lipoC2': 7.33, 'temp': 0.0, 'lipoC3S3': 11.23, 'state': 'normal', 'rot1': 161, 'rot0': 161, 'rot3': 6, 'rot2': 6, 'depth': 1.462, 'yaw': 21.43, 'datetime': '2018-12-12 14:17:29.037674', 'mgs': 0, 'flw2': 6.32, 'flw1': 2.2, 'flw0': 6.51, 'time': 23.69, 'compass': -6.71, 'pitch': 1.13, 'roll': 1.69}
{'lipoC2': 7.35, 'temp': 0.0, 'lipoC3S3': 11.18, 'state': 'normal', 'rot1': 166, 'rot0': 165, 'rot3': 7, 'rot2': 7, 'depth': -0.903, 'yaw': 8.91, 'datetime': '2018-12-12 14:17:29.246255', 'mgs': 0, 'flw2': 5.18, 'flw1': 2.96, 'flw0': 5.99, 'time': 23.9, 'compass': -19.23, 'pitch': 2.05, 'roll': -1.92}
{'lipoC2': 7.29, 'temp': 0.0, 'lipoC3S3': 11.15, 'state': 'normal', 'rot1': 172, 'rot0': 169, 'rot3': 8, 'rot2': 8, 'depth': -0.293, 'yaw': -5.94, 'datetime': '2018-12-12 14:17:29.456227', 'mgs': 0, 'flw2': 5.63, 'flw1': 2.87, 'flw0': 6.42, 'time': 24.11, 'compass': -34.09, 'pitch': 1.34, 'roll': -4.04}
{'lipoC2': 7.3, 'temp': 0.0, 'lipoC3S3': 11.47, 'state': 'normal', 'rot1': 178, 'rot0': 173, 'rot3': 9, 'rot2': 8, 'depth': 3.293, 'yaw': -22.04, 'datetime': '2018-12-12 14:17:29.667302', 'mgs': 0, 'flw2': 7.08, 'flw1': 3.11, 'flw0': 7.52, 'time': 24.32, 'compass': -50.19, 'pitch': 0.94, 'roll': -4.14}
{'lipoC2': 7.21, 'temp': 0.0, 'lipoC3S3': 11.01, 'state': 'normal', 'rot1': 183, 'rot0': 178, 'rot3': 10, 'rot2': 9, 'depth': 2.682, 'yaw': -40.3, 'datetime': '2018-12-12 14:17:29.877547', 'mgs': 0, 'flw2': 9.07, 'flw1': 2.49, 'flw0': 8.39, 'time': 24.52, 'compass': -68.45, 'pitch': 1.4, 'roll': -3.65}
{'lipoC2': 7.34, 'temp': 0.0, 'lipoC3S3': 11.13, 'state': 'normal', 'rot1': 189, 'rot0': 182, 'rot3': 11, 'rot2': 10, 'depth': 2.606, 'yaw': -60.39, 'datetime': '2018-12-12 14:17:30.087227', 'mgs': 0, 'flw2': 7.52, 'flw1': 2.34, 'flw0': 7.65, 'time': 24.74, 'compass': -88.53, 'pitch': 2.45, 'roll': -3.16}
{'lipoC2': 7.36, 'temp': 0.0, 'lipoC3S3': 11.22, 'state': 'normal', 'rot1': 195, 'rot0': 187, 'rot3': 12, 'rot2': 11, 'depth': 0.089, 'yaw': -70.15, 'datetime': '2018-12-12 14:17:30.299060', 'mgs': 0, 'flw2': 7.21, 'flw1': 2.29, 'flw0': 7.64, 'time': 24.95, 'compass': -98.29, 'pitch': 1.97, 'roll': -0.15}
{'lipoC2': 7.32, 'temp': 0.0, 'lipoC3S3': 11.29, 'state': 'normal', 'rot1': 201, 'rot0': 192, 'rot3': 13, 'rot2': 12, 'depth': 2.759, 'yaw': -69.72, 'datetime': '2018-12-12 14:17:30.509176', 'mgs': 0, 'flw2': 7.08, 'flw1': 2.84, 'flw0': 7.32, 'time': 25.16, 'compass': -97.86, 'pitch': 2.44, 'roll': 2.66}
{'lipoC2': 7.26, 'temp': 0.0, 'lipoC3S3': 11.1, 'state': 'normal', 'rot1': 206, 'rot0': 197, 'rot3': 14, 'rot2': 13, 'depth': 2.682, 'yaw': -61.88, 'datetime': '2018-12-12 14:17:30.723863', 'mgs': 0, 'flw2': 6.64, 'flw1': 2.14, 'flw0': 7.29, 'time': 25.37, 'compass': -90.02, 'pitch': 3.04, 'roll': 2.7}
{'lipoC2': 7.34, 'temp': 0.0, 'lipoC3S3': 11.3, 'state': 'normal', 'rot1': 210, 'rot0': 202, 'rot3': 15, 'rot2': 14, 'depth': 0.089, 'yaw': -48.95, 'datetime': '2018-12-12 14:17:30.930246', 'mgs': 0, 'flw2': 6.64, 'flw1': 2.4, 'flw0': 7.14, 'time': 25.58, 'compass': -77.09, 'pitch': 2.31, 'roll': 2.1}
{'lipoC2': 7.35, 'temp': 0.0, 'lipoC3S3': 11.14, 'state': 'normal', 'rot1': 216, 'rot0': 206, 'rot3': 16, 'rot2': 15, 'depth': 0.47, 'yaw': -31.77, 'datetime': '2018-12-12 14:17:31.142459', 'mgs': 0, 'flw2': 6.18, 'flw1': 3.25, 'flw0': 6.3, 'time': 25.79, 'compass': -59.91, 'pitch': 1.49, 'roll': 2.07}
{'lipoC2': 7.35, 'temp': 0.0, 'lipoC3S3': 11.43, 'state': 'normal', 'rot1': 221, 'rot0': 210, 'rot3': 17, 'rot2': 16, 'depth': 3.293, 'yaw': -13.39, 'datetime': '2018-12-12 14:17:31.351076', 'mgs': 0, 'flw2': 5.79, 'flw1': 1.96, 'flw0': 6.7, 'time': 26.0, 'compass': -41.53, 'pitch': 1.35, 'roll': 3.05}
{'lipoC2': 7.35, 'temp': 0.0, 'lipoC3S3': 11.43, 'state': 'normal', 'rot1': 227, 'rot0': 215, 'rot3': 18, 'rot2': 17, 'depth': -0.217, 'yaw': 6.43, 'datetime': '2018-12-12 14:17:31.562420', 'mgs': 0, 'flw2': 6.76, 'flw1': 3.19, 'flw0': 6.2, 'time': 26.21, 'compass': -21.71, 'pitch': 2.28, 'roll': 3.85}
{'lipoC2': 7.5, 'temp': 0.0, 'lipoC3S3': 11.02, 'state': 'normal', 'rot1': 231, 'rot0': 218, 'rot3': 19, 'rot2': 18, 'depth': -1.59, 'yaw': 18.25, 'datetime': '2018-12-12 14:17:31.774040', 'mgs': 0, 'flw2': 3.25, 'flw1': 2.11, 'flw0': 4.49, 'time': 26.42, 'compass': -9.9, 'pitch': 2.17, 'roll': 2.34}
{'lipoC2': 7.32, 'temp': 0.0, 'lipoC3S3': 11.18, 'state': 'normal', 'rot1': 236, 'rot0': 222, 'rot3': 20, 'rot2': 19, 'depth': 1.385, 'yaw': 21.63, 'datetime': '2018-12-12 14:17:31.985249', 'mgs': 0, 'flw2': 7.06, 'flw1': 2.08, 'flw0': 7.09, 'time': 26.63, 'compass': -6.51, 'pitch': 1.29, 'roll': -0.47}
{'lipoC2': 7.36, 'temp': 0.0, 'lipoC3S3': 11.32, 'state': 'normal', 'rot1': 241, 'rot0': 226, 'rot3': 21, 'rot2': 19, 'depth': 2.072, 'yaw': 28.74, 'datetime': '2018-12-12 14:17:32.195183', 'mgs': 0, 'flw2': 6.82, 'flw1': 2.9, 'flw0': 6.98, 'time': 26.84, 'compass': 0.59, 'pitch': 0.34, 'roll': -0.11}
{'lipoC2': 7.56, 'temp': 0.0, 'lipoC3S3': 11.06, 'state': 'normal', 'rot1': 245, 'rot0': 229, 'rot3': 21, 'rot2': 20, 'depth': -0.751, 'yaw': 42.99, 'datetime': '2018-12-12 14:17:32.404991', 'mgs': 0, 'flw2': 6.74, 'flw1': 2.29, 'flw0': 7.31, 'time': 27.05, 'compass': 14.85, 'pitch': 0.28, 'roll': 3.14}
{'lipoC2': 7.57, 'temp': 0.0, 'lipoC3S3': 11.06, 'state': 'normal', 'rot1': 249, 'rot0': 234, 'rot3': 22, 'rot2': 21, 'depth': -0.598, 'yaw': 61.44, 'datetime': '2018-12-12 14:17:32.616113', 'mgs': 0, 'flw2': 5.26, 'flw1': 2.11, 'flw0': 6.4, 'time': 27.26, 'compass': 33.3, 'pitch': 1.31, 'roll': 5.63}
{'lipoC2': 7.28, 'temp': 0.0, 'lipoC3S3': 11.25, 'state': 'normal', 'rot1': 254, 'rot0': 237, 'rot3': 23, 'rot2': 22, 'depth': -0.217, 'yaw': 80.49, 'datetime': '2018-12-12 14:17:32.826499', 'mgs': 0, 'flw2': 4.21, 'flw1': 3.13, 'flw0': 4.71, 'time': 27.47, 'compass': 52.35, 'pitch': 2.3, 'roll': 5.68}
{'lipoC2': 7.36, 'temp': 0.0, 'lipoC3S3': 11.54, 'state': 'normal', 'rot1': 258, 'rot0': 241, 'rot3': 24, 'rot2': 23, 'depth': -0.14, 'yaw': 98.88, 'datetime': '2018-12-12 14:17:33.042369', 'mgs': 0, 'flw2': 3.17, 'flw1': 2.2, 'flw0': 4.0, 'time': 27.68, 'compass': 70.74, 'pitch': 2.01, 'roll': 4.12}
{'lipoC2': 7.35, 'temp': 0.0, 'lipoC3S3': 11.56, 'state': 'normal', 'rot1': 261, 'rot0': 243, 'rot3': 25, 'rot2': 24, 'depth': 0.012, 'yaw': 115.95, 'datetime': '2018-12-12 14:17:33.251557', 'mgs': 0, 'flw2': 2.22, 'flw1': 2.37, 'flw0': 2.71, 'time': 27.89, 'compass': 87.81, 'pitch': 1.46, 'roll': 2.54}
{'lipoC2': 7.53, 'temp': 0.0, 'lipoC3S3': 11.17, 'state': 'normal', 'rot1': 263, 'rot0': 245, 'rot3': 26, 'rot2': 25, 'depth': -0.98, 'yaw': 133.35, 'datetime': '2018-12-12 14:17:33.461781', 'mgs': 0, 'flw2': 1.71, 'flw1': 2.61, 'flw0': 1.73, 'time': 28.1, 'compass': 105.21, 'pitch': 0.65, 'roll': 1.57}
{'lipoC2': 7.36, 'temp': 0.0, 'lipoC3S3': 11.59, 'state': 'normal', 'rot1': 265, 'rot0': 247, 'rot3': 27, 'rot2': 26, 'depth': 0.089, 'yaw': 150.04, 'datetime': '2018-12-12 14:17:33.675417', 'mgs': 0, 'flw2': 1.11, 'flw1': 2.43, 'flw0': 0.67, 'time': 28.31, 'compass': 121.9, 'pitch': -0.12, 'roll': 1.9}
{'lipoC2': 7.33, 'temp': 0.0, 'lipoC3S3': 11.35, 'state': 'normal', 'rot1': 266, 'rot0': 248, 'rot3': 28, 'rot2': 27, 'depth': 1.996, 'yaw': 165.25, 'datetime': '2018-12-12 14:17:33.883893', 'mgs': 0, 'flw2': 0.37, 'flw1': 2.23, 'flw0': 0.63, 'time': 28.52, 'compass': 137.11, 'pitch': -0.4, 'roll': 1.89}
{'lipoC2': 7.32, 'temp': 0.0, 'lipoC3S3': 11.59, 'state': 'normal', 'rot1': 267, 'rot0': 249, 'rot3': 29, 'rot2': 28, 'depth': 2.301, 'yaw': 178.32, 'datetime': '2018-12-12 14:17:34.095192', 'mgs': 0, 'flw2': 0.61, 'flw1': 2.31, 'flw0': 0.16, 'time': 28.74, 'compass': 150.18, 'pitch': -0.35, 'roll': 1.06}
{'lipoC2': 7.35, 'temp': 0.0, 'lipoC3S3': 11.56, 'state': 'normal', 'rot1': 269, 'rot0': 250, 'rot3': 30, 'rot2': 29, 'depth': -0.064, 'yaw': -169.99, 'datetime': '2018-12-12 14:17:34.305994', 'mgs': 0, 'flw2': 0.26, 'flw1': 2.37, 'flw0': 0.31, 'time': 28.94, 'compass': 161.86, 'pitch': -0.71, 'roll': 0.3}
{'lipoC2': 7.37, 'temp': 0.0, 'lipoC3S3': 11.55, 'state': 'normal', 'rot1': 269, 'rot0': 251, 'rot3': 31, 'rot2': 30, 'depth': -0.217, 'yaw': -159.47, 'datetime': '2018-12-12 14:17:34.515814', 'mgs': 0, 'flw2': 0.0, 'flw1': 2.23, 'flw0': 0.0, 'time': 29.16, 'compass': 172.39, 'pitch': -1.09, 'roll': 0.19}
{'lipoC2': 7.34, 'temp': 0.0, 'lipoC3S3': 11.51, 'state': 'normal', 'rot1': 269, 'rot0': 251, 'rot3': 32, 'rot2': 31, 'depth': 0.546, 'yaw': -150.36, 'datetime': '2018-12-12 14:17:34.723228', 'mgs': 0, 'flw2': 0.0, 'flw1': 0.06, 'flw0': 0.0, 'time': 29.36, 'compass': -178.51, 'pitch': -1.0, 'roll': 0.29}
{'lipoC2': 7.29, 'temp': 0.0, 'lipoC3S3': 11.58, 'state': 'normal', 'rot1': 271, 'rot0': 253, 'rot3': 33, 'rot2': 31, 'depth': 2.377, 'yaw': -141.97, 'datetime': '2018-12-12 14:17:34.934386', 'mgs': 0, 'flw2': 2.87, 'flw1': 2.49, 'flw0': 0.44, 'time': 29.58, 'compass': -170.11, 'pitch': -0.5, 'roll': 0.35}
{'lipoC2': 7.36, 'temp': 0.0, 'lipoC3S3': 11.48, 'state': 'normal', 'rot1': 273, 'rot0': 255, 'rot3': 34, 'rot2': 32, 'depth': -0.14, 'yaw': -133.02, 'datetime': '2018-12-12 14:17:35.144535', 'mgs': 0, 'flw2': 2.55, 'flw1': 2.58, 'flw0': 0.6, 'time': 29.79, 'compass': -161.16, 'pitch': 0.96, 'roll': 0.48}
{'lipoC2': 7.49, 'temp': 0.0, 'lipoC3S3': 11.07, 'state': 'normal', 'rot1': 275, 'rot0': 257, 'rot3': 35, 'rot2': 33, 'depth': -1.437, 'yaw': -123.72, 'datetime': '2018-12-12 14:17:35.361212', 'mgs': 0, 'flw2': 2.76, 'flw1': 0.0, 'flw0': 0.87, 'time': 30.0, 'compass': -151.86, 'pitch': 1.51, 'roll': 1.01}
{'lipoC2': 7.35, 'temp': 0.0, 'lipoC3S3': 11.23, 'state': 'normal', 'rot1': 276, 'rot0': 260, 'rot3': 35, 'rot2': 34, 'depth': -0.064, 'yaw': -114.48, 'datetime': '2018-12-12 14:17:35.569186', 'mgs': 0, 'flw2': 2.66, 'flw1': 2.31, 'flw0': 0.96, 'time': 30.21, 'compass': -142.62, 'pitch': 1.26, 'roll': 1.69}
{'lipoC2': 7.32, 'temp': 0.0, 'lipoC3S3': 11.48, 'state': 'normal', 'rot1': 278, 'rot0': 262, 'rot3': 36, 'rot2': 34, 'depth': 0.012, 'yaw': -105.43, 'datetime': '2018-12-12 14:17:35.781606', 'mgs': 0, 'flw2': 2.51, 'flw1': 3.19, 'flw0': 0.9, 'time': 30.42, 'compass': -133.58, 'pitch': 1.05, 'roll': 2.02}
{'lipoC2': 7.44, 'temp': 0.0, 'lipoC3S3': 11.15, 'state': 'normal', 'rot1': 279, 'rot0': 264, 'rot3': 36, 'rot2': 35, 'depth': 0.623, 'yaw': -96.89, 'datetime': '2018-12-12 14:17:35.992972', 'mgs': 0, 'flw2': 2.39, 'flw1': 0.41, 'flw0': 0.72, 'time': 30.63, 'compass': -125.03, 'pitch': 1.28, 'roll': 1.93}
{'lipoC2': 7.49, 'temp': 0.0, 'lipoC3S3': 11.14, 'state': 'normal', 'rot1': 280, 'rot0': 267, 'rot3': 37, 'rot2': 35, 'depth': 1.233, 'yaw': -88.25, 'datetime': '2018-12-12 14:17:36.206456', 'mgs': 0, 'flw2': 2.65, 'flw1': 2.64, 'flw0': 0.79, 'time': 30.84, 'compass': -116.39, 'pitch': 1.23, 'roll': 1.88}
{'lipoC2': 7.36, 'temp': 0.0, 'lipoC3S3': 11.25, 'state': 'normal', 'rot1': 282, 'rot0': 269, 'rot3': 37, 'rot2': 36, 'depth': 0.623, 'yaw': -79.86, 'datetime': '2018-12-12 14:17:36.413695', 'mgs': 0, 'flw2': 2.33, 'flw1': 3.98, 'flw0': 0.67, 'time': 31.05, 'compass': -108.01, 'pitch': 0.94, 'roll': 2.11}
{'lipoC2': 7.35, 'temp': 0.0, 'lipoC3S3': 11.55, 'state': 'normal', 'rot1': 283, 'rot0': 272, 'rot3': 38, 'rot2': 36, 'depth': 0.012, 'yaw': -71.49, 'datetime': '2018-12-12 14:17:36.622837', 'mgs': 0, 'flw2': 2.59, 'flw1': 0.09, 'flw0': 0.68, 'time': 31.26, 'compass': -99.63, 'pitch': 0.92, 'roll': 2.28}
{'lipoC2': 7.35, 'temp': 0.0, 'lipoC3S3': 11.48, 'state': 'normal', 'rot1': 285, 'rot0': 274, 'rot3': 39, 'rot2': 37, 'depth': 1.462, 'yaw': -62.92, 'datetime': '2018-12-12 14:17:36.835078', 'mgs': 0, 'flw2': 2.53, 'flw1': 2.43, 'flw0': 0.54, 'time': 31.47, 'compass': -91.06, 'pitch': 1.12, 'roll': 1.91}
{'lipoC2': 7.34, 'temp': 0.0, 'lipoC3S3': 11.46, 'state': 'normal', 'rot1': 287, 'rot0': 276, 'rot3': 39, 'rot2': 37, 'depth': 1.614, 'yaw': -55.57, 'datetime': '2018-12-12 14:17:37.047953', 'mgs': 0, 'flw2': 2.32, 'flw1': 2.93, 'flw0': 0.84, 'time': 31.68, 'compass': -83.72, 'pitch': 1.14, 'roll': 1.42}
{'lipoC2': 7.54, 'temp': 0.0, 'lipoC3S3': 11.23, 'state': 'normal', 'rot1': 288, 'rot0': 279, 'rot3': 40, 'rot2': 38, 'depth': -0.903, 'yaw': -48.19, 'datetime': '2018-12-12 14:17:37.258041', 'mgs': 0, 'flw2': 2.8, 'flw1': 3.28, 'flw0': 0.51, 'time': 31.89, 'compass': -76.33, 'pitch': 1.14, 'roll': 1.69}
{'lipoC2': 7.39, 'temp': 0.0, 'lipoC3S3': 11.26, 'state': 'normal', 'rot1': 289, 'rot0': 281, 'rot3': 41, 'rot2': 39, 'depth': 1.233, 'yaw': -40.44, 'datetime': '2018-12-12 14:17:37.468778', 'mgs': 0, 'flw2': 2.53, 'flw1': 2.55, 'flw0': 0.62, 'time': 32.1, 'compass': -68.58, 'pitch': 1.23, 'roll': 1.8}
{'lipoC2': 7.27, 'temp': 0.0, 'lipoC3S3': 11.21, 'state': 'normal', 'rot1': 291, 'rot0': 284, 'rot3': 42, 'rot2': 40, 'depth': -0.598, 'yaw': -32.96, 'datetime': '2018-12-12 14:17:37.680173', 'mgs': 0, 'flw2': 2.23, 'flw1': 4.04, 'flw0': 0.65, 'time': 32.31, 'compass': -61.1, 'pitch': 0.66, 'roll': 1.73}
{'lipoC2': 7.36, 'temp': 0.0, 'lipoC3S3': 11.52, 'state': 'normal', 'rot1': 292, 'rot0': 286, 'rot3': 43, 'rot2': 41, 'depth': 1.004, 'yaw': -25.12, 'datetime': '2018-12-12 14:17:37.889177', 'mgs': 0, 'flw2': 2.51, 'flw1': 3.57, 'flw0': 0.61, 'time': 32.52, 'compass': -53.26, 'pitch': 0.18, 'roll': 1.88}
{'lipoC2': 7.33, 'temp': 0.0, 'lipoC3S3': 11.4, 'state': 'normal', 'rot1': 294, 'rot0': 288, 'rot3': 44, 'rot2': 42, 'depth': 1.996, 'yaw': -16.83, 'datetime': '2018-12-12 14:17:38.098679', 'mgs': 0, 'flw2': 2.49, 'flw1': 2.14, 'flw0': 0.66, 'time': 32.73, 'compass': -44.97, 'pitch': 0.71, 'roll': 1.9}
{'lipoC2': 7.34, 'temp': 0.0, 'lipoC3S3': 11.56, 'state': 'normal', 'rot1': 295, 'rot0': 290, 'rot3': 45, 'rot2': 43, 'depth': 1.691, 'yaw': -9.02, 'datetime': '2018-12-12 14:17:38.308206', 'mgs': 0, 'flw2': 2.43, 'flw1': 1.99, 'flw0': 0.89, 'time': 32.94, 'compass': -37.16, 'pitch': 1.36, 'roll': 1.92}
{'lipoC2': 7.33, 'temp': 0.0, 'lipoC3S3': 11.55, 'state': 'normal', 'rot1': 297, 'rot0': 293, 'rot3': 46, 'rot2': 44, 'depth': -0.217, 'yaw': -0.88, 'datetime': '2018-12-12 14:17:38.521442', 'mgs': 0, 'flw2': 2.66, 'flw1': 0.0, 'flw0': 0.93, 'time': 33.15, 'compass': -29.02, 'pitch': 1.36, 'roll': 1.95}
{'lipoC2': 7.34, 'temp': 0.0, 'lipoC3S3': 11.51, 'state': 'normal', 'rot1': 298, 'rot0': 295, 'rot3': 46, 'rot2': 44, 'depth': 1.767, 'yaw': 7.07, 'datetime': '2018-12-12 14:17:38.730217', 'mgs': 0, 'flw2': 2.36, 'flw1': 2.2, 'flw0': 0.74, 'time': 33.36, 'compass': -21.07, 'pitch': 0.77, 'roll': 2.31}
{'lipoC2': 7.36, 'temp': 0.0, 'lipoC3S3': 11.25, 'state': 'normal', 'rot1': 299, 'rot0': 298, 'rot3': 47, 'rot2': 45, 'depth': 0.012, 'yaw': 15.12, 'datetime': '2018-12-12 14:17:38.941667', 'mgs': 0, 'flw2': 2.56, 'flw1': 3.52, 'flw0': 0.61, 'time': 33.57, 'compass': -13.02, 'pitch': 0.55, 'roll': 2.55}
{'lipoC2': 7.35, 'temp': 0.0, 'lipoC3S3': 11.3, 'state': 'normal', 'rot1': 301, 'rot0': 300, 'rot3': 47, 'rot2': 45, 'depth': 1.004, 'yaw': 22.77, 'datetime': '2018-12-12 14:17:39.150258', 'mgs': 0, 'flw2': 2.39, 'flw1': 0.53, 'flw0': 0.61, 'time': 33.78, 'compass': -5.38, 'pitch': 0.99, 'roll': 2.25}
{'lipoC2': 7.35, 'temp': 0.0, 'lipoC3S3': 11.59, 'state': 'normal', 'rot1': 302, 'rot0': 302, 'rot3': 48, 'rot2': 46, 'depth': 0.012, 'yaw': 30.57, 'datetime': '2018-12-12 14:17:39.361074', 'mgs': 0, 'flw2': 2.49, 'flw1': 2.26, 'flw0': 0.72, 'time': 33.99, 'compass': 2.43, 'pitch': 1.23, 'roll': 2.24}
{'lipoC2': 7.33, 'temp': 0.0, 'lipoC3S3': 11.32, 'state': 'normal', 'rot1': 304, 'rot0': 305, 'rot3': 48, 'rot2': 46, 'depth': 2.454, 'yaw': 38.48, 'datetime': '2018-12-12 14:17:39.571511', 'mgs': 0, 'flw2': 0.6, 'flw1': 3.31, 'flw0': 2.98, 'time': 34.2, 'compass': 10.33, 'pitch': 1.21, 'roll': 2.75}
{'lipoC2': 7.32, 'temp': 0.0, 'lipoC3S3': 11.56, 'state': 'normal', 'rot1': 306, 'rot0': 306, 'rot3': 49, 'rot2': 47, 'depth': 2.301, 'yaw': 43.98, 'datetime': '2018-12-12 14:17:39.783676', 'mgs': 0, 'flw2': 0.74, 'flw1': 0.0, 'flw0': 2.82, 'time': 34.41, 'compass': 15.84, 'pitch': 1.15, 'roll': 2.46}
{'lipoC2': 7.36, 'temp': 0.0, 'lipoC3S3': 11.21, 'state': 'normal', 'rot1': 309, 'rot0': 307, 'rot3': 50, 'rot2': 48, 'depth': 1.157, 'yaw': 46.55, 'datetime': '2018-12-12 14:17:39.994608', 'mgs': 0, 'flw2': 0.73, 'flw1': 2.46, 'flw0': 2.94, 'time': 34.62, 'compass': 18.41, 'pitch': 0.94, 'roll': 1.69}
{'lipoC2': 7.32, 'temp': 0.0, 'lipoC3S3': 11.4, 'state': 'normal', 'rot1': 311, 'rot0': 309, 'rot3': 50, 'rot2': 48, 'depth': -0.217, 'yaw': 47.24, 'datetime': '2018-12-12 14:17:40.203490', 'mgs': 0, 'flw2': 0.48, 'flw1': 4.07, 'flw0': 2.75, 'time': 34.83, 'compass': 19.1, 'pitch': 0.72, 'roll': 0.91}
{'lipoC2': 7.32, 'temp': 0.0, 'lipoC3S3': 11.19, 'state': 'normal', 'rot1': 314, 'rot0': 310, 'rot3': 51, 'rot2': 49, 'depth': 0.089, 'yaw': 46.61, 'datetime': '2018-12-12 14:17:40.413443', 'mgs': 0, 'flw2': 0.49, 'flw1': 0.23, 'flw0': 2.69, 'time': 35.04, 'compass': 18.47, 'pitch': 0.66, 'roll': 0.34}
{'lipoC2': 7.55, 'temp': 0.0, 'lipoC3S3': 11.29, 'state': 'normal', 'rot1': 316, 'rot0': 312, 'rot3': 52, 'rot2': 49, 'depth': -1.056, 'yaw': 44.66, 'datetime': '2018-12-12 14:17:40.625722', 'mgs': 0, 'flw2': 0.89, 'flw1': 2.43, 'flw0': 2.5, 'time': 35.26, 'compass': 16.52, 'pitch': 0.64, 'roll': 0.07}
{'lipoC2': 7.41, 'temp': 0.0, 'lipoC3S3': 11.15, 'state': 'normal', 'rot1': 318, 'rot0': 313, 'rot3': 52, 'rot2': 50, 'depth': -0.751, 'yaw': 42.14, 'datetime': '2018-12-12 14:17:40.837272', 'mgs': 0, 'flw2': 0.54, 'flw1': 2.9, 'flw0': 3.0, 'time': 35.47, 'compass': 14.0, 'pitch': 0.49, 'roll': 0.05}
{'lipoC2': 7.42, 'temp': 0.0, 'lipoC3S3': 11.17, 'state': 'normal', 'rot1': 335, 'rot0': 322, 'rot3': 56, 'rot2': 53, 'depth': -0.446, 'yaw': 18.4, 'datetime': '2018-12-12 14:17:41.991120', 'mgs': 0, 'flw2': 2.81, 'flw1': 3.08, 'flw0': 2.48, 'time': 36.62, 'compass': -9.74, 'pitch': 1.68, 'roll': -1.07}
{'lipoC2': 7.36, 'temp': 0.0, 'lipoC3S3': 11.59, 'state': 'normal', 'rot1': 337, 'rot0': 325, 'rot3': 57, 'rot2': 54, 'depth': -0.064, 'yaw': 15.85, 'datetime': '2018-12-12 14:17:42.201085', 'mgs': 0, 'flw2': 2.43, 'flw1': 2.99, 'flw0': 0.57, 'time': 36.83, 'compass': -12.29, 'pitch': 2.51, 'roll': -0.73}
{'lipoC2': 7.3, 'temp': 0.0, 'lipoC3S3': 11.22, 'state': 'normal', 'rot1': 339, 'rot0': 328, 'rot3': 58, 'rot2': 55, 'depth': -0.522, 'yaw': 15.63, 'datetime': '2018-12-12 14:17:42.410800', 'mgs': 0, 'flw2': 2.51, 'flw1': 3.57, 'flw0': 0.63, 'time': 37.04, 'compass': -12.51, 'pitch': 1.7, 'roll': 0.12}
{'lipoC2': 7.47, 'temp': 0.0, 'lipoC3S3': 11.15, 'state': 'normal', 'rot1': 340, 'rot0': 330, 'rot3': 58, 'rot2': 56, 'depth': 0.241, 'yaw': 16.96, 'datetime': '2018-12-12 14:17:42.623185', 'mgs': 0, 'flw2': 2.5, 'flw1': 0.0, 'flw0': 0.6, 'time': 37.25, 'compass': -11.18, 'pitch': 0.98, 'roll': 0.87}
{'lipoC2': 7.32, 'temp': 0.0, 'lipoC3S3': 11.54, 'state': 'normal', 'rot1': 342, 'rot0': 332, 'rot3': 59, 'rot2': 56, 'depth': 2.606, 'yaw': 19.35, 'datetime': '2018-12-12 14:17:42.832616', 'mgs': 0, 'flw2': 2.81, 'flw1': 2.46, 'flw0': 0.51, 'time': 37.46, 'compass': -8.79, 'pitch': 1.01, 'roll': 1.24}
{'lipoC2': 7.44, 'temp': 0.0, 'lipoC3S3': 11.27, 'state': 'normal', 'rot1': 343, 'rot0': 335, 'rot3': 60, 'rot2': 57, 'depth': 0.241, 'yaw': 24.54, 'datetime': '2018-12-12 14:17:43.044892', 'mgs': 0, 'flw2': 2.37, 'flw1': 2.61, 'flw0': 0.71, 'time': 37.67, 'compass': -3.6, 'pitch': 1.31, 'roll': 1.2}
{'lipoC2': 7.32, 'temp': 0.0, 'lipoC3S3': 11.52, 'state': 'normal', 'rot1': 345, 'rot0': 337, 'rot3': 61, 'rot2': 58, 'depth': 0.012, 'yaw': 29.23, 'datetime': '2018-12-12 14:17:43.253990', 'mgs': 0, 'flw2': 2.47, 'flw1': 3.43, 'flw0': 0.85, 'time': 37.88, 'compass': 1.08, 'pitch': 1.14, 'roll': 0.78}
{'lipoC2': 7.55, 'temp': 0.0, 'lipoC3S3': 11.23, 'state': 'normal', 'rot1': 348, 'rot0': 339, 'rot3': 62, 'rot2': 59, 'depth': 1.92, 'yaw': 33.28, 'datetime': '2018-12-12 14:17:43.464348', 'mgs': 0, 'flw2': 0.57, 'flw1': 3.02, 'flw0': 2.67, 'time': 38.09, 'compass': 5.14, 'pitch': 0.49, 'roll': 0.27}
{'lipoC2': 7.39, 'temp': 0.0, 'lipoC3S3': 11.26, 'state': 'normal', 'rot1': 350, 'rot0': 340, 'rot3': 63, 'rot2': 60, 'depth': -0.674, 'yaw': 34.47, 'datetime': '2018-12-12 14:17:43.677620', 'mgs': 0, 'flw2': 0.78, 'flw1': 2.29, 'flw0': 2.71, 'time': 38.3, 'compass': 6.33, 'pitch': 0.15, 'roll': -0.5}
{'lipoC2': 7.47, 'temp': 0.0, 'lipoC3S3': 11.14, 'state': 'normal', 'rot1': 353, 'rot0': 341, 'rot3': 64, 'rot2': 61, 'depth': 0.165, 'yaw': 33.77, 'datetime': '2018-12-12 14:17:43.885974', 'mgs': 0, 'flw2': 0.56, 'flw1': 0.56, 'flw0': 2.7, 'time': 38.51, 'compass': 5.63, 'pitch': 0.17, 'roll': -1.08}
{'lipoC2': 7.55, 'temp': 0.0, 'lipoC3S3': 11.31, 'state': 'normal', 'rot1': 355, 'rot0': 343, 'rot3': 65, 'rot2': 62, 'depth': 1.92, 'yaw': 31.77, 'datetime': '2018-12-12 14:17:44.096110', 'mgs': 0, 'flw2': 0.96, 'flw1': 2.37, 'flw0': 2.56, 'time': 38.72, 'compass': 3.63, 'pitch': 0.23, 'roll': -1.25}
{'lipoC2': 7.33, 'temp': 0.0, 'lipoC3S3': 11.6, 'state': 'normal', 'rot1': 358, 'rot0': 344, 'rot3': 66, 'rot2': 63, 'depth': 2.148, 'yaw': 28.44, 'datetime': '2018-12-12 14:17:44.310100', 'mgs': 0, 'flw2': 0.59, 'flw1': 2.99, 'flw0': 2.75, 'time': 38.93, 'compass': 0.3, 'pitch': 0.6, 'roll': -1.09}
{'lipoC2': 7.38, 'temp': 0.0, 'lipoC3S3': 11.23, 'state': 'normal', 'rot1': 361, 'rot0': 345, 'rot3': 67, 'rot2': 64, 'depth': -0.369, 'yaw': 24.47, 'datetime': '2018-12-12 14:17:44.517645', 'mgs': 0, 'flw2': 0.51, 'flw1': 0.0, 'flw0': 2.56, 'time': 39.14, 'compass': -3.67, 'pitch': 1.03, 'roll': -0.81}
{'lipoC2': 7.32, 'temp': 0.0, 'lipoC3S3': 11.56, 'state': 'normal', 'rot1': 363, 'rot0': 347, 'rot3': 67, 'rot2': 64, 'depth': -0.522, 'yaw': 20.49, 'datetime': '2018-12-12 14:17:44.726525', 'mgs': 0, 'flw2': 2.54, 'flw1': 3.16, 'flw0': 2.69, 'time': 39.35, 'compass': -7.66, 'pitch': 0.91, 'roll': -0.7}
{'lipoC2': 7.35, 'temp': 0.0, 'lipoC3S3': 10.9, 'state': 'normal', 'rot1': 366, 'rot0': 350, 'rot3': 68, 'rot2': 65, 'depth': 0.623, 'yaw': 18.02, 'datetime': '2018-12-12 14:17:44.933482', 'mgs': 0, 'flw2': 7.24, 'flw1': 1.99, 'flw0': 7.1, 'time': 39.56, 'compass': -10.12, 'pitch': 1.28, 'roll': -0.39}
{'lipoC2': 7.32, 'temp': 0.0, 'lipoC3S3': 11.18, 'state': 'normal', 'rot1': 370, 'rot0': 353, 'rot3': 69, 'rot2': 66, 'depth': 1.767, 'yaw': 21.59, 'datetime': '2018-12-12 14:17:45.145893', 'mgs': 0, 'flw2': 6.77, 'flw1': 1.79, 'flw0': 7.42, 'time': 39.77, 'compass': -6.55, 'pitch': 0.37, 'roll': 1.28}
{'lipoC2': 7.36, 'temp': 0.0, 'lipoC3S3': 11.11, 'state': 'normal', 'rot1': 375, 'rot0': 357, 'rot3': 70, 'rot2': 67, 'depth': 0.546, 'yaw': 31.62, 'datetime': '2018-12-12 14:17:45.354615', 'mgs': 0, 'flw2': 6.63, 'flw1': 2.49, 'flw0': 6.47, 'time': 39.98, 'compass': 3.48, 'pitch': -0.62, 'roll': 3.8}
{'lipoC2': 7.28, 'temp': 0.0, 'lipoC3S3': 11.19, 'state': 'normal', 'rot1': 380, 'rot0': 361, 'rot3': 71, 'rot2': 68, 'depth': -0.064, 'yaw': 46.45, 'datetime': '2018-12-12 14:17:45.567492', 'mgs': 0, 'flw2': 5.74, 'flw1': 3.19, 'flw0': 6.19, 'time': 40.19, 'compass': 18.31, 'pitch': -0.5, 'roll': 5.74}
{'lipoC2': 7.37, 'temp': 0.0, 'lipoC3S3': 11.03, 'state': 'normal', 'rot1': 384, 'rot0': 364, 'rot3': 72, 'rot2': 69, 'depth': -0.751, 'yaw': 62.95, 'datetime': '2018-12-12 14:17:45.777513', 'mgs': 0, 'flw2': 4.98, 'flw1': 2.55, 'flw0': 5.82, 'time': 40.4, 'compass': 34.81, 'pitch': 0.25, 'roll': 5.75}
{'lipoC2': 7.43, 'temp': 0.0, 'lipoC3S3': 11.03, 'state': 'normal', 'rot1': 387, 'rot0': 368, 'rot3': 73, 'rot2': 70, 'depth': 0.165, 'yaw': 81.4, 'datetime': '2018-12-12 14:17:45.986208', 'mgs': 0, 'flw2': 4.13, 'flw1': 2.52, 'flw0': 4.77, 'time': 40.61, 'compass': 53.26, 'pitch': 0.87, 'roll': 4.32}
{'lipoC2': 7.34, 'temp': 0.0, 'lipoC3S3': 11.11, 'state': 'normal', 'rot1': 392, 'rot0': 371, 'rot3': 74, 'rot2': 71, 'depth': -0.751, 'yaw': 98.79, 'datetime': '2018-12-12 14:17:46.196214', 'mgs': 0, 'flw2': 2.81, 'flw1': 2.67, 'flw0': 3.23, 'time': 40.82, 'compass': 70.65, 'pitch': 0.49, 'roll': 2.79}
{'lipoC2': 7.28, 'temp': 0.0, 'lipoC3S3': 11.34, 'state': 'normal', 'rot1': 394, 'rot0': 374, 'rot3': 75, 'rot2': 72, 'depth': -0.598, 'yaw': 114.61, 'datetime': '2018-12-12 14:17:46.409346', 'mgs': 0, 'flw2': 1.95, 'flw1': 2.67, 'flw0': 2.32, 'time': 41.03, 'compass': 86.47, 'pitch': 0.23, 'roll': 2.34}
{'lipoC2': 7.54, 'temp': 0.0, 'lipoC3S3': 11.19, 'state': 'normal', 'rot1': 396, 'rot0': 376, 'rot3': 76, 'rot2': 73, 'depth': -1.056, 'yaw': 129.69, 'datetime': '2018-12-12 14:17:46.621066', 'mgs': 0, 'flw2': 1.46, 'flw1': 2.43, 'flw0': 1.33, 'time': 41.24, 'compass': 101.55, 'pitch': 0.41, 'roll': 2.25}
{'lipoC2': 7.3, 'temp': 0.0, 'lipoC3S3': 11.26, 'state': 'normal', 'rot1': 398, 'rot0': 378, 'rot3': 77, 'rot2': 74, 'depth': 1.462, 'yaw': 142.62, 'datetime': '2018-12-12 14:17:46.835752', 'mgs': 0, 'flw2': 0.87, 'flw1': 2.37, 'flw0': 0.74, 'time': 41.45, 'compass': 114.48, 'pitch': 0.05, 'roll': 1.79}
{'lipoC2': 7.36, 'temp': 0.0, 'lipoC3S3': 11.56, 'state': 'normal', 'rot1': 400, 'rot0': 379, 'rot3': 78, 'rot2': 75, 'depth': 0.089, 'yaw': 154.46, 'datetime': '2018-12-12 14:17:47.038286', 'mgs': 0, 'flw2': 0.28, 'flw1': 3.37, 'flw0': 0.33, 'time': 41.66, 'compass': 126.32, 'pitch': -0.79, 'roll': 1.1}
{'lipoC2': 7.29, 'temp': 0.0, 'lipoC3S3': 11.29, 'state': 'normal', 'rot1': 402, 'rot0': 380, 'rot3': 79, 'rot2': 76, 'depth': 1.767, 'yaw': 164.41, 'datetime': '2018-12-12 14:17:47.248528', 'mgs': 0, 'flw2': 0.18, 'flw1': 3.19, 'flw0': 0.22, 'time': 41.87, 'compass': 136.27, 'pitch': -1.24, 'roll': 0.85}
{'lipoC2': 7.32, 'temp': 0.0, 'lipoC3S3': 11.25, 'state': 'normal', 'rot1': 403, 'rot0': 381, 'rot3': 80, 'rot2': 77, 'depth': -0.522, 'yaw': 173.58, 'datetime': '2018-12-12 14:17:47.459547', 'mgs': 0, 'flw2': 0.56, 'flw1': 1.96, 'flw0': 0.09, 'time': 42.08, 'compass': 145.44, 'pitch': -1.2, 'roll': 0.8}
{'lipoC2': 7.47, 'temp': 0.0, 'lipoC3S3': 11.29, 'state': 'normal', 'rot1': 404, 'rot0': 382, 'rot3': 81, 'rot2': 78, 'depth': -0.98, 'yaw': -178.08, 'datetime': '2018-12-12 14:17:47.669564', 'mgs': 0, 'flw2': 0.11, 'flw1': 2.87, 'flw0': 0.31, 'time': 42.29, 'compass': 153.78, 'pitch': -0.96, 'roll': 0.88}
{'lipoC2': 7.54, 'temp': 0.0, 'lipoC3S3': 11.17, 'state': 'normal', 'rot1': 406, 'rot0': 383, 'rot3': 82, 'rot2': 79, 'depth': -1.437, 'yaw': -170.22, 'datetime': '2018-12-12 14:17:47.880965', 'mgs': 0, 'flw2': 0.15, 'flw1': 2.34, 'flw0': 0.09, 'time': 42.5, 'compass': 161.64, 'pitch': -0.96, 'roll': 1.23}
{'lipoC2': 7.35, 'temp': 0.0, 'lipoC3S3': 11.67, 'state': 'normal', 'rot1': 406, 'rot0': 383, 'rot3': 83, 'rot2': 80, 'depth': -0.064, 'yaw': -163.19, 'datetime': '2018-12-12 14:17:48.090948', 'mgs': 0, 'flw2': 0.09, 'flw1': 0.0, 'flw0': 0.0, 'time': 42.71, 'compass': 168.67, 'pitch': -0.96, 'roll': 1.15}
{'lipoC2': 7.25, 'temp': 0.0, 'lipoC3S3': 11.22, 'state': 'normal', 'rot1': 408, 'rot0': 384, 'rot3': 83, 'rot2': 80, 'depth': -0.751, 'yaw': -157.47, 'datetime': '2018-12-12 14:17:48.304064', 'mgs': 0, 'flw2': 0.49, 'flw1': 2.81, 'flw0': 2.65, 'time': 42.92, 'compass': 174.39, 'pitch': -0.4, 'roll': 0.66}
{'lipoC2': 7.33, 'temp': 0.0, 'lipoC3S3': 11.3, 'state': 'normal', 'rot1': 410, 'rot0': 385, 'rot3': 84, 'rot2': 81, 'depth': 1.157, 'yaw': -154.36, 'datetime': '2018-12-12 14:17:48.514279', 'mgs': 0, 'flw2': 0.54, 'flw1': 2.78, 'flw0': 3.02, 'time': 43.13, 'compass': 177.5, 'pitch': 1.41, 'roll': 0.04}
{'lipoC2': 7.32, 'temp': 0.0, 'lipoC3S3': 11.38, 'state': 'normal', 'rot1': 413, 'rot0': 387, 'rot3': 85, 'rot2': 82, 'depth': -1.208, 'yaw': -153.41, 'datetime': '2018-12-12 14:17:48.728783', 'mgs': 0, 'flw2': 0.66, 'flw1': 0.09, 'flw0': 2.75, 'time': 43.34, 'compass': 178.45, 'pitch': 2.45, 'roll': -0.44}
{'lipoC2': 7.48, 'temp': 0.0, 'lipoC3S3': 11.1, 'state': 'normal', 'rot1': 415, 'rot0': 389, 'rot3': 85, 'rot2': 82, 'depth': -0.522, 'yaw': -152.96, 'datetime': '2018-12-12 14:17:48.941432', 'mgs': 0, 'flw2': 2.7, 'flw1': 2.49, 'flw0': 0.62, 'time': 43.56, 'compass': 178.89, 'pitch': 1.89, 'roll': -0.02}
