{'lipoC2': 0.16, 'temp': 0.0, 'lipoC3S3': 12.26, 'state': 'normal', 'rot1': 0, 'rot0': 0, 'rot3': 0, 'rot2': 0, 'depth': -0.827, 'yaw': 0.0, 'datetime': '2018-12-18 18:06:29.975878', 'mgs': 0, 'flw2': 0.01, 'flw1': 0.0, 'flw0': 0.16, 'time': 1.25, 'compass': -19.98, 'pitch': -1.1, 'roll': 0.37}
{'lipoC2': 0.0, 'temp': 0.0, 'lipoC3S3': 12.51, 'state': 'normal', 'rot1': 0, 'rot0': 0, 'rot3': 0, 'rot2': 0, 'depth': 1.996, 'yaw': 0.0, 'datetime': '2018-12-18 18:06:30.184132', 'mgs': 0, 'flw2': 0.18, 'flw1': 0.03, 'flw0': 0.0, 'time': 1.46, 'compass': -19.97, 'pitch': -0.94, 'roll': 0.22}
{'lipoC2': 0.13, 'temp': 0.0, 'lipoC3S3': 12.33, 'state': 'normal', 'rot1': 0, 'rot0': 0, 'rot3': 0, 'rot2': 0, 'depth': -1.132, 'yaw': 0.0, 'datetime': '2018-12-18 18:06:30.392503', 'mgs': 0, 'flw2': 0.0, 'flw1': 0.41, 'flw0': 0.0, 'time': 1.67, 'compass': -19.97, 'pitch': -0.65, 'roll': -0.04}
{'lipoC2': 0.09, 'temp': 0.0, 'lipoC3S3': 12.12, 'state': 'normal', 'rot1': 0, 'rot0': 0, 'rot3': 0, 'rot2': 0, 'depth': 1.309, 'yaw': 0.0, 'datetime': '2018-12-18 18:06:30.602393', 'mgs': 0, 'flw2': 0.17, 'flw1': 0.0, 'flw0': 0.2, 'time': 1.88, 'compass': -19.97, 'pitch': -0.69, 'roll': -0.1}
{'lipoC2': 0.13, 'temp': 0.0, 'lipoC3S3': 12.31, 'state': 'normal', 'rot1': 0, 'rot0': 0, 'rot3': 0, 'rot2': 0, 'depth': -1.59, 'yaw': 0.0, 'datetime': '2018-12-18 18:06:30.805976', 'mgs': 0, 'flw2': 0.24, 'flw1': 0.41, 'flw0': 0.28, 'time': 2.09, 'compass': -19.97, 'pitch': -0.94, 'roll': -0.04}
{'lipoC2': 0.0, 'temp': 0.0, 'lipoC3S3': 12.35, 'state': 'normal', 'rot1': 1, 'rot0': 3, 'rot3': 0, 'rot2': 0, 'depth': -0.14, 'yaw': -0.54, 'datetime': '2018-12-18 18:06:31.014191', 'mgs': 0, 'flw2': 0.6, 'flw1': 0.5, 'flw0': 0.57, 'time': 2.3, 'compass': -20.51, 'pitch': -0.86, 'roll': -0.06}
{'lipoC2': 0.14, 'temp': 0.0, 'lipoC3S3': 12.12, 'state': 'normal', 'rot1': 2, 'rot0': 5, 'rot3': 0, 'rot2': 0, 'depth': 0.699, 'yaw': -2.3, 'datetime': '2018-12-18 18:06:31.223417', 'mgs': 0, 'flw2': 0.5, 'flw1': 0.0, 'flw0': 0.81, 'time': 2.5, 'compass': -22.28, 'pitch': -0.43, 'roll': -0.31}
{'lipoC2': 0.0, 'temp': 0.0, 'lipoC3S3': 12.34, 'state': 'normal', 'rot1': 5, 'rot0': 6, 'rot3': 0, 'rot2': 0, 'depth': 0.241, 'yaw': -5.27, 'datetime': '2018-12-18 18:06:31.431104', 'mgs': 0, 'flw2': 0.33, 'flw1': 0.47, 'flw0': 0.52, 'time': 2.71, 'compass': -25.25, 'pitch': -0.3, 'roll': -0.48}
{'lipoC2': 0.0, 'temp': 0.0, 'lipoC3S3': 12.47, 'state': 'normal', 'rot1': 6, 'rot0': 7, 'rot3': 0, 'rot2': 0, 'depth': 1.767, 'yaw': -9.08, 'datetime': '2018-12-18 18:06:31.645353', 'mgs': 0, 'flw2': 0.15, 'flw1': 0.26, 'flw0': 0.63, 'time': 2.92, 'compass': -29.05, 'pitch': -0.52, 'roll': -0.51}
{'lipoC2': 0.0, 'temp': 0.0, 'lipoC3S3': 12.34, 'state': 'normal', 'rot1': 7, 'rot0': 9, 'rot3': 0, 'rot2': 0, 'depth': 0.165, 'yaw': -13.28, 'datetime': '2018-12-18 18:06:31.849816', 'mgs': 0, 'flw2': 0.33, 'flw1': 0.47, 'flw0': 0.42, 'time': 3.13, 'compass': -33.26, 'pitch': -0.46, 'roll': -0.55}
{'lipoC2': 0.02, 'temp': 0.0, 'lipoC3S3': 12.19, 'state': 'normal', 'rot1': 8, 'rot0': 9, 'rot3': 0, 'rot2': 0, 'depth': 0.317, 'yaw': -18.06, 'datetime': '2018-12-18 18:06:32.060060', 'mgs': 0, 'flw2': 0.0, 'flw1': 0.32, 'flw0': 0.49, 'time': 3.33, 'compass': -38.04, 'pitch': -0.12, 'roll': -0.52}
{'lipoC2': 0.06, 'temp': 0.0, 'lipoC3S3': 12.37, 'state': 'normal', 'rot1': 9, 'rot0': 10, 'rot3': 0, 'rot2': 0, 'depth': 1.843, 'yaw': -23.0, 'datetime': '2018-12-18 18:06:32.264190', 'mgs': 0, 'flw2': 0.51, 'flw1': 0.0, 'flw0': 0.35, 'time': 3.54, 'compass': -42.98, 'pitch': -0.06, 'roll': -0.36}
{'lipoC2': 0.08, 'temp': 0.0, 'lipoC3S3': 12.13, 'state': 'normal', 'rot1': 10, 'rot0': 11, 'rot3': 0, 'rot2': 0, 'depth': 0.623, 'yaw': -27.83, 'datetime': '2018-12-18 18:06:32.474042', 'mgs': 0, 'flw2': 0.56, 'flw1': 0.0, 'flw0': 0.11, 'time': 3.75, 'compass': -47.81, 'pitch': -0.23, 'roll': -0.37}
{'lipoC2': 0.0, 'temp': 0.0, 'lipoC3S3': 12.34, 'state': 'normal', 'rot1': 11, 'rot0': 12, 'rot3': 0, 'rot2': 0, 'depth': 0.012, 'yaw': -32.99, 'datetime': '2018-12-18 18:06:32.684198', 'mgs': 0, 'flw2': 0.45, 'flw1': 0.0, 'flw0': 0.42, 'time': 3.96, 'compass': -52.97, 'pitch': -0.12, 'roll': -0.49}
{'lipoC2': 0.0, 'temp': 0.0, 'lipoC3S3': 12.34, 'state': 'normal', 'rot1': 13, 'rot0': 13, 'rot3': 0, 'rot2': 0, 'depth': 0.775, 'yaw': -38.21, 'datetime': '2018-12-18 18:06:32.893305', 'mgs': 0, 'flw2': 0.26, 'flw1': 0.44, 'flw0': 0.38, 'time': 4.17, 'compass': -58.19, 'pitch': 0.31, 'roll': -0.48}
{'lipoC2': 0.15, 'temp': 0.0, 'lipoC3S3': 12.19, 'state': 'normal', 'rot1': 14, 'rot0': 14, 'rot3': 0, 'rot2': 0, 'depth': -0.522, 'yaw': -43.48, 'datetime': '2018-12-18 18:06:33.103698', 'mgs': 0, 'flw2': 0.33, 'flw1': 0.0, 'flw0': 0.57, 'time': 4.38, 'compass': -63.46, 'pitch': 0.68, 'roll': -0.43}
{'lipoC2': 0.0, 'temp': 0.0, 'lipoC3S3': 12.52, 'state': 'normal', 'rot1': 15, 'rot0': 15, 'rot3': 0, 'rot2': 0, 'depth': 1.691, 'yaw': -48.55, 'datetime': '2018-12-18 18:06:33.308387', 'mgs': 0, 'flw2': 0.05, 'flw1': 0.03, 'flw0': 0.57, 'time': 4.58, 'compass': -68.52, 'pitch': 0.79, 'roll': -0.37}
{'lipoC2': 0.0, 'temp': 0.0, 'lipoC3S3': 12.47, 'state': 'normal', 'rot1': 16, 'rot0': 16, 'rot3': 0, 'rot2': 0, 'depth': 1.92, 'yaw': -53.88, 'datetime': '2018-12-18 18:06:33.520983', 'mgs': 0, 'flw2': 0.52, 'flw1': 0.0, 'flw0': 0.2, 'time': 4.79, 'compass': -73.86, 'pitch': 0.82, 'roll': -0.3}
{'lipoC2': 0.02, 'temp': 0.0, 'lipoC3S3': 12.42, 'state': 'normal', 'rot1': 16, 'rot0': 17, 'rot3': 0, 'rot2': 0, 'depth': 1.538, 'yaw': -59.21, 'datetime': '2018-12-18 18:06:33.727905', 'mgs': 0, 'flw2': 0.28, 'flw1': 0.44, 'flw0': 0.38, 'time': 5.0, 'compass': -79.19, 'pitch': 0.94, 'roll': -0.22}
{'lipoC2': 0.12, 'temp': 0.0, 'lipoC3S3': 12.12, 'state': 'normal', 'rot1': 18, 'rot0': 18, 'rot3': 0, 'rot2': 0, 'depth': 0.851, 'yaw': -64.58, 'datetime': '2018-12-18 18:06:33.938916', 'mgs': 0, 'flw2': 0.01, 'flw1': 0.03, 'flw0': 0.57, 'time': 5.21, 'compass': -84.55, 'pitch': 1.11, 'roll': -0.16}
{'lipoC2': 0.14, 'temp': 0.0, 'lipoC3S3': 12.27, 'state': 'normal', 'rot1': 19, 'rot0': 19, 'rot3': 0, 'rot2': 0, 'depth': 1.843, 'yaw': -69.75, 'datetime': '2018-12-18 18:06:34.148406', 'mgs': 0, 'flw2': 0.34, 'flw1': 0.0, 'flw0': 0.55, 'time': 5.42, 'compass': -89.73, 'pitch': 1.29, 'roll': -0.21}
{'lipoC2': 0.0, 'temp': 0.0, 'lipoC3S3': 12.33, 'state': 'normal', 'rot1': 20, 'rot0': 20, 'rot3': 0, 'rot2': 0, 'depth': 0.317, 'yaw': -75.24, 'datetime': '2018-12-18 18:06:34.355666', 'mgs': 0, 'flw2': 0.04, 'flw1': 0.5, 'flw0': 0.0, 'time': 5.63, 'compass': -95.21, 'pitch': 1.41, 'roll': -0.08}
{'lipoC2': 0.06, 'temp': 0.0, 'lipoC3S3': 12.13, 'state': 'normal', 'rot1': 20, 'rot0': 20, 'rot3': 0, 'rot2': 0, 'depth': 0.47, 'yaw': -80.17, 'datetime': '2018-12-18 18:06:34.564290', 'mgs': 0, 'flw2': 0.17, 'flw1': 0.0, 'flw0': 0.0, 'time': 5.84, 'compass': -100.15, 'pitch': 1.4, 'roll': 0.31}
{'lipoC2': 0.0, 'temp': 0.0, 'lipoC3S3': 12.29, 'state': 'normal', 'rot1': 21, 'rot0': 21, 'rot3': 0, 'rot2': 0, 'depth': 0.546, 'yaw': -84.16, 'datetime': '2018-12-18 18:06:34.773326', 'mgs': 0, 'flw2': 2.94, 'flw1': 0.26, 'flw0': 0.62, 'time': 6.04, 'compass': -104.14, 'pitch': 1.82, 'roll': 0.72}
{'lipoC2': 0.1, 'temp': 0.0, 'lipoC3S3': 12.35, 'state': 'normal', 'rot1': 23, 'rot0': 24, 'rot3': 0, 'rot2': 0, 'depth': -1.666, 'yaw': -85.69, 'datetime': '2018-12-18 18:06:34.983908', 'mgs': 0, 'flw2': 2.78, 'flw1': 0.47, 'flw0': 0.79, 'time': 6.25, 'compass': -105.67, 'pitch': 3.65, 'roll': 1.04}
{'lipoC2': 0.0, 'temp': 0.0, 'lipoC3S3': 12.21, 'state': 'normal', 'rot1': 24, 'rot0': 26, 'rot3': 1, 'rot2': 0, 'depth': 1.538, 'yaw': -85.25, 'datetime': '2018-12-18 18:06:35.195574', 'mgs': 0, 'flw2': 2.83, 'flw1': 4.6, 'flw0': 0.48, 'time': 6.46, 'compass': -105.23, 'pitch': 4.85, 'roll': 1.17}
{'lipoC2': 0.0, 'temp': 0.0, 'lipoC3S3': 12.54, 'state': 'normal', 'rot1': 25, 'rot0': 28, 'rot3': 1, 'rot2': 1, 'depth': 2.301, 'yaw': -83.41, 'datetime': '2018-12-18 18:06:35.403843', 'mgs': 0, 'flw2': 2.99, 'flw1': 2.99, 'flw0': 0.38, 'time': 6.67, 'compass': -103.39, 'pitch': 5.08, 'roll': 0.55}
{'lipoC2': 0.05, 'temp': 0.0, 'lipoC3S3': 12.14, 'state': 'normal', 'rot1': 27, 'rot0': 31, 'rot3': 2, 'rot2': 2, 'depth': 0.851, 'yaw': -80.31, 'datetime': '2018-12-18 18:06:35.612659', 'mgs': 0, 'flw2': 2.59, 'flw1': 3.66, 'flw0': 0.94, 'time': 6.88, 'compass': -100.29, 'pitch': 4.8, 'roll': -0.27}
{'lipoC2': 0.0, 'temp': 0.0, 'lipoC3S3': 12.39, 'state': 'normal', 'rot1': 28, 'rot0': 33, 'rot3': 3, 'rot2': 3, 'depth': 1.385, 'yaw': -76.34, 'datetime': '2018-12-18 18:06:35.821367', 'mgs': 0, 'flw2': 3.04, 'flw1': 0.0, 'flw0': 0.66, 'time': 7.09, 'compass': -96.32, 'pitch': 4.21, 'roll': -0.73}
{'lipoC2': 0.11, 'temp': 0.0, 'lipoC3S3': 12.33, 'state': 'normal', 'rot1': 30, 'rot0': 36, 'rot3': 3, 'rot2': 3, 'depth': -1.819, 'yaw': -72.6, 'datetime': '2018-12-18 18:06:36.029805', 'mgs': 0, 'flw2': 2.84, 'flw1': 0.41, 'flw0': 2.77, 'time': 7.3, 'compass': -92.57, 'pitch': 3.59, 'roll': -0.53}
{'lipoC2': 0.0, 'temp': 0.0, 'lipoC3S3': 12.33, 'state': 'normal', 'rot1': 33, 'rot0': 38, 'rot3': 3, 'rot2': 3, 'depth': 0.394, 'yaw': -70.13, 'datetime': '2018-12-18 18:06:36.240621', 'mgs': 0, 'flw2': 2.93, 'flw1': 0.29, 'flw0': 2.73, 'time': 7.51, 'compass': -90.11, 'pitch': 3.76, 'roll': 0.05}
{'lipoC2': 0.0, 'temp': 0.0, 'lipoC3S3': 12.35, 'state': 'normal', 'rot1': 35, 'rot0': 41, 'rot3': 3, 'rot2': 3, 'depth': 1.004, 'yaw': -68.63, 'datetime': '2018-12-18 18:06:36.449383', 'mgs': 0, 'flw2': 2.84, 'flw1': 4.86, 'flw0': 2.92, 'time': 7.72, 'compass': -88.6, 'pitch': 4.19, 'roll': 0.69}
{'lipoC2': 0.17, 'temp': 0.0, 'lipoC3S3': 12.23, 'state': 'normal', 'rot1': 37, 'rot0': 42, 'rot3': 4, 'rot2': 4, 'depth': -0.751, 'yaw': -68.26, 'datetime': '2018-12-18 18:06:36.658090', 'mgs': 0, 'flw2': 0.83, 'flw1': 3.25, 'flw0': 2.78, 'time': 7.93, 'compass': -88.23, 'pitch': 4.6, 'roll': 0.51}
{'lipoC2': 0.04, 'temp': 0.0, 'lipoC3S3': 12.38, 'state': 'normal', 'rot1': 40, 'rot0': 44, 'rot3': 4, 'rot2': 4, 'depth': -1.132, 'yaw': -69.96, 'datetime': '2018-12-18 18:06:36.871321', 'mgs': 0, 'flw2': 0.94, 'flw1': 0.0, 'flw0': 2.73, 'time': 8.13, 'compass': -89.93, 'pitch': 4.01, 'roll': -0.34}
{'lipoC2': 0.03, 'temp': 0.0, 'lipoC3S3': 12.17, 'state': 'normal', 'rot1': 43, 'rot0': 45, 'rot3': 4, 'rot2': 4, 'depth': 0.47, 'yaw': -72.8, 'datetime': '2018-12-18 18:06:37.076640', 'mgs': 0, 'flw2': 0.4, 'flw1': 0.29, 'flw0': 3.0, 'time': 8.34, 'compass': -92.77, 'pitch': 2.88, 'roll': -0.83}
{'lipoC2': 0.1, 'temp': 0.0, 'lipoC3S3': 12.34, 'state': 'normal', 'rot1': 45, 'rot0': 47, 'rot3': 4, 'rot2': 4, 'depth': -1.743, 'yaw': -76.09, 'datetime': '2018-12-18 18:06:37.286891', 'mgs': 0, 'flw2': 2.8, 'flw1': 0.5, 'flw0': 2.83, 'time': 8.55, 'compass': -96.06, 'pitch': 2.66, 'roll': -0.62}
{'lipoC2': 0.0, 'temp': 0.0, 'lipoC3S3': 12.37, 'state': 'normal', 'rot1': 48, 'rot0': 50, 'rot3': 4, 'rot2': 4, 'depth': 1.004, 'yaw': -78.13, 'datetime': '2018-12-18 18:06:37.495260', 'mgs': 0, 'flw2': 2.98, 'flw1': 0.0, 'flw0': 2.97, 'time': 8.76, 'compass': -98.11, 'pitch': 4.21, 'roll': 0.04}
{'lipoC2': 0.0, 'temp': 0.0, 'lipoC3S3': 12.25, 'state': 'normal', 'rot1': 51, 'rot0': 52, 'rot3': 4, 'rot2': 4, 'depth': 0.775, 'yaw': -79.5, 'datetime': '2018-12-18 18:06:37.703194', 'mgs': 0, 'flw2': 2.98, 'flw1': 0.18, 'flw0': 2.6, 'time': 8.97, 'compass': -99.48, 'pitch': 5.14, 'roll': 0.47}
{'lipoC2': 0.14, 'temp': 0.0, 'lipoC3S3': 12.25, 'state': 'normal', 'rot1': 52, 'rot0': 54, 'rot3': 4, 'rot2': 4, 'depth': 1.538, 'yaw': -80.23, 'datetime': '2018-12-18 18:06:37.910892', 'mgs': 0, 'flw2': 0.06, 'flw1': 0.44, 'flw0': 0.0, 'time': 9.18, 'compass': -100.21, 'pitch': 4.77, 'roll': 0.54}
{'lipoC2': 0.04, 'temp': 0.0, 'lipoC3S3': 12.39, 'state': 'normal', 'rot1': 52, 'rot0': 54, 'rot3': 4, 'rot2': 4, 'depth': -1.208, 'yaw': -80.46, 'datetime': '2018-12-18 18:06:38.119160', 'mgs': 0, 'flw2': 0.21, 'flw1': 0.0, 'flw0': 0.0, 'time': 9.39, 'compass': -100.44, 'pitch': 2.09, 'roll': 0.78}
{'lipoC2': 0.06, 'temp': 0.0, 'lipoC3S3': 12.14, 'state': 'normal', 'rot1': 52, 'rot0': 54, 'rot3': 4, 'rot2': 4, 'depth': 1.614, 'yaw': -80.74, 'datetime': '2018-12-18 18:06:38.325535', 'mgs': 0, 'flw2': 0.0, 'flw1': 0.38, 'flw0': 0.13, 'time': 9.6, 'compass': -100.71, 'pitch': 0.4, 'roll': 0.99}
{'lipoC2': 0.04, 'temp': 0.0, 'lipoC3S3': 12.39, 'state': 'normal', 'rot1': 54, 'rot0': 56, 'rot3': 4, 'rot2': 5, 'depth': -1.285, 'yaw': -80.79, 'datetime': '2018-12-18 18:06:38.533754', 'mgs': 0, 'flw2': 2.92, 'flw1': 3.69, 'flw0': 0.6, 'time': 9.8, 'compass': -100.77, 'pitch': 1.45, 'roll': 0.85}
{'lipoC2': 0.0, 'temp': 0.0, 'lipoC3S3': 12.35, 'state': 'normal', 'rot1': 55, 'rot0': 59, 'rot3': 5, 'rot2': 6, 'depth': 0.699, 'yaw': -79.38, 'datetime': '2018-12-18 18:06:38.743150', 'mgs': 0, 'flw2': 2.56, 'flw1': 3.34, 'flw0': 0.72, 'time': 10.01, 'compass': -99.35, 'pitch': 4.4, 'roll': 0.32}
{'lipoC2': 0.15, 'temp': 0.0, 'lipoC3S3': 12.29, 'state': 'normal', 'rot1': 57, 'rot0': 62, 'rot3': 6, 'rot2': 6, 'depth': -0.674, 'yaw': -76.63, 'datetime': '2018-12-18 18:06:38.952323', 'mgs': 0, 'flw2': 2.76, 'flw1': 0.5, 'flw0': 0.7, 'time': 10.22, 'compass': -96.61, 'pitch': 5.14, 'roll': 0.11}
{'lipoC2': 0.0, 'temp': 0.0, 'lipoC3S3': 12.52, 'state': 'normal', 'rot1': 58, 'rot0': 65, 'rot3': 6, 'rot2': 6, 'depth': 1.614, 'yaw': -73.05, 'datetime': '2018-12-18 18:06:39.165774', 'mgs': 0, 'flw2': 2.93, 'flw1': 0.23, 'flw0': 0.59, 'time': 10.43, 'compass': -93.03, 'pitch': 3.36, 'roll': 0.29}
{'lipoC2': 0.0, 'temp': 0.0, 'lipoC3S3': 12.45, 'state': 'normal', 'rot1': 61, 'rot0': 66, 'rot3': 6, 'rot2': 6, 'depth': 1.691, 'yaw': -69.9, 'datetime': '2018-12-18 18:06:39.374377', 'mgs': 0, 'flw2': 0.4, 'flw1': 0.23, 'flw0': 3.13, 'time': 10.64, 'compass': -89.87, 'pitch': 2.28, 'roll': 0.4}
{'lipoC2': 0.05, 'temp': 0.0, 'lipoC3S3': 12.14, 'state': 'normal', 'rot1': 63, 'rot0': 68, 'rot3': 6, 'rot2': 6, 'depth': 1.538, 'yaw': -69.85, 'datetime': '2018-12-18 18:06:39.584244', 'mgs': 0, 'flw2': 0.94, 'flw1': 0.0, 'flw0': 2.71, 'time': 10.85, 'compass': -89.82, 'pitch': 3.3, 'roll': 0.19}
{'lipoC2': 0.14, 'temp': 0.0, 'lipoC3S3': 12.14, 'state': 'normal', 'rot1': 66, 'rot0': 69, 'rot3': 6, 'rot2': 6, 'depth': 0.546, 'yaw': -71.85, 'datetime': '2018-12-18 18:06:39.795488', 'mgs': 0, 'flw2': 0.73, 'flw1': 0.0, 'flw0': 3.23, 'time': 11.06, 'compass': -91.82, 'pitch': 4.43, 'roll': -0.05}
{'lipoC2': 0.0, 'temp': 0.0, 'lipoC3S3': 12.54, 'state': 'normal', 'rot1': 68, 'rot0': 71, 'rot3': 6, 'rot2': 6, 'depth': 2.301, 'yaw': -75.22, 'datetime': '2018-12-18 18:06:40.006204', 'mgs': 0, 'flw2': 0.98, 'flw1': 0.0, 'flw0': 3.05, 'time': 11.27, 'compass': -95.2, 'pitch': 4.54, 'roll': -0.32}
{'lipoC2': 0.17, 'temp': 0.0, 'lipoC3S3': 12.19, 'state': 'normal', 'rot1': 71, 'rot0': 72, 'rot3': 6, 'rot2': 6, 'depth': -0.598, 'yaw': -79.58, 'datetime': '2018-12-18 18:06:40.213935', 'mgs': 0, 'flw2': 2.8, 'flw1': 2.96, 'flw0': 3.02, 'time': 11.47, 'compass': -99.55, 'pitch': 4.18, 'roll': -0.87}
{'lipoC2': 0.13, 'temp': 0.0, 'lipoC3S3': 12.09, 'state': 'normal', 'rot1': 73, 'rot0': 74, 'rot3': 7, 'rot2': 7, 'depth': 0.851, 'yaw': -82.96, 'datetime': '2018-12-18 18:06:40.423727', 'mgs': 0, 'flw2': 2.53, 'flw1': 0.06, 'flw0': 3.05, 'time': 11.68, 'compass': -102.93, 'pitch': 4.84, 'roll': -1.34}
{'lipoC2': 0.0, 'temp': 0.0, 'lipoC3S3': 12.42, 'state': 'normal', 'rot1': 75, 'rot0': 77, 'rot3': 7, 'rot2': 7, 'depth': 1.614, 'yaw': -84.61, 'datetime': '2018-12-18 18:06:40.633136', 'mgs': 0, 'flw2': 2.66, 'flw1': 0.38, 'flw0': 0.77, 'time': 11.89, 'compass': -104.59, 'pitch': 5.64, 'roll': -1.17}
{'lipoC2': 0.15, 'temp': 0.0, 'lipoC3S3': 12.14, 'state': 'normal', 'rot1': 76, 'rot0': 79, 'rot3': 7, 'rot2': 7, 'depth': 0.546, 'yaw': -83.98, 'datetime': '2018-12-18 18:06:40.848552', 'mgs': 0, 'flw2': 2.81, 'flw1': 0.0, 'flw0': 0.99, 'time': 12.1, 'compass': -103.95, 'pitch': 4.39, 'roll': -0.37}
{'lipoC2': 0.0, 'temp': 0.0, 'lipoC3S3': 12.52, 'state': 'normal', 'rot1': 77, 'rot0': 82, 'rot3': 7, 'rot2': 7, 'depth': 2.301, 'yaw': -82.22, 'datetime': '2018-12-18 18:06:41.057142', 'mgs': 0, 'flw2': 2.84, 'flw1': 0.0, 'flw0': 1.0, 'time': 12.31, 'compass': -102.19, 'pitch': 2.97, 'roll': 0.62}
{'lipoC2': 0.13, 'temp': 0.0, 'lipoC3S3': 12.31, 'state': 'normal', 'rot1': 79, 'rot0': 84, 'rot3': 7, 'rot2': 7, 'depth': -0.827, 'yaw': -79.68, 'datetime': '2018-12-18 18:06:41.265566', 'mgs': 0, 'flw2': 2.76, 'flw1': 0.5, 'flw0': 0.74, 'time': 12.52, 'compass': -99.66, 'pitch': 3.24, 'roll': 1.27}
{'lipoC2': 0.15, 'temp': 0.0, 'lipoC3S3': 12.12, 'state': 'normal', 'rot1': 81, 'rot0': 87, 'rot3': 7, 'rot2': 7, 'depth': 0.546, 'yaw': -74.93, 'datetime': '2018-12-18 18:06:41.572196', 'mgs': 0, 'flw2': 0.13, 'flw1': 0.23, 'flw0': 0.0, 'time': 12.83, 'compass': -94.91, 'pitch': 4.26, 'roll': 1.25}
{'lipoC2': 0.0, 'temp': 0.0, 'lipoC3S3': 12.35, 'state': 'normal', 'rot1': 81, 'rot0': 87, 'rot3': 7, 'rot2': 7, 'depth': 0.394, 'yaw': -72.46, 'datetime': '2018-12-18 18:06:41.782316', 'mgs': 0, 'flw2': 0.0, 'flw1': 0.41, 'flw0': 0.01, 'time': 13.04, 'compass': -92.44, 'pitch': 2.94, 'roll': 0.94}
{'lipoC2': 0.0, 'temp': 0.0, 'lipoC3S3': 12.48, 'state': 'normal', 'rot1': 81, 'rot0': 87, 'rot3': 7, 'rot2': 7, 'depth': -1.743, 'yaw': -70.41, 'datetime': '2018-12-18 18:06:41.995117', 'mgs': 0, 'flw2': 0.17, 'flw1': 0.09, 'flw0': 0.0, 'time': 13.25, 'compass': -90.39, 'pitch': 1.38, 'roll': 0.55}
{'lipoC2': 0.0, 'temp': 0.0, 'lipoC3S3': 12.54, 'state': 'normal', 'rot1': 81, 'rot0': 87, 'rot3': 7, 'rot2': 7, 'depth': 1.92, 'yaw': -68.56, 'datetime': '2018-12-18 18:06:42.203159', 'mgs': 0, 'flw2': 0.13, 'flw1': 0.35, 'flw0': 0.0, 'time': 13.46, 'compass': -88.54, 'pitch': 1.15, 'roll': 0.19}
{'lipoC2': 0.08, 'temp': 0.0, 'lipoC3S3': 12.38, 'state': 'normal', 'rot1': 83, 'rot0': 88, 'rot3': 7, 'rot2': 7, 'depth': -0.751, 'yaw': -66.21, 'datetime': '2018-12-18 18:06:42.507372', 'mgs': 0, 'flw2': 0.93, 'flw1': 5.42, 'flw0': 2.81, 'time': 13.77, 'compass': -86.19, 'pitch': 1.99, 'roll': -0.38}
{'lipoC2': 0.01, 'temp': 0.0, 'lipoC3S3': 12.42, 'state': 'normal', 'rot1': 85, 'rot0': 90, 'rot3': 8, 'rot2': 8, 'depth': -0.751, 'yaw': -67.04, 'datetime': '2018-12-18 18:06:42.715478', 'mgs': 0, 'flw2': 0.95, 'flw1': 3.31, 'flw0': 2.83, 'time': 13.98, 'compass': -87.02, 'pitch': 3.87, 'roll': -1.11}
{'lipoC2': 0.11, 'temp': 0.0, 'lipoC3S3': 12.09, 'state': 'normal', 'rot1': 88, 'rot0': 92, 'rot3': 8, 'rot2': 9, 'depth': 0.623, 'yaw': -69.74, 'datetime': '2018-12-18 18:06:42.923658', 'mgs': 0, 'flw2': 0.76, 'flw1': 0.0, 'flw0': 3.23, 'time': 14.19, 'compass': -89.72, 'pitch': 4.52, 'roll': -1.5}
{'lipoC2': 0.13, 'temp': 0.0, 'lipoC3S3': 12.31, 'state': 'normal', 'rot1': 92, 'rot0': 93, 'rot3': 8, 'rot2': 9, 'depth': -1.437, 'yaw': -73.45, 'datetime': '2018-12-18 18:06:43.144612', 'mgs': 0, 'flw2': 0.88, 'flw1': 0.0, 'flw0': 2.87, 'time': 14.4, 'compass': -93.42, 'pitch': 3.45, 'roll': -1.52}
{'lipoC2': 0.0, 'temp': 0.0, 'lipoC3S3': 12.48, 'state': 'normal', 'rot1': 94, 'rot0': 95, 'rot3': 8, 'rot2': 9, 'depth': 1.92, 'yaw': -78.08, 'datetime': '2018-12-18 18:06:43.349975', 'mgs': 0, 'flw2': 0.45, 'flw1': 0.0, 'flw0': 2.73, 'time': 14.6, 'compass': -98.05, 'pitch': 2.43, 'roll': -1.29}
{'lipoC2': 0.05, 'temp': 0.0, 'lipoC3S3': 12.39, 'state': 'normal', 'rot1': 97, 'rot0': 96, 'rot3': 9, 'rot2': 9, 'depth': 1.92, 'yaw': -83.22, 'datetime': '2018-12-18 18:06:43.558208', 'mgs': 0, 'flw2': 2.62, 'flw1': 3.72, 'flw0': 2.97, 'time': 14.81, 'compass': -103.2, 'pitch': 3.33, 'roll': -1.14}
{'lipoC2': 0.0, 'temp': 0.0, 'lipoC3S3': 12.54, 'state': 'normal', 'rot1': 100, 'rot0': 99, 'rot3': 9, 'rot2': 10, 'depth': -0.14, 'yaw': -87.39, 'datetime': '2018-12-18 18:06:43.771217', 'mgs': 0, 'flw2': 2.97, 'flw1': 0.35, 'flw0': 2.62, 'time': 15.02, 'compass': -107.37, 'pitch': 5.32, 'roll': -0.98}
{'lipoC2': 0.0, 'temp': 0.0, 'lipoC3S3': 12.39, 'state': 'normal', 'rot1': 101, 'rot0': 101, 'rot3': 9, 'rot2': 10, 'depth': 1.08, 'yaw': -89.59, 'datetime': '2018-12-18 18:06:43.980633', 'mgs': 0, 'flw2': 2.54, 'flw1': 0.41, 'flw0': 0.76, 'time': 15.23, 'compass': -109.56, 'pitch': 5.69, 'roll': -0.57}
{'lipoC2': 0.14, 'temp': 0.0, 'lipoC3S3': 12.31, 'state': 'normal', 'rot1': 103, 'rot0': 103, 'rot3': 9, 'rot2': 10, 'depth': 1.843, 'yaw': -89.33, 'datetime': '2018-12-18 18:06:44.188936', 'mgs': 0, 'flw2': 2.61, 'flw1': 0.47, 'flw0': 0.73, 'time': 15.44, 'compass': -109.3, 'pitch': 3.68, 'roll': 0.13}
{'lipoC2': 0.08, 'temp': 0.0, 'lipoC3S3': 12.38, 'state': 'normal', 'rot1': 104, 'rot0': 105, 'rot3': 9, 'rot2': 10, 'depth': 1.92, 'yaw': -87.72, 'datetime': '2018-12-18 18:06:44.397678', 'mgs': 0, 'flw2': 2.88, 'flw1': 0.0, 'flw0': 0.63, 'time': 15.65, 'compass': -107.69, 'pitch': 2.63, 'roll': 0.91}
{'lipoC2': 0.0, 'temp': 0.0, 'lipoC3S3': 12.17, 'state': 'normal', 'rot1': 105, 'rot0': 108, 'rot3': 9, 'rot2': 10, 'depth': 1.92, 'yaw': -85.02, 'datetime': '2018-12-18 18:06:44.608182', 'mgs': 0, 'flw2': 2.87, 'flw1': 0.0, 'flw0': 0.94, 'time': 15.86, 'compass': -105.0, 'pitch': 3.75, 'roll': 1.45}
{'lipoC2': 0.0, 'temp': 0.0, 'lipoC3S3': 12.37, 'state': 'normal', 'rot1': 107, 'rot0': 111, 'rot3': 10, 'rot2': 11, 'depth': 1.004, 'yaw': -81.7, 'datetime': '2018-12-18 18:06:44.823486', 'mgs': 0, 'flw2': 2.49, 'flw1': 3.84, 'flw0': 0.87, 'time': 16.07, 'compass': -101.67, 'pitch': 4.96, 'roll': 1.4}
{'lipoC2': 0.0, 'temp': 0.0, 'lipoC3S3': 12.51, 'state': 'normal', 'rot1': 108, 'rot0': 113, 'rot3': 11, 'rot2': 11, 'depth': 1.996, 'yaw': -78.08, 'datetime': '2018-12-18 18:06:45.031943', 'mgs': 0, 'flw2': 2.87, 'flw1': 0.09, 'flw0': 0.43, 'time': 16.28, 'compass': -98.05, 'pitch': 5.09, 'roll': 0.78}
{'lipoC2': 0.0, 'temp': 0.0, 'lipoC3S3': 12.52, 'state': 'normal', 'rot1': 110, 'rot0': 116, 'rot3': 11, 'rot2': 12, 'depth': 1.92, 'yaw': -74.39, 'datetime': '2018-12-18 18:06:45.244008', 'mgs': 0, 'flw2': 2.76, 'flw1': 0.0, 'flw0': 3.06, 'time': 16.49, 'compass': -94.37, 'pitch': 4.46, 'roll': 0.24}
{'lipoC2': 0.14, 'temp': 0.0, 'lipoC3S3': 12.33, 'state': 'normal', 'rot1': 113, 'rot0': 118, 'rot3': 11, 'rot2': 12, 'depth': -1.056, 'yaw': -72.06, 'datetime': '2018-12-18 18:06:45.454287', 'mgs': 0, 'flw2': 0.73, 'flw1': 2.49, 'flw0': 2.95, 'time': 16.7, 'compass': -92.04, 'pitch': 4.34, 'roll': -0.45}
{'lipoC2': 0.14, 'temp': 0.0, 'lipoC3S3': 12.14, 'state': 'normal', 'rot1': 113, 'rot0': 118, 'rot3': 11, 'rot2': 12, 'depth': 1.08, 'yaw': -71.28, 'datetime': '2018-12-18 18:06:45.661182', 'mgs': 0, 'flw2': 0.0, 'flw1': 0.0, 'flw0': 0.2, 'time': 16.91, 'compass': -91.26, 'pitch': 3.36, 'roll': -1.09}
{'lipoC2': 0.0, 'temp': 0.0, 'lipoC3S3': 12.31, 'state': 'normal', 'rot1': 114, 'rot0': 119, 'rot3': 11, 'rot2': 12, 'depth': 0.699, 'yaw': -70.62, 'datetime': '2018-12-18 18:06:45.864616', 'mgs': 0, 'flw2': 0.42, 'flw1': 0.5, 'flw0': 0.37, 'time': 17.12, 'compass': -90.6, 'pitch': 1.18, 'roll': -1.22}
{'lipoC2': 0.08, 'temp': 0.0, 'lipoC3S3': 12.1, 'state': 'normal', 'rot1': 115, 'rot0': 120, 'rot3': 11, 'rot2': 12, 'depth': 0.47, 'yaw': -70.73, 'datetime': '2018-12-18 18:06:46.074982', 'mgs': 0, 'flw2': 0.54, 'flw1': 0.06, 'flw0': 0.04, 'time': 17.33, 'compass': -90.71, 'pitch': 0.26, 'roll': -1.08}
{'lipoC2': 0.16, 'temp': 0.0, 'lipoC3S3': 12.29, 'state': 'normal', 'rot1': 116, 'rot0': 121, 'rot3': 11, 'rot2': 12, 'depth': -0.903, 'yaw': -71.52, 'datetime': '2018-12-18 18:06:46.284889', 'mgs': 0, 'flw2': 0.42, 'flw1': 0.44, 'flw0': 0.28, 'time': 17.54, 'compass': -91.49, 'pitch': 0.71, 'roll': -0.85}
{'lipoC2': 0.09, 'temp': 0.0, 'lipoC3S3': 12.35, 'state': 'normal', 'rot1': 117, 'rot0': 122, 'rot3': 11, 'rot2': 12, 'depth': -1.743, 'yaw': -72.7, 'datetime': '2018-12-18 18:06:46.502397', 'mgs': 0, 'flw2': 0.28, 'flw1': 0.5, 'flw0': 0.37, 'time': 17.75, 'compass': -92.67, 'pitch': 1.4, 'roll': -0.81}
{'lipoC2': 0.08, 'temp': 0.0, 'lipoC3S3': 12.38, 'state': 'normal', 'rot1': 118, 'rot0': 123, 'rot3': 11, 'rot2': 12, 'depth': 1.92, 'yaw': -74.31, 'datetime': '2018-12-18 18:06:46.713249', 'mgs': 0, 'flw2': 0.02, 'flw1': 0.32, 'flw0': 0.45, 'time': 17.96, 'compass': -94.29, 'pitch': 1.6, 'roll': -0.77}
{'lipoC2': 0.0, 'temp': 0.0, 'lipoC3S3': 12.34, 'state': 'normal', 'rot1': 118, 'rot0': 123, 'rot3': 11, 'rot2': 12, 'depth': 0.546, 'yaw': -76.03, 'datetime': '2018-12-18 18:06:46.919254', 'mgs': 0, 'flw2': 0.12, 'flw1': 0.0, 'flw0': 0.09, 'time': 18.17, 'compass': -96.0, 'pitch': 1.52, 'roll': -0.6}
{'lipoC2': 0.0, 'temp': 0.0, 'lipoC3S3': 12.48, 'state': 'normal', 'rot1': 119, 'rot0': 123, 'rot3': 11, 'rot2': 12, 'depth': 1.767, 'yaw': -77.37, 'datetime': '2018-12-18 18:06:47.132741', 'mgs': 0, 'flw2': 1.1, 'flw1': 0.0, 'flw0': 3.08, 'time': 18.38, 'compass': -97.34, 'pitch': 1.8, 'roll': -0.38}
{'lipoC2': 0.0, 'temp': 0.0, 'lipoC3S3': 12.22, 'state': 'normal', 'rot1': 121, 'rot0': 125, 'rot3': 12, 'rot2': 13, 'depth': -0.446, 'yaw': -79.93, 'datetime': '2018-12-18 18:06:47.345326', 'mgs': 0, 'flw2': 0.87, 'flw1': 4.75, 'flw0': 2.82, 'time': 18.59, 'compass': -99.9, 'pitch': 3.71, 'roll': -0.45}
{'lipoC2': 0.15, 'temp': 0.0, 'lipoC3S3': 12.16, 'state': 'normal', 'rot1': 124, 'rot0': 127, 'rot3': 13, 'rot2': 13, 'depth': 0.928, 'yaw': -83.66, 'datetime': '2018-12-18 18:06:47.553603', 'mgs': 0, 'flw2': 2.99, 'flw1': 3.02, 'flw0': 2.55, 'time': 18.8, 'compass': -103.64, 'pitch': 5.66, 'roll': -0.88}
{'lipoC2': 0.14, 'temp': 0.0, 'lipoC3S3': 12.33, 'state': 'normal', 'rot1': 126, 'rot0': 130, 'rot3': 13, 'rot2': 14, 'depth': -1.056, 'yaw': -86.24, 'datetime': '2018-12-18 18:06:47.764944', 'mgs': 0, 'flw2': 2.71, 'flw1': 0.44, 'flw0': 0.68, 'time': 19.01, 'compass': -106.21, 'pitch': 6.44, 'roll': -1.37}
{'lipoC2': 0.02, 'temp': 0.0, 'lipoC3S3': 12.14, 'state': 'normal', 'rot1': 127, 'rot0': 132, 'rot3': 13, 'rot2': 14, 'depth': 0.241, 'yaw': -86.52, 'datetime': '2018-12-18 18:06:47.975030', 'mgs': 0, 'flw2': 2.99, 'flw1': 4.48, 'flw0': 0.48, 'time': 19.22, 'compass': -106.49, 'pitch': 5.18, 'roll': -1.5}
{'lipoC2': 0.14, 'temp': 0.0, 'lipoC3S3': 12.13, 'state': 'normal', 'rot1': 129, 'rot0': 135, 'rot3': 14, 'rot2': 15, 'depth': 0.928, 'yaw': -84.57, 'datetime': '2018-12-18 18:06:48.187208', 'mgs': 0, 'flw2': 2.83, 'flw1': 1.99, 'flw0': 0.92, 'time': 19.43, 'compass': -104.54, 'pitch': 4.18, 'roll': -1.29}
{'lipoC2': 0.0, 'temp': 0.0, 'lipoC3S3': 12.52, 'state': 'normal', 'rot1': 130, 'rot0': 137, 'rot3': 14, 'rot2': 15, 'depth': 2.148, 'yaw': -81.4, 'datetime': '2018-12-18 18:06:48.397863', 'mgs': 0, 'flw2': 2.84, 'flw1': 0.0, 'flw0': 0.96, 'time': 19.65, 'compass': -101.37, 'pitch': 4.8, 'roll': -0.93}
{'lipoC2': 0.0, 'temp': 0.0, 'lipoC3S3': 12.16, 'state': 'normal', 'rot1': 131, 'rot0': 140, 'rot3': 14, 'rot2': 15, 'depth': -0.446, 'yaw': -77.58, 'datetime': '2018-12-18 18:06:48.608254', 'mgs': 0, 'flw2': 2.94, 'flw1': 0.15, 'flw0': 0.51, 'time': 19.85, 'compass': -97.55, 'pitch': 5.21, 'roll': -0.55}
{'lipoC2': 0.0, 'temp': 0.0, 'lipoC3S3': 12.3, 'state': 'normal', 'rot1': 134, 'rot0': 141, 'rot3': 14, 'rot2': 15, 'depth': 0.546, 'yaw': -74.41, 'datetime': '2018-12-18 18:06:48.817770', 'mgs': 0, 'flw2': 0.79, 'flw1': 0.35, 'flw0': 2.95, 'time': 20.06, 'compass': -94.38, 'pitch': 4.79, 'roll': -0.05}
{'lipoC2': 0.15, 'temp': 0.0, 'lipoC3S3': 12.18, 'state': 'normal', 'rot1': 136, 'rot0': 143, 'rot3': 14, 'rot2': 15, 'depth': 1.08, 'yaw': -74.09, 'datetime': '2018-12-18 18:06:49.028178', 'mgs': 0, 'flw2': 0.74, 'flw1': 0.0, 'flw0': 3.08, 'time': 20.27, 'compass': -94.06, 'pitch': 4.52, 'roll': 0.18}
{'lipoC2': 0.0, 'temp': 0.0, 'lipoC3S3': 12.17, 'state': 'normal', 'rot1': 138, 'rot0': 144, 'rot3': 14, 'rot2': 15, 'depth': -0.827, 'yaw': -75.72, 'datetime': '2018-12-18 18:06:49.240196', 'mgs': 0, 'flw2': 0.9, 'flw1': 0.09, 'flw0': 2.59, 'time': 20.49, 'compass': -95.7, 'pitch': 4.63, 'roll': 0.05}
{'lipoC2': 0.04, 'temp': 0.0, 'lipoC3S3': 12.41, 'state': 'normal', 'rot1': 141, 'rot0': 145, 'rot3': 14, 'rot2': 15, 'depth': -1.285, 'yaw': -78.54, 'datetime': '2018-12-18 18:06:49.449455', 'mgs': 0, 'flw2': 0.96, 'flw1': 0.0, 'flw0': 2.76, 'time': 20.7, 'compass': -98.52, 'pitch': 4.75, 'roll': -0.25}
{'lipoC2': 0.13, 'temp': 0.0, 'lipoC3S3': 12.13, 'state': 'normal', 'rot1': 143, 'rot0': 147, 'rot3': 14, 'rot2': 15, 'depth': 1.157, 'yaw': -82.25, 'datetime': '2018-12-18 18:06:49.660465', 'mgs': 0, 'flw2': 2.89, 'flw1': 0.0, 'flw0': 3.03, 'time': 20.91, 'compass': -102.22, 'pitch': 4.56, 'roll': -0.71}
{'lipoC2': 0.0, 'temp': 0.0, 'lipoC3S3': 12.42, 'state': 'normal', 'rot1': 146, 'rot0': 149, 'rot3': 14, 'rot2': 15, 'depth': -1.285, 'yaw': -85.29, 'datetime': '2018-12-18 18:06:49.870133', 'mgs': 0, 'flw2': 3.02, 'flw1': 0.0, 'flw0': 2.54, 'time': 21.11, 'compass': -105.27, 'pitch': 4.73, 'roll': -0.84}
{'lipoC2': 0.12, 'temp': 0.0, 'lipoC3S3': 12.33, 'state': 'normal', 'rot1': 147, 'rot0': 151, 'rot3': 14, 'rot2': 15, 'depth': 1.92, 'yaw': -86.49, 'datetime': '2018-12-18 18:06:50.081041', 'mgs': 0, 'flw2': 2.95, 'flw1': 0.0, 'flw0': 0.81, 'time': 21.33, 'compass': -106.47, 'pitch': 5.02, 'roll': -0.37}
{'lipoC2': 0.0, 'temp': 0.0, 'lipoC3S3': 12.51, 'state': 'normal', 'rot1': 149, 'rot0': 154, 'rot3': 15, 'rot2': 16, 'depth': 2.072, 'yaw': -85.56, 'datetime': '2018-12-18 18:06:50.296008', 'mgs': 0, 'flw2': 2.86, 'flw1': 3.54, 'flw0': 0.44, 'time': 21.54, 'compass': -105.54, 'pitch': 4.84, 'roll': -0.02}
{'lipoC2': 0.1, 'temp': 0.0, 'lipoC3S3': 12.34, 'state': 'normal', 'rot1': 150, 'rot0': 155, 'rot3': 15, 'rot2': 16, 'depth': 1.92, 'yaw': -83.98, 'datetime': '2018-12-18 18:06:50.502790', 'mgs': 0, 'flw2': 0.0, 'flw1': 0.38, 'flw0': 0.0, 'time': 21.75, 'compass': -103.96, 'pitch': 4.18, 'roll': -0.15}
{'lipoC2': 0.0, 'temp': 0.0, 'lipoC3S3': 12.23, 'state': 'normal', 'rot1': 150, 'rot0': 155, 'rot3': 15, 'rot2': 16, 'depth': -0.293, 'yaw': -83.0, 'datetime': '2018-12-18 18:06:50.717034', 'mgs': 0, 'flw2': 0.0, 'flw1': 0.0, 'flw0': 0.13, 'time': 21.96, 'compass': -102.98, 'pitch': 2.28, 'roll': -0.33}
{'lipoC2': 0.06, 'temp': 0.0, 'lipoC3S3': 12.39, 'state': 'normal', 'rot1': 151, 'rot0': 157, 'rot3': 15, 'rot2': 16, 'depth': 1.843, 'yaw': -81.73, 'datetime': '2018-12-18 18:06:51.021696', 'mgs': 0, 'flw2': 2.89, 'flw1': 0.0, 'flw0': 0.56, 'time': 22.27, 'compass': -101.71, 'pitch': 1.78, 'roll': -0.57}
{'lipoC2': 0.0, 'temp': 0.0, 'lipoC3S3': 12.35, 'state': 'normal', 'rot1': 152, 'rot0': 159, 'rot3': 15, 'rot2': 16, 'depth': 0.775, 'yaw': -79.3, 'datetime': '2018-12-18 18:06:51.231447', 'mgs': 0, 'flw2': 2.61, 'flw1': 0.44, 'flw0': 0.77, 'time': 22.48, 'compass': -99.27, 'pitch': 4.05, 'roll': -0.24}
{'lipoC2': 0.1, 'temp': 0.0, 'lipoC3S3': 12.34, 'state': 'normal', 'rot1': 154, 'rot0': 162, 'rot3': 15, 'rot2': 16, 'depth': -1.819, 'yaw': -76.03, 'datetime': '2018-12-18 18:06:51.441652', 'mgs': 0, 'flw2': 2.65, 'flw1': 0.62, 'flw0': 3.02, 'time': 22.69, 'compass': -96.0, 'pitch': 4.93, 'roll': 0.1}
{'lipoC2': 0.0, 'temp': 0.0, 'lipoC3S3': 12.35, 'state': 'normal', 'rot1': 158, 'rot0': 165, 'rot3': 15, 'rot2': 16, 'depth': 0.546, 'yaw': -73.57, 'datetime': '2018-12-18 18:06:51.662385', 'mgs': 0, 'flw2': 2.56, 'flw1': 0.47, 'flw0': 3.03, 'time': 22.9, 'compass': -93.54, 'pitch': 4.93, 'roll': 0.04}
{'lipoC2': 0.06, 'temp': 0.0, 'lipoC3S3': 12.12, 'state': 'normal', 'rot1': 160, 'rot0': 167, 'rot3': 15, 'rot2': 16, 'depth': 1.614, 'yaw': -72.66, 'datetime': '2018-12-18 18:06:51.874273', 'mgs': 0, 'flw2': 0.73, 'flw1': 0.0, 'flw0': 3.2, 'time': 23.11, 'compass': -92.64, 'pitch': 5.0, 'roll': -0.35}
{'lipoC2': 0.0, 'temp': 0.0, 'lipoC3S3': 12.16, 'state': 'normal', 'rot1': 163, 'rot0': 168, 'rot3': 15, 'rot2': 16, 'depth': 1.843, 'yaw': -74.14, 'datetime': '2018-12-18 18:06:52.085504', 'mgs': 0, 'flw2': 0.87, 'flw1': 0.26, 'flw0': 2.77, 'time': 23.32, 'compass': -94.11, 'pitch': 4.83, 'roll': -0.83}
{'lipoC2': 0.0, 'temp': 0.0, 'lipoC3S3': 12.45, 'state': 'normal', 'rot1': 166, 'rot0': 169, 'rot3': 15, 'rot2': 16, 'depth': 1.691, 'yaw': -77.09, 'datetime': '2018-12-18 18:06:52.294573', 'mgs': 0, 'flw2': 0.37, 'flw1': 0.23, 'flw0': 3.05, 'time': 23.53, 'compass': -97.06, 'pitch': 4.88, 'roll': -1.23}
{'lipoC2': 0.02, 'temp': 0.0, 'lipoC3S3': 12.12, 'state': 'normal', 'rot1': 168, 'rot0': 171, 'rot3': 15, 'rot2': 16, 'depth': 1.767, 'yaw': -80.75, 'datetime': '2018-12-18 18:06:52.504354', 'mgs': 0, 'flw2': 0.74, 'flw1': 0.0, 'flw0': 3.04, 'time': 23.74, 'compass': -100.73, 'pitch': 5.17, 'roll': -1.41}
{'lipoC2': 0.14, 'temp': 0.0, 'lipoC3S3': 12.33, 'state': 'normal', 'rot1': 170, 'rot0': 172, 'rot3': 15, 'rot2': 16, 'depth': 1.843, 'yaw': -85.09, 'datetime': '2018-12-18 18:06:52.716920', 'mgs': 0, 'flw2': 3.0, 'flw1': 0.0, 'flw0': 0.67, 'time': 23.95, 'compass': -105.07, 'pitch': 5.35, 'roll': -1.33}
{'lipoC2': 0.0, 'temp': 0.0, 'lipoC3S3': 12.52, 'state': 'normal', 'rot1': 172, 'rot0': 174, 'rot3': 15, 'rot2': 16, 'depth': 2.301, 'yaw': -87.21, 'datetime': '2018-12-18 18:06:52.930701', 'mgs': 0, 'flw2': 2.91, 'flw1': 0.03, 'flw0': 0.4, 'time': 24.16, 'compass': -107.19, 'pitch': 5.37, 'roll': -0.67}
{'lipoC2': 0.13, 'temp': 0.0, 'lipoC3S3': 12.14, 'state': 'normal', 'rot1': 173, 'rot0': 177, 'rot3': 15, 'rot2': 16, 'depth': 1.157, 'yaw': -86.75, 'datetime': '2018-12-18 18:06:53.139114', 'mgs': 0, 'flw2': 2.61, 'flw1': 0.0, 'flw0': 0.9, 'time': 24.37, 'compass': -106.73, 'pitch': 5.36, 'roll': 0.26}
{'lipoC2': 0.13, 'temp': 0.0, 'lipoC3S3': 12.33, 'state': 'normal', 'rot1': 175, 'rot0': 179, 'rot3': 15, 'rot2': 16, 'depth': -0.903, 'yaw': -85.07, 'datetime': '2018-12-18 18:06:53.346869', 'mgs': 0, 'flw2': 2.64, 'flw1': 0.44, 'flw0': 0.79, 'time': 24.58, 'compass': -105.05, 'pitch': 5.25, 'roll': 0.87}
{'lipoC2': 0.12, 'temp': 0.0, 'lipoC3S3': 12.34, 'state': 'normal', 'rot1': 176, 'rot0': 182, 'rot3': 15, 'rot2': 16, 'depth': 1.843, 'yaw': -82.72, 'datetime': '2018-12-18 18:06:53.553126', 'mgs': 0, 'flw2': 2.87, 'flw1': 0.0, 'flw0': 0.72, 'time': 24.79, 'compass': -102.69, 'pitch': 4.84, 'roll': 0.82}
{'lipoC2': 0.11, 'temp': 0.0, 'lipoC3S3': 12.13, 'state': 'normal', 'rot1': 177, 'rot0': 184, 'rot3': 15, 'rot2': 16, 'depth': 0.699, 'yaw': -79.68, 'datetime': '2018-12-18 18:06:53.764569', 'mgs': 0, 'flw2': 2.75, 'flw1': 0.0, 'flw0': 0.94, 'time': 25.0, 'compass': -99.65, 'pitch': 4.57, 'roll': 0.58}
{'lipoC2': 0.12, 'temp': 0.0, 'lipoC3S3': 12.34, 'state': 'normal', 'rot1': 179, 'rot0': 186, 'rot3': 15, 'rot2': 16, 'depth': -1.285, 'yaw': -75.92, 'datetime': '2018-12-18 18:06:53.978384', 'mgs': 0, 'flw2': 2.92, 'flw1': 0.0, 'flw0': 3.1, 'time': 25.21, 'compass': -95.9, 'pitch': 4.51, 'roll': 0.48}
{'lipoC2': 0.15, 'temp': 0.0, 'lipoC3S3': 12.29, 'state': 'normal', 'rot1': 179, 'rot0': 187, 'rot3': 15, 'rot2': 16, 'depth': -1.208, 'yaw': -72.96, 'datetime': '2018-12-18 18:06:54.182075', 'mgs': 0, 'flw2': 0.06, 'flw1': 0.0, 'flw0': 0.15, 'time': 25.42, 'compass': -92.93, 'pitch': 4.34, 'roll': 0.18}
{'lipoC2': 0.04, 'temp': 0.0, 'lipoC3S3': 12.13, 'state': 'normal', 'rot1': 180, 'rot0': 187, 'rot3': 15, 'rot2': 16, 'depth': 0.394, 'yaw': -70.62, 'datetime': '2018-12-18 18:06:54.388687', 'mgs': 0, 'flw2': 0.38, 'flw1': 0.0, 'flw0': 0.67, 'time': 25.63, 'compass': -90.6, 'pitch': 2.71, 'roll': -0.41}
{'lipoC2': 0.0, 'temp': 0.0, 'lipoC3S3': 12.47, 'state': 'normal', 'rot1': 181, 'rot0': 188, 'rot3': 15, 'rot2': 16, 'depth': 1.538, 'yaw': -69.19, 'datetime': '2018-12-18 18:06:54.598508', 'mgs': 0, 'flw2': 0.55, 'flw1': 0.0, 'flw0': 0.04, 'time': 25.84, 'compass': -89.16, 'pitch': 1.8, 'roll': -1.02}
{'lipoC2': 0.16, 'temp': 0.0, 'lipoC3S3': 12.16, 'state': 'normal', 'rot1': 182, 'rot0': 189, 'rot3': 15, 'rot2': 16, 'depth': 1.157, 'yaw': -68.46, 'datetime': '2018-12-18 18:06:54.809910', 'mgs': 0, 'flw2': 0.23, 'flw1': 0.29, 'flw0': 0.18, 'time': 26.05, 'compass': -88.43, 'pitch': 2.08, 'roll': -1.5}
{'lipoC2': 0.0, 'temp': 0.0, 'lipoC3S3': 12.16, 'state': 'normal', 'rot1': 183, 'rot0': 190, 'rot3': 15, 'rot2': 16, 'depth': 1.843, 'yaw': -68.26, 'datetime': '2018-12-18 18:06:55.022457', 'mgs': 0, 'flw2': 0.48, 'flw1': 0.29, 'flw0': 0.18, 'time': 26.26, 'compass': -88.24, 'pitch': 2.37, 'roll': -1.73}
{'lipoC2': 0.0, 'temp': 0.0, 'lipoC3S3': 12.45, 'state': 'normal', 'rot1': 184, 'rot0': 191, 'rot3': 15, 'rot2': 16, 'depth': 1.385, 'yaw': -68.59, 'datetime': '2018-12-18 18:06:55.237802', 'mgs': 0, 'flw2': 0.0, 'flw1': 0.21, 'flw0': 0.54, 'time': 26.48, 'compass': -88.57, 'pitch': 2.14, 'roll': -1.66}
{'lipoC2': 0.06, 'temp': 0.0, 'lipoC3S3': 12.12, 'state': 'normal', 'rot1': 185, 'rot0': 192, 'rot3': 15, 'rot2': 16, 'depth': 0.623, 'yaw': -69.41, 'datetime': '2018-12-18 18:06:55.446682', 'mgs': 0, 'flw2': 0.35, 'flw1': 0.0, 'flw0': 0.55, 'time': 26.68, 'compass': -89.38, 'pitch': 1.85, 'roll': -1.38}
{'lipoC2': 0.11, 'temp': 0.0, 'lipoC3S3': 12.46, 'state': 'normal', 'rot1': 186, 'rot0': 193, 'rot3': 15, 'rot2': 16, 'depth': 1.843, 'yaw': -70.66, 'datetime': '2018-12-18 18:06:55.656094', 'mgs': 0, 'flw2': 0.16, 'flw1': 0.41, 'flw0': 0.38, 'time': 26.9, 'compass': -90.63, 'pitch': 2.1, 'roll': -1.24}
{'lipoC2': 0.04, 'temp': 0.0, 'lipoC3S3': 12.13, 'state': 'normal', 'rot1': 187, 'rot0': 194, 'rot3': 15, 'rot2': 16, 'depth': 1.614, 'yaw': -72.2, 'datetime': '2018-12-18 18:06:55.867447', 'mgs': 0, 'flw2': 0.44, 'flw1': 0.23, 'flw0': 0.0, 'time': 27.1, 'compass': -92.18, 'pitch': 2.52, 'roll': -1.26}
{'lipoC2': 0.0, 'temp': 0.0, 'lipoC3S3': 12.17, 'state': 'normal', 'rot1': 188, 'rot0': 195, 'rot3': 15, 'rot2': 16, 'depth': 1.843, 'yaw': -74.12, 'datetime': '2018-12-18 18:06:56.077992', 'mgs': 0, 'flw2': 0.4, 'flw1': 0.0, 'flw0': 0.51, 'time': 27.32, 'compass': -94.1, 'pitch': 2.57, 'roll': -1.36}
{'lipoC2': 0.12, 'temp': 0.0, 'lipoC3S3': 12.47, 'state': 'normal', 'rot1': 189, 'rot0': 196, 'rot3': 15, 'rot2': 16, 'depth': -1.437, 'yaw': -76.45, 'datetime': '2018-12-18 18:06:56.285349', 'mgs': 0, 'flw2': 0.2, 'flw1': 0.47, 'flw0': 0.38, 'time': 27.53, 'compass': -96.43, 'pitch': 2.63, 'roll': -1.41}
{'lipoC2': 0.16, 'temp': 0.0, 'lipoC3S3': 12.18, 'state': 'normal', 'rot1': 190, 'rot0': 197, 'rot3': 15, 'rot2': 16, 'depth': 0.775, 'yaw': -79.07, 'datetime': '2018-12-18 18:06:56.498552', 'mgs': 0, 'flw2': 0.0, 'flw1': 0.5, 'flw0': 0.0, 'time': 27.74, 'compass': -99.04, 'pitch': 2.69, 'roll': -1.36}
{'lipoC2': 0.0, 'temp': 0.0, 'lipoC3S3': 12.52, 'state': 'normal', 'rot1': 190, 'rot0': 197, 'rot3': 15, 'rot2': 16, 'depth': 1.92, 'yaw': -81.3, 'datetime': '2018-12-18 18:06:56.707642', 'mgs': 0, 'flw2': 0.0, 'flw1': 0.09, 'flw0': 0.2, 'time': 27.94, 'compass': -101.28, 'pitch': 2.75, 'roll': -1.12}
{'lipoC2': 0.15, 'temp': 0.0, 'lipoC3S3': 12.13, 'state': 'normal', 'rot1': 192, 'rot0': 198, 'rot3': 15, 'rot2': 16, 'depth': 0.851, 'yaw': -83.19, 'datetime': '2018-12-18 18:06:56.920521', 'mgs': 0, 'flw2': 2.7, 'flw1': 0.0, 'flw0': 3.11, 'time': 28.16, 'compass': -103.17, 'pitch': 3.47, 'roll': -0.77}
{'lipoC2': 0.0, 'temp': 0.0, 'lipoC3S3': 12.52, 'state': 'normal', 'rot1': 194, 'rot0': 201, 'rot3': 15, 'rot2': 16, 'depth': 2.072, 'yaw': -85.2, 'datetime': '2018-12-18 18:06:57.130478', 'mgs': 0, 'flw2': 2.48, 'flw1': 0.15, 'flw0': 3.19, 'time': 28.37, 'compass': -105.18, 'pitch': 6.33, 'roll': -0.61}
{'lipoC2': 0.0, 'temp': 0.0, 'lipoC3S3': 12.52, 'state': 'normal', 'rot1': 197, 'rot0': 203, 'rot3': 15, 'rot2': 16, 'depth': -0.369, 'yaw': -86.92, 'datetime': '2018-12-18 18:06:57.338283', 'mgs': 0, 'flw2': 2.92, 'flw1': 0.35, 'flw0': 2.77, 'time': 28.58, 'compass': -106.89, 'pitch': 7.83, 'roll': -0.59}
{'lipoC2': 0.0, 'temp': 0.0, 'lipoC3S3': 12.38, 'state': 'normal', 'rot1': 199, 'rot0': 206, 'rot3': 15, 'rot2': 16, 'depth': 1.004, 'yaw': -87.64, 'datetime': '2018-12-18 18:06:57.550049', 'mgs': 0, 'flw2': 2.59, 'flw1': 0.38, 'flw0': 0.83, 'time': 28.79, 'compass': -107.61, 'pitch': 7.0, 'roll': -0.63}
{'lipoC2': 0.0, 'temp': 0.0, 'lipoC3S3': 12.35, 'state': 'normal', 'rot1': 201, 'rot0': 208, 'rot3': 15, 'rot2': 16, 'depth': 0.47, 'yaw': -86.21, 'datetime': '2018-12-18 18:06:57.763267', 'mgs': 0, 'flw2': 2.51, 'flw1': 0.38, 'flw0': 0.79, 'time': 29.0, 'compass': -106.18, 'pitch': 5.29, 'roll': -0.63}
{'lipoC2': 0.0, 'temp': 0.0, 'lipoC3S3': 12.38, 'state': 'normal', 'rot1': 203, 'rot0': 211, 'rot3': 15, 'rot2': 16, 'depth': 1.309, 'yaw': -83.56, 'datetime': '2018-12-18 18:06:57.969752', 'mgs': 0, 'flw2': 3.03, 'flw1': 4.13, 'flw0': 0.5, 'time': 29.21, 'compass': -103.54, 'pitch': 5.1, 'roll': -0.52}
{'lipoC2': 0.0, 'temp': 0.0, 'lipoC3S3': 12.34, 'state': 'normal', 'rot1': 205, 'rot0': 213, 'rot3': 16, 'rot2': 17, 'depth': 0.699, 'yaw': -80.97, 'datetime': '2018-12-18 18:06:58.179967', 'mgs': 0, 'flw2': 2.92, 'flw1': 2.72, 'flw0': 2.93, 'time': 29.42, 'compass': -100.94, 'pitch': 6.61, 'roll': -0.89}
{'lipoC2': 0.01, 'temp': 0.0, 'lipoC3S3': 12.16, 'state': 'normal', 'rot1': 208, 'rot0': 215, 'rot3': 16, 'rot2': 17, 'depth': 1.767, 'yaw': -79.94, 'datetime': '2018-12-18 18:06:58.389748', 'mgs': 0, 'flw2': 2.87, 'flw1': 0.0, 'flw0': 2.64, 'time': 29.63, 'compass': -99.92, 'pitch': 7.94, 'roll': -1.35}
{'lipoC2': 0.15, 'temp': 0.0, 'lipoC3S3': 12.31, 'state': 'normal', 'rot1': 210, 'rot0': 218, 'rot3': 17, 'rot2': 18, 'depth': -0.598, 'yaw': -79.68, 'datetime': '2018-12-18 18:06:58.601052', 'mgs': 0, 'flw2': 2.86, 'flw1': 4.13, 'flw0': 2.84, 'time': 29.84, 'compass': -99.66, 'pitch': 7.23, 'roll': -1.31}
{'lipoC2': 0.13, 'temp': 0.0, 'lipoC3S3': 12.33, 'state': 'normal', 'rot1': 213, 'rot0': 220, 'rot3': 18, 'rot2': 19, 'depth': -1.514, 'yaw': -79.68, 'datetime': '2018-12-18 18:06:58.812733', 'mgs': 0, 'flw2': 2.8, 'flw1': 2.34, 'flw0': 2.84, 'time': 30.05, 'compass': -99.65, 'pitch': 5.79, 'roll': -1.29}
{'lipoC2': 0.0, 'temp': 0.0, 'lipoC3S3': 12.43, 'state': 'normal', 'rot1': 215, 'rot0': 223, 'rot3': 18, 'rot2': 19, 'depth': 1.767, 'yaw': -79.71, 'datetime': '2018-12-18 18:06:59.023030', 'mgs': 0, 'flw2': 2.49, 'flw1': 0.26, 'flw0': 2.94, 'time': 30.26, 'compass': -99.69, 'pitch': 5.35, 'roll': -1.65}
{'lipoC2': 0.0, 'temp': 0.0, 'lipoC3S3': 12.38, 'state': 'normal', 'rot1': 218, 'rot0': 225, 'rot3': 18, 'rot2': 19, 'depth': 0.699, 'yaw': -79.72, 'datetime': '2018-12-18 18:06:59.231847', 'mgs': 0, 'flw2': 2.49, 'flw1': 0.47, 'flw0': 3.04, 'time': 30.47, 'compass': -99.7, 'pitch': 5.05, 'roll': -1.83}
{'lipoC2': 0.15, 'temp': 0.0, 'lipoC3S3': 12.27, 'state': 'normal', 'rot1': 221, 'rot0': 227, 'rot3': 18, 'rot2': 19, 'depth': -0.446, 'yaw': -79.64, 'datetime': '2018-12-18 18:06:59.443413', 'mgs': 0, 'flw2': 2.61, 'flw1': 0.56, 'flw0': 2.88, 'time': 30.68, 'compass': -99.61, 'pitch': 4.54, 'roll': -1.48}
{'lipoC2': 0.12, 'temp': 0.0, 'lipoC3S3': 12.34, 'state': 'normal', 'rot1': 223, 'rot0': 230, 'rot3': 18, 'rot2': 19, 'depth': 1.92, 'yaw': -79.46, 'datetime': '2018-12-18 18:06:59.654606', 'mgs': 0, 'flw2': 3.02, 'flw1': 0.0, 'flw0': 3.02, 'time': 30.89, 'compass': -99.44, 'pitch': 4.55, 'roll': -0.97}
{'lipoC2': 0.11, 'temp': 0.0, 'lipoC3S3': 12.5, 'state': 'normal', 'rot1': 224, 'rot0': 230, 'rot3': 18, 'rot2': 19, 'depth': 1.309, 'yaw': -79.52, 'datetime': '2018-12-18 18:06:59.865010', 'mgs': 0, 'flw2': 0.0, 'flw1': 0.26, 'flw0': 0.17, 'time': 31.1, 'compass': -99.5, 'pitch': 4.47, 'roll': -0.6}
{'lipoC2': 0.0, 'temp': 0.0, 'lipoC3S3': 12.31, 'state': 'normal', 'rot1': 224, 'rot0': 230, 'rot3': 18, 'rot2': 19, 'depth': 0.546, 'yaw': -79.77, 'datetime': '2018-12-18 18:07:00.075021', 'mgs': 0, 'flw2': 0.18, 'flw1': 0.0, 'flw0': 0.04, 'time': 31.31, 'compass': -99.74, 'pitch': 2.65, 'roll': -0.36}
{'lipoC2': 0.0, 'temp': 0.0, 'lipoC3S3': 12.35, 'state': 'normal', 'rot1': 224, 'rot0': 230, 'rot3': 18, 'rot2': 19, 'depth': -0.217, 'yaw': -80.03, 'datetime': '2018-12-18 18:07:00.285026', 'mgs': 0, 'flw2': 0.0, 'flw1': 0.35, 'flw0': 0.0, 'time': 31.52, 'compass': -100.0, 'pitch': 1.79, 'roll': -0.32}
{'lipoC2': 0.15, 'temp': 0.0, 'lipoC3S3': 12.22, 'state': 'normal', 'rot1': 224, 'rot0': 230, 'rot3': 18, 'rot2': 19, 'depth': -0.522, 'yaw': -80.22, 'datetime': '2018-12-18 18:07:00.495764', 'mgs': 0, 'flw2': 0.02, 'flw1': 0.44, 'flw0': 0.0, 'time': 31.73, 'compass': -100.2, 'pitch': 2.56, 'roll': -0.35}
{'lipoC2': 0.0, 'temp': 0.0, 'lipoC3S3': 12.34, 'state': 'normal', 'rot1': 224, 'rot0': 230, 'rot3': 18, 'rot2': 19, 'depth': 0.241, 'yaw': -80.42, 'datetime': '2018-12-18 18:07:00.707155', 'mgs': 0, 'flw2': 0.17, 'flw1': 0.0, 'flw0': 0.01, 'time': 31.94, 'compass': -100.39, 'pitch': 3.31, 'roll': -0.57}
{'lipoC2': 0.09, 'temp': 0.0, 'lipoC3S3': 12.33, 'state': 'normal', 'rot1': 225, 'rot0': 231, 'rot3': 18, 'rot2': 19, 'depth': -1.514, 'yaw': -80.71, 'datetime': '2018-12-18 18:07:00.914358', 'mgs': 0, 'flw2': 0.98, 'flw1': 0.0, 'flw0': 3.72, 'time': 32.15, 'compass': -100.68, 'pitch': 3.12, 'roll': -0.93}
{'lipoC2': 0.0, 'temp': 0.0, 'lipoC3S3': 12.47, 'state': 'normal', 'rot1': 228, 'rot0': 232, 'rot3': 18, 'rot2': 19, 'depth': 2.072, 'yaw': -82.41, 'datetime': '2018-12-18 18:07:01.126842', 'mgs': 0, 'flw2': 0.92, 'flw1': 0.0, 'flw0': 2.62, 'time': 32.36, 'compass': -102.39, 'pitch': 4.0, 'roll': -1.28}
{'lipoC2': 0.02, 'temp': 0.0, 'lipoC3S3': 12.16, 'state': 'normal', 'rot1': 230, 'rot0': 233, 'rot3': 18, 'rot2': 19, 'depth': 0.623, 'yaw': -85.92, 'datetime': '2018-12-18 18:07:01.335505', 'mgs': 0, 'flw2': 1.03, 'flw1': 4.07, 'flw0': 2.58, 'time': 32.57, 'compass': -105.9, 'pitch': 5.62, 'roll': -1.32}
{'lipoC2': 0.0, 'temp': 0.0, 'lipoC3S3': 12.33, 'state': 'normal', 'rot1': 233, 'rot0': 236, 'rot3': 19, 'rot2': 20, 'depth': 0.699, 'yaw': -89.51, 'datetime': '2018-12-18 18:07:01.548619', 'mgs': 0, 'flw2': 2.67, 'flw1': 3.43, 'flw0': 0.73, 'time': 32.78, 'compass': -109.48, 'pitch': 6.25, 'roll': -1.4}
{'lipoC2': 0.14, 'temp': 0.0, 'lipoC3S3': 12.31, 'state': 'normal', 'rot1': 234, 'rot0': 239, 'rot3': 19, 'rot2': 20, 'depth': -0.827, 'yaw': -90.18, 'datetime': '2018-12-18 18:07:01.761417', 'mgs': 0, 'flw2': 2.61, 'flw1': 0.44, 'flw0': 0.78, 'time': 32.99, 'compass': -110.16, 'pitch': 5.67, 'roll': -1.38}
{'lipoC2': 0.1, 'temp': 0.0, 'lipoC3S3': 12.1, 'state': 'normal', 'rot1': 236, 'rot0': 241, 'rot3': 19, 'rot2': 20, 'depth': 1.385, 'yaw': -88.82, 'datetime': '2018-12-18 18:07:01.971920', 'mgs': 0, 'flw2': 2.81, 'flw1': 0.0, 'flw0': 1.01, 'time': 33.2, 'compass': -108.8, 'pitch': 4.72, 'roll': -1.12}
{'lipoC2': 0.0, 'temp': 0.0, 'lipoC3S3': 12.43, 'state': 'normal', 'rot1': 237, 'rot0': 243, 'rot3': 19, 'rot2': 20, 'depth': 1.538, 'yaw': -86.17, 'datetime': '2018-12-18 18:07:02.185472', 'mgs': 0, 'flw2': 2.51, 'flw1': 0.32, 'flw0': 0.93, 'time': 33.41, 'compass': -106.15, 'pitch': 4.34, 'roll': -0.66}
{'lipoC2': 0.0, 'temp': 0.0, 'lipoC3S3': 12.39, 'state': 'normal', 'rot1': 239, 'rot0': 245, 'rot3': 19, 'rot2': 20, 'depth': -0.98, 'yaw': -82.56, 'datetime': '2018-12-18 18:07:02.395264', 'mgs': 0, 'flw2': 2.86, 'flw1': 0.0, 'flw0': 2.89, 'time': 33.62, 'compass': -102.54, 'pitch': 5.14, 'roll': -0.03}
{'lipoC2': 0.0, 'temp': 0.0, 'lipoC3S3': 12.48, 'state': 'normal', 'rot1': 241, 'rot0': 248, 'rot3': 19, 'rot2': 20, 'depth': 1.767, 'yaw': -79.8, 'datetime': '2018-12-18 18:07:02.605275', 'mgs': 0, 'flw2': 2.93, 'flw1': 0.0, 'flw0': 2.6, 'time': 33.83, 'compass': -99.78, 'pitch': 6.73, 'roll': 0.06}
{'lipoC2': 0.08, 'temp': 0.0, 'lipoC3S3': 12.37, 'state': 'normal', 'rot1': 244, 'rot0': 249, 'rot3': 19, 'rot2': 20, 'depth': -1.59, 'yaw': -78.83, 'datetime': '2018-12-18 18:07:02.814582', 'mgs': 0, 'flw2': 0.5, 'flw1': 0.47, 'flw0': 2.99, 'time': 34.04, 'compass': -98.81, 'pitch': 7.26, 'roll': -0.26}
{'lipoC2': 0.03, 'temp': 0.0, 'lipoC3S3': 12.14, 'state': 'normal', 'rot1': 246, 'rot0': 251, 'rot3': 19, 'rot2': 20, 'depth': 0.394, 'yaw': -80.07, 'datetime': '2018-12-18 18:07:03.024711', 'mgs': 0, 'flw2': 0.9, 'flw1': 0.0, 'flw0': 2.76, 'time': 34.25, 'compass': -100.04, 'pitch': 5.9, 'roll': -0.64}
{'lipoC2': 0.0, 'temp': 0.0, 'lipoC3S3': 12.38, 'state': 'normal', 'rot1': 249, 'rot0': 252, 'rot3': 19, 'rot2': 20, 'depth': 1.08, 'yaw': -82.8, 'datetime': '2018-12-18 18:07:03.232745', 'mgs': 0, 'flw2': 0.98, 'flw1': 0.0, 'flw0': 2.65, 'time': 34.46, 'compass': -102.78, 'pitch': 4.89, 'roll': -1.06}
{'lipoC2': 0.11, 'temp': 0.0, 'lipoC3S3': 12.33, 'state': 'normal', 'rot1': 252, 'rot0': 254, 'rot3': 19, 'rot2': 20, 'depth': -1.895, 'yaw': -86.04, 'datetime': '2018-12-18 18:07:03.442042', 'mgs': 0, 'flw2': 2.83, 'flw1': 0.56, 'flw0': 2.8, 'time': 34.67, 'compass': -106.02, 'pitch': 5.52, 'roll': -1.27}
{'lipoC2': 0.18, 'temp': 0.0, 'lipoC3S3': 12.09, 'state': 'normal', 'rot1': 254, 'rot0': 257, 'rot3': 19, 'rot2': 20, 'depth': 1.233, 'yaw': -88.03, 'datetime': '2018-12-18 18:07:03.652800', 'mgs': 0, 'flw2': 2.66, 'flw1': 0.0, 'flw0': 0.93, 'time': 34.88, 'compass': -108.0, 'pitch': 6.75, 'roll': -1.13}
{'lipoC2': 0.0, 'temp': 0.0, 'lipoC3S3': 12.43, 'state': 'normal', 'rot1': 256, 'rot0': 259, 'rot3': 19, 'rot2': 20, 'depth': -1.437, 'yaw': -88.07, 'datetime': '2018-12-18 18:07:03.862735', 'mgs': 0, 'flw2': 2.4, 'flw1': 0.29, 'flw0': 0.9, 'time': 35.09, 'compass': -108.05, 'pitch': 6.26, 'roll': -0.79}
{'lipoC2': 0.05, 'temp': 0.0, 'lipoC3S3': 12.12, 'state': 'normal', 'rot1': 258, 'rot0': 261, 'rot3': 19, 'rot2': 20, 'depth': 0.394, 'yaw': -86.72, 'datetime': '2018-12-18 18:07:04.073975', 'mgs': 0, 'flw2': 0.0, 'flw1': 0.09, 'flw0': 0.22, 'time': 35.3, 'compass': -106.69, 'pitch': 5.22, 'roll': -0.38}
{'lipoC2': 0.16, 'temp': 0.0, 'lipoC3S3': 12.25, 'state': 'normal', 'rot1': 258, 'rot0': 261, 'rot3': 19, 'rot2': 20, 'depth': -0.674, 'yaw': -85.56, 'datetime': '2018-12-18 18:07:04.288338', 'mgs': 0, 'flw2': 0.04, 'flw1': 0.0, 'flw0': 0.15, 'time': 35.51, 'compass': -105.54, 'pitch': 3.86, 'roll': -0.12}
{'lipoC2': 0.14, 'temp': 0.0, 'lipoC3S3': 12.06, 'state': 'normal', 'rot1': 258, 'rot0': 262, 'rot3': 19, 'rot2': 20, 'depth': 0.928, 'yaw': -85.05, 'datetime': '2018-12-18 18:07:04.494586', 'mgs': 0, 'flw2': 3.43, 'flw1': 0.0, 'flw0': 3.32, 'time': 35.72, 'compass': -105.03, 'pitch': 3.02, 'roll': -0.17}
{'lipoC2': 0.0, 'temp': 0.0, 'lipoC3S3': 12.06, 'state': 'normal', 'rot1': 263, 'rot0': 265, 'rot3': 19, 'rot2': 20, 'depth': 0.241, 'yaw': -85.11, 'datetime': '2018-12-18 18:07:04.705361', 'mgs': 0, 'flw2': 2.99, 'flw1': 0.0, 'flw0': 2.64, 'time': 35.94, 'compass': -105.09, 'pitch': 5.08, 'roll': -0.33}
{'lipoC2': 0.04, 'temp': 0.0, 'lipoC3S3': 12.18, 'state': 'normal', 'rot1': 266, 'rot0': 268, 'rot3': 19, 'rot2': 20, 'depth': 1.614, 'yaw': -85.58, 'datetime': '2018-12-18 18:07:04.915299', 'mgs': 0, 'flw2': 2.88, 'flw1': 0.0, 'flw0': 2.83, 'time': 36.14, 'compass': -105.56, 'pitch': 7.38, 'roll': -0.43}
{'lipoC2': 0.0, 'temp': 0.0, 'lipoC3S3': 12.37, 'state': 'normal', 'rot1': 269, 'rot0': 271, 'rot3': 19, 'rot2': 20, 'depth': 0.012, 'yaw': -86.31, 'datetime': '2018-12-18 18:07:05.128838', 'mgs': 0, 'flw2': 2.93, 'flw1': 0.0, 'flw0': 2.83, 'time': 36.35, 'compass': -106.29, 'pitch': 7.37, 'roll': -0.58}
{'lipoC2': 0.0, 'temp': 0.0, 'lipoC3S3': 12.39, 'state': 'normal', 'rot1': 271, 'rot0': 273, 'rot3': 19, 'rot2': 20, 'depth': 1.767, 'yaw': -87.12, 'datetime': '2018-12-18 18:07:05.336418', 'mgs': 0, 'flw2': 3.06, 'flw1': 0.0, 'flw0': 2.77, 'time': 36.56, 'compass': -107.09, 'pitch': 6.65, 'roll': -0.79}
{'lipoC2': 0.0, 'temp': 0.0, 'lipoC3S3': 12.63, 'state': 'normal', 'rot1': 275, 'rot0': 276, 'rot3': 19, 'rot2': 20, 'depth': 1.996, 'yaw': -87.7, 'datetime': '2018-12-18 18:07:05.546806', 'mgs': 0, 'flw2': 2.38, 'flw1': 0.29, 'flw0': 3.05, 'time': 36.77, 'compass': -107.67, 'pitch': 6.68, 'roll': -1.08}
{'lipoC2': 0.16, 'temp': 0.0, 'lipoC3S3': 12.29, 'state': 'normal', 'rot1': 278, 'rot0': 279, 'rot3': 20, 'rot2': 21, 'depth': -1.895, 'yaw': -88.14, 'datetime': '2018-12-18 18:07:05.758211', 'mgs': 0, 'flw2': 2.66, 'flw1': 3.78, 'flw0': 2.86, 'time': 36.99, 'compass': -108.12, 'pitch': 7.44, 'roll': -1.4}
{'lipoC2': 0.16, 'temp': 0.0, 'lipoC3S3': 12.33, 'state': 'normal', 'rot1': 281, 'rot0': 282, 'rot3': 20, 'rot2': 22, 'depth': -1.208, 'yaw': -88.58, 'datetime': '2018-12-18 18:07:05.970061', 'mgs': 0, 'flw2': 2.94, 'flw1': 0.0, 'flw0': 2.91, 'time': 37.19, 'compass': -108.55, 'pitch': 8.46, 'roll': -1.61}
{'lipoC2': 0.12, 'temp': 0.0, 'lipoC3S3': 12.12, 'state': 'normal', 'rot1': 283, 'rot0': 284, 'rot3': 20, 'rot2': 22, 'depth': 1.462, 'yaw': -88.33, 'datetime': '2018-12-18 18:07:06.183944', 'mgs': 0, 'flw2': 2.89, 'flw1': 0.0, 'flw0': 0.92, 'time': 37.4, 'compass': -108.3, 'pitch': 7.99, 'roll': -1.37}
{'lipoC2': 0.15, 'temp': 0.0, 'lipoC3S3': 12.18, 'state': 'normal', 'rot1': 284, 'rot0': 286, 'rot3': 20, 'rot2': 22, 'depth': 1.233, 'yaw': -86.49, 'datetime': '2018-12-18 18:07:06.395046', 'mgs': 0, 'flw2': 2.84, 'flw1': 0.38, 'flw0': 2.82, 'time': 37.62, 'compass': -106.47, 'pitch': 6.01, 'roll': -0.85}
{'lipoC2': 0.14, 'temp': 0.0, 'lipoC3S3': 12.14, 'state': 'normal', 'rot1': 287, 'rot0': 289, 'rot3': 20, 'rot2': 22, 'depth': 1.08, 'yaw': -84.88, 'datetime': '2018-12-18 18:07:06.605542', 'mgs': 0, 'flw2': 2.71, 'flw1': 0.0, 'flw0': 3.05, 'time': 37.83, 'compass': -104.85, 'pitch': 5.46, 'roll': -0.6}
{'lipoC2': 0.16, 'temp': 0.0, 'lipoC3S3': 12.16, 'state': 'normal', 'rot1': 288, 'rot0': 291, 'rot3': 20, 'rot2': 22, 'depth': 0.851, 'yaw': -84.15, 'datetime': '2018-12-18 18:07:06.817091', 'mgs': 0, 'flw2': 0.0, 'flw1': 0.47, 'flw0': 0.0, 'time': 38.04, 'compass': -104.13, 'pitch': 6.47, 'roll': -0.66}
{'lipoC2': 0.0, 'temp': 0.0, 'lipoC3S3': 12.37, 'state': 'normal', 'rot1': 289, 'rot0': 291, 'rot3': 20, 'rot2': 22, 'depth': -0.369, 'yaw': -83.84, 'datetime': '2018-12-18 18:07:07.027100', 'mgs': 0, 'flw2': 0.2, 'flw1': 0.0, 'flw0': 0.0, 'time': 38.25, 'compass': -103.82, 'pitch': 5.0, 'roll': -0.65}
{'lipoC2': 0.04, 'temp': 0.0, 'lipoC3S3': 12.41, 'state': 'normal', 'rot1': 289, 'rot0': 291, 'rot3': 20, 'rot2': 22, 'depth': 1.843, 'yaw': -83.63, 'datetime': '2018-12-18 18:07:07.235961', 'mgs': 0, 'flw2': 0.21, 'flw1': 0.0, 'flw0': 0.0, 'time': 38.46, 'compass': -103.61, 'pitch': 2.84, 'roll': -0.54}
{'lipoC2': 0.0, 'temp': 0.0, 'lipoC3S3': 12.33, 'state': 'normal', 'rot1': 289, 'rot0': 291, 'rot3': 20, 'rot2': 22, 'depth': 0.775, 'yaw': -83.48, 'datetime': '2018-12-18 18:07:07.438870', 'mgs': 0, 'flw2': 0.57, 'flw1': 0.0, 'flw0': 0.42, 'time': 38.67, 'compass': -103.46, 'pitch': 2.65, 'roll': -0.66}
{'lipoC2': 0.13, 'temp': 0.0, 'lipoC3S3': 12.34, 'state': 'normal', 'rot1': 290, 'rot0': 292, 'rot3': 20, 'rot2': 22, 'depth': -1.514, 'yaw': -84.08, 'datetime': '2018-12-18 18:07:07.651253', 'mgs': 0, 'flw2': 0.55, 'flw1': 0.0, 'flw0': 0.31, 'time': 38.88, 'compass': -104.06, 'pitch': 3.51, 'roll': -1.11}
{'lipoC2': 0.0, 'temp': 0.0, 'lipoC3S3': 12.34, 'state': 'normal', 'rot1': 292, 'rot0': 293, 'rot3': 20, 'rot2': 22, 'depth': 0.623, 'yaw': -85.23, 'datetime': '2018-12-18 18:07:07.861724', 'mgs': 0, 'flw2': 0.16, 'flw1': 0.44, 'flw0': 0.35, 'time': 39.09, 'compass': -105.21, 'pitch': 3.78, 'roll': -1.48}
{'lipoC2': 0.03, 'temp': 0.0, 'lipoC3S3': 12.13, 'state': 'normal', 'rot1': 292, 'rot0': 293, 'rot3': 20, 'rot2': 22, 'depth': 0.165, 'yaw': -86.54, 'datetime': '2018-12-18 18:07:08.072608', 'mgs': 0, 'flw2': 0.0, 'flw1': 0.0, 'flw0': 0.0, 'time': 39.3, 'compass': -106.51, 'pitch': 3.68, 'roll': -1.42}
{'lipoC2': 0.06, 'temp': 0.0, 'lipoC3S3': 12.1, 'state': 'normal', 'rot1': 292, 'rot0': 294, 'rot3': 20, 'rot2': 22, 'depth': 0.317, 'yaw': -87.57, 'datetime': '2018-12-18 18:07:08.287827', 'mgs': 0, 'flw2': 0.95, 'flw1': 0.0, 'flw0': 3.34, 'time': 39.51, 'compass': -107.54, 'pitch': 3.75, 'roll': -1.06}
{'lipoC2': 0.0, 'temp': 0.0, 'lipoC3S3': 12.48, 'state': 'normal', 'rot1': 295, 'rot0': 295, 'rot3': 20, 'rot2': 22, 'depth': 1.538, 'yaw': -90.0, 'datetime': '2018-12-18 18:07:08.495840', 'mgs': 0, 'flw2': 0.92, 'flw1': 0.06, 'flw0': 2.71, 'time': 39.72, 'compass': -109.98, 'pitch': 5.27, 'roll': -0.94}
{'lipoC2': 0.08, 'temp': 0.0, 'lipoC3S3': 12.38, 'state': 'normal', 'rot1': 297, 'rot0': 297, 'rot3': 20, 'rot2': 22, 'depth': 1.92, 'yaw': -94.0, 'datetime': '2018-12-18 18:07:08.707391', 'mgs': 0, 'flw2': 2.92, 'flw1': 0.0, 'flw0': 2.65, 'time': 39.93, 'compass': -113.97, 'pitch': 6.87, 'roll': -0.97}
{'lipoC2': 0.0, 'temp': 0.0, 'lipoC3S3': 12.39, 'state': 'normal', 'rot1': 299, 'rot0': 299, 'rot3': 21, 'rot2': 22, 'depth': -0.064, 'yaw': -97.22, 'datetime': '2018-12-18 18:07:08.917691', 'mgs': 0, 'flw2': 3.0, 'flw1': 3.34, 'flw0': 0.39, 'time': 40.14, 'compass': -117.2, 'pitch': 7.69, 'roll': -1.11}
{'lipoC2': 0.0, 'temp': 0.0, 'lipoC3S3': 12.35, 'state': 'normal', 'rot1': 300, 'rot0': 302, 'rot3': 22, 'rot2': 23, 'depth': 0.394, 'yaw': -98.28, 'datetime': '2018-12-18 18:07:09.130590', 'mgs': 0, 'flw2': 2.51, 'flw1': 0.38, 'flw0': 0.82, 'time': 40.35, 'compass': -118.26, 'pitch': 7.33, 'roll': -1.47}
{'lipoC2': 0.0, 'temp': 0.0, 'lipoC3S3': 12.17, 'state': 'normal', 'rot1': 301, 'rot0': 304, 'rot3': 22, 'rot2': 23, 'depth': -1.056, 'yaw': -97.06, 'datetime': '2018-12-18 18:07:09.339779', 'mgs': 0, 'flw2': 2.76, 'flw1': 0.0, 'flw0': 0.92, 'time': 40.56, 'compass': -117.03, 'pitch': 6.2, 'roll': -1.74}
{'lipoC2': 0.0, 'temp': 0.0, 'lipoC3S3': 12.42, 'state': 'normal', 'rot1': 303, 'rot0': 307, 'rot3': 22, 'rot2': 23, 'depth': 1.385, 'yaw': -94.34, 'datetime': '2018-12-18 18:07:09.549114', 'mgs': 0, 'flw2': 2.56, 'flw1': 0.29, 'flw0': 0.92, 'time': 40.77, 'compass': -114.32, 'pitch': 5.33, 'roll': -1.5}
{'lipoC2': 0.15, 'temp': 0.0, 'lipoC3S3': 12.27, 'state': 'normal', 'rot1': 304, 'rot0': 309, 'rot3': 22, 'rot2': 23, 'depth': -0.522, 'yaw': -90.61, 'datetime': '2018-12-18 18:07:09.761187', 'mgs': 0, 'flw2': 2.72, 'flw1': 3.57, 'flw0': 0.88, 'time': 40.98, 'compass': -110.59, 'pitch': 5.62, 'roll': -0.85}
{'lipoC2': 0.0, 'temp': 0.0, 'lipoC3S3': 12.42, 'state': 'normal', 'rot1': 306, 'rot0': 311, 'rot3': 23, 'rot2': 24, 'depth': 1.157, 'yaw': -87.08, 'datetime': '2018-12-18 18:07:09.969146', 'mgs': 0, 'flw2': 2.37, 'flw1': 3.28, 'flw0': 2.92, 'time': 41.19, 'compass': -107.06, 'pitch': 6.8, 'roll': -0.63}
{'lipoC2': 0.0, 'temp': 0.0, 'lipoC3S3': 12.42, 'state': 'normal', 'rot1': 309, 'rot0': 313, 'rot3': 23, 'rot2': 25, 'depth': 1.309, 'yaw': -85.05, 'datetime': '2018-12-18 18:07:10.184157', 'mgs': 0, 'flw2': 0.33, 'flw1': 0.29, 'flw0': 3.02, 'time': 41.4, 'compass': -105.03, 'pitch': 7.75, 'roll': -0.81}
{'lipoC2': 0.0, 'temp': 0.0, 'lipoC3S3': 12.35, 'state': 'normal', 'rot1': 311, 'rot0': 315, 'rot3': 23, 'rot2': 25, 'depth': 0.47, 'yaw': -85.16, 'datetime': '2018-12-18 18:07:10.395582', 'mgs': 0, 'flw2': 0.6, 'flw1': 0.44, 'flw0': 2.94, 'time': 41.61, 'compass': -105.13, 'pitch': 6.47, 'roll': -1.12}
{'lipoC2': 0.13, 'temp': 0.0, 'lipoC3S3': 12.16, 'state': 'normal', 'rot1': 314, 'rot0': 316, 'rot3': 23, 'rot2': 25, 'depth': 1.08, 'yaw': -87.03, 'datetime': '2018-12-18 18:07:10.606077', 'mgs': 0, 'flw2': 0.85, 'flw1': 0.29, 'flw0': 2.78, 'time': 41.82, 'compass': -107.01, 'pitch': 4.48, 'roll': -1.5}
{'lipoC2': 0.0, 'temp': 0.0, 'lipoC3S3': 12.54, 'state': 'normal', 'rot1': 317, 'rot0': 317, 'rot3': 23, 'rot2': 25, 'depth': 1.996, 'yaw': -89.93, 'datetime': '2018-12-18 18:07:10.814029', 'mgs': 0, 'flw2': 0.73, 'flw1': 0.0, 'flw0': 3.03, 'time': 42.03, 'compass': -109.91, 'pitch': 4.51, 'roll': -1.73}
{'lipoC2': 0.15, 'temp': 0.0, 'lipoC3S3': 12.3, 'state': 'normal', 'rot1': 319, 'rot0': 319, 'rot3': 23, 'rot2': 25, 'depth': -0.674, 'yaw': -93.47, 'datetime': '2018-12-18 18:07:11.024659', 'mgs': 0, 'flw2': 0.78, 'flw1': 0.41, 'flw0': 2.8, 'time': 42.24, 'compass': -113.45, 'pitch': 5.45, 'roll': -1.79}
{'lipoC2': 0.14, 'temp': 0.0, 'lipoC3S3': 12.3, 'state': 'normal', 'rot1': 321, 'rot0': 321, 'rot3': 23, 'rot2': 25, 'depth': -0.903, 'yaw': -96.91, 'datetime': '2018-12-18 18:07:11.237526', 'mgs': 0, 'flw2': 2.64, 'flw1': 0.41, 'flw0': 0.77, 'time': 42.45, 'compass': -116.88, 'pitch': 5.94, 'roll': -1.52}
{'lipoC2': 0.0, 'temp': 0.0, 'lipoC3S3': 12.33, 'state': 'normal', 'rot1': 322, 'rot0': 323, 'rot3': 23, 'rot2': 25, 'depth': 0.851, 'yaw': -97.42, 'datetime': '2018-12-18 18:07:11.446099', 'mgs': 0, 'flw2': 2.95, 'flw1': 0.0, 'flw0': 0.78, 'time': 42.66, 'compass': -117.4, 'pitch': 6.19, 'roll': -0.71}
