{'lipoC2': 8.11, 'temp': 0.0, 'lipoC3S3': 11.76, 'state': 'normal', 'rot1': 18, 'rot0': 18, 'rot3': 5, 'rot2': 6, 'depth': 1.767, 'yaw': -1.11, 'datetime': '2018-12-12 10:38:49.927100', 'mgs': 0, 'flw2': 7.36, 'flw1': 3.25, 'flw0': 7.43, 'time': 1.26, 'compass': 15.78, 'pitch': 4.37, 'roll': 0.53}
{'lipoC2': 8.1, 'temp': 0.0, 'lipoC3S3': 12.35, 'state': 'normal', 'rot1': 20, 'rot0': 20, 'rot3': 6, 'rot2': 7, 'depth': -0.293, 'yaw': -21.96, 'datetime': '2018-12-12 10:38:50.136273', 'mgs': 0, 'flw2': 0.11, 'flw1': 3.46, 'flw0': 0.1, 'time': 1.47, 'compass': -5.07, 'pitch': 2.64, 'roll': -0.41}
{'lipoC2': 8.1, 'temp': 0.0, 'lipoC3S3': 11.98, 'state': 'normal', 'rot1': 21, 'rot0': 20, 'rot3': 6, 'rot2': 8, 'depth': 1.996, 'yaw': -38.84, 'datetime': '2018-12-12 10:38:50.349625', 'mgs': 0, 'flw2': 0.0, 'flw1': 3.02, 'flw0': 0.0, 'time': 1.67, 'compass': -21.95, 'pitch': 0.13, 'roll': -0.53}
{'lipoC2': 8.02, 'temp': 0.0, 'lipoC3S3': 11.98, 'state': 'normal', 'rot1': 21, 'rot0': 21, 'rot3': 7, 'rot2': 9, 'depth': -0.522, 'yaw': -52.46, 'datetime': '2018-12-12 10:38:50.555364', 'mgs': 0, 'flw2': 0.54, 'flw1': 2.64, 'flw0': 0.59, 'time': 1.88, 'compass': -35.57, 'pitch': -2.2, 'roll': -0.02}
{'lipoC2': 8.35, 'temp': 0.0, 'lipoC3S3': 12.13, 'state': 'normal', 'rot1': 22, 'rot0': 22, 'rot3': 8, 'rot2': 10, 'depth': 0.012, 'yaw': -63.39, 'datetime': '2018-12-12 10:38:50.763074', 'mgs': 0, 'flw2': 0.48, 'flw1': 3.19, 'flw0': 0.4, 'time': 2.09, 'compass': -46.51, 'pitch': -3.59, 'roll': 0.51}
{'lipoC2': 8.09, 'temp': 0.0, 'lipoC3S3': 11.94, 'state': 'normal', 'rot1': 24, 'rot0': 23, 'rot3': 9, 'rot2': 12, 'depth': 0.546, 'yaw': -71.91, 'datetime': '2018-12-12 10:38:50.973115', 'mgs': 0, 'flw2': 1.01, 'flw1': 2.43, 'flw0': 1.0, 'time': 2.3, 'compass': -55.02, 'pitch': -4.09, 'roll': 1.1}
{'lipoC2': 8.36, 'temp': 0.0, 'lipoC3S3': 12.13, 'state': 'normal', 'rot1': 26, 'rot0': 24, 'rot3': 10, 'rot2': 13, 'depth': -0.064, 'yaw': -78.04, 'datetime': '2018-12-12 10:38:51.184174', 'mgs': 0, 'flw2': 1.37, 'flw1': 2.55, 'flw0': 1.37, 'time': 2.51, 'compass': -61.15, 'pitch': -3.44, 'roll': 1.73}
{'lipoC2': 8.12, 'temp': 0.0, 'lipoC3S3': 11.96, 'state': 'normal', 'rot1': 28, 'rot0': 26, 'rot3': 11, 'rot2': 14, 'depth': 2.301, 'yaw': -82.61, 'datetime': '2018-12-12 10:38:51.395482', 'mgs': 0, 'flw2': 1.23, 'flw1': 3.52, 'flw0': 1.18, 'time': 2.72, 'compass': -65.72, 'pitch': -2.57, 'roll': 2.2}
{'lipoC2': 8.1, 'temp': 0.0, 'lipoC3S3': 12.38, 'state': 'normal', 'rot1': 30, 'rot0': 28, 'rot3': 11, 'rot2': 15, 'depth': -0.903, 'yaw': -85.19, 'datetime': '2018-12-12 10:38:51.604384', 'mgs': 0, 'flw2': 1.29, 'flw1': 2.34, 'flw0': 1.33, 'time': 2.93, 'compass': -68.3, 'pitch': -2.33, 'roll': 2.48}
{'lipoC2': 8.36, 'temp': 0.0, 'lipoC3S3': 12.06, 'state': 'normal', 'rot1': 33, 'rot0': 30, 'rot3': 12, 'rot2': 16, 'depth': 0.623, 'yaw': -85.5, 'datetime': '2018-12-12 10:38:51.816944', 'mgs': 0, 'flw2': 1.51, 'flw1': 2.14, 'flw0': 1.5, 'time': 3.14, 'compass': -68.61, 'pitch': -2.13, 'roll': 2.39}
{'lipoC2': 8.31, 'temp': 0.0, 'lipoC3S3': 12.04, 'state': 'normal', 'rot1': 35, 'rot0': 32, 'rot3': 13, 'rot2': 17, 'depth': -1.743, 'yaw': -83.86, 'datetime': '2018-12-12 10:38:52.026239', 'mgs': 0, 'flw2': 1.66, 'flw1': 2.23, 'flw0': 1.61, 'time': 3.35, 'compass': -66.97, 'pitch': -1.58, 'roll': 2.17}
{'lipoC2': 8.23, 'temp': 0.0, 'lipoC3S3': 12.0, 'state': 'normal', 'rot1': 37, 'rot0': 34, 'rot3': 14, 'rot2': 18, 'depth': 1.538, 'yaw': -80.79, 'datetime': '2018-12-12 10:38:52.232621', 'mgs': 0, 'flw2': 1.14, 'flw1': 2.87, 'flw0': 1.17, 'time': 3.56, 'compass': -63.9, 'pitch': -0.78, 'roll': 2.3}
{'lipoC2': 8.05, 'temp': 0.0, 'lipoC3S3': 12.47, 'state': 'normal', 'rot1': 39, 'rot0': 35, 'rot3': 15, 'rot2': 19, 'depth': -0.522, 'yaw': -76.61, 'datetime': '2018-12-12 10:38:52.443468', 'mgs': 0, 'flw2': 1.37, 'flw1': 2.31, 'flw0': 1.37, 'time': 3.77, 'compass': -59.72, 'pitch': -0.0, 'roll': 2.84}
{'lipoC2': 8.36, 'temp': 0.0, 'lipoC3S3': 12.08, 'state': 'normal', 'rot1': 42, 'rot0': 37, 'rot3': 16, 'rot2': 20, 'depth': -1.361, 'yaw': -71.81, 'datetime': '2018-12-12 10:38:52.655388', 'mgs': 0, 'flw2': 1.01, 'flw1': 2.11, 'flw0': 0.95, 'time': 3.98, 'compass': -54.92, 'pitch': 0.52, 'roll': 3.41}
{'lipoC2': 8.23, 'temp': 0.0, 'lipoC3S3': 12.18, 'state': 'normal', 'rot1': 43, 'rot0': 39, 'rot3': 16, 'rot2': 22, 'depth': -1.437, 'yaw': -66.73, 'datetime': '2018-12-12 10:38:52.864990', 'mgs': 0, 'flw2': 0.72, 'flw1': 2.52, 'flw0': 0.65, 'time': 4.19, 'compass': -49.84, 'pitch': 0.78, 'roll': 3.35}
{'lipoC2': 8.27, 'temp': 0.0, 'lipoC3S3': 12.12, 'state': 'normal', 'rot1': 45, 'rot0': 40, 'rot3': 17, 'rot2': 23, 'depth': 1.385, 'yaw': -61.64, 'datetime': '2018-12-12 10:38:53.074745', 'mgs': 0, 'flw2': 0.4, 'flw1': 2.78, 'flw0': 0.42, 'time': 4.4, 'compass': -44.75, 'pitch': 0.9, 'roll': 2.86}
{'lipoC2': 8.07, 'temp': 0.0, 'lipoC3S3': 12.47, 'state': 'normal', 'rot1': 46, 'rot0': 42, 'rot3': 18, 'rot2': 24, 'depth': -0.598, 'yaw': -57.16, 'datetime': '2018-12-12 10:38:53.285101', 'mgs': 0, 'flw2': 0.76, 'flw1': 2.37, 'flw0': 0.7, 'time': 4.61, 'compass': -40.27, 'pitch': 0.99, 'roll': 2.44}
{'lipoC2': 8.27, 'temp': 0.0, 'lipoC3S3': 12.12, 'state': 'normal', 'rot1': 48, 'rot0': 43, 'rot3': 19, 'rot2': 25, 'depth': -0.598, 'yaw': -52.54, 'datetime': '2018-12-12 10:38:53.496093', 'mgs': 0, 'flw2': 0.26, 'flw1': 2.84, 'flw0': 0.2, 'time': 4.82, 'compass': -35.65, 'pitch': 1.37, 'roll': 2.33}
{'lipoC2': 8.09, 'temp': 0.0, 'lipoC3S3': 12.08, 'state': 'normal', 'rot1': 49, 'rot0': 44, 'rot3': 20, 'rot2': 26, 'depth': -0.293, 'yaw': -48.05, 'datetime': '2018-12-12 10:38:53.706236', 'mgs': 0, 'flw2': 0.15, 'flw1': 2.37, 'flw0': 0.09, 'time': 5.03, 'compass': -31.16, 'pitch': 1.64, 'roll': 2.32}
{'lipoC2': 8.04, 'temp': 0.0, 'lipoC3S3': 12.38, 'state': 'normal', 'rot1': 52, 'rot0': 45, 'rot3': 21, 'rot2': 27, 'depth': -0.522, 'yaw': -43.93, 'datetime': '2018-12-12 10:38:53.919847', 'mgs': 0, 'flw2': 0.55, 'flw1': 2.29, 'flw0': 0.54, 'time': 5.24, 'compass': -27.04, 'pitch': 1.69, 'roll': 2.18}
{'lipoC2': 8.31, 'temp': 0.0, 'lipoC3S3': 12.12, 'state': 'normal', 'rot1': 53, 'rot0': 46, 'rot3': 21, 'rot2': 28, 'depth': -1.514, 'yaw': -40.04, 'datetime': '2018-12-12 10:38:54.126943', 'mgs': 0, 'flw2': 0.21, 'flw1': 3.34, 'flw0': 0.21, 'time': 5.45, 'compass': -23.15, 'pitch': 1.79, 'roll': 2.07}
{'lipoC2': 8.15, 'temp': 0.0, 'lipoC3S3': 12.23, 'state': 'normal', 'rot1': 54, 'rot0': 47, 'rot3': 22, 'rot2': 29, 'depth': 2.301, 'yaw': -36.21, 'datetime': '2018-12-12 10:38:54.335780', 'mgs': 0, 'flw2': 0.62, 'flw1': 2.52, 'flw0': 0.68, 'time': 5.66, 'compass': -19.32, 'pitch': 2.16, 'roll': 2.44}
{'lipoC2': 8.08, 'temp': 0.0, 'lipoC3S3': 12.09, 'state': 'normal', 'rot1': 55, 'rot0': 48, 'rot3': 23, 'rot2': 30, 'depth': -1.056, 'yaw': -32.48, 'datetime': '2018-12-12 10:38:54.545031', 'mgs': 0, 'flw2': 0.57, 'flw1': 2.67, 'flw0': 0.6, 'time': 5.87, 'compass': -15.6, 'pitch': 2.31, 'roll': 2.92}
{'lipoC2': 8.05, 'temp': 0.0, 'lipoC3S3': 12.35, 'state': 'normal', 'rot1': 56, 'rot0': 49, 'rot3': 24, 'rot2': 31, 'depth': 0.47, 'yaw': -28.83, 'datetime': '2018-12-12 10:38:54.758195', 'mgs': 0, 'flw2': 0.21, 'flw1': 3.37, 'flw0': 0.22, 'time': 6.08, 'compass': -11.94, 'pitch': 2.11, 'roll': 3.16}
{'lipoC2': 8.11, 'temp': 0.0, 'lipoC3S3': 12.22, 'state': 'normal', 'rot1': 57, 'rot0': 50, 'rot3': 25, 'rot2': 32, 'depth': -1.208, 'yaw': -25.16, 'datetime': '2018-12-12 10:38:54.970123', 'mgs': 0, 'flw2': 0.22, 'flw1': 3.52, 'flw0': 0.22, 'time': 6.29, 'compass': -8.27, 'pitch': 2.08, 'roll': 3.29}
{'lipoC2': 8.34, 'temp': 0.0, 'lipoC3S3': 12.16, 'state': 'normal', 'rot1': 59, 'rot0': 51, 'rot3': 26, 'rot2': 33, 'depth': -0.522, 'yaw': -21.49, 'datetime': '2018-12-12 10:38:55.180081', 'mgs': 0, 'flw2': 0.0, 'flw1': 3.57, 'flw0': 0.0, 'time': 6.5, 'compass': -4.6, 'pitch': 2.26, 'roll': 3.33}
{'lipoC2': 8.14, 'temp': 0.0, 'lipoC3S3': 12.09, 'state': 'normal', 'rot1': 59, 'rot0': 51, 'rot3': 26, 'rot2': 35, 'depth': -1.056, 'yaw': -18.54, 'datetime': '2018-12-12 10:38:55.385894', 'mgs': 0, 'flw2': 0.29, 'flw1': 2.64, 'flw0': 0.29, 'time': 6.71, 'compass': -1.65, 'pitch': 2.27, 'roll': 3.04}
{'lipoC2': 8.09, 'temp': 0.0, 'lipoC3S3': 11.97, 'state': 'normal', 'rot1': 59, 'rot0': 51, 'rot3': 27, 'rot2': 36, 'depth': -0.522, 'yaw': -15.92, 'datetime': '2018-12-12 10:38:55.596401', 'mgs': 0, 'flw2': 0.17, 'flw1': 2.52, 'flw0': 0.15, 'time': 6.92, 'compass': 0.97, 'pitch': 2.02, 'roll': 2.87}
{'lipoC2': 8.09, 'temp': 0.0, 'lipoC3S3': 12.0, 'state': 'normal', 'rot1': 59, 'rot0': 51, 'rot3': 28, 'rot2': 37, 'depth': 2.148, 'yaw': -13.61, 'datetime': '2018-12-12 10:38:55.807573', 'mgs': 0, 'flw2': 0.0, 'flw1': 2.87, 'flw0': 0.0, 'time': 7.13, 'compass': 3.27, 'pitch': 1.3, 'roll': 3.06}
{'lipoC2': 8.05, 'temp': 0.0, 'lipoC3S3': 12.52, 'state': 'normal', 'rot1': 59, 'rot0': 51, 'rot3': 29, 'rot2': 38, 'depth': -0.903, 'yaw': -11.51, 'datetime': '2018-12-12 10:38:56.018875', 'mgs': 0, 'flw2': 0.0, 'flw1': 3.37, 'flw0': 0.0, 'time': 7.34, 'compass': 5.38, 'pitch': 1.05, 'roll': 3.31}
{'lipoC2': 8.29, 'temp': 0.0, 'lipoC3S3': 12.16, 'state': 'normal', 'rot1': 59, 'rot0': 51, 'rot3': 30, 'rot2': 39, 'depth': -1.666, 'yaw': -9.67, 'datetime': '2018-12-12 10:38:56.231833', 'mgs': 0, 'flw2': 0.71, 'flw1': 2.67, 'flw0': 0.76, 'time': 7.55, 'compass': 7.22, 'pitch': 1.39, 'roll': 3.26}
{'lipoC2': 8.23, 'temp': 0.0, 'lipoC3S3': 12.02, 'state': 'normal', 'rot1': 61, 'rot0': 52, 'rot3': 31, 'rot2': 40, 'depth': 1.538, 'yaw': -8.66, 'datetime': '2018-12-12 10:38:56.433650', 'mgs': 0, 'flw2': 0.2, 'flw1': 2.72, 'flw0': 0.18, 'time': 7.75, 'compass': 8.22, 'pitch': 1.28, 'roll': 2.83}
{'lipoC2': 8.26, 'temp': 0.0, 'lipoC3S3': 12.37, 'state': 'normal', 'rot1': 62, 'rot0': 54, 'rot3': 31, 'rot2': 41, 'depth': 1.233, 'yaw': -8.51, 'datetime': '2018-12-12 10:38:56.642079', 'mgs': 0, 'flw2': 0.23, 'flw1': 2.37, 'flw0': 0.2, 'time': 7.96, 'compass': 8.38, 'pitch': 0.7, 'roll': 2.45}
{'lipoC2': 8.27, 'temp': 0.0, 'lipoC3S3': 12.09, 'state': 'normal', 'rot1': 64, 'rot0': 55, 'rot3': 32, 'rot2': 42, 'depth': -1.056, 'yaw': -9.07, 'datetime': '2018-12-12 10:38:56.854464', 'mgs': 0, 'flw2': 0.13, 'flw1': 2.87, 'flw0': 0.06, 'time': 8.17, 'compass': 7.82, 'pitch': 0.7, 'roll': 2.53}
{'lipoC2': 8.1, 'temp': 0.0, 'lipoC3S3': 12.29, 'state': 'normal', 'rot1': 66, 'rot0': 56, 'rot3': 33, 'rot2': 43, 'depth': -1.59, 'yaw': -10.24, 'datetime': '2018-12-12 10:38:57.068800', 'mgs': 0, 'flw2': 0.63, 'flw1': 2.52, 'flw0': 0.65, 'time': 8.39, 'compass': 6.65, 'pitch': 1.21, 'roll': 3.08}
{'lipoC2': 8.05, 'temp': 0.0, 'lipoC3S3': 12.5, 'state': 'normal', 'rot1': 67, 'rot0': 57, 'rot3': 34, 'rot2': 44, 'depth': -0.751, 'yaw': -11.91, 'datetime': '2018-12-12 10:38:57.280939', 'mgs': 0, 'flw2': 0.56, 'flw1': 2.46, 'flw0': 0.52, 'time': 8.6, 'compass': 4.98, 'pitch': 1.73, 'roll': 3.75}
{'lipoC2': 8.35, 'temp': 0.0, 'lipoC3S3': 12.13, 'state': 'normal', 'rot1': 68, 'rot0': 58, 'rot3': 35, 'rot2': 45, 'depth': -1.59, 'yaw': -14.04, 'datetime': '2018-12-12 10:38:57.490796', 'mgs': 0, 'flw2': 0.0, 'flw1': 3.05, 'flw0': 0.0, 'time': 8.81, 'compass': 2.85, 'pitch': 2.0, 'roll': 4.23}
{'lipoC2': 8.38, 'temp': 0.0, 'lipoC3S3': 12.13, 'state': 'normal', 'rot1': 68, 'rot0': 58, 'rot3': 36, 'rot2': 47, 'depth': -1.59, 'yaw': -16.18, 'datetime': '2018-12-12 10:38:57.698063', 'mgs': 0, 'flw2': 0.0, 'flw1': 3.57, 'flw0': 0.0, 'time': 9.01, 'compass': 0.7, 'pitch': 1.67, 'roll': 4.64}
{'lipoC2': 8.05, 'temp': 0.0, 'lipoC3S3': 12.5, 'state': 'normal', 'rot1': 68, 'rot0': 58, 'rot3': 36, 'rot2': 48, 'depth': -0.903, 'yaw': -18.02, 'datetime': '2018-12-12 10:38:57.906598', 'mgs': 0, 'flw2': 0.07, 'flw1': 2.26, 'flw0': 0.05, 'time': 9.22, 'compass': -1.13, 'pitch': 0.99, 'roll': 4.89}
{'lipoC2': 8.08, 'temp': 0.0, 'lipoC3S3': 12.09, 'state': 'normal', 'rot1': 68, 'rot0': 58, 'rot3': 37, 'rot2': 49, 'depth': 1.157, 'yaw': -19.7, 'datetime': '2018-12-12 10:38:58.119853', 'mgs': 0, 'flw2': 0.28, 'flw1': 2.81, 'flw0': 0.29, 'time': 9.43, 'compass': -2.81, 'pitch': 0.5, 'roll': 5.18}
{'lipoC2': 8.36, 'temp': 0.0, 'lipoC3S3': 12.13, 'state': 'normal', 'rot1': 68, 'rot0': 58, 'rot3': 38, 'rot2': 50, 'depth': 0.089, 'yaw': -21.15, 'datetime': '2018-12-12 10:38:58.331300', 'mgs': 0, 'flw2': 0.0, 'flw1': 3.11, 'flw0': 0.0, 'time': 9.64, 'compass': -4.27, 'pitch': 0.59, 'roll': 5.45}
{'lipoC2': 8.08, 'temp': 0.0, 'lipoC3S3': 12.41, 'state': 'normal', 'rot1': 68, 'rot0': 58, 'rot3': 39, 'rot2': 51, 'depth': -0.827, 'yaw': -22.51, 'datetime': '2018-12-12 10:38:58.536435', 'mgs': 0, 'flw2': 0.0, 'flw1': 3.37, 'flw0': 0.0, 'time': 9.85, 'compass': -5.63, 'pitch': 0.89, 'roll': 5.36}
{'lipoC2': 8.08, 'temp': 0.0, 'lipoC3S3': 11.96, 'state': 'normal', 'rot1': 68, 'rot0': 58, 'rot3': 40, 'rot2': 52, 'depth': 1.385, 'yaw': -23.87, 'datetime': '2018-12-12 10:38:58.748811', 'mgs': 0, 'flw2': 0.11, 'flw1': 2.49, 'flw0': 0.16, 'time': 10.06, 'compass': -6.98, 'pitch': 1.09, 'roll': 4.79}
{'lipoC2': 8.08, 'temp': 0.0, 'lipoC3S3': 12.43, 'state': 'normal', 'rot1': 68, 'rot0': 58, 'rot3': 40, 'rot2': 53, 'depth': -0.98, 'yaw': -25.14, 'datetime': '2018-12-12 10:38:58.956069', 'mgs': 0, 'flw2': 0.0, 'flw1': 3.52, 'flw0': 0.0, 'time': 10.27, 'compass': -8.26, 'pitch': 1.04, 'roll': 4.21}
{'lipoC2': 8.3, 'temp': 0.0, 'lipoC3S3': 12.1, 'state': 'normal', 'rot1': 68, 'rot0': 58, 'rot3': 41, 'rot2': 54, 'depth': -1.514, 'yaw': -26.25, 'datetime': '2018-12-12 10:38:59.169333', 'mgs': 0, 'flw2': 0.35, 'flw1': 3.28, 'flw0': 0.38, 'time': 10.48, 'compass': -9.36, 'pitch': 0.88, 'roll': 4.21}
{'lipoC2': 8.1, 'temp': 0.0, 'lipoC3S3': 12.37, 'state': 'normal', 'rot1': 69, 'rot0': 59, 'rot3': 42, 'rot2': 55, 'depth': -0.827, 'yaw': -26.84, 'datetime': '2018-12-12 10:38:59.377274', 'mgs': 0, 'flw2': 0.63, 'flw1': 2.72, 'flw0': 0.62, 'time': 10.69, 'compass': -9.95, 'pitch': 0.87, 'roll': 4.64}
{'lipoC2': 8.26, 'temp': 0.0, 'lipoC3S3': 12.1, 'state': 'normal', 'rot1': 71, 'rot0': 60, 'rot3': 43, 'rot2': 56, 'depth': 1.614, 'yaw': -26.79, 'datetime': '2018-12-12 10:38:59.588631', 'mgs': 0, 'flw2': 0.13, 'flw1': 2.99, 'flw0': 0.07, 'time': 10.9, 'compass': -9.9, 'pitch': 1.34, 'roll': 5.0}
{'lipoC2': 8.17, 'temp': 0.0, 'lipoC3S3': 12.05, 'state': 'normal', 'rot1': 72, 'rot0': 61, 'rot3': 44, 'rot2': 57, 'depth': 2.072, 'yaw': -26.23, 'datetime': '2018-12-12 10:38:59.796258', 'mgs': 0, 'flw2': 0.28, 'flw1': 2.37, 'flw0': 0.23, 'time': 11.11, 'compass': -9.34, 'pitch': 2.0, 'roll': 5.15}
{'lipoC2': 8.2, 'temp': 0.0, 'lipoC3S3': 12.22, 'state': 'normal', 'rot1': 73, 'rot0': 62, 'rot3': 44, 'rot2': 58, 'depth': -1.132, 'yaw': -25.14, 'datetime': '2018-12-12 10:39:00.006053', 'mgs': 0, 'flw2': 0.59, 'flw1': 2.58, 'flw0': 0.66, 'time': 11.32, 'compass': -8.25, 'pitch': 2.4, 'roll': 5.06}
{'lipoC2': 8.1, 'temp': 0.0, 'lipoC3S3': 12.37, 'state': 'normal', 'rot1': 74, 'rot0': 63, 'rot3': 45, 'rot2': 60, 'depth': -0.674, 'yaw': -23.7, 'datetime': '2018-12-12 10:39:00.218949', 'mgs': 0, 'flw2': 0.0, 'flw1': 3.6, 'flw0': 0.0, 'time': 11.53, 'compass': -6.81, 'pitch': 2.28, 'roll': 4.66}
{'lipoC2': 8.1, 'temp': 0.0, 'lipoC3S3': 12.29, 'state': 'normal', 'rot1': 74, 'rot0': 63, 'rot3': 46, 'rot2': 61, 'depth': -0.446, 'yaw': -22.52, 'datetime': '2018-12-12 10:39:00.427431', 'mgs': 0, 'flw2': 0.31, 'flw1': 2.61, 'flw0': 0.29, 'time': 11.74, 'compass': -5.63, 'pitch': 1.73, 'roll': 4.43}
{'lipoC2': 8.15, 'temp': 0.0, 'lipoC3S3': 12.0, 'state': 'normal', 'rot1': 74, 'rot0': 63, 'rot3': 47, 'rot2': 62, 'depth': 2.301, 'yaw': -21.57, 'datetime': '2018-12-12 10:39:00.638617', 'mgs': 0, 'flw2': 0.0, 'flw1': 3.25, 'flw0': 0.0, 'time': 11.95, 'compass': -4.68, 'pitch': 1.4, 'roll': 4.77}
{'lipoC2': 8.1, 'temp': 0.0, 'lipoC3S3': 12.0, 'state': 'normal', 'rot1': 74, 'rot0': 63, 'rot3': 48, 'rot2': 63, 'depth': -0.217, 'yaw': -20.89, 'datetime': '2018-12-12 10:39:00.848281', 'mgs': 0, 'flw2': 0.0, 'flw1': 2.49, 'flw0': 0.0, 'time': 12.16, 'compass': -4.0, 'pitch': 1.6, 'roll': 5.03}
{'lipoC2': 8.09, 'temp': 0.0, 'lipoC3S3': 12.13, 'state': 'normal', 'rot1': 74, 'rot0': 63, 'rot3': 48, 'rot2': 64, 'depth': 0.775, 'yaw': -20.43, 'datetime': '2018-12-12 10:39:01.057597', 'mgs': 0, 'flw2': 0.0, 'flw1': 3.87, 'flw0': 0.0, 'time': 12.37, 'compass': -3.54, 'pitch': 2.04, 'roll': 4.59}
