{'lipoC3S3': 0.0, 'datetime': '2019-02-27 10:21:15.225136', 'pitch': -0.48, 'rot1': 0, 'rot0': 0, 'rot3': 0, 'rot2': 0, 'state': 'normal', 'flw3': 0, 'flw2': 0, 'flw1': 0, 'flw0': 0, 'roll': 0.2, 'cur2': 0.0, 'cur0': 0.0, 'cur1': 0.0, 'mgs': 0, 'compass': 22.71, 'lipoC2': 0.0, 'temp': 25.16, 'thr3': 36.0, 'depth': 0.119, 'time': 1.39, 'thr2': 32.0, 'yaw': 0.0, 'thr0': 26.0, 'thr1': 27.0}
{'lipoC3S3': 0.0, 'datetime': '2019-02-27 10:21:15.545895', 'pitch': -0.48, 'rot1': 0, 'rot0': 0, 'rot3': 0, 'rot2': 0, 'state': 'normal', 'flw3': 0, 'flw2': 0, 'flw1': 0, 'flw0': 0, 'roll': 0.2, 'cur2': 0.0, 'cur0': 0.0, 'cur1': 0.0, 'mgs': 0, 'compass': 22.8, 'lipoC2': 0.0, 'temp': 25.11, 'thr3': 36.0, 'depth': 0.119, 'time': 1.72, 'thr2': 32.0, 'yaw': 0.09, 'thr0': 26.0, 'thr1': 27.0}
{'lipoC3S3': 0.0, 'datetime': '2019-02-27 10:21:15.867934', 'pitch': -0.51, 'rot1': 0, 'rot0': 0, 'rot3': 0, 'rot2': 0, 'state': 'normal', 'flw3': 1, 'flw2': 1, 'flw1': 1, 'flw0': 0, 'roll': 0.2, 'cur2': 0.0, 'cur0': 0.0, 'cur1': 0.0, 'mgs': 0, 'compass': 22.8, 'lipoC2': 0.0, 'temp': 25.11, 'thr3': 36.0, 'depth': 0.119, 'time': 2.04, 'thr2': 32.0, 'yaw': 0.09, 'thr0': 26.0, 'thr1': 27.0}
{'lipoC3S3': 0.0, 'datetime': '2019-02-27 10:21:16.186448', 'pitch': -0.53, 'rot1': 0, 'rot0': 0, 'rot3': 0, 'rot2': 0, 'state': 'normal', 'flw3': 1, 'flw2': 1, 'flw1': 1, 'flw0': 0, 'roll': 0.19, 'cur2': 0.0, 'cur0': 0.0, 'cur1': 0.0, 'mgs': 0, 'compass': 22.8, 'lipoC2': 0.0, 'temp': 25.11, 'thr3': 36.0, 'depth': 0.119, 'time': 2.36, 'thr2': 32.0, 'yaw': 0.09, 'thr0': 26.0, 'thr1': 27.0}
{'lipoC3S3': 0.0, 'datetime': '2019-02-27 10:21:16.509852', 'pitch': -0.53, 'rot1': 0, 'rot0': 0, 'rot3': 0, 'rot2': 0, 'state': 'normal', 'flw3': 1, 'flw2': 1, 'flw1': 1, 'flw0': 0, 'roll': 0.19, 'cur2': 0.0, 'cur0': 0.0, 'cur1': 0.0, 'mgs': 0, 'compass': 22.8, 'lipoC2': 0.0, 'temp': 25.12, 'thr3': 36.0, 'depth': 0.119, 'time': 2.68, 'thr2': 31.0, 'yaw': 0.09, 'thr0': 26.0, 'thr1': 27.0}
{'lipoC3S3': 0.0, 'datetime': '2019-02-27 10:21:16.833500', 'pitch': -0.53, 'rot1': 0, 'rot0': 0, 'rot3': 0, 'rot2': 0, 'state': 'normal', 'flw3': 1, 'flw2': 2, 'flw1': 2, 'flw0': 0, 'roll': 0.19, 'cur2': 0.0, 'cur0': 0.0, 'cur1': 0.0, 'mgs': 0, 'compass': 23.0, 'lipoC2': 0.0, 'temp': 25.12, 'thr3': 35.0, 'depth': 0.119, 'time': 3.0, 'thr2': 31.0, 'yaw': 0.29, 'thr0': 26.0, 'thr1': 27.0}
{'lipoC3S3': 0.0, 'datetime': '2019-02-27 10:21:17.155976', 'pitch': -0.52, 'rot1': 0, 'rot0': 0, 'rot3': 0, 'rot2': 0, 'state': 'normal', 'flw3': 1, 'flw2': 2, 'flw1': 2, 'flw0': 0, 'roll': 0.2, 'cur2': 0.0, 'cur0': 0.0, 'cur1': 0.0, 'mgs': 0, 'compass': 23.27, 'lipoC2': 0.0, 'temp': 25.12, 'thr3': 35.0, 'depth': 0.119, 'time': 3.32, 'thr2': 31.0, 'yaw': 0.56, 'thr0': 26.0, 'thr1': 27.0}
{'lipoC3S3': 0.0, 'datetime': '2019-02-27 10:21:17.477381', 'pitch': -0.52, 'rot1': 0, 'rot0': 0, 'rot3': 0, 'rot2': 0, 'state': 'normal', 'flw3': 1, 'flw2': 2, 'flw1': 2, 'flw0': 0, 'roll': 0.2, 'cur2': 0.0, 'cur0': 0.0, 'cur1': 0.0, 'mgs': 0, 'compass': 23.35, 'lipoC2': 0.0, 'temp': 25.12, 'thr3': 35.0, 'depth': 0.129, 'time': 3.64, 'thr2': 31.0, 'yaw': 0.64, 'thr0': 27.0, 'thr1': 27.0}
{'lipoC3S3': 0.0, 'datetime': '2019-02-27 10:21:17.798649', 'pitch': -0.54, 'rot1': 0, 'rot0': 0, 'rot3': 0, 'rot2': 0, 'state': 'normal', 'flw3': 1, 'flw2': 2, 'flw1': 2, 'flw0': 0, 'roll': 0.2, 'cur2': 0.0, 'cur0': 0.0, 'cur1': 0.0, 'mgs': 0, 'compass': 23.64, 'lipoC2': 0.0, 'temp': 25.12, 'thr3': 35.0, 'depth': 0.119, 'time': 3.96, 'thr2': 31.0, 'yaw': 0.93, 'thr0': 26.0, 'thr1': 27.0}
{'lipoC3S3': 0.0, 'datetime': '2019-02-27 10:21:18.121021', 'pitch': -0.54, 'rot1': 0, 'rot0': 0, 'rot3': 0, 'rot2': 0, 'state': 'normal', 'flw3': 1, 'flw2': 2, 'flw1': 2, 'flw0': 0, 'roll': 0.2, 'cur2': 0.0, 'cur0': 0.0, 'cur1': 0.0, 'mgs': 0, 'compass': 23.72, 'lipoC2': 0.0, 'temp': 25.12, 'thr3': 35.0, 'depth': 0.119, 'time': 4.28, 'thr2': 31.0, 'yaw': 1.01, 'thr0': 26.0, 'thr1': 27.0}
{'lipoC3S3': 0.0, 'datetime': '2019-02-27 10:21:18.442706', 'pitch': -0.54, 'rot1': 0, 'rot0': 0, 'rot3': 0, 'rot2': 0, 'state': 'normal', 'flw3': 2, 'flw2': 2, 'flw1': 2, 'flw0': 0, 'roll': 0.2, 'cur2': 0.0, 'cur0': 0.0, 'cur1': 0.0, 'mgs': 0, 'compass': 23.72, 'lipoC2': 0.0, 'temp': 25.13, 'thr3': 29.0, 'depth': 0.119, 'time': 4.61, 'thr2': 29.0, 'yaw': 1.01, 'thr0': 26.0, 'thr1': 27.0}
{'lipoC3S3': 0.0, 'datetime': '2019-02-27 10:21:18.762735', 'pitch': -0.55, 'rot1': 0, 'rot0': 0, 'rot3': 0, 'rot2': 0, 'state': 'normal', 'flw3': 2, 'flw2': 2, 'flw1': 2, 'flw0': 0, 'roll': 0.19, 'cur2': 0.0, 'cur0': 0.0, 'cur1': 0.0, 'mgs': 0, 'compass': 23.99, 'lipoC2': 0.0, 'temp': 25.13, 'thr3': 31.0, 'depth': 0.129, 'time': 4.93, 'thr2': 31.0, 'yaw': 1.28, 'thr0': 26.0, 'thr1': 27.0}
{'lipoC3S3': 0.0, 'datetime': '2019-02-27 10:21:19.084332', 'pitch': -0.54, 'rot1': 0, 'rot0': 0, 'rot3': 0, 'rot2': 0, 'state': 'normal', 'flw3': 2, 'flw2': 2, 'flw1': 2, 'flw0': 0, 'roll': 0.2, 'cur2': 0.0, 'cur0': 0.0, 'cur1': 0.0, 'mgs': 0, 'compass': 24.7, 'lipoC2': 0.0, 'temp': 25.13, 'thr3': 31.0, 'depth': 0.119, 'time': 5.25, 'thr2': 31.0, 'yaw': 1.99, 'thr0': 26.0, 'thr1': 27.0}
{'lipoC3S3': 0.0, 'datetime': '2019-02-27 10:21:19.405273', 'pitch': -0.55, 'rot1': 0, 'rot0': 0, 'rot3': 0, 'rot2': 0, 'state': 'normal', 'flw3': 2, 'flw2': 2, 'flw1': 2, 'flw0': 0, 'roll': 0.2, 'cur2': 0.0, 'cur0': 0.0, 'cur1': 0.0, 'mgs': 0, 'compass': 24.78, 'lipoC2': 0.0, 'temp': 25.13, 'thr3': 31.0, 'depth': 0.119, 'time': 5.57, 'thr2': 31.0, 'yaw': 2.07, 'thr0': 26.0, 'thr1': 27.0}
{'lipoC3S3': 0.0, 'datetime': '2019-02-27 10:21:19.730687', 'pitch': -0.55, 'rot1': 0, 'rot0': 0, 'rot3': 0, 'rot2': 0, 'state': 'normal', 'flw3': 2, 'flw2': 2, 'flw1': 2, 'flw0': 0, 'roll': 0.21, 'cur2': 0.0, 'cur0': 0.0, 'cur1': 0.0, 'mgs': 0, 'compass': 25.32, 'lipoC2': 0.0, 'temp': 25.13, 'thr3': 31.0, 'depth': 0.119, 'time': 5.89, 'thr2': 31.0, 'yaw': 2.61, 'thr0': 26.0, 'thr1': 27.0}
{'lipoC3S3': 0.0, 'datetime': '2019-02-27 10:21:20.050500', 'pitch': -0.55, 'rot1': 0, 'rot0': 0, 'rot3': 0, 'rot2': 0, 'state': 'normal', 'flw3': 2, 'flw2': 2, 'flw1': 2, 'flw0': 0, 'roll': 0.21, 'cur2': 0.0, 'cur0': 0.0, 'cur1': 0.0, 'mgs': 0, 'compass': 25.95, 'lipoC2': 0.0, 'temp': 25.13, 'thr3': 31.0, 'depth': 0.119, 'time': 6.21, 'thr2': 31.0, 'yaw': 3.24, 'thr0': 26.0, 'thr1': 27.0}
{'lipoC3S3': 0.0, 'datetime': '2019-02-27 10:21:20.369800', 'pitch': -0.55, 'rot1': 0, 'rot0': 0, 'rot3': 0, 'rot2': 0, 'state': 'normal', 'flw3': 2, 'flw2': 2, 'flw1': 2, 'flw0': 0, 'roll': 0.21, 'cur2': 0.0, 'cur0': 0.0, 'cur1': 0.0, 'mgs': 0, 'compass': 26.08, 'lipoC2': 0.0, 'temp': 25.13, 'thr3': 31.0, 'depth': 0.119, 'time': 6.53, 'thr2': 31.0, 'yaw': 3.37, 'thr0': 26.0, 'thr1': 27.0}
{'lipoC3S3': 0.0, 'datetime': '2019-02-27 10:21:20.686456', 'pitch': -0.55, 'rot1': 0, 'rot0': 0, 'rot3': 0, 'rot2': 0, 'state': 'normal', 'flw3': 2, 'flw2': 2, 'flw1': 2, 'flw0': 0, 'roll': 0.22, 'cur2': 0.0, 'cur0': 0.0, 'cur1': 0.0, 'mgs': 0, 'compass': 26.74, 'lipoC2': 0.0, 'temp': 25.13, 'thr3': 31.0, 'depth': 0.119, 'time': 6.84, 'thr2': 31.0, 'yaw': 4.03, 'thr0': 26.0, 'thr1': 27.0}
{'lipoC3S3': 0.0, 'datetime': '2019-02-27 10:21:21.010267', 'pitch': -0.55, 'rot1': 0, 'rot0': 0, 'rot3': 0, 'rot2': 0, 'state': 'normal', 'flw3': 2, 'flw2': 2, 'flw1': 2, 'flw0': 0, 'roll': 0.22, 'cur2': 0.0, 'cur0': 0.0, 'cur1': 0.0, 'mgs': 0, 'compass': 26.87, 'lipoC2': 0.0, 'temp': 25.13, 'thr3': 31.0, 'depth': 0.119, 'time': 7.17, 'thr2': 31.0, 'yaw': 4.16, 'thr0': 26.0, 'thr1': 27.0}
{'lipoC3S3': 0.0, 'datetime': '2019-02-27 10:21:21.330484', 'pitch': -0.55, 'rot1': 0, 'rot0': 0, 'rot3': 0, 'rot2': 0, 'state': 'normal', 'flw3': 2, 'flw2': 2, 'flw1': 2, 'flw0': 0, 'roll': 0.22, 'cur2': 0.0, 'cur0': 0.0, 'cur1': 0.0, 'mgs': 0, 'compass': 26.87, 'lipoC2': 0.0, 'temp': 25.13, 'thr3': 31.0, 'depth': 0.129, 'time': 7.49, 'thr2': 31.0, 'yaw': 4.16, 'thr0': 26.0, 'thr1': 27.0}
{'lipoC3S3': 0.0, 'datetime': '2019-02-27 10:21:21.655010', 'pitch': -0.55, 'rot1': 0, 'rot0': 0, 'rot3': 0, 'rot2': 0, 'state': 'normal', 'flw3': 3, 'flw2': 2, 'flw1': 2, 'flw0': 0, 'roll': 0.22, 'cur2': 0.0, 'cur0': 0.0, 'cur1': 0.0, 'mgs': 0, 'compass': 26.87, 'lipoC2': 0.0, 'temp': 25.13, 'thr3': 36.0, 'depth': 0.119, 'time': 7.81, 'thr2': 32.0, 'yaw': 4.16, 'thr0': 26.0, 'thr1': 27.0}
{'lipoC3S3': 0.0, 'datetime': '2019-02-27 10:21:21.973693', 'pitch': -0.55, 'rot1': 0, 'rot0': 0, 'rot3': 0, 'rot2': 0, 'state': 'normal', 'flw3': 3, 'flw2': 2, 'flw1': 2, 'flw0': 0, 'roll': 0.22, 'cur2': 0.0, 'cur0': 0.0, 'cur1': 0.0, 'mgs': 0, 'compass': 26.87, 'lipoC2': 0.0, 'temp': 25.13, 'thr3': 36.0, 'depth': 0.119, 'time': 8.13, 'thr2': 32.0, 'yaw': 4.16, 'thr0': 26.0, 'thr1': 27.0}
{'lipoC3S3': 0.0, 'datetime': '2019-02-27 10:21:22.296436', 'pitch': -0.55, 'rot1': 0, 'rot0': 0, 'rot3': 0, 'rot2': 0, 'state': 'normal', 'flw3': 3, 'flw2': 2, 'flw1': 2, 'flw0': 0, 'roll': 0.22, 'cur2': 0.0, 'cur0': 0.0, 'cur1': 0.0, 'mgs': 0, 'compass': 26.89, 'lipoC2': 0.0, 'temp': 25.13, 'thr3': 36.0, 'depth': 0.119, 'time': 8.45, 'thr2': 32.0, 'yaw': 4.18, 'thr0': 26.0, 'thr1': 27.0}
{'lipoC3S3': 0.0, 'datetime': '2019-02-27 10:21:22.620953', 'pitch': -0.57, 'rot1': 0, 'rot0': 0, 'rot3': 0, 'rot2': 0, 'state': 'normal', 'flw3': 3, 'flw2': 2, 'flw1': 2, 'flw0': 0, 'roll': 0.22, 'cur2': 0.0, 'cur0': 0.0, 'cur1': 0.0, 'mgs': 0, 'compass': 26.99, 'lipoC2': 0.0, 'temp': 25.13, 'thr3': 35.0, 'depth': 0.119, 'time': 8.77, 'thr2': 31.0, 'yaw': 4.28, 'thr0': 26.0, 'thr1': 27.0}
{'lipoC3S3': 0.0, 'datetime': '2019-02-27 10:21:22.938721', 'pitch': -0.56, 'rot1': 0, 'rot0': 0, 'rot3': 0, 'rot2': 0, 'state': 'normal', 'flw3': 4, 'flw2': 2, 'flw1': 2, 'flw0': 0, 'roll': 0.22, 'cur2': 0.0, 'cur0': 0.0, 'cur1': 0.0, 'mgs': 0, 'compass': 27.35, 'lipoC2': 0.0, 'temp': 25.13, 'thr3': 30.0, 'depth': 0.119, 'time': 9.1, 'thr2': 30.0, 'yaw': 4.64, 'thr0': 26.0, 'thr1': 27.0}
{'lipoC3S3': 0.0, 'datetime': '2019-02-27 10:21:23.262865', 'pitch': -0.58, 'rot1': 0, 'rot0': 0, 'rot3': 0, 'rot2': 0, 'state': 'normal', 'flw3': 4, 'flw2': 2, 'flw1': 2, 'flw0': 0, 'roll': 0.23, 'cur2': 0.0, 'cur0': 0.0, 'cur1': 0.0, 'mgs': 0, 'compass': 27.35, 'lipoC2': 0.0, 'temp': 25.13, 'thr3': 31.0, 'depth': 0.119, 'time': 9.42, 'thr2': 31.0, 'yaw': 4.64, 'thr0': 26.0, 'thr1': 27.0}
{'lipoC3S3': 0.0, 'datetime': '2019-02-27 10:21:23.585600', 'pitch': -0.58, 'rot1': 0, 'rot0': 0, 'rot3': 0, 'rot2': 0, 'state': 'normal', 'flw3': 4, 'flw2': 2, 'flw1': 2, 'flw0': 0, 'roll': 0.23, 'cur2': 0.0, 'cur0': 0.0, 'cur1': 0.0, 'mgs': 0, 'compass': 27.35, 'lipoC2': 0.0, 'temp': 25.13, 'thr3': 31.0, 'depth': 0.119, 'time': 9.74, 'thr2': 31.0, 'yaw': 4.64, 'thr0': 26.0, 'thr1': 27.0}
{'lipoC3S3': 0.0, 'datetime': '2019-02-27 10:21:23.905393', 'pitch': -0.58, 'rot1': 0, 'rot0': 0, 'rot3': 0, 'rot2': 0, 'state': 'normal', 'flw3': 5, 'flw2': 2, 'flw1': 2, 'flw0': 0, 'roll': 0.23, 'cur2': 0.0, 'cur0': 0.0, 'cur1': 0.0, 'mgs': 0, 'compass': 27.35, 'lipoC2': 0.0, 'temp': 25.13, 'thr3': 37.0, 'depth': 0.119, 'time': 10.06, 'thr2': 33.0, 'yaw': 4.64, 'thr0': 26.0, 'thr1': 27.0}
{'lipoC3S3': 0.0, 'datetime': '2019-02-27 10:21:24.226336', 'pitch': -0.58, 'rot1': 0, 'rot0': 0, 'rot3': 0, 'rot2': 0, 'state': 'normal', 'flw3': 5, 'flw2': 2, 'flw1': 2, 'flw0': 0, 'roll': 0.23, 'cur2': 0.0, 'cur0': 0.0, 'cur1': 0.0, 'mgs': 0, 'compass': 27.35, 'lipoC2': 0.0, 'temp': 25.13, 'thr3': 36.0, 'depth': 0.119, 'time': 10.38, 'thr2': 32.0, 'yaw': 4.64, 'thr0': 26.0, 'thr1': 27.0}
{'lipoC3S3': 0.0, 'datetime': '2019-02-27 10:21:24.549223', 'pitch': -0.58, 'rot1': 0, 'rot0': 0, 'rot3': 0, 'rot2': 0, 'state': 'normal', 'flw3': 5, 'flw2': 2, 'flw1': 2, 'flw0': 0, 'roll': 0.23, 'cur2': 0.0, 'cur0': 0.0, 'cur1': 0.0, 'mgs': 0, 'compass': 27.35, 'lipoC2': 0.0, 'temp': 25.13, 'thr3': 36.0, 'depth': 0.119, 'time': 10.7, 'thr2': 32.0, 'yaw': 4.64, 'thr0': 26.0, 'thr1': 27.0}
{'lipoC3S3': 0.0, 'datetime': '2019-02-27 10:21:24.865045', 'pitch': -0.58, 'rot1': 0, 'rot0': 0, 'rot3': 0, 'rot2': 0, 'state': 'normal', 'flw3': 5, 'flw2': 2, 'flw1': 2, 'flw0': 0, 'roll': 0.23, 'cur2': 0.0, 'cur0': 0.0, 'cur1': 0.0, 'mgs': 0, 'compass': 27.35, 'lipoC2': 0.0, 'temp': 25.14, 'thr3': 36.0, 'depth': 0.119, 'time': 11.02, 'thr2': 32.0, 'yaw': 4.64, 'thr0': 27.0, 'thr1': 27.0}
{'lipoC3S3': 0.0, 'datetime': '2019-02-27 10:21:25.188664', 'pitch': -0.58, 'rot1': 0, 'rot0': 0, 'rot3': 0, 'rot2': 0, 'state': 'normal', 'flw3': 5, 'flw2': 2, 'flw1': 2, 'flw0': 0, 'roll': 0.23, 'cur2': 0.0, 'cur0': 0.0, 'cur1': 0.0, 'mgs': 0, 'compass': 27.37, 'lipoC2': 0.0, 'temp': 25.14, 'thr3': 35.0, 'depth': 0.119, 'time': 11.34, 'thr2': 31.0, 'yaw': 4.66, 'thr0': 27.0, 'thr1': 27.0}
{'lipoC3S3': 0.0, 'datetime': '2019-02-27 10:21:25.512887', 'pitch': -0.58, 'rot1': 0, 'rot0': 0, 'rot3': 0, 'rot2': 0, 'state': 'normal', 'flw3': 5, 'flw2': 2, 'flw1': 2, 'flw0': 0, 'roll': 0.23, 'cur2': 0.0, 'cur0': 0.0, 'cur1': 0.0, 'mgs': 0, 'compass': 27.39, 'lipoC2': 0.0, 'temp': 25.13, 'thr3': 35.0, 'depth': 0.119, 'time': 11.67, 'thr2': 31.0, 'yaw': 4.68, 'thr0': 26.0, 'thr1': 27.0}
{'lipoC3S3': 0.0, 'datetime': '2019-02-27 10:21:25.834116', 'pitch': -0.58, 'rot1': 0, 'rot0': 0, 'rot3': 0, 'rot2': 0, 'state': 'normal', 'flw3': 5, 'flw2': 2, 'flw1': 2, 'flw0': 0, 'roll': 0.23, 'cur2': 0.0, 'cur0': 0.0, 'cur1': 0.0, 'mgs': 0, 'compass': 27.4, 'lipoC2': 0.0, 'temp': 25.13, 'thr3': 35.0, 'depth': 0.119, 'time': 11.99, 'thr2': 31.0, 'yaw': 4.69, 'thr0': 26.0, 'thr1': 27.0}
{'lipoC3S3': 0.0, 'datetime': '2019-02-27 10:21:26.161146', 'pitch': -0.58, 'rot1': 0, 'rot0': 0, 'rot3': 0, 'rot2': 0, 'state': 'normal', 'flw3': 5, 'flw2': 2, 'flw1': 2, 'flw0': 0, 'roll': 0.23, 'cur2': 0.0, 'cur0': 0.0, 'cur1': 0.0, 'mgs': 0, 'compass': 27.4, 'lipoC2': 0.0, 'temp': 25.13, 'thr3': 35.0, 'depth': 0.119, 'time': 12.31, 'thr2': 31.0, 'yaw': 4.69, 'thr0': 27.0, 'thr1': 27.0}
{'lipoC3S3': 0.0, 'datetime': '2019-02-27 10:21:26.476884', 'pitch': -0.58, 'rot1': 0, 'rot0': 0, 'rot3': 0, 'rot2': 0, 'state': 'normal', 'flw3': 5, 'flw2': 2, 'flw1': 2, 'flw0': 0, 'roll': 0.23, 'cur2': 0.0, 'cur0': 0.0, 'cur1': 0.0, 'mgs': 0, 'compass': 27.4, 'lipoC2': 0.0, 'temp': 25.14, 'thr3': 35.0, 'depth': 0.119, 'time': 12.63, 'thr2': 31.0, 'yaw': 4.69, 'thr0': 26.0, 'thr1': 27.0}
{'lipoC3S3': 0.0, 'datetime': '2019-02-27 10:21:26.804037', 'pitch': -0.61, 'rot1': 0, 'rot0': 0, 'rot3': 0, 'rot2': 0, 'state': 'normal', 'flw3': 6, 'flw2': 2, 'flw1': 2, 'flw0': 0, 'roll': 0.23, 'cur2': 0.0, 'cur0': 0.0, 'cur1': 0.0, 'mgs': 0, 'compass': 27.4, 'lipoC2': 0.0, 'temp': 25.13, 'thr3': 30.0, 'depth': 0.119, 'time': 12.95, 'thr2': 30.0, 'yaw': 4.69, 'thr0': 26.0, 'thr1': 27.0}
{'lipoC3S3': 0.0, 'datetime': '2019-02-27 10:21:27.120070', 'pitch': -0.62, 'rot1': 0, 'rot0': 0, 'rot3': 0, 'rot2': 0, 'state': 'normal', 'flw3': 6, 'flw2': 2, 'flw1': 3, 'flw0': 0, 'roll': 0.22, 'cur2': 0.0, 'cur0': 0.0, 'cur1': 0.0, 'mgs': 0, 'compass': 27.39, 'lipoC2': 0.0, 'temp': 25.14, 'thr3': 31.0, 'depth': 0.119, 'time': 13.27, 'thr2': 31.0, 'yaw': 4.68, 'thr0': 26.0, 'thr1': 27.0}
{'lipoC3S3': 0.0, 'datetime': '2019-02-27 10:21:27.446432', 'pitch': -0.64, 'rot1': 0, 'rot0': 0, 'rot3': 0, 'rot2': 0, 'state': 'normal', 'flw3': 6, 'flw2': 2, 'flw1': 4, 'flw0': 0, 'roll': 0.23, 'cur2': 0.0, 'cur0': 0.0, 'cur1': 0.0, 'mgs': 0, 'compass': 27.45, 'lipoC2': 0.0, 'temp': 25.13, 'thr3': 31.0, 'depth': 0.119, 'time': 13.59, 'thr2': 31.0, 'yaw': 4.74, 'thr0': 26.0, 'thr1': 27.0}
{'lipoC3S3': 0.0, 'datetime': '2019-02-27 10:21:27.767052', 'pitch': -0.66, 'rot1': 0, 'rot0': 0, 'rot3': 0, 'rot2': 0, 'state': 'normal', 'flw3': 6, 'flw2': 2, 'flw1': 4, 'flw0': 0, 'roll': 0.23, 'cur2': 0.0, 'cur0': 0.0, 'cur1': 0.0, 'mgs': 0, 'compass': 27.63, 'lipoC2': 0.0, 'temp': 25.13, 'thr3': 31.0, 'depth': 0.119, 'time': 13.91, 'thr2': 31.0, 'yaw': 4.92, 'thr0': 26.0, 'thr1': 27.0}
{'lipoC3S3': 0.0, 'datetime': '2019-02-27 10:21:28.089002', 'pitch': -0.66, 'rot1': 0, 'rot0': 0, 'rot3': 0, 'rot2': 0, 'state': 'normal', 'flw3': 6, 'flw2': 2, 'flw1': 4, 'flw0': 1, 'roll': 0.23, 'cur2': 0.0, 'cur0': 0.0, 'cur1': 0.0, 'mgs': 0, 'compass': 27.63, 'lipoC2': 0.0, 'temp': 25.13, 'thr3': 31.0, 'depth': 0.119, 'time': 14.24, 'thr2': 31.0, 'yaw': 4.92, 'thr0': 26.0, 'thr1': 27.0}
{'lipoC3S3': 0.0, 'datetime': '2019-02-27 10:21:28.408190', 'pitch': -0.66, 'rot1': 0, 'rot0': 0, 'rot3': 0, 'rot2': 0, 'state': 'normal', 'flw3': 6, 'flw2': 2, 'flw1': 5, 'flw0': 2, 'roll': 0.23, 'cur2': 0.0, 'cur0': 0.0, 'cur1': 0.0, 'mgs': 0, 'compass': 27.63, 'lipoC2': 0.0, 'temp': 25.13, 'thr3': 31.0, 'depth': 0.119, 'time': 14.56, 'thr2': 31.0, 'yaw': 4.92, 'thr0': 26.0, 'thr1': 27.0}
{'lipoC3S3': 0.0, 'datetime': '2019-02-27 10:21:28.737451', 'pitch': -0.66, 'rot1': 0, 'rot0': 0, 'rot3': 0, 'rot2': 0, 'state': 'normal', 'flw3': 6, 'flw2': 2, 'flw1': 6, 'flw0': 3, 'roll': 0.23, 'cur2': 0.0, 'cur0': 0.0, 'cur1': 0.0, 'mgs': 0, 'compass': 27.63, 'lipoC2': 0.0, 'temp': 25.14, 'thr3': 31.0, 'depth': 0.119, 'time': 14.88, 'thr2': 31.0, 'yaw': 4.92, 'thr0': 26.0, 'thr1': 27.0}
{'lipoC3S3': 0.0, 'datetime': '2019-02-27 10:21:29.050810', 'pitch': -0.66, 'rot1': 0, 'rot0': 0, 'rot3': 0, 'rot2': 0, 'state': 'normal', 'flw3': 6, 'flw2': 2, 'flw1': 7, 'flw0': 5, 'roll': 0.23, 'cur2': 0.0, 'cur0': 0.0, 'cur1': 0.0, 'mgs': 0, 'compass': 27.63, 'lipoC2': 0.0, 'temp': 25.14, 'thr3': 31.0, 'depth': 0.119, 'time': 15.2, 'thr2': 31.0, 'yaw': 4.92, 'thr0': 26.0, 'thr1': 27.0}
{'lipoC3S3': 0.0, 'datetime': '2019-02-27 10:21:29.373359', 'pitch': -0.67, 'rot1': 0, 'rot0': 0, 'rot3': 0, 'rot2': 0, 'state': 'normal', 'flw3': 6, 'flw2': 2, 'flw1': 8, 'flw0': 7, 'roll': 0.23, 'cur2': 0.0, 'cur0': 0.0, 'cur1': 0.0, 'mgs': 0, 'compass': 27.63, 'lipoC2': 0.0, 'temp': 25.14, 'thr3': 31.0, 'depth': 0.119, 'time': 15.52, 'thr2': 31.0, 'yaw': 4.92, 'thr0': 26.0, 'thr1': 27.0}
{'lipoC3S3': 0.0, 'datetime': '2019-02-27 10:21:29.696951', 'pitch': -0.67, 'rot1': 0, 'rot0': 0, 'rot3': 0, 'rot2': 0, 'state': 'normal', 'flw3': 6, 'flw2': 2, 'flw1': 9, 'flw0': 8, 'roll': 0.23, 'cur2': 0.0, 'cur0': 0.0, 'cur1': 0.0, 'mgs': 0, 'compass': 27.63, 'lipoC2': 0.0, 'temp': 25.13, 'thr3': 31.0, 'depth': 0.119, 'time': 15.84, 'thr2': 31.0, 'yaw': 4.92, 'thr0': 26.0, 'thr1': 27.0}
{'lipoC3S3': 0.0, 'datetime': '2019-02-27 10:21:30.017763', 'pitch': -0.67, 'rot1': 0, 'rot0': 0, 'rot3': 0, 'rot2': 0, 'state': 'normal', 'flw3': 6, 'flw2': 2, 'flw1': 9, 'flw0': 9, 'roll': 0.24, 'cur2': 0.0, 'cur0': 0.0, 'cur1': 0.0, 'mgs': 0, 'compass': 27.63, 'lipoC2': 0.0, 'temp': 25.13, 'thr3': 31.0, 'depth': 0.119, 'time': 16.16, 'thr2': 31.0, 'yaw': 4.92, 'thr0': 26.0, 'thr1': 27.0}
{'lipoC3S3': 0.0, 'datetime': '2019-02-27 10:21:30.344709', 'pitch': -0.67, 'rot1': 0, 'rot0': 0, 'rot3': 0, 'rot2': 0, 'state': 'normal', 'flw3': 6, 'flw2': 2, 'flw1': 9, 'flw0': 10, 'roll': 0.24, 'cur2': 0.0, 'cur0': 0.0, 'cur1': 0.0, 'mgs': 0, 'compass': 27.63, 'lipoC2': 0.0, 'temp': 25.14, 'thr3': 31.0, 'depth': 0.119, 'time': 16.49, 'thr2': 31.0, 'yaw': 4.92, 'thr0': 26.0, 'thr1': 27.0}
{'lipoC3S3': 0.0, 'datetime': '2019-02-27 10:21:30.664337', 'pitch': -0.67, 'rot1': 0, 'rot0': 0, 'rot3': 0, 'rot2': 0, 'state': 'normal', 'flw3': 6, 'flw2': 2, 'flw1': 9, 'flw0': 11, 'roll': 0.24, 'cur2': 0.0, 'cur0': 0.0, 'cur1': 0.0, 'mgs': 0, 'compass': 27.63, 'lipoC2': 0.0, 'temp': 25.14, 'thr3': 31.0, 'depth': 0.119, 'time': 16.81, 'thr2': 31.0, 'yaw': 4.92, 'thr0': 26.0, 'thr1': 27.0}
{'lipoC3S3': 0.0, 'datetime': '2019-02-27 10:21:30.989155', 'pitch': -0.67, 'rot1': 0, 'rot0': 0, 'rot3': 0, 'rot2': 0, 'state': 'normal', 'flw3': 6, 'flw2': 2, 'flw1': 9, 'flw0': 11, 'roll': 0.24, 'cur2': 0.0, 'cur0': 0.0, 'cur1': 0.0, 'mgs': 0, 'compass': 27.66, 'lipoC2': 0.0, 'temp': 25.14, 'thr3': 31.0, 'depth': 0.119, 'time': 17.13, 'thr2': 31.0, 'yaw': 4.95, 'thr0': 26.0, 'thr1': 27.0}
{'lipoC3S3': 0.0, 'datetime': '2019-02-27 10:21:31.311137', 'pitch': -0.67, 'rot1': 0, 'rot0': 0, 'rot3': 0, 'rot2': 0, 'state': 'normal', 'flw3': 7, 'flw2': 3, 'flw1': 9, 'flw0': 11, 'roll': 0.24, 'cur2': 0.0, 'cur0': 0.0, 'cur1': 0.0, 'mgs': 0, 'compass': 27.66, 'lipoC2': 0.0, 'temp': 25.13, 'thr3': 37.0, 'depth': 0.119, 'time': 17.45, 'thr2': 33.0, 'yaw': 4.95, 'thr0': 26.0, 'thr1': 27.0}
{'lipoC3S3': 0.0, 'datetime': '2019-02-27 10:21:31.629838', 'pitch': -0.67, 'rot1': 0, 'rot0': 0, 'rot3': 0, 'rot2': 0, 'state': 'normal', 'flw3': 7, 'flw2': 3, 'flw1': 9, 'flw0': 11, 'roll': 0.24, 'cur2': 0.0, 'cur0': 0.0, 'cur1': 0.0, 'mgs': 0, 'compass': 27.66, 'lipoC2': 0.0, 'temp': 25.14, 'thr3': 36.0, 'depth': 0.119, 'time': 17.77, 'thr2': 32.0, 'yaw': 4.95, 'thr0': 26.0, 'thr1': 27.0}
{'lipoC3S3': 0.0, 'datetime': '2019-02-27 10:21:31.950762', 'pitch': -0.67, 'rot1': 0, 'rot0': 0, 'rot3': 0, 'rot2': 0, 'state': 'normal', 'flw3': 8, 'flw2': 4, 'flw1': 9, 'flw0': 11, 'roll': 0.24, 'cur2': 0.0, 'cur0': 0.0, 'cur1': 0.0, 'mgs': 0, 'compass': 27.66, 'lipoC2': 0.0, 'temp': 25.14, 'thr3': 29.0, 'depth': 0.119, 'time': 18.09, 'thr2': 30.0, 'yaw': 4.95, 'thr0': 26.0, 'thr1': 27.0}
{'lipoC3S3': 0.0, 'datetime': '2019-02-27 10:21:32.273590', 'pitch': -0.67, 'rot1': 0, 'rot0': 0, 'rot3': 0, 'rot2': 0, 'state': 'normal', 'flw3': 8, 'flw2': 4, 'flw1': 9, 'flw0': 11, 'roll': 0.24, 'cur2': 0.0, 'cur0': 0.0, 'cur1': 0.0, 'mgs': 0, 'compass': 27.66, 'lipoC2': 0.0, 'temp': 25.14, 'thr3': 31.0, 'depth': 0.119, 'time': 18.41, 'thr2': 31.0, 'yaw': 4.95, 'thr0': 26.0, 'thr1': 27.0}
{'lipoC3S3': 0.0, 'datetime': '2019-02-27 10:21:32.592622', 'pitch': -0.67, 'rot1': 0, 'rot0': 0, 'rot3': 0, 'rot2': 0, 'state': 'normal', 'flw3': 8, 'flw2': 4, 'flw1': 9, 'flw0': 11, 'roll': 0.24, 'cur2': 0.0, 'cur0': 0.0, 'cur1': 0.0, 'mgs': 0, 'compass': 27.66, 'lipoC2': 0.0, 'temp': 25.14, 'thr3': 31.0, 'depth': 0.119, 'time': 18.74, 'thr2': 31.0, 'yaw': 4.95, 'thr0': 26.0, 'thr1': 27.0}
{'lipoC3S3': 0.0, 'datetime': '2019-02-27 10:21:32.919613', 'pitch': -0.67, 'rot1': 0, 'rot0': 0, 'rot3': 0, 'rot2': 0, 'state': 'normal', 'flw3': 9, 'flw2': 5, 'flw1': 9, 'flw0': 11, 'roll': 0.24, 'cur2': 0.0, 'cur0': 0.0, 'cur1': 0.0, 'mgs': 0, 'compass': 27.66, 'lipoC2': 0.0, 'temp': 25.14, 'thr3': 38.0, 'depth': 0.119, 'time': 19.06, 'thr2': 33.0, 'yaw': 4.95, 'thr0': 26.0, 'thr1': 27.0}
{'lipoC3S3': 0.0, 'datetime': '2019-02-27 10:21:33.237412', 'pitch': -0.67, 'rot1': 0, 'rot0': 0, 'rot3': 0, 'rot2': 0, 'state': 'normal', 'flw3': 9, 'flw2': 5, 'flw1': 9, 'flw0': 11, 'roll': 0.24, 'cur2': 0.0, 'cur0': 0.0, 'cur1': 0.0, 'mgs': 0, 'compass': 27.66, 'lipoC2': 0.0, 'temp': 25.14, 'thr3': 36.0, 'depth': 0.119, 'time': 19.38, 'thr2': 32.0, 'yaw': 4.95, 'thr0': 26.0, 'thr1': 27.0}
{'lipoC3S3': 0.0, 'datetime': '2019-02-27 10:21:33.559669', 'pitch': -0.67, 'rot1': 0, 'rot0': 0, 'rot3': 0, 'rot2': 0, 'state': 'normal', 'flw3': 10, 'flw2': 6, 'flw1': 9, 'flw0': 11, 'roll': 0.24, 'cur2': 0.0, 'cur0': 0.0, 'cur1': 0.0, 'mgs': 0, 'compass': 27.66, 'lipoC2': 0.0, 'temp': 25.14, 'thr3': 30.0, 'depth': 0.119, 'time': 19.7, 'thr2': 31.0, 'yaw': 4.95, 'thr0': 27.0, 'thr1': 27.0}
{'lipoC3S3': 0.0, 'datetime': '2019-02-27 10:21:33.879298', 'pitch': -0.67, 'rot1': 0, 'rot0': 0, 'rot3': 0, 'rot2': 0, 'state': 'normal', 'flw3': 11, 'flw2': 7, 'flw1': 9, 'flw0': 11, 'roll': 0.24, 'cur2': 0.0, 'cur0': 0.0, 'cur1': 0.0, 'mgs': 0, 'compass': 27.66, 'lipoC2': 0.0, 'temp': 25.14, 'thr3': 38.0, 'depth': 0.119, 'time': 20.02, 'thr2': 32.0, 'yaw': 4.95, 'thr0': 26.0, 'thr1': 27.0}
{'lipoC3S3': 0.0, 'datetime': '2019-02-27 10:21:34.203704', 'pitch': -0.67, 'rot1': 0, 'rot0': 0, 'rot3': 0, 'rot2': 0, 'state': 'normal', 'flw3': 11, 'flw2': 7, 'flw1': 9, 'flw0': 11, 'roll': 0.24, 'cur2': 0.0, 'cur0': 0.0, 'cur1': 0.0, 'mgs': 0, 'compass': 27.66, 'lipoC2': 0.0, 'temp': 25.14, 'thr3': 36.0, 'depth': 0.119, 'time': 20.34, 'thr2': 32.0, 'yaw': 4.95, 'thr0': 26.0, 'thr1': 27.0}
{'lipoC3S3': 0.0, 'datetime': '2019-02-27 10:21:34.524828', 'pitch': -0.67, 'rot1': 0, 'rot0': 0, 'rot3': 0, 'rot2': 0, 'state': 'normal', 'flw3': 11, 'flw2': 7, 'flw1': 9, 'flw0': 11, 'roll': 0.24, 'cur2': 0.0, 'cur0': 0.0, 'cur1': 0.0, 'mgs': 0, 'compass': 27.66, 'lipoC2': 0.0, 'temp': 25.14, 'thr3': 36.0, 'depth': 0.119, 'time': 20.66, 'thr2': 32.0, 'yaw': 4.95, 'thr0': 26.0, 'thr1': 27.0}
{'lipoC3S3': 0.0, 'datetime': '2019-02-27 10:21:34.844942', 'pitch': -0.67, 'rot1': 0, 'rot0': 0, 'rot3': 0, 'rot2': 0, 'state': 'normal', 'flw3': 11, 'flw2': 7, 'flw1': 9, 'flw0': 11, 'roll': 0.24, 'cur2': 0.0, 'cur0': 0.0, 'cur1': 0.0, 'mgs': 0, 'compass': 27.66, 'lipoC2': 0.0, 'temp': 25.14, 'thr3': 36.0, 'depth': 0.119, 'time': 20.98, 'thr2': 32.0, 'yaw': 4.95, 'thr0': 26.0, 'thr1': 27.0}
{'lipoC3S3': 0.0, 'datetime': '2019-02-27 10:21:35.171149', 'pitch': -0.67, 'rot1': 0, 'rot0': 0, 'rot3': 0, 'rot2': 0, 'state': 'normal', 'flw3': 11, 'flw2': 7, 'flw1': 9, 'flw0': 11, 'roll': 0.24, 'cur2': 0.0, 'cur0': 0.0, 'cur1': 0.0, 'mgs': 0, 'compass': 27.66, 'lipoC2': 0.0, 'temp': 25.14, 'thr3': 36.0, 'depth': 0.119, 'time': 21.31, 'thr2': 32.0, 'yaw': 4.95, 'thr0': 26.0, 'thr1': 27.0}
{'lipoC3S3': 0.0, 'datetime': '2019-02-27 10:21:35.492231', 'pitch': -0.67, 'rot1': 0, 'rot0': 0, 'rot3': 0, 'rot2': 0, 'state': 'normal', 'flw3': 11, 'flw2': 7, 'flw1': 9, 'flw0': 11, 'roll': 0.24, 'cur2': 0.0, 'cur0': 0.0, 'cur1': 0.0, 'mgs': 0, 'compass': 27.66, 'lipoC2': 0.0, 'temp': 25.14, 'thr3': 35.0, 'depth': 0.119, 'time': 21.63, 'thr2': 31.0, 'yaw': 4.95, 'thr0': 26.0, 'thr1': 27.0}
{'lipoC3S3': 0.0, 'datetime': '2019-02-27 10:21:35.812900', 'pitch': -0.67, 'rot1': 0, 'rot0': 0, 'rot3': 0, 'rot2': 0, 'state': 'normal', 'flw3': 11, 'flw2': 7, 'flw1': 9, 'flw0': 11, 'roll': 0.24, 'cur2': 0.0, 'cur0': 0.0, 'cur1': 0.0, 'mgs': 0, 'compass': 27.66, 'lipoC2': 0.0, 'temp': 25.14, 'thr3': 35.0, 'depth': 0.119, 'time': 21.95, 'thr2': 31.0, 'yaw': 4.95, 'thr0': 26.0, 'thr1': 27.0}
{'lipoC3S3': 0.0, 'datetime': '2019-02-27 10:21:36.133871', 'pitch': -0.67, 'rot1': 0, 'rot0': 0, 'rot3': 0, 'rot2': 0, 'state': 'normal', 'flw3': 11, 'flw2': 7, 'flw1': 9, 'flw0': 11, 'roll': 0.24, 'cur2': 0.0, 'cur0': 0.0, 'cur1': 0.0, 'mgs': 0, 'compass': 27.66, 'lipoC2': 0.0, 'temp': 25.14, 'thr3': 35.0, 'depth': 0.119, 'time': 22.27, 'thr2': 31.0, 'yaw': 4.95, 'thr0': 26.0, 'thr1': 27.0}
{'lipoC3S3': 0.0, 'datetime': '2019-02-27 10:21:36.461268', 'pitch': -0.67, 'rot1': 0, 'rot0': 0, 'rot3': 0, 'rot2': 0, 'state': 'normal', 'flw3': 11, 'flw2': 7, 'flw1': 9, 'flw0': 11, 'roll': 0.24, 'cur2': 0.0, 'cur0': 0.0, 'cur1': 0.0, 'mgs': 0, 'compass': 27.66, 'lipoC2': 0.0, 'temp': 25.14, 'thr3': 35.0, 'depth': 0.119, 'time': 22.59, 'thr2': 31.0, 'yaw': 4.95, 'thr0': 26.0, 'thr1': 27.0}
{'lipoC3S3': 0.0, 'datetime': '2019-02-27 10:21:36.777878', 'pitch': -0.67, 'rot1': 0, 'rot0': 0, 'rot3': 0, 'rot2': 0, 'state': 'normal', 'flw3': 11, 'flw2': 7, 'flw1': 9, 'flw0': 11, 'roll': 0.24, 'cur2': 0.0, 'cur0': 0.0, 'cur1': 0.0, 'mgs': 0, 'compass': 27.66, 'lipoC2': 0.0, 'temp': 25.14, 'thr3': 35.0, 'depth': 0.119, 'time': 22.91, 'thr2': 31.0, 'yaw': 4.95, 'thr0': 26.0, 'thr1': 27.0}
{'lipoC3S3': 0.0, 'datetime': '2019-02-27 10:21:37.101429', 'pitch': -0.67, 'rot1': 0, 'rot0': 0, 'rot3': 0, 'rot2': 0, 'state': 'normal', 'flw3': 11, 'flw2': 7, 'flw1': 9, 'flw0': 11, 'roll': 0.24, 'cur2': 0.0, 'cur0': 0.0, 'cur1': 0.0, 'mgs': 0, 'compass': 27.66, 'lipoC2': 0.0, 'temp': 25.14, 'thr3': 35.0, 'depth': 0.119, 'time': 23.23, 'thr2': 31.0, 'yaw': 4.95, 'thr0': 26.0, 'thr1': 27.0}
{'lipoC3S3': 0.0, 'datetime': '2019-02-27 10:21:37.421760', 'pitch': -0.67, 'rot1': 0, 'rot0': 0, 'rot3': 0, 'rot2': 0, 'state': 'normal', 'flw3': 11, 'flw2': 7, 'flw1': 9, 'flw0': 11, 'roll': 0.24, 'cur2': 0.0, 'cur0': 0.0, 'cur1': 0.0, 'mgs': 0, 'compass': 27.66, 'lipoC2': 0.0, 'temp': 25.14, 'thr3': 35.0, 'depth': 0.119, 'time': 23.56, 'thr2': 31.0, 'yaw': 4.95, 'thr0': 27.0, 'thr1': 27.0}
{'lipoC3S3': 0.0, 'datetime': '2019-02-27 10:21:37.738381', 'pitch': -0.67, 'rot1': 0, 'rot0': 0, 'rot3': 0, 'rot2': 0, 'state': 'normal', 'flw3': 11, 'flw2': 7, 'flw1': 9, 'flw0': 11, 'roll': 0.24, 'cur2': 0.0, 'cur0': 0.0, 'cur1': 0.0, 'mgs': 0, 'compass': 27.66, 'lipoC2': 0.0, 'temp': 25.14, 'thr3': 35.0, 'depth': 0.119, 'time': 23.88, 'thr2': 31.0, 'yaw': 4.95, 'thr0': 27.0, 'thr1': 27.0}
{'lipoC3S3': 0.0, 'datetime': '2019-02-27 10:21:38.061958', 'pitch': -0.67, 'rot1': 0, 'rot0': 0, 'rot3': 0, 'rot2': 0, 'state': 'normal', 'flw3': 11, 'flw2': 7, 'flw1': 9, 'flw0': 11, 'roll': 0.24, 'cur2': 0.0, 'cur0': 0.0, 'cur1': 0.0, 'mgs': 0, 'compass': 27.66, 'lipoC2': 0.0, 'temp': 25.14, 'thr3': 35.0, 'depth': 0.119, 'time': 24.2, 'thr2': 32.0, 'yaw': 4.95, 'thr0': 27.0, 'thr1': 27.0}
{'lipoC3S3': 0.0, 'datetime': '2019-02-27 10:21:38.384464', 'pitch': -0.67, 'rot1': 0, 'rot0': 0, 'rot3': 0, 'rot2': 0, 'state': 'normal', 'flw3': 11, 'flw2': 7, 'flw1': 9, 'flw0': 11, 'roll': 0.24, 'cur2': 0.0, 'cur0': 0.0, 'cur1': 0.0, 'mgs': 0, 'compass': 27.66, 'lipoC2': 0.0, 'temp': 25.14, 'thr3': 35.0, 'depth': 0.119, 'time': 24.52, 'thr2': 31.0, 'yaw': 4.95, 'thr0': 27.0, 'thr1': 27.0}
{'lipoC3S3': 0.0, 'datetime': '2019-02-27 10:21:38.708042', 'pitch': -0.67, 'rot1': 0, 'rot0': 0, 'rot3': 0, 'rot2': 0, 'state': 'normal', 'flw3': 11, 'flw2': 7, 'flw1': 9, 'flw0': 11, 'roll': 0.24, 'cur2': 0.0, 'cur0': 0.0, 'cur1': 0.0, 'mgs': 0, 'compass': 27.66, 'lipoC2': 0.0, 'temp': 25.14, 'thr3': 35.0, 'depth': 0.119, 'time': 24.84, 'thr2': 31.0, 'yaw': 4.95, 'thr0': 26.0, 'thr1': 27.0}
{'lipoC3S3': 0.0, 'datetime': '2019-02-27 10:21:39.025524', 'pitch': -0.67, 'rot1': 0, 'rot0': 0, 'rot3': 0, 'rot2': 0, 'state': 'normal', 'flw3': 11, 'flw2': 7, 'flw1': 9, 'flw0': 11, 'roll': 0.24, 'cur2': 0.0, 'cur0': 0.0, 'cur1': 0.0, 'mgs': 0, 'compass': 27.66, 'lipoC2': 0.0, 'temp': 25.14, 'thr3': 35.0, 'depth': 0.119, 'time': 25.16, 'thr2': 31.0, 'yaw': 4.95, 'thr0': 26.0, 'thr1': 27.0}
{'lipoC3S3': 0.0, 'datetime': '2019-02-27 10:21:39.347764', 'pitch': -0.71, 'rot1': 0, 'rot0': 0, 'rot3': 0, 'rot2': 0, 'state': 'normal', 'flw3': 11, 'flw2': 7, 'flw1': 9, 'flw0': 11, 'roll': 0.2, 'cur2': 0.0, 'cur0': 0.0, 'cur1': 0.0, 'mgs': 0, 'compass': 25.2, 'lipoC2': 0.0, 'temp': 25.14, 'thr3': 35.0, 'depth': 0.119, 'time': 25.48, 'thr2': 31.0, 'yaw': 2.49, 'thr0': 27.0, 'thr1': 27.0}
{'lipoC3S3': 0.0, 'datetime': '2019-02-27 10:21:39.675254', 'pitch': -0.72, 'rot1': 0, 'rot0': 0, 'rot3': 0, 'rot2': 0, 'state': 'normal', 'flw3': 11, 'flw2': 7, 'flw1': 9, 'flw0': 11, 'roll': 0.12, 'cur2': 0.0, 'cur0': 0.0, 'cur1': 0.0, 'mgs': 0, 'compass': 20.33, 'lipoC2': 0.0, 'temp': 25.14, 'thr3': 35.0, 'depth': 0.119, 'time': 25.8, 'thr2': 31.0, 'yaw': -2.38, 'thr0': 26.0, 'thr1': 27.0}
{'lipoC3S3': 0.0, 'datetime': '2019-02-27 10:21:39.995061', 'pitch': -0.73, 'rot1': 0, 'rot0': 0, 'rot3': 0, 'rot2': 0, 'state': 'normal', 'flw3': 11, 'flw2': 7, 'flw1': 9, 'flw0': 11, 'roll': 0.08, 'cur2': 0.0, 'cur0': 0.0, 'cur1': 0.0, 'mgs': 0, 'compass': 17.03, 'lipoC2': 0.0, 'temp': 25.14, 'thr3': 35.0, 'depth': 0.119, 'time': 26.13, 'thr2': 31.0, 'yaw': -5.68, 'thr0': 26.0, 'thr1': 27.0}
{'lipoC3S3': 0.0, 'datetime': '2019-02-27 10:21:40.318586', 'pitch': -0.73, 'rot1': 0, 'rot0': 0, 'rot3': 0, 'rot2': 0, 'state': 'normal', 'flw3': 11, 'flw2': 7, 'flw1': 9, 'flw0': 11, 'roll': 0.05, 'cur2': 0.0, 'cur0': 0.0, 'cur1': 0.0, 'mgs': 0, 'compass': 15.13, 'lipoC2': 0.0, 'temp': 25.14, 'thr3': 35.0, 'depth': 0.119, 'time': 26.45, 'thr2': 31.0, 'yaw': -7.58, 'thr0': 26.0, 'thr1': 27.0}
{'lipoC3S3': 0.0, 'datetime': '2019-02-27 10:21:40.641388', 'pitch': -0.73, 'rot1': 0, 'rot0': 0, 'rot3': 0, 'rot2': 0, 'state': 'normal', 'flw3': 11, 'flw2': 7, 'flw1': 9, 'flw0': 11, 'roll': 0.04, 'cur2': 0.0, 'cur0': 0.0, 'cur1': 0.0, 'mgs': 0, 'compass': 14.7, 'lipoC2': 0.0, 'temp': 25.14, 'thr3': 35.0, 'depth': 0.129, 'time': 26.77, 'thr2': 31.0, 'yaw': -8.01, 'thr0': 26.0, 'thr1': 27.0}
{'lipoC3S3': 0.0, 'datetime': '2019-02-27 10:21:40.964173', 'pitch': -0.71, 'rot1': 0, 'rot0': 0, 'rot3': 0, 'rot2': 0, 'state': 'normal', 'flw3': 11, 'flw2': 7, 'flw1': 9, 'flw0': 11, 'roll': 0.04, 'cur2': 0.0, 'cur0': 0.0, 'cur1': 0.0, 'mgs': 0, 'compass': 14.7, 'lipoC2': 0.0, 'temp': 25.14, 'thr3': 35.0, 'depth': 0.119, 'time': 27.09, 'thr2': 31.0, 'yaw': -8.01, 'thr0': 26.0, 'thr1': 27.0}
{'lipoC3S3': 0.0, 'datetime': '2019-02-27 10:21:41.285714', 'pitch': -0.74, 'rot1': 0, 'rot0': 0, 'rot3': 0, 'rot2': 0, 'state': 'normal', 'flw3': 11, 'flw2': 7, 'flw1': 9, 'flw0': 11, 'roll': 0.03, 'cur2': 0.0, 'cur0': 0.0, 'cur1': 0.0, 'mgs': 0, 'compass': 14.12, 'lipoC2': 0.0, 'temp': 25.14, 'thr3': 35.0, 'depth': 0.119, 'time': 27.41, 'thr2': 31.0, 'yaw': -8.6, 'thr0': 26.0, 'thr1': 27.0}
{'lipoC3S3': 0.0, 'datetime': '2019-02-27 10:21:41.603267', 'pitch': -0.78, 'rot1': 0, 'rot0': 0, 'rot3': 0, 'rot2': 0, 'state': 'normal', 'flw3': 11, 'flw2': 7, 'flw1': 9, 'flw0': 11, 'roll': -0.01, 'cur2': 0.0, 'cur0': 0.0, 'cur1': 0.0, 'mgs': 0, 'compass': 12.9, 'lipoC2': 0.0, 'temp': 25.14, 'thr3': 35.0, 'depth': 0.119, 'time': 27.73, 'thr2': 31.0, 'yaw': -9.81, 'thr0': 26.0, 'thr1': 27.0}
{'lipoC3S3': 0.0, 'datetime': '2019-02-27 10:21:41.927692', 'pitch': -0.85, 'rot1': 0, 'rot0': 0, 'rot3': 0, 'rot2': 0, 'state': 'normal', 'flw3': 11, 'flw2': 7, 'flw1': 9, 'flw0': 11, 'roll': -0.06, 'cur2': 0.0, 'cur0': 0.0, 'cur1': 0.0, 'mgs': 0, 'compass': 11.43, 'lipoC2': 0.0, 'temp': 25.15, 'thr3': 35.0, 'depth': 0.119, 'time': 28.05, 'thr2': 31.0, 'yaw': -11.28, 'thr0': 26.0, 'thr1': 27.0}
{'lipoC3S3': 0.0, 'datetime': '2019-02-27 10:21:42.250297', 'pitch': -0.91, 'rot1': 0, 'rot0': 0, 'rot3': 0, 'rot2': 0, 'state': 'normal', 'flw3': 11, 'flw2': 7, 'flw1': 9, 'flw0': 11, 'roll': -0.06, 'cur2': 0.0, 'cur0': 0.0, 'cur1': 0.0, 'mgs': 0, 'compass': 10.72, 'lipoC2': 0.0, 'temp': 25.14, 'thr3': 35.0, 'depth': 0.119, 'time': 28.38, 'thr2': 31.0, 'yaw': -11.99, 'thr0': 26.0, 'thr1': 27.0}
{'lipoC3S3': 0.0, 'datetime': '2019-02-27 10:21:42.568540', 'pitch': -0.95, 'rot1': 0, 'rot0': 0, 'rot3': 0, 'rot2': 0, 'state': 'normal', 'flw3': 11, 'flw2': 7, 'flw1': 9, 'flw0': 11, 'roll': -0.07, 'cur2': 0.0, 'cur0': 0.0, 'cur1': 0.0, 'mgs': 0, 'compass': 10.72, 'lipoC2': 0.0, 'temp': 25.14, 'thr3': 35.0, 'depth': 0.119, 'time': 28.7, 'thr2': 31.0, 'yaw': -11.99, 'thr0': 26.0, 'thr1': 27.0}
{'lipoC3S3': 0.0, 'datetime': '2019-02-27 10:21:42.893103', 'pitch': -0.97, 'rot1': 0, 'rot0': 0, 'rot3': 0, 'rot2': 0, 'state': 'normal', 'flw3': 11, 'flw2': 7, 'flw1': 9, 'flw0': 11, 'roll': -0.06, 'cur2': 0.0, 'cur0': 0.0, 'cur1': 0.0, 'mgs': 0, 'compass': 10.72, 'lipoC2': 0.0, 'temp': 25.14, 'thr3': 35.0, 'depth': 0.119, 'time': 29.02, 'thr2': 31.0, 'yaw': -11.99, 'thr0': 26.0, 'thr1': 27.0}
{'lipoC3S3': 0.0, 'datetime': '2019-02-27 10:21:43.211560', 'pitch': -0.97, 'rot1': 0, 'rot0': 0, 'rot3': 0, 'rot2': 0, 'state': 'normal', 'flw3': 11, 'flw2': 7, 'flw1': 9, 'flw0': 12, 'roll': -0.06, 'cur2': 0.0, 'cur0': 0.0, 'cur1': 0.0, 'mgs': 0, 'compass': 10.72, 'lipoC2': 0.0, 'temp': 25.14, 'thr3': 35.0, 'depth': 0.119, 'time': 29.34, 'thr2': 31.0, 'yaw': -11.99, 'thr0': 26.0, 'thr1': 27.0}
{'lipoC3S3': 0.0, 'datetime': '2019-02-27 10:21:43.540571', 'pitch': -0.97, 'rot1': 0, 'rot0': 0, 'rot3': 0, 'rot2': 0, 'state': 'normal', 'flw3': 11, 'flw2': 7, 'flw1': 9, 'flw0': 12, 'roll': -0.06, 'cur2': 0.0, 'cur0': 0.0, 'cur1': 0.0, 'mgs': 0, 'compass': 10.72, 'lipoC2': 0.0, 'temp': 25.15, 'thr3': 35.0, 'depth': 0.119, 'time': 29.66, 'thr2': 31.0, 'yaw': -11.99, 'thr0': 26.0, 'thr1': 27.0}
{'lipoC3S3': 0.0, 'datetime': '2019-02-27 10:21:43.864557', 'pitch': -0.97, 'rot1': 0, 'rot0': 0, 'rot3': 0, 'rot2': 0, 'state': 'normal', 'flw3': 11, 'flw2': 7, 'flw1': 9, 'flw0': 12, 'roll': -0.06, 'cur2': 0.0, 'cur0': 0.0, 'cur1': 0.0, 'mgs': 0, 'compass': 10.72, 'lipoC2': 0.0, 'temp': 25.15, 'thr3': 35.0, 'depth': 0.119, 'time': 29.98, 'thr2': 31.0, 'yaw': -11.99, 'thr0': 26.0, 'thr1': 27.0}
{'lipoC3S3': 0.0, 'datetime': '2019-02-27 10:21:44.184373', 'pitch': -0.97, 'rot1': 0, 'rot0': 0, 'rot3': 0, 'rot2': 0, 'state': 'normal', 'flw3': 11, 'flw2': 7, 'flw1': 9, 'flw0': 13, 'roll': -0.06, 'cur2': 0.0, 'cur0': 0.0, 'cur1': 0.0, 'mgs': 0, 'compass': 10.72, 'lipoC2': 0.0, 'temp': 25.15, 'thr3': 35.0, 'depth': 0.119, 'time': 30.3, 'thr2': 31.0, 'yaw': -11.99, 'thr0': 26.0, 'thr1': 27.0}
{'lipoC3S3': 0.0, 'datetime': '2019-02-27 10:21:44.504861', 'pitch': -0.97, 'rot1': 0, 'rot0': 0, 'rot3': 0, 'rot2': 0, 'state': 'normal', 'flw3': 11, 'flw2': 7, 'flw1': 9, 'flw0': 14, 'roll': -0.06, 'cur2': 0.0, 'cur0': 0.0, 'cur1': 0.0, 'mgs': 0, 'compass': 10.72, 'lipoC2': 0.0, 'temp': 25.15, 'thr3': 35.0, 'depth': 0.119, 'time': 30.62, 'thr2': 31.0, 'yaw': -11.99, 'thr0': 26.0, 'thr1': 27.0}
{'lipoC3S3': 0.0, 'datetime': '2019-02-27 10:21:44.827110', 'pitch': -0.97, 'rot1': 0, 'rot0': 0, 'rot3': 0, 'rot2': 0, 'state': 'normal', 'flw3': 11, 'flw2': 7, 'flw1': 9, 'flw0': 14, 'roll': -0.06, 'cur2': 0.0, 'cur0': 0.0, 'cur1': 0.0, 'mgs': 0, 'compass': 10.72, 'lipoC2': 0.0, 'temp': 25.15, 'thr3': 35.0, 'depth': 0.119, 'time': 30.95, 'thr2': 31.0, 'yaw': -11.99, 'thr0': 27.0, 'thr1': 27.0}
{'lipoC3S3': 0.0, 'datetime': '2019-02-27 10:21:45.146447', 'pitch': -0.97, 'rot1': 0, 'rot0': 0, 'rot3': 0, 'rot2': 0, 'state': 'normal', 'flw3': 11, 'flw2': 7, 'flw1': 9, 'flw0': 15, 'roll': -0.06, 'cur2': 0.0, 'cur0': 0.0, 'cur1': 0.0, 'mgs': 0, 'compass': 10.72, 'lipoC2': 0.0, 'temp': 25.15, 'thr3': 35.0, 'depth': 0.119, 'time': 31.27, 'thr2': 31.0, 'yaw': -11.99, 'thr0': 26.0, 'thr1': 27.0}
{'lipoC3S3': 0.0, 'datetime': '2019-02-27 10:21:45.469543', 'pitch': -0.97, 'rot1': 0, 'rot0': 0, 'rot3': 0, 'rot2': 0, 'state': 'normal', 'flw3': 11, 'flw2': 7, 'flw1': 9, 'flw0': 16, 'roll': -0.06, 'cur2': 0.0, 'cur0': 0.0, 'cur1': 0.0, 'mgs': 0, 'compass': 10.72, 'lipoC2': 0.0, 'temp': 25.15, 'thr3': 35.0, 'depth': 0.119, 'time': 31.59, 'thr2': 31.0, 'yaw': -11.99, 'thr0': 26.0, 'thr1': 27.0}
{'lipoC3S3': 0.0, 'datetime': '2019-02-27 10:21:45.788328', 'pitch': -0.97, 'rot1': 0, 'rot0': 0, 'rot3': 0, 'rot2': 0, 'state': 'normal', 'flw3': 11, 'flw2': 7, 'flw1': 9, 'flw0': 17, 'roll': -0.06, 'cur2': 0.0, 'cur0': 0.0, 'cur1': 0.0, 'mgs': 0, 'compass': 10.72, 'lipoC2': 0.0, 'temp': 25.15, 'thr3': 35.0, 'depth': 0.119, 'time': 31.91, 'thr2': 31.0, 'yaw': -11.99, 'thr0': 26.0, 'thr1': 27.0}
{'lipoC3S3': 0.0, 'datetime': '2019-02-27 10:21:46.107884', 'pitch': -0.97, 'rot1': 0, 'rot0': 0, 'rot3': 0, 'rot2': 0, 'state': 'normal', 'flw3': 11, 'flw2': 7, 'flw1': 9, 'flw0': 17, 'roll': -0.06, 'cur2': 0.0, 'cur0': 0.0, 'cur1': 0.0, 'mgs': 0, 'compass': 10.72, 'lipoC2': 0.0, 'temp': 25.15, 'thr3': 35.0, 'depth': 0.119, 'time': 32.23, 'thr2': 31.0, 'yaw': -11.99, 'thr0': 26.0, 'thr1': 27.0}
{'lipoC3S3': 0.0, 'datetime': '2019-02-27 10:21:46.430886', 'pitch': -0.98, 'rot1': 0, 'rot0': 0, 'rot3': 0, 'rot2': 0, 'state': 'normal', 'flw3': 11, 'flw2': 8, 'flw1': 10, 'flw0': 17, 'roll': -0.06, 'cur2': 0.0, 'cur0': 0.0, 'cur1': 0.0, 'mgs': 0, 'compass': 10.72, 'lipoC2': 0.0, 'temp': 25.15, 'thr3': 35.0, 'depth': 0.119, 'time': 32.55, 'thr2': 31.0, 'yaw': -11.99, 'thr0': 27.0, 'thr1': 27.0}
{'lipoC3S3': 0.0, 'datetime': '2019-02-27 10:21:46.752532', 'pitch': -1.01, 'rot1': 0, 'rot0': 0, 'rot3': 0, 'rot2': 0, 'state': 'normal', 'flw3': 11, 'flw2': 8, 'flw1': 10, 'flw0': 17, 'roll': -0.07, 'cur2': 0.0, 'cur0': 0.0, 'cur1': 0.0, 'mgs': 0, 'compass': 10.72, 'lipoC2': 0.0, 'temp': 25.15, 'thr3': 35.0, 'depth': 0.119, 'time': 32.87, 'thr2': 31.0, 'yaw': -11.99, 'thr0': 26.0, 'thr1': 27.0}
{'lipoC3S3': 0.0, 'datetime': '2019-02-27 10:21:47.075462', 'pitch': -1.02, 'rot1': 0, 'rot0': 0, 'rot3': 0, 'rot2': 0, 'state': 'normal', 'flw3': 11, 'flw2': 8, 'flw1': 10, 'flw0': 17, 'roll': -0.07, 'cur2': 0.0, 'cur0': 0.0, 'cur1': 0.0, 'mgs': 0, 'compass': 10.72, 'lipoC2': 0.0, 'temp': 25.15, 'thr3': 35.0, 'depth': 0.119, 'time': 33.2, 'thr2': 31.0, 'yaw': -11.99, 'thr0': 26.0, 'thr1': 27.0}
{'lipoC3S3': 0.0, 'datetime': '2019-02-27 10:21:47.397268', 'pitch': -1.02, 'rot1': 0, 'rot0': 0, 'rot3': 0, 'rot2': 0, 'state': 'normal', 'flw3': 11, 'flw2': 8, 'flw1': 10, 'flw0': 17, 'roll': -0.07, 'cur2': 0.0, 'cur0': 0.0, 'cur1': 0.0, 'mgs': 0, 'compass': 10.72, 'lipoC2': 0.0, 'temp': 25.15, 'thr3': 35.0, 'depth': 0.119, 'time': 33.52, 'thr2': 31.0, 'yaw': -11.99, 'thr0': 26.0, 'thr1': 27.0}
{'lipoC3S3': 0.0, 'datetime': '2019-02-27 10:21:47.720070', 'pitch': -1.02, 'rot1': 0, 'rot0': 0, 'rot3': 0, 'rot2': 0, 'state': 'normal', 'flw3': 11, 'flw2': 9, 'flw1': 11, 'flw0': 17, 'roll': -0.07, 'cur2': 0.0, 'cur0': 0.0, 'cur1': 0.0, 'mgs': 0, 'compass': 10.72, 'lipoC2': 0.0, 'temp': 25.15, 'thr3': 36.0, 'depth': 0.119, 'time': 33.84, 'thr2': 32.0, 'yaw': -11.99, 'thr0': 26.0, 'thr1': 27.0}
{'lipoC3S3': 0.0, 'datetime': '2019-02-27 10:21:48.042578', 'pitch': -1.02, 'rot1': 0, 'rot0': 0, 'rot3': 0, 'rot2': 0, 'state': 'normal', 'flw3': 11, 'flw2': 11, 'flw1': 13, 'flw0': 17, 'roll': -0.07, 'cur2': 0.0, 'cur0': 0.0, 'cur1': 0.0, 'mgs': 0, 'compass': 10.72, 'lipoC2': 0.0, 'temp': 25.15, 'thr3': 35.0, 'depth': 0.119, 'time': 34.16, 'thr2': 32.0, 'yaw': -11.99, 'thr0': 26.0, 'thr1': 27.0}
{'lipoC3S3': 0.0, 'datetime': '2019-02-27 10:21:48.366990', 'pitch': -1.02, 'rot1': 0, 'rot0': 0, 'rot3': 0, 'rot2': 0, 'state': 'normal', 'flw3': 11, 'flw2': 12, 'flw1': 14, 'flw0': 17, 'roll': -0.07, 'cur2': 0.0, 'cur0': 0.0, 'cur1': 0.0, 'mgs': 0, 'compass': 10.72, 'lipoC2': 0.0, 'temp': 25.16, 'thr3': 35.0, 'depth': 0.119, 'time': 34.49, 'thr2': 31.0, 'yaw': -11.99, 'thr0': 27.0, 'thr1': 27.0}
{'lipoC3S3': 0.0, 'datetime': '2019-02-27 10:21:48.690847', 'pitch': -1.02, 'rot1': 0, 'rot0': 0, 'rot3': 0, 'rot2': 0, 'state': 'normal', 'flw3': 11, 'flw2': 13, 'flw1': 15, 'flw0': 17, 'roll': -0.07, 'cur2': 0.0, 'cur0': 0.0, 'cur1': 0.0, 'mgs': 0, 'compass': 10.72, 'lipoC2': 0.0, 'temp': 25.15, 'thr3': 36.0, 'depth': 0.119, 'time': 34.81, 'thr2': 32.0, 'yaw': -11.99, 'thr0': 27.0, 'thr1': 27.0}
{'lipoC3S3': 0.0, 'datetime': '2019-02-27 10:21:49.016361', 'pitch': -1.02, 'rot1': 0, 'rot0': 0, 'rot3': 0, 'rot2': 0, 'state': 'normal', 'flw3': 11, 'flw2': 15, 'flw1': 17, 'flw0': 17, 'roll': -0.07, 'cur2': 0.0, 'cur0': 0.0, 'cur1': 0.0, 'mgs': 0, 'compass': 10.72, 'lipoC2': 0.0, 'temp': 25.15, 'thr3': 35.0, 'depth': 0.129, 'time': 35.13, 'thr2': 32.0, 'yaw': -11.99, 'thr0': 26.0, 'thr1': 27.0}
{'lipoC3S3': 0.0, 'datetime': '2019-02-27 10:21:49.339239', 'pitch': -1.02, 'rot1': 0, 'rot0': 0, 'rot3': 0, 'rot2': 0, 'state': 'normal', 'flw3': 11, 'flw2': 16, 'flw1': 18, 'flw0': 17, 'roll': -0.07, 'cur2': 0.0, 'cur0': 0.0, 'cur1': 0.0, 'mgs': 0, 'compass': 10.72, 'lipoC2': 0.0, 'temp': 25.15, 'thr3': 35.0, 'depth': 0.119, 'time': 35.46, 'thr2': 31.0, 'yaw': -11.99, 'thr0': 26.0, 'thr1': 27.0}
{'lipoC3S3': 0.0, 'datetime': '2019-02-27 10:21:49.662349', 'pitch': -1.02, 'rot1': 0, 'rot0': 0, 'rot3': 0, 'rot2': 0, 'state': 'normal', 'flw3': 11, 'flw2': 18, 'flw1': 20, 'flw0': 17, 'roll': -0.07, 'cur2': 0.0, 'cur0': 0.0, 'cur1': 0.0, 'mgs': 0, 'compass': 10.72, 'lipoC2': 0.0, 'temp': 25.15, 'thr3': 35.0, 'depth': 0.119, 'time': 35.78, 'thr2': 31.0, 'yaw': -11.99, 'thr0': 26.0, 'thr1': 27.0}
{'lipoC3S3': 0.0, 'datetime': '2019-02-27 10:21:49.985470', 'pitch': -1.02, 'rot1': 0, 'rot0': 0, 'rot3': 0, 'rot2': 0, 'state': 'normal', 'flw3': 11, 'flw2': 19, 'flw1': 21, 'flw0': 17, 'roll': -0.07, 'cur2': 0.0, 'cur0': 0.0, 'cur1': 0.0, 'mgs': 0, 'compass': 10.72, 'lipoC2': 0.0, 'temp': 25.15, 'thr3': 35.0, 'depth': 0.119, 'time': 36.1, 'thr2': 31.0, 'yaw': -11.99, 'thr0': 26.0, 'thr1': 27.0}
{'lipoC3S3': 0.0, 'datetime': '2019-02-27 10:21:50.311167', 'pitch': -1.03, 'rot1': 0, 'rot0': 0, 'rot3': 0, 'rot2': 0, 'state': 'normal', 'flw3': 11, 'flw2': 20, 'flw1': 22, 'flw0': 17, 'roll': -0.14, 'cur2': 0.0, 'cur0': 0.0, 'cur1': 0.0, 'mgs': 0, 'compass': 10.4, 'lipoC2': 0.0, 'temp': 25.15, 'thr3': 35.0, 'depth': 0.119, 'time': 36.42, 'thr2': 31.0, 'yaw': -12.32, 'thr0': 26.0, 'thr1': 27.0}
{'lipoC3S3': 0.0, 'datetime': '2019-02-27 10:21:50.635212', 'pitch': -1.05, 'rot1': 0, 'rot0': 0, 'rot3': 0, 'rot2': 0, 'state': 'normal', 'flw3': 11, 'flw2': 20, 'flw1': 22, 'flw0': 17, 'roll': -0.12, 'cur2': 0.0, 'cur0': 0.0, 'cur1': 0.0, 'mgs': 0, 'compass': 9.94, 'lipoC2': 0.0, 'temp': 25.15, 'thr3': 35.0, 'depth': 0.119, 'time': 36.75, 'thr2': 31.0, 'yaw': -12.77, 'thr0': 26.0, 'thr1': 27.0}
{'lipoC3S3': 0.0, 'datetime': '2019-02-27 10:21:50.958035', 'pitch': -1.05, 'rot1': 0, 'rot0': 0, 'rot3': 0, 'rot2': 0, 'state': 'normal', 'flw3': 11, 'flw2': 20, 'flw1': 22, 'flw0': 17, 'roll': -0.08, 'cur2': 0.0, 'cur0': 0.0, 'cur1': 0.0, 'mgs': 0, 'compass': 9.95, 'lipoC2': 0.0, 'temp': 25.15, 'thr3': 35.0, 'depth': 0.119, 'time': 37.07, 'thr2': 31.0, 'yaw': -12.76, 'thr0': 26.0, 'thr1': 27.0}
{'lipoC3S3': 0.0, 'datetime': '2019-02-27 10:21:51.281483', 'pitch': -1.05, 'rot1': 0, 'rot0': 0, 'rot3': 0, 'rot2': 0, 'state': 'normal', 'flw3': 11, 'flw2': 20, 'flw1': 22, 'flw0': 17, 'roll': -0.13, 'cur2': 0.0, 'cur0': 0.0, 'cur1': 0.0, 'mgs': 0, 'compass': 9.95, 'lipoC2': 0.0, 'temp': 25.15, 'thr3': 35.0, 'depth': 0.119, 'time': 37.4, 'thr2': 31.0, 'yaw': -12.76, 'thr0': 26.0, 'thr1': 27.0}
{'lipoC3S3': 0.0, 'datetime': '2019-02-27 10:21:51.604434', 'pitch': -1.05, 'rot1': 0, 'rot0': 0, 'rot3': 0, 'rot2': 0, 'state': 'normal', 'flw3': 11, 'flw2': 20, 'flw1': 22, 'flw0': 17, 'roll': -0.13, 'cur2': 0.0, 'cur0': 0.0, 'cur1': 0.0, 'mgs': 0, 'compass': 9.95, 'lipoC2': 0.0, 'temp': 25.15, 'thr3': 35.0, 'depth': 0.119, 'time': 37.72, 'thr2': 31.0, 'yaw': -12.76, 'thr0': 26.0, 'thr1': 27.0}
{'lipoC3S3': 0.0, 'datetime': '2019-02-27 10:21:51.930440', 'pitch': -1.05, 'rot1': 0, 'rot0': 0, 'rot3': 0, 'rot2': 0, 'state': 'normal', 'flw3': 11, 'flw2': 20, 'flw1': 22, 'flw0': 17, 'roll': -0.14, 'cur2': 0.0, 'cur0': 0.0, 'cur1': 0.0, 'mgs': 0, 'compass': 9.95, 'lipoC2': 0.0, 'temp': 25.15, 'thr3': 35.0, 'depth': 0.119, 'time': 38.04, 'thr2': 31.0, 'yaw': -12.76, 'thr0': 27.0, 'thr1': 27.0}
{'lipoC3S3': 0.0, 'datetime': '2019-02-27 10:21:52.254464', 'pitch': -1.05, 'rot1': 0, 'rot0': 0, 'rot3': 0, 'rot2': 0, 'state': 'normal', 'flw3': 11, 'flw2': 20, 'flw1': 22, 'flw0': 17, 'roll': -0.13, 'cur2': 0.0, 'cur0': 0.0, 'cur1': 0.0, 'mgs': 0, 'compass': 9.95, 'lipoC2': 0.0, 'temp': 25.16, 'thr3': 35.0, 'depth': 0.119, 'time': 38.37, 'thr2': 31.0, 'yaw': -12.76, 'thr0': 26.0, 'thr1': 27.0}
{'lipoC3S3': 0.0, 'datetime': '2019-02-27 10:21:52.577501', 'pitch': -1.05, 'rot1': 0, 'rot0': 0, 'rot3': 0, 'rot2': 0, 'state': 'normal', 'flw3': 11, 'flw2': 20, 'flw1': 22, 'flw0': 17, 'roll': -0.15, 'cur2': 0.0, 'cur0': 0.0, 'cur1': 0.0, 'mgs': 0, 'compass': 10.14, 'lipoC2': 0.0, 'temp': 25.16, 'thr3': 35.0, 'depth': 0.119, 'time': 38.69, 'thr2': 31.0, 'yaw': -12.57, 'thr0': 26.0, 'thr1': 27.0}
{'lipoC3S3': 0.0, 'datetime': '2019-02-27 10:21:52.899959', 'pitch': -1.05, 'rot1': 0, 'rot0': 0, 'rot3': 0, 'rot2': 0, 'state': 'normal', 'flw3': 11, 'flw2': 20, 'flw1': 22, 'flw0': 17, 'roll': -0.13, 'cur2': 0.0, 'cur0': 0.0, 'cur1': 0.0, 'mgs': 0, 'compass': 10.48, 'lipoC2': 0.0, 'temp': 25.16, 'thr3': 35.0, 'depth': 0.119, 'time': 39.01, 'thr2': 31.0, 'yaw': -12.23, 'thr0': 26.0, 'thr1': 27.0}
{'lipoC3S3': 0.0, 'datetime': '2019-02-27 10:21:53.223426', 'pitch': -1.06, 'rot1': 0, 'rot0': 0, 'rot3': 0, 'rot2': 0, 'state': 'normal', 'flw3': 11, 'flw2': 20, 'flw1': 22, 'flw0': 17, 'roll': -0.13, 'cur2': 0.0, 'cur0': 0.0, 'cur1': 0.0, 'mgs': 0, 'compass': 10.55, 'lipoC2': 0.0, 'temp': 25.16, 'thr3': 35.0, 'depth': 0.119, 'time': 39.33, 'thr2': 31.0, 'yaw': -12.16, 'thr0': 26.0, 'thr1': 27.0}
{'lipoC3S3': 0.0, 'datetime': '2019-02-27 10:21:53.548586', 'pitch': -1.07, 'rot1': 0, 'rot0': 0, 'rot3': 0, 'rot2': 0, 'state': 'normal', 'flw3': 11, 'flw2': 20, 'flw1': 22, 'flw0': 17, 'roll': -0.15, 'cur2': 0.0, 'cur0': 0.0, 'cur1': 0.0, 'mgs': 0, 'compass': 10.55, 'lipoC2': 0.0, 'temp': 25.16, 'thr3': 35.0, 'depth': 0.119, 'time': 39.66, 'thr2': 31.0, 'yaw': -12.16, 'thr0': 26.0, 'thr1': 27.0}
{'lipoC3S3': 0.0, 'datetime': '2019-02-27 10:21:53.872900', 'pitch': -1.07, 'rot1': 0, 'rot0': 0, 'rot3': 0, 'rot2': 0, 'state': 'normal', 'flw3': 11, 'flw2': 20, 'flw1': 22, 'flw0': 17, 'roll': -0.15, 'cur2': 0.0, 'cur0': 0.0, 'cur1': 0.0, 'mgs': 0, 'compass': 10.55, 'lipoC2': 0.0, 'temp': 25.16, 'thr3': 35.0, 'depth': 0.129, 'time': 39.98, 'thr2': 31.0, 'yaw': -12.16, 'thr0': 26.0, 'thr1': 27.0}
{'lipoC3S3': 0.0, 'datetime': '2019-02-27 10:21:54.196203', 'pitch': -1.1, 'rot1': 0, 'rot0': 0, 'rot3': 0, 'rot2': 0, 'state': 'normal', 'flw3': 11, 'flw2': 20, 'flw1': 22, 'flw0': 17, 'roll': -0.14, 'cur2': 0.0, 'cur0': 0.0, 'cur1': 0.0, 'mgs': 0, 'compass': 10.55, 'lipoC2': 0.0, 'temp': 25.16, 'thr3': 35.0, 'depth': 0.119, 'time': 40.31, 'thr2': 31.0, 'yaw': -12.16, 'thr0': 26.0, 'thr1': 27.0}
{'lipoC3S3': 0.0, 'datetime': '2019-02-27 10:21:54.519714', 'pitch': -1.1, 'rot1': 0, 'rot0': 0, 'rot3': 0, 'rot2': 0, 'state': 'normal', 'flw3': 11, 'flw2': 20, 'flw1': 22, 'flw0': 17, 'roll': -0.14, 'cur2': 0.0, 'cur0': 0.0, 'cur1': 0.0, 'mgs': 0, 'compass': 10.55, 'lipoC2': 0.0, 'temp': 25.16, 'thr3': 35.0, 'depth': 0.119, 'time': 40.63, 'thr2': 31.0, 'yaw': -12.16, 'thr0': 26.0, 'thr1': 27.0}
{'lipoC3S3': 0.0, 'datetime': '2019-02-27 10:21:54.843177', 'pitch': -1.1, 'rot1': 0, 'rot0': 0, 'rot3': 0, 'rot2': 0, 'state': 'normal', 'flw3': 11, 'flw2': 20, 'flw1': 22, 'flw0': 17, 'roll': -0.14, 'cur2': 0.0, 'cur0': 0.0, 'cur1': 0.0, 'mgs': 0, 'compass': 10.55, 'lipoC2': 0.0, 'temp': 25.16, 'thr3': 35.0, 'depth': 0.119, 'time': 40.95, 'thr2': 31.0, 'yaw': -12.16, 'thr0': 26.0, 'thr1': 27.0}
{'lipoC3S3': 0.0, 'datetime': '2019-02-27 10:21:55.168228', 'pitch': -1.1, 'rot1': 0, 'rot0': 0, 'rot3': 0, 'rot2': 0, 'state': 'normal', 'flw3': 11, 'flw2': 20, 'flw1': 22, 'flw0': 17, 'roll': -0.14, 'cur2': 0.0, 'cur0': 0.0, 'cur1': 0.0, 'mgs': 0, 'compass': 10.61, 'lipoC2': 0.0, 'temp': 25.16, 'thr3': 35.0, 'depth': 0.119, 'time': 41.28, 'thr2': 31.0, 'yaw': -12.1, 'thr0': 26.0, 'thr1': 27.0}
{'lipoC3S3': 0.0, 'datetime': '2019-02-27 10:21:55.491637', 'pitch': -1.14, 'rot1': 0, 'rot0': 0, 'rot3': 0, 'rot2': 0, 'state': 'normal', 'flw3': 11, 'flw2': 20, 'flw1': 22, 'flw0': 17, 'roll': -0.14, 'cur2': 0.0, 'cur0': 0.0, 'cur1': 0.0, 'mgs': 0, 'compass': 10.67, 'lipoC2': 0.0, 'temp': 25.16, 'thr3': 35.0, 'depth': 0.129, 'time': 41.6, 'thr2': 31.0, 'yaw': -12.04, 'thr0': 26.0, 'thr1': 27.0}
{'lipoC3S3': 0.0, 'datetime': '2019-02-27 10:21:55.815274', 'pitch': -1.14, 'rot1': 0, 'rot0': 0, 'rot3': 0, 'rot2': 0, 'state': 'normal', 'flw3': 11, 'flw2': 20, 'flw1': 22, 'flw0': 17, 'roll': -0.14, 'cur2': 0.0, 'cur0': 0.0, 'cur1': 0.0, 'mgs': 0, 'compass': 10.71, 'lipoC2': 0.0, 'temp': 25.16, 'thr3': 35.0, 'depth': 0.119, 'time': 41.92, 'thr2': 31.0, 'yaw': -12.0, 'thr0': 27.0, 'thr1': 27.0}
{'lipoC3S3': 0.0, 'datetime': '2019-02-27 10:21:56.137847', 'pitch': -1.18, 'rot1': 0, 'rot0': 0, 'rot3': 0, 'rot2': 0, 'state': 'normal', 'flw3': 11, 'flw2': 20, 'flw1': 22, 'flw0': 17, 'roll': -0.13, 'cur2': 0.0, 'cur0': 0.0, 'cur1': 0.0, 'mgs': 0, 'compass': 10.75, 'lipoC2': 0.0, 'temp': 25.16, 'thr3': 35.0, 'depth': 0.119, 'time': 42.24, 'thr2': 31.0, 'yaw': -11.96, 'thr0': 26.0, 'thr1': 27.0}
{'lipoC3S3': 0.0, 'datetime': '2019-02-27 10:21:56.461695', 'pitch': -1.21, 'rot1': 0, 'rot0': 0, 'rot3': 0, 'rot2': 0, 'state': 'normal', 'flw3': 11, 'flw2': 20, 'flw1': 22, 'flw0': 17, 'roll': -0.18, 'cur2': 0.0, 'cur0': 0.0, 'cur1': 0.0, 'mgs': 0, 'compass': 10.7, 'lipoC2': 0.0, 'temp': 25.16, 'thr3': 35.0, 'depth': 0.119, 'time': 42.57, 'thr2': 31.0, 'yaw': -12.01, 'thr0': 27.0, 'thr1': 27.0}
{'lipoC3S3': 0.0, 'datetime': '2019-02-27 10:21:56.785956', 'pitch': -1.24, 'rot1': 0, 'rot0': 0, 'rot3': 0, 'rot2': 0, 'state': 'normal', 'flw3': 11, 'flw2': 20, 'flw1': 22, 'flw0': 17, 'roll': -0.22, 'cur2': 0.0, 'cur0': 0.0, 'cur1': 0.0, 'mgs': 0, 'compass': 10.7, 'lipoC2': 0.0, 'temp': 25.16, 'thr3': 35.0, 'depth': 0.119, 'time': 42.89, 'thr2': 31.0, 'yaw': -12.01, 'thr0': 26.0, 'thr1': 27.0}
{'lipoC3S3': 0.0, 'datetime': '2019-02-27 10:21:57.110383', 'pitch': -1.24, 'rot1': 0, 'rot0': 0, 'rot3': 0, 'rot2': 0, 'state': 'normal', 'flw3': 11, 'flw2': 20, 'flw1': 22, 'flw0': 17, 'roll': -0.19, 'cur2': 0.0, 'cur0': 0.0, 'cur1': 0.0, 'mgs': 0, 'compass': 10.7, 'lipoC2': 0.0, 'temp': 25.16, 'thr3': 35.0, 'depth': 0.129, 'time': 43.22, 'thr2': 31.0, 'yaw': -12.01, 'thr0': 26.0, 'thr1': 27.0}
{'lipoC3S3': 0.0, 'datetime': '2019-02-27 10:21:57.434125', 'pitch': -1.3, 'rot1': 0, 'rot0': 0, 'rot3': 0, 'rot2': 0, 'state': 'normal', 'flw3': 11, 'flw2': 20, 'flw1': 22, 'flw0': 17, 'roll': -0.24, 'cur2': 0.0, 'cur0': 0.0, 'cur1': 0.0, 'mgs': 0, 'compass': 10.7, 'lipoC2': 0.0, 'temp': 25.16, 'thr3': 35.0, 'depth': 0.119, 'time': 43.54, 'thr2': 31.0, 'yaw': -12.01, 'thr0': 26.0, 'thr1': 27.0}
{'lipoC3S3': 0.0, 'datetime': '2019-02-27 10:21:57.756921', 'pitch': -1.34, 'rot1': 0, 'rot0': 0, 'rot3': 0, 'rot2': 0, 'state': 'normal', 'flw3': 11, 'flw2': 20, 'flw1': 22, 'flw0': 17, 'roll': -0.24, 'cur2': 0.0, 'cur0': 0.0, 'cur1': 0.0, 'mgs': 0, 'compass': 10.7, 'lipoC2': 0.0, 'temp': 25.16, 'thr3': 35.0, 'depth': 0.119, 'time': 43.86, 'thr2': 31.0, 'yaw': -12.01, 'thr0': 26.0, 'thr1': 27.0}
{'lipoC3S3': 0.0, 'datetime': '2019-02-27 10:21:58.079870', 'pitch': -1.36, 'rot1': 0, 'rot0': 0, 'rot3': 0, 'rot2': 0, 'state': 'normal', 'flw3': 11, 'flw2': 20, 'flw1': 22, 'flw0': 17, 'roll': -0.24, 'cur2': 0.0, 'cur0': 0.0, 'cur1': 0.0, 'mgs': 0, 'compass': 10.7, 'lipoC2': 0.0, 'temp': 25.16, 'thr3': 35.0, 'depth': 0.119, 'time': 44.18, 'thr2': 31.0, 'yaw': -12.01, 'thr0': 27.0, 'thr1': 27.0}
{'lipoC3S3': 0.0, 'datetime': '2019-02-27 10:21:58.403680', 'pitch': -1.36, 'rot1': 0, 'rot0': 0, 'rot3': 0, 'rot2': 0, 'state': 'normal', 'flw3': 11, 'flw2': 20, 'flw1': 22, 'flw0': 17, 'roll': -0.24, 'cur2': 0.0, 'cur0': 0.0, 'cur1': 0.0, 'mgs': 0, 'compass': 10.7, 'lipoC2': 0.0, 'temp': 25.16, 'thr3': 35.0, 'depth': 0.119, 'time': 44.51, 'thr2': 31.0, 'yaw': -12.01, 'thr0': 26.0, 'thr1': 27.0}
{'lipoC3S3': 0.0, 'datetime': '2019-02-27 10:21:58.729759', 'pitch': -1.36, 'rot1': 0, 'rot0': 0, 'rot3': 0, 'rot2': 0, 'state': 'normal', 'flw3': 11, 'flw2': 20, 'flw1': 22, 'flw0': 17, 'roll': -0.24, 'cur2': 0.0, 'cur0': 0.0, 'cur1': 0.0, 'mgs': 0, 'compass': 10.7, 'lipoC2': 0.0, 'temp': 25.16, 'thr3': 35.0, 'depth': 0.119, 'time': 44.83, 'thr2': 31.0, 'yaw': -12.01, 'thr0': 26.0, 'thr1': 27.0}
{'lipoC3S3': 0.0, 'datetime': '2019-02-27 10:21:59.052949', 'pitch': -1.36, 'rot1': 0, 'rot0': 0, 'rot3': 0, 'rot2': 0, 'state': 'normal', 'flw3': 11, 'flw2': 20, 'flw1': 22, 'flw0': 17, 'roll': -0.24, 'cur2': 0.0, 'cur0': 0.0, 'cur1': 0.0, 'mgs': 0, 'compass': 10.7, 'lipoC2': 0.0, 'temp': 25.16, 'thr3': 35.0, 'depth': 0.119, 'time': 45.15, 'thr2': 31.0, 'yaw': -12.01, 'thr0': 26.0, 'thr1': 27.0}
{'lipoC3S3': 0.0, 'datetime': '2019-02-27 10:21:59.375208', 'pitch': -1.36, 'rot1': 0, 'rot0': 0, 'rot3': 0, 'rot2': 0, 'state': 'normal', 'flw3': 11, 'flw2': 20, 'flw1': 22, 'flw0': 17, 'roll': -0.24, 'cur2': 0.0, 'cur0': 0.0, 'cur1': 0.0, 'mgs': 0, 'compass': 10.7, 'lipoC2': 0.0, 'temp': 25.16, 'thr3': 35.0, 'depth': 0.119, 'time': 45.48, 'thr2': 31.0, 'yaw': -12.01, 'thr0': 26.0, 'thr1': 27.0}
{'lipoC3S3': 0.0, 'datetime': '2019-02-27 10:21:59.699259', 'pitch': -1.36, 'rot1': 0, 'rot0': 0, 'rot3': 0, 'rot2': 0, 'state': 'normal', 'flw3': 11, 'flw2': 20, 'flw1': 22, 'flw0': 17, 'roll': -0.24, 'cur2': 0.0, 'cur0': 0.0, 'cur1': 0.0, 'mgs': 0, 'compass': 10.7, 'lipoC2': 0.0, 'temp': 25.16, 'thr3': 35.0, 'depth': 0.119, 'time': 45.8, 'thr2': 31.0, 'yaw': -12.01, 'thr0': 26.0, 'thr1': 27.0}
{'lipoC3S3': 0.0, 'datetime': '2019-02-27 10:22:00.023741', 'pitch': -1.36, 'rot1': 0, 'rot0': 0, 'rot3': 0, 'rot2': 0, 'state': 'normal', 'flw3': 11, 'flw2': 20, 'flw1': 22, 'flw0': 17, 'roll': -0.24, 'cur2': 0.0, 'cur0': 0.0, 'cur1': 0.0, 'mgs': 0, 'compass': 10.7, 'lipoC2': 0.0, 'temp': 25.16, 'thr3': 35.0, 'depth': 0.119, 'time': 46.13, 'thr2': 31.0, 'yaw': -12.01, 'thr0': 26.0, 'thr1': 27.0}
{'lipoC3S3': 0.0, 'datetime': '2019-02-27 10:22:00.349322', 'pitch': -1.36, 'rot1': 0, 'rot0': 0, 'rot3': 0, 'rot2': 0, 'state': 'normal', 'flw3': 11, 'flw2': 20, 'flw1': 22, 'flw0': 17, 'roll': -0.24, 'cur2': 0.0, 'cur0': 0.0, 'cur1': 0.0, 'mgs': 0, 'compass': 10.7, 'lipoC2': 0.0, 'temp': 25.16, 'thr3': 35.0, 'depth': 0.119, 'time': 46.45, 'thr2': 31.0, 'yaw': -12.01, 'thr0': 26.0, 'thr1': 27.0}
{'lipoC3S3': 0.0, 'datetime': '2019-02-27 10:22:00.672504', 'pitch': -1.36, 'rot1': 0, 'rot0': 0, 'rot3': 0, 'rot2': 0, 'state': 'normal', 'flw3': 11, 'flw2': 20, 'flw1': 22, 'flw0': 17, 'roll': -0.24, 'cur2': 0.0, 'cur0': 0.0, 'cur1': 0.0, 'mgs': 0, 'compass': 10.7, 'lipoC2': 0.0, 'temp': 25.16, 'thr3': 35.0, 'depth': 0.119, 'time': 46.77, 'thr2': 31.0, 'yaw': -12.01, 'thr0': 26.0, 'thr1': 27.0}
{'lipoC3S3': 0.0, 'datetime': '2019-02-27 10:22:00.995501', 'pitch': -1.36, 'rot1': 0, 'rot0': 0, 'rot3': 0, 'rot2': 0, 'state': 'normal', 'flw3': 11, 'flw2': 20, 'flw1': 22, 'flw0': 17, 'roll': -0.24, 'cur2': 0.0, 'cur0': 0.0, 'cur1': 0.0, 'mgs': 0, 'compass': 10.7, 'lipoC2': 0.0, 'temp': 25.16, 'thr3': 35.0, 'depth': 0.119, 'time': 47.09, 'thr2': 31.0, 'yaw': -12.01, 'thr0': 26.0, 'thr1': 27.0}
{'lipoC3S3': 0.0, 'datetime': '2019-02-27 10:22:01.318039', 'pitch': -1.36, 'rot1': 0, 'rot0': 0, 'rot3': 0, 'rot2': 0, 'state': 'normal', 'flw3': 11, 'flw2': 20, 'flw1': 22, 'flw0': 17, 'roll': -0.24, 'cur2': 0.0, 'cur0': 0.0, 'cur1': 0.0, 'mgs': 0, 'compass': 10.7, 'lipoC2': 0.0, 'temp': 25.16, 'thr3': 35.0, 'depth': 0.119, 'time': 47.42, 'thr2': 31.0, 'yaw': -12.01, 'thr0': 26.0, 'thr1': 27.0}
{'lipoC3S3': 0.0, 'datetime': '2019-02-27 10:22:01.643534', 'pitch': -1.36, 'rot1': 0, 'rot0': 0, 'rot3': 0, 'rot2': 0, 'state': 'normal', 'flw3': 11, 'flw2': 20, 'flw1': 22, 'flw0': 17, 'roll': -0.24, 'cur2': 0.0, 'cur0': 0.0, 'cur1': 0.0, 'mgs': 0, 'compass': 10.7, 'lipoC2': 0.0, 'temp': 25.16, 'thr3': 35.0, 'depth': 0.119, 'time': 47.74, 'thr2': 31.0, 'yaw': -12.01, 'thr0': 26.0, 'thr1': 27.0}
{'lipoC3S3': 0.0, 'datetime': '2019-02-27 10:22:01.967886', 'pitch': -1.36, 'rot1': 0, 'rot0': 0, 'rot3': 0, 'rot2': 0, 'state': 'normal', 'flw3': 11, 'flw2': 20, 'flw1': 22, 'flw0': 17, 'roll': -0.24, 'cur2': 0.0, 'cur0': 0.0, 'cur1': 0.0, 'mgs': 0, 'compass': 10.7, 'lipoC2': 0.0, 'temp': 25.16, 'thr3': 35.0, 'depth': 0.119, 'time': 48.06, 'thr2': 31.0, 'yaw': -12.01, 'thr0': 26.0, 'thr1': 27.0}
{'lipoC3S3': 0.0, 'datetime': '2019-02-27 10:22:02.291451', 'pitch': -1.36, 'rot1': 0, 'rot0': 0, 'rot3': 0, 'rot2': 0, 'state': 'normal', 'flw3': 11, 'flw2': 20, 'flw1': 22, 'flw0': 17, 'roll': -0.24, 'cur2': 0.0, 'cur0': 0.0, 'cur1': 0.0, 'mgs': 0, 'compass': 10.7, 'lipoC2': 0.0, 'temp': 25.16, 'thr3': 35.0, 'depth': 0.119, 'time': 48.39, 'thr2': 31.0, 'yaw': -12.01, 'thr0': 26.0, 'thr1': 27.0}
{'lipoC3S3': 0.0, 'datetime': '2019-02-27 10:22:02.614332', 'pitch': -1.36, 'rot1': 0, 'rot0': 0, 'rot3': 0, 'rot2': 0, 'state': 'normal', 'flw3': 11, 'flw2': 20, 'flw1': 22, 'flw0': 17, 'roll': -0.24, 'cur2': 0.0, 'cur0': 0.0, 'cur1': 0.0, 'mgs': 0, 'compass': 10.7, 'lipoC2': 0.0, 'temp': 25.17, 'thr3': 35.0, 'depth': 0.119, 'time': 48.71, 'thr2': 31.0, 'yaw': -12.01, 'thr0': 26.0, 'thr1': 27.0}
{'lipoC3S3': 0.0, 'datetime': '2019-02-27 10:22:02.937554', 'pitch': -1.38, 'rot1': 0, 'rot0': 0, 'rot3': 0, 'rot2': 0, 'state': 'normal', 'flw3': 11, 'flw2': 20, 'flw1': 22, 'flw0': 17, 'roll': -0.25, 'cur2': 0.0, 'cur0': 0.0, 'cur1': 0.0, 'mgs': 0, 'compass': 10.7, 'lipoC2': 0.0, 'temp': 25.17, 'thr3': 35.0, 'depth': 0.129, 'time': 49.03, 'thr2': 31.0, 'yaw': -12.01, 'thr0': 26.0, 'thr1': 27.0}
{'lipoC3S3': 0.0, 'datetime': '2019-02-27 10:22:03.260793', 'pitch': -1.41, 'rot1': 0, 'rot0': 0, 'rot3': 0, 'rot2': 0, 'state': 'normal', 'flw3': 11, 'flw2': 20, 'flw1': 22, 'flw0': 17, 'roll': -0.25, 'cur2': 0.0, 'cur0': 0.0, 'cur1': 0.0, 'mgs': 0, 'compass': 10.7, 'lipoC2': 0.0, 'temp': 25.17, 'thr3': 35.0, 'depth': 0.119, 'time': 49.36, 'thr2': 31.0, 'yaw': -12.01, 'thr0': 26.0, 'thr1': 27.0}
{'lipoC3S3': 0.0, 'datetime': '2019-02-27 10:22:03.586436', 'pitch': -1.47, 'rot1': 0, 'rot0': 0, 'rot3': 0, 'rot2': 0, 'state': 'normal', 'flw3': 11, 'flw2': 20, 'flw1': 22, 'flw0': 17, 'roll': -0.25, 'cur2': 0.0, 'cur0': 0.0, 'cur1': 0.0, 'mgs': 0, 'compass': 10.7, 'lipoC2': 0.0, 'temp': 25.17, 'thr3': 35.0, 'depth': 0.119, 'time': 49.68, 'thr2': 31.0, 'yaw': -12.01, 'thr0': 26.0, 'thr1': 27.0}
