{'lipoC2': 7.25, 'temp': 0.0, 'lipoC3S3': 11.3, 'state': 'normal', 'rot1': 0, 'rot0': 0, 'rot3': 0, 'rot2': 0, 'depth': -1.437, 'yaw': 0.0, 'datetime': '2018-12-12 14:52:41.477836', 'mgs': 0, 'flw2': 0.0, 'flw1': 0.23, 'flw0': 0.0, 'time': 1.26, 'compass': -16.64, 'pitch': -4.14, 'roll': -0.77}
{'lipoC2': 7.27, 'temp': 0.0, 'lipoC3S3': 11.46, 'state': 'normal', 'rot1': 0, 'rot0': 0, 'rot3': 0, 'rot2': 0, 'depth': 0.546, 'yaw': 0.55, 'datetime': '2018-12-12 14:52:41.685937', 'mgs': 0, 'flw2': 0.26, 'flw1': 0.0, 'flw0': 0.0, 'time': 1.46, 'compass': -16.09, 'pitch': -4.73, 'roll': -1.16}
{'lipoC2': 7.33, 'temp': 0.0, 'lipoC3S3': 11.03, 'state': 'normal', 'rot1': 0, 'rot0': 0, 'rot3': 0, 'rot2': 0, 'depth': 0.47, 'yaw': 1.1, 'datetime': '2018-12-12 14:52:41.894040', 'mgs': 0, 'flw2': 0.16, 'flw1': 0.0, 'flw0': 0.0, 'time': 1.67, 'compass': -15.54, 'pitch': -4.36, 'roll': -1.53}
{'lipoC2': 7.07, 'temp': 0.0, 'lipoC3S3': 11.01, 'state': 'normal', 'rot1': 0, 'rot0': 0, 'rot3': 0, 'rot2': 0, 'depth': 1.462, 'yaw': 1.73, 'datetime': '2018-12-12 14:52:42.104542', 'mgs': 0, 'flw2': 0.0, 'flw1': 0.0, 'flw0': 0.0, 'time': 1.88, 'compass': -14.91, 'pitch': -3.33, 'roll': -1.46}
{'lipoC2': 7.25, 'temp': 0.0, 'lipoC3S3': 11.22, 'state': 'normal', 'rot1': 0, 'rot0': 0, 'rot3': 0, 'rot2': 0, 'depth': 1.233, 'yaw': 2.43, 'datetime': '2018-12-12 14:52:42.313133', 'mgs': 0, 'flw2': 0.0, 'flw1': 0.0, 'flw0': 0.0, 'time': 2.09, 'compass': -14.21, 'pitch': -3.1, 'roll': -1.08}
{'lipoC2': 7.08, 'temp': 0.0, 'lipoC3S3': 11.44, 'state': 'normal', 'rot1': 0, 'rot0': 0, 'rot3': 0, 'rot2': 0, 'depth': 0.317, 'yaw': 3.1, 'datetime': '2018-12-12 14:52:42.521507', 'mgs': 0, 'flw2': 0.0, 'flw1': 0.0, 'flw0': 0.0, 'time': 2.29, 'compass': -13.54, 'pitch': -3.96, 'roll': -0.89}
{'lipoC2': 7.09, 'temp': 0.0, 'lipoC3S3': 11.13, 'state': 'normal', 'rot1': 0, 'rot0': 0, 'rot3': 0, 'rot2': 0, 'depth': -0.903, 'yaw': 3.87, 'datetime': '2018-12-12 14:52:42.729761', 'mgs': 0, 'flw2': 0.13, 'flw1': 0.0, 'flw0': 0.0, 'time': 2.5, 'compass': -12.77, 'pitch': -4.53, 'roll': -0.95}
{'lipoC2': 7.3, 'temp': 0.0, 'lipoC3S3': 11.06, 'state': 'normal', 'rot1': 0, 'rot0': 0, 'rot3': 0, 'rot2': 0, 'depth': -0.369, 'yaw': 4.71, 'datetime': '2018-12-12 14:52:42.937126', 'mgs': 0, 'flw2': 0.34, 'flw1': 0.0, 'flw0': 0.0, 'time': 2.71, 'compass': -11.93, 'pitch': -4.25, 'roll': -1.22}
{'lipoC2': 7.1, 'temp': 0.0, 'lipoC3S3': 11.34, 'state': 'normal', 'rot1': 0, 'rot0': 0, 'rot3': 0, 'rot2': 0, 'depth': -0.446, 'yaw': 5.57, 'datetime': '2018-12-12 14:52:43.147110', 'mgs': 0, 'flw2': 0.0, 'flw1': 0.0, 'flw0': 0.0, 'time': 2.92, 'compass': -11.06, 'pitch': -3.89, 'roll': -1.35}
{'lipoC2': 7.19, 'temp': 0.0, 'lipoC3S3': 10.94, 'state': 'normal', 'rot1': 3, 'rot0': 3, 'rot3': 0, 'rot2': 0, 'depth': -0.98, 'yaw': 4.42, 'datetime': '2018-12-12 14:52:43.453987', 'mgs': 0, 'flw2': 2.77, 'flw1': 0.0, 'flw0': 3.26, 'time': 3.23, 'compass': -12.22, 'pitch': -3.41, 'roll': -2.0}
{'lipoC2': 7.06, 'temp': 0.0, 'lipoC3S3': 11.15, 'state': 'normal', 'rot1': 5, 'rot0': 5, 'rot3': 0, 'rot2': 0, 'depth': -0.674, 'yaw': -1.99, 'datetime': '2018-12-12 14:52:43.660601', 'mgs': 0, 'flw2': 2.56, 'flw1': 0.79, 'flw0': 2.73, 'time': 3.44, 'compass': -18.63, 'pitch': -2.76, 'roll': -3.34}
{'lipoC2': 7.08, 'temp': 0.0, 'lipoC3S3': 11.18, 'state': 'normal', 'rot1': 8, 'rot0': 8, 'rot3': 0, 'rot2': 0, 'depth': -0.369, 'yaw': -11.59, 'datetime': '2018-12-12 14:52:43.868443', 'mgs': 0, 'flw2': 2.08, 'flw1': 0.0, 'flw0': 2.87, 'time': 3.64, 'compass': -28.23, 'pitch': -2.43, 'roll': -4.59}
{'lipoC2': 7.37, 'temp': 0.0, 'lipoC3S3': 10.98, 'state': 'normal', 'rot1': 11, 'rot0': 10, 'rot3': 0, 'rot2': 0, 'depth': -0.903, 'yaw': -22.36, 'datetime': '2018-12-12 14:52:44.078154', 'mgs': 0, 'flw2': 1.84, 'flw1': 0.0, 'flw0': 1.76, 'time': 3.85, 'compass': -39.0, 'pitch': -2.22, 'roll': -4.95}
{'lipoC2': 7.52, 'temp': 0.0, 'lipoC3S3': 11.0, 'state': 'normal', 'rot1': 14, 'rot0': 13, 'rot3': 0, 'rot2': 0, 'depth': 1.385, 'yaw': -32.64, 'datetime': '2018-12-12 14:52:44.286864', 'mgs': 0, 'flw2': 1.07, 'flw1': 0.56, 'flw0': 1.31, 'time': 4.06, 'compass': -49.28, 'pitch': -1.93, 'roll': -4.48}
{'lipoC2': 7.14, 'temp': 0.0, 'lipoC3S3': 10.97, 'state': 'normal', 'rot1': 16, 'rot0': 14, 'rot3': 0, 'rot2': 0, 'depth': 0.012, 'yaw': -43.17, 'datetime': '2018-12-12 14:52:44.499066', 'mgs': 0, 'flw2': 0.87, 'flw1': 0.0, 'flw0': 0.96, 'time': 4.27, 'compass': -59.81, 'pitch': -1.41, 'roll': -3.79}
{'lipoC2': 7.24, 'temp': 0.0, 'lipoC3S3': 11.0, 'state': 'normal', 'rot1': 18, 'rot0': 16, 'rot3': 0, 'rot2': 0, 'depth': -1.285, 'yaw': -53.12, 'datetime': '2018-12-12 14:52:44.707171', 'mgs': 0, 'flw2': 0.55, 'flw1': 0.29, 'flw0': 0.48, 'time': 4.48, 'compass': -69.76, 'pitch': -0.72, 'roll': -3.44}
{'lipoC2': 7.32, 'temp': 0.0, 'lipoC3S3': 11.14, 'state': 'normal', 'rot1': 20, 'rot0': 17, 'rot3': 0, 'rot2': 0, 'depth': -0.674, 'yaw': -62.34, 'datetime': '2018-12-12 14:52:44.916676', 'mgs': 0, 'flw2': 0.34, 'flw1': 0.44, 'flw0': 0.52, 'time': 4.69, 'compass': -78.98, 'pitch': -0.14, 'roll': -3.64}
{'lipoC2': 7.22, 'temp': 0.0, 'lipoC3S3': 10.86, 'state': 'normal', 'rot1': 21, 'rot0': 18, 'rot3': 0, 'rot2': 0, 'depth': -1.514, 'yaw': -70.84, 'datetime': '2018-12-12 14:52:45.122531', 'mgs': 0, 'flw2': 0.26, 'flw1': 0.0, 'flw0': 0.57, 'time': 4.9, 'compass': -87.48, 'pitch': 0.15, 'roll': -3.97}
{'lipoC2': 7.23, 'temp': 0.0, 'lipoC3S3': 11.19, 'state': 'normal', 'rot1': 23, 'rot0': 19, 'rot3': 0, 'rot2': 0, 'depth': 1.233, 'yaw': -78.34, 'datetime': '2018-12-12 14:52:45.334266', 'mgs': 0, 'flw2': 0.1, 'flw1': 0.0, 'flw0': 0.26, 'time': 5.11, 'compass': -94.98, 'pitch': 0.33, 'roll': -4.2}
{'lipoC2': 7.09, 'temp': 0.0, 'lipoC3S3': 11.0, 'state': 'normal', 'rot1': 24, 'rot0': 20, 'rot3': 0, 'rot2': 0, 'depth': -0.674, 'yaw': -85.75, 'datetime': '2018-12-12 14:52:45.543084', 'mgs': 0, 'flw2': 0.24, 'flw1': 0.0, 'flw0': 0.48, 'time': 5.32, 'compass': -102.39, 'pitch': 0.85, 'roll': -4.23}
{'lipoC2': 7.35, 'temp': 0.0, 'lipoC3S3': 11.09, 'state': 'normal', 'rot1': 25, 'rot0': 21, 'rot3': 0, 'rot2': 0, 'depth': 0.394, 'yaw': -92.87, 'datetime': '2018-12-12 14:52:45.752682', 'mgs': 0, 'flw2': 0.0, 'flw1': 0.0, 'flw0': 0.0, 'time': 5.53, 'compass': -109.5, 'pitch': 1.48, 'roll': -3.94}
{'lipoC2': 7.26, 'temp': 0.0, 'lipoC3S3': 11.19, 'state': 'normal', 'rot1': 25, 'rot0': 21, 'rot3': 0, 'rot2': 0, 'depth': -0.217, 'yaw': -99.2, 'datetime': '2018-12-12 14:52:45.962067', 'mgs': 0, 'flw2': 0.0, 'flw1': 0.0, 'flw0': 0.0, 'time': 5.74, 'compass': -115.84, 'pitch': 2.18, 'roll': -3.36}
{'lipoC2': 7.06, 'temp': 0.0, 'lipoC3S3': 11.18, 'state': 'normal', 'rot1': 26, 'rot0': 24, 'rot3': 0, 'rot2': 0, 'depth': -1.056, 'yaw': -104.55, 'datetime': '2018-12-12 14:52:46.170390', 'mgs': 0, 'flw2': 2.44, 'flw1': 0.0, 'flw0': 0.62, 'time': 5.94, 'compass': -121.19, 'pitch': 3.12, 'roll': -2.74}
{'lipoC2': 7.42, 'temp': 0.0, 'lipoC3S3': 10.97, 'state': 'normal', 'rot1': 28, 'rot0': 26, 'rot3': 0, 'rot2': 0, 'depth': 0.775, 'yaw': -107.47, 'datetime': '2018-12-12 14:52:46.385912', 'mgs': 0, 'flw2': 2.48, 'flw1': 0.53, 'flw0': 0.54, 'time': 6.15, 'compass': -124.11, 'pitch': 4.8, 'roll': -2.43}
{'lipoC2': 7.09, 'temp': 0.0, 'lipoC3S3': 11.1, 'state': 'normal', 'rot1': 29, 'rot0': 29, 'rot3': 0, 'rot2': 0, 'depth': -0.751, 'yaw': -108.6, 'datetime': '2018-12-12 14:52:46.591848', 'mgs': 0, 'flw2': 2.48, 'flw1': 0.0, 'flw0': 0.57, 'time': 6.36, 'compass': -125.24, 'pitch': 5.01, 'roll': -2.33}
{'lipoC2': 7.21, 'temp': 0.0, 'lipoC3S3': 11.48, 'state': 'normal', 'rot1': 30, 'rot0': 31, 'rot3': 0, 'rot2': 0, 'depth': -0.674, 'yaw': -108.06, 'datetime': '2018-12-12 14:52:46.809658', 'mgs': 0, 'flw2': 2.38, 'flw1': 0.67, 'flw0': 0.38, 'time': 6.57, 'compass': -124.7, 'pitch': 3.9, 'roll': -2.26}
{'lipoC2': 7.1, 'temp': 0.0, 'lipoC3S3': 11.17, 'state': 'normal', 'rot1': 32, 'rot0': 33, 'rot3': 0, 'rot2': 0, 'depth': 1.767, 'yaw': -106.37, 'datetime': '2018-12-12 14:52:47.015310', 'mgs': 0, 'flw2': 2.25, 'flw1': 0.0, 'flw0': 0.67, 'time': 6.78, 'compass': -123.01, 'pitch': 3.8, 'roll': -2.3}
{'lipoC2': 7.09, 'temp': 0.0, 'lipoC3S3': 10.97, 'state': 'normal', 'rot1': 33, 'rot0': 35, 'rot3': 0, 'rot2': 0, 'depth': 1.92, 'yaw': -104.03, 'datetime': '2018-12-12 14:52:47.222946', 'mgs': 0, 'flw2': 2.49, 'flw1': 0.0, 'flw0': 0.78, 'time': 6.99, 'compass': -120.67, 'pitch': 5.09, 'roll': -2.72}
{'lipoC2': 7.29, 'temp': 0.0, 'lipoC3S3': 11.46, 'state': 'normal', 'rot1': 35, 'rot0': 38, 'rot3': 0, 'rot2': 0, 'depth': -0.827, 'yaw': -101.25, 'datetime': '2018-12-12 14:52:47.431959', 'mgs': 0, 'flw2': 2.73, 'flw1': 0.0, 'flw0': 0.65, 'time': 7.2, 'compass': -117.88, 'pitch': 5.44, 'roll': -3.04}
{'lipoC2': 7.29, 'temp': 0.0, 'lipoC3S3': 11.18, 'state': 'normal', 'rot1': 36, 'rot0': 40, 'rot3': 0, 'rot2': 0, 'depth': -0.369, 'yaw': -98.03, 'datetime': '2018-12-12 14:52:47.642266', 'mgs': 0, 'flw2': 2.69, 'flw1': 0.0, 'flw0': 0.43, 'time': 7.41, 'compass': -114.67, 'pitch': 3.98, 'roll': -2.95}
{'lipoC2': 7.06, 'temp': 0.0, 'lipoC3S3': 10.96, 'state': 'normal', 'rot1': 37, 'rot0': 42, 'rot3': 0, 'rot2': 0, 'depth': 1.004, 'yaw': -94.66, 'datetime': '2018-12-12 14:52:47.861413', 'mgs': 0, 'flw2': 2.44, 'flw1': 0.53, 'flw0': 0.49, 'time': 7.62, 'compass': -111.3, 'pitch': 2.69, 'roll': -2.93}
{'lipoC2': 7.09, 'temp': 0.0, 'lipoC3S3': 11.07, 'state': 'normal', 'rot1': 39, 'rot0': 45, 'rot3': 0, 'rot2': 0, 'depth': -0.674, 'yaw': -91.29, 'datetime': '2018-12-12 14:52:48.062877', 'mgs': 0, 'flw2': 2.34, 'flw1': 0.0, 'flw0': 2.82, 'time': 7.83, 'compass': -107.93, 'pitch': 2.77, 'roll': -3.09}
{'lipoC2': 7.34, 'temp': 0.0, 'lipoC3S3': 11.18, 'state': 'normal', 'rot1': 42, 'rot0': 47, 'rot3': 0, 'rot2': 0, 'depth': -0.598, 'yaw': -89.27, 'datetime': '2018-12-12 14:52:48.275965', 'mgs': 0, 'flw2': 2.44, 'flw1': 0.0, 'flw0': 2.97, 'time': 8.04, 'compass': -105.9, 'pitch': 3.97, 'roll': -3.2}
{'lipoC2': 7.28, 'temp': 0.0, 'lipoC3S3': 11.0, 'state': 'normal', 'rot1': 42, 'rot0': 47, 'rot3': 0, 'rot2': 0, 'depth': -0.674, 'yaw': -88.05, 'datetime': '2018-12-12 14:52:48.478417', 'mgs': 0, 'flw2': 0.0, 'flw1': 0.0, 'flw0': 0.0, 'time': 8.24, 'compass': -104.69, 'pitch': 3.95, 'roll': -3.59}
{'lipoC2': 7.22, 'temp': 0.0, 'lipoC3S3': 10.89, 'state': 'normal', 'rot1': 42, 'rot0': 47, 'rot3': 0, 'rot2': 0, 'depth': -0.827, 'yaw': -86.98, 'datetime': '2018-12-12 14:52:48.690465', 'mgs': 0, 'flw2': 0.0, 'flw1': 0.0, 'flw0': 0.0, 'time': 8.45, 'compass': -103.62, 'pitch': 1.23, 'roll': -4.36}
{'lipoC2': 7.29, 'temp': 0.0, 'lipoC3S3': 11.26, 'state': 'normal', 'rot1': 42, 'rot0': 47, 'rot3': 0, 'rot2': 0, 'depth': -1.208, 'yaw': -85.82, 'datetime': '2018-12-12 14:52:48.895652', 'mgs': 0, 'flw2': 0.0, 'flw1': 0.0, 'flw0': 0.28, 'time': 8.66, 'compass': -102.46, 'pitch': -0.31, 'roll': -4.72}
{'lipoC2': 7.29, 'temp': 0.0, 'lipoC3S3': 10.84, 'state': 'normal', 'rot1': 44, 'rot0': 48, 'rot3': 0, 'rot2': 0, 'depth': -0.903, 'yaw': -84.97, 'datetime': '2018-12-12 14:52:49.102935', 'mgs': 0, 'flw2': 0.54, 'flw1': 0.0, 'flw0': 2.82, 'time': 8.87, 'compass': -101.61, 'pitch': 0.28, 'roll': -4.49}
{'lipoC2': 7.26, 'temp': 0.0, 'lipoC3S3': 10.88, 'state': 'normal', 'rot1': 47, 'rot0': 50, 'rot3': 0, 'rot2': 0, 'depth': 0.394, 'yaw': -85.92, 'datetime': '2018-12-12 14:52:49.312854', 'mgs': 0, 'flw2': 0.92, 'flw1': 0.0, 'flw0': 2.72, 'time': 9.08, 'compass': -102.55, 'pitch': 2.61, 'roll': -4.37}
{'lipoC2': 7.1, 'temp': 0.0, 'lipoC3S3': 10.94, 'state': 'normal', 'rot1': 49, 'rot0': 51, 'rot3': 0, 'rot2': 0, 'depth': -0.522, 'yaw': -88.33, 'datetime': '2018-12-12 14:52:49.523897', 'mgs': 0, 'flw2': 0.9, 'flw1': 0.0, 'flw0': 2.55, 'time': 9.29, 'compass': -104.97, 'pitch': 3.35, 'roll': -4.21}
{'lipoC2': 7.21, 'temp': 0.0, 'lipoC3S3': 10.82, 'state': 'normal', 'rot1': 52, 'rot0': 53, 'rot3': 0, 'rot2': 0, 'depth': -0.217, 'yaw': -91.67, 'datetime': '2018-12-12 14:52:49.740250', 'mgs': 0, 'flw2': 2.58, 'flw1': 0.0, 'flw0': 2.94, 'time': 9.5, 'compass': -108.31, 'pitch': 2.56, 'roll': -4.05}
{'lipoC2': 7.33, 'temp': 0.0, 'lipoC3S3': 10.9, 'state': 'normal', 'rot1': 54, 'rot0': 55, 'rot3': 0, 'rot2': 0, 'depth': 0.317, 'yaw': -94.37, 'datetime': '2018-12-12 14:52:49.946674', 'mgs': 0, 'flw2': 2.75, 'flw1': 0.0, 'flw0': 2.51, 'time': 9.71, 'compass': -111.0, 'pitch': 2.99, 'roll': -4.25}
{'lipoC2': 7.3, 'temp': 0.0, 'lipoC3S3': 11.03, 'state': 'normal', 'rot1': 57, 'rot0': 57, 'rot3': 0, 'rot2': 0, 'depth': 1.004, 'yaw': -96.11, 'datetime': '2018-12-12 14:52:50.157115', 'mgs': 0, 'flw2': 2.89, 'flw1': 0.0, 'flw0': 2.55, 'time': 9.92, 'compass': -112.75, 'pitch': 4.55, 'roll': -4.54}
{'lipoC2': 7.21, 'temp': 0.0, 'lipoC3S3': 10.76, 'state': 'normal', 'rot1': 59, 'rot0': 59, 'rot3': 0, 'rot2': 0, 'depth': -0.751, 'yaw': -97.31, 'datetime': '2018-12-12 14:52:50.363994', 'mgs': 0, 'flw2': 2.42, 'flw1': 0.0, 'flw0': 0.84, 'time': 10.13, 'compass': -113.95, 'pitch': 5.24, 'roll': -4.69}
{'lipoC2': 7.07, 'temp': 0.0, 'lipoC3S3': 11.21, 'state': 'normal', 'rot1': 60, 'rot0': 61, 'rot3': 0, 'rot2': 0, 'depth': -0.293, 'yaw': -96.67, 'datetime': '2018-12-12 14:52:50.573453', 'mgs': 0, 'flw2': 2.44, 'flw1': 0.0, 'flw0': 0.63, 'time': 10.34, 'compass': -113.31, 'pitch': 3.8, 'roll': -4.47}
{'lipoC2': 7.22, 'temp': 0.0, 'lipoC3S3': 10.86, 'state': 'normal', 'rot1': 62, 'rot0': 63, 'rot3': 0, 'rot2': 0, 'depth': -0.674, 'yaw': -94.48, 'datetime': '2018-12-12 14:52:50.782819', 'mgs': 0, 'flw2': 2.75, 'flw1': 0.0, 'flw0': 0.88, 'time': 10.55, 'compass': -111.12, 'pitch': 2.48, 'roll': -4.08}
{'lipoC2': 7.3, 'temp': 0.0, 'lipoC3S3': 10.98, 'state': 'normal', 'rot1': 63, 'rot0': 66, 'rot3': 0, 'rot2': 0, 'depth': -0.903, 'yaw': -91.49, 'datetime': '2018-12-12 14:52:50.994598', 'mgs': 0, 'flw2': 2.32, 'flw1': 0.0, 'flw0': 2.76, 'time': 10.76, 'compass': -108.13, 'pitch': 2.53, 'roll': -3.85}
{'lipoC2': 7.21, 'temp': 0.0, 'lipoC3S3': 11.31, 'state': 'normal', 'rot1': 64, 'rot0': 66, 'rot3': 0, 'rot2': 0, 'depth': 1.996, 'yaw': -89.36, 'datetime': '2018-12-12 14:52:51.203550', 'mgs': 0, 'flw2': 0.42, 'flw1': 0.32, 'flw0': 0.32, 'time': 10.96, 'compass': -106.0, 'pitch': 2.48, 'roll': -3.88}
{'lipoC2': 7.18, 'temp': 0.0, 'lipoC3S3': 11.27, 'state': 'normal', 'rot1': 65, 'rot0': 67, 'rot3': 0, 'rot2': 0, 'depth': 0.928, 'yaw': -88.49, 'datetime': '2018-12-12 14:52:51.406134', 'mgs': 0, 'flw2': 0.27, 'flw1': 0.0, 'flw0': 0.28, 'time': 11.17, 'compass': -105.13, 'pitch': 0.85, 'roll': -4.36}
{'lipoC2': 7.27, 'temp': 0.0, 'lipoC3S3': 11.19, 'state': 'normal', 'rot1': 66, 'rot0': 68, 'rot3': 0, 'rot2': 0, 'depth': 0.699, 'yaw': -88.57, 'datetime': '2018-12-12 14:52:51.616926', 'mgs': 0, 'flw2': 0.13, 'flw1': 0.0, 'flw0': 0.23, 'time': 11.38, 'compass': -105.21, 'pitch': -0.34, 'roll': -5.08}
{'lipoC2': 7.37, 'temp': 0.0, 'lipoC3S3': 11.21, 'state': 'normal', 'rot1': 66, 'rot0': 69, 'rot3': 0, 'rot2': 0, 'depth': 1.538, 'yaw': -89.18, 'datetime': '2018-12-12 14:52:51.826727', 'mgs': 0, 'flw2': 0.26, 'flw1': 0.32, 'flw0': 0.23, 'time': 11.59, 'compass': -105.82, 'pitch': -0.13, 'roll': -5.86}
{'lipoC2': 7.12, 'temp': 0.0, 'lipoC3S3': 11.18, 'state': 'normal', 'rot1': 67, 'rot0': 70, 'rot3': 0, 'rot2': 0, 'depth': -0.827, 'yaw': -90.21, 'datetime': '2018-12-12 14:52:52.040589', 'mgs': 0, 'flw2': 0.38, 'flw1': 0.0, 'flw0': 0.31, 'time': 11.8, 'compass': -106.85, 'pitch': 0.64, 'roll': -5.95}
{'lipoC2': 7.4, 'temp': 0.0, 'lipoC3S3': 10.98, 'state': 'normal', 'rot1': 68, 'rot0': 71, 'rot3': 0, 'rot2': 0, 'depth': 0.775, 'yaw': -91.62, 'datetime': '2018-12-12 14:52:52.249432', 'mgs': 0, 'flw2': 0.04, 'flw1': 0.0, 'flw0': 0.51, 'time': 12.01, 'compass': -108.26, 'pitch': 1.13, 'roll': -5.2}
{'lipoC2': 7.08, 'temp': 0.0, 'lipoC3S3': 11.09, 'state': 'normal', 'rot1': 69, 'rot0': 72, 'rot3': 0, 'rot2': 0, 'depth': 0.241, 'yaw': -93.32, 'datetime': '2018-12-12 14:52:52.458642', 'mgs': 0, 'flw2': 0.02, 'flw1': 0.0, 'flw0': 0.0, 'time': 12.22, 'compass': -109.96, 'pitch': 1.1, 'roll': -4.41}
{'lipoC2': 7.18, 'temp': 0.0, 'lipoC3S3': 11.29, 'state': 'normal', 'rot1': 69, 'rot0': 72, 'rot3': 0, 'rot2': 0, 'depth': -1.514, 'yaw': -94.77, 'datetime': '2018-12-12 14:52:52.667215', 'mgs': 0, 'flw2': 0.0, 'flw1': 0.56, 'flw0': 0.0, 'time': 12.43, 'compass': -111.41, 'pitch': 1.09, 'roll': -4.16}
{'lipoC2': 7.21, 'temp': 0.0, 'lipoC3S3': 10.96, 'state': 'normal', 'rot1': 71, 'rot0': 73, 'rot3': 0, 'rot2': 0, 'depth': -0.369, 'yaw': -96.23, 'datetime': '2018-12-12 14:52:52.875781', 'mgs': 0, 'flw2': 2.56, 'flw1': 0.0, 'flw0': 2.59, 'time': 12.64, 'compass': -112.87, 'pitch': 2.21, 'roll': -4.62}
{'lipoC2': 7.13, 'temp': 0.0, 'lipoC3S3': 11.15, 'state': 'normal', 'rot1': 73, 'rot0': 75, 'rot3': 0, 'rot2': 0, 'depth': -0.98, 'yaw': -97.61, 'datetime': '2018-12-12 14:52:53.088648', 'mgs': 0, 'flw2': 2.34, 'flw1': 0.0, 'flw0': 2.99, 'time': 12.85, 'compass': -114.25, 'pitch': 4.8, 'roll': -5.2}
{'lipoC2': 7.07, 'temp': 0.0, 'lipoC3S3': 10.96, 'state': 'normal', 'rot1': 76, 'rot0': 78, 'rot3': 0, 'rot2': 0, 'depth': -0.064, 'yaw': -98.82, 'datetime': '2018-12-12 14:52:53.296989', 'mgs': 0, 'flw2': 2.48, 'flw1': 0.03, 'flw0': 2.66, 'time': 13.05, 'compass': -115.46, 'pitch': 5.48, 'roll': -5.46}
{'lipoC2': 7.1, 'temp': 0.0, 'lipoC3S3': 11.31, 'state': 'normal', 'rot1': 78, 'rot0': 80, 'rot3': 0, 'rot2': 0, 'depth': -1.285, 'yaw': -99.99, 'datetime': '2018-12-12 14:52:53.504624', 'mgs': 0, 'flw2': 2.53, 'flw1': 0.0, 'flw0': 2.72, 'time': 13.26, 'compass': -116.63, 'pitch': 4.44, 'roll': -5.57}
{'lipoC2': 7.19, 'temp': 0.0, 'lipoC3S3': 10.89, 'state': 'normal', 'rot1': 81, 'rot0': 82, 'rot3': 0, 'rot2': 0, 'depth': 0.165, 'yaw': -100.99, 'datetime': '2018-12-12 14:52:53.712967', 'mgs': 0, 'flw2': 2.54, 'flw1': 0.0, 'flw0': 0.77, 'time': 13.47, 'compass': -117.63, 'pitch': 4.1, 'roll': -5.51}
{'lipoC2': 7.05, 'temp': 0.0, 'lipoC3S3': 11.11, 'state': 'normal', 'rot1': 82, 'rot0': 84, 'rot3': 0, 'rot2': 0, 'depth': -0.674, 'yaw': -100.64, 'datetime': '2018-12-12 14:52:53.921490', 'mgs': 0, 'flw2': 2.4, 'flw1': 0.44, 'flw0': 0.59, 'time': 13.68, 'compass': -117.27, 'pitch': 4.65, 'roll': -5.25}
{'lipoC2': 7.07, 'temp': 0.0, 'lipoC3S3': 10.96, 'state': 'normal', 'rot1': 83, 'rot0': 87, 'rot3': 0, 'rot2': 0, 'depth': 1.767, 'yaw': -98.92, 'datetime': '2018-12-12 14:52:54.132014', 'mgs': 0, 'flw2': 2.5, 'flw1': 0.5, 'flw0': 0.52, 'time': 13.89, 'compass': -115.56, 'pitch': 4.97, 'roll': -4.9}
{'lipoC2': 7.32, 'temp': 0.0, 'lipoC3S3': 11.17, 'state': 'normal', 'rot1': 85, 'rot0': 89, 'rot3': 0, 'rot2': 0, 'depth': 1.309, 'yaw': -96.45, 'datetime': '2018-12-12 14:52:54.341384', 'mgs': 0, 'flw2': 2.36, 'flw1': 0.0, 'flw0': 2.82, 'time': 14.1, 'compass': -113.09, 'pitch': 4.02, 'roll': -4.6}
{'lipoC2': 7.13, 'temp': 0.0, 'lipoC3S3': 11.43, 'state': 'normal', 'rot1': 87, 'rot0': 91, 'rot3': 0, 'rot2': 0, 'depth': 0.165, 'yaw': -94.78, 'datetime': '2018-12-12 14:52:54.551058', 'mgs': 0, 'flw2': 2.54, 'flw1': 0.0, 'flw0': 2.51, 'time': 14.31, 'compass': -111.42, 'pitch': 3.15, 'roll': -4.48}
{'lipoC2': 7.3, 'temp': 0.0, 'lipoC3S3': 11.01, 'state': 'normal', 'rot1': 89, 'rot0': 93, 'rot3': 0, 'rot2': 0, 'depth': -0.293, 'yaw': -94.0, 'datetime': '2018-12-12 14:52:54.760095', 'mgs': 0, 'flw2': 0.0, 'flw1': 0.5, 'flw0': 0.0, 'time': 14.52, 'compass': -110.64, 'pitch': 3.11, 'roll': -4.64}
{'lipoC2': 7.05, 'temp': 0.0, 'lipoC3S3': 11.32, 'state': 'normal', 'rot1': 89, 'rot0': 93, 'rot3': 0, 'rot2': 0, 'depth': -1.056, 'yaw': -93.5, 'datetime': '2018-12-12 14:52:54.971349', 'mgs': 0, 'flw2': 0.21, 'flw1': 0.0, 'flw0': 0.0, 'time': 14.73, 'compass': -110.14, 'pitch': 1.08, 'roll': -4.73}
{'lipoC2': 7.17, 'temp': 0.0, 'lipoC3S3': 11.39, 'state': 'normal', 'rot1': 89, 'rot0': 93, 'rot3': 0, 'rot2': 0, 'depth': -0.98, 'yaw': -93.08, 'datetime': '2018-12-12 14:52:55.182021', 'mgs': 0, 'flw2': 0.0, 'flw1': 0.0, 'flw0': 0.1, 'time': 14.94, 'compass': -109.72, 'pitch': -0.62, 'roll': -5.0}
{'lipoC2': 7.13, 'temp': 0.0, 'lipoC3S3': 11.27, 'state': 'normal', 'rot1': 89, 'rot0': 93, 'rot3': 0, 'rot2': 0, 'depth': -0.751, 'yaw': -92.59, 'datetime': '2018-12-12 14:52:55.386454', 'mgs': 0, 'flw2': 0.0, 'flw1': 0.0, 'flw0': 0.0, 'time': 15.14, 'compass': -109.23, 'pitch': -0.38, 'roll': -5.47}
{'lipoC2': 7.3, 'temp': 0.0, 'lipoC3S3': 10.96, 'state': 'normal', 'rot1': 89, 'rot0': 93, 'rot3': 0, 'rot2': 0, 'depth': 0.165, 'yaw': -92.16, 'datetime': '2018-12-12 14:52:55.595020', 'mgs': 0, 'flw2': 0.0, 'flw1': 0.0, 'flw0': 0.22, 'time': 15.35, 'compass': -108.8, 'pitch': 1.03, 'roll': -5.83}
{'lipoC2': 7.33, 'temp': 0.0, 'lipoC3S3': 11.05, 'state': 'normal', 'rot1': 89, 'rot0': 93, 'rot3': 0, 'rot2': 0, 'depth': -0.522, 'yaw': -91.78, 'datetime': '2018-12-12 14:52:55.805465', 'mgs': 0, 'flw2': 0.0, 'flw1': 0.47, 'flw0': 0.0, 'time': 15.56, 'compass': -108.42, 'pitch': 1.34, 'roll': -5.92}
{'lipoC2': 7.08, 'temp': 0.0, 'lipoC3S3': 11.21, 'state': 'normal', 'rot1': 89, 'rot0': 93, 'rot3': 0, 'rot2': 0, 'depth': -0.369, 'yaw': -91.42, 'datetime': '2018-12-12 14:52:56.014639', 'mgs': 0, 'flw2': 0.0, 'flw1': 0.0, 'flw0': 0.12, 'time': 15.77, 'compass': -108.06, 'pitch': 0.23, 'roll': -5.67}
{'lipoC2': 7.11, 'temp': 0.0, 'lipoC3S3': 11.31, 'state': 'normal', 'rot1': 89, 'rot0': 93, 'rot3': 0, 'rot2': 0, 'depth': -0.751, 'yaw': -91.19, 'datetime': '2018-12-12 14:52:56.224929', 'mgs': 0, 'flw2': 0.0, 'flw1': 0.47, 'flw0': 0.0, 'time': 15.98, 'compass': -107.83, 'pitch': -0.46, 'roll': -5.35}
{'lipoC2': 7.11, 'temp': 0.0, 'lipoC3S3': 11.3, 'state': 'normal', 'rot1': 89, 'rot0': 93, 'rot3': 0, 'rot2': 0, 'depth': -0.827, 'yaw': -91.16, 'datetime': '2018-12-12 14:52:56.433474', 'mgs': 0, 'flw2': 0.23, 'flw1': 0.0, 'flw0': 0.0, 'time': 16.19, 'compass': -107.8, 'pitch': 0.16, 'roll': -5.3}
{'lipoC2': 7.23, 'temp': 0.0, 'lipoC3S3': 11.01, 'state': 'normal', 'rot1': 89, 'rot0': 93, 'rot3': 0, 'rot2': 0, 'depth': -0.827, 'yaw': -91.17, 'datetime': '2018-12-12 14:52:56.641851', 'mgs': 0, 'flw2': 0.0, 'flw1': 0.0, 'flw0': 0.0, 'time': 16.4, 'compass': -107.81, 'pitch': 1.49, 'roll': -5.58}
{'lipoC2': 7.09, 'temp': 0.0, 'lipoC3S3': 11.03, 'state': 'normal', 'rot1': 89, 'rot0': 93, 'rot3': 0, 'rot2': 0, 'depth': -0.064, 'yaw': -91.39, 'datetime': '2018-12-12 14:52:56.850743', 'mgs': 0, 'flw2': 0.0, 'flw1': 0.0, 'flw0': 0.1, 'time': 16.61, 'compass': -108.02, 'pitch': 1.62, 'roll': -5.79}
{'lipoC2': 7.1, 'temp': 0.0, 'lipoC3S3': 11.31, 'state': 'normal', 'rot1': 89, 'rot0': 93, 'rot3': 0, 'rot2': 0, 'depth': 0.928, 'yaw': -91.74, 'datetime': '2018-12-12 14:52:57.061133', 'mgs': 0, 'flw2': 0.0, 'flw1': 0.0, 'flw0': 0.09, 'time': 16.82, 'compass': -108.38, 'pitch': 0.15, 'roll': -6.02}
{'lipoC2': 7.06, 'temp': 0.0, 'lipoC3S3': 10.98, 'state': 'normal', 'rot1': 89, 'rot0': 93, 'rot3': 0, 'rot2': 0, 'depth': -0.064, 'yaw': -92.16, 'datetime': '2018-12-12 14:52:57.271565', 'mgs': 0, 'flw2': 0.01, 'flw1': 0.0, 'flw0': 0.0, 'time': 17.03, 'compass': -108.8, 'pitch': -0.75, 'roll': -6.25}
{'lipoC2': 7.24, 'temp': 0.0, 'lipoC3S3': 11.06, 'state': 'normal', 'rot1': 89, 'rot0': 93, 'rot3': 0, 'rot2': 0, 'depth': -0.903, 'yaw': -92.61, 'datetime': '2018-12-12 14:52:57.478300', 'mgs': 0, 'flw2': 0.0, 'flw1': 0.0, 'flw0': 0.06, 'time': 17.23, 'compass': -109.25, 'pitch': 0.15, 'roll': -6.23}
{'lipoC2': 7.39, 'temp': 0.0, 'lipoC3S3': 11.07, 'state': 'normal', 'rot1': 90, 'rot0': 94, 'rot3': 0, 'rot2': 0, 'depth': 0.47, 'yaw': -93.28, 'datetime': '2018-12-12 14:52:57.687798', 'mgs': 0, 'flw2': 6.76, 'flw1': 0.0, 'flw0': 7.01, 'time': 17.44, 'compass': -109.92, 'pitch': 1.74, 'roll': -6.01}
{'lipoC2': 7.26, 'temp': 0.0, 'lipoC3S3': 11.02, 'state': 'normal', 'rot1': 95, 'rot0': 97, 'rot3': 0, 'rot2': 0, 'depth': -0.369, 'yaw': -88.56, 'datetime': '2018-12-12 14:52:57.896035', 'mgs': 0, 'flw2': 6.47, 'flw1': 0.0, 'flw0': 7.14, 'time': 17.65, 'compass': -105.19, 'pitch': 2.14, 'roll': -4.58}
{'lipoC2': 7.1, 'temp': 0.0, 'lipoC3S3': 11.1, 'state': 'normal', 'rot1': 101, 'rot0': 101, 'rot3': 0, 'rot2': 0, 'depth': 1.233, 'yaw': -76.61, 'datetime': '2018-12-12 14:52:58.106033', 'mgs': 0, 'flw2': 6.73, 'flw1': 0.0, 'flw0': 7.57, 'time': 17.86, 'compass': -93.25, 'pitch': 0.9, 'roll': -2.17}
{'lipoC2': 7.11, 'temp': 0.0, 'lipoC3S3': 11.02, 'state': 'normal', 'rot1': 106, 'rot0': 106, 'rot3': 0, 'rot2': 0, 'depth': -0.827, 'yaw': -61.18, 'datetime': '2018-12-12 14:52:58.314835', 'mgs': 0, 'flw2': 5.04, 'flw1': 0.56, 'flw0': 6.14, 'time': 18.07, 'compass': -77.81, 'pitch': -0.9, 'roll': -0.14}
{'lipoC2': 7.34, 'temp': 0.0, 'lipoC3S3': 11.13, 'state': 'normal', 'rot1': 110, 'rot0': 109, 'rot3': 0, 'rot2': 0, 'depth': -1.208, 'yaw': -45.33, 'datetime': '2018-12-12 14:52:58.527029', 'mgs': 0, 'flw2': 4.47, 'flw1': 0.0, 'flw0': 5.3, 'time': 18.28, 'compass': -61.97, 'pitch': -1.77, 'roll': 0.03}
{'lipoC2': 7.07, 'temp': 0.0, 'lipoC3S3': 11.14, 'state': 'normal', 'rot1': 113, 'rot0': 113, 'rot3': 0, 'rot2': 0, 'depth': 0.47, 'yaw': -30.39, 'datetime': '2018-12-12 14:52:58.735370', 'mgs': 0, 'flw2': 3.47, 'flw1': 0.15, 'flw0': 4.2, 'time': 18.49, 'compass': -47.03, 'pitch': -2.53, 'roll': -0.78}
{'lipoC2': 7.35, 'temp': 0.0, 'lipoC3S3': 10.92, 'state': 'normal', 'rot1': 116, 'rot0': 116, 'rot3': 0, 'rot2': 0, 'depth': 1.004, 'yaw': -15.14, 'datetime': '2018-12-12 14:52:58.946166', 'mgs': 0, 'flw2': 2.77, 'flw1': 0.0, 'flw0': 3.0, 'time': 18.7, 'compass': -31.78, 'pitch': -3.59, 'roll': -0.61}
{'lipoC2': 7.4, 'temp': 0.0, 'lipoC3S3': 10.98, 'state': 'normal', 'rot1': 118, 'rot0': 118, 'rot3': 0, 'rot2': 0, 'depth': -0.522, 'yaw': -0.5, 'datetime': '2018-12-12 14:52:59.153110', 'mgs': 0, 'flw2': 1.95, 'flw1': 0.0, 'flw0': 2.06, 'time': 18.91, 'compass': -17.14, 'pitch': -5.06, 'roll': 0.77}
{'lipoC2': 7.22, 'temp': 0.0, 'lipoC3S3': 10.86, 'state': 'normal', 'rot1': 120, 'rot0': 120, 'rot3': 0, 'rot2': 0, 'depth': 0.623, 'yaw': 13.37, 'datetime': '2018-12-12 14:52:59.363151', 'mgs': 0, 'flw2': 1.21, 'flw1': 0.0, 'flw0': 1.53, 'time': 19.12, 'compass': -3.27, 'pitch': -6.58, 'roll': 2.92}
{'lipoC2': 7.19, 'temp': 0.0, 'lipoC3S3': 11.13, 'state': 'normal', 'rot1': 123, 'rot0': 122, 'rot3': 0, 'rot2': 0, 'depth': -0.369, 'yaw': 26.3, 'datetime': '2018-12-12 14:52:59.575388', 'mgs': 0, 'flw2': 1.09, 'flw1': 0.0, 'flw0': 0.88, 'time': 19.33, 'compass': 9.66, 'pitch': -6.69, 'roll': 4.98}
{'lipoC2': 7.19, 'temp': 0.0, 'lipoC3S3': 10.84, 'state': 'normal', 'rot1': 125, 'rot0': 124, 'rot3': 0, 'rot2': 0, 'depth': 0.012, 'yaw': 38.32, 'datetime': '2018-12-12 14:52:59.784117', 'mgs': 0, 'flw2': 0.42, 'flw1': 0.0, 'flw0': 0.38, 'time': 19.54, 'compass': 21.68, 'pitch': -5.85, 'roll': 6.06}
{'lipoC2': 7.29, 'temp': 0.0, 'lipoC3S3': 11.46, 'state': 'normal', 'rot1': 126, 'rot0': 125, 'rot3': 0, 'rot2': 0, 'depth': 1.462, 'yaw': 48.84, 'datetime': '2018-12-12 14:52:59.998380', 'mgs': 0, 'flw2': 0.52, 'flw1': 0.0, 'flw0': 0.35, 'time': 19.75, 'compass': 32.21, 'pitch': -5.63, 'roll': 6.23}
{'lipoC2': 7.21, 'temp': 0.0, 'lipoC3S3': 11.25, 'state': 'normal', 'rot1': 127, 'rot0': 125, 'rot3': 0, 'rot2': 0, 'depth': -1.208, 'yaw': 59.11, 'datetime': '2018-12-12 14:53:00.205027', 'mgs': 0, 'flw2': 0.1, 'flw1': 0.0, 'flw0': 0.23, 'time': 19.95, 'compass': 42.47, 'pitch': -5.59, 'roll': 6.34}
{'lipoC2': 7.06, 'temp': 0.0, 'lipoC3S3': 11.25, 'state': 'normal', 'rot1': 128, 'rot0': 126, 'rot3': 0, 'rot2': 0, 'depth': -1.514, 'yaw': 68.69, 'datetime': '2018-12-12 14:53:00.415991', 'mgs': 0, 'flw2': 0.1, 'flw1': 0.0, 'flw0': 0.59, 'time': 20.16, 'compass': 52.05, 'pitch': -4.71, 'roll': 6.4}
{'lipoC2': 7.07, 'temp': 0.0, 'lipoC3S3': 11.26, 'state': 'normal', 'rot1': 129, 'rot0': 127, 'rot3': 0, 'rot2': 0, 'depth': -1.59, 'yaw': 77.7, 'datetime': '2018-12-12 14:53:00.625261', 'mgs': 0, 'flw2': 0.11, 'flw1': 0.12, 'flw0': 0.29, 'time': 20.37, 'compass': 61.06, 'pitch': -3.13, 'roll': 6.68}
{'lipoC2': 7.4, 'temp': 0.0, 'lipoC3S3': 10.98, 'state': 'normal', 'rot1': 129, 'rot0': 127, 'rot3': 0, 'rot2': 0, 'depth': -1.59, 'yaw': 85.72, 'datetime': '2018-12-12 14:53:00.838032', 'mgs': 0, 'flw2': 0.01, 'flw1': 0.0, 'flw0': 0.22, 'time': 20.58, 'compass': 69.08, 'pitch': -2.22, 'roll': 7.17}
{'lipoC2': 7.13, 'temp': 0.0, 'lipoC3S3': 10.9, 'state': 'normal', 'rot1': 131, 'rot0': 128, 'rot3': 0, 'rot2': 0, 'depth': 1.691, 'yaw': 92.44, 'datetime': '2018-12-12 14:53:01.051327', 'mgs': 0, 'flw2': 0.55, 'flw1': 0.0, 'flw0': 2.92, 'time': 20.79, 'compass': 75.8, 'pitch': -1.3, 'roll': 7.32}
{'lipoC2': 7.05, 'temp': 0.0, 'lipoC3S3': 11.21, 'state': 'normal', 'rot1': 133, 'rot0': 129, 'rot3': 0, 'rot2': 0, 'depth': -1.132, 'yaw': 96.34, 'datetime': '2018-12-12 14:53:01.259291', 'mgs': 0, 'flw2': 0.52, 'flw1': 0.0, 'flw0': 2.89, 'time': 21.0, 'compass': 79.7, 'pitch': 0.82, 'roll': 7.18}
{'lipoC2': 7.44, 'temp': 0.0, 'lipoC3S3': 10.93, 'state': 'normal', 'rot1': 135, 'rot0': 130, 'rot3': 0, 'rot2': 0, 'depth': 1.767, 'yaw': 98.15, 'datetime': '2018-12-12 14:53:01.468363', 'mgs': 0, 'flw2': 0.48, 'flw1': 0.38, 'flw0': 2.59, 'time': 21.21, 'compass': 81.51, 'pitch': 1.84, 'roll': 7.06}
{'lipoC2': 7.23, 'temp': 0.0, 'lipoC3S3': 10.97, 'state': 'normal', 'rot1': 137, 'rot0': 132, 'rot3': 0, 'rot2': 0, 'depth': -0.903, 'yaw': 98.1, 'datetime': '2018-12-12 14:53:01.677094', 'mgs': 0, 'flw2': 0.57, 'flw1': 0.0, 'flw0': 2.66, 'time': 21.42, 'compass': 81.46, 'pitch': 1.2, 'roll': 6.99}
{'lipoC2': 7.25, 'temp': 0.0, 'lipoC3S3': 11.0, 'state': 'normal', 'rot1': 140, 'rot0': 133, 'rot3': 0, 'rot2': 0, 'depth': -0.446, 'yaw': 96.6, 'datetime': '2018-12-12 14:53:01.886958', 'mgs': 0, 'flw2': 0.43, 'flw1': 0.56, 'flw0': 2.89, 'time': 21.63, 'compass': 79.96, 'pitch': 0.72, 'roll': 7.02}
{'lipoC2': 7.22, 'temp': 0.0, 'lipoC3S3': 11.14, 'state': 'normal', 'rot1': 142, 'rot0': 134, 'rot3': 0, 'rot2': 0, 'depth': -0.446, 'yaw': 94.22, 'datetime': '2018-12-12 14:53:02.096928', 'mgs': 0, 'flw2': 0.59, 'flw1': 0.03, 'flw0': 2.6, 'time': 21.84, 'compass': 77.58, 'pitch': 0.96, 'roll': 7.05}
{'lipoC2': 7.05, 'temp': 0.0, 'lipoC3S3': 11.13, 'state': 'normal', 'rot1': 144, 'rot0': 135, 'rot3': 0, 'rot2': 0, 'depth': -0.827, 'yaw': 91.35, 'datetime': '2018-12-12 14:53:02.307286', 'mgs': 0, 'flw2': 0.54, 'flw1': 0.0, 'flw0': 2.8, 'time': 22.05, 'compass': 74.71, 'pitch': 0.8, 'roll': 7.07}
{'lipoC2': 7.09, 'temp': 0.0, 'lipoC3S3': 10.97, 'state': 'normal', 'rot1': 146, 'rot0': 136, 'rot3': 0, 'rot2': 0, 'depth': -0.751, 'yaw': 88.04, 'datetime': '2018-12-12 14:53:02.516601', 'mgs': 0, 'flw2': 0.62, 'flw1': 0.0, 'flw0': 2.92, 'time': 22.26, 'compass': 71.4, 'pitch': -0.13, 'roll': 6.77}
{'lipoC2': 7.3, 'temp': 0.0, 'lipoC3S3': 11.06, 'state': 'normal', 'rot1': 149, 'rot0': 138, 'rot3': 0, 'rot2': 0, 'depth': -0.598, 'yaw': 84.46, 'datetime': '2018-12-12 14:53:02.725572', 'mgs': 0, 'flw2': 0.57, 'flw1': 0.0, 'flw0': 2.87, 'time': 22.47, 'compass': 67.82, 'pitch': -0.9, 'roll': 6.08}
{'lipoC2': 7.18, 'temp': 0.0, 'lipoC3S3': 11.22, 'state': 'normal', 'rot1': 151, 'rot0': 139, 'rot3': 0, 'rot2': 0, 'depth': -1.361, 'yaw': 80.28, 'datetime': '2018-12-12 14:53:02.935081', 'mgs': 0, 'flw2': 0.39, 'flw1': 0.0, 'flw0': 2.55, 'time': 22.67, 'compass': 63.64, 'pitch': -0.9, 'roll': 5.24}
{'lipoC2': 7.2, 'temp': 0.0, 'lipoC3S3': 10.85, 'state': 'normal', 'rot1': 153, 'rot0': 140, 'rot3': 0, 'rot2': 0, 'depth': -1.514, 'yaw': 75.62, 'datetime': '2018-12-12 14:53:03.143994', 'mgs': 0, 'flw2': 0.38, 'flw1': 0.0, 'flw0': 2.87, 'time': 22.88, 'compass': 58.98, 'pitch': -0.75, 'roll': 4.59}
{'lipoC2': 7.19, 'temp': 0.0, 'lipoC3S3': 10.84, 'state': 'normal', 'rot1': 156, 'rot0': 141, 'rot3': 0, 'rot2': 0, 'depth': -1.895, 'yaw': 70.55, 'datetime': '2018-12-12 14:53:03.353001', 'mgs': 0, 'flw2': 0.52, 'flw1': 0.0, 'flw0': 2.94, 'time': 23.09, 'compass': 53.91, 'pitch': -1.47, 'roll': 4.12}
{'lipoC2': 7.34, 'temp': 0.0, 'lipoC3S3': 11.09, 'state': 'normal', 'rot1': 157, 'rot0': 143, 'rot3': 0, 'rot2': 0, 'depth': 0.089, 'yaw': 65.72, 'datetime': '2018-12-12 14:53:03.561235', 'mgs': 0, 'flw2': 0.0, 'flw1': 0.0, 'flw0': 0.04, 'time': 23.3, 'compass': 49.09, 'pitch': -2.49, 'roll': 4.04}
{'lipoC2': 7.29, 'temp': 0.0, 'lipoC3S3': 11.3, 'state': 'normal', 'rot1': 157, 'rot0': 143, 'rot3': 0, 'rot2': 0, 'depth': -0.064, 'yaw': 62.17, 'datetime': '2018-12-12 14:53:03.771145', 'mgs': 0, 'flw2': 0.0, 'flw1': 0.0, 'flw0': 0.1, 'time': 23.51, 'compass': 45.53, 'pitch': -4.25, 'roll': 4.8}
{'lipoC2': 7.26, 'temp': 0.0, 'lipoC3S3': 10.98, 'state': 'normal', 'rot1': 157, 'rot0': 143, 'rot3': 0, 'rot2': 0, 'depth': -0.903, 'yaw': 59.2, 'datetime': '2018-12-12 14:53:03.973887', 'mgs': 0, 'flw2': 0.2, 'flw1': 0.0, 'flw0': 0.35, 'time': 23.72, 'compass': 42.56, 'pitch': -5.35, 'roll': 5.38}
{'lipoC2': 7.18, 'temp': 0.0, 'lipoC3S3': 10.86, 'state': 'normal', 'rot1': 158, 'rot0': 144, 'rot3': 0, 'rot2': 0, 'depth': -1.514, 'yaw': 57.02, 'datetime': '2018-12-12 14:53:04.183542', 'mgs': 0, 'flw2': 0.57, 'flw1': 0.0, 'flw0': 0.55, 'time': 23.93, 'compass': 40.38, 'pitch': -5.56, 'roll': 5.59}
{'lipoC2': 7.06, 'temp': 0.0, 'lipoC3S3': 11.06, 'state': 'normal', 'rot1': 159, 'rot0': 145, 'rot3': 0, 'rot2': 0, 'depth': 1.462, 'yaw': 55.67, 'datetime': '2018-12-12 14:53:04.391849', 'mgs': 0, 'flw2': 0.21, 'flw1': 0.44, 'flw0': 0.15, 'time': 24.14, 'compass': 39.03, 'pitch': -5.38, 'roll': 5.23}
{'lipoC2': 7.32, 'temp': 0.0, 'lipoC3S3': 11.03, 'state': 'normal', 'rot1': 160, 'rot0': 146, 'rot3': 0, 'rot2': 0, 'depth': -0.674, 'yaw': 54.83, 'datetime': '2018-12-12 14:53:04.607938', 'mgs': 0, 'flw2': 0.2, 'flw1': 0.32, 'flw0': 0.22, 'time': 24.35, 'compass': 38.19, 'pitch': -5.31, 'roll': 4.55}
{'lipoC2': 7.28, 'temp': 0.0, 'lipoC3S3': 11.18, 'state': 'normal', 'rot1': 161, 'rot0': 147, 'rot3': 0, 'rot2': 0, 'depth': 1.462, 'yaw': 54.48, 'datetime': '2018-12-12 14:53:04.816343', 'mgs': 0, 'flw2': 0.21, 'flw1': 0.15, 'flw0': 0.4, 'time': 24.56, 'compass': 37.84, 'pitch': -5.33, 'roll': 4.05}
{'lipoC2': 7.18, 'temp': 0.0, 'lipoC3S3': 11.19, 'state': 'normal', 'rot1': 161, 'rot0': 148, 'rot3': 0, 'rot2': 0, 'depth': 0.928, 'yaw': 54.6, 'datetime': '2018-12-12 14:53:05.025751', 'mgs': 0, 'flw2': 0.16, 'flw1': 0.0, 'flw0': 0.31, 'time': 24.77, 'compass': 37.96, 'pitch': -5.31, 'roll': 3.9}
{'lipoC2': 7.19, 'temp': 0.0, 'lipoC3S3': 11.23, 'state': 'normal', 'rot1': 162, 'rot0': 149, 'rot3': 0, 'rot2': 0, 'depth': -1.437, 'yaw': 55.14, 'datetime': '2018-12-12 14:53:05.233953', 'mgs': 0, 'flw2': 0.1, 'flw1': 0.0, 'flw0': 0.21, 'time': 24.98, 'compass': 38.5, 'pitch': -5.5, 'roll': 4.42}
{'lipoC2': 7.11, 'temp': 0.0, 'lipoC3S3': 11.25, 'state': 'normal', 'rot1': 163, 'rot0': 149, 'rot3': 0, 'rot2': 0, 'depth': -1.132, 'yaw': 56.1, 'datetime': '2018-12-12 14:53:05.442509', 'mgs': 0, 'flw2': 0.12, 'flw1': 0.0, 'flw0': 0.57, 'time': 25.18, 'compass': 39.46, 'pitch': -5.99, 'roll': 5.36}
{'lipoC2': 7.11, 'temp': 0.0, 'lipoC3S3': 11.19, 'state': 'normal', 'rot1': 165, 'rot0': 150, 'rot3': 0, 'rot2': 0, 'depth': 1.691, 'yaw': 57.54, 'datetime': '2018-12-12 14:53:05.653099', 'mgs': 0, 'flw2': 0.23, 'flw1': 0.0, 'flw0': 0.28, 'time': 25.39, 'compass': 40.9, 'pitch': -5.84, 'roll': 5.75}
{'lipoC2': 7.35, 'temp': 0.0, 'lipoC3S3': 11.21, 'state': 'normal', 'rot1': 165, 'rot0': 151, 'rot3': 0, 'rot2': 0, 'depth': 1.538, 'yaw': 59.41, 'datetime': '2018-12-12 14:53:05.863011', 'mgs': 0, 'flw2': 0.27, 'flw1': 0.29, 'flw0': 0.28, 'time': 25.6, 'compass': 42.77, 'pitch': -4.79, 'roll': 5.37}
{'lipoC2': 7.2, 'temp': 0.0, 'lipoC3S3': 11.29, 'state': 'normal', 'rot1': 167, 'rot0': 152, 'rot3': 0, 'rot2': 0, 'depth': 0.394, 'yaw': 61.65, 'datetime': '2018-12-12 14:53:06.073127', 'mgs': 0, 'flw2': 0.2, 'flw1': 0.41, 'flw0': 0.12, 'time': 25.81, 'compass': 45.01, 'pitch': -3.87, 'roll': 4.8}
{'lipoC2': 7.05, 'temp': 0.0, 'lipoC3S3': 11.19, 'state': 'normal', 'rot1': 168, 'rot0': 153, 'rot3': 0, 'rot2': 0, 'depth': -0.98, 'yaw': 64.14, 'datetime': '2018-12-12 14:53:06.283655', 'mgs': 0, 'flw2': 0.09, 'flw1': 0.0, 'flw0': 0.28, 'time': 26.02, 'compass': 47.5, 'pitch': -3.97, 'roll': 4.69}
{'lipoC2': 7.39, 'temp': 0.0, 'lipoC3S3': 11.03, 'state': 'normal', 'rot1': 169, 'rot0': 154, 'rot3': 0, 'rot2': 0, 'depth': -0.674, 'yaw': 67.14, 'datetime': '2018-12-12 14:53:06.490467', 'mgs': 0, 'flw2': 0.46, 'flw1': 0.0, 'flw0': 0.23, 'time': 26.23, 'compass': 50.5, 'pitch': -4.65, 'roll': 4.92}
{'lipoC2': 7.11, 'temp': 0.0, 'lipoC3S3': 10.88, 'state': 'normal', 'rot1': 169, 'rot0': 155, 'rot3': 0, 'rot2': 0, 'depth': -0.674, 'yaw': 70.47, 'datetime': '2018-12-12 14:53:06.700468', 'mgs': 0, 'flw2': 0.56, 'flw1': 0.0, 'flw0': 0.23, 'time': 26.44, 'compass': 53.84, 'pitch': -4.77, 'roll': 5.3}
{'lipoC2': 7.09, 'temp': 0.0, 'lipoC3S3': 11.03, 'state': 'normal', 'rot1': 170, 'rot0': 156, 'rot3': 0, 'rot2': 0, 'depth': -0.674, 'yaw': 74.07, 'datetime': '2018-12-12 14:53:06.911566', 'mgs': 0, 'flw2': 0.16, 'flw1': 0.0, 'flw0': 0.56, 'time': 26.65, 'compass': 57.43, 'pitch': -4.0, 'roll': 5.92}
{'lipoC2': 7.33, 'temp': 0.0, 'lipoC3S3': 11.02, 'state': 'normal', 'rot1': 171, 'rot0': 156, 'rot3': 0, 'rot2': 0, 'depth': 0.928, 'yaw': 77.85, 'datetime': '2018-12-12 14:53:07.119606', 'mgs': 0, 'flw2': 0.22, 'flw1': 0.09, 'flw0': 0.2, 'time': 26.86, 'compass': 61.21, 'pitch': -3.2, 'roll': 6.55}
{'lipoC2': 7.25, 'temp': 0.0, 'lipoC3S3': 11.34, 'state': 'normal', 'rot1': 172, 'rot0': 157, 'rot3': 0, 'rot2': 0, 'depth': -0.064, 'yaw': 81.86, 'datetime': '2018-12-12 14:53:07.328446', 'mgs': 0, 'flw2': 0.0, 'flw1': 0.0, 'flw0': 0.04, 'time': 27.07, 'compass': 65.22, 'pitch': -3.19, 'roll': 6.84}
{'lipoC2': 7.34, 'temp': 0.0, 'lipoC3S3': 11.02, 'state': 'normal', 'rot1': 172, 'rot0': 157, 'rot3': 0, 'rot2': 0, 'depth': -0.293, 'yaw': 85.38, 'datetime': '2018-12-12 14:53:07.536960', 'mgs': 0, 'flw2': 0.0, 'flw1': 0.5, 'flw0': 0.0, 'time': 27.28, 'compass': 68.74, 'pitch': -3.21, 'roll': 6.41}
{'lipoC2': 7.29, 'temp': 0.0, 'lipoC3S3': 11.26, 'state': 'normal', 'rot1': 173, 'rot0': 158, 'rot3': 0, 'rot2': 0, 'depth': 1.538, 'yaw': 88.22, 'datetime': '2018-12-12 14:53:07.747081', 'mgs': 0, 'flw2': 0.6, 'flw1': 0.26, 'flw0': 2.62, 'time': 27.49, 'compass': 71.58, 'pitch': -2.32, 'roll': 5.55}
{'lipoC2': 7.06, 'temp': 0.0, 'lipoC3S3': 11.36, 'state': 'normal', 'rot1': 175, 'rot0': 159, 'rot3': 0, 'rot2': 0, 'depth': 0.241, 'yaw': 88.7, 'datetime': '2018-12-12 14:53:07.956417', 'mgs': 0, 'flw2': 0.76, 'flw1': 0.0, 'flw0': 2.67, 'time': 27.69, 'compass': 72.06, 'pitch': -0.48, 'roll': 5.04}
{'lipoC2': 7.08, 'temp': 0.0, 'lipoC3S3': 11.01, 'state': 'normal', 'rot1': 178, 'rot0': 160, 'rot3': 0, 'rot2': 0, 'depth': -0.217, 'yaw': 87.25, 'datetime': '2018-12-12 14:53:08.166810', 'mgs': 0, 'flw2': 0.82, 'flw1': 0.0, 'flw0': 2.67, 'time': 27.9, 'compass': 70.61, 'pitch': -0.25, 'roll': 5.05}
{'lipoC2': 7.08, 'temp': 0.0, 'lipoC3S3': 10.94, 'state': 'normal', 'rot1': 180, 'rot0': 162, 'rot3': 0, 'rot2': 0, 'depth': 1.462, 'yaw': 84.33, 'datetime': '2018-12-12 14:53:08.374377', 'mgs': 0, 'flw2': 0.57, 'flw1': 0.0, 'flw0': 2.75, 'time': 28.11, 'compass': 67.69, 'pitch': -1.05, 'roll': 5.17}
{'lipoC2': 7.3, 'temp': 0.0, 'lipoC3S3': 11.27, 'state': 'normal', 'rot1': 183, 'rot0': 163, 'rot3': 0, 'rot2': 0, 'depth': -0.98, 'yaw': 80.37, 'datetime': '2018-12-12 14:53:08.585203', 'mgs': 0, 'flw2': 0.65, 'flw1': 0.0, 'flw0': 2.58, 'time': 28.32, 'compass': 63.73, 'pitch': -1.26, 'roll': 5.16}
{'lipoC2': 7.06, 'temp': 0.0, 'lipoC3S3': 11.18, 'state': 'normal', 'rot1': 185, 'rot0': 164, 'rot3': 0, 'rot2': 0, 'depth': -0.446, 'yaw': 76.0, 'datetime': '2018-12-12 14:53:08.794384', 'mgs': 0, 'flw2': 0.61, 'flw1': 0.0, 'flw0': 2.37, 'time': 28.53, 'compass': 59.36, 'pitch': -1.19, 'roll': 5.03}
{'lipoC2': 7.26, 'temp': 0.0, 'lipoC3S3': 11.14, 'state': 'normal', 'rot1': 187, 'rot0': 166, 'rot3': 0, 'rot2': 0, 'depth': -0.827, 'yaw': 71.76, 'datetime': '2018-12-12 14:53:09.010481', 'mgs': 0, 'flw2': 2.49, 'flw1': 0.29, 'flw0': 0.5, 'time': 28.74, 'compass': 55.12, 'pitch': -1.65, 'roll': 4.76}
{'lipoC2': 7.29, 'temp': 0.0, 'lipoC3S3': 11.07, 'state': 'normal', 'rot1': 188, 'rot0': 168, 'rot3': 0, 'rot2': 0, 'depth': -0.827, 'yaw': 70.53, 'datetime': '2018-12-12 14:53:09.219464', 'mgs': 0, 'flw2': 2.73, 'flw1': 0.0, 'flw0': 0.6, 'time': 28.95, 'compass': 53.89, 'pitch': -2.12, 'roll': 4.84}
{'lipoC2': 7.13, 'temp': 0.0, 'lipoC3S3': 11.0, 'state': 'normal', 'rot1': 189, 'rot0': 170, 'rot3': 0, 'rot2': 0, 'depth': -0.446, 'yaw': 71.52, 'datetime': '2018-12-12 14:53:09.430197', 'mgs': 0, 'flw2': 2.33, 'flw1': 0.0, 'flw0': 0.96, 'time': 29.16, 'compass': 54.88, 'pitch': -2.38, 'roll': 5.04}
{'lipoC2': 7.33, 'temp': 0.0, 'lipoC3S3': 11.14, 'state': 'normal', 'rot1': 191, 'rot0': 173, 'rot3': 0, 'rot2': 0, 'depth': 1.462, 'yaw': 73.85, 'datetime': '2018-12-12 14:53:09.638970', 'mgs': 0, 'flw2': 2.51, 'flw1': 0.0, 'flw0': 0.79, 'time': 29.37, 'compass': 57.21, 'pitch': -2.48, 'roll': 5.14}
{'lipoC2': 7.13, 'temp': 0.0, 'lipoC3S3': 11.09, 'state': 'normal', 'rot1': 192, 'rot0': 175, 'rot3': 0, 'rot2': 0, 'depth': -0.598, 'yaw': 77.03, 'datetime': '2018-12-12 14:53:09.849588', 'mgs': 0, 'flw2': 2.47, 'flw1': 0.44, 'flw0': 0.57, 'time': 29.58, 'compass': 60.39, 'pitch': -2.53, 'roll': 5.28}
{'lipoC2': 7.06, 'temp': 0.0, 'lipoC3S3': 10.96, 'state': 'normal', 'rot1': 193, 'rot0': 177, 'rot3': 0, 'rot2': 0, 'depth': 0.165, 'yaw': 80.83, 'datetime': '2018-12-12 14:53:10.056726', 'mgs': 0, 'flw2': 2.32, 'flw1': 0.53, 'flw0': 0.49, 'time': 29.79, 'compass': 64.19, 'pitch': -2.32, 'roll': 5.43}
{'lipoC2': 7.15, 'temp': 0.0, 'lipoC3S3': 11.52, 'state': 'normal', 'rot1': 195, 'rot0': 179, 'rot3': 0, 'rot2': 0, 'depth': -1.285, 'yaw': 84.4, 'datetime': '2018-12-12 14:53:10.265541', 'mgs': 0, 'flw2': 0.0, 'flw1': 0.03, 'flw0': 0.0, 'time': 30.0, 'compass': 67.76, 'pitch': -1.61, 'roll': 5.68}
{'lipoC2': 7.07, 'temp': 0.0, 'lipoC3S3': 11.19, 'state': 'normal', 'rot1': 195, 'rot0': 179, 'rot3': 0, 'rot2': 0, 'depth': 1.843, 'yaw': 87.02, 'datetime': '2018-12-12 14:53:10.475366', 'mgs': 0, 'flw2': 0.0, 'flw1': 0.0, 'flw0': 0.0, 'time': 30.2, 'compass': 70.38, 'pitch': -2.15, 'roll': 5.71}
{'lipoC2': 7.09, 'temp': 0.0, 'lipoC3S3': 11.21, 'state': 'normal', 'rot1': 195, 'rot0': 179, 'rot3': 0, 'rot2': 0, 'depth': -0.674, 'yaw': 89.1, 'datetime': '2018-12-12 14:53:10.685764', 'mgs': 0, 'flw2': 0.0, 'flw1': 0.44, 'flw0': 0.0, 'time': 30.42, 'compass': 72.47, 'pitch': -3.56, 'roll': 5.43}
{'lipoC2': 7.13, 'temp': 0.0, 'lipoC3S3': 11.07, 'state': 'normal', 'rot1': 195, 'rot0': 179, 'rot3': 0, 'rot2': 0, 'depth': 1.462, 'yaw': 90.97, 'datetime': '2018-12-12 14:53:10.894609', 'mgs': 0, 'flw2': 0.34, 'flw1': 0.0, 'flw0': 0.77, 'time': 30.62, 'compass': 74.33, 'pitch': -4.08, 'roll': 5.15}
{'lipoC2': 7.18, 'temp': 0.0, 'lipoC3S3': 10.97, 'state': 'normal', 'rot1': 197, 'rot0': 180, 'rot3': 0, 'rot2': 0, 'depth': -1.361, 'yaw': 92.56, 'datetime': '2018-12-12 14:53:11.098545', 'mgs': 0, 'flw2': 2.51, 'flw1': 0.0, 'flw0': 2.78, 'time': 30.83, 'compass': 75.92, 'pitch': -3.08, 'roll': 5.17}
{'lipoC2': 7.15, 'temp': 0.0, 'lipoC3S3': 10.98, 'state': 'normal', 'rot1': 200, 'rot0': 183, 'rot3': 0, 'rot2': 0, 'depth': -1.514, 'yaw': 93.71, 'datetime': '2018-12-12 14:53:11.306703', 'mgs': 0, 'flw2': 2.47, 'flw1': 0.64, 'flw0': 2.43, 'time': 31.04, 'compass': 77.08, 'pitch': 0.29, 'roll': 5.58}
{'lipoC2': 7.29, 'temp': 0.0, 'lipoC3S3': 11.18, 'state': 'normal', 'rot1': 203, 'rot0': 185, 'rot3': 0, 'rot2': 0, 'depth': 1.996, 'yaw': 94.14, 'datetime': '2018-12-12 14:53:11.516232', 'mgs': 0, 'flw2': 0.85, 'flw1': 0.0, 'flw0': 2.54, 'time': 31.25, 'compass': 77.5, 'pitch': 1.89, 'roll': 6.02}
{'lipoC2': 7.17, 'temp': 0.0, 'lipoC3S3': 11.26, 'state': 'normal', 'rot1': 206, 'rot0': 186, 'rot3': 1, 'rot2': 0, 'depth': 0.165, 'yaw': 92.71, 'datetime': '2018-12-12 14:53:11.733240', 'mgs': 0, 'flw2': 0.66, 'flw1': 3.72, 'flw0': 2.43, 'time': 31.46, 'compass': 76.07, 'pitch': 0.28, 'roll': 5.74}
{'lipoC2': 7.12, 'temp': 0.0, 'lipoC3S3': 11.13, 'state': 'normal', 'rot1': 208, 'rot0': 187, 'rot3': 1, 'rot2': 1, 'depth': -0.522, 'yaw': 90.03, 'datetime': '2018-12-12 14:53:11.943819', 'mgs': 0, 'flw2': 0.63, 'flw1': 0.0, 'flw0': 2.93, 'time': 31.67, 'compass': 73.39, 'pitch': -1.34, 'roll': 4.48}
{'lipoC2': 7.05, 'temp': 0.0, 'lipoC3S3': 11.17, 'state': 'normal', 'rot1': 211, 'rot0': 189, 'rot3': 1, 'rot2': 1, 'depth': -0.903, 'yaw': 86.97, 'datetime': '2018-12-12 14:53:12.154923', 'mgs': 0, 'flw2': 2.48, 'flw1': 0.56, 'flw0': 2.71, 'time': 31.88, 'compass': 70.33, 'pitch': -1.18, 'roll': 3.63}
{'lipoC2': 7.12, 'temp': 0.0, 'lipoC3S3': 10.88, 'state': 'normal', 'rot1': 213, 'rot0': 192, 'rot3': 1, 'rot2': 1, 'depth': 0.699, 'yaw': 85.03, 'datetime': '2018-12-12 14:53:12.362842', 'mgs': 0, 'flw2': 2.45, 'flw1': 0.0, 'flw0': 2.47, 'time': 32.09, 'compass': 68.39, 'pitch': 0.03, 'roll': 3.82}
{'lipoC2': 7.34, 'temp': 0.0, 'lipoC3S3': 10.96, 'state': 'normal', 'rot1': 215, 'rot0': 194, 'rot3': 1, 'rot2': 1, 'depth': -0.369, 'yaw': 83.73, 'datetime': '2018-12-12 14:53:12.572842', 'mgs': 0, 'flw2': 2.67, 'flw1': 0.0, 'flw0': 2.51, 'time': 32.3, 'compass': 67.1, 'pitch': -0.05, 'roll': 4.7}
{'lipoC2': 7.06, 'temp': 0.0, 'lipoC3S3': 11.27, 'state': 'normal', 'rot1': 217, 'rot0': 196, 'rot3': 1, 'rot2': 1, 'depth': -0.14, 'yaw': 83.07, 'datetime': '2018-12-12 14:53:12.781085', 'mgs': 0, 'flw2': 2.53, 'flw1': 0.56, 'flw0': 0.48, 'time': 32.51, 'compass': 66.43, 'pitch': -1.09, 'roll': 5.87}
{'lipoC2': 7.29, 'temp': 0.0, 'lipoC3S3': 11.34, 'state': 'normal', 'rot1': 218, 'rot0': 199, 'rot3': 1, 'rot2': 1, 'depth': 1.767, 'yaw': 83.94, 'datetime': '2018-12-12 14:53:12.992591', 'mgs': 0, 'flw2': 2.72, 'flw1': 0.0, 'flw0': 0.59, 'time': 32.72, 'compass': 67.3, 'pitch': -1.77, 'roll': 6.52}
{'lipoC2': 7.28, 'temp': 0.0, 'lipoC3S3': 11.0, 'state': 'normal', 'rot1': 219, 'rot0': 199, 'rot3': 1, 'rot2': 1, 'depth': -0.751, 'yaw': 85.58, 'datetime': '2018-12-12 14:53:13.200856', 'mgs': 0, 'flw2': 0.23, 'flw1': 0.5, 'flw0': 0.31, 'time': 32.93, 'compass': 68.94, 'pitch': -1.97, 'roll': 6.21}
{'lipoC2': 7.13, 'temp': 0.0, 'lipoC3S3': 11.0, 'state': 'normal', 'rot1': 220, 'rot0': 201, 'rot3': 1, 'rot2': 1, 'depth': -0.522, 'yaw': 87.12, 'datetime': '2018-12-12 14:53:13.406502', 'mgs': 0, 'flw2': 0.27, 'flw1': 0.0, 'flw0': 0.57, 'time': 33.14, 'compass': 70.48, 'pitch': -3.24, 'roll': 5.31}
{'lipoC2': 7.24, 'temp': 0.0, 'lipoC3S3': 11.01, 'state': 'normal', 'rot1': 221, 'rot0': 202, 'rot3': 1, 'rot2': 1, 'depth': -0.903, 'yaw': 89.13, 'datetime': '2018-12-12 14:53:13.616009', 'mgs': 0, 'flw2': 0.18, 'flw1': 0.0, 'flw0': 0.23, 'time': 33.35, 'compass': 72.49, 'pitch': -4.3, 'roll': 4.84}
{'lipoC2': 7.18, 'temp': 0.0, 'lipoC3S3': 10.92, 'state': 'normal', 'rot1': 222, 'rot0': 203, 'rot3': 1, 'rot2': 1, 'depth': -1.514, 'yaw': 91.49, 'datetime': '2018-12-12 14:53:13.824445', 'mgs': 0, 'flw2': 0.32, 'flw1': 0.06, 'flw0': 0.29, 'time': 33.56, 'compass': 74.85, 'pitch': -3.88, 'roll': 5.13}
{'lipoC2': 7.07, 'temp': 0.0, 'lipoC3S3': 10.96, 'state': 'normal', 'rot1': 223, 'rot0': 203, 'rot3': 1, 'rot2': 1, 'depth': -0.14, 'yaw': 93.97, 'datetime': '2018-12-12 14:53:14.038963', 'mgs': 0, 'flw2': 0.28, 'flw1': 0.12, 'flw0': 0.13, 'time': 33.76, 'compass': 77.33, 'pitch': -2.43, 'roll': 5.55}
{'lipoC2': 7.32, 'temp': 0.0, 'lipoC3S3': 10.97, 'state': 'normal', 'rot1': 225, 'rot0': 204, 'rot3': 1, 'rot2': 1, 'depth': -0.903, 'yaw': 96.46, 'datetime': '2018-12-12 14:53:14.248827', 'mgs': 0, 'flw2': 0.49, 'flw1': 0.0, 'flw0': 0.31, 'time': 33.97, 'compass': 79.82, 'pitch': -2.23, 'roll': 5.45}
{'lipoC2': 7.52, 'temp': 0.0, 'lipoC3S3': 11.0, 'state': 'normal', 'rot1': 225, 'rot0': 205, 'rot3': 1, 'rot2': 1, 'depth': 1.004, 'yaw': 99.07, 'datetime': '2018-12-12 14:53:14.458514', 'mgs': 0, 'flw2': 0.0, 'flw1': 0.56, 'flw0': 0.02, 'time': 34.18, 'compass': 82.43, 'pitch': -3.01, 'roll': 4.98}
{'lipoC2': 7.08, 'temp': 0.0, 'lipoC3S3': 11.17, 'state': 'normal', 'rot1': 225, 'rot0': 205, 'rot3': 1, 'rot2': 1, 'depth': -0.751, 'yaw': 101.29, 'datetime': '2018-12-12 14:53:14.672299', 'mgs': 0, 'flw2': 0.71, 'flw1': 0.03, 'flw0': 3.11, 'time': 34.39, 'compass': 84.65, 'pitch': -3.17, 'roll': 4.74}
{'lipoC2': 7.22, 'temp': 0.0, 'lipoC3S3': 11.05, 'state': 'normal', 'rot1': 227, 'rot0': 206, 'rot3': 1, 'rot2': 1, 'depth': 0.928, 'yaw': 101.84, 'datetime': '2018-12-12 14:53:14.882666', 'mgs': 0, 'flw2': 0.72, 'flw1': 0.53, 'flw0': 2.51, 'time': 34.6, 'compass': 85.2, 'pitch': -1.38, 'roll': 4.52}
{'lipoC2': 7.22, 'temp': 0.0, 'lipoC3S3': 10.89, 'state': 'normal', 'rot1': 230, 'rot0': 207, 'rot3': 1, 'rot2': 1, 'depth': -0.903, 'yaw': 100.32, 'datetime': '2018-12-12 14:53:15.090238', 'mgs': 0, 'flw2': 0.4, 'flw1': 0.0, 'flw0': 2.56, 'time': 34.81, 'compass': 83.68, 'pitch': 0.23, 'roll': 4.2}
{'lipoC2': 7.54, 'temp': 0.0, 'lipoC3S3': 10.84, 'state': 'normal', 'rot1': 232, 'rot0': 209, 'rot3': 1, 'rot2': 1, 'depth': 1.385, 'yaw': 97.54, 'datetime': '2018-12-12 14:53:15.296546', 'mgs': 0, 'flw2': 2.64, 'flw1': 0.41, 'flw0': 2.62, 'time': 35.02, 'compass': 80.9, 'pitch': -0.43, 'roll': 4.08}
{'lipoC2': 7.29, 'temp': 0.0, 'lipoC3S3': 11.01, 'state': 'normal', 'rot1': 235, 'rot0': 211, 'rot3': 1, 'rot2': 1, 'depth': 0.089, 'yaw': 95.43, 'datetime': '2018-12-12 14:53:15.507180', 'mgs': 0, 'flw2': 2.66, 'flw1': 0.21, 'flw0': 2.6, 'time': 35.23, 'compass': 78.79, 'pitch': -1.09, 'roll': 4.26}
{'lipoC2': 7.06, 'temp': 0.0, 'lipoC3S3': 10.96, 'state': 'normal', 'rot1': 236, 'rot0': 213, 'rot3': 1, 'rot2': 1, 'depth': 0.775, 'yaw': 94.46, 'datetime': '2018-12-12 14:53:15.720084', 'mgs': 0, 'flw2': 2.65, 'flw1': 0.0, 'flw0': 0.84, 'time': 35.44, 'compass': 77.82, 'pitch': -0.56, 'roll': 4.68}
{'lipoC2': 7.2, 'temp': 0.0, 'lipoC3S3': 11.19, 'state': 'normal', 'rot1': 237, 'rot0': 215, 'rot3': 1, 'rot2': 1, 'depth': -0.98, 'yaw': 95.73, 'datetime': '2018-12-12 14:53:15.933490', 'mgs': 0, 'flw2': 2.34, 'flw1': 0.0, 'flw0': 0.56, 'time': 35.65, 'compass': 79.09, 'pitch': -0.54, 'roll': 5.38}
{'lipoC2': 7.07, 'temp': 0.0, 'lipoC3S3': 10.9, 'state': 'normal', 'rot1': 239, 'rot0': 218, 'rot3': 2, 'rot2': 1, 'depth': -0.14, 'yaw': 98.31, 'datetime': '2018-12-12 14:53:16.136448', 'mgs': 0, 'flw2': 2.49, 'flw1': 5.19, 'flw0': 0.5, 'time': 35.86, 'compass': 81.67, 'pitch': -0.94, 'roll': 5.93}
{'lipoC2': 7.11, 'temp': 0.0, 'lipoC3S3': 11.15, 'state': 'normal', 'rot1': 241, 'rot0': 220, 'rot3': 3, 'rot2': 2, 'depth': -0.522, 'yaw': 101.07, 'datetime': '2018-12-12 14:53:16.345104', 'mgs': 0, 'flw2': 2.56, 'flw1': 2.99, 'flw0': 2.73, 'time': 36.07, 'compass': 84.44, 'pitch': -0.2, 'roll': 5.63}
{'lipoC2': 7.17, 'temp': 0.0, 'lipoC3S3': 11.19, 'state': 'normal', 'rot1': 243, 'rot0': 222, 'rot3': 3, 'rot2': 3, 'depth': -0.903, 'yaw': 102.55, 'datetime': '2018-12-12 14:53:16.553538', 'mgs': 0, 'flw2': 0.38, 'flw1': 0.0, 'flw0': 2.53, 'time': 36.28, 'compass': 85.91, 'pitch': 1.31, 'roll': 4.87}
{'lipoC2': 7.27, 'temp': 0.0, 'lipoC3S3': 11.07, 'state': 'normal', 'rot1': 246, 'rot0': 223, 'rot3': 3, 'rot2': 3, 'depth': -0.674, 'yaw': 102.31, 'datetime': '2018-12-12 14:53:16.766118', 'mgs': 0, 'flw2': 0.59, 'flw1': 0.0, 'flw0': 2.56, 'time': 36.49, 'compass': 85.67, 'pitch': 0.41, 'roll': 4.08}
{'lipoC2': 7.18, 'temp': 0.0, 'lipoC3S3': 11.26, 'state': 'normal', 'rot1': 248, 'rot0': 224, 'rot3': 3, 'rot2': 3, 'depth': -1.514, 'yaw': 100.59, 'datetime': '2018-12-12 14:53:16.975064', 'mgs': 0, 'flw2': 0.0, 'flw1': 0.0, 'flw0': 0.0, 'time': 36.69, 'compass': 83.95, 'pitch': -1.94, 'roll': 3.55}
{'lipoC2': 7.22, 'temp': 0.0, 'lipoC3S3': 11.19, 'state': 'normal', 'rot1': 248, 'rot0': 224, 'rot3': 3, 'rot2': 3, 'depth': -2.353, 'yaw': 99.19, 'datetime': '2018-12-12 14:53:17.185766', 'mgs': 0, 'flw2': 0.0, 'flw1': 0.0, 'flw0': 0.0, 'time': 36.9, 'compass': 82.55, 'pitch': -3.83, 'roll': 3.59}
{'lipoC2': 7.08, 'temp': 0.0, 'lipoC3S3': 11.25, 'state': 'normal', 'rot1': 248, 'rot0': 224, 'rot3': 3, 'rot2': 3, 'depth': 1.462, 'yaw': 98.24, 'datetime': '2018-12-12 14:53:17.394364', 'mgs': 0, 'flw2': 0.0, 'flw1': 0.0, 'flw0': 0.0, 'time': 37.11, 'compass': 81.6, 'pitch': -4.43, 'roll': 4.11}
{'lipoC2': 7.22, 'temp': 0.0, 'lipoC3S3': 10.86, 'state': 'normal', 'rot1': 248, 'rot0': 224, 'rot3': 3, 'rot2': 3, 'depth': -0.14, 'yaw': 97.57, 'datetime': '2018-12-12 14:53:17.601265', 'mgs': 0, 'flw2': 0.0, 'flw1': 0.0, 'flw0': 0.28, 'time': 37.32, 'compass': 80.93, 'pitch': -3.7, 'roll': 4.69}
{'lipoC2': 7.13, 'temp': 0.0, 'lipoC3S3': 10.93, 'state': 'normal', 'rot1': 248, 'rot0': 225, 'rot3': 3, 'rot2': 3, 'depth': 1.996, 'yaw': 97.2, 'datetime': '2018-12-12 14:53:17.806038', 'mgs': 0, 'flw2': 0.09, 'flw1': 0.0, 'flw0': 0.38, 'time': 37.53, 'compass': 80.56, 'pitch': -3.02, 'roll': 5.01}
{'lipoC2': 7.1, 'temp': 0.0, 'lipoC3S3': 11.11, 'state': 'normal', 'rot1': 250, 'rot0': 226, 'rot3': 3, 'rot2': 3, 'depth': 1.233, 'yaw': 97.66, 'datetime': '2018-12-12 14:53:18.014882', 'mgs': 0, 'flw2': 0.49, 'flw1': 0.0, 'flw0': 0.09, 'time': 37.74, 'compass': 81.02, 'pitch': -3.09, 'roll': 5.11}
{'lipoC2': 7.08, 'temp': 0.0, 'lipoC3S3': 11.21, 'state': 'normal', 'rot1': 251, 'rot0': 227, 'rot3': 3, 'rot2': 3, 'depth': -0.446, 'yaw': 98.67, 'datetime': '2018-12-12 14:53:18.224964', 'mgs': 0, 'flw2': 0.24, 'flw1': 0.41, 'flw0': 0.23, 'time': 37.95, 'compass': 82.03, 'pitch': -3.36, 'roll': 4.84}
{'lipoC2': 7.2, 'temp': 0.0, 'lipoC3S3': 10.86, 'state': 'normal', 'rot1': 252, 'rot0': 228, 'rot3': 3, 'rot2': 3, 'depth': 0.317, 'yaw': 100.05, 'datetime': '2018-12-12 14:53:18.437004', 'mgs': 0, 'flw2': 0.09, 'flw1': 0.0, 'flw0': 0.34, 'time': 38.16, 'compass': 83.41, 'pitch': -3.22, 'roll': 4.46}
{'lipoC2': 7.41, 'temp': 0.0, 'lipoC3S3': 10.97, 'state': 'normal', 'rot1': 255, 'rot0': 230, 'rot3': 3, 'rot2': 3, 'depth': 1.004, 'yaw': 105.25, 'datetime': '2018-12-12 14:53:18.957531', 'mgs': 0, 'flw2': 0.52, 'flw1': 0.0, 'flw0': 0.27, 'time': 38.68, 'compass': 88.61, 'pitch': -2.54, 'roll': 4.55}
{'lipoC2': 7.2, 'temp': 0.0, 'lipoC3S3': 11.18, 'state': 'normal', 'rot1': 256, 'rot0': 231, 'rot3': 3, 'rot2': 3, 'depth': -0.598, 'yaw': 107.79, 'datetime': '2018-12-12 14:53:19.169955', 'mgs': 0, 'flw2': 0.2, 'flw1': 0.0, 'flw0': 0.24, 'time': 38.89, 'compass': 91.15, 'pitch': -2.59, 'roll': 5.07}
{'lipoC2': 7.32, 'temp': 0.0, 'lipoC3S3': 11.27, 'state': 'normal', 'rot1': 258, 'rot0': 232, 'rot3': 3, 'rot2': 3, 'depth': -0.369, 'yaw': 110.62, 'datetime': '2018-12-12 14:53:19.378737', 'mgs': 0, 'flw2': 0.37, 'flw1': 0.0, 'flw0': 0.2, 'time': 39.1, 'compass': 93.99, 'pitch': -2.62, 'roll': 5.27}
{'lipoC2': 7.07, 'temp': 0.0, 'lipoC3S3': 10.92, 'state': 'normal', 'rot1': 259, 'rot0': 233, 'rot3': 3, 'rot2': 3, 'depth': 0.928, 'yaw': 113.81, 'datetime': '2018-12-12 14:53:19.594019', 'mgs': 0, 'flw2': 0.0, 'flw1': 0.0, 'flw0': 0.24, 'time': 39.31, 'compass': 97.17, 'pitch': -2.27, 'roll': 5.38}
{'lipoC2': 7.12, 'temp': 0.0, 'lipoC3S3': 11.02, 'state': 'normal', 'rot1': 259, 'rot0': 233, 'rot3': 3, 'rot2': 3, 'depth': -0.446, 'yaw': 116.76, 'datetime': '2018-12-12 14:53:19.803698', 'mgs': 0, 'flw2': 0.0, 'flw1': 0.0, 'flw0': 0.11, 'time': 39.52, 'compass': 100.12, 'pitch': -1.85, 'roll': 4.95}
{'lipoC2': 7.38, 'temp': 0.0, 'lipoC3S3': 11.01, 'state': 'normal', 'rot1': 261, 'rot0': 234, 'rot3': 3, 'rot2': 3, 'depth': 0.775, 'yaw': 118.91, 'datetime': '2018-12-12 14:53:20.012482', 'mgs': 0, 'flw2': 0.4, 'flw1': 0.0, 'flw0': 2.61, 'time': 39.73, 'compass': 102.27, 'pitch': -1.5, 'roll': 4.27}
{'lipoC2': 7.44, 'temp': 0.0, 'lipoC3S3': 10.93, 'state': 'normal', 'rot1': 263, 'rot0': 235, 'rot3': 3, 'rot2': 3, 'depth': 1.385, 'yaw': 118.93, 'datetime': '2018-12-12 14:53:20.219318', 'mgs': 0, 'flw2': 0.48, 'flw1': 0.0, 'flw0': 2.55, 'time': 39.94, 'compass': 102.29, 'pitch': -0.1, 'roll': 3.92}
{'lipoC2': 7.14, 'temp': 0.0, 'lipoC3S3': 11.13, 'state': 'normal', 'rot1': 265, 'rot0': 236, 'rot3': 3, 'rot2': 3, 'depth': 0.012, 'yaw': 117.35, 'datetime': '2018-12-12 14:53:20.432486', 'mgs': 0, 'flw2': 0.85, 'flw1': 0.0, 'flw0': 2.54, 'time': 40.15, 'compass': 100.71, 'pitch': 0.67, 'roll': 3.75}
{'lipoC2': 7.24, 'temp': 0.0, 'lipoC3S3': 10.97, 'state': 'normal', 'rot1': 267, 'rot0': 237, 'rot3': 3, 'rot2': 3, 'depth': 1.538, 'yaw': 114.45, 'datetime': '2018-12-12 14:53:20.640100', 'mgs': 0, 'flw2': 0.46, 'flw1': 0.0, 'flw0': 2.86, 'time': 40.36, 'compass': 97.81, 'pitch': 0.22, 'roll': 3.45}
{'lipoC2': 7.09, 'temp': 0.0, 'lipoC3S3': 11.05, 'state': 'normal', 'rot1': 269, 'rot0': 239, 'rot3': 3, 'rot2': 3, 'depth': 1.843, 'yaw': 110.59, 'datetime': '2018-12-12 14:53:20.848582', 'mgs': 0, 'flw2': 2.61, 'flw1': 0.0, 'flw0': 2.87, 'time': 40.57, 'compass': 93.95, 'pitch': -0.49, 'roll': 3.41}
{'lipoC2': 7.39, 'temp': 0.0, 'lipoC3S3': 11.14, 'state': 'normal', 'rot1': 272, 'rot0': 241, 'rot3': 3, 'rot2': 3, 'depth': 1.767, 'yaw': 107.49, 'datetime': '2018-12-12 14:53:21.058496', 'mgs': 0, 'flw2': 2.94, 'flw1': 0.0, 'flw0': 2.58, 'time': 40.78, 'compass': 90.85, 'pitch': -0.43, 'roll': 3.81}
{'lipoC2': 7.3, 'temp': 0.0, 'lipoC3S3': 10.82, 'state': 'normal', 'rot1': 273, 'rot0': 243, 'rot3': 3, 'rot2': 3, 'depth': -0.293, 'yaw': 106.02, 'datetime': '2018-12-12 14:53:21.268111', 'mgs': 0, 'flw2': 2.43, 'flw1': 0.0, 'flw0': 0.89, 'time': 40.99, 'compass': 89.38, 'pitch': -0.27, 'roll': 4.09}
{'lipoC2': 7.29, 'temp': 0.0, 'lipoC3S3': 10.94, 'state': 'normal', 'rot1': 275, 'rot0': 245, 'rot3': 3, 'rot2': 3, 'depth': 0.546, 'yaw': 106.85, 'datetime': '2018-12-12 14:53:21.478072', 'mgs': 0, 'flw2': 2.28, 'flw1': 0.0, 'flw0': 0.7, 'time': 41.19, 'compass': 90.21, 'pitch': -0.7, 'roll': 4.3}
{'lipoC2': 7.13, 'temp': 0.0, 'lipoC3S3': 11.21, 'state': 'normal', 'rot1': 276, 'rot0': 248, 'rot3': 3, 'rot2': 3, 'depth': 0.089, 'yaw': 109.08, 'datetime': '2018-12-12 14:53:21.688334', 'mgs': 0, 'flw2': 2.49, 'flw1': 0.56, 'flw0': 0.73, 'time': 41.4, 'compass': 92.45, 'pitch': -0.79, 'roll': 4.35}
{'lipoC2': 7.28, 'temp': 0.0, 'lipoC3S3': 11.26, 'state': 'normal', 'rot1': 277, 'rot0': 250, 'rot3': 3, 'rot2': 3, 'depth': -0.14, 'yaw': 112.39, 'datetime': '2018-12-12 14:53:21.898864', 'mgs': 0, 'flw2': 2.32, 'flw1': 0.0, 'flw0': 0.84, 'time': 41.61, 'compass': 95.75, 'pitch': -0.54, 'roll': 4.39}
{'lipoC2': 7.18, 'temp': 0.0, 'lipoC3S3': 10.93, 'state': 'normal', 'rot1': 279, 'rot0': 252, 'rot3': 3, 'rot2': 3, 'depth': 0.165, 'yaw': 116.41, 'datetime': '2018-12-12 14:53:22.108027', 'mgs': 0, 'flw2': 0.54, 'flw1': 0.0, 'flw0': 2.93, 'time': 41.82, 'compass': 99.77, 'pitch': -0.42, 'roll': 4.48}
{'lipoC2': 7.4, 'temp': 0.0, 'lipoC3S3': 10.94, 'state': 'normal', 'rot1': 281, 'rot0': 253, 'rot3': 3, 'rot2': 3, 'depth': 0.546, 'yaw': 118.35, 'datetime': '2018-12-12 14:53:22.319376', 'mgs': 0, 'flw2': 0.65, 'flw1': 0.0, 'flw0': 2.92, 'time': 42.03, 'compass': 101.71, 'pitch': -0.99, 'roll': 4.29}
{'lipoC2': 7.29, 'temp': 0.0, 'lipoC3S3': 11.42, 'state': 'normal', 'rot1': 283, 'rot0': 254, 'rot3': 3, 'rot2': 3, 'depth': 1.385, 'yaw': 117.89, 'datetime': '2018-12-12 14:53:22.525051', 'mgs': 0, 'flw2': 0.11, 'flw1': 0.0, 'flw0': 0.0, 'time': 42.24, 'compass': 101.26, 'pitch': -1.63, 'roll': 3.88}
{'lipoC2': 7.29, 'temp': 0.0, 'lipoC3S3': 11.0, 'state': 'normal', 'rot1': 283, 'rot0': 254, 'rot3': 3, 'rot2': 3, 'depth': 0.012, 'yaw': 117.35, 'datetime': '2018-12-12 14:53:22.733777', 'mgs': 0, 'flw2': 0.0, 'flw1': 0.0, 'flw0': 0.0, 'time': 42.45, 'compass': 100.71, 'pitch': -2.31, 'roll': 3.84}
{'lipoC2': 7.21, 'temp': 0.0, 'lipoC3S3': 10.88, 'state': 'normal', 'rot1': 283, 'rot0': 254, 'rot3': 3, 'rot2': 3, 'depth': -0.903, 'yaw': 117.2, 'datetime': '2018-12-12 14:53:22.945062', 'mgs': 0, 'flw2': 0.0, 'flw1': 0.0, 'flw0': 0.0, 'time': 42.66, 'compass': 100.56, 'pitch': -2.28, 'roll': 3.64}
{'lipoC2': 7.08, 'temp': 0.0, 'lipoC3S3': 10.9, 'state': 'normal', 'rot1': 283, 'rot0': 254, 'rot3': 3, 'rot2': 3, 'depth': -0.522, 'yaw': 117.24, 'datetime': '2018-12-12 14:53:23.154318', 'mgs': 0, 'flw2': 0.05, 'flw1': 0.0, 'flw0': 0.21, 'time': 42.87, 'compass': 100.6, 'pitch': -2.54, 'roll': 3.56}
