{'lipoC3S3': 0.0, 'datetime': '2019-02-27 09:47:29.910531', 'pitch': 1.11, 'rot1': 0, 'rot0': 0, 'rot3': 0, 'rot2': 0, 'state': 'normal', 'flw3': 0, 'flw2': 0, 'flw1': 0, 'flw0': 0, 'roll': 0.33, 'cur2': 0.0, 'cur0': 0.0, 'cur1': 0.0, 'mgs': 0, 'compass': 3.98, 'lipoC2': 0.0, 'temp': 24.66, 'thr3': 37.0, 'depth': 0.129, 'time': 1.55, 'thr2': 32.0, 'yaw': 0.0, 'thr0': 27.0, 'thr1': 27.0}
{'lipoC3S3': 0.0, 'datetime': '2019-02-27 09:47:30.230686', 'pitch': 1.11, 'rot1': 0, 'rot0': 0, 'rot3': 0, 'rot2': 0, 'state': 'normal', 'flw3': 0, 'flw2': 0, 'flw1': 0, 'flw0': 0, 'roll': 0.33, 'cur2': 0.0, 'cur0': 0.0, 'cur1': 0.0, 'mgs': 0, 'compass': 3.98, 'lipoC2': 0.0, 'temp': 24.66, 'thr3': 36.0, 'depth': 0.119, 'time': 1.87, 'thr2': 32.0, 'yaw': 0.0, 'thr0': 27.0, 'thr1': 27.0}
{'lipoC3S3': 0.0, 'datetime': '2019-02-27 09:47:30.550926', 'pitch': 1.11, 'rot1': 0, 'rot0': 0, 'rot3': 0, 'rot2': 0, 'state': 'normal', 'flw3': 0, 'flw2': 0, 'flw1': 0, 'flw0': 0, 'roll': 0.33, 'cur2': 0.0, 'cur0': 0.0, 'cur1': 0.0, 'mgs': 0, 'compass': 3.98, 'lipoC2': 0.0, 'temp': 24.67, 'thr3': 36.0, 'depth': 0.129, 'time': 2.19, 'thr2': 32.0, 'yaw': 0.0, 'thr0': 27.0, 'thr1': 27.0}
{'lipoC3S3': 0.0, 'datetime': '2019-02-27 09:47:30.873152', 'pitch': 1.11, 'rot1': 0, 'rot0': 0, 'rot3': 0, 'rot2': 0, 'state': 'normal', 'flw3': 0, 'flw2': 0, 'flw1': 0, 'flw0': 0, 'roll': 0.33, 'cur2': 0.0, 'cur0': 0.0, 'cur1': 0.0, 'mgs': 0, 'compass': 3.98, 'lipoC2': 0.0, 'temp': 24.67, 'thr3': 36.0, 'depth': 0.129, 'time': 2.52, 'thr2': 31.0, 'yaw': 0.0, 'thr0': 27.0, 'thr1': 27.0}
{'lipoC3S3': 0.0, 'datetime': '2019-02-27 09:47:31.195484', 'pitch': 1.11, 'rot1': 0, 'rot0': 0, 'rot3': 0, 'rot2': 0, 'state': 'normal', 'flw3': 0, 'flw2': 0, 'flw1': 0, 'flw0': 0, 'roll': 0.33, 'cur2': 0.0, 'cur0': 0.0, 'cur1': 0.0, 'mgs': 0, 'compass': 3.98, 'lipoC2': 0.0, 'temp': 24.67, 'thr3': 36.0, 'depth': 0.129, 'time': 2.84, 'thr2': 31.0, 'yaw': 0.0, 'thr0': 27.0, 'thr1': 27.0}
{'lipoC3S3': 0.0, 'datetime': '2019-02-27 09:47:31.517952', 'pitch': 1.11, 'rot1': 0, 'rot0': 0, 'rot3': 0, 'rot2': 0, 'state': 'normal', 'flw3': 0, 'flw2': 0, 'flw1': 0, 'flw0': 0, 'roll': 0.33, 'cur2': 0.0, 'cur0': 0.0, 'cur1': 0.0, 'mgs': 0, 'compass': 3.98, 'lipoC2': 0.0, 'temp': 24.68, 'thr3': 36.0, 'depth': 0.129, 'time': 3.16, 'thr2': 31.0, 'yaw': 0.0, 'thr0': 27.0, 'thr1': 27.0}
{'lipoC3S3': 0.0, 'datetime': '2019-02-27 09:47:31.839245', 'pitch': 1.11, 'rot1': 0, 'rot0': 0, 'rot3': 0, 'rot2': 0, 'state': 'normal', 'flw3': 0, 'flw2': 0, 'flw1': 0, 'flw0': 0, 'roll': 0.33, 'cur2': 0.0, 'cur0': 0.0, 'cur1': 0.0, 'mgs': 0, 'compass': 3.98, 'lipoC2': 0.0, 'temp': 24.67, 'thr3': 35.0, 'depth': 0.129, 'time': 3.48, 'thr2': 31.0, 'yaw': 0.0, 'thr0': 27.0, 'thr1': 27.0}
{'lipoC3S3': 0.0, 'datetime': '2019-02-27 09:47:32.160663', 'pitch': 1.11, 'rot1': 0, 'rot0': 0, 'rot3': 0, 'rot2': 0, 'state': 'normal', 'flw3': 0, 'flw2': 0, 'flw1': 0, 'flw0': 0, 'roll': 0.33, 'cur2': 0.0, 'cur0': 0.0, 'cur1': 0.0, 'mgs': 0, 'compass': 3.98, 'lipoC2': 0.0, 'temp': 24.68, 'thr3': 36.0, 'depth': 0.119, 'time': 3.8, 'thr2': 31.0, 'yaw': 0.0, 'thr0': 27.0, 'thr1': 27.0}
{'lipoC3S3': 0.0, 'datetime': '2019-02-27 09:47:32.482814', 'pitch': 1.11, 'rot1': 0, 'rot0': 0, 'rot3': 0, 'rot2': 0, 'state': 'normal', 'flw3': 0, 'flw2': 0, 'flw1': 0, 'flw0': 0, 'roll': 0.33, 'cur2': 0.0, 'cur0': 0.0, 'cur1': 0.0, 'mgs': 0, 'compass': 3.98, 'lipoC2': 0.0, 'temp': 24.68, 'thr3': 35.0, 'depth': 0.129, 'time': 4.12, 'thr2': 31.0, 'yaw': 0.0, 'thr0': 27.0, 'thr1': 27.0}
{'lipoC3S3': 0.0, 'datetime': '2019-02-27 09:47:32.803627', 'pitch': 1.03, 'rot1': 0, 'rot0': 0, 'rot3': 0, 'rot2': 0, 'state': 'normal', 'flw3': 0, 'flw2': 0, 'flw1': 0, 'flw0': 0, 'roll': 0.32, 'cur2': 0.0, 'cur0': 0.0, 'cur1': 0.0, 'mgs': 0, 'compass': 3.84, 'lipoC2': 0.0, 'temp': 24.68, 'thr3': 35.0, 'depth': 0.129, 'time': 4.44, 'thr2': 31.0, 'yaw': -0.15, 'thr0': 27.0, 'thr1': 27.0}
{'lipoC3S3': 0.0, 'datetime': '2019-02-27 09:47:33.124123', 'pitch': 1.16, 'rot1': 0, 'rot0': 0, 'rot3': 0, 'rot2': 0, 'state': 'normal', 'flw3': 0, 'flw2': 0, 'flw1': 0, 'flw0': 0, 'roll': 0.34, 'cur2': 0.0, 'cur0': 0.0, 'cur1': 0.0, 'mgs': 0, 'compass': 1.21, 'lipoC2': 0.0, 'temp': 24.68, 'thr3': 35.0, 'depth': 0.129, 'time': 4.76, 'thr2': 31.0, 'yaw': -2.78, 'thr0': 27.0, 'thr1': 27.0}
{'lipoC3S3': 0.0, 'datetime': '2019-02-27 09:47:33.447212', 'pitch': 1.29, 'rot1': 0, 'rot0': 0, 'rot3': 0, 'rot2': 0, 'state': 'normal', 'flw3': 0, 'flw2': 0, 'flw1': 0, 'flw0': 0, 'roll': 0.33, 'cur2': 0.0, 'cur0': 0.0, 'cur1': 0.0, 'mgs': 0, 'compass': -4.47, 'lipoC2': 0.0, 'temp': 24.68, 'thr3': 35.0, 'depth': 0.129, 'time': 5.09, 'thr2': 31.0, 'yaw': -8.46, 'thr0': 27.0, 'thr1': 27.0}
{'lipoC3S3': 0.0, 'datetime': '2019-02-27 09:47:33.767252', 'pitch': 1.34, 'rot1': 3, 'rot0': 2, 'rot3': 5, 'rot2': 11, 'state': 'normal', 'flw3': 0, 'flw2': 0, 'flw1': 0, 'flw0': 0, 'roll': 0.38, 'cur2': 0.39, 'cur0': 0.34, 'cur1': 0.0, 'mgs': 0, 'compass': -12.13, 'lipoC2': 0.0, 'temp': 24.68, 'thr3': 36.0, 'depth': 0.119, 'time': 5.4, 'thr2': 31.0, 'yaw': -16.11, 'thr0': 27.0, 'thr1': 27.0}
{'lipoC3S3': 0.0, 'datetime': '2019-02-27 09:47:34.087622', 'pitch': 1.41, 'rot1': 7, 'rot0': 6, 'rot3': 5, 'rot2': 11, 'state': 'normal', 'flw3': 0, 'flw2': 0, 'flw1': 0, 'flw0': 0, 'roll': 0.48, 'cur2': 0.37, 'cur0': 0.34, 'cur1': 0.0, 'mgs': 0, 'compass': -18.33, 'lipoC2': 0.0, 'temp': 24.68, 'thr3': 36.0, 'depth': 0.119, 'time': 5.72, 'thr2': 32.0, 'yaw': -22.31, 'thr0': 27.0, 'thr1': 27.0}
{'lipoC3S3': 0.0, 'datetime': '2019-02-27 09:47:34.409090', 'pitch': 1.41, 'rot1': 13, 'rot0': 9, 'rot3': 5, 'rot2': 11, 'state': 'normal', 'flw3': 0, 'flw2': 0, 'flw1': 0, 'flw0': 0, 'roll': 0.5, 'cur2': 0.37, 'cur0': 0.34, 'cur1': 0.0, 'mgs': 0, 'compass': -17.74, 'lipoC2': 0.0, 'temp': 24.68, 'thr3': 36.0, 'depth': 0.129, 'time': 6.05, 'thr2': 32.0, 'yaw': -21.72, 'thr0': 27.0, 'thr1': 27.0}
{'lipoC3S3': 0.0, 'datetime': '2019-02-27 09:47:34.730160', 'pitch': 1.47, 'rot1': 19, 'rot0': 12, 'rot3': 5, 'rot2': 11, 'state': 'normal', 'flw3': 0, 'flw2': 0, 'flw1': 0, 'flw0': 0, 'roll': 0.48, 'cur2': 0.35, 'cur0': 0.35, 'cur1': 0.0, 'mgs': 0, 'compass': -10.85, 'lipoC2': 0.0, 'temp': 24.68, 'thr3': 36.0, 'depth': 0.129, 'time': 6.37, 'thr2': 31.0, 'yaw': -14.84, 'thr0': 27.0, 'thr1': 27.0}
{'lipoC3S3': 0.0, 'datetime': '2019-02-27 09:47:35.051904', 'pitch': 1.46, 'rot1': 22, 'rot0': 15, 'rot3': 5, 'rot2': 11, 'state': 'normal', 'flw3': 0, 'flw2': 0, 'flw1': 0, 'flw0': 0, 'roll': 0.4, 'cur2': 0.38, 'cur0': 0.34, 'cur1': 0.0, 'mgs': 0, 'compass': 2.54, 'lipoC2': 0.0, 'temp': 24.68, 'thr3': 36.0, 'depth': 0.119, 'time': 6.69, 'thr2': 31.0, 'yaw': -1.44, 'thr0': 27.0, 'thr1': 27.0}
{'lipoC3S3': 0.0, 'datetime': '2019-02-27 09:47:35.372642', 'pitch': 1.39, 'rot1': 23, 'rot0': 15, 'rot3': 5, 'rot2': 11, 'state': 'normal', 'flw3': 0, 'flw2': 0, 'flw1': 0, 'flw0': 0, 'roll': 0.27, 'cur2': 0.0, 'cur0': 0.0, 'cur1': 0.0, 'mgs': 0, 'compass': 18.57, 'lipoC2': 0.0, 'temp': 24.68, 'thr3': 36.0, 'depth': 0.119, 'time': 7.01, 'thr2': 31.0, 'yaw': 14.59, 'thr0': 27.0, 'thr1': 27.0}
{'lipoC3S3': 0.0, 'datetime': '2019-02-27 09:47:35.693179', 'pitch': 1.37, 'rot1': 32, 'rot0': 18, 'rot3': 5, 'rot2': 11, 'state': 'normal', 'flw3': 0, 'flw2': 0, 'flw1': 0, 'flw0': 0, 'roll': 0.26, 'cur2': 0.42, 'cur0': 0.33, 'cur1': 0.0, 'mgs': 0, 'compass': 33.81, 'lipoC2': 0.0, 'temp': 24.68, 'thr3': 36.0, 'depth': 0.129, 'time': 7.33, 'thr2': 31.0, 'yaw': 29.83, 'thr0': 27.0, 'thr1': 27.0}
{'lipoC3S3': 0.0, 'datetime': '2019-02-27 09:47:36.015296', 'pitch': 1.31, 'rot1': 38, 'rot0': 22, 'rot3': 5, 'rot2': 11, 'state': 'normal', 'flw3': 0, 'flw2': 0, 'flw1': 0, 'flw0': 0, 'roll': 0.22, 'cur2': 0.39, 'cur0': 0.33, 'cur1': 0.0, 'mgs': 0, 'compass': 47.72, 'lipoC2': 0.0, 'temp': 24.68, 'thr3': 35.0, 'depth': 0.129, 'time': 7.65, 'thr2': 31.0, 'yaw': 43.73, 'thr0': 27.0, 'thr1': 27.0}
{'lipoC3S3': 0.0, 'datetime': '2019-02-27 09:47:36.336563', 'pitch': 1.26, 'rot1': 44, 'rot0': 26, 'rot3': 5, 'rot2': 11, 'state': 'normal', 'flw3': 0, 'flw2': 0, 'flw1': 0, 'flw0': 0, 'roll': 0.13, 'cur2': 0.4, 'cur0': 0.33, 'cur1': 0.0, 'mgs': 0, 'compass': 58.53, 'lipoC2': 0.0, 'temp': 24.69, 'thr3': 36.0, 'depth': 0.119, 'time': 7.97, 'thr2': 31.0, 'yaw': 54.55, 'thr0': 27.0, 'thr1': 27.0}
{'lipoC3S3': 0.0, 'datetime': '2019-02-27 09:47:36.655958', 'pitch': 1.21, 'rot1': 49, 'rot0': 31, 'rot3': 5, 'rot2': 11, 'state': 'normal', 'flw3': 0, 'flw2': 0, 'flw1': 0, 'flw0': 0, 'roll': 0.04, 'cur2': 0.39, 'cur0': 0.34, 'cur1': 0.0, 'mgs': 0, 'compass': 63.33, 'lipoC2': 0.0, 'temp': 24.68, 'thr3': 35.0, 'depth': 0.129, 'time': 8.29, 'thr2': 31.0, 'yaw': 59.34, 'thr0': 27.0, 'thr1': 27.0}
{'lipoC3S3': 0.0, 'datetime': '2019-02-27 09:47:36.976088', 'pitch': 1.22, 'rot1': 56, 'rot0': 35, 'rot3': 5, 'rot2': 11, 'state': 'normal', 'flw3': 0, 'flw2': 0, 'flw1': 0, 'flw0': 0, 'roll': 0.11, 'cur2': 0.39, 'cur0': 0.34, 'cur1': 0.0, 'mgs': 0, 'compass': 59.4, 'lipoC2': 0.0, 'temp': 24.68, 'thr3': 35.0, 'depth': 0.129, 'time': 8.61, 'thr2': 31.0, 'yaw': 55.42, 'thr0': 27.0, 'thr1': 27.0}
{'lipoC3S3': 0.0, 'datetime': '2019-02-27 09:47:37.300620', 'pitch': 1.31, 'rot1': 64, 'rot0': 40, 'rot3': 5, 'rot2': 11, 'state': 'normal', 'flw3': 0, 'flw2': 0, 'flw1': 0, 'flw0': 0, 'roll': 0.24, 'cur2': 0.38, 'cur0': 0.34, 'cur1': 0.0, 'mgs': 0, 'compass': 47.62, 'lipoC2': 0.0, 'temp': 24.69, 'thr3': 36.0, 'depth': 0.119, 'time': 8.93, 'thr2': 31.0, 'yaw': 43.64, 'thr0': 27.0, 'thr1': 27.0}
{'lipoC3S3': 0.0, 'datetime': '2019-02-27 09:47:37.622297', 'pitch': 1.42, 'rot1': 71, 'rot0': 43, 'rot3': 5, 'rot2': 11, 'state': 'normal', 'flw3': 0, 'flw2': 0, 'flw1': 0, 'flw0': 0, 'roll': 0.35, 'cur2': 0.4, 'cur0': 0.32, 'cur1': 0.0, 'mgs': 0, 'compass': 31.21, 'lipoC2': 0.0, 'temp': 24.68, 'thr3': 36.0, 'depth': 0.119, 'time': 9.25, 'thr2': 31.0, 'yaw': 27.23, 'thr0': 27.0, 'thr1': 27.0}
{'lipoC3S3': 0.0, 'datetime': '2019-02-27 09:47:37.943202', 'pitch': 1.39, 'rot1': 78, 'rot0': 48, 'rot3': 5, 'rot2': 11, 'state': 'normal', 'flw3': 0, 'flw2': 0, 'flw1': 0, 'flw0': 0, 'roll': 0.39, 'cur2': 0.42, 'cur0': 0.31, 'cur1': 0.0, 'mgs': 0, 'compass': 18.23, 'lipoC2': 0.0, 'temp': 24.68, 'thr3': 35.0, 'depth': 0.129, 'time': 9.57, 'thr2': 31.0, 'yaw': 14.24, 'thr0': 27.0, 'thr1': 27.0}
{'lipoC3S3': 0.0, 'datetime': '2019-02-27 09:47:38.265563', 'pitch': 1.35, 'rot1': 85, 'rot0': 51, 'rot3': 5, 'rot2': 11, 'state': 'normal', 'flw3': 0, 'flw2': 0, 'flw1': 0, 'flw0': 0, 'roll': 0.49, 'cur2': 0.4, 'cur0': 0.35, 'cur1': 0.0, 'mgs': 0, 'compass': 10.06, 'lipoC2': 0.0, 'temp': 24.68, 'thr3': 36.0, 'depth': 0.129, 'time': 9.9, 'thr2': 31.0, 'yaw': 6.07, 'thr0': 27.0, 'thr1': 27.0}
{'lipoC3S3': 0.0, 'datetime': '2019-02-27 09:47:38.587074', 'pitch': 1.22, 'rot1': 90, 'rot0': 54, 'rot3': 5, 'rot2': 11, 'state': 'normal', 'flw3': 0, 'flw2': 0, 'flw1': 0, 'flw0': 0, 'roll': 0.49, 'cur2': 0.0, 'cur0': 0.0, 'cur1': 0.0, 'mgs': 0, 'compass': 6.17, 'lipoC2': 0.0, 'temp': 24.68, 'thr3': 35.0, 'depth': 0.129, 'time': 10.22, 'thr2': 31.0, 'yaw': 2.19, 'thr0': 27.0, 'thr1': 27.0}
{'lipoC3S3': 0.0, 'datetime': '2019-02-27 09:47:38.908043', 'pitch': 1.39, 'rot1': 90, 'rot0': 54, 'rot3': 5, 'rot2': 11, 'state': 'normal', 'flw3': 0, 'flw2': 0, 'flw1': 0, 'flw0': 0, 'roll': 0.57, 'cur2': 0.0, 'cur0': 0.0, 'cur1': 0.0, 'mgs': 0, 'compass': 1.97, 'lipoC2': 0.0, 'temp': 24.69, 'thr3': 35.0, 'depth': 0.129, 'time': 10.54, 'thr2': 31.0, 'yaw': -2.02, 'thr0': 27.0, 'thr1': 27.0}
{'lipoC3S3': 0.0, 'datetime': '2019-02-27 09:47:39.230786', 'pitch': 1.37, 'rot1': 90, 'rot0': 54, 'rot3': 5, 'rot2': 11, 'state': 'normal', 'flw3': 0, 'flw2': 0, 'flw1': 0, 'flw0': 0, 'roll': 0.55, 'cur2': 0.0, 'cur0': 0.0, 'cur1': 0.0, 'mgs': 0, 'compass': 3.31, 'lipoC2': 0.0, 'temp': 24.69, 'thr3': 35.0, 'depth': 0.119, 'time': 10.86, 'thr2': 31.0, 'yaw': -0.68, 'thr0': 27.0, 'thr1': 27.0}
{'lipoC3S3': 0.0, 'datetime': '2019-02-27 09:47:39.551569', 'pitch': 1.19, 'rot1': 90, 'rot0': 54, 'rot3': 5, 'rot2': 11, 'state': 'normal', 'flw3': 0, 'flw2': 0, 'flw1': 0, 'flw0': 0, 'roll': 0.44, 'cur2': 0.0, 'cur0': 0.0, 'cur1': 0.0, 'mgs': 0, 'compass': 8.12, 'lipoC2': 0.0, 'temp': 24.68, 'thr3': 35.0, 'depth': 0.129, 'time': 11.18, 'thr2': 31.0, 'yaw': 4.13, 'thr0': 27.0, 'thr1': 27.0}
{'lipoC3S3': 0.0, 'datetime': '2019-02-27 09:47:39.873167', 'pitch': 1.26, 'rot1': 91, 'rot0': 55, 'rot3': 5, 'rot2': 18, 'state': 'normal', 'flw3': 0, 'flw2': 0, 'flw1': 0, 'flw0': 0, 'roll': 0.43, 'cur2': 0.46, 'cur0': 0.33, 'cur1': 0.0, 'mgs': 0, 'compass': 12.02, 'lipoC2': 0.0, 'temp': 24.69, 'thr3': 36.0, 'depth': 0.129, 'time': 11.5, 'thr2': 32.0, 'yaw': 8.04, 'thr0': 27.0, 'thr1': 27.0}
{'lipoC3S3': 0.0, 'datetime': '2019-02-27 09:47:40.203773', 'pitch': 1.16, 'rot1': 98, 'rot0': 60, 'rot3': 5, 'rot2': 18, 'state': 'normal', 'flw3': 0, 'flw2': 0, 'flw1': 0, 'flw0': 0, 'roll': 0.36, 'cur2': 0.42, 'cur0': 0.33, 'cur1': 0.0, 'mgs': 0, 'compass': 15.57, 'lipoC2': 0.0, 'temp': 24.68, 'thr3': 35.0, 'depth': 0.119, 'time': 11.82, 'thr2': 31.0, 'yaw': 11.59, 'thr0': 27.0, 'thr1': 27.0}
{'lipoC3S3': 0.0, 'datetime': '2019-02-27 09:47:40.517388', 'pitch': 1.09, 'rot1': 104, 'rot0': 64, 'rot3': 5, 'rot2': 18, 'state': 'normal', 'flw3': 0, 'flw2': 0, 'flw1': 0, 'flw0': 0, 'roll': 0.45, 'cur2': 0.4, 'cur0': 0.33, 'cur1': 0.0, 'mgs': 0, 'compass': 9.98, 'lipoC2': 0.0, 'temp': 24.69, 'thr3': 36.0, 'depth': 0.119, 'time': 12.15, 'thr2': 31.0, 'yaw': 5.99, 'thr0': 27.0, 'thr1': 27.0}
{'lipoC3S3': 0.0, 'datetime': '2019-02-27 09:47:40.839012', 'pitch': 1.17, 'rot1': 108, 'rot0': 67, 'rot3': 5, 'rot2': 18, 'state': 'normal', 'flw3': 0, 'flw2': 0, 'flw1': 0, 'flw0': 0, 'roll': 0.62, 'cur2': 0.0, 'cur0': 0.0, 'cur1': 0.0, 'mgs': 0, 'compass': -2.98, 'lipoC2': 0.0, 'temp': 24.68, 'thr3': 35.0, 'depth': 0.129, 'time': 12.47, 'thr2': 31.0, 'yaw': -6.96, 'thr0': 27.0, 'thr1': 27.0}
{'lipoC3S3': 0.0, 'datetime': '2019-02-27 09:47:41.161337', 'pitch': 1.07, 'rot1': 110, 'rot0': 67, 'rot3': 5, 'rot2': 19, 'state': 'normal', 'flw3': 0, 'flw2': 0, 'flw1': 0, 'flw0': 0, 'roll': 0.62, 'cur2': 0.4, 'cur0': 0.37, 'cur1': 0.0, 'mgs': 0, 'compass': -15.47, 'lipoC2': 0.0, 'temp': 24.69, 'thr3': 36.0, 'depth': 0.129, 'time': 12.79, 'thr2': 31.0, 'yaw': -19.46, 'thr0': 27.0, 'thr1': 27.0}
{'lipoC3S3': 0.0, 'datetime': '2019-02-27 09:47:41.482968', 'pitch': 1.2, 'rot1': 116, 'rot0': 70, 'rot3': 5, 'rot2': 19, 'state': 'normal', 'flw3': 0, 'flw2': 0, 'flw1': 0, 'flw0': 0, 'roll': 0.78, 'cur2': 0.39, 'cur0': 0.33, 'cur1': 0.0, 'mgs': 0, 'compass': -26.05, 'lipoC2': 0.0, 'temp': 24.69, 'thr3': 36.0, 'depth': 0.129, 'time': 13.11, 'thr2': 31.0, 'yaw': -30.03, 'thr0': 27.0, 'thr1': 27.0}
{'lipoC3S3': 0.0, 'datetime': '2019-02-27 09:47:41.803748', 'pitch': 1.26, 'rot1': 120, 'rot0': 74, 'rot3': 5, 'rot2': 19, 'state': 'normal', 'flw3': 0, 'flw2': 0, 'flw1': 0, 'flw0': 0, 'roll': 0.84, 'cur2': 0.39, 'cur0': 0.35, 'cur1': 0.0, 'mgs': 0, 'compass': -29.14, 'lipoC2': 0.0, 'temp': 24.69, 'thr3': 36.0, 'depth': 0.129, 'time': 13.43, 'thr2': 31.0, 'yaw': -33.13, 'thr0': 27.0, 'thr1': 27.0}
{'lipoC3S3': 0.0, 'datetime': '2019-02-27 09:47:42.126584', 'pitch': 1.35, 'rot1': 127, 'rot0': 76, 'rot3': 5, 'rot2': 19, 'state': 'normal', 'flw3': 0, 'flw2': 0, 'flw1': 0, 'flw0': 0, 'roll': 0.76, 'cur2': 0.38, 'cur0': 0.33, 'cur1': 0.0, 'mgs': 0, 'compass': -22.68, 'lipoC2': 0.0, 'temp': 24.69, 'thr3': 36.0, 'depth': 0.129, 'time': 13.75, 'thr2': 32.0, 'yaw': -26.66, 'thr0': 27.0, 'thr1': 27.0}
{'lipoC3S3': 0.0, 'datetime': '2019-02-27 09:47:42.446789', 'pitch': 1.44, 'rot1': 131, 'rot0': 79, 'rot3': 5, 'rot2': 19, 'state': 'normal', 'flw3': 0, 'flw2': 0, 'flw1': 0, 'flw0': 0, 'roll': 0.7, 'cur2': 0.39, 'cur0': 0.33, 'cur1': 0.0, 'mgs': 0, 'compass': -9.16, 'lipoC2': 0.0, 'temp': 24.69, 'thr3': 36.0, 'depth': 0.119, 'time': 14.07, 'thr2': 31.0, 'yaw': -13.14, 'thr0': 27.0, 'thr1': 27.0}
{'lipoC3S3': 0.0, 'datetime': '2019-02-27 09:47:42.766716', 'pitch': 1.5, 'rot1': 135, 'rot0': 81, 'rot3': 5, 'rot2': 19, 'state': 'normal', 'flw3': 0, 'flw2': 0, 'flw1': 0, 'flw0': 0, 'roll': 0.65, 'cur2': 0.0, 'cur0': 0.0, 'cur1': 0.0, 'mgs': 0, 'compass': 8.25, 'lipoC2': 0.0, 'temp': 24.69, 'thr3': 36.0, 'depth': 0.119, 'time': 14.4, 'thr2': 31.0, 'yaw': 4.26, 'thr0': 27.0, 'thr1': 27.0}
{'lipoC3S3': 0.0, 'datetime': '2019-02-27 09:47:43.091519', 'pitch': 1.53, 'rot1': 136, 'rot0': 83, 'rot3': 5, 'rot2': 19, 'state': 'normal', 'flw3': 0, 'flw2': 0, 'flw1': 0, 'flw0': 0, 'roll': 0.6, 'cur2': 0.45, 'cur0': 0.35, 'cur1': 0.0, 'mgs': 0, 'compass': 27.09, 'lipoC2': 0.0, 'temp': 24.69, 'thr3': 36.0, 'depth': 0.119, 'time': 14.72, 'thr2': 31.0, 'yaw': 23.11, 'thr0': 27.0, 'thr1': 27.0}
{'lipoC3S3': 0.0, 'datetime': '2019-02-27 09:47:43.410309', 'pitch': 1.57, 'rot1': 144, 'rot0': 87, 'rot3': 5, 'rot2': 19, 'state': 'normal', 'flw3': 0, 'flw2': 0, 'flw1': 0, 'flw0': 0, 'roll': 0.46, 'cur2': 0.42, 'cur0': 0.34, 'cur1': 0.0, 'mgs': 0, 'compass': 44.7, 'lipoC2': 0.0, 'temp': 24.69, 'thr3': 35.0, 'depth': 0.119, 'time': 15.04, 'thr2': 31.0, 'yaw': 40.72, 'thr0': 27.0, 'thr1': 27.0}
{'lipoC3S3': 0.0, 'datetime': '2019-02-27 09:47:43.732613', 'pitch': 1.68, 'rot1': 151, 'rot0': 91, 'rot3': 5, 'rot2': 19, 'state': 'normal', 'flw3': 0, 'flw2': 0, 'flw1': 0, 'flw0': 0, 'roll': 0.36, 'cur2': 0.4, 'cur0': 0.35, 'cur1': 0.0, 'mgs': 0, 'compass': 58.38, 'lipoC2': 0.0, 'temp': 24.69, 'thr3': 36.0, 'depth': 0.129, 'time': 15.36, 'thr2': 31.0, 'yaw': 54.4, 'thr0': 27.0, 'thr1': 27.0}
{'lipoC3S3': 0.0, 'datetime': '2019-02-27 09:47:44.067806', 'pitch': 1.71, 'rot1': 158, 'rot0': 95, 'rot3': 5, 'rot2': 19, 'state': 'normal', 'flw3': 0, 'flw2': 0, 'flw1': 0, 'flw0': 0, 'roll': 0.27, 'cur2': 0.39, 'cur0': 0.33, 'cur1': 0.0, 'mgs': 0, 'compass': 62.98, 'lipoC2': 0.0, 'temp': 24.69, 'thr3': 36.0, 'depth': 0.129, 'time': 15.68, 'thr2': 31.0, 'yaw': 59.0, 'thr0': 27.0, 'thr1': 27.0}
{'lipoC3S3': 0.0, 'datetime': '2019-02-27 09:47:44.376546', 'pitch': 1.68, 'rot1': 165, 'rot0': 101, 'rot3': 5, 'rot2': 19, 'state': 'normal', 'flw3': 0, 'flw2': 0, 'flw1': 0, 'flw0': 0, 'roll': 0.38, 'cur2': 0.38, 'cur0': 0.32, 'cur1': 0.0, 'mgs': 0, 'compass': 58.99, 'lipoC2': 0.0, 'temp': 24.69, 'thr3': 36.0, 'depth': 0.119, 'time': 16.0, 'thr2': 32.0, 'yaw': 55.01, 'thr0': 27.0, 'thr1': 27.0}
{'lipoC3S3': 0.0, 'datetime': '2019-02-27 09:47:44.699923', 'pitch': 1.64, 'rot1': 173, 'rot0': 107, 'rot3': 5, 'rot2': 19, 'state': 'normal', 'flw3': 0, 'flw2': 0, 'flw1': 0, 'flw0': 0, 'roll': 0.54, 'cur2': 0.43, 'cur0': 0.32, 'cur1': 0.0, 'mgs': 0, 'compass': 48.39, 'lipoC2': 0.0, 'temp': 24.69, 'thr3': 36.0, 'depth': 0.129, 'time': 16.32, 'thr2': 31.0, 'yaw': 44.41, 'thr0': 27.0, 'thr1': 27.0}
{'lipoC3S3': 0.0, 'datetime': '2019-02-27 09:47:45.026225', 'pitch': 1.68, 'rot1': 181, 'rot0': 112, 'rot3': 5, 'rot2': 20, 'state': 'normal', 'flw3': 0, 'flw2': 0, 'flw1': 0, 'flw0': 0, 'roll': 0.71, 'cur2': 0.39, 'cur0': 0.33, 'cur1': 0.0, 'mgs': 0, 'compass': 35.0, 'lipoC2': 0.0, 'temp': 24.69, 'thr3': 36.0, 'depth': 0.119, 'time': 16.64, 'thr2': 32.0, 'yaw': 31.02, 'thr0': 27.0, 'thr1': 27.0}
{'lipoC3S3': 0.0, 'datetime': '2019-02-27 09:47:45.348368', 'pitch': 1.55, 'rot1': 186, 'rot0': 116, 'rot3': 5, 'rot2': 20, 'state': 'normal', 'flw3': 0, 'flw2': 0, 'flw1': 0, 'flw0': 0, 'roll': 0.83, 'cur2': 0.43, 'cur0': 0.33, 'cur1': 0.0, 'mgs': 0, 'compass': 22.35, 'lipoC2': 0.0, 'temp': 24.69, 'thr3': 35.0, 'depth': 0.119, 'time': 16.97, 'thr2': 31.0, 'yaw': 18.36, 'thr0': 27.0, 'thr1': 27.0}
{'lipoC3S3': 0.0, 'datetime': '2019-02-27 09:47:45.670081', 'pitch': 1.45, 'rot1': 194, 'rot0': 120, 'rot3': 5, 'rot2': 20, 'state': 'normal', 'flw3': 0, 'flw2': 0, 'flw1': 0, 'flw0': 0, 'roll': 0.88, 'cur2': 0.4, 'cur0': 0.33, 'cur1': 0.0, 'mgs': 0, 'compass': 11.15, 'lipoC2': 0.0, 'temp': 24.69, 'thr3': 36.0, 'depth': 0.129, 'time': 17.29, 'thr2': 31.0, 'yaw': 7.17, 'thr0': 27.0, 'thr1': 27.0}
{'lipoC3S3': 0.0, 'datetime': '2019-02-27 09:47:45.991316', 'pitch': 1.37, 'rot1': 199, 'rot0': 123, 'rot3': 5, 'rot2': 20, 'state': 'normal', 'flw3': 0, 'flw2': 0, 'flw1': 0, 'flw0': 0, 'roll': 0.99, 'cur2': 0.0, 'cur0': 0.0, 'cur1': 0.0, 'mgs': 0, 'compass': 1.8, 'lipoC2': 0.0, 'temp': 24.69, 'thr3': 36.0, 'depth': 0.129, 'time': 17.61, 'thr2': 31.0, 'yaw': -2.18, 'thr0': 27.0, 'thr1': 27.0}
{'lipoC3S3': 0.0, 'datetime': '2019-02-27 09:47:46.313035', 'pitch': 1.26, 'rot1': 199, 'rot0': 123, 'rot3': 5, 'rot2': 20, 'state': 'normal', 'flw3': 0, 'flw2': 0, 'flw1': 0, 'flw0': 0, 'roll': 1.0, 'cur2': 0.0, 'cur0': 0.0, 'cur1': 0.0, 'mgs': 0, 'compass': -4.3, 'lipoC2': 0.0, 'temp': 24.69, 'thr3': 35.0, 'depth': 0.119, 'time': 17.93, 'thr2': 31.0, 'yaw': -8.28, 'thr0': 27.0, 'thr1': 27.0}
{'lipoC3S3': 0.0, 'datetime': '2019-02-27 09:47:46.635900', 'pitch': 1.29, 'rot1': 199, 'rot0': 123, 'rot3': 14, 'rot2': 37, 'state': 'normal', 'flw3': 0, 'flw2': 0, 'flw1': 0, 'flw0': 0, 'roll': 1.07, 'cur2': 0.42, 'cur0': 0.4, 'cur1': 0.0, 'mgs': 0, 'compass': -10.52, 'lipoC2': 0.0, 'temp': 24.69, 'thr3': 36.0, 'depth': 0.129, 'time': 18.25, 'thr2': 31.0, 'yaw': -14.51, 'thr0': 27.0, 'thr1': 27.0}
{'lipoC3S3': 0.0, 'datetime': '2019-02-27 09:47:46.957939', 'pitch': 1.38, 'rot1': 204, 'rot0': 125, 'rot3': 14, 'rot2': 37, 'state': 'normal', 'flw3': 0, 'flw2': 0, 'flw1': 0, 'flw0': 0, 'roll': 1.16, 'cur2': 0.38, 'cur0': 0.32, 'cur1': 0.0, 'mgs': 0, 'compass': -15.34, 'lipoC2': 0.0, 'temp': 24.69, 'thr3': 36.0, 'depth': 0.119, 'time': 18.57, 'thr2': 31.0, 'yaw': -19.32, 'thr0': 27.0, 'thr1': 27.0}
{'lipoC3S3': 0.0, 'datetime': '2019-02-27 09:47:47.280076', 'pitch': 1.36, 'rot1': 210, 'rot0': 128, 'rot3': 14, 'rot2': 37, 'state': 'normal', 'flw3': 0, 'flw2': 0, 'flw1': 0, 'flw0': 0, 'roll': 1.15, 'cur2': 0.39, 'cur0': 0.34, 'cur1': 0.0, 'mgs': 0, 'compass': -14.47, 'lipoC2': 0.0, 'temp': 24.69, 'thr3': 36.0, 'depth': 0.119, 'time': 18.89, 'thr2': 32.0, 'yaw': -18.45, 'thr0': 27.0, 'thr1': 27.0}
{'lipoC3S3': 0.0, 'datetime': '2019-02-27 09:47:47.602160', 'pitch': 1.31, 'rot1': 216, 'rot0': 131, 'rot3': 14, 'rot2': 37, 'state': 'normal', 'flw3': 0, 'flw2': 0, 'flw1': 0, 'flw0': 0, 'roll': 1.07, 'cur2': 0.4, 'cur0': 0.32, 'cur1': 0.0, 'mgs': 0, 'compass': -10.71, 'lipoC2': 0.0, 'temp': 24.69, 'thr3': 36.0, 'depth': 0.119, 'time': 19.22, 'thr2': 31.0, 'yaw': -14.69, 'thr0': 27.0, 'thr1': 27.0}
{'lipoC3S3': 0.0, 'datetime': '2019-02-27 09:47:47.923459', 'pitch': 1.46, 'rot1': 221, 'rot0': 133, 'rot3': 14, 'rot2': 37, 'state': 'normal', 'flw3': 0, 'flw2': 0, 'flw1': 0, 'flw0': 0, 'roll': 1.03, 'cur2': 0.4, 'cur0': 0.34, 'cur1': 0.0, 'mgs': 0, 'compass': -6.09, 'lipoC2': 0.0, 'temp': 24.69, 'thr3': 36.0, 'depth': 0.119, 'time': 19.54, 'thr2': 31.0, 'yaw': -10.07, 'thr0': 27.0, 'thr1': 27.0}
{'lipoC3S3': 0.0, 'datetime': '2019-02-27 09:47:48.246130', 'pitch': 1.4, 'rot1': 225, 'rot0': 136, 'rot3': 14, 'rot2': 37, 'state': 'normal', 'flw3': 0, 'flw2': 0, 'flw1': 0, 'flw0': 0, 'roll': 0.9, 'cur2': 0.0, 'cur0': 0.0, 'cur1': 0.0, 'mgs': 0, 'compass': 0.63, 'lipoC2': 0.0, 'temp': 24.69, 'thr3': 36.0, 'depth': 0.129, 'time': 19.86, 'thr2': 32.0, 'yaw': -3.36, 'thr0': 27.0, 'thr1': 27.0}
{'lipoC3S3': 0.0, 'datetime': '2019-02-27 09:47:48.567196', 'pitch': 1.41, 'rot1': 225, 'rot0': 136, 'rot3': 14, 'rot2': 37, 'state': 'normal', 'flw3': 0, 'flw2': 0, 'flw1': 0, 'flw0': 0, 'roll': 0.79, 'cur2': 0.0, 'cur0': 0.0, 'cur1': 0.0, 'mgs': 0, 'compass': 6.56, 'lipoC2': 0.0, 'temp': 24.69, 'thr3': 36.0, 'depth': 0.119, 'time': 20.18, 'thr2': 31.0, 'yaw': 2.58, 'thr0': 27.0, 'thr1': 27.0}
{'lipoC3S3': 0.0, 'datetime': '2019-02-27 09:47:48.888465', 'pitch': 1.33, 'rot1': 225, 'rot0': 136, 'rot3': 14, 'rot2': 37, 'state': 'normal', 'flw3': 0, 'flw2': 0, 'flw1': 0, 'flw0': 0, 'roll': 0.77, 'cur2': 0.0, 'cur0': 0.0, 'cur1': 0.0, 'mgs': 0, 'compass': 7.37, 'lipoC2': 0.0, 'temp': 24.69, 'thr3': 36.0, 'depth': 0.119, 'time': 20.5, 'thr2': 31.0, 'yaw': 3.38, 'thr0': 27.0, 'thr1': 27.0}
{'lipoC3S3': 0.0, 'datetime': '2019-02-27 09:47:49.211450', 'pitch': 1.3, 'rot1': 225, 'rot0': 136, 'rot3': 14, 'rot2': 37, 'state': 'normal', 'flw3': 0, 'flw2': 0, 'flw1': 0, 'flw0': 0, 'roll': 0.87, 'cur2': 0.0, 'cur0': 0.0, 'cur1': 0.0, 'mgs': 0, 'compass': 2.94, 'lipoC2': 0.0, 'temp': 24.69, 'thr3': 35.0, 'depth': 0.119, 'time': 20.82, 'thr2': 31.0, 'yaw': -1.04, 'thr0': 27.0, 'thr1': 27.0}
{'lipoC3S3': 0.0, 'datetime': '2019-02-27 09:47:49.532481', 'pitch': 1.3, 'rot1': 225, 'rot0': 136, 'rot3': 14, 'rot2': 37, 'state': 'normal', 'flw3': 0, 'flw2': 0, 'flw1': 0, 'flw0': 0, 'roll': 1.03, 'cur2': 0.0, 'cur0': 0.0, 'cur1': 0.0, 'mgs': 0, 'compass': -4.18, 'lipoC2': 0.0, 'temp': 24.69, 'thr3': 35.0, 'depth': 0.119, 'time': 21.14, 'thr2': 31.0, 'yaw': -8.16, 'thr0': 27.0, 'thr1': 27.0}
{'lipoC3S3': 0.0, 'datetime': '2019-02-27 09:47:49.855433', 'pitch': 1.16, 'rot1': 227, 'rot0': 138, 'rot3': 15, 'rot2': 41, 'state': 'normal', 'flw3': 0, 'flw2': 0, 'flw1': 0, 'flw0': 0, 'roll': 1.08, 'cur2': 0.44, 'cur0': 0.38, 'cur1': 0.0, 'mgs': 0, 'compass': -11.16, 'lipoC2': 0.0, 'temp': 24.69, 'thr3': 36.0, 'depth': 0.119, 'time': 21.47, 'thr2': 31.0, 'yaw': -15.14, 'thr0': 27.0, 'thr1': 27.0}
{'lipoC3S3': 0.0, 'datetime': '2019-02-27 09:47:50.177600', 'pitch': 1.2, 'rot1': 233, 'rot0': 141, 'rot3': 15, 'rot2': 41, 'state': 'normal', 'flw3': 0, 'flw2': 0, 'flw1': 0, 'flw0': 0, 'roll': 1.21, 'cur2': 0.4, 'cur0': 0.32, 'cur1': 0.0, 'mgs': 0, 'compass': -18.04, 'lipoC2': 0.0, 'temp': 24.69, 'thr3': 36.0, 'depth': 0.119, 'time': 21.79, 'thr2': 31.0, 'yaw': -22.02, 'thr0': 27.0, 'thr1': 27.0}
{'lipoC3S3': 0.0, 'datetime': '2019-02-27 09:47:50.498734', 'pitch': 1.22, 'rot1': 238, 'rot0': 144, 'rot3': 15, 'rot2': 41, 'state': 'normal', 'flw3': 0, 'flw2': 0, 'flw1': 0, 'flw0': 0, 'roll': 1.25, 'cur2': 0.39, 'cur0': 0.33, 'cur1': 0.0, 'mgs': 0, 'compass': -19.88, 'lipoC2': 0.0, 'temp': 24.69, 'thr3': 36.0, 'depth': 0.129, 'time': 22.11, 'thr2': 31.0, 'yaw': -23.86, 'thr0': 27.0, 'thr1': 27.0}
{'lipoC3S3': 0.0, 'datetime': '2019-02-27 09:47:50.821477', 'pitch': 1.34, 'rot1': 243, 'rot0': 146, 'rot3': 15, 'rot2': 41, 'state': 'normal', 'flw3': 0, 'flw2': 0, 'flw1': 0, 'flw0': 0, 'roll': 1.29, 'cur2': 0.4, 'cur0': 0.32, 'cur1': 0.0, 'mgs': 0, 'compass': -14.05, 'lipoC2': 0.0, 'temp': 24.69, 'thr3': 36.0, 'depth': 0.119, 'time': 22.43, 'thr2': 31.0, 'yaw': -18.04, 'thr0': 27.0, 'thr1': 27.0}
{'lipoC3S3': 0.0, 'datetime': '2019-02-27 09:47:51.143216', 'pitch': 1.48, 'rot1': 250, 'rot0': 148, 'rot3': 15, 'rot2': 41, 'state': 'normal', 'flw3': 0, 'flw2': 0, 'flw1': 0, 'flw0': 0, 'roll': 1.21, 'cur2': 0.38, 'cur0': 0.34, 'cur1': 0.0, 'mgs': 0, 'compass': 1.88, 'lipoC2': 0.0, 'temp': 24.69, 'thr3': 36.0, 'depth': 0.129, 'time': 22.75, 'thr2': 31.0, 'yaw': -2.11, 'thr0': 27.0, 'thr1': 27.0}
{'lipoC3S3': 0.0, 'datetime': '2019-02-27 09:47:51.465582', 'pitch': 1.6, 'rot1': 251, 'rot0': 148, 'rot3': 15, 'rot2': 41, 'state': 'normal', 'flw3': 0, 'flw2': 0, 'flw1': 0, 'flw0': 0, 'roll': 1.08, 'cur2': 0.0, 'cur0': 0.0, 'cur1': 0.0, 'mgs': 0, 'compass': 20.86, 'lipoC2': 0.0, 'temp': 24.69, 'thr3': 36.0, 'depth': 0.129, 'time': 23.07, 'thr2': 31.0, 'yaw': 16.88, 'thr0': 27.0, 'thr1': 27.0}
{'lipoC3S3': 0.0, 'datetime': '2019-02-27 09:47:51.787302', 'pitch': 1.77, 'rot1': 256, 'rot0': 151, 'rot3': 15, 'rot2': 41, 'state': 'normal', 'flw3': 0, 'flw2': 0, 'flw1': 0, 'flw0': 0, 'roll': 0.92, 'cur2': 0.42, 'cur0': 0.34, 'cur1': 0.0, 'mgs': 0, 'compass': 37.27, 'lipoC2': 0.0, 'temp': 24.69, 'thr3': 36.0, 'depth': 0.119, 'time': 23.4, 'thr2': 31.0, 'yaw': 33.29, 'thr0': 27.0, 'thr1': 27.0}
{'lipoC3S3': 0.0, 'datetime': '2019-02-27 09:47:52.109717', 'pitch': 1.91, 'rot1': 261, 'rot0': 154, 'rot3': 15, 'rot2': 41, 'state': 'normal', 'flw3': 0, 'flw2': 0, 'flw1': 0, 'flw0': 0, 'roll': 0.71, 'cur2': 0.39, 'cur0': 0.33, 'cur1': 0.0, 'mgs': 0, 'compass': 47.28, 'lipoC2': 0.0, 'temp': 24.69, 'thr3': 36.0, 'depth': 0.119, 'time': 23.72, 'thr2': 31.0, 'yaw': 43.29, 'thr0': 27.0, 'thr1': 27.0}
{'lipoC3S3': 0.0, 'datetime': '2019-02-27 09:47:52.431686', 'pitch': 1.91, 'rot1': 267, 'rot0': 158, 'rot3': 15, 'rot2': 41, 'state': 'normal', 'flw3': 0, 'flw2': 0, 'flw1': 0, 'flw0': 0, 'roll': 0.71, 'cur2': 0.38, 'cur0': 0.34, 'cur1': 0.0, 'mgs': 0, 'compass': 47.18, 'lipoC2': 0.0, 'temp': 24.69, 'thr3': 35.0, 'depth': 0.129, 'time': 24.04, 'thr2': 31.0, 'yaw': 43.2, 'thr0': 27.0, 'thr1': 27.0}
{'lipoC3S3': 0.0, 'datetime': '2019-02-27 09:47:52.754324', 'pitch': 1.84, 'rot1': 275, 'rot0': 162, 'rot3': 15, 'rot2': 41, 'state': 'normal', 'flw3': 0, 'flw2': 0, 'flw1': 0, 'flw0': 0, 'roll': 0.91, 'cur2': 0.42, 'cur0': 0.35, 'cur1': 0.0, 'mgs': 0, 'compass': 40.13, 'lipoC2': 0.0, 'temp': 24.69, 'thr3': 36.0, 'depth': 0.119, 'time': 24.36, 'thr2': 31.0, 'yaw': 36.14, 'thr0': 27.0, 'thr1': 27.0}
{'lipoC3S3': 0.0, 'datetime': '2019-02-27 09:47:53.076714', 'pitch': 1.85, 'rot1': 284, 'rot0': 169, 'rot3': 15, 'rot2': 41, 'state': 'normal', 'flw3': 0, 'flw2': 0, 'flw1': 0, 'flw0': 0, 'roll': 1.13, 'cur2': 0.4, 'cur0': 0.32, 'cur1': 0.0, 'mgs': 0, 'compass': 30.67, 'lipoC2': 0.0, 'temp': 24.69, 'thr3': 36.0, 'depth': 0.119, 'time': 24.68, 'thr2': 31.0, 'yaw': 26.68, 'thr0': 27.0, 'thr1': 27.0}
{'lipoC3S3': 0.0, 'datetime': '2019-02-27 09:47:53.401074', 'pitch': 1.72, 'rot1': 292, 'rot0': 173, 'rot3': 15, 'rot2': 41, 'state': 'normal', 'flw3': 0, 'flw2': 0, 'flw1': 0, 'flw0': 0, 'roll': 1.26, 'cur2': 0.43, 'cur0': 0.32, 'cur1': 0.0, 'mgs': 0, 'compass': 21.27, 'lipoC2': 0.0, 'temp': 24.69, 'thr3': 35.0, 'depth': 0.119, 'time': 25.01, 'thr2': 31.0, 'yaw': 17.29, 'thr0': 27.0, 'thr1': 27.0}
{'lipoC3S3': 0.0, 'datetime': '2019-02-27 09:47:53.724261', 'pitch': 1.61, 'rot1': 298, 'rot0': 178, 'rot3': 15, 'rot2': 41, 'state': 'normal', 'flw3': 0, 'flw2': 0, 'flw1': 0, 'flw0': 0, 'roll': 1.38, 'cur2': 0.39, 'cur0': 0.33, 'cur1': 0.0, 'mgs': 0, 'compass': 13.76, 'lipoC2': 0.0, 'temp': 24.69, 'thr3': 36.0, 'depth': 0.119, 'time': 25.33, 'thr2': 31.0, 'yaw': 9.77, 'thr0': 27.0, 'thr1': 27.0}
{'lipoC3S3': 0.0, 'datetime': '2019-02-27 09:47:54.046150', 'pitch': 1.52, 'rot1': 303, 'rot0': 182, 'rot3': 15, 'rot2': 41, 'state': 'normal', 'flw3': 0, 'flw2': 0, 'flw1': 0, 'flw0': 0, 'roll': 1.51, 'cur2': 0.42, 'cur0': 0.34, 'cur1': 0.0, 'mgs': 0, 'compass': 9.19, 'lipoC2': 0.0, 'temp': 24.69, 'thr3': 36.0, 'depth': 0.129, 'time': 25.65, 'thr2': 31.0, 'yaw': 5.21, 'thr0': 27.0, 'thr1': 27.0}
{'lipoC3S3': 0.0, 'datetime': '2019-02-27 09:47:54.369028', 'pitch': 1.43, 'rot1': 307, 'rot0': 185, 'rot3': 15, 'rot2': 41, 'state': 'normal', 'flw3': 0, 'flw2': 0, 'flw1': 0, 'flw0': 0, 'roll': 1.6, 'cur2': 0.0, 'cur0': 0.0, 'cur1': 0.0, 'mgs': 0, 'compass': 4.89, 'lipoC2': 0.0, 'temp': 24.7, 'thr3': 35.0, 'depth': 0.129, 'time': 25.97, 'thr2': 31.0, 'yaw': 0.91, 'thr0': 27.0, 'thr1': 27.0}
{'lipoC3S3': 0.0, 'datetime': '2019-02-27 09:47:54.689690', 'pitch': 1.43, 'rot1': 307, 'rot0': 185, 'rot3': 15, 'rot2': 41, 'state': 'normal', 'flw3': 0, 'flw2': 0, 'flw1': 0, 'flw0': 0, 'roll': 1.69, 'cur2': 0.0, 'cur0': 0.0, 'cur1': 0.0, 'mgs': 0, 'compass': 1.24, 'lipoC2': 0.0, 'temp': 24.69, 'thr3': 35.0, 'depth': 0.119, 'time': 26.29, 'thr2': 31.0, 'yaw': -2.75, 'thr0': 27.0, 'thr1': 27.0}
{'lipoC3S3': 0.0, 'datetime': '2019-02-27 09:47:55.011136', 'pitch': 1.11, 'rot1': 307, 'rot0': 185, 'rot3': 15, 'rot2': 41, 'state': 'normal', 'flw3': 0, 'flw2': 0, 'flw1': 0, 'flw0': 0, 'roll': 1.68, 'cur2': 0.0, 'cur0': 0.0, 'cur1': 0.0, 'mgs': 0, 'compass': 1.5, 'lipoC2': 0.0, 'temp': 24.69, 'thr3': 35.0, 'depth': 0.119, 'time': 26.61, 'thr2': 31.0, 'yaw': -2.48, 'thr0': 27.0, 'thr1': 27.0}
{'lipoC3S3': 0.0, 'datetime': '2019-02-27 09:47:55.333689', 'pitch': 1.14, 'rot1': 307, 'rot0': 185, 'rot3': 15, 'rot2': 41, 'state': 'normal', 'flw3': 0, 'flw2': 0, 'flw1': 0, 'flw0': 0, 'roll': 1.68, 'cur2': 0.0, 'cur0': 0.0, 'cur1': 0.0, 'mgs': 0, 'compass': 1.65, 'lipoC2': 0.0, 'temp': 24.69, 'thr3': 35.0, 'depth': 0.119, 'time': 26.94, 'thr2': 31.0, 'yaw': -2.34, 'thr0': 27.0, 'thr1': 27.0}
{'lipoC3S3': 0.0, 'datetime': '2019-02-27 09:47:55.654660', 'pitch': 1.14, 'rot1': 307, 'rot0': 185, 'rot3': 15, 'rot2': 41, 'state': 'normal', 'flw3': 0, 'flw2': 0, 'flw1': 0, 'flw0': 0, 'roll': 1.68, 'cur2': 0.0, 'cur0': 0.0, 'cur1': 0.0, 'mgs': 0, 'compass': 1.65, 'lipoC2': 0.0, 'temp': 24.69, 'thr3': 35.0, 'depth': 0.119, 'time': 27.26, 'thr2': 31.0, 'yaw': -2.34, 'thr0': 27.0, 'thr1': 27.0}
{'lipoC3S3': 0.0, 'datetime': '2019-02-27 09:47:55.976762', 'pitch': 1.15, 'rot1': 307, 'rot0': 185, 'rot3': 15, 'rot2': 41, 'state': 'normal', 'flw3': 0, 'flw2': 0, 'flw1': 0, 'flw0': 0, 'roll': 1.68, 'cur2': 0.0, 'cur0': 0.0, 'cur1': 0.0, 'mgs': 0, 'compass': 1.65, 'lipoC2': 0.0, 'temp': 24.69, 'thr3': 35.0, 'depth': 0.119, 'time': 27.58, 'thr2': 31.0, 'yaw': -2.34, 'thr0': 27.0, 'thr1': 27.0}
{'lipoC3S3': 0.0, 'datetime': '2019-02-27 09:47:56.298810', 'pitch': 1.16, 'rot1': 307, 'rot0': 185, 'rot3': 15, 'rot2': 41, 'state': 'normal', 'flw3': 0, 'flw2': 0, 'flw1': 0, 'flw0': 0, 'roll': 1.68, 'cur2': 0.0, 'cur0': 0.0, 'cur1': 0.0, 'mgs': 0, 'compass': 1.65, 'lipoC2': 0.0, 'temp': 24.69, 'thr3': 35.0, 'depth': 0.119, 'time': 27.9, 'thr2': 31.0, 'yaw': -2.34, 'thr0': 27.0, 'thr1': 27.0}
{'lipoC3S3': 0.0, 'datetime': '2019-02-27 09:47:56.620754', 'pitch': 1.16, 'rot1': 307, 'rot0': 185, 'rot3': 15, 'rot2': 41, 'state': 'normal', 'flw3': 0, 'flw2': 0, 'flw1': 0, 'flw0': 0, 'roll': 1.68, 'cur2': 0.0, 'cur0': 0.0, 'cur1': 0.0, 'mgs': 0, 'compass': 1.65, 'lipoC2': 0.0, 'temp': 24.69, 'thr3': 35.0, 'depth': 0.129, 'time': 28.22, 'thr2': 31.0, 'yaw': -2.34, 'thr0': 27.0, 'thr1': 27.0}
{'lipoC3S3': 0.0, 'datetime': '2019-02-27 09:47:56.941716', 'pitch': 1.16, 'rot1': 307, 'rot0': 185, 'rot3': 15, 'rot2': 41, 'state': 'normal', 'flw3': 0, 'flw2': 0, 'flw1': 0, 'flw0': 0, 'roll': 1.68, 'cur2': 0.0, 'cur0': 0.0, 'cur1': 0.0, 'mgs': 0, 'compass': 1.65, 'lipoC2': 0.0, 'temp': 24.69, 'thr3': 35.0, 'depth': 0.129, 'time': 28.54, 'thr2': 31.0, 'yaw': -2.34, 'thr0': 27.0, 'thr1': 27.0}
{'lipoC3S3': 0.0, 'datetime': '2019-02-27 09:47:57.264420', 'pitch': 1.16, 'rot1': 307, 'rot0': 185, 'rot3': 15, 'rot2': 41, 'state': 'normal', 'flw3': 0, 'flw2': 0, 'flw1': 0, 'flw0': 0, 'roll': 1.68, 'cur2': 0.0, 'cur0': 0.0, 'cur1': 0.0, 'mgs': 0, 'compass': 1.65, 'lipoC2': 0.0, 'temp': 24.7, 'thr3': 35.0, 'depth': 0.119, 'time': 28.86, 'thr2': 31.0, 'yaw': -2.34, 'thr0': 27.0, 'thr1': 27.0}
{'lipoC3S3': 0.0, 'datetime': '2019-02-27 09:47:57.585839', 'pitch': 1.16, 'rot1': 307, 'rot0': 185, 'rot3': 15, 'rot2': 41, 'state': 'normal', 'flw3': 0, 'flw2': 0, 'flw1': 0, 'flw0': 0, 'roll': 1.68, 'cur2': 0.0, 'cur0': 0.0, 'cur1': 0.0, 'mgs': 0, 'compass': 1.65, 'lipoC2': 0.0, 'temp': 24.69, 'thr3': 35.0, 'depth': 0.129, 'time': 29.19, 'thr2': 31.0, 'yaw': -2.34, 'thr0': 27.0, 'thr1': 27.0}
{'lipoC3S3': 0.0, 'datetime': '2019-02-27 09:47:57.906930', 'pitch': 1.16, 'rot1': 307, 'rot0': 185, 'rot3': 15, 'rot2': 41, 'state': 'normal', 'flw3': 0, 'flw2': 0, 'flw1': 0, 'flw0': 0, 'roll': 1.68, 'cur2': 0.0, 'cur0': 0.0, 'cur1': 0.0, 'mgs': 0, 'compass': 1.65, 'lipoC2': 0.0, 'temp': 24.69, 'thr3': 35.0, 'depth': 0.119, 'time': 29.51, 'thr2': 31.0, 'yaw': -2.34, 'thr0': 27.0, 'thr1': 27.0}
{'lipoC3S3': 0.0, 'datetime': '2019-02-27 09:47:58.230868', 'pitch': 1.16, 'rot1': 307, 'rot0': 185, 'rot3': 15, 'rot2': 41, 'state': 'normal', 'flw3': 0, 'flw2': 0, 'flw1': 0, 'flw0': 0, 'roll': 1.68, 'cur2': 0.0, 'cur0': 0.0, 'cur1': 0.0, 'mgs': 0, 'compass': 1.65, 'lipoC2': 0.0, 'temp': 24.69, 'thr3': 35.0, 'depth': 0.129, 'time': 29.83, 'thr2': 31.0, 'yaw': -2.34, 'thr0': 27.0, 'thr1': 27.0}
{'lipoC3S3': 0.0, 'datetime': '2019-02-27 09:47:58.552682', 'pitch': 1.16, 'rot1': 307, 'rot0': 185, 'rot3': 15, 'rot2': 41, 'state': 'normal', 'flw3': 0, 'flw2': 0, 'flw1': 0, 'flw0': 0, 'roll': 1.68, 'cur2': 0.0, 'cur0': 0.0, 'cur1': 0.0, 'mgs': 0, 'compass': 1.65, 'lipoC2': 0.0, 'temp': 24.69, 'thr3': 35.0, 'depth': 0.129, 'time': 30.15, 'thr2': 31.0, 'yaw': -2.34, 'thr0': 27.0, 'thr1': 27.0}
{'lipoC3S3': 0.0, 'datetime': '2019-02-27 09:47:58.875359', 'pitch': 1.16, 'rot1': 307, 'rot0': 185, 'rot3': 15, 'rot2': 41, 'state': 'normal', 'flw3': 0, 'flw2': 0, 'flw1': 0, 'flw0': 0, 'roll': 1.68, 'cur2': 0.0, 'cur0': 0.0, 'cur1': 0.0, 'mgs': 0, 'compass': 1.65, 'lipoC2': 0.0, 'temp': 24.69, 'thr3': 35.0, 'depth': 0.119, 'time': 30.47, 'thr2': 31.0, 'yaw': -2.34, 'thr0': 27.0, 'thr1': 27.0}
{'lipoC3S3': 0.0, 'datetime': '2019-02-27 09:47:59.195103', 'pitch': 1.16, 'rot1': 307, 'rot0': 185, 'rot3': 15, 'rot2': 41, 'state': 'normal', 'flw3': 0, 'flw2': 0, 'flw1': 0, 'flw0': 0, 'roll': 1.68, 'cur2': 0.0, 'cur0': 0.0, 'cur1': 0.0, 'mgs': 0, 'compass': 1.65, 'lipoC2': 0.0, 'temp': 24.69, 'thr3': 35.0, 'depth': 0.129, 'time': 30.79, 'thr2': 31.0, 'yaw': -2.34, 'thr0': 27.0, 'thr1': 27.0}
{'lipoC3S3': 0.0, 'datetime': '2019-02-27 09:47:59.516719', 'pitch': 1.16, 'rot1': 307, 'rot0': 185, 'rot3': 15, 'rot2': 41, 'state': 'normal', 'flw3': 0, 'flw2': 0, 'flw1': 0, 'flw0': 0, 'roll': 1.68, 'cur2': 0.0, 'cur0': 0.0, 'cur1': 0.0, 'mgs': 0, 'compass': 1.65, 'lipoC2': 0.0, 'temp': 24.69, 'thr3': 35.0, 'depth': 0.119, 'time': 31.11, 'thr2': 31.0, 'yaw': -2.34, 'thr0': 27.0, 'thr1': 27.0}
{'lipoC3S3': 0.0, 'datetime': '2019-02-27 09:47:59.838070', 'pitch': 1.16, 'rot1': 307, 'rot0': 185, 'rot3': 15, 'rot2': 41, 'state': 'normal', 'flw3': 0, 'flw2': 0, 'flw1': 0, 'flw0': 0, 'roll': 1.68, 'cur2': 0.0, 'cur0': 0.0, 'cur1': 0.0, 'mgs': 0, 'compass': 1.65, 'lipoC2': 0.0, 'temp': 24.69, 'thr3': 35.0, 'depth': 0.119, 'time': 31.43, 'thr2': 31.0, 'yaw': -2.34, 'thr0': 27.0, 'thr1': 27.0}
{'lipoC3S3': 0.0, 'datetime': '2019-02-27 09:48:00.159532', 'pitch': 1.16, 'rot1': 307, 'rot0': 185, 'rot3': 15, 'rot2': 41, 'state': 'normal', 'flw3': 0, 'flw2': 0, 'flw1': 0, 'flw0': 0, 'roll': 1.68, 'cur2': 0.0, 'cur0': 0.0, 'cur1': 0.0, 'mgs': 0, 'compass': 1.65, 'lipoC2': 0.0, 'temp': 24.7, 'thr3': 35.0, 'depth': 0.119, 'time': 31.76, 'thr2': 31.0, 'yaw': -2.34, 'thr0': 27.0, 'thr1': 27.0}
{'lipoC3S3': 0.0, 'datetime': '2019-02-27 09:48:00.482486', 'pitch': 1.16, 'rot1': 307, 'rot0': 185, 'rot3': 15, 'rot2': 41, 'state': 'normal', 'flw3': 0, 'flw2': 0, 'flw1': 0, 'flw0': 0, 'roll': 1.68, 'cur2': 0.0, 'cur0': 0.0, 'cur1': 0.0, 'mgs': 0, 'compass': 1.65, 'lipoC2': 0.0, 'temp': 24.7, 'thr3': 35.0, 'depth': 0.119, 'time': 32.08, 'thr2': 31.0, 'yaw': -2.34, 'thr0': 27.0, 'thr1': 27.0}
{'lipoC3S3': 0.0, 'datetime': '2019-02-27 09:48:00.803383', 'pitch': 1.16, 'rot1': 307, 'rot0': 185, 'rot3': 15, 'rot2': 41, 'state': 'normal', 'flw3': 0, 'flw2': 0, 'flw1': 0, 'flw0': 0, 'roll': 1.68, 'cur2': 0.0, 'cur0': 0.0, 'cur1': 0.0, 'mgs': 0, 'compass': 1.65, 'lipoC2': 0.0, 'temp': 24.69, 'thr3': 35.0, 'depth': 0.129, 'time': 32.4, 'thr2': 31.0, 'yaw': -2.34, 'thr0': 27.0, 'thr1': 27.0}
{'lipoC3S3': 0.0, 'datetime': '2019-02-27 09:48:01.125323', 'pitch': 1.16, 'rot1': 307, 'rot0': 185, 'rot3': 15, 'rot2': 41, 'state': 'normal', 'flw3': 0, 'flw2': 0, 'flw1': 0, 'flw0': 0, 'roll': 1.68, 'cur2': 0.0, 'cur0': 0.0, 'cur1': 0.0, 'mgs': 0, 'compass': 1.65, 'lipoC2': 0.0, 'temp': 24.69, 'thr3': 35.0, 'depth': 0.129, 'time': 32.72, 'thr2': 31.0, 'yaw': -2.34, 'thr0': 27.0, 'thr1': 27.0}
{'lipoC3S3': 0.0, 'datetime': '2019-02-27 09:48:01.447591', 'pitch': 1.16, 'rot1': 307, 'rot0': 185, 'rot3': 15, 'rot2': 41, 'state': 'normal', 'flw3': 0, 'flw2': 0, 'flw1': 0, 'flw0': 0, 'roll': 1.68, 'cur2': 0.0, 'cur0': 0.0, 'cur1': 0.0, 'mgs': 0, 'compass': 1.65, 'lipoC2': 0.0, 'temp': 24.7, 'thr3': 35.0, 'depth': 0.129, 'time': 33.04, 'thr2': 31.0, 'yaw': -2.34, 'thr0': 27.0, 'thr1': 27.0}
{'lipoC3S3': 0.0, 'datetime': '2019-02-27 09:48:01.769210', 'pitch': 1.16, 'rot1': 307, 'rot0': 185, 'rot3': 15, 'rot2': 41, 'state': 'normal', 'flw3': 0, 'flw2': 0, 'flw1': 0, 'flw0': 0, 'roll': 1.68, 'cur2': 0.0, 'cur0': 0.0, 'cur1': 0.0, 'mgs': 0, 'compass': 1.65, 'lipoC2': 0.0, 'temp': 24.69, 'thr3': 35.0, 'depth': 0.119, 'time': 33.36, 'thr2': 31.0, 'yaw': -2.34, 'thr0': 27.0, 'thr1': 27.0}
{'lipoC3S3': 0.0, 'datetime': '2019-02-27 09:48:02.090526', 'pitch': 1.01, 'rot1': 307, 'rot0': 185, 'rot3': 15, 'rot2': 41, 'state': 'normal', 'flw3': 0, 'flw2': 0, 'flw1': 0, 'flw0': 0, 'roll': 1.81, 'cur2': 0.0, 'cur0': 0.0, 'cur1': 0.0, 'mgs': 0, 'compass': 5.11, 'lipoC2': 0.0, 'temp': 24.69, 'thr3': 35.0, 'depth': 0.119, 'time': 33.68, 'thr2': 31.0, 'yaw': 1.13, 'thr0': 27.0, 'thr1': 27.0}
{'lipoC3S3': 0.0, 'datetime': '2019-02-27 09:48:02.413431', 'pitch': 1.56, 'rot1': 309, 'rot0': 186, 'rot3': 15, 'rot2': 41, 'state': 'normal', 'flw3': 0, 'flw2': 0, 'flw1': 0, 'flw0': 0, 'roll': 1.68, 'cur2': 0.45, 'cur0': 0.35, 'cur1': 0.0, 'mgs': 0, 'compass': 17.37, 'lipoC2': 0.0, 'temp': 24.7, 'thr3': 35.0, 'depth': 0.119, 'time': 34.01, 'thr2': 31.0, 'yaw': 13.39, 'thr0': 27.0, 'thr1': 27.0}
{'lipoC3S3': 0.0, 'datetime': '2019-02-27 09:48:02.735827', 'pitch': 1.97, 'rot1': 317, 'rot0': 189, 'rot3': 15, 'rot2': 41, 'state': 'normal', 'flw3': 0, 'flw2': 0, 'flw1': 0, 'flw0': 0, 'roll': 1.55, 'cur2': 0.39, 'cur0': 0.34, 'cur1': 0.0, 'mgs': 0, 'compass': 27.25, 'lipoC2': 0.0, 'temp': 24.7, 'thr3': 36.0, 'depth': 0.129, 'time': 34.33, 'thr2': 31.0, 'yaw': 23.27, 'thr0': 27.0, 'thr1': 27.0}
{'lipoC3S3': 0.0, 'datetime': '2019-02-27 09:48:03.056700', 'pitch': 2.05, 'rot1': 323, 'rot0': 193, 'rot3': 15, 'rot2': 41, 'state': 'normal', 'flw3': 0, 'flw2': 0, 'flw1': 0, 'flw0': 0, 'roll': 1.55, 'cur2': 0.42, 'cur0': 0.33, 'cur1': 0.0, 'mgs': 0, 'compass': 25.08, 'lipoC2': 0.0, 'temp': 24.7, 'thr3': 36.0, 'depth': 0.129, 'time': 34.65, 'thr2': 31.0, 'yaw': 21.09, 'thr0': 27.0, 'thr1': 27.0}
{'lipoC3S3': 0.0, 'datetime': '2019-02-27 09:48:03.378747', 'pitch': 1.73, 'rot1': 330, 'rot0': 197, 'rot3': 15, 'rot2': 41, 'state': 'normal', 'flw3': 0, 'flw2': 0, 'flw1': 0, 'flw0': 0, 'roll': 1.73, 'cur2': 0.39, 'cur0': 0.34, 'cur1': 0.0, 'mgs': 0, 'compass': 10.54, 'lipoC2': 0.0, 'temp': 24.7, 'thr3': 35.0, 'depth': 0.119, 'time': 34.97, 'thr2': 31.0, 'yaw': 6.56, 'thr0': 27.0, 'thr1': 27.0}
{'lipoC3S3': 0.0, 'datetime': '2019-02-27 09:48:03.701292', 'pitch': 1.15, 'rot1': 335, 'rot0': 200, 'rot3': 15, 'rot2': 41, 'state': 'normal', 'flw3': 0, 'flw2': 0, 'flw1': 0, 'flw0': 0, 'roll': 1.81, 'cur2': 0.0, 'cur0': 0.0, 'cur1': 0.0, 'mgs': 0, 'compass': -9.53, 'lipoC2': 0.0, 'temp': 24.69, 'thr3': 35.0, 'depth': 0.119, 'time': 35.29, 'thr2': 31.0, 'yaw': -13.52, 'thr0': 27.0, 'thr1': 27.0}
{'lipoC3S3': 0.0, 'datetime': '2019-02-27 09:48:04.022815', 'pitch': 0.72, 'rot1': 338, 'rot0': 201, 'rot3': 18, 'rot2': 45, 'state': 'normal', 'flw3': 0, 'flw2': 0, 'flw1': 0, 'flw0': 0, 'roll': 1.69, 'cur2': 0.43, 'cur0': 0.39, 'cur1': 0.0, 'mgs': 0, 'compass': -27.5, 'lipoC2': 0.0, 'temp': 24.7, 'thr3': 36.0, 'depth': 0.119, 'time': 35.61, 'thr2': 32.0, 'yaw': -31.48, 'thr0': 27.0, 'thr1': 27.0}
{'lipoC3S3': 0.0, 'datetime': '2019-02-27 09:48:04.345513', 'pitch': 0.45, 'rot1': 341, 'rot0': 202, 'rot3': 18, 'rot2': 45, 'state': 'normal', 'flw3': 0, 'flw2': 0, 'flw1': 0, 'flw0': 0, 'roll': 1.65, 'cur2': 0.42, 'cur0': 0.34, 'cur1': 0.0, 'mgs': 0, 'compass': -41.48, 'lipoC2': 0.0, 'temp': 24.7, 'thr3': 36.0, 'depth': 0.129, 'time': 35.94, 'thr2': 31.0, 'yaw': -45.46, 'thr0': 27.0, 'thr1': 27.0}
{'lipoC3S3': 0.0, 'datetime': '2019-02-27 09:48:04.667632', 'pitch': 0.3, 'rot1': 346, 'rot0': 206, 'rot3': 18, 'rot2': 45, 'state': 'normal', 'flw3': 0, 'flw2': 0, 'flw1': 0, 'flw0': 0, 'roll': 1.66, 'cur2': 0.4, 'cur0': 0.33, 'cur1': 0.0, 'mgs': 0, 'compass': -46.63, 'lipoC2': 0.0, 'temp': 24.69, 'thr3': 36.0, 'depth': 0.119, 'time': 36.26, 'thr2': 31.0, 'yaw': -50.61, 'thr0': 27.0, 'thr1': 27.0}
{'lipoC3S3': 0.0, 'datetime': '2019-02-27 09:48:04.989094', 'pitch': 0.44, 'rot1': 350, 'rot0': 208, 'rot3': 18, 'rot2': 45, 'state': 'normal', 'flw3': 0, 'flw2': 0, 'flw1': 0, 'flw0': 0, 'roll': 1.64, 'cur2': 0.4, 'cur0': 0.32, 'cur1': 0.0, 'mgs': 0, 'compass': -41.84, 'lipoC2': 0.0, 'temp': 24.69, 'thr3': 36.0, 'depth': 0.119, 'time': 36.58, 'thr2': 31.0, 'yaw': -45.82, 'thr0': 27.0, 'thr1': 27.0}
{'lipoC3S3': 0.0, 'datetime': '2019-02-27 09:48:05.311480', 'pitch': 0.76, 'rot1': 355, 'rot0': 211, 'rot3': 18, 'rot2': 45, 'state': 'normal', 'flw3': 0, 'flw2': 0, 'flw1': 0, 'flw0': 0, 'roll': 1.58, 'cur2': 0.4, 'cur0': 0.34, 'cur1': 0.0, 'mgs': 0, 'compass': -34.48, 'lipoC2': 0.0, 'temp': 24.7, 'thr3': 36.0, 'depth': 0.129, 'time': 36.9, 'thr2': 31.0, 'yaw': -38.46, 'thr0': 27.0, 'thr1': 27.0}
{'lipoC3S3': 0.0, 'datetime': '2019-02-27 09:48:05.633780', 'pitch': 0.74, 'rot1': 359, 'rot0': 214, 'rot3': 18, 'rot2': 45, 'state': 'normal', 'flw3': 0, 'flw2': 0, 'flw1': 0, 'flw0': 0, 'roll': 1.66, 'cur2': 0.42, 'cur0': 0.31, 'cur1': 0.0, 'mgs': 0, 'compass': -35.74, 'lipoC2': 0.0, 'temp': 24.7, 'thr3': 36.0, 'depth': 0.129, 'time': 37.22, 'thr2': 32.0, 'yaw': -39.73, 'thr0': 27.0, 'thr1': 27.0}
{'lipoC3S3': 0.0, 'datetime': '2019-02-27 09:48:05.955616', 'pitch': 0.6, 'rot1': 366, 'rot0': 218, 'rot3': 18, 'rot2': 45, 'state': 'normal', 'flw3': 0, 'flw2': 0, 'flw1': 0, 'flw0': 0, 'roll': 1.72, 'cur2': 0.39, 'cur0': 0.34, 'cur1': 0.0, 'mgs': 0, 'compass': -40.14, 'lipoC2': 0.0, 'temp': 24.7, 'thr3': 36.0, 'depth': 0.119, 'time': 37.54, 'thr2': 31.0, 'yaw': -44.12, 'thr0': 27.0, 'thr1': 27.0}
{'lipoC3S3': 0.0, 'datetime': '2019-02-27 09:48:06.277604', 'pitch': 0.49, 'rot1': 373, 'rot0': 221, 'rot3': 18, 'rot2': 45, 'state': 'normal', 'flw3': 0, 'flw2': 0, 'flw1': 0, 'flw0': 0, 'roll': 1.76, 'cur2': 0.4, 'cur0': 0.33, 'cur1': 0.0, 'mgs': 0, 'compass': -43.77, 'lipoC2': 0.0, 'temp': 24.69, 'thr3': 36.0, 'depth': 0.129, 'time': 37.86, 'thr2': 31.0, 'yaw': -47.75, 'thr0': 27.0, 'thr1': 27.0}
{'lipoC3S3': 0.0, 'datetime': '2019-02-27 09:48:06.600093', 'pitch': 0.49, 'rot1': 377, 'rot0': 223, 'rot3': 18, 'rot2': 45, 'state': 'normal', 'flw3': 0, 'flw2': 0, 'flw1': 0, 'flw0': 0, 'roll': 1.76, 'cur2': 0.39, 'cur0': 0.32, 'cur1': 0.0, 'mgs': 0, 'compass': -43.5, 'lipoC2': 0.0, 'temp': 24.7, 'thr3': 36.0, 'depth': 0.119, 'time': 38.19, 'thr2': 31.0, 'yaw': -47.48, 'thr0': 27.0, 'thr1': 27.0}
{'lipoC3S3': 0.0, 'datetime': '2019-02-27 09:48:06.921914', 'pitch': 0.69, 'rot1': 383, 'rot0': 226, 'rot3': 18, 'rot2': 45, 'state': 'normal', 'flw3': 0, 'flw2': 0, 'flw1': 0, 'flw0': 0, 'roll': 1.71, 'cur2': 0.38, 'cur0': 0.34, 'cur1': 0.0, 'mgs': 0, 'compass': -37.34, 'lipoC2': 0.0, 'temp': 24.7, 'thr3': 36.0, 'depth': 0.129, 'time': 38.51, 'thr2': 31.0, 'yaw': -41.32, 'thr0': 27.0, 'thr1': 27.0}
{'lipoC3S3': 0.0, 'datetime': '2019-02-27 09:48:07.245135', 'pitch': 0.96, 'rot1': 388, 'rot0': 230, 'rot3': 18, 'rot2': 45, 'state': 'normal', 'flw3': 0, 'flw2': 0, 'flw1': 0, 'flw0': 0, 'roll': 1.74, 'cur2': 0.4, 'cur0': 0.34, 'cur1': 0.0, 'mgs': 0, 'compass': -25.93, 'lipoC2': 0.0, 'temp': 24.69, 'thr3': 36.0, 'depth': 0.129, 'time': 38.83, 'thr2': 31.0, 'yaw': -29.92, 'thr0': 27.0, 'thr1': 27.0}
{'lipoC3S3': 0.0, 'datetime': '2019-02-27 09:48:07.568982', 'pitch': 1.34, 'rot1': 395, 'rot0': 232, 'rot3': 18, 'rot2': 45, 'state': 'normal', 'flw3': 0, 'flw2': 0, 'flw1': 0, 'flw0': 0, 'roll': 1.75, 'cur2': 0.39, 'cur0': 0.33, 'cur1': 0.0, 'mgs': 0, 'compass': -11.55, 'lipoC2': 0.0, 'temp': 24.7, 'thr3': 36.0, 'depth': 0.119, 'time': 39.15, 'thr2': 31.0, 'yaw': -15.53, 'thr0': 27.0, 'thr1': 27.0}
{'lipoC3S3': 0.0, 'datetime': '2019-02-27 09:48:07.898636', 'pitch': 1.73, 'rot1': 397, 'rot0': 236, 'rot3': 18, 'rot2': 45, 'state': 'normal', 'flw3': 0, 'flw2': 0, 'flw1': 0, 'flw0': 0, 'roll': 1.68, 'cur2': 0.4, 'cur0': 0.33, 'cur1': 0.0, 'mgs': 0, 'compass': 1.33, 'lipoC2': 0.0, 'temp': 24.69, 'thr3': 36.0, 'depth': 0.119, 'time': 39.48, 'thr2': 31.0, 'yaw': -2.65, 'thr0': 27.0, 'thr1': 27.0}
{'lipoC3S3': 0.0, 'datetime': '2019-02-27 09:48:08.218269', 'pitch': 1.82, 'rot1': 398, 'rot0': 236, 'rot3': 18, 'rot2': 45, 'state': 'normal', 'flw3': 0, 'flw2': 0, 'flw1': 0, 'flw0': 0, 'roll': 1.59, 'cur2': 0.0, 'cur0': 0.0, 'cur1': 0.0, 'mgs': 0, 'compass': 7.88, 'lipoC2': 0.0, 'temp': 24.7, 'thr3': 36.0, 'depth': 0.129, 'time': 39.8, 'thr2': 31.0, 'yaw': 3.9, 'thr0': 27.0, 'thr1': 27.0}
{'lipoC3S3': 0.0, 'datetime': '2019-02-27 09:48:08.539326', 'pitch': 1.83, 'rot1': 398, 'rot0': 236, 'rot3': 18, 'rot2': 45, 'state': 'normal', 'flw3': 0, 'flw2': 0, 'flw1': 0, 'flw0': 0, 'roll': 1.5, 'cur2': 0.0, 'cur0': 0.0, 'cur1': 0.0, 'mgs': 0, 'compass': 10.69, 'lipoC2': 0.0, 'temp': 24.7, 'thr3': 36.0, 'depth': 0.119, 'time': 40.12, 'thr2': 31.0, 'yaw': 6.7, 'thr0': 27.0, 'thr1': 27.0}
{'lipoC3S3': 0.0, 'datetime': '2019-02-27 09:48:08.851761', 'pitch': 1.69, 'rot1': 404, 'rot0': 238, 'rot3': 18, 'rot2': 46, 'state': 'normal', 'flw3': 0, 'flw2': 0, 'flw1': 0, 'flw0': 0, 'roll': 1.46, 'cur2': 0.42, 'cur0': 0.35, 'cur1': 0.0, 'mgs': 0, 'compass': 12.39, 'lipoC2': 0.0, 'temp': 24.7, 'thr3': 35.0, 'depth': 0.119, 'time': 40.44, 'thr2': 31.0, 'yaw': 8.41, 'thr0': 27.0, 'thr1': 27.0}
{'lipoC3S3': 0.0, 'datetime': '2019-02-27 09:48:09.174169', 'pitch': 2.11, 'rot1': 413, 'rot0': 243, 'rot3': 18, 'rot2': 46, 'state': 'normal', 'flw3': 0, 'flw2': 0, 'flw1': 0, 'flw0': 0, 'roll': 1.37, 'cur2': 0.39, 'cur0': 0.33, 'cur1': 0.0, 'mgs': 0, 'compass': 14.94, 'lipoC2': 0.0, 'temp': 24.7, 'thr3': 36.0, 'depth': 0.119, 'time': 40.76, 'thr2': 31.0, 'yaw': 10.96, 'thr0': 27.0, 'thr1': 27.0}
{'lipoC3S3': 0.0, 'datetime': '2019-02-27 09:48:09.506089', 'pitch': 2.08, 'rot1': 419, 'rot0': 247, 'rot3': 18, 'rot2': 46, 'state': 'normal', 'flw3': 0, 'flw2': 0, 'flw1': 0, 'flw0': 0, 'roll': 1.48, 'cur2': 0.39, 'cur0': 0.33, 'cur1': 0.0, 'mgs': 0, 'compass': 11.29, 'lipoC2': 0.0, 'temp': 24.7, 'thr3': 36.0, 'depth': 0.119, 'time': 41.08, 'thr2': 31.0, 'yaw': 7.3, 'thr0': 27.0, 'thr1': 27.0}
{'lipoC3S3': 0.0, 'datetime': '2019-02-27 09:48:09.826034', 'pitch': 1.89, 'rot1': 424, 'rot0': 251, 'rot3': 18, 'rot2': 46, 'state': 'normal', 'flw3': 0, 'flw2': 0, 'flw1': 0, 'flw0': 0, 'roll': 1.6, 'cur2': 0.0, 'cur0': 0.0, 'cur1': 0.0, 'mgs': 0, 'compass': 2.36, 'lipoC2': 0.0, 'temp': 24.7, 'thr3': 35.0, 'depth': 0.119, 'time': 41.41, 'thr2': 31.0, 'yaw': -1.63, 'thr0': 27.0, 'thr1': 27.0}
{'lipoC3S3': 0.0, 'datetime': '2019-02-27 09:48:10.147442', 'pitch': 1.64, 'rot1': 424, 'rot0': 251, 'rot3': 18, 'rot2': 46, 'state': 'normal', 'flw3': 0, 'flw2': 0, 'flw1': 0, 'flw0': 0, 'roll': 1.81, 'cur2': 0.0, 'cur0': 0.0, 'cur1': 0.0, 'mgs': 0, 'compass': -6.77, 'lipoC2': 0.0, 'temp': 24.7, 'thr3': 35.0, 'depth': 0.129, 'time': 41.73, 'thr2': 31.0, 'yaw': -10.75, 'thr0': 27.0, 'thr1': 27.0}
{'lipoC3S3': 0.0, 'datetime': '2019-02-27 09:48:10.468949', 'pitch': 1.44, 'rot1': 426, 'rot0': 251, 'rot3': 18, 'rot2': 48, 'state': 'normal', 'flw3': 0, 'flw2': 0, 'flw1': 0, 'flw0': 0, 'roll': 1.92, 'cur2': 0.42, 'cur0': 0.37, 'cur1': 0.0, 'mgs': 0, 'compass': -11.33, 'lipoC2': 0.0, 'temp': 24.69, 'thr3': 36.0, 'depth': 0.129, 'time': 42.05, 'thr2': 32.0, 'yaw': -15.31, 'thr0': 27.0, 'thr1': 27.0}
{'lipoC3S3': 0.0, 'datetime': '2019-02-27 09:48:10.791114', 'pitch': 1.41, 'rot1': 429, 'rot0': 253, 'rot3': 18, 'rot2': 48, 'state': 'normal', 'flw3': 0, 'flw2': 0, 'flw1': 0, 'flw0': 0, 'roll': 1.9, 'cur2': 0.38, 'cur0': 0.33, 'cur1': 0.0, 'mgs': 0, 'compass': -10.34, 'lipoC2': 0.0, 'temp': 24.7, 'thr3': 36.0, 'depth': 0.119, 'time': 42.37, 'thr2': 31.0, 'yaw': -14.33, 'thr0': 27.0, 'thr1': 27.0}
{'lipoC3S3': 0.0, 'datetime': '2019-02-27 09:48:11.112346', 'pitch': 1.52, 'rot1': 435, 'rot0': 255, 'rot3': 18, 'rot2': 48, 'state': 'normal', 'flw3': 0, 'flw2': 0, 'flw1': 0, 'flw0': 0, 'roll': 1.79, 'cur2': 0.39, 'cur0': 0.34, 'cur1': 0.0, 'mgs': 0, 'compass': -6.27, 'lipoC2': 0.0, 'temp': 24.7, 'thr3': 36.0, 'depth': 0.129, 'time': 42.69, 'thr2': 31.0, 'yaw': -10.25, 'thr0': 27.0, 'thr1': 27.0}
{'lipoC3S3': 0.0, 'datetime': '2019-02-27 09:48:11.434039', 'pitch': 1.69, 'rot1': 441, 'rot0': 257, 'rot3': 18, 'rot2': 48, 'state': 'normal', 'flw3': 0, 'flw2': 0, 'flw1': 0, 'flw0': 0, 'roll': 1.65, 'cur2': 0.0, 'cur0': 0.0, 'cur1': 0.0, 'mgs': 0, 'compass': -0.93, 'lipoC2': 0.0, 'temp': 24.7, 'thr3': 36.0, 'depth': 0.129, 'time': 43.01, 'thr2': 31.0, 'yaw': -4.92, 'thr0': 27.0, 'thr1': 27.0}
{'lipoC3S3': 0.0, 'datetime': '2019-02-27 09:48:11.756431', 'pitch': 1.8, 'rot1': 441, 'rot0': 257, 'rot3': 18, 'rot2': 48, 'state': 'normal', 'flw3': 0, 'flw2': 0, 'flw1': 0, 'flw0': 0, 'roll': 1.53, 'cur2': 0.0, 'cur0': 0.0, 'cur1': 0.0, 'mgs': 0, 'compass': 3.03, 'lipoC2': 0.0, 'temp': 24.7, 'thr3': 36.0, 'depth': 0.119, 'time': 43.33, 'thr2': 31.0, 'yaw': -0.95, 'thr0': 27.0, 'thr1': 27.0}
{'lipoC3S3': 0.0, 'datetime': '2019-02-27 09:48:12.078156', 'pitch': 1.83, 'rot1': 441, 'rot0': 257, 'rot3': 18, 'rot2': 48, 'state': 'normal', 'flw3': 0, 'flw2': 0, 'flw1': 0, 'flw0': 0, 'roll': 1.5, 'cur2': 0.0, 'cur0': 0.0, 'cur1': 0.0, 'mgs': 0, 'compass': 4.15, 'lipoC2': 0.0, 'temp': 24.7, 'thr3': 35.0, 'depth': 0.129, 'time': 43.66, 'thr2': 31.0, 'yaw': 0.17, 'thr0': 27.0, 'thr1': 27.0}
{'lipoC3S3': 0.0, 'datetime': '2019-02-27 09:48:12.399425', 'pitch': 1.82, 'rot1': 441, 'rot0': 257, 'rot3': 18, 'rot2': 48, 'state': 'normal', 'flw3': 0, 'flw2': 0, 'flw1': 0, 'flw0': 0, 'roll': 1.51, 'cur2': 0.0, 'cur0': 0.0, 'cur1': 0.0, 'mgs': 0, 'compass': 3.96, 'lipoC2': 0.0, 'temp': 24.7, 'thr3': 35.0, 'depth': 0.119, 'time': 43.98, 'thr2': 31.0, 'yaw': -0.02, 'thr0': 27.0, 'thr1': 27.0}
{'lipoC3S3': 0.0, 'datetime': '2019-02-27 09:48:12.721443', 'pitch': 1.63, 'rot1': 441, 'rot0': 257, 'rot3': 18, 'rot2': 48, 'state': 'normal', 'flw3': 0, 'flw2': 0, 'flw1': 0, 'flw0': 0, 'roll': 1.46, 'cur2': 0.0, 'cur0': 0.0, 'cur1': 0.0, 'mgs': 0, 'compass': 3.96, 'lipoC2': 0.0, 'temp': 24.7, 'thr3': 35.0, 'depth': 0.119, 'time': 44.3, 'thr2': 31.0, 'yaw': -0.02, 'thr0': 27.0, 'thr1': 27.0}
{'lipoC3S3': 0.0, 'datetime': '2019-02-27 09:48:13.043681', 'pitch': 1.63, 'rot1': 441, 'rot0': 257, 'rot3': 18, 'rot2': 48, 'state': 'normal', 'flw3': 0, 'flw2': 0, 'flw1': 0, 'flw0': 0, 'roll': 1.46, 'cur2': 0.0, 'cur0': 0.0, 'cur1': 0.0, 'mgs': 0, 'compass': 3.96, 'lipoC2': 0.0, 'temp': 24.7, 'thr3': 35.0, 'depth': 0.119, 'time': 44.62, 'thr2': 31.0, 'yaw': -0.02, 'thr0': 27.0, 'thr1': 27.0}
{'lipoC3S3': 0.0, 'datetime': '2019-02-27 09:48:13.364328', 'pitch': 1.63, 'rot1': 441, 'rot0': 257, 'rot3': 18, 'rot2': 48, 'state': 'normal', 'flw3': 0, 'flw2': 0, 'flw1': 0, 'flw0': 0, 'roll': 1.46, 'cur2': 0.0, 'cur0': 0.0, 'cur1': 0.0, 'mgs': 0, 'compass': 3.96, 'lipoC2': 0.0, 'temp': 24.7, 'thr3': 35.0, 'depth': 0.119, 'time': 44.94, 'thr2': 31.0, 'yaw': -0.02, 'thr0': 27.0, 'thr1': 27.0}
{'lipoC3S3': 0.0, 'datetime': '2019-02-27 09:48:13.686786', 'pitch': 1.65, 'rot1': 441, 'rot0': 257, 'rot3': 18, 'rot2': 48, 'state': 'normal', 'flw3': 0, 'flw2': 0, 'flw1': 0, 'flw0': 0, 'roll': 1.45, 'cur2': 0.0, 'cur0': 0.0, 'cur1': 0.0, 'mgs': 0, 'compass': 3.96, 'lipoC2': 0.0, 'temp': 24.7, 'thr3': 35.0, 'depth': 0.129, 'time': 45.26, 'thr2': 31.0, 'yaw': -0.02, 'thr0': 27.0, 'thr1': 27.0}
{'lipoC3S3': 0.0, 'datetime': '2019-02-27 09:48:14.010363', 'pitch': 1.64, 'rot1': 441, 'rot0': 257, 'rot3': 18, 'rot2': 48, 'state': 'normal', 'flw3': 0, 'flw2': 0, 'flw1': 0, 'flw0': 0, 'roll': 1.46, 'cur2': 0.0, 'cur0': 0.0, 'cur1': 0.0, 'mgs': 0, 'compass': 3.96, 'lipoC2': 0.0, 'temp': 24.7, 'thr3': 35.0, 'depth': 0.119, 'time': 45.58, 'thr2': 31.0, 'yaw': -0.02, 'thr0': 27.0, 'thr1': 27.0}
{'lipoC3S3': 0.0, 'datetime': '2019-02-27 09:48:14.332279', 'pitch': 1.65, 'rot1': 441, 'rot0': 257, 'rot3': 18, 'rot2': 48, 'state': 'normal', 'flw3': 0, 'flw2': 0, 'flw1': 0, 'flw0': 0, 'roll': 1.45, 'cur2': 0.0, 'cur0': 0.0, 'cur1': 0.0, 'mgs': 0, 'compass': 3.96, 'lipoC2': 0.0, 'temp': 24.7, 'thr3': 35.0, 'depth': 0.129, 'time': 45.91, 'thr2': 31.0, 'yaw': -0.02, 'thr0': 27.0, 'thr1': 27.0}
{'lipoC3S3': 0.0, 'datetime': '2019-02-27 09:48:14.653285', 'pitch': 1.65, 'rot1': 441, 'rot0': 257, 'rot3': 18, 'rot2': 48, 'state': 'normal', 'flw3': 0, 'flw2': 0, 'flw1': 0, 'flw0': 0, 'roll': 1.45, 'cur2': 0.0, 'cur0': 0.0, 'cur1': 0.0, 'mgs': 0, 'compass': 3.96, 'lipoC2': 0.0, 'temp': 24.7, 'thr3': 35.0, 'depth': 0.129, 'time': 46.23, 'thr2': 31.0, 'yaw': -0.02, 'thr0': 27.0, 'thr1': 27.0}
{'lipoC3S3': 0.0, 'datetime': '2019-02-27 09:48:14.975774', 'pitch': 1.65, 'rot1': 441, 'rot0': 257, 'rot3': 18, 'rot2': 48, 'state': 'normal', 'flw3': 0, 'flw2': 0, 'flw1': 0, 'flw0': 0, 'roll': 1.45, 'cur2': 0.0, 'cur0': 0.0, 'cur1': 0.0, 'mgs': 0, 'compass': 3.96, 'lipoC2': 0.0, 'temp': 24.7, 'thr3': 35.0, 'depth': 0.129, 'time': 46.55, 'thr2': 31.0, 'yaw': -0.02, 'thr0': 27.0, 'thr1': 27.0}
