{'lipoC2': 8.0, 'temp': 0.0, 'lipoC3S3': 11.84, 'state': 'normal', 'rot1': 0, 'rot0': 0, 'rot3': 0, 'rot2': 0, 'depth': 0.241, 'yaw': 0.0, 'datetime': '2018-12-12 11:01:59.400121', 'mgs': 0, 'flw2': 0.0, 'flw1': 0.53, 'flw0': 0.0, 'time': 1.26, 'compass': 159.39, 'pitch': -2.67, 'roll': 3.17}
{'lipoC2': 8.25, 'temp': 0.0, 'lipoC3S3': 11.98, 'state': 'normal', 'rot1': 0, 'rot0': 0, 'rot3': 0, 'rot2': 0, 'depth': -0.903, 'yaw': 0.94, 'datetime': '2018-12-12 11:01:59.609215', 'mgs': 0, 'flw2': 0.29, 'flw1': 0.0, 'flw0': 0.0, 'time': 1.46, 'compass': 160.33, 'pitch': -2.41, 'roll': 3.21}
{'lipoC2': 8.16, 'temp': 0.0, 'lipoC3S3': 11.88, 'state': 'normal', 'rot1': 0, 'rot0': 0, 'rot3': 0, 'rot2': 0, 'depth': 0.089, 'yaw': 1.9, 'datetime': '2018-12-12 11:01:59.818301', 'mgs': 0, 'flw2': 0.11, 'flw1': 0.0, 'flw0': 0.29, 'time': 1.67, 'compass': 161.29, 'pitch': -2.33, 'roll': 3.25}
{'lipoC2': 8.11, 'temp': 0.0, 'lipoC3S3': 11.87, 'state': 'normal', 'rot1': 0, 'rot0': 0, 'rot3': 0, 'rot2': 0, 'depth': -0.14, 'yaw': 2.79, 'datetime': '2018-12-12 11:02:00.025841', 'mgs': 0, 'flw2': 0.23, 'flw1': 0.0, 'flw0': 0.33, 'time': 1.88, 'compass': 162.18, 'pitch': -2.43, 'roll': 3.26}
{'lipoC2': 8.08, 'temp': 0.0, 'lipoC3S3': 11.87, 'state': 'normal', 'rot1': 0, 'rot0': 0, 'rot3': 0, 'rot2': 0, 'depth': 1.767, 'yaw': 3.74, 'datetime': '2018-12-12 11:02:00.232615', 'mgs': 0, 'flw2': 0.18, 'flw1': 0.0, 'flw0': 0.31, 'time': 2.09, 'compass': 163.12, 'pitch': -2.49, 'roll': 3.12}
{'lipoC2': 7.97, 'temp': 0.0, 'lipoC3S3': 12.02, 'state': 'normal', 'rot1': 0, 'rot0': 0, 'rot3': 0, 'rot2': 0, 'depth': 0.241, 'yaw': 4.68, 'datetime': '2018-12-12 11:02:00.446430', 'mgs': 0, 'flw2': 0.0, 'flw1': 0.38, 'flw0': 0.0, 'time': 2.29, 'compass': 164.07, 'pitch': -2.41, 'roll': 3.1}
{'lipoC2': 7.96, 'temp': 0.0, 'lipoC3S3': 12.01, 'state': 'normal', 'rot1': 0, 'rot0': 0, 'rot3': 0, 'rot2': 0, 'depth': 0.241, 'yaw': 5.72, 'datetime': '2018-12-12 11:02:00.649198', 'mgs': 0, 'flw2': 0.0, 'flw1': 0.21, 'flw0': 0.0, 'time': 2.5, 'compass': 165.1, 'pitch': -2.22, 'roll': 3.15}
{'lipoC2': 8.26, 'temp': 0.0, 'lipoC3S3': 12.01, 'state': 'normal', 'rot1': 0, 'rot0': 0, 'rot3': 0, 'rot2': 0, 'depth': -0.903, 'yaw': 6.74, 'datetime': '2018-12-12 11:02:00.857605', 'mgs': 0, 'flw2': 0.2, 'flw1': 0.0, 'flw0': 0.0, 'time': 2.71, 'compass': 166.13, 'pitch': -2.17, 'roll': 3.19}
{'lipoC2': 7.97, 'temp': 0.0, 'lipoC3S3': 11.93, 'state': 'normal', 'rot1': 0, 'rot0': 0, 'rot3': 0, 'rot2': 0, 'depth': 0.241, 'yaw': 7.77, 'datetime': '2018-12-12 11:02:01.067445', 'mgs': 0, 'flw2': 0.31, 'flw1': 0.0, 'flw0': 0.23, 'time': 2.92, 'compass': 167.16, 'pitch': -2.12, 'roll': 3.22}
{'lipoC2': 7.96, 'temp': 0.0, 'lipoC3S3': 11.97, 'state': 'normal', 'rot1': 0, 'rot0': 0, 'rot3': 0, 'rot2': 0, 'depth': 2.301, 'yaw': 8.74, 'datetime': '2018-12-12 11:02:01.275985', 'mgs': 0, 'flw2': 0.0, 'flw1': 0.0, 'flw0': 0.21, 'time': 3.13, 'compass': 168.12, 'pitch': -1.91, 'roll': 3.38}
{'lipoC2': 8.26, 'temp': 0.0, 'lipoC3S3': 12.0, 'state': 'normal', 'rot1': 0, 'rot0': 0, 'rot3': 0, 'rot2': 0, 'depth': -0.903, 'yaw': 9.75, 'datetime': '2018-12-12 11:02:01.484049', 'mgs': 0, 'flw2': 0.0, 'flw1': 0.53, 'flw0': 0.0, 'time': 3.34, 'compass': 169.13, 'pitch': -1.69, 'roll': 3.51}
{'lipoC2': 7.94, 'temp': 0.0, 'lipoC3S3': 12.34, 'state': 'normal', 'rot1': 0, 'rot0': 0, 'rot3': 0, 'rot2': 0, 'depth': -0.293, 'yaw': 10.74, 'datetime': '2018-12-12 11:02:01.691564', 'mgs': 0, 'flw2': 0.0, 'flw1': 0.0, 'flw0': 0.29, 'time': 3.54, 'compass': 170.12, 'pitch': -1.7, 'roll': 3.55}
{'lipoC2': 8.06, 'temp': 0.0, 'lipoC3S3': 12.34, 'state': 'normal', 'rot1': 0, 'rot0': 0, 'rot3': 0, 'rot2': 0, 'depth': 2.225, 'yaw': 11.77, 'datetime': '2018-12-12 11:02:01.899953', 'mgs': 0, 'flw2': 0.0, 'flw1': 0.23, 'flw0': 0.0, 'time': 3.75, 'compass': 171.16, 'pitch': -1.69, 'roll': 3.64}
{'lipoC2': 8.15, 'temp': 0.0, 'lipoC3S3': 11.89, 'state': 'normal', 'rot1': 0, 'rot0': 0, 'rot3': 0, 'rot2': 0, 'depth': -0.064, 'yaw': 12.78, 'datetime': '2018-12-12 11:02:02.107267', 'mgs': 0, 'flw2': 0.13, 'flw1': 0.0, 'flw0': 0.28, 'time': 3.96, 'compass': 172.17, 'pitch': -1.62, 'roll': 3.8}
{'lipoC2': 7.96, 'temp': 0.0, 'lipoC3S3': 12.17, 'state': 'normal', 'rot1': 0, 'rot0': 0, 'rot3': 0, 'rot2': 0, 'depth': 2.148, 'yaw': 14.36, 'datetime': '2018-12-12 11:02:02.420494', 'mgs': 0, 'flw2': 0.31, 'flw1': 0.0, 'flw0': 0.0, 'time': 4.27, 'compass': 173.75, 'pitch': -1.61, 'roll': 3.65}
{'lipoC2': 7.93, 'temp': 0.0, 'lipoC3S3': 12.22, 'state': 'normal', 'rot1': 0, 'rot0': 0, 'rot3': 0, 'rot2': 0, 'depth': -0.293, 'yaw': 15.44, 'datetime': '2018-12-12 11:02:02.630428', 'mgs': 0, 'flw2': 0.0, 'flw1': 0.03, 'flw0': 0.0, 'time': 4.48, 'compass': 174.83, 'pitch': -1.74, 'roll': 3.52}
{'lipoC2': 7.97, 'temp': 0.0, 'lipoC3S3': 11.9, 'state': 'normal', 'rot1': 0, 'rot0': 0, 'rot3': 0, 'rot2': 0, 'depth': 2.682, 'yaw': 16.51, 'datetime': '2018-12-12 11:02:02.837674', 'mgs': 0, 'flw2': 0.0, 'flw1': 0.62, 'flw0': 0.0, 'time': 4.69, 'compass': 175.9, 'pitch': -1.6, 'roll': 3.55}
{'lipoC2': 7.93, 'temp': 0.0, 'lipoC3S3': 12.3, 'state': 'normal', 'rot1': 0, 'rot0': 0, 'rot3': 0, 'rot2': 0, 'depth': -0.293, 'yaw': 17.61, 'datetime': '2018-12-12 11:02:03.047155', 'mgs': 0, 'flw2': 0.05, 'flw1': 0.0, 'flw0': 0.0, 'time': 4.89, 'compass': 176.99, 'pitch': -1.25, 'roll': 3.62}
{'lipoC2': 8.08, 'temp': 0.0, 'lipoC3S3': 11.84, 'state': 'normal', 'rot1': 0, 'rot0': 0, 'rot3': 0, 'rot2': 0, 'depth': 1.462, 'yaw': 18.64, 'datetime': '2018-12-12 11:02:03.252322', 'mgs': 0, 'flw2': 0.0, 'flw1': 0.67, 'flw0': 0.0, 'time': 5.1, 'compass': 178.03, 'pitch': -1.25, 'roll': 3.64}
{'lipoC2': 7.97, 'temp': 0.0, 'lipoC3S3': 12.01, 'state': 'normal', 'rot1': 0, 'rot0': 0, 'rot3': 0, 'rot2': 0, 'depth': 2.301, 'yaw': 19.65, 'datetime': '2018-12-12 11:02:03.461291', 'mgs': 0, 'flw2': 0.0, 'flw1': 0.44, 'flw0': 0.0, 'time': 5.31, 'compass': 179.03, 'pitch': -1.6, 'roll': 3.58}
{'lipoC2': 8.15, 'temp': 0.0, 'lipoC3S3': 11.93, 'state': 'normal', 'rot1': 0, 'rot0': 0, 'rot3': 0, 'rot2': 0, 'depth': -0.064, 'yaw': 20.62, 'datetime': '2018-12-12 11:02:03.671867', 'mgs': 0, 'flw2': 0.0, 'flw1': 0.0, 'flw0': 0.07, 'time': 5.52, 'compass': -180.0, 'pitch': -1.71, 'roll': 3.55}
{'lipoC2': 7.99, 'temp': 0.0, 'lipoC3S3': 12.33, 'state': 'normal', 'rot1': 0, 'rot0': 0, 'rot3': 0, 'rot2': 0, 'depth': 1.004, 'yaw': 21.55, 'datetime': '2018-12-12 11:02:03.879904', 'mgs': 0, 'flw2': 0.06, 'flw1': 0.0, 'flw0': 0.26, 'time': 5.73, 'compass': -179.06, 'pitch': -1.46, 'roll': 3.72}
{'lipoC2': 7.97, 'temp': 0.0, 'lipoC3S3': 12.06, 'state': 'normal', 'rot1': 0, 'rot0': 0, 'rot3': 0, 'rot2': 0, 'depth': 2.148, 'yaw': 22.5, 'datetime': '2018-12-12 11:02:04.091868', 'mgs': 0, 'flw2': 0.27, 'flw1': 0.0, 'flw0': 0.09, 'time': 5.94, 'compass': -178.11, 'pitch': -0.99, 'roll': 3.85}
{'lipoC2': 7.97, 'temp': 0.0, 'lipoC3S3': 11.94, 'state': 'normal', 'rot1': 0, 'rot0': 0, 'rot3': 0, 'rot2': 0, 'depth': 0.165, 'yaw': 23.45, 'datetime': '2018-12-12 11:02:04.296742', 'mgs': 0, 'flw2': 0.31, 'flw1': 0.0, 'flw0': 0.22, 'time': 6.14, 'compass': -177.16, 'pitch': -0.62, 'roll': 3.79}
{'lipoC2': 8.22, 'temp': 0.0, 'lipoC3S3': 11.97, 'state': 'normal', 'rot1': 0, 'rot0': 0, 'rot3': 0, 'rot2': 0, 'depth': 0.47, 'yaw': 24.43, 'datetime': '2018-12-12 11:02:04.503602', 'mgs': 0, 'flw2': 0.0, 'flw1': 0.0, 'flw0': 0.12, 'time': 6.35, 'compass': -176.18, 'pitch': -0.76, 'roll': 3.8}
{'lipoC2': 7.98, 'temp': 0.0, 'lipoC3S3': 12.35, 'state': 'normal', 'rot1': 0, 'rot0': 0, 'rot3': 0, 'rot2': 0, 'depth': -0.827, 'yaw': 25.36, 'datetime': '2018-12-12 11:02:04.717859', 'mgs': 0, 'flw2': 0.01, 'flw1': 0.0, 'flw0': 0.18, 'time': 6.56, 'compass': -175.25, 'pitch': -1.18, 'roll': 4.02}
{'lipoC2': 7.97, 'temp': 0.0, 'lipoC3S3': 12.06, 'state': 'normal', 'rot1': 0, 'rot0': 0, 'rot3': 0, 'rot2': 0, 'depth': 0.012, 'yaw': 26.35, 'datetime': '2018-12-12 11:02:04.921665', 'mgs': 0, 'flw2': 0.0, 'flw1': 0.5, 'flw0': 0.0, 'time': 6.76, 'compass': -174.26, 'pitch': -1.26, 'roll': 4.08}
{'lipoC2': 8.01, 'temp': 0.0, 'lipoC3S3': 11.84, 'state': 'normal', 'rot1': 0, 'rot0': 0, 'rot3': 0, 'rot2': 0, 'depth': 2.454, 'yaw': 27.41, 'datetime': '2018-12-12 11:02:05.128904', 'mgs': 0, 'flw2': 0.0, 'flw1': 0.59, 'flw0': 0.0, 'time': 6.97, 'compass': -173.21, 'pitch': -1.0, 'roll': 3.92}
{'lipoC2': 7.97, 'temp': 0.0, 'lipoC3S3': 12.05, 'state': 'normal', 'rot1': 0, 'rot0': 0, 'rot3': 0, 'rot2': 0, 'depth': 0.165, 'yaw': 28.5, 'datetime': '2018-12-12 11:02:05.340249', 'mgs': 0, 'flw2': 0.0, 'flw1': 0.23, 'flw0': 0.0, 'time': 7.18, 'compass': -172.11, 'pitch': -0.73, 'roll': 3.91}
{'lipoC2': 7.97, 'temp': 0.0, 'lipoC3S3': 11.88, 'state': 'normal', 'rot1': 2, 'rot0': 0, 'rot3': 0, 'rot2': 0, 'depth': 0.089, 'yaw': 29.44, 'datetime': '2018-12-12 11:02:05.552097', 'mgs': 0, 'flw2': 0.37, 'flw1': 0.0, 'flw0': 9.52, 'time': 7.39, 'compass': -171.17, 'pitch': -0.61, 'roll': 4.01}
{'lipoC2': 8.11, 'temp': 0.0, 'lipoC3S3': 11.9, 'state': 'normal', 'rot1': 7, 'rot0': 0, 'rot3': 0, 'rot2': 0, 'depth': 2.835, 'yaw': 25.59, 'datetime': '2018-12-12 11:02:05.763788', 'mgs': 0, 'flw2': 0.0, 'flw1': 0.12, 'flw0': 5.31, 'time': 7.6, 'compass': -175.03, 'pitch': 1.31, 'roll': 3.3}
{'lipoC2': 8.04, 'temp': 0.0, 'lipoC3S3': 11.84, 'state': 'normal', 'rot1': 12, 'rot0': 0, 'rot3': 0, 'rot2': 0, 'depth': 2.454, 'yaw': 13.14, 'datetime': '2018-12-12 11:02:06.066458', 'mgs': 0, 'flw2': 0.0, 'flw1': 0.7, 'flw0': 0.0, 'time': 7.91, 'compass': 172.52, 'pitch': 4.88, 'roll': 2.49}
{'lipoC2': 8.09, 'temp': 0.0, 'lipoC3S3': 11.84, 'state': 'normal', 'rot1': 12, 'rot0': 0, 'rot3': 0, 'rot2': 0, 'depth': 1.996, 'yaw': 5.97, 'datetime': '2018-12-12 11:02:06.273930', 'mgs': 0, 'flw2': 0.1, 'flw1': 0.59, 'flw0': 0.0, 'time': 8.12, 'compass': 165.36, 'pitch': 5.23, 'roll': 3.0}
{'lipoC2': 7.99, 'temp': 0.0, 'lipoC3S3': 12.3, 'state': 'normal', 'rot1': 12, 'rot0': 1, 'rot3': 0, 'rot2': 0, 'depth': 1.157, 'yaw': 0.61, 'datetime': '2018-12-12 11:02:06.483056', 'mgs': 0, 'flw2': 1.81, 'flw1': 0.0, 'flw0': 0.0, 'time': 8.33, 'compass': 160.0, 'pitch': 4.64, 'roll': 3.68}
{'lipoC2': 7.97, 'temp': 0.0, 'lipoC3S3': 12.0, 'state': 'normal', 'rot1': 12, 'rot0': 3, 'rot3': 0, 'rot2': 0, 'depth': 0.241, 'yaw': -2.81, 'datetime': '2018-12-12 11:02:06.691490', 'mgs': 0, 'flw2': 1.33, 'flw1': 0.0, 'flw0': 0.04, 'time': 8.54, 'compass': 156.58, 'pitch': 3.71, 'roll': 4.22}
{'lipoC2': 7.98, 'temp': 0.0, 'lipoC3S3': 11.87, 'state': 'normal', 'rot1': 12, 'rot0': 3, 'rot3': 0, 'rot2': 0, 'depth': 0.089, 'yaw': -4.44, 'datetime': '2018-12-12 11:02:06.900423', 'mgs': 0, 'flw2': 0.31, 'flw1': 0.0, 'flw0': 0.29, 'time': 8.74, 'compass': 154.95, 'pitch': 1.66, 'roll': 4.57}
{'lipoC2': 8.26, 'temp': 0.0, 'lipoC3S3': 12.35, 'state': 'normal', 'rot1': 12, 'rot0': 3, 'rot3': 0, 'rot2': 0, 'depth': -1.056, 'yaw': -6.0, 'datetime': '2018-12-12 11:02:07.110252', 'mgs': 0, 'flw2': 0.05, 'flw1': 0.0, 'flw0': 0.26, 'time': 8.95, 'compass': 153.39, 'pitch': -1.09, 'roll': 4.64}
{'lipoC2': 8.24, 'temp': 0.0, 'lipoC3S3': 12.0, 'state': 'normal', 'rot1': 12, 'rot0': 3, 'rot3': 0, 'rot2': 0, 'depth': -0.903, 'yaw': -7.49, 'datetime': '2018-12-12 11:02:07.317837', 'mgs': 0, 'flw2': 0.0, 'flw1': 0.0, 'flw0': 0.16, 'time': 9.16, 'compass': 151.9, 'pitch': -2.94, 'roll': 4.58}
{'lipoC2': 8.25, 'temp': 0.0, 'lipoC3S3': 12.01, 'state': 'normal', 'rot1': 12, 'rot0': 3, 'rot3': 0, 'rot2': 0, 'depth': -1.056, 'yaw': -8.82, 'datetime': '2018-12-12 11:02:07.526661', 'mgs': 0, 'flw2': 0.16, 'flw1': 0.0, 'flw0': 0.0, 'time': 9.37, 'compass': 150.57, 'pitch': -4.42, 'roll': 4.52}
{'lipoC2': 7.97, 'temp': 0.0, 'lipoC3S3': 11.94, 'state': 'normal', 'rot1': 12, 'rot0': 3, 'rot3': 0, 'rot2': 0, 'depth': -0.14, 'yaw': -10.18, 'datetime': '2018-12-12 11:02:07.733832', 'mgs': 0, 'flw2': 0.0, 'flw1': 0.21, 'flw0': 0.0, 'time': 9.58, 'compass': 149.2, 'pitch': -6.02, 'roll': 4.45}
{'lipoC2': 7.99, 'temp': 0.0, 'lipoC3S3': 11.97, 'state': 'normal', 'rot1': 12, 'rot0': 3, 'rot3': 0, 'rot2': 0, 'depth': 2.53, 'yaw': -11.5, 'datetime': '2018-12-12 11:02:07.943750', 'mgs': 0, 'flw2': 0.0, 'flw1': 0.47, 'flw0': 0.0, 'time': 9.79, 'compass': 147.88, 'pitch': -6.36, 'roll': 4.02}
{'lipoC2': 7.97, 'temp': 0.0, 'lipoC3S3': 12.01, 'state': 'normal', 'rot1': 12, 'rot0': 3, 'rot3': 0, 'rot2': 0, 'depth': 0.012, 'yaw': -12.74, 'datetime': '2018-12-12 11:02:08.152400', 'mgs': 0, 'flw2': 0.1, 'flw1': 0.0, 'flw0': 0.0, 'time': 9.99, 'compass': 146.64, 'pitch': -5.56, 'roll': 3.58}
{'lipoC2': 7.97, 'temp': 0.0, 'lipoC3S3': 12.37, 'state': 'normal', 'rot1': 12, 'rot0': 3, 'rot3': 0, 'rot2': 0, 'depth': -0.98, 'yaw': -13.9, 'datetime': '2018-12-12 11:02:08.362350', 'mgs': 0, 'flw2': 0.22, 'flw1': 0.0, 'flw0': 0.0, 'time': 10.2, 'compass': 145.48, 'pitch': -4.85, 'roll': 3.58}
{'lipoC2': 7.93, 'temp': 0.0, 'lipoC3S3': 12.16, 'state': 'normal', 'rot1': 12, 'rot0': 3, 'rot3': 0, 'rot2': 0, 'depth': 0.089, 'yaw': -15.11, 'datetime': '2018-12-12 11:02:08.569823', 'mgs': 0, 'flw2': 0.23, 'flw1': 0.0, 'flw0': 0.11, 'time': 10.41, 'compass': 144.27, 'pitch': -3.66, 'roll': 3.78}
{'lipoC2': 8.2, 'temp': 0.0, 'lipoC3S3': 12.16, 'state': 'normal', 'rot1': 12, 'rot0': 3, 'rot3': 0, 'rot2': 0, 'depth': 0.851, 'yaw': -16.27, 'datetime': '2018-12-12 11:02:08.775994', 'mgs': 0, 'flw2': 0.18, 'flw1': 0.0, 'flw0': 0.06, 'time': 10.62, 'compass': 143.12, 'pitch': -1.96, 'roll': 3.99}
{'lipoC2': 7.99, 'temp': 0.0, 'lipoC3S3': 12.33, 'state': 'normal', 'rot1': 12, 'rot0': 3, 'rot3': 0, 'rot2': 0, 'depth': 1.309, 'yaw': -17.32, 'datetime': '2018-12-12 11:02:08.983788', 'mgs': 0, 'flw2': 0.0, 'flw1': 0.0, 'flw0': 0.04, 'time': 10.83, 'compass': 142.07, 'pitch': -0.94, 'roll': 4.28}
{'lipoC2': 7.96, 'temp': 0.0, 'lipoC3S3': 12.1, 'state': 'normal', 'rot1': 12, 'rot0': 3, 'rot3': 0, 'rot2': 0, 'depth': 0.241, 'yaw': -18.38, 'datetime': '2018-12-12 11:02:09.193427', 'mgs': 0, 'flw2': 0.0, 'flw1': 0.0, 'flw0': 0.01, 'time': 11.04, 'compass': 141.0, 'pitch': -0.89, 'roll': 4.61}
{'lipoC2': 8.22, 'temp': 0.0, 'lipoC3S3': 12.26, 'state': 'normal', 'rot1': 12, 'rot0': 3, 'rot3': 0, 'rot2': 0, 'depth': -0.293, 'yaw': -19.43, 'datetime': '2018-12-12 11:02:09.401744', 'mgs': 0, 'flw2': 0.0, 'flw1': 0.0, 'flw0': 0.0, 'time': 11.24, 'compass': 139.95, 'pitch': -1.17, 'roll': 4.7}
{'lipoC2': 7.96, 'temp': 0.0, 'lipoC3S3': 11.96, 'state': 'normal', 'rot1': 12, 'rot0': 3, 'rot3': 0, 'rot2': 0, 'depth': 0.012, 'yaw': -20.48, 'datetime': '2018-12-12 11:02:09.610949', 'mgs': 0, 'flw2': 0.0, 'flw1': 0.0, 'flw0': 0.0, 'time': 11.45, 'compass': 138.91, 'pitch': -1.73, 'roll': 4.67}
{'lipoC2': 7.96, 'temp': 0.0, 'lipoC3S3': 12.23, 'state': 'normal', 'rot1': 12, 'rot0': 3, 'rot3': 0, 'rot2': 0, 'depth': 0.165, 'yaw': -21.48, 'datetime': '2018-12-12 11:02:09.820395', 'mgs': 0, 'flw2': 0.26, 'flw1': 0.0, 'flw0': 0.29, 'time': 11.66, 'compass': 137.91, 'pitch': -2.96, 'roll': 4.63}
{'lipoC2': 7.98, 'temp': 0.0, 'lipoC3S3': 11.87, 'state': 'normal', 'rot1': 12, 'rot0': 3, 'rot3': 0, 'rot2': 0, 'depth': 0.317, 'yaw': -22.4, 'datetime': '2018-12-12 11:02:10.028356', 'mgs': 0, 'flw2': 0.23, 'flw1': 0.0, 'flw0': 0.31, 'time': 11.87, 'compass': 136.99, 'pitch': -4.16, 'roll': 4.57}
{'lipoC2': 7.92, 'temp': 0.0, 'lipoC3S3': 12.17, 'state': 'normal', 'rot1': 12, 'rot0': 3, 'rot3': 0, 'rot2': 0, 'depth': 0.851, 'yaw': -23.34, 'datetime': '2018-12-12 11:02:10.237439', 'mgs': 0, 'flw2': 0.0, 'flw1': 0.0, 'flw0': 0.0, 'time': 12.08, 'compass': 136.05, 'pitch': -4.45, 'roll': 4.5}
{'lipoC2': 8.22, 'temp': 0.0, 'lipoC3S3': 12.0, 'state': 'normal', 'rot1': 12, 'rot0': 3, 'rot3': 0, 'rot2': 0, 'depth': -0.751, 'yaw': -24.21, 'datetime': '2018-12-12 11:02:10.447422', 'mgs': 0, 'flw2': 0.0, 'flw1': 0.38, 'flw0': 0.0, 'time': 12.28, 'compass': 135.17, 'pitch': -4.14, 'roll': 4.43}
{'lipoC2': 8.01, 'temp': 0.0, 'lipoC3S3': 11.87, 'state': 'normal', 'rot1': 12, 'rot0': 3, 'rot3': 0, 'rot2': 0, 'depth': -0.064, 'yaw': -25.01, 'datetime': '2018-12-12 11:02:10.656465', 'mgs': 0, 'flw2': 0.0, 'flw1': 0.0, 'flw0': 0.23, 'time': 12.49, 'compass': 134.38, 'pitch': -4.3, 'roll': 4.38}
{'lipoC2': 8.01, 'temp': 0.0, 'lipoC3S3': 11.87, 'state': 'normal', 'rot1': 12, 'rot0': 3, 'rot3': 0, 'rot2': 0, 'depth': 2.682, 'yaw': -25.81, 'datetime': '2018-12-12 11:02:10.864289', 'mgs': 0, 'flw2': 0.0, 'flw1': 0.0, 'flw0': 0.26, 'time': 12.7, 'compass': 133.58, 'pitch': -4.6, 'roll': 4.33}
{'lipoC2': 7.99, 'temp': 0.0, 'lipoC3S3': 12.22, 'state': 'normal', 'rot1': 12, 'rot0': 3, 'rot3': 0, 'rot2': 0, 'depth': 1.004, 'yaw': -26.61, 'datetime': '2018-12-12 11:02:11.073417', 'mgs': 0, 'flw2': 0.0, 'flw1': 0.23, 'flw0': 0.0, 'time': 12.91, 'compass': 132.78, 'pitch': -4.14, 'roll': 4.56}
{'lipoC2': 8.24, 'temp': 0.0, 'lipoC3S3': 12.0, 'state': 'normal', 'rot1': 12, 'rot0': 3, 'rot3': 0, 'rot2': 0, 'depth': 1.767, 'yaw': -27.42, 'datetime': '2018-12-12 11:02:11.281808', 'mgs': 0, 'flw2': 0.0, 'flw1': 0.0, 'flw0': 1.88, 'time': 13.12, 'compass': 131.97, 'pitch': -3.31, 'roll': 4.89}
{'lipoC2': 7.93, 'temp': 0.0, 'lipoC3S3': 12.09, 'state': 'normal', 'rot1': 17, 'rot0': 3, 'rot3': 0, 'rot2': 0, 'depth': 0.775, 'yaw': -29.99, 'datetime': '2018-12-12 11:02:11.490413', 'mgs': 0, 'flw2': 0.11, 'flw1': 0.0, 'flw0': 10.01, 'time': 13.33, 'compass': 129.4, 'pitch': -2.09, 'roll': 4.62}
{'lipoC2': 7.97, 'temp': 0.0, 'lipoC3S3': 12.05, 'state': 'normal', 'rot1': 23, 'rot0': 4, 'rot3': 0, 'rot2': 0, 'depth': 1.538, 'yaw': -39.26, 'datetime': '2018-12-12 11:02:11.697691', 'mgs': 0, 'flw2': 0.33, 'flw1': 0.0, 'flw0': 8.92, 'time': 13.53, 'compass': 120.13, 'pitch': 1.1, 'roll': 3.13}
{'lipoC2': 8.12, 'temp': 0.0, 'lipoC3S3': 11.71, 'state': 'normal', 'rot1': 28, 'rot0': 5, 'rot3': 0, 'rot2': 0, 'depth': 2.377, 'yaw': -51.83, 'datetime': '2018-12-12 11:02:11.906690', 'mgs': 0, 'flw2': 0.24, 'flw1': 0.64, 'flw0': 8.97, 'time': 13.74, 'compass': 107.56, 'pitch': 4.48, 'roll': 1.83}
{'lipoC2': 7.93, 'temp': 0.0, 'lipoC3S3': 12.25, 'state': 'normal', 'rot1': 33, 'rot0': 6, 'rot3': 0, 'rot2': 0, 'depth': 0.699, 'yaw': -65.73, 'datetime': '2018-12-12 11:02:12.115486', 'mgs': 0, 'flw2': 0.23, 'flw1': 0.0, 'flw0': 8.94, 'time': 13.95, 'compass': 93.65, 'pitch': 7.31, 'roll': 1.21}
{'lipoC2': 8.17, 'temp': 0.0, 'lipoC3S3': 11.89, 'state': 'normal', 'rot1': 38, 'rot0': 7, 'rot3': 0, 'rot2': 0, 'depth': 0.012, 'yaw': -80.42, 'datetime': '2018-12-12 11:02:12.325167', 'mgs': 0, 'flw2': 0.16, 'flw1': 0.0, 'flw0': 8.75, 'time': 14.16, 'compass': 78.97, 'pitch': 9.08, 'roll': 1.2}
{'lipoC2': 8.17, 'temp': 0.0, 'lipoC3S3': 11.87, 'state': 'normal', 'rot1': 44, 'rot0': 9, 'rot3': 0, 'rot2': 0, 'depth': -0.522, 'yaw': -94.96, 'datetime': '2018-12-12 11:02:12.535609', 'mgs': 0, 'flw2': 4.03, 'flw1': 0.44, 'flw0': 8.35, 'time': 14.37, 'compass': 64.42, 'pitch': 9.91, 'roll': 0.91}
{'lipoC2': 8.06, 'temp': 0.0, 'lipoC3S3': 12.16, 'state': 'normal', 'rot1': 48, 'rot0': 12, 'rot3': 0, 'rot2': 0, 'depth': 2.454, 'yaw': -108.51, 'datetime': '2018-12-12 11:02:12.743734', 'mgs': 0, 'flw2': 4.09, 'flw1': 0.59, 'flw0': 8.62, 'time': 14.58, 'compass': 50.88, 'pitch': 11.46, 'roll': -0.49}
{'lipoC2': 8.2, 'temp': 0.0, 'lipoC3S3': 11.97, 'state': 'normal', 'rot1': 52, 'rot0': 15, 'rot3': 0, 'rot2': 0, 'depth': 0.317, 'yaw': -120.5, 'datetime': '2018-12-12 11:02:12.953085', 'mgs': 0, 'flw2': 4.05, 'flw1': 0.44, 'flw0': 7.97, 'time': 14.79, 'compass': 38.88, 'pitch': 12.59, 'roll': -2.49}
{'lipoC2': 8.07, 'temp': 0.0, 'lipoC3S3': 11.76, 'state': 'normal', 'rot1': 60, 'rot0': 18, 'rot3': 0, 'rot2': 0, 'depth': 3.522, 'yaw': -131.24, 'datetime': '2018-12-12 11:02:13.161416', 'mgs': 0, 'flw2': 5.38, 'flw1': 0.62, 'flw0': 7.31, 'time': 14.99, 'compass': 28.14, 'pitch': 11.76, 'roll': -4.45}
{'lipoC2': 7.98, 'temp': 0.0, 'lipoC3S3': 11.88, 'state': 'normal', 'rot1': 64, 'rot0': 21, 'rot3': 0, 'rot2': 0, 'depth': 0.317, 'yaw': -140.28, 'datetime': '2018-12-12 11:02:13.371363', 'mgs': 0, 'flw2': 5.4, 'flw1': 0.62, 'flw0': 6.81, 'time': 15.2, 'compass': 19.11, 'pitch': 9.79, 'roll': -6.3}
{'lipoC2': 8.0, 'temp': 0.0, 'lipoC3S3': 12.08, 'state': 'normal', 'rot1': 69, 'rot0': 24, 'rot3': 0, 'rot2': 0, 'depth': 0.089, 'yaw': -147.42, 'datetime': '2018-12-12 11:02:13.581749', 'mgs': 0, 'flw2': 6.05, 'flw1': 0.0, 'flw0': 6.95, 'time': 15.41, 'compass': 11.96, 'pitch': 8.43, 'roll': -7.96}
{'lipoC2': 8.19, 'temp': 0.0, 'lipoC3S3': 11.84, 'state': 'normal', 'rot1': 73, 'rot0': 28, 'rot3': 0, 'rot2': 0, 'depth': 1.157, 'yaw': -153.64, 'datetime': '2018-12-12 11:02:13.791144', 'mgs': 0, 'flw2': 7.17, 'flw1': 0.47, 'flw0': 5.75, 'time': 15.62, 'compass': 5.74, 'pitch': 8.54, 'roll': -9.45}
{'lipoC2': 7.99, 'temp': 0.0, 'lipoC3S3': 12.18, 'state': 'normal', 'rot1': 77, 'rot0': 31, 'rot3': 0, 'rot2': 0, 'depth': 0.47, 'yaw': -157.96, 'datetime': '2018-12-12 11:02:14.000923', 'mgs': 0, 'flw2': 7.57, 'flw1': 0.0, 'flw0': 5.48, 'time': 15.83, 'compass': 1.42, 'pitch': 9.37, 'roll': -10.37}
{'lipoC2': 8.04, 'temp': 0.0, 'lipoC3S3': 11.68, 'state': 'normal', 'rot1': 80, 'rot0': 35, 'rot3': 0, 'rot2': 0, 'depth': 2.682, 'yaw': -160.61, 'datetime': '2018-12-12 11:02:14.211416', 'mgs': 0, 'flw2': 7.46, 'flw1': 0.0, 'flw0': 5.13, 'time': 16.04, 'compass': -1.23, 'pitch': 9.48, 'roll': -10.34}
{'lipoC2': 8.25, 'temp': 0.0, 'lipoC3S3': 11.73, 'state': 'normal', 'rot1': 83, 'rot0': 40, 'rot3': 0, 'rot2': 0, 'depth': -0.751, 'yaw': -161.46, 'datetime': '2018-12-12 11:02:14.418339', 'mgs': 0, 'flw2': 7.51, 'flw1': 0.18, 'flw0': 4.66, 'time': 16.25, 'compass': -2.08, 'pitch': 8.92, 'roll': -9.45}
{'lipoC2': 7.98, 'temp': 0.0, 'lipoC3S3': 11.71, 'state': 'normal', 'rot1': 86, 'rot0': 44, 'rot3': 0, 'rot2': 0, 'depth': 2.682, 'yaw': -161.32, 'datetime': '2018-12-12 11:02:14.627008', 'mgs': 0, 'flw2': 7.74, 'flw1': 0.0, 'flw0': 4.53, 'time': 16.46, 'compass': -1.93, 'pitch': 8.23, 'roll': -7.92}
{'lipoC2': 8.11, 'temp': 0.0, 'lipoC3S3': 11.79, 'state': 'normal', 'rot1': 90, 'rot0': 48, 'rot3': 0, 'rot2': 0, 'depth': -0.598, 'yaw': -161.02, 'datetime': '2018-12-12 11:02:14.840795', 'mgs': 0, 'flw2': 7.9, 'flw1': 0.0, 'flw0': 4.97, 'time': 16.67, 'compass': -1.63, 'pitch': 7.95, 'roll': -6.52}
{'lipoC2': 8.08, 'temp': 0.0, 'lipoC3S3': 11.76, 'state': 'normal', 'rot1': 93, 'rot0': 51, 'rot3': 0, 'rot2': 0, 'depth': 2.377, 'yaw': -160.58, 'datetime': '2018-12-12 11:02:15.049526', 'mgs': 0, 'flw2': 7.65, 'flw1': 0.0, 'flw0': 5.08, 'time': 16.88, 'compass': -1.2, 'pitch': 7.66, 'roll': -4.89}
{'lipoC2': 7.99, 'temp': 0.0, 'lipoC3S3': 11.58, 'state': 'normal', 'rot1': 97, 'rot0': 55, 'rot3': 0, 'rot2': 0, 'depth': -0.217, 'yaw': -160.03, 'datetime': '2018-12-12 11:02:15.256060', 'mgs': 0, 'flw2': 7.45, 'flw1': 0.47, 'flw0': 4.58, 'time': 17.09, 'compass': -0.64, 'pitch': 8.0, 'roll': -2.77}
{'lipoC2': 7.98, 'temp': 0.0, 'lipoC3S3': 12.19, 'state': 'normal', 'rot1': 100, 'rot0': 60, 'rot3': 0, 'rot2': 0, 'depth': 2.225, 'yaw': -159.54, 'datetime': '2018-12-12 11:02:15.465946', 'mgs': 0, 'flw2': 7.76, 'flw1': 0.67, 'flw0': 4.82, 'time': 17.3, 'compass': -0.15, 'pitch': 8.8, 'roll': -1.25}
{'lipoC2': 8.05, 'temp': 0.0, 'lipoC3S3': 11.54, 'state': 'normal', 'rot1': 103, 'rot0': 63, 'rot3': 0, 'rot2': 0, 'depth': -0.217, 'yaw': -159.48, 'datetime': '2018-12-12 11:02:15.677337', 'mgs': 0, 'flw2': 7.47, 'flw1': 0.59, 'flw0': 4.54, 'time': 17.5, 'compass': -0.09, 'pitch': 9.5, 'roll': -0.83}
{'lipoC2': 8.04, 'temp': 0.0, 'lipoC3S3': 11.6, 'state': 'normal', 'rot1': 107, 'rot0': 67, 'rot3': 0, 'rot2': 0, 'depth': 0.47, 'yaw': -159.54, 'datetime': '2018-12-12 11:02:15.888883', 'mgs': 0, 'flw2': 7.74, 'flw1': 0.56, 'flw0': 4.54, 'time': 17.71, 'compass': -0.15, 'pitch': 9.78, 'roll': -1.02}
{'lipoC2': 7.94, 'temp': 0.0, 'lipoC3S3': 11.97, 'state': 'normal', 'rot1': 110, 'rot0': 72, 'rot3': 0, 'rot2': 0, 'depth': 1.004, 'yaw': -159.34, 'datetime': '2018-12-12 11:02:16.098605', 'mgs': 0, 'flw2': 7.68, 'flw1': 0.7, 'flw0': 4.53, 'time': 17.92, 'compass': 0.05, 'pitch': 9.78, 'roll': -1.13}
{'lipoC2': 8.22, 'temp': 0.0, 'lipoC3S3': 11.69, 'state': 'normal', 'rot1': 114, 'rot0': 75, 'rot3': 0, 'rot2': 0, 'depth': 0.546, 'yaw': -158.63, 'datetime': '2018-12-12 11:02:16.306891', 'mgs': 0, 'flw2': 7.7, 'flw1': 0.32, 'flw0': 4.69, 'time': 18.13, 'compass': 0.76, 'pitch': 9.73, 'roll': -1.27}
{'lipoC2': 8.2, 'temp': 0.0, 'lipoC3S3': 11.81, 'state': 'normal', 'rot1': 117, 'rot0': 79, 'rot3': 0, 'rot2': 0, 'depth': -0.674, 'yaw': -157.68, 'datetime': '2018-12-12 11:02:16.515483', 'mgs': 0, 'flw2': 8.18, 'flw1': 0.0, 'flw0': 4.83, 'time': 18.34, 'compass': 1.71, 'pitch': 9.7, 'roll': -1.65}
{'lipoC2': 7.98, 'temp': 0.0, 'lipoC3S3': 11.75, 'state': 'normal', 'rot1': 120, 'rot0': 83, 'rot3': 0, 'rot2': 0, 'depth': 1.996, 'yaw': -156.76, 'datetime': '2018-12-12 11:02:16.726271', 'mgs': 0, 'flw2': 7.26, 'flw1': 0.15, 'flw0': 3.69, 'time': 18.55, 'compass': 2.63, 'pitch': 9.34, 'roll': -2.26}
{'lipoC2': 7.94, 'temp': 0.0, 'lipoC3S3': 12.08, 'state': 'normal', 'rot1': 122, 'rot0': 86, 'rot3': 0, 'rot2': 0, 'depth': 1.92, 'yaw': -154.46, 'datetime': '2018-12-12 11:02:16.934611', 'mgs': 0, 'flw2': 7.95, 'flw1': 0.0, 'flw0': 0.0, 'time': 18.76, 'compass': 4.93, 'pitch': 8.45, 'roll': -2.67}
{'lipoC2': 8.05, 'temp': 0.0, 'lipoC3S3': 11.77, 'state': 'normal', 'rot1': 122, 'rot0': 90, 'rot3': 0, 'rot2': 0, 'depth': 2.606, 'yaw': -148.7, 'datetime': '2018-12-12 11:02:17.144427', 'mgs': 0, 'flw2': 4.1, 'flw1': 0.0, 'flw0': 0.29, 'time': 18.97, 'compass': 10.69, 'pitch': 7.14, 'roll': -2.25}
{'lipoC2': 8.04, 'temp': 0.0, 'lipoC3S3': 11.81, 'state': 'normal', 'rot1': 122, 'rot0': 91, 'rot3': 0, 'rot2': 0, 'depth': 2.53, 'yaw': -143.05, 'datetime': '2018-12-12 11:02:17.355383', 'mgs': 0, 'flw2': 0.04, 'flw1': 0.0, 'flw0': 0.0, 'time': 19.18, 'compass': 16.33, 'pitch': 5.64, 'roll': -1.36}
{'lipoC2': 8.07, 'temp': 0.0, 'lipoC3S3': 11.98, 'state': 'normal', 'rot1': 122, 'rot0': 91, 'rot3': 0, 'rot2': 0, 'depth': -0.293, 'yaw': -139.81, 'datetime': '2018-12-12 11:02:17.562459', 'mgs': 0, 'flw2': 0.29, 'flw1': 0.0, 'flw0': 0.18, 'time': 19.39, 'compass': 19.58, 'pitch': 2.9, 'roll': -0.82}
{'lipoC2': 8.0, 'temp': 0.0, 'lipoC3S3': 11.81, 'state': 'normal', 'rot1': 122, 'rot0': 91, 'rot3': 0, 'rot2': 0, 'depth': 2.53, 'yaw': -137.57, 'datetime': '2018-12-12 11:02:17.776074', 'mgs': 0, 'flw2': 0.0, 'flw1': 0.23, 'flw0': 0.21, 'time': 19.6, 'compass': 21.82, 'pitch': -0.42, 'roll': -0.6}
{'lipoC2': 8.0, 'temp': 0.0, 'lipoC3S3': 11.72, 'state': 'normal', 'rot1': 124, 'rot0': 91, 'rot3': 0, 'rot2': 0, 'depth': 2.606, 'yaw': -136.76, 'datetime': '2018-12-12 11:02:17.985272', 'mgs': 0, 'flw2': 0.0, 'flw1': 0.47, 'flw0': 6.24, 'time': 19.81, 'compass': 22.63, 'pitch': -3.39, 'roll': -0.56}
{'lipoC2': 8.0, 'temp': 0.0, 'lipoC3S3': 12.05, 'state': 'normal', 'rot1': 128, 'rot0': 91, 'rot3': 0, 'rot2': 0, 'depth': 1.08, 'yaw': -140.2, 'datetime': '2018-12-12 11:02:18.195096', 'mgs': 0, 'flw2': 0.0, 'flw1': 0.0, 'flw0': 5.85, 'time': 20.01, 'compass': 19.19, 'pitch': -4.0, 'roll': -1.45}
{'lipoC2': 8.25, 'temp': 0.0, 'lipoC3S3': 11.96, 'state': 'normal', 'rot1': 131, 'rot0': 91, 'rot3': 0, 'rot2': 0, 'depth': -0.674, 'yaw': -147.15, 'datetime': '2018-12-12 11:02:18.404764', 'mgs': 0, 'flw2': 0.13, 'flw1': 0.0, 'flw0': 0.61, 'time': 20.22, 'compass': 12.24, 'pitch': -3.76, 'roll': -2.62}
{'lipoC2': 7.97, 'temp': 0.0, 'lipoC3S3': 11.83, 'state': 'normal', 'rot1': 131, 'rot0': 91, 'rot3': 0, 'rot2': 0, 'depth': 0.47, 'yaw': -153.59, 'datetime': '2018-12-12 11:02:18.612352', 'mgs': 0, 'flw2': 0.0, 'flw1': 0.67, 'flw0': 0.0, 'time': 20.43, 'compass': 5.8, 'pitch': -3.94, 'roll': -3.43}
{'lipoC2': 7.97, 'temp': 0.0, 'lipoC3S3': 11.92, 'state': 'normal', 'rot1': 131, 'rot0': 91, 'rot3': 0, 'rot2': 0, 'depth': 2.377, 'yaw': -158.58, 'datetime': '2018-12-12 11:02:18.818662', 'mgs': 0, 'flw2': 0.27, 'flw1': 0.0, 'flw0': 0.22, 'time': 20.64, 'compass': 0.8, 'pitch': -4.27, 'roll': -3.87}
{'lipoC2': 8.0, 'temp': 0.0, 'lipoC3S3': 12.23, 'state': 'normal', 'rot1': 131, 'rot0': 91, 'rot3': 0, 'rot2': 0, 'depth': -0.217, 'yaw': -162.62, 'datetime': '2018-12-12 11:02:19.027974', 'mgs': 0, 'flw2': 0.0, 'flw1': 0.21, 'flw0': 0.0, 'time': 20.85, 'compass': -3.23, 'pitch': -4.52, 'roll': -3.74}
{'lipoC2': 7.99, 'temp': 0.0, 'lipoC3S3': 12.02, 'state': 'normal', 'rot1': 131, 'rot0': 91, 'rot3': 0, 'rot2': 0, 'depth': 1.462, 'yaw': -166.16, 'datetime': '2018-12-12 11:02:19.236185', 'mgs': 0, 'flw2': 0.0, 'flw1': 0.64, 'flw0': 0.0, 'time': 21.06, 'compass': -6.77, 'pitch': -5.43, 'roll': -2.94}
{'lipoC2': 7.93, 'temp': 0.0, 'lipoC3S3': 12.26, 'state': 'normal', 'rot1': 131, 'rot0': 91, 'rot3': 0, 'rot2': 0, 'depth': 0.928, 'yaw': -169.46, 'datetime': '2018-12-12 11:02:19.445337', 'mgs': 0, 'flw2': 0.0, 'flw1': 0.0, 'flw0': 0.11, 'time': 21.27, 'compass': -10.08, 'pitch': -6.31, 'roll': -1.71}
{'lipoC2': 7.98, 'temp': 0.0, 'lipoC3S3': 11.98, 'state': 'normal', 'rot1': 131, 'rot0': 91, 'rot3': 0, 'rot2': 0, 'depth': 1.92, 'yaw': -172.55, 'datetime': '2018-12-12 11:02:19.654139', 'mgs': 0, 'flw2': 0.0, 'flw1': 0.64, 'flw0': 0.0, 'time': 21.48, 'compass': -13.16, 'pitch': -6.46, 'roll': -0.56}
{'lipoC2': 8.0, 'temp': 0.0, 'lipoC3S3': 12.13, 'state': 'normal', 'rot1': 131, 'rot0': 91, 'rot3': 0, 'rot2': 0, 'depth': 0.317, 'yaw': -175.3, 'datetime': '2018-12-12 11:02:19.867476', 'mgs': 0, 'flw2': 0.28, 'flw1': 0.0, 'flw0': 0.13, 'time': 21.69, 'compass': -15.91, 'pitch': -6.02, 'roll': 0.18}
{'lipoC2': 7.98, 'temp': 0.0, 'lipoC3S3': 11.93, 'state': 'normal', 'rot1': 131, 'rot0': 91, 'rot3': 0, 'rot2': 0, 'depth': 0.623, 'yaw': -177.98, 'datetime': '2018-12-12 11:02:20.075767', 'mgs': 0, 'flw2': 0.0, 'flw1': 1.7, 'flw0': 0.0, 'time': 21.9, 'compass': -18.59, 'pitch': -5.37, 'roll': 0.44}
{'lipoC2': 7.99, 'temp': 0.0, 'lipoC3S3': 11.8, 'state': 'normal', 'rot1': 131, 'rot0': 91, 'rot3': 1, 'rot2': 1, 'depth': 3.598, 'yaw': 179.48, 'datetime': '2018-12-12 11:02:20.284665', 'mgs': 0, 'flw2': 0.01, 'flw1': 1.49, 'flw0': 0.13, 'time': 22.11, 'compass': -21.13, 'pitch': -4.69, 'roll': 0.24}
{'lipoC2': 8.17, 'temp': 0.0, 'lipoC3S3': 11.94, 'state': 'normal', 'rot1': 131, 'rot0': 91, 'rot3': 1, 'rot2': 2, 'depth': 1.996, 'yaw': 177.1, 'datetime': '2018-12-12 11:02:20.493295', 'mgs': 0, 'flw2': 0.0, 'flw1': 2.49, 'flw0': 0.0, 'time': 22.32, 'compass': -23.52, 'pitch': -3.89, 'roll': -0.24}
{'lipoC2': 8.05, 'temp': 0.0, 'lipoC3S3': 11.77, 'state': 'normal', 'rot1': 131, 'rot0': 91, 'rot3': 2, 'rot2': 3, 'depth': 2.53, 'yaw': 174.92, 'datetime': '2018-12-12 11:02:20.698276', 'mgs': 0, 'flw2': 0.0, 'flw1': 2.17, 'flw0': 0.0, 'time': 22.52, 'compass': -25.7, 'pitch': -3.09, 'roll': -0.82}
{'lipoC2': 7.98, 'temp': 0.0, 'lipoC3S3': 12.29, 'state': 'normal', 'rot1': 131, 'rot0': 91, 'rot3': 3, 'rot2': 3, 'depth': 0.47, 'yaw': 173.06, 'datetime': '2018-12-12 11:02:20.908874', 'mgs': 0, 'flw2': 0.0, 'flw1': 1.58, 'flw0': 0.0, 'time': 22.73, 'compass': -27.55, 'pitch': -2.77, 'roll': -1.41}
{'lipoC2': 7.96, 'temp': 0.0, 'lipoC3S3': 11.81, 'state': 'normal', 'rot1': 131, 'rot0': 91, 'rot3': 3, 'rot2': 4, 'depth': 3.598, 'yaw': 171.29, 'datetime': '2018-12-12 11:02:21.119092', 'mgs': 0, 'flw2': 0.0, 'flw1': 2.34, 'flw0': 0.0, 'time': 22.94, 'compass': -29.32, 'pitch': -2.78, 'roll': -1.98}
{'lipoC2': 7.95, 'temp': 0.0, 'lipoC3S3': 12.26, 'state': 'normal', 'rot1': 131, 'rot0': 91, 'rot3': 4, 'rot2': 5, 'depth': 0.394, 'yaw': 169.69, 'datetime': '2018-12-12 11:02:21.340464', 'mgs': 0, 'flw2': 0.0, 'flw1': 2.55, 'flw0': 0.0, 'time': 23.15, 'compass': -30.92, 'pitch': -2.73, 'roll': -2.32}
{'lipoC2': 8.16, 'temp': 0.0, 'lipoC3S3': 11.92, 'state': 'normal', 'rot1': 131, 'rot0': 91, 'rot3': 5, 'rot2': 6, 'depth': 0.928, 'yaw': 168.22, 'datetime': '2018-12-12 11:02:21.549682', 'mgs': 0, 'flw2': 0.0, 'flw1': 1.26, 'flw0': 0.0, 'time': 23.36, 'compass': -32.39, 'pitch': -2.7, 'roll': -2.33}
{'lipoC2': 8.0, 'temp': 0.0, 'lipoC3S3': 12.38, 'state': 'normal', 'rot1': 131, 'rot0': 91, 'rot3': 6, 'rot2': 7, 'depth': 0.089, 'yaw': 166.39, 'datetime': '2018-12-12 11:02:21.850722', 'mgs': 0, 'flw2': 0.0, 'flw1': 1.23, 'flw0': 0.0, 'time': 23.67, 'compass': -34.23, 'pitch': -3.12, 'roll': -2.01}
{'lipoC2': 7.98, 'temp': 0.0, 'lipoC3S3': 11.76, 'state': 'normal', 'rot1': 131, 'rot0': 91, 'rot3': 6, 'rot2': 8, 'depth': 1.233, 'yaw': 165.36, 'datetime': '2018-12-12 11:02:22.060066', 'mgs': 0, 'flw2': 0.0, 'flw1': 1.73, 'flw0': 0.0, 'time': 23.88, 'compass': -35.25, 'pitch': -3.41, 'roll': -1.72}
{'lipoC2': 7.93, 'temp': 0.0, 'lipoC3S3': 12.26, 'state': 'normal', 'rot1': 131, 'rot0': 91, 'rot3': 7, 'rot2': 9, 'depth': 0.699, 'yaw': 164.49, 'datetime': '2018-12-12 11:02:22.269256', 'mgs': 0, 'flw2': 0.0, 'flw1': 1.41, 'flw0': 0.0, 'time': 24.09, 'compass': -36.12, 'pitch': -3.48, 'roll': -1.45}
{'lipoC2': 8.09, 'temp': 0.0, 'lipoC3S3': 11.76, 'state': 'normal', 'rot1': 131, 'rot0': 91, 'rot3': 8, 'rot2': 10, 'depth': 2.148, 'yaw': 163.79, 'datetime': '2018-12-12 11:02:22.480942', 'mgs': 0, 'flw2': 0.0, 'flw1': 2.34, 'flw0': 0.0, 'time': 24.3, 'compass': -36.83, 'pitch': -3.56, 'roll': -1.39}
{'lipoC2': 7.99, 'temp': 0.0, 'lipoC3S3': 12.1, 'state': 'normal', 'rot1': 131, 'rot0': 91, 'rot3': 9, 'rot2': 11, 'depth': 0.241, 'yaw': 163.33, 'datetime': '2018-12-12 11:02:22.691728', 'mgs': 0, 'flw2': 0.17, 'flw1': 1.26, 'flw0': 0.21, 'time': 24.51, 'compass': -37.29, 'pitch': -3.72, 'roll': -1.51}
{'lipoC2': 7.93, 'temp': 0.0, 'lipoC3S3': 12.22, 'state': 'normal', 'rot1': 131, 'rot0': 91, 'rot3': 9, 'rot2': 11, 'depth': 2.454, 'yaw': 163.07, 'datetime': '2018-12-12 11:02:22.901860', 'mgs': 0, 'flw2': 0.21, 'flw1': 1.76, 'flw0': 0.18, 'time': 24.72, 'compass': -37.55, 'pitch': -3.71, 'roll': -1.78}
{'lipoC2': 8.07, 'temp': 0.0, 'lipoC3S3': 11.94, 'state': 'normal', 'rot1': 131, 'rot0': 91, 'rot3': 10, 'rot2': 12, 'depth': 3.369, 'yaw': 163.01, 'datetime': '2018-12-12 11:02:23.112133', 'mgs': 0, 'flw2': 0.2, 'flw1': 1.44, 'flw0': 0.24, 'time': 24.93, 'compass': -37.6, 'pitch': -3.42, 'roll': -1.91}
{'lipoC2': 7.98, 'temp': 0.0, 'lipoC3S3': 12.27, 'state': 'normal', 'rot1': 131, 'rot0': 91, 'rot3': 11, 'rot2': 13, 'depth': -0.14, 'yaw': 163.01, 'datetime': '2018-12-12 11:02:23.326297', 'mgs': 0, 'flw2': 0.23, 'flw1': 1.67, 'flw0': 0.0, 'time': 25.14, 'compass': -37.6, 'pitch': -3.23, 'roll': -1.91}
{'lipoC2': 7.98, 'temp': 0.0, 'lipoC3S3': 11.88, 'state': 'normal', 'rot1': 131, 'rot0': 91, 'rot3': 11, 'rot2': 14, 'depth': 2.377, 'yaw': 163.1, 'datetime': '2018-12-12 11:02:23.535380', 'mgs': 0, 'flw2': 0.27, 'flw1': 1.55, 'flw0': 0.31, 'time': 25.35, 'compass': -37.51, 'pitch': -3.23, 'roll': -2.05}
{'lipoC2': 8.04, 'temp': 0.0, 'lipoC3S3': 11.83, 'state': 'normal', 'rot1': 131, 'rot0': 91, 'rot3': 12, 'rot2': 15, 'depth': 0.47, 'yaw': 163.35, 'datetime': '2018-12-12 11:02:23.748335', 'mgs': 0, 'flw2': 0.0, 'flw1': 1.88, 'flw0': 0.0, 'time': 25.56, 'compass': -37.26, 'pitch': -3.05, 'roll': -2.42}
{'lipoC2': 8.05, 'temp': 0.0, 'lipoC3S3': 11.84, 'state': 'normal', 'rot1': 131, 'rot0': 91, 'rot3': 13, 'rot2': 16, 'depth': 2.682, 'yaw': 163.67, 'datetime': '2018-12-12 11:02:23.952647', 'mgs': 0, 'flw2': 0.0, 'flw1': 1.67, 'flw0': 0.0, 'time': 25.77, 'compass': -36.94, 'pitch': -2.77, 'roll': -2.72}
{'lipoC2': 7.96, 'temp': 0.0, 'lipoC3S3': 12.29, 'state': 'normal', 'rot1': 131, 'rot0': 91, 'rot3': 13, 'rot2': 17, 'depth': -0.217, 'yaw': 164.05, 'datetime': '2018-12-12 11:02:24.161571', 'mgs': 0, 'flw2': 0.0, 'flw1': 1.26, 'flw0': 0.01, 'time': 25.98, 'compass': -36.56, 'pitch': -2.57, 'roll': -2.74}
{'lipoC2': 7.99, 'temp': 0.0, 'lipoC3S3': 12.0, 'state': 'normal', 'rot1': 131, 'rot0': 91, 'rot3': 14, 'rot2': 17, 'depth': -0.064, 'yaw': 164.45, 'datetime': '2018-12-12 11:02:24.371674', 'mgs': 0, 'flw2': 0.0, 'flw1': 2.49, 'flw0': 0.0, 'time': 26.19, 'compass': -36.16, 'pitch': -2.39, 'roll': -2.72}
{'lipoC2': 8.14, 'temp': 0.0, 'lipoC3S3': 11.96, 'state': 'normal', 'rot1': 131, 'rot0': 91, 'rot3': 15, 'rot2': 18, 'depth': -0.522, 'yaw': 164.86, 'datetime': '2018-12-12 11:02:24.582833', 'mgs': 0, 'flw2': 0.0, 'flw1': 1.35, 'flw0': 0.09, 'time': 26.4, 'compass': -35.75, 'pitch': -2.2, 'roll': -2.75}
{'lipoC2': 8.08, 'temp': 0.0, 'lipoC3S3': 11.83, 'state': 'normal', 'rot1': 131, 'rot0': 91, 'rot3': 16, 'rot2': 19, 'depth': 0.241, 'yaw': 165.3, 'datetime': '2018-12-12 11:02:24.792860', 'mgs': 0, 'flw2': 0.0, 'flw1': 1.96, 'flw0': 0.0, 'time': 26.61, 'compass': -35.31, 'pitch': -1.85, 'roll': -2.75}
{'lipoC2': 8.24, 'temp': 0.0, 'lipoC3S3': 11.96, 'state': 'normal', 'rot1': 131, 'rot0': 91, 'rot3': 16, 'rot2': 20, 'depth': -0.903, 'yaw': 165.83, 'datetime': '2018-12-12 11:02:25.004224', 'mgs': 0, 'flw2': 0.0, 'flw1': 1.32, 'flw0': 0.0, 'time': 26.82, 'compass': -34.78, 'pitch': -1.33, 'roll': -2.39}
{'lipoC2': 7.97, 'temp': 0.0, 'lipoC3S3': 11.84, 'state': 'normal', 'rot1': 131, 'rot0': 91, 'rot3': 17, 'rot2': 21, 'depth': 0.394, 'yaw': 166.46, 'datetime': '2018-12-12 11:02:25.213220', 'mgs': 0, 'flw2': 0.0, 'flw1': 2.49, 'flw0': 0.0, 'time': 27.03, 'compass': -34.16, 'pitch': -0.96, 'roll': -1.79}
{'lipoC2': 7.97, 'temp': 0.0, 'lipoC3S3': 11.87, 'state': 'normal', 'rot1': 131, 'rot0': 91, 'rot3': 18, 'rot2': 22, 'depth': 0.317, 'yaw': 167.21, 'datetime': '2018-12-12 11:02:25.423226', 'mgs': 0, 'flw2': 0.12, 'flw1': 1.44, 'flw0': 0.26, 'time': 27.24, 'compass': -33.41, 'pitch': -0.91, 'roll': -1.28}
{'lipoC2': 7.99, 'temp': 0.0, 'lipoC3S3': 11.83, 'state': 'normal', 'rot1': 131, 'rot0': 91, 'rot3': 18, 'rot2': 23, 'depth': -0.14, 'yaw': 168.04, 'datetime': '2018-12-12 11:02:25.634464', 'mgs': 0, 'flw2': 0.28, 'flw1': 1.64, 'flw0': 0.28, 'time': 27.45, 'compass': -32.58, 'pitch': -0.9, 'roll': -1.09}
{'lipoC2': 8.25, 'temp': 0.0, 'lipoC3S3': 11.94, 'state': 'normal', 'rot1': 131, 'rot0': 91, 'rot3': 19, 'rot2': 23, 'depth': 0.851, 'yaw': 168.99, 'datetime': '2018-12-12 11:02:25.846967', 'mgs': 0, 'flw2': 0.17, 'flw1': 1.38, 'flw0': 0.0, 'time': 27.66, 'compass': -31.62, 'pitch': -0.46, 'roll': -0.98}
{'lipoC2': 8.0, 'temp': 0.0, 'lipoC3S3': 11.81, 'state': 'normal', 'rot1': 131, 'rot0': 91, 'rot3': 20, 'rot2': 24, 'depth': 2.454, 'yaw': 170.09, 'datetime': '2018-12-12 11:02:26.057423', 'mgs': 0, 'flw2': 0.0, 'flw1': 2.2, 'flw0': 0.0, 'time': 27.87, 'compass': -30.52, 'pitch': 0.37, 'roll': -0.58}
{'lipoC2': 7.98, 'temp': 0.0, 'lipoC3S3': 11.84, 'state': 'normal', 'rot1': 131, 'rot0': 91, 'rot3': 21, 'rot2': 25, 'depth': 0.012, 'yaw': 171.33, 'datetime': '2018-12-12 11:02:26.272826', 'mgs': 0, 'flw2': 0.0, 'flw1': 2.4, 'flw0': 0.0, 'time': 28.08, 'compass': -29.28, 'pitch': 0.75, 'roll': -0.06}
{'lipoC2': 7.99, 'temp': 0.0, 'lipoC3S3': 11.96, 'state': 'normal', 'rot1': 131, 'rot0': 91, 'rot3': 21, 'rot2': 26, 'depth': -0.14, 'yaw': 172.65, 'datetime': '2018-12-12 11:02:26.479006', 'mgs': 0, 'flw2': 0.05, 'flw1': 1.32, 'flw0': 0.12, 'time': 28.29, 'compass': -27.97, 'pitch': 0.42, 'roll': 0.08}
{'lipoC2': 7.93, 'temp': 0.0, 'lipoC3S3': 12.21, 'state': 'normal', 'rot1': 131, 'rot0': 91, 'rot3': 22, 'rot2': 27, 'depth': 0.394, 'yaw': 173.98, 'datetime': '2018-12-12 11:02:26.686315', 'mgs': 0, 'flw2': 0.27, 'flw1': 1.88, 'flw0': 0.26, 'time': 28.5, 'compass': -26.63, 'pitch': 0.13, 'roll': 0.01}
{'lipoC2': 8.04, 'temp': 0.0, 'lipoC3S3': 11.81, 'state': 'normal', 'rot1': 131, 'rot0': 91, 'rot3': 23, 'rot2': 28, 'depth': -0.369, 'yaw': 175.4, 'datetime': '2018-12-12 11:02:26.897542', 'mgs': 0, 'flw2': 0.0, 'flw1': 1.44, 'flw0': 0.0, 'time': 28.71, 'compass': -25.21, 'pitch': 0.25, 'roll': 0.31}
{'lipoC2': 8.22, 'temp': 0.0, 'lipoC3S3': 11.89, 'state': 'normal', 'rot1': 131, 'rot0': 91, 'rot3': 23, 'rot2': 28, 'depth': -0.598, 'yaw': 176.85, 'datetime': '2018-12-12 11:02:27.110277', 'mgs': 0, 'flw2': 0.0, 'flw1': 2.52, 'flw0': 0.0, 'time': 28.92, 'compass': -23.76, 'pitch': 1.06, 'roll': 1.16}
{'lipoC2': 7.93, 'temp': 0.0, 'lipoC3S3': 12.22, 'state': 'normal', 'rot1': 131, 'rot0': 91, 'rot3': 24, 'rot2': 29, 'depth': -0.674, 'yaw': 178.28, 'datetime': '2018-12-12 11:02:27.319143', 'mgs': 0, 'flw2': 0.27, 'flw1': 1.44, 'flw0': 0.06, 'time': 29.13, 'compass': -22.34, 'pitch': 1.49, 'roll': 1.68}
{'lipoC2': 7.97, 'temp': 0.0, 'lipoC3S3': 11.94, 'state': 'normal', 'rot1': 131, 'rot0': 91, 'rot3': 25, 'rot2': 30, 'depth': 1.462, 'yaw': 179.58, 'datetime': '2018-12-12 11:02:27.528527', 'mgs': 0, 'flw2': 0.0, 'flw1': 2.61, 'flw0': 0.0, 'time': 29.34, 'compass': -21.03, 'pitch': 0.73, 'roll': 1.69}
{'lipoC2': 8.16, 'temp': 0.0, 'lipoC3S3': 11.9, 'state': 'normal', 'rot1': 131, 'rot0': 91, 'rot3': 26, 'rot2': 31, 'depth': -0.217, 'yaw': -179.2, 'datetime': '2018-12-12 11:02:27.740853', 'mgs': 0, 'flw2': 0.0, 'flw1': 2.34, 'flw0': 0.0, 'time': 29.55, 'compass': -19.81, 'pitch': 0.04, 'roll': 1.75}
{'lipoC2': 8.01, 'temp': 0.0, 'lipoC3S3': 11.81, 'state': 'normal', 'rot1': 131, 'rot0': 91, 'rot3': 26, 'rot2': 32, 'depth': 2.454, 'yaw': -177.96, 'datetime': '2018-12-12 11:02:27.951544', 'mgs': 0, 'flw2': 0.0, 'flw1': 2.17, 'flw0': 0.0, 'time': 29.76, 'compass': -18.57, 'pitch': 0.45, 'roll': 2.09}
{'lipoC2': 8.16, 'temp': 0.0, 'lipoC3S3': 12.27, 'state': 'normal', 'rot1': 131, 'rot0': 91, 'rot3': 27, 'rot2': 33, 'depth': -0.903, 'yaw': -176.82, 'datetime': '2018-12-12 11:02:28.159153', 'mgs': 0, 'flw2': 0.23, 'flw1': 1.7, 'flw0': 0.0, 'time': 29.97, 'compass': -17.43, 'pitch': 0.94, 'roll': 2.21}
{'lipoC2': 8.1, 'temp': 0.0, 'lipoC3S3': 11.94, 'state': 'normal', 'rot1': 131, 'rot0': 91, 'rot3': 28, 'rot2': 33, 'depth': -0.522, 'yaw': -175.77, 'datetime': '2018-12-12 11:02:28.370710', 'mgs': 0, 'flw2': 0.0, 'flw1': 1.35, 'flw0': 0.02, 'time': 30.18, 'compass': -16.39, 'pitch': 0.27, 'roll': 1.87}
{'lipoC2': 7.96, 'temp': 0.0, 'lipoC3S3': 11.9, 'state': 'normal', 'rot1': 131, 'rot0': 91, 'rot3': 28, 'rot2': 34, 'depth': 2.225, 'yaw': -174.74, 'datetime': '2018-12-12 11:02:28.579691', 'mgs': 0, 'flw2': 0.0, 'flw1': 2.61, 'flw0': 0.0, 'time': 30.39, 'compass': -15.36, 'pitch': -0.46, 'roll': 1.31}
{'lipoC2': 8.09, 'temp': 0.0, 'lipoC3S3': 11.83, 'state': 'normal', 'rot1': 131, 'rot0': 91, 'rot3': 29, 'rot2': 35, 'depth': -0.369, 'yaw': -173.8, 'datetime': '2018-12-12 11:02:28.790181', 'mgs': 0, 'flw2': 0.07, 'flw1': 1.9, 'flw0': 0.0, 'time': 30.6, 'compass': -14.41, 'pitch': -0.38, 'roll': 0.8}
{'lipoC2': 7.96, 'temp': 0.0, 'lipoC3S3': 11.94, 'state': 'normal', 'rot1': 133, 'rot0': 92, 'rot3': 30, 'rot2': 36, 'depth': -0.064, 'yaw': -172.8, 'datetime': '2018-12-12 11:02:29.002194', 'mgs': 0, 'flw2': 1.06, 'flw1': 1.49, 'flw0': 5.71, 'time': 30.81, 'compass': -13.42, 'pitch': 0.55, 'roll': 0.28}
{'lipoC2': 8.06, 'temp': 0.0, 'lipoC3S3': 11.8, 'state': 'normal', 'rot1': 136, 'rot0': 94, 'rot3': 31, 'rot2': 37, 'depth': -0.598, 'yaw': -174.38, 'datetime': '2018-12-12 11:02:29.210918', 'mgs': 0, 'flw2': 0.83, 'flw1': 2.37, 'flw0': 1.75, 'time': 31.02, 'compass': -15.0, 'pitch': 3.27, 'roll': -0.33}
{'lipoC2': 8.24, 'temp': 0.0, 'lipoC3S3': 11.9, 'state': 'normal', 'rot1': 138, 'rot0': 96, 'rot3': 31, 'rot2': 38, 'depth': -0.598, 'yaw': -177.36, 'datetime': '2018-12-12 11:02:29.424543', 'mgs': 0, 'flw2': 0.92, 'flw1': 1.9, 'flw0': 0.96, 'time': 31.23, 'compass': -17.97, 'pitch': 5.28, 'roll': -0.47}
{'lipoC2': 7.97, 'temp': 0.0, 'lipoC3S3': 11.84, 'state': 'normal', 'rot1': 140, 'rot0': 97, 'rot3': 32, 'rot2': 38, 'depth': 2.454, 'yaw': -179.61, 'datetime': '2018-12-12 11:02:29.635969', 'mgs': 0, 'flw2': 0.45, 'flw1': 2.49, 'flw0': 0.0, 'time': 31.44, 'compass': -20.22, 'pitch': 6.21, 'roll': -0.27}
{'lipoC2': 7.97, 'temp': 0.0, 'lipoC3S3': 11.97, 'state': 'normal', 'rot1': 140, 'rot0': 99, 'rot3': 33, 'rot2': 39, 'depth': -0.14, 'yaw': 179.46, 'datetime': '2018-12-12 11:02:29.846395', 'mgs': 0, 'flw2': 0.82, 'flw1': 1.32, 'flw0': 0.33, 'time': 31.65, 'compass': -21.15, 'pitch': 6.88, 'roll': 0.2}
{'lipoC2': 7.98, 'temp': 0.0, 'lipoC3S3': 11.98, 'state': 'normal', 'rot1': 141, 'rot0': 100, 'rot3': 34, 'rot2': 40, 'depth': 0.165, 'yaw': 179.36, 'datetime': '2018-12-12 11:02:30.056942', 'mgs': 0, 'flw2': 0.67, 'flw1': 2.64, 'flw0': 0.0, 'time': 31.86, 'compass': -21.25, 'pitch': 7.37, 'roll': 0.75}
{'lipoC2': 8.2, 'temp': 0.0, 'lipoC3S3': 11.92, 'state': 'normal', 'rot1': 142, 'rot0': 101, 'rot3': 34, 'rot2': 41, 'depth': 0.089, 'yaw': 179.89, 'datetime': '2018-12-12 11:02:30.262097', 'mgs': 0, 'flw2': 0.52, 'flw1': 1.93, 'flw0': 0.0, 'time': 32.07, 'compass': -20.72, 'pitch': 7.09, 'roll': 1.09}
{'lipoC2': 8.09, 'temp': 0.0, 'lipoC3S3': 11.97, 'state': 'normal', 'rot1': 142, 'rot0': 102, 'rot3': 35, 'rot2': 42, 'depth': -0.293, 'yaw': -179.04, 'datetime': '2018-12-12 11:02:30.476695', 'mgs': 0, 'flw2': 0.0, 'flw1': 2.61, 'flw0': 0.0, 'time': 32.28, 'compass': -19.65, 'pitch': 5.86, 'roll': 1.28}
{'lipoC2': 7.93, 'temp': 0.0, 'lipoC3S3': 12.13, 'state': 'normal', 'rot1': 142, 'rot0': 102, 'rot3': 36, 'rot2': 43, 'depth': 1.157, 'yaw': -178.2, 'datetime': '2018-12-12 11:02:30.687893', 'mgs': 0, 'flw2': 0.0, 'flw1': 1.82, 'flw0': 0.0, 'time': 32.49, 'compass': -18.81, 'pitch': 3.7, 'roll': 1.28}
{'lipoC2': 8.21, 'temp': 0.0, 'lipoC3S3': 11.9, 'state': 'normal', 'rot1': 142, 'rot0': 102, 'rot3': 36, 'rot2': 43, 'depth': 0.317, 'yaw': -177.7, 'datetime': '2018-12-12 11:02:30.897678', 'mgs': 0, 'flw2': 0.0, 'flw1': 2.08, 'flw0': 0.0, 'time': 32.7, 'compass': -18.31, 'pitch': 1.56, 'roll': 0.98}
{'lipoC2': 8.24, 'temp': 0.0, 'lipoC3S3': 11.96, 'state': 'normal', 'rot1': 142, 'rot0': 102, 'rot3': 37, 'rot2': 44, 'depth': -0.674, 'yaw': -177.41, 'datetime': '2018-12-12 11:02:31.106143', 'mgs': 0, 'flw2': 0.0, 'flw1': 2.14, 'flw0': 0.0, 'time': 32.91, 'compass': -18.03, 'pitch': 0.08, 'roll': 0.64}
{'lipoC2': 7.99, 'temp': 0.0, 'lipoC3S3': 11.81, 'state': 'normal', 'rot1': 142, 'rot0': 102, 'rot3': 38, 'rot2': 45, 'depth': -0.064, 'yaw': -177.36, 'datetime': '2018-12-12 11:02:31.317914', 'mgs': 0, 'flw2': 0.0, 'flw1': 2.49, 'flw0': 0.0, 'time': 33.12, 'compass': -17.97, 'pitch': -0.88, 'roll': 0.37}
{'lipoC2': 7.98, 'temp': 0.0, 'lipoC3S3': 12.08, 'state': 'normal', 'rot1': 142, 'rot0': 102, 'rot3': 39, 'rot2': 46, 'depth': -0.369, 'yaw': -177.35, 'datetime': '2018-12-12 11:02:31.529344', 'mgs': 0, 'flw2': 0.04, 'flw1': 1.41, 'flw0': 0.12, 'time': 33.33, 'compass': -17.96, 'pitch': -1.32, 'roll': 0.16}
{'lipoC2': 7.97, 'temp': 0.0, 'lipoC3S3': 11.87, 'state': 'normal', 'rot1': 142, 'rot0': 102, 'rot3': 39, 'rot2': 47, 'depth': 0.089, 'yaw': -177.35, 'datetime': '2018-12-12 11:02:31.744277', 'mgs': 0, 'flw2': 0.26, 'flw1': 1.79, 'flw0': 0.29, 'time': 33.54, 'compass': -17.96, 'pitch': -1.28, 'roll': 0.02}
{'lipoC2': 8.04, 'temp': 0.0, 'lipoC3S3': 11.81, 'state': 'normal', 'rot1': 142, 'rot0': 102, 'rot3': 40, 'rot2': 48, 'depth': -0.217, 'yaw': -177.34, 'datetime': '2018-12-12 11:02:31.949993', 'mgs': 0, 'flw2': 0.0, 'flw1': 1.96, 'flw0': 0.0, 'time': 33.75, 'compass': -17.96, 'pitch': -0.76, 'roll': -0.05}
{'lipoC2': 8.22, 'temp': 0.0, 'lipoC3S3': 12.3, 'state': 'normal', 'rot1': 142, 'rot0': 102, 'rot3': 41, 'rot2': 48, 'depth': -0.98, 'yaw': -177.34, 'datetime': '2018-12-12 11:02:32.160757', 'mgs': 0, 'flw2': 0.0, 'flw1': 1.99, 'flw0': 0.0, 'time': 33.96, 'compass': -17.96, 'pitch': 0.25, 'roll': -0.03}
{'lipoC2': 8.0, 'temp': 0.0, 'lipoC3S3': 12.12, 'state': 'normal', 'rot1': 142, 'rot0': 102, 'rot3': 41, 'rot2': 49, 'depth': 0.775, 'yaw': -177.32, 'datetime': '2018-12-12 11:02:32.370306', 'mgs': 0, 'flw2': 0.0, 'flw1': 1.41, 'flw0': 0.15, 'time': 34.17, 'compass': -17.93, 'pitch': 1.41, 'roll': 0.02}
{'lipoC2': 8.05, 'temp': 0.0, 'lipoC3S3': 11.81, 'state': 'normal', 'rot1': 142, 'rot0': 102, 'rot3': 42, 'rot2': 50, 'depth': 2.301, 'yaw': -177.22, 'datetime': '2018-12-12 11:02:32.580070', 'mgs': 0, 'flw2': 0.0, 'flw1': 1.99, 'flw0': 0.0, 'time': 34.38, 'compass': -17.83, 'pitch': 2.15, 'roll': -0.02}
{'lipoC2': 7.95, 'temp': 0.0, 'lipoC3S3': 12.16, 'state': 'normal', 'rot1': 142, 'rot0': 102, 'rot3': 43, 'rot2': 51, 'depth': 2.377, 'yaw': -177.2, 'datetime': '2018-12-12 11:02:32.791537', 'mgs': 0, 'flw2': 0.32, 'flw1': 2.87, 'flw0': 0.21, 'time': 34.59, 'compass': -17.82, 'pitch': 2.32, 'roll': 0.14}
{'lipoC2': 8.17, 'temp': 0.0, 'lipoC3S3': 11.88, 'state': 'normal', 'rot1': 142, 'rot0': 102, 'rot3': 44, 'rot2': 52, 'depth': 0.546, 'yaw': -177.19, 'datetime': '2018-12-12 11:02:33.001842', 'mgs': 0, 'flw2': 0.0, 'flw1': 3.52, 'flw0': 0.17, 'time': 34.8, 'compass': -17.8, 'pitch': 2.5, 'roll': 0.51}
{'lipoC2': 7.95, 'temp': 0.0, 'lipoC3S3': 11.92, 'state': 'normal', 'rot1': 144, 'rot0': 103, 'rot3': 44, 'rot2': 53, 'depth': -0.14, 'yaw': -177.08, 'datetime': '2018-12-12 11:02:33.210074', 'mgs': 0, 'flw2': 2.36, 'flw1': 2.58, 'flw0': 2.71, 'time': 35.01, 'compass': -17.69, 'pitch': 2.81, 'roll': 0.59}
{'lipoC2': 7.93, 'temp': 0.0, 'lipoC3S3': 12.38, 'state': 'normal', 'rot1': 147, 'rot0': 107, 'rot3': 45, 'rot2': 54, 'depth': 3.369, 'yaw': -174.31, 'datetime': '2018-12-12 11:02:33.419994', 'mgs': 0, 'flw2': 2.16, 'flw1': 2.46, 'flw0': 1.51, 'time': 35.22, 'compass': -14.92, 'pitch': 3.24, 'roll': 0.88}
{'lipoC2': 8.04, 'temp': 0.0, 'lipoC3S3': 11.71, 'state': 'normal', 'rot1': 153, 'rot0': 111, 'rot3': 46, 'rot2': 55, 'depth': 2.606, 'yaw': -169.14, 'datetime': '2018-12-12 11:02:33.632494', 'mgs': 0, 'flw2': 1.39, 'flw1': 3.05, 'flw0': 1.35, 'time': 35.44, 'compass': -9.76, 'pitch': 3.71, 'roll': 1.69}
{'lipoC2': 8.14, 'temp': 0.0, 'lipoC3S3': 11.77, 'state': 'normal', 'rot1': 157, 'rot0': 115, 'rot3': 46, 'rot2': 56, 'depth': 0.012, 'yaw': -162.68, 'datetime': '2018-12-12 11:02:33.841967', 'mgs': 0, 'flw2': 1.21, 'flw1': 2.46, 'flw0': 1.59, 'time': 35.65, 'compass': -3.29, 'pitch': 3.88, 'roll': 2.66}
{'lipoC2': 7.88, 'temp': 0.0, 'lipoC3S3': 11.87, 'state': 'normal', 'rot1': 161, 'rot0': 117, 'rot3': 47, 'rot2': 57, 'depth': -0.903, 'yaw': -155.81, 'datetime': '2018-12-12 11:02:34.054610', 'mgs': 0, 'flw2': 0.84, 'flw1': 2.17, 'flw0': 1.45, 'time': 35.86, 'compass': 3.58, 'pitch': 3.9, 'roll': 3.25}
{'lipoC2': 7.88, 'temp': 0.0, 'lipoC3S3': 11.96, 'state': 'normal', 'rot1': 165, 'rot0': 120, 'rot3': 48, 'rot2': 58, 'depth': -0.751, 'yaw': -148.95, 'datetime': '2018-12-12 11:02:34.263260', 'mgs': 0, 'flw2': 1.1, 'flw1': 2.61, 'flw0': 1.28, 'time': 36.07, 'compass': 10.43, 'pitch': 3.89, 'roll': 3.35}
{'lipoC2': 7.94, 'temp': 0.0, 'lipoC3S3': 12.1, 'state': 'normal', 'rot1': 168, 'rot0': 123, 'rot3': 49, 'rot2': 59, 'depth': 3.522, 'yaw': -142.14, 'datetime': '2018-12-12 11:02:34.475704', 'mgs': 0, 'flw2': 0.96, 'flw1': 2.55, 'flw0': 1.07, 'time': 36.28, 'compass': 17.24, 'pitch': 3.71, 'roll': 3.27}
{'lipoC2': 7.97, 'temp': 0.0, 'lipoC3S3': 12.33, 'state': 'normal', 'rot1': 171, 'rot0': 126, 'rot3': 50, 'rot2': 60, 'depth': 2.682, 'yaw': -135.43, 'datetime': '2018-12-12 11:02:34.684345', 'mgs': 0, 'flw2': 1.66, 'flw1': 2.34, 'flw0': 2.26, 'time': 36.49, 'compass': 23.96, 'pitch': 3.62, 'roll': 2.97}
{'lipoC2': 7.94, 'temp': 0.0, 'lipoC3S3': 12.19, 'state': 'normal', 'rot1': 176, 'rot0': 130, 'rot3': 50, 'rot2': 62, 'depth': -0.674, 'yaw': -127.57, 'datetime': '2018-12-12 11:02:34.894828', 'mgs': 0, 'flw2': 2.11, 'flw1': 3.02, 'flw0': 2.25, 'time': 36.7, 'compass': 31.81, 'pitch': 3.89, 'roll': 2.51}
{'lipoC2': 7.97, 'temp': 0.0, 'lipoC3S3': 12.31, 'state': 'normal', 'rot1': 182, 'rot0': 134, 'rot3': 51, 'rot2': 63, 'depth': 2.301, 'yaw': -118.02, 'datetime': '2018-12-12 11:02:35.107151', 'mgs': 0, 'flw2': 2.93, 'flw1': 2.52, 'flw0': 2.66, 'time': 36.91, 'compass': 41.37, 'pitch': 4.28, 'roll': 2.34}
{'lipoC2': 7.97, 'temp': 0.0, 'lipoC3S3': 12.33, 'state': 'normal', 'rot1': 187, 'rot0': 138, 'rot3': 52, 'rot2': 64, 'depth': 0.012, 'yaw': -107.37, 'datetime': '2018-12-12 11:02:35.317203', 'mgs': 0, 'flw2': 2.87, 'flw1': 2.29, 'flw0': 3.52, 'time': 37.12, 'compass': 52.02, 'pitch': 4.58, 'roll': 2.68}
{'lipoC2': 7.94, 'temp': 0.0, 'lipoC3S3': 11.96, 'state': 'normal', 'rot1': 193, 'rot0': 142, 'rot3': 53, 'rot2': 65, 'depth': 0.775, 'yaw': -95.11, 'datetime': '2018-12-12 11:02:35.528040', 'mgs': 0, 'flw2': 3.17, 'flw1': 2.49, 'flw0': 3.19, 'time': 37.33, 'compass': 64.27, 'pitch': 4.95, 'roll': 2.84}
{'lipoC2': 8.15, 'temp': 0.0, 'lipoC3S3': 11.81, 'state': 'normal', 'rot1': 199, 'rot0': 147, 'rot3': 53, 'rot2': 66, 'depth': 1.004, 'yaw': -82.19, 'datetime': '2018-12-12 11:02:35.738350', 'mgs': 0, 'flw2': 3.33, 'flw1': 2.84, 'flw0': 3.49, 'time': 37.54, 'compass': 77.2, 'pitch': 5.26, 'roll': 2.2}
{'lipoC2': 7.97, 'temp': 0.0, 'lipoC3S3': 11.75, 'state': 'normal', 'rot1': 204, 'rot0': 153, 'rot3': 54, 'rot2': 67, 'depth': 3.827, 'yaw': -68.51, 'datetime': '2018-12-12 11:02:35.951169', 'mgs': 0, 'flw2': 6.1, 'flw1': 2.7, 'flw0': 6.29, 'time': 37.75, 'compass': 90.87, 'pitch': 5.32, 'roll': 1.61}
{'lipoC2': 8.12, 'temp': 0.0, 'lipoC3S3': 11.71, 'state': 'normal', 'rot1': 210, 'rot0': 157, 'rot3': 55, 'rot2': 68, 'depth': -0.674, 'yaw': -52.49, 'datetime': '2018-12-12 11:02:36.162825', 'mgs': 0, 'flw2': 7.78, 'flw1': 2.7, 'flw0': 7.42, 'time': 37.96, 'compass': 106.9, 'pitch': 5.51, 'roll': 1.92}
{'lipoC2': 7.98, 'temp': 0.0, 'lipoC3S3': 12.27, 'state': 'normal', 'rot1': 217, 'rot0': 163, 'rot3': 56, 'rot2': 69, 'depth': 2.454, 'yaw': -43.92, 'datetime': '2018-12-12 11:02:36.372760', 'mgs': 0, 'flw2': 4.42, 'flw1': 3.31, 'flw0': 5.29, 'time': 38.17, 'compass': 115.47, 'pitch': 5.21, 'roll': 1.38}
{'lipoC2': 8.25, 'temp': 0.0, 'lipoC3S3': 11.52, 'state': 'normal', 'rot1': 223, 'rot0': 168, 'rot3': 56, 'rot2': 70, 'depth': -1.514, 'yaw': -44.38, 'datetime': '2018-12-12 11:02:36.581298', 'mgs': 0, 'flw2': 5.16, 'flw1': 2.29, 'flw0': 5.0, 'time': 38.38, 'compass': 115.01, 'pitch': 4.98, 'roll': 0.45}
{'lipoC2': 8.24, 'temp': 0.0, 'lipoC3S3': 11.68, 'state': 'normal', 'rot1': 228, 'rot0': 173, 'rot3': 57, 'rot2': 71, 'depth': -1.514, 'yaw': -51.12, 'datetime': '2018-12-12 11:02:36.791523', 'mgs': 0, 'flw2': 5.19, 'flw1': 2.37, 'flw0': 5.31, 'time': 38.59, 'compass': 108.27, 'pitch': 3.95, 'roll': -0.45}
{'lipoC2': 8.13, 'temp': 0.0, 'lipoC3S3': 11.71, 'state': 'normal', 'rot1': 234, 'rot0': 179, 'rot3': 58, 'rot2': 72, 'depth': 0.775, 'yaw': -62.66, 'datetime': '2018-12-12 11:02:37.003543', 'mgs': 0, 'flw2': 4.83, 'flw1': 3.43, 'flw0': 5.46, 'time': 38.8, 'compass': 96.73, 'pitch': 3.14, 'roll': -1.23}
{'lipoC2': 7.99, 'temp': 0.0, 'lipoC3S3': 11.5, 'state': 'normal', 'rot1': 241, 'rot0': 185, 'rot3': 59, 'rot2': 73, 'depth': 2.682, 'yaw': -77.44, 'datetime': '2018-12-12 11:02:37.215255', 'mgs': 0, 'flw2': 6.4, 'flw1': 2.93, 'flw0': 6.7, 'time': 39.01, 'compass': 81.95, 'pitch': 3.16, 'roll': -2.37}
{'lipoC2': 8.04, 'temp': 0.0, 'lipoC3S3': 11.65, 'state': 'normal', 'rot1': 248, 'rot0': 190, 'rot3': 60, 'rot2': 74, 'depth': 3.522, 'yaw': -94.79, 'datetime': '2018-12-12 11:02:37.425314', 'mgs': 0, 'flw2': 4.94, 'flw1': 2.61, 'flw0': 5.13, 'time': 39.22, 'compass': 64.6, 'pitch': 4.06, 'roll': -3.62}
{'lipoC2': 8.07, 'temp': 0.0, 'lipoC3S3': 11.63, 'state': 'normal', 'rot1': 253, 'rot0': 195, 'rot3': 60, 'rot2': 75, 'depth': 1.767, 'yaw': -112.9, 'datetime': '2018-12-12 11:02:37.635151', 'mgs': 0, 'flw2': 4.64, 'flw1': 2.58, 'flw0': 4.38, 'time': 39.43, 'compass': 46.49, 'pitch': 4.95, 'roll': -4.04}
{'lipoC2': 7.97, 'temp': 0.0, 'lipoC3S3': 12.25, 'state': 'normal', 'rot1': 260, 'rot0': 199, 'rot3': 61, 'rot2': 76, 'depth': 0.394, 'yaw': -131.01, 'datetime': '2018-12-12 11:02:37.846479', 'mgs': 0, 'flw2': 3.55, 'flw1': 2.26, 'flw0': 4.27, 'time': 39.64, 'compass': 28.38, 'pitch': 5.35, 'roll': -3.46}
{'lipoC2': 7.92, 'temp': 0.0, 'lipoC3S3': 12.18, 'state': 'normal', 'rot1': 265, 'rot0': 204, 'rot3': 62, 'rot2': 77, 'depth': -0.674, 'yaw': -149.17, 'datetime': '2018-12-12 11:02:38.057040', 'mgs': 0, 'flw2': 3.15, 'flw1': 2.43, 'flw0': 3.59, 'time': 39.85, 'compass': 10.22, 'pitch': 5.49, 'roll': -2.86}
{'lipoC2': 7.96, 'temp': 0.0, 'lipoC3S3': 11.72, 'state': 'normal', 'rot1': 271, 'rot0': 208, 'rot3': 63, 'rot2': 78, 'depth': 2.606, 'yaw': -167.16, 'datetime': '2018-12-12 11:02:38.268135', 'mgs': 0, 'flw2': 2.61, 'flw1': 2.2, 'flw0': 3.23, 'time': 40.06, 'compass': -7.78, 'pitch': 5.62, 'roll': -2.61}
{'lipoC2': 7.9, 'temp': 0.0, 'lipoC3S3': 12.06, 'state': 'normal', 'rot1': 275, 'rot0': 212, 'rot3': 63, 'rot2': 79, 'depth': -0.598, 'yaw': 176.07, 'datetime': '2018-12-12 11:02:38.478605', 'mgs': 0, 'flw2': 2.49, 'flw1': 3.08, 'flw0': 2.77, 'time': 40.28, 'compass': -24.55, 'pitch': 6.25, 'roll': -1.74}
{'lipoC2': 7.97, 'temp': 0.0, 'lipoC3S3': 12.25, 'state': 'normal', 'rot1': 280, 'rot0': 217, 'rot3': 64, 'rot2': 80, 'depth': 1.996, 'yaw': 160.07, 'datetime': '2018-12-12 11:02:38.690645', 'mgs': 0, 'flw2': 3.26, 'flw1': 2.26, 'flw0': 2.73, 'time': 40.49, 'compass': -40.55, 'pitch': 6.32, 'roll': -0.44}
{'lipoC2': 7.9, 'temp': 0.0, 'lipoC3S3': 11.73, 'state': 'normal', 'rot1': 284, 'rot0': 221, 'rot3': 65, 'rot2': 81, 'depth': -0.903, 'yaw': 143.85, 'datetime': '2018-12-12 11:02:38.899363', 'mgs': 0, 'flw2': 2.82, 'flw1': 3.37, 'flw0': 3.04, 'time': 40.69, 'compass': -56.77, 'pitch': 5.04, 'roll': 0.6}
{'lipoC2': 7.97, 'temp': 0.0, 'lipoC3S3': 11.73, 'state': 'normal', 'rot1': 289, 'rot0': 225, 'rot3': 66, 'rot2': 83, 'depth': -0.293, 'yaw': 127.22, 'datetime': '2018-12-12 11:02:39.109726', 'mgs': 0, 'flw2': 2.89, 'flw1': 2.96, 'flw0': 3.31, 'time': 40.91, 'compass': -73.39, 'pitch': 3.65, 'roll': 0.7}
{'lipoC2': 8.2, 'temp': 0.0, 'lipoC3S3': 11.8, 'state': 'normal', 'rot1': 293, 'rot0': 229, 'rot3': 67, 'rot2': 84, 'depth': -1.056, 'yaw': 110.0, 'datetime': '2018-12-12 11:02:39.322056', 'mgs': 0, 'flw2': 3.54, 'flw1': 3.46, 'flw0': 4.1, 'time': 41.12, 'compass': -90.61, 'pitch': 3.33, 'roll': 0.26}
{'lipoC2': 7.94, 'temp': 0.0, 'lipoC3S3': 12.04, 'state': 'normal', 'rot1': 299, 'rot0': 233, 'rot3': 67, 'rot2': 85, 'depth': 2.53, 'yaw': 92.13, 'datetime': '2018-12-12 11:02:39.533408', 'mgs': 0, 'flw2': 3.64, 'flw1': 2.72, 'flw0': 4.08, 'time': 41.33, 'compass': -108.49, 'pitch': 3.2, 'roll': 0.3}
{'lipoC2': 7.88, 'temp': 0.0, 'lipoC3S3': 11.94, 'state': 'normal', 'rot1': 304, 'rot0': 238, 'rot3': 68, 'rot2': 86, 'depth': -0.98, 'yaw': 73.39, 'datetime': '2018-12-12 11:02:39.743445', 'mgs': 0, 'flw2': 4.14, 'flw1': 2.26, 'flw0': 4.17, 'time': 41.54, 'compass': -127.23, 'pitch': 1.98, 'roll': 0.26}
{'lipoC2': 7.93, 'temp': 0.0, 'lipoC3S3': 12.0, 'state': 'normal', 'rot1': 309, 'rot0': 242, 'rot3': 69, 'rot2': 87, 'depth': -0.598, 'yaw': 54.72, 'datetime': '2018-12-12 11:02:39.953579', 'mgs': 0, 'flw2': 3.64, 'flw1': 3.72, 'flw0': 4.08, 'time': 41.75, 'compass': -145.89, 'pitch': 0.5, 'roll': -0.94}
{'lipoC2': 7.91, 'temp': 0.0, 'lipoC3S3': 11.9, 'state': 'normal', 'rot1': 314, 'rot0': 247, 'rot3': 70, 'rot2': 88, 'depth': -0.598, 'yaw': 33.87, 'datetime': '2018-12-12 11:02:40.164623', 'mgs': 0, 'flw2': 3.91, 'flw1': 2.08, 'flw0': 4.57, 'time': 41.96, 'compass': -166.75, 'pitch': -0.15, 'roll': -2.46}
{'lipoC2': 7.92, 'temp': 0.0, 'lipoC3S3': 12.01, 'state': 'normal', 'rot1': 319, 'rot0': 250, 'rot3': 71, 'rot2': 89, 'depth': -0.903, 'yaw': 13.52, 'datetime': '2018-12-12 11:02:40.375038', 'mgs': 0, 'flw2': 4.05, 'flw1': 2.26, 'flw0': 4.54, 'time': 42.17, 'compass': 172.9, 'pitch': -0.38, 'roll': -3.2}
{'lipoC2': 7.99, 'temp': 0.0, 'lipoC3S3': 11.6, 'state': 'normal', 'rot1': 325, 'rot0': 256, 'rot3': 71, 'rot2': 90, 'depth': 1.233, 'yaw': -6.3, 'datetime': '2018-12-12 11:02:40.586594', 'mgs': 0, 'flw2': 3.81, 'flw1': 2.02, 'flw0': 4.66, 'time': 42.38, 'compass': 153.09, 'pitch': -1.15, 'roll': -3.33}
{'lipoC2': 7.9, 'temp': 0.0, 'lipoC3S3': 11.85, 'state': 'normal', 'rot1': 330, 'rot0': 261, 'rot3': 72, 'rot2': 91, 'depth': -0.903, 'yaw': -27.58, 'datetime': '2018-12-12 11:02:40.796456', 'mgs': 0, 'flw2': 5.54, 'flw1': 3.34, 'flw0': 5.83, 'time': 42.59, 'compass': 131.8, 'pitch': -1.66, 'roll': -3.93}
{'lipoC2': 8.14, 'temp': 0.0, 'lipoC3S3': 11.54, 'state': 'normal', 'rot1': 336, 'rot0': 267, 'rot3': 73, 'rot2': 92, 'depth': 0.699, 'yaw': -49.8, 'datetime': '2018-12-12 11:02:41.006483', 'mgs': 0, 'flw2': 8.76, 'flw1': 2.43, 'flw0': 7.73, 'time': 42.8, 'compass': 109.59, 'pitch': -1.31, 'roll': -5.65}
