{'lipoC2': 0.11, 'temp': 0.0, 'lipoC3S3': 11.67, 'state': 'normal', 'rot1': 0, 'rot0': 0, 'rot3': 0, 'rot2': 0, 'depth': 0.012, 'yaw': -0.0, 'datetime': '2018-12-18 20:53:51.431066', 'mgs': 0, 'flw2': 0.09, 'flw1': 0.29, 'flw0': 0.0, 'time': 1.25, 'compass': -156.41, 'pitch': 1.56, 'roll': -0.86}
{'lipoC2': 0.0, 'temp': 0.0, 'lipoC3S3': 12.01, 'state': 'normal', 'rot1': 0, 'rot0': 0, 'rot3': 0, 'rot2': 0, 'depth': -2.048, 'yaw': 0.0, 'datetime': '2018-12-18 20:53:51.641101', 'mgs': 0, 'flw2': 0.0, 'flw1': 0.21, 'flw0': 0.15, 'time': 1.47, 'compass': -156.41, 'pitch': 1.76, 'roll': -0.86}
{'lipoC2': 0.06, 'temp': 0.0, 'lipoC3S3': 11.92, 'state': 'normal', 'rot1': 0, 'rot0': 0, 'rot3': 0, 'rot2': 0, 'depth': -2.124, 'yaw': 0.01, 'datetime': '2018-12-18 20:53:51.849712', 'mgs': 0, 'flw2': 0.0, 'flw1': 0.23, 'flw0': 0.1, 'time': 1.67, 'compass': -156.4, 'pitch': 1.6, 'roll': -0.71}
{'lipoC2': 0.04, 'temp': 0.0, 'lipoC3S3': 11.68, 'state': 'normal', 'rot1': 0, 'rot0': 0, 'rot3': 0, 'rot2': 0, 'depth': -0.064, 'yaw': 0.02, 'datetime': '2018-12-18 20:53:52.058153', 'mgs': 0, 'flw2': 0.0, 'flw1': 0.0, 'flw0': 0.2, 'time': 1.88, 'compass': -156.39, 'pitch': 1.19, 'roll': -0.47}
{'lipoC2': 0.0, 'temp': 0.0, 'lipoC3S3': 12.04, 'state': 'normal', 'rot1': 0, 'rot0': 0, 'rot3': 0, 'rot2': 0, 'depth': 1.157, 'yaw': 0.01, 'datetime': '2018-12-18 20:53:52.266287', 'mgs': 0, 'flw2': 0.0, 'flw1': 0.0, 'flw0': 0.2, 'time': 2.09, 'compass': -156.39, 'pitch': 1.06, 'roll': -0.46}
{'lipoC2': 0.03, 'temp': 0.0, 'lipoC3S3': 11.97, 'state': 'normal', 'rot1': 0, 'rot0': 0, 'rot3': 0, 'rot2': 0, 'depth': -1.971, 'yaw': -0.05, 'datetime': '2018-12-18 20:53:52.474506', 'mgs': 0, 'flw2': 0.13, 'flw1': 0.15, 'flw0': 0.0, 'time': 2.3, 'compass': -156.45, 'pitch': 1.42, 'roll': -0.64}
{'lipoC2': 0.0, 'temp': 0.0, 'lipoC3S3': 12.06, 'state': 'normal', 'rot1': 0, 'rot0': 0, 'rot3': 0, 'rot2': 0, 'depth': 1.157, 'yaw': -0.22, 'datetime': '2018-12-18 20:53:52.681486', 'mgs': 0, 'flw2': 0.0, 'flw1': 0.41, 'flw0': 0.0, 'time': 2.5, 'compass': -156.63, 'pitch': 1.87, 'roll': -0.83}
{'lipoC2': 0.13, 'temp': 0.0, 'lipoC3S3': 11.72, 'state': 'normal', 'rot1': 0, 'rot0': 0, 'rot3': 0, 'rot2': 0, 'depth': 0.699, 'yaw': -0.37, 'datetime': '2018-12-18 20:53:52.891228', 'mgs': 0, 'flw2': 0.09, 'flw1': 0.0, 'flw0': 0.12, 'time': 2.71, 'compass': -156.78, 'pitch': 1.86, 'roll': -0.83}
{'lipoC2': 0.0, 'temp': 0.0, 'lipoC3S3': 11.89, 'state': 'normal', 'rot1': 0, 'rot0': 0, 'rot3': 0, 'rot2': 0, 'depth': 0.317, 'yaw': -0.48, 'datetime': '2018-12-18 20:53:53.100308', 'mgs': 0, 'flw2': 0.0, 'flw1': 0.32, 'flw0': 0.0, 'time': 2.92, 'compass': -156.89, 'pitch': 1.43, 'roll': -0.64}
{'lipoC2': 0.14, 'temp': 0.0, 'lipoC3S3': 11.88, 'state': 'normal', 'rot1': 0, 'rot0': 0, 'rot3': 0, 'rot2': 0, 'depth': -1.743, 'yaw': -0.55, 'datetime': '2018-12-18 20:53:53.309549', 'mgs': 0, 'flw2': 0.21, 'flw1': 0.0, 'flw0': 0.0, 'time': 3.13, 'compass': -156.96, 'pitch': 1.23, 'roll': -0.47}
{'lipoC2': 0.0, 'temp': 0.0, 'lipoC3S3': 11.89, 'state': 'normal', 'rot1': 0, 'rot0': 0, 'rot3': 0, 'rot2': 0, 'depth': 0.089, 'yaw': -0.57, 'datetime': '2018-12-18 20:53:53.517243', 'mgs': 0, 'flw2': 0.0, 'flw1': 0.35, 'flw0': 0.0, 'time': 3.34, 'compass': -156.98, 'pitch': 1.58, 'roll': -0.47}
{'lipoC2': 0.12, 'temp': 0.0, 'lipoC3S3': 11.68, 'state': 'normal', 'rot1': 0, 'rot0': 0, 'rot3': 0, 'rot2': 0, 'depth': 0.012, 'yaw': -0.64, 'datetime': '2018-12-18 20:53:53.726310', 'mgs': 0, 'flw2': 0.0, 'flw1': 0.44, 'flw0': 0.0, 'time': 3.55, 'compass': -157.05, 'pitch': 1.94, 'roll': -0.61}
{'lipoC2': 0.15, 'temp': 0.0, 'lipoC3S3': 11.76, 'state': 'normal', 'rot1': 0, 'rot0': 0, 'rot3': 0, 'rot2': 0, 'depth': 0.241, 'yaw': -0.78, 'datetime': '2018-12-18 20:53:53.935052', 'mgs': 0, 'flw2': 0.02, 'flw1': 0.47, 'flw0': 0.0, 'time': 3.76, 'compass': -157.19, 'pitch': 1.77, 'roll': -0.76}
{'lipoC2': 0.0, 'temp': 0.0, 'lipoC3S3': 12.06, 'state': 'normal', 'rot1': 0, 'rot0': 0, 'rot3': 0, 'rot2': 0, 'depth': 1.385, 'yaw': -0.85, 'datetime': '2018-12-18 20:53:54.146001', 'mgs': 0, 'flw2': 0.07, 'flw1': 0.0, 'flw0': 0.15, 'time': 3.96, 'compass': -157.26, 'pitch': 1.32, 'roll': -0.76}
{'lipoC2': 0.15, 'temp': 0.0, 'lipoC3S3': 11.83, 'state': 'normal', 'rot1': 0, 'rot0': 0, 'rot3': 0, 'rot2': 0, 'depth': -0.598, 'yaw': -0.87, 'datetime': '2018-12-18 20:53:54.351971', 'mgs': 0, 'flw2': 0.07, 'flw1': 0.0, 'flw0': 0.13, 'time': 4.17, 'compass': -157.27, 'pitch': 1.27, 'roll': -0.75}
{'lipoC2': 0.0, 'temp': 0.0, 'lipoC3S3': 11.73, 'state': 'normal', 'rot1': 0, 'rot0': 0, 'rot3': 0, 'rot2': 0, 'depth': -1.437, 'yaw': -0.88, 'datetime': '2018-12-18 20:53:54.559445', 'mgs': 0, 'flw2': 0.0, 'flw1': 0.53, 'flw0': 0.0, 'time': 4.38, 'compass': -157.28, 'pitch': 1.7, 'roll': -0.75}
{'lipoC2': 0.14, 'temp': 0.0, 'lipoC3S3': 11.73, 'state': 'normal', 'rot1': 0, 'rot0': 0, 'rot3': 0, 'rot2': 0, 'depth': 0.241, 'yaw': -0.89, 'datetime': '2018-12-18 20:53:54.768559', 'mgs': 0, 'flw2': 0.0, 'flw1': 0.5, 'flw0': 0.0, 'time': 4.59, 'compass': -157.29, 'pitch': 2.13, 'roll': -0.74}
{'lipoC2': 0.04, 'temp': 0.0, 'lipoC3S3': 11.68, 'state': 'normal', 'rot1': 0, 'rot0': 0, 'rot3': 0, 'rot2': 0, 'depth': 1.08, 'yaw': -0.96, 'datetime': '2018-12-18 20:53:54.974146', 'mgs': 0, 'flw2': 0.13, 'flw1': 0.21, 'flw0': 0.0, 'time': 4.8, 'compass': -157.36, 'pitch': 2.03, 'roll': -0.73}
{'lipoC2': 0.11, 'temp': 0.0, 'lipoC3S3': 11.89, 'state': 'normal', 'rot1': 0, 'rot0': 0, 'rot3': 0, 'rot2': 0, 'depth': -2.048, 'yaw': -1.02, 'datetime': '2018-12-18 20:53:55.183927', 'mgs': 0, 'flw2': 0.21, 'flw1': 0.0, 'flw0': 0.0, 'time': 5.01, 'compass': -157.43, 'pitch': 1.52, 'roll': -0.73}
{'lipoC2': 0.13, 'temp': 0.0, 'lipoC3S3': 11.84, 'state': 'normal', 'rot1': 0, 'rot0': 0, 'rot3': 0, 'rot2': 0, 'depth': -2.2, 'yaw': -1.05, 'datetime': '2018-12-18 20:53:55.391836', 'mgs': 0, 'flw2': 0.0, 'flw1': 0.0, 'flw0': 0.27, 'time': 5.21, 'compass': -157.46, 'pitch': 1.28, 'roll': -0.85}
{'lipoC2': 0.0, 'temp': 0.0, 'lipoC3S3': 11.84, 'state': 'normal', 'rot1': 0, 'rot0': 0, 'rot3': 0, 'rot2': 0, 'depth': 0.928, 'yaw': -1.08, 'datetime': '2018-12-18 20:53:55.608337', 'mgs': 0, 'flw2': 0.1, 'flw1': 0.0, 'flw0': 0.11, 'time': 5.42, 'compass': -157.49, 'pitch': 1.67, 'roll': -1.02}
{'lipoC2': 0.16, 'temp': 0.0, 'lipoC3S3': 11.81, 'state': 'normal', 'rot1': 0, 'rot0': 0, 'rot3': 0, 'rot2': 0, 'depth': 0.851, 'yaw': -1.08, 'datetime': '2018-12-18 20:53:55.811435', 'mgs': 0, 'flw2': 0.0, 'flw1': 0.44, 'flw0': 0.0, 'time': 5.63, 'compass': -157.49, 'pitch': 2.21, 'roll': -1.02}
{'lipoC2': 0.15, 'temp': 0.0, 'lipoC3S3': 11.85, 'state': 'normal', 'rot1': 0, 'rot0': 0, 'rot3': 0, 'rot2': 0, 'depth': -0.903, 'yaw': -1.08, 'datetime': '2018-12-18 20:53:56.020842', 'mgs': 0, 'flw2': 0.0, 'flw1': 0.35, 'flw0': 0.0, 'time': 5.83, 'compass': -157.49, 'pitch': 2.23, 'roll': -0.87}
{'lipoC2': 0.0, 'temp': 0.0, 'lipoC3S3': 11.88, 'state': 'normal', 'rot1': 0, 'rot0': 0, 'rot3': 0, 'rot2': 0, 'depth': 0.623, 'yaw': -1.08, 'datetime': '2018-12-18 20:53:56.229966', 'mgs': 0, 'flw2': 0.2, 'flw1': 0.0, 'flw0': 0.0, 'time': 6.04, 'compass': -157.49, 'pitch': 1.75, 'roll': -0.68}
{'lipoC2': 0.16, 'temp': 0.0, 'lipoC3S3': 11.81, 'state': 'normal', 'rot1': 0, 'rot0': 0, 'rot3': 0, 'rot2': 0, 'depth': 0.623, 'yaw': -1.08, 'datetime': '2018-12-18 20:53:56.439022', 'mgs': 0, 'flw2': 0.0, 'flw1': 0.41, 'flw0': 0.0, 'time': 6.25, 'compass': -157.49, 'pitch': 1.55, 'roll': -0.65}
{'lipoC2': 0.09, 'temp': 0.0, 'lipoC3S3': 11.67, 'state': 'normal', 'rot1': 0, 'rot0': 0, 'rot3': 0, 'rot2': 0, 'depth': 0.012, 'yaw': -1.07, 'datetime': '2018-12-18 20:53:56.648489', 'mgs': 0, 'flw2': 0.1, 'flw1': 0.26, 'flw0': 0.0, 'time': 6.46, 'compass': -157.48, 'pitch': 1.77, 'roll': -0.65}
{'lipoC2': 0.0, 'temp': 0.0, 'lipoC3S3': 11.96, 'state': 'normal', 'rot1': 0, 'rot0': 0, 'rot3': 0, 'rot2': 0, 'depth': 0.546, 'yaw': -1.08, 'datetime': '2018-12-18 20:53:56.854955', 'mgs': 0, 'flw2': 0.0, 'flw1': 0.26, 'flw0': 0.12, 'time': 6.67, 'compass': -157.49, 'pitch': 1.83, 'roll': -0.78}
{'lipoC2': 0.0, 'temp': 0.0, 'lipoC3S3': 12.05, 'state': 'normal', 'rot1': 0, 'rot0': 0, 'rot3': 0, 'rot2': 0, 'depth': 1.385, 'yaw': -1.08, 'datetime': '2018-12-18 20:53:57.061616', 'mgs': 0, 'flw2': 0.13, 'flw1': 0.0, 'flw0': 0.21, 'time': 6.88, 'compass': -157.49, 'pitch': 1.7, 'roll': -0.95}
{'lipoC2': 0.04, 'temp': 0.0, 'lipoC3S3': 11.68, 'state': 'normal', 'rot1': 0, 'rot0': 0, 'rot3': 0, 'rot2': 0, 'depth': -0.064, 'yaw': -1.09, 'datetime': '2018-12-18 20:53:57.269455', 'mgs': 0, 'flw2': 0.0, 'flw1': 0.0, 'flw0': 0.21, 'time': 7.08, 'compass': -157.49, 'pitch': 1.85, 'roll': -0.99}
{'lipoC2': 0.13, 'temp': 0.0, 'lipoC3S3': 11.71, 'state': 'normal', 'rot1': 0, 'rot0': 0, 'rot3': 0, 'rot2': 0, 'depth': 0.241, 'yaw': -1.09, 'datetime': '2018-12-18 20:53:57.480476', 'mgs': 0, 'flw2': 0.0, 'flw1': 0.41, 'flw0': 0.0, 'time': 7.29, 'compass': -157.49, 'pitch': 2.19, 'roll': -0.92}
{'lipoC2': 0.0, 'temp': 0.0, 'lipoC3S3': 11.88, 'state': 'normal', 'rot1': 0, 'rot0': 0, 'rot3': 0, 'rot2': 0, 'depth': 0.394, 'yaw': -1.07, 'datetime': '2018-12-18 20:53:57.689789', 'mgs': 0, 'flw2': 0.15, 'flw1': 0.0, 'flw0': 0.05, 'time': 7.5, 'compass': -157.48, 'pitch': 2.08, 'roll': -0.68}
{'lipoC2': 0.09, 'temp': 0.0, 'lipoC3S3': 11.89, 'state': 'normal', 'rot1': 0, 'rot0': 0, 'rot3': 0, 'rot2': 0, 'depth': -2.124, 'yaw': -1.07, 'datetime': '2018-12-18 20:53:57.897793', 'mgs': 0, 'flw2': 0.2, 'flw1': 0.0, 'flw0': 0.0, 'time': 7.71, 'compass': -157.48, 'pitch': 1.73, 'roll': -0.5}
{'lipoC2': 0.1, 'temp': 0.0, 'lipoC3S3': 12.08, 'state': 'normal', 'rot1': 0, 'rot0': 0, 'rot3': 0, 'rot2': 0, 'depth': -0.064, 'yaw': -1.07, 'datetime': '2018-12-18 20:53:58.107603', 'mgs': 0, 'flw2': 0.0, 'flw1': 0.47, 'flw0': 0.0, 'time': 7.92, 'compass': -157.48, 'pitch': 1.79, 'roll': -0.5}
{'lipoC2': 0.16, 'temp': 0.0, 'lipoC3S3': 11.87, 'state': 'normal', 'rot1': 0, 'rot0': 0, 'rot3': 0, 'rot2': 0, 'depth': -1.056, 'yaw': -1.08, 'datetime': '2018-12-18 20:53:58.315655', 'mgs': 0, 'flw2': 0.2, 'flw1': 0.0, 'flw0': 0.0, 'time': 8.12, 'compass': -157.48, 'pitch': 2.19, 'roll': -0.68}
{'lipoC2': 0.01, 'temp': 0.0, 'lipoC3S3': 11.98, 'state': 'normal', 'rot1': 0, 'rot0': 0, 'rot3': 0, 'rot2': 0, 'depth': -1.971, 'yaw': -1.09, 'datetime': '2018-12-18 20:53:58.519430', 'mgs': 0, 'flw2': 0.0, 'flw1': 0.06, 'flw0': 0.17, 'time': 8.33, 'compass': -157.49, 'pitch': 2.28, 'roll': -0.89}
{'lipoC2': 0.0, 'temp': 0.0, 'lipoC3S3': 12.05, 'state': 'normal', 'rot1': 0, 'rot0': 0, 'rot3': 0, 'rot2': 0, 'depth': 1.385, 'yaw': -1.09, 'datetime': '2018-12-18 20:53:58.728961', 'mgs': 0, 'flw2': 0.11, 'flw1': 0.0, 'flw0': 0.11, 'time': 8.54, 'compass': -157.49, 'pitch': 2.03, 'roll': -0.93}
{'lipoC2': 0.0, 'temp': 0.0, 'lipoC3S3': 12.04, 'state': 'normal', 'rot1': 0, 'rot0': 0, 'rot3': 0, 'rot2': 0, 'depth': 1.004, 'yaw': -1.09, 'datetime': '2018-12-18 20:53:58.936462', 'mgs': 0, 'flw2': 0.0, 'flw1': 0.0, 'flw0': 0.21, 'time': 8.75, 'compass': -157.49, 'pitch': 1.95, 'roll': -0.93}
{'lipoC2': 0.0, 'temp': 0.0, 'lipoC3S3': 12.02, 'state': 'normal', 'rot1': 0, 'rot0': 0, 'rot3': 0, 'rot2': 0, 'depth': 1.08, 'yaw': -1.08, 'datetime': '2018-12-18 20:53:59.146668', 'mgs': 0, 'flw2': 0.12, 'flw1': 0.15, 'flw0': 0.0, 'time': 8.96, 'compass': -157.49, 'pitch': 2.08, 'roll': -0.82}
{'lipoC2': 0.0, 'temp': 0.0, 'lipoC3S3': 12.08, 'state': 'normal', 'rot1': 0, 'rot0': 0, 'rot3': 0, 'rot2': 0, 'depth': 1.385, 'yaw': -1.08, 'datetime': '2018-12-18 20:53:59.354698', 'mgs': 0, 'flw2': 0.0, 'flw1': 0.41, 'flw0': 0.0, 'time': 9.17, 'compass': -157.48, 'pitch': 2.02, 'roll': -0.66}
{'lipoC2': 0.02, 'temp': 0.0, 'lipoC3S3': 11.68, 'state': 'normal', 'rot1': 0, 'rot0': 0, 'rot3': 0, 'rot2': 0, 'depth': -0.217, 'yaw': -1.07, 'datetime': '2018-12-18 20:53:59.563349', 'mgs': 0, 'flw2': 0.0, 'flw1': 0.0, 'flw0': 0.22, 'time': 9.37, 'compass': -157.48, 'pitch': 1.78, 'roll': -0.63}
{'lipoC2': 0.0, 'temp': 0.0, 'lipoC3S3': 11.9, 'state': 'normal', 'rot1': 0, 'rot0': 0, 'rot3': 0, 'rot2': 0, 'depth': 0.089, 'yaw': -1.08, 'datetime': '2018-12-18 20:53:59.772563', 'mgs': 0, 'flw2': 0.0, 'flw1': 0.29, 'flw0': 0.05, 'time': 9.58, 'compass': -157.49, 'pitch': 1.92, 'roll': -0.77}
{'lipoC2': 0.06, 'temp': 0.0, 'lipoC3S3': 11.68, 'state': 'normal', 'rot1': 0, 'rot0': 0, 'rot3': 0, 'rot2': 0, 'depth': -0.064, 'yaw': -1.09, 'datetime': '2018-12-18 20:53:59.987682', 'mgs': 0, 'flw2': 0.05, 'flw1': 0.35, 'flw0': 0.0, 'time': 9.79, 'compass': -157.5, 'pitch': 2.36, 'roll': -0.93}
{'lipoC2': 0.09, 'temp': 0.0, 'lipoC3S3': 11.67, 'state': 'normal', 'rot1': 0, 'rot0': 0, 'rot3': 0, 'rot2': 0, 'depth': 0.775, 'yaw': -1.09, 'datetime': '2018-12-18 20:54:00.194232', 'mgs': 0, 'flw2': 0.02, 'flw1': 0.38, 'flw0': 0.0, 'time': 10.0, 'compass': -157.5, 'pitch': 2.57, 'roll': -0.93}
{'lipoC2': 0.09, 'temp': 0.0, 'lipoC3S3': 11.9, 'state': 'normal', 'rot1': 0, 'rot0': 0, 'rot3': 0, 'rot2': 0, 'depth': 1.462, 'yaw': -1.09, 'datetime': '2018-12-18 20:54:00.397164', 'mgs': 0, 'flw2': 0.17, 'flw1': 0.0, 'flw0': 0.0, 'time': 10.21, 'compass': -157.49, 'pitch': 2.23, 'roll': -0.93}
{'lipoC2': 0.0, 'temp': 0.0, 'lipoC3S3': 11.97, 'state': 'normal', 'rot1': 0, 'rot0': 0, 'rot3': 0, 'rot2': 0, 'depth': 0.546, 'yaw': -1.09, 'datetime': '2018-12-18 20:54:00.608067', 'mgs': 0, 'flw2': 0.13, 'flw1': 0.0, 'flw0': 0.0, 'time': 10.41, 'compass': -157.49, 'pitch': 1.87, 'roll': -0.93}
{'lipoC2': 0.05, 'temp': 0.0, 'lipoC3S3': 11.68, 'state': 'normal', 'rot1': 0, 'rot0': 0, 'rot3': 0, 'rot2': 0, 'depth': 1.004, 'yaw': -1.09, 'datetime': '2018-12-18 20:54:00.815623', 'mgs': 0, 'flw2': 0.07, 'flw1': 0.32, 'flw0': 0.0, 'time': 10.62, 'compass': -157.49, 'pitch': 1.94, 'roll': -0.93}
{'lipoC2': 0.0, 'temp': 0.0, 'lipoC3S3': 12.06, 'state': 'normal', 'rot1': 0, 'rot0': 0, 'rot3': 0, 'rot2': 0, 'depth': -0.369, 'yaw': -1.09, 'datetime': '2018-12-18 20:54:01.027416', 'mgs': 0, 'flw2': 0.0, 'flw1': 0.44, 'flw0': 0.0, 'time': 10.83, 'compass': -157.5, 'pitch': 2.32, 'roll': -1.09}
{'lipoC2': 0.0, 'temp': 0.0, 'lipoC3S3': 11.83, 'state': 'normal', 'rot1': 0, 'rot0': 0, 'rot3': 0, 'rot2': 0, 'depth': -0.293, 'yaw': -1.09, 'datetime': '2018-12-18 20:54:01.234206', 'mgs': 0, 'flw2': 0.0, 'flw1': 0.44, 'flw0': 0.0, 'time': 11.04, 'compass': -157.5, 'pitch': 2.47, 'roll': -1.12}
{'lipoC2': 0.0, 'temp': 0.0, 'lipoC3S3': 11.69, 'state': 'normal', 'rot1': 0, 'rot0': 0, 'rot3': 0, 'rot2': 0, 'depth': 0.012, 'yaw': -4.75, 'datetime': '2018-12-18 20:54:01.438785', 'mgs': 0, 'flw2': 0.06, 'flw1': 0.35, 'flw0': 0.0, 'time': 11.25, 'compass': -161.16, 'pitch': 1.29, 'roll': -3.15}
{'lipoC2': 0.14, 'temp': 0.0, 'lipoC3S3': 11.88, 'state': 'normal', 'rot1': 0, 'rot0': 0, 'rot3': 0, 'rot2': 0, 'depth': -1.514, 'yaw': -6.99, 'datetime': '2018-12-18 20:54:01.652130', 'mgs': 0, 'flw2': 0.21, 'flw1': 0.0, 'flw0': 0.0, 'time': 11.45, 'compass': -163.4, 'pitch': -1.27, 'roll': -2.47}
{'lipoC2': 0.03, 'temp': 0.0, 'lipoC3S3': 11.94, 'state': 'normal', 'rot1': 0, 'rot0': 0, 'rot3': 0, 'rot2': 0, 'depth': -2.277, 'yaw': -7.36, 'datetime': '2018-12-18 20:54:01.855784', 'mgs': 0, 'flw2': 0.0, 'flw1': 0.32, 'flw0': 0.07, 'time': 11.66, 'compass': -163.77, 'pitch': -2.25, 'roll': 0.19}
{'lipoC2': 0.14, 'temp': 0.0, 'lipoC3S3': 11.73, 'state': 'normal', 'rot1': 0, 'rot0': 0, 'rot3': 0, 'rot2': 0, 'depth': 0.165, 'yaw': -9.54, 'datetime': '2018-12-18 20:54:02.064036', 'mgs': 0, 'flw2': 0.02, 'flw1': 0.44, 'flw0': 0.0, 'time': 11.87, 'compass': -165.94, 'pitch': -2.94, 'roll': -0.11}
{'lipoC2': 0.01, 'temp': 0.0, 'lipoC3S3': 11.71, 'state': 'normal', 'rot1': 0, 'rot0': 0, 'rot3': 0, 'rot2': 0, 'depth': 1.004, 'yaw': -16.28, 'datetime': '2018-12-18 20:54:02.272729', 'mgs': 0, 'flw2': 0.11, 'flw1': 0.0, 'flw0': 0.0, 'time': 12.08, 'compass': -172.69, 'pitch': -1.6, 'roll': -3.44}
{'lipoC2': 0.05, 'temp': 0.0, 'lipoC3S3': 11.67, 'state': 'normal', 'rot1': 0, 'rot0': 0, 'rot3': 0, 'rot2': 0, 'depth': -0.14, 'yaw': -26.44, 'datetime': '2018-12-18 20:54:02.480214', 'mgs': 0, 'flw2': 0.12, 'flw1': 0.18, 'flw0': 0.0, 'time': 12.29, 'compass': 177.15, 'pitch': 0.23, 'roll': -5.76}
{'lipoC2': 0.08, 'temp': 0.0, 'lipoC3S3': 11.9, 'state': 'normal', 'rot1': 0, 'rot0': 0, 'rot3': 0, 'rot2': 0, 'depth': -2.2, 'yaw': -34.35, 'datetime': '2018-12-18 20:54:02.693340', 'mgs': 0, 'flw2': 0.0, 'flw1': 0.41, 'flw0': 0.02, 'time': 12.49, 'compass': 169.24, 'pitch': -0.61, 'roll': -2.95}
{'lipoC2': 0.0, 'temp': 0.0, 'lipoC3S3': 11.87, 'state': 'normal', 'rot1': 0, 'rot0': 0, 'rot3': 0, 'rot2': 0, 'depth': 0.241, 'yaw': -42.52, 'datetime': '2018-12-18 20:54:03.004892', 'mgs': 0, 'flw2': 0.13, 'flw1': 0.0, 'flw0': 0.04, 'time': 12.81, 'compass': 161.08, 'pitch': -2.64, 'roll': 4.33}
{'lipoC2': 0.05, 'temp': 0.0, 'lipoC3S3': 11.93, 'state': 'normal', 'rot1': 0, 'rot0': 0, 'rot3': 0, 'rot2': 0, 'depth': -2.429, 'yaw': -44.03, 'datetime': '2018-12-18 20:54:03.211154', 'mgs': 0, 'flw2': 0.16, 'flw1': 0.03, 'flw0': 0.0, 'time': 13.01, 'compass': 159.56, 'pitch': -4.98, 'roll': 8.42}
{'lipoC2': 0.0, 'temp': 0.0, 'lipoC3S3': 12.08, 'state': 'normal', 'rot1': 0, 'rot0': 0, 'rot3': 0, 'rot2': 0, 'depth': -1.666, 'yaw': -41.05, 'datetime': '2018-12-18 20:54:03.417397', 'mgs': 0, 'flw2': 0.0, 'flw1': 0.47, 'flw0': 0.0, 'time': 13.22, 'compass': 162.55, 'pitch': -13.3, 'roll': 12.67}
{'lipoC2': 0.0, 'temp': 0.0, 'lipoC3S3': 12.01, 'state': 'normal', 'rot1': 0, 'rot0': 0, 'rot3': 0, 'rot2': 0, 'depth': 0.546, 'yaw': -42.59, 'datetime': '2018-12-18 20:54:03.628439', 'mgs': 0, 'flw2': 0.0, 'flw1': 0.18, 'flw0': 0.15, 'time': 13.43, 'compass': 161.0, 'pitch': -29.72, 'roll': 7.86}
{'lipoC2': 0.0, 'temp': 0.0, 'lipoC3S3': 11.84, 'state': 'normal', 'rot1': 0, 'rot0': 0, 'rot3': 0, 'rot2': 0, 'depth': 0.394, 'yaw': -48.21, 'datetime': '2018-12-18 20:54:03.833300', 'mgs': 0, 'flw2': 0.0, 'flw1': 0.47, 'flw0': 0.0, 'time': 13.64, 'compass': 155.39, 'pitch': -28.49, 'roll': -5.21}
{'lipoC2': 0.0, 'temp': 0.0, 'lipoC3S3': 11.87, 'state': 'normal', 'rot1': 0, 'rot0': 0, 'rot3': 0, 'rot2': 0, 'depth': -0.293, 'yaw': -50.38, 'datetime': '2018-12-18 20:54:04.041193', 'mgs': 0, 'flw2': 0.1, 'flw1': 0.0, 'flw0': 0.09, 'time': 13.85, 'compass': 153.21, 'pitch': -11.61, 'roll': -5.32}
{'lipoC2': 0.08, 'temp': 0.0, 'lipoC3S3': 11.67, 'state': 'normal', 'rot1': 0, 'rot0': 0, 'rot3': 0, 'rot2': 0, 'depth': 0.546, 'yaw': -48.89, 'datetime': '2018-12-18 20:54:04.249006', 'mgs': 0, 'flw2': 0.09, 'flw1': 0.29, 'flw0': 0.0, 'time': 14.05, 'compass': 154.71, 'pitch': -3.49, 'roll': 0.01}
{'lipoC2': 0.16, 'temp': 0.0, 'lipoC3S3': 11.79, 'state': 'normal', 'rot1': 0, 'rot0': 0, 'rot3': 0, 'rot2': 0, 'depth': 0.089, 'yaw': -45.54, 'datetime': '2018-12-18 20:54:04.457033', 'mgs': 0, 'flw2': 0.0, 'flw1': 0.5, 'flw0': 0.0, 'time': 14.26, 'compass': 158.06, 'pitch': -17.06, 'roll': 5.17}
{'lipoC2': 0.01, 'temp': 0.0, 'lipoC3S3': 11.97, 'state': 'normal', 'rot1': 0, 'rot0': 0, 'rot3': 0, 'rot2': 0, 'depth': 0.851, 'yaw': -50.91, 'datetime': '2018-12-18 20:54:04.665062', 'mgs': 0, 'flw2': 0.0, 'flw1': 0.03, 'flw0': 0.0, 'time': 14.47, 'compass': 152.69, 'pitch': -27.22, 'roll': -3.01}
{'lipoC2': 0.06, 'temp': 0.0, 'lipoC3S3': 11.67, 'state': 'normal', 'rot1': 0, 'rot0': 0, 'rot3': 0, 'rot2': 0, 'depth': 0.546, 'yaw': -56.19, 'datetime': '2018-12-18 20:54:04.872176', 'mgs': 0, 'flw2': 0.16, 'flw1': 0.09, 'flw0': 0.0, 'time': 14.68, 'compass': 147.4, 'pitch': -11.91, 'roll': -7.05}
{'lipoC2': 0.0, 'temp': 0.0, 'lipoC3S3': 12.08, 'state': 'normal', 'rot1': 0, 'rot0': 0, 'rot3': 0, 'rot2': 0, 'depth': 1.157, 'yaw': -56.79, 'datetime': '2018-12-18 20:54:05.079211', 'mgs': 0, 'flw2': 0.01, 'flw1': 0.44, 'flw0': 0.0, 'time': 14.88, 'compass': 146.8, 'pitch': -0.97, 'roll': -0.79}
{'lipoC2': 0.16, 'temp': 0.0, 'lipoC3S3': 11.8, 'state': 'normal', 'rot1': 0, 'rot0': 0, 'rot3': 0, 'rot2': 0, 'depth': 0.317, 'yaw': -54.81, 'datetime': '2018-12-18 20:54:05.288353', 'mgs': 0, 'flw2': 0.0, 'flw1': 0.44, 'flw0': 0.0, 'time': 15.09, 'compass': 148.79, 'pitch': -11.17, 'roll': 6.21}
{'lipoC2': 0.0, 'temp': 0.0, 'lipoC3S3': 11.83, 'state': 'normal', 'rot1': 0, 'rot0': 0, 'rot3': 0, 'rot2': 0, 'depth': -0.674, 'yaw': -61.54, 'datetime': '2018-12-18 20:54:05.497374', 'mgs': 0, 'flw2': 0.0, 'flw1': 0.47, 'flw0': 0.0, 'time': 15.3, 'compass': 142.05, 'pitch': -31.27, 'roll': -1.3}
{'lipoC2': 0.0, 'temp': 0.0, 'lipoC3S3': 11.85, 'state': 'normal', 'rot1': 0, 'rot0': 0, 'rot3': 0, 'rot2': 0, 'depth': 0.394, 'yaw': -67.66, 'datetime': '2018-12-18 20:54:05.705278', 'mgs': 0, 'flw2': 0.0, 'flw1': 0.44, 'flw0': 0.0, 'time': 15.51, 'compass': 135.94, 'pitch': -19.71, 'roll': -7.48}
{'lipoC2': 0.0, 'temp': 0.0, 'lipoC3S3': 12.04, 'state': 'normal', 'rot1': 0, 'rot0': 0, 'rot3': 0, 'rot2': 0, 'depth': 1.157, 'yaw': -71.55, 'datetime': '2018-12-18 20:54:05.914406', 'mgs': 0, 'flw2': 0.0, 'flw1': 0.18, 'flw0': 0.17, 'time': 15.72, 'compass': 132.04, 'pitch': -6.51, 'roll': -4.03}
{'lipoC2': 0.14, 'temp': 0.0, 'lipoC3S3': 11.76, 'state': 'normal', 'rot1': 0, 'rot0': 0, 'rot3': 0, 'rot2': 0, 'depth': 0.165, 'yaw': -66.03, 'datetime': '2018-12-18 20:54:06.121330', 'mgs': 0, 'flw2': 0.0, 'flw1': 0.47, 'flw0': 0.0, 'time': 15.92, 'compass': 137.56, 'pitch': -6.11, 'roll': 7.1}
{'lipoC2': 0.0, 'temp': 0.0, 'lipoC3S3': 12.06, 'state': 'normal', 'rot1': 0, 'rot0': 0, 'rot3': 0, 'rot2': 0, 'depth': 0.699, 'yaw': -64.89, 'datetime': '2018-12-18 20:54:06.328506', 'mgs': 0, 'flw2': 0.0, 'flw1': 0.47, 'flw0': 0.0, 'time': 16.13, 'compass': 138.7, 'pitch': -25.28, 'roll': 8.96}
{'lipoC2': 0.0, 'temp': 0.0, 'lipoC3S3': 11.85, 'state': 'normal', 'rot1': 0, 'rot0': 0, 'rot3': 0, 'rot2': 0, 'depth': -0.064, 'yaw': -73.82, 'datetime': '2018-12-18 20:54:06.536827', 'mgs': 0, 'flw2': 0.0, 'flw1': 0.5, 'flw0': 0.0, 'time': 16.34, 'compass': 129.77, 'pitch': -33.2, 'roll': -9.22}
{'lipoC2': 0.0, 'temp': 0.0, 'lipoC3S3': 12.08, 'state': 'normal', 'rot1': 0, 'rot0': 0, 'rot3': 0, 'rot2': 0, 'depth': 1.462, 'yaw': -79.48, 'datetime': '2018-12-18 20:54:06.743488', 'mgs': 0, 'flw2': 0.15, 'flw1': 0.18, 'flw0': 0.0, 'time': 16.55, 'compass': 124.11, 'pitch': -14.74, 'roll': -11.83}
{'lipoC2': 0.03, 'temp': 0.0, 'lipoC3S3': 12.02, 'state': 'normal', 'rot1': 0, 'rot0': 0, 'rot3': 0, 'rot2': 0, 'depth': 1.004, 'yaw': -75.22, 'datetime': '2018-12-18 20:54:06.952717', 'mgs': 0, 'flw2': 0.15, 'flw1': 0.12, 'flw0': 0.0, 'time': 16.75, 'compass': 128.37, 'pitch': -2.53, 'roll': -0.25}
{'lipoC2': 0.0, 'temp': 0.0, 'lipoC3S3': 11.79, 'state': 'normal', 'rot1': 0, 'rot0': 0, 'rot3': 0, 'rot2': 0, 'depth': -1.514, 'yaw': -67.59, 'datetime': '2018-12-18 20:54:07.162469', 'mgs': 0, 'flw2': 0.0, 'flw1': 0.47, 'flw0': 0.0, 'time': 16.96, 'compass': 136.0, 'pitch': -11.24, 'roll': 9.17}
{'lipoC2': 0.0, 'temp': 0.0, 'lipoC3S3': 12.08, 'state': 'normal', 'rot1': 0, 'rot0': 0, 'rot3': 0, 'rot2': 0, 'depth': 1.08, 'yaw': -68.77, 'datetime': '2018-12-18 20:54:07.370561', 'mgs': 0, 'flw2': 0.06, 'flw1': 0.32, 'flw0': 0.0, 'time': 17.17, 'compass': 134.82, 'pitch': -34.6, 'roll': 3.07}
{'lipoC2': 0.0, 'temp': 0.0, 'lipoC3S3': 11.87, 'state': 'normal', 'rot1': 0, 'rot0': 0, 'rot3': 0, 'rot2': 0, 'depth': 0.317, 'yaw': -75.58, 'datetime': '2018-12-18 20:54:07.579184', 'mgs': 0, 'flw2': 0.11, 'flw1': 0.0, 'flw0': 0.07, 'time': 17.38, 'compass': 128.01, 'pitch': -30.11, 'roll': -12.91}
{'lipoC2': 0.15, 'temp': 0.0, 'lipoC3S3': 11.77, 'state': 'normal', 'rot1': 0, 'rot0': 0, 'rot3': 0, 'rot2': 0, 'depth': -0.446, 'yaw': -77.07, 'datetime': '2018-12-18 20:54:07.786474', 'mgs': 0, 'flw2': 0.0, 'flw1': 0.47, 'flw0': 0.0, 'time': 17.59, 'compass': 126.52, 'pitch': -11.07, 'roll': -8.69}
{'lipoC2': 0.0, 'temp': 0.0, 'lipoC3S3': 11.73, 'state': 'normal', 'rot1': 0, 'rot0': 0, 'rot3': 0, 'rot2': 0, 'depth': -1.59, 'yaw': -71.61, 'datetime': '2018-12-18 20:54:07.994908', 'mgs': 0, 'flw2': 0.01, 'flw1': 0.41, 'flw0': 0.0, 'time': 17.79, 'compass': 131.98, 'pitch': -3.38, 'roll': 1.82}
{'lipoC2': 0.16, 'temp': 0.0, 'lipoC3S3': 11.79, 'state': 'normal', 'rot1': 0, 'rot0': 0, 'rot3': 0, 'rot2': 0, 'depth': 0.241, 'yaw': -65.27, 'datetime': '2018-12-18 20:54:08.199928', 'mgs': 0, 'flw2': 0.05, 'flw1': 0.47, 'flw0': 0.0, 'time': 18.0, 'compass': 138.32, 'pitch': -17.28, 'roll': 8.5}
{'lipoC2': 0.17, 'temp': 0.0, 'lipoC3S3': 11.8, 'state': 'normal', 'rot1': 0, 'rot0': 0, 'rot3': 0, 'rot2': 0, 'depth': 0.241, 'yaw': -66.54, 'datetime': '2018-12-18 20:54:08.408086', 'mgs': 0, 'flw2': 0.0, 'flw1': 0.5, 'flw0': 0.0, 'time': 18.21, 'compass': 137.05, 'pitch': -35.43, 'roll': 0.44}
{'lipoC2': 0.16, 'temp': 0.0, 'lipoC3S3': 11.85, 'state': 'normal', 'rot1': 0, 'rot0': 0, 'rot3': 0, 'rot2': 0, 'depth': -1.59, 'yaw': -71.66, 'datetime': '2018-12-18 20:54:08.617453', 'mgs': 0, 'flw2': 0.0, 'flw1': 0.47, 'flw0': 0.0, 'time': 18.42, 'compass': 131.94, 'pitch': -30.58, 'roll': -13.94}
{'lipoC2': 0.09, 'temp': 0.0, 'lipoC3S3': 11.9, 'state': 'normal', 'rot1': 0, 'rot0': 0, 'rot3': 0, 'rot2': 0, 'depth': 1.233, 'yaw': -73.38, 'datetime': '2018-12-18 20:54:08.830009', 'mgs': 0, 'flw2': 0.17, 'flw1': 0.0, 'flw0': 0.0, 'time': 18.63, 'compass': 130.22, 'pitch': -14.07, 'roll': -10.13}
{'lipoC2': 0.15, 'temp': 0.0, 'lipoC3S3': 11.77, 'state': 'normal', 'rot1': 0, 'rot0': 0, 'rot3': 0, 'rot2': 0, 'depth': 0.47, 'yaw': -71.79, 'datetime': '2018-12-18 20:54:09.041553', 'mgs': 0, 'flw2': 0.0, 'flw1': 0.0, 'flw0': 0.2, 'time': 18.83, 'compass': 131.8, 'pitch': -8.8, 'roll': -1.43}
{'lipoC2': 0.0, 'temp': 0.0, 'lipoC3S3': 11.79, 'state': 'normal', 'rot1': 0, 'rot0': 0, 'rot3': 0, 'rot2': 0, 'depth': 0.851, 'yaw': -70.84, 'datetime': '2018-12-18 20:54:09.248923', 'mgs': 0, 'flw2': 0.0, 'flw1': 0.47, 'flw0': 0.0, 'time': 19.04, 'compass': 132.76, 'pitch': -14.33, 'roll': 3.4}
{'lipoC2': 0.14, 'temp': 0.0, 'lipoC3S3': 11.88, 'state': 'normal', 'rot1': 0, 'rot0': 0, 'rot3': 0, 'rot2': 0, 'depth': -1.743, 'yaw': -73.46, 'datetime': '2018-12-18 20:54:09.457278', 'mgs': 0, 'flw2': 0.2, 'flw1': 0.0, 'flw0': 0.0, 'time': 19.25, 'compass': 130.14, 'pitch': -21.21, 'roll': 1.15}
{'lipoC2': 0.03, 'temp': 0.0, 'lipoC3S3': 11.96, 'state': 'normal', 'rot1': 0, 'rot0': 0, 'rot3': 0, 'rot2': 0, 'depth': -1.895, 'yaw': -82.07, 'datetime': '2018-12-18 20:54:09.660795', 'mgs': 0, 'flw2': 0.0, 'flw1': 0.26, 'flw0': 0.09, 'time': 19.46, 'compass': 121.52, 'pitch': -23.53, 'roll': -11.84}
{'lipoC2': 0.09, 'temp': 0.0, 'lipoC3S3': 11.67, 'state': 'normal', 'rot1': 0, 'rot0': 0, 'rot3': 0, 'rot2': 0, 'depth': 0.623, 'yaw': -91.45, 'datetime': '2018-12-18 20:54:09.869189', 'mgs': 0, 'flw2': 0.05, 'flw1': 0.35, 'flw0': 0.0, 'time': 19.66, 'compass': 112.15, 'pitch': -18.3, 'roll': -20.34}
{'lipoC2': 0.15, 'temp': 0.0, 'lipoC3S3': 11.85, 'state': 'normal', 'rot1': 0, 'rot0': 0, 'rot3': 0, 'rot2': 0, 'depth': -0.751, 'yaw': -91.03, 'datetime': '2018-12-18 20:54:10.081569', 'mgs': 0, 'flw2': 0.0, 'flw1': 0.32, 'flw0': 0.0, 'time': 19.87, 'compass': 112.57, 'pitch': -14.48, 'roll': -12.33}
{'lipoC2': 0.12, 'temp': 0.0, 'lipoC3S3': 11.88, 'state': 'normal', 'rot1': 0, 'rot0': 0, 'rot3': 0, 'rot2': 0, 'depth': -1.971, 'yaw': -78.34, 'datetime': '2018-12-18 20:54:10.288830', 'mgs': 0, 'flw2': 0.2, 'flw1': 0.0, 'flw0': 0.0, 'time': 20.08, 'compass': 125.25, 'pitch': -14.96, 'roll': 7.95}
{'lipoC2': 0.0, 'temp': 0.0, 'lipoC3S3': 12.02, 'state': 'normal', 'rot1': 0, 'rot0': 0, 'rot3': 0, 'rot2': 0, 'depth': 0.775, 'yaw': -60.23, 'datetime': '2018-12-18 20:54:10.496253', 'mgs': 0, 'flw2': 0.0, 'flw1': 0.0, 'flw0': 0.23, 'time': 20.29, 'compass': 143.37, 'pitch': -10.73, 'roll': 25.55}
{'lipoC2': 0.0, 'temp': 0.0, 'lipoC3S3': 11.87, 'state': 'normal', 'rot1': 0, 'rot0': 0, 'rot3': 0, 'rot2': 0, 'depth': 0.394, 'yaw': -43.49, 'datetime': '2018-12-18 20:54:10.702843', 'mgs': 0, 'flw2': 0.23, 'flw1': 0.0, 'flw0': 0.0, 'time': 20.5, 'compass': 160.1, 'pitch': 2.22, 'roll': 27.97}
{'lipoC2': 0.0, 'temp': 0.0, 'lipoC3S3': 12.06, 'state': 'normal', 'rot1': 0, 'rot0': 0, 'rot3': 0, 'rot2': 0, 'depth': 1.309, 'yaw': -32.48, 'datetime': '2018-12-18 20:54:10.908781', 'mgs': 0, 'flw2': 0.0, 'flw1': 0.44, 'flw0': 0.0, 'time': 20.7, 'compass': 171.12, 'pitch': 9.93, 'roll': 20.55}
{'lipoC2': 0.0, 'temp': 0.0, 'lipoC3S3': 11.88, 'state': 'normal', 'rot1': 0, 'rot0': 0, 'rot3': 0, 'rot2': 0, 'depth': 0.851, 'yaw': -26.12, 'datetime': '2018-12-18 20:54:11.117089', 'mgs': 0, 'flw2': 0.2, 'flw1': 0.0, 'flw0': 0.0, 'time': 20.91, 'compass': 177.48, 'pitch': 11.66, 'roll': 9.76}
{'lipoC2': 0.0, 'temp': 0.0, 'lipoC3S3': 12.04, 'state': 'normal', 'rot1': 0, 'rot0': 0, 'rot3': 0, 'rot2': 0, 'depth': 1.385, 'yaw': -22.44, 'datetime': '2018-12-18 20:54:11.325843', 'mgs': 0, 'flw2': 0.0, 'flw1': 0.0, 'flw0': 0.2, 'time': 21.12, 'compass': -178.85, 'pitch': 10.4, 'roll': 0.91}
{'lipoC2': 0.06, 'temp': 0.0, 'lipoC3S3': 11.65, 'state': 'normal', 'rot1': 0, 'rot0': 0, 'rot3': 0, 'rot2': 0, 'depth': 0.165, 'yaw': -19.11, 'datetime': '2018-12-18 20:54:11.535075', 'mgs': 0, 'flw2': 0.1, 'flw1': 0.26, 'flw0': 0.0, 'time': 21.33, 'compass': -175.51, 'pitch': 7.68, 'roll': -4.25}
{'lipoC2': 0.0, 'temp': 0.0, 'lipoC3S3': 11.98, 'state': 'normal', 'rot1': 0, 'rot0': 0, 'rot3': 0, 'rot2': 0, 'depth': 0.775, 'yaw': -15.27, 'datetime': '2018-12-18 20:54:11.743624', 'mgs': 0, 'flw2': 0.07, 'flw1': 0.26, 'flw0': 0.0, 'time': 21.54, 'compass': -171.68, 'pitch': 4.49, 'roll': -5.32}
{'lipoC2': 0.0, 'temp': 0.0, 'lipoC3S3': 11.83, 'state': 'normal', 'rot1': 0, 'rot0': 0, 'rot3': 0, 'rot2': 0, 'depth': -0.674, 'yaw': -11.61, 'datetime': '2018-12-18 20:54:11.951728', 'mgs': 0, 'flw2': 0.0, 'flw1': 0.38, 'flw0': 0.0, 'time': 21.74, 'compass': -168.02, 'pitch': 2.46, 'roll': -3.04}
{'lipoC2': 0.0, 'temp': 0.0, 'lipoC3S3': 11.88, 'state': 'normal', 'rot1': 0, 'rot0': 0, 'rot3': 0, 'rot2': 0, 'depth': 0.394, 'yaw': -8.46, 'datetime': '2018-12-18 20:54:12.161645', 'mgs': 0, 'flw2': 0.21, 'flw1': 0.0, 'flw0': 0.0, 'time': 21.95, 'compass': -164.86, 'pitch': 2.36, 'roll': 0.18}
{'lipoC2': 0.04, 'temp': 0.0, 'lipoC3S3': 11.96, 'state': 'normal', 'rot1': 0, 'rot0': 0, 'rot3': 0, 'rot2': 0, 'depth': 1.462, 'yaw': -5.87, 'datetime': '2018-12-18 20:54:12.370322', 'mgs': 0, 'flw2': 0.21, 'flw1': 0.03, 'flw0': 0.17, 'time': 22.16, 'compass': -162.28, 'pitch': 3.03, 'roll': 2.11}
{'lipoC2': 0.0, 'temp': 0.0, 'lipoC3S3': 12.06, 'state': 'normal', 'rot1': 0, 'rot0': 0, 'rot3': 0, 'rot2': 0, 'depth': 1.309, 'yaw': -3.5, 'datetime': '2018-12-18 20:54:12.575133', 'mgs': 0, 'flw2': 0.05, 'flw1': 0.0, 'flw0': 0.15, 'time': 22.37, 'compass': -159.9, 'pitch': 2.87, 'roll': 2.28}
{'lipoC2': 0.0, 'temp': 0.0, 'lipoC3S3': 12.05, 'state': 'normal', 'rot1': 0, 'rot0': 0, 'rot3': 0, 'rot2': 0, 'depth': 1.385, 'yaw': -1.47, 'datetime': '2018-12-18 20:54:12.789121', 'mgs': 0, 'flw2': 0.0, 'flw1': 0.0, 'flw0': 0.21, 'time': 22.58, 'compass': -157.88, 'pitch': 2.06, 'roll': 1.12}
{'lipoC2': 0.0, 'temp': 0.0, 'lipoC3S3': 11.89, 'state': 'normal', 'rot1': 0, 'rot0': 0, 'rot3': 0, 'rot2': 0, 'depth': 0.165, 'yaw': 0.6, 'datetime': '2018-12-18 20:54:12.994902', 'mgs': 0, 'flw2': 0.18, 'flw1': 0.0, 'flw0': 0.0, 'time': 22.78, 'compass': -155.81, 'pitch': 1.67, 'roll': -0.35}
{'lipoC2': 0.0, 'temp': 0.0, 'lipoC3S3': 11.76, 'state': 'normal', 'rot1': 0, 'rot0': 0, 'rot3': 0, 'rot2': 0, 'depth': -1.056, 'yaw': 2.63, 'datetime': '2018-12-18 20:54:13.201328', 'mgs': 0, 'flw2': 0.0, 'flw1': 0.47, 'flw0': 0.0, 'time': 22.99, 'compass': -153.77, 'pitch': 2.25, 'roll': -1.09}
{'lipoC2': 0.14, 'temp': 0.0, 'lipoC3S3': 11.73, 'state': 'normal', 'rot1': 0, 'rot0': 0, 'rot3': 0, 'rot2': 0, 'depth': 0.394, 'yaw': 4.59, 'datetime': '2018-12-18 20:54:13.408906', 'mgs': 0, 'flw2': 0.0, 'flw1': 0.44, 'flw0': 0.0, 'time': 23.2, 'compass': -151.82, 'pitch': 2.85, 'roll': -1.14}
{'lipoC2': 0.06, 'temp': 0.0, 'lipoC3S3': 11.67, 'state': 'normal', 'rot1': 0, 'rot0': 0, 'rot3': 0, 'rot2': 0, 'depth': 0.012, 'yaw': 6.46, 'datetime': '2018-12-18 20:54:13.621716', 'mgs': 0, 'flw2': 0.1, 'flw1': 0.26, 'flw0': 0.0, 'time': 23.41, 'compass': -149.95, 'pitch': 2.53, 'roll': -0.64}
{'lipoC2': 0.0, 'temp': 0.0, 'lipoC3S3': 11.81, 'state': 'normal', 'rot1': 0, 'rot0': 0, 'rot3': 0, 'rot2': 0, 'depth': -0.674, 'yaw': 8.24, 'datetime': '2018-12-18 20:54:13.828156', 'mgs': 0, 'flw2': 0.0, 'flw1': 0.47, 'flw0': 0.0, 'time': 23.61, 'compass': -148.16, 'pitch': 1.85, 'roll': 0.07}
{'lipoC2': 0.02, 'temp': 0.0, 'lipoC3S3': 11.69, 'state': 'normal', 'rot1': 0, 'rot0': 0, 'rot3': 0, 'rot2': 0, 'depth': 1.08, 'yaw': 9.92, 'datetime': '2018-12-18 20:54:14.034319', 'mgs': 0, 'flw2': 0.0, 'flw1': 0.0, 'flw0': 0.22, 'time': 23.82, 'compass': -146.48, 'pitch': 1.63, 'roll': 0.43}
{'lipoC2': 0.0, 'temp': 0.0, 'lipoC3S3': 12.04, 'state': 'normal', 'rot1': 0, 'rot0': 0, 'rot3': 0, 'rot2': 0, 'depth': 1.233, 'yaw': 11.5, 'datetime': '2018-12-18 20:54:14.240477', 'mgs': 0, 'flw2': 0.2, 'flw1': 0.0, 'flw0': 0.17, 'time': 24.03, 'compass': -144.91, 'pitch': 1.95, 'roll': 0.33}
{'lipoC2': 0.0, 'temp': 0.0, 'lipoC3S3': 12.01, 'state': 'normal', 'rot1': 0, 'rot0': 0, 'rot3': 0, 'rot2': 0, 'depth': -2.048, 'yaw': 13.02, 'datetime': '2018-12-18 20:54:14.451366', 'mgs': 0, 'flw2': 0.0, 'flw1': 0.18, 'flw0': 0.15, 'time': 24.24, 'compass': -143.38, 'pitch': 2.52, 'roll': -0.1}
{'lipoC2': 0.05, 'temp': 0.0, 'lipoC3S3': 11.9, 'state': 'normal', 'rot1': 0, 'rot0': 0, 'rot3': 0, 'rot2': 0, 'depth': -2.124, 'yaw': 14.51, 'datetime': '2018-12-18 20:54:14.657396', 'mgs': 0, 'flw2': 0.23, 'flw1': 0.0, 'flw0': 0.0, 'time': 24.45, 'compass': -141.89, 'pitch': 2.42, 'roll': -0.63}
{'lipoC2': 0.0, 'temp': 0.0, 'lipoC3S3': 12.05, 'state': 'normal', 'rot1': 0, 'rot0': 0, 'rot3': 0, 'rot2': 0, 'depth': 1.462, 'yaw': 15.87, 'datetime': '2018-12-18 20:54:14.866462', 'mgs': 0, 'flw2': 0.0, 'flw1': 0.09, 'flw0': 0.17, 'time': 24.65, 'compass': -140.54, 'pitch': 1.81, 'roll': -0.97}
{'lipoC2': 0.0, 'temp': 0.0, 'lipoC3S3': 11.79, 'state': 'normal', 'rot1': 0, 'rot0': 0, 'rot3': 0, 'rot2': 0, 'depth': 1.08, 'yaw': 17.33, 'datetime': '2018-12-18 20:54:15.078506', 'mgs': 0, 'flw2': 0.0, 'flw1': 0.44, 'flw0': 0.0, 'time': 24.86, 'compass': -139.08, 'pitch': 1.58, 'roll': -0.92}
{'lipoC2': 0.0, 'temp': 0.0, 'lipoC3S3': 11.77, 'state': 'normal', 'rot1': 0, 'rot0': 0, 'rot3': 0, 'rot2': 0, 'depth': -0.674, 'yaw': 18.78, 'datetime': '2018-12-18 20:54:15.285006', 'mgs': 0, 'flw2': 0.0, 'flw1': 0.47, 'flw0': 0.0, 'time': 25.07, 'compass': -137.63, 'pitch': 2.05, 'roll': -0.73}
{'lipoC2': 0.0, 'temp': 0.0, 'lipoC3S3': 11.76, 'state': 'normal', 'rot1': 0, 'rot0': 0, 'rot3': 0, 'rot2': 0, 'depth': -1.285, 'yaw': 20.1, 'datetime': '2018-12-18 20:54:15.491951', 'mgs': 0, 'flw2': 0.0, 'flw1': 0.5, 'flw0': 0.0, 'time': 25.28, 'compass': -136.31, 'pitch': 2.18, 'roll': -0.47}
{'lipoC2': 0.0, 'temp': 0.0, 'lipoC3S3': 11.9, 'state': 'normal', 'rot1': 0, 'rot0': 0, 'rot3': 0, 'rot2': 0, 'depth': 0.012, 'yaw': 21.45, 'datetime': '2018-12-18 20:54:15.697376', 'mgs': 0, 'flw2': 0.0, 'flw1': 0.32, 'flw0': 0.06, 'time': 25.49, 'compass': -134.96, 'pitch': 1.6, 'roll': -0.24}
{'lipoC2': 0.0, 'temp': 0.0, 'lipoC3S3': 11.8, 'state': 'normal', 'rot1': 0, 'rot0': 0, 'rot3': 0, 'rot2': 0, 'depth': -0.827, 'yaw': 22.67, 'datetime': '2018-12-18 20:54:15.908803', 'mgs': 0, 'flw2': 0.0, 'flw1': 0.47, 'flw0': 0.0, 'time': 25.69, 'compass': -133.74, 'pitch': 1.4, 'roll': -0.49}
{'lipoC2': 0.14, 'temp': 0.0, 'lipoC3S3': 11.88, 'state': 'normal', 'rot1': 0, 'rot0': 0, 'rot3': 0, 'rot2': 0, 'depth': 0.928, 'yaw': 23.92, 'datetime': '2018-12-18 20:54:16.113524', 'mgs': 0, 'flw2': 0.17, 'flw1': 0.0, 'flw0': 0.0, 'time': 25.9, 'compass': -132.48, 'pitch': 1.74, 'roll': -0.8}
{'lipoC2': 0.0, 'temp': 0.0, 'lipoC3S3': 12.0, 'state': 'normal', 'rot1': 0, 'rot0': 0, 'rot3': 0, 'rot2': 0, 'depth': 1.004, 'yaw': 25.16, 'datetime': '2018-12-18 20:54:16.322514', 'mgs': 0, 'flw2': 0.0, 'flw1': 0.0, 'flw0': 0.0, 'time': 26.11, 'compass': -131.24, 'pitch': 1.9, 'roll': -0.85}
{'lipoC2': 0.12, 'temp': 0.0, 'lipoC3S3': 11.71, 'state': 'normal', 'rot1': 0, 'rot0': 0, 'rot3': 0, 'rot2': 0, 'depth': 0.546, 'yaw': 26.36, 'datetime': '2018-12-18 20:54:16.530341', 'mgs': 0, 'flw2': 0.0, 'flw1': 0.5, 'flw0': 0.0, 'time': 26.32, 'compass': -130.05, 'pitch': 1.7, 'roll': -0.89}
{'lipoC2': 0.09, 'temp': 0.0, 'lipoC3S3': 11.9, 'state': 'normal', 'rot1': 0, 'rot0': 0, 'rot3': 0, 'rot2': 0, 'depth': -2.124, 'yaw': 27.45, 'datetime': '2018-12-18 20:54:16.739831', 'mgs': 0, 'flw2': 0.17, 'flw1': 0.0, 'flw0': 0.0, 'time': 26.52, 'compass': -128.96, 'pitch': 1.52, 'roll': -0.82}
{'lipoC2': 0.04, 'temp': 0.0, 'lipoC3S3': 11.94, 'state': 'normal', 'rot1': 0, 'rot0': 0, 'rot3': 0, 'rot2': 0, 'depth': -1.971, 'yaw': 28.62, 'datetime': '2018-12-18 20:54:16.946817', 'mgs': 0, 'flw2': 0.17, 'flw1': 0.03, 'flw0': 0.0, 'time': 26.73, 'compass': -127.79, 'pitch': 1.62, 'roll': -0.6}
{'lipoC2': 0.04, 'temp': 0.0, 'lipoC3S3': 11.68, 'state': 'normal', 'rot1': 0, 'rot0': 0, 'rot3': 0, 'rot2': 0, 'depth': 1.004, 'yaw': 29.72, 'datetime': '2018-12-18 20:54:17.155353', 'mgs': 0, 'flw2': 0.1, 'flw1': 0.26, 'flw0': 0.0, 'time': 26.94, 'compass': -126.69, 'pitch': 1.74, 'roll': -0.67}
{'lipoC2': 0.0, 'temp': 0.0, 'lipoC3S3': 12.0, 'state': 'normal', 'rot1': 0, 'rot0': 0, 'rot3': 0, 'rot2': 0, 'depth': 0.775, 'yaw': 30.73, 'datetime': '2018-12-18 20:54:17.363998', 'mgs': 0, 'flw2': 0.13, 'flw1': 0.12, 'flw0': 0.0, 'time': 27.15, 'compass': -125.68, 'pitch': 1.61, 'roll': -0.7}
{'lipoC2': 0.0, 'temp': 0.0, 'lipoC3S3': 12.08, 'state': 'normal', 'rot1': 0, 'rot0': 1, 'rot3': 0, 'rot2': 0, 'depth': 1.462, 'yaw': 31.76, 'datetime': '2018-12-18 20:54:17.570490', 'mgs': 0, 'flw2': 0.0, 'flw1': 0.0, 'flw0': 0.18, 'time': 27.35, 'compass': -124.64, 'pitch': 1.47, 'roll': -0.73}
{'lipoC2': 0.08, 'temp': 0.0, 'lipoC3S3': 11.92, 'state': 'normal', 'rot1': 0, 'rot0': 1, 'rot3': 0, 'rot2': 0, 'depth': -2.048, 'yaw': 32.7, 'datetime': '2018-12-18 20:54:17.778970', 'mgs': 0, 'flw2': 0.16, 'flw1': 0.0, 'flw0': 0.0, 'time': 27.56, 'compass': -123.7, 'pitch': 1.46, 'roll': -0.82}
{'lipoC2': 0.05, 'temp': 0.0, 'lipoC3S3': 11.65, 'state': 'normal', 'rot1': 0, 'rot0': 1, 'rot3': 0, 'rot2': 0, 'depth': 1.004, 'yaw': 33.71, 'datetime': '2018-12-18 20:54:17.990177', 'mgs': 0, 'flw2': 0.12, 'flw1': 0.18, 'flw0': 0.0, 'time': 27.77, 'compass': -122.7, 'pitch': 1.44, 'roll': -1.05}
{'lipoC2': 0.13, 'temp': 0.0, 'lipoC3S3': 11.71, 'state': 'normal', 'rot1': 0, 'rot0': 1, 'rot3': 0, 'rot2': 0, 'depth': 0.165, 'yaw': 34.67, 'datetime': '2018-12-18 20:54:18.195310', 'mgs': 0, 'flw2': 0.02, 'flw1': 0.44, 'flw0': 0.0, 'time': 27.98, 'compass': -121.74, 'pitch': 1.43, 'roll': -1.08}
{'lipoC2': 0.0, 'temp': 0.0, 'lipoC3S3': 11.87, 'state': 'normal', 'rot1': 0, 'rot0': 1, 'rot3': 0, 'rot2': 0, 'depth': 0.241, 'yaw': 35.62, 'datetime': '2018-12-18 20:54:18.404647', 'mgs': 0, 'flw2': 0.0, 'flw1': 0.38, 'flw0': 0.0, 'time': 28.19, 'compass': -120.78, 'pitch': 1.42, 'roll': -0.93}
{'lipoC2': 0.08, 'temp': 0.0, 'lipoC3S3': 11.65, 'state': 'normal', 'rot1': 0, 'rot0': 1, 'rot3': 0, 'rot2': 0, 'depth': 1.004, 'yaw': 36.48, 'datetime': '2018-12-18 20:54:18.614878', 'mgs': 0, 'flw2': 0.1, 'flw1': 0.23, 'flw0': 0.0, 'time': 28.4, 'compass': -119.93, 'pitch': 1.37, 'roll': -0.77}
{'lipoC2': 0.02, 'temp': 0.0, 'lipoC3S3': 11.98, 'state': 'normal', 'rot1': 0, 'rot0': 1, 'rot3': 0, 'rot2': 0, 'depth': -2.048, 'yaw': 37.34, 'datetime': '2018-12-18 20:54:18.823380', 'mgs': 0, 'flw2': 0.12, 'flw1': 0.15, 'flw0': 0.0, 'time': 28.6, 'compass': -119.06, 'pitch': 1.2, 'roll': -0.75}
{'lipoC2': 0.15, 'temp': 0.0, 'lipoC3S3': 11.76, 'state': 'normal', 'rot1': 0, 'rot0': 1, 'rot3': 0, 'rot2': 0, 'depth': 0.241, 'yaw': 38.15, 'datetime': '2018-12-18 20:54:19.034334', 'mgs': 0, 'flw2': 0.0, 'flw1': 0.47, 'flw0': 0.0, 'time': 28.81, 'compass': -118.25, 'pitch': 1.18, 'roll': -0.81}
{'lipoC2': 0.15, 'temp': 0.0, 'lipoC3S3': 11.8, 'state': 'normal', 'rot1': 0, 'rot0': 1, 'rot3': 0, 'rot2': 0, 'depth': 0.47, 'yaw': 38.98, 'datetime': '2018-12-18 20:54:19.241139', 'mgs': 0, 'flw2': 0.04, 'flw1': 0.47, 'flw0': 0.0, 'time': 29.02, 'compass': -117.42, 'pitch': 1.17, 'roll': -1.07}
{'lipoC2': 0.0, 'temp': 0.0, 'lipoC3S3': 11.83, 'state': 'normal', 'rot1': 0, 'rot0': 2, 'rot3': 0, 'rot2': 0, 'depth': -0.293, 'yaw': 39.78, 'datetime': '2018-12-18 20:54:19.452447', 'mgs': 0, 'flw2': 0.0, 'flw1': 0.59, 'flw0': 0.0, 'time': 29.23, 'compass': -116.62, 'pitch': 1.15, 'roll': -1.21}
{'lipoC2': 0.17, 'temp': 0.0, 'lipoC3S3': 11.83, 'state': 'normal', 'rot1': 0, 'rot0': 2, 'rot3': 0, 'rot2': 0, 'depth': -1.437, 'yaw': 40.56, 'datetime': '2018-12-18 20:54:19.659096', 'mgs': 0, 'flw2': 0.0, 'flw1': 0.0, 'flw0': 0.18, 'time': 29.43, 'compass': -115.84, 'pitch': 1.14, 'roll': -1.22}
{'lipoC2': 0.0, 'temp': 0.0, 'lipoC3S3': 12.09, 'state': 'normal', 'rot1': 0, 'rot0': 2, 'rot3': 0, 'rot2': 0, 'depth': 1.538, 'yaw': 41.31, 'datetime': '2018-12-18 20:54:19.868907', 'mgs': 0, 'flw2': 0.11, 'flw1': 0.35, 'flw0': 0.0, 'time': 29.64, 'compass': -115.09, 'pitch': 1.04, 'roll': -1.14}
{'lipoC2': 0.0, 'temp': 0.0, 'lipoC3S3': 11.9, 'state': 'normal', 'rot1': 0, 'rot0': 2, 'rot3': 0, 'rot2': 0, 'depth': -0.674, 'yaw': 42.07, 'datetime': '2018-12-18 20:54:20.082671', 'mgs': 0, 'flw2': 0.0, 'flw1': 0.38, 'flw0': 0.04, 'time': 29.85, 'compass': -114.33, 'pitch': 1.02, 'roll': -0.96}
{'lipoC2': 0.0, 'temp': 0.0, 'lipoC3S3': 12.08, 'state': 'normal', 'rot1': 0, 'rot0': 2, 'rot3': 0, 'rot2': 0, 'depth': 1.462, 'yaw': 42.8, 'datetime': '2018-12-18 20:54:20.286208', 'mgs': 0, 'flw2': 0.05, 'flw1': 0.35, 'flw0': 0.0, 'time': 30.06, 'compass': -113.6, 'pitch': 1.11, 'roll': -0.88}
{'lipoC2': 0.04, 'temp': 0.0, 'lipoC3S3': 11.67, 'state': 'normal', 'rot1': 0, 'rot0': 2, 'rot3': 0, 'rot2': 0, 'depth': -0.14, 'yaw': 43.49, 'datetime': '2018-12-18 20:54:20.493965', 'mgs': 0, 'flw2': 0.12, 'flw1': 0.21, 'flw0': 0.0, 'time': 30.27, 'compass': -112.92, 'pitch': 1.08, 'roll': -0.91}
{'lipoC2': 0.0, 'temp': 0.0, 'lipoC3S3': 11.97, 'state': 'normal', 'rot1': 0, 'rot0': 2, 'rot3': 0, 'rot2': 0, 'depth': 0.775, 'yaw': 44.2, 'datetime': '2018-12-18 20:54:20.700490', 'mgs': 0, 'flw2': 0.0, 'flw1': 0.26, 'flw0': 0.1, 'time': 30.47, 'compass': -112.21, 'pitch': 0.89, 'roll': -1.09}
{'lipoC2': 0.0, 'temp': 0.0, 'lipoC3S3': 11.71, 'state': 'normal', 'rot1': 0, 'rot0': 2, 'rot3': 0, 'rot2': 0, 'depth': -1.514, 'yaw': 44.92, 'datetime': '2018-12-18 20:54:20.911640', 'mgs': 0, 'flw2': 0.12, 'flw1': 0.29, 'flw0': 0.0, 'time': 30.68, 'compass': -111.49, 'pitch': 0.91, 'roll': -1.22}
{'lipoC2': 0.0, 'temp': 0.0, 'lipoC3S3': 12.08, 'state': 'normal', 'rot1': 0, 'rot0': 2, 'rot3': 0, 'rot2': 0, 'depth': 1.538, 'yaw': 45.58, 'datetime': '2018-12-18 20:54:21.122253', 'mgs': 0, 'flw2': 0.0, 'flw1': 0.41, 'flw0': 0.0, 'time': 30.89, 'compass': -110.83, 'pitch': 1.03, 'roll': -1.23}
{'lipoC2': 0.06, 'temp': 0.0, 'lipoC3S3': 11.67, 'state': 'normal', 'rot1': 0, 'rot0': 2, 'rot3': 0, 'rot2': 0, 'depth': 0.012, 'yaw': 46.3, 'datetime': '2018-12-18 20:54:21.328810', 'mgs': 0, 'flw2': 0.04, 'flw1': 0.35, 'flw0': 0.0, 'time': 31.1, 'compass': -110.1, 'pitch': 1.02, 'roll': -1.24}
{'lipoC2': 0.06, 'temp': 0.0, 'lipoC3S3': 11.92, 'state': 'normal', 'rot1': 0, 'rot0': 2, 'rot3': 0, 'rot2': 0, 'depth': -2.048, 'yaw': 47.0, 'datetime': '2018-12-18 20:54:21.538224', 'mgs': 0, 'flw2': 0.15, 'flw1': 0.0, 'flw0': 0.0, 'time': 31.31, 'compass': -109.4, 'pitch': 0.82, 'roll': -1.26}
{'lipoC2': 0.15, 'temp': 0.0, 'lipoC3S3': 11.77, 'state': 'normal', 'rot1': 0, 'rot0': 2, 'rot3': 0, 'rot2': 0, 'depth': -0.522, 'yaw': 47.69, 'datetime': '2018-12-18 20:54:21.745426', 'mgs': 0, 'flw2': 0.09, 'flw1': 0.0, 'flw0': 0.11, 'time': 31.52, 'compass': -108.72, 'pitch': 0.75, 'roll': -1.27}
{'lipoC2': 0.0, 'temp': 0.0, 'lipoC3S3': 11.97, 'state': 'normal', 'rot1': 0, 'rot0': 2, 'rot3': 0, 'rot2': 0, 'depth': -1.132, 'yaw': 48.37, 'datetime': '2018-12-18 20:54:21.955837', 'mgs': 0, 'flw2': 0.12, 'flw1': 0.12, 'flw0': 0.0, 'time': 31.72, 'compass': -108.04, 'pitch': 0.89, 'roll': -1.28}
{'lipoC2': 0.0, 'temp': 0.0, 'lipoC3S3': 11.85, 'state': 'normal', 'rot1': 0, 'rot0': 2, 'rot3': 0, 'rot2': 0, 'depth': 0.851, 'yaw': 49.03, 'datetime': '2018-12-18 20:54:22.164364', 'mgs': 0, 'flw2': 0.0, 'flw1': 0.47, 'flw0': 0.0, 'time': 31.93, 'compass': -107.37, 'pitch': 0.88, 'roll': -1.29}
{'lipoC2': 0.1, 'temp': 0.0, 'lipoC3S3': 11.67, 'state': 'normal', 'rot1': 0, 'rot0': 2, 'rot3': 0, 'rot2': 0, 'depth': 0.012, 'yaw': 49.65, 'datetime': '2018-12-18 20:54:22.372875', 'mgs': 0, 'flw2': 0.05, 'flw1': 0.35, 'flw0': 0.0, 'time': 32.14, 'compass': -106.76, 'pitch': 0.7, 'roll': -1.3}
{'lipoC2': 0.14, 'temp': 0.0, 'lipoC3S3': 11.88, 'state': 'normal', 'rot1': 0, 'rot0': 2, 'rot3': 0, 'rot2': 0, 'depth': 1.233, 'yaw': 50.6, 'datetime': '2018-12-18 20:54:22.678763', 'mgs': 0, 'flw2': 0.2, 'flw1': 0.0, 'flw0': 0.0, 'time': 32.45, 'compass': -105.81, 'pitch': 0.69, 'roll': -1.44}
{'lipoC2': 0.03, 'temp': 0.0, 'lipoC3S3': 11.96, 'state': 'normal', 'rot1': 0, 'rot0': 2, 'rot3': 0, 'rot2': 0, 'depth': -1.895, 'yaw': 51.16, 'datetime': '2018-12-18 20:54:22.890567', 'mgs': 0, 'flw2': 0.0, 'flw1': 0.23, 'flw0': 0.12, 'time': 32.66, 'compass': -105.25, 'pitch': 0.76, 'roll': -1.44}
{'lipoC2': 0.0, 'temp': 0.0, 'lipoC3S3': 11.85, 'state': 'normal', 'rot1': 0, 'rot0': 2, 'rot3': 0, 'rot2': 0, 'depth': -0.293, 'yaw': 51.73, 'datetime': '2018-12-18 20:54:23.096899', 'mgs': 0, 'flw2': 0.0, 'flw1': 0.44, 'flw0': 0.0, 'time': 32.87, 'compass': -104.67, 'pitch': 0.74, 'roll': -1.33}
{'lipoC2': 0.03, 'temp': 0.0, 'lipoC3S3': 11.68, 'state': 'normal', 'rot1': 0, 'rot0': 2, 'rot3': 0, 'rot2': 0, 'depth': 1.157, 'yaw': 52.28, 'datetime': '2018-12-18 20:54:23.302694', 'mgs': 0, 'flw2': 0.13, 'flw1': 0.15, 'flw0': 0.0, 'time': 33.08, 'compass': -104.12, 'pitch': 0.57, 'roll': -1.33}
{'lipoC2': 0.06, 'temp': 0.0, 'lipoC3S3': 11.67, 'state': 'normal', 'rot1': 0, 'rot0': 2, 'rot3': 0, 'rot2': 0, 'depth': -0.064, 'yaw': 52.76, 'datetime': '2018-12-18 20:54:23.510872', 'mgs': 0, 'flw2': 0.1, 'flw1': 0.21, 'flw0': 0.0, 'time': 33.28, 'compass': -103.64, 'pitch': 0.42, 'roll': -1.33}
{'lipoC2': 0.0, 'temp': 0.0, 'lipoC3S3': 11.81, 'state': 'normal', 'rot1': 0, 'rot0': 2, 'rot3': 0, 'rot2': 0, 'depth': 0.928, 'yaw': 53.27, 'datetime': '2018-12-18 20:54:23.719107', 'mgs': 0, 'flw2': 0.0, 'flw1': 0.47, 'flw0': 0.0, 'time': 33.49, 'compass': -103.14, 'pitch': 0.49, 'roll': -1.34}
{'lipoC2': 0.08, 'temp': 0.0, 'lipoC3S3': 11.92, 'state': 'normal', 'rot1': 0, 'rot0': 2, 'rot3': 0, 'rot2': 0, 'depth': -1.971, 'yaw': 53.74, 'datetime': '2018-12-18 20:54:23.928551', 'mgs': 0, 'flw2': 0.18, 'flw1': 0.0, 'flw0': 0.0, 'time': 33.7, 'compass': -102.67, 'pitch': 0.65, 'roll': -1.34}
{'lipoC2': 0.0, 'temp': 0.0, 'lipoC3S3': 12.0, 'state': 'normal', 'rot1': 0, 'rot0': 2, 'rot3': 0, 'rot2': 0, 'depth': 1.08, 'yaw': 54.15, 'datetime': '2018-12-18 20:54:24.144412', 'mgs': 0, 'flw2': 0.11, 'flw1': 0.0, 'flw0': 0.0, 'time': 33.91, 'compass': -102.26, 'pitch': 0.64, 'roll': -1.38}
{'lipoC2': 0.0, 'temp': 0.0, 'lipoC3S3': 11.84, 'state': 'normal', 'rot1': 0, 'rot0': 2, 'rot3': 0, 'rot2': 0, 'depth': 0.928, 'yaw': 54.58, 'datetime': '2018-12-18 20:54:24.348675', 'mgs': 0, 'flw2': 0.05, 'flw1': 0.41, 'flw0': 0.0, 'time': 34.12, 'compass': -101.82, 'pitch': 0.63, 'roll': -1.39}
{'lipoC2': 0.14, 'temp': 0.0, 'lipoC3S3': 11.84, 'state': 'normal', 'rot1': 0, 'rot0': 2, 'rot3': 0, 'rot2': 0, 'depth': -1.208, 'yaw': 54.98, 'datetime': '2018-12-18 20:54:24.558825', 'mgs': 0, 'flw2': 0.0, 'flw1': 0.47, 'flw0': 0.0, 'time': 34.33, 'compass': -101.42, 'pitch': 0.66, 'roll': -1.4}
{'lipoC2': 0.14, 'temp': 0.0, 'lipoC3S3': 11.87, 'state': 'normal', 'rot1': 0, 'rot0': 2, 'rot3': 0, 'rot2': 0, 'depth': -1.361, 'yaw': 55.32, 'datetime': '2018-12-18 20:54:24.768074', 'mgs': 0, 'flw2': 0.13, 'flw1': 0.0, 'flw0': 0.05, 'time': 34.53, 'compass': -101.09, 'pitch': 0.75, 'roll': -1.4}
{'lipoC2': 0.0, 'temp': 0.0, 'lipoC3S3': 11.8, 'state': 'normal', 'rot1': 0, 'rot0': 2, 'rot3': 0, 'rot2': 0, 'depth': -0.293, 'yaw': 55.65, 'datetime': '2018-12-18 20:54:24.973436', 'mgs': 0, 'flw2': 0.0, 'flw1': 0.44, 'flw0': 0.0, 'time': 34.74, 'compass': -100.75, 'pitch': 0.71, 'roll': -1.4}
{'lipoC2': 0.0, 'temp': 0.0, 'lipoC3S3': 12.01, 'state': 'normal', 'rot1': 0, 'rot0': 2, 'rot3': 0, 'rot2': 0, 'depth': 1.157, 'yaw': 55.96, 'datetime': '2018-12-18 20:54:25.184191', 'mgs': 0, 'flw2': 0.12, 'flw1': 0.0, 'flw0': 0.0, 'time': 34.95, 'compass': -100.44, 'pitch': 0.54, 'roll': -1.41}
{'lipoC2': 0.02, 'temp': 0.0, 'lipoC3S3': 11.94, 'state': 'normal', 'rot1': 0, 'rot0': 2, 'rot3': 0, 'rot2': 0, 'depth': 1.385, 'yaw': 56.27, 'datetime': '2018-12-18 20:54:25.389590', 'mgs': 0, 'flw2': 0.16, 'flw1': 0.0, 'flw0': 0.0, 'time': 35.15, 'compass': -100.14, 'pitch': 0.58, 'roll': -1.41}
{'lipoC2': 0.0, 'temp': 0.0, 'lipoC3S3': 12.04, 'state': 'normal', 'rot1': 0, 'rot0': 2, 'rot3': 0, 'rot2': 0, 'depth': 1.309, 'yaw': 56.53, 'datetime': '2018-12-18 20:54:25.595788', 'mgs': 0, 'flw2': 0.0, 'flw1': 0.06, 'flw0': 0.2, 'time': 35.36, 'compass': -99.87, 'pitch': 0.79, 'roll': -1.41}
{'lipoC2': 0.0, 'temp': 0.0, 'lipoC3S3': 12.06, 'state': 'normal', 'rot1': 0, 'rot0': 2, 'rot3': 0, 'rot2': 0, 'depth': 1.462, 'yaw': 56.79, 'datetime': '2018-12-18 20:54:25.807349', 'mgs': 0, 'flw2': 0.06, 'flw1': 0.41, 'flw0': 0.0, 'time': 35.57, 'compass': -99.61, 'pitch': 0.77, 'roll': -1.41}
{'lipoC2': 0.0, 'temp': 0.0, 'lipoC3S3': 11.72, 'state': 'normal', 'rot1': 0, 'rot0': 2, 'rot3': 0, 'rot2': 0, 'depth': -1.437, 'yaw': 57.05, 'datetime': '2018-12-18 20:54:26.018860', 'mgs': 0, 'flw2': 0.0, 'flw1': 0.47, 'flw0': 0.0, 'time': 35.78, 'compass': -99.36, 'pitch': 0.54, 'roll': -1.42}
{'lipoC2': 0.02, 'temp': 0.0, 'lipoC3S3': 11.67, 'state': 'normal', 'rot1': 0, 'rot0': 2, 'rot3': 0, 'rot2': 0, 'depth': 1.233, 'yaw': 57.39, 'datetime': '2018-12-18 20:54:26.319430', 'mgs': 0, 'flw2': 0.13, 'flw1': 0.0, 'flw0': 0.0, 'time': 36.09, 'compass': -99.01, 'pitch': 0.5, 'roll': -1.42}
{'lipoC2': 0.0, 'temp': 0.0, 'lipoC3S3': 11.73, 'state': 'normal', 'rot1': 0, 'rot0': 2, 'rot3': 0, 'rot2': 0, 'depth': -1.361, 'yaw': 57.62, 'datetime': '2018-12-18 20:54:26.527362', 'mgs': 0, 'flw2': 0.0, 'flw1': 0.47, 'flw0': 0.0, 'time': 36.3, 'compass': -98.79, 'pitch': 0.72, 'roll': -1.42}
{'lipoC2': 0.0, 'temp': 0.0, 'lipoC3S3': 11.69, 'state': 'normal', 'rot1': 0, 'rot0': 2, 'rot3': 0, 'rot2': 0, 'depth': -1.666, 'yaw': 57.84, 'datetime': '2018-12-18 20:54:26.736767', 'mgs': 0, 'flw2': 0.02, 'flw1': 0.0, 'flw0': 0.17, 'time': 36.51, 'compass': -98.57, 'pitch': 0.79, 'roll': -1.42}
{'lipoC2': 0.15, 'temp': 0.0, 'lipoC3S3': 11.83, 'state': 'normal', 'rot1': 0, 'rot0': 2, 'rot3': 0, 'rot2': 0, 'depth': -0.446, 'yaw': 58.06, 'datetime': '2018-12-18 20:54:26.955834', 'mgs': 0, 'flw2': 0.0, 'flw1': 0.41, 'flw0': 0.0, 'time': 36.72, 'compass': -98.35, 'pitch': 0.67, 'roll': -1.43}
{'lipoC2': 0.1, 'temp': 0.0, 'lipoC3S3': 11.69, 'state': 'normal', 'rot1': 0, 'rot0': 2, 'rot3': 0, 'rot2': 0, 'depth': 0.012, 'yaw': 58.4, 'datetime': '2018-12-18 20:54:27.258929', 'mgs': 0, 'flw2': 0.0, 'flw1': 0.47, 'flw0': 0.0, 'time': 37.03, 'compass': -98.01, 'pitch': 0.67, 'roll': -1.43}
{'lipoC2': 0.0, 'temp': 0.0, 'lipoC3S3': 12.04, 'state': 'normal', 'rot1': 0, 'rot0': 2, 'rot3': 0, 'rot2': 0, 'depth': 1.157, 'yaw': 58.6, 'datetime': '2018-12-18 20:54:27.468033', 'mgs': 0, 'flw2': 0.0, 'flw1': 0.0, 'flw0': 0.21, 'time': 37.24, 'compass': -97.81, 'pitch': 0.8, 'roll': -1.41}
{'lipoC2': 0.0, 'temp': 0.0, 'lipoC3S3': 12.01, 'state': 'normal', 'rot1': 0, 'rot0': 2, 'rot3': 0, 'rot2': 0, 'depth': 1.004, 'yaw': 58.82, 'datetime': '2018-12-18 20:54:27.674970', 'mgs': 0, 'flw2': 0.0, 'flw1': 0.18, 'flw0': 0.13, 'time': 37.44, 'compass': -97.58, 'pitch': 0.81, 'roll': -1.25}
{'lipoC2': 0.13, 'temp': 0.0, 'lipoC3S3': 11.73, 'state': 'normal', 'rot1': 0, 'rot0': 2, 'rot3': 0, 'rot2': 0, 'depth': 0.241, 'yaw': 59.04, 'datetime': '2018-12-18 20:54:27.882171', 'mgs': 0, 'flw2': 0.0, 'flw1': 0.44, 'flw0': 0.0, 'time': 37.65, 'compass': -97.37, 'pitch': 0.71, 'roll': -1.24}
{'lipoC2': 0.12, 'temp': 0.0, 'lipoC3S3': 11.88, 'state': 'normal', 'rot1': 0, 'rot0': 2, 'rot3': 0, 'rot2': 0, 'depth': -1.743, 'yaw': 59.24, 'datetime': '2018-12-18 20:54:28.091669', 'mgs': 0, 'flw2': 0.21, 'flw1': 0.0, 'flw0': 0.0, 'time': 37.86, 'compass': -97.17, 'pitch': 0.7, 'roll': -1.25}
{'lipoC2': 0.15, 'temp': 0.0, 'lipoC3S3': 11.84, 'state': 'normal', 'rot1': 0, 'rot0': 2, 'rot3': 0, 'rot2': 0, 'depth': -0.827, 'yaw': 59.46, 'datetime': '2018-12-18 20:54:28.299131', 'mgs': 0, 'flw2': 0.0, 'flw1': 0.5, 'flw0': 0.0, 'time': 38.07, 'compass': -96.95, 'pitch': 0.75, 'roll': -1.26}
{'lipoC2': 0.0, 'temp': 0.0, 'lipoC3S3': 12.08, 'state': 'normal', 'rot1': 0, 'rot0': 2, 'rot3': 0, 'rot2': 0, 'depth': 1.614, 'yaw': 59.67, 'datetime': '2018-12-18 20:54:28.507999', 'mgs': 0, 'flw2': 0.0, 'flw1': 0.44, 'flw0': 0.0, 'time': 38.28, 'compass': -96.74, 'pitch': 0.97, 'roll': -1.26}
{'lipoC2': 0.15, 'temp': 0.0, 'lipoC3S3': 11.87, 'state': 'normal', 'rot1': 0, 'rot0': 2, 'rot3': 0, 'rot2': 0, 'depth': -0.98, 'yaw': 59.87, 'datetime': '2018-12-18 20:54:28.717483', 'mgs': 0, 'flw2': 0.0, 'flw1': 0.38, 'flw0': 0.0, 'time': 38.48, 'compass': -96.54, 'pitch': 1.05, 'roll': -1.26}
{'lipoC2': 0.14, 'temp': 0.0, 'lipoC3S3': 11.88, 'state': 'normal', 'rot1': 0, 'rot0': 2, 'rot3': 0, 'rot2': 0, 'depth': -1.437, 'yaw': 60.07, 'datetime': '2018-12-18 20:54:28.925181', 'mgs': 0, 'flw2': 0.0, 'flw1': 0.0, 'flw0': 0.0, 'time': 38.69, 'compass': -96.34, 'pitch': 0.84, 'roll': -1.27}
{'lipoC2': 0.08, 'temp': 0.0, 'lipoC3S3': 11.67, 'state': 'normal', 'rot1': 0, 'rot0': 2, 'rot3': 0, 'rot2': 0, 'depth': -0.064, 'yaw': 60.27, 'datetime': '2018-12-18 20:54:29.134416', 'mgs': 0, 'flw2': 0.1, 'flw1': 0.32, 'flw0': 0.0, 'time': 38.9, 'compass': -96.14, 'pitch': 0.64, 'roll': -1.27}
{'lipoC2': 0.0, 'temp': 0.0, 'lipoC3S3': 11.81, 'state': 'normal', 'rot1': 0, 'rot0': 2, 'rot3': 0, 'rot2': 0, 'depth': 0.928, 'yaw': 60.46, 'datetime': '2018-12-18 20:54:29.341420', 'mgs': 0, 'flw2': 0.0, 'flw1': 0.47, 'flw0': 0.0, 'time': 39.11, 'compass': -95.95, 'pitch': 0.83, 'roll': -1.27}
{'lipoC2': 0.03, 'temp': 0.0, 'lipoC3S3': 11.68, 'state': 'normal', 'rot1': 0, 'rot0': 2, 'rot3': 0, 'rot2': 0, 'depth': -0.14, 'yaw': 60.63, 'datetime': '2018-12-18 20:54:29.549631', 'mgs': 0, 'flw2': 0.0, 'flw1': 0.0, 'flw0': 0.21, 'time': 39.32, 'compass': -95.77, 'pitch': 1.23, 'roll': -1.27}
{'lipoC2': 0.08, 'temp': 0.0, 'lipoC3S3': 11.92, 'state': 'normal', 'rot1': 0, 'rot0': 2, 'rot3': 0, 'rot2': 0, 'depth': -2.048, 'yaw': 60.81, 'datetime': '2018-12-18 20:54:29.757805', 'mgs': 0, 'flw2': 0.12, 'flw1': 0.0, 'flw0': 0.0, 'time': 39.53, 'compass': -95.59, 'pitch': 1.17, 'roll': -1.28}
{'lipoC2': 0.16, 'temp': 0.0, 'lipoC3S3': 11.85, 'state': 'normal', 'rot1': 0, 'rot0': 2, 'rot3': 0, 'rot2': 0, 'depth': -1.666, 'yaw': 60.99, 'datetime': '2018-12-18 20:54:29.967515', 'mgs': 0, 'flw2': 0.0, 'flw1': 0.47, 'flw0': 0.0, 'time': 39.73, 'compass': -95.41, 'pitch': 0.57, 'roll': -1.28}
{'lipoC2': 0.0, 'temp': 0.0, 'lipoC3S3': 11.79, 'state': 'normal', 'rot1': 0, 'rot0': 2, 'rot3': 0, 'rot2': 0, 'depth': -0.674, 'yaw': 61.16, 'datetime': '2018-12-18 20:54:30.175662', 'mgs': 0, 'flw2': 0.0, 'flw1': 0.47, 'flw0': 0.0, 'time': 39.94, 'compass': -95.24, 'pitch': 0.35, 'roll': -1.27}
{'lipoC2': 0.0, 'temp': 0.0, 'lipoC3S3': 12.08, 'state': 'normal', 'rot1': 0, 'rot0': 2, 'rot3': 0, 'rot2': 0, 'depth': 1.691, 'yaw': 61.34, 'datetime': '2018-12-18 20:54:30.383915', 'mgs': 0, 'flw2': 0.0, 'flw1': 0.47, 'flw0': 0.0, 'time': 40.15, 'compass': -95.07, 'pitch': 1.03, 'roll': -1.27}
