{'lipoC2': 7.95, 'temp': 0.0, 'lipoC3S3': 12.37, 'state': 'normal', 'rot1': 9, 'rot0': 0, 'rot3': 0, 'rot2': 0, 'depth': 0.394, 'yaw': 0.0, 'datetime': '2018-12-12 10:55:58.772413', 'mgs': 0, 'flw2': 0.07, 'flw1': 0.0, 'flw0': 0.0, 'time': 1.25, 'compass': 113.63, 'pitch': 2.14, 'roll': -2.17}
{'lipoC2': 8.14, 'temp': 0.0, 'lipoC3S3': 12.0, 'state': 'normal', 'rot1': 9, 'rot0': 0, 'rot3': 0, 'rot2': 0, 'depth': 0.089, 'yaw': -6.9, 'datetime': '2018-12-12 10:55:58.979047', 'mgs': 0, 'flw2': 0.21, 'flw1': 0.0, 'flw0': 0.31, 'time': 1.46, 'compass': 106.73, 'pitch': 1.12, 'roll': -1.35}
{'lipoC2': 8.17, 'temp': 0.0, 'lipoC3S3': 12.1, 'state': 'normal', 'rot1': 9, 'rot0': 0, 'rot3': 0, 'rot2': 0, 'depth': 2.606, 'yaw': -12.64, 'datetime': '2018-12-12 10:55:59.186112', 'mgs': 0, 'flw2': 0.0, 'flw1': 0.7, 'flw0': 0.0, 'time': 1.67, 'compass': 100.99, 'pitch': -0.42, 'roll': -0.48}
{'lipoC2': 8.12, 'temp': 0.0, 'lipoC3S3': 12.01, 'state': 'normal', 'rot1': 9, 'rot0': 0, 'rot3': 0, 'rot2': 0, 'depth': 1.767, 'yaw': -17.96, 'datetime': '2018-12-12 10:55:59.393291', 'mgs': 0, 'flw2': 0.02, 'flw1': 0.0, 'flw0': 0.28, 'time': 1.88, 'compass': 95.67, 'pitch': -2.7, 'roll': 0.31}
{'lipoC2': 8.1, 'temp': 0.0, 'lipoC3S3': 12.14, 'state': 'normal', 'rot1': 9, 'rot0': 0, 'rot3': 0, 'rot2': 0, 'depth': -0.293, 'yaw': -22.72, 'datetime': '2018-12-12 10:55:59.603988', 'mgs': 0, 'flw2': 0.0, 'flw1': 0.7, 'flw0': 0.0, 'time': 2.09, 'compass': 90.91, 'pitch': -5.05, 'roll': 0.58}
{'lipoC2': 8.0, 'temp': 0.0, 'lipoC3S3': 12.21, 'state': 'normal', 'rot1': 9, 'rot0': 0, 'rot3': 0, 'rot2': 0, 'depth': -0.369, 'yaw': -26.83, 'datetime': '2018-12-12 10:55:59.809737', 'mgs': 0, 'flw2': 0.0, 'flw1': 0.59, 'flw0': 0.0, 'time': 2.29, 'compass': 86.8, 'pitch': -6.78, 'roll': 0.44}
{'lipoC2': 8.01, 'temp': 0.0, 'lipoC3S3': 12.09, 'state': 'normal', 'rot1': 9, 'rot0': 0, 'rot3': 0, 'rot2': 0, 'depth': -0.217, 'yaw': -30.76, 'datetime': '2018-12-12 10:56:00.018497', 'mgs': 0, 'flw2': 0.0, 'flw1': 0.0, 'flw0': 1.51, 'time': 2.5, 'compass': 82.86, 'pitch': -7.52, 'roll': 0.24}
{'lipoC2': 8.23, 'temp': 0.0, 'lipoC3S3': 12.08, 'state': 'normal', 'rot1': 12, 'rot0': 1, 'rot3': 0, 'rot2': 0, 'depth': 0.241, 'yaw': -35.33, 'datetime': '2018-12-12 10:56:00.228762', 'mgs': 0, 'flw2': 2.29, 'flw1': 0.0, 'flw0': 2.03, 'time': 2.71, 'compass': 78.3, 'pitch': -6.38, 'roll': -0.46}
{'lipoC2': 8.02, 'temp': 0.0, 'lipoC3S3': 12.38, 'state': 'normal', 'rot1': 14, 'rot0': 4, 'rot3': 0, 'rot2': 0, 'depth': 1.08, 'yaw': -39.33, 'datetime': '2018-12-12 10:56:00.436222', 'mgs': 0, 'flw2': 2.44, 'flw1': 0.03, 'flw0': 1.87, 'time': 2.92, 'compass': 74.3, 'pitch': -3.34, 'roll': -1.16}
{'lipoC2': 8.19, 'temp': 0.0, 'lipoC3S3': 12.0, 'state': 'normal', 'rot1': 17, 'rot0': 6, 'rot3': 0, 'rot2': 0, 'depth': 0.546, 'yaw': -42.7, 'datetime': '2018-12-12 10:56:00.645447', 'mgs': 0, 'flw2': 2.36, 'flw1': 0.44, 'flw0': 0.0, 'time': 3.13, 'compass': 70.93, 'pitch': 0.32, 'roll': -1.4}
{'lipoC2': 7.99, 'temp': 0.0, 'lipoC3S3': 12.25, 'state': 'normal', 'rot1': 17, 'rot0': 7, 'rot3': 0, 'rot2': 0, 'depth': 1.996, 'yaw': -44.56, 'datetime': '2018-12-12 10:56:00.853314', 'mgs': 0, 'flw2': 0.0, 'flw1': 0.21, 'flw0': 0.0, 'time': 3.33, 'compass': 69.07, 'pitch': 2.59, 'roll': -1.13}
{'lipoC2': 8.06, 'temp': 0.0, 'lipoC3S3': 11.97, 'state': 'normal', 'rot1': 17, 'rot0': 7, 'rot3': 0, 'rot2': 0, 'depth': 2.53, 'yaw': -46.32, 'datetime': '2018-12-12 10:56:01.060831', 'mgs': 0, 'flw2': 0.15, 'flw1': 0.0, 'flw0': 0.31, 'time': 3.54, 'compass': 67.31, 'pitch': 3.18, 'roll': -1.0}
{'lipoC2': 8.16, 'temp': 0.0, 'lipoC3S3': 12.02, 'state': 'normal', 'rot1': 17, 'rot0': 7, 'rot3': 0, 'rot2': 0, 'depth': -0.064, 'yaw': -48.25, 'datetime': '2018-12-12 10:56:01.268071', 'mgs': 0, 'flw2': 0.04, 'flw1': 0.0, 'flw0': 0.0, 'time': 3.75, 'compass': 65.37, 'pitch': 2.56, 'roll': -0.82}
{'lipoC2': 7.96, 'temp': 0.0, 'lipoC3S3': 12.34, 'state': 'normal', 'rot1': 17, 'rot0': 7, 'rot3': 0, 'rot2': 0, 'depth': 3.064, 'yaw': -50.28, 'datetime': '2018-12-12 10:56:01.470989', 'mgs': 0, 'flw2': 0.37, 'flw1': 0.0, 'flw0': 0.4, 'time': 3.96, 'compass': 63.35, 'pitch': 0.77, 'roll': -0.58}
{'lipoC2': 8.3, 'temp': 0.0, 'lipoC3S3': 12.09, 'state': 'normal', 'rot1': 17, 'rot0': 7, 'rot3': 0, 'rot2': 0, 'depth': -1.208, 'yaw': -52.29, 'datetime': '2018-12-12 10:56:01.680457', 'mgs': 0, 'flw2': 0.32, 'flw1': 0.0, 'flw0': 0.35, 'time': 4.16, 'compass': 61.33, 'pitch': -1.74, 'roll': -0.34}
{'lipoC2': 7.99, 'temp': 0.0, 'lipoC3S3': 12.02, 'state': 'normal', 'rot1': 17, 'rot0': 7, 'rot3': 0, 'rot2': 0, 'depth': 2.911, 'yaw': -54.25, 'datetime': '2018-12-12 10:56:01.888560', 'mgs': 0, 'flw2': 0.26, 'flw1': 0.0, 'flw0': 0.11, 'time': 4.37, 'compass': 59.38, 'pitch': -4.06, 'roll': -0.15}
{'lipoC2': 7.98, 'temp': 0.0, 'lipoC3S3': 12.47, 'state': 'normal', 'rot1': 17, 'rot0': 7, 'rot3': 0, 'rot2': 0, 'depth': -0.293, 'yaw': -56.04, 'datetime': '2018-12-12 10:56:02.097860', 'mgs': 0, 'flw2': 0.31, 'flw1': 0.0, 'flw0': 0.0, 'time': 4.58, 'compass': 57.59, 'pitch': -6.04, 'roll': -0.06}
{'lipoC2': 7.94, 'temp': 0.0, 'lipoC3S3': 12.38, 'state': 'normal', 'rot1': 17, 'rot0': 7, 'rot3': 0, 'rot2': 0, 'depth': -0.293, 'yaw': -57.82, 'datetime': '2018-12-12 10:56:02.305778', 'mgs': 0, 'flw2': 0.11, 'flw1': 0.0, 'flw0': 0.17, 'time': 4.79, 'compass': 55.8, 'pitch': -7.83, 'roll': -0.03}
{'lipoC2': 8.28, 'temp': 0.0, 'lipoC3S3': 12.12, 'state': 'normal', 'rot1': 17, 'rot0': 7, 'rot3': 0, 'rot2': 0, 'depth': -0.522, 'yaw': -59.46, 'datetime': '2018-12-12 10:56:02.514686', 'mgs': 0, 'flw2': 0.33, 'flw1': 0.0, 'flw0': 0.32, 'time': 5.0, 'compass': 54.16, 'pitch': -8.49, 'roll': -0.17}
{'lipoC2': 7.94, 'temp': 0.0, 'lipoC3S3': 12.33, 'state': 'normal', 'rot1': 17, 'rot0': 7, 'rot3': 0, 'rot2': 0, 'depth': 0.089, 'yaw': -60.99, 'datetime': '2018-12-12 10:56:02.722658', 'mgs': 0, 'flw2': 0.24, 'flw1': 0.0, 'flw0': 0.12, 'time': 5.2, 'compass': 52.64, 'pitch': -7.67, 'roll': -0.23}
{'lipoC2': 8.15, 'temp': 0.0, 'lipoC3S3': 12.02, 'state': 'normal', 'rot1': 17, 'rot0': 7, 'rot3': 0, 'rot2': 0, 'depth': -0.14, 'yaw': -62.57, 'datetime': '2018-12-12 10:56:02.935296', 'mgs': 0, 'flw2': 0.0, 'flw1': 0.03, 'flw0': 0.0, 'time': 5.41, 'compass': 51.06, 'pitch': -5.83, 'roll': -0.33}
{'lipoC2': 8.01, 'temp': 0.0, 'lipoC3S3': 12.18, 'state': 'normal', 'rot1': 17, 'rot0': 7, 'rot3': 0, 'rot2': 0, 'depth': 1.92, 'yaw': -64.12, 'datetime': '2018-12-12 10:56:03.145218', 'mgs': 0, 'flw2': 0.2, 'flw1': 0.0, 'flw0': 0.32, 'time': 5.62, 'compass': 49.5, 'pitch': -3.97, 'roll': -0.43}
{'lipoC2': 8.11, 'temp': 0.0, 'lipoC3S3': 11.98, 'state': 'normal', 'rot1': 17, 'rot0': 7, 'rot3': 0, 'rot2': 0, 'depth': -0.064, 'yaw': -65.62, 'datetime': '2018-12-12 10:56:03.354179', 'mgs': 0, 'flw2': 0.29, 'flw1': 0.0, 'flw0': 0.31, 'time': 5.83, 'compass': 48.01, 'pitch': -2.97, 'roll': -0.33}
{'lipoC2': 8.26, 'temp': 0.0, 'lipoC3S3': 12.1, 'state': 'normal', 'rot1': 17, 'rot0': 7, 'rot3': 0, 'rot2': 0, 'depth': 1.233, 'yaw': -66.98, 'datetime': '2018-12-12 10:56:03.560875', 'mgs': 0, 'flw2': 0.0, 'flw1': 0.0, 'flw0': 0.16, 'time': 6.04, 'compass': 46.65, 'pitch': -2.57, 'roll': -0.23}
{'lipoC2': 8.02, 'temp': 0.0, 'lipoC3S3': 11.97, 'state': 'normal', 'rot1': 17, 'rot0': 7, 'rot3': 0, 'rot2': 0, 'depth': 0.012, 'yaw': -68.41, 'datetime': '2018-12-12 10:56:03.770024', 'mgs': 0, 'flw2': 0.31, 'flw1': 0.0, 'flw0': 0.23, 'time': 6.25, 'compass': 45.21, 'pitch': -2.03, 'roll': -0.08}
{'lipoC2': 8.2, 'temp': 0.0, 'lipoC3S3': 12.05, 'state': 'normal', 'rot1': 17, 'rot0': 7, 'rot3': 0, 'rot2': 0, 'depth': 0.775, 'yaw': -69.88, 'datetime': '2018-12-12 10:56:03.974970', 'mgs': 0, 'flw2': 0.0, 'flw1': 0.38, 'flw0': 0.0, 'time': 6.45, 'compass': 43.74, 'pitch': -1.74, 'roll': 0.11}
{'lipoC2': 8.01, 'temp': 0.0, 'lipoC3S3': 12.16, 'state': 'normal', 'rot1': 18, 'rot0': 8, 'rot3': 0, 'rot2': 0, 'depth': 1.767, 'yaw': -71.07, 'datetime': '2018-12-12 10:56:04.184005', 'mgs': 0, 'flw2': 6.25, 'flw1': 0.0, 'flw0': 2.16, 'time': 6.66, 'compass': 42.55, 'pitch': -1.97, 'roll': 0.24}
{'lipoC2': 8.02, 'temp': 0.0, 'lipoC3S3': 12.08, 'state': 'normal', 'rot1': 21, 'rot0': 12, 'rot3': 0, 'rot2': 0, 'depth': 1.385, 'yaw': -70.11, 'datetime': '2018-12-12 10:56:04.395857', 'mgs': 0, 'flw2': 6.65, 'flw1': 0.0, 'flw0': 2.36, 'time': 6.87, 'compass': 43.52, 'pitch': 0.76, 'roll': 0.81}
{'lipoC2': 8.24, 'temp': 0.0, 'lipoC3S3': 12.02, 'state': 'normal', 'rot1': 24, 'rot0': 15, 'rot3': 0, 'rot2': 0, 'depth': -0.598, 'yaw': -67.25, 'datetime': '2018-12-12 10:56:04.602924', 'mgs': 0, 'flw2': 6.15, 'flw1': 0.03, 'flw0': 2.21, 'time': 7.08, 'compass': 46.37, 'pitch': 4.71, 'roll': 1.11}
{'lipoC2': 8.0, 'temp': 0.0, 'lipoC3S3': 11.98, 'state': 'normal', 'rot1': 26, 'rot0': 18, 'rot3': 0, 'rot2': 0, 'depth': 2.988, 'yaw': -63.58, 'datetime': '2018-12-12 10:56:04.811394', 'mgs': 0, 'flw2': 0.0, 'flw1': 0.67, 'flw0': 0.0, 'time': 7.29, 'compass': 50.04, 'pitch': 7.77, 'roll': 0.97}
{'lipoC2': 8.01, 'temp': 0.0, 'lipoC3S3': 12.26, 'state': 'normal', 'rot1': 26, 'rot0': 18, 'rot3': 0, 'rot2': 0, 'depth': 1.538, 'yaw': -61.0, 'datetime': '2018-12-12 10:56:05.023108', 'mgs': 0, 'flw2': 0.0, 'flw1': 0.23, 'flw0': 0.0, 'time': 7.5, 'compass': 52.63, 'pitch': 6.93, 'roll': 0.66}
{'lipoC2': 8.08, 'temp': 0.0, 'lipoC3S3': 11.97, 'state': 'normal', 'rot1': 26, 'rot0': 18, 'rot3': 0, 'rot2': 0, 'depth': -0.064, 'yaw': -59.36, 'datetime': '2018-12-12 10:56:05.229201', 'mgs': 0, 'flw2': 0.04, 'flw1': 0.0, 'flw0': 0.29, 'time': 7.7, 'compass': 54.26, 'pitch': 3.88, 'roll': 0.5}
{'lipoC2': 8.26, 'temp': 0.0, 'lipoC3S3': 12.12, 'state': 'normal', 'rot1': 26, 'rot0': 18, 'rot3': 0, 'rot2': 0, 'depth': 0.851, 'yaw': -58.2, 'datetime': '2018-12-12 10:56:05.440749', 'mgs': 0, 'flw2': 0.0, 'flw1': 0.18, 'flw0': 0.0, 'time': 7.91, 'compass': 55.43, 'pitch': 0.27, 'roll': 0.5}
{'lipoC2': 8.25, 'temp': 0.0, 'lipoC3S3': 12.47, 'state': 'normal', 'rot1': 26, 'rot0': 18, 'rot3': 0, 'rot2': 0, 'depth': -0.98, 'yaw': -57.43, 'datetime': '2018-12-12 10:56:05.645382', 'mgs': 0, 'flw2': 0.29, 'flw1': 0.0, 'flw0': 0.0, 'time': 8.12, 'compass': 56.2, 'pitch': -3.02, 'roll': 0.41}
{'lipoC2': 7.99, 'temp': 0.0, 'lipoC3S3': 12.16, 'state': 'normal', 'rot1': 26, 'rot0': 18, 'rot3': 0, 'rot2': 0, 'depth': 1.614, 'yaw': -56.99, 'datetime': '2018-12-12 10:56:05.855465', 'mgs': 0, 'flw2': 0.0, 'flw1': 0.5, 'flw0': 0.0, 'time': 8.33, 'compass': 56.63, 'pitch': -6.13, 'roll': 0.2}
{'lipoC2': 7.95, 'temp': 0.0, 'lipoC3S3': 12.37, 'state': 'normal', 'rot1': 26, 'rot0': 18, 'rot3': 0, 'rot2': 0, 'depth': 0.241, 'yaw': -56.71, 'datetime': '2018-12-12 10:56:06.064219', 'mgs': 0, 'flw2': 0.11, 'flw1': 0.0, 'flw0': 0.0, 'time': 8.54, 'compass': 56.92, 'pitch': -9.09, 'roll': 0.1}
{'lipoC2': 8.12, 'temp': 0.0, 'lipoC3S3': 12.12, 'state': 'normal', 'rot1': 26, 'rot0': 18, 'rot3': 0, 'rot2': 0, 'depth': -0.674, 'yaw': -56.52, 'datetime': '2018-12-12 10:56:06.273557', 'mgs': 0, 'flw2': 0.22, 'flw1': 0.0, 'flw0': 0.04, 'time': 8.75, 'compass': 57.11, 'pitch': -11.11, 'roll': 0.17}
{'lipoC2': 8.17, 'temp': 0.0, 'lipoC3S3': 12.04, 'state': 'normal', 'rot1': 26, 'rot0': 18, 'rot3': 0, 'rot2': 0, 'depth': 0.775, 'yaw': -56.36, 'datetime': '2018-12-12 10:56:06.486565', 'mgs': 0, 'flw2': 0.04, 'flw1': 0.0, 'flw0': 0.0, 'time': 8.96, 'compass': 57.27, 'pitch': -11.29, 'roll': 0.25}
{'lipoC2': 7.95, 'temp': 0.0, 'lipoC3S3': 12.29, 'state': 'normal', 'rot1': 26, 'rot0': 18, 'rot3': 0, 'rot2': 0, 'depth': 0.928, 'yaw': -56.29, 'datetime': '2018-12-12 10:56:06.691702', 'mgs': 0, 'flw2': 0.0, 'flw1': 0.0, 'flw0': 0.0, 'time': 9.16, 'compass': 57.34, 'pitch': -9.5, 'roll': 0.22}
{'lipoC2': 8.21, 'temp': 0.0, 'lipoC3S3': 12.37, 'state': 'normal', 'rot1': 26, 'rot0': 18, 'rot3': 0, 'rot2': 0, 'depth': 0.089, 'yaw': -56.27, 'datetime': '2018-12-12 10:56:06.903455', 'mgs': 0, 'flw2': 0.04, 'flw1': 0.0, 'flw0': 0.0, 'time': 9.37, 'compass': 57.36, 'pitch': -7.09, 'roll': 0.27}
{'lipoC2': 8.01, 'temp': 0.0, 'lipoC3S3': 12.31, 'state': 'normal', 'rot1': 26, 'rot0': 18, 'rot3': 0, 'rot2': 0, 'depth': 1.08, 'yaw': -56.27, 'datetime': '2018-12-12 10:56:07.111580', 'mgs': 0, 'flw2': 0.23, 'flw1': 0.0, 'flw0': 0.0, 'time': 9.58, 'compass': 57.36, 'pitch': -5.23, 'roll': 0.49}
{'lipoC2': 8.0, 'temp': 0.0, 'lipoC3S3': 12.01, 'state': 'normal', 'rot1': 26, 'rot0': 18, 'rot3': 0, 'rot2': 0, 'depth': 2.835, 'yaw': -56.4, 'datetime': '2018-12-12 10:56:07.319742', 'mgs': 0, 'flw2': 0.0, 'flw1': 0.64, 'flw0': 0.0, 'time': 9.79, 'compass': 57.23, 'pitch': -4.1, 'roll': 0.68}
{'lipoC2': 7.99, 'temp': 0.0, 'lipoC3S3': 12.09, 'state': 'normal', 'rot1': 26, 'rot0': 18, 'rot3': 0, 'rot2': 0, 'depth': 0.317, 'yaw': -56.58, 'datetime': '2018-12-12 10:56:07.530238', 'mgs': 0, 'flw2': 0.29, 'flw1': 0.0, 'flw0': 0.18, 'time': 10.0, 'compass': 57.04, 'pitch': -2.71, 'roll': 0.75}
{'lipoC2': 8.04, 'temp': 0.0, 'lipoC3S3': 11.97, 'state': 'normal', 'rot1': 26, 'rot0': 18, 'rot3': 0, 'rot2': 0, 'depth': 2.835, 'yaw': -56.86, 'datetime': '2018-12-12 10:56:07.738517', 'mgs': 0, 'flw2': 0.04, 'flw1': 0.0, 'flw0': 0.32, 'time': 10.21, 'compass': 56.77, 'pitch': -1.3, 'roll': 0.77}
{'lipoC2': 8.2, 'temp': 0.0, 'lipoC3S3': 12.02, 'state': 'normal', 'rot1': 26, 'rot0': 18, 'rot3': 0, 'rot2': 0, 'depth': 0.317, 'yaw': -57.23, 'datetime': '2018-12-12 10:56:07.946056', 'mgs': 0, 'flw2': 0.04, 'flw1': 0.0, 'flw0': 0.24, 'time': 10.42, 'compass': 56.4, 'pitch': -1.36, 'roll': 0.76}
{'lipoC2': 7.99, 'temp': 0.0, 'lipoC3S3': 12.12, 'state': 'normal', 'rot1': 26, 'rot0': 18, 'rot3': 0, 'rot2': 0, 'depth': 0.394, 'yaw': -57.66, 'datetime': '2018-12-12 10:56:08.155794', 'mgs': 0, 'flw2': 0.27, 'flw1': 0.0, 'flw0': 0.1, 'time': 10.62, 'compass': 55.96, 'pitch': -2.94, 'roll': 0.68}
{'lipoC2': 8.2, 'temp': 0.0, 'lipoC3S3': 12.43, 'state': 'normal', 'rot1': 26, 'rot0': 18, 'rot3': 0, 'rot2': 0, 'depth': -0.446, 'yaw': -58.1, 'datetime': '2018-12-12 10:56:08.364685', 'mgs': 0, 'flw2': 0.0, 'flw1': 0.0, 'flw0': 0.09, 'time': 10.83, 'compass': 55.52, 'pitch': -4.5, 'roll': 0.72}
{'lipoC2': 8.01, 'temp': 0.0, 'lipoC3S3': 12.45, 'state': 'normal', 'rot1': 26, 'rot0': 18, 'rot3': 0, 'rot2': 0, 'depth': 0.775, 'yaw': -58.54, 'datetime': '2018-12-12 10:56:08.573651', 'mgs': 0, 'flw2': 0.0, 'flw1': 0.0, 'flw0': 0.07, 'time': 11.04, 'compass': 55.09, 'pitch': -5.55, 'roll': 0.72}
{'lipoC2': 7.99, 'temp': 0.0, 'lipoC3S3': 12.06, 'state': 'normal', 'rot1': 26, 'rot0': 18, 'rot3': 0, 'rot2': 0, 'depth': 0.394, 'yaw': -58.94, 'datetime': '2018-12-12 10:56:08.781065', 'mgs': 0, 'flw2': 0.26, 'flw1': 0.0, 'flw0': 0.26, 'time': 11.25, 'compass': 54.69, 'pitch': -6.54, 'roll': 0.55}
{'lipoC2': 8.09, 'temp': 0.0, 'lipoC3S3': 11.98, 'state': 'normal', 'rot1': 26, 'rot0': 18, 'rot3': 0, 'rot2': 0, 'depth': 2.225, 'yaw': -59.31, 'datetime': '2018-12-12 10:56:08.987782', 'mgs': 0, 'flw2': 0.07, 'flw1': 0.0, 'flw0': 0.29, 'time': 11.46, 'compass': 54.31, 'pitch': -7.37, 'roll': 0.44}
{'lipoC2': 8.12, 'temp': 0.0, 'lipoC3S3': 12.01, 'state': 'normal', 'rot1': 26, 'rot0': 18, 'rot3': 0, 'rot2': 0, 'depth': 0.089, 'yaw': -59.72, 'datetime': '2018-12-12 10:56:09.198382', 'mgs': 0, 'flw2': 0.0, 'flw1': 0.09, 'flw0': 0.0, 'time': 11.67, 'compass': 53.91, 'pitch': -7.72, 'roll': 0.43}
{'lipoC2': 7.99, 'temp': 0.0, 'lipoC3S3': 12.13, 'state': 'normal', 'rot1': 26, 'rot0': 18, 'rot3': 0, 'rot2': 0, 'depth': 1.996, 'yaw': -60.16, 'datetime': '2018-12-12 10:56:09.404536', 'mgs': 0, 'flw2': 0.31, 'flw1': 0.0, 'flw0': 0.17, 'time': 11.88, 'compass': 53.47, 'pitch': -7.43, 'roll': 0.43}
{'lipoC2': 8.28, 'temp': 0.0, 'lipoC3S3': 12.13, 'state': 'normal', 'rot1': 26, 'rot0': 18, 'rot3': 0, 'rot2': 0, 'depth': -0.674, 'yaw': -60.65, 'datetime': '2018-12-12 10:56:09.613841', 'mgs': 0, 'flw2': 0.0, 'flw1': 0.0, 'flw0': 0.04, 'time': 12.08, 'compass': 52.98, 'pitch': -6.48, 'roll': 0.36}
{'lipoC2': 8.14, 'temp': 0.0, 'lipoC3S3': 12.04, 'state': 'normal', 'rot1': 26, 'rot0': 18, 'rot3': 0, 'rot2': 0, 'depth': 0.165, 'yaw': -61.19, 'datetime': '2018-12-12 10:56:09.822747', 'mgs': 0, 'flw2': 0.01, 'flw1': 0.0, 'flw0': 0.0, 'time': 12.29, 'compass': 52.43, 'pitch': -5.27, 'roll': 0.27}
{'lipoC2': 8.01, 'temp': 0.0, 'lipoC3S3': 11.98, 'state': 'normal', 'rot1': 26, 'rot0': 18, 'rot3': 0, 'rot2': 0, 'depth': 2.911, 'yaw': -61.77, 'datetime': '2018-12-12 10:56:10.032467', 'mgs': 0, 'flw2': 0.21, 'flw1': 0.0, 'flw0': 0.01, 'time': 12.5, 'compass': 51.85, 'pitch': -4.54, 'roll': 0.22}
{'lipoC2': 7.99, 'temp': 0.0, 'lipoC3S3': 12.17, 'state': 'normal', 'rot1': 26, 'rot0': 18, 'rot3': 0, 'rot2': 0, 'depth': 0.394, 'yaw': -62.42, 'datetime': '2018-12-12 10:56:10.240421', 'mgs': 0, 'flw2': 0.28, 'flw1': 0.0, 'flw0': 0.0, 'time': 12.71, 'compass': 51.21, 'pitch': -4.25, 'roll': 0.48}
{'lipoC2': 8.27, 'temp': 0.0, 'lipoC3S3': 12.13, 'state': 'normal', 'rot1': 26, 'rot0': 18, 'rot3': 0, 'rot2': 0, 'depth': 1.843, 'yaw': -63.05, 'datetime': '2018-12-12 10:56:10.449334', 'mgs': 0, 'flw2': 0.2, 'flw1': 0.0, 'flw0': 0.0, 'time': 12.92, 'compass': 50.58, 'pitch': -4.2, 'roll': 0.64}
{'lipoC2': 8.13, 'temp': 0.0, 'lipoC3S3': 12.19, 'state': 'normal', 'rot1': 26, 'rot0': 18, 'rot3': 0, 'rot2': 0, 'depth': 1.538, 'yaw': -63.65, 'datetime': '2018-12-12 10:56:10.656981', 'mgs': 0, 'flw2': 0.0, 'flw1': 0.73, 'flw0': 0.0, 'time': 13.13, 'compass': 49.98, 'pitch': -4.4, 'roll': 0.65}
{'lipoC2': 8.0, 'temp': 0.0, 'lipoC3S3': 12.22, 'state': 'normal', 'rot1': 26, 'rot0': 18, 'rot3': 0, 'rot2': 0, 'depth': 0.241, 'yaw': -64.31, 'datetime': '2018-12-12 10:56:10.865671', 'mgs': 0, 'flw2': 0.27, 'flw1': 0.0, 'flw0': 0.06, 'time': 13.33, 'compass': 49.32, 'pitch': -4.68, 'roll': 0.41}
{'lipoC2': 8.02, 'temp': 0.0, 'lipoC3S3': 11.97, 'state': 'normal', 'rot1': 26, 'rot0': 18, 'rot3': 0, 'rot2': 0, 'depth': 2.988, 'yaw': -64.98, 'datetime': '2018-12-12 10:56:11.074906', 'mgs': 0, 'flw2': 0.0, 'flw1': 0.0, 'flw0': 0.28, 'time': 13.54, 'compass': 48.65, 'pitch': -5.0, 'roll': 0.21}
{'lipoC2': 8.05, 'temp': 0.0, 'lipoC3S3': 11.96, 'state': 'normal', 'rot1': 26, 'rot0': 18, 'rot3': 0, 'rot2': 0, 'depth': 0.165, 'yaw': -65.65, 'datetime': '2018-12-12 10:56:11.284041', 'mgs': 0, 'flw2': 0.0, 'flw1': 0.41, 'flw0': 0.0, 'time': 13.75, 'compass': 47.97, 'pitch': -5.52, 'roll': 0.18}
{'lipoC2': 8.0, 'temp': 0.0, 'lipoC3S3': 12.18, 'state': 'normal', 'rot1': 26, 'rot0': 18, 'rot3': 0, 'rot2': 0, 'depth': 0.317, 'yaw': -66.31, 'datetime': '2018-12-12 10:56:11.494312', 'mgs': 0, 'flw2': 0.0, 'flw1': 0.62, 'flw0': 0.0, 'time': 13.96, 'compass': 47.32, 'pitch': -6.12, 'roll': 0.26}
{'lipoC2': 7.99, 'temp': 0.0, 'lipoC3S3': 12.31, 'state': 'normal', 'rot1': 26, 'rot0': 18, 'rot3': 0, 'rot2': 0, 'depth': 0.241, 'yaw': -66.93, 'datetime': '2018-12-12 10:56:11.701944', 'mgs': 0, 'flw2': 0.26, 'flw1': 0.0, 'flw0': 0.06, 'time': 14.17, 'compass': 46.7, 'pitch': -6.38, 'roll': 0.24}
{'lipoC2': 7.99, 'temp': 0.0, 'lipoC3S3': 12.02, 'state': 'normal', 'rot1': 26, 'rot0': 18, 'rot3': 0, 'rot2': 0, 'depth': 2.835, 'yaw': -67.58, 'datetime': '2018-12-12 10:56:11.912496', 'mgs': 0, 'flw2': 0.31, 'flw1': 0.0, 'flw0': 0.2, 'time': 14.38, 'compass': 46.05, 'pitch': -6.2, 'roll': 0.2}
{'lipoC2': 8.0, 'temp': 0.0, 'lipoC3S3': 12.39, 'state': 'normal', 'rot1': 26, 'rot0': 18, 'rot3': 0, 'rot2': 0, 'depth': 0.089, 'yaw': -68.26, 'datetime': '2018-12-12 10:56:12.119815', 'mgs': 0, 'flw2': 0.31, 'flw1': 0.0, 'flw0': 0.0, 'time': 14.59, 'compass': 45.37, 'pitch': -5.68, 'roll': 0.21}
{'lipoC2': 8.27, 'temp': 0.0, 'lipoC3S3': 12.13, 'state': 'normal', 'rot1': 26, 'rot0': 18, 'rot3': 0, 'rot2': 0, 'depth': -0.674, 'yaw': -68.93, 'datetime': '2018-12-12 10:56:12.328789', 'mgs': 0, 'flw2': 0.0, 'flw1': 0.53, 'flw0': 0.0, 'time': 14.79, 'compass': 44.7, 'pitch': -5.2, 'roll': 0.32}
{'lipoC2': 8.22, 'temp': 0.0, 'lipoC3S3': 12.1, 'state': 'normal', 'rot1': 26, 'rot0': 18, 'rot3': 0, 'rot2': 0, 'depth': -0.598, 'yaw': -69.66, 'datetime': '2018-12-12 10:56:12.537946', 'mgs': 0, 'flw2': 0.31, 'flw1': 0.0, 'flw0': 0.0, 'time': 15.0, 'compass': 43.96, 'pitch': -4.73, 'roll': 0.44}
{'lipoC2': 8.06, 'temp': 0.0, 'lipoC3S3': 12.42, 'state': 'normal', 'rot1': 26, 'rot0': 18, 'rot3': 0, 'rot2': 0, 'depth': 2.759, 'yaw': -70.38, 'datetime': '2018-12-12 10:56:12.747595', 'mgs': 0, 'flw2': 0.15, 'flw1': 0.0, 'flw0': 0.0, 'time': 15.21, 'compass': 43.24, 'pitch': -4.24, 'roll': 0.61}
{'lipoC2': 8.16, 'temp': 0.0, 'lipoC3S3': 12.1, 'state': 'normal', 'rot1': 26, 'rot0': 18, 'rot3': 0, 'rot2': 0, 'depth': -0.522, 'yaw': -71.08, 'datetime': '2018-12-12 10:56:12.955534', 'mgs': 0, 'flw2': 0.29, 'flw1': 0.0, 'flw0': 0.1, 'time': 15.42, 'compass': 42.54, 'pitch': -4.11, 'roll': 0.61}
{'lipoC2': 7.98, 'temp': 0.0, 'lipoC3S3': 12.13, 'state': 'normal', 'rot1': 26, 'rot0': 18, 'rot3': 0, 'rot2': 0, 'depth': 0.394, 'yaw': -71.8, 'datetime': '2018-12-12 10:56:13.164925', 'mgs': 0, 'flw2': 0.0, 'flw1': 0.0, 'flw0': 0.1, 'time': 15.63, 'compass': 41.82, 'pitch': -4.12, 'roll': 0.38}
{'lipoC2': 7.98, 'temp': 0.0, 'lipoC3S3': 12.05, 'state': 'normal', 'rot1': 26, 'rot0': 18, 'rot3': 0, 'rot2': 0, 'depth': 2.682, 'yaw': -72.48, 'datetime': '2018-12-12 10:56:13.373038', 'mgs': 0, 'flw2': 0.0, 'flw1': 0.73, 'flw0': 0.0, 'time': 15.84, 'compass': 41.14, 'pitch': -4.15, 'roll': 0.2}
{'lipoC2': 8.06, 'temp': 0.0, 'lipoC3S3': 12.43, 'state': 'normal', 'rot1': 26, 'rot0': 18, 'rot3': 0, 'rot2': 0, 'depth': -0.14, 'yaw': -73.22, 'datetime': '2018-12-12 10:56:13.583263', 'mgs': 0, 'flw2': 0.0, 'flw1': 0.0, 'flw0': 0.31, 'time': 16.05, 'compass': 40.41, 'pitch': -4.47, 'roll': 0.14}
{'lipoC2': 8.26, 'temp': 0.0, 'lipoC3S3': 12.08, 'state': 'normal', 'rot1': 26, 'rot0': 18, 'rot3': 0, 'rot2': 0, 'depth': 1.004, 'yaw': -73.94, 'datetime': '2018-12-12 10:56:13.792812', 'mgs': 0, 'flw2': 0.0, 'flw1': 0.0, 'flw0': 0.11, 'time': 16.25, 'compass': 39.69, 'pitch': -5.03, 'roll': 0.14}
{'lipoC2': 7.99, 'temp': 0.0, 'lipoC3S3': 12.06, 'state': 'normal', 'rot1': 26, 'rot0': 18, 'rot3': 0, 'rot2': 0, 'depth': 0.012, 'yaw': -74.64, 'datetime': '2018-12-12 10:56:13.999350', 'mgs': 0, 'flw2': 0.22, 'flw1': 0.0, 'flw0': 0.11, 'time': 16.46, 'compass': 38.99, 'pitch': -5.33, 'roll': 0.06}
{'lipoC2': 8.05, 'temp': 0.0, 'lipoC3S3': 11.97, 'state': 'normal', 'rot1': 26, 'rot0': 18, 'rot3': 0, 'rot2': 0, 'depth': 2.682, 'yaw': -75.34, 'datetime': '2018-12-12 10:56:14.210784', 'mgs': 0, 'flw2': 0.16, 'flw1': 0.0, 'flw0': 0.32, 'time': 16.67, 'compass': 38.29, 'pitch': -5.28, 'roll': -0.09}
{'lipoC2': 8.19, 'temp': 0.0, 'lipoC3S3': 12.05, 'state': 'normal', 'rot1': 26, 'rot0': 18, 'rot3': 0, 'rot2': 0, 'depth': 0.241, 'yaw': -75.99, 'datetime': '2018-12-12 10:56:14.419780', 'mgs': 0, 'flw2': 0.29, 'flw1': 0.03, 'flw0': 0.0, 'time': 16.88, 'compass': 37.64, 'pitch': -5.15, 'roll': -0.2}
{'lipoC2': 8.26, 'temp': 0.0, 'lipoC3S3': 12.1, 'state': 'normal', 'rot1': 26, 'rot0': 18, 'rot3': 0, 'rot2': 0, 'depth': -0.751, 'yaw': -76.69, 'datetime': '2018-12-12 10:56:14.628326', 'mgs': 0, 'flw2': 0.23, 'flw1': 0.0, 'flw0': 0.0, 'time': 17.09, 'compass': 36.93, 'pitch': -4.89, 'roll': -0.02}
{'lipoC2': 8.06, 'temp': 0.0, 'lipoC3S3': 11.97, 'state': 'normal', 'rot1': 26, 'rot0': 18, 'rot3': 0, 'rot2': 0, 'depth': -0.217, 'yaw': -77.4, 'datetime': '2018-12-12 10:56:14.839273', 'mgs': 0, 'flw2': 0.28, 'flw1': 0.0, 'flw0': 0.32, 'time': 17.3, 'compass': 36.22, 'pitch': -4.79, 'roll': 0.19}
{'lipoC2': 8.23, 'temp': 0.0, 'lipoC3S3': 12.47, 'state': 'normal', 'rot1': 26, 'rot0': 18, 'rot3': 0, 'rot2': 0, 'depth': -0.674, 'yaw': -78.1, 'datetime': '2018-12-12 10:56:15.042945', 'mgs': 0, 'flw2': 0.24, 'flw1': 0.0, 'flw0': 0.0, 'time': 17.5, 'compass': 35.53, 'pitch': -4.98, 'roll': 0.24}
{'lipoC2': 8.0, 'temp': 0.0, 'lipoC3S3': 12.02, 'state': 'normal', 'rot1': 26, 'rot0': 18, 'rot3': 0, 'rot2': 0, 'depth': 2.759, 'yaw': -78.76, 'datetime': '2018-12-12 10:56:15.253816', 'mgs': 0, 'flw2': 0.29, 'flw1': 0.0, 'flw0': 0.26, 'time': 17.71, 'compass': 34.86, 'pitch': -4.81, 'roll': 0.2}
{'lipoC2': 8.27, 'temp': 0.0, 'lipoC3S3': 12.12, 'state': 'normal', 'rot1': 26, 'rot0': 18, 'rot3': 0, 'rot2': 0, 'depth': 1.92, 'yaw': -79.46, 'datetime': '2018-12-12 10:56:15.465532', 'mgs': 0, 'flw2': 0.0, 'flw1': 0.38, 'flw0': 0.0, 'time': 17.92, 'compass': 34.17, 'pitch': -4.1, 'roll': 0.29}
{'lipoC2': 7.99, 'temp': 0.0, 'lipoC3S3': 12.09, 'state': 'normal', 'rot1': 26, 'rot0': 18, 'rot3': 0, 'rot2': 0, 'depth': 0.317, 'yaw': -80.12, 'datetime': '2018-12-12 10:56:15.671905', 'mgs': 0, 'flw2': 0.28, 'flw1': 0.0, 'flw0': 0.13, 'time': 18.13, 'compass': 33.51, 'pitch': -3.75, 'roll': 0.35}
{'lipoC2': 8.08, 'temp': 0.0, 'lipoC3S3': 11.98, 'state': 'normal', 'rot1': 26, 'rot0': 18, 'rot3': 0, 'rot2': 0, 'depth': 2.148, 'yaw': -80.77, 'datetime': '2018-12-12 10:56:15.879080', 'mgs': 0, 'flw2': 0.0, 'flw1': 0.0, 'flw0': 0.23, 'time': 18.34, 'compass': 32.86, 'pitch': -3.93, 'roll': 0.46}
{'lipoC2': 8.2, 'temp': 0.0, 'lipoC3S3': 12.09, 'state': 'normal', 'rot1': 26, 'rot0': 18, 'rot3': 0, 'rot2': 0, 'depth': 2.606, 'yaw': -81.39, 'datetime': '2018-12-12 10:56:16.090739', 'mgs': 0, 'flw2': 0.29, 'flw1': 0.0, 'flw0': 0.26, 'time': 18.55, 'compass': 32.23, 'pitch': -4.1, 'roll': 0.54}
{'lipoC2': 8.17, 'temp': 0.0, 'lipoC3S3': 12.1, 'state': 'normal', 'rot1': 26, 'rot0': 18, 'rot3': 0, 'rot2': 0, 'depth': -0.522, 'yaw': -82.04, 'datetime': '2018-12-12 10:56:16.298950', 'mgs': 0, 'flw2': 0.0, 'flw1': 0.64, 'flw0': 0.0, 'time': 18.75, 'compass': 31.59, 'pitch': -4.05, 'roll': 0.59}
{'lipoC2': 8.28, 'temp': 0.0, 'lipoC3S3': 12.1, 'state': 'normal', 'rot1': 26, 'rot0': 18, 'rot3': 0, 'rot2': 0, 'depth': -0.522, 'yaw': -82.68, 'datetime': '2018-12-12 10:56:16.507834', 'mgs': 0, 'flw2': 0.0, 'flw1': 1.2, 'flw0': 0.0, 'time': 18.96, 'compass': 30.95, 'pitch': -4.08, 'roll': 0.64}
{'lipoC2': 8.2, 'temp': 0.0, 'lipoC3S3': 12.08, 'state': 'normal', 'rot1': 26, 'rot0': 18, 'rot3': 1, 'rot2': 1, 'depth': -0.522, 'yaw': -83.32, 'datetime': '2018-12-12 10:56:16.719719', 'mgs': 0, 'flw2': 0.0, 'flw1': 2.4, 'flw0': 0.17, 'time': 19.17, 'compass': 30.31, 'pitch': -4.38, 'roll': 0.25}
{'lipoC2': 8.14, 'temp': 0.0, 'lipoC3S3': 12.06, 'state': 'normal', 'rot1': 26, 'rot0': 18, 'rot3': 1, 'rot2': 2, 'depth': -0.446, 'yaw': -83.99, 'datetime': '2018-12-12 10:56:16.927048', 'mgs': 0, 'flw2': 0.16, 'flw1': 2.46, 'flw0': 0.0, 'time': 19.38, 'compass': 29.64, 'pitch': -4.32, 'roll': -0.07}
{'lipoC2': 8.27, 'temp': 0.0, 'lipoC3S3': 12.08, 'state': 'normal', 'rot1': 26, 'rot0': 18, 'rot3': 2, 'rot2': 3, 'depth': 0.241, 'yaw': -84.64, 'datetime': '2018-12-12 10:56:17.131533', 'mgs': 0, 'flw2': 0.0, 'flw1': 3.08, 'flw0': 0.0, 'time': 19.59, 'compass': 28.99, 'pitch': -3.7, 'roll': -0.22}
{'lipoC2': 8.08, 'temp': 0.0, 'lipoC3S3': 11.93, 'state': 'normal', 'rot1': 26, 'rot0': 18, 'rot3': 3, 'rot2': 4, 'depth': 1.538, 'yaw': -85.33, 'datetime': '2018-12-12 10:56:17.340664', 'mgs': 0, 'flw2': 0.0, 'flw1': 2.34, 'flw0': 0.27, 'time': 19.8, 'compass': 28.3, 'pitch': -2.81, 'roll': -0.4}
{'lipoC2': 8.23, 'temp': 0.0, 'lipoC3S3': 11.98, 'state': 'normal', 'rot1': 26, 'rot0': 18, 'rot3': 4, 'rot2': 5, 'depth': -0.446, 'yaw': -86.01, 'datetime': '2018-12-12 10:56:17.546471', 'mgs': 0, 'flw2': 0.0, 'flw1': 3.16, 'flw0': 0.0, 'time': 20.01, 'compass': 27.61, 'pitch': -2.3, 'roll': -0.43}
{'lipoC2': 7.94, 'temp': 0.0, 'lipoC3S3': 12.02, 'state': 'normal', 'rot1': 26, 'rot0': 18, 'rot3': 5, 'rot2': 6, 'depth': -0.446, 'yaw': -86.65, 'datetime': '2018-12-12 10:56:17.755705', 'mgs': 0, 'flw2': 0.0, 'flw1': 2.37, 'flw0': 0.01, 'time': 20.22, 'compass': 26.98, 'pitch': -2.49, 'roll': -0.14}
{'lipoC2': 8.21, 'temp': 0.0, 'lipoC3S3': 11.98, 'state': 'normal', 'rot1': 26, 'rot0': 18, 'rot3': 5, 'rot2': 7, 'depth': 0.165, 'yaw': -87.29, 'datetime': '2018-12-12 10:56:17.964237', 'mgs': 0, 'flw2': 0.28, 'flw1': 2.49, 'flw0': 0.27, 'time': 20.42, 'compass': 26.33, 'pitch': -3.16, 'roll': 0.14}
{'lipoC2': 7.95, 'temp': 0.0, 'lipoC3S3': 12.27, 'state': 'normal', 'rot1': 26, 'rot0': 18, 'rot3': 6, 'rot2': 8, 'depth': -0.522, 'yaw': -88.04, 'datetime': '2018-12-12 10:56:18.181915', 'mgs': 0, 'flw2': 0.0, 'flw1': 3.22, 'flw0': 0.0, 'time': 20.63, 'compass': 25.58, 'pitch': -3.5, 'roll': 0.06}
{'lipoC2': 8.22, 'temp': 0.0, 'lipoC3S3': 12.04, 'state': 'normal', 'rot1': 26, 'rot0': 18, 'rot3': 7, 'rot2': 9, 'depth': 0.928, 'yaw': -88.75, 'datetime': '2018-12-12 10:56:18.388123', 'mgs': 0, 'flw2': 0.0, 'flw1': 3.25, 'flw0': 0.0, 'time': 20.84, 'compass': 24.88, 'pitch': -3.47, 'roll': -0.02}
{'lipoC2': 8.27, 'temp': 0.0, 'lipoC3S3': 12.1, 'state': 'normal', 'rot1': 26, 'rot0': 18, 'rot3': 8, 'rot2': 10, 'depth': -1.056, 'yaw': -89.34, 'datetime': '2018-12-12 10:56:18.597219', 'mgs': 0, 'flw2': 0.0, 'flw1': 2.17, 'flw0': 0.0, 'time': 21.05, 'compass': 24.28, 'pitch': -3.63, 'roll': 0.34}
{'lipoC2': 7.95, 'temp': 0.0, 'lipoC3S3': 12.22, 'state': 'normal', 'rot1': 26, 'rot0': 18, 'rot3': 9, 'rot2': 11, 'depth': 0.47, 'yaw': -89.86, 'datetime': '2018-12-12 10:56:18.805480', 'mgs': 0, 'flw2': 0.0, 'flw1': 3.02, 'flw0': 0.0, 'time': 21.26, 'compass': 23.77, 'pitch': -4.13, 'roll': 0.91}
{'lipoC2': 8.2, 'temp': 0.0, 'lipoC3S3': 12.08, 'state': 'normal', 'rot1': 26, 'rot0': 18, 'rot3': 9, 'rot2': 12, 'depth': -1.132, 'yaw': -90.39, 'datetime': '2018-12-12 10:56:19.014791', 'mgs': 0, 'flw2': 0.0, 'flw1': 3.43, 'flw0': 0.0, 'time': 21.47, 'compass': 23.24, 'pitch': -4.62, 'roll': 1.22}
{'lipoC2': 7.96, 'temp': 0.0, 'lipoC3S3': 12.31, 'state': 'normal', 'rot1': 26, 'rot0': 18, 'rot3': 10, 'rot2': 13, 'depth': 0.623, 'yaw': -90.93, 'datetime': '2018-12-12 10:56:19.224679', 'mgs': 0, 'flw2': 0.0, 'flw1': 2.64, 'flw0': 0.0, 'time': 21.68, 'compass': 22.69, 'pitch': -4.28, 'roll': 1.34}
{'lipoC2': 7.98, 'temp': 0.0, 'lipoC3S3': 12.41, 'state': 'normal', 'rot1': 26, 'rot0': 18, 'rot3': 11, 'rot2': 15, 'depth': -0.598, 'yaw': -91.38, 'datetime': '2018-12-12 10:56:19.435802', 'mgs': 0, 'flw2': 0.23, 'flw1': 2.46, 'flw0': 0.29, 'time': 21.89, 'compass': 22.25, 'pitch': -3.13, 'roll': 1.62}
{'lipoC2': 8.0, 'temp': 0.0, 'lipoC3S3': 11.93, 'state': 'normal', 'rot1': 26, 'rot0': 18, 'rot3': 12, 'rot2': 16, 'depth': -0.14, 'yaw': -91.77, 'datetime': '2018-12-12 10:56:19.652592', 'mgs': 0, 'flw2': 0.23, 'flw1': 2.43, 'flw0': 0.29, 'time': 22.1, 'compass': 21.86, 'pitch': -2.38, 'roll': 2.18}
{'lipoC2': 8.01, 'temp': 0.0, 'lipoC3S3': 11.89, 'state': 'normal', 'rot1': 26, 'rot0': 18, 'rot3': 13, 'rot2': 17, 'depth': 2.301, 'yaw': -92.28, 'datetime': '2018-12-12 10:56:19.863035', 'mgs': 0, 'flw2': 0.15, 'flw1': 2.26, 'flw0': 0.28, 'time': 22.31, 'compass': 21.35, 'pitch': -2.83, 'roll': 2.83}
{'lipoC2': 7.99, 'temp': 0.0, 'lipoC3S3': 11.97, 'state': 'normal', 'rot1': 26, 'rot0': 18, 'rot3': 13, 'rot2': 18, 'depth': -0.14, 'yaw': -92.97, 'datetime': '2018-12-12 10:56:20.072472', 'mgs': 0, 'flw2': 0.17, 'flw1': 2.26, 'flw0': 0.23, 'time': 22.52, 'compass': 20.66, 'pitch': -3.34, 'roll': 3.04}
{'lipoC2': 8.01, 'temp': 0.0, 'lipoC3S3': 12.05, 'state': 'normal', 'rot1': 26, 'rot0': 18, 'rot3': 14, 'rot2': 19, 'depth': 1.92, 'yaw': -93.7, 'datetime': '2018-12-12 10:56:20.281686', 'mgs': 0, 'flw2': 0.0, 'flw1': 3.13, 'flw0': 0.0, 'time': 22.73, 'compass': 19.93, 'pitch': -2.87, 'roll': 2.94}
{'lipoC2': 8.23, 'temp': 0.0, 'lipoC3S3': 12.08, 'state': 'normal', 'rot1': 26, 'rot0': 18, 'rot3': 15, 'rot2': 20, 'depth': -0.98, 'yaw': -94.46, 'datetime': '2018-12-12 10:56:20.489684', 'mgs': 0, 'flw2': 0.0, 'flw1': 3.43, 'flw0': 0.0, 'time': 22.93, 'compass': 19.17, 'pitch': -2.13, 'roll': 3.0}
{'lipoC2': 8.16, 'temp': 0.0, 'lipoC3S3': 12.04, 'state': 'normal', 'rot1': 26, 'rot0': 18, 'rot3': 16, 'rot2': 21, 'depth': 2.454, 'yaw': -95.24, 'datetime': '2018-12-12 10:56:20.697981', 'mgs': 0, 'flw2': 0.13, 'flw1': 2.29, 'flw0': 0.0, 'time': 23.15, 'compass': 18.38, 'pitch': -2.29, 'roll': 3.39}
{'lipoC2': 7.96, 'temp': 0.0, 'lipoC3S3': 12.25, 'state': 'normal', 'rot1': 26, 'rot0': 18, 'rot3': 17, 'rot2': 22, 'depth': 0.851, 'yaw': -96.1, 'datetime': '2018-12-12 10:56:20.906765', 'mgs': 0, 'flw2': 0.21, 'flw1': 2.55, 'flw0': 0.31, 'time': 23.35, 'compass': 17.53, 'pitch': -3.35, 'roll': 3.79}
{'lipoC2': 8.27, 'temp': 0.0, 'lipoC3S3': 12.05, 'state': 'normal', 'rot1': 26, 'rot0': 18, 'rot3': 17, 'rot2': 23, 'depth': 0.851, 'yaw': -97.03, 'datetime': '2018-12-12 10:56:21.116090', 'mgs': 0, 'flw2': 0.0, 'flw1': 2.17, 'flw0': 0.0, 'time': 23.56, 'compass': 16.6, 'pitch': -3.92, 'roll': 3.65}
{'lipoC2': 8.06, 'temp': 0.0, 'lipoC3S3': 12.38, 'state': 'normal', 'rot1': 26, 'rot0': 18, 'rot3': 18, 'rot2': 24, 'depth': 1.996, 'yaw': -98.02, 'datetime': '2018-12-12 10:56:21.327760', 'mgs': 0, 'flw2': 0.29, 'flw1': 2.67, 'flw0': 0.29, 'time': 23.77, 'compass': 15.6, 'pitch': -3.43, 'roll': 3.23}
{'lipoC2': 8.2, 'temp': 0.0, 'lipoC3S3': 12.08, 'state': 'normal', 'rot1': 26, 'rot0': 18, 'rot3': 19, 'rot2': 26, 'depth': -0.903, 'yaw': -98.97, 'datetime': '2018-12-12 10:56:21.538096', 'mgs': 0, 'flw2': 0.0, 'flw1': 3.52, 'flw0': 0.0, 'time': 23.98, 'compass': 14.66, 'pitch': -2.63, 'roll': 3.23}
{'lipoC2': 8.0, 'temp': 0.0, 'lipoC3S3': 12.41, 'state': 'normal', 'rot1': 26, 'rot0': 18, 'rot3': 20, 'rot2': 27, 'depth': -0.293, 'yaw': -100.03, 'datetime': '2018-12-12 10:56:21.749845', 'mgs': 0, 'flw2': 0.31, 'flw1': 2.61, 'flw0': 0.27, 'time': 24.19, 'compass': 13.59, 'pitch': -2.71, 'roll': 3.67}
{'lipoC2': 7.97, 'temp': 0.0, 'lipoC3S3': 12.46, 'state': 'normal', 'rot1': 26, 'rot0': 18, 'rot3': 21, 'rot2': 28, 'depth': -0.598, 'yaw': -101.28, 'datetime': '2018-12-12 10:56:21.961818', 'mgs': 0, 'flw2': 0.0, 'flw1': 3.22, 'flw0': 0.0, 'time': 24.4, 'compass': 12.34, 'pitch': -3.68, 'roll': 3.84}
{'lipoC2': 8.28, 'temp': 0.0, 'lipoC3S3': 12.08, 'state': 'normal', 'rot1': 26, 'rot0': 18, 'rot3': 21, 'rot2': 29, 'depth': 0.928, 'yaw': -102.57, 'datetime': '2018-12-12 10:56:22.167416', 'mgs': 0, 'flw2': 0.0, 'flw1': 2.96, 'flw0': 0.0, 'time': 24.61, 'compass': 11.06, 'pitch': -4.13, 'roll': 3.25}
{'lipoC2': 8.1, 'temp': 0.0, 'lipoC3S3': 11.94, 'state': 'normal', 'rot1': 26, 'rot0': 18, 'rot3': 22, 'rot2': 30, 'depth': 1.767, 'yaw': -103.72, 'datetime': '2018-12-12 10:56:22.377422', 'mgs': 0, 'flw2': 0.0, 'flw1': 3.19, 'flw0': 0.0, 'time': 24.82, 'compass': 9.9, 'pitch': -3.75, 'roll': 2.29}
{'lipoC2': 8.26, 'temp': 0.0, 'lipoC3S3': 12.08, 'state': 'normal', 'rot1': 26, 'rot0': 18, 'rot3': 23, 'rot2': 31, 'depth': 1.004, 'yaw': -104.9, 'datetime': '2018-12-12 10:56:22.587444', 'mgs': 0, 'flw2': 0.0, 'flw1': 3.19, 'flw0': 0.0, 'time': 25.03, 'compass': 8.73, 'pitch': -3.52, 'roll': 1.56}
{'lipoC2': 8.12, 'temp': 0.0, 'lipoC3S3': 11.96, 'state': 'normal', 'rot1': 26, 'rot0': 18, 'rot3': 24, 'rot2': 32, 'depth': 1.309, 'yaw': -106.06, 'datetime': '2018-12-12 10:56:22.797189', 'mgs': 0, 'flw2': 0.23, 'flw1': 2.64, 'flw0': 0.1, 'time': 25.24, 'compass': 7.57, 'pitch': -3.68, 'roll': 1.25}
{'lipoC2': 7.99, 'temp': 0.0, 'lipoC3S3': 12.05, 'state': 'normal', 'rot1': 26, 'rot0': 18, 'rot3': 24, 'rot2': 33, 'depth': 0.241, 'yaw': -107.21, 'datetime': '2018-12-12 10:56:23.008880', 'mgs': 0, 'flw2': 0.0, 'flw1': 3.78, 'flw0': 0.0, 'time': 25.45, 'compass': 6.42, 'pitch': -3.51, 'roll': 1.44}
{'lipoC2': 8.05, 'temp': 0.0, 'lipoC3S3': 11.93, 'state': 'normal', 'rot1': 26, 'rot0': 18, 'rot3': 25, 'rot2': 34, 'depth': 2.606, 'yaw': -108.29, 'datetime': '2018-12-12 10:56:23.217327', 'mgs': 0, 'flw2': 0.17, 'flw1': 2.61, 'flw0': 0.32, 'time': 25.66, 'compass': 5.33, 'pitch': -2.96, 'roll': 1.62}
{'lipoC2': 8.27, 'temp': 0.0, 'lipoC3S3': 12.41, 'state': 'normal', 'rot1': 26, 'rot0': 18, 'rot3': 26, 'rot2': 35, 'depth': -0.98, 'yaw': -109.28, 'datetime': '2018-12-12 10:56:23.427811', 'mgs': 0, 'flw2': 0.27, 'flw1': 2.72, 'flw0': 0.32, 'time': 25.87, 'compass': 4.34, 'pitch': -2.61, 'roll': 1.58}
{'lipoC2': 8.23, 'temp': 0.0, 'lipoC3S3': 12.02, 'state': 'normal', 'rot1': 26, 'rot0': 18, 'rot3': 27, 'rot2': 36, 'depth': -0.903, 'yaw': -110.25, 'datetime': '2018-12-12 10:56:23.637436', 'mgs': 0, 'flw2': 0.31, 'flw1': 2.61, 'flw0': 0.17, 'time': 26.08, 'compass': 3.37, 'pitch': -2.63, 'roll': 1.78}
{'lipoC2': 7.95, 'temp': 0.0, 'lipoC3S3': 12.31, 'state': 'normal', 'rot1': 26, 'rot0': 18, 'rot3': 28, 'rot2': 37, 'depth': -0.293, 'yaw': -111.32, 'datetime': '2018-12-12 10:56:23.846783', 'mgs': 0, 'flw2': 0.0, 'flw1': 3.08, 'flw0': 0.0, 'time': 26.29, 'compass': 2.31, 'pitch': -2.93, 'roll': 2.31}
{'lipoC2': 8.23, 'temp': 0.0, 'lipoC3S3': 12.04, 'state': 'normal', 'rot1': 26, 'rot0': 18, 'rot3': 28, 'rot2': 38, 'depth': -1.285, 'yaw': -112.39, 'datetime': '2018-12-12 10:56:24.057680', 'mgs': 0, 'flw2': 0.0, 'flw1': 2.96, 'flw0': 0.0, 'time': 26.5, 'compass': 1.24, 'pitch': -3.13, 'roll': 2.7}
{'lipoC2': 8.26, 'temp': 0.0, 'lipoC3S3': 12.04, 'state': 'normal', 'rot1': 26, 'rot0': 18, 'rot3': 29, 'rot2': 40, 'depth': 0.623, 'yaw': -113.37, 'datetime': '2018-12-12 10:56:24.268311', 'mgs': 0, 'flw2': 0.0, 'flw1': 2.26, 'flw0': 0.0, 'time': 26.71, 'compass': 0.25, 'pitch': -2.78, 'roll': 2.28}
{'lipoC2': 8.17, 'temp': 0.0, 'lipoC3S3': 12.0, 'state': 'normal', 'rot1': 26, 'rot0': 18, 'rot3': 30, 'rot2': 41, 'depth': 1.08, 'yaw': -114.16, 'datetime': '2018-12-12 10:56:24.479002', 'mgs': 0, 'flw2': 0.22, 'flw1': 2.78, 'flw0': 0.12, 'time': 26.92, 'compass': -0.54, 'pitch': -2.22, 'roll': 1.39}
{'lipoC2': 8.26, 'temp': 0.0, 'lipoC3S3': 12.09, 'state': 'normal', 'rot1': 26, 'rot0': 18, 'rot3': 31, 'rot2': 42, 'depth': -1.056, 'yaw': -114.93, 'datetime': '2018-12-12 10:56:24.690317', 'mgs': 0, 'flw2': 0.0, 'flw1': 3.4, 'flw0': 0.0, 'time': 27.13, 'compass': -1.31, 'pitch': -2.32, 'roll': 0.95}
{'lipoC2': 7.98, 'temp': 0.0, 'lipoC3S3': 12.45, 'state': 'normal', 'rot1': 26, 'rot0': 18, 'rot3': 32, 'rot2': 43, 'depth': -0.446, 'yaw': -115.76, 'datetime': '2018-12-12 10:56:24.899028', 'mgs': 0, 'flw2': 0.29, 'flw1': 2.78, 'flw0': 0.26, 'time': 27.34, 'compass': -2.13, 'pitch': -2.9, 'roll': 1.21}
{'lipoC2': 8.27, 'temp': 0.0, 'lipoC3S3': 12.06, 'state': 'normal', 'rot1': 26, 'rot0': 18, 'rot3': 32, 'rot2': 44, 'depth': -1.056, 'yaw': -116.72, 'datetime': '2018-12-12 10:56:25.108393', 'mgs': 0, 'flw2': 0.31, 'flw1': 2.61, 'flw0': 0.22, 'time': 27.55, 'compass': -3.09, 'pitch': -3.01, 'roll': 1.4}
{'lipoC2': 8.1, 'temp': 0.0, 'lipoC3S3': 11.88, 'state': 'normal', 'rot1': 26, 'rot0': 18, 'rot3': 33, 'rot2': 45, 'depth': 1.462, 'yaw': -117.56, 'datetime': '2018-12-12 10:56:25.319528', 'mgs': 0, 'flw2': 0.0, 'flw1': 3.49, 'flw0': 0.0, 'time': 27.76, 'compass': -3.93, 'pitch': -2.72, 'roll': 1.19}
{'lipoC2': 7.99, 'temp': 0.0, 'lipoC3S3': 12.04, 'state': 'normal', 'rot1': 26, 'rot0': 18, 'rot3': 34, 'rot2': 46, 'depth': -0.14, 'yaw': -118.21, 'datetime': '2018-12-12 10:56:25.530047', 'mgs': 0, 'flw2': 0.0, 'flw1': 3.66, 'flw0': 0.0, 'time': 27.97, 'compass': -4.59, 'pitch': -2.83, 'roll': 1.2}
{'lipoC2': 8.06, 'temp': 0.0, 'lipoC3S3': 12.38, 'state': 'normal', 'rot1': 26, 'rot0': 18, 'rot3': 35, 'rot2': 47, 'depth': 2.148, 'yaw': -118.82, 'datetime': '2018-12-12 10:56:25.736674', 'mgs': 0, 'flw2': 0.29, 'flw1': 2.72, 'flw0': 0.28, 'time': 28.18, 'compass': -5.2, 'pitch': -3.1, 'roll': 1.62}
{'lipoC2': 8.13, 'temp': 0.0, 'lipoC3S3': 12.0, 'state': 'normal', 'rot1': 26, 'rot0': 18, 'rot3': 36, 'rot2': 48, 'depth': 1.385, 'yaw': -119.37, 'datetime': '2018-12-12 10:56:25.946862', 'mgs': 0, 'flw2': 0.07, 'flw1': 2.46, 'flw0': 0.02, 'time': 28.39, 'compass': -5.74, 'pitch': -2.82, 'roll': 1.83}
{'lipoC2': 7.98, 'temp': 0.0, 'lipoC3S3': 11.97, 'state': 'normal', 'rot1': 26, 'rot0': 18, 'rot3': 36, 'rot2': 49, 'depth': 2.377, 'yaw': -119.81, 'datetime': '2018-12-12 10:56:26.157615', 'mgs': 0, 'flw2': 0.0, 'flw1': 2.2, 'flw0': 0.13, 'time': 28.6, 'compass': -6.18, 'pitch': -2.6, 'roll': 1.65}
{'lipoC2': 8.16, 'temp': 0.0, 'lipoC3S3': 11.98, 'state': 'normal', 'rot1': 26, 'rot0': 18, 'rot3': 37, 'rot2': 50, 'depth': -0.217, 'yaw': -120.28, 'datetime': '2018-12-12 10:56:26.368453', 'mgs': 0, 'flw2': 0.31, 'flw1': 2.7, 'flw0': 0.22, 'time': 28.81, 'compass': -6.66, 'pitch': -2.82, 'roll': 1.42}
{'lipoC2': 8.13, 'temp': 0.0, 'lipoC3S3': 11.94, 'state': 'normal', 'rot1': 26, 'rot0': 18, 'rot3': 38, 'rot2': 51, 'depth': 1.691, 'yaw': -120.72, 'datetime': '2018-12-12 10:56:26.580722', 'mgs': 0, 'flw2': 0.0, 'flw1': 3.28, 'flw0': 0.0, 'time': 29.02, 'compass': -7.1, 'pitch': -3.21, 'roll': 1.37}
{'lipoC2': 8.01, 'temp': 0.0, 'lipoC3S3': 12.08, 'state': 'normal', 'rot1': 26, 'rot0': 18, 'rot3': 39, 'rot2': 52, 'depth': 2.759, 'yaw': -121.06, 'datetime': '2018-12-12 10:56:26.788913', 'mgs': 0, 'flw2': 0.0, 'flw1': 3.57, 'flw0': 0.0, 'time': 29.23, 'compass': -7.43, 'pitch': -3.19, 'roll': 1.69}
{'lipoC2': 8.26, 'temp': 0.0, 'lipoC3S3': 12.06, 'state': 'normal', 'rot1': 26, 'rot0': 18, 'rot3': 40, 'rot2': 53, 'depth': -0.98, 'yaw': -121.42, 'datetime': '2018-12-12 10:56:26.999448', 'mgs': 0, 'flw2': 0.31, 'flw1': 2.61, 'flw0': 0.11, 'time': 29.44, 'compass': -7.79, 'pitch': -2.94, 'roll': 1.81}
{'lipoC2': 7.99, 'temp': 0.0, 'lipoC3S3': 12.02, 'state': 'normal', 'rot1': 26, 'rot0': 18, 'rot3': 41, 'rot2': 55, 'depth': 2.072, 'yaw': -121.71, 'datetime': '2018-12-12 10:56:27.208080', 'mgs': 0, 'flw2': 0.0, 'flw1': 3.46, 'flw0': 0.0, 'time': 29.65, 'compass': -8.08, 'pitch': -2.85, 'roll': 1.52}
{'lipoC2': 8.06, 'temp': 0.0, 'lipoC3S3': 11.92, 'state': 'normal', 'rot1': 26, 'rot0': 18, 'rot3': 41, 'rot2': 56, 'depth': 2.072, 'yaw': -121.88, 'datetime': '2018-12-12 10:56:27.418866', 'mgs': 0, 'flw2': 0.0, 'flw1': 3.34, 'flw0': 0.0, 'time': 29.86, 'compass': -8.25, 'pitch': -2.93, 'roll': 1.31}
{'lipoC2': 8.01, 'temp': 0.0, 'lipoC3S3': 11.93, 'state': 'normal', 'rot1': 26, 'rot0': 18, 'rot3': 42, 'rot2': 57, 'depth': 2.759, 'yaw': -121.99, 'datetime': '2018-12-12 10:56:27.629396', 'mgs': 0, 'flw2': 0.21, 'flw1': 2.7, 'flw0': 0.31, 'time': 30.07, 'compass': -8.36, 'pitch': -3.02, 'roll': 1.36}
{'lipoC2': 8.25, 'temp': 0.0, 'lipoC3S3': 12.01, 'state': 'normal', 'rot1': 26, 'rot0': 18, 'rot3': 43, 'rot2': 58, 'depth': -1.285, 'yaw': -122.0, 'datetime': '2018-12-12 10:56:27.841148', 'mgs': 0, 'flw2': 0.0, 'flw1': 2.26, 'flw0': 0.0, 'time': 30.28, 'compass': -8.38, 'pitch': -2.78, 'roll': 1.49}
{'lipoC2': 8.11, 'temp': 0.0, 'lipoC3S3': 12.04, 'state': 'normal', 'rot1': 26, 'rot0': 18, 'rot3': 44, 'rot2': 59, 'depth': -0.827, 'yaw': -122.01, 'datetime': '2018-12-12 10:56:28.050367', 'mgs': 0, 'flw2': 0.0, 'flw1': 2.55, 'flw0': 0.05, 'time': 30.49, 'compass': -8.38, 'pitch': -2.68, 'roll': 1.69}
{'lipoC2': 7.99, 'temp': 0.0, 'lipoC3S3': 12.04, 'state': 'normal', 'rot1': 26, 'rot0': 18, 'rot3': 44, 'rot2': 60, 'depth': 0.089, 'yaw': -122.05, 'datetime': '2018-12-12 10:56:28.259854', 'mgs': 0, 'flw2': 0.0, 'flw1': 3.63, 'flw0': 0.0, 'time': 30.7, 'compass': -8.42, 'pitch': -3.16, 'roll': 1.96}
{'lipoC2': 7.93, 'temp': 0.0, 'lipoC3S3': 12.29, 'state': 'normal', 'rot1': 26, 'rot0': 18, 'rot3': 45, 'rot2': 61, 'depth': -0.674, 'yaw': -122.15, 'datetime': '2018-12-12 10:56:28.470649', 'mgs': 0, 'flw2': 0.0, 'flw1': 3.13, 'flw0': 0.0, 'time': 30.91, 'compass': -8.52, 'pitch': -3.69, 'roll': 2.08}
{'lipoC2': 7.96, 'temp': 0.0, 'lipoC3S3': 12.35, 'state': 'normal', 'rot1': 26, 'rot0': 18, 'rot3': 46, 'rot2': 62, 'depth': -0.674, 'yaw': -122.19, 'datetime': '2018-12-12 10:56:28.681295', 'mgs': 0, 'flw2': 0.32, 'flw1': 2.46, 'flw0': 0.27, 'time': 31.12, 'compass': -8.56, 'pitch': -3.53, 'roll': 1.77}
{'lipoC2': 7.95, 'temp': 0.0, 'lipoC3S3': 12.35, 'state': 'normal', 'rot1': 26, 'rot0': 18, 'rot3': 47, 'rot2': 63, 'depth': -0.674, 'yaw': -122.15, 'datetime': '2018-12-12 10:56:28.891295', 'mgs': 0, 'flw2': 0.17, 'flw1': 2.58, 'flw0': 0.32, 'time': 31.33, 'compass': -8.53, 'pitch': -3.18, 'roll': 1.36}
{'lipoC2': 7.96, 'temp': 0.0, 'lipoC3S3': 12.38, 'state': 'normal', 'rot1': 26, 'rot0': 18, 'rot3': 48, 'rot2': 64, 'depth': -0.674, 'yaw': -122.13, 'datetime': '2018-12-12 10:56:29.101860', 'mgs': 0, 'flw2': 0.28, 'flw1': 2.64, 'flw0': 0.31, 'time': 31.54, 'compass': -8.5, 'pitch': -3.39, 'roll': 1.21}
{'lipoC2': 8.25, 'temp': 0.0, 'lipoC3S3': 12.05, 'state': 'normal', 'rot1': 26, 'rot0': 18, 'rot3': 48, 'rot2': 65, 'depth': -1.132, 'yaw': -122.12, 'datetime': '2018-12-12 10:56:29.312104', 'mgs': 0, 'flw2': 0.06, 'flw1': 2.2, 'flw0': 0.0, 'time': 31.75, 'compass': -8.49, 'pitch': -3.91, 'roll': 1.34}
{'lipoC2': 8.02, 'temp': 0.0, 'lipoC3S3': 11.9, 'state': 'normal', 'rot1': 26, 'rot0': 18, 'rot3': 49, 'rot2': 66, 'depth': 2.53, 'yaw': -122.1, 'datetime': '2018-12-12 10:56:29.520843', 'mgs': 0, 'flw2': 0.0, 'flw1': 2.37, 'flw0': 0.0, 'time': 31.95, 'compass': -8.47, 'pitch': -4.14, 'roll': 1.31}
{'lipoC2': 8.02, 'temp': 0.0, 'lipoC3S3': 12.35, 'state': 'normal', 'rot1': 26, 'rot0': 18, 'rot3': 50, 'rot2': 67, 'depth': 0.699, 'yaw': -122.06, 'datetime': '2018-12-12 10:56:29.731193', 'mgs': 0, 'flw2': 0.0, 'flw1': 3.08, 'flw0': 0.0, 'time': 32.17, 'compass': -8.44, 'pitch': -3.95, 'roll': 1.09}
{'lipoC2': 8.26, 'temp': 0.0, 'lipoC3S3': 12.04, 'state': 'normal', 'rot1': 26, 'rot0': 18, 'rot3': 51, 'rot2': 69, 'depth': 0.623, 'yaw': -122.02, 'datetime': '2018-12-12 10:56:29.941668', 'mgs': 0, 'flw2': 0.0, 'flw1': 2.17, 'flw0': 0.0, 'time': 32.38, 'compass': -8.39, 'pitch': -3.59, 'roll': 1.18}
{'lipoC2': 8.04, 'temp': 0.0, 'lipoC3S3': 11.9, 'state': 'normal', 'rot1': 26, 'rot0': 18, 'rot3': 52, 'rot2': 70, 'depth': 2.301, 'yaw': -121.83, 'datetime': '2018-12-12 10:56:30.153590', 'mgs': 0, 'flw2': 0.0, 'flw1': 3.54, 'flw0': 0.0, 'time': 32.59, 'compass': -8.2, 'pitch': -3.54, 'roll': 1.35}
{'lipoC2': 7.96, 'temp': 0.0, 'lipoC3S3': 12.39, 'state': 'normal', 'rot1': 26, 'rot0': 18, 'rot3': 52, 'rot2': 71, 'depth': -0.598, 'yaw': -121.56, 'datetime': '2018-12-12 10:56:30.365448', 'mgs': 0, 'flw2': 0.0, 'flw1': 3.19, 'flw0': 0.0, 'time': 32.8, 'compass': -7.93, 'pitch': -3.75, 'roll': 1.52}
{'lipoC2': 8.04, 'temp': 0.0, 'lipoC3S3': 12.06, 'state': 'normal', 'rot1': 26, 'rot0': 18, 'rot3': 53, 'rot2': 72, 'depth': -0.446, 'yaw': -121.2, 'datetime': '2018-12-12 10:56:30.574676', 'mgs': 0, 'flw2': 0.0, 'flw1': 3.31, 'flw0': 0.0, 'time': 33.01, 'compass': -7.57, 'pitch': -3.97, 'roll': 1.73}
{'lipoC2': 8.08, 'temp': 0.0, 'lipoC3S3': 12.14, 'state': 'normal', 'rot1': 26, 'rot0': 18, 'rot3': 54, 'rot2': 73, 'depth': -0.674, 'yaw': -120.83, 'datetime': '2018-12-12 10:56:30.782303', 'mgs': 0, 'flw2': 0.0, 'flw1': 3.31, 'flw0': 0.0, 'time': 33.22, 'compass': -7.2, 'pitch': -4.36, 'roll': 1.72}
{'lipoC2': 7.94, 'temp': 0.0, 'lipoC3S3': 12.3, 'state': 'normal', 'rot1': 26, 'rot0': 18, 'rot3': 55, 'rot2': 74, 'depth': -0.522, 'yaw': -120.37, 'datetime': '2018-12-12 10:56:30.993918', 'mgs': 0, 'flw2': 0.0, 'flw1': 2.7, 'flw0': 0.0, 'time': 33.43, 'compass': -6.74, 'pitch': -4.83, 'roll': 1.48}
{'lipoC2': 8.19, 'temp': 0.0, 'lipoC3S3': 12.02, 'state': 'normal', 'rot1': 26, 'rot0': 18, 'rot3': 56, 'rot2': 75, 'depth': -1.208, 'yaw': -119.84, 'datetime': '2018-12-12 10:56:31.204978', 'mgs': 0, 'flw2': 0.18, 'flw1': 2.34, 'flw0': 0.0, 'time': 33.64, 'compass': -6.22, 'pitch': -5.25, 'roll': 1.4}
{'lipoC2': 7.98, 'temp': 0.0, 'lipoC3S3': 12.22, 'state': 'normal', 'rot1': 26, 'rot0': 18, 'rot3': 57, 'rot2': 76, 'depth': 1.767, 'yaw': -119.27, 'datetime': '2018-12-12 10:56:31.413351', 'mgs': 0, 'flw2': 0.0, 'flw1': 2.08, 'flw0': 0.0, 'time': 33.85, 'compass': -5.65, 'pitch': -5.32, 'roll': 1.53}
{'lipoC2': 8.2, 'temp': 0.0, 'lipoC3S3': 12.0, 'state': 'normal', 'rot1': 26, 'rot0': 18, 'rot3': 57, 'rot2': 77, 'depth': -0.064, 'yaw': -118.68, 'datetime': '2018-12-12 10:56:31.623286', 'mgs': 0, 'flw2': 0.0, 'flw1': 3.05, 'flw0': 0.0, 'time': 34.06, 'compass': -5.05, 'pitch': -4.92, 'roll': 1.67}
{'lipoC2': 8.16, 'temp': 0.0, 'lipoC3S3': 12.05, 'state': 'normal', 'rot1': 26, 'rot0': 18, 'rot3': 58, 'rot2': 78, 'depth': -0.751, 'yaw': -118.04, 'datetime': '2018-12-12 10:56:31.832991', 'mgs': 0, 'flw2': 0.11, 'flw1': 2.43, 'flw0': 0.0, 'time': 34.26, 'compass': -4.42, 'pitch': -4.58, 'roll': 1.55}
{'lipoC2': 8.19, 'temp': 0.0, 'lipoC3S3': 12.05, 'state': 'normal', 'rot1': 26, 'rot0': 18, 'rot3': 59, 'rot2': 79, 'depth': -1.132, 'yaw': -117.35, 'datetime': '2018-12-12 10:56:32.043933', 'mgs': 0, 'flw2': 0.18, 'flw1': 2.55, 'flw0': 0.0, 'time': 34.47, 'compass': -3.73, 'pitch': -4.38, 'roll': 1.5}
{'lipoC2': 8.17, 'temp': 0.0, 'lipoC3S3': 11.98, 'state': 'normal', 'rot1': 26, 'rot0': 18, 'rot3': 60, 'rot2': 80, 'depth': 0.699, 'yaw': -116.73, 'datetime': '2018-12-12 10:56:32.254481', 'mgs': 0, 'flw2': 0.0, 'flw1': 2.84, 'flw0': 0.0, 'time': 34.69, 'compass': -3.1, 'pitch': -3.94, 'roll': 1.52}
{'lipoC2': 8.2, 'temp': 0.0, 'lipoC3S3': 12.06, 'state': 'normal', 'rot1': 26, 'rot0': 18, 'rot3': 61, 'rot2': 82, 'depth': -0.598, 'yaw': -116.23, 'datetime': '2018-12-12 10:56:32.465330', 'mgs': 0, 'flw2': 0.0, 'flw1': 2.4, 'flw0': 0.0, 'time': 34.9, 'compass': -2.6, 'pitch': -3.58, 'roll': 1.71}
{'lipoC2': 8.19, 'temp': 0.0, 'lipoC3S3': 12.02, 'state': 'normal', 'rot1': 26, 'rot0': 18, 'rot3': 61, 'rot2': 83, 'depth': 0.546, 'yaw': -115.82, 'datetime': '2018-12-12 10:56:32.674950', 'mgs': 0, 'flw2': 0.0, 'flw1': 2.55, 'flw0': 0.0, 'time': 35.1, 'compass': -2.19, 'pitch': -3.48, 'roll': 1.83}
{'lipoC2': 8.09, 'temp': 0.0, 'lipoC3S3': 12.06, 'state': 'normal', 'rot1': 26, 'rot0': 18, 'rot3': 62, 'rot2': 84, 'depth': -0.674, 'yaw': -115.39, 'datetime': '2018-12-12 10:56:32.883660', 'mgs': 0, 'flw2': 0.0, 'flw1': 3.34, 'flw0': 0.0, 'time': 35.31, 'compass': -1.76, 'pitch': -2.94, 'roll': 1.64}
{'lipoC2': 8.05, 'temp': 0.0, 'lipoC3S3': 11.85, 'state': 'normal', 'rot1': 26, 'rot0': 18, 'rot3': 63, 'rot2': 85, 'depth': 2.301, 'yaw': -114.94, 'datetime': '2018-12-12 10:56:33.095069', 'mgs': 0, 'flw2': 0.0, 'flw1': 3.4, 'flw0': 0.0, 'time': 35.52, 'compass': -1.31, 'pitch': -1.91, 'roll': 1.39}
{'lipoC2': 7.95, 'temp': 0.0, 'lipoC3S3': 12.29, 'state': 'normal', 'rot1': 26, 'rot0': 18, 'rot3': 64, 'rot2': 86, 'depth': -0.293, 'yaw': -114.5, 'datetime': '2018-12-12 10:56:33.305776', 'mgs': 0, 'flw2': 0.0, 'flw1': 2.9, 'flw0': 0.0, 'time': 35.74, 'compass': -0.87, 'pitch': -1.91, 'roll': 1.38}
{'lipoC2': 7.99, 'temp': 0.0, 'lipoC3S3': 12.19, 'state': 'normal', 'rot1': 26, 'rot0': 18, 'rot3': 65, 'rot2': 87, 'depth': 1.538, 'yaw': -114.21, 'datetime': '2018-12-12 10:56:33.517146', 'mgs': 0, 'flw2': 0.0, 'flw1': 2.87, 'flw0': 0.0, 'time': 35.94, 'compass': -0.59, 'pitch': -2.99, 'roll': 1.5}
{'lipoC2': 8.24, 'temp': 0.0, 'lipoC3S3': 12.04, 'state': 'normal', 'rot1': 26, 'rot0': 18, 'rot3': 65, 'rot2': 88, 'depth': 0.165, 'yaw': -113.99, 'datetime': '2018-12-12 10:56:33.725808', 'mgs': 0, 'flw2': 0.0, 'flw1': 2.43, 'flw0': 0.0, 'time': 36.15, 'compass': -0.37, 'pitch': -3.69, 'roll': 1.6}
{'lipoC2': 7.98, 'temp': 0.0, 'lipoC3S3': 12.09, 'state': 'normal', 'rot1': 26, 'rot0': 18, 'rot3': 66, 'rot2': 89, 'depth': -0.14, 'yaw': -113.79, 'datetime': '2018-12-12 10:56:33.935897', 'mgs': 0, 'flw2': 0.0, 'flw1': 2.23, 'flw0': 0.01, 'time': 36.37, 'compass': -0.17, 'pitch': -3.69, 'roll': 1.72}
{'lipoC2': 8.01, 'temp': 0.0, 'lipoC3S3': 12.31, 'state': 'normal', 'rot1': 26, 'rot0': 18, 'rot3': 67, 'rot2': 90, 'depth': 1.004, 'yaw': -113.6, 'datetime': '2018-12-12 10:56:34.145828', 'mgs': 0, 'flw2': 0.02, 'flw1': 2.11, 'flw0': 0.0, 'time': 36.57, 'compass': 0.03, 'pitch': -3.54, 'roll': 1.89}
{'lipoC2': 8.04, 'temp': 0.0, 'lipoC3S3': 12.09, 'state': 'normal', 'rot1': 26, 'rot0': 18, 'rot3': 68, 'rot2': 91, 'depth': -0.293, 'yaw': -113.52, 'datetime': '2018-12-12 10:56:34.356083', 'mgs': 0, 'flw2': 0.0, 'flw1': 3.19, 'flw0': 0.0, 'time': 36.78, 'compass': 0.11, 'pitch': -3.22, 'roll': 1.89}
{'lipoC2': 8.26, 'temp': 0.0, 'lipoC3S3': 12.08, 'state': 'normal', 'rot1': 26, 'rot0': 18, 'rot3': 69, 'rot2': 92, 'depth': 0.623, 'yaw': -113.48, 'datetime': '2018-12-12 10:56:34.567445', 'mgs': 0, 'flw2': 0.0, 'flw1': 3.11, 'flw0': 0.0, 'time': 36.99, 'compass': 0.15, 'pitch': -2.9, 'roll': 1.52}
{'lipoC2': 7.95, 'temp': 0.0, 'lipoC3S3': 12.29, 'state': 'normal', 'rot1': 26, 'rot0': 18, 'rot3': 69, 'rot2': 93, 'depth': -0.446, 'yaw': -113.46, 'datetime': '2018-12-12 10:56:34.777972', 'mgs': 0, 'flw2': 0.26, 'flw1': 2.55, 'flw0': 0.32, 'time': 37.2, 'compass': 0.17, 'pitch': -3.06, 'roll': 1.21}
{'lipoC2': 8.05, 'temp': 0.0, 'lipoC3S3': 11.9, 'state': 'normal', 'rot1': 26, 'rot0': 18, 'rot3': 70, 'rot2': 94, 'depth': 2.301, 'yaw': -113.47, 'datetime': '2018-12-12 10:56:34.987080', 'mgs': 0, 'flw2': 0.0, 'flw1': 3.25, 'flw0': 0.0, 'time': 37.41, 'compass': 0.16, 'pitch': -3.43, 'roll': 1.5}
{'lipoC2': 8.04, 'temp': 0.0, 'lipoC3S3': 11.93, 'state': 'normal', 'rot1': 26, 'rot0': 18, 'rot3': 71, 'rot2': 96, 'depth': -0.14, 'yaw': -113.48, 'datetime': '2018-12-12 10:56:35.198053', 'mgs': 0, 'flw2': 0.31, 'flw1': 2.78, 'flw0': 0.27, 'time': 37.62, 'compass': 0.14, 'pitch': -3.42, 'roll': 1.97}
{'lipoC2': 7.99, 'temp': 0.0, 'lipoC3S3': 12.02, 'state': 'normal', 'rot1': 26, 'rot0': 18, 'rot3': 72, 'rot2': 97, 'depth': -0.14, 'yaw': -113.47, 'datetime': '2018-12-12 10:56:35.407511', 'mgs': 0, 'flw2': 0.2, 'flw1': 2.61, 'flw0': 0.24, 'time': 37.83, 'compass': 0.15, 'pitch': -3.13, 'roll': 1.81}
{'lipoC2': 8.11, 'temp': 0.0, 'lipoC3S3': 12.02, 'state': 'normal', 'rot1': 26, 'rot0': 18, 'rot3': 73, 'rot2': 98, 'depth': -0.674, 'yaw': -113.53, 'datetime': '2018-12-12 10:56:35.618921', 'mgs': 0, 'flw2': 0.0, 'flw1': 3.34, 'flw0': 0.0, 'time': 38.04, 'compass': 0.1, 'pitch': -2.71, 'roll': 1.33}
{'lipoC2': 7.94, 'temp': 0.0, 'lipoC3S3': 12.25, 'state': 'normal', 'rot1': 26, 'rot0': 18, 'rot3': 73, 'rot2': 99, 'depth': -0.446, 'yaw': -113.72, 'datetime': '2018-12-12 10:56:35.828911', 'mgs': 0, 'flw2': 0.0, 'flw1': 2.43, 'flw0': 0.21, 'time': 38.25, 'compass': -0.09, 'pitch': -2.36, 'roll': 1.22}
{'lipoC2': 8.1, 'temp': 0.0, 'lipoC3S3': 12.08, 'state': 'normal', 'rot1': 26, 'rot0': 18, 'rot3': 74, 'rot2': 100, 'depth': -0.598, 'yaw': -113.92, 'datetime': '2018-12-12 10:56:36.038150', 'mgs': 0, 'flw2': 0.0, 'flw1': 3.81, 'flw0': 0.0, 'time': 38.46, 'compass': -0.3, 'pitch': -2.49, 'roll': 1.35}
{'lipoC2': 7.98, 'temp': 0.0, 'lipoC3S3': 12.12, 'state': 'normal', 'rot1': 26, 'rot0': 18, 'rot3': 75, 'rot2': 101, 'depth': 1.691, 'yaw': -114.15, 'datetime': '2018-12-12 10:56:36.249180', 'mgs': 0, 'flw2': 0.04, 'flw1': 2.2, 'flw0': 0.12, 'time': 38.67, 'compass': -0.53, 'pitch': -3.07, 'roll': 1.4}
{'lipoC2': 7.99, 'temp': 0.0, 'lipoC3S3': 12.09, 'state': 'normal', 'rot1': 26, 'rot0': 18, 'rot3': 76, 'rot2': 102, 'depth': -0.14, 'yaw': -114.42, 'datetime': '2018-12-12 10:56:36.458229', 'mgs': 0, 'flw2': 0.0, 'flw1': 2.37, 'flw0': 0.09, 'time': 38.88, 'compass': -0.8, 'pitch': -3.18, 'roll': 1.23}
{'lipoC2': 8.23, 'temp': 0.0, 'lipoC3S3': 12.01, 'state': 'normal', 'rot1': 26, 'rot0': 18, 'rot3': 76, 'rot2': 103, 'depth': 0.012, 'yaw': -114.73, 'datetime': '2018-12-12 10:56:36.669026', 'mgs': 0, 'flw2': 0.31, 'flw1': 2.84, 'flw0': 0.16, 'time': 39.09, 'compass': -1.1, 'pitch': -2.75, 'roll': 1.23}
{'lipoC2': 8.26, 'temp': 0.0, 'lipoC3S3': 12.38, 'state': 'normal', 'rot1': 26, 'rot0': 18, 'rot3': 77, 'rot2': 104, 'depth': -1.208, 'yaw': -115.04, 'datetime': '2018-12-12 10:56:36.880618', 'mgs': 0, 'flw2': 0.0, 'flw1': 2.14, 'flw0': 0.0, 'time': 39.3, 'compass': -1.41, 'pitch': -2.58, 'roll': 1.41}
{'lipoC2': 8.07, 'temp': 0.0, 'lipoC3S3': 11.9, 'state': 'normal', 'rot1': 26, 'rot0': 18, 'rot3': 78, 'rot2': 105, 'depth': 1.996, 'yaw': -115.37, 'datetime': '2018-12-12 10:56:37.090028', 'mgs': 0, 'flw2': 0.28, 'flw1': 2.7, 'flw0': 0.31, 'time': 39.51, 'compass': -1.74, 'pitch': -2.81, 'roll': 1.44}
{'lipoC2': 8.11, 'temp': 0.0, 'lipoC3S3': 11.92, 'state': 'normal', 'rot1': 26, 'rot0': 18, 'rot3': 79, 'rot2': 106, 'depth': 1.92, 'yaw': -115.75, 'datetime': '2018-12-12 10:56:37.301543', 'mgs': 0, 'flw2': 0.31, 'flw1': 2.67, 'flw0': 0.29, 'time': 39.72, 'compass': -2.12, 'pitch': -3.06, 'roll': 1.34}
{'lipoC2': 8.25, 'temp': 0.0, 'lipoC3S3': 12.39, 'state': 'normal', 'rot1': 26, 'rot0': 18, 'rot3': 80, 'rot2': 107, 'depth': -0.674, 'yaw': -116.15, 'datetime': '2018-12-12 10:56:37.511044', 'mgs': 0, 'flw2': 0.0, 'flw1': 2.46, 'flw0': 0.0, 'time': 39.93, 'compass': -2.53, 'pitch': -3.6, 'roll': 1.31}
{'lipoC2': 8.06, 'temp': 0.0, 'lipoC3S3': 12.39, 'state': 'normal', 'rot1': 26, 'rot0': 18, 'rot3': 80, 'rot2': 108, 'depth': 2.454, 'yaw': -116.55, 'datetime': '2018-12-12 10:56:37.720983', 'mgs': 0, 'flw2': 0.0, 'flw1': 2.26, 'flw0': 0.0, 'time': 40.14, 'compass': -2.92, 'pitch': -3.93, 'roll': 1.4}
{'lipoC2': 8.21, 'temp': 0.0, 'lipoC3S3': 12.05, 'state': 'normal', 'rot1': 26, 'rot0': 18, 'rot3': 81, 'rot2': 110, 'depth': -1.285, 'yaw': -116.97, 'datetime': '2018-12-12 10:56:37.931490', 'mgs': 0, 'flw2': 0.2, 'flw1': 2.61, 'flw0': 0.0, 'time': 40.35, 'compass': -3.34, 'pitch': -3.32, 'roll': 1.52}
{'lipoC2': 8.01, 'temp': 0.0, 'lipoC3S3': 12.41, 'state': 'normal', 'rot1': 26, 'rot0': 18, 'rot3': 82, 'rot2': 111, 'depth': -0.98, 'yaw': -117.34, 'datetime': '2018-12-12 10:56:38.142720', 'mgs': 0, 'flw2': 0.23, 'flw1': 2.72, 'flw0': 0.02, 'time': 40.56, 'compass': -3.72, 'pitch': -2.52, 'roll': 1.63}
{'lipoC2': 7.95, 'temp': 0.0, 'lipoC3S3': 12.34, 'state': 'normal', 'rot1': 26, 'rot0': 18, 'rot3': 83, 'rot2': 112, 'depth': -0.674, 'yaw': -117.72, 'datetime': '2018-12-12 10:56:38.352186', 'mgs': 0, 'flw2': 0.13, 'flw1': 2.49, 'flw0': 0.28, 'time': 40.77, 'compass': -4.09, 'pitch': -2.61, 'roll': 1.7}
{'lipoC2': 8.08, 'temp': 0.0, 'lipoC3S3': 11.93, 'state': 'normal', 'rot1': 26, 'rot0': 18, 'rot3': 84, 'rot2': 113, 'depth': -0.369, 'yaw': -118.16, 'datetime': '2018-12-12 10:56:38.563155', 'mgs': 0, 'flw2': 0.29, 'flw1': 2.93, 'flw0': 0.28, 'time': 40.98, 'compass': -4.53, 'pitch': -3.1, 'roll': 1.78}
{'lipoC2': 8.0, 'temp': 0.0, 'lipoC3S3': 11.92, 'state': 'normal', 'rot1': 26, 'rot0': 18, 'rot3': 84, 'rot2': 114, 'depth': -0.369, 'yaw': -118.58, 'datetime': '2018-12-12 10:56:38.771992', 'mgs': 0, 'flw2': 0.06, 'flw1': 2.23, 'flw0': 0.24, 'time': 41.19, 'compass': -4.96, 'pitch': -3.42, 'roll': 1.66}
{'lipoC2': 8.11, 'temp': 0.0, 'lipoC3S3': 12.08, 'state': 'normal', 'rot1': 26, 'rot0': 18, 'rot3': 85, 'rot2': 115, 'depth': -0.522, 'yaw': -118.91, 'datetime': '2018-12-12 10:56:38.982426', 'mgs': 0, 'flw2': 0.0, 'flw1': 2.46, 'flw0': 0.04, 'time': 41.4, 'compass': -5.29, 'pitch': -3.39, 'roll': 1.43}
{'lipoC2': 7.99, 'temp': 0.0, 'lipoC3S3': 11.94, 'state': 'normal', 'rot1': 26, 'rot0': 18, 'rot3': 86, 'rot2': 116, 'depth': -0.293, 'yaw': -119.29, 'datetime': '2018-12-12 10:56:39.192172', 'mgs': 0, 'flw2': 0.0, 'flw1': 3.54, 'flw0': 0.0, 'time': 41.61, 'compass': -5.66, 'pitch': -3.31, 'roll': 1.23}
{'lipoC2': 7.99, 'temp': 0.0, 'lipoC3S3': 12.17, 'state': 'normal', 'rot1': 26, 'rot0': 18, 'rot3': 87, 'rot2': 117, 'depth': -0.064, 'yaw': -119.68, 'datetime': '2018-12-12 10:56:39.403876', 'mgs': 0, 'flw2': 0.2, 'flw1': 2.55, 'flw0': 0.0, 'time': 41.82, 'compass': -6.05, 'pitch': -3.39, 'roll': 1.22}
{'lipoC2': 8.25, 'temp': 0.0, 'lipoC3S3': 12.08, 'state': 'normal', 'rot1': 26, 'rot0': 18, 'rot3': 87, 'rot2': 118, 'depth': -0.751, 'yaw': -120.03, 'datetime': '2018-12-12 10:56:39.613557', 'mgs': 0, 'flw2': 0.0, 'flw1': 3.28, 'flw0': 0.0, 'time': 42.03, 'compass': -6.4, 'pitch': -3.73, 'roll': 1.42}
{'lipoC2': 8.0, 'temp': 0.0, 'lipoC3S3': 11.92, 'state': 'normal', 'rot1': 26, 'rot0': 18, 'rot3': 88, 'rot2': 119, 'depth': 2.606, 'yaw': -120.26, 'datetime': '2018-12-12 10:56:39.823900', 'mgs': 0, 'flw2': 0.26, 'flw1': 2.72, 'flw0': 0.31, 'time': 42.24, 'compass': -6.63, 'pitch': -3.72, 'roll': 1.76}
{'lipoC2': 8.05, 'temp': 0.0, 'lipoC3S3': 12.05, 'state': 'normal', 'rot1': 26, 'rot0': 18, 'rot3': 89, 'rot2': 120, 'depth': -0.293, 'yaw': -120.39, 'datetime': '2018-12-12 10:56:40.034097', 'mgs': 0, 'flw2': 0.0, 'flw1': 2.34, 'flw0': 0.0, 'time': 42.45, 'compass': -6.77, 'pitch': -3.09, 'roll': 2.19}
{'lipoC2': 8.22, 'temp': 0.0, 'lipoC3S3': 12.01, 'state': 'normal', 'rot1': 26, 'rot0': 18, 'rot3': 90, 'rot2': 121, 'depth': -0.293, 'yaw': -120.57, 'datetime': '2018-12-12 10:56:40.243795', 'mgs': 0, 'flw2': 0.0, 'flw1': 3.16, 'flw0': 0.0, 'time': 42.66, 'compass': -6.94, 'pitch': -2.38, 'roll': 2.44}
