{'lipoC2': 0.0, 'temp': 0.0, 'lipoC3S3': 12.51, 'state': 'normal', 'rot1': 0, 'rot0': 0, 'rot3': 0, 'rot2': 0, 'depth': -0.064, 'yaw': 0.0, 'datetime': '2018-12-18 16:59:24.442489', 'mgs': 0, 'flw2': 0.13, 'flw1': 0.0, 'flw0': 0.0, 'time': 1.25, 'compass': -39.04, 'pitch': 1.61, 'roll': 1.27}
{'lipoC2': 0.02, 'temp': 0.0, 'lipoC3S3': 12.38, 'state': 'normal', 'rot1': 0, 'rot0': 0, 'rot3': 0, 'rot2': 0, 'depth': 0.089, 'yaw': -0.0, 'datetime': '2018-12-18 16:59:24.652994', 'mgs': 0, 'flw2': 0.22, 'flw1': 0.0, 'flw0': 0.0, 'time': 1.46, 'compass': -39.04, 'pitch': 1.49, 'roll': 1.28}
{'lipoC2': 0.15, 'temp': 0.0, 'lipoC3S3': 12.37, 'state': 'normal', 'rot1': 0, 'rot0': 0, 'rot3': 0, 'rot2': 0, 'depth': 1.233, 'yaw': -0.01, 'datetime': '2018-12-18 16:59:24.855068', 'mgs': 0, 'flw2': 0.0, 'flw1': 0.0, 'flw0': 0.18, 'time': 1.67, 'compass': -39.05, 'pitch': 1.37, 'roll': 1.15}
{'lipoC2': 0.09, 'temp': 0.0, 'lipoC3S3': 12.55, 'state': 'normal', 'rot1': 0, 'rot0': 0, 'rot3': 0, 'rot2': 0, 'depth': -1.971, 'yaw': -0.01, 'datetime': '2018-12-18 16:59:25.063330', 'mgs': 0, 'flw2': 0.16, 'flw1': 0.0, 'flw0': 0.0, 'time': 1.88, 'compass': -39.05, 'pitch': 1.35, 'roll': 1.0}
{'lipoC2': 0.13, 'temp': 0.0, 'lipoC3S3': 12.46, 'state': 'normal', 'rot1': 0, 'rot0': 0, 'rot3': 0, 'rot2': 0, 'depth': 1.843, 'yaw': -0.01, 'datetime': '2018-12-18 16:59:25.271356', 'mgs': 0, 'flw2': 0.13, 'flw1': 0.35, 'flw0': 0.0, 'time': 2.09, 'compass': -39.05, 'pitch': 1.39, 'roll': 0.98}
{'lipoC2': 0.11, 'temp': 0.0, 'lipoC3S3': 12.51, 'state': 'normal', 'rot1': 0, 'rot0': 0, 'rot3': 0, 'rot2': 0, 'depth': -1.895, 'yaw': -0.01, 'datetime': '2018-12-18 16:59:25.482300', 'mgs': 0, 'flw2': 0.07, 'flw1': 0.0, 'flw0': 0.12, 'time': 2.29, 'compass': -39.05, 'pitch': 1.43, 'roll': 1.04}
{'lipoC2': 0.0, 'temp': 0.0, 'lipoC3S3': 12.7, 'state': 'normal', 'rot1': 0, 'rot0': 0, 'rot3': 0, 'rot2': 0, 'depth': 1.767, 'yaw': -0.01, 'datetime': '2018-12-18 16:59:25.688025', 'mgs': 0, 'flw2': 0.0, 'flw1': 0.21, 'flw0': 0.17, 'time': 2.5, 'compass': -39.05, 'pitch': 1.69, 'roll': 1.29}
{'lipoC2': 0.14, 'temp': 0.0, 'lipoC3S3': 12.33, 'state': 'normal', 'rot1': 0, 'rot0': 0, 'rot3': 0, 'rot2': 0, 'depth': 1.004, 'yaw': -0.01, 'datetime': '2018-12-18 16:59:25.896462', 'mgs': 0, 'flw2': 0.11, 'flw1': 0.26, 'flw0': 0.0, 'time': 2.71, 'compass': -39.05, 'pitch': 1.75, 'roll': 1.38}
{'lipoC2': 0.0, 'temp': 0.0, 'lipoC3S3': 12.63, 'state': 'normal', 'rot1': 0, 'rot0': 0, 'rot3': 0, 'rot2': 0, 'depth': 1.462, 'yaw': -0.0, 'datetime': '2018-12-18 16:59:26.106429', 'mgs': 0, 'flw2': 0.0, 'flw1': 0.35, 'flw0': 0.06, 'time': 2.92, 'compass': -39.04, 'pitch': 1.41, 'roll': 1.38}
{'lipoC2': 0.14, 'temp': 0.0, 'lipoC3S3': 12.47, 'state': 'normal', 'rot1': 0, 'rot0': 0, 'rot3': 0, 'rot2': 0, 'depth': -1.285, 'yaw': -0.0, 'datetime': '2018-12-18 16:59:26.315673', 'mgs': 0, 'flw2': 0.01, 'flw1': 0.0, 'flw0': 0.16, 'time': 3.13, 'compass': -39.04, 'pitch': 1.06, 'roll': 1.37}
{'lipoC2': 0.1, 'temp': 0.0, 'lipoC3S3': 12.68, 'state': 'normal', 'rot1': 0, 'rot0': 0, 'rot3': 0, 'rot2': 0, 'depth': 1.004, 'yaw': -0.0, 'datetime': '2018-12-18 16:59:26.520440', 'mgs': 0, 'flw2': 0.2, 'flw1': 0.03, 'flw0': 0.0, 'time': 3.33, 'compass': -39.04, 'pitch': 1.28, 'roll': 1.34}
{'lipoC2': 0.13, 'temp': 0.0, 'lipoC3S3': 12.47, 'state': 'normal', 'rot1': 0, 'rot0': 0, 'rot3': 0, 'rot2': 0, 'depth': -1.59, 'yaw': -0.01, 'datetime': '2018-12-18 16:59:26.730285', 'mgs': 0, 'flw2': 0.13, 'flw1': 0.26, 'flw0': 0.15, 'time': 3.54, 'compass': -39.05, 'pitch': 1.7, 'roll': 1.34}
{'lipoC2': 0.04, 'temp': 0.0, 'lipoC3S3': 12.34, 'state': 'normal', 'rot1': 0, 'rot0': 0, 'rot3': 0, 'rot2': 0, 'depth': 0.317, 'yaw': -0.01, 'datetime': '2018-12-18 16:59:26.935389', 'mgs': 0, 'flw2': 0.0, 'flw1': 0.21, 'flw0': 0.17, 'time': 3.75, 'compass': -39.05, 'pitch': 1.82, 'roll': 1.34}
{'lipoC2': 0.13, 'temp': 0.0, 'lipoC3S3': 12.5, 'state': 'normal', 'rot1': 0, 'rot0': 0, 'rot3': 0, 'rot2': 0, 'depth': -1.361, 'yaw': -0.01, 'datetime': '2018-12-18 16:59:27.144819', 'mgs': 0, 'flw2': 0.0, 'flw1': 0.41, 'flw0': 0.0, 'time': 3.96, 'compass': -39.05, 'pitch': 1.63, 'roll': 1.34}
{'lipoC2': 0.0, 'temp': 0.0, 'lipoC3S3': 12.55, 'state': 'normal', 'rot1': 0, 'rot0': 0, 'rot3': 0, 'rot2': 0, 'depth': 0.699, 'yaw': -0.01, 'datetime': '2018-12-18 16:59:27.355728', 'mgs': 0, 'flw2': 0.0, 'flw1': 0.41, 'flw0': 0.0, 'time': 4.16, 'compass': -39.05, 'pitch': 1.47, 'roll': 1.34}
{'lipoC2': 0.01, 'temp': 0.0, 'lipoC3S3': 12.42, 'state': 'normal', 'rot1': 0, 'rot0': 0, 'rot3': 0, 'rot2': 0, 'depth': -0.14, 'yaw': -0.01, 'datetime': '2018-12-18 16:59:27.563589', 'mgs': 0, 'flw2': 0.2, 'flw1': 0.0, 'flw0': 0.0, 'time': 4.37, 'compass': -39.05, 'pitch': 1.54, 'roll': 1.36}
{'lipoC2': 0.06, 'temp': 0.0, 'lipoC3S3': 12.31, 'state': 'normal', 'rot1': 0, 'rot0': 0, 'rot3': 0, 'rot2': 0, 'depth': 0.47, 'yaw': -0.01, 'datetime': '2018-12-18 16:59:27.778161', 'mgs': 0, 'flw2': 0.0, 'flw1': 0.12, 'flw0': 0.2, 'time': 4.58, 'compass': -39.05, 'pitch': 1.66, 'roll': 1.41}
{'lipoC2': 0.0, 'temp': 0.0, 'lipoC3S3': 12.7, 'state': 'normal', 'rot1': 0, 'rot0': 0, 'rot3': 0, 'rot2': 0, 'depth': 1.614, 'yaw': -0.01, 'datetime': '2018-12-18 16:59:27.980712', 'mgs': 0, 'flw2': 0.05, 'flw1': 0.41, 'flw0': 0.0, 'time': 4.79, 'compass': -39.05, 'pitch': 1.61, 'roll': 1.42}
{'lipoC2': 0.14, 'temp': 0.0, 'lipoC3S3': 12.38, 'state': 'normal', 'rot1': 0, 'rot0': 0, 'rot3': 0, 'rot2': 0, 'depth': -0.293, 'yaw': -0.01, 'datetime': '2018-12-18 16:59:28.185990', 'mgs': 0, 'flw2': 0.0, 'flw1': 0.0, 'flw0': 0.2, 'time': 4.99, 'compass': -39.05, 'pitch': 1.42, 'roll': 1.51}
{'lipoC2': 0.04, 'temp': 0.0, 'lipoC3S3': 12.33, 'state': 'normal', 'rot1': 0, 'rot0': 0, 'rot3': 0, 'rot2': 0, 'depth': 1.385, 'yaw': -0.02, 'datetime': '2018-12-18 16:59:28.393355', 'mgs': 0, 'flw2': 0.18, 'flw1': 0.03, 'flw0': 0.0, 'time': 5.2, 'compass': -39.06, 'pitch': 1.3, 'roll': 1.57}
{'lipoC2': 0.02, 'temp': 0.0, 'lipoC3S3': 12.6, 'state': 'normal', 'rot1': 0, 'rot0': 0, 'rot3': 0, 'rot2': 0, 'depth': -1.514, 'yaw': -0.02, 'datetime': '2018-12-18 16:59:28.604097', 'mgs': 0, 'flw2': 0.0, 'flw1': 0.44, 'flw0': 0.05, 'time': 5.41, 'compass': -39.06, 'pitch': 1.24, 'roll': 1.58}
{'lipoC2': 0.03, 'temp': 0.0, 'lipoC3S3': 12.38, 'state': 'normal', 'rot1': 0, 'rot0': 0, 'rot3': 0, 'rot2': 0, 'depth': 0.317, 'yaw': -0.02, 'datetime': '2018-12-18 16:59:28.811001', 'mgs': 0, 'flw2': 0.17, 'flw1': 0.0, 'flw0': 0.0, 'time': 5.62, 'compass': -39.06, 'pitch': 1.35, 'roll': 1.48}
{'lipoC2': 0.0, 'temp': 0.0, 'lipoC3S3': 12.31, 'state': 'normal', 'rot1': 0, 'rot0': 0, 'rot3': 0, 'rot2': 0, 'depth': -0.674, 'yaw': -0.02, 'datetime': '2018-12-18 16:59:29.020166', 'mgs': 0, 'flw2': 0.0, 'flw1': 0.0, 'flw0': 0.21, 'time': 5.83, 'compass': -39.06, 'pitch': 1.41, 'roll': 1.48}
{'lipoC2': 0.11, 'temp': 0.0, 'lipoC3S3': 12.52, 'state': 'normal', 'rot1': 0, 'rot0': 0, 'rot3': 0, 'rot2': 0, 'depth': 1.843, 'yaw': -0.02, 'datetime': '2018-12-18 16:59:29.227037', 'mgs': 0, 'flw2': 0.0, 'flw1': 0.44, 'flw0': 0.0, 'time': 6.04, 'compass': -39.06, 'pitch': 1.53, 'roll': 1.49}
{'lipoC2': 0.11, 'temp': 0.0, 'lipoC3S3': 12.29, 'state': 'normal', 'rot1': 0, 'rot0': 0, 'rot3': 0, 'rot2': 0, 'depth': 0.623, 'yaw': -0.02, 'datetime': '2018-12-18 16:59:29.438813', 'mgs': 0, 'flw2': 0.13, 'flw1': 0.23, 'flw0': 0.0, 'time': 6.24, 'compass': -39.06, 'pitch': 1.58, 'roll': 1.56}
{'lipoC2': 0.0, 'temp': 0.0, 'lipoC3S3': 12.7, 'state': 'normal', 'rot1': 0, 'rot0': 0, 'rot3': 0, 'rot2': 0, 'depth': 1.691, 'yaw': -0.02, 'datetime': '2018-12-18 16:59:29.643096', 'mgs': 0, 'flw2': 0.0, 'flw1': 0.29, 'flw0': 0.13, 'time': 6.45, 'compass': -39.06, 'pitch': 1.59, 'roll': 1.65}
{'lipoC2': 0.13, 'temp': 0.0, 'lipoC3S3': 12.47, 'state': 'normal', 'rot1': 0, 'rot0': 0, 'rot3': 0, 'rot2': 0, 'depth': -1.285, 'yaw': -0.02, 'datetime': '2018-12-18 16:59:29.850926', 'mgs': 0, 'flw2': 0.04, 'flw1': 0.41, 'flw0': 0.0, 'time': 6.66, 'compass': -39.06, 'pitch': 1.58, 'roll': 1.65}
{'lipoC2': 0.08, 'temp': 0.0, 'lipoC3S3': 12.55, 'state': 'normal', 'rot1': 0, 'rot0': 0, 'rot3': 0, 'rot2': 0, 'depth': -1.895, 'yaw': -0.02, 'datetime': '2018-12-18 16:59:30.059073', 'mgs': 0, 'flw2': 0.0, 'flw1': 0.44, 'flw0': 0.0, 'time': 6.86, 'compass': -39.06, 'pitch': 1.59, 'roll': 1.45}
{'lipoC2': 0.0, 'temp': 0.0, 'lipoC3S3': 12.62, 'state': 'normal', 'rot1': 0, 'rot0': 0, 'rot3': 0, 'rot2': 0, 'depth': 1.538, 'yaw': -0.03, 'datetime': '2018-12-18 16:59:30.269846', 'mgs': 0, 'flw2': 0.21, 'flw1': 0.0, 'flw0': 0.0, 'time': 7.07, 'compass': -39.07, 'pitch': 1.59, 'roll': 1.38}
{'lipoC2': 0.14, 'temp': 0.0, 'lipoC3S3': 12.42, 'state': 'normal', 'rot1': 0, 'rot0': 0, 'rot3': 0, 'rot2': 0, 'depth': -0.827, 'yaw': -0.02, 'datetime': '2018-12-18 16:59:30.479467', 'mgs': 0, 'flw2': 0.07, 'flw1': 0.38, 'flw0': 0.0, 'time': 7.28, 'compass': -39.06, 'pitch': 1.6, 'roll': 1.42}
{'lipoC2': 0.0, 'temp': 0.0, 'lipoC3S3': 12.31, 'state': 'normal', 'rot1': 0, 'rot0': 0, 'rot3': 0, 'rot2': 0, 'depth': -0.598, 'yaw': -0.02, 'datetime': '2018-12-18 16:59:30.689595', 'mgs': 0, 'flw2': 0.0, 'flw1': 0.0, 'flw0': 0.21, 'time': 7.49, 'compass': -39.06, 'pitch': 1.59, 'roll': 1.42}
{'lipoC2': 0.1, 'temp': 0.0, 'lipoC3S3': 12.54, 'state': 'normal', 'rot1': 0, 'rot0': 0, 'rot3': 0, 'rot2': 0, 'depth': -1.819, 'yaw': -0.02, 'datetime': '2018-12-18 16:59:30.897481', 'mgs': 0, 'flw2': 0.0, 'flw1': 0.44, 'flw0': 0.0, 'time': 7.7, 'compass': -39.06, 'pitch': 1.57, 'roll': 1.42}
{'lipoC2': 0.12, 'temp': 0.0, 'lipoC3S3': 12.51, 'state': 'normal', 'rot1': 0, 'rot0': 0, 'rot3': 0, 'rot2': 0, 'depth': 1.691, 'yaw': -0.03, 'datetime': '2018-12-18 16:59:31.100559', 'mgs': 0, 'flw2': 0.0, 'flw1': 0.44, 'flw0': 0.01, 'time': 7.91, 'compass': -39.07, 'pitch': 1.65, 'roll': 1.42}
{'lipoC2': 0.0, 'temp': 0.0, 'lipoC3S3': 12.63, 'state': 'normal', 'rot1': 0, 'rot0': 0, 'rot3': 0, 'rot2': 0, 'depth': 1.462, 'yaw': -0.03, 'datetime': '2018-12-18 16:59:31.311360', 'mgs': 0, 'flw2': 0.0, 'flw1': 0.38, 'flw0': 0.06, 'time': 8.11, 'compass': -39.07, 'pitch': 1.86, 'roll': 1.42}
{'lipoC2': 0.02, 'temp': 0.0, 'lipoC3S3': 12.38, 'state': 'normal', 'rot1': 0, 'rot0': 0, 'rot3': 0, 'rot2': 0, 'depth': 0.012, 'yaw': -0.03, 'datetime': '2018-12-18 16:59:31.517788', 'mgs': 0, 'flw2': 0.0, 'flw1': 0.26, 'flw0': 0.11, 'time': 8.32, 'compass': -39.07, 'pitch': 1.92, 'roll': 1.42}
{'lipoC2': 0.02, 'temp': 0.0, 'lipoC3S3': 12.39, 'state': 'normal', 'rot1': 0, 'rot0': 0, 'rot3': 0, 'rot2': 0, 'depth': 0.089, 'yaw': -0.03, 'datetime': '2018-12-18 16:59:31.724466', 'mgs': 0, 'flw2': 0.0, 'flw1': 0.32, 'flw0': 0.11, 'time': 8.53, 'compass': -39.07, 'pitch': 1.92, 'roll': 1.42}
{'lipoC2': 0.0, 'temp': 0.0, 'lipoC3S3': 12.51, 'state': 'normal', 'rot1': 0, 'rot0': 0, 'rot3': 0, 'rot2': 0, 'depth': 0.394, 'yaw': -0.03, 'datetime': '2018-12-18 16:59:31.937655', 'mgs': 0, 'flw2': 0.05, 'flw1': 0.0, 'flw0': 0.12, 'time': 8.73, 'compass': -39.07, 'pitch': 1.94, 'roll': 1.42}
{'lipoC2': 0.11, 'temp': 0.0, 'lipoC3S3': 12.29, 'state': 'normal', 'rot1': 0, 'rot0': 0, 'rot3': 0, 'rot2': 0, 'depth': 0.623, 'yaw': -0.02, 'datetime': '2018-12-18 16:59:32.139791', 'mgs': 0, 'flw2': 0.0, 'flw1': 0.0, 'flw0': 0.23, 'time': 8.94, 'compass': -39.06, 'pitch': 2.04, 'roll': 1.42}
{'lipoC2': 0.12, 'temp': 0.0, 'lipoC3S3': 12.5, 'state': 'normal', 'rot1': 0, 'rot0': 0, 'rot3': 0, 'rot2': 0, 'depth': -1.666, 'yaw': -0.02, 'datetime': '2018-12-18 16:59:32.353104', 'mgs': 0, 'flw2': 0.0, 'flw1': 0.41, 'flw0': 0.0, 'time': 9.15, 'compass': -39.06, 'pitch': 1.97, 'roll': 1.42}
{'lipoC2': 0.13, 'temp': 0.0, 'lipoC3S3': 12.47, 'state': 'normal', 'rot1': 0, 'rot0': 0, 'rot3': 0, 'rot2': 0, 'depth': 1.767, 'yaw': -0.04, 'datetime': '2018-12-18 16:59:32.555720', 'mgs': 0, 'flw2': 0.0, 'flw1': 0.0, 'flw0': 0.18, 'time': 9.36, 'compass': -39.08, 'pitch': 1.78, 'roll': 1.34}
{'lipoC2': 0.11, 'temp': 0.0, 'lipoC3S3': 12.3, 'state': 'normal', 'rot1': 0, 'rot0': 0, 'rot3': 0, 'rot2': 0, 'depth': 0.623, 'yaw': -0.04, 'datetime': '2018-12-18 16:59:32.765858', 'mgs': 0, 'flw2': 0.0, 'flw1': 0.12, 'flw0': 0.18, 'time': 9.57, 'compass': -39.08, 'pitch': 1.63, 'roll': 1.35}
{'lipoC2': 0.02, 'temp': 0.0, 'lipoC3S3': 12.38, 'state': 'normal', 'rot1': 0, 'rot0': 0, 'rot3': 0, 'rot2': 0, 'depth': 1.462, 'yaw': -0.04, 'datetime': '2018-12-18 16:59:32.978883', 'mgs': 0, 'flw2': 0.2, 'flw1': 0.0, 'flw0': 0.0, 'time': 9.77, 'compass': -39.08, 'pitch': 1.5, 'roll': 1.47}
{'lipoC2': 0.0, 'temp': 0.0, 'lipoC3S3': 12.39, 'state': 'normal', 'rot1': 0, 'rot0': 0, 'rot3': 0, 'rot2': 0, 'depth': 1.233, 'yaw': -0.03, 'datetime': '2018-12-18 16:59:33.185855', 'mgs': 0, 'flw2': 0.0, 'flw1': 0.0, 'flw0': 0.17, 'time': 9.98, 'compass': -39.07, 'pitch': 1.57, 'roll': 1.75}
{'lipoC2': 0.04, 'temp': 0.0, 'lipoC3S3': 12.59, 'state': 'normal', 'rot1': 0, 'rot0': 0, 'rot3': 0, 'rot2': 0, 'depth': -1.361, 'yaw': -0.03, 'datetime': '2018-12-18 16:59:33.491502', 'mgs': 0, 'flw2': 0.18, 'flw1': 0.0, 'flw0': 0.0, 'time': 10.29, 'compass': -39.07, 'pitch': 1.46, 'roll': 1.9}
{'lipoC2': 0.06, 'temp': 0.0, 'lipoC3S3': 12.31, 'state': 'normal', 'rot1': 0, 'rot0': 0, 'rot3': 0, 'rot2': 0, 'depth': 1.233, 'yaw': -0.04, 'datetime': '2018-12-18 16:59:33.700701', 'mgs': 0, 'flw2': 0.0, 'flw1': 0.26, 'flw0': 0.13, 'time': 10.5, 'compass': -39.08, 'pitch': 1.16, 'roll': 1.73}
{'lipoC2': 0.0, 'temp': 0.0, 'lipoC3S3': 12.63, 'state': 'normal', 'rot1': 0, 'rot0': 0, 'rot3': 0, 'rot2': 0, 'depth': 1.614, 'yaw': -0.05, 'datetime': '2018-12-18 16:59:33.912559', 'mgs': 0, 'flw2': 0.0, 'flw1': 0.41, 'flw0': 0.04, 'time': 10.71, 'compass': -39.09, 'pitch': 1.14, 'roll': 1.47}
{'lipoC2': 0.15, 'temp': 0.0, 'lipoC3S3': 12.35, 'state': 'normal', 'rot1': 0, 'rot0': 0, 'rot3': 0, 'rot2': 0, 'depth': -0.293, 'yaw': -0.04, 'datetime': '2018-12-18 16:59:34.118402', 'mgs': 0, 'flw2': 0.18, 'flw1': 0.06, 'flw0': 0.2, 'time': 10.92, 'compass': -39.08, 'pitch': 1.58, 'roll': 1.38}
{'lipoC2': 0.09, 'temp': 0.0, 'lipoC3S3': 12.54, 'state': 'normal', 'rot1': 0, 'rot0': 0, 'rot3': 0, 'rot2': 0, 'depth': 1.843, 'yaw': -0.04, 'datetime': '2018-12-18 16:59:34.327668', 'mgs': 0, 'flw2': 0.0, 'flw1': 0.41, 'flw0': 0.0, 'time': 11.13, 'compass': -39.08, 'pitch': 2.02, 'roll': 1.5}
{'lipoC2': 0.0, 'temp': 0.0, 'lipoC3S3': 12.51, 'state': 'normal', 'rot1': 0, 'rot0': 0, 'rot3': 0, 'rot2': 0, 'depth': 0.546, 'yaw': -0.03, 'datetime': '2018-12-18 16:59:34.533662', 'mgs': 0, 'flw2': 0.0, 'flw1': 0.38, 'flw0': 0.0, 'time': 11.33, 'compass': -39.07, 'pitch': 1.93, 'roll': 1.9}
{'lipoC2': 0.16, 'temp': 0.0, 'lipoC3S3': 12.37, 'state': 'normal', 'rot1': 0, 'rot0': 0, 'rot3': 0, 'rot2': 0, 'depth': -0.98, 'yaw': -0.02, 'datetime': '2018-12-18 16:59:34.740193', 'mgs': 0, 'flw2': 0.0, 'flw1': 0.0, 'flw0': 0.18, 'time': 11.54, 'compass': -39.06, 'pitch': 1.52, 'roll': 2.24}
{'lipoC2': 0.0, 'temp': 0.0, 'lipoC3S3': 12.71, 'state': 'normal', 'rot1': 0, 'rot0': 0, 'rot3': 0, 'rot2': 0, 'depth': 1.691, 'yaw': -0.02, 'datetime': '2018-12-18 16:59:34.949255', 'mgs': 0, 'flw2': 0.18, 'flw1': 0.0, 'flw0': 0.24, 'time': 11.75, 'compass': -39.06, 'pitch': 1.35, 'roll': 2.15}
{'lipoC2': 0.0, 'temp': 0.0, 'lipoC3S3': 12.64, 'state': 'normal', 'rot1': 1, 'rot0': 0, 'rot3': 0, 'rot2': 0, 'depth': 1.691, 'yaw': -0.61, 'datetime': '2018-12-18 16:59:35.156504', 'mgs': 0, 'flw2': 0.0, 'flw1': 0.29, 'flw0': 0.82, 'time': 11.96, 'compass': -39.65, 'pitch': 1.74, 'roll': 1.7}
{'lipoC2': 0.0, 'temp': 0.0, 'lipoC3S3': 12.55, 'state': 'normal', 'rot1': 3, 'rot0': 0, 'rot3': 0, 'rot2': 0, 'depth': -0.064, 'yaw': -2.11, 'datetime': '2018-12-18 16:59:35.365119', 'mgs': 0, 'flw2': 0.0, 'flw1': 0.41, 'flw0': 0.99, 'time': 12.16, 'compass': -41.15, 'pitch': 2.37, 'roll': 1.36}
{'lipoC2': 0.04, 'temp': 0.0, 'lipoC3S3': 12.34, 'state': 'normal', 'rot1': 5, 'rot0': 0, 'rot3': 0, 'rot2': 0, 'depth': 0.394, 'yaw': -5.05, 'datetime': '2018-12-18 16:59:35.574651', 'mgs': 0, 'flw2': 0.23, 'flw1': 0.26, 'flw0': 3.33, 'time': 12.37, 'compass': -44.09, 'pitch': 2.96, 'roll': 1.24}
{'lipoC2': 0.0, 'temp': 0.0, 'lipoC3S3': 12.66, 'state': 'normal', 'rot1': 7, 'rot0': 0, 'rot3': 0, 'rot2': 0, 'depth': 1.538, 'yaw': -10.53, 'datetime': '2018-12-18 16:59:35.781922', 'mgs': 0, 'flw2': 0.0, 'flw1': 0.29, 'flw0': 3.3, 'time': 12.58, 'compass': -49.57, 'pitch': 3.9, 'roll': 1.16}
{'lipoC2': 0.0, 'temp': 0.0, 'lipoC3S3': 12.6, 'state': 'normal', 'rot1': 10, 'rot0': 1, 'rot3': 0, 'rot2': 0, 'depth': 1.309, 'yaw': -18.19, 'datetime': '2018-12-18 16:59:35.990838', 'mgs': 0, 'flw2': 2.7, 'flw1': 0.38, 'flw0': 3.21, 'time': 12.79, 'compass': -57.23, 'pitch': 4.33, 'roll': 1.37}
{'lipoC2': 0.0, 'temp': 0.0, 'lipoC3S3': 12.63, 'state': 'normal', 'rot1': 13, 'rot0': 3, 'rot3': 0, 'rot2': 0, 'depth': 1.614, 'yaw': -24.27, 'datetime': '2018-12-18 16:59:36.198039', 'mgs': 0, 'flw2': 2.64, 'flw1': 0.44, 'flw0': 3.06, 'time': 12.99, 'compass': -63.31, 'pitch': 5.05, 'roll': 1.79}
{'lipoC2': 0.04, 'temp': 0.0, 'lipoC3S3': 12.33, 'state': 'normal', 'rot1': 15, 'rot0': 6, 'rot3': 0, 'rot2': 0, 'depth': 0.47, 'yaw': -28.98, 'datetime': '2018-12-18 16:59:36.405866', 'mgs': 0, 'flw2': 3.04, 'flw1': 0.0, 'flw0': 2.92, 'time': 13.2, 'compass': -68.02, 'pitch': 5.75, 'roll': 2.12}
{'lipoC2': 0.06, 'temp': 0.0, 'lipoC3S3': 12.56, 'state': 'normal', 'rot1': 17, 'rot0': 9, 'rot3': 0, 'rot2': 0, 'depth': -1.59, 'yaw': -32.56, 'datetime': '2018-12-18 16:59:36.615485', 'mgs': 0, 'flw2': 3.03, 'flw1': 0.0, 'flw0': 3.15, 'time': 13.41, 'compass': -71.6, 'pitch': 5.9, 'roll': 2.23}
{'lipoC2': 0.0, 'temp': 0.0, 'lipoC3S3': 12.34, 'state': 'normal', 'rot1': 20, 'rot0': 11, 'rot3': 0, 'rot2': 0, 'depth': -0.446, 'yaw': -35.39, 'datetime': '2018-12-18 16:59:36.825200', 'mgs': 0, 'flw2': 3.09, 'flw1': 0.09, 'flw0': 2.82, 'time': 13.62, 'compass': -74.43, 'pitch': 5.79, 'roll': 1.93}
{'lipoC2': 0.15, 'temp': 0.0, 'lipoC3S3': 12.45, 'state': 'normal', 'rot1': 23, 'rot0': 14, 'rot3': 0, 'rot2': 0, 'depth': -1.361, 'yaw': -37.63, 'datetime': '2018-12-18 16:59:37.037997', 'mgs': 0, 'flw2': 2.92, 'flw1': 0.32, 'flw0': 2.92, 'time': 13.83, 'compass': -76.67, 'pitch': 5.6, 'roll': 1.48}
{'lipoC2': 0.03, 'temp': 0.0, 'lipoC3S3': 12.34, 'state': 'normal', 'rot1': 25, 'rot0': 16, 'rot3': 0, 'rot2': 0, 'depth': 0.47, 'yaw': -39.78, 'datetime': '2018-12-18 16:59:37.243424', 'mgs': 0, 'flw2': 3.02, 'flw1': 0.0, 'flw0': 2.95, 'time': 14.04, 'compass': -78.82, 'pitch': 5.34, 'roll': 1.17}
{'lipoC2': 0.14, 'temp': 0.0, 'lipoC3S3': 12.34, 'state': 'normal', 'rot1': 27, 'rot0': 19, 'rot3': 0, 'rot2': 0, 'depth': 1.004, 'yaw': -41.77, 'datetime': '2018-12-18 16:59:37.453113', 'mgs': 0, 'flw2': 2.91, 'flw1': 0.0, 'flw0': 3.28, 'time': 14.25, 'compass': -80.81, 'pitch': 5.18, 'roll': 1.16}
{'lipoC2': 0.0, 'temp': 0.0, 'lipoC3S3': 12.71, 'state': 'normal', 'rot1': 29, 'rot0': 21, 'rot3': 0, 'rot2': 0, 'depth': 2.072, 'yaw': -43.7, 'datetime': '2018-12-18 16:59:37.659951', 'mgs': 0, 'flw2': 3.17, 'flw1': 0.09, 'flw0': 2.64, 'time': 14.45, 'compass': -82.74, 'pitch': 5.08, 'roll': 1.26}
{'lipoC2': 0.0, 'temp': 0.0, 'lipoC3S3': 12.56, 'state': 'normal', 'rot1': 32, 'rot0': 23, 'rot3': 0, 'rot2': 0, 'depth': -0.369, 'yaw': -45.28, 'datetime': '2018-12-18 16:59:37.867869', 'mgs': 0, 'flw2': 3.1, 'flw1': 0.0, 'flw0': 2.93, 'time': 14.66, 'compass': -84.32, 'pitch': 4.89, 'roll': 1.42}
{'lipoC2': 0.11, 'temp': 0.0, 'lipoC3S3': 12.27, 'state': 'normal', 'rot1': 35, 'rot0': 26, 'rot3': 0, 'rot2': 0, 'depth': 1.157, 'yaw': -47.02, 'datetime': '2018-12-18 16:59:38.076967', 'mgs': 0, 'flw2': 2.98, 'flw1': 0.15, 'flw0': 2.67, 'time': 14.87, 'compass': -86.06, 'pitch': 4.71, 'roll': 1.75}
{'lipoC2': 0.04, 'temp': 0.0, 'lipoC3S3': 12.34, 'state': 'normal', 'rot1': 37, 'rot0': 28, 'rot3': 0, 'rot2': 0, 'depth': 1.462, 'yaw': -48.62, 'datetime': '2018-12-18 16:59:38.285887', 'mgs': 0, 'flw2': 2.94, 'flw1': 0.0, 'flw0': 2.82, 'time': 15.08, 'compass': -87.66, 'pitch': 4.62, 'roll': 1.88}
{'lipoC2': 0.0, 'temp': 0.0, 'lipoC3S3': 12.48, 'state': 'normal', 'rot1': 39, 'rot0': 31, 'rot3': 0, 'rot2': 0, 'depth': 0.546, 'yaw': -50.01, 'datetime': '2018-12-18 16:59:38.495853', 'mgs': 0, 'flw2': 2.95, 'flw1': 0.0, 'flw0': 3.05, 'time': 15.29, 'compass': -89.05, 'pitch': 4.55, 'roll': 1.94}
{'lipoC2': 0.13, 'temp': 0.0, 'lipoC3S3': 12.48, 'state': 'normal', 'rot1': 42, 'rot0': 33, 'rot3': 0, 'rot2': 0, 'depth': -1.361, 'yaw': -51.32, 'datetime': '2018-12-18 16:59:38.708616', 'mgs': 0, 'flw2': 2.91, 'flw1': 0.0, 'flw0': 3.14, 'time': 15.5, 'compass': -90.36, 'pitch': 4.64, 'roll': 2.05}
{'lipoC2': 0.0, 'temp': 0.0, 'lipoC3S3': 12.52, 'state': 'normal', 'rot1': 46, 'rot0': 36, 'rot3': 0, 'rot2': 0, 'depth': 0.089, 'yaw': -53.36, 'datetime': '2018-12-18 16:59:39.021780', 'mgs': 0, 'flw2': 2.81, 'flw1': 0.56, 'flw0': 3.05, 'time': 15.81, 'compass': -92.4, 'pitch': 5.09, 'roll': 1.82}
{'lipoC2': 0.04, 'temp': 0.0, 'lipoC3S3': 12.35, 'state': 'normal', 'rot1': 48, 'rot0': 39, 'rot3': 0, 'rot2': 0, 'depth': 0.623, 'yaw': -54.5, 'datetime': '2018-12-18 16:59:39.230541', 'mgs': 0, 'flw2': 3.1, 'flw1': 0.0, 'flw0': 0.0, 'time': 16.02, 'compass': -93.54, 'pitch': 5.29, 'roll': 1.41}
{'lipoC2': 0.09, 'temp': 0.0, 'lipoC3S3': 12.55, 'state': 'normal', 'rot1': 48, 'rot0': 41, 'rot3': 0, 'rot2': 0, 'depth': 1.996, 'yaw': -53.9, 'datetime': '2018-12-18 16:59:39.437034', 'mgs': 0, 'flw2': 0.21, 'flw1': 0.0, 'flw0': 0.04, 'time': 16.23, 'compass': -92.94, 'pitch': 4.07, 'roll': 1.38}
{'lipoC2': 0.0, 'temp': 0.0, 'lipoC3S3': 12.33, 'state': 'normal', 'rot1': 48, 'rot0': 41, 'rot3': 0, 'rot2': 0, 'depth': -0.827, 'yaw': -53.25, 'datetime': '2018-12-18 16:59:39.649040', 'mgs': 0, 'flw2': 0.12, 'flw1': 0.26, 'flw0': 0.0, 'time': 16.44, 'compass': -92.29, 'pitch': 1.71, 'roll': 1.84}
{'lipoC2': 0.0, 'temp': 0.0, 'lipoC3S3': 12.63, 'state': 'normal', 'rot1': 48, 'rot0': 41, 'rot3': 0, 'rot2': 0, 'depth': 1.462, 'yaw': -53.11, 'datetime': '2018-12-18 16:59:39.853667', 'mgs': 0, 'flw2': 0.0, 'flw1': 0.32, 'flw0': 0.07, 'time': 16.65, 'compass': -92.15, 'pitch': 0.79, 'roll': 2.23}
{'lipoC2': 0.0, 'temp': 0.0, 'lipoC3S3': 12.71, 'state': 'normal', 'rot1': 48, 'rot0': 41, 'rot3': 0, 'rot2': 0, 'depth': 1.767, 'yaw': -53.25, 'datetime': '2018-12-18 16:59:40.064109', 'mgs': 0, 'flw2': 0.05, 'flw1': 0.38, 'flw0': 0.0, 'time': 16.85, 'compass': -92.29, 'pitch': 1.44, 'roll': 2.25}
{'lipoC2': 0.0, 'temp': 0.0, 'lipoC3S3': 12.59, 'state': 'normal', 'rot1': 49, 'rot0': 41, 'rot3': 0, 'rot2': 0, 'depth': 1.309, 'yaw': -53.42, 'datetime': '2018-12-18 16:59:40.276579', 'mgs': 0, 'flw2': 0.43, 'flw1': 0.35, 'flw0': 2.97, 'time': 17.06, 'compass': -92.46, 'pitch': 1.84, 'roll': 2.12}
{'lipoC2': 0.09, 'temp': 0.0, 'lipoC3S3': 12.55, 'state': 'normal', 'rot1': 50, 'rot0': 42, 'rot3': 0, 'rot2': 0, 'depth': -1.895, 'yaw': -53.17, 'datetime': '2018-12-18 16:59:40.481418', 'mgs': 0, 'flw2': 0.0, 'flw1': 0.44, 'flw0': 0.01, 'time': 17.27, 'compass': -92.21, 'pitch': 0.83, 'roll': 2.08}
{'lipoC2': 0.05, 'temp': 0.0, 'lipoC3S3': 12.59, 'state': 'normal', 'rot1': 50, 'rot0': 42, 'rot3': 0, 'rot2': 0, 'depth': -1.895, 'yaw': -53.42, 'datetime': '2018-12-18 16:59:40.688620', 'mgs': 0, 'flw2': 0.0, 'flw1': 0.32, 'flw0': 0.09, 'time': 17.48, 'compass': -92.46, 'pitch': 0.67, 'roll': 2.21}
{'lipoC2': 0.05, 'temp': 0.0, 'lipoC3S3': 12.58, 'state': 'normal', 'rot1': 50, 'rot0': 42, 'rot3': 0, 'rot2': 0, 'depth': -1.743, 'yaw': -53.76, 'datetime': '2018-12-18 16:59:40.900905', 'mgs': 0, 'flw2': 0.15, 'flw1': 0.0, 'flw0': 0.01, 'time': 17.69, 'compass': -92.8, 'pitch': 1.2, 'roll': 2.41}
{'lipoC2': 0.0, 'temp': 0.0, 'lipoC3S3': 12.55, 'state': 'normal', 'rot1': 50, 'rot0': 42, 'rot3': 0, 'rot2': 0, 'depth': -0.217, 'yaw': -54.23, 'datetime': '2018-12-18 16:59:41.108785', 'mgs': 0, 'flw2': 0.16, 'flw1': 0.0, 'flw0': 0.05, 'time': 17.9, 'compass': -93.27, 'pitch': 1.43, 'roll': 2.4}
{'lipoC2': 0.0, 'temp': 0.0, 'lipoC3S3': 12.56, 'state': 'normal', 'rot1': 50, 'rot0': 42, 'rot3': 0, 'rot2': 0, 'depth': -0.14, 'yaw': -54.85, 'datetime': '2018-12-18 16:59:41.316023', 'mgs': 0, 'flw2': 0.2, 'flw1': 0.0, 'flw0': 0.0, 'time': 18.11, 'compass': -93.89, 'pitch': 1.35, 'roll': 2.15}
{'lipoC2': 0.0, 'temp': 0.0, 'lipoC3S3': 12.54, 'state': 'normal', 'rot1': 50, 'rot0': 42, 'rot3': 0, 'rot2': 0, 'depth': 0.165, 'yaw': -55.57, 'datetime': '2018-12-18 16:59:41.528964', 'mgs': 0, 'flw2': 0.0, 'flw1': 0.0, 'flw0': 0.1, 'time': 18.31, 'compass': -94.61, 'pitch': 1.1, 'roll': 1.97}
{'lipoC2': 0.0, 'temp': 0.0, 'lipoC3S3': 12.68, 'state': 'normal', 'rot1': 50, 'rot0': 42, 'rot3': 0, 'rot2': 0, 'depth': 1.691, 'yaw': -56.43, 'datetime': '2018-12-18 16:59:41.733282', 'mgs': 0, 'flw2': 0.0, 'flw1': 0.23, 'flw0': 0.0, 'time': 18.52, 'compass': -95.47, 'pitch': 0.9, 'roll': 1.98}
{'lipoC2': 0.0, 'temp': 0.0, 'lipoC3S3': 12.64, 'state': 'normal', 'rot1': 50, 'rot0': 42, 'rot3': 0, 'rot2': 0, 'depth': 1.385, 'yaw': -57.38, 'datetime': '2018-12-18 16:59:41.940606', 'mgs': 0, 'flw2': 0.0, 'flw1': 0.23, 'flw0': 0.13, 'time': 18.73, 'compass': -96.42, 'pitch': 0.97, 'roll': 2.01}
{'lipoC2': 0.0, 'temp': 0.0, 'lipoC3S3': 12.68, 'state': 'normal', 'rot1': 50, 'rot0': 42, 'rot3': 0, 'rot2': 0, 'depth': 1.767, 'yaw': -58.36, 'datetime': '2018-12-18 16:59:42.151872', 'mgs': 0, 'flw2': 0.16, 'flw1': 0.12, 'flw0': 0.0, 'time': 18.94, 'compass': -97.4, 'pitch': 1.33, 'roll': 2.04}
{'lipoC2': 0.09, 'temp': 0.0, 'lipoC3S3': 12.29, 'state': 'normal', 'rot1': 50, 'rot0': 42, 'rot3': 0, 'rot2': 0, 'depth': 1.309, 'yaw': -59.29, 'datetime': '2018-12-18 16:59:42.360624', 'mgs': 0, 'flw2': 0.17, 'flw1': 0.0, 'flw0': 0.21, 'time': 19.15, 'compass': -98.33, 'pitch': 1.63, 'roll': 2.06}
{'lipoC2': 0.09, 'temp': 0.0, 'lipoC3S3': 12.54, 'state': 'normal', 'rot1': 50, 'rot0': 42, 'rot3': 0, 'rot2': 0, 'depth': -2.124, 'yaw': -60.23, 'datetime': '2018-12-18 16:59:42.574970', 'mgs': 0, 'flw2': 0.0, 'flw1': 0.47, 'flw0': 0.0, 'time': 19.36, 'compass': -99.27, 'pitch': 1.81, 'roll': 2.09}
{'lipoC2': 0.14, 'temp': 0.0, 'lipoC3S3': 12.48, 'state': 'normal', 'rot1': 50, 'rot0': 42, 'rot3': 0, 'rot2': 0, 'depth': 1.843, 'yaw': -61.01, 'datetime': '2018-12-18 16:59:42.780399', 'mgs': 0, 'flw2': 0.02, 'flw1': 0.0, 'flw0': 0.16, 'time': 19.57, 'compass': -100.05, 'pitch': 1.81, 'roll': 2.12}
{'lipoC2': 0.11, 'temp': 0.0, 'lipoC3S3': 12.27, 'state': 'normal', 'rot1': 50, 'rot0': 42, 'rot3': 0, 'rot2': 0, 'depth': 1.004, 'yaw': -61.69, 'datetime': '2018-12-18 16:59:42.988249', 'mgs': 0, 'flw2': 0.0, 'flw1': 0.35, 'flw0': 0.13, 'time': 19.77, 'compass': -100.73, 'pitch': 1.79, 'roll': 2.14}
{'lipoC2': 0.08, 'temp': 0.0, 'lipoC3S3': 12.56, 'state': 'normal', 'rot1': 50, 'rot0': 42, 'rot3': 0, 'rot2': 0, 'depth': -1.971, 'yaw': -62.24, 'datetime': '2018-12-18 16:59:43.195165', 'mgs': 0, 'flw2': 0.23, 'flw1': 0.0, 'flw0': 0.0, 'time': 19.98, 'compass': -101.28, 'pitch': 1.78, 'roll': 2.15}
{'lipoC2': 0.11, 'temp': 0.0, 'lipoC3S3': 12.26, 'state': 'normal', 'rot1': 50, 'rot0': 42, 'rot3': 0, 'rot2': 0, 'depth': 0.47, 'yaw': -62.71, 'datetime': '2018-12-18 16:59:43.405375', 'mgs': 0, 'flw2': 0.18, 'flw1': 0.09, 'flw0': 0.0, 'time': 20.19, 'compass': -101.75, 'pitch': 1.72, 'roll': 2.2}
{'lipoC2': 0.16, 'temp': 0.0, 'lipoC3S3': 12.47, 'state': 'normal', 'rot1': 50, 'rot0': 42, 'rot3': 0, 'rot2': 0, 'depth': -1.361, 'yaw': -63.13, 'datetime': '2018-12-18 16:59:43.614816', 'mgs': 0, 'flw2': 0.09, 'flw1': 0.0, 'flw0': 0.12, 'time': 20.4, 'compass': -102.17, 'pitch': 1.69, 'roll': 2.37}
{'lipoC2': 0.0, 'temp': 0.0, 'lipoC3S3': 12.52, 'state': 'normal', 'rot1': 50, 'rot0': 42, 'rot3': 0, 'rot2': 0, 'depth': 0.089, 'yaw': -63.54, 'datetime': '2018-12-18 16:59:43.823200', 'mgs': 0, 'flw2': 0.0, 'flw1': 0.5, 'flw0': 0.01, 'time': 20.61, 'compass': -102.58, 'pitch': 1.8, 'roll': 2.37}
{'lipoC2': 0.01, 'temp': 0.0, 'lipoC3S3': 12.41, 'state': 'normal', 'rot1': 50, 'rot0': 42, 'rot3': 0, 'rot2': 0, 'depth': 1.614, 'yaw': -63.92, 'datetime': '2018-12-18 16:59:44.034212', 'mgs': 0, 'flw2': 0.18, 'flw1': 0.0, 'flw0': 0.0, 'time': 20.82, 'compass': -102.96, 'pitch': 1.9, 'roll': 2.21}
{'lipoC2': 0.16, 'temp': 0.0, 'lipoC3S3': 12.46, 'state': 'normal', 'rot1': 50, 'rot0': 42, 'rot3': 0, 'rot2': 0, 'depth': 1.691, 'yaw': -64.29, 'datetime': '2018-12-18 16:59:44.241542', 'mgs': 0, 'flw2': 0.01, 'flw1': 0.0, 'flw0': 0.16, 'time': 21.03, 'compass': -103.33, 'pitch': 1.71, 'roll': 2.19}
{'lipoC2': 0.03, 'temp': 0.0, 'lipoC3S3': 12.34, 'state': 'normal', 'rot1': 50, 'rot0': 42, 'rot3': 0, 'rot2': 0, 'depth': 1.462, 'yaw': -64.59, 'datetime': '2018-12-18 16:59:44.449650', 'mgs': 0, 'flw2': 0.0, 'flw1': 0.29, 'flw0': 0.16, 'time': 21.23, 'compass': -103.63, 'pitch': 1.28, 'roll': 2.21}
{'lipoC2': 0.0, 'temp': 0.0, 'lipoC3S3': 12.62, 'state': 'normal', 'rot1': 50, 'rot0': 42, 'rot3': 0, 'rot2': 0, 'depth': 1.538, 'yaw': -64.84, 'datetime': '2018-12-18 16:59:44.659642', 'mgs': 0, 'flw2': 0.23, 'flw1': 0.0, 'flw0': 0.0, 'time': 21.44, 'compass': -103.88, 'pitch': 1.22, 'roll': 2.2}
{'lipoC2': 0.0, 'temp': 0.0, 'lipoC3S3': 12.51, 'state': 'normal', 'rot1': 50, 'rot0': 42, 'rot3': 0, 'rot2': 0, 'depth': 0.623, 'yaw': -65.05, 'datetime': '2018-12-18 16:59:44.871654', 'mgs': 0, 'flw2': 0.09, 'flw1': 0.0, 'flw0': 0.12, 'time': 21.65, 'compass': -104.09, 'pitch': 1.46, 'roll': 2.03}
{'lipoC2': 0.0, 'temp': 0.0, 'lipoC3S3': 12.31, 'state': 'normal', 'rot1': 50, 'rot0': 42, 'rot3': 0, 'rot2': 0, 'depth': -0.98, 'yaw': -65.25, 'datetime': '2018-12-18 16:59:45.079159', 'mgs': 0, 'flw2': 0.1, 'flw1': 0.47, 'flw0': 0.0, 'time': 21.86, 'compass': -104.29, 'pitch': 1.36, 'roll': 2.02}
{'lipoC2': 0.08, 'temp': 0.0, 'lipoC3S3': 12.27, 'state': 'normal', 'rot1': 50, 'rot0': 42, 'rot3': 0, 'rot2': 0, 'depth': 0.317, 'yaw': -65.42, 'datetime': '2018-12-18 16:59:45.289790', 'mgs': 0, 'flw2': 0.0, 'flw1': 0.12, 'flw0': 0.22, 'time': 22.07, 'compass': -104.46, 'pitch': 0.83, 'roll': 2.16}
{'lipoC2': 0.15, 'temp': 0.0, 'lipoC3S3': 12.26, 'state': 'normal', 'rot1': 50, 'rot0': 42, 'rot3': 0, 'rot2': 0, 'depth': 0.546, 'yaw': -65.53, 'datetime': '2018-12-18 16:59:45.498253', 'mgs': 0, 'flw2': 0.0, 'flw1': 0.0, 'flw0': 0.21, 'time': 22.28, 'compass': -104.57, 'pitch': 0.57, 'roll': 2.19}
{'lipoC2': 0.0, 'temp': 0.0, 'lipoC3S3': 12.54, 'state': 'normal', 'rot1': 50, 'rot0': 42, 'rot3': 0, 'rot2': 0, 'depth': -0.14, 'yaw': -65.55, 'datetime': '2018-12-18 16:59:45.710027', 'mgs': 0, 'flw2': 0.15, 'flw1': 0.0, 'flw0': 0.04, 'time': 22.49, 'compass': -104.59, 'pitch': 0.76, 'roll': 2.18}
{'lipoC2': 0.06, 'temp': 0.0, 'lipoC3S3': 12.3, 'state': 'normal', 'rot1': 50, 'rot0': 42, 'rot3': 0, 'rot2': 0, 'depth': 0.394, 'yaw': -65.56, 'datetime': '2018-12-18 16:59:45.915693', 'mgs': 0, 'flw2': 0.2, 'flw1': 0.03, 'flw0': 0.0, 'time': 22.7, 'compass': -104.6, 'pitch': 0.87, 'roll': 2.04}
{'lipoC2': 0.0, 'temp': 0.0, 'lipoC3S3': 12.55, 'state': 'normal', 'rot1': 50, 'rot0': 42, 'rot3': 0, 'rot2': 0, 'depth': -0.14, 'yaw': -65.56, 'datetime': '2018-12-18 16:59:46.127528', 'mgs': 0, 'flw2': 0.0, 'flw1': 0.5, 'flw0': 0.01, 'time': 22.91, 'compass': -104.6, 'pitch': 0.78, 'roll': 1.93}
{'lipoC2': 0.0, 'temp': 0.0, 'lipoC3S3': 12.35, 'state': 'normal', 'rot1': 50, 'rot0': 42, 'rot3': 0, 'rot2': 0, 'depth': 1.385, 'yaw': -65.56, 'datetime': '2018-12-18 16:59:46.335227', 'mgs': 0, 'flw2': 0.12, 'flw1': 0.38, 'flw0': 0.0, 'time': 23.11, 'compass': -104.6, 'pitch': 0.52, 'roll': 1.93}
{'lipoC2': 0.0, 'temp': 0.0, 'lipoC3S3': 12.62, 'state': 'normal', 'rot1': 50, 'rot0': 42, 'rot3': 0, 'rot2': 0, 'depth': 1.157, 'yaw': -65.56, 'datetime': '2018-12-18 16:59:46.544212', 'mgs': 0, 'flw2': 0.0, 'flw1': 0.26, 'flw0': 0.12, 'time': 23.32, 'compass': -104.6, 'pitch': 0.25, 'roll': 2.07}
{'lipoC2': 0.0, 'temp': 0.0, 'lipoC3S3': 12.71, 'state': 'normal', 'rot1': 50, 'rot0': 42, 'rot3': 0, 'rot2': 0, 'depth': -0.217, 'yaw': -65.55, 'datetime': '2018-12-18 16:59:46.758677', 'mgs': 0, 'flw2': 0.06, 'flw1': 0.47, 'flw0': 0.0, 'time': 23.53, 'compass': -104.59, 'pitch': 0.35, 'roll': 2.18}
{'lipoC2': 0.06, 'temp': 0.0, 'lipoC3S3': 12.29, 'state': 'normal', 'rot1': 50, 'rot0': 42, 'rot3': 0, 'rot2': 0, 'depth': 0.47, 'yaw': -65.55, 'datetime': '2018-12-18 16:59:46.963917', 'mgs': 0, 'flw2': 0.2, 'flw1': 0.06, 'flw0': 0.0, 'time': 23.74, 'compass': -104.59, 'pitch': 0.65, 'roll': 2.18}
{'lipoC2': 0.02, 'temp': 0.0, 'lipoC3S3': 12.6, 'state': 'normal', 'rot1': 50, 'rot0': 42, 'rot3': 0, 'rot2': 0, 'depth': 1.614, 'yaw': -65.43, 'datetime': '2018-12-18 16:59:47.174481', 'mgs': 0, 'flw2': 0.0, 'flw1': 0.38, 'flw0': 0.06, 'time': 23.95, 'compass': -104.47, 'pitch': 0.67, 'roll': 2.12}
{'lipoC2': 0.11, 'temp': 0.0, 'lipoC3S3': 12.54, 'state': 'normal', 'rot1': 50, 'rot0': 42, 'rot3': 0, 'rot2': 0, 'depth': -1.743, 'yaw': -65.26, 'datetime': '2018-12-18 16:59:47.386604', 'mgs': 0, 'flw2': 0.0, 'flw1': 0.38, 'flw0': 0.02, 'time': 24.16, 'compass': -104.3, 'pitch': 0.54, 'roll': 2.09}
{'lipoC2': 0.0, 'temp': 0.0, 'lipoC3S3': 12.64, 'state': 'normal', 'rot1': 50, 'rot0': 42, 'rot3': 0, 'rot2': 0, 'depth': 1.462, 'yaw': -65.06, 'datetime': '2018-12-18 16:59:47.592227', 'mgs': 0, 'flw2': 0.0, 'flw1': 0.26, 'flw0': 0.12, 'time': 24.37, 'compass': -104.1, 'pitch': 0.73, 'roll': 2.06}
{'lipoC2': 0.05, 'temp': 0.0, 'lipoC3S3': 12.59, 'state': 'normal', 'rot1': 50, 'rot0': 42, 'rot3': 0, 'rot2': 0, 'depth': -1.666, 'yaw': -64.8, 'datetime': '2018-12-18 16:59:47.801813', 'mgs': 0, 'flw2': 0.0, 'flw1': 0.41, 'flw0': 0.02, 'time': 24.58, 'compass': -103.84, 'pitch': 0.89, 'roll': 2.07}
{'lipoC2': 0.06, 'temp': 0.0, 'lipoC3S3': 12.3, 'state': 'normal', 'rot1': 50, 'rot0': 42, 'rot3': 0, 'rot2': 0, 'depth': 1.309, 'yaw': -64.54, 'datetime': '2018-12-18 16:59:48.010038', 'mgs': 0, 'flw2': 0.17, 'flw1': 0.09, 'flw0': 0.0, 'time': 24.79, 'compass': -103.58, 'pitch': 0.71, 'roll': 2.2}
{'lipoC2': 0.0, 'temp': 0.0, 'lipoC3S3': 12.71, 'state': 'normal', 'rot1': 50, 'rot0': 42, 'rot3': 0, 'rot2': 0, 'depth': -1.361, 'yaw': -64.25, 'datetime': '2018-12-18 16:59:48.218920', 'mgs': 0, 'flw2': 0.13, 'flw1': 0.26, 'flw0': 0.0, 'time': 25.0, 'compass': -103.29, 'pitch': 0.47, 'roll': 2.2}
{'lipoC2': 0.1, 'temp': 0.0, 'lipoC3S3': 12.54, 'state': 'normal', 'rot1': 50, 'rot0': 42, 'rot3': 0, 'rot2': 0, 'depth': -1.895, 'yaw': -63.92, 'datetime': '2018-12-18 16:59:48.428337', 'mgs': 0, 'flw2': 0.11, 'flw1': 0.0, 'flw0': 0.07, 'time': 25.2, 'compass': -102.96, 'pitch': 0.46, 'roll': 2.08}
{'lipoC2': 0.04, 'temp': 0.0, 'lipoC3S3': 12.33, 'state': 'normal', 'rot1': 50, 'rot0': 42, 'rot3': 0, 'rot2': 0, 'depth': 0.394, 'yaw': -63.56, 'datetime': '2018-12-18 16:59:48.635508', 'mgs': 0, 'flw2': 0.17, 'flw1': 0.0, 'flw0': 0.0, 'time': 25.41, 'compass': -102.6, 'pitch': 0.58, 'roll': 1.82}
{'lipoC2': 0.11, 'temp': 0.0, 'lipoC3S3': 12.27, 'state': 'normal', 'rot1': 50, 'rot0': 42, 'rot3': 0, 'rot2': 0, 'depth': 1.157, 'yaw': -63.17, 'datetime': '2018-12-18 16:59:48.845294', 'mgs': 0, 'flw2': 0.0, 'flw1': 0.0, 'flw0': 0.21, 'time': 25.62, 'compass': -102.21, 'pitch': 0.49, 'roll': 1.73}
{'lipoC2': 0.02, 'temp': 0.0, 'lipoC3S3': 12.6, 'state': 'normal', 'rot1': 50, 'rot0': 42, 'rot3': 0, 'rot2': 0, 'depth': -1.59, 'yaw': -62.71, 'datetime': '2018-12-18 16:59:49.057704', 'mgs': 0, 'flw2': 0.0, 'flw1': 0.32, 'flw0': 0.09, 'time': 25.83, 'compass': -101.75, 'pitch': 0.04, 'roll': 1.77}
{'lipoC2': 0.1, 'temp': 0.0, 'lipoC3S3': 12.29, 'state': 'normal', 'rot1': 50, 'rot0': 42, 'rot3': 0, 'rot2': 0, 'depth': 0.623, 'yaw': -62.21, 'datetime': '2018-12-18 16:59:49.269753', 'mgs': 0, 'flw2': 0.07, 'flw1': 0.35, 'flw0': 0.0, 'time': 26.04, 'compass': -101.25, 'pitch': -0.32, 'roll': 1.96}
{'lipoC2': 0.09, 'temp': 0.0, 'lipoC3S3': 12.55, 'state': 'normal', 'rot1': 50, 'rot0': 42, 'rot3': 0, 'rot2': 0, 'depth': 1.843, 'yaw': -61.68, 'datetime': '2018-12-18 16:59:49.479033', 'mgs': 0, 'flw2': 0.0, 'flw1': 0.47, 'flw0': 0.01, 'time': 26.25, 'compass': -100.72, 'pitch': -0.28, 'roll': 2.06}
{'lipoC2': 0.01, 'temp': 0.0, 'lipoC3S3': 12.62, 'state': 'normal', 'rot1': 50, 'rot0': 42, 'rot3': 0, 'rot2': 0, 'depth': -1.285, 'yaw': -61.1, 'datetime': '2018-12-18 16:59:49.683047', 'mgs': 0, 'flw2': 0.0, 'flw1': 0.35, 'flw0': 0.11, 'time': 26.46, 'compass': -100.14, 'pitch': 0.11, 'roll': 2.06}
{'lipoC2': 0.0, 'temp': 0.0, 'lipoC3S3': 12.55, 'state': 'normal', 'rot1': 50, 'rot0': 42, 'rot3': 0, 'rot2': 0, 'depth': -0.064, 'yaw': -60.5, 'datetime': '2018-12-18 16:59:49.890903', 'mgs': 0, 'flw2': 0.0, 'flw1': 0.5, 'flw0': 0.01, 'time': 26.67, 'compass': -99.54, 'pitch': 0.27, 'roll': 1.93}
{'lipoC2': 0.0, 'temp': 0.0, 'lipoC3S3': 12.37, 'state': 'normal', 'rot1': 50, 'rot0': 42, 'rot3': 0, 'rot2': 0, 'depth': -0.827, 'yaw': -59.86, 'datetime': '2018-12-18 16:59:50.101063', 'mgs': 0, 'flw2': 0.02, 'flw1': 0.0, 'flw0': 0.16, 'time': 26.88, 'compass': -98.9, 'pitch': 0.04, 'roll': 1.8}
{'lipoC2': 0.11, 'temp': 0.0, 'lipoC3S3': 12.66, 'state': 'normal', 'rot1': 50, 'rot0': 42, 'rot3': 0, 'rot2': 0, 'depth': -1.666, 'yaw': -59.17, 'datetime': '2018-12-18 16:59:50.310467', 'mgs': 0, 'flw2': 0.0, 'flw1': 0.38, 'flw0': 0.0, 'time': 27.08, 'compass': -98.21, 'pitch': -0.0, 'roll': 1.79}
{'lipoC2': 0.0, 'temp': 0.0, 'lipoC3S3': 12.31, 'state': 'normal', 'rot1': 50, 'rot0': 42, 'rot3': 0, 'rot2': 0, 'depth': -1.056, 'yaw': -58.1, 'datetime': '2018-12-18 16:59:50.623905', 'mgs': 0, 'flw2': 0.0, 'flw1': 0.0, 'flw0': 0.2, 'time': 27.4, 'compass': -97.14, 'pitch': 0.25, 'roll': 1.76}
{'lipoC2': 0.15, 'temp': 0.0, 'lipoC3S3': 12.33, 'state': 'normal', 'rot1': 50, 'rot0': 42, 'rot3': 0, 'rot2': 0, 'depth': 1.08, 'yaw': -57.35, 'datetime': '2018-12-18 16:59:50.831271', 'mgs': 0, 'flw2': 0.12, 'flw1': 0.29, 'flw0': 0.0, 'time': 27.61, 'compass': -96.39, 'pitch': 0.44, 'roll': 1.87}
{'lipoC2': 0.11, 'temp': 0.0, 'lipoC3S3': 12.51, 'state': 'normal', 'rot1': 50, 'rot0': 42, 'rot3': 0, 'rot2': 0, 'depth': -1.971, 'yaw': -56.61, 'datetime': '2018-12-18 16:59:51.040281', 'mgs': 0, 'flw2': 0.0, 'flw1': 0.44, 'flw0': 0.01, 'time': 27.81, 'compass': -95.65, 'pitch': 0.38, 'roll': 2.03}
{'lipoC2': 0.08, 'temp': 0.0, 'lipoC3S3': 12.56, 'state': 'normal', 'rot1': 50, 'rot0': 42, 'rot3': 0, 'rot2': 0, 'depth': -2.048, 'yaw': -55.8, 'datetime': '2018-12-18 16:59:51.249890', 'mgs': 0, 'flw2': 0.38, 'flw1': 0.0, 'flw0': 0.0, 'time': 28.02, 'compass': -94.84, 'pitch': 0.08, 'roll': 2.03}
{'lipoC2': 0.02, 'temp': 0.0, 'lipoC3S3': 12.34, 'state': 'normal', 'rot1': 50, 'rot0': 43, 'rot3': 0, 'rot2': 0, 'depth': 1.538, 'yaw': -54.81, 'datetime': '2018-12-18 16:59:51.460042', 'mgs': 0, 'flw2': 1.27, 'flw1': 0.0, 'flw0': 0.0, 'time': 28.23, 'compass': -93.85, 'pitch': 0.11, 'roll': 2.02}
{'lipoC2': 0.0, 'temp': 0.0, 'lipoC3S3': 12.54, 'state': 'normal', 'rot1': 50, 'rot0': 45, 'rot3': 0, 'rot2': 0, 'depth': -0.14, 'yaw': -52.86, 'datetime': '2018-12-18 16:59:51.669662', 'mgs': 0, 'flw2': 2.47, 'flw1': 0.41, 'flw0': 0.0, 'time': 28.44, 'compass': -91.9, 'pitch': 0.84, 'roll': 2.14}
{'lipoC2': 0.11, 'temp': 0.0, 'lipoC3S3': 12.54, 'state': 'normal', 'rot1': 51, 'rot0': 47, 'rot3': 0, 'rot2': 0, 'depth': -1.743, 'yaw': -48.56, 'datetime': '2018-12-18 16:59:51.876776', 'mgs': 0, 'flw2': 2.62, 'flw1': 0.35, 'flw0': 3.22, 'time': 28.65, 'compass': -87.6, 'pitch': 2.39, 'roll': 2.43}
{'lipoC2': 0.12, 'temp': 0.0, 'lipoC3S3': 12.31, 'state': 'normal', 'rot1': 54, 'rot0': 50, 'rot3': 0, 'rot2': 0, 'depth': 0.851, 'yaw': -44.14, 'datetime': '2018-12-18 16:59:52.084400', 'mgs': 0, 'flw2': 2.99, 'flw1': 0.32, 'flw0': 2.89, 'time': 28.86, 'compass': -83.18, 'pitch': 4.86, 'roll': 2.36}
{'lipoC2': 0.15, 'temp': 0.0, 'lipoC3S3': 12.45, 'state': 'normal', 'rot1': 57, 'rot0': 53, 'rot3': 0, 'rot2': 0, 'depth': -0.827, 'yaw': -41.09, 'datetime': '2018-12-18 16:59:52.294429', 'mgs': 0, 'flw2': 2.98, 'flw1': 0.44, 'flw0': 2.89, 'time': 29.07, 'compass': -80.13, 'pitch': 6.35, 'roll': 2.11}
{'lipoC2': 0.14, 'temp': 0.0, 'lipoC3S3': 12.42, 'state': 'normal', 'rot1': 59, 'rot0': 56, 'rot3': 0, 'rot2': 0, 'depth': -0.827, 'yaw': -39.11, 'datetime': '2018-12-18 16:59:52.505239', 'mgs': 0, 'flw2': 2.99, 'flw1': 0.0, 'flw0': 3.15, 'time': 29.27, 'compass': -78.15, 'pitch': 6.47, 'roll': 2.09}
{'lipoC2': 0.09, 'temp': 0.0, 'lipoC3S3': 12.29, 'state': 'normal', 'rot1': 62, 'rot0': 58, 'rot3': 0, 'rot2': 0, 'depth': 1.385, 'yaw': -37.69, 'datetime': '2018-12-18 16:59:52.712197', 'mgs': 0, 'flw2': 3.14, 'flw1': 0.03, 'flw0': 2.69, 'time': 29.48, 'compass': -76.73, 'pitch': 6.05, 'roll': 2.26}
{'lipoC2': 0.15, 'temp': 0.0, 'lipoC3S3': 12.38, 'state': 'normal', 'rot1': 64, 'rot0': 61, 'rot3': 0, 'rot2': 0, 'depth': 1.157, 'yaw': -36.92, 'datetime': '2018-12-18 16:59:52.919992', 'mgs': 0, 'flw2': 2.84, 'flw1': 0.0, 'flw0': 3.19, 'time': 29.69, 'compass': -75.96, 'pitch': 5.84, 'roll': 2.33}
{'lipoC2': 0.0, 'temp': 0.0, 'lipoC3S3': 12.71, 'state': 'normal', 'rot1': 66, 'rot0': 63, 'rot3': 0, 'rot2': 0, 'depth': 1.691, 'yaw': -36.62, 'datetime': '2018-12-18 16:59:53.130241', 'mgs': 0, 'flw2': 2.77, 'flw1': 0.0, 'flw0': 3.3, 'time': 29.9, 'compass': -75.66, 'pitch': 5.78, 'roll': 2.03}
{'lipoC2': 0.05, 'temp': 0.0, 'lipoC3S3': 12.3, 'state': 'normal', 'rot1': 69, 'rot0': 66, 'rot3': 0, 'rot2': 0, 'depth': 1.385, 'yaw': -36.65, 'datetime': '2018-12-18 16:59:53.338775', 'mgs': 0, 'flw2': 2.98, 'flw1': 0.0, 'flw0': 2.78, 'time': 30.11, 'compass': -75.69, 'pitch': 5.58, 'roll': 1.78}
{'lipoC2': 0.12, 'temp': 0.0, 'lipoC3S3': 12.48, 'state': 'normal', 'rot1': 71, 'rot0': 68, 'rot3': 0, 'rot2': 0, 'depth': -1.514, 'yaw': -36.63, 'datetime': '2018-12-18 16:59:53.548031', 'mgs': 0, 'flw2': 3.02, 'flw1': 0.0, 'flw0': 3.06, 'time': 30.32, 'compass': -75.67, 'pitch': 5.18, 'roll': 1.78}
{'lipoC2': 0.0, 'temp': 0.0, 'lipoC3S3': 12.54, 'state': 'normal', 'rot1': 74, 'rot0': 70, 'rot3': 0, 'rot2': 0, 'depth': 0.165, 'yaw': -36.47, 'datetime': '2018-12-18 16:59:53.758767', 'mgs': 0, 'flw2': 2.98, 'flw1': 0.0, 'flw0': 2.97, 'time': 30.53, 'compass': -75.51, 'pitch': 4.65, 'roll': 1.82}
{'lipoC2': 0.09, 'temp': 0.0, 'lipoC3S3': 12.54, 'state': 'normal', 'rot1': 76, 'rot0': 73, 'rot3': 0, 'rot2': 0, 'depth': -1.895, 'yaw': -36.2, 'datetime': '2018-12-18 16:59:53.966957', 'mgs': 0, 'flw2': 2.54, 'flw1': 0.47, 'flw0': 3.16, 'time': 30.74, 'compass': -75.24, 'pitch': 4.22, 'roll': 1.95}
{'lipoC2': 0.0, 'temp': 0.0, 'lipoC3S3': 12.54, 'state': 'normal', 'rot1': 79, 'rot0': 75, 'rot3': 0, 'rot2': 0, 'depth': 0.47, 'yaw': -36.19, 'datetime': '2018-12-18 16:59:54.174135', 'mgs': 0, 'flw2': 3.0, 'flw1': 0.0, 'flw0': 3.1, 'time': 30.94, 'compass': -75.23, 'pitch': 3.95, 'roll': 1.89}
{'lipoC2': 0.11, 'temp': 0.0, 'lipoC3S3': 12.54, 'state': 'normal', 'rot1': 81, 'rot0': 77, 'rot3': 0, 'rot2': 0, 'depth': -1.666, 'yaw': -36.1, 'datetime': '2018-12-18 16:59:54.385777', 'mgs': 0, 'flw2': 2.95, 'flw1': 0.0, 'flw0': 3.15, 'time': 31.15, 'compass': -75.14, 'pitch': 3.86, 'roll': 1.56}
{'lipoC2': 0.0, 'temp': 0.0, 'lipoC3S3': 12.35, 'state': 'normal', 'rot1': 84, 'rot0': 80, 'rot3': 0, 'rot2': 0, 'depth': -0.674, 'yaw': -35.96, 'datetime': '2018-12-18 16:59:54.597021', 'mgs': 0, 'flw2': 2.97, 'flw1': 0.29, 'flw0': 2.76, 'time': 31.36, 'compass': -75.0, 'pitch': 4.0, 'roll': 1.37}
{'lipoC2': 0.09, 'temp': 0.0, 'lipoC3S3': 12.54, 'state': 'normal', 'rot1': 86, 'rot0': 82, 'rot3': 0, 'rot2': 0, 'depth': 1.843, 'yaw': -35.68, 'datetime': '2018-12-18 16:59:54.801937', 'mgs': 0, 'flw2': 2.87, 'flw1': 0.0, 'flw0': 3.11, 'time': 31.57, 'compass': -74.72, 'pitch': 4.04, 'roll': 1.38}
{'lipoC2': 0.0, 'temp': 0.0, 'lipoC3S3': 12.7, 'state': 'normal', 'rot1': 89, 'rot0': 85, 'rot3': 0, 'rot2': 0, 'depth': 2.225, 'yaw': -35.5, 'datetime': '2018-12-18 16:59:55.011942', 'mgs': 0, 'flw2': 3.1, 'flw1': 0.23, 'flw0': 3.14, 'time': 31.78, 'compass': -74.54, 'pitch': 4.09, 'roll': 1.49}
{'lipoC2': 0.14, 'temp': 0.0, 'lipoC3S3': 12.45, 'state': 'normal', 'rot1': 91, 'rot0': 87, 'rot3': 0, 'rot2': 0, 'depth': -0.598, 'yaw': -35.51, 'datetime': '2018-12-18 16:59:55.221874', 'mgs': 0, 'flw2': 2.72, 'flw1': 0.41, 'flw0': 2.94, 'time': 31.99, 'compass': -74.55, 'pitch': 4.31, 'roll': 1.49}
{'lipoC2': 0.0, 'temp': 0.0, 'lipoC3S3': 12.66, 'state': 'normal', 'rot1': 94, 'rot0': 89, 'rot3': 0, 'rot2': 0, 'depth': 1.614, 'yaw': -35.72, 'datetime': '2018-12-18 16:59:55.431764', 'mgs': 0, 'flw2': 2.97, 'flw1': 0.06, 'flw0': 2.69, 'time': 32.2, 'compass': -74.76, 'pitch': 4.39, 'roll': 1.5}
{'lipoC2': 0.14, 'temp': 0.0, 'lipoC3S3': 12.5, 'state': 'normal', 'rot1': 96, 'rot0': 92, 'rot3': 0, 'rot2': 0, 'depth': -1.208, 'yaw': -35.74, 'datetime': '2018-12-18 16:59:55.639683', 'mgs': 0, 'flw2': 2.89, 'flw1': 0.44, 'flw0': 3.05, 'time': 32.41, 'compass': -74.78, 'pitch': 4.26, 'roll': 1.52}
{'lipoC2': 0.08, 'temp': 0.0, 'lipoC3S3': 12.29, 'state': 'normal', 'rot1': 99, 'rot0': 94, 'rot3': 0, 'rot2': 0, 'depth': 0.623, 'yaw': -35.75, 'datetime': '2018-12-18 16:59:55.849022', 'mgs': 0, 'flw2': 2.53, 'flw1': 0.03, 'flw0': 2.82, 'time': 32.62, 'compass': -74.79, 'pitch': 4.31, 'roll': 1.44}
{'lipoC2': 0.03, 'temp': 0.0, 'lipoC3S3': 12.6, 'state': 'normal', 'rot1': 101, 'rot0': 97, 'rot3': 0, 'rot2': 0, 'depth': -1.437, 'yaw': -35.98, 'datetime': '2018-12-18 16:59:56.060598', 'mgs': 0, 'flw2': 2.44, 'flw1': 0.41, 'flw0': 3.14, 'time': 32.83, 'compass': -75.02, 'pitch': 4.82, 'roll': 1.23}
{'lipoC2': 0.0, 'temp': 0.0, 'lipoC3S3': 12.54, 'state': 'normal', 'rot1': 104, 'rot0': 99, 'rot3': 0, 'rot2': 0, 'depth': 1.08, 'yaw': -36.4, 'datetime': '2018-12-18 16:59:56.270507', 'mgs': 0, 'flw2': 2.97, 'flw1': 0.47, 'flw0': 2.95, 'time': 33.03, 'compass': -75.44, 'pitch': 5.05, 'roll': 1.25}
{'lipoC2': 0.0, 'temp': 0.0, 'lipoC3S3': 12.71, 'state': 'normal', 'rot1': 106, 'rot0': 102, 'rot3': 0, 'rot2': 0, 'depth': 2.377, 'yaw': -37.07, 'datetime': '2018-12-18 16:59:56.478934', 'mgs': 0, 'flw2': 3.11, 'flw1': 0.23, 'flw0': 2.72, 'time': 33.24, 'compass': -76.11, 'pitch': 4.96, 'roll': 1.54}
{'lipoC2': 0.02, 'temp': 0.0, 'lipoC3S3': 12.59, 'state': 'normal', 'rot1': 108, 'rot0': 104, 'rot3': 0, 'rot2': 0, 'depth': -1.285, 'yaw': -37.84, 'datetime': '2018-12-18 16:59:56.688472', 'mgs': 0, 'flw2': 2.78, 'flw1': 0.56, 'flw0': 3.2, 'time': 33.45, 'compass': -76.88, 'pitch': 4.83, 'roll': 1.75}
{'lipoC2': 0.0, 'temp': 0.0, 'lipoC3S3': 12.59, 'state': 'normal', 'rot1': 111, 'rot0': 107, 'rot3': 0, 'rot2': 0, 'depth': 1.309, 'yaw': -38.63, 'datetime': '2018-12-18 16:59:56.897994', 'mgs': 0, 'flw2': 2.92, 'flw1': 0.0, 'flw0': 2.99, 'time': 33.66, 'compass': -77.67, 'pitch': 4.82, 'roll': 1.78}
{'lipoC2': 0.0, 'temp': 0.0, 'lipoC3S3': 12.51, 'state': 'normal', 'rot1': 113, 'rot0': 109, 'rot3': 0, 'rot2': 0, 'depth': 0.851, 'yaw': -39.52, 'datetime': '2018-12-18 16:59:57.105235', 'mgs': 0, 'flw2': 2.78, 'flw1': 0.47, 'flw0': 3.19, 'time': 33.87, 'compass': -78.56, 'pitch': 4.81, 'roll': 1.7}
{'lipoC2': 0.0, 'temp': 0.0, 'lipoC3S3': 12.66, 'state': 'normal', 'rot1': 115, 'rot0': 111, 'rot3': 0, 'rot2': 0, 'depth': 1.92, 'yaw': -40.46, 'datetime': '2018-12-18 16:59:57.316259', 'mgs': 0, 'flw2': 2.98, 'flw1': 0.0, 'flw0': 2.78, 'time': 34.08, 'compass': -79.5, 'pitch': 4.86, 'roll': 1.49}
{'lipoC2': 0.06, 'temp': 0.0, 'lipoC3S3': 12.3, 'state': 'normal', 'rot1': 118, 'rot0': 114, 'rot3': 0, 'rot2': 0, 'depth': 1.462, 'yaw': -41.24, 'datetime': '2018-12-18 16:59:57.524886', 'mgs': 0, 'flw2': 2.49, 'flw1': 0.26, 'flw0': 3.34, 'time': 34.29, 'compass': -80.28, 'pitch': 4.93, 'roll': 1.18}
{'lipoC2': 0.09, 'temp': 0.0, 'lipoC3S3': 12.54, 'state': 'normal', 'rot1': 121, 'rot0': 117, 'rot3': 0, 'rot2': 0, 'depth': -1.666, 'yaw': -42.13, 'datetime': '2018-12-18 16:59:57.735487', 'mgs': 0, 'flw2': 2.84, 'flw1': 0.47, 'flw0': 3.08, 'time': 34.5, 'compass': -81.17, 'pitch': 5.02, 'roll': 1.04}
{'lipoC2': 0.14, 'temp': 0.0, 'lipoC3S3': 12.47, 'state': 'normal', 'rot1': 123, 'rot0': 119, 'rot3': 0, 'rot2': 0, 'depth': 1.92, 'yaw': -42.8, 'datetime': '2018-12-18 16:59:57.944835', 'mgs': 0, 'flw2': 3.0, 'flw1': 0.0, 'flw0': 3.05, 'time': 34.71, 'compass': -81.84, 'pitch': 5.1, 'roll': 1.13}
{'lipoC2': 0.0, 'temp': 0.0, 'lipoC3S3': 12.54, 'state': 'normal', 'rot1': 126, 'rot0': 122, 'rot3': 0, 'rot2': 0, 'depth': 0.317, 'yaw': -43.58, 'datetime': '2018-12-18 16:59:58.154071', 'mgs': 0, 'flw2': 2.93, 'flw1': 0.0, 'flw0': 3.14, 'time': 34.92, 'compass': -82.62, 'pitch': 5.13, 'roll': 1.34}
{'lipoC2': 0.01, 'temp': 0.0, 'lipoC3S3': 12.42, 'state': 'normal', 'rot1': 128, 'rot0': 124, 'rot3': 0, 'rot2': 0, 'depth': 1.767, 'yaw': -44.55, 'datetime': '2018-12-18 16:59:58.359459', 'mgs': 0, 'flw2': 2.92, 'flw1': 0.0, 'flw0': 2.95, 'time': 35.12, 'compass': -83.59, 'pitch': 5.11, 'roll': 1.36}
{'lipoC2': 0.0, 'temp': 0.0, 'lipoC3S3': 12.7, 'state': 'normal', 'rot1': 130, 'rot0': 127, 'rot3': 0, 'rot2': 0, 'depth': 1.996, 'yaw': -45.7, 'datetime': '2018-12-18 16:59:58.569989', 'mgs': 0, 'flw2': 2.99, 'flw1': 0.06, 'flw0': 2.75, 'time': 35.33, 'compass': -84.74, 'pitch': 5.33, 'roll': 0.98}
{'lipoC2': 0.0, 'temp': 0.0, 'lipoC3S3': 12.5, 'state': 'normal', 'rot1': 133, 'rot0': 129, 'rot3': 0, 'rot2': 0, 'depth': 0.317, 'yaw': -46.82, 'datetime': '2018-12-18 16:59:58.778667', 'mgs': 0, 'flw2': 2.92, 'flw1': 0.0, 'flw0': 2.98, 'time': 35.54, 'compass': -85.86, 'pitch': 5.7, 'roll': 0.57}
{'lipoC2': 0.1, 'temp': 0.0, 'lipoC3S3': 12.52, 'state': 'normal', 'rot1': 135, 'rot0': 132, 'rot3': 0, 'rot2': 0, 'depth': 1.996, 'yaw': -47.42, 'datetime': '2018-12-18 16:59:58.990765', 'mgs': 0, 'flw2': 0.84, 'flw1': 0.41, 'flw0': 0.63, 'time': 35.75, 'compass': -86.46, 'pitch': 5.48, 'roll': 0.69}
{'lipoC2': 0.0, 'temp': 0.0, 'lipoC3S3': 12.29, 'state': 'normal', 'rot1': 137, 'rot0': 133, 'rot3': 0, 'rot2': 0, 'depth': -0.598, 'yaw': -47.43, 'datetime': '2018-12-18 16:59:59.198680', 'mgs': 0, 'flw2': 0.0, 'flw1': 0.09, 'flw0': 0.76, 'time': 35.96, 'compass': -86.47, 'pitch': 3.63, 'roll': 1.08}
{'lipoC2': 0.0, 'temp': 0.0, 'lipoC3S3': 12.71, 'state': 'normal', 'rot1': 138, 'rot0': 134, 'rot3': 0, 'rot2': 0, 'depth': -0.14, 'yaw': -47.89, 'datetime': '2018-12-18 16:59:59.406594', 'mgs': 0, 'flw2': 0.26, 'flw1': 0.18, 'flw0': 0.0, 'time': 36.17, 'compass': -86.93, 'pitch': 1.76, 'roll': 1.3}
{'lipoC2': 0.0, 'temp': 0.0, 'lipoC3S3': 12.63, 'state': 'normal', 'rot1': 138, 'rot0': 134, 'rot3': 0, 'rot2': 0, 'depth': 1.691, 'yaw': -48.42, 'datetime': '2018-12-18 16:59:59.617384', 'mgs': 0, 'flw2': 0.0, 'flw1': 0.35, 'flw0': 0.07, 'time': 36.38, 'compass': -87.46, 'pitch': 1.17, 'roll': 1.55}
{'lipoC2': 0.0, 'temp': 0.0, 'lipoC3S3': 12.56, 'state': 'normal', 'rot1': 138, 'rot0': 134, 'rot3': 0, 'rot2': 0, 'depth': -0.369, 'yaw': -48.94, 'datetime': '2018-12-18 16:59:59.828761', 'mgs': 0, 'flw2': 0.2, 'flw1': 0.0, 'flw0': 0.0, 'time': 36.59, 'compass': -87.98, 'pitch': 1.35, 'roll': 1.74}
{'lipoC2': 0.0, 'temp': 0.0, 'lipoC3S3': 12.55, 'state': 'normal', 'rot1': 138, 'rot0': 134, 'rot3': 0, 'rot2': 0, 'depth': 0.699, 'yaw': -49.54, 'datetime': '2018-12-18 17:00:00.037356', 'mgs': 0, 'flw2': 0.2, 'flw1': 0.0, 'flw0': 0.0, 'time': 36.8, 'compass': -88.58, 'pitch': 1.26, 'roll': 1.76}
{'lipoC2': 0.02, 'temp': 0.0, 'lipoC3S3': 12.39, 'state': 'normal', 'rot1': 138, 'rot0': 134, 'rot3': 0, 'rot2': 0, 'depth': 1.614, 'yaw': -50.23, 'datetime': '2018-12-18 17:00:00.246590', 'mgs': 0, 'flw2': 0.0, 'flw1': 0.32, 'flw0': 0.11, 'time': 37.01, 'compass': -89.27, 'pitch': 0.99, 'roll': 1.75}
{'lipoC2': 0.1, 'temp': 0.0, 'lipoC3S3': 12.29, 'state': 'normal', 'rot1': 138, 'rot0': 134, 'rot3': 0, 'rot2': 0, 'depth': 1.08, 'yaw': -51.02, 'datetime': '2018-12-18 17:00:00.455507', 'mgs': 0, 'flw2': 0.21, 'flw1': 0.0, 'flw0': 0.2, 'time': 37.22, 'compass': -90.06, 'pitch': 0.92, 'roll': 1.73}
{'lipoC2': 0.11, 'temp': 0.0, 'lipoC3S3': 12.67, 'state': 'normal', 'rot1': 138, 'rot0': 134, 'rot3': 0, 'rot2': 0, 'depth': 1.843, 'yaw': -51.91, 'datetime': '2018-12-18 17:00:00.663727', 'mgs': 0, 'flw2': 0.04, 'flw1': 0.0, 'flw0': 0.15, 'time': 37.42, 'compass': -90.95, 'pitch': 0.89, 'roll': 1.73}
{'lipoC2': 0.12, 'temp': 0.0, 'lipoC3S3': 12.5, 'state': 'normal', 'rot1': 138, 'rot0': 134, 'rot3': 0, 'rot2': 0, 'depth': -1.361, 'yaw': -52.91, 'datetime': '2018-12-18 17:00:00.872900', 'mgs': 0, 'flw2': 0.0, 'flw1': 0.41, 'flw0': 0.02, 'time': 37.63, 'compass': -91.95, 'pitch': 0.94, 'roll': 1.77}
{'lipoC2': 0.1, 'temp': 0.0, 'lipoC3S3': 12.52, 'state': 'normal', 'rot1': 138, 'rot0': 134, 'rot3': 0, 'rot2': 0, 'depth': -1.819, 'yaw': -53.96, 'datetime': '2018-12-18 17:00:01.081429', 'mgs': 0, 'flw2': 0.0, 'flw1': 0.44, 'flw0': 0.0, 'time': 37.84, 'compass': -93.0, 'pitch': 0.81, 'roll': 1.69}
{'lipoC2': 0.01, 'temp': 0.0, 'lipoC3S3': 12.41, 'state': 'normal', 'rot1': 138, 'rot0': 134, 'rot3': 0, 'rot2': 0, 'depth': 1.614, 'yaw': -55.1, 'datetime': '2018-12-18 17:00:01.293302', 'mgs': 0, 'flw2': 0.18, 'flw1': 0.0, 'flw0': 0.0, 'time': 38.05, 'compass': -94.14, 'pitch': 0.82, 'roll': 1.63}
{'lipoC2': 0.0, 'temp': 0.0, 'lipoC3S3': 12.67, 'state': 'normal', 'rot1': 138, 'rot0': 134, 'rot3': 0, 'rot2': 0, 'depth': 1.767, 'yaw': -56.18, 'datetime': '2018-12-18 17:00:01.502889', 'mgs': 0, 'flw2': 0.0, 'flw1': 0.26, 'flw0': 0.15, 'time': 38.26, 'compass': -95.21, 'pitch': 1.09, 'roll': 1.66}
{'lipoC2': 0.01, 'temp': 0.0, 'lipoC3S3': 12.45, 'state': 'normal', 'rot1': 138, 'rot0': 134, 'rot3': 0, 'rot2': 0, 'depth': 0.317, 'yaw': -57.12, 'datetime': '2018-12-18 17:00:01.707704', 'mgs': 0, 'flw2': 0.07, 'flw1': 0.44, 'flw0': 0.07, 'time': 38.47, 'compass': -96.16, 'pitch': 1.29, 'roll': 1.7}
{'lipoC2': 0.03, 'temp': 0.0, 'lipoC3S3': 12.35, 'state': 'normal', 'rot1': 138, 'rot0': 134, 'rot3': 0, 'rot2': 0, 'depth': 1.462, 'yaw': -58.46, 'datetime': '2018-12-18 17:00:02.021930', 'mgs': 0, 'flw2': 0.2, 'flw1': 0.0, 'flw0': 0.2, 'time': 38.78, 'compass': -97.5, 'pitch': 1.29, 'roll': 1.69}
{'lipoC2': 0.02, 'temp': 0.0, 'lipoC3S3': 12.39, 'state': 'normal', 'rot1': 139, 'rot0': 134, 'rot3': 0, 'rot2': 0, 'depth': 1.614, 'yaw': -59.6, 'datetime': '2018-12-18 17:00:02.230210', 'mgs': 0, 'flw2': 0.0, 'flw1': 0.29, 'flw0': 0.43, 'time': 38.99, 'compass': -98.64, 'pitch': 1.32, 'roll': 1.56}
{'lipoC2': 0.0, 'temp': 0.0, 'lipoC3S3': 12.34, 'state': 'normal', 'rot1': 140, 'rot0': 134, 'rot3': 0, 'rot2': 0, 'depth': -0.293, 'yaw': -61.04, 'datetime': '2018-12-18 17:00:02.439668', 'mgs': 0, 'flw2': 0.0, 'flw1': 0.06, 'flw0': 0.16, 'time': 39.2, 'compass': -100.08, 'pitch': 1.39, 'roll': 1.42}
{'lipoC2': 0.0, 'temp': 0.0, 'lipoC3S3': 12.75, 'state': 'normal', 'rot1': 142, 'rot0': 134, 'rot3': 0, 'rot2': 0, 'depth': 1.691, 'yaw': -62.79, 'datetime': '2018-12-18 17:00:02.649459', 'mgs': 0, 'flw2': 0.17, 'flw1': 0.32, 'flw0': 1.04, 'time': 39.41, 'compass': -101.83, 'pitch': 1.49, 'roll': 1.26}
{'lipoC2': 0.0, 'temp': 0.0, 'lipoC3S3': 12.68, 'state': 'normal', 'rot1': 144, 'rot0': 134, 'rot3': 0, 'rot2': 0, 'depth': -1.819, 'yaw': -65.3, 'datetime': '2018-12-18 17:00:02.858250', 'mgs': 0, 'flw2': 0.24, 'flw1': 0.0, 'flw0': 0.51, 'time': 39.62, 'compass': -104.34, 'pitch': 1.7, 'roll': 1.05}
{'lipoC2': 0.0, 'temp': 0.0, 'lipoC3S3': 12.58, 'state': 'normal', 'rot1': 146, 'rot0': 134, 'rot3': 0, 'rot2': 0, 'depth': 1.462, 'yaw': -68.46, 'datetime': '2018-12-18 17:00:03.067704', 'mgs': 0, 'flw2': 0.06, 'flw1': 0.44, 'flw0': 0.82, 'time': 39.83, 'compass': -107.5, 'pitch': 1.7, 'roll': 1.02}
{'lipoC2': 0.0, 'temp': 0.0, 'lipoC3S3': 12.71, 'state': 'normal', 'rot1': 148, 'rot0': 134, 'rot3': 0, 'rot2': 0, 'depth': 2.072, 'yaw': -72.05, 'datetime': '2018-12-18 17:00:03.276046', 'mgs': 0, 'flw2': 0.23, 'flw1': 0.0, 'flw0': 0.51, 'time': 40.03, 'compass': -111.09, 'pitch': 1.4, 'roll': 1.12}
{'lipoC2': 0.1, 'temp': 0.0, 'lipoC3S3': 12.27, 'state': 'normal', 'rot1': 150, 'rot0': 134, 'rot3': 0, 'rot2': 0, 'depth': 1.08, 'yaw': -75.97, 'datetime': '2018-12-18 17:00:03.485552', 'mgs': 0, 'flw2': 0.0, 'flw1': 0.18, 'flw0': 1.03, 'time': 40.24, 'compass': -115.01, 'pitch': 1.24, 'roll': 1.2}
{'lipoC2': 0.11, 'temp': 0.0, 'lipoC3S3': 12.52, 'state': 'normal', 'rot1': 151, 'rot0': 135, 'rot3': 0, 'rot2': 0, 'depth': -1.971, 'yaw': -79.74, 'datetime': '2018-12-18 17:00:03.696105', 'mgs': 0, 'flw2': 0.38, 'flw1': 0.47, 'flw0': 0.73, 'time': 40.45, 'compass': -118.78, 'pitch': 1.5, 'roll': 1.27}
{'lipoC2': 0.02, 'temp': 0.0, 'lipoC3S3': 12.39, 'state': 'normal', 'rot1': 153, 'rot0': 136, 'rot3': 0, 'rot2': 0, 'depth': 1.462, 'yaw': -83.72, 'datetime': '2018-12-18 17:00:03.907764', 'mgs': 0, 'flw2': 0.02, 'flw1': 0.35, 'flw0': 0.9, 'time': 40.66, 'compass': -122.76, 'pitch': 1.74, 'roll': 1.35}
{'lipoC2': 0.03, 'temp': 0.0, 'lipoC3S3': 12.38, 'state': 'normal', 'rot1': 155, 'rot0': 137, 'rot3': 0, 'rot2': 0, 'depth': 1.538, 'yaw': -87.83, 'datetime': '2018-12-18 17:00:04.116192', 'mgs': 0, 'flw2': 0.04, 'flw1': 0.35, 'flw0': 0.88, 'time': 40.87, 'compass': -126.87, 'pitch': 1.56, 'roll': 1.43}
{'lipoC2': 0.14, 'temp': 0.0, 'lipoC3S3': 12.3, 'state': 'normal', 'rot1': 156, 'rot0': 138, 'rot3': 0, 'rot2': 0, 'depth': 0.928, 'yaw': -92.03, 'datetime': '2018-12-18 17:00:04.327030', 'mgs': 0, 'flw2': 0.26, 'flw1': 0.0, 'flw0': 0.98, 'time': 41.08, 'compass': -131.07, 'pitch': 1.17, 'roll': 1.25}
{'lipoC2': 0.12, 'temp': 0.0, 'lipoC3S3': 12.3, 'state': 'normal', 'rot1': 158, 'rot0': 139, 'rot3': 0, 'rot2': 0, 'depth': 0.546, 'yaw': -96.27, 'datetime': '2018-12-18 17:00:04.535049', 'mgs': 0, 'flw2': 0.48, 'flw1': 0.09, 'flw0': 0.46, 'time': 41.29, 'compass': -135.31, 'pitch': 1.01, 'roll': 0.95}
{'lipoC2': 0.05, 'temp': 0.0, 'lipoC3S3': 12.64, 'state': 'normal', 'rot1': 159, 'rot0': 140, 'rot3': 0, 'rot2': 0, 'depth': 1.309, 'yaw': -100.36, 'datetime': '2018-12-18 17:00:04.744700', 'mgs': 0, 'flw2': 0.12, 'flw1': 0.38, 'flw0': 0.85, 'time': 41.5, 'compass': -139.4, 'pitch': 0.95, 'roll': 0.78}
{'lipoC2': 0.0, 'temp': 0.0, 'lipoC3S3': 12.5, 'state': 'normal', 'rot1': 161, 'rot0': 141, 'rot3': 0, 'rot2': 0, 'depth': 0.546, 'yaw': -104.64, 'datetime': '2018-12-18 17:00:04.954528', 'mgs': 0, 'flw2': 1.62, 'flw1': 0.0, 'flw0': 0.93, 'time': 41.71, 'compass': -143.68, 'pitch': 1.1, 'roll': 0.83}
{'lipoC2': 0.0, 'temp': 0.0, 'lipoC3S3': 12.71, 'state': 'normal', 'rot1': 162, 'rot0': 143, 'rot3': 0, 'rot2': 0, 'depth': -1.056, 'yaw': -107.73, 'datetime': '2018-12-18 17:00:05.163451', 'mgs': 0, 'flw2': 2.99, 'flw1': 0.03, 'flw0': 0.43, 'time': 41.92, 'compass': -146.77, 'pitch': 1.91, 'roll': 1.14}
{'lipoC2': 0.0, 'temp': 0.0, 'lipoC3S3': 12.58, 'state': 'normal', 'rot1': 163, 'rot0': 145, 'rot3': 0, 'rot2': 0, 'depth': 1.309, 'yaw': -108.29, 'datetime': '2018-12-18 17:00:05.374273', 'mgs': 0, 'flw2': 2.99, 'flw1': 0.0, 'flw0': 0.87, 'time': 42.13, 'compass': -147.33, 'pitch': 3.58, 'roll': 1.54}
{'lipoC2': 0.0, 'temp': 0.0, 'lipoC3S3': 12.67, 'state': 'normal', 'rot1': 165, 'rot0': 148, 'rot3': 0, 'rot2': 0, 'depth': 1.691, 'yaw': -106.79, 'datetime': '2018-12-18 17:00:05.583886', 'mgs': 0, 'flw2': 2.95, 'flw1': 0.0, 'flw0': 0.48, 'time': 42.34, 'compass': -145.83, 'pitch': 4.16, 'roll': 1.8}
{'lipoC2': 0.04, 'temp': 0.0, 'lipoC3S3': 12.31, 'state': 'normal', 'rot1': 166, 'rot0': 150, 'rot3': 0, 'rot2': 0, 'depth': 0.394, 'yaw': -104.14, 'datetime': '2018-12-18 17:00:05.793773', 'mgs': 0, 'flw2': 2.45, 'flw1': 0.23, 'flw0': 0.96, 'time': 42.55, 'compass': -143.18, 'pitch': 3.45, 'roll': 1.74}
{'lipoC2': 0.0, 'temp': 0.0, 'lipoC3S3': 12.68, 'state': 'normal', 'rot1': 168, 'rot0': 153, 'rot3': 0, 'rot2': 0, 'depth': 2.072, 'yaw': -100.62, 'datetime': '2018-12-18 17:00:06.002176', 'mgs': 0, 'flw2': 2.97, 'flw1': 0.0, 'flw0': 0.42, 'time': 42.76, 'compass': -139.66, 'pitch': 2.78, 'roll': 1.56}
{'lipoC2': 0.0, 'temp': 0.0, 'lipoC3S3': 12.58, 'state': 'normal', 'rot1': 169, 'rot0': 155, 'rot3': 0, 'rot2': 0, 'depth': 1.08, 'yaw': -96.54, 'datetime': '2018-12-18 17:00:06.211554', 'mgs': 0, 'flw2': 2.95, 'flw1': 0.0, 'flw0': 1.62, 'time': 42.96, 'compass': -135.58, 'pitch': 2.99, 'roll': 1.56}
{'lipoC2': 0.06, 'temp': 0.0, 'lipoC3S3': 12.31, 'state': 'normal', 'rot1': 171, 'rot0': 158, 'rot3': 0, 'rot2': 0, 'depth': 0.623, 'yaw': -92.85, 'datetime': '2018-12-18 17:00:06.421574', 'mgs': 0, 'flw2': 2.51, 'flw1': 0.23, 'flw0': 2.38, 'time': 43.17, 'compass': -131.89, 'pitch': 3.89, 'roll': 1.66}
