{'lipoC2': 7.09, 'temp': 28.81, 'lipoC3S3': 11.23, 'state': 'normal', 'rot1': 0, 'rot0': 0, 'rot3': 0, 'rot2': 0, 'depth': 2.072, 'yaw': -0.12, 'datetime': '2018-11-26 13:17:56.095794', 'mgs': 0, 'flw2': 0.0, 'flw1': 0.0, 'flw0': 0.0, 'time': 1.36, 'compass': -157.95, 'pitch': -0.19, 'roll': -3.8}
{'lipoC2': 7.13, 'temp': 28.75, 'lipoC3S3': 11.23, 'state': 'normal', 'rot1': 0, 'rot0': 0, 'rot3': 0, 'rot2': 0, 'depth': 2.072, 'yaw': -0.36, 'datetime': '2018-11-26 13:17:56.302798', 'mgs': 0, 'flw2': 0.0, 'flw1': 0.0, 'flw0': 0.0, 'time': 1.57, 'compass': -158.2, 'pitch': -0.6, 'roll': -3.96}
{'lipoC2': 7.07, 'temp': 28.81, 'lipoC3S3': 11.23, 'state': 'normal', 'rot1': 0, 'rot0': 0, 'rot3': 0, 'rot2': 0, 'depth': 1.614, 'yaw': -0.6, 'datetime': '2018-11-26 13:17:56.511488', 'mgs': 0, 'flw2': 0.0, 'flw1': 0.0, 'flw0': 0.01, 'time': 1.78, 'compass': -158.43, 'pitch': -1.04, 'roll': -4.08}
{'lipoC2': 7.11, 'temp': 28.81, 'lipoC3S3': 11.25, 'state': 'normal', 'rot1': 0, 'rot0': 0, 'rot3': 0, 'rot2': 0, 'depth': 2.682, 'yaw': -0.96, 'datetime': '2018-11-26 13:17:56.720108', 'mgs': 0, 'flw2': 0.0, 'flw1': 0.0, 'flw0': 0.0, 'time': 1.99, 'compass': -158.79, 'pitch': -1.47, 'roll': -4.18}
{'lipoC2': 7.07, 'temp': 29.06, 'lipoC3S3': 11.22, 'state': 'normal', 'rot1': 0, 'rot0': 0, 'rot3': 0, 'rot2': 0, 'depth': 1.614, 'yaw': -1.35, 'datetime': '2018-11-26 13:17:56.927540', 'mgs': 0, 'flw2': 0.0, 'flw1': 0.0, 'flw0': 0.0, 'time': 2.2, 'compass': -159.19, 'pitch': -1.7, 'roll': -4.12}
{'lipoC2': 7.11, 'temp': 29.06, 'lipoC3S3': 11.23, 'state': 'normal', 'rot1': 0, 'rot0': 0, 'rot3': 0, 'rot2': 0, 'depth': 2.53, 'yaw': -1.82, 'datetime': '2018-11-26 13:17:57.137780', 'mgs': 0, 'flw2': 0.0, 'flw1': 0.0, 'flw0': 0.0, 'time': 2.41, 'compass': -159.66, 'pitch': -1.7, 'roll': -3.94}
{'lipoC2': 7.11, 'temp': 28.81, 'lipoC3S3': 11.23, 'state': 'normal', 'rot1': 0, 'rot0': 0, 'rot3': 0, 'rot2': 0, 'depth': 2.606, 'yaw': -2.35, 'datetime': '2018-11-26 13:17:57.345747', 'mgs': 0, 'flw2': 0.0, 'flw1': 0.0, 'flw0': 0.0, 'time': 2.62, 'compass': -160.18, 'pitch': -1.55, 'roll': -3.84}
{'lipoC2': 7.07, 'temp': 28.75, 'lipoC3S3': 11.23, 'state': 'normal', 'rot1': 0, 'rot0': 0, 'rot3': 0, 'rot2': 0, 'depth': 1.614, 'yaw': -2.89, 'datetime': '2018-11-26 13:17:57.554618', 'mgs': 0, 'flw2': 0.0, 'flw1': 0.0, 'flw0': 0.0, 'time': 2.82, 'compass': -160.72, 'pitch': -1.16, 'roll': -3.89}
{'lipoC2': 7.08, 'temp': 28.69, 'lipoC3S3': 11.54, 'state': 'normal', 'rot1': 0, 'rot0': 0, 'rot3': 0, 'rot2': 0, 'depth': 1.614, 'yaw': -3.49, 'datetime': '2018-11-26 13:17:57.763858', 'mgs': 0, 'flw2': 0.0, 'flw1': 0.0, 'flw0': 0.0, 'time': 3.03, 'compass': -161.32, 'pitch': -0.66, 'roll': -3.92}
{'lipoC2': 7.08, 'temp': 28.56, 'lipoC3S3': 11.23, 'state': 'normal', 'rot1': 0, 'rot0': 0, 'rot3': 0, 'rot2': 0, 'depth': 2.072, 'yaw': -4.11, 'datetime': '2018-11-26 13:17:57.970637', 'mgs': 0, 'flw2': 0.01, 'flw1': 0.0, 'flw0': 0.0, 'time': 3.24, 'compass': -161.95, 'pitch': -0.18, 'roll': -3.9}
{'lipoC2': 7.08, 'temp': 28.69, 'lipoC3S3': 11.25, 'state': 'normal', 'rot1': 0, 'rot0': 0, 'rot3': 0, 'rot2': 0, 'depth': 1.691, 'yaw': -4.77, 'datetime': '2018-11-26 13:17:58.179120', 'mgs': 0, 'flw2': 0.0, 'flw1': 0.0, 'flw0': 0.0, 'time': 3.45, 'compass': -162.61, 'pitch': 0.15, 'roll': -4.0}
{'lipoC2': 7.07, 'temp': 28.69, 'lipoC3S3': 11.23, 'state': 'normal', 'rot1': 0, 'rot0': 0, 'rot3': 0, 'rot2': 0, 'depth': 1.691, 'yaw': -5.47, 'datetime': '2018-11-26 13:17:58.392461', 'mgs': 0, 'flw2': 0.0, 'flw1': 0.03, 'flw0': 0.0, 'time': 3.66, 'compass': -163.3, 'pitch': 0.2, 'roll': -4.26}
{'lipoC2': 7.1, 'temp': 28.69, 'lipoC3S3': 11.55, 'state': 'normal', 'rot1': 0, 'rot0': 0, 'rot3': 0, 'rot2': 0, 'depth': 1.538, 'yaw': -6.19, 'datetime': '2018-11-26 13:17:58.597639', 'mgs': 0, 'flw2': 0.0, 'flw1': 0.0, 'flw0': 0.0, 'time': 3.87, 'compass': -164.02, 'pitch': 0.09, 'roll': -4.25}
{'lipoC2': 7.09, 'temp': 28.56, 'lipoC3S3': 11.27, 'state': 'normal', 'rot1': 0, 'rot0': 0, 'rot3': 0, 'rot2': 0, 'depth': 1.614, 'yaw': -6.86, 'datetime': '2018-11-26 13:17:58.802624', 'mgs': 0, 'flw2': 0.0, 'flw1': 0.0, 'flw0': 0.0, 'time': 4.08, 'compass': -164.7, 'pitch': -0.19, 'roll': -4.13}
{'lipoC2': 7.08, 'temp': 28.56, 'lipoC3S3': 11.15, 'state': 'normal', 'rot1': 2, 'rot0': 1, 'rot3': 0, 'rot2': 1, 'depth': 1.614, 'yaw': -7.54, 'datetime': '2018-11-26 13:17:59.011849', 'mgs': 0, 'flw2': 2.55, 'flw1': 0.09, 'flw0': 1.03, 'time': 4.28, 'compass': -165.38, 'pitch': -0.6, 'roll': -3.41}
{'lipoC2': 7.08, 'temp': 28.88, 'lipoC3S3': 11.19, 'state': 'normal', 'rot1': 4, 'rot0': 3, 'rot3': 0, 'rot2': 1, 'depth': 1.767, 'yaw': -7.22, 'datetime': '2018-11-26 13:17:59.220049', 'mgs': 0, 'flw2': 2.58, 'flw1': 0.0, 'flw0': 1.28, 'time': 4.49, 'compass': -165.05, 'pitch': -0.96, 'roll': -0.94}
{'lipoC2': 7.1, 'temp': 28.69, 'lipoC3S3': 11.23, 'state': 'normal', 'rot1': 6, 'rot0': 4, 'rot3': 0, 'rot2': 1, 'depth': 2.072, 'yaw': -5.86, 'datetime': '2018-11-26 13:17:59.429243', 'mgs': 0, 'flw2': 2.56, 'flw1': 0.0, 'flw0': 1.27, 'time': 4.7, 'compass': -163.7, 'pitch': -1.23, 'roll': 1.77}
{'lipoC2': 7.06, 'temp': 28.69, 'lipoC3S3': 11.54, 'state': 'normal', 'rot1': 9, 'rot0': 6, 'rot3': 0, 'rot2': 1, 'depth': 1.691, 'yaw': -3.81, 'datetime': '2018-11-26 13:17:59.639830', 'mgs': 0, 'flw2': 2.53, 'flw1': 0.0, 'flw0': 1.2, 'time': 4.91, 'compass': -161.65, 'pitch': -1.35, 'roll': 4.06}
{'lipoC2': 7.08, 'temp': 28.56, 'lipoC3S3': 11.22, 'state': 'normal', 'rot1': 11, 'rot0': 8, 'rot3': 0, 'rot2': 1, 'depth': 1.92, 'yaw': -1.35, 'datetime': '2018-11-26 13:17:59.850503', 'mgs': 0, 'flw2': 2.8, 'flw1': 0.0, 'flw0': 1.27, 'time': 5.12, 'compass': -159.19, 'pitch': -1.23, 'roll': 5.55}
{'lipoC2': 7.08, 'temp': 28.69, 'lipoC3S3': 11.18, 'state': 'normal', 'rot1': 14, 'rot0': 9, 'rot3': 0, 'rot2': 1, 'depth': 1.614, 'yaw': 1.41, 'datetime': '2018-11-26 13:18:00.059522', 'mgs': 0, 'flw2': 2.49, 'flw1': 0.03, 'flw0': 1.32, 'time': 5.33, 'compass': -156.43, 'pitch': -0.91, 'roll': 6.18}
{'lipoC2': 7.33, 'temp': 28.69, 'lipoC3S3': 11.18, 'state': 'normal', 'rot1': 15, 'rot0': 11, 'rot3': 0, 'rot2': 1, 'depth': 1.462, 'yaw': 3.68, 'datetime': '2018-11-26 13:18:00.270358', 'mgs': 0, 'flw2': 1.16, 'flw1': 0.0, 'flw0': 2.77, 'time': 5.54, 'compass': -154.16, 'pitch': -0.48, 'roll': 6.01}
{'lipoC2': 7.1, 'temp': 28.75, 'lipoC3S3': 11.18, 'state': 'normal', 'rot1': 17, 'rot0': 13, 'rot3': 0, 'rot2': 1, 'depth': 1.767, 'yaw': 4.07, 'datetime': '2018-11-26 13:18:00.478449', 'mgs': 0, 'flw2': 1.26, 'flw1': 0.0, 'flw0': 2.71, 'time': 5.75, 'compass': -153.77, 'pitch': 0.06, 'roll': 5.28}
{'lipoC2': 7.09, 'temp': 28.63, 'lipoC3S3': 11.44, 'state': 'normal', 'rot1': 19, 'rot0': 16, 'rot3': 0, 'rot2': 1, 'depth': 1.385, 'yaw': 3.04, 'datetime': '2018-11-26 13:18:00.688876', 'mgs': 0, 'flw2': 1.16, 'flw1': 0.0, 'flw0': 2.72, 'time': 5.96, 'compass': -154.8, 'pitch': 0.57, 'roll': 4.39}
{'lipoC2': 7.11, 'temp': 28.75, 'lipoC3S3': 11.22, 'state': 'normal', 'rot1': 20, 'rot0': 18, 'rot3': 0, 'rot2': 1, 'depth': 2.682, 'yaw': 1.03, 'datetime': '2018-11-26 13:18:00.899398', 'mgs': 0, 'flw2': 1.18, 'flw1': 0.0, 'flw0': 2.65, 'time': 6.17, 'compass': -156.8, 'pitch': 0.79, 'roll': 3.58}
{'lipoC2': 7.08, 'temp': 28.63, 'lipoC3S3': 11.22, 'state': 'normal', 'rot1': 22, 'rot0': 20, 'rot3': 0, 'rot2': 1, 'depth': 1.309, 'yaw': -1.65, 'datetime': '2018-11-26 13:18:01.108578', 'mgs': 0, 'flw2': 2.73, 'flw1': 4.04, 'flw0': 2.62, 'time': 6.38, 'compass': -159.49, 'pitch': 0.53, 'roll': 2.92}
{'lipoC2': 7.09, 'temp': 28.69, 'lipoC3S3': 11.19, 'state': 'normal', 'rot1': 24, 'rot0': 23, 'rot3': 1, 'rot2': 2, 'depth': 2.377, 'yaw': -3.98, 'datetime': '2018-11-26 13:18:01.320494', 'mgs': 0, 'flw2': 2.73, 'flw1': 0.0, 'flw0': 2.65, 'time': 6.59, 'compass': -161.82, 'pitch': -0.22, 'roll': 3.36}
{'lipoC2': 7.09, 'temp': 28.75, 'lipoC3S3': 11.19, 'state': 'normal', 'rot1': 26, 'rot0': 25, 'rot3': 1, 'rot2': 2, 'depth': 1.157, 'yaw': -5.29, 'datetime': '2018-11-26 13:18:01.531414', 'mgs': 0, 'flw2': 2.59, 'flw1': 0.0, 'flw0': 1.2, 'time': 6.8, 'compass': -163.13, 'pitch': -0.83, 'roll': 3.62}
{'lipoC2': 7.08, 'temp': 28.75, 'lipoC3S3': 11.59, 'state': 'normal', 'rot1': 29, 'rot0': 26, 'rot3': 1, 'rot2': 2, 'depth': 1.157, 'yaw': -4.95, 'datetime': '2018-11-26 13:18:01.738677', 'mgs': 0, 'flw2': 2.6, 'flw1': 0.0, 'flw0': 1.2, 'time': 7.01, 'compass': -162.78, 'pitch': -1.03, 'roll': 2.76}
{'lipoC2': 7.07, 'temp': 28.69, 'lipoC3S3': 11.22, 'state': 'normal', 'rot1': 31, 'rot0': 28, 'rot3': 1, 'rot2': 2, 'depth': 1.233, 'yaw': -3.53, 'datetime': '2018-11-26 13:18:01.948575', 'mgs': 0, 'flw2': 2.59, 'flw1': 0.0, 'flw0': 1.28, 'time': 7.22, 'compass': -161.37, 'pitch': -1.08, 'roll': 2.37}
{'lipoC2': 7.08, 'temp': 28.69, 'lipoC3S3': 11.61, 'state': 'normal', 'rot1': 33, 'rot0': 29, 'rot3': 1, 'rot2': 2, 'depth': 1.157, 'yaw': -1.58, 'datetime': '2018-11-26 13:18:02.171735', 'mgs': 0, 'flw2': 2.59, 'flw1': 0.0, 'flw0': 1.23, 'time': 7.43, 'compass': -159.42, 'pitch': -0.82, 'roll': 2.7}
{'lipoC2': 7.09, 'temp': 28.69, 'lipoC3S3': 11.07, 'state': 'normal', 'rot1': 37, 'rot0': 32, 'rot3': 1, 'rot2': 2, 'depth': 1.233, 'yaw': 1.63, 'datetime': '2018-11-26 13:18:02.467810', 'mgs': 0, 'flw2': 2.48, 'flw1': 0.0, 'flw0': 2.82, 'time': 7.74, 'compass': -156.21, 'pitch': -0.13, 'roll': 3.58}
{'lipoC2': 7.07, 'temp': 28.63, 'lipoC3S3': 11.11, 'state': 'normal', 'rot1': 39, 'rot0': 34, 'rot3': 1, 'rot2': 2, 'depth': 1.309, 'yaw': 2.76, 'datetime': '2018-11-26 13:18:02.677287', 'mgs': 0, 'flw2': 1.06, 'flw1': 0.0, 'flw0': 2.82, 'time': 7.95, 'compass': -155.08, 'pitch': 0.21, 'roll': 4.15}
{'lipoC2': 7.07, 'temp': 28.75, 'lipoC3S3': 11.19, 'state': 'normal', 'rot1': 41, 'rot0': 37, 'rot3': 1, 'rot2': 2, 'depth': 1.92, 'yaw': 2.39, 'datetime': '2018-11-26 13:18:02.885753', 'mgs': 0, 'flw2': 1.15, 'flw1': 4.22, 'flw0': 2.87, 'time': 8.16, 'compass': -155.45, 'pitch': 0.54, 'roll': 3.98}
{'lipoC2': 7.24, 'temp': 28.69, 'lipoC3S3': 11.31, 'state': 'normal', 'rot1': 43, 'rot0': 39, 'rot3': 2, 'rot2': 3, 'depth': 1.309, 'yaw': 0.68, 'datetime': '2018-11-26 13:18:03.097722', 'mgs': 0, 'flw2': 1.12, 'flw1': 3.28, 'flw0': 2.69, 'time': 8.37, 'compass': -157.15, 'pitch': 0.65, 'roll': 3.81}
{'lipoC2': 7.07, 'temp': 28.69, 'lipoC3S3': 11.19, 'state': 'normal', 'rot1': 45, 'rot0': 41, 'rot3': 2, 'rot2': 4, 'depth': 1.462, 'yaw': -1.73, 'datetime': '2018-11-26 13:18:03.307975', 'mgs': 0, 'flw2': 2.77, 'flw1': 0.0, 'flw0': 2.73, 'time': 8.58, 'compass': -159.56, 'pitch': 0.61, 'roll': 3.93}
{'lipoC2': 7.07, 'temp': 28.75, 'lipoC3S3': 11.19, 'state': 'normal', 'rot1': 47, 'rot0': 44, 'rot3': 2, 'rot2': 4, 'depth': 1.462, 'yaw': -3.97, 'datetime': '2018-11-26 13:18:03.516405', 'mgs': 0, 'flw2': 2.62, 'flw1': 0.0, 'flw0': 2.7, 'time': 8.79, 'compass': -161.81, 'pitch': 0.29, 'roll': 3.85}
{'lipoC2': 7.07, 'temp': 28.69, 'lipoC3S3': 11.32, 'state': 'normal', 'rot1': 49, 'rot0': 46, 'rot3': 2, 'rot2': 4, 'depth': 1.92, 'yaw': -5.4, 'datetime': '2018-11-26 13:18:03.726047', 'mgs': 0, 'flw2': 2.69, 'flw1': 0.0, 'flw0': 1.16, 'time': 9.0, 'compass': -163.23, 'pitch': -0.0, 'roll': 3.42}
{'lipoC2': 7.11, 'temp': 28.69, 'lipoC3S3': 11.18, 'state': 'normal', 'rot1': 51, 'rot0': 47, 'rot3': 3, 'rot2': 4, 'depth': 3.522, 'yaw': -5.25, 'datetime': '2018-11-26 13:18:03.935554', 'mgs': 0, 'flw2': 2.64, 'flw1': 3.19, 'flw0': 1.17, 'time': 9.21, 'compass': -163.09, 'pitch': -0.25, 'roll': 2.64}
{'lipoC2': 7.07, 'temp': 28.69, 'lipoC3S3': 11.11, 'state': 'normal', 'rot1': 54, 'rot0': 49, 'rot3': 3, 'rot2': 5, 'depth': 1.309, 'yaw': -4.38, 'datetime': '2018-11-26 13:18:04.144792', 'mgs': 0, 'flw2': 2.48, 'flw1': 0.0, 'flw0': 1.23, 'time': 9.42, 'compass': -162.22, 'pitch': -0.52, 'roll': 2.47}
{'lipoC2': 7.25, 'temp': 28.69, 'lipoC3S3': 11.22, 'state': 'normal', 'rot1': 56, 'rot0': 50, 'rot3': 3, 'rot2': 5, 'depth': 1.385, 'yaw': -3.0, 'datetime': '2018-11-26 13:18:04.355206', 'mgs': 0, 'flw2': 2.53, 'flw1': 0.0, 'flw0': 1.22, 'time': 9.63, 'compass': -160.84, 'pitch': -0.58, 'roll': 2.3}
{'lipoC2': 7.23, 'temp': 28.63, 'lipoC3S3': 11.18, 'state': 'normal', 'rot1': 58, 'rot0': 52, 'rot3': 3, 'rot2': 5, 'depth': 0.928, 'yaw': -1.03, 'datetime': '2018-11-26 13:18:04.563547', 'mgs': 0, 'flw2': 2.54, 'flw1': 0.0, 'flw0': 1.25, 'time': 9.84, 'compass': -158.87, 'pitch': -0.46, 'roll': 2.0}
{'lipoC2': 7.07, 'temp': 28.69, 'lipoC3S3': 11.6, 'state': 'normal', 'rot1': 61, 'rot0': 54, 'rot3': 3, 'rot2': 5, 'depth': 1.385, 'yaw': 1.29, 'datetime': '2018-11-26 13:18:04.773242', 'mgs': 0, 'flw2': 2.54, 'flw1': 4.31, 'flw0': 1.25, 'time': 10.05, 'compass': -156.55, 'pitch': -0.14, 'roll': 1.86}
{'lipoC2': 7.12, 'temp': 28.75, 'lipoC3S3': 11.42, 'state': 'normal', 'rot1': 63, 'rot0': 56, 'rot3': 4, 'rot2': 6, 'depth': 1.309, 'yaw': 3.21, 'datetime': '2018-11-26 13:18:04.981835', 'mgs': 0, 'flw2': 1.15, 'flw1': 3.43, 'flw0': 2.77, 'time': 10.26, 'compass': -154.63, 'pitch': 0.04, 'roll': 2.07}
{'lipoC2': 7.26, 'temp': 28.69, 'lipoC3S3': 11.31, 'state': 'normal', 'rot1': 64, 'rot0': 58, 'rot3': 4, 'rot2': 6, 'depth': 1.462, 'yaw': 3.3, 'datetime': '2018-11-26 13:18:05.191435', 'mgs': 0, 'flw2': 1.25, 'flw1': 0.0, 'flw0': 2.76, 'time': 10.47, 'compass': -154.53, 'pitch': 0.22, 'roll': 2.69}
{'lipoC2': 7.07, 'temp': 28.75, 'lipoC3S3': 11.19, 'state': 'normal', 'rot1': 66, 'rot0': 60, 'rot3': 4, 'rot2': 6, 'depth': 1.462, 'yaw': 2.33, 'datetime': '2018-11-26 13:18:05.401853', 'mgs': 0, 'flw2': 1.18, 'flw1': 0.0, 'flw0': 2.66, 'time': 10.68, 'compass': -155.51, 'pitch': 0.55, 'roll': 2.86}
{'lipoC2': 7.07, 'temp': 28.75, 'lipoC3S3': 11.21, 'state': 'normal', 'rot1': 68, 'rot0': 62, 'rot3': 4, 'rot2': 6, 'depth': 2.072, 'yaw': 0.54, 'datetime': '2018-11-26 13:18:05.611250', 'mgs': 0, 'flw2': 1.22, 'flw1': 0.0, 'flw0': 2.72, 'time': 10.89, 'compass': -157.3, 'pitch': 0.88, 'roll': 2.77}
{'lipoC2': 7.09, 'temp': 28.63, 'lipoC3S3': 11.18, 'state': 'normal', 'rot1': 69, 'rot0': 65, 'rot3': 5, 'rot2': 7, 'depth': 2.377, 'yaw': -2.01, 'datetime': '2018-11-26 13:18:05.824241', 'mgs': 0, 'flw2': 2.84, 'flw1': 3.05, 'flw0': 2.61, 'time': 11.1, 'compass': -159.85, 'pitch': 0.93, 'roll': 2.56}
{'lipoC2': 7.12, 'temp': 28.69, 'lipoC3S3': 11.4, 'state': 'normal', 'rot1': 72, 'rot0': 67, 'rot3': 5, 'rot2': 8, 'depth': 2.072, 'yaw': -4.34, 'datetime': '2018-11-26 13:18:06.030506', 'mgs': 0, 'flw2': 2.72, 'flw1': 0.0, 'flw0': 2.62, 'time': 11.31, 'compass': -162.18, 'pitch': 0.53, 'roll': 3.11}
{'lipoC2': 7.08, 'temp': 28.69, 'lipoC3S3': 11.18, 'state': 'normal', 'rot1': 74, 'rot0': 69, 'rot3': 5, 'rot2': 8, 'depth': 1.538, 'yaw': -5.58, 'datetime': '2018-11-26 13:18:06.239837', 'mgs': 0, 'flw2': 2.53, 'flw1': 0.0, 'flw0': 1.21, 'time': 11.52, 'compass': -163.42, 'pitch': 0.07, 'roll': 3.63}
{'lipoC2': 7.07, 'temp': 28.75, 'lipoC3S3': 11.61, 'state': 'normal', 'rot1': 76, 'rot0': 71, 'rot3': 5, 'rot2': 8, 'depth': 1.538, 'yaw': -5.31, 'datetime': '2018-11-26 13:18:06.450138', 'mgs': 0, 'flw2': 2.67, 'flw1': 0.0, 'flw0': 1.25, 'time': 11.73, 'compass': -163.15, 'pitch': -0.31, 'roll': 3.62}
{'lipoC2': 7.07, 'temp': 28.69, 'lipoC3S3': 11.17, 'state': 'normal', 'rot1': 78, 'rot0': 72, 'rot3': 6, 'rot2': 8, 'depth': 1.538, 'yaw': -3.98, 'datetime': '2018-11-26 13:18:06.660525', 'mgs': 0, 'flw2': 2.51, 'flw1': 4.8, 'flw0': 1.23, 'time': 11.94, 'compass': -161.82, 'pitch': -0.51, 'roll': 3.55}
{'lipoC2': 7.08, 'temp': 28.69, 'lipoC3S3': 11.09, 'state': 'normal', 'rot1': 81, 'rot0': 74, 'rot3': 7, 'rot2': 9, 'depth': 2.072, 'yaw': -1.98, 'datetime': '2018-11-26 13:18:06.870597', 'mgs': 0, 'flw2': 2.75, 'flw1': 3.75, 'flw0': 1.22, 'time': 12.15, 'compass': -159.82, 'pitch': -0.59, 'roll': 3.62}
{'lipoC2': 7.1, 'temp': 28.75, 'lipoC3S3': 11.42, 'state': 'normal', 'rot1': 83, 'rot0': 76, 'rot3': 7, 'rot2': 10, 'depth': 1.538, 'yaw': 0.41, 'datetime': '2018-11-26 13:18:07.079231', 'mgs': 0, 'flw2': 2.59, 'flw1': 3.11, 'flw0': 2.7, 'time': 12.36, 'compass': -157.42, 'pitch': -0.51, 'roll': 3.97}
{'lipoC2': 7.1, 'temp': 28.75, 'lipoC3S3': 11.19, 'state': 'normal', 'rot1': 85, 'rot0': 78, 'rot3': 8, 'rot2': 11, 'depth': 2.377, 'yaw': 2.13, 'datetime': '2018-11-26 13:18:07.291582', 'mgs': 0, 'flw2': 2.47, 'flw1': 0.0, 'flw0': 2.84, 'time': 12.57, 'compass': -155.7, 'pitch': -0.52, 'roll': 4.69}
{'lipoC2': 7.12, 'temp': 28.69, 'lipoC3S3': 11.19, 'state': 'normal', 'rot1': 87, 'rot0': 80, 'rot3': 8, 'rot2': 11, 'depth': 2.53, 'yaw': 2.56, 'datetime': '2018-11-26 13:18:07.499464', 'mgs': 0, 'flw2': 1.07, 'flw1': 0.0, 'flw0': 2.7, 'time': 12.78, 'compass': -155.28, 'pitch': -0.39, 'roll': 5.06}
{'lipoC2': 7.09, 'temp': 28.69, 'lipoC3S3': 11.1, 'state': 'normal', 'rot1': 89, 'rot0': 82, 'rot3': 9, 'rot2': 12, 'depth': 1.92, 'yaw': 1.4, 'datetime': '2018-11-26 13:18:07.709030', 'mgs': 0, 'flw2': 1.16, 'flw1': 4.07, 'flw0': 2.76, 'time': 12.99, 'compass': -156.43, 'pitch': -0.37, 'roll': 4.85}
{'lipoC2': 7.11, 'temp': 28.75, 'lipoC3S3': 11.19, 'state': 'normal', 'rot1': 90, 'rot0': 85, 'rot3': 9, 'rot2': 12, 'depth': 2.988, 'yaw': -0.74, 'datetime': '2018-11-26 13:18:07.920668', 'mgs': 0, 'flw2': 1.18, 'flw1': 0.0, 'flw0': 2.65, 'time': 13.2, 'compass': -158.58, 'pitch': -0.61, 'roll': 5.01}
{'lipoC2': 7.07, 'temp': 28.69, 'lipoC3S3': 11.18, 'state': 'normal', 'rot1': 93, 'rot0': 87, 'rot3': 9, 'rot2': 12, 'depth': 1.385, 'yaw': -3.0, 'datetime': '2018-11-26 13:18:08.129618', 'mgs': 0, 'flw2': 2.65, 'flw1': 0.0, 'flw0': 2.83, 'time': 13.41, 'compass': -160.84, 'pitch': -0.83, 'roll': 4.94}
{'lipoC2': 7.08, 'temp': 28.75, 'lipoC3S3': 11.18, 'state': 'normal', 'rot1': 95, 'rot0': 89, 'rot3': 9, 'rot2': 12, 'depth': 1.462, 'yaw': -4.58, 'datetime': '2018-11-26 13:18:08.338057', 'mgs': 0, 'flw2': 2.77, 'flw1': 0.0, 'flw0': 1.16, 'time': 13.62, 'compass': -162.42, 'pitch': -1.05, 'roll': 4.75}
{'lipoC2': 7.07, 'temp': 28.69, 'lipoC3S3': 11.19, 'state': 'normal', 'rot1': 97, 'rot0': 90, 'rot3': 9, 'rot2': 12, 'depth': 1.462, 'yaw': -4.7, 'datetime': '2018-11-26 13:18:08.547064', 'mgs': 0, 'flw2': 2.66, 'flw1': 0.09, 'flw0': 1.12, 'time': 13.83, 'compass': -162.54, 'pitch': -1.21, 'roll': 4.17}
{'lipoC2': 7.07, 'temp': 28.69, 'lipoC3S3': 11.21, 'state': 'normal', 'rot1': 99, 'rot0': 92, 'rot3': 9, 'rot2': 12, 'depth': 1.462, 'yaw': -3.46, 'datetime': '2018-11-26 13:18:08.761186', 'mgs': 0, 'flw2': 2.6, 'flw1': 0.0, 'flw0': 1.28, 'time': 14.04, 'compass': -161.3, 'pitch': -1.27, 'roll': 3.43}
{'lipoC2': 7.07, 'temp': 28.69, 'lipoC3S3': 11.13, 'state': 'normal', 'rot1': 101, 'rot0': 94, 'rot3': 9, 'rot2': 12, 'depth': 1.309, 'yaw': -1.52, 'datetime': '2018-11-26 13:18:08.971262', 'mgs': 0, 'flw2': 2.59, 'flw1': 0.0, 'flw0': 1.35, 'time': 14.25, 'compass': -159.36, 'pitch': -0.9, 'roll': 2.87}
{'lipoC2': 7.07, 'temp': 28.75, 'lipoC3S3': 11.32, 'state': 'normal', 'rot1': 104, 'rot0': 95, 'rot3': 9, 'rot2': 12, 'depth': 1.462, 'yaw': 0.64, 'datetime': '2018-11-26 13:18:09.180317', 'mgs': 0, 'flw2': 2.55, 'flw1': 0.0, 'flw0': 1.29, 'time': 14.46, 'compass': -157.19, 'pitch': -0.22, 'roll': 2.29}
{'lipoC2': 7.07, 'temp': 28.69, 'lipoC3S3': 11.19, 'state': 'normal', 'rot1': 106, 'rot0': 97, 'rot3': 9, 'rot2': 12, 'depth': 2.53, 'yaw': 2.63, 'datetime': '2018-11-26 13:18:09.388876', 'mgs': 0, 'flw2': 2.77, 'flw1': 0.0, 'flw0': 2.69, 'time': 14.67, 'compass': -155.21, 'pitch': 0.53, 'roll': 1.88}
{'lipoC2': 7.09, 'temp': 28.75, 'lipoC3S3': 11.13, 'state': 'normal', 'rot1': 108, 'rot0': 100, 'rot3': 10, 'rot2': 13, 'depth': 2.988, 'yaw': 3.51, 'datetime': '2018-11-26 13:18:09.599826', 'mgs': 0, 'flw2': 1.2, 'flw1': 3.75, 'flw0': 2.64, 'time': 14.88, 'compass': -154.33, 'pitch': 1.02, 'roll': 2.03}
{'lipoC2': 7.07, 'temp': 28.75, 'lipoC3S3': 11.27, 'state': 'normal', 'rot1': 110, 'rot0': 102, 'rot3': 11, 'rot2': 14, 'depth': 1.385, 'yaw': 2.82, 'datetime': '2018-11-26 13:18:09.812915', 'mgs': 0, 'flw2': 1.11, 'flw1': 0.0, 'flw0': 2.7, 'time': 15.09, 'compass': -155.01, 'pitch': 0.98, 'roll': 2.32}
{'lipoC2': 7.07, 'temp': 28.75, 'lipoC3S3': 11.19, 'state': 'normal', 'rot1': 112, 'rot0': 104, 'rot3': 11, 'rot2': 14, 'depth': 1.462, 'yaw': 0.94, 'datetime': '2018-11-26 13:18:10.023931', 'mgs': 0, 'flw2': 1.18, 'flw1': 0.0, 'flw0': 2.94, 'time': 15.3, 'compass': -156.89, 'pitch': 0.77, 'roll': 2.6}
{'lipoC2': 7.07, 'temp': 28.75, 'lipoC3S3': 11.44, 'state': 'normal', 'rot1': 114, 'rot0': 106, 'rot3': 11, 'rot2': 14, 'depth': 1.538, 'yaw': -1.56, 'datetime': '2018-11-26 13:18:10.234760', 'mgs': 0, 'flw2': 2.62, 'flw1': 0.0, 'flw0': 2.72, 'time': 15.51, 'compass': -159.39, 'pitch': 0.42, 'roll': 2.74}
{'lipoC2': 7.08, 'temp': 28.75, 'lipoC3S3': 11.17, 'state': 'normal', 'rot1': 116, 'rot0': 109, 'rot3': 11, 'rot2': 14, 'depth': 1.462, 'yaw': -3.82, 'datetime': '2018-11-26 13:18:10.443160', 'mgs': 0, 'flw2': 2.6, 'flw1': 0.0, 'flw0': 2.61, 'time': 15.72, 'compass': -161.66, 'pitch': 0.12, 'roll': 3.14}
{'lipoC2': 7.08, 'temp': 28.69, 'lipoC3S3': 11.19, 'state': 'normal', 'rot1': 118, 'rot0': 110, 'rot3': 11, 'rot2': 14, 'depth': 2.53, 'yaw': -5.26, 'datetime': '2018-11-26 13:18:10.655631', 'mgs': 0, 'flw2': 2.77, 'flw1': 0.0, 'flw0': 1.25, 'time': 15.94, 'compass': -163.09, 'pitch': -0.33, 'roll': 3.28}
{'lipoC2': 7.26, 'temp': 28.75, 'lipoC3S3': 11.15, 'state': 'normal', 'rot1': 121, 'rot0': 112, 'rot3': 11, 'rot2': 15, 'depth': 1.233, 'yaw': -5.28, 'datetime': '2018-11-26 13:18:10.866999', 'mgs': 0, 'flw2': 2.59, 'flw1': 3.87, 'flw0': 1.18, 'time': 16.15, 'compass': -163.12, 'pitch': -0.89, 'roll': 2.99}
{'lipoC2': 7.08, 'temp': 28.75, 'lipoC3S3': 11.18, 'state': 'normal', 'rot1': 123, 'rot0': 114, 'rot3': 12, 'rot2': 16, 'depth': 2.148, 'yaw': -4.45, 'datetime': '2018-11-26 13:18:11.078270', 'mgs': 0, 'flw2': 2.67, 'flw1': 4.89, 'flw0': 1.17, 'time': 16.36, 'compass': -162.29, 'pitch': -1.3, 'roll': 3.4}
{'lipoC2': 7.08, 'temp': 28.75, 'lipoC3S3': 11.13, 'state': 'normal', 'rot1': 125, 'rot0': 115, 'rot3': 13, 'rot2': 17, 'depth': 1.691, 'yaw': -3.03, 'datetime': '2018-11-26 13:18:11.288425', 'mgs': 0, 'flw2': 2.64, 'flw1': 4.45, 'flw0': 1.28, 'time': 16.57, 'compass': -160.86, 'pitch': -1.46, 'roll': 4.47}
{'lipoC2': 7.21, 'temp': 28.69, 'lipoC3S3': 11.39, 'state': 'normal', 'rot1': 127, 'rot0': 117, 'rot3': 13, 'rot2': 17, 'depth': 1.157, 'yaw': -1.1, 'datetime': '2018-11-26 13:18:11.501725', 'mgs': 0, 'flw2': 2.66, 'flw1': 0.0, 'flw0': 1.28, 'time': 16.78, 'compass': -158.94, 'pitch': -1.53, 'roll': 5.37}
{'lipoC2': 7.07, 'temp': 28.69, 'lipoC3S3': 11.48, 'state': 'normal', 'rot1': 130, 'rot0': 118, 'rot3': 13, 'rot2': 18, 'depth': 1.691, 'yaw': 1.49, 'datetime': '2018-11-26 13:18:11.712376', 'mgs': 0, 'flw2': 2.61, 'flw1': 4.39, 'flw0': 1.23, 'time': 16.99, 'compass': -156.35, 'pitch': -1.08, 'roll': 5.21}
{'lipoC2': 7.07, 'temp': 28.69, 'lipoC3S3': 11.18, 'state': 'normal', 'rot1': 132, 'rot0': 121, 'rot3': 14, 'rot2': 18, 'depth': 1.996, 'yaw': 4.19, 'datetime': '2018-11-26 13:18:11.923840', 'mgs': 0, 'flw2': 1.22, 'flw1': 3.46, 'flw0': 2.69, 'time': 17.2, 'compass': -153.64, 'pitch': -0.56, 'roll': 4.93}
{'lipoC2': 7.07, 'temp': 28.75, 'lipoC3S3': 11.27, 'state': 'normal', 'rot1': 133, 'rot0': 123, 'rot3': 15, 'rot2': 19, 'depth': 1.462, 'yaw': 4.78, 'datetime': '2018-11-26 13:18:12.133869', 'mgs': 0, 'flw2': 1.16, 'flw1': 3.4, 'flw0': 2.77, 'time': 17.41, 'compass': -153.06, 'pitch': -0.24, 'roll': 4.92}
{'lipoC2': 7.24, 'temp': 28.69, 'lipoC3S3': 11.21, 'state': 'normal', 'rot1': 135, 'rot0': 125, 'rot3': 16, 'rot2': 20, 'depth': 1.233, 'yaw': 3.72, 'datetime': '2018-11-26 13:18:12.344465', 'mgs': 0, 'flw2': 1.26, 'flw1': 0.0, 'flw0': 2.7, 'time': 17.62, 'compass': -154.11, 'pitch': -0.11, 'roll': 4.92}
{'lipoC2': 7.08, 'temp': 28.69, 'lipoC3S3': 11.19, 'state': 'normal', 'rot1': 137, 'rot0': 127, 'rot3': 16, 'rot2': 20, 'depth': 1.614, 'yaw': 1.69, 'datetime': '2018-11-26 13:18:12.554698', 'mgs': 0, 'flw2': 1.26, 'flw1': 0.0, 'flw0': 2.77, 'time': 17.83, 'compass': -156.15, 'pitch': 0.03, 'roll': 4.42}
{'lipoC2': 7.08, 'temp': 28.75, 'lipoC3S3': 11.15, 'state': 'normal', 'rot1': 138, 'rot0': 129, 'rot3': 16, 'rot2': 20, 'depth': 1.233, 'yaw': -0.95, 'datetime': '2018-11-26 13:18:12.766446', 'mgs': 0, 'flw2': 2.78, 'flw1': 0.0, 'flw0': 2.78, 'time': 18.05, 'compass': -158.79, 'pitch': 0.21, 'roll': 3.8}
{'lipoC2': 7.08, 'temp': 28.69, 'lipoC3S3': 11.18, 'state': 'normal', 'rot1': 141, 'rot0': 132, 'rot3': 16, 'rot2': 20, 'depth': 2.072, 'yaw': -3.14, 'datetime': '2018-11-26 13:18:12.979699', 'mgs': 0, 'flw2': 2.77, 'flw1': 0.0, 'flw0': 2.71, 'time': 18.26, 'compass': -160.98, 'pitch': 0.28, 'roll': 3.72}
{'lipoC2': 7.12, 'temp': 28.75, 'lipoC3S3': 11.4, 'state': 'normal', 'rot1': 143, 'rot0': 134, 'rot3': 16, 'rot2': 20, 'depth': 1.309, 'yaw': -4.19, 'datetime': '2018-11-26 13:18:13.190000', 'mgs': 0, 'flw2': 2.61, 'flw1': 0.0, 'flw0': 1.17, 'time': 18.47, 'compass': -162.03, 'pitch': 0.16, 'roll': 3.6}
{'lipoC2': 7.07, 'temp': 28.75, 'lipoC3S3': 11.18, 'state': 'normal', 'rot1': 145, 'rot0': 135, 'rot3': 16, 'rot2': 20, 'depth': 2.072, 'yaw': -3.61, 'datetime': '2018-11-26 13:18:13.400555', 'mgs': 0, 'flw2': 2.72, 'flw1': 0.0, 'flw0': 1.26, 'time': 18.68, 'compass': -161.44, 'pitch': -0.05, 'roll': 2.94}
{'lipoC2': 7.08, 'temp': 28.75, 'lipoC3S3': 11.19, 'state': 'normal', 'rot1': 148, 'rot0': 137, 'rot3': 16, 'rot2': 20, 'depth': 1.538, 'yaw': -1.97, 'datetime': '2018-11-26 13:18:13.611588', 'mgs': 0, 'flw2': 2.69, 'flw1': 0.0, 'flw0': 1.21, 'time': 18.89, 'compass': -159.81, 'pitch': -0.16, 'roll': 2.49}
{'lipoC2': 7.08, 'temp': 28.75, 'lipoC3S3': 11.14, 'state': 'normal', 'rot1': 150, 'rot0': 139, 'rot3': 16, 'rot2': 20, 'depth': 1.385, 'yaw': -0.0, 'datetime': '2018-11-26 13:18:13.822184', 'mgs': 0, 'flw2': 2.48, 'flw1': 0.0, 'flw0': 1.22, 'time': 19.1, 'compass': -157.84, 'pitch': -0.1, 'roll': 2.35}
{'lipoC2': 7.07, 'temp': 28.75, 'lipoC3S3': 11.19, 'state': 'normal', 'rot1': 152, 'rot0': 140, 'rot3': 16, 'rot2': 20, 'depth': 1.462, 'yaw': 2.06, 'datetime': '2018-11-26 13:18:14.033319', 'mgs': 0, 'flw2': 1.04, 'flw1': 0.0, 'flw0': 2.87, 'time': 19.31, 'compass': -155.78, 'pitch': -0.04, 'roll': 2.12}
{'lipoC2': 7.24, 'temp': 28.75, 'lipoC3S3': 11.18, 'state': 'normal', 'rot1': 154, 'rot0': 143, 'rot3': 16, 'rot2': 20, 'depth': 0.928, 'yaw': 2.7, 'datetime': '2018-11-26 13:18:14.240580', 'mgs': 0, 'flw2': 1.12, 'flw1': 0.0, 'flw0': 2.7, 'time': 19.52, 'compass': -155.14, 'pitch': -0.09, 'roll': 1.62}
{'lipoC2': 7.08, 'temp': 28.75, 'lipoC3S3': 11.18, 'state': 'normal', 'rot1': 156, 'rot0': 145, 'rot3': 16, 'rot2': 20, 'depth': 2.225, 'yaw': 1.76, 'datetime': '2018-11-26 13:18:14.450637', 'mgs': 0, 'flw2': 1.35, 'flw1': 0.0, 'flw0': 2.62, 'time': 19.73, 'compass': -156.07, 'pitch': -0.07, 'roll': 1.17}
{'lipoC2': 7.07, 'temp': 28.69, 'lipoC3S3': 11.19, 'state': 'normal', 'rot1': 158, 'rot0': 147, 'rot3': 16, 'rot2': 21, 'depth': 1.691, 'yaw': -0.04, 'datetime': '2018-11-26 13:18:14.659939', 'mgs': 0, 'flw2': 2.72, 'flw1': 3.81, 'flw0': 2.76, 'time': 19.95, 'compass': -157.87, 'pitch': -0.22, 'roll': 0.99}
{'lipoC2': 7.08, 'temp': 28.75, 'lipoC3S3': 11.18, 'state': 'normal', 'rot1': 160, 'rot0': 149, 'rot3': 17, 'rot2': 22, 'depth': 3.674, 'yaw': -1.83, 'datetime': '2018-11-26 13:18:14.873606', 'mgs': 0, 'flw2': 2.72, 'flw1': 0.0, 'flw0': 2.64, 'time': 20.16, 'compass': -159.66, 'pitch': -0.64, 'roll': 1.68}
{'lipoC2': 7.07, 'temp': 28.75, 'lipoC3S3': 11.19, 'state': 'normal', 'rot1': 162, 'rot0': 151, 'rot3': 17, 'rot2': 22, 'depth': 1.767, 'yaw': -2.93, 'datetime': '2018-11-26 13:18:15.084708', 'mgs': 0, 'flw2': 2.7, 'flw1': 0.0, 'flw0': 1.35, 'time': 20.37, 'compass': -160.77, 'pitch': -0.77, 'roll': 2.6}
{'lipoC2': 7.07, 'temp': 28.75, 'lipoC3S3': 11.19, 'state': 'normal', 'rot1': 165, 'rot0': 153, 'rot3': 17, 'rot2': 22, 'depth': 1.767, 'yaw': -2.59, 'datetime': '2018-11-26 13:18:15.293938', 'mgs': 0, 'flw2': 2.51, 'flw1': 0.0, 'flw0': 1.35, 'time': 20.58, 'compass': -160.42, 'pitch': -0.76, 'roll': 3.17}
{'lipoC2': 7.07, 'temp': 28.75, 'lipoC3S3': 11.13, 'state': 'normal', 'rot1': 167, 'rot0': 155, 'rot3': 17, 'rot2': 22, 'depth': 1.843, 'yaw': -1.22, 'datetime': '2018-11-26 13:18:15.504402', 'mgs': 0, 'flw2': 2.48, 'flw1': 0.0, 'flw0': 1.21, 'time': 20.79, 'compass': -159.06, 'pitch': -0.62, 'roll': 3.54}
{'lipoC2': 7.07, 'temp': 28.81, 'lipoC3S3': 11.18, 'state': 'normal', 'rot1': 170, 'rot0': 156, 'rot3': 17, 'rot2': 22, 'depth': 1.843, 'yaw': 0.11, 'datetime': '2018-11-26 13:18:15.716524', 'mgs': 0, 'flw2': 2.59, 'flw1': 0.0, 'flw0': 1.26, 'time': 21.0, 'compass': -157.73, 'pitch': -0.88, 'roll': 2.67}
{'lipoC2': 7.08, 'temp': 28.69, 'lipoC3S3': 11.17, 'state': 'normal', 'rot1': 172, 'rot0': 158, 'rot3': 17, 'rot2': 22, 'depth': 2.301, 'yaw': 1.49, 'datetime': '2018-11-26 13:18:15.931782', 'mgs': 0, 'flw2': 2.71, 'flw1': 0.0, 'flw0': 2.8, 'time': 21.21, 'compass': -156.35, 'pitch': -0.9, 'roll': 1.03}
{'lipoC2': 7.08, 'temp': 28.75, 'lipoC3S3': 11.15, 'state': 'normal', 'rot1': 174, 'rot0': 160, 'rot3': 17, 'rot2': 22, 'depth': 1.996, 'yaw': 1.77, 'datetime': '2018-11-26 13:18:16.140852', 'mgs': 0, 'flw2': 2.71, 'flw1': 5.95, 'flw0': 2.73, 'time': 21.42, 'compass': -156.06, 'pitch': 0.52, 'roll': -0.12}
{'lipoC2': 7.07, 'temp': 28.75, 'lipoC3S3': 11.18, 'state': 'normal', 'rot1': 176, 'rot0': 163, 'rot3': 17, 'rot2': 23, 'depth': 1.92, 'yaw': -0.12, 'datetime': '2018-11-26 13:18:16.345937', 'mgs': 0, 'flw2': 1.11, 'flw1': 4.51, 'flw0': 2.86, 'time': 21.63, 'compass': -157.95, 'pitch': 3.44, 'roll': -0.36}
{'lipoC2': 7.08, 'temp': 28.75, 'lipoC3S3': 11.06, 'state': 'normal', 'rot1': 178, 'rot0': 165, 'rot3': 18, 'rot2': 24, 'depth': 1.996, 'yaw': -4.22, 'datetime': '2018-11-26 13:18:16.556899', 'mgs': 0, 'flw2': 2.54, 'flw1': 3.13, 'flw0': 1.18, 'time': 21.84, 'compass': -162.06, 'pitch': 6.21, 'roll': 0.51}
{'lipoC2': 7.21, 'temp': 28.75, 'lipoC3S3': 11.36, 'state': 'normal', 'rot1': 180, 'rot0': 166, 'rot3': 19, 'rot2': 25, 'depth': 2.072, 'yaw': -8.03, 'datetime': '2018-11-26 13:18:16.768925', 'mgs': 0, 'flw2': 2.55, 'flw1': 3.34, 'flw0': 1.2, 'time': 22.06, 'compass': -165.86, 'pitch': 7.11, 'roll': 2.07}
{'lipoC2': 7.26, 'temp': 28.75, 'lipoC3S3': 11.21, 'state': 'normal', 'rot1': 182, 'rot0': 168, 'rot3': 19, 'rot2': 26, 'depth': 1.538, 'yaw': -10.59, 'datetime': '2018-11-26 13:18:16.989567', 'mgs': 0, 'flw2': 2.58, 'flw1': 3.46, 'flw0': 1.23, 'time': 22.27, 'compass': -168.43, 'pitch': 6.02, 'roll': 4.06}
{'lipoC2': 7.08, 'temp': 28.81, 'lipoC3S3': 11.5, 'state': 'normal', 'rot1': 185, 'rot0': 170, 'rot3': 20, 'rot2': 26, 'depth': 2.072, 'yaw': -12.05, 'datetime': '2018-11-26 13:18:17.199748', 'mgs': 0, 'flw2': 2.53, 'flw1': 0.0, 'flw0': 1.21, 'time': 22.48, 'compass': -169.89, 'pitch': 3.84, 'roll': 5.86}
{'lipoC2': 7.33, 'temp': 28.75, 'lipoC3S3': 11.22, 'state': 'normal', 'rot1': 187, 'rot0': 171, 'rot3': 20, 'rot2': 27, 'depth': 2.606, 'yaw': -12.51, 'datetime': '2018-11-26 13:18:17.411671', 'mgs': 0, 'flw2': 2.59, 'flw1': 5.89, 'flw0': 1.27, 'time': 22.69, 'compass': -170.34, 'pitch': 1.36, 'roll': 6.75}
{'lipoC2': 7.22, 'temp': 28.75, 'lipoC3S3': 11.18, 'state': 'normal', 'rot1': 189, 'rot0': 173, 'rot3': 21, 'rot2': 28, 'depth': 2.377, 'yaw': -12.72, 'datetime': '2018-11-26 13:18:17.618356', 'mgs': 0, 'flw2': 2.54, 'flw1': 4.8, 'flw0': 1.27, 'time': 22.9, 'compass': -170.55, 'pitch': -0.94, 'roll': 7.37}
{'lipoC2': 7.23, 'temp': 28.75, 'lipoC3S3': 11.18, 'state': 'normal', 'rot1': 192, 'rot0': 175, 'rot3': 21, 'rot2': 29, 'depth': 1.691, 'yaw': -15.87, 'datetime': '2018-11-26 13:18:17.827707', 'mgs': 0, 'flw2': 2.61, 'flw1': 3.66, 'flw0': 1.28, 'time': 23.11, 'compass': -173.71, 'pitch': -2.86, 'roll': 8.42}
{'lipoC2': 7.23, 'temp': 28.75, 'lipoC3S3': 11.34, 'state': 'normal', 'rot1': 194, 'rot0': 176, 'rot3': 22, 'rot2': 30, 'depth': 1.843, 'yaw': -20.64, 'datetime': '2018-11-26 13:18:18.039996', 'mgs': 0, 'flw2': 2.54, 'flw1': 0.0, 'flw0': 1.25, 'time': 23.33, 'compass': -178.48, 'pitch': -4.04, 'roll': 8.18}
{'lipoC2': 7.08, 'temp': 28.75, 'lipoC3S3': 11.17, 'state': 'normal', 'rot1': 196, 'rot0': 178, 'rot3': 22, 'rot2': 30, 'depth': 1.767, 'yaw': -23.78, 'datetime': '2018-11-26 13:18:18.249559', 'mgs': 0, 'flw2': 2.55, 'flw1': 0.0, 'flw0': 1.35, 'time': 23.53, 'compass': 178.38, 'pitch': -3.73, 'roll': 7.06}
{'lipoC2': 7.08, 'temp': 28.81, 'lipoC3S3': 11.17, 'state': 'normal', 'rot1': 199, 'rot0': 179, 'rot3': 22, 'rot2': 30, 'depth': 1.691, 'yaw': -25.7, 'datetime': '2018-11-26 13:18:18.459738', 'mgs': 0, 'flw2': 2.6, 'flw1': 0.0, 'flw0': 1.17, 'time': 23.75, 'compass': 176.46, 'pitch': -2.55, 'roll': 5.51}
{'lipoC2': 7.1, 'temp': 28.81, 'lipoC3S3': 11.5, 'state': 'normal', 'rot1': 201, 'rot0': 181, 'rot3': 22, 'rot2': 30, 'depth': 1.385, 'yaw': -27.1, 'datetime': '2018-11-26 13:18:18.669198', 'mgs': 0, 'flw2': 2.65, 'flw1': 0.0, 'flw0': 1.32, 'time': 23.96, 'compass': 175.06, 'pitch': -0.94, 'roll': 3.61}
{'lipoC2': 7.26, 'temp': 28.75, 'lipoC3S3': 11.22, 'state': 'normal', 'rot1': 203, 'rot0': 182, 'rot3': 22, 'rot2': 30, 'depth': 0.928, 'yaw': -28.1, 'datetime': '2018-11-26 13:18:18.881118', 'mgs': 0, 'flw2': 2.55, 'flw1': 0.0, 'flw0': 1.28, 'time': 24.17, 'compass': 174.06, 'pitch': 0.66, 'roll': 1.56}
{'lipoC2': 7.08, 'temp': 28.75, 'lipoC3S3': 11.17, 'state': 'normal', 'rot1': 206, 'rot0': 184, 'rot3': 22, 'rot2': 30, 'depth': 1.996, 'yaw': -28.73, 'datetime': '2018-11-26 13:18:19.090245', 'mgs': 0, 'flw2': 2.58, 'flw1': 0.0, 'flw0': 1.23, 'time': 24.38, 'compass': 173.43, 'pitch': 1.86, 'roll': -0.02}
{'lipoC2': 7.07, 'temp': 28.75, 'lipoC3S3': 11.18, 'state': 'normal', 'rot1': 208, 'rot0': 185, 'rot3': 22, 'rot2': 30, 'depth': 1.538, 'yaw': -28.96, 'datetime': '2018-11-26 13:18:19.300433', 'mgs': 0, 'flw2': 2.62, 'flw1': 0.0, 'flw0': 1.34, 'time': 24.59, 'compass': 173.2, 'pitch': 2.56, 'roll': -0.8}
{'lipoC2': 7.08, 'temp': 28.75, 'lipoC3S3': 11.21, 'state': 'normal', 'rot1': 210, 'rot0': 187, 'rot3': 22, 'rot2': 30, 'depth': 1.462, 'yaw': -28.71, 'datetime': '2018-11-26 13:18:19.510525', 'mgs': 0, 'flw2': 2.72, 'flw1': 0.0, 'flw0': 1.26, 'time': 24.8, 'compass': 173.45, 'pitch': 2.92, 'roll': -0.83}
{'lipoC2': 7.07, 'temp': 28.75, 'lipoC3S3': 11.18, 'state': 'normal', 'rot1': 212, 'rot0': 189, 'rot3': 22, 'rot2': 30, 'depth': 1.157, 'yaw': -27.97, 'datetime': '2018-11-26 13:18:19.721029', 'mgs': 0, 'flw2': 2.53, 'flw1': 0.0, 'flw0': 1.38, 'time': 25.01, 'compass': 174.2, 'pitch': 2.69, 'roll': -0.35}
{'lipoC2': 7.08, 'temp': 28.69, 'lipoC3S3': 11.11, 'state': 'normal', 'rot1': 215, 'rot0': 190, 'rot3': 22, 'rot2': 30, 'depth': 1.462, 'yaw': -26.74, 'datetime': '2018-11-26 13:18:19.932036', 'mgs': 0, 'flw2': 2.54, 'flw1': 4.16, 'flw0': 1.25, 'time': 25.22, 'compass': 175.42, 'pitch': 1.88, 'roll': 0.21}
{'lipoC2': 7.24, 'temp': 28.69, 'lipoC3S3': 11.18, 'state': 'normal', 'rot1': 217, 'rot0': 192, 'rot3': 23, 'rot2': 31, 'depth': 1.691, 'yaw': -25.18, 'datetime': '2018-11-26 13:18:20.141570', 'mgs': 0, 'flw2': 2.66, 'flw1': 3.22, 'flw0': 1.21, 'time': 25.43, 'compass': 176.98, 'pitch': 0.79, 'roll': 1.13}
{'lipoC2': 7.07, 'temp': 28.75, 'lipoC3S3': 11.19, 'state': 'normal', 'rot1': 220, 'rot0': 193, 'rot3': 23, 'rot2': 31, 'depth': 1.996, 'yaw': -23.48, 'datetime': '2018-11-26 13:18:20.352184', 'mgs': 0, 'flw2': 2.67, 'flw1': 0.03, 'flw0': 1.27, 'time': 25.64, 'compass': 178.68, 'pitch': -0.05, 'roll': 2.5}
{'lipoC2': 7.24, 'temp': 28.75, 'lipoC3S3': 11.21, 'state': 'normal', 'rot1': 222, 'rot0': 195, 'rot3': 23, 'rot2': 31, 'depth': 0.623, 'yaw': -21.43, 'datetime': '2018-11-26 13:18:20.562700', 'mgs': 0, 'flw2': 2.65, 'flw1': 0.0, 'flw0': 1.28, 'time': 25.85, 'compass': -179.27, 'pitch': -0.55, 'roll': 3.19}
{'lipoC2': 7.07, 'temp': 28.75, 'lipoC3S3': 11.18, 'state': 'normal', 'rot1': 224, 'rot0': 197, 'rot3': 23, 'rot2': 31, 'depth': 1.996, 'yaw': -18.86, 'datetime': '2018-11-26 13:18:20.774002', 'mgs': 0, 'flw2': 2.67, 'flw1': 0.0, 'flw0': 1.18, 'time': 26.07, 'compass': -176.7, 'pitch': -0.65, 'roll': 3.21}
{'lipoC2': 7.08, 'temp': 28.69, 'lipoC3S3': 11.18, 'state': 'normal', 'rot1': 226, 'rot0': 198, 'rot3': 24, 'rot2': 32, 'depth': 1.385, 'yaw': -15.79, 'datetime': '2018-11-26 13:18:20.985290', 'mgs': 0, 'flw2': 2.7, 'flw1': 3.72, 'flw0': 1.21, 'time': 26.28, 'compass': -173.63, 'pitch': -0.38, 'roll': 3.15}
{'lipoC2': 7.1, 'temp': 28.81, 'lipoC3S3': 11.14, 'state': 'normal', 'rot1': 229, 'rot0': 200, 'rot3': 24, 'rot2': 33, 'depth': 1.767, 'yaw': -12.42, 'datetime': '2018-11-26 13:18:21.198366', 'mgs': 0, 'flw2': 2.39, 'flw1': 0.0, 'flw0': 1.21, 'time': 26.49, 'compass': -170.26, 'pitch': -0.04, 'roll': 3.39}
{'lipoC2': 7.12, 'temp': 28.75, 'lipoC3S3': 11.4, 'state': 'normal', 'rot1': 231, 'rot0': 202, 'rot3': 24, 'rot2': 33, 'depth': 1.691, 'yaw': -8.75, 'datetime': '2018-11-26 13:18:21.409510', 'mgs': 0, 'flw2': 2.6, 'flw1': 0.0, 'flw0': 1.17, 'time': 26.7, 'compass': -166.59, 'pitch': 0.43, 'roll': 3.11}
{'lipoC2': 7.08, 'temp': 28.81, 'lipoC3S3': 11.19, 'state': 'normal', 'rot1': 233, 'rot0': 203, 'rot3': 24, 'rot2': 33, 'depth': 1.462, 'yaw': -4.75, 'datetime': '2018-11-26 13:18:21.618642', 'mgs': 0, 'flw2': 2.81, 'flw1': 0.0, 'flw0': 1.27, 'time': 26.91, 'compass': -162.59, 'pitch': 1.11, 'roll': 2.68}
{'lipoC2': 7.08, 'temp': 28.81, 'lipoC3S3': 11.18, 'state': 'normal', 'rot1': 236, 'rot0': 205, 'rot3': 24, 'rot2': 33, 'depth': 1.385, 'yaw': -0.74, 'datetime': '2018-11-26 13:18:21.830961', 'mgs': 0, 'flw2': 2.5, 'flw1': 0.0, 'flw0': 1.22, 'time': 27.12, 'compass': -158.58, 'pitch': 1.82, 'roll': 2.57}
{'lipoC2': 7.08, 'temp': 28.75, 'lipoC3S3': 11.18, 'state': 'normal', 'rot1': 238, 'rot0': 207, 'rot3': 24, 'rot2': 33, 'depth': 1.996, 'yaw': 2.91, 'datetime': '2018-11-26 13:18:22.042418', 'mgs': 0, 'flw2': 2.72, 'flw1': 0.0, 'flw0': 2.56, 'time': 27.33, 'compass': -154.93, 'pitch': 2.06, 'roll': 2.32}
{'lipoC2': 7.07, 'temp': 28.75, 'lipoC3S3': 11.18, 'state': 'normal', 'rot1': 240, 'rot0': 209, 'rot3': 25, 'rot2': 33, 'depth': 1.462, 'yaw': 5.78, 'datetime': '2018-11-26 13:18:22.254619', 'mgs': 0, 'flw2': 1.07, 'flw1': 3.6, 'flw0': 2.89, 'time': 27.54, 'compass': -152.05, 'pitch': 1.74, 'roll': 2.15}
{'lipoC2': 7.08, 'temp': 28.75, 'lipoC3S3': 11.18, 'state': 'normal', 'rot1': 242, 'rot0': 212, 'rot3': 25, 'rot2': 34, 'depth': 1.385, 'yaw': 7.49, 'datetime': '2018-11-26 13:18:22.460327', 'mgs': 0, 'flw2': 1.18, 'flw1': 0.0, 'flw0': 2.7, 'time': 27.75, 'compass': -150.35, 'pitch': 1.59, 'roll': 2.58}
{'lipoC2': 7.07, 'temp': 28.81, 'lipoC3S3': 11.18, 'state': 'normal', 'rot1': 244, 'rot0': 214, 'rot3': 25, 'rot2': 34, 'depth': 1.538, 'yaw': 8.17, 'datetime': '2018-11-26 13:18:22.672152', 'mgs': 0, 'flw2': 1.16, 'flw1': 0.0, 'flw0': 2.67, 'time': 27.97, 'compass': -149.66, 'pitch': 1.81, 'roll': 2.99}
{'lipoC2': 7.12, 'temp': 28.75, 'lipoC3S3': 11.42, 'state': 'normal', 'rot1': 246, 'rot0': 216, 'rot3': 25, 'rot2': 34, 'depth': 2.454, 'yaw': 7.72, 'datetime': '2018-11-26 13:18:22.884346', 'mgs': 0, 'flw2': 1.2, 'flw1': 0.0, 'flw0': 2.61, 'time': 28.18, 'compass': -150.12, 'pitch': 2.11, 'roll': 2.69}
{'lipoC2': 7.28, 'temp': 28.75, 'lipoC3S3': 11.23, 'state': 'normal', 'rot1': 247, 'rot0': 219, 'rot3': 26, 'rot2': 34, 'depth': 2.148, 'yaw': 6.24, 'datetime': '2018-11-26 13:18:23.094388', 'mgs': 0, 'flw2': 1.18, 'flw1': 4.89, 'flw0': 2.69, 'time': 28.39, 'compass': -151.6, 'pitch': 2.25, 'roll': 1.62}
{'lipoC2': 7.07, 'temp': 28.75, 'lipoC3S3': 11.1, 'state': 'normal', 'rot1': 249, 'rot0': 221, 'rot3': 26, 'rot2': 35, 'depth': 1.538, 'yaw': 3.88, 'datetime': '2018-11-26 13:18:23.308649', 'mgs': 0, 'flw2': 1.15, 'flw1': 3.66, 'flw0': 2.67, 'time': 28.6, 'compass': -153.96, 'pitch': 1.52, 'roll': 0.62}
{'lipoC2': 7.07, 'temp': 28.75, 'lipoC3S3': 11.13, 'state': 'normal', 'rot1': 251, 'rot0': 223, 'rot3': 27, 'rot2': 36, 'depth': 1.538, 'yaw': 1.02, 'datetime': '2018-11-26 13:18:23.518508', 'mgs': 0, 'flw2': 1.11, 'flw1': 0.0, 'flw0': 2.81, 'time': 28.81, 'compass': -156.82, 'pitch': 0.64, 'roll': 0.92}
{'lipoC2': 7.09, 'temp': 28.75, 'lipoC3S3': 11.18, 'state': 'normal', 'rot1': 252, 'rot0': 225, 'rot3': 27, 'rot2': 36, 'depth': 2.072, 'yaw': -2.28, 'datetime': '2018-11-26 13:18:23.728594', 'mgs': 0, 'flw2': 1.07, 'flw1': 0.0, 'flw0': 2.78, 'time': 29.02, 'compass': -160.12, 'pitch': 0.07, 'roll': 1.41}
{'lipoC2': 7.07, 'temp': 28.75, 'lipoC3S3': 11.15, 'state': 'normal', 'rot1': 254, 'rot0': 227, 'rot3': 27, 'rot2': 36, 'depth': 1.614, 'yaw': -4.63, 'datetime': '2018-11-26 13:18:23.940124', 'mgs': 0, 'flw2': 2.51, 'flw1': 0.15, 'flw0': 1.17, 'time': 29.23, 'compass': -162.46, 'pitch': 0.29, 'roll': 2.68}
{'lipoC2': 7.07, 'temp': 28.75, 'lipoC3S3': 11.17, 'state': 'normal', 'rot1': 257, 'rot0': 229, 'rot3': 27, 'rot2': 36, 'depth': 1.843, 'yaw': -5.17, 'datetime': '2018-11-26 13:18:24.151261', 'mgs': 0, 'flw2': 2.55, 'flw1': 0.0, 'flw0': 1.26, 'time': 29.44, 'compass': -163.01, 'pitch': 0.53, 'roll': 3.85}
{'lipoC2': 7.1, 'temp': 28.75, 'lipoC3S3': 11.44, 'state': 'normal', 'rot1': 259, 'rot0': 230, 'rot3': 27, 'rot2': 36, 'depth': 2.606, 'yaw': -4.51, 'datetime': '2018-11-26 13:18:24.359441', 'mgs': 0, 'flw2': 2.66, 'flw1': 4.98, 'flw0': 1.2, 'time': 29.66, 'compass': -162.35, 'pitch': 0.18, 'roll': 4.09}
{'lipoC2': 7.07, 'temp': 28.81, 'lipoC3S3': 11.17, 'state': 'normal', 'rot1': 261, 'rot0': 232, 'rot3': 27, 'rot2': 37, 'depth': 1.843, 'yaw': -3.31, 'datetime': '2018-11-26 13:18:24.572691', 'mgs': 0, 'flw2': 2.67, 'flw1': 4.07, 'flw0': 1.25, 'time': 29.86, 'compass': -161.15, 'pitch': -0.67, 'roll': 4.09}
