{'lipoC2': 7.42, 'temp': 0.0, 'lipoC3S3': 11.26, 'state': 'normal', 'rot1': 0, 'rot0': 0, 'rot3': 0, 'rot2': 0, 'depth': -0.903, 'yaw': -0.0, 'datetime': '2018-12-12 14:15:29.870527', 'mgs': 0, 'flw2': 0.0, 'flw1': 0.0, 'flw0': 0.28, 'time': 1.36, 'compass': 85.52, 'pitch': 0.18, 'roll': -0.19}
{'lipoC2': 7.33, 'temp': 0.0, 'lipoC3S3': 11.67, 'state': 'normal', 'rot1': 0, 'rot0': 0, 'rot3': 0, 'rot2': 0, 'depth': -0.369, 'yaw': -0.0, 'datetime': '2018-12-12 14:15:30.078371', 'mgs': 0, 'flw2': 0.13, 'flw1': 0.0, 'flw0': 0.0, 'time': 1.57, 'compass': 85.52, 'pitch': 0.15, 'roll': -0.21}
{'lipoC2': 7.35, 'temp': 0.0, 'lipoC3S3': 11.36, 'state': 'normal', 'rot1': 0, 'rot0': 0, 'rot3': 0, 'rot2': 0, 'depth': 1.614, 'yaw': 0.01, 'datetime': '2018-12-12 14:15:30.285453', 'mgs': 0, 'flw2': 0.0, 'flw1': 0.0, 'flw0': 0.0, 'time': 1.77, 'compass': 85.53, 'pitch': -0.18, 'roll': -0.13}
{'lipoC2': 7.34, 'temp': 0.0, 'lipoC3S3': 11.51, 'state': 'normal', 'rot1': 0, 'rot0': 0, 'rot3': 0, 'rot2': 0, 'depth': 0.546, 'yaw': 0.0, 'datetime': '2018-12-12 14:15:30.493593', 'mgs': 0, 'flw2': 0.0, 'flw1': 0.59, 'flw0': 0.0, 'time': 1.98, 'compass': 85.52, 'pitch': -0.64, 'roll': 0.14}
{'lipoC2': 7.29, 'temp': 0.0, 'lipoC3S3': 11.31, 'state': 'normal', 'rot1': 2, 'rot0': 1, 'rot3': 0, 'rot2': 0, 'depth': -0.674, 'yaw': -0.88, 'datetime': '2018-12-12 14:15:30.700306', 'mgs': 0, 'flw2': 2.53, 'flw1': 0.0, 'flw0': 2.4, 'time': 2.19, 'compass': 84.64, 'pitch': -0.86, 'roll': 0.12}
{'lipoC2': 7.38, 'temp': 0.0, 'lipoC3S3': 11.34, 'state': 'normal', 'rot1': 5, 'rot0': 3, 'rot3': 0, 'rot2': 0, 'depth': 0.012, 'yaw': -5.79, 'datetime': '2018-12-12 14:15:30.907058', 'mgs': 0, 'flw2': 1.94, 'flw1': 0.0, 'flw0': 2.45, 'time': 2.4, 'compass': 79.74, 'pitch': -0.21, 'roll': -0.97}
{'lipoC2': 7.42, 'temp': 0.0, 'lipoC3S3': 11.19, 'state': 'normal', 'rot1': 8, 'rot0': 6, 'rot3': 0, 'rot2': 0, 'depth': 0.317, 'yaw': -14.04, 'datetime': '2018-12-12 14:15:31.115360', 'mgs': 0, 'flw2': 1.73, 'flw1': 0.0, 'flw0': 2.1, 'time': 2.61, 'compass': 71.49, 'pitch': 0.41, 'roll': -2.01}
{'lipoC2': 7.47, 'temp': 0.0, 'lipoC3S3': 11.19, 'state': 'normal', 'rot1': 11, 'rot0': 8, 'rot3': 0, 'rot2': 0, 'depth': 0.928, 'yaw': -23.85, 'datetime': '2018-12-12 14:15:31.326269', 'mgs': 0, 'flw2': 1.55, 'flw1': 0.0, 'flw0': 1.82, 'time': 2.81, 'compass': 61.68, 'pitch': 0.29, 'roll': -2.18}
{'lipoC2': 7.43, 'temp': 0.0, 'lipoC3S3': 11.25, 'state': 'normal', 'rot1': 13, 'rot0': 10, 'rot3': 0, 'rot2': 0, 'depth': 0.47, 'yaw': -33.99, 'datetime': '2018-12-12 14:15:31.535242', 'mgs': 0, 'flw2': 1.15, 'flw1': 0.0, 'flw0': 1.32, 'time': 3.02, 'compass': 51.54, 'pitch': -0.28, 'roll': -1.83}
{'lipoC2': 7.29, 'temp': 0.0, 'lipoC3S3': 11.44, 'state': 'normal', 'rot1': 14, 'rot0': 11, 'rot3': 0, 'rot2': 0, 'depth': -0.293, 'yaw': -43.26, 'datetime': '2018-12-12 14:15:31.745158', 'mgs': 0, 'flw2': 0.72, 'flw1': 0.0, 'flw0': 0.92, 'time': 3.23, 'compass': 42.26, 'pitch': -0.45, 'roll': -1.11}
{'lipoC2': 7.39, 'temp': 0.0, 'lipoC3S3': 11.35, 'state': 'normal', 'rot1': 16, 'rot0': 13, 'rot3': 0, 'rot2': 0, 'depth': 0.851, 'yaw': -52.4, 'datetime': '2018-12-12 14:15:31.953746', 'mgs': 0, 'flw2': 0.67, 'flw1': 0.0, 'flw0': 0.44, 'time': 3.44, 'compass': 33.12, 'pitch': -0.23, 'roll': -0.19}
{'lipoC2': 7.33, 'temp': 0.0, 'lipoC3S3': 11.5, 'state': 'normal', 'rot1': 17, 'rot0': 14, 'rot3': 0, 'rot2': 0, 'depth': -0.446, 'yaw': -60.82, 'datetime': '2018-12-12 14:15:32.162631', 'mgs': 0, 'flw2': 0.57, 'flw1': 0.0, 'flw0': 0.39, 'time': 3.65, 'compass': 24.71, 'pitch': -0.34, 'roll': 0.37}
{'lipoC2': 7.36, 'temp': 0.0, 'lipoC3S3': 11.67, 'state': 'normal', 'rot1': 18, 'rot0': 14, 'rot3': 0, 'rot2': 0, 'depth': 1.614, 'yaw': -68.43, 'datetime': '2018-12-12 14:15:32.369728', 'mgs': 0, 'flw2': 0.16, 'flw1': 0.59, 'flw0': 0.21, 'time': 3.86, 'compass': 17.09, 'pitch': -0.87, 'roll': 0.26}
{'lipoC2': 7.53, 'temp': 0.0, 'lipoC3S3': 11.4, 'state': 'normal', 'rot1': 19, 'rot0': 15, 'rot3': 0, 'rot2': 0, 'depth': -1.285, 'yaw': -75.2, 'datetime': '2018-12-12 14:15:32.579920', 'mgs': 0, 'flw2': 0.6, 'flw1': 0.0, 'flw0': 0.57, 'time': 4.07, 'compass': 10.33, 'pitch': -1.4, 'roll': -0.2}
{'lipoC2': 7.35, 'temp': 0.0, 'lipoC3S3': 11.51, 'state': 'normal', 'rot1': 20, 'rot0': 16, 'rot3': 0, 'rot2': 0, 'depth': 1.157, 'yaw': -82.0, 'datetime': '2018-12-12 14:15:32.788783', 'mgs': 0, 'flw2': 0.22, 'flw1': 0.0, 'flw0': 0.4, 'time': 4.27, 'compass': 3.53, 'pitch': -1.44, 'roll': -0.56}
{'lipoC2': 7.27, 'temp': 0.0, 'lipoC3S3': 11.38, 'state': 'normal', 'rot1': 20, 'rot0': 16, 'rot3': 0, 'rot2': 0, 'depth': -0.598, 'yaw': -88.37, 'datetime': '2018-12-12 14:15:32.997797', 'mgs': 0, 'flw2': 0.0, 'flw1': 0.5, 'flw0': 0.0, 'time': 4.48, 'compass': -2.84, 'pitch': -0.94, 'roll': -0.62}
{'lipoC2': 7.36, 'temp': 0.0, 'lipoC3S3': 11.58, 'state': 'normal', 'rot1': 20, 'rot0': 16, 'rot3': 0, 'rot2': 0, 'depth': -0.14, 'yaw': -93.95, 'datetime': '2018-12-12 14:15:33.205916', 'mgs': 0, 'flw2': 0.0, 'flw1': 0.32, 'flw0': 0.0, 'time': 4.69, 'compass': -8.43, 'pitch': -0.55, 'roll': -0.28}
{'lipoC2': 7.55, 'temp': 0.0, 'lipoC3S3': 11.3, 'state': 'normal', 'rot1': 21, 'rot0': 17, 'rot3': 0, 'rot2': 0, 'depth': -0.598, 'yaw': -98.84, 'datetime': '2018-12-12 14:15:33.415199', 'mgs': 0, 'flw2': 0.27, 'flw1': 0.29, 'flw0': 0.29, 'time': 4.9, 'compass': -13.32, 'pitch': -0.69, 'roll': 0.11}
{'lipoC2': 7.36, 'temp': 0.0, 'lipoC3S3': 11.64, 'state': 'normal', 'rot1': 22, 'rot0': 18, 'rot3': 0, 'rot2': 0, 'depth': -0.064, 'yaw': -102.44, 'datetime': '2018-12-12 14:15:33.623293', 'mgs': 0, 'flw2': 0.13, 'flw1': 0.62, 'flw0': 0.18, 'time': 5.11, 'compass': -16.92, 'pitch': -0.92, 'roll': 0.22}
{'lipoC2': 7.35, 'temp': 0.0, 'lipoC3S3': 11.67, 'state': 'normal', 'rot1': 23, 'rot0': 19, 'rot3': 0, 'rot2': 0, 'depth': 1.767, 'yaw': -105.35, 'datetime': '2018-12-12 14:15:33.833177', 'mgs': 0, 'flw2': 0.24, 'flw1': 0.35, 'flw0': 0.23, 'time': 5.32, 'compass': -19.82, 'pitch': -1.09, 'roll': 0.01}
{'lipoC2': 7.5, 'temp': 0.0, 'lipoC3S3': 11.38, 'state': 'normal', 'rot1': 24, 'rot0': 20, 'rot3': 0, 'rot2': 0, 'depth': -1.285, 'yaw': -107.53, 'datetime': '2018-12-12 14:15:34.041583', 'mgs': 0, 'flw2': 0.17, 'flw1': 0.21, 'flw0': 0.29, 'time': 5.53, 'compass': -22.0, 'pitch': -1.0, 'roll': -0.38}
{'lipoC2': 7.46, 'temp': 0.0, 'lipoC3S3': 11.18, 'state': 'normal', 'rot1': 25, 'rot0': 21, 'rot3': 0, 'rot2': 0, 'depth': -1.132, 'yaw': -109.07, 'datetime': '2018-12-12 14:15:34.251656', 'mgs': 0, 'flw2': 0.16, 'flw1': 0.0, 'flw0': 0.23, 'time': 5.73, 'compass': -23.55, 'pitch': -0.93, 'roll': -0.52}
{'lipoC2': 7.35, 'temp': 0.0, 'lipoC3S3': 11.67, 'state': 'normal', 'rot1': 26, 'rot0': 22, 'rot3': 0, 'rot2': 0, 'depth': 1.767, 'yaw': -110.01, 'datetime': '2018-12-12 14:15:34.461065', 'mgs': 0, 'flw2': 0.59, 'flw1': 0.0, 'flw0': 0.21, 'time': 5.94, 'compass': -24.48, 'pitch': -1.06, 'roll': -0.21}
{'lipoC2': 7.38, 'temp': 0.0, 'lipoC3S3': 11.36, 'state': 'normal', 'rot1': 27, 'rot0': 23, 'rot3': 0, 'rot2': 0, 'depth': -0.14, 'yaw': -110.38, 'datetime': '2018-12-12 14:15:34.669237', 'mgs': 0, 'flw2': 0.38, 'flw1': 0.0, 'flw0': 0.57, 'time': 6.15, 'compass': -24.85, 'pitch': -1.54, 'roll': 0.27}
{'lipoC2': 7.54, 'temp': 0.0, 'lipoC3S3': 11.25, 'state': 'normal', 'rot1': 28, 'rot0': 24, 'rot3': 0, 'rot2': 0, 'depth': 1.843, 'yaw': -110.23, 'datetime': '2018-12-12 14:15:34.878440', 'mgs': 0, 'flw2': 0.59, 'flw1': 0.0, 'flw0': 0.5, 'time': 6.36, 'compass': -24.7, 'pitch': -1.62, 'roll': 0.58}
{'lipoC2': 7.34, 'temp': 0.0, 'lipoC3S3': 11.35, 'state': 'normal', 'rot1': 29, 'rot0': 24, 'rot3': 0, 'rot2': 0, 'depth': -0.446, 'yaw': -109.61, 'datetime': '2018-12-12 14:15:35.087213', 'mgs': 0, 'flw2': 0.23, 'flw1': 0.0, 'flw0': 0.35, 'time': 6.57, 'compass': -24.09, 'pitch': -0.98, 'roll': 0.41}
{'lipoC2': 7.36, 'temp': 0.0, 'lipoC3S3': 11.65, 'state': 'normal', 'rot1': 30, 'rot0': 25, 'rot3': 0, 'rot2': 0, 'depth': 1.614, 'yaw': -108.56, 'datetime': '2018-12-12 14:15:35.297650', 'mgs': 0, 'flw2': 0.27, 'flw1': 0.38, 'flw0': 0.23, 'time': 6.78, 'compass': -23.04, 'pitch': -0.47, 'roll': -0.02}
{'lipoC2': 7.28, 'temp': 0.0, 'lipoC3S3': 11.39, 'state': 'normal', 'rot1': 31, 'rot0': 26, 'rot3': 0, 'rot2': 0, 'depth': -0.674, 'yaw': -107.07, 'datetime': '2018-12-12 14:15:35.508215', 'mgs': 0, 'flw2': 0.1, 'flw1': 0.32, 'flw0': 0.29, 'time': 6.99, 'compass': -21.54, 'pitch': -0.76, 'roll': -0.19}
{'lipoC2': 7.36, 'temp': 0.0, 'lipoC3S3': 11.61, 'state': 'normal', 'rot1': 32, 'rot0': 27, 'rot3': 0, 'rot2': 0, 'depth': -0.064, 'yaw': -105.21, 'datetime': '2018-12-12 14:15:35.716447', 'mgs': 0, 'flw2': 0.21, 'flw1': 0.56, 'flw0': 0.2, 'time': 7.2, 'compass': -19.69, 'pitch': -1.28, 'roll': -0.09}
{'lipoC2': 7.4, 'temp': 0.0, 'lipoC3S3': 11.38, 'state': 'normal', 'rot1': 33, 'rot0': 28, 'rot3': 0, 'rot2': 0, 'depth': -0.446, 'yaw': -102.93, 'datetime': '2018-12-12 14:15:35.925758', 'mgs': 0, 'flw2': 0.07, 'flw1': 0.53, 'flw0': 0.22, 'time': 7.41, 'compass': -17.4, 'pitch': -1.43, 'roll': 0.21}
{'lipoC2': 7.33, 'temp': 0.0, 'lipoC3S3': 11.67, 'state': 'normal', 'rot1': 34, 'rot0': 29, 'rot3': 0, 'rot2': 0, 'depth': 1.92, 'yaw': -100.27, 'datetime': '2018-12-12 14:15:36.134406', 'mgs': 0, 'flw2': 0.24, 'flw1': 0.44, 'flw0': 0.22, 'time': 7.61, 'compass': -14.75, 'pitch': -1.25, 'roll': 0.56}
{'lipoC2': 7.5, 'temp': 0.0, 'lipoC3S3': 11.23, 'state': 'normal', 'rot1': 35, 'rot0': 30, 'rot3': 0, 'rot2': 0, 'depth': -1.132, 'yaw': -97.33, 'datetime': '2018-12-12 14:15:36.342999', 'mgs': 0, 'flw2': 0.61, 'flw1': 0.0, 'flw0': 0.52, 'time': 7.82, 'compass': -11.8, 'pitch': -1.02, 'roll': 0.98}
{'lipoC2': 7.36, 'temp': 0.0, 'lipoC3S3': 11.36, 'state': 'normal', 'rot1': 36, 'rot0': 31, 'rot3': 0, 'rot2': 0, 'depth': 0.775, 'yaw': -94.28, 'datetime': '2018-12-12 14:15:36.552885', 'mgs': 0, 'flw2': 0.1, 'flw1': 0.0, 'flw0': 0.17, 'time': 8.03, 'compass': -8.76, 'pitch': -0.83, 'roll': 1.0}
{'lipoC2': 7.48, 'temp': 0.0, 'lipoC3S3': 11.25, 'state': 'normal', 'rot1': 37, 'rot0': 32, 'rot3': 0, 'rot2': 0, 'depth': -1.361, 'yaw': -90.91, 'datetime': '2018-12-12 14:15:36.761961', 'mgs': 0, 'flw2': 0.1, 'flw1': 0.0, 'flw0': 0.27, 'time': 8.24, 'compass': -5.39, 'pitch': -0.9, 'roll': 0.62}
{'lipoC2': 7.35, 'temp': 0.0, 'lipoC3S3': 11.69, 'state': 'normal', 'rot1': 37, 'rot0': 32, 'rot3': 0, 'rot2': 0, 'depth': -0.217, 'yaw': -87.92, 'datetime': '2018-12-12 14:15:36.971021', 'mgs': 0, 'flw2': 0.0, 'flw1': 0.0, 'flw0': 0.0, 'time': 8.45, 'compass': -2.4, 'pitch': -1.25, 'roll': -0.1}
{'lipoC2': 7.36, 'temp': 0.0, 'lipoC3S3': 11.59, 'state': 'normal', 'rot1': 37, 'rot0': 32, 'rot3': 0, 'rot2': 0, 'depth': 0.012, 'yaw': -85.38, 'datetime': '2018-12-12 14:15:37.178810', 'mgs': 0, 'flw2': 0.0, 'flw1': 0.09, 'flw0': 0.0, 'time': 8.66, 'compass': 0.14, 'pitch': -1.33, 'roll': -0.4}
{'lipoC2': 7.3, 'temp': 0.0, 'lipoC3S3': 11.36, 'state': 'normal', 'rot1': 37, 'rot0': 32, 'rot3': 0, 'rot2': 0, 'depth': -0.674, 'yaw': -83.2, 'datetime': '2018-12-12 14:15:37.391109', 'mgs': 0, 'flw2': 0.05, 'flw1': 0.0, 'flw0': 0.0, 'time': 8.86, 'compass': 2.33, 'pitch': -1.17, 'roll': -0.28}
{'lipoC2': 7.34, 'temp': 0.0, 'lipoC3S3': 11.69, 'state': 'normal', 'rot1': 37, 'rot0': 32, 'rot3': 0, 'rot2': 0, 'depth': 2.148, 'yaw': -81.17, 'datetime': '2018-12-12 14:15:37.596488', 'mgs': 0, 'flw2': 0.0, 'flw1': 0.0, 'flw0': 0.0, 'time': 9.07, 'compass': 4.35, 'pitch': -1.24, 'roll': 0.21}
{'lipoC2': 7.36, 'temp': 0.0, 'lipoC3S3': 11.67, 'state': 'normal', 'rot1': 37, 'rot0': 32, 'rot3': 0, 'rot2': 0, 'depth': 2.148, 'yaw': -79.36, 'datetime': '2018-12-12 14:15:37.805059', 'mgs': 0, 'flw2': 0.33, 'flw1': 0.53, 'flw0': 0.28, 'time': 9.28, 'compass': 6.16, 'pitch': -1.31, 'roll': 0.44}
{'lipoC2': 7.33, 'temp': 0.0, 'lipoC3S3': 11.56, 'state': 'normal', 'rot1': 38, 'rot0': 33, 'rot3': 0, 'rot2': 0, 'depth': 0.546, 'yaw': -78.35, 'datetime': '2018-12-12 14:15:38.014029', 'mgs': 0, 'flw2': 0.26, 'flw1': 0.26, 'flw0': 0.27, 'time': 9.49, 'compass': 7.18, 'pitch': -1.28, 'roll': 0.4}
{'lipoC2': 7.35, 'temp': 0.0, 'lipoC3S3': 11.3, 'state': 'normal', 'rot1': 40, 'rot0': 34, 'rot3': 0, 'rot2': 0, 'depth': -0.217, 'yaw': -78.12, 'datetime': '2018-12-12 14:15:38.222300', 'mgs': 0, 'flw2': 0.43, 'flw1': 0.0, 'flw0': 0.07, 'time': 9.7, 'compass': 7.41, 'pitch': -1.0, 'roll': -0.01}
{'lipoC2': 7.35, 'temp': 0.0, 'lipoC3S3': 11.56, 'state': 'normal', 'rot1': 41, 'rot0': 35, 'rot3': 0, 'rot2': 0, 'depth': -0.369, 'yaw': -78.54, 'datetime': '2018-12-12 14:15:38.430414', 'mgs': 0, 'flw2': 0.11, 'flw1': 0.0, 'flw0': 0.22, 'time': 9.91, 'compass': 6.98, 'pitch': -0.73, 'roll': -0.5}
{'lipoC2': 7.39, 'temp': 0.0, 'lipoC3S3': 11.36, 'state': 'normal', 'rot1': 42, 'rot0': 36, 'rot3': 0, 'rot2': 0, 'depth': -0.522, 'yaw': -79.61, 'datetime': '2018-12-12 14:15:38.639754', 'mgs': 0, 'flw2': 0.42, 'flw1': 0.0, 'flw0': 0.05, 'time': 10.12, 'compass': 5.92, 'pitch': -0.81, 'roll': -0.7}
{'lipoC2': 7.36, 'temp': 0.0, 'lipoC3S3': 11.4, 'state': 'normal', 'rot1': 43, 'rot0': 37, 'rot3': 0, 'rot2': 0, 'depth': -0.217, 'yaw': -81.21, 'datetime': '2018-12-12 14:15:38.850465', 'mgs': 0, 'flw2': 0.12, 'flw1': 0.32, 'flw0': 0.28, 'time': 10.33, 'compass': 4.31, 'pitch': -1.3, 'roll': -0.4}
{'lipoC2': 7.39, 'temp': 0.0, 'lipoC3S3': 11.35, 'state': 'normal', 'rot1': 43, 'rot0': 37, 'rot3': 0, 'rot2': 0, 'depth': -0.522, 'yaw': -83.0, 'datetime': '2018-12-12 14:15:39.059306', 'mgs': 0, 'flw2': 0.0, 'flw1': 0.0, 'flw0': 0.12, 'time': 10.53, 'compass': 2.53, 'pitch': -1.55, 'roll': 0.33}
{'lipoC2': 7.36, 'temp': 0.0, 'lipoC3S3': 11.67, 'state': 'normal', 'rot1': 43, 'rot0': 37, 'rot3': 0, 'rot2': 0, 'depth': 1.538, 'yaw': -84.39, 'datetime': '2018-12-12 14:15:39.268536', 'mgs': 0, 'flw2': 0.0, 'flw1': 0.03, 'flw0': 0.0, 'time': 10.74, 'compass': 1.13, 'pitch': -1.17, 'roll': 1.0}
{'lipoC2': 7.36, 'temp': 0.0, 'lipoC3S3': 11.63, 'state': 'normal', 'rot1': 43, 'rot0': 37, 'rot3': 0, 'rot2': 0, 'depth': 1.538, 'yaw': -85.69, 'datetime': '2018-12-12 14:15:39.477420', 'mgs': 0, 'flw2': 0.0, 'flw1': 0.38, 'flw0': 0.0, 'time': 10.95, 'compass': -0.16, 'pitch': -0.78, 'roll': 1.15}
{'lipoC2': 7.56, 'temp': 0.0, 'lipoC3S3': 11.21, 'state': 'normal', 'rot1': 43, 'rot0': 37, 'rot3': 0, 'rot2': 0, 'depth': -0.827, 'yaw': -86.85, 'datetime': '2018-12-12 14:15:39.684446', 'mgs': 0, 'flw2': 0.0, 'flw1': 0.41, 'flw0': 0.0, 'time': 11.16, 'compass': -1.33, 'pitch': -1.03, 'roll': 0.62}
{'lipoC2': 7.27, 'temp': 0.0, 'lipoC3S3': 11.34, 'state': 'normal', 'rot1': 43, 'rot0': 37, 'rot3': 0, 'rot2': 0, 'depth': -0.827, 'yaw': -87.89, 'datetime': '2018-12-12 14:15:39.892388', 'mgs': 0, 'flw2': 0.0, 'flw1': 0.0, 'flw0': 0.0, 'time': 11.37, 'compass': -2.37, 'pitch': -1.64, 'roll': -0.05}
{'lipoC2': 7.5, 'temp': 0.0, 'lipoC3S3': 11.22, 'state': 'normal', 'rot1': 43, 'rot0': 37, 'rot3': 0, 'rot2': 0, 'depth': 1.385, 'yaw': -88.82, 'datetime': '2018-12-12 14:15:40.101552', 'mgs': 0, 'flw2': 0.06, 'flw1': 0.0, 'flw0': 0.27, 'time': 11.58, 'compass': -3.3, 'pitch': -1.81, 'roll': -0.67}
{'lipoC2': 7.27, 'temp': 0.0, 'lipoC3S3': 11.38, 'state': 'normal', 'rot1': 43, 'rot0': 37, 'rot3': 0, 'rot2': 0, 'depth': -0.674, 'yaw': -89.67, 'datetime': '2018-12-12 14:15:40.311108', 'mgs': 0, 'flw2': 0.26, 'flw1': 0.0, 'flw0': 0.23, 'time': 11.78, 'compass': -4.15, 'pitch': -1.23, 'roll': -0.77}
{'lipoC2': 7.29, 'temp': 0.0, 'lipoC3S3': 11.35, 'state': 'normal', 'rot1': 43, 'rot0': 37, 'rot3': 0, 'rot2': 0, 'depth': -0.751, 'yaw': -90.46, 'datetime': '2018-12-12 14:15:40.520417', 'mgs': 0, 'flw2': 0.0, 'flw1': 0.38, 'flw0': 0.0, 'time': 11.99, 'compass': -4.94, 'pitch': -0.65, 'roll': -0.09}
{'lipoC2': 7.27, 'temp': 0.0, 'lipoC3S3': 11.35, 'state': 'normal', 'rot1': 43, 'rot0': 37, 'rot3': 0, 'rot2': 0, 'depth': -0.751, 'yaw': -91.16, 'datetime': '2018-12-12 14:15:40.734424', 'mgs': 0, 'flw2': 0.0, 'flw1': 0.35, 'flw0': 0.0, 'time': 12.2, 'compass': -5.63, 'pitch': -0.97, 'roll': 0.69}
{'lipoC2': 7.36, 'temp': 0.0, 'lipoC3S3': 11.68, 'state': 'normal', 'rot1': 43, 'rot0': 37, 'rot3': 0, 'rot2': 0, 'depth': 1.614, 'yaw': -91.83, 'datetime': '2018-12-12 14:15:40.939633', 'mgs': 0, 'flw2': 0.0, 'flw1': 0.0, 'flw0': 0.0, 'time': 12.41, 'compass': -6.3, 'pitch': -1.71, 'roll': 0.88}
{'lipoC2': 7.36, 'temp': 0.0, 'lipoC3S3': 11.67, 'state': 'normal', 'rot1': 43, 'rot0': 37, 'rot3': 0, 'rot2': 0, 'depth': 1.309, 'yaw': -92.5, 'datetime': '2018-12-12 14:15:41.147265', 'mgs': 0, 'flw2': 0.0, 'flw1': 0.0, 'flw0': 0.0, 'time': 12.62, 'compass': -6.98, 'pitch': -1.57, 'roll': 0.35}
{'lipoC2': 7.41, 'temp': 0.0, 'lipoC3S3': 11.29, 'state': 'normal', 'rot1': 43, 'rot0': 37, 'rot3': 0, 'rot2': 0, 'depth': -0.522, 'yaw': -93.16, 'datetime': '2018-12-12 14:15:41.356108', 'mgs': 0, 'flw2': 0.0, 'flw1': 0.26, 'flw0': 0.0, 'time': 12.83, 'compass': -7.63, 'pitch': -0.82, 'roll': -0.29}
{'lipoC2': 7.54, 'temp': 0.0, 'lipoC3S3': 11.26, 'state': 'normal', 'rot1': 43, 'rot0': 37, 'rot3': 0, 'rot2': 0, 'depth': -1.132, 'yaw': -93.77, 'datetime': '2018-12-12 14:15:41.565199', 'mgs': 0, 'flw2': 0.26, 'flw1': 0.0, 'flw0': 0.21, 'time': 13.04, 'compass': -8.25, 'pitch': -0.65, 'roll': -0.66}
{'lipoC2': 7.37, 'temp': 0.0, 'lipoC3S3': 11.34, 'state': 'normal', 'rot1': 44, 'rot0': 37, 'rot3': 0, 'rot2': 0, 'depth': 0.775, 'yaw': -94.17, 'datetime': '2018-12-12 14:15:41.773711', 'mgs': 0, 'flw2': 0.11, 'flw1': 0.0, 'flw0': 0.63, 'time': 13.24, 'compass': -8.65, 'pitch': -1.22, 'roll': -0.66}
{'lipoC2': 7.51, 'temp': 0.0, 'lipoC3S3': 11.25, 'state': 'normal', 'rot1': 45, 'rot0': 38, 'rot3': 0, 'rot2': 0, 'depth': -1.361, 'yaw': -93.79, 'datetime': '2018-12-12 14:15:41.985971', 'mgs': 0, 'flw2': 0.6, 'flw1': 0.0, 'flw0': 0.5, 'time': 13.45, 'compass': -8.27, 'pitch': -1.7, 'roll': 0.07}
{'lipoC2': 7.37, 'temp': 0.0, 'lipoC3S3': 11.36, 'state': 'normal', 'rot1': 46, 'rot0': 39, 'rot3': 0, 'rot2': 0, 'depth': -0.369, 'yaw': -92.72, 'datetime': '2018-12-12 14:15:42.195701', 'mgs': 0, 'flw2': 0.0, 'flw1': 0.12, 'flw0': 0.0, 'time': 13.66, 'compass': -7.2, 'pitch': -1.36, 'roll': 0.94}
{'lipoC2': 7.37, 'temp': 0.0, 'lipoC3S3': 11.64, 'state': 'normal', 'rot1': 46, 'rot0': 39, 'rot3': 0, 'rot2': 0, 'depth': -0.064, 'yaw': -91.63, 'datetime': '2018-12-12 14:15:42.402491', 'mgs': 0, 'flw2': 0.0, 'flw1': 0.0, 'flw0': 0.0, 'time': 13.87, 'compass': -6.11, 'pitch': -0.83, 'roll': 1.17}
{'lipoC2': 7.34, 'temp': 0.0, 'lipoC3S3': 11.35, 'state': 'normal', 'rot1': 46, 'rot0': 39, 'rot3': 0, 'rot2': 0, 'depth': -0.598, 'yaw': -90.68, 'datetime': '2018-12-12 14:15:42.611289', 'mgs': 0, 'flw2': 0.0, 'flw1': 0.21, 'flw0': 0.0, 'time': 14.08, 'compass': -5.16, 'pitch': -0.9, 'roll': 0.71}
{'lipoC2': 7.33, 'temp': 0.0, 'lipoC3S3': 11.65, 'state': 'normal', 'rot1': 46, 'rot0': 39, 'rot3': 0, 'rot2': 0, 'depth': 1.996, 'yaw': -89.87, 'datetime': '2018-12-12 14:15:42.824316', 'mgs': 0, 'flw2': 0.12, 'flw1': 0.0, 'flw0': 0.0, 'time': 14.29, 'compass': -4.35, 'pitch': -1.18, 'roll': 0.08}
{'lipoC2': 7.35, 'temp': 0.0, 'lipoC3S3': 11.35, 'state': 'normal', 'rot1': 46, 'rot0': 39, 'rot3': 0, 'rot2': 0, 'depth': -0.598, 'yaw': -89.07, 'datetime': '2018-12-12 14:15:43.032300', 'mgs': 0, 'flw2': 0.0, 'flw1': 0.59, 'flw0': 0.0, 'time': 14.5, 'compass': -3.55, 'pitch': -1.27, 'roll': -0.25}
{'lipoC2': 7.56, 'temp': 0.0, 'lipoC3S3': 11.34, 'state': 'normal', 'rot1': 46, 'rot0': 39, 'rot3': 0, 'rot2': 0, 'depth': -0.751, 'yaw': -88.29, 'datetime': '2018-12-12 14:15:43.240851', 'mgs': 0, 'flw2': 0.0, 'flw1': 0.0, 'flw0': 0.0, 'time': 14.7, 'compass': -2.76, 'pitch': -1.27, 'roll': 0.03}
{'lipoC2': 7.33, 'temp': 0.0, 'lipoC3S3': 11.68, 'state': 'normal', 'rot1': 46, 'rot0': 39, 'rot3': 0, 'rot2': 0, 'depth': 1.996, 'yaw': -87.56, 'datetime': '2018-12-12 14:15:43.449468', 'mgs': 0, 'flw2': 0.1, 'flw1': 0.0, 'flw0': 0.0, 'time': 14.91, 'compass': -2.03, 'pitch': -1.03, 'roll': 0.47}
{'lipoC2': 7.32, 'temp': 0.0, 'lipoC3S3': 11.68, 'state': 'normal', 'rot1': 46, 'rot0': 39, 'rot3': 0, 'rot2': 0, 'depth': 1.92, 'yaw': -86.86, 'datetime': '2018-12-12 14:15:43.659689', 'mgs': 0, 'flw2': 0.01, 'flw1': 0.0, 'flw0': 0.0, 'time': 15.12, 'compass': -1.33, 'pitch': -0.74, 'roll': 0.68}
{'lipoC2': 7.36, 'temp': 0.0, 'lipoC3S3': 11.25, 'state': 'normal', 'rot1': 46, 'rot0': 39, 'rot3': 0, 'rot2': 0, 'depth': -0.064, 'yaw': -86.24, 'datetime': '2018-12-12 14:15:43.868057', 'mgs': 0, 'flw2': 0.24, 'flw1': 0.0, 'flw0': 0.22, 'time': 15.33, 'compass': -0.72, 'pitch': -0.95, 'roll': 0.53}
{'lipoC2': 7.34, 'temp': 0.0, 'lipoC3S3': 11.51, 'state': 'normal', 'rot1': 46, 'rot0': 39, 'rot3': 0, 'rot2': 0, 'depth': -0.522, 'yaw': -85.6, 'datetime': '2018-12-12 14:15:44.077472', 'mgs': 0, 'flw2': 0.0, 'flw1': 0.41, 'flw0': 0.0, 'time': 15.54, 'compass': -0.07, 'pitch': -1.43, 'roll': 0.29}
{'lipoC2': 7.48, 'temp': 0.0, 'lipoC3S3': 11.4, 'state': 'normal', 'rot1': 46, 'rot0': 39, 'rot3': 0, 'rot2': 0, 'depth': 1.233, 'yaw': -85.01, 'datetime': '2018-12-12 14:15:44.285485', 'mgs': 0, 'flw2': 0.0, 'flw1': 0.0, 'flw0': 0.15, 'time': 15.75, 'compass': 0.52, 'pitch': -1.27, 'roll': 0.15}
{'lipoC2': 7.42, 'temp': 0.0, 'lipoC3S3': 11.39, 'state': 'normal', 'rot1': 46, 'rot0': 39, 'rot3': 0, 'rot2': 0, 'depth': -0.293, 'yaw': -84.42, 'datetime': '2018-12-12 14:15:44.494022', 'mgs': 0, 'flw2': 0.0, 'flw1': 0.0, 'flw0': 0.0, 'time': 15.96, 'compass': 1.1, 'pitch': -1.1, 'roll': 0.23}
{'lipoC2': 7.52, 'temp': 0.0, 'lipoC3S3': 11.4, 'state': 'normal', 'rot1': 46, 'rot0': 39, 'rot3': 0, 'rot2': 0, 'depth': 1.843, 'yaw': -83.83, 'datetime': '2018-12-12 14:15:44.703961', 'mgs': 0, 'flw2': 0.0, 'flw1': 0.0, 'flw0': 0.0, 'time': 16.17, 'compass': 1.7, 'pitch': -1.3, 'roll': 0.41}
{'lipoC2': 7.33, 'temp': 0.0, 'lipoC3S3': 11.38, 'state': 'normal', 'rot1': 46, 'rot0': 39, 'rot3': 0, 'rot2': 0, 'depth': 2.072, 'yaw': -83.3, 'datetime': '2018-12-12 14:15:44.912245', 'mgs': 0, 'flw2': 0.0, 'flw1': 0.0, 'flw0': 0.0, 'time': 16.38, 'compass': 2.23, 'pitch': -1.33, 'roll': 0.43}
{'lipoC2': 7.35, 'temp': 0.0, 'lipoC3S3': 11.58, 'state': 'normal', 'rot1': 46, 'rot0': 39, 'rot3': 0, 'rot2': 0, 'depth': -0.369, 'yaw': -82.74, 'datetime': '2018-12-12 14:15:45.121565', 'mgs': 0, 'flw2': 0.0, 'flw1': 0.0, 'flw0': 0.0, 'time': 16.58, 'compass': 2.78, 'pitch': -0.81, 'roll': 0.5}
{'lipoC2': 7.57, 'temp': 0.0, 'lipoC3S3': 11.32, 'state': 'normal', 'rot1': 46, 'rot0': 39, 'rot3': 0, 'rot2': 0, 'depth': -0.522, 'yaw': -82.2, 'datetime': '2018-12-12 14:15:45.329589', 'mgs': 0, 'flw2': 0.29, 'flw1': 0.0, 'flw0': 0.13, 'time': 16.79, 'compass': 3.32, 'pitch': -0.64, 'roll': 0.53}
{'lipoC2': 7.55, 'temp': 0.0, 'lipoC3S3': 11.39, 'state': 'normal', 'rot1': 46, 'rot0': 39, 'rot3': 0, 'rot2': 0, 'depth': 1.843, 'yaw': -81.72, 'datetime': '2018-12-12 14:15:45.539337', 'mgs': 0, 'flw2': 0.24, 'flw1': 0.0, 'flw0': 0.01, 'time': 17.0, 'compass': 3.8, 'pitch': -1.05, 'roll': 0.7}
{'lipoC2': 7.54, 'temp': 0.0, 'lipoC3S3': 11.29, 'state': 'normal', 'rot1': 46, 'rot0': 39, 'rot3': 0, 'rot2': 0, 'depth': -1.285, 'yaw': -81.27, 'datetime': '2018-12-12 14:15:45.747728', 'mgs': 0, 'flw2': 0.23, 'flw1': 0.0, 'flw0': 0.07, 'time': 17.21, 'compass': 4.25, 'pitch': -1.51, 'roll': 0.71}
{'lipoC2': 7.54, 'temp': 0.0, 'lipoC3S3': 11.27, 'state': 'normal', 'rot1': 46, 'rot0': 39, 'rot3': 0, 'rot2': 0, 'depth': -1.285, 'yaw': -80.78, 'datetime': '2018-12-12 14:15:45.957082', 'mgs': 0, 'flw2': 0.0, 'flw1': 0.0, 'flw0': 0.15, 'time': 17.42, 'compass': 4.75, 'pitch': -1.29, 'roll': 0.28}
{'lipoC2': 7.5, 'temp': 0.0, 'lipoC3S3': 11.23, 'state': 'normal', 'rot1': 46, 'rot0': 39, 'rot3': 0, 'rot2': 0, 'depth': -1.437, 'yaw': -80.31, 'datetime': '2018-12-12 14:15:46.165475', 'mgs': 0, 'flw2': 0.61, 'flw1': 0.0, 'flw0': 0.49, 'time': 17.63, 'compass': 5.21, 'pitch': -0.76, 'roll': -0.2}
{'lipoC2': 7.4, 'temp': 0.0, 'lipoC3S3': 11.36, 'state': 'normal', 'rot1': 47, 'rot0': 40, 'rot3': 0, 'rot2': 0, 'depth': 0.394, 'yaw': -80.45, 'datetime': '2018-12-12 14:15:46.375491', 'mgs': 0, 'flw2': 0.22, 'flw1': 0.0, 'flw0': 0.17, 'time': 17.84, 'compass': 5.07, 'pitch': -0.58, 'roll': -0.39}
{'lipoC2': 7.5, 'temp': 0.0, 'lipoC3S3': 11.25, 'state': 'normal', 'rot1': 48, 'rot0': 41, 'rot3': 0, 'rot2': 0, 'depth': 1.233, 'yaw': -81.33, 'datetime': '2018-12-12 14:15:46.583477', 'mgs': 0, 'flw2': 0.1, 'flw1': 0.5, 'flw0': 0.26, 'time': 18.04, 'compass': 4.2, 'pitch': -0.78, 'roll': -0.15}
{'lipoC2': 7.36, 'temp': 0.0, 'lipoC3S3': 11.61, 'state': 'normal', 'rot1': 49, 'rot0': 41, 'rot3': 0, 'rot2': 0, 'depth': -0.14, 'yaw': -82.61, 'datetime': '2018-12-12 14:15:46.792671', 'mgs': 0, 'flw2': 0.0, 'flw1': 0.0, 'flw0': 0.0, 'time': 18.25, 'compass': 2.91, 'pitch': -1.09, 'roll': 0.23}
{'lipoC2': 7.36, 'temp': 0.0, 'lipoC3S3': 11.67, 'state': 'normal', 'rot1': 49, 'rot0': 41, 'rot3': 0, 'rot2': 0, 'depth': 1.08, 'yaw': -83.78, 'datetime': '2018-12-12 14:15:47.001126', 'mgs': 0, 'flw2': 0.0, 'flw1': 0.0, 'flw0': 0.0, 'time': 18.46, 'compass': 1.74, 'pitch': -1.18, 'roll': 0.77}
{'lipoC2': 7.33, 'temp': 0.0, 'lipoC3S3': 11.68, 'state': 'normal', 'rot1': 49, 'rot0': 41, 'rot3': 0, 'rot2': 0, 'depth': 2.072, 'yaw': -84.8, 'datetime': '2018-12-12 14:15:47.210437', 'mgs': 0, 'flw2': 0.16, 'flw1': 0.0, 'flw0': 0.0, 'time': 18.67, 'compass': 0.72, 'pitch': -1.01, 'roll': 0.95}
{'lipoC2': 7.36, 'temp': 0.0, 'lipoC3S3': 11.64, 'state': 'normal', 'rot1': 49, 'rot0': 41, 'rot3': 0, 'rot2': 0, 'depth': 1.08, 'yaw': -85.85, 'datetime': '2018-12-12 14:15:47.419205', 'mgs': 0, 'flw2': 0.0, 'flw1': 0.0, 'flw0': 0.0, 'time': 18.88, 'compass': -0.33, 'pitch': -1.09, 'roll': 0.54}
{'lipoC2': 7.54, 'temp': 0.0, 'lipoC3S3': 11.42, 'state': 'normal', 'rot1': 49, 'rot0': 41, 'rot3': 0, 'rot2': 0, 'depth': 1.92, 'yaw': -86.79, 'datetime': '2018-12-12 14:15:47.627421', 'mgs': 0, 'flw2': 0.0, 'flw1': 0.06, 'flw0': 0.0, 'time': 19.09, 'compass': -1.27, 'pitch': -1.48, 'roll': -0.04}
{'lipoC2': 7.55, 'temp': 0.0, 'lipoC3S3': 11.3, 'state': 'normal', 'rot1': 49, 'rot0': 41, 'rot3': 0, 'rot2': 0, 'depth': -1.056, 'yaw': -87.68, 'datetime': '2018-12-12 14:15:47.837628', 'mgs': 0, 'flw2': 0.0, 'flw1': 0.0, 'flw0': 0.0, 'time': 19.3, 'compass': -2.16, 'pitch': -1.51, 'roll': -0.28}
{'lipoC2': 7.27, 'temp': 0.0, 'lipoC3S3': 11.39, 'state': 'normal', 'rot1': 49, 'rot0': 41, 'rot3': 0, 'rot2': 0, 'depth': -0.751, 'yaw': -88.5, 'datetime': '2018-12-12 14:15:48.045214', 'mgs': 0, 'flw2': 0.0, 'flw1': 0.56, 'flw0': 0.0, 'time': 19.5, 'compass': -2.98, 'pitch': -1.14, 'roll': -0.02}
{'lipoC2': 7.47, 'temp': 0.0, 'lipoC3S3': 11.39, 'state': 'normal', 'rot1': 49, 'rot0': 41, 'rot3': 0, 'rot2': 0, 'depth': 1.233, 'yaw': -89.21, 'datetime': '2018-12-12 14:15:48.254425', 'mgs': 0, 'flw2': 0.0, 'flw1': 0.38, 'flw0': 0.0, 'time': 19.71, 'compass': -3.68, 'pitch': -1.05, 'roll': 0.25}
{'lipoC2': 7.36, 'temp': 0.0, 'lipoC3S3': 11.69, 'state': 'normal', 'rot1': 49, 'rot0': 41, 'rot3': 0, 'rot2': 0, 'depth': -0.064, 'yaw': -89.93, 'datetime': '2018-12-12 14:15:48.463121', 'mgs': 0, 'flw2': 0.1, 'flw1': 0.0, 'flw0': 0.0, 'time': 19.92, 'compass': -4.4, 'pitch': -1.1, 'roll': 0.3}
{'lipoC2': 7.56, 'temp': 0.0, 'lipoC3S3': 11.39, 'state': 'normal', 'rot1': 49, 'rot0': 41, 'rot3': 0, 'rot2': 0, 'depth': -0.522, 'yaw': -90.64, 'datetime': '2018-12-12 14:15:48.672261', 'mgs': 0, 'flw2': 0.0, 'flw1': 0.0, 'flw0': 0.0, 'time': 20.13, 'compass': -5.11, 'pitch': -0.98, 'roll': 0.05}
{'lipoC2': 7.44, 'temp': 0.0, 'lipoC3S3': 11.25, 'state': 'normal', 'rot1': 49, 'rot0': 41, 'rot3': 0, 'rot2': 0, 'depth': 0.47, 'yaw': -91.3, 'datetime': '2018-12-12 14:15:48.881456', 'mgs': 0, 'flw2': 0.1, 'flw1': 0.0, 'flw0': 0.27, 'time': 20.34, 'compass': -5.78, 'pitch': -0.77, 'roll': -0.11}
{'lipoC2': 7.41, 'temp': 0.0, 'lipoC3S3': 11.29, 'state': 'normal', 'rot1': 49, 'rot0': 41, 'rot3': 0, 'rot2': 0, 'depth': -0.446, 'yaw': -91.91, 'datetime': '2018-12-12 14:15:49.091256', 'mgs': 0, 'flw2': 0.13, 'flw1': 0.29, 'flw0': 0.0, 'time': 20.55, 'compass': -6.39, 'pitch': -0.81, 'roll': -0.0}
{'lipoC2': 7.35, 'temp': 0.0, 'lipoC3S3': 11.71, 'state': 'normal', 'rot1': 49, 'rot0': 41, 'rot3': 0, 'rot2': 0, 'depth': 1.92, 'yaw': -92.48, 'datetime': '2018-12-12 14:15:49.299423', 'mgs': 0, 'flw2': 0.0, 'flw1': 0.0, 'flw0': 0.0, 'time': 20.75, 'compass': -6.96, 'pitch': -1.08, 'roll': 0.32}
{'lipoC2': 7.56, 'temp': 0.0, 'lipoC3S3': 11.36, 'state': 'normal', 'rot1': 49, 'rot0': 41, 'rot3': 0, 'rot2': 0, 'depth': -0.98, 'yaw': -93.02, 'datetime': '2018-12-12 14:15:49.507325', 'mgs': 0, 'flw2': 0.0, 'flw1': 0.0, 'flw0': 0.0, 'time': 20.96, 'compass': -7.49, 'pitch': -1.39, 'roll': 0.72}
{'lipoC2': 7.35, 'temp': 0.0, 'lipoC3S3': 11.38, 'state': 'normal', 'rot1': 49, 'rot0': 41, 'rot3': 0, 'rot2': 0, 'depth': 0.699, 'yaw': -93.57, 'datetime': '2018-12-12 14:15:49.719585', 'mgs': 0, 'flw2': 0.0, 'flw1': 0.23, 'flw0': 0.0, 'time': 21.17, 'compass': -8.05, 'pitch': -1.29, 'roll': 0.95}
{'lipoC2': 7.27, 'temp': 0.0, 'lipoC3S3': 11.39, 'state': 'normal', 'rot1': 49, 'rot0': 41, 'rot3': 0, 'rot2': 0, 'depth': -1.361, 'yaw': -94.08, 'datetime': '2018-12-12 14:15:49.927601', 'mgs': 0, 'flw2': 0.0, 'flw1': 0.53, 'flw0': 0.0, 'time': 21.38, 'compass': -8.56, 'pitch': -1.23, 'roll': 0.83}
{'lipoC2': 7.47, 'temp': 0.0, 'lipoC3S3': 11.39, 'state': 'normal', 'rot1': 50, 'rot0': 42, 'rot3': 0, 'rot2': 0, 'depth': 1.233, 'yaw': -94.38, 'datetime': '2018-12-12 14:15:50.132739', 'mgs': 0, 'flw2': 0.22, 'flw1': 0.5, 'flw0': 0.21, 'time': 21.59, 'compass': -8.86, 'pitch': -1.24, 'roll': 0.37}
{'lipoC2': 7.4, 'temp': 0.0, 'lipoC3S3': 11.36, 'state': 'normal', 'rot1': 51, 'rot0': 42, 'rot3': 0, 'rot2': 0, 'depth': 0.47, 'yaw': -93.92, 'datetime': '2018-12-12 14:15:50.341471', 'mgs': 0, 'flw2': 0.07, 'flw1': 0.0, 'flw0': 0.15, 'time': 21.8, 'compass': -8.39, 'pitch': -0.97, 'roll': 0.02}
{'lipoC2': 7.33, 'temp': 0.0, 'lipoC3S3': 11.71, 'state': 'normal', 'rot1': 52, 'rot0': 43, 'rot3': 0, 'rot2': 0, 'depth': -0.369, 'yaw': -92.73, 'datetime': '2018-12-12 14:15:50.548594', 'mgs': 0, 'flw2': 0.05, 'flw1': 0.0, 'flw0': 0.0, 'time': 22.01, 'compass': -7.21, 'pitch': -0.65, 'roll': 0.05}
{'lipoC2': 7.32, 'temp': 0.0, 'lipoC3S3': 11.69, 'state': 'normal', 'rot1': 52, 'rot0': 43, 'rot3': 0, 'rot2': 0, 'depth': 2.072, 'yaw': -91.55, 'datetime': '2018-12-12 14:15:50.755647', 'mgs': 0, 'flw2': 0.01, 'flw1': 0.0, 'flw0': 0.0, 'time': 22.22, 'compass': -6.03, 'pitch': -0.71, 'roll': 0.19}
{'lipoC2': 7.29, 'temp': 0.0, 'lipoC3S3': 11.35, 'state': 'normal', 'rot1': 52, 'rot0': 43, 'rot3': 0, 'rot2': 0, 'depth': -0.751, 'yaw': -90.54, 'datetime': '2018-12-12 14:15:50.963726', 'mgs': 0, 'flw2': 0.0, 'flw1': 0.56, 'flw0': 0.0, 'time': 22.42, 'compass': -5.02, 'pitch': -1.24, 'roll': 0.34}
{'lipoC2': 7.33, 'temp': 0.0, 'lipoC3S3': 11.34, 'state': 'normal', 'rot1': 52, 'rot0': 43, 'rot3': 0, 'rot2': 0, 'depth': 2.072, 'yaw': -89.58, 'datetime': '2018-12-12 14:15:51.176184', 'mgs': 0, 'flw2': 0.0, 'flw1': 0.0, 'flw0': 0.0, 'time': 22.63, 'compass': -4.06, 'pitch': -1.88, 'roll': 0.35}
{'lipoC2': 7.48, 'temp': 0.0, 'lipoC3S3': 11.22, 'state': 'normal', 'rot1': 52, 'rot0': 43, 'rot3': 0, 'rot2': 0, 'depth': 0.851, 'yaw': -88.69, 'datetime': '2018-12-12 14:15:51.381280', 'mgs': 0, 'flw2': 0.24, 'flw1': 0.0, 'flw0': 0.26, 'time': 22.84, 'compass': -3.17, 'pitch': -1.71, 'roll': 0.01}
{'lipoC2': 7.28, 'temp': 0.0, 'lipoC3S3': 11.36, 'state': 'normal', 'rot1': 52, 'rot0': 43, 'rot3': 0, 'rot2': 0, 'depth': -0.751, 'yaw': -87.81, 'datetime': '2018-12-12 14:15:51.590826', 'mgs': 0, 'flw2': 0.0, 'flw1': 0.64, 'flw0': 0.0, 'time': 23.05, 'compass': -2.29, 'pitch': -0.84, 'roll': -0.22}
{'lipoC2': 7.34, 'temp': 0.0, 'lipoC3S3': 11.47, 'state': 'normal', 'rot1': 52, 'rot0': 43, 'rot3': 0, 'rot2': 0, 'depth': 1.157, 'yaw': -86.99, 'datetime': '2018-12-12 14:15:51.803896', 'mgs': 0, 'flw2': 0.04, 'flw1': 0.0, 'flw0': 0.21, 'time': 23.26, 'compass': -1.46, 'pitch': -0.51, 'roll': -0.09}
{'lipoC2': 7.36, 'temp': 0.0, 'lipoC3S3': 11.68, 'state': 'normal', 'rot1': 52, 'rot0': 43, 'rot3': 0, 'rot2': 0, 'depth': -0.064, 'yaw': -86.19, 'datetime': '2018-12-12 14:15:52.010974', 'mgs': 0, 'flw2': 0.0, 'flw1': 0.0, 'flw0': 0.0, 'time': 23.47, 'compass': -0.67, 'pitch': -1.04, 'roll': 0.32}
{'lipoC2': 7.25, 'temp': 0.0, 'lipoC3S3': 11.35, 'state': 'normal', 'rot1': 52, 'rot0': 43, 'rot3': 0, 'rot2': 0, 'depth': -0.598, 'yaw': -85.43, 'datetime': '2018-12-12 14:15:52.217958', 'mgs': 0, 'flw2': 0.0, 'flw1': 0.44, 'flw0': 0.0, 'time': 23.67, 'compass': 0.09, 'pitch': -1.64, 'roll': 0.81}
{'lipoC2': 7.32, 'temp': 0.0, 'lipoC3S3': 11.35, 'state': 'normal', 'rot1': 52, 'rot0': 43, 'rot3': 0, 'rot2': 0, 'depth': -0.674, 'yaw': -84.72, 'datetime': '2018-12-12 14:15:52.426042', 'mgs': 0, 'flw2': 0.0, 'flw1': 0.56, 'flw0': 0.0, 'time': 23.88, 'compass': 0.81, 'pitch': -1.45, 'roll': 1.02}
{'lipoC2': 7.29, 'temp': 0.0, 'lipoC3S3': 11.35, 'state': 'normal', 'rot1': 52, 'rot0': 43, 'rot3': 0, 'rot2': 0, 'depth': -0.751, 'yaw': -84.08, 'datetime': '2018-12-12 14:15:52.635604', 'mgs': 0, 'flw2': 0.0, 'flw1': 0.64, 'flw0': 0.0, 'time': 24.09, 'compass': 1.45, 'pitch': -1.01, 'roll': 0.72}
{'lipoC2': 7.36, 'temp': 0.0, 'lipoC3S3': 11.69, 'state': 'normal', 'rot1': 52, 'rot0': 43, 'rot3': 0, 'rot2': 0, 'depth': 1.309, 'yaw': -83.37, 'datetime': '2018-12-12 14:15:52.847658', 'mgs': 0, 'flw2': 0.0, 'flw1': 0.62, 'flw0': 0.0, 'time': 24.3, 'compass': 2.15, 'pitch': -1.16, 'roll': 0.32}
{'lipoC2': 7.55, 'temp': 0.0, 'lipoC3S3': 11.35, 'state': 'normal', 'rot1': 52, 'rot0': 43, 'rot3': 0, 'rot2': 0, 'depth': -1.132, 'yaw': -82.72, 'datetime': '2018-12-12 14:15:53.057635', 'mgs': 0, 'flw2': 0.0, 'flw1': 0.0, 'flw0': 0.0, 'time': 24.51, 'compass': 2.81, 'pitch': -1.75, 'roll': 0.25}
{'lipoC2': 7.35, 'temp': 0.0, 'lipoC3S3': 11.58, 'state': 'normal', 'rot1': 52, 'rot0': 43, 'rot3': 0, 'rot2': 0, 'depth': -0.446, 'yaw': -82.07, 'datetime': '2018-12-12 14:15:53.265688', 'mgs': 0, 'flw2': 0.0, 'flw1': 0.0, 'flw0': 0.0, 'time': 24.72, 'compass': 3.45, 'pitch': -1.7, 'roll': 0.38}
{'lipoC2': 7.35, 'temp': 0.0, 'lipoC3S3': 11.35, 'state': 'normal', 'rot1': 52, 'rot0': 43, 'rot3': 0, 'rot2': 0, 'depth': -0.522, 'yaw': -81.44, 'datetime': '2018-12-12 14:15:53.474762', 'mgs': 0, 'flw2': 0.0, 'flw1': 0.62, 'flw0': 0.0, 'time': 24.93, 'compass': 4.08, 'pitch': -0.77, 'roll': 0.52}
{'lipoC2': 7.29, 'temp': 0.0, 'lipoC3S3': 11.5, 'state': 'normal', 'rot1': 52, 'rot0': 43, 'rot3': 0, 'rot2': 0, 'depth': -0.446, 'yaw': -80.87, 'datetime': '2018-12-12 14:15:53.683728', 'mgs': 0, 'flw2': 0.0, 'flw1': 0.0, 'flw0': 0.0, 'time': 25.14, 'compass': 4.65, 'pitch': -0.29, 'roll': 0.73}
{'lipoC2': 7.46, 'temp': 0.0, 'lipoC3S3': 11.23, 'state': 'normal', 'rot1': 52, 'rot0': 43, 'rot3': 0, 'rot2': 0, 'depth': 0.089, 'yaw': -80.28, 'datetime': '2018-12-12 14:15:53.891505', 'mgs': 0, 'flw2': 0.49, 'flw1': 0.0, 'flw0': 0.39, 'time': 25.34, 'compass': 5.24, 'pitch': -1.04, 'roll': 0.81}
{'lipoC2': 7.34, 'temp': 0.0, 'lipoC3S3': 11.67, 'state': 'normal', 'rot1': 54, 'rot0': 44, 'rot3': 0, 'rot2': 0, 'depth': 1.767, 'yaw': -80.31, 'datetime': '2018-12-12 14:15:54.102189', 'mgs': 0, 'flw2': 0.34, 'flw1': 0.0, 'flw0': 0.4, 'time': 25.55, 'compass': 5.21, 'pitch': -1.96, 'roll': 0.49}
{'lipoC2': 7.28, 'temp': 0.0, 'lipoC3S3': 11.43, 'state': 'normal', 'rot1': 55, 'rot0': 45, 'rot3': 0, 'rot2': 0, 'depth': -0.674, 'yaw': -81.12, 'datetime': '2018-12-12 14:15:54.310746', 'mgs': 0, 'flw2': 0.18, 'flw1': 0.62, 'flw0': 0.22, 'time': 25.76, 'compass': 4.4, 'pitch': -1.49, 'roll': 0.13}
{'lipoC2': 7.35, 'temp': 0.0, 'lipoC3S3': 11.69, 'state': 'normal', 'rot1': 55, 'rot0': 45, 'rot3': 0, 'rot2': 0, 'depth': 1.614, 'yaw': -82.36, 'datetime': '2018-12-12 14:15:54.519700', 'mgs': 0, 'flw2': 0.0, 'flw1': 0.44, 'flw0': 0.0, 'time': 25.97, 'compass': 3.16, 'pitch': -0.5, 'roll': 0.06}
{'lipoC2': 7.51, 'temp': 0.0, 'lipoC3S3': 11.25, 'state': 'normal', 'rot1': 55, 'rot0': 45, 'rot3': 0, 'rot2': 0, 'depth': -1.437, 'yaw': -83.39, 'datetime': '2018-12-12 14:15:54.729095', 'mgs': 0, 'flw2': 0.27, 'flw1': 0.0, 'flw0': 0.17, 'time': 26.18, 'compass': 2.13, 'pitch': -0.64, 'roll': 0.39}
{'lipoC2': 7.56, 'temp': 0.0, 'lipoC3S3': 11.38, 'state': 'normal', 'rot1': 55, 'rot0': 45, 'rot3': 0, 'rot2': 0, 'depth': -0.446, 'yaw': -84.36, 'datetime': '2018-12-12 14:15:54.936978', 'mgs': 0, 'flw2': 0.0, 'flw1': 0.0, 'flw0': 0.0, 'time': 26.39, 'compass': 1.17, 'pitch': -1.7, 'roll': 0.56}
{'lipoC2': 7.33, 'temp': 0.0, 'lipoC3S3': 11.36, 'state': 'normal', 'rot1': 55, 'rot0': 45, 'rot3': 0, 'rot2': 0, 'depth': -0.598, 'yaw': -85.27, 'datetime': '2018-12-12 14:15:55.145538', 'mgs': 0, 'flw2': 0.0, 'flw1': 0.47, 'flw0': 0.0, 'time': 26.6, 'compass': 0.25, 'pitch': -2.01, 'roll': 0.49}
{'lipoC2': 7.33, 'temp': 0.0, 'lipoC3S3': 11.48, 'state': 'normal', 'rot1': 55, 'rot0': 45, 'rot3': 0, 'rot2': 0, 'depth': 1.233, 'yaw': -86.09, 'datetime': '2018-12-12 14:15:55.353355', 'mgs': 0, 'flw2': 0.0, 'flw1': 0.56, 'flw0': 0.0, 'time': 26.81, 'compass': -0.57, 'pitch': -1.29, 'roll': 0.39}
{'lipoC2': 7.42, 'temp': 0.0, 'lipoC3S3': 11.25, 'state': 'normal', 'rot1': 55, 'rot0': 45, 'rot3': 0, 'rot2': 0, 'depth': -0.522, 'yaw': -86.91, 'datetime': '2018-12-12 14:15:55.563909', 'mgs': 0, 'flw2': 0.26, 'flw1': 0.0, 'flw0': 0.24, 'time': 27.01, 'compass': -1.39, 'pitch': -0.68, 'roll': 0.33}
{'lipoC2': 7.36, 'temp': 0.0, 'lipoC3S3': 11.64, 'state': 'normal', 'rot1': 55, 'rot0': 45, 'rot3': 0, 'rot2': 0, 'depth': 1.538, 'yaw': -87.68, 'datetime': '2018-12-12 14:15:55.773154', 'mgs': 0, 'flw2': 0.0, 'flw1': 0.0, 'flw0': 0.0, 'time': 27.22, 'compass': -2.16, 'pitch': -0.77, 'roll': 0.48}
{'lipoC2': 7.3, 'temp': 0.0, 'lipoC3S3': 11.5, 'state': 'normal', 'rot1': 55, 'rot0': 45, 'rot3': 0, 'rot2': 0, 'depth': -1.208, 'yaw': -88.4, 'datetime': '2018-12-12 14:15:55.983395', 'mgs': 0, 'flw2': 0.0, 'flw1': 0.0, 'flw0': 0.0, 'time': 27.43, 'compass': -2.88, 'pitch': -1.27, 'roll': 0.72}
{'lipoC2': 7.54, 'temp': 0.0, 'lipoC3S3': 11.26, 'state': 'normal', 'rot1': 55, 'rot0': 45, 'rot3': 0, 'rot2': 0, 'depth': -1.285, 'yaw': -89.1, 'datetime': '2018-12-12 14:15:56.191059', 'mgs': 0, 'flw2': 0.26, 'flw1': 0.0, 'flw0': 0.15, 'time': 27.64, 'compass': -3.58, 'pitch': -1.36, 'roll': 0.64}
{'lipoC2': 7.37, 'temp': 0.0, 'lipoC3S3': 11.35, 'state': 'normal', 'rot1': 55, 'rot0': 45, 'rot3': 0, 'rot2': 0, 'depth': 0.241, 'yaw': -89.71, 'datetime': '2018-12-12 14:15:56.399931', 'mgs': 0, 'flw2': 0.0, 'flw1': 0.64, 'flw0': 0.0, 'time': 27.85, 'compass': -4.19, 'pitch': -1.04, 'roll': 0.35}
{'lipoC2': 7.36, 'temp': 0.0, 'lipoC3S3': 11.69, 'state': 'normal', 'rot1': 55, 'rot0': 45, 'rot3': 0, 'rot2': 0, 'depth': 1.309, 'yaw': -90.39, 'datetime': '2018-12-12 14:15:56.607636', 'mgs': 0, 'flw2': 0.17, 'flw1': 0.0, 'flw0': 0.0, 'time': 28.06, 'compass': -4.86, 'pitch': -0.84, 'roll': 0.22}
{'lipoC2': 7.28, 'temp': 0.0, 'lipoC3S3': 11.36, 'state': 'normal', 'rot1': 55, 'rot0': 45, 'rot3': 0, 'rot2': 0, 'depth': -0.751, 'yaw': -91.0, 'datetime': '2018-12-12 14:15:56.816921', 'mgs': 0, 'flw2': 0.0, 'flw1': 0.59, 'flw0': 0.0, 'time': 28.26, 'compass': -5.47, 'pitch': -0.93, 'roll': 0.37}
{'lipoC2': 7.34, 'temp': 0.0, 'lipoC3S3': 11.71, 'state': 'normal', 'rot1': 55, 'rot0': 45, 'rot3': 0, 'rot2': 0, 'depth': 2.148, 'yaw': -91.56, 'datetime': '2018-12-12 14:15:57.026653', 'mgs': 0, 'flw2': 0.0, 'flw1': 0.0, 'flw0': 0.0, 'time': 28.47, 'compass': -6.04, 'pitch': -1.38, 'roll': 0.41}
{'lipoC2': 7.36, 'temp': 0.0, 'lipoC3S3': 11.67, 'state': 'normal', 'rot1': 55, 'rot0': 45, 'rot3': 0, 'rot2': 0, 'depth': -0.064, 'yaw': -92.05, 'datetime': '2018-12-12 14:15:57.235507', 'mgs': 0, 'flw2': 0.0, 'flw1': 0.0, 'flw0': 0.0, 'time': 28.68, 'compass': -6.52, 'pitch': -1.82, 'roll': 0.4}
{'lipoC2': 7.46, 'temp': 0.0, 'lipoC3S3': 11.39, 'state': 'normal', 'rot1': 55, 'rot0': 45, 'rot3': 0, 'rot2': 0, 'depth': 1.233, 'yaw': -92.61, 'datetime': '2018-12-12 14:15:57.446000', 'mgs': 0, 'flw2': 0.0, 'flw1': 0.0, 'flw0': 0.0, 'time': 28.89, 'compass': -7.09, 'pitch': -1.67, 'roll': 0.38}
{'lipoC2': 7.43, 'temp': 0.0, 'lipoC3S3': 11.26, 'state': 'normal', 'rot1': 55, 'rot0': 45, 'rot3': 0, 'rot2': 0, 'depth': 0.394, 'yaw': -93.13, 'datetime': '2018-12-12 14:15:57.653724', 'mgs': 0, 'flw2': 0.0, 'flw1': 0.44, 'flw0': 0.0, 'time': 29.1, 'compass': -7.61, 'pitch': -0.88, 'roll': 0.24}
{'lipoC2': 7.27, 'temp': 0.0, 'lipoC3S3': 11.39, 'state': 'normal', 'rot1': 55, 'rot0': 45, 'rot3': 0, 'rot2': 0, 'depth': -0.674, 'yaw': -93.62, 'datetime': '2018-12-12 14:15:57.865659', 'mgs': 0, 'flw2': 0.0, 'flw1': 0.56, 'flw0': 0.0, 'time': 29.31, 'compass': -8.1, 'pitch': -0.42, 'roll': -0.01}
