{'lipoC2': 0.16, 'temp': 0.0, 'lipoC3S3': 11.81, 'state': 'normal', 'rot1': 0, 'rot0': 0, 'rot3': 0, 'rot2': 0, 'depth': 0.775, 'yaw': 0.01, 'datetime': '2018-12-18 20:20:16.479631', 'mgs': 0, 'flw2': 0.04, 'flw1': 0.41, 'flw0': 0.0, 'time': 1.26, 'compass': 55.18, 'pitch': -0.07, 'roll': -1.48}
{'lipoC2': 0.0, 'temp': 0.0, 'lipoC3S3': 12.16, 'state': 'normal', 'rot1': 0, 'rot0': 0, 'rot3': 0, 'rot2': 0, 'depth': 1.691, 'yaw': 0.31, 'datetime': '2018-12-18 20:20:16.685698', 'mgs': 0, 'flw2': 0.0, 'flw1': 0.0, 'flw0': 0.21, 'time': 1.47, 'compass': 55.48, 'pitch': 0.02, 'roll': -1.57}
{'lipoC2': 0.0, 'temp': 0.0, 'lipoC3S3': 11.87, 'state': 'normal', 'rot1': 0, 'rot0': 0, 'rot3': 0, 'rot2': 0, 'depth': 1.233, 'yaw': 0.65, 'datetime': '2018-12-18 20:20:16.894954', 'mgs': 0, 'flw2': 0.04, 'flw1': 0.0, 'flw0': 0.15, 'time': 1.67, 'compass': 55.82, 'pitch': 0.5, 'roll': -1.8}
{'lipoC2': 0.13, 'temp': 0.0, 'lipoC3S3': 11.93, 'state': 'normal', 'rot1': 0, 'rot0': 0, 'rot3': 0, 'rot2': 0, 'depth': -1.743, 'yaw': 0.96, 'datetime': '2018-12-18 20:20:17.100907', 'mgs': 0, 'flw2': 0.15, 'flw1': 0.0, 'flw0': 0.06, 'time': 1.88, 'compass': 56.13, 'pitch': 0.68, 'roll': -2.05}
{'lipoC2': 0.0, 'temp': 0.0, 'lipoC3S3': 12.12, 'state': 'normal', 'rot1': 0, 'rot0': 0, 'rot3': 0, 'rot2': 0, 'depth': 1.614, 'yaw': 1.29, 'datetime': '2018-12-18 20:20:17.310115', 'mgs': 0, 'flw2': 0.0, 'flw1': 0.03, 'flw0': 0.2, 'time': 2.09, 'compass': 56.46, 'pitch': 0.3, 'roll': -2.08}
{'lipoC2': 0.06, 'temp': 0.0, 'lipoC3S3': 11.75, 'state': 'normal', 'rot1': 0, 'rot0': 0, 'rot3': 0, 'rot2': 0, 'depth': 1.157, 'yaw': 1.57, 'datetime': '2018-12-18 20:20:17.517884', 'mgs': 0, 'flw2': 0.0, 'flw1': 0.23, 'flw0': 0.0, 'time': 2.3, 'compass': 56.74, 'pitch': 0.02, 'roll': -2.08}
{'lipoC2': 0.0, 'temp': 0.0, 'lipoC3S3': 11.97, 'state': 'normal', 'rot1': 0, 'rot0': 0, 'rot3': 0, 'rot2': 0, 'depth': 0.546, 'yaw': 1.89, 'datetime': '2018-12-18 20:20:17.725355', 'mgs': 0, 'flw2': 0.22, 'flw1': 0.0, 'flw0': 0.0, 'time': 2.5, 'compass': 57.06, 'pitch': 0.19, 'roll': -2.18}
{'lipoC2': 0.0, 'temp': 0.0, 'lipoC3S3': 11.98, 'state': 'normal', 'rot1': 0, 'rot0': 0, 'rot3': 0, 'rot2': 0, 'depth': 0.699, 'yaw': 2.23, 'datetime': '2018-12-18 20:20:17.937490', 'mgs': 0, 'flw2': 0.2, 'flw1': 0.0, 'flw0': 0.0, 'time': 2.71, 'compass': 57.4, 'pitch': 0.45, 'roll': -2.26}
{'lipoC2': 0.15, 'temp': 0.0, 'lipoC3S3': 11.79, 'state': 'normal', 'rot1': 0, 'rot0': 0, 'rot3': 0, 'rot2': 0, 'depth': 0.546, 'yaw': 2.52, 'datetime': '2018-12-18 20:20:18.144367', 'mgs': 0, 'flw2': 0.07, 'flw1': 0.35, 'flw0': 0.0, 'time': 2.92, 'compass': 57.69, 'pitch': 0.33, 'roll': -2.27}
{'lipoC2': 0.0, 'temp': 0.0, 'lipoC3S3': 11.9, 'state': 'normal', 'rot1': 0, 'rot0': 0, 'rot3': 0, 'rot2': 0, 'depth': 0.928, 'yaw': 2.85, 'datetime': '2018-12-18 20:20:18.351745', 'mgs': 0, 'flw2': 0.0, 'flw1': 0.44, 'flw0': 0.0, 'time': 3.13, 'compass': 58.02, 'pitch': 0.05, 'roll': -2.27}
{'lipoC2': 0.0, 'temp': 0.0, 'lipoC3S3': 11.85, 'state': 'normal', 'rot1': 0, 'rot0': 0, 'rot3': 0, 'rot2': 0, 'depth': -0.598, 'yaw': 3.15, 'datetime': '2018-12-18 20:20:18.553049', 'mgs': 0, 'flw2': 0.0, 'flw1': 0.47, 'flw0': 0.0, 'time': 3.33, 'compass': 58.32, 'pitch': 0.24, 'roll': -2.36}
{'lipoC2': 0.09, 'temp': 0.0, 'lipoC3S3': 11.75, 'state': 'normal', 'rot1': 0, 'rot0': 0, 'rot3': 0, 'rot2': 0, 'depth': 1.08, 'yaw': 3.43, 'datetime': '2018-12-18 20:20:18.761380', 'mgs': 0, 'flw2': 0.1, 'flw1': 0.26, 'flw0': 0.0, 'time': 3.54, 'compass': 58.6, 'pitch': 0.69, 'roll': -2.63}
{'lipoC2': 0.0, 'temp': 0.0, 'lipoC3S3': 12.13, 'state': 'normal', 'rot1': 0, 'rot0': 0, 'rot3': 0, 'rot2': 0, 'depth': 1.538, 'yaw': 3.75, 'datetime': '2018-12-18 20:20:18.974236', 'mgs': 0, 'flw2': 0.0, 'flw1': 0.44, 'flw0': 0.0, 'time': 3.75, 'compass': 58.92, 'pitch': 0.57, 'roll': -2.79}
{'lipoC2': 0.02, 'temp': 0.0, 'lipoC3S3': 12.02, 'state': 'normal', 'rot1': 0, 'rot0': 0, 'rot3': 0, 'rot2': 0, 'depth': 1.538, 'yaw': 4.05, 'datetime': '2018-12-18 20:20:19.185311', 'mgs': 0, 'flw2': 0.0, 'flw1': 0.29, 'flw0': 0.07, 'time': 3.96, 'compass': 59.22, 'pitch': 0.18, 'roll': -2.79}
{'lipoC2': 0.06, 'temp': 0.0, 'lipoC3S3': 12.0, 'state': 'normal', 'rot1': 0, 'rot0': 0, 'rot3': 0, 'rot2': 0, 'depth': -1.819, 'yaw': 4.33, 'datetime': '2018-12-18 20:20:19.392814', 'mgs': 0, 'flw2': 0.16, 'flw1': 0.0, 'flw0': 0.0, 'time': 4.17, 'compass': 59.5, 'pitch': 0.36, 'roll': -2.79}
{'lipoC2': 0.0, 'temp': 0.0, 'lipoC3S3': 11.83, 'state': 'normal', 'rot1': 0, 'rot0': 0, 'rot3': 0, 'rot2': 0, 'depth': -1.208, 'yaw': 4.63, 'datetime': '2018-12-18 20:20:19.598374', 'mgs': 0, 'flw2': 0.0, 'flw1': 0.41, 'flw0': 0.0, 'time': 4.37, 'compass': 59.8, 'pitch': 0.91, 'roll': -2.8}
{'lipoC2': 0.0, 'temp': 0.0, 'lipoC3S3': 11.79, 'state': 'normal', 'rot1': 0, 'rot0': 0, 'rot3': 0, 'rot2': 0, 'depth': -1.208, 'yaw': 4.92, 'datetime': '2018-12-18 20:20:19.808963', 'mgs': 0, 'flw2': 0.0, 'flw1': 0.44, 'flw0': 0.0, 'time': 4.58, 'compass': 60.09, 'pitch': 0.83, 'roll': -2.93}
{'lipoC2': 0.0, 'temp': 0.0, 'lipoC3S3': 12.14, 'state': 'normal', 'rot1': 0, 'rot0': 0, 'rot3': 0, 'rot2': 0, 'depth': 1.767, 'yaw': 5.18, 'datetime': '2018-12-18 20:20:20.017211', 'mgs': 0, 'flw2': 0.0, 'flw1': 0.0, 'flw0': 0.2, 'time': 4.79, 'compass': 60.35, 'pitch': 0.15, 'roll': -3.12}
{'lipoC2': 0.0, 'temp': 0.0, 'lipoC3S3': 11.97, 'state': 'normal', 'rot1': 0, 'rot0': 0, 'rot3': 0, 'rot2': 0, 'depth': -0.14, 'yaw': 5.45, 'datetime': '2018-12-18 20:20:20.224709', 'mgs': 0, 'flw2': 0.0, 'flw1': 0.38, 'flw0': 0.01, 'time': 5.0, 'compass': 60.62, 'pitch': -0.15, 'roll': -3.25}
{'lipoC2': 0.0, 'temp': 0.0, 'lipoC3S3': 12.13, 'state': 'normal', 'rot1': 0, 'rot0': 0, 'rot3': 0, 'rot2': 0, 'depth': 1.614, 'yaw': 5.73, 'datetime': '2018-12-18 20:20:20.431628', 'mgs': 0, 'flw2': 0.16, 'flw1': 0.09, 'flw0': 0.0, 'time': 5.2, 'compass': 60.9, 'pitch': 0.5, 'roll': -3.36}
{'lipoC2': 0.0, 'temp': 0.0, 'lipoC3S3': 12.0, 'state': 'normal', 'rot1': 0, 'rot0': 0, 'rot3': 0, 'rot2': 0, 'depth': 0.775, 'yaw': 6.0, 'datetime': '2018-12-18 20:20:20.642348', 'mgs': 0, 'flw2': 0.16, 'flw1': 0.0, 'flw0': 0.0, 'time': 5.41, 'compass': 61.17, 'pitch': 1.14, 'roll': -3.45}
{'lipoC2': 0.0, 'temp': 0.0, 'lipoC3S3': 12.0, 'state': 'normal', 'rot1': 0, 'rot0': 0, 'rot3': 0, 'rot2': 0, 'depth': 0.775, 'yaw': 6.24, 'datetime': '2018-12-18 20:20:20.849855', 'mgs': 0, 'flw2': 0.18, 'flw1': 0.0, 'flw0': 0.0, 'time': 5.62, 'compass': 61.41, 'pitch': 0.88, 'roll': -3.45}
{'lipoC2': 0.12, 'temp': 0.0, 'lipoC3S3': 11.94, 'state': 'normal', 'rot1': 0, 'rot0': 0, 'rot3': 0, 'rot2': 0, 'depth': 1.538, 'yaw': 6.48, 'datetime': '2018-12-18 20:20:21.056712', 'mgs': 0, 'flw2': 0.0, 'flw1': 0.38, 'flw0': 0.0, 'time': 5.83, 'compass': 61.65, 'pitch': 0.26, 'roll': -3.45}
{'lipoC2': 0.0, 'temp': 0.0, 'lipoC3S3': 12.13, 'state': 'normal', 'rot1': 0, 'rot0': 0, 'rot3': 0, 'rot2': 0, 'depth': 1.691, 'yaw': 6.74, 'datetime': '2018-12-18 20:20:21.266935', 'mgs': 0, 'flw2': 0.13, 'flw1': 0.18, 'flw0': 0.0, 'time': 6.04, 'compass': 61.91, 'pitch': 0.34, 'roll': -3.45}
{'lipoC2': 0.13, 'temp': 0.0, 'lipoC3S3': 11.93, 'state': 'normal', 'rot1': 0, 'rot0': 0, 'rot3': 0, 'rot2': 0, 'depth': -1.285, 'yaw': 6.97, 'datetime': '2018-12-18 20:20:21.471417', 'mgs': 0, 'flw2': 0.0, 'flw1': 0.47, 'flw0': 0.0, 'time': 6.24, 'compass': 62.14, 'pitch': 0.9, 'roll': -3.59}
{'lipoC2': 0.12, 'temp': 0.0, 'lipoC3S3': 11.93, 'state': 'normal', 'rot1': 0, 'rot0': 0, 'rot3': 0, 'rot2': 0, 'depth': -1.59, 'yaw': 7.19, 'datetime': '2018-12-18 20:20:21.678991', 'mgs': 0, 'flw2': 0.11, 'flw1': 0.0, 'flw0': 0.07, 'time': 6.45, 'compass': 62.36, 'pitch': 0.97, 'roll': -3.75}
{'lipoC2': 0.0, 'temp': 0.0, 'lipoC3S3': 12.14, 'state': 'normal', 'rot1': 0, 'rot0': 0, 'rot3': 0, 'rot2': 0, 'depth': -0.14, 'yaw': 7.41, 'datetime': '2018-12-18 20:20:21.890012', 'mgs': 0, 'flw2': 0.0, 'flw1': 0.44, 'flw0': 0.0, 'time': 6.66, 'compass': 62.58, 'pitch': 0.44, 'roll': -3.84}
{'lipoC2': 0.01, 'temp': 0.0, 'lipoC3S3': 11.79, 'state': 'normal', 'rot1': 0, 'rot0': 0, 'rot3': 0, 'rot2': 0, 'depth': 0.012, 'yaw': 7.64, 'datetime': '2018-12-18 20:20:22.099244', 'mgs': 0, 'flw2': 0.13, 'flw1': 0.0, 'flw0': 0.0, 'time': 6.87, 'compass': 62.81, 'pitch': 0.2, 'roll': -4.01}
{'lipoC2': 0.1, 'temp': 0.0, 'lipoC3S3': 11.94, 'state': 'normal', 'rot1': 0, 'rot0': 0, 'rot3': 0, 'rot2': 0, 'depth': -1.819, 'yaw': 7.87, 'datetime': '2018-12-18 20:20:22.308298', 'mgs': 0, 'flw2': 0.0, 'flw1': 0.44, 'flw0': 0.07, 'time': 7.08, 'compass': 63.04, 'pitch': 0.61, 'roll': -4.1}
{'lipoC2': 0.0, 'temp': 0.0, 'lipoC3S3': 11.98, 'state': 'normal', 'rot1': 0, 'rot0': 0, 'rot3': 0, 'rot2': 0, 'depth': 0.546, 'yaw': 8.09, 'datetime': '2018-12-18 20:20:22.514100', 'mgs': 0, 'flw2': 0.0, 'flw1': 0.35, 'flw0': 0.05, 'time': 7.28, 'compass': 63.26, 'pitch': 1.07, 'roll': -4.1}
{'lipoC2': 0.0, 'temp': 0.0, 'lipoC3S3': 11.88, 'state': 'normal', 'rot1': 0, 'rot0': 0, 'rot3': 0, 'rot2': 0, 'depth': 1.157, 'yaw': 8.29, 'datetime': '2018-12-18 20:20:22.722085', 'mgs': 0, 'flw2': 0.09, 'flw1': 0.0, 'flw0': 0.12, 'time': 7.49, 'compass': 63.46, 'pitch': 0.89, 'roll': -4.1}
{'lipoC2': 0.11, 'temp': 0.0, 'lipoC3S3': 11.96, 'state': 'normal', 'rot1': 2, 'rot0': 0, 'rot3': 0, 'rot2': 0, 'depth': -1.361, 'yaw': 7.87, 'datetime': '2018-12-18 20:20:22.931456', 'mgs': 0, 'flw2': 2.89, 'flw1': 0.44, 'flw0': 2.77, 'time': 7.7, 'compass': 63.04, 'pitch': 0.87, 'roll': -4.24}
{'lipoC2': 0.0, 'temp': 0.0, 'lipoC3S3': 11.94, 'state': 'normal', 'rot1': 4, 'rot0': 3, 'rot3': 0, 'rot2': 0, 'depth': 0.546, 'yaw': 6.61, 'datetime': '2018-12-18 20:20:23.140688', 'mgs': 0, 'flw2': 3.05, 'flw1': 0.0, 'flw0': 2.77, 'time': 7.91, 'compass': 61.78, 'pitch': 3.46, 'roll': -4.51}
{'lipoC2': 0.0, 'temp': 0.0, 'lipoC3S3': 11.81, 'state': 'normal', 'rot1': 6, 'rot0': 5, 'rot3': 0, 'rot2': 0, 'depth': -0.598, 'yaw': 5.57, 'datetime': '2018-12-18 20:20:23.347446', 'mgs': 0, 'flw2': 2.8, 'flw1': 0.29, 'flw0': 2.73, 'time': 8.11, 'compass': 60.74, 'pitch': 5.78, 'roll': -4.52}
{'lipoC2': 0.08, 'temp': 0.0, 'lipoC3S3': 11.98, 'state': 'normal', 'rot1': 8, 'rot0': 7, 'rot3': 0, 'rot2': 0, 'depth': -1.743, 'yaw': 4.71, 'datetime': '2018-12-18 20:20:23.555656', 'mgs': 0, 'flw2': 2.92, 'flw1': 0.0, 'flw0': 2.73, 'time': 8.32, 'compass': 59.88, 'pitch': 6.14, 'roll': -4.42}
{'lipoC2': 0.0, 'temp': 0.0, 'lipoC3S3': 12.09, 'state': 'normal', 'rot1': 11, 'rot0': 9, 'rot3': 0, 'rot2': 0, 'depth': 1.614, 'yaw': 3.79, 'datetime': '2018-12-18 20:20:23.766191', 'mgs': 0, 'flw2': 2.95, 'flw1': 0.0, 'flw0': 2.49, 'time': 8.53, 'compass': 58.96, 'pitch': 5.38, 'roll': -4.33}
{'lipoC2': 0.0, 'temp': 0.0, 'lipoC3S3': 12.06, 'state': 'normal', 'rot1': 13, 'rot0': 12, 'rot3': 0, 'rot2': 0, 'depth': 1.462, 'yaw': 2.94, 'datetime': '2018-12-18 20:20:23.978084', 'mgs': 0, 'flw2': 2.49, 'flw1': 0.23, 'flw0': 3.06, 'time': 8.74, 'compass': 58.11, 'pitch': 5.03, 'roll': -4.32}
{'lipoC2': 0.0, 'temp': 0.0, 'lipoC3S3': 12.14, 'state': 'normal', 'rot1': 15, 'rot0': 14, 'rot3': 0, 'rot2': 0, 'depth': -0.14, 'yaw': 2.17, 'datetime': '2018-12-18 20:20:24.185632', 'mgs': 0, 'flw2': 2.91, 'flw1': 0.15, 'flw0': 2.65, 'time': 8.95, 'compass': 57.34, 'pitch': 5.35, 'roll': -4.43}
{'lipoC2': 0.01, 'temp': 0.0, 'lipoC3S3': 12.02, 'state': 'normal', 'rot1': 17, 'rot0': 16, 'rot3': 0, 'rot2': 0, 'depth': -0.827, 'yaw': 1.41, 'datetime': '2018-12-18 20:20:24.394872', 'mgs': 0, 'flw2': 2.6, 'flw1': 0.09, 'flw0': 2.97, 'time': 9.16, 'compass': 56.58, 'pitch': 5.6, 'roll': -4.62}
{'lipoC2': 0.0, 'temp': 0.0, 'lipoC3S3': 12.14, 'state': 'normal', 'rot1': 20, 'rot0': 19, 'rot3': 0, 'rot2': 0, 'depth': 0.165, 'yaw': 0.63, 'datetime': '2018-12-18 20:20:24.603900', 'mgs': 0, 'flw2': 2.86, 'flw1': 0.0, 'flw0': 2.97, 'time': 9.37, 'compass': 55.8, 'pitch': 5.5, 'roll': -4.88}
{'lipoC2': 0.0, 'temp': 0.0, 'lipoC3S3': 11.94, 'state': 'normal', 'rot1': 22, 'rot0': 22, 'rot3': 0, 'rot2': 0, 'depth': 0.775, 'yaw': -0.14, 'datetime': '2018-12-18 20:20:24.812878', 'mgs': 0, 'flw2': 3.0, 'flw1': 0.0, 'flw0': 2.72, 'time': 9.57, 'compass': 55.03, 'pitch': 5.14, 'roll': -5.0}
{'lipoC2': 0.0, 'temp': 0.0, 'lipoC3S3': 11.94, 'state': 'normal', 'rot1': 24, 'rot0': 24, 'rot3': 0, 'rot2': 0, 'depth': 0.241, 'yaw': -0.83, 'datetime': '2018-12-18 20:20:25.022355', 'mgs': 0, 'flw2': 0.21, 'flw1': 0.0, 'flw0': 0.0, 'time': 9.78, 'compass': 54.34, 'pitch': 4.83, 'roll': -4.98}
{'lipoC2': 0.02, 'temp': 0.0, 'lipoC3S3': 11.75, 'state': 'normal', 'rot1': 24, 'rot0': 24, 'rot3': 0, 'rot2': 0, 'depth': 1.462, 'yaw': -1.56, 'datetime': '2018-12-18 20:20:25.231587', 'mgs': 0, 'flw2': 0.0, 'flw1': 0.0, 'flw0': 0.21, 'time': 9.99, 'compass': 53.61, 'pitch': 2.83, 'roll': -4.89}
{'lipoC2': 0.0, 'temp': 0.0, 'lipoC3S3': 12.01, 'state': 'normal', 'rot1': 24, 'rot0': 24, 'rot3': 0, 'rot2': 0, 'depth': 0.775, 'yaw': -2.21, 'datetime': '2018-12-18 20:20:25.438254', 'mgs': 0, 'flw2': 0.0, 'flw1': 0.32, 'flw0': 0.06, 'time': 10.2, 'compass': 52.96, 'pitch': 0.99, 'roll': -4.68}
{'lipoC2': 0.12, 'temp': 0.0, 'lipoC3S3': 11.77, 'state': 'normal', 'rot1': 24, 'rot0': 24, 'rot3': 0, 'rot2': 0, 'depth': 0.394, 'yaw': -2.89, 'datetime': '2018-12-18 20:20:25.648704', 'mgs': 0, 'flw2': 0.0, 'flw1': 0.0, 'flw0': 0.2, 'time': 10.41, 'compass': 52.28, 'pitch': 0.8, 'roll': -4.65}
{'lipoC2': 0.0, 'temp': 0.0, 'lipoC3S3': 12.16, 'state': 'normal', 'rot1': 25, 'rot0': 25, 'rot3': 0, 'rot2': 0, 'depth': 1.767, 'yaw': -3.64, 'datetime': '2018-12-18 20:20:25.856856', 'mgs': 0, 'flw2': 2.72, 'flw1': 0.0, 'flw0': 3.06, 'time': 10.62, 'compass': 51.53, 'pitch': 2.05, 'roll': -4.76}
{'lipoC2': 0.0, 'temp': 0.0, 'lipoC3S3': 12.1, 'state': 'normal', 'rot1': 27, 'rot0': 27, 'rot3': 0, 'rot2': 0, 'depth': 1.614, 'yaw': -4.63, 'datetime': '2018-12-18 20:20:26.065579', 'mgs': 0, 'flw2': 2.47, 'flw1': 0.32, 'flw0': 2.98, 'time': 10.82, 'compass': 50.54, 'pitch': 5.0, 'roll': -5.04}
{'lipoC2': 0.16, 'temp': 0.0, 'lipoC3S3': 11.89, 'state': 'normal', 'rot1': 30, 'rot0': 29, 'rot3': 0, 'rot2': 0, 'depth': -0.446, 'yaw': -5.67, 'datetime': '2018-12-18 20:20:26.275358', 'mgs': 0, 'flw2': 2.81, 'flw1': 0.0, 'flw0': 2.98, 'time': 11.03, 'compass': 49.5, 'pitch': 6.28, 'roll': -5.3}
{'lipoC2': 0.02, 'temp': 0.0, 'lipoC3S3': 11.76, 'state': 'normal', 'rot1': 32, 'rot0': 32, 'rot3': 0, 'rot2': 0, 'depth': 0.165, 'yaw': -6.68, 'datetime': '2018-12-18 20:20:26.482411', 'mgs': 0, 'flw2': 2.87, 'flw1': 0.0, 'flw0': 2.62, 'time': 11.24, 'compass': 48.49, 'pitch': 5.72, 'roll': -5.44}
{'lipoC2': 0.09, 'temp': 0.0, 'lipoC3S3': 11.97, 'state': 'normal', 'rot1': 35, 'rot0': 34, 'rot3': 0, 'rot2': 0, 'depth': -1.666, 'yaw': -7.66, 'datetime': '2018-12-18 20:20:26.687639', 'mgs': 0, 'flw2': 2.95, 'flw1': 0.0, 'flw0': 2.94, 'time': 11.45, 'compass': 47.51, 'pitch': 5.78, 'roll': -5.51}
{'lipoC2': 0.0, 'temp': 0.0, 'lipoC3S3': 11.76, 'state': 'normal', 'rot1': 37, 'rot0': 36, 'rot3': 0, 'rot2': 0, 'depth': -0.674, 'yaw': -8.61, 'datetime': '2018-12-18 20:20:26.899248', 'mgs': 0, 'flw2': 2.75, 'flw1': 0.0, 'flw0': 3.0, 'time': 11.66, 'compass': 46.56, 'pitch': 7.01, 'roll': -5.63}
{'lipoC2': 0.09, 'temp': 0.0, 'lipoC3S3': 12.12, 'state': 'normal', 'rot1': 39, 'rot0': 38, 'rot3': 0, 'rot2': 0, 'depth': 0.47, 'yaw': -9.47, 'datetime': '2018-12-18 20:20:27.107549', 'mgs': 0, 'flw2': 2.89, 'flw1': 0.0, 'flw0': 2.53, 'time': 11.87, 'compass': 45.7, 'pitch': 7.96, 'roll': -5.52}
{'lipoC2': 0.0, 'temp': 0.0, 'lipoC3S3': 11.83, 'state': 'normal', 'rot1': 42, 'rot0': 41, 'rot3': 0, 'rot2': 0, 'depth': -0.293, 'yaw': -10.41, 'datetime': '2018-12-18 20:20:27.315443', 'mgs': 0, 'flw2': 2.7, 'flw1': 0.0, 'flw0': 3.05, 'time': 12.08, 'compass': 44.76, 'pitch': 8.19, 'roll': -5.32}
{'lipoC2': 0.12, 'temp': 0.0, 'lipoC3S3': 11.94, 'state': 'normal', 'rot1': 44, 'rot0': 43, 'rot3': 0, 'rot2': 0, 'depth': -1.285, 'yaw': -11.54, 'datetime': '2018-12-18 20:20:27.524681', 'mgs': 0, 'flw2': 2.71, 'flw1': 0.5, 'flw0': 2.81, 'time': 12.29, 'compass': 43.63, 'pitch': 7.9, 'roll': -5.13}
{'lipoC2': 0.15, 'temp': 0.0, 'lipoC3S3': 11.81, 'state': 'normal', 'rot1': 46, 'rot0': 46, 'rot3': 0, 'rot2': 0, 'depth': 0.928, 'yaw': -12.63, 'datetime': '2018-12-18 20:20:27.733320', 'mgs': 0, 'flw2': 2.72, 'flw1': 0.38, 'flw0': 2.71, 'time': 12.49, 'compass': 42.54, 'pitch': 7.62, 'roll': -5.18}
{'lipoC2': 0.0, 'temp': 0.0, 'lipoC3S3': 12.0, 'state': 'normal', 'rot1': 49, 'rot0': 48, 'rot3': 0, 'rot2': 0, 'depth': 1.157, 'yaw': -13.9, 'datetime': '2018-12-18 20:20:27.944167', 'mgs': 0, 'flw2': 3.02, 'flw1': 0.0, 'flw0': 2.58, 'time': 12.7, 'compass': 41.27, 'pitch': 7.41, 'roll': -5.33}
{'lipoC2': 0.01, 'temp': 0.0, 'lipoC3S3': 11.77, 'state': 'normal', 'rot1': 51, 'rot0': 50, 'rot3': 0, 'rot2': 0, 'depth': 0.47, 'yaw': -15.19, 'datetime': '2018-12-18 20:20:28.152625', 'mgs': 0, 'flw2': 2.65, 'flw1': 0.15, 'flw0': 2.89, 'time': 12.91, 'compass': 39.98, 'pitch': 7.27, 'roll': -5.34}
{'lipoC2': 0.03, 'temp': 0.0, 'lipoC3S3': 11.76, 'state': 'normal', 'rot1': 53, 'rot0': 53, 'rot3': 0, 'rot2': 0, 'depth': 0.623, 'yaw': -16.47, 'datetime': '2018-12-18 20:20:28.360215', 'mgs': 0, 'flw2': 2.51, 'flw1': 0.12, 'flw0': 2.92, 'time': 13.12, 'compass': 38.7, 'pitch': 7.27, 'roll': -5.36}
{'lipoC2': 0.0, 'temp': 0.0, 'lipoC3S3': 11.96, 'state': 'normal', 'rot1': 56, 'rot0': 55, 'rot3': 0, 'rot2': 0, 'depth': 0.47, 'yaw': -17.85, 'datetime': '2018-12-18 20:20:28.568705', 'mgs': 0, 'flw2': 2.54, 'flw1': 0.53, 'flw0': 2.8, 'time': 13.33, 'compass': 37.32, 'pitch': 7.4, 'roll': -5.54}
{'lipoC2': 0.12, 'temp': 0.0, 'lipoC3S3': 11.94, 'state': 'normal', 'rot1': 58, 'rot0': 57, 'rot3': 0, 'rot2': 0, 'depth': -1.437, 'yaw': -19.49, 'datetime': '2018-12-18 20:20:28.779256', 'mgs': 0, 'flw2': 2.87, 'flw1': 0.0, 'flw0': 2.78, 'time': 13.54, 'compass': 35.68, 'pitch': 7.56, 'roll': -5.54}
{'lipoC2': 0.0, 'temp': 0.0, 'lipoC3S3': 12.14, 'state': 'normal', 'rot1': 60, 'rot0': 60, 'rot3': 0, 'rot2': 0, 'depth': -0.064, 'yaw': -21.11, 'datetime': '2018-12-18 20:20:28.991070', 'mgs': 0, 'flw2': 2.72, 'flw1': 0.0, 'flw0': 3.1, 'time': 13.75, 'compass': 34.06, 'pitch': 7.79, 'roll': -5.35}
{'lipoC2': 0.0, 'temp': 0.0, 'lipoC3S3': 12.01, 'state': 'normal', 'rot1': 63, 'rot0': 62, 'rot3': 0, 'rot2': 0, 'depth': 1.843, 'yaw': -22.73, 'datetime': '2018-12-18 20:20:29.202630', 'mgs': 0, 'flw2': 2.56, 'flw1': 0.44, 'flw0': 2.82, 'time': 13.96, 'compass': 32.44, 'pitch': 8.18, 'roll': -5.48}
{'lipoC2': 0.0, 'temp': 0.0, 'lipoC3S3': 11.96, 'state': 'normal', 'rot1': 65, 'rot0': 65, 'rot3': 0, 'rot2': 0, 'depth': -0.14, 'yaw': -24.22, 'datetime': '2018-12-18 20:20:29.409129', 'mgs': 0, 'flw2': 2.56, 'flw1': 0.53, 'flw0': 2.78, 'time': 14.17, 'compass': 30.95, 'pitch': 8.75, 'roll': -5.63}
{'lipoC2': 0.04, 'temp': 0.0, 'lipoC3S3': 12.0, 'state': 'normal', 'rot1': 67, 'rot0': 67, 'rot3': 0, 'rot2': 0, 'depth': -1.437, 'yaw': -25.83, 'datetime': '2018-12-18 20:20:29.618095', 'mgs': 0, 'flw2': 2.93, 'flw1': 0.0, 'flw0': 2.69, 'time': 14.38, 'compass': 29.34, 'pitch': 9.29, 'roll': -5.61}
{'lipoC2': 0.02, 'temp': 0.0, 'lipoC3S3': 11.76, 'state': 'normal', 'rot1': 70, 'rot0': 69, 'rot3': 0, 'rot2': 0, 'depth': 1.538, 'yaw': -27.46, 'datetime': '2018-12-18 20:20:29.826360', 'mgs': 0, 'flw2': 2.47, 'flw1': 0.26, 'flw0': 2.91, 'time': 14.58, 'compass': 27.71, 'pitch': 9.9, 'roll': -5.56}
{'lipoC2': 0.0, 'temp': 0.0, 'lipoC3S3': 11.96, 'state': 'normal', 'rot1': 72, 'rot0': 71, 'rot3': 0, 'rot2': 0, 'depth': 0.241, 'yaw': -29.16, 'datetime': '2018-12-18 20:20:30.040897', 'mgs': 0, 'flw2': 2.64, 'flw1': 0.47, 'flw0': 2.82, 'time': 14.79, 'compass': 26.01, 'pitch': 10.45, 'roll': -5.63}
{'lipoC2': 0.0, 'temp': 0.0, 'lipoC3S3': 11.97, 'state': 'normal', 'rot1': 74, 'rot0': 74, 'rot3': 0, 'rot2': 0, 'depth': -0.217, 'yaw': -30.96, 'datetime': '2018-12-18 20:20:30.249541', 'mgs': 0, 'flw2': 2.88, 'flw1': 0.0, 'flw0': 2.84, 'time': 15.0, 'compass': 24.21, 'pitch': 10.72, 'roll': -5.68}
{'lipoC2': 0.14, 'temp': 0.0, 'lipoC3S3': 11.93, 'state': 'normal', 'rot1': 77, 'rot0': 76, 'rot3': 0, 'rot2': 0, 'depth': 1.843, 'yaw': -32.8, 'datetime': '2018-12-18 20:20:30.453388', 'mgs': 0, 'flw2': 2.72, 'flw1': 0.0, 'flw0': 2.94, 'time': 15.21, 'compass': 22.37, 'pitch': 10.97, 'roll': -5.47}
{'lipoC2': 0.04, 'temp': 0.0, 'lipoC3S3': 11.76, 'state': 'normal', 'rot1': 79, 'rot0': 79, 'rot3': 0, 'rot2': 0, 'depth': 0.317, 'yaw': -34.34, 'datetime': '2018-12-18 20:20:30.660167', 'mgs': 0, 'flw2': 2.75, 'flw1': 0.0, 'flw0': 3.08, 'time': 15.42, 'compass': 20.83, 'pitch': 11.39, 'roll': -5.03}
{'lipoC2': 0.1, 'temp': 0.0, 'lipoC3S3': 11.71, 'state': 'normal', 'rot1': 81, 'rot0': 81, 'rot3': 0, 'rot2': 0, 'depth': 1.157, 'yaw': -36.01, 'datetime': '2018-12-18 20:20:30.869001', 'mgs': 0, 'flw2': 2.84, 'flw1': 0.0, 'flw0': 2.62, 'time': 15.63, 'compass': 19.16, 'pitch': 11.61, 'roll': -4.83}
{'lipoC2': 0.09, 'temp': 0.0, 'lipoC3S3': 11.75, 'state': 'normal', 'rot1': 84, 'rot0': 83, 'rot3': 0, 'rot2': 0, 'depth': 0.47, 'yaw': -37.89, 'datetime': '2018-12-18 20:20:31.077613', 'mgs': 0, 'flw2': 2.6, 'flw1': 0.0, 'flw0': 2.66, 'time': 15.84, 'compass': 17.28, 'pitch': 11.7, 'roll': -4.86}
{'lipoC2': 0.05, 'temp': 0.0, 'lipoC3S3': 11.75, 'state': 'normal', 'rot1': 86, 'rot0': 86, 'rot3': 0, 'rot2': 0, 'depth': 0.47, 'yaw': -39.63, 'datetime': '2018-12-18 20:20:31.288728', 'mgs': 0, 'flw2': 2.84, 'flw1': 0.0, 'flw0': 2.56, 'time': 16.05, 'compass': 15.54, 'pitch': 11.86, 'roll': -4.96}
{'lipoC2': 0.05, 'temp': 0.0, 'lipoC3S3': 11.75, 'state': 'normal', 'rot1': 88, 'rot0': 88, 'rot3': 0, 'rot2': 0, 'depth': 1.385, 'yaw': -41.5, 'datetime': '2018-12-18 20:20:31.495283', 'mgs': 0, 'flw2': 2.92, 'flw1': 0.0, 'flw0': 2.43, 'time': 16.26, 'compass': 13.67, 'pitch': 11.85, 'roll': -5.11}
{'lipoC2': 0.0, 'temp': 0.0, 'lipoC3S3': 12.14, 'state': 'normal', 'rot1': 90, 'rot0': 90, 'rot3': 0, 'rot2': 0, 'depth': 1.767, 'yaw': -43.25, 'datetime': '2018-12-18 20:20:31.706158', 'mgs': 0, 'flw2': 2.75, 'flw1': 0.0, 'flw0': 3.04, 'time': 16.46, 'compass': 11.92, 'pitch': 11.96, 'roll': -5.03}
{'lipoC2': 0.0, 'temp': 0.0, 'lipoC3S3': 12.02, 'state': 'normal', 'rot1': 93, 'rot0': 93, 'rot3': 0, 'rot2': 0, 'depth': 1.538, 'yaw': -44.99, 'datetime': '2018-12-18 20:20:31.915559', 'mgs': 0, 'flw2': 2.54, 'flw1': 0.26, 'flw0': 2.98, 'time': 16.67, 'compass': 10.18, 'pitch': 12.32, 'roll': -4.99}
{'lipoC2': 0.02, 'temp': 0.0, 'lipoC3S3': 11.76, 'state': 'normal', 'rot1': 95, 'rot0': 95, 'rot3': 0, 'rot2': 0, 'depth': 1.691, 'yaw': -46.83, 'datetime': '2018-12-18 20:20:32.124831', 'mgs': 0, 'flw2': 2.98, 'flw1': 0.0, 'flw0': 2.43, 'time': 16.88, 'compass': 8.34, 'pitch': 12.79, 'roll': -4.82}
{'lipoC2': 0.01, 'temp': 0.0, 'lipoC3S3': 11.79, 'state': 'normal', 'rot1': 97, 'rot0': 98, 'rot3': 0, 'rot2': 0, 'depth': 1.614, 'yaw': -48.65, 'datetime': '2018-12-18 20:20:32.331514', 'mgs': 0, 'flw2': 2.94, 'flw1': 0.0, 'flw0': 2.51, 'time': 17.09, 'compass': 6.52, 'pitch': 12.89, 'roll': -4.59}
{'lipoC2': 0.04, 'temp': 0.0, 'lipoC3S3': 11.76, 'state': 'normal', 'rot1': 99, 'rot0': 100, 'rot3': 0, 'rot2': 0, 'depth': 1.767, 'yaw': -50.55, 'datetime': '2018-12-18 20:20:32.541486', 'mgs': 0, 'flw2': 3.02, 'flw1': 0.03, 'flw0': 2.49, 'time': 17.3, 'compass': 4.62, 'pitch': 12.78, 'roll': -4.29}
{'lipoC2': 0.02, 'temp': 0.0, 'lipoC3S3': 12.01, 'state': 'normal', 'rot1': 101, 'rot0': 103, 'rot3': 0, 'rot2': 0, 'depth': -0.98, 'yaw': -52.31, 'datetime': '2018-12-18 20:20:32.751136', 'mgs': 0, 'flw2': 2.53, 'flw1': 0.44, 'flw0': 2.84, 'time': 17.51, 'compass': 2.86, 'pitch': 12.9, 'roll': -3.89}
{'lipoC2': 0.06, 'temp': 0.0, 'lipoC3S3': 11.75, 'state': 'normal', 'rot1': 103, 'rot0': 105, 'rot3': 0, 'rot2': 0, 'depth': 0.394, 'yaw': -54.57, 'datetime': '2018-12-18 20:20:32.963285', 'mgs': 0, 'flw2': 0.16, 'flw1': 0.0, 'flw0': 0.0, 'time': 17.72, 'compass': 0.6, 'pitch': 13.21, 'roll': -3.61}
{'lipoC2': 0.0, 'temp': 0.0, 'lipoC3S3': 11.96, 'state': 'normal', 'rot1': 103, 'rot0': 105, 'rot3': 0, 'rot2': 0, 'depth': 0.546, 'yaw': -56.93, 'datetime': '2018-12-18 20:20:33.172377', 'mgs': 0, 'flw2': 0.0, 'flw1': 0.44, 'flw0': 0.68, 'time': 17.93, 'compass': -1.76, 'pitch': 11.55, 'roll': -3.29}
{'lipoC2': 0.0, 'temp': 0.0, 'lipoC3S3': 11.96, 'state': 'normal', 'rot1': 105, 'rot0': 107, 'rot3': 0, 'rot2': 0, 'depth': 0.546, 'yaw': -59.23, 'datetime': '2018-12-18 20:20:33.379389', 'mgs': 0, 'flw2': 2.69, 'flw1': 0.47, 'flw0': 2.91, 'time': 18.14, 'compass': -4.06, 'pitch': 11.05, 'roll': -2.85}
{'lipoC2': 0.06, 'temp': 0.0, 'lipoC3S3': 12.1, 'state': 'normal', 'rot1': 107, 'rot0': 109, 'rot3': 0, 'rot2': 0, 'depth': 1.462, 'yaw': -61.9, 'datetime': '2018-12-18 20:20:33.589207', 'mgs': 0, 'flw2': 2.62, 'flw1': 0.0, 'flw0': 2.39, 'time': 18.34, 'compass': -6.73, 'pitch': 13.27, 'roll': -2.28}
{'lipoC2': 0.05, 'temp': 0.0, 'lipoC3S3': 12.0, 'state': 'normal', 'rot1': 110, 'rot0': 111, 'rot3': 0, 'rot2': 0, 'depth': -1.285, 'yaw': -64.65, 'datetime': '2018-12-18 20:20:33.799297', 'mgs': 0, 'flw2': 2.42, 'flw1': 0.0, 'flw0': 2.61, 'time': 18.55, 'compass': -9.48, 'pitch': 14.27, 'roll': -1.6}
{'lipoC2': 0.14, 'temp': 0.0, 'lipoC3S3': 11.8, 'state': 'normal', 'rot1': 112, 'rot0': 113, 'rot3': 0, 'rot2': 0, 'depth': 0.851, 'yaw': -67.8, 'datetime': '2018-12-18 20:20:34.013452', 'mgs': 0, 'flw2': 2.36, 'flw1': 0.23, 'flw0': 2.62, 'time': 18.76, 'compass': -12.63, 'pitch': 13.72, 'roll': -1.11}
{'lipoC2': 0.08, 'temp': 0.0, 'lipoC3S3': 11.75, 'state': 'normal', 'rot1': 114, 'rot0': 116, 'rot3': 0, 'rot2': 0, 'depth': 0.394, 'yaw': -71.37, 'datetime': '2018-12-18 20:20:34.218557', 'mgs': 0, 'flw2': 2.01, 'flw1': 0.09, 'flw0': 3.14, 'time': 18.97, 'compass': -16.2, 'pitch': 13.43, 'roll': -0.98}
{'lipoC2': 0.12, 'temp': 0.0, 'lipoC3S3': 11.93, 'state': 'normal', 'rot1': 117, 'rot0': 118, 'rot3': 0, 'rot2': 0, 'depth': -1.208, 'yaw': -75.26, 'datetime': '2018-12-18 20:20:34.429347', 'mgs': 0, 'flw2': 2.94, 'flw1': 0.0, 'flw0': 2.83, 'time': 19.18, 'compass': -20.09, 'pitch': 14.13, 'roll': -0.95}
{'lipoC2': 0.0, 'temp': 0.0, 'lipoC3S3': 11.96, 'state': 'normal', 'rot1': 119, 'rot0': 120, 'rot3': 0, 'rot2': 0, 'depth': 0.241, 'yaw': -78.64, 'datetime': '2018-12-18 20:20:34.637025', 'mgs': 0, 'flw2': 2.56, 'flw1': 0.41, 'flw0': 2.78, 'time': 19.39, 'compass': -23.47, 'pitch': 14.94, 'roll': -0.8}
{'lipoC2': 0.15, 'temp': 0.0, 'lipoC3S3': 11.81, 'state': 'normal', 'rot1': 121, 'rot0': 123, 'rot3': 0, 'rot2': 0, 'depth': 0.851, 'yaw': -81.62, 'datetime': '2018-12-18 20:20:34.845572', 'mgs': 0, 'flw2': 2.75, 'flw1': 0.32, 'flw0': 2.7, 'time': 19.6, 'compass': -26.45, 'pitch': 15.11, 'roll': -0.44}
{'lipoC2': 0.11, 'temp': 0.0, 'lipoC3S3': 11.94, 'state': 'normal', 'rot1': 124, 'rot0': 125, 'rot3': 0, 'rot2': 0, 'depth': -1.132, 'yaw': -84.02, 'datetime': '2018-12-18 20:20:35.054169', 'mgs': 0, 'flw2': 2.91, 'flw1': 0.0, 'flw0': 2.73, 'time': 19.81, 'compass': -28.85, 'pitch': 14.72, 'roll': 0.18}
{'lipoC2': 0.11, 'temp': 0.0, 'lipoC3S3': 11.76, 'state': 'normal', 'rot1': 125, 'rot0': 127, 'rot3': 0, 'rot2': 0, 'depth': 1.157, 'yaw': -85.72, 'datetime': '2018-12-18 20:20:35.263070', 'mgs': 0, 'flw2': 2.78, 'flw1': 0.0, 'flw0': 0.93, 'time': 20.02, 'compass': -30.55, 'pitch': 14.07, 'roll': 0.82}
{'lipoC2': 0.11, 'temp': 0.0, 'lipoC3S3': 11.94, 'state': 'normal', 'rot1': 126, 'rot0': 130, 'rot3': 0, 'rot2': 0, 'depth': -1.437, 'yaw': -86.24, 'datetime': '2018-12-18 20:20:35.472656', 'mgs': 0, 'flw2': 2.67, 'flw1': 0.44, 'flw0': 0.74, 'time': 20.23, 'compass': -31.07, 'pitch': 13.05, 'roll': 1.15}
{'lipoC2': 0.0, 'temp': 0.0, 'lipoC3S3': 12.13, 'state': 'normal', 'rot1': 128, 'rot0': 132, 'rot3': 0, 'rot2': 0, 'depth': -1.59, 'yaw': -85.94, 'datetime': '2018-12-18 20:20:35.683602', 'mgs': 0, 'flw2': 2.78, 'flw1': 0.09, 'flw0': 0.34, 'time': 20.44, 'compass': -30.77, 'pitch': 12.98, 'roll': 1.17}
{'lipoC2': 0.0, 'temp': 0.0, 'lipoC3S3': 12.16, 'state': 'normal', 'rot1': 129, 'rot0': 135, 'rot3': 0, 'rot2': 0, 'depth': -0.14, 'yaw': -84.79, 'datetime': '2018-12-18 20:20:35.892089', 'mgs': 0, 'flw2': 2.67, 'flw1': 0.0, 'flw0': 0.73, 'time': 20.65, 'compass': -29.62, 'pitch': 13.07, 'roll': 1.12}
{'lipoC2': 0.0, 'temp': 0.0, 'lipoC3S3': 11.98, 'state': 'normal', 'rot1': 130, 'rot0': 137, 'rot3': 0, 'rot2': 0, 'depth': 0.546, 'yaw': -82.78, 'datetime': '2018-12-18 20:20:36.109152', 'mgs': 0, 'flw2': 2.81, 'flw1': 0.0, 'flw0': 0.57, 'time': 20.85, 'compass': -27.61, 'pitch': 12.8, 'roll': 0.97}
{'lipoC2': 0.0, 'temp': 0.0, 'lipoC3S3': 12.05, 'state': 'normal', 'rot1': 132, 'rot0': 141, 'rot3': 0, 'rot2': 0, 'depth': 2.225, 'yaw': -78.88, 'datetime': '2018-12-18 20:20:36.413130', 'mgs': 0, 'flw2': 2.62, 'flw1': 0.56, 'flw0': 2.69, 'time': 21.17, 'compass': -23.71, 'pitch': 12.86, 'roll': 0.39}
{'lipoC2': 0.0, 'temp': 0.0, 'lipoC3S3': 12.14, 'state': 'normal', 'rot1': 134, 'rot0': 144, 'rot3': 0, 'rot2': 0, 'depth': 2.301, 'yaw': -77.52, 'datetime': '2018-12-18 20:20:36.623093', 'mgs': 0, 'flw2': 2.98, 'flw1': 0.0, 'flw0': 2.39, 'time': 21.38, 'compass': -22.35, 'pitch': 13.68, 'roll': -0.03}
{'lipoC2': 0.0, 'temp': 0.0, 'lipoC3S3': 11.92, 'state': 'normal', 'rot1': 141, 'rot0': 150, 'rot3': 0, 'rot2': 0, 'depth': 0.928, 'yaw': -78.08, 'datetime': '2018-12-18 20:20:37.147323', 'mgs': 0, 'flw2': 2.77, 'flw1': 0.47, 'flw0': 2.61, 'time': 21.9, 'compass': -22.91, 'pitch': 13.87, 'roll': -0.49}
{'lipoC2': 0.02, 'temp': 0.0, 'lipoC3S3': 11.76, 'state': 'normal', 'rot1': 144, 'rot0': 153, 'rot3': 0, 'rot2': 0, 'depth': 1.462, 'yaw': -79.0, 'datetime': '2018-12-18 20:20:37.355530', 'mgs': 0, 'flw2': 2.86, 'flw1': 0.0, 'flw0': 2.09, 'time': 22.11, 'compass': -23.83, 'pitch': 14.16, 'roll': -0.56}
{'lipoC2': 0.0, 'temp': 0.0, 'lipoC3S3': 12.17, 'state': 'normal', 'rot1': 146, 'rot0': 155, 'rot3': 0, 'rot2': 0, 'depth': -0.064, 'yaw': -79.79, 'datetime': '2018-12-18 20:20:37.565077', 'mgs': 0, 'flw2': 2.89, 'flw1': 0.0, 'flw0': 2.11, 'time': 22.32, 'compass': -24.62, 'pitch': 14.65, 'roll': -0.61}
{'lipoC2': 0.0, 'temp': 0.0, 'lipoC3S3': 12.14, 'state': 'normal', 'rot1': 148, 'rot0': 158, 'rot3': 0, 'rot2': 0, 'depth': 0.165, 'yaw': -80.21, 'datetime': '2018-12-18 20:20:37.776663', 'mgs': 0, 'flw2': 2.8, 'flw1': 0.47, 'flw0': 2.34, 'time': 22.53, 'compass': -25.04, 'pitch': 14.79, 'roll': -0.26}
{'lipoC2': 0.05, 'temp': 0.0, 'lipoC3S3': 11.75, 'state': 'normal', 'rot1': 150, 'rot0': 160, 'rot3': 0, 'rot2': 0, 'depth': 1.309, 'yaw': -80.51, 'datetime': '2018-12-18 20:20:37.991932', 'mgs': 0, 'flw2': 2.86, 'flw1': 0.0, 'flw0': 2.15, 'time': 22.74, 'compass': -25.34, 'pitch': 14.67, 'roll': 0.02}
{'lipoC2': 0.06, 'temp': 0.0, 'lipoC3S3': 11.75, 'state': 'normal', 'rot1': 152, 'rot0': 162, 'rot3': 0, 'rot2': 0, 'depth': 0.317, 'yaw': -80.78, 'datetime': '2018-12-18 20:20:38.201799', 'mgs': 0, 'flw2': 2.92, 'flw1': 0.06, 'flw0': 2.25, 'time': 22.95, 'compass': -25.61, 'pitch': 14.45, 'roll': 0.11}
{'lipoC2': 0.01, 'temp': 0.0, 'lipoC3S3': 11.77, 'state': 'normal', 'rot1': 154, 'rot0': 165, 'rot3': 0, 'rot2': 0, 'depth': 0.089, 'yaw': -80.87, 'datetime': '2018-12-18 20:20:38.412007', 'mgs': 0, 'flw2': 2.83, 'flw1': 0.0, 'flw0': 2.25, 'time': 23.16, 'compass': -25.7, 'pitch': 14.27, 'roll': 0.08}
{'lipoC2': 0.03, 'temp': 0.0, 'lipoC3S3': 11.77, 'state': 'normal', 'rot1': 157, 'rot0': 167, 'rot3': 0, 'rot2': 0, 'depth': 0.394, 'yaw': -80.89, 'datetime': '2018-12-18 20:20:38.623369', 'mgs': 0, 'flw2': 2.99, 'flw1': 0.0, 'flw0': 2.29, 'time': 23.37, 'compass': -25.72, 'pitch': 14.26, 'roll': 0.06}
{'lipoC2': 0.12, 'temp': 0.0, 'lipoC3S3': 11.94, 'state': 'normal', 'rot1': 159, 'rot0': 169, 'rot3': 0, 'rot2': 0, 'depth': -1.437, 'yaw': -80.85, 'datetime': '2018-12-18 20:20:38.832266', 'mgs': 0, 'flw2': 2.95, 'flw1': 0.0, 'flw0': 2.42, 'time': 23.58, 'compass': -25.68, 'pitch': 14.29, 'roll': 0.23}
{'lipoC2': 0.09, 'temp': 0.0, 'lipoC3S3': 11.72, 'state': 'normal', 'rot1': 161, 'rot0': 172, 'rot3': 0, 'rot2': 0, 'depth': 0.394, 'yaw': -80.92, 'datetime': '2018-12-18 20:20:39.039939', 'mgs': 0, 'flw2': 2.61, 'flw1': 0.0, 'flw0': 2.67, 'time': 23.79, 'compass': -25.75, 'pitch': 14.36, 'roll': 0.19}
{'lipoC2': 0.0, 'temp': 0.0, 'lipoC3S3': 12.1, 'state': 'normal', 'rot1': 163, 'rot0': 174, 'rot3': 0, 'rot2': 0, 'depth': 1.614, 'yaw': -81.08, 'datetime': '2018-12-18 20:20:39.255064', 'mgs': 0, 'flw2': 2.87, 'flw1': 0.23, 'flw0': 2.62, 'time': 24.0, 'compass': -25.91, 'pitch': 14.36, 'roll': -0.03}
{'lipoC2': 0.0, 'temp': 0.0, 'lipoC3S3': 12.06, 'state': 'normal', 'rot1': 166, 'rot0': 177, 'rot3': 0, 'rot2': 0, 'depth': 1.462, 'yaw': -81.09, 'datetime': '2018-12-18 20:20:39.560128', 'mgs': 0, 'flw2': 2.89, 'flw1': 0.0, 'flw0': 2.14, 'time': 24.31, 'compass': -25.92, 'pitch': 14.32, 'roll': -0.06}
{'lipoC2': 0.0, 'temp': 0.0, 'lipoC3S3': 12.14, 'state': 'normal', 'rot1': 169, 'rot0': 180, 'rot3': 0, 'rot2': 0, 'depth': -0.14, 'yaw': -80.95, 'datetime': '2018-12-18 20:20:39.768373', 'mgs': 0, 'flw2': 2.61, 'flw1': 0.0, 'flw0': 2.64, 'time': 24.52, 'compass': -25.78, 'pitch': 14.46, 'roll': -0.3}
{'lipoC2': 0.1, 'temp': 0.0, 'lipoC3S3': 11.73, 'state': 'normal', 'rot1': 171, 'rot0': 182, 'rot3': 0, 'rot2': 0, 'depth': 0.394, 'yaw': -80.63, 'datetime': '2018-12-18 20:20:39.977894', 'mgs': 0, 'flw2': 2.7, 'flw1': 0.0, 'flw0': 2.7, 'time': 24.73, 'compass': -25.46, 'pitch': 14.85, 'roll': -0.45}
{'lipoC2': 0.15, 'temp': 0.0, 'lipoC3S3': 11.87, 'state': 'normal', 'rot1': 174, 'rot0': 184, 'rot3': 0, 'rot2': 0, 'depth': 1.08, 'yaw': -80.17, 'datetime': '2018-12-18 20:20:40.192958', 'mgs': 0, 'flw2': 2.75, 'flw1': 0.0, 'flw0': 2.54, 'time': 24.94, 'compass': -25.0, 'pitch': 15.11, 'roll': -0.4}
{'lipoC2': 0.05, 'temp': 0.0, 'lipoC3S3': 11.98, 'state': 'normal', 'rot1': 176, 'rot0': 186, 'rot3': 0, 'rot2': 0, 'depth': -1.59, 'yaw': -79.48, 'datetime': '2018-12-18 20:20:40.400351', 'mgs': 0, 'flw2': 2.48, 'flw1': 0.32, 'flw0': 2.61, 'time': 25.15, 'compass': -24.31, 'pitch': 15.17, 'roll': -0.62}
{'lipoC2': 0.04, 'temp': 0.0, 'lipoC3S3': 12.01, 'state': 'normal', 'rot1': 178, 'rot0': 189, 'rot3': 0, 'rot2': 0, 'depth': -1.437, 'yaw': -78.86, 'datetime': '2018-12-18 20:20:40.611509', 'mgs': 0, 'flw2': 2.43, 'flw1': 0.38, 'flw0': 2.59, 'time': 25.36, 'compass': -23.69, 'pitch': 15.18, 'roll': -1.07}
{'lipoC2': 0.0, 'temp': 0.0, 'lipoC3S3': 11.94, 'state': 'normal', 'rot1': 181, 'rot0': 192, 'rot3': 0, 'rot2': 0, 'depth': 0.394, 'yaw': -78.04, 'datetime': '2018-12-18 20:20:40.819273', 'mgs': 0, 'flw2': 2.84, 'flw1': 0.0, 'flw0': 2.36, 'time': 25.57, 'compass': -22.87, 'pitch': 15.05, 'roll': -1.45}
{'lipoC2': 0.0, 'temp': 0.0, 'lipoC3S3': 11.96, 'state': 'normal', 'rot1': 183, 'rot0': 194, 'rot3': 0, 'rot2': 0, 'depth': 0.47, 'yaw': -77.01, 'datetime': '2018-12-18 20:20:41.033245', 'mgs': 0, 'flw2': 2.71, 'flw1': 0.47, 'flw0': 2.42, 'time': 25.77, 'compass': -21.84, 'pitch': 15.0, 'roll': -1.72}
{'lipoC2': 0.06, 'temp': 0.0, 'lipoC3S3': 11.97, 'state': 'normal', 'rot1': 185, 'rot0': 196, 'rot3': 0, 'rot2': 0, 'depth': 1.843, 'yaw': -75.96, 'datetime': '2018-12-18 20:20:41.241529', 'mgs': 0, 'flw2': 2.92, 'flw1': 0.0, 'flw0': 2.53, 'time': 25.98, 'compass': -20.79, 'pitch': 15.13, 'roll': -2.01}
{'lipoC2': 0.02, 'temp': 0.0, 'lipoC3S3': 11.76, 'state': 'normal', 'rot1': 187, 'rot0': 199, 'rot3': 0, 'rot2': 0, 'depth': 0.394, 'yaw': -75.07, 'datetime': '2018-12-18 20:20:41.451966', 'mgs': 0, 'flw2': 3.02, 'flw1': 0.0, 'flw0': 2.11, 'time': 26.19, 'compass': -19.9, 'pitch': 15.21, 'roll': -2.25}
{'lipoC2': 0.08, 'temp': 0.0, 'lipoC3S3': 11.75, 'state': 'normal', 'rot1': 189, 'rot0': 201, 'rot3': 0, 'rot2': 0, 'depth': 0.394, 'yaw': -74.15, 'datetime': '2018-12-18 20:20:41.663349', 'mgs': 0, 'flw2': 2.78, 'flw1': 0.0, 'flw0': 2.21, 'time': 26.4, 'compass': -18.98, 'pitch': 15.19, 'roll': -2.34}
{'lipoC2': 0.04, 'temp': 0.0, 'lipoC3S3': 11.75, 'state': 'normal', 'rot1': 191, 'rot0': 204, 'rot3': 0, 'rot2': 0, 'depth': 1.385, 'yaw': -73.24, 'datetime': '2018-12-18 20:20:41.874203', 'mgs': 0, 'flw2': 2.42, 'flw1': 0.12, 'flw0': 2.67, 'time': 26.61, 'compass': -18.07, 'pitch': 15.42, 'roll': -2.46}
{'lipoC2': 0.0, 'temp': 0.0, 'lipoC3S3': 12.13, 'state': 'normal', 'rot1': 193, 'rot0': 206, 'rot3': 0, 'rot2': 0, 'depth': 0.165, 'yaw': -72.31, 'datetime': '2018-12-18 20:20:42.085032', 'mgs': 0, 'flw2': 2.71, 'flw1': 0.38, 'flw0': 2.42, 'time': 26.82, 'compass': -17.14, 'pitch': 15.49, 'roll': -2.71}
{'lipoC2': 0.11, 'temp': 0.0, 'lipoC3S3': 11.73, 'state': 'normal', 'rot1': 196, 'rot0': 209, 'rot3': 0, 'rot2': 0, 'depth': 1.004, 'yaw': -71.25, 'datetime': '2018-12-18 20:20:42.293110', 'mgs': 0, 'flw2': 2.91, 'flw1': 0.0, 'flw0': 2.12, 'time': 27.03, 'compass': -16.08, 'pitch': 15.09, 'roll': -2.88}
{'lipoC2': 0.1, 'temp': 0.0, 'lipoC3S3': 11.96, 'state': 'normal', 'rot1': 198, 'rot0': 211, 'rot3': 0, 'rot2': 0, 'depth': 1.843, 'yaw': -70.15, 'datetime': '2018-12-18 20:20:42.497453', 'mgs': 0, 'flw2': 2.58, 'flw1': 0.44, 'flw0': 2.53, 'time': 27.24, 'compass': -14.98, 'pitch': 14.67, 'roll': -3.07}
{'lipoC2': 0.0, 'temp': 0.0, 'lipoC3S3': 11.96, 'state': 'normal', 'rot1': 200, 'rot0': 214, 'rot3': 0, 'rot2': 0, 'depth': 0.089, 'yaw': -69.0, 'datetime': '2018-12-18 20:20:42.707016', 'mgs': 0, 'flw2': 2.67, 'flw1': 0.5, 'flw0': 2.53, 'time': 27.45, 'compass': -13.83, 'pitch': 14.54, 'roll': -3.36}
{'lipoC2': 0.0, 'temp': 0.0, 'lipoC3S3': 12.17, 'state': 'normal', 'rot1': 202, 'rot0': 216, 'rot3': 0, 'rot2': 0, 'depth': 1.691, 'yaw': -67.76, 'datetime': '2018-12-18 20:20:42.915550', 'mgs': 0, 'flw2': 2.7, 'flw1': 0.44, 'flw0': 2.73, 'time': 27.66, 'compass': -12.59, 'pitch': 14.66, 'roll': -3.69}
{'lipoC2': 0.0, 'temp': 0.0, 'lipoC3S3': 11.77, 'state': 'normal', 'rot1': 204, 'rot0': 219, 'rot3': 0, 'rot2': 0, 'depth': -0.98, 'yaw': -66.58, 'datetime': '2018-12-18 20:20:43.126397', 'mgs': 0, 'flw2': 2.75, 'flw1': 0.0, 'flw0': 3.03, 'time': 27.87, 'compass': -11.41, 'pitch': 15.04, 'roll': -3.96}
{'lipoC2': 0.0, 'temp': 0.0, 'lipoC3S3': 11.89, 'state': 'normal', 'rot1': 207, 'rot0': 221, 'rot3': 0, 'rot2': 0, 'depth': 1.233, 'yaw': -65.39, 'datetime': '2018-12-18 20:20:43.334347', 'mgs': 0, 'flw2': 2.78, 'flw1': 0.0, 'flw0': 2.84, 'time': 28.08, 'compass': -10.22, 'pitch': 15.1, 'roll': -4.13}
{'lipoC2': 0.0, 'temp': 0.0, 'lipoC3S3': 12.14, 'state': 'normal', 'rot1': 209, 'rot0': 223, 'rot3': 0, 'rot2': 0, 'depth': 2.148, 'yaw': -64.2, 'datetime': '2018-12-18 20:20:43.543495', 'mgs': 0, 'flw2': 2.88, 'flw1': 0.0, 'flw0': 2.99, 'time': 28.29, 'compass': -9.03, 'pitch': 14.78, 'roll': -4.4}
{'lipoC2': 0.08, 'temp': 0.0, 'lipoC3S3': 11.97, 'state': 'normal', 'rot1': 211, 'rot0': 225, 'rot3': 0, 'rot2': 0, 'depth': 1.92, 'yaw': -63.16, 'datetime': '2018-12-18 20:20:43.755156', 'mgs': 0, 'flw2': 2.87, 'flw1': 0.0, 'flw0': 2.76, 'time': 28.5, 'compass': -7.99, 'pitch': 14.58, 'roll': -4.7}
{'lipoC2': 0.1, 'temp': 0.0, 'lipoC3S3': 11.73, 'state': 'normal', 'rot1': 213, 'rot0': 228, 'rot3': 0, 'rot2': 0, 'depth': 0.47, 'yaw': -61.96, 'datetime': '2018-12-18 20:20:43.973351', 'mgs': 0, 'flw2': 2.78, 'flw1': 0.0, 'flw0': 3.11, 'time': 28.7, 'compass': -6.79, 'pitch': 14.64, 'roll': -5.03}
{'lipoC2': 0.06, 'temp': 0.0, 'lipoC3S3': 11.97, 'state': 'normal', 'rot1': 216, 'rot0': 230, 'rot3': 0, 'rot2': 0, 'depth': -1.437, 'yaw': -60.61, 'datetime': '2018-12-18 20:20:44.183304', 'mgs': 0, 'flw2': 2.72, 'flw1': 0.53, 'flw0': 2.76, 'time': 28.92, 'compass': -5.44, 'pitch': 14.54, 'roll': -5.31}
{'lipoC2': 0.0, 'temp': 0.0, 'lipoC3S3': 11.96, 'state': 'normal', 'rot1': 218, 'rot0': 232, 'rot3': 0, 'rot2': 0, 'depth': 0.012, 'yaw': -59.29, 'datetime': '2018-12-18 20:20:44.390568', 'mgs': 0, 'flw2': 2.61, 'flw1': 0.47, 'flw0': 2.8, 'time': 29.13, 'compass': -4.12, 'pitch': 14.47, 'roll': -5.4}
{'lipoC2': 0.1, 'temp': 0.0, 'lipoC3S3': 11.73, 'state': 'normal', 'rot1': 220, 'rot0': 234, 'rot3': 0, 'rot2': 0, 'depth': 0.623, 'yaw': -57.99, 'datetime': '2018-12-18 20:20:44.597178', 'mgs': 0, 'flw2': 2.95, 'flw1': 0.0, 'flw0': 2.45, 'time': 29.33, 'compass': -2.82, 'pitch': 14.46, 'roll': -5.48}
{'lipoC2': 0.06, 'temp': 0.0, 'lipoC3S3': 11.98, 'state': 'normal', 'rot1': 222, 'rot0': 237, 'rot3': 0, 'rot2': 0, 'depth': -1.59, 'yaw': -56.56, 'datetime': '2018-12-18 20:20:44.806912', 'mgs': 0, 'flw2': 2.98, 'flw1': 0.0, 'flw0': 2.77, 'time': 29.54, 'compass': -1.39, 'pitch': 14.29, 'roll': -5.72}
{'lipoC2': 0.14, 'temp': 0.0, 'lipoC3S3': 11.72, 'state': 'normal', 'rot1': 225, 'rot0': 239, 'rot3': 0, 'rot2': 0, 'depth': 0.623, 'yaw': -55.11, 'datetime': '2018-12-18 20:20:45.020614', 'mgs': 0, 'flw2': 2.67, 'flw1': 0.0, 'flw0': 3.03, 'time': 29.75, 'compass': 0.06, 'pitch': 14.14, 'roll': -6.08}
{'lipoC2': 0.15, 'temp': 0.0, 'lipoC3S3': 11.81, 'state': 'normal', 'rot1': 227, 'rot0': 242, 'rot3': 0, 'rot2': 0, 'depth': 0.699, 'yaw': -53.53, 'datetime': '2018-12-18 20:20:45.232618', 'mgs': 0, 'flw2': 2.97, 'flw1': 0.12, 'flw0': 2.66, 'time': 29.96, 'compass': 1.64, 'pitch': 13.95, 'roll': -6.47}
{'lipoC2': 0.0, 'temp': 0.0, 'lipoC3S3': 11.93, 'state': 'normal', 'rot1': 229, 'rot0': 244, 'rot3': 0, 'rot2': 0, 'depth': 0.623, 'yaw': -52.01, 'datetime': '2018-12-18 20:20:45.436486', 'mgs': 0, 'flw2': 2.76, 'flw1': 0.32, 'flw0': 2.77, 'time': 30.17, 'compass': 3.16, 'pitch': 13.61, 'roll': -6.84}
{'lipoC2': 0.01, 'temp': 0.0, 'lipoC3S3': 12.01, 'state': 'normal', 'rot1': 231, 'rot0': 247, 'rot3': 0, 'rot2': 0, 'depth': -0.98, 'yaw': -50.41, 'datetime': '2018-12-18 20:20:45.646134', 'mgs': 0, 'flw2': 2.5, 'flw1': 0.47, 'flw0': 2.92, 'time': 30.38, 'compass': 4.76, 'pitch': 13.23, 'roll': -7.22}
{'lipoC2': 0.0, 'temp': 0.0, 'lipoC3S3': 12.14, 'state': 'normal', 'rot1': 234, 'rot0': 249, 'rot3': 0, 'rot2': 0, 'depth': 0.012, 'yaw': -48.79, 'datetime': '2018-12-18 20:20:45.853823', 'mgs': 0, 'flw2': 2.62, 'flw1': 0.0, 'flw0': 3.0, 'time': 30.59, 'compass': 6.38, 'pitch': 12.83, 'roll': -7.42}
{'lipoC2': 0.0, 'temp': 0.0, 'lipoC3S3': 12.16, 'state': 'normal', 'rot1': 236, 'rot0': 251, 'rot3': 0, 'rot2': 0, 'depth': 0.089, 'yaw': -46.98, 'datetime': '2018-12-18 20:20:46.063441', 'mgs': 0, 'flw2': 2.61, 'flw1': 0.03, 'flw0': 2.95, 'time': 30.8, 'compass': 8.19, 'pitch': 12.79, 'roll': -7.64}
{'lipoC2': 0.0, 'temp': 0.0, 'lipoC3S3': 11.77, 'state': 'normal', 'rot1': 238, 'rot0': 254, 'rot3': 0, 'rot2': 0, 'depth': -0.674, 'yaw': -45.26, 'datetime': '2018-12-18 20:20:46.272866', 'mgs': 0, 'flw2': 2.77, 'flw1': 0.0, 'flw0': 3.06, 'time': 31.01, 'compass': 9.91, 'pitch': 12.74, 'roll': -8.03}
{'lipoC2': 0.0, 'temp': 0.0, 'lipoC3S3': 12.12, 'state': 'normal', 'rot1': 241, 'rot0': 256, 'rot3': 0, 'rot2': 0, 'depth': 1.767, 'yaw': -43.43, 'datetime': '2018-12-18 20:20:46.482028', 'mgs': 0, 'flw2': 2.87, 'flw1': 0.0, 'flw0': 2.53, 'time': 31.22, 'compass': 11.74, 'pitch': 12.08, 'roll': -8.42}
{'lipoC2': 0.0, 'temp': 0.0, 'lipoC3S3': 12.05, 'state': 'normal', 'rot1': 243, 'rot0': 259, 'rot3': 0, 'rot2': 0, 'depth': 1.462, 'yaw': -41.5, 'datetime': '2018-12-18 20:20:46.692244', 'mgs': 0, 'flw2': 2.95, 'flw1': 0.0, 'flw0': 2.86, 'time': 31.42, 'compass': 13.67, 'pitch': 11.21, 'roll': -8.64}
{'lipoC2': 0.0, 'temp': 0.0, 'lipoC3S3': 11.96, 'state': 'normal', 'rot1': 246, 'rot0': 261, 'rot3': 0, 'rot2': 0, 'depth': 0.394, 'yaw': -39.34, 'datetime': '2018-12-18 20:20:46.903024', 'mgs': 0, 'flw2': 2.76, 'flw1': 0.5, 'flw0': 2.73, 'time': 31.64, 'compass': 15.83, 'pitch': 10.74, 'roll': -8.82}
{'lipoC2': 0.0, 'temp': 0.0, 'lipoC3S3': 11.79, 'state': 'normal', 'rot1': 248, 'rot0': 263, 'rot3': 0, 'rot2': 0, 'depth': -1.132, 'yaw': -37.35, 'datetime': '2018-12-18 20:20:47.112138', 'mgs': 0, 'flw2': 1.45, 'flw1': 0.0, 'flw0': 3.11, 'time': 31.84, 'compass': 17.82, 'pitch': 10.38, 'roll': -9.12}
{'lipoC2': 0.0, 'temp': 0.0, 'lipoC3S3': 12.08, 'state': 'normal', 'rot1': 250, 'rot0': 265, 'rot3': 0, 'rot2': 0, 'depth': 1.614, 'yaw': -36.05, 'datetime': '2018-12-18 20:20:47.320668', 'mgs': 0, 'flw2': 1.12, 'flw1': 0.0, 'flw0': 2.64, 'time': 32.05, 'compass': 19.12, 'pitch': 9.93, 'roll': -9.4}
{'lipoC2': 0.0, 'temp': 0.0, 'lipoC3S3': 12.0, 'state': 'normal', 'rot1': 252, 'rot0': 266, 'rot3': 0, 'rot2': 0, 'depth': 1.157, 'yaw': -36.07, 'datetime': '2018-12-18 20:20:47.528832', 'mgs': 0, 'flw2': 0.42, 'flw1': 0.44, 'flw0': 2.76, 'time': 32.26, 'compass': 19.1, 'pitch': 9.42, 'roll': -9.91}
{'lipoC2': 0.0, 'temp': 0.0, 'lipoC3S3': 12.14, 'state': 'normal', 'rot1': 255, 'rot0': 267, 'rot3': 0, 'rot2': 0, 'depth': 1.767, 'yaw': -37.39, 'datetime': '2018-12-18 20:20:47.739620', 'mgs': 0, 'flw2': 0.67, 'flw1': 0.03, 'flw0': 2.56, 'time': 32.47, 'compass': 17.78, 'pitch': 8.93, 'roll': -10.44}
{'lipoC2': 0.0, 'temp': 0.0, 'lipoC3S3': 12.09, 'state': 'normal', 'rot1': 257, 'rot0': 268, 'rot3': 0, 'rot2': 0, 'depth': 1.614, 'yaw': -39.52, 'datetime': '2018-12-18 20:20:47.951050', 'mgs': 0, 'flw2': 0.7, 'flw1': 0.0, 'flw0': 2.73, 'time': 32.68, 'compass': 15.65, 'pitch': 9.19, 'roll': -10.33}
{'lipoC2': 0.0, 'temp': 0.0, 'lipoC3S3': 11.79, 'state': 'normal', 'rot1': 259, 'rot0': 270, 'rot3': 0, 'rot2': 0, 'depth': -0.827, 'yaw': -42.38, 'datetime': '2018-12-18 20:20:48.160041', 'mgs': 0, 'flw2': 0.68, 'flw1': 0.0, 'flw0': 2.94, 'time': 32.89, 'compass': 12.79, 'pitch': 10.26, 'roll': -10.17}
{'lipoC2': 0.0, 'temp': 0.0, 'lipoC3S3': 12.08, 'state': 'normal', 'rot1': 262, 'rot0': 271, 'rot3': 0, 'rot2': 0, 'depth': 1.538, 'yaw': -45.57, 'datetime': '2018-12-18 20:20:48.367196', 'mgs': 0, 'flw2': 0.96, 'flw1': 0.0, 'flw0': 2.49, 'time': 33.1, 'compass': 9.6, 'pitch': 11.08, 'roll': -10.13}
{'lipoC2': 0.0, 'temp': 0.0, 'lipoC3S3': 12.05, 'state': 'normal', 'rot1': 264, 'rot0': 272, 'rot3': 0, 'rot2': 0, 'depth': 1.385, 'yaw': -49.18, 'datetime': '2018-12-18 20:20:48.576610', 'mgs': 0, 'flw2': 0.46, 'flw1': 0.38, 'flw0': 2.97, 'time': 33.31, 'compass': 5.99, 'pitch': 11.49, 'roll': -9.9}
{'lipoC2': 0.08, 'temp': 0.0, 'lipoC3S3': 11.97, 'state': 'normal', 'rot1': 266, 'rot0': 274, 'rot3': 0, 'rot2': 0, 'depth': -1.666, 'yaw': -52.87, 'datetime': '2018-12-18 20:20:48.785819', 'mgs': 0, 'flw2': 0.67, 'flw1': 0.47, 'flw0': 2.88, 'time': 33.52, 'compass': 2.3, 'pitch': 12.15, 'roll': -9.65}
{'lipoC2': 0.0, 'temp': 0.0, 'lipoC3S3': 12.09, 'state': 'normal', 'rot1': 268, 'rot0': 275, 'rot3': 0, 'rot2': 0, 'depth': 1.614, 'yaw': -56.63, 'datetime': '2018-12-18 20:20:48.997046', 'mgs': 0, 'flw2': 1.03, 'flw1': 0.0, 'flw0': 2.67, 'time': 33.73, 'compass': -1.46, 'pitch': 13.17, 'roll': -9.29}
{'lipoC2': 0.0, 'temp': 0.0, 'lipoC3S3': 12.14, 'state': 'normal', 'rot1': 271, 'rot0': 276, 'rot3': 0, 'rot2': 0, 'depth': 1.538, 'yaw': -60.61, 'datetime': '2018-12-18 20:20:49.207841', 'mgs': 0, 'flw2': 0.82, 'flw1': 0.0, 'flw0': 2.94, 'time': 33.94, 'compass': -5.44, 'pitch': 14.03, 'roll': -8.93}
{'lipoC2': 0.02, 'temp': 0.0, 'lipoC3S3': 11.77, 'state': 'normal', 'rot1': 273, 'rot0': 278, 'rot3': 0, 'rot2': 0, 'depth': 0.165, 'yaw': -64.73, 'datetime': '2018-12-18 20:20:49.415623', 'mgs': 0, 'flw2': 0.49, 'flw1': 0.21, 'flw0': 3.05, 'time': 34.15, 'compass': -9.56, 'pitch': 14.55, 'roll': -8.65}
{'lipoC2': 0.03, 'temp': 0.0, 'lipoC3S3': 11.75, 'state': 'normal', 'rot1': 275, 'rot0': 279, 'rot3': 0, 'rot2': 0, 'depth': 0.317, 'yaw': -68.69, 'datetime': '2018-12-18 20:20:49.625072', 'mgs': 0, 'flw2': 0.98, 'flw1': 0.0, 'flw0': 2.53, 'time': 34.35, 'compass': -13.52, 'pitch': 15.16, 'roll': -8.25}
{'lipoC2': 0.05, 'temp': 0.0, 'lipoC3S3': 11.73, 'state': 'normal', 'rot1': 278, 'rot0': 281, 'rot3': 0, 'rot2': 0, 'depth': 0.241, 'yaw': -72.86, 'datetime': '2018-12-18 20:20:49.833563', 'mgs': 0, 'flw2': 1.05, 'flw1': 0.0, 'flw0': 2.43, 'time': 34.56, 'compass': -17.69, 'pitch': 16.12, 'roll': -7.56}
{'lipoC2': 0.13, 'temp': 0.0, 'lipoC3S3': 11.94, 'state': 'normal', 'rot1': 280, 'rot0': 282, 'rot3': 0, 'rot2': 0, 'depth': -1.361, 'yaw': -77.11, 'datetime': '2018-12-18 20:20:50.043957', 'mgs': 0, 'flw2': 0.78, 'flw1': 0.0, 'flw0': 2.91, 'time': 34.77, 'compass': -21.94, 'pitch': 17.1, 'roll': -6.63}
{'lipoC2': 0.0, 'temp': 0.0, 'lipoC3S3': 12.13, 'state': 'normal', 'rot1': 282, 'rot0': 283, 'rot3': 0, 'rot2': 0, 'depth': 1.996, 'yaw': -81.92, 'datetime': '2018-12-18 20:20:50.253345', 'mgs': 0, 'flw2': 0.49, 'flw1': 0.0, 'flw0': 2.99, 'time': 34.98, 'compass': -26.75, 'pitch': 17.77, 'roll': -5.71}
{'lipoC2': 0.16, 'temp': 0.0, 'lipoC3S3': 11.88, 'state': 'normal', 'rot1': 285, 'rot0': 284, 'rot3': 0, 'rot2': 0, 'depth': -1.132, 'yaw': -87.62, 'datetime': '2018-12-18 20:20:50.465071', 'mgs': 0, 'flw2': 0.24, 'flw1': 0.0, 'flw0': 2.92, 'time': 35.19, 'compass': -32.45, 'pitch': 18.05, 'roll': -4.83}
{'lipoC2': 0.0, 'temp': 0.0, 'lipoC3S3': 11.9, 'state': 'normal', 'rot1': 287, 'rot0': 285, 'rot3': 0, 'rot2': 0, 'depth': 0.851, 'yaw': -94.21, 'datetime': '2018-12-18 20:20:50.673946', 'mgs': 0, 'flw2': 0.55, 'flw1': 0.0, 'flw0': 2.94, 'time': 35.4, 'compass': -39.04, 'pitch': 18.24, 'roll': -3.74}
{'lipoC2': 0.11, 'temp': 0.0, 'lipoC3S3': 11.96, 'state': 'normal', 'rot1': 289, 'rot0': 286, 'rot3': 0, 'rot2': 0, 'depth': 1.843, 'yaw': -101.08, 'datetime': '2018-12-18 20:20:50.882939', 'mgs': 0, 'flw2': 0.89, 'flw1': 0.44, 'flw0': 2.78, 'time': 35.61, 'compass': -45.91, 'pitch': 18.63, 'roll': -2.25}
{'lipoC2': 0.0, 'temp': 0.0, 'lipoC3S3': 12.01, 'state': 'normal', 'rot1': 292, 'rot0': 288, 'rot3': 0, 'rot2': 0, 'depth': 1.157, 'yaw': -108.51, 'datetime': '2018-12-18 20:20:51.092021', 'mgs': 0, 'flw2': 1.12, 'flw1': 0.0, 'flw0': 2.73, 'time': 35.82, 'compass': -53.34, 'pitch': 19.02, 'roll': -0.34}
{'lipoC2': 0.16, 'temp': 0.0, 'lipoC3S3': 11.77, 'state': 'normal', 'rot1': 295, 'rot0': 289, 'rot3': 0, 'rot2': 0, 'depth': 0.851, 'yaw': -115.99, 'datetime': '2018-12-18 20:20:51.300969', 'mgs': 0, 'flw2': 0.84, 'flw1': 0.0, 'flw0': 2.99, 'time': 36.03, 'compass': -60.82, 'pitch': 19.28, 'roll': 1.4}
{'lipoC2': 0.09, 'temp': 0.0, 'lipoC3S3': 11.73, 'state': 'normal', 'rot1': 297, 'rot0': 291, 'rot3': 0, 'rot2': 0, 'depth': 0.394, 'yaw': -123.46, 'datetime': '2018-12-18 20:20:51.511811', 'mgs': 0, 'flw2': 0.65, 'flw1': 0.09, 'flw0': 2.56, 'time': 36.24, 'compass': -68.29, 'pitch': 18.94, 'roll': 3.16}
{'lipoC2': 0.0, 'temp': 0.0, 'lipoC3S3': 12.1, 'state': 'normal', 'rot1': 299, 'rot0': 292, 'rot3': 0, 'rot2': 0, 'depth': 1.614, 'yaw': -131.03, 'datetime': '2018-12-18 20:20:51.721554', 'mgs': 0, 'flw2': 0.68, 'flw1': 0.0, 'flw0': 2.56, 'time': 36.45, 'compass': -75.86, 'pitch': 17.92, 'roll': 4.8}
{'lipoC2': 0.09, 'temp': 0.0, 'lipoC3S3': 11.72, 'state': 'normal', 'rot1': 302, 'rot0': 293, 'rot3': 0, 'rot2': 0, 'depth': 1.309, 'yaw': -138.96, 'datetime': '2018-12-18 20:20:51.932219', 'mgs': 0, 'flw2': 0.46, 'flw1': 0.0, 'flw0': 3.09, 'time': 36.66, 'compass': -83.79, 'pitch': 16.79, 'roll': 6.21}
{'lipoC2': 0.0, 'temp': 0.0, 'lipoC3S3': 12.13, 'state': 'normal', 'rot1': 304, 'rot0': 294, 'rot3': 0, 'rot2': 0, 'depth': 0.089, 'yaw': -146.98, 'datetime': '2018-12-18 20:20:52.141738', 'mgs': 0, 'flw2': 0.68, 'flw1': 0.32, 'flw0': 2.76, 'time': 36.87, 'compass': -91.81, 'pitch': 15.8, 'roll': 7.54}
{'lipoC2': 0.15, 'temp': 0.0, 'lipoC3S3': 11.9, 'state': 'normal', 'rot1': 305, 'rot0': 295, 'rot3': 0, 'rot2': 0, 'depth': -0.751, 'yaw': -155.62, 'datetime': '2018-12-18 20:20:52.350598', 'mgs': 0, 'flw2': 0.22, 'flw1': 0.5, 'flw0': 0.0, 'time': 37.07, 'compass': -100.45, 'pitch': 13.96, 'roll': 8.97}
{'lipoC2': 0.06, 'temp': 0.0, 'lipoC3S3': 11.98, 'state': 'normal', 'rot1': 305, 'rot0': 296, 'rot3': 0, 'rot2': 0, 'depth': 1.843, 'yaw': -163.38, 'datetime': '2018-12-18 20:20:52.560535', 'mgs': 0, 'flw2': 0.45, 'flw1': 0.0, 'flw0': 0.0, 'time': 37.28, 'compass': -108.21, 'pitch': 10.3, 'roll': 10.65}
{'lipoC2': 0.0, 'temp': 0.0, 'lipoC3S3': 12.09, 'state': 'normal', 'rot1': 306, 'rot0': 297, 'rot3': 0, 'rot2': 0, 'depth': 1.691, 'yaw': -170.72, 'datetime': '2018-12-18 20:20:52.769639', 'mgs': 0, 'flw2': 0.42, 'flw1': 0.0, 'flw0': 0.0, 'time': 37.49, 'compass': -115.55, 'pitch': 7.71, 'roll': 12.43}
{'lipoC2': 0.0, 'temp': 0.0, 'lipoC3S3': 12.08, 'state': 'normal', 'rot1': 306, 'rot0': 297, 'rot3': 0, 'rot2': 0, 'depth': 1.462, 'yaw': -177.86, 'datetime': '2018-12-18 20:20:52.979701', 'mgs': 0, 'flw2': 0.0, 'flw1': 0.15, 'flw0': 0.18, 'time': 37.7, 'compass': -122.69, 'pitch': 6.37, 'roll': 14.03}
{'lipoC2': 0.0, 'temp': 0.0, 'lipoC3S3': 12.08, 'state': 'normal', 'rot1': 306, 'rot0': 297, 'rot3': 0, 'rot2': 0, 'depth': 1.538, 'yaw': 175.52, 'datetime': '2018-12-18 20:20:53.189852', 'mgs': 0, 'flw2': 0.17, 'flw1': 0.06, 'flw0': 0.0, 'time': 37.91, 'compass': -129.31, 'pitch': 5.02, 'roll': 15.24}
{'lipoC2': 0.0, 'temp': 0.0, 'lipoC3S3': 12.14, 'state': 'normal', 'rot1': 306, 'rot0': 297, 'rot3': 0, 'rot2': 0, 'depth': 1.691, 'yaw': 169.57, 'datetime': '2018-12-18 20:20:53.399160', 'mgs': 0, 'flw2': 0.0, 'flw1': 0.44, 'flw0': 0.0, 'time': 38.12, 'compass': -135.26, 'pitch': 3.15, 'roll': 15.96}
{'lipoC2': 0.0, 'temp': 0.0, 'lipoC3S3': 12.09, 'state': 'normal', 'rot1': 306, 'rot0': 297, 'rot3': 0, 'rot2': 0, 'depth': 1.691, 'yaw': 163.65, 'datetime': '2018-12-18 20:20:53.607249', 'mgs': 0, 'flw2': 0.0, 'flw1': 0.0, 'flw0': 0.21, 'time': 38.33, 'compass': -141.18, 'pitch': 1.28, 'roll': 16.1}
{'lipoC2': 0.0, 'temp': 0.0, 'lipoC3S3': 12.09, 'state': 'normal', 'rot1': 306, 'rot0': 297, 'rot3': 0, 'rot2': 0, 'depth': 1.538, 'yaw': 158.11, 'datetime': '2018-12-18 20:20:53.817484', 'mgs': 0, 'flw2': 0.15, 'flw1': 0.12, 'flw0': 0.0, 'time': 38.54, 'compass': -146.72, 'pitch': 0.18, 'roll': 15.75}
{'lipoC2': 0.0, 'temp': 0.0, 'lipoC3S3': 12.14, 'state': 'normal', 'rot1': 306, 'rot0': 297, 'rot3': 0, 'rot2': 0, 'depth': 1.691, 'yaw': 152.86, 'datetime': '2018-12-18 20:20:54.027309', 'mgs': 0, 'flw2': 0.1, 'flw1': 0.32, 'flw0': 0.0, 'time': 38.75, 'compass': -151.97, 'pitch': -0.52, 'roll': 15.31}
{'lipoC2': 0.06, 'temp': 0.0, 'lipoC3S3': 11.98, 'state': 'normal', 'rot1': 306, 'rot0': 297, 'rot3': 0, 'rot2': 0, 'depth': -1.819, 'yaw': 147.9, 'datetime': '2018-12-18 20:20:54.237834', 'mgs': 0, 'flw2': 0.18, 'flw1': 0.0, 'flw0': 0.0, 'time': 38.96, 'compass': -156.93, 'pitch': -1.56, 'roll': 14.86}
{'lipoC2': 0.11, 'temp': 0.0, 'lipoC3S3': 12.13, 'state': 'normal', 'rot1': 306, 'rot0': 297, 'rot3': 0, 'rot2': 0, 'depth': 0.394, 'yaw': 143.22, 'datetime': '2018-12-18 20:20:54.447699', 'mgs': 0, 'flw2': 0.11, 'flw1': 0.29, 'flw0': 0.0, 'time': 39.17, 'compass': -161.61, 'pitch': -3.05, 'roll': 14.64}
{'lipoC2': 0.0, 'temp': 0.0, 'lipoC3S3': 11.81, 'state': 'normal', 'rot1': 306, 'rot0': 297, 'rot3': 0, 'rot2': 0, 'depth': -0.446, 'yaw': 139.03, 'datetime': '2018-12-18 20:20:54.656980', 'mgs': 0, 'flw2': 0.05, 'flw1': 0.35, 'flw0': 0.0, 'time': 39.38, 'compass': -165.8, 'pitch': -5.3, 'roll': 14.78}
{'lipoC2': 0.0, 'temp': 0.0, 'lipoC3S3': 12.09, 'state': 'normal', 'rot1': 306, 'rot0': 297, 'rot3': 0, 'rot2': 0, 'depth': 1.462, 'yaw': 135.85, 'datetime': '2018-12-18 20:20:54.866968', 'mgs': 0, 'flw2': 0.18, 'flw1': 0.06, 'flw0': 0.0, 'time': 39.59, 'compass': -168.98, 'pitch': -7.73, 'roll': 14.99}
{'lipoC2': 0.0, 'temp': 0.0, 'lipoC3S3': 11.98, 'state': 'normal', 'rot1': 306, 'rot0': 297, 'rot3': 0, 'rot2': 0, 'depth': 0.546, 'yaw': 132.96, 'datetime': '2018-12-18 20:20:55.076682', 'mgs': 0, 'flw2': 0.21, 'flw1': 0.0, 'flw0': 0.0, 'time': 39.8, 'compass': -171.87, 'pitch': -8.57, 'roll': 14.49}
{'lipoC2': 0.01, 'temp': 0.0, 'lipoC3S3': 11.97, 'state': 'normal', 'rot1': 306, 'rot0': 297, 'rot3': 0, 'rot2': 0, 'depth': -1.208, 'yaw': 130.89, 'datetime': '2018-12-18 20:20:55.286703', 'mgs': 0, 'flw2': 0.0, 'flw1': 0.29, 'flw0': 0.0, 'time': 40.01, 'compass': -173.94, 'pitch': -9.65, 'roll': 13.76}
{'lipoC2': 0.15, 'temp': 0.0, 'lipoC3S3': 11.8, 'state': 'normal', 'rot1': 306, 'rot0': 297, 'rot3': 0, 'rot2': 0, 'depth': 0.546, 'yaw': 129.34, 'datetime': '2018-12-18 20:20:55.496461', 'mgs': 0, 'flw2': 0.04, 'flw1': 0.41, 'flw0': 0.0, 'time': 40.22, 'compass': -175.49, 'pitch': -9.88, 'roll': 12.82}
{'lipoC2': 0.04, 'temp': 0.0, 'lipoC3S3': 11.73, 'state': 'normal', 'rot1': 306, 'rot0': 297, 'rot3': 0, 'rot2': 0, 'depth': 0.089, 'yaw': 128.06, 'datetime': '2018-12-18 20:20:55.706871', 'mgs': 0, 'flw2': 0.0, 'flw1': 0.0, 'flw0': 0.21, 'time': 40.42, 'compass': -176.77, 'pitch': -9.61, 'roll': 12.22}
{'lipoC2': 0.0, 'temp': 0.0, 'lipoC3S3': 12.12, 'state': 'normal', 'rot1': 306, 'rot0': 297, 'rot3': 0, 'rot2': 0, 'depth': 1.614, 'yaw': 126.79, 'datetime': '2018-12-18 20:20:55.915719', 'mgs': 0, 'flw2': 0.09, 'flw1': 0.29, 'flw0': 0.0, 'time': 40.63, 'compass': -178.04, 'pitch': -8.99, 'roll': 12.17}
{'lipoC2': 0.0, 'temp': 0.0, 'lipoC3S3': 12.13, 'state': 'normal', 'rot1': 306, 'rot0': 297, 'rot3': 0, 'rot2': 0, 'depth': 0.012, 'yaw': 125.61, 'datetime': '2018-12-18 20:20:56.124685', 'mgs': 0, 'flw2': 0.0, 'flw1': 0.0, 'flw0': 0.2, 'time': 40.84, 'compass': -179.22, 'pitch': -8.73, 'roll': 12.51}
{'lipoC2': 0.0, 'temp': 0.0, 'lipoC3S3': 12.06, 'state': 'normal', 'rot1': 306, 'rot0': 297, 'rot3': 0, 'rot2': 0, 'depth': 1.385, 'yaw': 124.35, 'datetime': '2018-12-18 20:20:56.334110', 'mgs': 0, 'flw2': 0.0, 'flw1': 0.29, 'flw0': 0.09, 'time': 41.05, 'compass': 179.52, 'pitch': -8.54, 'roll': 12.71}
{'lipoC2': 0.0, 'temp': 0.0, 'lipoC3S3': 11.92, 'state': 'normal', 'rot1': 306, 'rot0': 297, 'rot3': 0, 'rot2': 0, 'depth': 0.699, 'yaw': 123.14, 'datetime': '2018-12-18 20:20:56.543079', 'mgs': 0, 'flw2': 0.05, 'flw1': 0.0, 'flw0': 0.12, 'time': 41.26, 'compass': 178.31, 'pitch': -8.59, 'roll': 12.38}
{'lipoC2': 0.08, 'temp': 0.0, 'lipoC3S3': 11.97, 'state': 'normal', 'rot1': 306, 'rot0': 297, 'rot3': 0, 'rot2': 0, 'depth': 1.843, 'yaw': 121.87, 'datetime': '2018-12-18 20:20:56.752900', 'mgs': 0, 'flw2': 0.2, 'flw1': 0.0, 'flw0': 0.0, 'time': 41.47, 'compass': 177.04, 'pitch': -8.37, 'roll': 11.63}
{'lipoC2': 0.1, 'temp': 0.0, 'lipoC3S3': 11.72, 'state': 'normal', 'rot1': 306, 'rot0': 297, 'rot3': 0, 'rot2': 0, 'depth': 0.241, 'yaw': 120.68, 'datetime': '2018-12-18 20:20:56.963816', 'mgs': 0, 'flw2': 0.0, 'flw1': 0.0, 'flw0': 0.2, 'time': 41.68, 'compass': 175.85, 'pitch': -8.26, 'roll': 10.87}
{'lipoC2': 0.02, 'temp': 0.0, 'lipoC3S3': 11.77, 'state': 'normal', 'rot1': 306, 'rot0': 297, 'rot3': 0, 'rot2': 0, 'depth': 0.165, 'yaw': 119.51, 'datetime': '2018-12-18 20:20:57.171842', 'mgs': 0, 'flw2': 0.2, 'flw1': 0.0, 'flw0': 0.0, 'time': 41.89, 'compass': 174.68, 'pitch': -8.27, 'roll': 10.45}
{'lipoC2': 0.1, 'temp': 0.0, 'lipoC3S3': 11.96, 'state': 'normal', 'rot1': 306, 'rot0': 297, 'rot3': 0, 'rot2': 0, 'depth': -1.819, 'yaw': 118.3, 'datetime': '2018-12-18 20:20:57.380658', 'mgs': 0, 'flw2': 0.12, 'flw1': 0.0, 'flw0': 0.06, 'time': 42.1, 'compass': 173.47, 'pitch': -8.49, 'roll': 10.41}
{'lipoC2': 0.09, 'temp': 0.0, 'lipoC3S3': 11.96, 'state': 'normal', 'rot1': 306, 'rot0': 297, 'rot3': 0, 'rot2': 0, 'depth': -1.819, 'yaw': 116.97, 'datetime': '2018-12-18 20:20:57.591187', 'mgs': 0, 'flw2': 0.0, 'flw1': 0.38, 'flw0': 0.0, 'time': 42.31, 'compass': 172.14, 'pitch': -8.73, 'roll': 10.6}
{'lipoC2': 0.0, 'temp': 0.0, 'lipoC3S3': 12.14, 'state': 'normal', 'rot1': 306, 'rot0': 297, 'rot3': 0, 'rot2': 0, 'depth': 1.462, 'yaw': 115.65, 'datetime': '2018-12-18 20:20:57.800041', 'mgs': 0, 'flw2': 0.0, 'flw1': 0.44, 'flw0': 0.0, 'time': 42.52, 'compass': 170.82, 'pitch': -9.14, 'roll': 10.65}
{'lipoC2': 0.0, 'temp': 0.0, 'lipoC3S3': 12.09, 'state': 'normal', 'rot1': 306, 'rot0': 297, 'rot3': 0, 'rot2': 0, 'depth': -1.895, 'yaw': 114.35, 'datetime': '2018-12-18 20:20:58.009640', 'mgs': 0, 'flw2': 0.16, 'flw1': 0.06, 'flw0': 0.0, 'time': 42.73, 'compass': 169.52, 'pitch': -9.6, 'roll': 10.39}
{'lipoC2': 0.04, 'temp': 0.0, 'lipoC3S3': 12.01, 'state': 'normal', 'rot1': 306, 'rot0': 297, 'rot3': 0, 'rot2': 0, 'depth': -1.59, 'yaw': 113.04, 'datetime': '2018-12-18 20:20:58.219976', 'mgs': 0, 'flw2': 0.07, 'flw1': 0.38, 'flw0': 0.04, 'time': 42.94, 'compass': 168.21, 'pitch': -9.56, 'roll': 9.8}
{'lipoC2': 0.0, 'temp': 0.0, 'lipoC3S3': 12.08, 'state': 'normal', 'rot1': 306, 'rot0': 297, 'rot3': 0, 'rot2': 0, 'depth': 1.309, 'yaw': 111.77, 'datetime': '2018-12-18 20:20:58.428736', 'mgs': 0, 'flw2': 0.0, 'flw1': 0.0, 'flw0': 0.21, 'time': 43.15, 'compass': 166.94, 'pitch': -9.27, 'roll': 8.95}
