{'lipoC2': 0.09, 'temp': 0.0, 'lipoC3S3': 11.73, 'state': 'normal', 'rot1': 0, 'rot0': 0, 'rot3': 0, 'rot2': 0, 'depth': 1.004, 'yaw': -0.02, 'datetime': '2018-12-18 20:28:40.640109', 'mgs': 0, 'flw2': 0.0, 'flw1': 0.0, 'flw0': 0.21, 'time': 1.26, 'compass': 144.35, 'pitch': -1.12, 'roll': 3.79}
{'lipoC2': 0.04, 'temp': 0.0, 'lipoC3S3': 11.75, 'state': 'normal', 'rot1': 0, 'rot0': 0, 'rot3': 0, 'rot2': 0, 'depth': 0.089, 'yaw': -0.45, 'datetime': '2018-12-18 20:28:40.847578', 'mgs': 0, 'flw2': 0.18, 'flw1': 0.0, 'flw0': 0.0, 'time': 1.46, 'compass': 143.91, 'pitch': -1.27, 'roll': 3.78}
{'lipoC2': 0.13, 'temp': 0.0, 'lipoC3S3': 11.92, 'state': 'normal', 'rot1': 0, 'rot0': 0, 'rot3': 0, 'rot2': 0, 'depth': -1.971, 'yaw': -0.9, 'datetime': '2018-12-18 20:28:41.056366', 'mgs': 0, 'flw2': 0.0, 'flw1': 0.47, 'flw0': 0.0, 'time': 1.67, 'compass': 143.47, 'pitch': -1.25, 'roll': 3.65}
{'lipoC2': 0.15, 'temp': 0.0, 'lipoC3S3': 11.88, 'state': 'normal', 'rot1': 0, 'rot0': 0, 'rot3': 0, 'rot2': 0, 'depth': -1.361, 'yaw': -1.35, 'datetime': '2018-12-18 20:28:41.264637', 'mgs': 0, 'flw2': 0.01, 'flw1': 0.0, 'flw0': 0.15, 'time': 1.88, 'compass': 143.02, 'pitch': -0.98, 'roll': 3.43}
{'lipoC2': 0.04, 'temp': 0.0, 'lipoC3S3': 11.75, 'state': 'normal', 'rot1': 0, 'rot0': 0, 'rot3': 0, 'rot2': 0, 'depth': 1.233, 'yaw': -1.8, 'datetime': '2018-12-18 20:28:41.472465', 'mgs': 0, 'flw2': 0.0, 'flw1': 0.15, 'flw0': 0.2, 'time': 2.09, 'compass': 142.57, 'pitch': -0.84, 'roll': 3.34}
{'lipoC2': 0.0, 'temp': 0.0, 'lipoC3S3': 11.8, 'state': 'normal', 'rot1': 0, 'rot0': 0, 'rot3': 0, 'rot2': 0, 'depth': -0.446, 'yaw': -2.22, 'datetime': '2018-12-18 20:28:41.681719', 'mgs': 0, 'flw2': 0.13, 'flw1': 0.23, 'flw0': 0.0, 'time': 2.3, 'compass': 142.15, 'pitch': -0.94, 'roll': 3.33}
{'lipoC2': 0.14, 'temp': 0.0, 'lipoC3S3': 11.9, 'state': 'normal', 'rot1': 0, 'rot0': 0, 'rot3': 0, 'rot2': 0, 'depth': -1.819, 'yaw': -2.66, 'datetime': '2018-12-18 20:28:41.889189', 'mgs': 0, 'flw2': 0.01, 'flw1': 0.0, 'flw0': 0.16, 'time': 2.5, 'compass': 141.71, 'pitch': -1.02, 'roll': 3.22}
{'lipoC2': 0.0, 'temp': 0.0, 'lipoC3S3': 11.93, 'state': 'normal', 'rot1': 0, 'rot0': 0, 'rot3': 0, 'rot2': 0, 'depth': -0.217, 'yaw': -3.07, 'datetime': '2018-12-18 20:28:42.097124', 'mgs': 0, 'flw2': 0.09, 'flw1': 0.0, 'flw0': 0.09, 'time': 2.71, 'compass': 141.3, 'pitch': -1.04, 'roll': 3.06}
{'lipoC2': 0.1, 'temp': 0.0, 'lipoC3S3': 11.93, 'state': 'normal', 'rot1': 0, 'rot0': 0, 'rot3': 0, 'rot2': 0, 'depth': -1.895, 'yaw': -3.48, 'datetime': '2018-12-18 20:28:42.305040', 'mgs': 0, 'flw2': 0.13, 'flw1': 0.0, 'flw0': 0.04, 'time': 2.92, 'compass': 140.89, 'pitch': -1.06, 'roll': 3.05}
{'lipoC2': 0.1, 'temp': 0.0, 'lipoC3S3': 11.72, 'state': 'normal', 'rot1': 0, 'rot0': 0, 'rot3': 0, 'rot2': 0, 'depth': 0.775, 'yaw': -3.9, 'datetime': '2018-12-18 20:28:42.511954', 'mgs': 0, 'flw2': 0.0, 'flw1': 0.0, 'flw0': 0.21, 'time': 3.13, 'compass': 140.47, 'pitch': -1.09, 'roll': 3.04}
{'lipoC2': 0.0, 'temp': 0.0, 'lipoC3S3': 12.09, 'state': 'normal', 'rot1': 0, 'rot0': 0, 'rot3': 0, 'rot2': 0, 'depth': 1.614, 'yaw': -4.32, 'datetime': '2018-12-18 20:28:42.720850', 'mgs': 0, 'flw2': 0.2, 'flw1': 0.03, 'flw0': 0.0, 'time': 3.33, 'compass': 140.05, 'pitch': -0.99, 'roll': 3.03}
{'lipoC2': 0.0, 'temp': 0.0, 'lipoC3S3': 12.16, 'state': 'normal', 'rot1': 0, 'rot0': 0, 'rot3': 0, 'rot2': 0, 'depth': -0.064, 'yaw': -4.73, 'datetime': '2018-12-18 20:28:42.924918', 'mgs': 0, 'flw2': 0.0, 'flw1': 0.21, 'flw0': 0.26, 'time': 3.54, 'compass': 139.64, 'pitch': -0.73, 'roll': 2.82}
{'lipoC2': 0.0, 'temp': 0.0, 'lipoC3S3': 12.08, 'state': 'normal', 'rot1': 0, 'rot0': 0, 'rot3': 0, 'rot2': 0, 'depth': -2.048, 'yaw': -5.15, 'datetime': '2018-12-18 20:28:43.134361', 'mgs': 0, 'flw2': 0.0, 'flw1': 0.18, 'flw0': 0.18, 'time': 3.75, 'compass': 139.22, 'pitch': -0.67, 'roll': 2.59}
{'lipoC2': 0.13, 'temp': 0.0, 'lipoC3S3': 11.72, 'state': 'normal', 'rot1': 0, 'rot0': 0, 'rot3': 0, 'rot2': 0, 'depth': 0.47, 'yaw': -5.57, 'datetime': '2018-12-18 20:28:43.341091', 'mgs': 0, 'flw2': 0.18, 'flw1': 0.09, 'flw0': 0.0, 'time': 3.96, 'compass': 138.8, 'pitch': -0.89, 'roll': 2.56}
{'lipoC2': 0.0, 'temp': 0.0, 'lipoC3S3': 11.94, 'state': 'normal', 'rot1': 0, 'rot0': 0, 'rot3': 0, 'rot2': 0, 'depth': 0.546, 'yaw': -5.99, 'datetime': '2018-12-18 20:28:43.548777', 'mgs': 0, 'flw2': 0.22, 'flw1': 0.0, 'flw0': 0.0, 'time': 4.17, 'compass': 138.38, 'pitch': -0.9, 'roll': 2.55}
{'lipoC2': 0.14, 'temp': 0.0, 'lipoC3S3': 11.72, 'state': 'normal', 'rot1': 0, 'rot0': 0, 'rot3': 0, 'rot2': 0, 'depth': 0.47, 'yaw': -6.4, 'datetime': '2018-12-18 20:28:43.761446', 'mgs': 0, 'flw2': 0.16, 'flw1': 0.12, 'flw0': 0.0, 'time': 4.37, 'compass': 137.97, 'pitch': -0.63, 'roll': 2.55}
{'lipoC2': 0.0, 'temp': 0.0, 'lipoC3S3': 12.14, 'state': 'normal', 'rot1': 0, 'rot0': 0, 'rot3': 0, 'rot2': 0, 'depth': -0.14, 'yaw': -6.8, 'datetime': '2018-12-18 20:28:43.969829', 'mgs': 0, 'flw2': 0.0, 'flw1': 0.0, 'flw0': 0.21, 'time': 4.58, 'compass': 137.57, 'pitch': -0.52, 'roll': 2.54}
{'lipoC2': 0.0, 'temp': 0.0, 'lipoC3S3': 12.13, 'state': 'normal', 'rot1': 0, 'rot0': 0, 'rot3': 0, 'rot2': 0, 'depth': 1.538, 'yaw': -7.21, 'datetime': '2018-12-18 20:28:44.177808', 'mgs': 0, 'flw2': 0.07, 'flw1': 0.41, 'flw0': 0.0, 'time': 4.79, 'compass': 137.16, 'pitch': -0.76, 'roll': 2.5}
{'lipoC2': 0.0, 'temp': 0.0, 'lipoC3S3': 12.09, 'state': 'normal', 'rot1': 0, 'rot0': 0, 'rot3': 0, 'rot2': 0, 'depth': 1.614, 'yaw': -7.61, 'datetime': '2018-12-18 20:28:44.386829', 'mgs': 0, 'flw2': 0.17, 'flw1': 0.03, 'flw0': 0.0, 'time': 5.0, 'compass': 136.76, 'pitch': -0.95, 'roll': 2.25}
{'lipoC2': 0.09, 'temp': 0.0, 'lipoC3S3': 11.93, 'state': 'normal', 'rot1': 0, 'rot0': 0, 'rot3': 0, 'rot2': 0, 'depth': -1.819, 'yaw': -8.02, 'datetime': '2018-12-18 20:28:44.594697', 'mgs': 0, 'flw2': 0.09, 'flw1': 0.0, 'flw0': 0.09, 'time': 5.2, 'compass': 136.35, 'pitch': -0.77, 'roll': 1.89}
{'lipoC2': 0.0, 'temp': 0.0, 'lipoC3S3': 11.73, 'state': 'normal', 'rot1': 0, 'rot0': 0, 'rot3': 0, 'rot2': 0, 'depth': 1.309, 'yaw': -8.4, 'datetime': '2018-12-18 20:28:44.804112', 'mgs': 0, 'flw2': 0.16, 'flw1': 0.0, 'flw0': 0.0, 'time': 5.41, 'compass': 135.97, 'pitch': -0.38, 'roll': 1.69}
{'lipoC2': 0.0, 'temp': 0.0, 'lipoC3S3': 12.12, 'state': 'normal', 'rot1': 0, 'rot0': 0, 'rot3': 0, 'rot2': 0, 'depth': 0.089, 'yaw': -8.77, 'datetime': '2018-12-18 20:28:45.010937', 'mgs': 0, 'flw2': 0.0, 'flw1': 0.0, 'flw0': 0.0, 'time': 5.62, 'compass': 135.6, 'pitch': -0.33, 'roll': 1.76}
{'lipoC2': 0.0, 'temp': 0.0, 'lipoC3S3': 12.12, 'state': 'normal', 'rot1': 0, 'rot0': 0, 'rot3': 0, 'rot2': 0, 'depth': 0.089, 'yaw': -9.16, 'datetime': '2018-12-18 20:28:45.217778', 'mgs': 0, 'flw2': 0.09, 'flw1': 0.38, 'flw0': 0.0, 'time': 5.83, 'compass': 135.21, 'pitch': -0.61, 'roll': 2.0}
{'lipoC2': 0.15, 'temp': 0.0, 'lipoC3S3': 11.88, 'state': 'normal', 'rot1': 0, 'rot0': 0, 'rot3': 0, 'rot2': 0, 'depth': -0.827, 'yaw': -9.53, 'datetime': '2018-12-18 20:28:45.425994', 'mgs': 0, 'flw2': 0.01, 'flw1': 0.44, 'flw0': 0.0, 'time': 6.03, 'compass': 134.84, 'pitch': -0.74, 'roll': 2.02}
{'lipoC2': 0.1, 'temp': 0.0, 'lipoC3S3': 11.94, 'state': 'normal', 'rot1': 0, 'rot0': 0, 'rot3': 0, 'rot2': 0, 'depth': -1.819, 'yaw': -9.91, 'datetime': '2018-12-18 20:28:45.635063', 'mgs': 0, 'flw2': 0.15, 'flw1': 0.0, 'flw0': 0.01, 'time': 6.24, 'compass': 134.46, 'pitch': -0.52, 'roll': 1.81}
{'lipoC2': 0.02, 'temp': 0.0, 'lipoC3S3': 11.76, 'state': 'normal', 'rot1': 0, 'rot0': 0, 'rot3': 0, 'rot2': 0, 'depth': 1.309, 'yaw': -10.3, 'datetime': '2018-12-18 20:28:45.842785', 'mgs': 0, 'flw2': 0.0, 'flw1': 0.15, 'flw0': 0.17, 'time': 6.45, 'compass': 134.07, 'pitch': -0.24, 'roll': 1.58}
{'lipoC2': 0.02, 'temp': 0.0, 'lipoC3S3': 11.94, 'state': 'normal', 'rot1': 0, 'rot0': 0, 'rot3': 0, 'rot2': 0, 'depth': -1.132, 'yaw': -10.68, 'datetime': '2018-12-18 20:28:46.051624', 'mgs': 0, 'flw2': 0.21, 'flw1': 0.0, 'flw0': 0.0, 'time': 6.66, 'compass': 133.69, 'pitch': -0.22, 'roll': 1.41}
{'lipoC2': 0.0, 'temp': 0.0, 'lipoC3S3': 12.12, 'state': 'normal', 'rot1': 0, 'rot0': 0, 'rot3': 0, 'rot2': 0, 'depth': -0.14, 'yaw': -11.08, 'datetime': '2018-12-18 20:28:46.260752', 'mgs': 0, 'flw2': 0.0, 'flw1': 0.47, 'flw0': 0.0, 'time': 6.87, 'compass': 133.29, 'pitch': -0.37, 'roll': 1.37}
{'lipoC2': 0.06, 'temp': 0.0, 'lipoC3S3': 11.97, 'state': 'normal', 'rot1': 0, 'rot0': 0, 'rot3': 0, 'rot2': 0, 'depth': 1.843, 'yaw': -11.45, 'datetime': '2018-12-18 20:28:46.467668', 'mgs': 0, 'flw2': 0.18, 'flw1': 0.0, 'flw0': 0.0, 'time': 7.07, 'compass': 132.92, 'pitch': -0.43, 'roll': 1.36}
{'lipoC2': 0.0, 'temp': 0.0, 'lipoC3S3': 12.13, 'state': 'normal', 'rot1': 0, 'rot0': 0, 'rot3': 0, 'rot2': 0, 'depth': 1.691, 'yaw': -11.82, 'datetime': '2018-12-18 20:28:46.675114', 'mgs': 0, 'flw2': 0.09, 'flw1': 0.32, 'flw0': 0.0, 'time': 7.28, 'compass': 132.55, 'pitch': -0.26, 'roll': 1.34}
{'lipoC2': 0.12, 'temp': 0.0, 'lipoC3S3': 11.93, 'state': 'normal', 'rot1': 0, 'rot0': 0, 'rot3': 0, 'rot2': 0, 'depth': -1.666, 'yaw': -12.19, 'datetime': '2018-12-18 20:28:46.883029', 'mgs': 0, 'flw2': 0.21, 'flw1': 0.0, 'flw0': 0.0, 'time': 7.49, 'compass': 132.18, 'pitch': 0.02, 'roll': 1.32}
{'lipoC2': 0.03, 'temp': 0.0, 'lipoC3S3': 11.73, 'state': 'normal', 'rot1': 0, 'rot0': 0, 'rot3': 0, 'rot2': 0, 'depth': 1.233, 'yaw': -12.58, 'datetime': '2018-12-18 20:28:47.091705', 'mgs': 0, 'flw2': 0.0, 'flw1': 0.09, 'flw0': 0.21, 'time': 7.7, 'compass': 131.79, 'pitch': 0.04, 'roll': 1.32}
{'lipoC2': 0.0, 'temp': 0.0, 'lipoC3S3': 12.12, 'state': 'normal', 'rot1': 0, 'rot0': 0, 'rot3': 0, 'rot2': 0, 'depth': 1.538, 'yaw': -12.98, 'datetime': '2018-12-18 20:28:47.298877', 'mgs': 0, 'flw2': 0.0, 'flw1': 0.44, 'flw0': 0.0, 'time': 7.91, 'compass': 131.39, 'pitch': -0.23, 'roll': 1.28}
{'lipoC2': 0.12, 'temp': 0.0, 'lipoC3S3': 11.73, 'state': 'normal', 'rot1': 0, 'rot0': 0, 'rot3': 0, 'rot2': 0, 'depth': 0.47, 'yaw': -13.37, 'datetime': '2018-12-18 20:28:47.508161', 'mgs': 0, 'flw2': 0.18, 'flw1': 0.03, 'flw0': 0.0, 'time': 8.11, 'compass': 131.0, 'pitch': -0.31, 'roll': 1.2}
{'lipoC2': 0.03, 'temp': 0.0, 'lipoC3S3': 11.76, 'state': 'normal', 'rot1': 0, 'rot0': 0, 'rot3': 0, 'rot2': 0, 'depth': 0.165, 'yaw': -13.74, 'datetime': '2018-12-18 20:28:47.716009', 'mgs': 0, 'flw2': 0.0, 'flw1': 0.18, 'flw0': 0.16, 'time': 8.32, 'compass': 130.63, 'pitch': -0.09, 'roll': 1.15}
{'lipoC2': 0.14, 'temp': 0.0, 'lipoC3S3': 11.89, 'state': 'normal', 'rot1': 0, 'rot0': 0, 'rot3': 0, 'rot2': 0, 'depth': -1.285, 'yaw': -14.12, 'datetime': '2018-12-18 20:28:47.924851', 'mgs': 0, 'flw2': 0.0, 'flw1': 0.0, 'flw0': 0.16, 'time': 8.53, 'compass': 130.25, 'pitch': 0.09, 'roll': 1.13}
{'lipoC2': 0.08, 'temp': 0.0, 'lipoC3S3': 11.71, 'state': 'normal', 'rot1': 0, 'rot0': 0, 'rot3': 0, 'rot2': 0, 'depth': 0.241, 'yaw': -14.52, 'datetime': '2018-12-18 20:28:48.132325', 'mgs': 0, 'flw2': 0.0, 'flw1': 0.0, 'flw0': 0.21, 'time': 8.74, 'compass': 129.85, 'pitch': 0.09, 'roll': 1.13}
{'lipoC2': 0.0, 'temp': 0.0, 'lipoC3S3': 11.93, 'state': 'normal', 'rot1': 0, 'rot0': 0, 'rot3': 0, 'rot2': 0, 'depth': 0.394, 'yaw': -14.9, 'datetime': '2018-12-18 20:28:48.338424', 'mgs': 0, 'flw2': 0.11, 'flw1': 0.0, 'flw0': 0.09, 'time': 8.94, 'compass': 129.47, 'pitch': 0.08, 'roll': 1.13}
{'lipoC2': 0.0, 'temp': 0.0, 'lipoC3S3': 11.93, 'state': 'normal', 'rot1': 0, 'rot0': 0, 'rot3': 0, 'rot2': 0, 'depth': 0.089, 'yaw': -15.28, 'datetime': '2018-12-18 20:28:48.547227', 'mgs': 0, 'flw2': 0.11, 'flw1': 0.0, 'flw0': 0.06, 'time': 9.15, 'compass': 129.09, 'pitch': 0.08, 'roll': 1.13}
{'lipoC2': 0.0, 'temp': 0.0, 'lipoC3S3': 12.12, 'state': 'normal', 'rot1': 0, 'rot0': 0, 'rot3': 0, 'rot2': 0, 'depth': -0.217, 'yaw': -15.66, 'datetime': '2018-12-18 20:28:48.755197', 'mgs': 0, 'flw2': 0.07, 'flw1': 0.38, 'flw0': 0.0, 'time': 9.36, 'compass': 128.71, 'pitch': 0.07, 'roll': 0.99}
{'lipoC2': 0.0, 'temp': 0.0, 'lipoC3S3': 12.06, 'state': 'normal', 'rot1': 0, 'rot0': 0, 'rot3': 0, 'rot2': 0, 'depth': -1.819, 'yaw': -16.04, 'datetime': '2018-12-18 20:28:48.964982', 'mgs': 0, 'flw2': 0.15, 'flw1': 0.0, 'flw0': 0.0, 'time': 9.57, 'compass': 128.33, 'pitch': 0.1, 'roll': 0.81}
{'lipoC2': 0.0, 'temp': 0.0, 'lipoC3S3': 12.09, 'state': 'normal', 'rot1': 0, 'rot0': 0, 'rot3': 0, 'rot2': 0, 'depth': -1.743, 'yaw': -16.41, 'datetime': '2018-12-18 20:28:49.172609', 'mgs': 0, 'flw2': 0.17, 'flw1': 0.03, 'flw0': 0.0, 'time': 9.78, 'compass': 127.96, 'pitch': 0.31, 'roll': 0.75}
{'lipoC2': 0.0, 'temp': 0.0, 'lipoC3S3': 12.09, 'state': 'normal', 'rot1': 0, 'rot0': 0, 'rot3': 0, 'rot2': 0, 'depth': 1.614, 'yaw': -16.81, 'datetime': '2018-12-18 20:28:49.381695', 'mgs': 0, 'flw2': 0.0, 'flw1': 0.09, 'flw0': 0.21, 'time': 9.98, 'compass': 127.56, 'pitch': 0.38, 'roll': 0.75}
{'lipoC2': 0.18, 'temp': 0.0, 'lipoC3S3': 11.83, 'state': 'normal', 'rot1': 0, 'rot0': 0, 'rot3': 0, 'rot2': 0, 'depth': -0.674, 'yaw': -17.18, 'datetime': '2018-12-18 20:28:49.588745', 'mgs': 0, 'flw2': 0.15, 'flw1': 0.15, 'flw0': 0.07, 'time': 10.19, 'compass': 127.19, 'pitch': 0.24, 'roll': 0.75}
{'lipoC2': 0.14, 'temp': 0.0, 'lipoC3S3': 11.89, 'state': 'normal', 'rot1': 1, 'rot0': 1, 'rot3': 0, 'rot2': 0, 'depth': -1.056, 'yaw': -16.79, 'datetime': '2018-12-18 20:28:49.797191', 'mgs': 0, 'flw2': 2.7, 'flw1': 0.0, 'flw0': 2.14, 'time': 10.4, 'compass': 127.58, 'pitch': -0.05, 'roll': 0.89}
{'lipoC2': 0.09, 'temp': 0.0, 'lipoC3S3': 11.94, 'state': 'normal', 'rot1': 3, 'rot0': 3, 'rot3': 0, 'rot2': 0, 'depth': -1.819, 'yaw': -12.73, 'datetime': '2018-12-18 20:28:50.005207', 'mgs': 0, 'flw2': 2.84, 'flw1': 0.0, 'flw0': 1.93, 'time': 10.61, 'compass': 131.64, 'pitch': 0.86, 'roll': 1.6}
{'lipoC2': 0.0, 'temp': 0.0, 'lipoC3S3': 12.13, 'state': 'normal', 'rot1': 5, 'rot0': 6, 'rot3': 0, 'rot2': 0, 'depth': 1.691, 'yaw': -5.46, 'datetime': '2018-12-18 20:28:50.214669', 'mgs': 0, 'flw2': 2.39, 'flw1': 0.26, 'flw0': 0.0, 'time': 10.81, 'compass': 138.91, 'pitch': 2.26, 'roll': 2.22}
{'lipoC2': 0.12, 'temp': 0.0, 'lipoC3S3': 11.93, 'state': 'normal', 'rot1': 6, 'rot0': 7, 'rot3': 0, 'rot2': 0, 'depth': -1.59, 'yaw': 3.32, 'datetime': '2018-12-18 20:28:50.422088', 'mgs': 0, 'flw2': 0.0, 'flw1': 0.44, 'flw0': 0.0, 'time': 11.02, 'compass': 147.69, 'pitch': 2.38, 'roll': 1.99}
{'lipoC2': 0.0, 'temp': 0.0, 'lipoC3S3': 12.13, 'state': 'normal', 'rot1': 6, 'rot0': 7, 'rot3': 0, 'rot2': 0, 'depth': 1.462, 'yaw': 10.33, 'datetime': '2018-12-18 20:28:50.629947', 'mgs': 0, 'flw2': 0.07, 'flw1': 0.41, 'flw0': 0.0, 'time': 11.23, 'compass': 154.7, 'pitch': 0.48, 'roll': 0.86}
{'lipoC2': 0.16, 'temp': 0.0, 'lipoC3S3': 11.89, 'state': 'normal', 'rot1': 6, 'rot0': 7, 'rot3': 0, 'rot2': 0, 'depth': -1.437, 'yaw': 15.94, 'datetime': '2018-12-18 20:28:50.837696', 'mgs': 0, 'flw2': 0.01, 'flw1': 0.0, 'flw0': 0.15, 'time': 11.44, 'compass': 160.31, 'pitch': -0.62, 'roll': -0.51}
{'lipoC2': 0.0, 'temp': 0.0, 'lipoC3S3': 12.09, 'state': 'normal', 'rot1': 6, 'rot0': 7, 'rot3': 0, 'rot2': 0, 'depth': 1.614, 'yaw': 20.47, 'datetime': '2018-12-18 20:28:51.046341', 'mgs': 0, 'flw2': 0.0, 'flw1': 0.23, 'flw0': 0.13, 'time': 11.65, 'compass': 164.84, 'pitch': -0.13, 'roll': -1.27}
{'lipoC2': 0.16, 'temp': 0.0, 'lipoC3S3': 11.81, 'state': 'normal', 'rot1': 6, 'rot0': 7, 'rot3': 0, 'rot2': 0, 'depth': 1.08, 'yaw': 24.65, 'datetime': '2018-12-18 20:28:51.253718', 'mgs': 0, 'flw2': 0.1, 'flw1': 0.32, 'flw0': 0.0, 'time': 11.85, 'compass': 169.02, 'pitch': 0.51, 'roll': -1.09}
{'lipoC2': 0.03, 'temp': 0.0, 'lipoC3S3': 12.0, 'state': 'normal', 'rot1': 6, 'rot0': 7, 'rot3': 0, 'rot2': 0, 'depth': -1.514, 'yaw': 28.44, 'datetime': '2018-12-18 20:28:51.460630', 'mgs': 0, 'flw2': 0.18, 'flw1': 0.0, 'flw0': 0.0, 'time': 12.06, 'compass': 172.81, 'pitch': 0.11, 'roll': -0.14}
{'lipoC2': 0.0, 'temp': 0.0, 'lipoC3S3': 12.12, 'state': 'normal', 'rot1': 6, 'rot0': 7, 'rot3': 0, 'rot2': 0, 'depth': 1.538, 'yaw': 31.71, 'datetime': '2018-12-18 20:28:51.668536', 'mgs': 0, 'flw2': 0.07, 'flw1': 0.38, 'flw0': 0.0, 'time': 12.27, 'compass': 176.08, 'pitch': -0.61, 'roll': 0.83}
{'lipoC2': 0.0, 'temp': 0.0, 'lipoC3S3': 11.93, 'state': 'normal', 'rot1': 6, 'rot0': 7, 'rot3': 0, 'rot2': 0, 'depth': 0.241, 'yaw': 34.84, 'datetime': '2018-12-18 20:28:51.878309', 'mgs': 0, 'flw2': 0.12, 'flw1': 0.0, 'flw0': 0.06, 'time': 12.48, 'compass': 179.21, 'pitch': -0.58, 'roll': 1.18}
{'lipoC2': 0.12, 'temp': 0.0, 'lipoC3S3': 11.73, 'state': 'normal', 'rot1': 6, 'rot0': 7, 'rot3': 0, 'rot2': 0, 'depth': 0.775, 'yaw': 37.77, 'datetime': '2018-12-18 20:28:52.086109', 'mgs': 0, 'flw2': 0.0, 'flw1': 0.0, 'flw0': 0.21, 'time': 12.69, 'compass': -177.86, 'pitch': 0.06, 'roll': 0.77}
{'lipoC2': 0.0, 'temp': 0.0, 'lipoC3S3': 12.0, 'state': 'normal', 'rot1': 6, 'rot0': 7, 'rot3': 0, 'rot2': 0, 'depth': 0.775, 'yaw': 40.39, 'datetime': '2018-12-18 20:28:52.296079', 'mgs': 0, 'flw2': 0.17, 'flw1': 0.0, 'flw0': 0.0, 'time': 12.89, 'compass': -175.24, 'pitch': 0.2, 'roll': 0.08}
{'lipoC2': 0.0, 'temp': 0.0, 'lipoC3S3': 12.12, 'state': 'normal', 'rot1': 6, 'rot0': 7, 'rot3': 0, 'rot2': 0, 'depth': 1.767, 'yaw': 42.98, 'datetime': '2018-12-18 20:28:52.502292', 'mgs': 0, 'flw2': 0.0, 'flw1': 0.0, 'flw0': 0.2, 'time': 13.1, 'compass': -172.65, 'pitch': -0.31, 'roll': -0.54}
{'lipoC2': 0.09, 'temp': 0.0, 'lipoC3S3': 11.73, 'state': 'normal', 'rot1': 6, 'rot0': 7, 'rot3': 0, 'rot2': 0, 'depth': 0.241, 'yaw': 45.45, 'datetime': '2018-12-18 20:28:52.710173', 'mgs': 0, 'flw2': 0.0, 'flw1': 0.0, 'flw0': 0.21, 'time': 13.31, 'compass': -170.18, 'pitch': -0.67, 'roll': -0.85}
{'lipoC2': 0.0, 'temp': 0.0, 'lipoC3S3': 12.12, 'state': 'normal', 'rot1': 6, 'rot0': 7, 'rot3': 0, 'rot2': 0, 'depth': 0.012, 'yaw': 47.73, 'datetime': '2018-12-18 20:28:52.917743', 'mgs': 0, 'flw2': 0.01, 'flw1': 0.0, 'flw0': 0.16, 'time': 13.52, 'compass': -167.9, 'pitch': -0.58, 'roll': -0.73}
{'lipoC2': 0.0, 'temp': 0.0, 'lipoC3S3': 11.94, 'state': 'normal', 'rot1': 6, 'rot0': 7, 'rot3': 0, 'rot2': 0, 'depth': 0.165, 'yaw': 50.01, 'datetime': '2018-12-18 20:28:53.126994', 'mgs': 0, 'flw2': 0.2, 'flw1': 0.0, 'flw0': 0.0, 'time': 13.72, 'compass': -165.62, 'pitch': -0.35, 'roll': -0.26}
{'lipoC2': 0.0, 'temp': 0.0, 'lipoC3S3': 12.14, 'state': 'normal', 'rot1': 6, 'rot0': 7, 'rot3': 0, 'rot2': 0, 'depth': 1.691, 'yaw': 52.16, 'datetime': '2018-12-18 20:28:53.334410', 'mgs': 0, 'flw2': 0.0, 'flw1': 0.0, 'flw0': 0.21, 'time': 13.93, 'compass': -163.47, 'pitch': -0.35, 'roll': 0.04}
{'lipoC2': 0.0, 'temp': 0.0, 'lipoC3S3': 11.81, 'state': 'normal', 'rot1': 6, 'rot0': 7, 'rot3': 0, 'rot2': 0, 'depth': -0.827, 'yaw': 54.2, 'datetime': '2018-12-18 20:28:53.544026', 'mgs': 0, 'flw2': 0.04, 'flw1': 0.41, 'flw0': 0.0, 'time': 14.14, 'compass': -161.43, 'pitch': -0.62, 'roll': 0.04}
{'lipoC2': 0.0, 'temp': 0.0, 'lipoC3S3': 12.13, 'state': 'normal', 'rot1': 6, 'rot0': 7, 'rot3': 0, 'rot2': 0, 'depth': 1.691, 'yaw': 56.06, 'datetime': '2018-12-18 20:28:53.752721', 'mgs': 0, 'flw2': 0.12, 'flw1': 0.21, 'flw0': 0.12, 'time': 14.35, 'compass': -159.57, 'pitch': -0.75, 'roll': -0.21}
{'lipoC2': 0.0, 'temp': 0.0, 'lipoC3S3': 11.96, 'state': 'normal', 'rot1': 7, 'rot0': 7, 'rot3': 0, 'rot2': 0, 'depth': 0.546, 'yaw': 58.3, 'datetime': '2018-12-18 20:28:53.961133', 'mgs': 0, 'flw2': 1.33, 'flw1': 0.38, 'flw0': 2.95, 'time': 14.56, 'compass': -157.33, 'pitch': -0.87, 'roll': -0.43}
{'lipoC2': 0.0, 'temp': 0.0, 'lipoC3S3': 11.92, 'state': 'normal', 'rot1': 10, 'rot0': 9, 'rot3': 0, 'rot2': 0, 'depth': 0.317, 'yaw': 61.21, 'datetime': '2018-12-18 20:28:54.168299', 'mgs': 0, 'flw2': 1.06, 'flw1': 0.44, 'flw0': 1.27, 'time': 14.76, 'compass': -154.42, 'pitch': -1.98, 'roll': -0.37}
{'lipoC2': 0.08, 'temp': 0.0, 'lipoC3S3': 11.72, 'state': 'normal', 'rot1': 10, 'rot0': 9, 'rot3': 0, 'rot2': 0, 'depth': 1.08, 'yaw': 63.83, 'datetime': '2018-12-18 20:28:54.376098', 'mgs': 0, 'flw2': 0.0, 'flw1': 0.0, 'flw0': 0.21, 'time': 14.97, 'compass': -151.8, 'pitch': -2.14, 'roll': -0.46}
{'lipoC2': 0.0, 'temp': 0.0, 'lipoC3S3': 12.04, 'state': 'normal', 'rot1': 10, 'rot0': 9, 'rot3': 0, 'rot2': 0, 'depth': 1.157, 'yaw': 66.35, 'datetime': '2018-12-18 20:28:54.584353', 'mgs': 0, 'flw2': 0.0, 'flw1': 0.23, 'flw0': 0.11, 'time': 15.18, 'compass': -149.28, 'pitch': -0.71, 'roll': -0.88}
{'lipoC2': 0.01, 'temp': 0.0, 'lipoC3S3': 12.01, 'state': 'normal', 'rot1': 10, 'rot0': 9, 'rot3': 0, 'rot2': 0, 'depth': -1.285, 'yaw': 68.6, 'datetime': '2018-12-18 20:28:54.793987', 'mgs': 0, 'flw2': 0.0, 'flw1': 0.32, 'flw0': 0.07, 'time': 15.39, 'compass': -147.03, 'pitch': -0.01, 'roll': -1.06}
{'lipoC2': 0.0, 'temp': 0.0, 'lipoC3S3': 11.79, 'state': 'normal', 'rot1': 10, 'rot0': 9, 'rot3': 0, 'rot2': 0, 'depth': -0.827, 'yaw': 70.62, 'datetime': '2018-12-18 20:28:55.003754', 'mgs': 0, 'flw2': 0.11, 'flw1': 0.29, 'flw0': 0.0, 'time': 15.6, 'compass': -145.01, 'pitch': -0.69, 'roll': -0.85}
{'lipoC2': 0.15, 'temp': 0.0, 'lipoC3S3': 11.84, 'state': 'normal', 'rot1': 12, 'rot0': 13, 'rot3': 0, 'rot2': 0, 'depth': 1.233, 'yaw': 72.08, 'datetime': '2018-12-18 20:28:55.214772', 'mgs': 0, 'flw2': 2.98, 'flw1': 0.18, 'flw0': 2.59, 'time': 15.81, 'compass': -143.55, 'pitch': -0.61, 'roll': -0.7}
{'lipoC2': 0.0, 'temp': 0.0, 'lipoC3S3': 12.13, 'state': 'normal', 'rot1': 14, 'rot0': 16, 'rot3': 0, 'rot2': 0, 'depth': -0.446, 'yaw': 73.25, 'datetime': '2018-12-18 20:28:55.422735', 'mgs': 0, 'flw2': 2.97, 'flw1': 0.26, 'flw0': 0.0, 'time': 16.02, 'compass': -142.38, 'pitch': 2.62, 'roll': -0.69}
{'lipoC2': 0.0, 'temp': 0.0, 'lipoC3S3': 11.97, 'state': 'normal', 'rot1': 14, 'rot0': 18, 'rot3': 0, 'rot2': 0, 'depth': 0.699, 'yaw': 76.03, 'datetime': '2018-12-18 20:28:55.630836', 'mgs': 0, 'flw2': 0.22, 'flw1': 0.0, 'flw0': 0.0, 'time': 16.22, 'compass': -139.6, 'pitch': 3.56, 'roll': -0.39}
{'lipoC2': 0.0, 'temp': 0.0, 'lipoC3S3': 12.06, 'state': 'normal', 'rot1': 14, 'rot0': 18, 'rot3': 0, 'rot2': 0, 'depth': 2.148, 'yaw': 78.59, 'datetime': '2018-12-18 20:28:55.833153', 'mgs': 0, 'flw2': 0.0, 'flw1': 0.67, 'flw0': 0.0, 'time': 16.43, 'compass': -137.04, 'pitch': 0.2, 'roll': -0.19}
{'lipoC2': 0.0, 'temp': 0.0, 'lipoC3S3': 12.21, 'state': 'normal', 'rot1': 17, 'rot0': 28, 'rot3': 0, 'rot2': 0, 'depth': -0.14, 'yaw': 80.87, 'datetime': '2018-12-18 20:28:56.042661', 'mgs': 0, 'flw2': 2.28, 'flw1': 0.38, 'flw0': 3.14, 'time': 16.64, 'compass': -134.76, 'pitch': -3.05, 'roll': -0.24}
{'lipoC2': 0.14, 'temp': 0.0, 'lipoC3S3': 11.88, 'state': 'normal', 'rot1': 19, 'rot0': 28, 'rot3': 0, 'rot2': 0, 'depth': -1.743, 'yaw': 83.13, 'datetime': '2018-12-18 20:28:56.253660', 'mgs': 0, 'flw2': 2.49, 'flw1': 0.0, 'flw0': 3.08, 'time': 16.85, 'compass': -132.5, 'pitch': -3.77, 'roll': -0.45}
{'lipoC2': 0.0, 'temp': 0.0, 'lipoC3S3': 12.14, 'state': 'normal', 'rot1': 21, 'rot0': 31, 'rot3': 0, 'rot2': 0, 'depth': 1.538, 'yaw': 85.55, 'datetime': '2018-12-18 20:28:56.468370', 'mgs': 0, 'flw2': 1.78, 'flw1': 0.0, 'flw0': 3.17, 'time': 17.06, 'compass': -130.08, 'pitch': -2.49, 'roll': -0.89}
{'lipoC2': 0.03, 'temp': 0.0, 'lipoC3S3': 11.75, 'state': 'normal', 'rot1': 24, 'rot0': 34, 'rot3': 0, 'rot2': 0, 'depth': 0.317, 'yaw': 88.44, 'datetime': '2018-12-18 20:28:56.671432', 'mgs': 0, 'flw2': 1.29, 'flw1': 0.0, 'flw0': 2.62, 'time': 17.27, 'compass': -127.19, 'pitch': -1.36, 'roll': -1.29}
{'lipoC2': 0.08, 'temp': 0.0, 'lipoC3S3': 11.72, 'state': 'normal', 'rot1': 26, 'rot0': 37, 'rot3': 0, 'rot2': 0, 'depth': 0.317, 'yaw': 92.0, 'datetime': '2018-12-18 20:28:56.880847', 'mgs': 0, 'flw2': 0.0, 'flw1': 0.44, 'flw0': 1.26, 'time': 17.48, 'compass': -123.63, 'pitch': -1.74, 'roll': -1.15}
{'lipoC2': 0.0, 'temp': 0.0, 'lipoC3S3': 12.13, 'state': 'normal', 'rot1': 27, 'rot0': 37, 'rot3': 0, 'rot2': 0, 'depth': 1.767, 'yaw': 95.69, 'datetime': '2018-12-18 20:28:57.088931', 'mgs': 0, 'flw2': 0.0, 'flw1': 0.0, 'flw0': 0.23, 'time': 17.68, 'compass': -119.94, 'pitch': -2.12, 'roll': -0.58}
{'lipoC2': 0.0, 'temp': 0.0, 'lipoC3S3': 11.83, 'state': 'normal', 'rot1': 27, 'rot0': 37, 'rot3': 0, 'rot2': 0, 'depth': 1.233, 'yaw': 98.79, 'datetime': '2018-12-18 20:28:57.298530', 'mgs': 0, 'flw2': 0.11, 'flw1': 0.35, 'flw0': 0.0, 'time': 17.9, 'compass': -116.84, 'pitch': -1.43, 'roll': -0.53}
{'lipoC2': 0.0, 'temp': 0.0, 'lipoC3S3': 12.13, 'state': 'normal', 'rot1': 27, 'rot0': 37, 'rot3': 0, 'rot2': 0, 'depth': -0.14, 'yaw': 101.27, 'datetime': '2018-12-18 20:28:57.508105', 'mgs': 0, 'flw2': 0.05, 'flw1': 0.41, 'flw0': 0.0, 'time': 18.1, 'compass': -114.36, 'pitch': -0.63, 'roll': -1.12}
{'lipoC2': 0.15, 'temp': 0.0, 'lipoC3S3': 11.87, 'state': 'normal', 'rot1': 28, 'rot0': 37, 'rot3': 0, 'rot2': 0, 'depth': -2.124, 'yaw': 103.38, 'datetime': '2018-12-18 20:28:57.716185', 'mgs': 0, 'flw2': 0.0, 'flw1': 0.0, 'flw0': 2.87, 'time': 18.31, 'compass': -112.25, 'pitch': -0.72, 'roll': -1.62}
{'lipoC2': 0.05, 'temp': 0.0, 'lipoC3S3': 11.73, 'state': 'normal', 'rot1': 30, 'rot0': 37, 'rot3': 0, 'rot2': 0, 'depth': 0.089, 'yaw': 103.68, 'datetime': '2018-12-18 20:28:57.926205', 'mgs': 0, 'flw2': 0.21, 'flw1': 0.0, 'flw0': 2.58, 'time': 18.52, 'compass': -111.95, 'pitch': -0.57, 'roll': -1.94}
{'lipoC2': 0.16, 'temp': 0.0, 'lipoC3S3': 11.72, 'state': 'normal', 'rot1': 33, 'rot0': 37, 'rot3': 0, 'rot2': 0, 'depth': 0.851, 'yaw': 100.68, 'datetime': '2018-12-18 20:28:58.138796', 'mgs': 0, 'flw2': 0.16, 'flw1': 0.0, 'flw0': 2.22, 'time': 18.73, 'compass': -114.95, 'pitch': 0.37, 'roll': -2.26}
{'lipoC2': 0.12, 'temp': 0.0, 'lipoC3S3': 11.75, 'state': 'normal', 'rot1': 34, 'rot0': 37, 'rot3': 0, 'rot2': 0, 'depth': 0.47, 'yaw': 96.01, 'datetime': '2018-12-18 20:28:58.349790', 'mgs': 0, 'flw2': 0.17, 'flw1': 0.06, 'flw0': 0.18, 'time': 18.94, 'compass': -119.62, 'pitch': 0.56, 'roll': -2.36}
{'lipoC2': 0.09, 'temp': 0.0, 'lipoC3S3': 11.72, 'state': 'normal', 'rot1': 35, 'rot0': 37, 'rot3': 0, 'rot2': 0, 'depth': 0.317, 'yaw': 91.32, 'datetime': '2018-12-18 20:28:58.557555', 'mgs': 0, 'flw2': 0.16, 'flw1': 0.0, 'flw0': 0.0, 'time': 19.15, 'compass': -124.31, 'pitch': -0.72, 'roll': -1.97}
{'lipoC2': 0.15, 'temp': 0.0, 'lipoC3S3': 11.77, 'state': 'normal', 'rot1': 35, 'rot0': 37, 'rot3': 0, 'rot2': 0, 'depth': 0.623, 'yaw': 87.27, 'datetime': '2018-12-18 20:28:58.769390', 'mgs': 0, 'flw2': 0.13, 'flw1': 0.23, 'flw0': 0.0, 'time': 19.36, 'compass': -128.36, 'pitch': -1.42, 'roll': -1.49}
{'lipoC2': 0.12, 'temp': 0.0, 'lipoC3S3': 11.73, 'state': 'normal', 'rot1': 35, 'rot0': 37, 'rot3': 0, 'rot2': 0, 'depth': 0.699, 'yaw': 83.66, 'datetime': '2018-12-18 20:28:58.977247', 'mgs': 0, 'flw2': 0.16, 'flw1': 0.12, 'flw0': 0.0, 'time': 19.57, 'compass': -131.97, 'pitch': -0.57, 'roll': -1.37}
{'lipoC2': 0.0, 'temp': 0.0, 'lipoC3S3': 11.76, 'state': 'normal', 'rot1': 35, 'rot0': 37, 'rot3': 0, 'rot2': 0, 'depth': -0.98, 'yaw': 80.42, 'datetime': '2018-12-18 20:28:59.185295', 'mgs': 0, 'flw2': 0.15, 'flw1': 0.18, 'flw0': 0.0, 'time': 19.77, 'compass': -135.21, 'pitch': 0.36, 'roll': -1.53}
{'lipoC2': 0.13, 'temp': 0.0, 'lipoC3S3': 11.92, 'state': 'normal', 'rot1': 35, 'rot0': 37, 'rot3': 0, 'rot2': 0, 'depth': -1.514, 'yaw': 77.58, 'datetime': '2018-12-18 20:28:59.393850', 'mgs': 0, 'flw2': 0.0, 'flw1': 0.44, 'flw0': 0.0, 'time': 19.98, 'compass': -138.05, 'pitch': 0.27, 'roll': -1.9}
{'lipoC2': 0.0, 'temp': 0.0, 'lipoC3S3': 12.13, 'state': 'normal', 'rot1': 35, 'rot0': 38, 'rot3': 0, 'rot2': 0, 'depth': 1.691, 'yaw': 74.83, 'datetime': '2018-12-18 20:28:59.603888', 'mgs': 0, 'flw2': 0.06, 'flw1': 0.41, 'flw0': 0.0, 'time': 20.19, 'compass': -140.8, 'pitch': -0.01, 'roll': -2.42}
{'lipoC2': 0.1, 'temp': 0.0, 'lipoC3S3': 11.72, 'state': 'normal', 'rot1': 35, 'rot0': 39, 'rot3': 0, 'rot2': 0, 'depth': 0.317, 'yaw': 72.28, 'datetime': '2018-12-18 20:28:59.810683', 'mgs': 0, 'flw2': 0.0, 'flw1': 0.0, 'flw0': 0.2, 'time': 20.4, 'compass': -143.35, 'pitch': 0.34, 'roll': -2.82}
{'lipoC2': 0.14, 'temp': 0.0, 'lipoC3S3': 11.9, 'state': 'normal', 'rot1': 35, 'rot0': 40, 'rot3': 0, 'rot2': 0, 'depth': 1.538, 'yaw': 69.86, 'datetime': '2018-12-18 20:29:00.022739', 'mgs': 0, 'flw2': 0.17, 'flw1': 0.44, 'flw0': 0.0, 'time': 20.61, 'compass': -145.77, 'pitch': 1.19, 'roll': -2.88}
{'lipoC2': 0.0, 'temp': 0.0, 'lipoC3S3': 12.08, 'state': 'normal', 'rot1': 36, 'rot0': 40, 'rot3': 0, 'rot2': 0, 'depth': 1.614, 'yaw': 67.74, 'datetime': '2018-12-18 20:29:00.233851', 'mgs': 0, 'flw2': 1.26, 'flw1': 0.0, 'flw0': 3.02, 'time': 20.82, 'compass': -147.89, 'pitch': 1.72, 'roll': -2.69}
{'lipoC2': 0.0, 'temp': 0.0, 'lipoC3S3': 12.12, 'state': 'normal', 'rot1': 38, 'rot0': 49, 'rot3': 0, 'rot2': 0, 'depth': 0.089, 'yaw': 66.37, 'datetime': '2018-12-18 20:29:00.439999', 'mgs': 0, 'flw2': 2.75, 'flw1': 0.21, 'flw0': 2.75, 'time': 21.03, 'compass': -149.26, 'pitch': 0.63, 'roll': -2.33}
{'lipoC2': 0.03, 'temp': 0.0, 'lipoC3S3': 11.75, 'state': 'normal', 'rot1': 41, 'rot0': 55, 'rot3': 0, 'rot2': 0, 'depth': 1.385, 'yaw': 65.0, 'datetime': '2018-12-18 20:29:00.649254', 'mgs': 0, 'flw2': 2.36, 'flw1': 0.18, 'flw0': 3.03, 'time': 21.24, 'compass': -150.63, 'pitch': -1.12, 'roll': -2.41}
{'lipoC2': 0.0, 'temp': 0.0, 'lipoC3S3': 12.13, 'state': 'normal', 'rot1': 44, 'rot0': 55, 'rot3': 0, 'rot2': 0, 'depth': 1.767, 'yaw': 63.63, 'datetime': '2018-12-18 20:29:00.860269', 'mgs': 0, 'flw2': 2.76, 'flw1': 0.0, 'flw0': 2.65, 'time': 21.44, 'compass': -152.0, 'pitch': -1.21, 'roll': -2.86}
{'lipoC2': 0.0, 'temp': 0.0, 'lipoC3S3': 11.9, 'state': 'normal', 'rot1': 46, 'rot0': 69, 'rot3': 0, 'rot2': 0, 'depth': 0.089, 'yaw': 62.28, 'datetime': '2018-12-18 20:29:01.069071', 'mgs': 0, 'flw2': 2.55, 'flw1': 0.0, 'flw0': 2.98, 'time': 21.65, 'compass': -153.35, 'pitch': -0.01, 'roll': -3.2}
{'lipoC2': 0.15, 'temp': 0.0, 'lipoC3S3': 11.75, 'state': 'normal', 'rot1': 49, 'rot0': 79, 'rot3': 0, 'rot2': 0, 'depth': 0.851, 'yaw': 61.06, 'datetime': '2018-12-18 20:29:01.278966', 'mgs': 0, 'flw2': 2.21, 'flw1': 0.0, 'flw0': 2.99, 'time': 21.86, 'compass': -154.57, 'pitch': 0.8, 'roll': -3.21}
{'lipoC2': 0.0, 'temp': 0.0, 'lipoC3S3': 11.9, 'state': 'normal', 'rot1': 51, 'rot0': 82, 'rot3': 0, 'rot2': 0, 'depth': 0.241, 'yaw': 60.14, 'datetime': '2018-12-18 20:29:01.488937', 'mgs': 0, 'flw2': 2.15, 'flw1': 0.35, 'flw0': 2.91, 'time': 22.07, 'compass': -155.49, 'pitch': 0.56, 'roll': -2.93}
{'lipoC2': 0.14, 'temp': 0.0, 'lipoC3S3': 11.9, 'state': 'normal', 'rot1': 54, 'rot0': 92, 'rot3': 0, 'rot2': 0, 'depth': 1.462, 'yaw': 59.63, 'datetime': '2018-12-18 20:29:01.698637', 'mgs': 0, 'flw2': 2.33, 'flw1': 0.0, 'flw0': 3.02, 'time': 22.28, 'compass': -156.0, 'pitch': 0.15, 'roll': -2.67}
{'lipoC2': 0.02, 'temp': 0.0, 'lipoC3S3': 11.75, 'state': 'normal', 'rot1': 56, 'rot0': 97, 'rot3': 0, 'rot2': 0, 'depth': 0.165, 'yaw': 59.33, 'datetime': '2018-12-18 20:29:01.907856', 'mgs': 0, 'flw2': 2.39, 'flw1': 0.0, 'flw0': 2.66, 'time': 22.49, 'compass': -156.3, 'pitch': 0.38, 'roll': -2.76}
{'lipoC2': 0.09, 'temp': 0.0, 'lipoC3S3': 11.94, 'state': 'normal', 'rot1': 59, 'rot0': 99, 'rot3': 0, 'rot2': 0, 'depth': -1.819, 'yaw': 59.25, 'datetime': '2018-12-18 20:29:02.116577', 'mgs': 0, 'flw2': 1.66, 'flw1': 0.47, 'flw0': 2.99, 'time': 22.7, 'compass': -156.38, 'pitch': 1.17, 'roll': -3.1}
{'lipoC2': 0.12, 'temp': 0.0, 'lipoC3S3': 11.92, 'state': 'normal', 'rot1': 61, 'rot0': 101, 'rot3': 0, 'rot2': 0, 'depth': -1.59, 'yaw': 59.47, 'datetime': '2018-12-18 20:29:02.325889', 'mgs': 0, 'flw2': 0.23, 'flw1': 0.0, 'flw0': 2.29, 'time': 22.91, 'compass': -156.16, 'pitch': 1.73, 'roll': -3.37}
{'lipoC2': 0.02, 'temp': 0.0, 'lipoC3S3': 11.76, 'state': 'normal', 'rot1': 63, 'rot0': 101, 'rot3': 0, 'rot2': 0, 'depth': 0.089, 'yaw': 60.27, 'datetime': '2018-12-18 20:29:02.534473', 'mgs': 0, 'flw2': 0.0, 'flw1': 0.23, 'flw0': 0.16, 'time': 23.12, 'compass': -155.36, 'pitch': 2.18, 'roll': -3.41}
{'lipoC2': 0.0, 'temp': 0.0, 'lipoC3S3': 11.92, 'state': 'normal', 'rot1': 63, 'rot0': 101, 'rot3': 0, 'rot2': 0, 'depth': 0.47, 'yaw': 60.58, 'datetime': '2018-12-18 20:29:02.745047', 'mgs': 0, 'flw2': 0.0, 'flw1': 0.44, 'flw0': 0.0, 'time': 23.33, 'compass': -155.05, 'pitch': 2.87, 'roll': -3.63}
{'lipoC2': 0.08, 'temp': 0.0, 'lipoC3S3': 11.73, 'state': 'normal', 'rot1': 63, 'rot0': 101, 'rot3': 0, 'rot2': 0, 'depth': 0.241, 'yaw': 60.58, 'datetime': '2018-12-18 20:29:02.954682', 'mgs': 0, 'flw2': 0.15, 'flw1': 0.0, 'flw0': 0.0, 'time': 23.54, 'compass': -155.05, 'pitch': 3.1, 'roll': -3.88}
{'lipoC2': 0.0, 'temp': 0.0, 'lipoC3S3': 11.98, 'state': 'normal', 'rot1': 64, 'rot0': 102, 'rot3': 0, 'rot2': 0, 'depth': 1.08, 'yaw': 60.28, 'datetime': '2018-12-18 20:29:03.164115', 'mgs': 0, 'flw2': 3.25, 'flw1': 0.0, 'flw0': 2.88, 'time': 23.75, 'compass': -155.35, 'pitch': 3.1, 'roll': -4.09}
{'lipoC2': 0.04, 'temp': 0.0, 'lipoC3S3': 11.75, 'state': 'normal', 'rot1': 66, 'rot0': 104, 'rot3': 0, 'rot2': 0, 'depth': 1.233, 'yaw': 56.14, 'datetime': '2018-12-18 20:29:03.373700', 'mgs': 0, 'flw2': 1.89, 'flw1': 0.21, 'flw0': 3.1, 'time': 23.95, 'compass': -159.49, 'pitch': 3.71, 'roll': -4.81}
{'lipoC2': 0.15, 'temp': 0.0, 'lipoC3S3': 11.87, 'state': 'normal', 'rot1': 68, 'rot0': 106, 'rot3': 0, 'rot2': 0, 'depth': -1.285, 'yaw': 48.47, 'datetime': '2018-12-18 20:29:03.582038', 'mgs': 0, 'flw2': 0.46, 'flw1': 0.0, 'flw0': 1.95, 'time': 24.16, 'compass': -167.16, 'pitch': 4.87, 'roll': -5.49}
{'lipoC2': 0.0, 'temp': 0.0, 'lipoC3S3': 11.83, 'state': 'normal', 'rot1': 69, 'rot0': 107, 'rot3': 0, 'rot2': 0, 'depth': -0.293, 'yaw': 39.38, 'datetime': '2018-12-18 20:29:03.792639', 'mgs': 0, 'flw2': 0.12, 'flw1': 0.26, 'flw0': 0.0, 'time': 24.37, 'compass': -176.25, 'pitch': 5.44, 'roll': -5.1}
{'lipoC2': 0.0, 'temp': 0.0, 'lipoC3S3': 12.04, 'state': 'normal', 'rot1': 69, 'rot0': 107, 'rot3': 0, 'rot2': 0, 'depth': -1.895, 'yaw': 31.81, 'datetime': '2018-12-18 20:29:04.002099', 'mgs': 0, 'flw2': 0.0, 'flw1': 0.41, 'flw0': 0.02, 'time': 24.58, 'compass': 176.18, 'pitch': 4.66, 'roll': -3.4}
{'lipoC2': 0.0, 'temp': 0.0, 'lipoC3S3': 12.13, 'state': 'normal', 'rot1': 69, 'rot0': 107, 'rot3': 0, 'rot2': 0, 'depth': 1.614, 'yaw': 25.36, 'datetime': '2018-12-18 20:29:04.209675', 'mgs': 0, 'flw2': 0.15, 'flw1': 0.18, 'flw0': 0.0, 'time': 24.79, 'compass': 169.73, 'pitch': 4.29, 'roll': -1.46}
{'lipoC2': 0.0, 'temp': 0.0, 'lipoC3S3': 11.93, 'state': 'normal', 'rot1': 69, 'rot0': 107, 'rot3': 0, 'rot2': 0, 'depth': 0.317, 'yaw': 19.6, 'datetime': '2018-12-18 20:29:04.419660', 'mgs': 0, 'flw2': 0.0, 'flw1': 0.44, 'flw0': 0.0, 'time': 25.0, 'compass': 163.97, 'pitch': 5.16, 'roll': -0.3}
{'lipoC2': 0.0, 'temp': 0.0, 'lipoC3S3': 12.13, 'state': 'normal', 'rot1': 69, 'rot0': 107, 'rot3': 0, 'rot2': 0, 'depth': -0.293, 'yaw': 14.55, 'datetime': '2018-12-18 20:29:04.628033', 'mgs': 0, 'flw2': 0.09, 'flw1': 0.0, 'flw0': 1.59, 'time': 25.21, 'compass': 158.92, 'pitch': 6.2, 'roll': -0.19}
{'lipoC2': 0.0, 'temp': 0.0, 'lipoC3S3': 12.09, 'state': 'normal', 'rot1': 71, 'rot0': 108, 'rot3': 0, 'rot2': 0, 'depth': 1.691, 'yaw': 8.54, 'datetime': '2018-12-18 20:29:04.837574', 'mgs': 0, 'flw2': 1.83, 'flw1': 0.0, 'flw0': 0.96, 'time': 25.42, 'compass': 152.91, 'pitch': 6.69, 'roll': -0.87}
{'lipoC2': 0.08, 'temp': 0.0, 'lipoC3S3': 11.93, 'state': 'normal', 'rot1': 72, 'rot0': 109, 'rot3': 0, 'rot2': 0, 'depth': 1.843, 'yaw': 0.15, 'datetime': '2018-12-18 20:29:05.046180', 'mgs': 0, 'flw2': 0.01, 'flw1': 0.0, 'flw0': 0.13, 'time': 25.63, 'compass': 144.52, 'pitch': 6.94, 'roll': -1.6}
{'lipoC2': 0.02, 'temp': 0.0, 'lipoC3S3': 11.98, 'state': 'normal', 'rot1': 72, 'rot0': 109, 'rot3': 0, 'rot2': 0, 'depth': -1.208, 'yaw': -7.09, 'datetime': '2018-12-18 20:29:05.256115', 'mgs': 0, 'flw2': 0.21, 'flw1': 0.0, 'flw0': 0.0, 'time': 25.83, 'compass': 137.28, 'pitch': 6.85, 'roll': -1.1}
{'lipoC2': 0.0, 'temp': 0.0, 'lipoC3S3': 11.79, 'state': 'normal', 'rot1': 72, 'rot0': 109, 'rot3': 0, 'rot2': 0, 'depth': -0.522, 'yaw': -13.3, 'datetime': '2018-12-18 20:29:05.466063', 'mgs': 0, 'flw2': 0.1, 'flw1': 0.32, 'flw0': 0.0, 'time': 26.04, 'compass': 131.07, 'pitch': 6.95, 'roll': 0.4}
{'lipoC2': 0.1, 'temp': 0.0, 'lipoC3S3': 11.71, 'state': 'normal', 'rot1': 72, 'rot0': 109, 'rot3': 0, 'rot2': 0, 'depth': 0.317, 'yaw': -18.85, 'datetime': '2018-12-18 20:29:05.676457', 'mgs': 0, 'flw2': 0.0, 'flw1': 0.0, 'flw0': 3.17, 'time': 26.25, 'compass': 125.52, 'pitch': 7.18, 'roll': 2.09}
{'lipoC2': 0.0, 'temp': 0.0, 'lipoC3S3': 11.77, 'state': 'normal', 'rot1': 75, 'rot0': 109, 'rot3': 0, 'rot2': 0, 'depth': -0.751, 'yaw': -22.71, 'datetime': '2018-12-18 20:29:05.884739', 'mgs': 0, 'flw2': 0.01, 'flw1': 0.0, 'flw0': 3.04, 'time': 26.46, 'compass': 121.66, 'pitch': 6.82, 'roll': 3.3}
{'lipoC2': 0.0, 'temp': 0.0, 'lipoC3S3': 11.9, 'state': 'normal', 'rot1': 76, 'rot0': 109, 'rot3': 0, 'rot2': 0, 'depth': 0.851, 'yaw': -25.0, 'datetime': '2018-12-18 20:29:06.094224', 'mgs': 0, 'flw2': 0.05, 'flw1': 0.0, 'flw0': 0.12, 'time': 26.67, 'compass': 119.37, 'pitch': 6.28, 'roll': 3.62}
{'lipoC2': 0.15, 'temp': 0.0, 'lipoC3S3': 11.84, 'state': 'normal', 'rot1': 76, 'rot0': 109, 'rot3': 0, 'rot2': 0, 'depth': -0.751, 'yaw': -27.19, 'datetime': '2018-12-18 20:29:06.302104', 'mgs': 0, 'flw2': 0.04, 'flw1': 0.38, 'flw0': 0.0, 'time': 26.88, 'compass': 117.18, 'pitch': 6.83, 'roll': 2.91}
{'lipoC2': 0.12, 'temp': 0.0, 'lipoC3S3': 11.92, 'state': 'normal', 'rot1': 76, 'rot0': 109, 'rot3': 0, 'rot2': 0, 'depth': -1.743, 'yaw': -29.58, 'datetime': '2018-12-18 20:29:06.512072', 'mgs': 0, 'flw2': 0.05, 'flw1': 0.0, 'flw0': 0.12, 'time': 27.09, 'compass': 114.79, 'pitch': 7.58, 'roll': 1.98}
{'lipoC2': 0.06, 'temp': 0.0, 'lipoC3S3': 11.96, 'state': 'normal', 'rot1': 76, 'rot0': 109, 'rot3': 0, 'rot2': 0, 'depth': -1.514, 'yaw': -31.91, 'datetime': '2018-12-18 20:29:06.721712', 'mgs': 0, 'flw2': 0.0, 'flw1': 0.38, 'flw0': 0.0, 'time': 27.3, 'compass': 112.46, 'pitch': 7.51, 'roll': 1.58}
{'lipoC2': 0.0, 'temp': 0.0, 'lipoC3S3': 11.9, 'state': 'normal', 'rot1': 77, 'rot0': 109, 'rot3': 0, 'rot2': 0, 'depth': 0.851, 'yaw': -34.19, 'datetime': '2018-12-18 20:29:06.931878', 'mgs': 0, 'flw2': 2.99, 'flw1': 0.32, 'flw0': 3.11, 'time': 27.51, 'compass': 110.18, 'pitch': 6.93, 'roll': 1.88}
{'lipoC2': 0.0, 'temp': 0.0, 'lipoC3S3': 12.04, 'state': 'normal', 'rot1': 79, 'rot0': 111, 'rot3': 0, 'rot2': 0, 'depth': 1.385, 'yaw': -33.42, 'datetime': '2018-12-18 20:29:07.140824', 'mgs': 0, 'flw2': 2.73, 'flw1': 0.0, 'flw0': 1.95, 'time': 27.72, 'compass': 110.95, 'pitch': 7.03, 'roll': 2.92}
{'lipoC2': 0.08, 'temp': 0.0, 'lipoC3S3': 11.94, 'state': 'normal', 'rot1': 81, 'rot0': 113, 'rot3': 0, 'rot2': 0, 'depth': -1.743, 'yaw': -29.02, 'datetime': '2018-12-18 20:29:07.348564', 'mgs': 0, 'flw2': 0.0, 'flw1': 0.44, 'flw0': 0.0, 'time': 27.92, 'compass': 115.35, 'pitch': 8.3, 'roll': 3.73}
{'lipoC2': 0.0, 'temp': 0.0, 'lipoC3S3': 12.12, 'state': 'normal', 'rot1': 81, 'rot0': 113, 'rot3': 0, 'rot2': 0, 'depth': 0.012, 'yaw': -25.32, 'datetime': '2018-12-18 20:29:07.557138', 'mgs': 0, 'flw2': 0.11, 'flw1': 0.35, 'flw0': 0.0, 'time': 28.13, 'compass': 119.05, 'pitch': 8.3, 'roll': 3.09}
{'lipoC2': 0.0, 'temp': 0.0, 'lipoC3S3': 12.12, 'state': 'normal', 'rot1': 81, 'rot0': 113, 'rot3': 0, 'rot2': 0, 'depth': 1.691, 'yaw': -22.68, 'datetime': '2018-12-18 20:29:07.766359', 'mgs': 0, 'flw2': 0.0, 'flw1': 0.0, 'flw0': 0.22, 'time': 28.34, 'compass': 121.69, 'pitch': 7.13, 'roll': 1.66}
{'lipoC2': 0.0, 'temp': 0.0, 'lipoC3S3': 12.12, 'state': 'normal', 'rot1': 81, 'rot0': 113, 'rot3': 0, 'rot2': 0, 'depth': 0.089, 'yaw': -20.49, 'datetime': '2018-12-18 20:29:07.977433', 'mgs': 0, 'flw2': 0.02, 'flw1': 0.44, 'flw0': 0.0, 'time': 28.55, 'compass': 123.88, 'pitch': 6.5, 'roll': 0.08}
{'lipoC2': 0.11, 'temp': 0.0, 'lipoC3S3': 11.72, 'state': 'normal', 'rot1': 81, 'rot0': 113, 'rot3': 0, 'rot2': 0, 'depth': 0.699, 'yaw': -18.66, 'datetime': '2018-12-18 20:29:08.184151', 'mgs': 0, 'flw2': 0.0, 'flw1': 0.03, 'flw0': 0.21, 'time': 28.76, 'compass': 125.71, 'pitch': 7.09, 'roll': -1.0}
{'lipoC2': 0.06, 'temp': 0.0, 'lipoC3S3': 11.96, 'state': 'normal', 'rot1': 81, 'rot0': 113, 'rot3': 0, 'rot2': 0, 'depth': 1.767, 'yaw': -16.96, 'datetime': '2018-12-18 20:29:08.390255', 'mgs': 0, 'flw2': 0.0, 'flw1': 0.38, 'flw0': 0.0, 'time': 28.97, 'compass': 127.41, 'pitch': 7.62, 'roll': -1.19}
{'lipoC2': 0.13, 'temp': 0.0, 'lipoC3S3': 11.73, 'state': 'normal', 'rot1': 81, 'rot0': 113, 'rot3': 0, 'rot2': 0, 'depth': 0.394, 'yaw': -15.35, 'datetime': '2018-12-18 20:29:08.598431', 'mgs': 0, 'flw2': 0.87, 'flw1': 0.03, 'flw0': 2.61, 'time': 29.18, 'compass': 129.02, 'pitch': 7.23, 'roll': -0.69}
{'lipoC2': 0.11, 'temp': 0.0, 'lipoC3S3': 11.93, 'state': 'normal', 'rot1': 83, 'rot0': 114, 'rot3': 0, 'rot2': 0, 'depth': -1.59, 'yaw': -15.96, 'datetime': '2018-12-18 20:29:08.807943', 'mgs': 0, 'flw2': 1.72, 'flw1': 0.0, 'flw0': 2.78, 'time': 29.39, 'compass': 128.41, 'pitch': 7.47, 'roll': -0.31}
{'lipoC2': 0.0, 'temp': 0.0, 'lipoC3S3': 11.96, 'state': 'normal', 'rot1': 86, 'rot0': 116, 'rot3': 0, 'rot2': 0, 'depth': -0.598, 'yaw': -20.85, 'datetime': '2018-12-18 20:29:09.022238', 'mgs': 0, 'flw2': 1.39, 'flw1': 0.44, 'flw0': 2.28, 'time': 29.6, 'compass': 123.52, 'pitch': 8.76, 'roll': -0.24}
{'lipoC2': 0.17, 'temp': 0.0, 'lipoC3S3': 11.87, 'state': 'normal', 'rot1': 87, 'rot0': 118, 'rot3': 0, 'rot2': 0, 'depth': -1.208, 'yaw': -31.6, 'datetime': '2018-12-18 20:29:09.332179', 'mgs': 0, 'flw2': 0.02, 'flw1': 0.0, 'flw0': 0.13, 'time': 29.91, 'compass': 112.77, 'pitch': 7.93, 'roll': 0.56}
{'lipoC2': 0.0, 'temp': 0.0, 'lipoC3S3': 11.77, 'state': 'normal', 'rot1': 87, 'rot0': 118, 'rot3': 0, 'rot2': 0, 'depth': -0.674, 'yaw': -37.09, 'datetime': '2018-12-18 20:29:09.540640', 'mgs': 0, 'flw2': 0.11, 'flw1': 0.29, 'flw0': 0.0, 'time': 30.12, 'compass': 107.28, 'pitch': 6.72, 'roll': 1.68}
{'lipoC2': 0.02, 'temp': 0.0, 'lipoC3S3': 11.77, 'state': 'normal', 'rot1': 87, 'rot0': 118, 'rot3': 0, 'rot2': 0, 'depth': 1.385, 'yaw': -42.09, 'datetime': '2018-12-18 20:29:09.749869', 'mgs': 0, 'flw2': 0.13, 'flw1': 0.0, 'flw0': 0.02, 'time': 30.33, 'compass': 102.28, 'pitch': 6.97, 'roll': 2.91}
{'lipoC2': 0.0, 'temp': 0.0, 'lipoC3S3': 11.89, 'state': 'normal', 'rot1': 87, 'rot0': 118, 'rot3': 0, 'rot2': 0, 'depth': 0.851, 'yaw': -46.69, 'datetime': '2018-12-18 20:29:09.968957', 'mgs': 0, 'flw2': 0.05, 'flw1': 0.0, 'flw0': 0.13, 'time': 30.54, 'compass': 97.68, 'pitch': 7.76, 'roll': 3.76}
{'lipoC2': 0.0, 'temp': 0.0, 'lipoC3S3': 12.1, 'state': 'normal', 'rot1': 87, 'rot0': 118, 'rot3': 0, 'rot2': 0, 'depth': 1.691, 'yaw': -51.0, 'datetime': '2018-12-18 20:29:10.177548', 'mgs': 0, 'flw2': 0.0, 'flw1': 0.18, 'flw0': 0.17, 'time': 30.74, 'compass': 93.37, 'pitch': 7.79, 'roll': 4.07}
{'lipoC2': 0.1, 'temp': 0.0, 'lipoC3S3': 11.72, 'state': 'normal', 'rot1': 87, 'rot0': 118, 'rot3': 0, 'rot2': 0, 'depth': 0.317, 'yaw': -54.83, 'datetime': '2018-12-18 20:29:10.387229', 'mgs': 0, 'flw2': 0.16, 'flw1': 0.09, 'flw0': 0.0, 'time': 30.95, 'compass': 89.54, 'pitch': 7.34, 'roll': 3.97}
{'lipoC2': 0.0, 'temp': 0.0, 'lipoC3S3': 11.97, 'state': 'normal', 'rot1': 87, 'rot0': 118, 'rot3': 0, 'rot2': 0, 'depth': 1.004, 'yaw': -58.57, 'datetime': '2018-12-18 20:29:10.596836', 'mgs': 0, 'flw2': 0.0, 'flw1': 0.0, 'flw0': 0.0, 'time': 31.16, 'compass': 85.8, 'pitch': 7.11, 'roll': 3.86}
{'lipoC2': 0.01, 'temp': 0.0, 'lipoC3S3': 11.79, 'state': 'normal', 'rot1': 87, 'rot0': 118, 'rot3': 0, 'rot2': 0, 'depth': 1.385, 'yaw': -61.99, 'datetime': '2018-12-18 20:29:10.803717', 'mgs': 0, 'flw2': 0.0, 'flw1': 0.23, 'flw0': 0.13, 'time': 31.37, 'compass': 82.38, 'pitch': 7.25, 'roll': 4.01}
{'lipoC2': 0.0, 'temp': 0.0, 'lipoC3S3': 11.83, 'state': 'normal', 'rot1': 87, 'rot0': 118, 'rot3': 0, 'rot2': 0, 'depth': -0.446, 'yaw': -65.17, 'datetime': '2018-12-18 20:29:11.007560', 'mgs': 0, 'flw2': 0.07, 'flw1': 0.38, 'flw0': 0.0, 'time': 31.58, 'compass': 79.2, 'pitch': 7.3, 'roll': 4.41}
{'lipoC2': 0.16, 'temp': 0.0, 'lipoC3S3': 11.75, 'state': 'normal', 'rot1': 87, 'rot0': 118, 'rot3': 0, 'rot2': 0, 'depth': 0.851, 'yaw': -68.08, 'datetime': '2018-12-18 20:29:11.215385', 'mgs': 0, 'flw2': 0.11, 'flw1': 0.29, 'flw0': 0.0, 'time': 31.79, 'compass': 76.29, 'pitch': 7.09, 'roll': 4.99}
{'lipoC2': 0.0, 'temp': 0.0, 'lipoC3S3': 12.13, 'state': 'normal', 'rot1': 87, 'rot0': 118, 'rot3': 0, 'rot2': 0, 'depth': 1.462, 'yaw': -70.73, 'datetime': '2018-12-18 20:29:11.424790', 'mgs': 0, 'flw2': 0.11, 'flw1': 0.41, 'flw0': 0.0, 'time': 32.0, 'compass': 73.64, 'pitch': 7.01, 'roll': 5.61}
{'lipoC2': 0.06, 'temp': 0.0, 'lipoC3S3': 11.96, 'state': 'normal', 'rot1': 87, 'rot0': 118, 'rot3': 0, 'rot2': 0, 'depth': -1.514, 'yaw': -73.41, 'datetime': '2018-12-18 20:29:11.633880', 'mgs': 0, 'flw2': 0.0, 'flw1': 0.47, 'flw0': 0.0, 'time': 32.21, 'compass': 70.96, 'pitch': 6.88, 'roll': 5.95}
{'lipoC2': 0.0, 'temp': 0.0, 'lipoC3S3': 11.96, 'state': 'normal', 'rot1': 87, 'rot0': 118, 'rot3': 0, 'rot2': 0, 'depth': 0.546, 'yaw': -76.03, 'datetime': '2018-12-18 20:29:11.845888', 'mgs': 0, 'flw2': 0.05, 'flw1': 0.0, 'flw0': 0.11, 'time': 32.42, 'compass': 68.34, 'pitch': 6.54, 'roll': 5.88}
{'lipoC2': 0.0, 'temp': 0.0, 'lipoC3S3': 11.92, 'state': 'normal', 'rot1': 87, 'rot0': 118, 'rot3': 0, 'rot2': 0, 'depth': 0.394, 'yaw': -78.62, 'datetime': '2018-12-18 20:29:12.056589', 'mgs': 0, 'flw2': 0.02, 'flw1': 0.0, 'flw0': 0.12, 'time': 32.62, 'compass': 65.75, 'pitch': 6.1, 'roll': 5.71}
{'lipoC2': 0.06, 'temp': 0.0, 'lipoC3S3': 11.71, 'state': 'normal', 'rot1': 87, 'rot0': 118, 'rot3': 0, 'rot2': 0, 'depth': 0.241, 'yaw': -81.09, 'datetime': '2018-12-18 20:29:12.266031', 'mgs': 0, 'flw2': 0.0, 'flw1': 0.15, 'flw0': 0.17, 'time': 32.83, 'compass': 63.28, 'pitch': 5.93, 'roll': 5.53}
{'lipoC2': 0.01, 'temp': 0.0, 'lipoC3S3': 11.77, 'state': 'normal', 'rot1': 87, 'rot0': 118, 'rot3': 0, 'rot2': 0, 'depth': 0.241, 'yaw': -83.31, 'datetime': '2018-12-18 20:29:12.473864', 'mgs': 0, 'flw2': 0.39, 'flw1': 0.18, 'flw0': 2.61, 'time': 33.04, 'compass': 61.06, 'pitch': 5.97, 'roll': 5.52}
{'lipoC2': 0.11, 'temp': 0.0, 'lipoC3S3': 11.73, 'state': 'normal', 'rot1': 89, 'rot0': 119, 'rot3': 0, 'rot2': 0, 'depth': 0.394, 'yaw': -84.16, 'datetime': '2018-12-18 20:29:12.679381', 'mgs': 0, 'flw2': 0.0, 'flw1': 0.0, 'flw0': 0.55, 'time': 33.25, 'compass': 60.21, 'pitch': 5.72, 'roll': 6.01}
{'lipoC2': 0.11, 'temp': 0.0, 'lipoC3S3': 11.93, 'state': 'normal', 'rot1': 89, 'rot0': 119, 'rot3': 0, 'rot2': 0, 'depth': -1.971, 'yaw': -84.04, 'datetime': '2018-12-18 20:29:12.888974', 'mgs': 0, 'flw2': 0.06, 'flw1': 0.0, 'flw0': 0.1, 'time': 33.46, 'compass': 60.33, 'pitch': 5.55, 'roll': 6.45}
{'lipoC2': 0.0, 'temp': 0.0, 'lipoC3S3': 12.1, 'state': 'normal', 'rot1': 89, 'rot0': 119, 'rot3': 0, 'rot2': 0, 'depth': -1.361, 'yaw': -84.29, 'datetime': '2018-12-18 20:29:13.101167', 'mgs': 0, 'flw2': 0.0, 'flw1': 0.0, 'flw0': 0.21, 'time': 33.67, 'compass': 60.08, 'pitch': 6.05, 'roll': 6.34}
{'lipoC2': 0.11, 'temp': 0.0, 'lipoC3S3': 11.92, 'state': 'normal', 'rot1': 89, 'rot0': 119, 'rot3': 0, 'rot2': 0, 'depth': -1.895, 'yaw': -84.7, 'datetime': '2018-12-18 20:29:13.312392', 'mgs': 0, 'flw2': 0.06, 'flw1': 0.0, 'flw0': 0.45, 'time': 33.88, 'compass': 59.67, 'pitch': 6.52, 'roll': 5.9}
{'lipoC2': 0.0, 'temp': 0.0, 'lipoC3S3': 12.05, 'state': 'normal', 'rot1': 91, 'rot0': 120, 'rot3': 0, 'rot2': 0, 'depth': 1.538, 'yaw': -85.6, 'datetime': '2018-12-18 20:29:13.519788', 'mgs': 0, 'flw2': 2.16, 'flw1': 0.38, 'flw0': 2.94, 'time': 34.09, 'compass': 58.77, 'pitch': 6.75, 'roll': 5.46}
{'lipoC2': 0.0, 'temp': 0.0, 'lipoC3S3': 12.05, 'state': 'normal', 'rot1': 93, 'rot0': 122, 'rot3': 0, 'rot2': 0, 'depth': 1.614, 'yaw': -87.33, 'datetime': '2018-12-18 20:29:13.729424', 'mgs': 0, 'flw2': 2.51, 'flw1': 0.44, 'flw0': 2.98, 'time': 34.3, 'compass': 57.04, 'pitch': 8.64, 'roll': 5.19}
{'lipoC2': 0.09, 'temp': 0.0, 'lipoC3S3': 11.93, 'state': 'normal', 'rot1': 95, 'rot0': 124, 'rot3': 0, 'rot2': 0, 'depth': -1.666, 'yaw': -89.34, 'datetime': '2018-12-18 20:29:13.938620', 'mgs': 0, 'flw2': 2.94, 'flw1': 0.0, 'flw0': 2.99, 'time': 34.5, 'compass': 55.03, 'pitch': 10.54, 'roll': 5.21}
{'lipoC2': 0.15, 'temp': 0.0, 'lipoC3S3': 11.87, 'state': 'normal', 'rot1': 98, 'rot0': 127, 'rot3': 0, 'rot2': 0, 'depth': -1.132, 'yaw': -91.43, 'datetime': '2018-12-18 20:29:14.146431', 'mgs': 0, 'flw2': 2.69, 'flw1': 0.0, 'flw0': 2.99, 'time': 34.71, 'compass': 52.94, 'pitch': 10.73, 'roll': 5.57}
{'lipoC2': 0.0, 'temp': 0.0, 'lipoC3S3': 12.05, 'state': 'normal', 'rot1': 100, 'rot0': 130, 'rot3': 0, 'rot2': 0, 'depth': 1.691, 'yaw': -93.38, 'datetime': '2018-12-18 20:29:14.357351', 'mgs': 0, 'flw2': 2.89, 'flw1': 0.41, 'flw0': 2.88, 'time': 34.92, 'compass': 50.99, 'pitch': 9.73, 'roll': 5.92}
{'lipoC2': 0.1, 'temp': 0.0, 'lipoC3S3': 12.09, 'state': 'normal', 'rot1': 102, 'rot0': 132, 'rot3': 0, 'rot2': 0, 'depth': 0.47, 'yaw': -95.06, 'datetime': '2018-12-18 20:29:14.564918', 'mgs': 0, 'flw2': 2.39, 'flw1': 0.18, 'flw0': 2.99, 'time': 35.13, 'compass': 49.31, 'pitch': 9.04, 'roll': 6.09}
{'lipoC2': 0.0, 'temp': 0.0, 'lipoC3S3': 12.13, 'state': 'normal', 'rot1': 104, 'rot0': 134, 'rot3': 0, 'rot2': 0, 'depth': -0.217, 'yaw': -96.15, 'datetime': '2018-12-18 20:29:14.777084', 'mgs': 0, 'flw2': 2.88, 'flw1': 0.03, 'flw0': 2.04, 'time': 35.34, 'compass': 48.22, 'pitch': 8.81, 'roll': 6.05}
{'lipoC2': 0.0, 'temp': 0.0, 'lipoC3S3': 11.96, 'state': 'normal', 'rot1': 106, 'rot0': 137, 'rot3': 0, 'rot2': 0, 'depth': 1.157, 'yaw': -94.1, 'datetime': '2018-12-18 20:29:14.985316', 'mgs': 0, 'flw2': 2.75, 'flw1': 0.5, 'flw0': 2.58, 'time': 35.55, 'compass': 50.27, 'pitch': 7.42, 'roll': 6.28}
{'lipoC2': 0.09, 'temp': 0.0, 'lipoC3S3': 11.72, 'state': 'normal', 'rot1': 108, 'rot0': 139, 'rot3': 0, 'rot2': 0, 'depth': 1.157, 'yaw': -89.08, 'datetime': '2018-12-18 20:29:15.193596', 'mgs': 0, 'flw2': 2.55, 'flw1': 0.26, 'flw0': 0.34, 'time': 35.76, 'compass': 55.29, 'pitch': 6.45, 'roll': 6.79}
{'lipoC2': 0.1, 'temp': 0.0, 'lipoC3S3': 11.72, 'state': 'normal', 'rot1': 109, 'rot0': 142, 'rot3': 0, 'rot2': 0, 'depth': 0.394, 'yaw': -82.76, 'datetime': '2018-12-18 20:29:15.404330', 'mgs': 0, 'flw2': 2.51, 'flw1': 0.0, 'flw0': 0.39, 'time': 35.97, 'compass': 61.61, 'pitch': 7.35, 'roll': 6.9}
{'lipoC2': 0.0, 'temp': 0.0, 'lipoC3S3': 11.75, 'state': 'normal', 'rot1': 110, 'rot0': 144, 'rot3': 0, 'rot2': 0, 'depth': -0.827, 'yaw': -76.28, 'datetime': '2018-12-18 20:29:15.615257', 'mgs': 0, 'flw2': 2.75, 'flw1': 0.0, 'flw0': 3.33, 'time': 36.18, 'compass': 68.09, 'pitch': 8.92, 'roll': 6.22}
{'lipoC2': 0.03, 'temp': 0.0, 'lipoC3S3': 11.98, 'state': 'normal', 'rot1': 112, 'rot0': 146, 'rot3': 0, 'rot2': 0, 'depth': -0.827, 'yaw': -71.26, 'datetime': '2018-12-18 20:29:15.826759', 'mgs': 0, 'flw2': 2.91, 'flw1': 0.0, 'flw0': 2.64, 'time': 36.39, 'compass': 73.11, 'pitch': 10.37, 'roll': 4.97}
{'lipoC2': 0.17, 'temp': 0.0, 'lipoC3S3': 11.85, 'state': 'normal', 'rot1': 115, 'rot0': 149, 'rot3': 0, 'rot2': 0, 'depth': -0.598, 'yaw': -68.29, 'datetime': '2018-12-18 20:29:16.035212', 'mgs': 0, 'flw2': 2.89, 'flw1': 0.26, 'flw0': 2.59, 'time': 36.6, 'compass': 76.08, 'pitch': 11.08, 'roll': 3.76}
{'lipoC2': 0.0, 'temp': 0.0, 'lipoC3S3': 11.76, 'state': 'normal', 'rot1': 117, 'rot0': 151, 'rot3': 0, 'rot2': 0, 'depth': -0.598, 'yaw': -66.26, 'datetime': '2018-12-18 20:29:16.244299', 'mgs': 0, 'flw2': 2.8, 'flw1': 0.0, 'flw0': 0.62, 'time': 36.81, 'compass': 78.11, 'pitch': 11.22, 'roll': 2.86}
{'lipoC2': 0.0, 'temp': 0.0, 'lipoC3S3': 12.12, 'state': 'normal', 'rot1': 118, 'rot0': 153, 'rot3': 0, 'rot2': 0, 'depth': 1.614, 'yaw': -63.71, 'datetime': '2018-12-18 20:29:16.450636', 'mgs': 0, 'flw2': 2.65, 'flw1': 0.47, 'flw0': 0.0, 'time': 37.02, 'compass': 80.66, 'pitch': 10.77, 'roll': 2.58}
{'lipoC2': 0.0, 'temp': 0.0, 'lipoC3S3': 11.94, 'state': 'normal', 'rot1': 118, 'rot0': 156, 'rot3': 0, 'rot2': 0, 'depth': 0.775, 'yaw': -59.03, 'datetime': '2018-12-18 20:29:16.659452', 'mgs': 0, 'flw2': 2.98, 'flw1': 0.0, 'flw0': 0.32, 'time': 37.22, 'compass': 85.34, 'pitch': 9.94, 'roll': 2.74}
{'lipoC2': 0.15, 'temp': 0.0, 'lipoC3S3': 11.77, 'state': 'normal', 'rot1': 119, 'rot0': 158, 'rot3': 0, 'rot2': 0, 'depth': -0.446, 'yaw': -53.61, 'datetime': '2018-12-18 20:29:16.872416', 'mgs': 0, 'flw2': 2.55, 'flw1': 0.0, 'flw0': 3.05, 'time': 37.43, 'compass': 90.76, 'pitch': 10.26, 'roll': 2.75}
{'lipoC2': 0.0, 'temp': 0.0, 'lipoC3S3': 11.93, 'state': 'normal', 'rot1': 122, 'rot0': 161, 'rot3': 0, 'rot2': 0, 'depth': 0.775, 'yaw': -50.24, 'datetime': '2018-12-18 20:29:17.083069', 'mgs': 0, 'flw2': 2.82, 'flw1': 0.41, 'flw0': 2.8, 'time': 37.64, 'compass': 94.13, 'pitch': 11.82, 'roll': 2.57}
{'lipoC2': 0.0, 'temp': 0.0, 'lipoC3S3': 11.93, 'state': 'normal', 'rot1': 124, 'rot0': 163, 'rot3': 0, 'rot2': 0, 'depth': 0.394, 'yaw': -48.27, 'datetime': '2018-12-18 20:29:17.294546', 'mgs': 0, 'flw2': 2.82, 'flw1': 0.0, 'flw0': 2.82, 'time': 37.85, 'compass': 96.1, 'pitch': 12.71, 'roll': 2.48}
{'lipoC2': 0.0, 'temp': 0.0, 'lipoC3S3': 11.79, 'state': 'normal', 'rot1': 126, 'rot0': 165, 'rot3': 0, 'rot2': 0, 'depth': 1.92, 'yaw': -47.16, 'datetime': '2018-12-18 20:29:17.504585', 'mgs': 0, 'flw2': 3.0, 'flw1': 0.18, 'flw0': 2.54, 'time': 38.06, 'compass': 97.21, 'pitch': 12.25, 'roll': 2.28}
{'lipoC2': 0.0, 'temp': 0.0, 'lipoC3S3': 12.12, 'state': 'normal', 'rot1': 129, 'rot0': 168, 'rot3': 0, 'rot2': 0, 'depth': 1.462, 'yaw': -46.45, 'datetime': '2018-12-18 20:29:17.707893', 'mgs': 0, 'flw2': 2.84, 'flw1': 0.21, 'flw0': 2.72, 'time': 38.27, 'compass': 97.92, 'pitch': 11.21, 'roll': 1.88}
{'lipoC2': 0.0, 'temp': 0.0, 'lipoC3S3': 12.13, 'state': 'normal', 'rot1': 131, 'rot0': 170, 'rot3': 0, 'rot2': 0, 'depth': 1.767, 'yaw': -45.96, 'datetime': '2018-12-18 20:29:17.919930', 'mgs': 0, 'flw2': 2.5, 'flw1': 0.09, 'flw0': 2.94, 'time': 38.48, 'compass': 98.41, 'pitch': 10.52, 'roll': 1.42}
{'lipoC2': 0.05, 'temp': 0.0, 'lipoC3S3': 11.72, 'state': 'normal', 'rot1': 133, 'rot0': 172, 'rot3': 0, 'rot2': 0, 'depth': 0.317, 'yaw': -45.65, 'datetime': '2018-12-18 20:29:18.133881', 'mgs': 0, 'flw2': 2.48, 'flw1': 0.09, 'flw0': 3.03, 'time': 38.69, 'compass': 98.72, 'pitch': 10.5, 'roll': 0.97}
{'lipoC2': 0.0, 'temp': 0.0, 'lipoC3S3': 12.08, 'state': 'normal', 'rot1': 135, 'rot0': 174, 'rot3': 0, 'rot2': 0, 'depth': 1.614, 'yaw': -45.34, 'datetime': '2018-12-18 20:29:18.336684', 'mgs': 0, 'flw2': 2.88, 'flw1': 0.0, 'flw0': 2.51, 'time': 38.9, 'compass': 99.03, 'pitch': 10.53, 'roll': 0.8}
{'lipoC2': 0.0, 'temp': 0.0, 'lipoC3S3': 12.13, 'state': 'normal', 'rot1': 137, 'rot0': 177, 'rot3': 0, 'rot2': 0, 'depth': 1.691, 'yaw': -45.32, 'datetime': '2018-12-18 20:29:18.549317', 'mgs': 0, 'flw2': 2.76, 'flw1': 0.0, 'flw0': 2.62, 'time': 39.11, 'compass': 99.05, 'pitch': 10.54, 'roll': 0.8}
{'lipoC2': 0.08, 'temp': 0.0, 'lipoC3S3': 11.72, 'state': 'normal', 'rot1': 140, 'rot0': 179, 'rot3': 0, 'rot2': 0, 'depth': 1.08, 'yaw': -45.5, 'datetime': '2018-12-18 20:29:18.757640', 'mgs': 0, 'flw2': 2.81, 'flw1': 0.0, 'flw0': 2.65, 'time': 39.32, 'compass': 98.87, 'pitch': 10.61, 'roll': 0.75}
{'lipoC2': 0.06, 'temp': 0.0, 'lipoC3S3': 11.96, 'state': 'normal', 'rot1': 142, 'rot0': 181, 'rot3': 0, 'rot2': 0, 'depth': -1.666, 'yaw': -45.68, 'datetime': '2018-12-18 20:29:18.967351', 'mgs': 0, 'flw2': 2.8, 'flw1': 0.0, 'flw0': 2.82, 'time': 39.53, 'compass': 98.69, 'pitch': 10.62, 'roll': 0.49}
{'lipoC2': 0.06, 'temp': 0.0, 'lipoC3S3': 11.96, 'state': 'normal', 'rot1': 144, 'rot0': 183, 'rot3': 0, 'rot2': 0, 'depth': 1.843, 'yaw': -45.68, 'datetime': '2018-12-18 20:29:19.179797', 'mgs': 0, 'flw2': 2.7, 'flw1': 0.47, 'flw0': 2.86, 'time': 39.74, 'compass': 98.69, 'pitch': 10.59, 'roll': 0.18}
{'lipoC2': 0.12, 'temp': 0.0, 'lipoC3S3': 11.73, 'state': 'normal', 'rot1': 146, 'rot0': 185, 'rot3': 0, 'rot2': 0, 'depth': 0.47, 'yaw': -45.3, 'datetime': '2018-12-18 20:29:19.386871', 'mgs': 0, 'flw2': 2.72, 'flw1': 0.0, 'flw0': 2.89, 'time': 39.95, 'compass': 99.07, 'pitch': 10.57, 'roll': -0.1}
{'lipoC2': 0.02, 'temp': 0.0, 'lipoC3S3': 11.76, 'state': 'normal', 'rot1': 149, 'rot0': 188, 'rot3': 0, 'rot2': 0, 'depth': 0.241, 'yaw': -44.68, 'datetime': '2018-12-18 20:29:19.595655', 'mgs': 0, 'flw2': 2.91, 'flw1': 0.0, 'flw0': 2.66, 'time': 40.16, 'compass': 99.69, 'pitch': 10.55, 'roll': -0.23}
{'lipoC2': 0.0, 'temp': 0.0, 'lipoC3S3': 12.13, 'state': 'normal', 'rot1': 151, 'rot0': 190, 'rot3': 0, 'rot2': 0, 'depth': -0.369, 'yaw': -44.13, 'datetime': '2018-12-18 20:29:19.807384', 'mgs': 0, 'flw2': 0.82, 'flw1': 0.18, 'flw0': 2.62, 'time': 40.37, 'compass': 100.24, 'pitch': 10.57, 'roll': -0.36}
{'lipoC2': 0.1, 'temp': 0.0, 'lipoC3S3': 11.92, 'state': 'normal', 'rot1': 154, 'rot0': 190, 'rot3': 0, 'rot2': 0, 'depth': 1.843, 'yaw': -45.04, 'datetime': '2018-12-18 20:29:20.015622', 'mgs': 0, 'flw2': 0.09, 'flw1': 0.0, 'flw0': 2.92, 'time': 40.58, 'compass': 99.33, 'pitch': 9.99, 'roll': -0.43}
{'lipoC2': 0.01, 'temp': 0.0, 'lipoC3S3': 12.01, 'state': 'normal', 'rot1': 156, 'rot0': 190, 'rot3': 0, 'rot2': 0, 'depth': -1.132, 'yaw': -48.19, 'datetime': '2018-12-18 20:29:20.226244', 'mgs': 0, 'flw2': 0.0, 'flw1': 0.44, 'flw0': 2.89, 'time': 40.78, 'compass': 96.18, 'pitch': 9.36, 'roll': -0.45}
{'lipoC2': 0.09, 'temp': 0.0, 'lipoC3S3': 11.93, 'state': 'normal', 'rot1': 158, 'rot0': 190, 'rot3': 0, 'rot2': 0, 'depth': 2.148, 'yaw': -52.78, 'datetime': '2018-12-18 20:29:20.432393', 'mgs': 0, 'flw2': 1.28, 'flw1': 0.0, 'flw0': 2.73, 'time': 40.99, 'compass': 91.59, 'pitch': 9.49, 'roll': -0.26}
{'lipoC2': 0.0, 'temp': 0.0, 'lipoC3S3': 11.93, 'state': 'normal', 'rot1': 161, 'rot0': 192, 'rot3': 0, 'rot2': 0, 'depth': 0.775, 'yaw': -57.16, 'datetime': '2018-12-18 20:29:20.642865', 'mgs': 0, 'flw2': 2.81, 'flw1': 0.38, 'flw0': 2.76, 'time': 41.2, 'compass': 87.21, 'pitch': 10.61, 'roll': 0.09}
{'lipoC2': 0.0, 'temp': 0.0, 'lipoC3S3': 12.13, 'state': 'normal', 'rot1': 163, 'rot0': 195, 'rot3': 0, 'rot2': 0, 'depth': 1.691, 'yaw': -59.78, 'datetime': '2018-12-18 20:29:20.862287', 'mgs': 0, 'flw2': 2.8, 'flw1': 0.0, 'flw0': 2.54, 'time': 41.41, 'compass': 84.59, 'pitch': 12.38, 'roll': 0.31}
{'lipoC2': 0.0, 'temp': 0.0, 'lipoC3S3': 12.19, 'state': 'normal', 'rot1': 167, 'rot0': 199, 'rot3': 0, 'rot2': 0, 'depth': -0.064, 'yaw': -61.71, 'datetime': '2018-12-18 20:29:21.165446', 'mgs': 0, 'flw2': 2.94, 'flw1': 0.0, 'flw0': 2.61, 'time': 41.72, 'compass': 82.66, 'pitch': 13.17, 'roll': 0.41}
{'lipoC2': 0.14, 'temp': 0.0, 'lipoC3S3': 11.87, 'state': 'normal', 'rot1': 169, 'rot0': 201, 'rot3': 0, 'rot2': 0, 'depth': -2.048, 'yaw': -62.5, 'datetime': '2018-12-18 20:29:21.373794', 'mgs': 0, 'flw2': 2.88, 'flw1': 0.0, 'flw0': 2.54, 'time': 41.93, 'compass': 81.87, 'pitch': 12.92, 'roll': 0.34}
{'lipoC2': 0.0, 'temp': 0.0, 'lipoC3S3': 11.94, 'state': 'normal', 'rot1': 172, 'rot0': 203, 'rot3': 0, 'rot2': 0, 'depth': 2.759, 'yaw': -63.1, 'datetime': '2018-12-18 20:29:21.583236', 'mgs': 0, 'flw2': 2.98, 'flw1': 0.0, 'flw0': 2.43, 'time': 42.14, 'compass': 81.27, 'pitch': 13.0, 'roll': 0.29}
{'lipoC2': 0.0, 'temp': 0.0, 'lipoC3S3': 12.02, 'state': 'normal', 'rot1': 174, 'rot0': 206, 'rot3': 0, 'rot2': 0, 'depth': 1.691, 'yaw': -63.3, 'datetime': '2018-12-18 20:29:21.801975', 'mgs': 0, 'flw2': 2.64, 'flw1': 0.56, 'flw0': 2.94, 'time': 42.35, 'compass': 81.06, 'pitch': 13.45, 'roll': 0.33}
{'lipoC2': 0.04, 'temp': 0.0, 'lipoC3S3': 11.75, 'state': 'normal', 'rot1': 176, 'rot0': 208, 'rot3': 0, 'rot2': 0, 'depth': 0.317, 'yaw': -63.31, 'datetime': '2018-12-18 20:29:22.015944', 'mgs': 0, 'flw2': 2.56, 'flw1': 0.47, 'flw0': 2.64, 'time': 42.56, 'compass': 81.06, 'pitch': 13.83, 'roll': 0.34}
{'lipoC2': 0.06, 'temp': 0.0, 'lipoC3S3': 11.96, 'state': 'normal', 'rot1': 179, 'rot0': 211, 'rot3': 0, 'rot2': 0, 'depth': -1.361, 'yaw': -63.34, 'datetime': '2018-12-18 20:29:22.220533', 'mgs': 0, 'flw2': 1.86, 'flw1': 0.5, 'flw0': 2.86, 'time': 42.77, 'compass': 81.03, 'pitch': 13.81, 'roll': 0.39}
