{'lipoC2': 7.67, 'temp': 23.69, 'lipoC3S3': 12.42, 'state': 'normal', 'rot1': 0, 'rot0': 0, 'rot3': 0, 'rot2': 0, 'depth': 2.301, 'yaw': 0.0, 'datetime': '2018-11-26 11:03:44.319042', 'mgs': 0, 'flw2': 0.0, 'flw1': 0.0, 'flw0': 0.0, 'time': 1.26, 'compass': -136.72, 'pitch': 0.66, 'roll': -5.12}
{'lipoC2': 7.66, 'temp': 23.75, 'lipoC3S3': 12.42, 'state': 'normal', 'rot1': 0, 'rot0': 0, 'rot3': 0, 'rot2': 0, 'depth': 2.377, 'yaw': 0.22, 'datetime': '2018-11-26 11:03:44.527951', 'mgs': 0, 'flw2': 0.0, 'flw1': 0.0, 'flw0': 0.0, 'time': 1.47, 'compass': -136.49, 'pitch': 0.57, 'roll': -5.02}
{'lipoC2': 7.67, 'temp': 23.75, 'lipoC3S3': 12.29, 'state': 'normal', 'rot1': 0, 'rot0': 0, 'rot3': 0, 'rot2': 0, 'depth': 2.225, 'yaw': 0.35, 'datetime': '2018-11-26 11:03:44.736784', 'mgs': 0, 'flw2': 5.9, 'flw1': 0.0, 'flw0': 6.07, 'time': 1.68, 'compass': -136.37, 'pitch': 0.65, 'roll': -5.04}
{'lipoC2': 7.67, 'temp': 23.75, 'lipoC3S3': 12.42, 'state': 'normal', 'rot1': 1, 'rot0': 1, 'rot3': 0, 'rot2': 0, 'depth': 2.377, 'yaw': 0.18, 'datetime': '2018-11-26 11:03:44.942964', 'mgs': 0, 'flw2': 0.0, 'flw1': 0.0, 'flw0': 0.0, 'time': 1.88, 'compass': -136.53, 'pitch': 0.73, 'roll': -3.73}
{'lipoC2': 7.67, 'temp': 23.63, 'lipoC3S3': 12.43, 'state': 'normal', 'rot1': 1, 'rot0': 1, 'rot3': 0, 'rot2': 0, 'depth': 2.377, 'yaw': -0.35, 'datetime': '2018-11-26 11:03:45.152395', 'mgs': 0, 'flw2': 0.0, 'flw1': 0.0, 'flw0': 0.0, 'time': 2.1, 'compass': -137.07, 'pitch': 0.7, 'roll': -3.08}
{'lipoC2': 7.66, 'temp': 23.81, 'lipoC3S3': 12.39, 'state': 'normal', 'rot1': 2, 'rot0': 2, 'rot3': 0, 'rot2': 0, 'depth': 2.377, 'yaw': -0.87, 'datetime': '2018-11-26 11:03:45.360349', 'mgs': 0, 'flw2': 6.01, 'flw1': 0.0, 'flw0': 6.3, 'time': 2.3, 'compass': -137.59, 'pitch': 0.81, 'roll': -2.95}
{'lipoC2': 7.67, 'temp': 23.88, 'lipoC3S3': 12.22, 'state': 'normal', 'rot1': 5, 'rot0': 5, 'rot3': 0, 'rot2': 0, 'depth': 2.377, 'yaw': -1.44, 'datetime': '2018-11-26 11:03:45.571391', 'mgs': 0, 'flw2': 5.79, 'flw1': 0.0, 'flw0': 6.19, 'time': 2.51, 'compass': -138.16, 'pitch': 0.91, 'roll': -0.23}
{'lipoC2': 7.67, 'temp': 23.88, 'lipoC3S3': 12.37, 'state': 'normal', 'rot1': 8, 'rot0': 8, 'rot3': 0, 'rot2': 0, 'depth': 3.369, 'yaw': -1.48, 'datetime': '2018-11-26 11:03:45.781341', 'mgs': 0, 'flw2': 5.86, 'flw1': 0.0, 'flw0': 3.42, 'time': 2.72, 'compass': -138.19, 'pitch': 0.91, 'roll': 4.69}
{'lipoC2': 7.67, 'temp': 23.88, 'lipoC3S3': 12.18, 'state': 'normal', 'rot1': 12, 'rot0': 10, 'rot3': 0, 'rot2': 1, 'depth': 2.377, 'yaw': -0.18, 'datetime': '2018-11-26 11:03:45.991333', 'mgs': 0, 'flw2': 5.93, 'flw1': 4.31, 'flw0': 6.18, 'time': 2.93, 'compass': -136.9, 'pitch': 0.67, 'roll': 8.89}
{'lipoC2': 7.68, 'temp': 23.88, 'lipoC3S3': 12.35, 'state': 'normal', 'rot1': 15, 'rot0': 14, 'rot3': 1, 'rot2': 2, 'depth': 3.14, 'yaw': 0.69, 'datetime': '2018-11-26 11:03:46.201765', 'mgs': 0, 'flw2': 6.25, 'flw1': 0.0, 'flw0': 5.96, 'time': 3.14, 'compass': -136.03, 'pitch': 0.19, 'roll': 13.11}
{'lipoC2': 7.67, 'temp': 23.81, 'lipoC3S3': 12.34, 'state': 'normal', 'rot1': 18, 'rot0': 17, 'rot3': 1, 'rot2': 2, 'depth': 3.827, 'yaw': 1.1, 'datetime': '2018-11-26 11:03:46.411474', 'mgs': 0, 'flw2': 6.02, 'flw1': 0.0, 'flw0': 6.13, 'time': 3.35, 'compass': -135.61, 'pitch': 0.06, 'roll': 15.58}
{'lipoC2': 7.68, 'temp': 23.81, 'lipoC3S3': 12.35, 'state': 'normal', 'rot1': 21, 'rot0': 20, 'rot3': 2, 'rot2': 3, 'depth': 3.598, 'yaw': 1.23, 'datetime': '2018-11-26 11:03:46.620040', 'mgs': 0, 'flw2': 3.43, 'flw1': 4.8, 'flw0': 6.02, 'time': 3.56, 'compass': -135.49, 'pitch': -0.09, 'roll': 14.76}
{'lipoC2': 7.68, 'temp': 23.81, 'lipoC3S3': 12.37, 'state': 'normal', 'rot1': 24, 'rot0': 24, 'rot3': 3, 'rot2': 4, 'depth': 1.309, 'yaw': -0.05, 'datetime': '2018-11-26 11:03:46.829599', 'mgs': 0, 'flw2': 3.49, 'flw1': 0.0, 'flw0': 5.91, 'time': 3.77, 'compass': -136.77, 'pitch': -0.2, 'roll': 10.59}
{'lipoC2': 7.68, 'temp': 23.81, 'lipoC3S3': 12.31, 'state': 'normal', 'rot1': 27, 'rot0': 27, 'rot3': 3, 'rot2': 4, 'depth': 2.988, 'yaw': -2.01, 'datetime': '2018-11-26 11:03:47.039379', 'mgs': 0, 'flw2': 6.25, 'flw1': 0.0, 'flw0': 6.03, 'time': 3.98, 'compass': -138.73, 'pitch': -0.03, 'roll': 5.21}
{'lipoC2': 7.67, 'temp': 23.81, 'lipoC3S3': 12.26, 'state': 'normal', 'rot1': 30, 'rot0': 29, 'rot3': 3, 'rot2': 5, 'depth': 1.767, 'yaw': -3.08, 'datetime': '2018-11-26 11:03:47.249295', 'mgs': 0, 'flw2': 5.59, 'flw1': 3.9, 'flw0': 3.58, 'time': 4.19, 'compass': -139.8, 'pitch': -0.08, 'roll': 3.08}
{'lipoC2': 7.68, 'temp': 23.75, 'lipoC3S3': 12.22, 'state': 'normal', 'rot1': 34, 'rot0': 32, 'rot3': 4, 'rot2': 6, 'depth': 1.767, 'yaw': -2.73, 'datetime': '2018-11-26 11:03:47.459882', 'mgs': 0, 'flw2': 5.62, 'flw1': 3.57, 'flw0': 3.54, 'time': 4.4, 'compass': -139.45, 'pitch': -0.31, 'roll': 3.04}
{'lipoC2': 7.68, 'temp': 23.88, 'lipoC3S3': 12.26, 'state': 'normal', 'rot1': 37, 'rot0': 35, 'rot3': 5, 'rot2': 7, 'depth': 1.767, 'yaw': -1.29, 'datetime': '2018-11-26 11:03:47.668851', 'mgs': 0, 'flw2': 5.77, 'flw1': 3.37, 'flw0': 3.52, 'time': 4.61, 'compass': -138.01, 'pitch': -0.42, 'roll': 3.4}
{'lipoC2': 7.68, 'temp': 23.88, 'lipoC3S3': 12.19, 'state': 'normal', 'rot1': 40, 'rot0': 37, 'rot3': 5, 'rot2': 8, 'depth': 1.92, 'yaw': 0.56, 'datetime': '2018-11-26 11:03:47.877943', 'mgs': 0, 'flw2': 6.01, 'flw1': 0.0, 'flw0': 6.21, 'time': 4.82, 'compass': -136.15, 'pitch': -0.4, 'roll': 4.57}
{'lipoC2': 7.67, 'temp': 23.88, 'lipoC3S3': 12.33, 'state': 'normal', 'rot1': 44, 'rot0': 41, 'rot3': 5, 'rot2': 8, 'depth': 3.751, 'yaw': 1.67, 'datetime': '2018-11-26 11:03:48.086834', 'mgs': 0, 'flw2': 6.05, 'flw1': 0.0, 'flw0': 5.94, 'time': 5.03, 'compass': -135.04, 'pitch': -0.25, 'roll': 6.54}
{'lipoC2': 7.67, 'temp': 23.88, 'lipoC3S3': 12.26, 'state': 'normal', 'rot1': 46, 'rot0': 44, 'rot3': 5, 'rot2': 8, 'depth': 2.072, 'yaw': 1.58, 'datetime': '2018-11-26 11:03:48.296899', 'mgs': 0, 'flw2': 3.25, 'flw1': 0.0, 'flw0': 5.91, 'time': 5.24, 'compass': -135.14, 'pitch': -0.17, 'roll': 8.08}
{'lipoC2': 7.68, 'temp': 23.88, 'lipoC3S3': 12.16, 'state': 'normal', 'rot1': 49, 'rot0': 47, 'rot3': 5, 'rot2': 8, 'depth': 2.377, 'yaw': -0.23, 'datetime': '2018-11-26 11:03:48.507629', 'mgs': 0, 'flw2': 5.83, 'flw1': 0.0, 'flw0': 6.16, 'time': 5.45, 'compass': -136.94, 'pitch': 0.1, 'roll': 8.76}
{'lipoC2': 7.68, 'temp': 23.88, 'lipoC3S3': 12.33, 'state': 'normal', 'rot1': 53, 'rot0': 50, 'rot3': 5, 'rot2': 8, 'depth': 3.445, 'yaw': -2.0, 'datetime': '2018-11-26 11:03:48.716075', 'mgs': 0, 'flw2': 6.03, 'flw1': 0.0, 'flw0': 5.88, 'time': 5.66, 'compass': -138.72, 'pitch': 0.42, 'roll': 9.98}
{'lipoC2': 7.67, 'temp': 23.88, 'lipoC3S3': 12.34, 'state': 'normal', 'rot1': 56, 'rot0': 53, 'rot3': 5, 'rot2': 8, 'depth': 3.522, 'yaw': -3.08, 'datetime': '2018-11-26 11:03:48.925535', 'mgs': 0, 'flw2': 5.94, 'flw1': 0.0, 'flw0': 3.5, 'time': 5.87, 'compass': -139.79, 'pitch': 0.56, 'roll': 11.41}
{'lipoC2': 7.67, 'temp': 23.88, 'lipoC3S3': 12.34, 'state': 'normal', 'rot1': 60, 'rot0': 56, 'rot3': 6, 'rot2': 8, 'depth': 2.225, 'yaw': -2.8, 'datetime': '2018-11-26 11:03:49.137000', 'mgs': 0, 'flw2': 5.97, 'flw1': 4.78, 'flw0': 3.66, 'time': 6.08, 'compass': -139.51, 'pitch': 0.15, 'roll': 11.98}
{'lipoC2': 7.68, 'temp': 23.88, 'lipoC3S3': 12.21, 'state': 'normal', 'rot1': 63, 'rot0': 59, 'rot3': 7, 'rot2': 10, 'depth': 2.53, 'yaw': -1.85, 'datetime': '2018-11-26 11:03:49.346538', 'mgs': 0, 'flw2': 5.9, 'flw1': 4.28, 'flw0': 3.45, 'time': 6.29, 'compass': -138.57, 'pitch': -0.72, 'roll': 12.2}
{'lipoC2': 7.68, 'temp': 23.88, 'lipoC3S3': 12.19, 'state': 'normal', 'rot1': 67, 'rot0': 61, 'rot3': 8, 'rot2': 11, 'depth': 2.606, 'yaw': -0.74, 'datetime': '2018-11-26 11:03:49.557777', 'mgs': 0, 'flw2': 5.83, 'flw1': 3.9, 'flw0': 3.52, 'time': 6.5, 'compass': -137.46, 'pitch': -1.64, 'roll': 11.55}
{'lipoC2': 7.67, 'temp': 23.94, 'lipoC3S3': 12.34, 'state': 'normal', 'rot1': 70, 'rot0': 64, 'rot3': 8, 'rot2': 11, 'depth': 2.148, 'yaw': 1.15, 'datetime': '2018-11-26 11:03:49.768411', 'mgs': 0, 'flw2': 6.09, 'flw1': 0.0, 'flw0': 6.26, 'time': 6.71, 'compass': -135.56, 'pitch': -1.8, 'roll': 9.35}
{'lipoC2': 7.68, 'temp': 23.88, 'lipoC3S3': 12.1, 'state': 'normal', 'rot1': 73, 'rot0': 67, 'rot3': 8, 'rot2': 12, 'depth': 1.996, 'yaw': 2.98, 'datetime': '2018-11-26 11:03:49.976953', 'mgs': 0, 'flw2': 5.99, 'flw1': 5.33, 'flw0': 6.02, 'time': 6.92, 'compass': -133.74, 'pitch': -1.51, 'roll': 7.24}
{'lipoC2': 7.67, 'temp': 23.94, 'lipoC3S3': 12.19, 'state': 'normal', 'rot1': 76, 'rot0': 71, 'rot3': 9, 'rot2': 13, 'depth': 1.92, 'yaw': 3.64, 'datetime': '2018-11-26 11:03:50.188461', 'mgs': 0, 'flw2': 3.31, 'flw1': 4.19, 'flw0': 6.1, 'time': 7.13, 'compass': -133.08, 'pitch': -1.19, 'roll': 6.98}
{'lipoC2': 7.68, 'temp': 23.94, 'lipoC3S3': 12.23, 'state': 'normal', 'rot1': 79, 'rot0': 74, 'rot3': 10, 'rot2': 13, 'depth': 1.996, 'yaw': 2.38, 'datetime': '2018-11-26 11:03:50.400176', 'mgs': 0, 'flw2': 3.3, 'flw1': 0.0, 'flw0': 6.03, 'time': 7.34, 'compass': -134.34, 'pitch': -1.01, 'roll': 6.68}
{'lipoC2': 7.68, 'temp': 23.94, 'lipoC3S3': 12.35, 'state': 'normal', 'rot1': 82, 'rot0': 77, 'rot3': 10, 'rot2': 13, 'depth': 1.996, 'yaw': 0.17, 'datetime': '2018-11-26 11:03:50.609813', 'mgs': 0, 'flw2': 3.36, 'flw1': 0.0, 'flw0': 6.15, 'time': 7.55, 'compass': -136.55, 'pitch': -0.57, 'roll': 6.36}
{'lipoC2': 7.67, 'temp': 23.94, 'lipoC3S3': 12.34, 'state': 'normal', 'rot1': 85, 'rot0': 81, 'rot3': 10, 'rot2': 13, 'depth': 1.996, 'yaw': -2.41, 'datetime': '2018-11-26 11:03:50.820948', 'mgs': 0, 'flw2': 5.91, 'flw1': 0.0, 'flw0': 6.16, 'time': 7.77, 'compass': -139.12, 'pitch': -0.06, 'roll': 6.74}
{'lipoC2': 7.67, 'temp': 23.94, 'lipoC3S3': 12.27, 'state': 'normal', 'rot1': 88, 'rot0': 84, 'rot3': 10, 'rot2': 13, 'depth': 2.072, 'yaw': -4.28, 'datetime': '2018-11-26 11:03:51.031416', 'mgs': 0, 'flw2': 5.83, 'flw1': 0.0, 'flw0': 3.52, 'time': 7.97, 'compass': -141.0, 'pitch': 0.17, 'roll': 8.07}
{'lipoC2': 7.68, 'temp': 23.94, 'lipoC3S3': 12.34, 'state': 'normal', 'rot1': 91, 'rot0': 86, 'rot3': 10, 'rot2': 13, 'depth': 3.522, 'yaw': -4.54, 'datetime': '2018-11-26 11:03:51.240909', 'mgs': 0, 'flw2': 5.96, 'flw1': 0.0, 'flw0': 3.34, 'time': 8.19, 'compass': -141.25, 'pitch': 0.04, 'roll': 9.14}
{'lipoC2': 7.68, 'temp': 23.94, 'lipoC3S3': 12.19, 'state': 'normal', 'rot1': 95, 'rot0': 89, 'rot3': 10, 'rot2': 13, 'depth': 2.148, 'yaw': -3.15, 'datetime': '2018-11-26 11:03:51.452555', 'mgs': 0, 'flw2': 5.68, 'flw1': 0.0, 'flw0': 3.47, 'time': 8.4, 'compass': -139.87, 'pitch': -0.24, 'roll': 10.01}
{'lipoC2': 7.68, 'temp': 23.94, 'lipoC3S3': 12.31, 'state': 'normal', 'rot1': 98, 'rot0': 91, 'rot3': 10, 'rot2': 13, 'depth': 2.911, 'yaw': -1.07, 'datetime': '2018-11-26 11:03:51.664077', 'mgs': 0, 'flw2': 5.75, 'flw1': 0.0, 'flw0': 3.48, 'time': 8.61, 'compass': -137.78, 'pitch': -0.47, 'roll': 10.61}
{'lipoC2': 7.68, 'temp': 23.94, 'lipoC3S3': 12.23, 'state': 'normal', 'rot1': 101, 'rot0': 94, 'rot3': 10, 'rot2': 13, 'depth': 2.759, 'yaw': 1.74, 'datetime': '2018-11-26 11:03:51.873182', 'mgs': 0, 'flw2': 5.77, 'flw1': 0.0, 'flw0': 3.56, 'time': 8.82, 'compass': -134.97, 'pitch': -0.67, 'roll': 10.9}
{'lipoC2': 7.68, 'temp': 23.94, 'lipoC3S3': 12.34, 'state': 'normal', 'rot1': 104, 'rot0': 97, 'rot3': 10, 'rot2': 13, 'depth': 3.064, 'yaw': 4.43, 'datetime': '2018-11-26 11:03:52.084141', 'mgs': 0, 'flw2': 3.38, 'flw1': 0.0, 'flw0': 5.85, 'time': 9.03, 'compass': -132.29, 'pitch': -0.66, 'roll': 10.97}
{'lipoC2': 7.68, 'temp': 23.94, 'lipoC3S3': 12.3, 'state': 'normal', 'rot1': 107, 'rot0': 101, 'rot3': 10, 'rot2': 14, 'depth': 3.598, 'yaw': 4.96, 'datetime': '2018-11-26 11:03:52.295570', 'mgs': 0, 'flw2': 3.48, 'flw1': 3.81, 'flw0': 5.94, 'time': 9.24, 'compass': -131.76, 'pitch': -0.37, 'roll': 10.79}
{'lipoC2': 7.68, 'temp': 23.94, 'lipoC3S3': 12.22, 'state': 'normal', 'rot1': 109, 'rot0': 104, 'rot3': 11, 'rot2': 15, 'depth': 2.225, 'yaw': 4.04, 'datetime': '2018-11-26 11:03:52.506338', 'mgs': 0, 'flw2': 3.32, 'flw1': 0.0, 'flw0': 5.93, 'time': 9.45, 'compass': -132.67, 'pitch': -0.1, 'roll': 11.08}
{'lipoC2': 7.67, 'temp': 23.94, 'lipoC3S3': 12.34, 'state': 'normal', 'rot1': 112, 'rot0': 107, 'rot3': 11, 'rot2': 15, 'depth': 2.225, 'yaw': 2.37, 'datetime': '2018-11-26 11:03:52.718128', 'mgs': 0, 'flw2': 3.42, 'flw1': 0.0, 'flw0': 6.14, 'time': 9.66, 'compass': -134.34, 'pitch': 0.08, 'roll': 10.89}
{'lipoC2': 7.68, 'temp': 23.94, 'lipoC3S3': 12.22, 'state': 'normal', 'rot1': 115, 'rot0': 110, 'rot3': 11, 'rot2': 15, 'depth': 2.225, 'yaw': 0.18, 'datetime': '2018-11-26 11:03:52.934041', 'mgs': 0, 'flw2': 3.38, 'flw1': 0.0, 'flw0': 5.93, 'time': 9.88, 'compass': -136.54, 'pitch': -0.02, 'roll': 9.61}
{'lipoC2': 7.68, 'temp': 23.94, 'lipoC3S3': 12.31, 'state': 'normal', 'rot1': 117, 'rot0': 114, 'rot3': 11, 'rot2': 15, 'depth': 3.979, 'yaw': -2.24, 'datetime': '2018-11-26 11:03:53.140237', 'mgs': 0, 'flw2': 3.54, 'flw1': 4.8, 'flw0': 5.82, 'time': 10.09, 'compass': -138.96, 'pitch': -0.47, 'roll': 8.13}
{'lipoC2': 7.68, 'temp': 23.94, 'lipoC3S3': 12.23, 'state': 'normal', 'rot1': 120, 'rot0': 116, 'rot3': 12, 'rot2': 16, 'depth': 2.682, 'yaw': -4.47, 'datetime': '2018-11-26 11:03:53.351479', 'mgs': 0, 'flw2': 5.68, 'flw1': 3.69, 'flw0': 3.45, 'time': 10.3, 'compass': -141.19, 'pitch': -1.26, 'roll': 8.07}
{'lipoC2': 7.67, 'temp': 23.94, 'lipoC3S3': 12.23, 'state': 'normal', 'rot1': 123, 'rot0': 119, 'rot3': 12, 'rot2': 16, 'depth': 2.148, 'yaw': -4.31, 'datetime': '2018-11-26 11:03:53.566791', 'mgs': 0, 'flw2': 5.69, 'flw1': 0.0, 'flw0': 3.61, 'time': 10.51, 'compass': -141.02, 'pitch': -1.82, 'roll': 8.81}
{'lipoC2': 7.68, 'temp': 23.94, 'lipoC3S3': 12.29, 'state': 'normal', 'rot1': 126, 'rot0': 122, 'rot3': 12, 'rot2': 16, 'depth': 2.682, 'yaw': -2.64, 'datetime': '2018-11-26 11:03:53.780756', 'mgs': 0, 'flw2': 5.7, 'flw1': 0.0, 'flw0': 3.5, 'time': 10.72, 'compass': -139.36, 'pitch': -1.98, 'roll': 8.94}
{'lipoC2': 7.67, 'temp': 23.94, 'lipoC3S3': 12.33, 'state': 'normal', 'rot1': 130, 'rot0': 124, 'rot3': 12, 'rot2': 16, 'depth': 2.988, 'yaw': -0.13, 'datetime': '2018-11-26 11:03:53.990302', 'mgs': 0, 'flw2': 5.96, 'flw1': 0.0, 'flw0': 3.65, 'time': 10.93, 'compass': -136.85, 'pitch': -2.11, 'roll': 8.53}
{'lipoC2': 7.67, 'temp': 23.94, 'lipoC3S3': 12.33, 'state': 'normal', 'rot1': 133, 'rot0': 127, 'rot3': 13, 'rot2': 17, 'depth': 2.301, 'yaw': 2.76, 'datetime': '2018-11-26 11:03:54.201393', 'mgs': 0, 'flw2': 3.3, 'flw1': 3.9, 'flw0': 6.21, 'time': 11.14, 'compass': -133.95, 'pitch': -2.07, 'roll': 8.51}
{'lipoC2': 7.68, 'temp': 23.94, 'lipoC3S3': 12.33, 'state': 'normal', 'rot1': 136, 'rot0': 130, 'rot3': 14, 'rot2': 18, 'depth': 3.217, 'yaw': 3.86, 'datetime': '2018-11-26 11:03:54.411995', 'mgs': 0, 'flw2': 3.41, 'flw1': 0.0, 'flw0': 5.96, 'time': 11.35, 'compass': -132.86, 'pitch': -1.83, 'roll': 9.95}
{'lipoC2': 7.67, 'temp': 23.94, 'lipoC3S3': 12.21, 'state': 'normal', 'rot1': 139, 'rot0': 133, 'rot3': 14, 'rot2': 18, 'depth': 2.148, 'yaw': 3.01, 'datetime': '2018-11-26 11:03:54.624333', 'mgs': 0, 'flw2': 3.32, 'flw1': 0.0, 'flw0': 5.9, 'time': 11.57, 'compass': -133.7, 'pitch': -1.67, 'roll': 10.87}
{'lipoC2': 7.68, 'temp': 23.94, 'lipoC3S3': 12.31, 'state': 'normal', 'rot1': 141, 'rot0': 137, 'rot3': 14, 'rot2': 18, 'depth': 3.217, 'yaw': 1.02, 'datetime': '2018-11-26 11:03:54.834454', 'mgs': 0, 'flw2': 3.5, 'flw1': 0.0, 'flw0': 5.9, 'time': 11.78, 'compass': -135.7, 'pitch': -1.69, 'roll': 10.63}
{'lipoC2': 7.67, 'temp': 23.94, 'lipoC3S3': 12.3, 'state': 'normal', 'rot1': 144, 'rot0': 140, 'rot3': 14, 'rot2': 18, 'depth': 2.988, 'yaw': -1.69, 'datetime': '2018-11-26 11:03:55.044531', 'mgs': 0, 'flw2': 3.41, 'flw1': 7.44, 'flw0': 6.05, 'time': 11.99, 'compass': -138.41, 'pitch': -1.8, 'roll': 10.2}
{'lipoC2': 7.68, 'temp': 23.94, 'lipoC3S3': 12.23, 'state': 'normal', 'rot1': 147, 'rot0': 143, 'rot3': 15, 'rot2': 20, 'depth': 4.132, 'yaw': -4.4, 'datetime': '2018-11-26 11:03:55.256084', 'mgs': 0, 'flw2': 6.09, 'flw1': 5.95, 'flw0': 3.48, 'time': 12.2, 'compass': -141.12, 'pitch': -2.61, 'roll': 10.86}
{'lipoC2': 7.68, 'temp': 23.94, 'lipoC3S3': 12.3, 'state': 'normal', 'rot1': 151, 'rot0': 145, 'rot3': 16, 'rot2': 21, 'depth': 3.445, 'yaw': -5.19, 'datetime': '2018-11-26 11:03:55.468865', 'mgs': 0, 'flw2': 6.1, 'flw1': 5.19, 'flw0': 3.58, 'time': 12.41, 'compass': -141.91, 'pitch': -3.93, 'roll': 12.39}
{'lipoC2': 7.67, 'temp': 23.94, 'lipoC3S3': 12.17, 'state': 'normal', 'rot1': 154, 'rot0': 148, 'rot3': 17, 'rot2': 22, 'depth': 2.225, 'yaw': -4.3, 'datetime': '2018-11-26 11:03:55.679252', 'mgs': 0, 'flw2': 5.65, 'flw1': 0.0, 'flw0': 3.54, 'time': 12.62, 'compass': -141.02, 'pitch': -4.74, 'roll': 13.17}
{'lipoC2': 7.67, 'temp': 23.94, 'lipoC3S3': 12.31, 'state': 'normal', 'rot1': 157, 'rot0': 150, 'rot3': 17, 'rot2': 22, 'depth': 3.674, 'yaw': -2.3, 'datetime': '2018-11-26 11:03:55.890520', 'mgs': 0, 'flw2': 5.88, 'flw1': 0.0, 'flw0': 3.53, 'time': 12.83, 'compass': -139.02, 'pitch': -4.68, 'roll': 12.02}
{'lipoC2': 7.68, 'temp': 24.0, 'lipoC3S3': 12.3, 'state': 'normal', 'rot1': 161, 'rot0': 153, 'rot3': 17, 'rot2': 23, 'depth': 3.674, 'yaw': -0.15, 'datetime': '2018-11-26 11:03:56.100742', 'mgs': 0, 'flw2': 6.07, 'flw1': 4.63, 'flw0': 3.53, 'time': 13.05, 'compass': -136.87, 'pitch': -4.32, 'roll': 10.63}
{'lipoC2': 7.67, 'temp': 23.94, 'lipoC3S3': 12.17, 'state': 'normal', 'rot1': 164, 'rot0': 155, 'rot3': 18, 'rot2': 24, 'depth': 2.072, 'yaw': 2.37, 'datetime': '2018-11-26 11:03:56.319015', 'mgs': 0, 'flw2': 5.63, 'flw1': 0.0, 'flw0': 3.53, 'time': 13.26, 'compass': -134.35, 'pitch': -3.95, 'roll': 10.61}
{'lipoC2': 7.67, 'temp': 23.94, 'lipoC3S3': 12.31, 'state': 'normal', 'rot1': 167, 'rot0': 159, 'rot3': 18, 'rot2': 24, 'depth': 1.996, 'yaw': 4.47, 'datetime': '2018-11-26 11:03:56.524538', 'mgs': 0, 'flw2': 3.32, 'flw1': 0.0, 'flw0': 6.16, 'time': 13.47, 'compass': -132.25, 'pitch': -3.46, 'roll': 9.75}
{'lipoC2': 7.67, 'temp': 24.06, 'lipoC3S3': 12.3, 'state': 'normal', 'rot1': 170, 'rot0': 162, 'rot3': 18, 'rot2': 24, 'depth': 2.911, 'yaw': 3.74, 'datetime': '2018-11-26 11:03:56.727630', 'mgs': 0, 'flw2': 3.43, 'flw1': 0.0, 'flw0': 5.85, 'time': 13.68, 'compass': -132.98, 'pitch': -2.93, 'roll': 8.6}
{'lipoC2': 7.67, 'temp': 23.88, 'lipoC3S3': 12.31, 'state': 'normal', 'rot1': 172, 'rot0': 165, 'rot3': 18, 'rot2': 24, 'depth': 2.225, 'yaw': 1.27, 'datetime': '2018-11-26 11:03:56.939563', 'mgs': 0, 'flw2': 3.37, 'flw1': 4.78, 'flw0': 6.1, 'time': 13.89, 'compass': -135.44, 'pitch': -2.79, 'roll': 8.2}
{'lipoC2': 7.67, 'temp': 23.88, 'lipoC3S3': 12.23, 'state': 'normal', 'rot1': 175, 'rot0': 168, 'rot3': 19, 'rot2': 25, 'depth': 2.072, 'yaw': -2.06, 'datetime': '2018-11-26 11:03:57.148426', 'mgs': 0, 'flw2': 3.31, 'flw1': 3.63, 'flw0': 5.98, 'time': 14.1, 'compass': -138.77, 'pitch': -3.15, 'roll': 8.78}
{'lipoC2': 7.67, 'temp': 23.94, 'lipoC3S3': 12.29, 'state': 'normal', 'rot1': 178, 'rot0': 171, 'rot3': 19, 'rot2': 26, 'depth': 2.148, 'yaw': -5.48, 'datetime': '2018-11-26 11:03:57.368424', 'mgs': 0, 'flw2': 5.71, 'flw1': 0.0, 'flw0': 3.34, 'time': 14.31, 'compass': -142.2, 'pitch': -3.36, 'roll': 9.95}
{'lipoC2': 7.68, 'temp': 23.94, 'lipoC3S3': 12.3, 'state': 'normal', 'rot1': 181, 'rot0': 174, 'rot3': 20, 'rot2': 26, 'depth': 3.751, 'yaw': -6.66, 'datetime': '2018-11-26 11:03:57.580049', 'mgs': 0, 'flw2': 6.05, 'flw1': 6.86, 'flw0': 3.58, 'time': 14.52, 'compass': -143.38, 'pitch': -3.3, 'roll': 10.13}
{'lipoC2': 7.67, 'temp': 23.94, 'lipoC3S3': 12.13, 'state': 'normal', 'rot1': 185, 'rot0': 177, 'rot3': 21, 'rot2': 27, 'depth': 2.225, 'yaw': -6.19, 'datetime': '2018-11-26 11:03:57.791512', 'mgs': 0, 'flw2': 5.73, 'flw1': 5.39, 'flw0': 3.52, 'time': 14.74, 'compass': -142.91, 'pitch': -3.39, 'roll': 10.95}
{'lipoC2': 7.67, 'temp': 24.0, 'lipoC3S3': 12.33, 'state': 'normal', 'rot1': 188, 'rot0': 179, 'rot3': 21, 'rot2': 28, 'depth': 2.301, 'yaw': -5.02, 'datetime': '2018-11-26 11:03:58.001773', 'mgs': 0, 'flw2': 5.79, 'flw1': 0.0, 'flw0': 3.69, 'time': 14.95, 'compass': -141.73, 'pitch': -3.5, 'roll': 12.48}
{'lipoC2': 7.67, 'temp': 23.94, 'lipoC3S3': 12.29, 'state': 'normal', 'rot1': 191, 'rot0': 182, 'rot3': 21, 'rot2': 28, 'depth': 2.911, 'yaw': -2.82, 'datetime': '2018-11-26 11:03:58.212318', 'mgs': 0, 'flw2': 6.04, 'flw1': 7.32, 'flw0': 3.69, 'time': 15.16, 'compass': -139.54, 'pitch': -3.36, 'roll': 12.76}
{'lipoC2': 7.67, 'temp': 24.0, 'lipoC3S3': 12.3, 'state': 'normal', 'rot1': 194, 'rot0': 184, 'rot3': 22, 'rot2': 29, 'depth': 2.682, 'yaw': -0.29, 'datetime': '2018-11-26 11:03:58.424400', 'mgs': 0, 'flw2': 5.99, 'flw1': 5.57, 'flw0': 3.66, 'time': 15.37, 'compass': -137.01, 'pitch': -3.54, 'roll': 12.99}
{'lipoC2': 7.67, 'temp': 23.94, 'lipoC3S3': 12.22, 'state': 'normal', 'rot1': 198, 'rot0': 187, 'rot3': 22, 'rot2': 30, 'depth': 2.148, 'yaw': 2.31, 'datetime': '2018-11-26 11:03:58.635549', 'mgs': 0, 'flw2': 3.23, 'flw1': 0.0, 'flw0': 6.07, 'time': 15.58, 'compass': -134.41, 'pitch': -3.83, 'roll': 13.52}
{'lipoC2': 7.68, 'temp': 23.94, 'lipoC3S3': 12.29, 'state': 'normal', 'rot1': 201, 'rot0': 190, 'rot3': 22, 'rot2': 30, 'depth': 2.911, 'yaw': 3.34, 'datetime': '2018-11-26 11:03:58.844737', 'mgs': 0, 'flw2': 3.37, 'flw1': 0.0, 'flw0': 5.91, 'time': 15.79, 'compass': -133.38, 'pitch': -3.55, 'roll': 12.88}
{'lipoC2': 7.67, 'temp': 23.94, 'lipoC3S3': 12.23, 'state': 'normal', 'rot1': 203, 'rot0': 193, 'rot3': 22, 'rot2': 30, 'depth': 2.072, 'yaw': 2.24, 'datetime': '2018-11-26 11:03:59.056922', 'mgs': 0, 'flw2': 3.32, 'flw1': 0.0, 'flw0': 6.01, 'time': 16.0, 'compass': -134.47, 'pitch': -2.86, 'roll': 11.44}
{'lipoC2': 7.68, 'temp': 23.94, 'lipoC3S3': 12.22, 'state': 'normal', 'rot1': 206, 'rot0': 196, 'rot3': 22, 'rot2': 30, 'depth': 2.072, 'yaw': -0.05, 'datetime': '2018-11-26 11:03:59.268885', 'mgs': 0, 'flw2': 3.31, 'flw1': 0.0, 'flw0': 5.96, 'time': 16.22, 'compass': -136.77, 'pitch': -2.38, 'roll': 10.2}
{'lipoC2': 7.68, 'temp': 23.94, 'lipoC3S3': 12.13, 'state': 'normal', 'rot1': 209, 'rot0': 200, 'rot3': 23, 'rot2': 30, 'depth': 2.072, 'yaw': -2.99, 'datetime': '2018-11-26 11:03:59.478646', 'mgs': 0, 'flw2': 3.33, 'flw1': 5.21, 'flw0': 6.24, 'time': 16.43, 'compass': -139.71, 'pitch': -2.2, 'roll': 9.67}
{'lipoC2': 7.68, 'temp': 24.0, 'lipoC3S3': 12.3, 'state': 'normal', 'rot1': 212, 'rot0': 202, 'rot3': 24, 'rot2': 31, 'depth': 2.759, 'yaw': -5.47, 'datetime': '2018-11-26 11:03:59.690935', 'mgs': 0, 'flw2': 5.97, 'flw1': 4.54, 'flw0': 3.41, 'time': 16.64, 'compass': -142.18, 'pitch': -2.43, 'roll': 9.99}
{'lipoC2': 7.68, 'temp': 24.0, 'lipoC3S3': 12.23, 'state': 'normal', 'rot1': 215, 'rot0': 205, 'rot3': 24, 'rot2': 31, 'depth': 2.072, 'yaw': -5.42, 'datetime': '2018-11-26 11:03:59.901256', 'mgs': 0, 'flw2': 5.66, 'flw1': 0.0, 'flw0': 3.54, 'time': 16.85, 'compass': -142.13, 'pitch': -3.02, 'roll': 10.36}
{'lipoC2': 7.67, 'temp': 23.94, 'lipoC3S3': 12.3, 'state': 'normal', 'rot1': 218, 'rot0': 208, 'rot3': 24, 'rot2': 32, 'depth': 1.996, 'yaw': -3.91, 'datetime': '2018-11-26 11:04:00.110924', 'mgs': 0, 'flw2': 5.85, 'flw1': 5.33, 'flw0': 3.52, 'time': 17.06, 'compass': -140.63, 'pitch': -3.52, 'roll': 9.81}
{'lipoC2': 7.67, 'temp': 24.0, 'lipoC3S3': 12.3, 'state': 'normal', 'rot1': 221, 'rot0': 210, 'rot3': 25, 'rot2': 33, 'depth': 3.598, 'yaw': -1.22, 'datetime': '2018-11-26 11:04:00.324649', 'mgs': 0, 'flw2': 5.91, 'flw1': 4.28, 'flw0': 3.64, 'time': 17.27, 'compass': -137.94, 'pitch': -4.01, 'roll': 9.5}
{'lipoC2': 7.68, 'temp': 24.0, 'lipoC3S3': 12.21, 'state': 'normal', 'rot1': 224, 'rot0': 213, 'rot3': 26, 'rot2': 34, 'depth': 2.606, 'yaw': 1.82, 'datetime': '2018-11-26 11:04:00.535171', 'mgs': 0, 'flw2': 6.1, 'flw1': 4.28, 'flw0': 6.12, 'time': 17.48, 'compass': -134.9, 'pitch': -4.07, 'roll': 10.06}
{'lipoC2': 7.67, 'temp': 23.94, 'lipoC3S3': 12.25, 'state': 'normal', 'rot1': 228, 'rot0': 216, 'rot3': 27, 'rot2': 35, 'depth': 2.072, 'yaw': 3.63, 'datetime': '2018-11-26 11:04:00.745538', 'mgs': 0, 'flw2': 5.98, 'flw1': 5.24, 'flw0': 6.31, 'time': 17.69, 'compass': -133.09, 'pitch': -3.96, 'roll': 11.72}
{'lipoC2': 7.67, 'temp': 23.94, 'lipoC3S3': 12.22, 'state': 'normal', 'rot1': 230, 'rot0': 219, 'rot3': 28, 'rot2': 37, 'depth': 1.996, 'yaw': 3.96, 'datetime': '2018-11-26 11:04:00.957634', 'mgs': 0, 'flw2': 3.25, 'flw1': 4.89, 'flw0': 6.1, 'time': 17.91, 'compass': -132.76, 'pitch': -4.24, 'roll': 12.71}
{'lipoC2': 7.67, 'temp': 23.94, 'lipoC3S3': 12.31, 'state': 'normal', 'rot1': 233, 'rot0': 223, 'rot3': 28, 'rot2': 37, 'depth': 3.369, 'yaw': 2.67, 'datetime': '2018-11-26 11:04:01.162141', 'mgs': 0, 'flw2': 3.34, 'flw1': 0.0, 'flw0': 6.13, 'time': 18.12, 'compass': -134.05, 'pitch': -4.26, 'roll': 11.36}
{'lipoC2': 7.68, 'temp': 24.0, 'lipoC3S3': 12.21, 'state': 'normal', 'rot1': 236, 'rot0': 226, 'rot3': 28, 'rot2': 37, 'depth': 2.911, 'yaw': 0.79, 'datetime': '2018-11-26 11:04:01.374890', 'mgs': 0, 'flw2': 3.55, 'flw1': 0.0, 'flw0': 5.93, 'time': 18.33, 'compass': -135.93, 'pitch': -3.77, 'roll': 9.45}
{'lipoC2': 7.67, 'temp': 24.0, 'lipoC3S3': 12.25, 'state': 'normal', 'rot1': 238, 'rot0': 229, 'rot3': 28, 'rot2': 37, 'depth': 2.072, 'yaw': -1.02, 'datetime': '2018-11-26 11:04:01.584066', 'mgs': 0, 'flw2': 5.98, 'flw1': 0.0, 'flw0': 6.36, 'time': 18.54, 'compass': -137.74, 'pitch': -3.34, 'roll': 8.79}
{'lipoC2': 7.67, 'temp': 23.94, 'lipoC3S3': 12.3, 'state': 'normal', 'rot1': 242, 'rot0': 232, 'rot3': 28, 'rot2': 37, 'depth': 3.369, 'yaw': -1.94, 'datetime': '2018-11-26 11:04:01.802422', 'mgs': 0, 'flw2': 5.86, 'flw1': 0.0, 'flw0': 3.31, 'time': 18.75, 'compass': -138.66, 'pitch': -3.2, 'roll': 9.35}
{'lipoC2': 7.67, 'temp': 24.0, 'lipoC3S3': 12.19, 'state': 'normal', 'rot1': 245, 'rot0': 235, 'rot3': 28, 'rot2': 37, 'depth': 2.148, 'yaw': -1.0, 'datetime': '2018-11-26 11:04:02.012655', 'mgs': 0, 'flw2': 5.81, 'flw1': 4.89, 'flw0': 3.47, 'time': 18.96, 'compass': -137.71, 'pitch': -3.25, 'roll': 9.79}
{'lipoC2': 7.68, 'temp': 24.0, 'lipoC3S3': 12.23, 'state': 'normal', 'rot1': 248, 'rot0': 237, 'rot3': 29, 'rot2': 38, 'depth': 2.225, 'yaw': 0.82, 'datetime': '2018-11-26 11:04:02.223625', 'mgs': 0, 'flw2': 5.77, 'flw1': 3.87, 'flw0': 6.27, 'time': 19.17, 'compass': -135.89, 'pitch': -3.18, 'roll': 10.5}
{'lipoC2': 7.67, 'temp': 24.0, 'lipoC3S3': 12.31, 'state': 'normal', 'rot1': 252, 'rot0': 241, 'rot3': 29, 'rot2': 39, 'depth': 3.217, 'yaw': 1.84, 'datetime': '2018-11-26 11:04:02.435844', 'mgs': 0, 'flw2': 3.31, 'flw1': 0.0, 'flw0': 5.91, 'time': 19.39, 'compass': -134.87, 'pitch': -3.14, 'roll': 11.82}
{'lipoC2': 7.67, 'temp': 24.0, 'lipoC3S3': 12.27, 'state': 'normal', 'rot1': 255, 'rot0': 244, 'rot3': 29, 'rot2': 39, 'depth': 2.148, 'yaw': 1.18, 'datetime': '2018-11-26 11:04:02.646751', 'mgs': 0, 'flw2': 3.3, 'flw1': 0.0, 'flw0': 6.27, 'time': 19.6, 'compass': -135.53, 'pitch': -3.35, 'roll': 12.23}
{'lipoC2': 7.68, 'temp': 24.06, 'lipoC3S3': 12.14, 'state': 'normal', 'rot1': 257, 'rot0': 247, 'rot3': 29, 'rot2': 39, 'depth': 2.225, 'yaw': -0.48, 'datetime': '2018-11-26 11:04:02.849199', 'mgs': 0, 'flw2': 3.26, 'flw1': 0.0, 'flw0': 5.94, 'time': 19.81, 'compass': -137.19, 'pitch': -3.67, 'roll': 11.84}
{'lipoC2': 7.67, 'temp': 23.63, 'lipoC3S3': 12.31, 'state': 'normal', 'rot1': 260, 'rot0': 251, 'rot3': 29, 'rot2': 39, 'depth': 2.225, 'yaw': -2.61, 'datetime': '2018-11-26 11:04:03.059688', 'mgs': 0, 'flw2': 5.82, 'flw1': 0.0, 'flw0': 3.5, 'time': 20.02, 'compass': -139.33, 'pitch': -3.83, 'roll': 11.38}
{'lipoC2': 7.67, 'temp': 24.31, 'lipoC3S3': 12.31, 'state': 'normal', 'rot1': 263, 'rot0': 253, 'rot3': 29, 'rot2': 39, 'depth': 3.14, 'yaw': -2.98, 'datetime': '2018-11-26 11:04:03.272267', 'mgs': 0, 'flw2': 5.94, 'flw1': 0.0, 'flw0': 3.61, 'time': 20.23, 'compass': -139.7, 'pitch': -4.42, 'roll': 11.18}
{'lipoC2': 7.67, 'temp': 23.94, 'lipoC3S3': 12.25, 'state': 'normal', 'rot1': 267, 'rot0': 256, 'rot3': 29, 'rot2': 39, 'depth': 2.148, 'yaw': -1.67, 'datetime': '2018-11-26 11:04:03.484421', 'mgs': 0, 'flw2': 5.71, 'flw1': 0.0, 'flw0': 3.54, 'time': 20.44, 'compass': -138.38, 'pitch': -5.22, 'roll': 10.72}
{'lipoC2': 7.68, 'temp': 24.13, 'lipoC3S3': 12.09, 'state': 'normal', 'rot1': 270, 'rot0': 259, 'rot3': 29, 'rot2': 39, 'depth': 2.682, 'yaw': 0.69, 'datetime': '2018-11-26 11:04:03.695059', 'mgs': 0, 'flw2': 5.87, 'flw1': 0.0, 'flw0': 6.07, 'time': 20.65, 'compass': -136.02, 'pitch': -5.69, 'roll': 9.88}
{'lipoC2': 7.67, 'temp': 24.0, 'lipoC3S3': 12.27, 'state': 'normal', 'rot1': 273, 'rot0': 262, 'rot3': 30, 'rot2': 39, 'depth': 2.454, 'yaw': 2.47, 'datetime': '2018-11-26 11:04:03.906170', 'mgs': 0, 'flw2': 5.93, 'flw1': 5.92, 'flw0': 6.42, 'time': 20.86, 'compass': -134.25, 'pitch': -5.93, 'roll': 9.52}
{'lipoC2': 7.68, 'temp': 24.0, 'lipoC3S3': 12.29, 'state': 'normal', 'rot1': 276, 'rot0': 266, 'rot3': 30, 'rot2': 40, 'depth': 3.827, 'yaw': 3.08, 'datetime': '2018-11-26 11:04:04.118198', 'mgs': 0, 'flw2': 3.37, 'flw1': 4.31, 'flw0': 6.02, 'time': 21.08, 'compass': -133.64, 'pitch': -6.02, 'roll': 10.18}
{'lipoC2': 7.67, 'temp': 24.06, 'lipoC3S3': 12.29, 'state': 'normal', 'rot1': 279, 'rot0': 269, 'rot3': 31, 'rot2': 41, 'depth': 4.056, 'yaw': 2.0, 'datetime': '2018-11-26 11:04:04.329724', 'mgs': 0, 'flw2': 3.44, 'flw1': 5.13, 'flw0': 6.03, 'time': 21.29, 'compass': -134.72, 'pitch': -6.24, 'roll': 11.74}
{'lipoC2': 7.68, 'temp': 24.0, 'lipoC3S3': 12.21, 'state': 'normal', 'rot1': 281, 'rot0': 272, 'rot3': 32, 'rot2': 42, 'depth': 2.606, 'yaw': -0.17, 'datetime': '2018-11-26 11:04:04.540894', 'mgs': 0, 'flw2': 3.31, 'flw1': 0.0, 'flw0': 5.87, 'time': 21.5, 'compass': -136.89, 'pitch': -6.55, 'roll': 13.62}
{'lipoC2': 7.67, 'temp': 24.06, 'lipoC3S3': 12.3, 'state': 'normal', 'rot1': 284, 'rot0': 275, 'rot3': 32, 'rot2': 43, 'depth': 2.301, 'yaw': -2.57, 'datetime': '2018-11-26 11:04:04.751764', 'mgs': 0, 'flw2': 5.93, 'flw1': 0.0, 'flw0': 6.38, 'time': 21.71, 'compass': -139.29, 'pitch': -6.22, 'roll': 14.12}
{'lipoC2': 7.67, 'temp': 24.13, 'lipoC3S3': 12.17, 'state': 'normal', 'rot1': 288, 'rot0': 278, 'rot3': 32, 'rot2': 43, 'depth': 2.225, 'yaw': -3.95, 'datetime': '2018-11-26 11:04:04.961700', 'mgs': 0, 'flw2': 5.68, 'flw1': 0.0, 'flw0': 3.42, 'time': 21.92, 'compass': -140.67, 'pitch': -5.88, 'roll': 14.16}
{'lipoC2': 7.67, 'temp': 24.0, 'lipoC3S3': 12.3, 'state': 'normal', 'rot1': 291, 'rot0': 281, 'rot3': 32, 'rot2': 43, 'depth': 2.377, 'yaw': -4.12, 'datetime': '2018-11-26 11:04:05.173779', 'mgs': 0, 'flw2': 5.92, 'flw1': 0.0, 'flw0': 3.69, 'time': 22.13, 'compass': -140.83, 'pitch': -5.91, 'roll': 13.71}
{'lipoC2': 7.68, 'temp': 24.0, 'lipoC3S3': 12.29, 'state': 'normal', 'rot1': 294, 'rot0': 283, 'rot3': 32, 'rot2': 43, 'depth': 3.445, 'yaw': -3.09, 'datetime': '2018-11-26 11:04:05.384875', 'mgs': 0, 'flw2': 5.86, 'flw1': 0.0, 'flw0': 3.48, 'time': 22.34, 'compass': -139.81, 'pitch': -6.55, 'roll': 13.07}
{'lipoC2': 7.67, 'temp': 24.0, 'lipoC3S3': 12.3, 'state': 'normal', 'rot1': 297, 'rot0': 286, 'rot3': 33, 'rot2': 43, 'depth': 2.225, 'yaw': -1.18, 'datetime': '2018-11-26 11:04:05.595651', 'mgs': 0, 'flw2': 5.79, 'flw1': 4.66, 'flw0': 3.59, 'time': 22.56, 'compass': -137.9, 'pitch': -7.22, 'roll': 12.6}
{'lipoC2': 7.68, 'temp': 24.0, 'lipoC3S3': 12.21, 'state': 'normal', 'rot1': 301, 'rot0': 288, 'rot3': 34, 'rot2': 44, 'depth': 2.53, 'yaw': 1.03, 'datetime': '2018-11-26 11:04:05.817287', 'mgs': 0, 'flw2': 5.71, 'flw1': 0.0, 'flw0': 3.44, 'time': 22.77, 'compass': -135.69, 'pitch': -7.62, 'roll': 12.56}
{'lipoC2': 7.68, 'temp': 24.06, 'lipoC3S3': 12.12, 'state': 'normal', 'rot1': 305, 'rot0': 293, 'rot3': 34, 'rot2': 44, 'depth': 2.072, 'yaw': 2.85, 'datetime': '2018-11-26 11:04:06.121742', 'mgs': 0, 'flw2': 3.32, 'flw1': 4.78, 'flw0': 5.9, 'time': 23.08, 'compass': -133.87, 'pitch': -7.42, 'roll': 11.68}
{'lipoC2': 7.67, 'temp': 23.94, 'lipoC3S3': 12.23, 'state': 'normal', 'rot1': 308, 'rot0': 297, 'rot3': 34, 'rot2': 46, 'depth': 2.148, 'yaw': 1.42, 'datetime': '2018-11-26 11:04:06.334726', 'mgs': 0, 'flw2': 3.34, 'flw1': 4.25, 'flw0': 6.03, 'time': 23.3, 'compass': -135.3, 'pitch': -7.18, 'roll': 11.3}
{'lipoC2': 7.67, 'temp': 23.94, 'lipoC3S3': 12.25, 'state': 'normal', 'rot1': 311, 'rot0': 300, 'rot3': 35, 'rot2': 46, 'depth': 2.606, 'yaw': -0.94, 'datetime': '2018-11-26 11:04:06.543672', 'mgs': 0, 'flw2': 5.99, 'flw1': 0.0, 'flw0': 6.09, 'time': 23.5, 'compass': -137.65, 'pitch': -6.87, 'roll': 11.57}
{'lipoC2': 7.67, 'temp': 23.94, 'lipoC3S3': 12.27, 'state': 'normal', 'rot1': 314, 'rot0': 303, 'rot3': 35, 'rot2': 46, 'depth': 4.819, 'yaw': -2.9, 'datetime': '2018-11-26 11:04:06.764707', 'mgs': 0, 'flw2': 5.94, 'flw1': 4.98, 'flw0': 6.04, 'time': 23.72, 'compass': -139.62, 'pitch': -6.61, 'roll': 11.96}
{'lipoC2': 7.67, 'temp': 24.25, 'lipoC3S3': 12.27, 'state': 'normal', 'rot1': 317, 'rot0': 306, 'rot3': 36, 'rot2': 47, 'depth': 4.361, 'yaw': -4.13, 'datetime': '2018-11-26 11:04:06.977350', 'mgs': 0, 'flw2': 5.8, 'flw1': 3.87, 'flw0': 3.48, 'time': 23.93, 'compass': -140.84, 'pitch': -6.68, 'roll': 12.8}
{'lipoC2': 7.68, 'temp': 24.06, 'lipoC3S3': 12.21, 'state': 'normal', 'rot1': 321, 'rot0': 308, 'rot3': 37, 'rot2': 49, 'depth': 3.369, 'yaw': -3.96, 'datetime': '2018-11-26 11:04:07.185008', 'mgs': 0, 'flw2': 6.01, 'flw1': 5.42, 'flw0': 3.5, 'time': 24.14, 'compass': -140.67, 'pitch': -6.81, 'roll': 13.9}
{'lipoC2': 7.67, 'temp': 24.13, 'lipoC3S3': 12.21, 'state': 'normal', 'rot1': 325, 'rot0': 311, 'rot3': 38, 'rot2': 50, 'depth': 2.072, 'yaw': -2.67, 'datetime': '2018-11-26 11:04:07.396894', 'mgs': 0, 'flw2': 5.71, 'flw1': 0.0, 'flw0': 3.47, 'time': 24.35, 'compass': -139.38, 'pitch': -7.08, 'roll': 14.53}
{'lipoC2': 7.68, 'temp': 24.56, 'lipoC3S3': 12.17, 'state': 'normal', 'rot1': 328, 'rot0': 313, 'rot3': 38, 'rot2': 50, 'depth': 2.835, 'yaw': -0.6, 'datetime': '2018-11-26 11:04:07.607460', 'mgs': 0, 'flw2': 5.87, 'flw1': 0.0, 'flw0': 3.56, 'time': 24.56, 'compass': -137.31, 'pitch': -7.32, 'roll': 13.61}
{'lipoC2': 7.67, 'temp': 24.19, 'lipoC3S3': 12.09, 'state': 'normal', 'rot1': 331, 'rot0': 316, 'rot3': 38, 'rot2': 50, 'depth': 1.996, 'yaw': 1.92, 'datetime': '2018-11-26 11:04:07.818150', 'mgs': 0, 'flw2': 5.85, 'flw1': 3.49, 'flw0': 6.16, 'time': 24.77, 'compass': -134.8, 'pitch': -7.62, 'roll': 12.22}
{'lipoC2': 7.67, 'temp': 24.94, 'lipoC3S3': 12.21, 'state': 'normal', 'rot1': 335, 'rot0': 320, 'rot3': 39, 'rot2': 52, 'depth': 2.072, 'yaw': 3.89, 'datetime': '2018-11-26 11:04:08.030479', 'mgs': 0, 'flw2': 5.85, 'flw1': 3.98, 'flw0': 6.15, 'time': 24.99, 'compass': -132.82, 'pitch': -7.59, 'roll': 12.82}
{'lipoC2': 7.67, 'temp': 24.94, 'lipoC3S3': 12.34, 'state': 'normal', 'rot1': 336, 'rot0': 320, 'rot3': 39, 'rot2': 52, 'depth': 2.072, 'yaw': 4.95, 'datetime': '2018-11-26 11:04:08.242598', 'mgs': 0, 'flw2': 0.0, 'flw1': 0.0, 'flw0': 0.0, 'time': 25.2, 'compass': -131.77, 'pitch': -7.09, 'roll': 12.82}
{'lipoC2': 7.67, 'temp': 24.06, 'lipoC3S3': 12.34, 'state': 'normal', 'rot1': 336, 'rot0': 320, 'rot3': 39, 'rot2': 52, 'depth': 2.072, 'yaw': 5.7, 'datetime': '2018-11-26 11:04:08.445752', 'mgs': 0, 'flw2': 0.0, 'flw1': 0.0, 'flw0': 0.0, 'time': 25.41, 'compass': -131.02, 'pitch': -6.26, 'roll': 8.14}
{'lipoC2': 7.68, 'temp': 23.94, 'lipoC3S3': 12.18, 'state': 'normal', 'rot1': 338, 'rot0': 323, 'rot3': 39, 'rot2': 52, 'depth': 1.996, 'yaw': 5.65, 'datetime': '2018-11-26 11:04:08.657131', 'mgs': 0, 'flw2': 3.32, 'flw1': 0.0, 'flw0': 5.92, 'time': 25.62, 'compass': -131.06, 'pitch': -5.69, 'roll': 4.32}
{'lipoC2': 7.67, 'temp': 23.81, 'lipoC3S3': 12.3, 'state': 'normal', 'rot1': 341, 'rot0': 326, 'rot3': 39, 'rot2': 52, 'depth': 2.072, 'yaw': 3.38, 'datetime': '2018-11-26 11:04:08.868094', 'mgs': 0, 'flw2': 3.3, 'flw1': 0.0, 'flw0': 6.1, 'time': 25.83, 'compass': -133.34, 'pitch': -5.52, 'roll': 4.64}
{'lipoC2': 7.68, 'temp': 24.06, 'lipoC3S3': 12.18, 'state': 'normal', 'rot1': 343, 'rot0': 329, 'rot3': 39, 'rot2': 52, 'depth': 2.911, 'yaw': 0.02, 'datetime': '2018-11-26 11:04:09.081701', 'mgs': 0, 'flw2': 3.52, 'flw1': 0.0, 'flw0': 5.77, 'time': 26.04, 'compass': -136.7, 'pitch': -5.63, 'roll': 5.28}
{'lipoC2': 7.67, 'temp': 24.06, 'lipoC3S3': 12.25, 'state': 'normal', 'rot1': 346, 'rot0': 332, 'rot3': 39, 'rot2': 52, 'depth': 2.225, 'yaw': -3.74, 'datetime': '2018-11-26 11:04:09.295451', 'mgs': 0, 'flw2': 5.85, 'flw1': 0.0, 'flw0': 6.15, 'time': 26.25, 'compass': -140.45, 'pitch': -5.9, 'roll': 6.37}
{'lipoC2': 7.68, 'temp': 24.06, 'lipoC3S3': 12.21, 'state': 'normal', 'rot1': 350, 'rot0': 335, 'rot3': 39, 'rot2': 52, 'depth': 2.682, 'yaw': -6.18, 'datetime': '2018-11-26 11:04:09.502443', 'mgs': 0, 'flw2': 5.79, 'flw1': 0.0, 'flw0': 3.27, 'time': 26.46, 'compass': -142.9, 'pitch': -6.21, 'roll': 8.69}
{'lipoC2': 7.67, 'temp': 23.88, 'lipoC3S3': 12.27, 'state': 'normal', 'rot1': 353, 'rot0': 338, 'rot3': 40, 'rot2': 52, 'depth': 3.827, 'yaw': -6.76, 'datetime': '2018-11-26 11:04:09.715657', 'mgs': 0, 'flw2': 5.96, 'flw1': 6.77, 'flw0': 3.64, 'time': 26.67, 'compass': -143.48, 'pitch': -6.52, 'roll': 11.08}
{'lipoC2': 7.68, 'temp': 23.88, 'lipoC3S3': 12.13, 'state': 'normal', 'rot1': 356, 'rot0': 340, 'rot3': 41, 'rot2': 53, 'depth': 3.14, 'yaw': -6.37, 'datetime': '2018-11-26 11:04:09.925549', 'mgs': 0, 'flw2': 5.86, 'flw1': 4.75, 'flw0': 3.34, 'time': 26.89, 'compass': -143.09, 'pitch': -7.25, 'roll': 13.57}
{'lipoC2': 7.67, 'temp': 24.88, 'lipoC3S3': 12.29, 'state': 'normal', 'rot1': 360, 'rot0': 343, 'rot3': 41, 'rot2': 55, 'depth': 3.14, 'yaw': -5.32, 'datetime': '2018-11-26 11:04:10.138497', 'mgs': 0, 'flw2': 5.66, 'flw1': 4.1, 'flw0': 3.64, 'time': 27.1, 'compass': -142.04, 'pitch': -8.01, 'roll': 16.17}
{'lipoC2': 7.67, 'temp': 24.06, 'lipoC3S3': 12.14, 'state': 'normal', 'rot1': 363, 'rot0': 346, 'rot3': 42, 'rot2': 56, 'depth': 2.53, 'yaw': -3.82, 'datetime': '2018-11-26 11:04:10.347778', 'mgs': 0, 'flw2': 5.62, 'flw1': 0.0, 'flw0': 3.52, 'time': 27.31, 'compass': -140.53, 'pitch': -8.66, 'roll': 18.57}
{'lipoC2': 7.67, 'temp': 24.06, 'lipoC3S3': 12.29, 'state': 'normal', 'rot1': 366, 'rot0': 348, 'rot3': 42, 'rot2': 56, 'depth': 4.132, 'yaw': -1.66, 'datetime': '2018-11-26 11:04:10.558368', 'mgs': 0, 'flw2': 6.01, 'flw1': 0.0, 'flw0': 3.49, 'time': 27.52, 'compass': -138.38, 'pitch': -9.08, 'roll': 19.85}
{'lipoC2': 7.67, 'temp': 24.75, 'lipoC3S3': 12.04, 'state': 'normal', 'rot1': 370, 'rot0': 351, 'rot3': 43, 'rot2': 56, 'depth': 2.377, 'yaw': 1.42, 'datetime': '2018-11-26 11:04:10.769799', 'mgs': 0, 'flw2': 5.97, 'flw1': 5.54, 'flw0': 6.21, 'time': 27.73, 'compass': -135.3, 'pitch': -9.34, 'roll': 19.59}
{'lipoC2': 7.68, 'temp': 24.38, 'lipoC3S3': 12.25, 'state': 'normal', 'rot1': 373, 'rot0': 354, 'rot3': 44, 'rot2': 58, 'depth': 4.056, 'yaw': 3.89, 'datetime': '2018-11-26 11:04:10.982520', 'mgs': 0, 'flw2': 6.1, 'flw1': 4.1, 'flw0': 5.96, 'time': 27.94, 'compass': -132.83, 'pitch': -9.14, 'roll': 18.85}
{'lipoC2': 7.67, 'temp': 24.06, 'lipoC3S3': 12.29, 'state': 'normal', 'rot1': 376, 'rot0': 357, 'rot3': 45, 'rot2': 59, 'depth': 2.454, 'yaw': 4.82, 'datetime': '2018-11-26 11:04:11.192683', 'mgs': 0, 'flw2': 3.32, 'flw1': 4.25, 'flw0': 6.2, 'time': 28.16, 'compass': -131.9, 'pitch': -8.0, 'roll': 15.37}
{'lipoC2': 7.67, 'temp': 24.13, 'lipoC3S3': 12.14, 'state': 'normal', 'rot1': 379, 'rot0': 360, 'rot3': 45, 'rot2': 60, 'depth': 1.843, 'yaw': 3.26, 'datetime': '2018-11-26 11:04:11.403092', 'mgs': 0, 'flw2': 3.26, 'flw1': 0.0, 'flw0': 6.05, 'time': 28.37, 'compass': -133.46, 'pitch': -6.69, 'roll': 10.08}
{'lipoC2': 7.67, 'temp': 24.13, 'lipoC3S3': 12.29, 'state': 'normal', 'rot1': 382, 'rot0': 363, 'rot3': 45, 'rot2': 60, 'depth': 3.217, 'yaw': -0.12, 'datetime': '2018-11-26 11:04:11.614716', 'mgs': 0, 'flw2': 3.61, 'flw1': 0.0, 'flw0': 5.82, 'time': 28.58, 'compass': -136.83, 'pitch': -6.11, 'roll': 6.66}
{'lipoC2': 7.67, 'temp': 24.13, 'lipoC3S3': 12.27, 'state': 'normal', 'rot1': 385, 'rot0': 366, 'rot3': 45, 'rot2': 60, 'depth': 3.903, 'yaw': -4.26, 'datetime': '2018-11-26 11:04:11.825728', 'mgs': 0, 'flw2': 5.98, 'flw1': 0.0, 'flw0': 6.05, 'time': 28.79, 'compass': -140.98, 'pitch': -6.2, 'roll': 6.57}
{'lipoC2': 7.68, 'temp': 24.19, 'lipoC3S3': 12.19, 'state': 'normal', 'rot1': 388, 'rot0': 369, 'rot3': 46, 'rot2': 60, 'depth': 3.217, 'yaw': -7.51, 'datetime': '2018-11-26 11:04:12.037443', 'mgs': 0, 'flw2': 5.92, 'flw1': 5.16, 'flw0': 3.1, 'time': 29.0, 'compass': -144.22, 'pitch': -6.25, 'roll': 8.4}
{'lipoC2': 7.67, 'temp': 24.38, 'lipoC3S3': 12.23, 'state': 'normal', 'rot1': 391, 'rot0': 372, 'rot3': 47, 'rot2': 62, 'depth': 2.072, 'yaw': -8.85, 'datetime': '2018-11-26 11:04:12.248994', 'mgs': 0, 'flw2': 5.7, 'flw1': 0.0, 'flw0': 3.53, 'time': 29.21, 'compass': -145.56, 'pitch': -6.12, 'roll': 11.22}
{'lipoC2': 7.68, 'temp': 24.06, 'lipoC3S3': 12.27, 'state': 'normal', 'rot1': 395, 'rot0': 374, 'rot3': 47, 'rot2': 62, 'depth': 3.14, 'yaw': -8.76, 'datetime': '2018-11-26 11:04:12.460044', 'mgs': 0, 'flw2': 5.91, 'flw1': 0.0, 'flw0': 3.47, 'time': 29.42, 'compass': -145.48, 'pitch': -6.14, 'roll': 12.71}
{'lipoC2': 7.67, 'temp': 24.13, 'lipoC3S3': 12.29, 'state': 'normal', 'rot1': 398, 'rot0': 377, 'rot3': 47, 'rot2': 62, 'depth': 2.301, 'yaw': -7.91, 'datetime': '2018-11-26 11:04:12.668082', 'mgs': 0, 'flw2': 5.64, 'flw1': 4.31, 'flw0': 3.65, 'time': 29.63, 'compass': -144.63, 'pitch': -6.35, 'roll': 13.52}
{'lipoC2': 7.67, 'temp': 24.06, 'lipoC3S3': 12.29, 'state': 'normal', 'rot1': 401, 'rot0': 379, 'rot3': 48, 'rot2': 63, 'depth': 3.14, 'yaw': -6.51, 'datetime': '2018-11-26 11:04:12.880106', 'mgs': 0, 'flw2': 5.9, 'flw1': 0.0, 'flw0': 3.53, 'time': 29.85, 'compass': -143.23, 'pitch': -6.7, 'roll': 15.27}
{'lipoC2': 7.68, 'temp': 23.69, 'lipoC3S3': 12.26, 'state': 'normal', 'rot1': 405, 'rot0': 382, 'rot3': 48, 'rot2': 63, 'depth': 2.682, 'yaw': -4.5, 'datetime': '2018-11-26 11:04:13.092044', 'mgs': 0, 'flw2': 5.82, 'flw1': 0.0, 'flw0': 3.48, 'time': 30.06, 'compass': -141.22, 'pitch': -6.92, 'roll': 16.88}
{'lipoC2': 7.67, 'temp': 23.69, 'lipoC3S3': 12.29, 'state': 'normal', 'rot1': 408, 'rot0': 384, 'rot3': 48, 'rot2': 63, 'depth': 2.148, 'yaw': -2.15, 'datetime': '2018-11-26 11:04:13.302038', 'mgs': 0, 'flw2': 5.88, 'flw1': 0.0, 'flw0': 3.58, 'time': 30.27, 'compass': -138.86, 'pitch': -7.38, 'roll': 17.04}
{'lipoC2': 7.67, 'temp': 23.63, 'lipoC3S3': 12.25, 'state': 'normal', 'rot1': 411, 'rot0': 387, 'rot3': 48, 'rot2': 63, 'depth': 2.225, 'yaw': 0.52, 'datetime': '2018-11-26 11:04:13.512908', 'mgs': 0, 'flw2': 5.76, 'flw1': 0.0, 'flw0': 3.65, 'time': 30.48, 'compass': -136.2, 'pitch': -7.94, 'roll': 16.27}
{'lipoC2': 7.67, 'temp': 24.0, 'lipoC3S3': 12.1, 'state': 'normal', 'rot1': 415, 'rot0': 390, 'rot3': 48, 'rot2': 63, 'depth': 2.225, 'yaw': 2.92, 'datetime': '2018-11-26 11:04:13.723725', 'mgs': 0, 'flw2': 5.71, 'flw1': 0.0, 'flw0': 6.16, 'time': 30.69, 'compass': -133.8, 'pitch': -8.2, 'roll': 15.75}
{'lipoC2': 7.67, 'temp': 24.0, 'lipoC3S3': 12.25, 'state': 'normal', 'rot1': 418, 'rot0': 393, 'rot3': 48, 'rot2': 63, 'depth': 2.148, 'yaw': 3.88, 'datetime': '2018-11-26 11:04:13.934735', 'mgs': 0, 'flw2': 3.13, 'flw1': 0.0, 'flw0': 6.15, 'time': 30.9, 'compass': -132.84, 'pitch': -7.98, 'roll': 15.6}
{'lipoC2': 7.68, 'temp': 24.13, 'lipoC3S3': 12.27, 'state': 'normal', 'rot1': 420, 'rot0': 397, 'rot3': 48, 'rot2': 63, 'depth': 4.285, 'yaw': 2.6, 'datetime': '2018-11-26 11:04:14.146775', 'mgs': 0, 'flw2': 3.44, 'flw1': 4.6, 'flw0': 5.85, 'time': 31.11, 'compass': -134.12, 'pitch': -7.5, 'roll': 14.67}
{'lipoC2': 7.67, 'temp': 24.13, 'lipoC3S3': 12.25, 'state': 'normal', 'rot1': 423, 'rot0': 400, 'rot3': 49, 'rot2': 64, 'depth': 2.072, 'yaw': -0.22, 'datetime': '2018-11-26 11:04:14.357616', 'mgs': 0, 'flw2': 3.25, 'flw1': 3.63, 'flw0': 6.15, 'time': 31.33, 'compass': -136.94, 'pitch': -7.25, 'roll': 13.89}
{'lipoC2': 7.68, 'temp': 24.13, 'lipoC3S3': 12.19, 'state': 'normal', 'rot1': 426, 'rot0': 403, 'rot3': 49, 'rot2': 65, 'depth': 2.53, 'yaw': -3.96, 'datetime': '2018-11-26 11:04:14.567521', 'mgs': 0, 'flw2': 5.71, 'flw1': 0.0, 'flw0': 3.3, 'time': 31.54, 'compass': -140.68, 'pitch': -6.95, 'roll': 13.36}
{'lipoC2': 7.67, 'temp': 24.06, 'lipoC3S3': 12.21, 'state': 'normal', 'rot1': 430, 'rot0': 406, 'rot3': 49, 'rot2': 65, 'depth': 1.996, 'yaw': -5.99, 'datetime': '2018-11-26 11:04:14.779689', 'mgs': 0, 'flw2': 5.69, 'flw1': 0.0, 'flw0': 3.5, 'time': 31.75, 'compass': -142.71, 'pitch': -6.77, 'roll': 11.95}
{'lipoC2': 7.67, 'temp': 24.06, 'lipoC3S3': 12.29, 'state': 'normal', 'rot1': 433, 'rot0': 408, 'rot3': 49, 'rot2': 65, 'depth': 1.996, 'yaw': -6.2, 'datetime': '2018-11-26 11:04:14.991928', 'mgs': 0, 'flw2': 5.76, 'flw1': 0.0, 'flw0': 3.66, 'time': 31.96, 'compass': -142.92, 'pitch': -7.08, 'roll': 10.83}
{'lipoC2': 7.67, 'temp': 24.06, 'lipoC3S3': 12.29, 'state': 'normal', 'rot1': 437, 'rot0': 411, 'rot3': 49, 'rot2': 65, 'depth': 3.674, 'yaw': -5.22, 'datetime': '2018-11-26 11:04:15.201956', 'mgs': 0, 'flw2': 5.91, 'flw1': 0.0, 'flw0': 3.52, 'time': 32.17, 'compass': -141.94, 'pitch': -7.46, 'roll': 10.46}
{'lipoC2': 7.67, 'temp': 24.13, 'lipoC3S3': 12.3, 'state': 'normal', 'rot1': 440, 'rot0': 414, 'rot3': 49, 'rot2': 65, 'depth': 2.072, 'yaw': -3.46, 'datetime': '2018-11-26 11:04:15.412878', 'mgs': 0, 'flw2': 5.71, 'flw1': 0.0, 'flw0': 3.54, 'time': 32.38, 'compass': -140.17, 'pitch': -7.49, 'roll': 10.44}
{'lipoC2': 7.68, 'temp': 24.13, 'lipoC3S3': 12.13, 'state': 'normal', 'rot1': 443, 'rot0': 416, 'rot3': 49, 'rot2': 65, 'depth': 2.148, 'yaw': -1.09, 'datetime': '2018-11-26 11:04:15.622600', 'mgs': 0, 'flw2': 5.71, 'flw1': 0.0, 'flw0': 3.42, 'time': 32.59, 'compass': -137.81, 'pitch': -7.35, 'roll': 10.49}
{'lipoC2': 7.67, 'temp': 24.13, 'lipoC3S3': 12.27, 'state': 'normal', 'rot1': 447, 'rot0': 419, 'rot3': 49, 'rot2': 65, 'depth': 2.072, 'yaw': 1.7, 'datetime': '2018-11-26 11:04:15.834804', 'mgs': 0, 'flw2': 6.03, 'flw1': 0.0, 'flw0': 6.01, 'time': 32.8, 'compass': -135.01, 'pitch': -7.44, 'roll': 11.0}
{'lipoC2': 7.68, 'temp': 24.06, 'lipoC3S3': 12.1, 'state': 'normal', 'rot1': 450, 'rot0': 422, 'rot3': 49, 'rot2': 65, 'depth': 2.606, 'yaw': 3.9, 'datetime': '2018-11-26 11:04:16.046914', 'mgs': 0, 'flw2': 5.86, 'flw1': 0.0, 'flw0': 6.15, 'time': 33.02, 'compass': -132.82, 'pitch': -7.51, 'roll': 12.07}
{'lipoC2': 7.67, 'temp': 24.06, 'lipoC3S3': 12.29, 'state': 'normal', 'rot1': 453, 'rot0': 425, 'rot3': 49, 'rot2': 65, 'depth': 3.369, 'yaw': 5.06, 'datetime': '2018-11-26 11:04:16.256840', 'mgs': 0, 'flw2': 3.38, 'flw1': 0.0, 'flw0': 5.83, 'time': 33.23, 'compass': -131.66, 'pitch': -7.4, 'roll': 13.3}
{'lipoC2': 7.67, 'temp': 24.06, 'lipoC3S3': 12.21, 'state': 'normal', 'rot1': 456, 'rot0': 429, 'rot3': 50, 'rot2': 66, 'depth': 2.301, 'yaw': 4.51, 'datetime': '2018-11-26 11:04:16.467857', 'mgs': 0, 'flw2': 3.2, 'flw1': 4.57, 'flw0': 6.15, 'time': 33.44, 'compass': -132.21, 'pitch': -7.29, 'roll': 14.4}
{'lipoC2': 7.68, 'temp': 24.13, 'lipoC3S3': 12.18, 'state': 'normal', 'rot1': 458, 'rot0': 432, 'rot3': 51, 'rot2': 67, 'depth': 2.225, 'yaw': 2.79, 'datetime': '2018-11-26 11:04:16.678345', 'mgs': 0, 'flw2': 3.21, 'flw1': 0.0, 'flw0': 5.96, 'time': 33.65, 'compass': -133.93, 'pitch': -7.25, 'roll': 15.93}
{'lipoC2': 7.68, 'temp': 24.06, 'lipoC3S3': 12.26, 'state': 'normal', 'rot1': 461, 'rot0': 435, 'rot3': 51, 'rot2': 67, 'depth': 2.759, 'yaw': 0.42, 'datetime': '2018-11-26 11:04:16.889918', 'mgs': 0, 'flw2': 3.39, 'flw1': 0.0, 'flw0': 5.7, 'time': 33.86, 'compass': -136.29, 'pitch': -7.0, 'roll': 16.79}
{'lipoC2': 7.67, 'temp': 24.13, 'lipoC3S3': 12.22, 'state': 'normal', 'rot1': 464, 'rot0': 438, 'rot3': 51, 'rot2': 67, 'depth': 2.225, 'yaw': -2.37, 'datetime': '2018-11-26 11:04:17.101872', 'mgs': 0, 'flw2': 5.93, 'flw1': 0.0, 'flw0': 6.02, 'time': 34.07, 'compass': -139.09, 'pitch': -6.93, 'roll': 16.39}
{'lipoC2': 7.68, 'temp': 24.13, 'lipoC3S3': 12.26, 'state': 'normal', 'rot1': 468, 'rot0': 441, 'rot3': 51, 'rot2': 67, 'depth': 2.301, 'yaw': -4.53, 'datetime': '2018-11-26 11:04:17.311803', 'mgs': 0, 'flw2': 5.74, 'flw1': 0.0, 'flw0': 6.09, 'time': 34.28, 'compass': -141.25, 'pitch': -7.08, 'roll': 15.88}
{'lipoC2': 7.67, 'temp': 24.06, 'lipoC3S3': 12.29, 'state': 'normal', 'rot1': 471, 'rot0': 444, 'rot3': 51, 'rot2': 67, 'depth': 2.911, 'yaw': -5.22, 'datetime': '2018-11-26 11:04:17.522737', 'mgs': 0, 'flw2': 5.77, 'flw1': 0.0, 'flw0': 3.44, 'time': 34.49, 'compass': -141.94, 'pitch': -7.7, 'roll': 15.35}
{'lipoC2': 7.68, 'temp': 24.13, 'lipoC3S3': 12.25, 'state': 'normal', 'rot1': 474, 'rot0': 446, 'rot3': 51, 'rot2': 67, 'depth': 2.988, 'yaw': -3.96, 'datetime': '2018-11-26 11:04:17.734987', 'mgs': 0, 'flw2': 5.71, 'flw1': 3.6, 'flw0': 3.43, 'time': 34.71, 'compass': -140.68, 'pitch': -8.89, 'roll': 14.19}
{'lipoC2': 7.68, 'temp': 24.13, 'lipoC3S3': 12.16, 'state': 'normal', 'rot1': 478, 'rot0': 449, 'rot3': 52, 'rot2': 68, 'depth': 3.064, 'yaw': -1.7, 'datetime': '2018-11-26 11:04:17.946086', 'mgs': 0, 'flw2': 5.75, 'flw1': 3.49, 'flw0': 3.38, 'time': 34.92, 'compass': -138.42, 'pitch': -9.85, 'roll': 13.16}
{'lipoC2': 7.67, 'temp': 24.13, 'lipoC3S3': 12.27, 'state': 'normal', 'rot1': 481, 'rot0': 452, 'rot3': 53, 'rot2': 70, 'depth': 2.072, 'yaw': 0.91, 'datetime': '2018-11-26 11:04:18.157108', 'mgs': 0, 'flw2': 5.77, 'flw1': 3.63, 'flw0': 3.61, 'time': 35.13, 'compass': -135.81, 'pitch': -10.06, 'roll': 12.38}
{'lipoC2': 7.67, 'temp': 24.19, 'lipoC3S3': 12.14, 'state': 'normal', 'rot1': 484, 'rot0': 454, 'rot3': 53, 'rot2': 70, 'depth': 1.92, 'yaw': 4.19, 'datetime': '2018-11-26 11:04:18.368064', 'mgs': 0, 'flw2': 3.19, 'flw1': 0.0, 'flw0': 6.01, 'time': 35.34, 'compass': -132.52, 'pitch': -9.7, 'roll': 11.18}
{'lipoC2': 7.67, 'temp': 24.13, 'lipoC3S3': 12.29, 'state': 'normal', 'rot1': 487, 'rot0': 458, 'rot3': 53, 'rot2': 70, 'depth': 1.996, 'yaw': 6.05, 'datetime': '2018-11-26 11:04:18.578338', 'mgs': 0, 'flw2': 3.26, 'flw1': 0.0, 'flw0': 6.14, 'time': 35.55, 'compass': -130.66, 'pitch': -9.13, 'roll': 9.72}
{'lipoC2': 7.67, 'temp': 24.13, 'lipoC3S3': 12.27, 'state': 'normal', 'rot1': 489, 'rot0': 461, 'rot3': 53, 'rot2': 70, 'depth': 3.522, 'yaw': 5.98, 'datetime': '2018-11-26 11:04:18.787581', 'mgs': 0, 'flw2': 3.39, 'flw1': 0.0, 'flw0': 5.8, 'time': 35.76, 'compass': -130.73, 'pitch': -8.74, 'roll': 9.06}
{'lipoC2': 7.68, 'temp': 24.13, 'lipoC3S3': 12.23, 'state': 'normal', 'rot1': 492, 'rot0': 464, 'rot3': 54, 'rot2': 71, 'depth': 3.522, 'yaw': 4.78, 'datetime': '2018-11-26 11:04:19.000219', 'mgs': 0, 'flw2': 3.38, 'flw1': 4.54, 'flw0': 5.83, 'time': 35.97, 'compass': -131.94, 'pitch': -8.47, 'roll': 9.7}
{'lipoC2': 7.67, 'temp': 24.13, 'lipoC3S3': 12.14, 'state': 'normal', 'rot1': 494, 'rot0': 467, 'rot3': 55, 'rot2': 72, 'depth': 1.996, 'yaw': 2.6, 'datetime': '2018-11-26 11:04:19.211534', 'mgs': 0, 'flw2': 3.23, 'flw1': 0.0, 'flw0': 5.9, 'time': 36.19, 'compass': -134.12, 'pitch': -8.25, 'roll': 11.75}
{'lipoC2': 7.68, 'temp': 24.13, 'lipoC3S3': 12.27, 'state': 'normal', 'rot1': 497, 'rot0': 471, 'rot3': 55, 'rot2': 72, 'depth': 3.217, 'yaw': 0.29, 'datetime': '2018-11-26 11:04:19.428049', 'mgs': 0, 'flw2': 3.49, 'flw1': 0.0, 'flw0': 5.73, 'time': 36.4, 'compass': -136.43, 'pitch': -8.2, 'roll': 12.83}
{'lipoC2': 7.67, 'temp': 24.19, 'lipoC3S3': 12.27, 'state': 'normal', 'rot1': 500, 'rot0': 474, 'rot3': 55, 'rot2': 72, 'depth': 2.072, 'yaw': -2.41, 'datetime': '2018-11-26 11:04:19.638037', 'mgs': 0, 'flw2': 5.77, 'flw1': 4.31, 'flw0': 3.41, 'time': 36.61, 'compass': -139.13, 'pitch': -8.29, 'roll': 13.61}
{'lipoC2': 7.67, 'temp': 24.19, 'lipoC3S3': 12.21, 'state': 'normal', 'rot1': 503, 'rot0': 477, 'rot3': 56, 'rot2': 73, 'depth': 2.225, 'yaw': -3.09, 'datetime': '2018-11-26 11:04:19.849753', 'mgs': 0, 'flw2': 5.57, 'flw1': 0.0, 'flw0': 3.47, 'time': 36.82, 'compass': -139.81, 'pitch': -8.37, 'roll': 14.97}
{'lipoC2': 7.67, 'temp': 24.25, 'lipoC3S3': 12.27, 'state': 'normal', 'rot1': 506, 'rot0': 479, 'rot3': 56, 'rot2': 73, 'depth': 2.148, 'yaw': -1.73, 'datetime': '2018-11-26 11:04:20.061566', 'mgs': 0, 'flw2': 5.76, 'flw1': 0.0, 'flw0': 3.69, 'time': 37.03, 'compass': -138.45, 'pitch': -8.58, 'roll': 15.94}
{'lipoC2': 7.67, 'temp': 24.19, 'lipoC3S3': 12.12, 'state': 'normal', 'rot1': 509, 'rot0': 482, 'rot3': 56, 'rot2': 73, 'depth': 2.072, 'yaw': 0.79, 'datetime': '2018-11-26 11:04:20.272006', 'mgs': 0, 'flw2': 5.7, 'flw1': 0.0, 'flw0': 5.92, 'time': 37.24, 'compass': -135.93, 'pitch': -9.0, 'roll': 15.77}
{'lipoC2': 7.68, 'temp': 24.13, 'lipoC3S3': 12.25, 'state': 'normal', 'rot1': 513, 'rot0': 485, 'rot3': 56, 'rot2': 74, 'depth': 4.132, 'yaw': 3.45, 'datetime': '2018-11-26 11:04:20.481877', 'mgs': 0, 'flw2': 5.9, 'flw1': 4.83, 'flw0': 5.74, 'time': 37.45, 'compass': -133.26, 'pitch': -9.37, 'roll': 15.42}
{'lipoC2': 7.67, 'temp': 24.06, 'lipoC3S3': 12.22, 'state': 'normal', 'rot1': 516, 'rot0': 488, 'rot3': 57, 'rot2': 75, 'depth': 2.072, 'yaw': 5.1, 'datetime': '2018-11-26 11:04:20.694837', 'mgs': 0, 'flw2': 3.22, 'flw1': 3.84, 'flw0': 6.1, 'time': 37.66, 'compass': -131.61, 'pitch': -9.57, 'roll': 15.47}
{'lipoC2': 7.67, 'temp': 23.94, 'lipoC3S3': 12.29, 'state': 'normal', 'rot1': 518, 'rot0': 492, 'rot3': 57, 'rot2': 75, 'depth': 3.217, 'yaw': 4.61, 'datetime': '2018-11-26 11:04:20.909222', 'mgs': 0, 'flw2': 3.48, 'flw1': 0.0, 'flw0': 6.2, 'time': 37.88, 'compass': -132.11, 'pitch': -9.34, 'roll': 14.96}
{'lipoC2': 7.67, 'temp': 24.13, 'lipoC3S3': 12.19, 'state': 'normal', 'rot1': 521, 'rot0': 495, 'rot3': 57, 'rot2': 75, 'depth': 1.996, 'yaw': 2.99, 'datetime': '2018-11-26 11:04:21.116081', 'mgs': 0, 'flw2': 3.21, 'flw1': 0.0, 'flw0': 6.03, 'time': 38.09, 'compass': -133.73, 'pitch': -8.85, 'roll': 13.37}
{'lipoC2': 7.68, 'temp': 24.13, 'lipoC3S3': 12.26, 'state': 'normal', 'rot1': 523, 'rot0': 498, 'rot3': 57, 'rot2': 75, 'depth': 2.835, 'yaw': 0.66, 'datetime': '2018-11-26 11:04:21.327515', 'mgs': 0, 'flw2': 3.43, 'flw1': 0.0, 'flw0': 5.9, 'time': 38.3, 'compass': -136.06, 'pitch': -8.56, 'roll': 12.48}
{'lipoC2': 7.67, 'temp': 24.13, 'lipoC3S3': 12.08, 'state': 'normal', 'rot1': 526, 'rot0': 501, 'rot3': 58, 'rot2': 76, 'depth': 2.072, 'yaw': -2.1, 'datetime': '2018-11-26 11:04:21.539562', 'mgs': 0, 'flw2': 5.83, 'flw1': 3.54, 'flw0': 6.25, 'time': 38.51, 'compass': -138.81, 'pitch': -8.73, 'roll': 12.51}
{'lipoC2': 7.68, 'temp': 24.13, 'lipoC3S3': 12.25, 'state': 'normal', 'rot1': 530, 'rot0': 505, 'rot3': 59, 'rot2': 77, 'depth': 3.217, 'yaw': -4.17, 'datetime': '2018-11-26 11:04:21.751917', 'mgs': 0, 'flw2': 6.08, 'flw1': 4.57, 'flw0': 5.96, 'time': 38.72, 'compass': -140.89, 'pitch': -9.19, 'roll': 13.57}
{'lipoC2': 7.67, 'temp': 24.25, 'lipoC3S3': 12.26, 'state': 'normal', 'rot1': 533, 'rot0': 508, 'rot3': 60, 'rot2': 78, 'depth': 2.454, 'yaw': -5.1, 'datetime': '2018-11-26 11:04:21.957135', 'mgs': 0, 'flw2': 5.96, 'flw1': 4.34, 'flw0': 3.53, 'time': 38.93, 'compass': -141.82, 'pitch': -9.69, 'roll': 15.21}
{'lipoC2': 7.67, 'temp': 23.75, 'lipoC3S3': 12.18, 'state': 'normal', 'rot1': 536, 'rot0': 510, 'rot3': 60, 'rot2': 79, 'depth': 1.996, 'yaw': -4.27, 'datetime': '2018-11-26 11:04:22.165928', 'mgs': 0, 'flw2': 5.6, 'flw1': 0.0, 'flw0': 3.59, 'time': 39.14, 'compass': -140.98, 'pitch': -10.24, 'roll': 15.24}
{'lipoC2': 7.68, 'temp': 24.19, 'lipoC3S3': 12.27, 'state': 'normal', 'rot1': 540, 'rot0': 513, 'rot3': 60, 'rot2': 79, 'depth': 3.979, 'yaw': -2.22, 'datetime': '2018-11-26 11:04:22.378476', 'mgs': 0, 'flw2': 6.02, 'flw1': 0.0, 'flw0': 3.53, 'time': 39.35, 'compass': -138.94, 'pitch': -10.48, 'roll': 14.08}
{'lipoC2': 7.67, 'temp': 24.13, 'lipoC3S3': 12.27, 'state': 'normal', 'rot1': 543, 'rot0': 515, 'rot3': 60, 'rot2': 79, 'depth': 3.827, 'yaw': 0.61, 'datetime': '2018-11-26 11:04:22.591694', 'mgs': 0, 'flw2': 5.88, 'flw1': 0.0, 'flw0': 3.49, 'time': 39.57, 'compass': -136.11, 'pitch': -10.7, 'roll': 13.12}
{'lipoC2': 7.68, 'temp': 24.19, 'lipoC3S3': 12.18, 'state': 'normal', 'rot1': 546, 'rot0': 518, 'rot3': 60, 'rot2': 79, 'depth': 3.14, 'yaw': 4.19, 'datetime': '2018-11-26 11:04:22.800198', 'mgs': 0, 'flw2': 3.31, 'flw1': 5.04, 'flw0': 6.02, 'time': 39.78, 'compass': -132.53, 'pitch': -10.94, 'roll': 12.58}
{'lipoC2': 7.67, 'temp': 24.13, 'lipoC3S3': 12.18, 'state': 'normal', 'rot1': 549, 'rot0': 521, 'rot3': 61, 'rot2': 80, 'depth': 1.996, 'yaw': 5.82, 'datetime': '2018-11-26 11:04:23.013458', 'mgs': 0, 'flw2': 3.14, 'flw1': 0.0, 'flw0': 5.93, 'time': 39.99, 'compass': -130.9, 'pitch': -10.95, 'roll': 12.71}
{'lipoC2': 7.67, 'temp': 24.13, 'lipoC3S3': 12.27, 'state': 'normal', 'rot1': 552, 'rot0': 525, 'rot3': 61, 'rot2': 80, 'depth': 2.911, 'yaw': 5.01, 'datetime': '2018-11-26 11:04:23.221935', 'mgs': 0, 'flw2': 3.31, 'flw1': 0.0, 'flw0': 5.98, 'time': 40.2, 'compass': -131.7, 'pitch': -10.45, 'roll': 12.34}
{'lipoC2': 7.67, 'temp': 24.06, 'lipoC3S3': 12.16, 'state': 'normal', 'rot1': 555, 'rot0': 528, 'rot3': 62, 'rot2': 81, 'depth': 1.996, 'yaw': 2.94, 'datetime': '2018-11-26 11:04:23.432059', 'mgs': 0, 'flw2': 3.25, 'flw1': 3.63, 'flw0': 6.01, 'time': 40.41, 'compass': -133.78, 'pitch': -10.24, 'roll': 11.62}
{'lipoC2': 7.67, 'temp': 24.5, 'lipoC3S3': 12.23, 'state': 'normal', 'rot1': 557, 'rot0': 531, 'rot3': 62, 'rot2': 82, 'depth': 1.996, 'yaw': 0.19, 'datetime': '2018-11-26 11:04:23.647893', 'mgs': 0, 'flw2': 3.44, 'flw1': 0.0, 'flw0': 5.8, 'time': 40.62, 'compass': -136.53, 'pitch': -10.13, 'roll': 11.82}
{'lipoC2': 7.67, 'temp': 24.63, 'lipoC3S3': 12.26, 'state': 'normal', 'rot1': 560, 'rot0': 535, 'rot3': 62, 'rot2': 82, 'depth': 1.996, 'yaw': -2.68, 'datetime': '2018-11-26 11:04:23.860806', 'mgs': 0, 'flw2': 5.87, 'flw1': 0.0, 'flw0': 6.07, 'time': 40.83, 'compass': -139.39, 'pitch': -9.79, 'roll': 12.57}
{'lipoC2': 7.67, 'temp': 24.13, 'lipoC3S3': 12.18, 'state': 'normal', 'rot1': 563, 'rot0': 538, 'rot3': 62, 'rot2': 82, 'depth': 1.996, 'yaw': -4.61, 'datetime': '2018-11-26 11:04:24.071157', 'mgs': 0, 'flw2': 5.73, 'flw1': 0.0, 'flw0': 3.43, 'time': 41.05, 'compass': -141.32, 'pitch': -9.82, 'roll': 13.42}
{'lipoC2': 7.67, 'temp': 24.13, 'lipoC3S3': 12.25, 'state': 'normal', 'rot1': 566, 'rot0': 541, 'rot3': 63, 'rot2': 82, 'depth': 3.14, 'yaw': -4.96, 'datetime': '2018-11-26 11:04:24.281493', 'mgs': 0, 'flw2': 5.68, 'flw1': 5.04, 'flw0': 3.53, 'time': 41.26, 'compass': -141.67, 'pitch': -10.1, 'roll': 13.36}
{'lipoC2': 7.68, 'temp': 24.0, 'lipoC3S3': 12.18, 'state': 'normal', 'rot1': 570, 'rot0': 544, 'rot3': 63, 'rot2': 83, 'depth': 2.988, 'yaw': -4.01, 'datetime': '2018-11-26 11:04:24.491449', 'mgs': 0, 'flw2': 5.71, 'flw1': 3.96, 'flw0': 3.43, 'time': 41.47, 'compass': -140.72, 'pitch': -10.33, 'roll': 13.47}
{'lipoC2': 7.68, 'temp': 24.19, 'lipoC3S3': 12.12, 'state': 'normal', 'rot1': 573, 'rot0': 546, 'rot3': 64, 'rot2': 84, 'depth': 2.759, 'yaw': -2.53, 'datetime': '2018-11-26 11:04:24.702887', 'mgs': 0, 'flw2': 5.65, 'flw1': 3.46, 'flw0': 3.41, 'time': 41.68, 'compass': -139.24, 'pitch': -10.58, 'roll': 14.62}
{'lipoC2': 7.67, 'temp': 24.19, 'lipoC3S3': 12.19, 'state': 'normal', 'rot1': 576, 'rot0': 549, 'rot3': 65, 'rot2': 85, 'depth': 2.072, 'yaw': -0.81, 'datetime': '2018-11-26 11:04:24.913333', 'mgs': 0, 'flw2': 5.76, 'flw1': 3.49, 'flw0': 3.65, 'time': 41.89, 'compass': -137.52, 'pitch': -10.95, 'roll': 15.52}
{'lipoC2': 7.68, 'temp': 24.25, 'lipoC3S3': 12.23, 'state': 'normal', 'rot1': 580, 'rot0': 552, 'rot3': 66, 'rot2': 87, 'depth': 3.903, 'yaw': 0.69, 'datetime': '2018-11-26 11:04:25.124995', 'mgs': 0, 'flw2': 6.02, 'flw1': 3.57, 'flw0': 5.93, 'time': 42.1, 'compass': -136.03, 'pitch': -11.15, 'roll': 16.05}
{'lipoC2': 7.67, 'temp': 24.19, 'lipoC3S3': 12.19, 'state': 'normal', 'rot1': 583, 'rot0': 555, 'rot3': 67, 'rot2': 88, 'depth': 2.072, 'yaw': 1.09, 'datetime': '2018-11-26 11:04:25.336395', 'mgs': 0, 'flw2': 3.28, 'flw1': 4.92, 'flw0': 6.18, 'time': 42.31, 'compass': -135.63, 'pitch': -11.09, 'roll': 17.06}
