{'lipoC2': 7.59, 'temp': 25.38, 'lipoC3S3': 12.06, 'state': 'normal', 'rot1': 0, 'rot0': 0, 'rot3': 6, 'rot2': 0, 'depth': -0.14, 'yaw': 0.0, 'datetime': '2018-11-26 11:32:11.373761', 'mgs': 0, 'flw2': 0.0, 'flw1': 1.17, 'flw0': 0.0, 'time': 1.26, 'compass': -16.54, 'pitch': 2.04, 'roll': -5.97}
{'lipoC2': 7.59, 'temp': 25.38, 'lipoC3S3': 12.04, 'state': 'normal', 'rot1': 0, 'rot0': 0, 'rot3': 7, 'rot2': 0, 'depth': -0.14, 'yaw': -0.0, 'datetime': '2018-11-26 11:32:11.579344', 'mgs': 0, 'flw2': 0.0, 'flw1': 1.23, 'flw0': 0.0, 'time': 1.47, 'compass': -16.54, 'pitch': 1.82, 'roll': -5.91}
{'lipoC2': 7.59, 'temp': 25.38, 'lipoC3S3': 12.06, 'state': 'normal', 'rot1': 0, 'rot0': 0, 'rot3': 7, 'rot2': 0, 'depth': -0.064, 'yaw': 0.0, 'datetime': '2018-11-26 11:32:11.789289', 'mgs': 0, 'flw2': 0.0, 'flw1': 1.32, 'flw0': 0.0, 'time': 1.68, 'compass': -16.54, 'pitch': 1.65, 'roll': -5.85}
{'lipoC2': 7.59, 'temp': 25.38, 'lipoC3S3': 12.04, 'state': 'normal', 'rot1': 0, 'rot0': 0, 'rot3': 8, 'rot2': 0, 'depth': -0.217, 'yaw': 0.0, 'datetime': '2018-11-26 11:32:11.996681', 'mgs': 0, 'flw2': 0.0, 'flw1': 1.23, 'flw0': 0.0, 'time': 1.89, 'compass': -16.54, 'pitch': 1.53, 'roll': -5.81}
{'lipoC2': 7.59, 'temp': 25.38, 'lipoC3S3': 12.05, 'state': 'normal', 'rot1': 0, 'rot0': 0, 'rot3': 9, 'rot2': 0, 'depth': -0.14, 'yaw': 0.0, 'datetime': '2018-11-26 11:32:12.209556', 'mgs': 0, 'flw2': 0.0, 'flw1': 1.29, 'flw0': 0.0, 'time': 2.1, 'compass': -16.54, 'pitch': 1.43, 'roll': -5.78}
{'lipoC2': 7.59, 'temp': 25.38, 'lipoC3S3': 12.05, 'state': 'normal', 'rot1': 0, 'rot0': 0, 'rot3': 10, 'rot2': 0, 'depth': -0.064, 'yaw': 0.01, 'datetime': '2018-11-26 11:32:12.420411', 'mgs': 0, 'flw2': 0.0, 'flw1': 1.23, 'flw0': 0.0, 'time': 2.31, 'compass': -16.53, 'pitch': 1.35, 'roll': -5.75}
{'lipoC2': 7.59, 'temp': 25.38, 'lipoC3S3': 12.06, 'state': 'normal', 'rot1': 0, 'rot0': 0, 'rot3': 11, 'rot2': 0, 'depth': -0.217, 'yaw': 0.0, 'datetime': '2018-11-26 11:32:12.625386', 'mgs': 0, 'flw2': 0.0, 'flw1': 1.32, 'flw0': 0.0, 'time': 2.52, 'compass': -16.54, 'pitch': 1.27, 'roll': -5.74}
{'lipoC2': 7.59, 'temp': 25.38, 'lipoC3S3': 12.04, 'state': 'normal', 'rot1': 0, 'rot0': 0, 'rot3': 12, 'rot2': 0, 'depth': -0.217, 'yaw': 0.01, 'datetime': '2018-11-26 11:32:12.839649', 'mgs': 0, 'flw2': 0.0, 'flw1': 1.2, 'flw0': 0.0, 'time': 2.72, 'compass': -16.53, 'pitch': 1.21, 'roll': -5.71}
{'lipoC2': 7.58, 'temp': 25.38, 'lipoC3S3': 12.05, 'state': 'normal', 'rot1': 0, 'rot0': 0, 'rot3': 13, 'rot2': 0, 'depth': 0.012, 'yaw': 0.01, 'datetime': '2018-11-26 11:32:13.047878', 'mgs': 0, 'flw2': 0.0, 'flw1': 1.29, 'flw0': 0.0, 'time': 2.93, 'compass': -16.53, 'pitch': 1.15, 'roll': -5.7}
{'lipoC2': 7.59, 'temp': 25.38, 'lipoC3S3': 12.06, 'state': 'normal', 'rot1': 0, 'rot0': 0, 'rot3': 14, 'rot2': 0, 'depth': -0.14, 'yaw': 0.01, 'datetime': '2018-11-26 11:32:13.253417', 'mgs': 0, 'flw2': 0.0, 'flw1': 1.35, 'flw0': 0.0, 'time': 3.14, 'compass': -16.53, 'pitch': 1.12, 'roll': -5.69}
{'lipoC2': 7.59, 'temp': 25.38, 'lipoC3S3': 12.06, 'state': 'normal', 'rot1': 0, 'rot0': 0, 'rot3': 15, 'rot2': 0, 'depth': 0.012, 'yaw': 0.01, 'datetime': '2018-11-26 11:32:13.463415', 'mgs': 0, 'flw2': 0.0, 'flw1': 1.44, 'flw0': 0.0, 'time': 3.35, 'compass': -16.53, 'pitch': 1.12, 'roll': -5.69}
{'lipoC2': 7.58, 'temp': 25.38, 'lipoC3S3': 12.05, 'state': 'normal', 'rot1': 0, 'rot0': 0, 'rot3': 16, 'rot2': 0, 'depth': -0.14, 'yaw': 0.01, 'datetime': '2018-11-26 11:32:13.672548', 'mgs': 0, 'flw2': 0.0, 'flw1': 1.32, 'flw0': 0.0, 'time': 3.56, 'compass': -16.53, 'pitch': 1.12, 'roll': -5.69}
{'lipoC2': 7.59, 'temp': 25.38, 'lipoC3S3': 12.06, 'state': 'normal', 'rot1': 0, 'rot0': 0, 'rot3': 17, 'rot2': 0, 'depth': -0.14, 'yaw': 0.01, 'datetime': '2018-11-26 11:32:13.881701', 'mgs': 0, 'flw2': 0.0, 'flw1': 1.2, 'flw0': 0.0, 'time': 3.77, 'compass': -16.53, 'pitch': 1.12, 'roll': -5.69}
{'lipoC2': 7.59, 'temp': 25.38, 'lipoC3S3': 12.05, 'state': 'normal', 'rot1': 0, 'rot0': 0, 'rot3': 17, 'rot2': 0, 'depth': -0.14, 'yaw': 0.01, 'datetime': '2018-11-26 11:32:14.089968', 'mgs': 0, 'flw2': 0.0, 'flw1': 1.35, 'flw0': 0.0, 'time': 3.98, 'compass': -16.53, 'pitch': 1.12, 'roll': -5.69}
{'lipoC2': 7.59, 'temp': 25.38, 'lipoC3S3': 12.06, 'state': 'normal', 'rot1': 0, 'rot0': 0, 'rot3': 18, 'rot2': 0, 'depth': -0.064, 'yaw': 0.01, 'datetime': '2018-11-26 11:32:14.299908', 'mgs': 0, 'flw2': 0.0, 'flw1': 1.2, 'flw0': 0.0, 'time': 4.19, 'compass': -16.53, 'pitch': 1.12, 'roll': -5.69}
{'lipoC2': 7.59, 'temp': 25.38, 'lipoC3S3': 12.05, 'state': 'normal', 'rot1': 0, 'rot0': 0, 'rot3': 19, 'rot2': 0, 'depth': -0.293, 'yaw': 0.01, 'datetime': '2018-11-26 11:32:14.510278', 'mgs': 0, 'flw2': 0.0, 'flw1': 1.23, 'flw0': 0.0, 'time': 4.4, 'compass': -16.53, 'pitch': 1.12, 'roll': -5.69}
{'lipoC2': 7.59, 'temp': 25.38, 'lipoC3S3': 12.06, 'state': 'normal', 'rot1': 0, 'rot0': 0, 'rot3': 20, 'rot2': 0, 'depth': -0.14, 'yaw': 0.01, 'datetime': '2018-11-26 11:32:14.720262', 'mgs': 0, 'flw2': 0.0, 'flw1': 1.41, 'flw0': 0.0, 'time': 4.61, 'compass': -16.53, 'pitch': 1.12, 'roll': -5.69}
{'lipoC2': 7.59, 'temp': 25.38, 'lipoC3S3': 12.06, 'state': 'normal', 'rot1': 0, 'rot0': 0, 'rot3': 21, 'rot2': 0, 'depth': -0.14, 'yaw': 0.01, 'datetime': '2018-11-26 11:32:14.929390', 'mgs': 0, 'flw2': 0.0, 'flw1': 1.17, 'flw0': 0.0, 'time': 4.82, 'compass': -16.53, 'pitch': 1.12, 'roll': -5.69}
{'lipoC2': 7.59, 'temp': 25.38, 'lipoC3S3': 12.06, 'state': 'normal', 'rot1': 0, 'rot0': 0, 'rot3': 22, 'rot2': 0, 'depth': -0.217, 'yaw': 0.01, 'datetime': '2018-11-26 11:32:15.138591', 'mgs': 0, 'flw2': 0.0, 'flw1': 1.41, 'flw0': 0.0, 'time': 5.03, 'compass': -16.53, 'pitch': 1.12, 'roll': -5.69}
{'lipoC2': 7.59, 'temp': 25.38, 'lipoC3S3': 12.04, 'state': 'normal', 'rot1': 0, 'rot0': 0, 'rot3': 23, 'rot2': 0, 'depth': -0.217, 'yaw': 0.01, 'datetime': '2018-11-26 11:32:15.347525', 'mgs': 0, 'flw2': 0.0, 'flw1': 1.17, 'flw0': 0.0, 'time': 5.24, 'compass': -16.53, 'pitch': 1.12, 'roll': -5.69}
{'lipoC2': 7.58, 'temp': 25.44, 'lipoC3S3': 12.06, 'state': 'normal', 'rot1': 0, 'rot0': 0, 'rot3': 24, 'rot2': 0, 'depth': -0.14, 'yaw': 0.01, 'datetime': '2018-11-26 11:32:15.558173', 'mgs': 0, 'flw2': 0.0, 'flw1': 1.35, 'flw0': 0.0, 'time': 5.45, 'compass': -16.53, 'pitch': 1.12, 'roll': -5.69}
{'lipoC2': 7.59, 'temp': 25.38, 'lipoC3S3': 12.05, 'state': 'normal', 'rot1': 0, 'rot0': 0, 'rot3': 25, 'rot2': 0, 'depth': 0.089, 'yaw': 0.01, 'datetime': '2018-11-26 11:32:15.767240', 'mgs': 0, 'flw2': 0.0, 'flw1': 1.32, 'flw0': 0.0, 'time': 5.66, 'compass': -16.53, 'pitch': 1.12, 'roll': -5.69}
{'lipoC2': 7.58, 'temp': 25.38, 'lipoC3S3': 12.05, 'state': 'normal', 'rot1': 0, 'rot0': 0, 'rot3': 26, 'rot2': 0, 'depth': -0.14, 'yaw': 0.01, 'datetime': '2018-11-26 11:32:15.979867', 'mgs': 0, 'flw2': 0.0, 'flw1': 1.29, 'flw0': 0.0, 'time': 5.87, 'compass': -16.53, 'pitch': 1.12, 'roll': -5.69}
{'lipoC2': 7.59, 'temp': 25.38, 'lipoC3S3': 12.05, 'state': 'normal', 'rot1': 0, 'rot0': 0, 'rot3': 27, 'rot2': 0, 'depth': -0.064, 'yaw': 0.01, 'datetime': '2018-11-26 11:32:16.187808', 'mgs': 0, 'flw2': 0.0, 'flw1': 1.2, 'flw0': 0.0, 'time': 6.08, 'compass': -16.53, 'pitch': 1.12, 'roll': -5.69}
{'lipoC2': 7.59, 'temp': 25.38, 'lipoC3S3': 12.05, 'state': 'normal', 'rot1': 0, 'rot0': 0, 'rot3': 27, 'rot2': 0, 'depth': -0.217, 'yaw': 0.01, 'datetime': '2018-11-26 11:32:16.395334', 'mgs': 0, 'flw2': 0.0, 'flw1': 1.26, 'flw0': 0.0, 'time': 6.29, 'compass': -16.53, 'pitch': 1.12, 'roll': -5.69}
{'lipoC2': 7.58, 'temp': 25.38, 'lipoC3S3': 12.05, 'state': 'normal', 'rot1': 0, 'rot0': 0, 'rot3': 28, 'rot2': 0, 'depth': -0.064, 'yaw': 0.01, 'datetime': '2018-11-26 11:32:16.605850', 'mgs': 0, 'flw2': 0.0, 'flw1': 1.29, 'flw0': 0.0, 'time': 6.5, 'compass': -16.53, 'pitch': 1.12, 'roll': -5.69}
{'lipoC2': 7.58, 'temp': 25.38, 'lipoC3S3': 12.04, 'state': 'normal', 'rot1': 0, 'rot0': 0, 'rot3': 29, 'rot2': 0, 'depth': -0.217, 'yaw': 0.01, 'datetime': '2018-11-26 11:32:16.814732', 'mgs': 0, 'flw2': 0.0, 'flw1': 1.2, 'flw0': 0.0, 'time': 6.71, 'compass': -16.53, 'pitch': 1.12, 'roll': -5.69}
{'lipoC2': 7.59, 'temp': 25.38, 'lipoC3S3': 12.05, 'state': 'normal', 'rot1': 0, 'rot0': 0, 'rot3': 30, 'rot2': 0, 'depth': -0.217, 'yaw': 0.01, 'datetime': '2018-11-26 11:32:17.024543', 'mgs': 0, 'flw2': 0.0, 'flw1': 1.41, 'flw0': 0.0, 'time': 6.92, 'compass': -16.53, 'pitch': 1.12, 'roll': -5.69}
{'lipoC2': 7.59, 'temp': 25.38, 'lipoC3S3': 12.06, 'state': 'normal', 'rot1': 0, 'rot0': 0, 'rot3': 31, 'rot2': 0, 'depth': -0.064, 'yaw': 0.01, 'datetime': '2018-11-26 11:32:17.234814', 'mgs': 0, 'flw2': 0.0, 'flw1': 1.2, 'flw0': 0.0, 'time': 7.13, 'compass': -16.53, 'pitch': 1.12, 'roll': -5.69}
{'lipoC2': 7.59, 'temp': 25.44, 'lipoC3S3': 12.06, 'state': 'normal', 'rot1': 0, 'rot0': 0, 'rot3': 32, 'rot2': 0, 'depth': -0.293, 'yaw': 0.01, 'datetime': '2018-11-26 11:32:17.444234', 'mgs': 0, 'flw2': 0.0, 'flw1': 1.38, 'flw0': 0.0, 'time': 7.34, 'compass': -16.53, 'pitch': 1.12, 'roll': -5.69}
{'lipoC2': 7.59, 'temp': 25.38, 'lipoC3S3': 12.04, 'state': 'normal', 'rot1': 0, 'rot0': 0, 'rot3': 33, 'rot2': 0, 'depth': -0.14, 'yaw': 0.01, 'datetime': '2018-11-26 11:32:17.655742', 'mgs': 0, 'flw2': 0.0, 'flw1': 1.26, 'flw0': 0.0, 'time': 7.55, 'compass': -16.53, 'pitch': 1.12, 'roll': -5.69}
{'lipoC2': 7.58, 'temp': 25.44, 'lipoC3S3': 12.06, 'state': 'normal', 'rot1': 0, 'rot0': 0, 'rot3': 34, 'rot2': 0, 'depth': -0.14, 'yaw': 0.01, 'datetime': '2018-11-26 11:32:17.862948', 'mgs': 0, 'flw2': 0.0, 'flw1': 1.29, 'flw0': 0.0, 'time': 7.76, 'compass': -16.53, 'pitch': 1.12, 'roll': -5.69}
{'lipoC2': 7.59, 'temp': 25.44, 'lipoC3S3': 12.06, 'state': 'normal', 'rot1': 0, 'rot0': 0, 'rot3': 35, 'rot2': 0, 'depth': -0.064, 'yaw': 0.01, 'datetime': '2018-11-26 11:32:18.074775', 'mgs': 0, 'flw2': 0.0, 'flw1': 1.32, 'flw0': 0.0, 'time': 7.97, 'compass': -16.53, 'pitch': 1.12, 'roll': -5.69}
{'lipoC2': 7.59, 'temp': 25.38, 'lipoC3S3': 12.04, 'state': 'normal', 'rot1': 0, 'rot0': 0, 'rot3': 36, 'rot2': 0, 'depth': -0.217, 'yaw': 0.01, 'datetime': '2018-11-26 11:32:18.288994', 'mgs': 0, 'flw2': 0.0, 'flw1': 1.29, 'flw0': 0.0, 'time': 8.18, 'compass': -16.53, 'pitch': 1.12, 'roll': -5.69}
{'lipoC2': 7.59, 'temp': 25.38, 'lipoC3S3': 12.05, 'state': 'normal', 'rot1': 0, 'rot0': 0, 'rot3': 37, 'rot2': 0, 'depth': -0.293, 'yaw': 0.01, 'datetime': '2018-11-26 11:32:18.594190', 'mgs': 0, 'flw2': 0.0, 'flw1': 1.32, 'flw0': 0.0, 'time': 8.49, 'compass': -16.53, 'pitch': 1.12, 'roll': -5.69}
{'lipoC2': 7.58, 'temp': 25.38, 'lipoC3S3': 12.05, 'state': 'normal', 'rot1': 0, 'rot0': 0, 'rot3': 38, 'rot2': 0, 'depth': -0.217, 'yaw': 0.01, 'datetime': '2018-11-26 11:32:18.803992', 'mgs': 0, 'flw2': 0.0, 'flw1': 1.35, 'flw0': 0.0, 'time': 8.7, 'compass': -16.53, 'pitch': 1.12, 'roll': -5.69}
{'lipoC2': 7.58, 'temp': 25.38, 'lipoC3S3': 12.05, 'state': 'normal', 'rot1': 0, 'rot0': 0, 'rot3': 39, 'rot2': 0, 'depth': -0.14, 'yaw': 0.01, 'datetime': '2018-11-26 11:32:19.013030', 'mgs': 0, 'flw2': 0.0, 'flw1': 1.41, 'flw0': 0.0, 'time': 8.91, 'compass': -16.53, 'pitch': 1.12, 'roll': -5.69}
{'lipoC2': 7.59, 'temp': 25.38, 'lipoC3S3': 12.05, 'state': 'normal', 'rot1': 0, 'rot0': 0, 'rot3': 40, 'rot2': 0, 'depth': -0.14, 'yaw': 0.01, 'datetime': '2018-11-26 11:32:19.227164', 'mgs': 0, 'flw2': 0.0, 'flw1': 1.2, 'flw0': 0.0, 'time': 9.12, 'compass': -16.53, 'pitch': 1.12, 'roll': -5.69}
{'lipoC2': 7.59, 'temp': 25.38, 'lipoC3S3': 12.05, 'state': 'normal', 'rot1': 0, 'rot0': 0, 'rot3': 41, 'rot2': 0, 'depth': -0.14, 'yaw': 0.01, 'datetime': '2018-11-26 11:32:19.434963', 'mgs': 0, 'flw2': 0.0, 'flw1': 1.26, 'flw0': 0.0, 'time': 9.33, 'compass': -16.53, 'pitch': 1.12, 'roll': -5.69}
{'lipoC2': 7.59, 'temp': 25.38, 'lipoC3S3': 12.05, 'state': 'normal', 'rot1': 0, 'rot0': 0, 'rot3': 41, 'rot2': 0, 'depth': -0.064, 'yaw': 0.01, 'datetime': '2018-11-26 11:32:19.644766', 'mgs': 0, 'flw2': 0.0, 'flw1': 1.26, 'flw0': 0.0, 'time': 9.54, 'compass': -16.53, 'pitch': 1.12, 'roll': -5.69}
{'lipoC2': 7.59, 'temp': 25.38, 'lipoC3S3': 12.05, 'state': 'normal', 'rot1': 0, 'rot0': 0, 'rot3': 42, 'rot2': 0, 'depth': -0.217, 'yaw': 0.01, 'datetime': '2018-11-26 11:32:19.854170', 'mgs': 0, 'flw2': 0.0, 'flw1': 1.32, 'flw0': 0.0, 'time': 9.75, 'compass': -16.53, 'pitch': 1.12, 'roll': -5.69}
{'lipoC2': 7.58, 'temp': 25.38, 'lipoC3S3': 12.05, 'state': 'normal', 'rot1': 0, 'rot0': 0, 'rot3': 43, 'rot2': 0, 'depth': -0.217, 'yaw': 0.01, 'datetime': '2018-11-26 11:32:20.062762', 'mgs': 0, 'flw2': 0.0, 'flw1': 1.17, 'flw0': 0.0, 'time': 9.96, 'compass': -16.53, 'pitch': 1.12, 'roll': -5.69}
{'lipoC2': 7.59, 'temp': 25.38, 'lipoC3S3': 12.06, 'state': 'normal', 'rot1': 0, 'rot0': 0, 'rot3': 44, 'rot2': 0, 'depth': -0.217, 'yaw': 0.01, 'datetime': '2018-11-26 11:32:20.271641', 'mgs': 0, 'flw2': 0.0, 'flw1': 1.32, 'flw0': 0.0, 'time': 10.17, 'compass': -16.53, 'pitch': 1.12, 'roll': -5.69}
{'lipoC2': 7.59, 'temp': 25.38, 'lipoC3S3': 12.05, 'state': 'normal', 'rot1': 0, 'rot0': 0, 'rot3': 45, 'rot2': 0, 'depth': -0.14, 'yaw': 0.01, 'datetime': '2018-11-26 11:32:20.482099', 'mgs': 0, 'flw2': 0.0, 'flw1': 1.29, 'flw0': 0.0, 'time': 10.38, 'compass': -16.53, 'pitch': 1.12, 'roll': -5.69}
{'lipoC2': 7.59, 'temp': 25.38, 'lipoC3S3': 12.05, 'state': 'normal', 'rot1': 0, 'rot0': 0, 'rot3': 46, 'rot2': 0, 'depth': -0.217, 'yaw': 0.01, 'datetime': '2018-11-26 11:32:20.689347', 'mgs': 0, 'flw2': 0.0, 'flw1': 1.32, 'flw0': 0.0, 'time': 10.59, 'compass': -16.53, 'pitch': 1.12, 'roll': -5.69}
{'lipoC2': 7.59, 'temp': 25.38, 'lipoC3S3': 12.05, 'state': 'normal', 'rot1': 0, 'rot0': 0, 'rot3': 47, 'rot2': 0, 'depth': -0.14, 'yaw': 0.01, 'datetime': '2018-11-26 11:32:20.898213', 'mgs': 0, 'flw2': 0.0, 'flw1': 1.14, 'flw0': 0.0, 'time': 10.8, 'compass': -16.53, 'pitch': 1.12, 'roll': -5.69}
{'lipoC2': 7.58, 'temp': 25.44, 'lipoC3S3': 12.06, 'state': 'normal', 'rot1': 0, 'rot0': 0, 'rot3': 48, 'rot2': 0, 'depth': -0.217, 'yaw': 0.01, 'datetime': '2018-11-26 11:32:21.107298', 'mgs': 0, 'flw2': 0.0, 'flw1': 1.26, 'flw0': 0.0, 'time': 11.01, 'compass': -16.53, 'pitch': 1.12, 'roll': -5.69}
{'lipoC2': 7.58, 'temp': 25.38, 'lipoC3S3': 12.06, 'state': 'normal', 'rot1': 0, 'rot0': 0, 'rot3': 49, 'rot2': 0, 'depth': 0.012, 'yaw': 0.01, 'datetime': '2018-11-26 11:32:21.317627', 'mgs': 0, 'flw2': 0.0, 'flw1': 1.41, 'flw0': 0.0, 'time': 11.22, 'compass': -16.53, 'pitch': 1.12, 'roll': -5.69}
{'lipoC2': 7.58, 'temp': 25.44, 'lipoC3S3': 12.04, 'state': 'normal', 'rot1': 0, 'rot0': 0, 'rot3': 50, 'rot2': 0, 'depth': -0.217, 'yaw': 0.01, 'datetime': '2018-11-26 11:32:21.527763', 'mgs': 0, 'flw2': 0.0, 'flw1': 1.26, 'flw0': 0.0, 'time': 11.43, 'compass': -16.53, 'pitch': 1.12, 'roll': -5.69}
{'lipoC2': 7.59, 'temp': 25.38, 'lipoC3S3': 12.06, 'state': 'normal', 'rot1': 0, 'rot0': 0, 'rot3': 50, 'rot2': 0, 'depth': -0.217, 'yaw': 0.01, 'datetime': '2018-11-26 11:32:21.736592', 'mgs': 0, 'flw2': 0.0, 'flw1': 1.35, 'flw0': 0.0, 'time': 11.64, 'compass': -16.53, 'pitch': 1.12, 'roll': -5.69}
{'lipoC2': 7.59, 'temp': 25.38, 'lipoC3S3': 12.02, 'state': 'normal', 'rot1': 0, 'rot0': 0, 'rot3': 51, 'rot2': 0, 'depth': -0.293, 'yaw': 0.01, 'datetime': '2018-11-26 11:32:21.945758', 'mgs': 0, 'flw2': 0.0, 'flw1': 1.23, 'flw0': 0.0, 'time': 11.84, 'compass': -16.53, 'pitch': 1.12, 'roll': -5.69}
{'lipoC2': 7.58, 'temp': 25.38, 'lipoC3S3': 12.05, 'state': 'normal', 'rot1': 0, 'rot0': 0, 'rot3': 52, 'rot2': 0, 'depth': 0.012, 'yaw': 0.01, 'datetime': '2018-11-26 11:32:22.153714', 'mgs': 0, 'flw2': 0.0, 'flw1': 1.29, 'flw0': 0.0, 'time': 12.05, 'compass': -16.53, 'pitch': 1.12, 'roll': -5.69}
{'lipoC2': 7.58, 'temp': 25.38, 'lipoC3S3': 12.06, 'state': 'normal', 'rot1': 0, 'rot0': 0, 'rot3': 53, 'rot2': 0, 'depth': -0.217, 'yaw': 0.01, 'datetime': '2018-11-26 11:32:22.363725', 'mgs': 0, 'flw2': 0.0, 'flw1': 1.26, 'flw0': 0.0, 'time': 12.26, 'compass': -16.53, 'pitch': 1.12, 'roll': -5.69}
{'lipoC2': 7.59, 'temp': 25.38, 'lipoC3S3': 12.05, 'state': 'normal', 'rot1': 0, 'rot0': 0, 'rot3': 54, 'rot2': 0, 'depth': -0.064, 'yaw': 0.01, 'datetime': '2018-11-26 11:32:22.574001', 'mgs': 0, 'flw2': 0.0, 'flw1': 1.23, 'flw0': 0.0, 'time': 12.47, 'compass': -16.53, 'pitch': 1.12, 'roll': -5.69}
{'lipoC2': 7.58, 'temp': 25.31, 'lipoC3S3': 12.05, 'state': 'normal', 'rot1': 0, 'rot0': 0, 'rot3': 55, 'rot2': 0, 'depth': -0.369, 'yaw': 0.01, 'datetime': '2018-11-26 11:32:22.783140', 'mgs': 0, 'flw2': 0.0, 'flw1': 1.2, 'flw0': 0.0, 'time': 12.68, 'compass': -16.53, 'pitch': 1.12, 'roll': -5.69}
{'lipoC2': 7.59, 'temp': 25.38, 'lipoC3S3': 12.06, 'state': 'normal', 'rot1': 0, 'rot0': 0, 'rot3': 56, 'rot2': 0, 'depth': -0.217, 'yaw': 0.01, 'datetime': '2018-11-26 11:32:22.993243', 'mgs': 0, 'flw2': 0.0, 'flw1': 1.26, 'flw0': 0.0, 'time': 12.89, 'compass': -16.53, 'pitch': 1.12, 'roll': -5.69}
{'lipoC2': 7.58, 'temp': 25.38, 'lipoC3S3': 12.05, 'state': 'normal', 'rot1': 0, 'rot0': 0, 'rot3': 57, 'rot2': 0, 'depth': -0.14, 'yaw': 0.01, 'datetime': '2018-11-26 11:32:23.205309', 'mgs': 0, 'flw2': 0.0, 'flw1': 1.14, 'flw0': 0.0, 'time': 13.1, 'compass': -16.53, 'pitch': 1.12, 'roll': -5.69}
{'lipoC2': 7.59, 'temp': 25.38, 'lipoC3S3': 12.06, 'state': 'normal', 'rot1': 0, 'rot0': 0, 'rot3': 58, 'rot2': 0, 'depth': -0.217, 'yaw': 0.01, 'datetime': '2018-11-26 11:32:23.415158', 'mgs': 0, 'flw2': 0.0, 'flw1': 1.32, 'flw0': 0.0, 'time': 13.31, 'compass': -16.53, 'pitch': 1.12, 'roll': -5.69}
{'lipoC2': 7.59, 'temp': 25.44, 'lipoC3S3': 12.05, 'state': 'normal', 'rot1': 0, 'rot0': 0, 'rot3': 59, 'rot2': 0, 'depth': -0.064, 'yaw': 0.01, 'datetime': '2018-11-26 11:32:23.625020', 'mgs': 0, 'flw2': 0.0, 'flw1': 1.26, 'flw0': 0.0, 'time': 13.52, 'compass': -16.53, 'pitch': 1.12, 'roll': -5.69}
{'lipoC2': 7.58, 'temp': 25.44, 'lipoC3S3': 12.05, 'state': 'normal', 'rot1': 0, 'rot0': 0, 'rot3': 60, 'rot2': 0, 'depth': -0.217, 'yaw': 0.01, 'datetime': '2018-11-26 11:32:23.834361', 'mgs': 0, 'flw2': 0.0, 'flw1': 1.35, 'flw0': 0.0, 'time': 13.73, 'compass': -16.53, 'pitch': 1.12, 'roll': -5.69}
{'lipoC2': 7.59, 'temp': 25.38, 'lipoC3S3': 12.05, 'state': 'normal', 'rot1': 0, 'rot0': 0, 'rot3': 61, 'rot2': 0, 'depth': -0.217, 'yaw': 0.01, 'datetime': '2018-11-26 11:32:24.045175', 'mgs': 0, 'flw2': 0.0, 'flw1': 1.41, 'flw0': 0.0, 'time': 13.94, 'compass': -16.53, 'pitch': 1.12, 'roll': -5.69}
{'lipoC2': 7.58, 'temp': 25.38, 'lipoC3S3': 12.05, 'state': 'normal', 'rot1': 0, 'rot0': 0, 'rot3': 61, 'rot2': 0, 'depth': -0.217, 'yaw': 0.01, 'datetime': '2018-11-26 11:32:24.254715', 'mgs': 0, 'flw2': 0.0, 'flw1': 1.26, 'flw0': 0.0, 'time': 14.15, 'compass': -16.53, 'pitch': 1.12, 'roll': -5.69}
{'lipoC2': 7.59, 'temp': 25.44, 'lipoC3S3': 12.06, 'state': 'normal', 'rot1': 0, 'rot0': 0, 'rot3': 62, 'rot2': 0, 'depth': 0.089, 'yaw': 0.01, 'datetime': '2018-11-26 11:32:24.461439', 'mgs': 0, 'flw2': 0.0, 'flw1': 1.32, 'flw0': 0.0, 'time': 14.36, 'compass': -16.53, 'pitch': 1.12, 'roll': -5.69}
{'lipoC2': 7.58, 'temp': 25.44, 'lipoC3S3': 12.06, 'state': 'normal', 'rot1': 0, 'rot0': 0, 'rot3': 63, 'rot2': 0, 'depth': -0.14, 'yaw': 0.01, 'datetime': '2018-11-26 11:32:24.672708', 'mgs': 0, 'flw2': 0.0, 'flw1': 1.32, 'flw0': 0.0, 'time': 14.57, 'compass': -16.53, 'pitch': 1.12, 'roll': -5.69}
{'lipoC2': 7.59, 'temp': 25.44, 'lipoC3S3': 12.05, 'state': 'normal', 'rot1': 0, 'rot0': 0, 'rot3': 64, 'rot2': 0, 'depth': 0.012, 'yaw': 0.01, 'datetime': '2018-11-26 11:32:24.881387', 'mgs': 0, 'flw2': 0.0, 'flw1': 1.35, 'flw0': 0.0, 'time': 14.78, 'compass': -16.53, 'pitch': 1.12, 'roll': -5.69}
{'lipoC2': 7.59, 'temp': 25.44, 'lipoC3S3': 12.05, 'state': 'normal', 'rot1': 0, 'rot0': 0, 'rot3': 65, 'rot2': 0, 'depth': -0.217, 'yaw': 0.01, 'datetime': '2018-11-26 11:32:25.090044', 'mgs': 0, 'flw2': 0.0, 'flw1': 1.23, 'flw0': 0.0, 'time': 14.99, 'compass': -16.53, 'pitch': 1.12, 'roll': -5.69}
{'lipoC2': 7.59, 'temp': 25.44, 'lipoC3S3': 12.06, 'state': 'normal', 'rot1': 0, 'rot0': 0, 'rot3': 66, 'rot2': 0, 'depth': -0.14, 'yaw': 0.01, 'datetime': '2018-11-26 11:32:25.300346', 'mgs': 0, 'flw2': 0.0, 'flw1': 1.26, 'flw0': 0.0, 'time': 15.2, 'compass': -16.53, 'pitch': 1.12, 'roll': -5.69}
{'lipoC2': 7.59, 'temp': 25.38, 'lipoC3S3': 12.04, 'state': 'normal', 'rot1': 0, 'rot0': 0, 'rot3': 67, 'rot2': 0, 'depth': -0.14, 'yaw': 0.01, 'datetime': '2018-11-26 11:32:25.507563', 'mgs': 0, 'flw2': 0.0, 'flw1': 1.23, 'flw0': 0.0, 'time': 15.41, 'compass': -16.53, 'pitch': 1.12, 'roll': -5.69}
{'lipoC2': 7.59, 'temp': 25.44, 'lipoC3S3': 12.06, 'state': 'normal', 'rot1': 0, 'rot0': 0, 'rot3': 68, 'rot2': 0, 'depth': -0.217, 'yaw': 0.01, 'datetime': '2018-11-26 11:32:25.718237', 'mgs': 0, 'flw2': 0.0, 'flw1': 1.41, 'flw0': 0.0, 'time': 15.62, 'compass': -16.53, 'pitch': 1.12, 'roll': -5.69}
{'lipoC2': 7.59, 'temp': 25.38, 'lipoC3S3': 12.05, 'state': 'normal', 'rot1': 0, 'rot0': 0, 'rot3': 69, 'rot2': 0, 'depth': -0.064, 'yaw': 0.01, 'datetime': '2018-11-26 11:32:25.927829', 'mgs': 0, 'flw2': 0.0, 'flw1': 1.26, 'flw0': 0.0, 'time': 15.83, 'compass': -16.53, 'pitch': 1.12, 'roll': -5.69}
{'lipoC2': 7.59, 'temp': 25.38, 'lipoC3S3': 12.05, 'state': 'normal', 'rot1': 0, 'rot0': 0, 'rot3': 70, 'rot2': 0, 'depth': -0.217, 'yaw': 0.01, 'datetime': '2018-11-26 11:32:26.138545', 'mgs': 0, 'flw2': 0.0, 'flw1': 1.26, 'flw0': 0.0, 'time': 16.04, 'compass': -16.53, 'pitch': 1.12, 'roll': -5.69}
{'lipoC2': 7.59, 'temp': 25.44, 'lipoC3S3': 12.05, 'state': 'normal', 'rot1': 0, 'rot0': 0, 'rot3': 70, 'rot2': 0, 'depth': -0.14, 'yaw': 0.01, 'datetime': '2018-11-26 11:32:26.345703', 'mgs': 0, 'flw2': 0.0, 'flw1': 1.32, 'flw0': 0.0, 'time': 16.25, 'compass': -16.53, 'pitch': 1.12, 'roll': -5.69}
{'lipoC2': 7.58, 'temp': 25.44, 'lipoC3S3': 12.05, 'state': 'normal', 'rot1': 0, 'rot0': 0, 'rot3': 71, 'rot2': 0, 'depth': -0.217, 'yaw': 0.01, 'datetime': '2018-11-26 11:32:26.555774', 'mgs': 0, 'flw2': 0.0, 'flw1': 1.2, 'flw0': 0.0, 'time': 16.46, 'compass': -16.53, 'pitch': 1.12, 'roll': -5.69}
{'lipoC2': 7.58, 'temp': 25.38, 'lipoC3S3': 12.06, 'state': 'normal', 'rot1': 0, 'rot0': 0, 'rot3': 72, 'rot2': 0, 'depth': 0.012, 'yaw': 0.01, 'datetime': '2018-11-26 11:32:26.764186', 'mgs': 0, 'flw2': 0.0, 'flw1': 1.32, 'flw0': 0.0, 'time': 16.67, 'compass': -16.53, 'pitch': 1.12, 'roll': -5.69}
{'lipoC2': 7.59, 'temp': 25.44, 'lipoC3S3': 12.05, 'state': 'normal', 'rot1': 0, 'rot0': 0, 'rot3': 73, 'rot2': 0, 'depth': -0.217, 'yaw': 0.01, 'datetime': '2018-11-26 11:32:26.974187', 'mgs': 0, 'flw2': 0.0, 'flw1': 1.38, 'flw0': 0.0, 'time': 16.88, 'compass': -16.53, 'pitch': 1.12, 'roll': -5.69}
{'lipoC2': 7.59, 'temp': 25.44, 'lipoC3S3': 12.05, 'state': 'normal', 'rot1': 0, 'rot0': 0, 'rot3': 74, 'rot2': 0, 'depth': -0.064, 'yaw': 0.01, 'datetime': '2018-11-26 11:32:27.185757', 'mgs': 0, 'flw2': 0.0, 'flw1': 1.29, 'flw0': 0.0, 'time': 17.08, 'compass': -16.53, 'pitch': 1.12, 'roll': -5.69}
{'lipoC2': 7.59, 'temp': 25.38, 'lipoC3S3': 12.04, 'state': 'normal', 'rot1': 0, 'rot0': 0, 'rot3': 75, 'rot2': 0, 'depth': -0.293, 'yaw': 0.01, 'datetime': '2018-11-26 11:32:27.394884', 'mgs': 0, 'flw2': 0.0, 'flw1': 1.29, 'flw0': 0.0, 'time': 17.3, 'compass': -16.53, 'pitch': 1.12, 'roll': -5.69}
{'lipoC2': 7.59, 'temp': 25.44, 'lipoC3S3': 12.05, 'state': 'normal', 'rot1': 0, 'rot0': 0, 'rot3': 76, 'rot2': 0, 'depth': -0.14, 'yaw': 0.01, 'datetime': '2018-11-26 11:32:27.602886', 'mgs': 0, 'flw2': 0.0, 'flw1': 1.38, 'flw0': 0.0, 'time': 17.51, 'compass': -16.53, 'pitch': 1.12, 'roll': -5.69}
{'lipoC2': 7.59, 'temp': 25.44, 'lipoC3S3': 12.04, 'state': 'normal', 'rot1': 0, 'rot0': 0, 'rot3': 77, 'rot2': 0, 'depth': -0.293, 'yaw': 0.01, 'datetime': '2018-11-26 11:32:27.810606', 'mgs': 0, 'flw2': 0.0, 'flw1': 1.2, 'flw0': 0.0, 'time': 17.72, 'compass': -16.53, 'pitch': 1.12, 'roll': -5.69}
{'lipoC2': 7.58, 'temp': 25.44, 'lipoC3S3': 12.06, 'state': 'normal', 'rot1': 0, 'rot0': 0, 'rot3': 78, 'rot2': 0, 'depth': -0.14, 'yaw': 0.01, 'datetime': '2018-11-26 11:32:28.023363', 'mgs': 0, 'flw2': 0.0, 'flw1': 1.35, 'flw0': 0.0, 'time': 17.92, 'compass': -16.53, 'pitch': 1.12, 'roll': -5.69}
{'lipoC2': 7.58, 'temp': 25.44, 'lipoC3S3': 12.05, 'state': 'normal', 'rot1': 0, 'rot0': 0, 'rot3': 79, 'rot2': 0, 'depth': 0.012, 'yaw': 0.01, 'datetime': '2018-11-26 11:32:28.232783', 'mgs': 0, 'flw2': 0.0, 'flw1': 1.23, 'flw0': 0.0, 'time': 18.14, 'compass': -16.53, 'pitch': 1.12, 'roll': -5.69}
{'lipoC2': 7.59, 'temp': 25.44, 'lipoC3S3': 12.05, 'state': 'normal', 'rot1': 0, 'rot0': 0, 'rot3': 79, 'rot2': 0, 'depth': -0.217, 'yaw': 0.01, 'datetime': '2018-11-26 11:32:28.439407', 'mgs': 0, 'flw2': 0.0, 'flw1': 1.35, 'flw0': 0.0, 'time': 18.34, 'compass': -16.53, 'pitch': 1.12, 'roll': -5.69}
{'lipoC2': 7.58, 'temp': 25.38, 'lipoC3S3': 12.06, 'state': 'normal', 'rot1': 0, 'rot0': 0, 'rot3': 80, 'rot2': 0, 'depth': 0.089, 'yaw': 0.01, 'datetime': '2018-11-26 11:32:28.651812', 'mgs': 0, 'flw2': 0.0, 'flw1': 1.41, 'flw0': 0.0, 'time': 18.55, 'compass': -16.53, 'pitch': 1.12, 'roll': -5.69}
{'lipoC2': 7.59, 'temp': 25.38, 'lipoC3S3': 12.06, 'state': 'normal', 'rot1': 0, 'rot0': 0, 'rot3': 81, 'rot2': 0, 'depth': -0.217, 'yaw': 0.01, 'datetime': '2018-11-26 11:32:28.857612', 'mgs': 0, 'flw2': 0.0, 'flw1': 1.26, 'flw0': 0.0, 'time': 18.76, 'compass': -16.53, 'pitch': 1.12, 'roll': -5.69}
{'lipoC2': 7.58, 'temp': 25.44, 'lipoC3S3': 12.05, 'state': 'normal', 'rot1': 0, 'rot0': 0, 'rot3': 82, 'rot2': 0, 'depth': 0.012, 'yaw': 0.01, 'datetime': '2018-11-26 11:32:29.066560', 'mgs': 0, 'flw2': 0.0, 'flw1': 1.38, 'flw0': 0.0, 'time': 18.97, 'compass': -16.53, 'pitch': 1.12, 'roll': -5.69}
