{'lipoC2': 7.99, 'temp': 0.0, 'lipoC3S3': 12.01, 'state': 'normal', 'rot1': 0, 'rot0': 0, 'rot3': 0, 'rot2': 0, 'depth': 0.165, 'yaw': 0.0, 'datetime': '2018-12-12 10:56:49.649903', 'mgs': 0, 'flw2': 0.0, 'flw1': 0.67, 'flw0': 0.0, 'time': 1.26, 'compass': -3.19, 'pitch': -5.68, 'roll': -1.97}
{'lipoC2': 8.26, 'temp': 0.0, 'lipoC3S3': 12.1, 'state': 'normal', 'rot1': 0, 'rot0': 0, 'rot3': 1, 'rot2': 0, 'depth': -0.827, 'yaw': 0.41, 'datetime': '2018-12-12 10:56:49.855885', 'mgs': 0, 'flw2': 0.0, 'flw1': 0.85, 'flw0': 0.0, 'time': 1.46, 'compass': -2.78, 'pitch': -5.86, 'roll': -2.19}
{'lipoC2': 8.24, 'temp': 0.0, 'lipoC3S3': 12.09, 'state': 'normal', 'rot1': 0, 'rot0': 0, 'rot3': 1, 'rot2': 1, 'depth': 0.928, 'yaw': 0.81, 'datetime': '2018-12-12 10:56:50.064671', 'mgs': 0, 'flw2': 0.2, 'flw1': 0.82, 'flw0': 0.01, 'time': 1.67, 'compass': -2.39, 'pitch': -6.24, 'roll': -2.46}
{'lipoC2': 7.99, 'temp': 0.0, 'lipoC3S3': 12.21, 'state': 'normal', 'rot1': 0, 'rot0': 0, 'rot3': 1, 'rot2': 1, 'depth': 0.47, 'yaw': 1.2, 'datetime': '2018-12-12 10:56:50.274454', 'mgs': 0, 'flw2': 0.0, 'flw1': 2.43, 'flw0': 0.0, 'time': 1.88, 'compass': -2.0, 'pitch': -6.26, 'roll': -2.81}
{'lipoC2': 8.26, 'temp': 0.0, 'lipoC3S3': 12.09, 'state': 'normal', 'rot1': 0, 'rot0': 0, 'rot3': 2, 'rot2': 2, 'depth': -0.751, 'yaw': 1.63, 'datetime': '2018-12-12 10:56:50.482900', 'mgs': 0, 'flw2': 0.09, 'flw1': 1.46, 'flw0': 0.0, 'time': 2.09, 'compass': -1.57, 'pitch': -5.76, 'roll': -3.13}
{'lipoC2': 8.09, 'temp': 0.0, 'lipoC3S3': 12.1, 'state': 'normal', 'rot1': 0, 'rot0': 0, 'rot3': 3, 'rot2': 3, 'depth': -0.293, 'yaw': 2.05, 'datetime': '2018-12-12 10:56:50.690946', 'mgs': 0, 'flw2': 0.24, 'flw1': 1.58, 'flw0': 0.0, 'time': 2.29, 'compass': -1.15, 'pitch': -5.36, 'roll': -3.2}
{'lipoC2': 8.1, 'temp': 0.0, 'lipoC3S3': 11.96, 'state': 'normal', 'rot1': 0, 'rot0': 0, 'rot3': 3, 'rot2': 4, 'depth': 2.225, 'yaw': 2.5, 'datetime': '2018-12-12 10:56:50.899936', 'mgs': 0, 'flw2': 0.0, 'flw1': 1.76, 'flw0': 0.0, 'time': 2.5, 'compass': -0.69, 'pitch': -5.3, 'roll': -3.16}
{'lipoC2': 8.02, 'temp': 0.0, 'lipoC3S3': 12.35, 'state': 'normal', 'rot1': 0, 'rot0': 0, 'rot3': 4, 'rot2': 5, 'depth': -0.903, 'yaw': 2.98, 'datetime': '2018-12-12 10:56:51.108595', 'mgs': 0, 'flw2': 0.0, 'flw1': 3.52, 'flw0': 0.0, 'time': 2.71, 'compass': -0.22, 'pitch': -5.44, 'roll': -3.25}
{'lipoC2': 8.26, 'temp': 0.0, 'lipoC3S3': 12.06, 'state': 'normal', 'rot1': 0, 'rot0': 0, 'rot3': 5, 'rot2': 6, 'depth': -0.98, 'yaw': 3.48, 'datetime': '2018-12-12 10:56:51.317686', 'mgs': 0, 'flw2': 0.0, 'flw1': 3.25, 'flw0': 0.0, 'time': 2.92, 'compass': 0.28, 'pitch': -5.47, 'roll': -3.55}
{'lipoC2': 8.0, 'temp': 0.0, 'lipoC3S3': 11.93, 'state': 'normal', 'rot1': 0, 'rot0': 0, 'rot3': 6, 'rot2': 7, 'depth': 2.911, 'yaw': 3.94, 'datetime': '2018-12-12 10:56:51.527351', 'mgs': 0, 'flw2': 0.0, 'flw1': 2.31, 'flw0': 0.11, 'time': 3.13, 'compass': 0.74, 'pitch': -5.5, 'roll': -3.5}
{'lipoC2': 8.2, 'temp': 0.0, 'lipoC3S3': 12.05, 'state': 'normal', 'rot1': 0, 'rot0': 0, 'rot3': 6, 'rot2': 8, 'depth': -0.522, 'yaw': 4.41, 'datetime': '2018-12-12 10:56:51.733277', 'mgs': 0, 'flw2': 0.21, 'flw1': 2.78, 'flw0': 0.0, 'time': 3.34, 'compass': 1.22, 'pitch': -5.54, 'roll': -3.18}
{'lipoC2': 7.95, 'temp': 0.0, 'lipoC3S3': 12.41, 'state': 'normal', 'rot1': 0, 'rot0': 0, 'rot3': 7, 'rot2': 9, 'depth': -0.674, 'yaw': 4.85, 'datetime': '2018-12-12 10:56:51.943369', 'mgs': 0, 'flw2': 0.29, 'flw1': 2.9, 'flw0': 0.28, 'time': 3.54, 'compass': 1.66, 'pitch': -5.56, 'roll': -2.99}
{'lipoC2': 8.26, 'temp': 0.0, 'lipoC3S3': 12.08, 'state': 'normal', 'rot1': 0, 'rot0': 0, 'rot3': 8, 'rot2': 10, 'depth': -0.98, 'yaw': 5.22, 'datetime': '2018-12-12 10:56:52.152191', 'mgs': 0, 'flw2': 0.0, 'flw1': 3.46, 'flw0': 0.0, 'time': 3.75, 'compass': 2.02, 'pitch': -5.73, 'roll': -2.95}
{'lipoC2': 8.19, 'temp': 0.0, 'lipoC3S3': 12.0, 'state': 'normal', 'rot1': 0, 'rot0': 0, 'rot3': 8, 'rot2': 11, 'depth': 0.546, 'yaw': 5.57, 'datetime': '2018-12-12 10:56:52.361703', 'mgs': 0, 'flw2': 0.32, 'flw1': 2.75, 'flw0': 0.23, 'time': 3.96, 'compass': 2.38, 'pitch': -6.22, 'roll': -2.91}
{'lipoC2': 7.98, 'temp': 0.0, 'lipoC3S3': 12.13, 'state': 'normal', 'rot1': 0, 'rot0': 0, 'rot3': 9, 'rot2': 12, 'depth': -0.217, 'yaw': 5.95, 'datetime': '2018-12-12 10:56:52.569445', 'mgs': 0, 'flw2': 0.0, 'flw1': 2.72, 'flw0': 0.11, 'time': 4.17, 'compass': 2.75, 'pitch': -6.66, 'roll': -3.01}
{'lipoC2': 8.27, 'temp': 0.0, 'lipoC3S3': 12.08, 'state': 'normal', 'rot1': 0, 'rot0': 0, 'rot3': 10, 'rot2': 13, 'depth': -0.751, 'yaw': 6.37, 'datetime': '2018-12-12 10:56:52.778981', 'mgs': 0, 'flw2': 0.0, 'flw1': 2.84, 'flw0': 0.0, 'time': 4.38, 'compass': 3.17, 'pitch': -6.67, 'roll': -2.98}
{'lipoC2': 8.2, 'temp': 0.0, 'lipoC3S3': 12.02, 'state': 'normal', 'rot1': 0, 'rot0': 0, 'rot3': 11, 'rot2': 14, 'depth': -0.446, 'yaw': 6.68, 'datetime': '2018-12-12 10:56:52.996525', 'mgs': 0, 'flw2': 0.0, 'flw1': 3.16, 'flw0': 0.0, 'time': 4.59, 'compass': 3.49, 'pitch': -6.26, 'roll': -2.51}
{'lipoC2': 8.13, 'temp': 0.0, 'lipoC3S3': 12.01, 'state': 'normal', 'rot1': 0, 'rot0': 0, 'rot3': 12, 'rot2': 16, 'depth': 2.682, 'yaw': 6.93, 'datetime': '2018-12-12 10:56:53.293986', 'mgs': 0, 'flw2': 0.0, 'flw1': 2.7, 'flw0': 0.0, 'time': 4.9, 'compass': 3.74, 'pitch': -5.78, 'roll': -1.36}
{'lipoC2': 7.94, 'temp': 0.0, 'lipoC3S3': 12.3, 'state': 'normal', 'rot1': 0, 'rot0': 0, 'rot3': 13, 'rot2': 17, 'depth': 0.165, 'yaw': 7.16, 'datetime': '2018-12-12 10:56:53.503482', 'mgs': 0, 'flw2': 0.07, 'flw1': 2.43, 'flw0': 0.28, 'time': 5.11, 'compass': 3.97, 'pitch': -6.12, 'roll': -0.94}
{'lipoC2': 7.96, 'temp': 0.0, 'lipoC3S3': 12.41, 'state': 'normal', 'rot1': 0, 'rot0': 0, 'rot3': 13, 'rot2': 18, 'depth': -0.522, 'yaw': 7.27, 'datetime': '2018-12-12 10:56:53.713372', 'mgs': 0, 'flw2': 0.13, 'flw1': 2.2, 'flw0': 0.31, 'time': 5.32, 'compass': 4.08, 'pitch': -6.42, 'roll': -0.71}
{'lipoC2': 8.0, 'temp': 0.0, 'lipoC3S3': 11.97, 'state': 'normal', 'rot1': 0, 'rot0': 0, 'rot3': 14, 'rot2': 20, 'depth': -0.064, 'yaw': 7.36, 'datetime': '2018-12-12 10:56:53.925794', 'mgs': 0, 'flw2': 0.26, 'flw1': 2.58, 'flw0': 0.29, 'time': 5.53, 'compass': 4.17, 'pitch': -6.2, 'roll': -0.08}
{'lipoC2': 8.26, 'temp': 0.0, 'lipoC3S3': 12.08, 'state': 'normal', 'rot1': 0, 'rot0': 0, 'rot3': 15, 'rot2': 21, 'depth': -1.208, 'yaw': 7.52, 'datetime': '2018-12-12 10:56:54.134402', 'mgs': 0, 'flw2': 0.0, 'flw1': 3.46, 'flw0': 0.0, 'time': 5.74, 'compass': 4.32, 'pitch': -5.82, 'roll': 0.4}
{'lipoC2': 8.01, 'temp': 0.0, 'lipoC3S3': 12.34, 'state': 'normal', 'rot1': 0, 'rot0': 0, 'rot3': 16, 'rot2': 22, 'depth': 1.309, 'yaw': 7.73, 'datetime': '2018-12-12 10:56:54.344671', 'mgs': 0, 'flw2': 0.13, 'flw1': 2.75, 'flw0': 0.21, 'time': 5.94, 'compass': 4.53, 'pitch': -5.86, 'roll': 0.3}
{'lipoC2': 8.0, 'temp': 0.0, 'lipoC3S3': 11.88, 'state': 'normal', 'rot1': 1, 'rot0': 1, 'rot3': 17, 'rot2': 23, 'depth': 2.454, 'yaw': 8.03, 'datetime': '2018-12-12 10:56:54.553065', 'mgs': 0, 'flw2': 3.89, 'flw1': 2.81, 'flw0': 2.53, 'time': 6.15, 'compass': 4.83, 'pitch': -6.08, 'roll': -0.01}
{'lipoC2': 7.98, 'temp': 0.0, 'lipoC3S3': 12.39, 'state': 'normal', 'rot1': 4, 'rot0': 4, 'rot3': 17, 'rot2': 24, 'depth': -0.446, 'yaw': 9.12, 'datetime': '2018-12-12 10:56:54.761755', 'mgs': 0, 'flw2': 5.64, 'flw1': 3.4, 'flw0': 2.77, 'time': 6.36, 'compass': 5.93, 'pitch': -4.16, 'roll': 0.06}
{'lipoC2': 8.01, 'temp': 0.0, 'lipoC3S3': 12.26, 'state': 'normal', 'rot1': 7, 'rot0': 7, 'rot3': 18, 'rot2': 25, 'depth': 2.53, 'yaw': 11.35, 'datetime': '2018-12-12 10:56:54.972192', 'mgs': 0, 'flw2': 5.91, 'flw1': 2.78, 'flw0': 2.81, 'time': 6.57, 'compass': 8.15, 'pitch': -0.61, 'roll': 0.35}
{'lipoC2': 8.04, 'temp': 0.0, 'lipoC3S3': 11.65, 'state': 'normal', 'rot1': 10, 'rot0': 10, 'rot3': 19, 'rot2': 26, 'depth': 2.377, 'yaw': 14.13, 'datetime': '2018-12-12 10:56:55.183163', 'mgs': 0, 'flw2': 5.47, 'flw1': 3.08, 'flw0': 2.99, 'time': 6.78, 'compass': 10.94, 'pitch': 2.06, 'roll': 0.13}
{'lipoC2': 7.95, 'temp': 0.0, 'lipoC3S3': 12.09, 'state': 'normal', 'rot1': 13, 'rot0': 13, 'rot3': 20, 'rot2': 27, 'depth': -0.751, 'yaw': 16.68, 'datetime': '2018-12-12 10:56:55.396566', 'mgs': 0, 'flw2': 3.7, 'flw1': 2.14, 'flw0': 5.51, 'time': 6.99, 'compass': 13.49, 'pitch': 2.93, 'roll': -0.93}
{'lipoC2': 7.95, 'temp': 0.0, 'lipoC3S3': 12.16, 'state': 'normal', 'rot1': 18, 'rot0': 16, 'rot3': 20, 'rot2': 28, 'depth': 0.775, 'yaw': 16.54, 'datetime': '2018-12-12 10:56:55.606662', 'mgs': 0, 'flw2': 2.38, 'flw1': 2.81, 'flw0': 5.96, 'time': 7.2, 'compass': 13.35, 'pitch': 2.04, 'roll': -2.65}
{'lipoC2': 7.99, 'temp': 0.0, 'lipoC3S3': 11.87, 'state': 'normal', 'rot1': 22, 'rot0': 18, 'rot3': 21, 'rot2': 29, 'depth': -0.217, 'yaw': 13.66, 'datetime': '2018-12-12 10:56:55.812654', 'mgs': 0, 'flw2': 2.7, 'flw1': 2.67, 'flw0': 6.53, 'time': 7.41, 'compass': 10.47, 'pitch': 0.05, 'roll': -4.41}
{'lipoC2': 8.23, 'temp': 0.0, 'lipoC3S3': 11.83, 'state': 'normal', 'rot1': 26, 'rot0': 21, 'rot3': 22, 'rot2': 30, 'depth': -1.056, 'yaw': 9.43, 'datetime': '2018-12-12 10:56:56.032107', 'mgs': 0, 'flw2': 4.44, 'flw1': 2.43, 'flw0': 6.2, 'time': 7.62, 'compass': 6.23, 'pitch': -0.95, 'roll': -6.04}
{'lipoC2': 8.05, 'temp': 0.0, 'lipoC3S3': 11.81, 'state': 'normal', 'rot1': 30, 'rot0': 24, 'rot3': 23, 'rot2': 31, 'depth': 2.377, 'yaw': 5.26, 'datetime': '2018-12-12 10:56:56.234606', 'mgs': 0, 'flw2': 4.47, 'flw1': 3.02, 'flw0': 6.04, 'time': 7.83, 'compass': 2.07, 'pitch': 0.08, 'roll': -7.02}
{'lipoC2': 8.1, 'temp': 0.0, 'lipoC3S3': 11.76, 'state': 'normal', 'rot1': 33, 'rot0': 27, 'rot3': 23, 'rot2': 32, 'depth': 2.377, 'yaw': 1.83, 'datetime': '2018-12-12 10:56:56.447762', 'mgs': 0, 'flw2': 4.65, 'flw1': 3.16, 'flw0': 5.79, 'time': 8.04, 'compass': -1.36, 'pitch': 1.41, 'roll': -7.54}
{'lipoC2': 8.01, 'temp': 0.0, 'lipoC3S3': 11.8, 'state': 'normal', 'rot1': 38, 'rot0': 30, 'rot3': 24, 'rot2': 33, 'depth': 0.928, 'yaw': -1.25, 'datetime': '2018-12-12 10:56:56.656575', 'mgs': 0, 'flw2': 4.71, 'flw1': 3.05, 'flw0': 5.79, 'time': 8.25, 'compass': -4.45, 'pitch': 2.28, 'roll': -8.73}
{'lipoC2': 8.04, 'temp': 0.0, 'lipoC3S3': 11.97, 'state': 'normal', 'rot1': 41, 'rot0': 33, 'rot3': 25, 'rot2': 34, 'depth': 0.699, 'yaw': -4.26, 'datetime': '2018-12-12 10:56:56.875545', 'mgs': 0, 'flw2': 4.75, 'flw1': 3.43, 'flw0': 5.1, 'time': 8.46, 'compass': -7.45, 'pitch': 2.32, 'roll': -9.95}
{'lipoC2': 8.11, 'temp': 0.0, 'lipoC3S3': 11.71, 'state': 'normal', 'rot1': 45, 'rot0': 36, 'rot3': 26, 'rot2': 35, 'depth': 1.691, 'yaw': -6.79, 'datetime': '2018-12-12 10:56:57.081817', 'mgs': 0, 'flw2': 5.74, 'flw1': 3.34, 'flw0': 5.32, 'time': 8.67, 'compass': -9.98, 'pitch': 1.52, 'roll': -10.7}
{'lipoC2': 8.21, 'temp': 0.0, 'lipoC3S3': 11.84, 'state': 'normal', 'rot1': 51, 'rot0': 42, 'rot3': 27, 'rot2': 37, 'depth': 0.546, 'yaw': -8.99, 'datetime': '2018-12-12 10:56:57.386611', 'mgs': 0, 'flw2': 6.65, 'flw1': 3.31, 'flw0': 4.63, 'time': 8.98, 'compass': -12.18, 'pitch': 2.15, 'roll': -11.89}
{'lipoC2': 7.93, 'temp': 0.0, 'lipoC3S3': 12.02, 'state': 'normal', 'rot1': 56, 'rot0': 46, 'rot3': 28, 'rot2': 38, 'depth': -0.446, 'yaw': -9.53, 'datetime': '2018-12-12 10:56:57.598927', 'mgs': 0, 'flw2': 6.27, 'flw1': 2.9, 'flw0': 4.72, 'time': 9.19, 'compass': -12.72, 'pitch': 3.2, 'roll': -12.33}
{'lipoC2': 7.99, 'temp': 0.0, 'lipoC3S3': 11.8, 'state': 'normal', 'rot1': 59, 'rot0': 50, 'rot3': 29, 'rot2': 39, 'depth': 0.928, 'yaw': -9.62, 'datetime': '2018-12-12 10:56:57.809111', 'mgs': 0, 'flw2': 6.8, 'flw1': 2.43, 'flw0': 4.76, 'time': 9.4, 'compass': -12.81, 'pitch': 3.38, 'roll': -12.06}
{'lipoC2': 8.02, 'temp': 0.0, 'lipoC3S3': 11.79, 'state': 'normal', 'rot1': 64, 'rot0': 54, 'rot3': 29, 'rot2': 40, 'depth': 0.47, 'yaw': -9.35, 'datetime': '2018-12-12 10:56:58.030197', 'mgs': 0, 'flw2': 6.58, 'flw1': 3.4, 'flw0': 4.98, 'time': 9.61, 'compass': -12.54, 'pitch': 3.11, 'roll': -11.63}
{'lipoC2': 8.0, 'temp': 0.0, 'lipoC3S3': 11.72, 'state': 'normal', 'rot1': 67, 'rot0': 58, 'rot3': 30, 'rot2': 41, 'depth': 1.691, 'yaw': -9.09, 'datetime': '2018-12-12 10:56:58.240158', 'mgs': 0, 'flw2': 6.67, 'flw1': 2.2, 'flw0': 5.14, 'time': 9.82, 'compass': -12.28, 'pitch': 3.21, 'roll': -11.64}
{'lipoC2': 7.99, 'temp': 0.0, 'lipoC3S3': 11.97, 'state': 'normal', 'rot1': 71, 'rot0': 61, 'rot3': 31, 'rot2': 42, 'depth': 0.241, 'yaw': -9.1, 'datetime': '2018-12-12 10:56:58.448946', 'mgs': 0, 'flw2': 6.74, 'flw1': 2.81, 'flw0': 5.03, 'time': 10.03, 'compass': -12.29, 'pitch': 3.47, 'roll': -11.68}
{'lipoC2': 7.99, 'temp': 0.0, 'lipoC3S3': 11.76, 'state': 'normal', 'rot1': 74, 'rot0': 65, 'rot3': 32, 'rot2': 43, 'depth': -0.064, 'yaw': -9.24, 'datetime': '2018-12-12 10:56:58.658006', 'mgs': 0, 'flw2': 6.48, 'flw1': 2.43, 'flw0': 4.77, 'time': 10.25, 'compass': -12.43, 'pitch': 3.62, 'roll': -11.35}
{'lipoC2': 7.95, 'temp': 0.0, 'lipoC3S3': 12.04, 'state': 'normal', 'rot1': 78, 'rot0': 69, 'rot3': 33, 'rot2': 44, 'depth': 0.623, 'yaw': -9.21, 'datetime': '2018-12-12 10:56:58.868937', 'mgs': 0, 'flw2': 6.8, 'flw1': 2.08, 'flw0': 5.22, 'time': 10.45, 'compass': -12.4, 'pitch': 3.62, 'roll': -10.94}
{'lipoC2': 7.96, 'temp': 0.0, 'lipoC3S3': 12.05, 'state': 'normal', 'rot1': 81, 'rot0': 72, 'rot3': 33, 'rot2': 45, 'depth': 0.928, 'yaw': -9.18, 'datetime': '2018-12-12 10:56:59.081039', 'mgs': 0, 'flw2': 6.92, 'flw1': 2.4, 'flw0': 5.27, 'time': 10.66, 'compass': -12.38, 'pitch': 3.54, 'roll': -10.8}
{'lipoC2': 8.24, 'temp': 0.0, 'lipoC3S3': 11.92, 'state': 'normal', 'rot1': 84, 'rot0': 76, 'rot3': 34, 'rot2': 46, 'depth': -0.98, 'yaw': -9.28, 'datetime': '2018-12-12 10:56:59.288852', 'mgs': 0, 'flw2': 6.49, 'flw1': 2.78, 'flw0': 5.07, 'time': 10.88, 'compass': -12.48, 'pitch': 3.67, 'roll': -10.9}
{'lipoC2': 8.02, 'temp': 0.0, 'lipoC3S3': 12.14, 'state': 'normal', 'rot1': 87, 'rot0': 80, 'rot3': 35, 'rot2': 48, 'depth': 0.623, 'yaw': -9.45, 'datetime': '2018-12-12 10:56:59.499249', 'mgs': 0, 'flw2': 6.77, 'flw1': 3.34, 'flw0': 4.87, 'time': 11.09, 'compass': -12.64, 'pitch': 4.13, 'roll': -10.89}
{'lipoC2': 8.09, 'temp': 0.0, 'lipoC3S3': 11.75, 'state': 'normal', 'rot1': 91, 'rot0': 84, 'rot3': 36, 'rot2': 49, 'depth': 0.851, 'yaw': -9.45, 'datetime': '2018-12-12 10:56:59.708529', 'mgs': 0, 'flw2': 6.63, 'flw1': 3.31, 'flw0': 4.79, 'time': 11.3, 'compass': -12.64, 'pitch': 4.6, 'roll': -10.89}
{'lipoC2': 7.94, 'temp': 0.0, 'lipoC3S3': 12.02, 'state': 'normal', 'rot1': 94, 'rot0': 88, 'rot3': 36, 'rot2': 50, 'depth': -0.293, 'yaw': -9.35, 'datetime': '2018-12-12 10:56:59.921637', 'mgs': 0, 'flw2': 6.67, 'flw1': 2.17, 'flw0': 5.27, 'time': 11.51, 'compass': -12.54, 'pitch': 4.39, 'roll': -10.89}
{'lipoC2': 8.0, 'temp': 0.0, 'lipoC3S3': 11.73, 'state': 'normal', 'rot1': 98, 'rot0': 91, 'rot3': 37, 'rot2': 51, 'depth': 0.623, 'yaw': -9.06, 'datetime': '2018-12-12 10:57:00.132676', 'mgs': 0, 'flw2': 6.62, 'flw1': 2.84, 'flw0': 4.65, 'time': 11.72, 'compass': -12.26, 'pitch': 4.08, 'roll': -10.71}
{'lipoC2': 8.01, 'temp': 0.0, 'lipoC3S3': 11.89, 'state': 'normal', 'rot1': 101, 'rot0': 95, 'rot3': 38, 'rot2': 52, 'depth': 2.072, 'yaw': -8.62, 'datetime': '2018-12-12 10:57:00.337754', 'mgs': 0, 'flw2': 6.59, 'flw1': 2.67, 'flw0': 4.74, 'time': 11.93, 'compass': -11.82, 'pitch': 3.99, 'roll': -10.45}
{'lipoC2': 8.23, 'temp': 0.0, 'lipoC3S3': 11.84, 'state': 'normal', 'rot1': 104, 'rot0': 99, 'rot3': 39, 'rot2': 53, 'depth': -0.598, 'yaw': -7.97, 'datetime': '2018-12-12 10:57:00.552951', 'mgs': 0, 'flw2': 6.96, 'flw1': 2.58, 'flw0': 5.19, 'time': 12.14, 'compass': -11.17, 'pitch': 3.96, 'roll': -10.33}
{'lipoC2': 8.26, 'temp': 0.0, 'lipoC3S3': 11.9, 'state': 'normal', 'rot1': 108, 'rot0': 102, 'rot3': 39, 'rot2': 54, 'depth': 1.843, 'yaw': -7.21, 'datetime': '2018-12-12 10:57:00.755858', 'mgs': 0, 'flw2': 6.65, 'flw1': 2.84, 'flw0': 4.97, 'time': 12.35, 'compass': -10.41, 'pitch': 4.06, 'roll': -10.34}
{'lipoC2': 8.12, 'temp': 0.0, 'lipoC3S3': 12.01, 'state': 'normal', 'rot1': 109, 'rot0': 104, 'rot3': 40, 'rot2': 55, 'depth': -0.598, 'yaw': -6.45, 'datetime': '2018-12-12 10:57:00.967505', 'mgs': 0, 'flw2': 0.0, 'flw1': 2.31, 'flw0': 0.04, 'time': 12.56, 'compass': -9.64, 'pitch': 2.88, 'roll': -9.86}
{'lipoC2': 8.01, 'temp': 0.0, 'lipoC3S3': 11.81, 'state': 'normal', 'rot1': 109, 'rot0': 104, 'rot3': 41, 'rot2': 56, 'depth': -0.064, 'yaw': -6.01, 'datetime': '2018-12-12 10:57:01.178333', 'mgs': 0, 'flw2': 0.0, 'flw1': 3.25, 'flw0': 0.0, 'time': 12.77, 'compass': -9.21, 'pitch': -1.0, 'roll': -9.43}
{'lipoC2': 8.01, 'temp': 0.0, 'lipoC3S3': 12.21, 'state': 'normal', 'rot1': 109, 'rot0': 104, 'rot3': 42, 'rot2': 57, 'depth': -0.064, 'yaw': -5.83, 'datetime': '2018-12-12 10:57:01.387356', 'mgs': 0, 'flw2': 0.0, 'flw1': 3.11, 'flw0': 0.0, 'time': 12.98, 'compass': -9.03, 'pitch': -4.38, 'roll': -9.54}
{'lipoC2': 7.98, 'temp': 0.0, 'lipoC3S3': 12.06, 'state': 'normal', 'rot1': 109, 'rot0': 104, 'rot3': 43, 'rot2': 58, 'depth': 1.92, 'yaw': -5.8, 'datetime': '2018-12-12 10:57:01.598819', 'mgs': 0, 'flw2': 0.0, 'flw1': 2.99, 'flw0': 0.0, 'time': 13.19, 'compass': -8.99, 'pitch': -6.56, 'roll': -9.87}
{'lipoC2': 7.99, 'temp': 0.0, 'lipoC3S3': 11.89, 'state': 'normal', 'rot1': 109, 'rot0': 104, 'rot3': 43, 'rot2': 59, 'depth': -0.14, 'yaw': -5.78, 'datetime': '2018-12-12 10:57:01.809299', 'mgs': 0, 'flw2': 0.12, 'flw1': 2.31, 'flw0': 0.26, 'time': 13.4, 'compass': -8.97, 'pitch': -8.53, 'roll': -10.04}
{'lipoC2': 7.99, 'temp': 0.0, 'lipoC3S3': 11.98, 'state': 'normal', 'rot1': 109, 'rot0': 104, 'rot3': 44, 'rot2': 60, 'depth': 1.92, 'yaw': -5.8, 'datetime': '2018-12-12 10:57:02.020337', 'mgs': 0, 'flw2': 0.0, 'flw1': 2.23, 'flw0': 0.0, 'time': 13.61, 'compass': -8.99, 'pitch': -10.7, 'roll': -9.92}
{'lipoC2': 8.0, 'temp': 0.0, 'lipoC3S3': 11.88, 'state': 'normal', 'rot1': 109, 'rot0': 104, 'rot3': 45, 'rot2': 61, 'depth': 0.012, 'yaw': -5.91, 'datetime': '2018-12-12 10:57:02.230769', 'mgs': 0, 'flw2': 0.27, 'flw1': 2.4, 'flw0': 0.32, 'time': 13.82, 'compass': -9.1, 'pitch': -12.74, 'roll': -9.46}
{'lipoC2': 7.94, 'temp': 0.0, 'lipoC3S3': 12.21, 'state': 'normal', 'rot1': 109, 'rot0': 104, 'rot3': 46, 'rot2': 63, 'depth': 0.241, 'yaw': -5.98, 'datetime': '2018-12-12 10:57:02.441400', 'mgs': 0, 'flw2': 0.15, 'flw1': 2.4, 'flw0': 0.29, 'time': 14.03, 'compass': -9.18, 'pitch': -13.78, 'roll': -9.17}
{'lipoC2': 8.26, 'temp': 0.0, 'lipoC3S3': 12.01, 'state': 'normal', 'rot1': 109, 'rot0': 104, 'rot3': 47, 'rot2': 64, 'depth': -1.056, 'yaw': -5.97, 'datetime': '2018-12-12 10:57:02.652488', 'mgs': 0, 'flw2': 0.0, 'flw1': 2.96, 'flw0': 0.0, 'time': 14.24, 'compass': -9.17, 'pitch': -13.43, 'roll': -9.38}
{'lipoC2': 8.0, 'temp': 0.0, 'lipoC3S3': 11.92, 'state': 'normal', 'rot1': 109, 'rot0': 104, 'rot3': 47, 'rot2': 65, 'depth': 2.377, 'yaw': -6.08, 'datetime': '2018-12-12 10:57:02.863903', 'mgs': 0, 'flw2': 0.0, 'flw1': 3.72, 'flw0': 0.0, 'time': 14.45, 'compass': -9.27, 'pitch': -12.78, 'roll': -9.61}
{'lipoC2': 8.05, 'temp': 0.0, 'lipoC3S3': 11.87, 'state': 'normal', 'rot1': 109, 'rot0': 104, 'rot3': 48, 'rot2': 66, 'depth': -0.217, 'yaw': -6.35, 'datetime': '2018-12-12 10:57:03.075821', 'mgs': 0, 'flw2': 0.27, 'flw1': 2.61, 'flw0': 0.32, 'time': 14.66, 'compass': -9.55, 'pitch': -12.06, 'roll': -9.35}
{'lipoC2': 8.17, 'temp': 0.0, 'lipoC3S3': 11.93, 'state': 'normal', 'rot1': 109, 'rot0': 104, 'rot3': 49, 'rot2': 67, 'depth': -0.217, 'yaw': -6.63, 'datetime': '2018-12-12 10:57:03.285048', 'mgs': 0, 'flw2': 0.24, 'flw1': 2.61, 'flw0': 0.11, 'time': 14.87, 'compass': -9.82, 'pitch': -10.87, 'roll': -9.31}
{'lipoC2': 7.99, 'temp': 0.0, 'lipoC3S3': 11.89, 'state': 'normal', 'rot1': 110, 'rot0': 104, 'rot3': 50, 'rot2': 68, 'depth': 0.165, 'yaw': -6.97, 'datetime': '2018-12-12 10:57:03.495311', 'mgs': 0, 'flw2': 0.22, 'flw1': 2.7, 'flw0': 1.28, 'time': 15.08, 'compass': -10.16, 'pitch': -9.46, 'roll': -10.28}
{'lipoC2': 8.26, 'temp': 0.0, 'lipoC3S3': 11.97, 'state': 'normal', 'rot1': 112, 'rot0': 104, 'rot3': 50, 'rot2': 69, 'depth': -0.903, 'yaw': -8.2, 'datetime': '2018-12-12 10:57:03.705730', 'mgs': 0, 'flw2': 0.0, 'flw1': 2.67, 'flw0': 0.78, 'time': 15.29, 'compass': -11.4, 'pitch': -7.33, 'roll': -11.92}
{'lipoC2': 8.01, 'temp': 0.0, 'lipoC3S3': 12.3, 'state': 'normal', 'rot1': 114, 'rot0': 104, 'rot3': 51, 'rot2': 70, 'depth': 1.08, 'yaw': -10.31, 'datetime': '2018-12-12 10:57:03.915957', 'mgs': 0, 'flw2': 0.29, 'flw1': 2.72, 'flw0': 1.05, 'time': 15.5, 'compass': -13.51, 'pitch': -4.88, 'roll': -13.21}
{'lipoC2': 8.13, 'temp': 0.0, 'lipoC3S3': 11.9, 'state': 'normal', 'rot1': 116, 'rot0': 104, 'rot3': 52, 'rot2': 71, 'depth': 1.462, 'yaw': -13.01, 'datetime': '2018-12-12 10:57:04.127856', 'mgs': 0, 'flw2': 0.31, 'flw1': 2.87, 'flw0': 1.23, 'time': 15.71, 'compass': -16.21, 'pitch': -3.0, 'roll': -14.03}
{'lipoC2': 8.16, 'temp': 0.0, 'lipoC3S3': 11.97, 'state': 'normal', 'rot1': 118, 'rot0': 104, 'rot3': 53, 'rot2': 72, 'depth': -0.446, 'yaw': -16.14, 'datetime': '2018-12-12 10:57:04.339397', 'mgs': 0, 'flw2': 0.0, 'flw1': 2.93, 'flw0': 0.71, 'time': 15.92, 'compass': -19.33, 'pitch': -1.96, 'roll': -14.88}
{'lipoC2': 7.95, 'temp': 0.0, 'lipoC3S3': 12.25, 'state': 'normal', 'rot1': 120, 'rot0': 104, 'rot3': 53, 'rot2': 73, 'depth': 0.623, 'yaw': -19.68, 'datetime': '2018-12-12 10:57:04.548838', 'mgs': 0, 'flw2': 0.0, 'flw1': 3.11, 'flw0': 0.77, 'time': 16.13, 'compass': -22.88, 'pitch': -1.4, 'roll': -15.36}
{'lipoC2': 8.21, 'temp': 0.0, 'lipoC3S3': 11.94, 'state': 'normal', 'rot1': 122, 'rot0': 104, 'rot3': 54, 'rot2': 74, 'depth': -0.827, 'yaw': -23.5, 'datetime': '2018-12-12 10:57:04.760178', 'mgs': 0, 'flw2': 0.0, 'flw1': 3.16, 'flw0': 0.82, 'time': 16.34, 'compass': -26.7, 'pitch': -1.2, 'roll': -15.29}
{'lipoC2': 8.14, 'temp': 0.0, 'lipoC3S3': 11.87, 'state': 'normal', 'rot1': 124, 'rot0': 104, 'rot3': 55, 'rot2': 75, 'depth': 1.462, 'yaw': -27.57, 'datetime': '2018-12-12 10:57:04.970394', 'mgs': 0, 'flw2': 0.24, 'flw1': 2.55, 'flw0': 1.1, 'time': 16.56, 'compass': -30.77, 'pitch': -0.95, 'roll': -15.33}
{'lipoC2': 8.13, 'temp': 0.0, 'lipoC3S3': 11.92, 'state': 'normal', 'rot1': 126, 'rot0': 104, 'rot3': 55, 'rot2': 77, 'depth': -0.14, 'yaw': -31.98, 'datetime': '2018-12-12 10:57:05.182808', 'mgs': 0, 'flw2': 0.0, 'flw1': 3.4, 'flw0': 0.88, 'time': 16.76, 'compass': -35.17, 'pitch': -0.02, 'roll': -15.7}
{'lipoC2': 8.0, 'temp': 0.0, 'lipoC3S3': 11.88, 'state': 'normal', 'rot1': 128, 'rot0': 104, 'rot3': 56, 'rot2': 78, 'depth': -0.064, 'yaw': -36.74, 'datetime': '2018-12-12 10:57:05.394825', 'mgs': 0, 'flw2': 0.0, 'flw1': 2.11, 'flw0': 1.12, 'time': 16.98, 'compass': -39.93, 'pitch': 1.45, 'roll': -15.86}
{'lipoC2': 8.21, 'temp': 0.0, 'lipoC3S3': 11.98, 'state': 'normal', 'rot1': 130, 'rot0': 104, 'rot3': 57, 'rot2': 79, 'depth': -0.751, 'yaw': -41.7, 'datetime': '2018-12-12 10:57:05.604775', 'mgs': 0, 'flw2': 0.0, 'flw1': 3.31, 'flw0': 0.84, 'time': 17.19, 'compass': -44.9, 'pitch': 3.28, 'roll': -15.46}
{'lipoC2': 8.05, 'temp': 0.0, 'lipoC3S3': 11.87, 'state': 'normal', 'rot1': 132, 'rot0': 104, 'rot3': 58, 'rot2': 80, 'depth': -0.14, 'yaw': -46.59, 'datetime': '2018-12-12 10:57:05.817042', 'mgs': 0, 'flw2': 0.22, 'flw1': 2.78, 'flw0': 1.34, 'time': 17.4, 'compass': -49.78, 'pitch': 4.68, 'roll': -14.92}
{'lipoC2': 8.0, 'temp': 0.0, 'lipoC3S3': 11.84, 'state': 'normal', 'rot1': 134, 'rot0': 104, 'rot3': 59, 'rot2': 81, 'depth': -0.217, 'yaw': -51.99, 'datetime': '2018-12-12 10:57:06.027624', 'mgs': 0, 'flw2': 0.0, 'flw1': 3.11, 'flw0': 0.76, 'time': 17.61, 'compass': -55.18, 'pitch': 6.45, 'roll': -14.6}
{'lipoC2': 8.25, 'temp': 0.0, 'lipoC3S3': 12.0, 'state': 'normal', 'rot1': 135, 'rot0': 104, 'rot3': 59, 'rot2': 82, 'depth': 1.233, 'yaw': -57.62, 'datetime': '2018-12-12 10:57:06.240580', 'mgs': 0, 'flw2': 0.29, 'flw1': 2.7, 'flw0': 1.12, 'time': 17.82, 'compass': -60.82, 'pitch': 8.55, 'roll': -14.43}
{'lipoC2': 8.06, 'temp': 0.0, 'lipoC3S3': 12.27, 'state': 'normal', 'rot1': 137, 'rot0': 106, 'rot3': 60, 'rot2': 83, 'depth': 0.241, 'yaw': -62.79, 'datetime': '2018-12-12 10:57:06.447985', 'mgs': 0, 'flw2': 6.13, 'flw1': 2.55, 'flw0': 0.89, 'time': 18.03, 'compass': -65.98, 'pitch': 10.56, 'roll': -14.16}
{'lipoC2': 7.99, 'temp': 0.0, 'lipoC3S3': 11.81, 'state': 'normal', 'rot1': 139, 'rot0': 110, 'rot3': 61, 'rot2': 84, 'depth': 0.165, 'yaw': -63.63, 'datetime': '2018-12-12 10:57:06.659105', 'mgs': 0, 'flw2': 5.8, 'flw1': 2.84, 'flw0': 0.72, 'time': 18.24, 'compass': -66.82, 'pitch': 12.88, 'roll': -13.81}
{'lipoC2': 8.01, 'temp': 0.0, 'lipoC3S3': 12.27, 'state': 'normal', 'rot1': 141, 'rot0': 113, 'rot3': 62, 'rot2': 85, 'depth': -0.293, 'yaw': -61.4, 'datetime': '2018-12-12 10:57:06.870912', 'mgs': 0, 'flw2': 3.45, 'flw1': 2.87, 'flw0': 2.39, 'time': 18.45, 'compass': -64.59, 'pitch': 14.44, 'roll': -13.88}
{'lipoC2': 8.12, 'temp': 0.0, 'lipoC3S3': 11.83, 'state': 'normal', 'rot1': 144, 'rot0': 116, 'rot3': 62, 'rot2': 86, 'depth': 1.462, 'yaw': -59.19, 'datetime': '2018-12-12 10:57:07.079039', 'mgs': 0, 'flw2': 3.31, 'flw1': 3.49, 'flw0': 2.34, 'time': 18.66, 'compass': -62.39, 'pitch': 15.77, 'roll': -14.46}
{'lipoC2': 7.94, 'temp': 0.0, 'lipoC3S3': 12.14, 'state': 'normal', 'rot1': 147, 'rot0': 118, 'rot3': 63, 'rot2': 87, 'depth': -0.369, 'yaw': -57.26, 'datetime': '2018-12-12 10:57:07.292548', 'mgs': 0, 'flw2': 0.0, 'flw1': 3.46, 'flw0': 2.5, 'time': 18.87, 'compass': -60.46, 'pitch': 17.0, 'roll': -15.65}
{'lipoC2': 8.0, 'temp': 0.0, 'lipoC3S3': 12.08, 'state': 'normal', 'rot1': 149, 'rot0': 118, 'rot3': 64, 'rot2': 88, 'depth': 1.462, 'yaw': -58.01, 'datetime': '2018-12-12 10:57:07.501606', 'mgs': 0, 'flw2': 0.0, 'flw1': 2.17, 'flw0': 4.38, 'time': 19.08, 'compass': -61.21, 'pitch': 16.59, 'roll': -16.58}
{'lipoC2': 7.99, 'temp': 0.0, 'lipoC3S3': 11.96, 'state': 'normal', 'rot1': 153, 'rot0': 118, 'rot3': 65, 'rot2': 89, 'depth': 0.089, 'yaw': -62.59, 'datetime': '2018-12-12 10:57:07.714336', 'mgs': 0, 'flw2': 0.06, 'flw1': 2.55, 'flw0': 4.25, 'time': 19.29, 'compass': -65.79, 'pitch': 16.04, 'roll': -16.65}
{'lipoC2': 8.0, 'temp': 0.0, 'lipoC3S3': 12.33, 'state': 'normal', 'rot1': 156, 'rot0': 118, 'rot3': 65, 'rot2': 90, 'depth': -0.14, 'yaw': -70.09, 'datetime': '2018-12-12 10:57:07.921530', 'mgs': 0, 'flw2': 0.31, 'flw1': 2.78, 'flw0': 4.35, 'time': 19.5, 'compass': -73.28, 'pitch': 16.92, 'roll': -16.12}
{'lipoC2': 8.05, 'temp': 0.0, 'lipoC3S3': 11.83, 'state': 'normal', 'rot1': 160, 'rot0': 118, 'rot3': 66, 'rot2': 91, 'depth': 3.064, 'yaw': -79.09, 'datetime': '2018-12-12 10:57:08.135841', 'mgs': 0, 'flw2': 0.0, 'flw1': 2.9, 'flw0': 3.98, 'time': 19.71, 'compass': -82.29, 'pitch': 18.38, 'roll': -14.95}
{'lipoC2': 7.95, 'temp': 0.0, 'lipoC3S3': 12.21, 'state': 'normal', 'rot1': 162, 'rot0': 118, 'rot3': 67, 'rot2': 92, 'depth': -0.446, 'yaw': -89.02, 'datetime': '2018-12-12 10:57:08.345599', 'mgs': 0, 'flw2': 0.0, 'flw1': 2.9, 'flw0': 3.94, 'time': 19.92, 'compass': -92.22, 'pitch': 19.64, 'roll': -13.18}
{'lipoC2': 8.02, 'temp': 0.0, 'lipoC3S3': 11.83, 'state': 'normal', 'rot1': 166, 'rot0': 118, 'rot3': 68, 'rot2': 93, 'depth': 0.089, 'yaw': -100.1, 'datetime': '2018-12-12 10:57:08.555935', 'mgs': 0, 'flw2': 0.0, 'flw1': 2.7, 'flw0': 3.93, 'time': 20.13, 'compass': -103.29, 'pitch': 21.42, 'roll': -11.3}
{'lipoC2': 7.99, 'temp': 0.0, 'lipoC3S3': 11.98, 'state': 'normal', 'rot1': 169, 'rot0': 118, 'rot3': 69, 'rot2': 94, 'depth': 0.012, 'yaw': -112.26, 'datetime': '2018-12-12 10:57:08.766907', 'mgs': 0, 'flw2': 0.17, 'flw1': 2.43, 'flw0': 4.06, 'time': 20.34, 'compass': -115.46, 'pitch': 24.08, 'roll': -9.26}
{'lipoC2': 8.01, 'temp': 0.0, 'lipoC3S3': 11.89, 'state': 'normal', 'rot1': 172, 'rot0': 118, 'rot3': 70, 'rot2': 95, 'depth': -0.217, 'yaw': -124.71, 'datetime': '2018-12-12 10:57:08.977123', 'mgs': 0, 'flw2': 0.0, 'flw1': 2.67, 'flw0': 3.88, 'time': 20.55, 'compass': -127.91, 'pitch': 26.24, 'roll': -6.09}
