{'lipoC2': 8.21, 'temp': 0.0, 'lipoC3S3': 11.97, 'state': 'normal', 'rot1': 18, 'rot0': 11, 'rot3': 0, 'rot2': 0, 'depth': 0.623, 'yaw': 1.04, 'datetime': '2018-12-12 11:00:21.094016', 'mgs': 0, 'flw2': 4.76, 'flw1': 0.0, 'flw0': 0.0, 'time': 1.36, 'compass': -40.21, 'pitch': -6.49, 'roll': 3.96}
{'lipoC2': 8.12, 'temp': 0.0, 'lipoC3S3': 11.81, 'state': 'normal', 'rot1': 18, 'rot0': 14, 'rot3': 0, 'rot2': 0, 'depth': 1.385, 'yaw': 1.14, 'datetime': '2018-12-12 11:00:21.301724', 'mgs': 0, 'flw2': 4.44, 'flw1': 0.0, 'flw0': 0.27, 'time': 1.57, 'compass': -40.11, 'pitch': -5.98, 'roll': 1.35}
{'lipoC2': 7.99, 'temp': 0.0, 'lipoC3S3': 11.98, 'state': 'normal', 'rot1': 18, 'rot0': 17, 'rot3': 0, 'rot2': 0, 'depth': 1.157, 'yaw': -1.2, 'datetime': '2018-12-12 11:00:21.511661', 'mgs': 0, 'flw2': 4.58, 'flw1': 0.0, 'flw0': 0.0, 'time': 1.78, 'compass': -42.45, 'pitch': -4.74, 'roll': -1.87}
{'lipoC2': 8.11, 'temp': 0.0, 'lipoC3S3': 11.81, 'state': 'normal', 'rot1': 18, 'rot0': 21, 'rot3': 0, 'rot2': 0, 'depth': -0.369, 'yaw': -5.28, 'datetime': '2018-12-12 11:00:21.721920', 'mgs': 0, 'flw2': 4.47, 'flw1': 0.47, 'flw0': 0.0, 'time': 1.99, 'compass': -46.53, 'pitch': -3.01, 'roll': -4.43}
{'lipoC2': 8.06, 'temp': 0.0, 'lipoC3S3': 11.87, 'state': 'normal', 'rot1': 18, 'rot0': 24, 'rot3': 0, 'rot2': 0, 'depth': 0.317, 'yaw': -10.5, 'datetime': '2018-12-12 11:00:21.930978', 'mgs': 0, 'flw2': 4.86, 'flw1': 0.0, 'flw0': 0.33, 'time': 2.19, 'compass': -51.75, 'pitch': -1.0, 'roll': -5.63}
{'lipoC2': 8.0, 'temp': 0.0, 'lipoC3S3': 12.37, 'state': 'normal', 'rot1': 18, 'rot0': 27, 'rot3': 0, 'rot2': 0, 'depth': -0.217, 'yaw': -16.11, 'datetime': '2018-12-12 11:00:22.140029', 'mgs': 0, 'flw2': 4.93, 'flw1': 0.0, 'flw0': 0.0, 'time': 2.4, 'compass': -57.36, 'pitch': 0.96, 'roll': -5.28}
{'lipoC2': 8.0, 'temp': 0.0, 'lipoC3S3': 12.3, 'state': 'normal', 'rot1': 18, 'rot0': 30, 'rot3': 0, 'rot2': 0, 'depth': 0.089, 'yaw': -22.49, 'datetime': '2018-12-12 11:00:22.347826', 'mgs': 0, 'flw2': 6.25, 'flw1': 0.0, 'flw0': 0.0, 'time': 2.61, 'compass': -63.74, 'pitch': 2.35, 'roll': -3.55}
{'lipoC2': 8.04, 'temp': 0.0, 'lipoC3S3': 11.97, 'state': 'normal', 'rot1': 18, 'rot0': 34, 'rot3': 0, 'rot2': 0, 'depth': 0.546, 'yaw': -29.57, 'datetime': '2018-12-12 11:00:22.556727', 'mgs': 0, 'flw2': 8.12, 'flw1': 0.0, 'flw0': 0.68, 'time': 2.82, 'compass': -70.82, 'pitch': 2.22, 'roll': -1.16}
{'lipoC2': 8.0, 'temp': 0.0, 'lipoC3S3': 12.31, 'state': 'normal', 'rot1': 20, 'rot0': 38, 'rot3': 0, 'rot2': 0, 'depth': 1.08, 'yaw': -38.08, 'datetime': '2018-12-12 11:00:22.765901', 'mgs': 0, 'flw2': 8.13, 'flw1': 0.21, 'flw0': 2.86, 'time': 3.03, 'compass': -79.33, 'pitch': 0.53, 'roll': 0.79}
{'lipoC2': 8.25, 'temp': 0.0, 'lipoC3S3': 11.81, 'state': 'normal', 'rot1': 24, 'rot0': 42, 'rot3': 0, 'rot2': 0, 'depth': -1.132, 'yaw': -49.08, 'datetime': '2018-12-12 11:00:22.976357', 'mgs': 0, 'flw2': 7.7, 'flw1': 0.0, 'flw0': 2.65, 'time': 3.24, 'compass': -90.33, 'pitch': -0.67, 'roll': 1.26}
{'lipoC2': 7.99, 'temp': 0.0, 'lipoC3S3': 12.29, 'state': 'normal', 'rot1': 27, 'rot0': 46, 'rot3': 0, 'rot2': 0, 'depth': 0.089, 'yaw': -63.06, 'datetime': '2018-12-12 11:00:23.186506', 'mgs': 0, 'flw2': 7.62, 'flw1': 0.03, 'flw0': 4.08, 'time': 3.45, 'compass': -104.31, 'pitch': -1.32, 'roll': 0.86}
{'lipoC2': 8.26, 'temp': 0.0, 'lipoC3S3': 12.3, 'state': 'normal', 'rot1': 31, 'rot0': 49, 'rot3': 0, 'rot2': 0, 'depth': -0.903, 'yaw': -78.97, 'datetime': '2018-12-12 11:00:23.394870', 'mgs': 0, 'flw2': 7.06, 'flw1': 0.0, 'flw0': 4.66, 'time': 3.66, 'compass': -120.22, 'pitch': -1.57, 'roll': 0.23}
{'lipoC2': 7.98, 'temp': 0.0, 'lipoC3S3': 11.9, 'state': 'normal', 'rot1': 34, 'rot0': 53, 'rot3': 0, 'rot2': 0, 'depth': 0.394, 'yaw': -96.23, 'datetime': '2018-12-12 11:00:23.604272', 'mgs': 0, 'flw2': 1.62, 'flw1': 0.09, 'flw0': 2.06, 'time': 3.87, 'compass': -137.48, 'pitch': -1.33, 'roll': -0.48}
{'lipoC2': 7.97, 'temp': 0.0, 'lipoC3S3': 12.08, 'state': 'normal', 'rot1': 36, 'rot0': 54, 'rot3': 0, 'rot2': 0, 'depth': 2.301, 'yaw': -111.62, 'datetime': '2018-12-12 11:00:23.812399', 'mgs': 0, 'flw2': 0.22, 'flw1': 0.0, 'flw0': 0.52, 'time': 4.07, 'compass': -152.88, 'pitch': -0.51, 'roll': -0.09}
{'lipoC2': 7.98, 'temp': 0.0, 'lipoC3S3': 12.21, 'state': 'normal', 'rot1': 38, 'rot0': 54, 'rot3': 0, 'rot2': 0, 'depth': 1.996, 'yaw': -122.52, 'datetime': '2018-12-12 11:00:24.021870', 'mgs': 0, 'flw2': 0.0, 'flw1': 0.0, 'flw0': 1.92, 'time': 4.28, 'compass': -163.77, 'pitch': 0.04, 'roll': 1.72}
{'lipoC2': 8.02, 'temp': 0.0, 'lipoC3S3': 11.85, 'state': 'normal', 'rot1': 41, 'rot0': 54, 'rot3': 0, 'rot2': 0, 'depth': 2.454, 'yaw': -132.9, 'datetime': '2018-12-12 11:00:24.232272', 'mgs': 0, 'flw2': 0.0, 'flw1': 0.06, 'flw0': 1.57, 'time': 4.49, 'compass': -174.15, 'pitch': 0.22, 'roll': 3.77}
{'lipoC2': 8.19, 'temp': 0.0, 'lipoC3S3': 11.97, 'state': 'normal', 'rot1': 43, 'rot0': 54, 'rot3': 0, 'rot2': 0, 'depth': -0.446, 'yaw': -143.4, 'datetime': '2018-12-12 11:00:24.441976', 'mgs': 0, 'flw2': 0.0, 'flw1': 0.0, 'flw0': 1.57, 'time': 4.7, 'compass': 175.35, 'pitch': -0.43, 'roll': 5.09}
{'lipoC2': 8.21, 'temp': 0.0, 'lipoC3S3': 11.98, 'state': 'normal', 'rot1': 46, 'rot0': 54, 'rot3': 0, 'rot2': 0, 'depth': 0.546, 'yaw': -154.16, 'datetime': '2018-12-12 11:00:24.651418', 'mgs': 0, 'flw2': 0.09, 'flw1': 0.0, 'flw0': 1.89, 'time': 4.91, 'compass': 164.59, 'pitch': -1.72, 'roll': 5.23}
{'lipoC2': 8.2, 'temp': 0.0, 'lipoC3S3': 12.0, 'state': 'normal', 'rot1': 47, 'rot0': 54, 'rot3': 0, 'rot2': 0, 'depth': 0.317, 'yaw': -164.55, 'datetime': '2018-12-12 11:00:24.859550', 'mgs': 0, 'flw2': 0.0, 'flw1': 0.0, 'flw0': 0.02, 'time': 5.12, 'compass': 154.2, 'pitch': -3.0, 'roll': 4.3}
{'lipoC2': 8.25, 'temp': 0.0, 'lipoC3S3': 12.05, 'state': 'normal', 'rot1': 47, 'rot0': 54, 'rot3': 0, 'rot2': 0, 'depth': -0.903, 'yaw': -172.89, 'datetime': '2018-12-12 11:00:25.068592', 'mgs': 0, 'flw2': 0.15, 'flw1': 0.0, 'flw0': 0.0, 'time': 5.33, 'compass': 145.85, 'pitch': -4.17, 'roll': 2.89}
{'lipoC2': 7.97, 'temp': 0.0, 'lipoC3S3': 12.12, 'state': 'normal', 'rot1': 47, 'rot0': 54, 'rot3': 0, 'rot2': 0, 'depth': 2.072, 'yaw': 179.61, 'datetime': '2018-12-12 11:00:25.278890', 'mgs': 0, 'flw2': 0.28, 'flw1': 0.0, 'flw0': 0.1, 'time': 5.54, 'compass': 138.36, 'pitch': -5.25, 'roll': 1.18}
{'lipoC2': 7.96, 'temp': 0.0, 'lipoC3S3': 11.87, 'state': 'normal', 'rot1': 47, 'rot0': 56, 'rot3': 0, 'rot2': 0, 'depth': -0.369, 'yaw': 173.49, 'datetime': '2018-12-12 11:00:25.482593', 'mgs': 0, 'flw2': 4.96, 'flw1': 0.0, 'flw0': 0.33, 'time': 5.75, 'compass': 132.24, 'pitch': -6.06, 'roll': -0.39}
{'lipoC2': 7.98, 'temp': 0.0, 'lipoC3S3': 12.45, 'state': 'normal', 'rot1': 47, 'rot0': 57, 'rot3': 0, 'rot2': 0, 'depth': 1.004, 'yaw': 170.27, 'datetime': '2018-12-12 11:00:25.692209', 'mgs': 0, 'flw2': 0.0, 'flw1': 0.47, 'flw0': 0.0, 'time': 5.95, 'compass': 129.02, 'pitch': -5.29, 'roll': -1.25}
{'lipoC2': 8.29, 'temp': 0.0, 'lipoC3S3': 12.02, 'state': 'normal', 'rot1': 47, 'rot0': 57, 'rot3': 0, 'rot2': 0, 'depth': -0.903, 'yaw': 167.24, 'datetime': '2018-12-12 11:00:25.900342', 'mgs': 0, 'flw2': 0.32, 'flw1': 0.0, 'flw0': 0.37, 'time': 6.16, 'compass': 125.99, 'pitch': -4.62, 'roll': -1.63}
{'lipoC2': 7.96, 'temp': 0.0, 'lipoC3S3': 12.02, 'state': 'normal', 'rot1': 47, 'rot0': 57, 'rot3': 0, 'rot2': 0, 'depth': 0.317, 'yaw': 164.32, 'datetime': '2018-12-12 11:00:26.115340', 'mgs': 0, 'flw2': 0.28, 'flw1': 0.0, 'flw0': 0.0, 'time': 6.37, 'compass': 123.07, 'pitch': -4.42, 'roll': -1.35}
{'lipoC2': 7.98, 'temp': 0.0, 'lipoC3S3': 12.14, 'state': 'normal', 'rot1': 47, 'rot0': 57, 'rot3': 0, 'rot2': 0, 'depth': 2.53, 'yaw': 161.75, 'datetime': '2018-12-12 11:00:26.323046', 'mgs': 0, 'flw2': 0.0, 'flw1': 0.15, 'flw0': 0.0, 'time': 6.58, 'compass': 120.5, 'pitch': -4.43, 'roll': -0.7}
{'lipoC2': 8.26, 'temp': 0.0, 'lipoC3S3': 12.05, 'state': 'normal', 'rot1': 47, 'rot0': 57, 'rot3': 0, 'rot2': 0, 'depth': -0.598, 'yaw': 159.25, 'datetime': '2018-12-12 11:00:26.535250', 'mgs': 0, 'flw2': 0.18, 'flw1': 0.0, 'flw0': 0.0, 'time': 6.79, 'compass': 118.0, 'pitch': -4.67, 'roll': 0.09}
{'lipoC2': 8.09, 'temp': 0.0, 'lipoC3S3': 12.13, 'state': 'normal', 'rot1': 47, 'rot0': 57, 'rot3': 0, 'rot2': 1, 'depth': -0.064, 'yaw': 156.91, 'datetime': '2018-12-12 11:00:26.740087', 'mgs': 0, 'flw2': 0.31, 'flw1': 1.0, 'flw0': 0.27, 'time': 7.0, 'compass': 115.65, 'pitch': -5.06, 'roll': 0.79}
{'lipoC2': 8.14, 'temp': 0.0, 'lipoC3S3': 11.94, 'state': 'normal', 'rot1': 47, 'rot0': 57, 'rot3': 1, 'rot2': 1, 'depth': 0.165, 'yaw': 154.67, 'datetime': '2018-12-12 11:00:26.948603', 'mgs': 0, 'flw2': 0.0, 'flw1': 1.14, 'flw0': 0.0, 'time': 7.2, 'compass': 113.42, 'pitch': -5.07, 'roll': 1.38}
{'lipoC2': 7.98, 'temp': 0.0, 'lipoC3S3': 12.14, 'state': 'normal', 'rot1': 47, 'rot0': 57, 'rot3': 1, 'rot2': 2, 'depth': 1.996, 'yaw': 152.61, 'datetime': '2018-12-12 11:00:27.157062', 'mgs': 0, 'flw2': 0.01, 'flw1': 0.47, 'flw0': 0.13, 'time': 7.41, 'compass': 111.35, 'pitch': -4.7, 'roll': 1.83}
{'lipoC2': 7.98, 'temp': 0.0, 'lipoC3S3': 12.25, 'state': 'normal', 'rot1': 47, 'rot0': 57, 'rot3': 2, 'rot2': 2, 'depth': 0.394, 'yaw': 150.87, 'datetime': '2018-12-12 11:00:27.362870', 'mgs': 0, 'flw2': 0.0, 'flw1': 1.08, 'flw0': 0.0, 'time': 7.62, 'compass': 109.62, 'pitch': -4.6, 'roll': 1.85}
{'lipoC2': 7.96, 'temp': 0.0, 'lipoC3S3': 12.01, 'state': 'normal', 'rot1': 47, 'rot0': 57, 'rot3': 2, 'rot2': 3, 'depth': 0.317, 'yaw': 149.2, 'datetime': '2018-12-12 11:00:27.570990', 'mgs': 0, 'flw2': 0.0, 'flw1': 1.23, 'flw0': 0.0, 'time': 7.83, 'compass': 107.95, 'pitch': -4.65, 'roll': 1.31}
{'lipoC2': 8.31, 'temp': 0.0, 'lipoC3S3': 12.01, 'state': 'normal', 'rot1': 47, 'rot0': 57, 'rot3': 3, 'rot2': 3, 'depth': 2.835, 'yaw': 147.64, 'datetime': '2018-12-12 11:00:27.780143', 'mgs': 0, 'flw2': 0.0, 'flw1': 1.9, 'flw0': 0.0, 'time': 8.04, 'compass': 106.39, 'pitch': -4.35, 'roll': 0.48}
{'lipoC2': 8.0, 'temp': 0.0, 'lipoC3S3': 11.89, 'state': 'normal', 'rot1': 47, 'rot0': 57, 'rot3': 4, 'rot2': 4, 'depth': 2.835, 'yaw': 146.19, 'datetime': '2018-12-12 11:00:27.992003', 'mgs': 0, 'flw2': 0.26, 'flw1': 0.76, 'flw0': 0.32, 'time': 8.25, 'compass': 104.93, 'pitch': -3.85, 'roll': -0.39}
{'lipoC2': 7.97, 'temp': 0.0, 'lipoC3S3': 11.93, 'state': 'normal', 'rot1': 47, 'rot0': 57, 'rot3': 4, 'rot2': 5, 'depth': 0.317, 'yaw': 144.88, 'datetime': '2018-12-12 11:00:28.203040', 'mgs': 0, 'flw2': 0.2, 'flw1': 0.56, 'flw0': 0.29, 'time': 8.46, 'compass': 103.63, 'pitch': -3.72, 'roll': -1.0}
{'lipoC2': 8.16, 'temp': 0.0, 'lipoC3S3': 12.26, 'state': 'normal', 'rot1': 47, 'rot0': 57, 'rot3': 5, 'rot2': 5, 'depth': 1.385, 'yaw': 143.76, 'datetime': '2018-12-12 11:00:28.413662', 'mgs': 0, 'flw2': 0.27, 'flw1': 1.79, 'flw0': 0.33, 'time': 8.67, 'compass': 102.51, 'pitch': -3.64, 'roll': -1.27}
{'lipoC2': 8.27, 'temp': 0.0, 'lipoC3S3': 12.04, 'state': 'normal', 'rot1': 47, 'rot0': 57, 'rot3': 5, 'rot2': 6, 'depth': -0.827, 'yaw': 142.71, 'datetime': '2018-12-12 11:00:28.622459', 'mgs': 0, 'flw2': 0.06, 'flw1': 1.41, 'flw0': 0.0, 'time': 8.88, 'compass': 101.45, 'pitch': -3.03, 'roll': -1.34}
{'lipoC2': 8.14, 'temp': 0.0, 'lipoC3S3': 11.94, 'state': 'normal', 'rot1': 47, 'rot0': 57, 'rot3': 6, 'rot2': 7, 'depth': -0.217, 'yaw': 141.75, 'datetime': '2018-12-12 11:00:28.831658', 'mgs': 0, 'flw2': 0.0, 'flw1': 1.85, 'flw0': 0.0, 'time': 9.08, 'compass': 100.5, 'pitch': -2.52, 'roll': -1.39}
{'lipoC2': 8.17, 'temp': 0.0, 'lipoC3S3': 12.01, 'state': 'normal', 'rot1': 47, 'rot0': 57, 'rot3': 7, 'rot2': 8, 'depth': 0.775, 'yaw': 140.84, 'datetime': '2018-12-12 11:00:29.038409', 'mgs': 0, 'flw2': 0.0, 'flw1': 1.52, 'flw0': 0.0, 'time': 9.29, 'compass': 99.59, 'pitch': -2.53, 'roll': -1.36}
{'lipoC2': 8.25, 'temp': 0.0, 'lipoC3S3': 12.04, 'state': 'normal', 'rot1': 47, 'rot0': 57, 'rot3': 7, 'rot2': 9, 'depth': -0.293, 'yaw': 140.0, 'datetime': '2018-12-12 11:00:29.248849', 'mgs': 0, 'flw2': 0.0, 'flw1': 1.32, 'flw0': 0.0, 'time': 9.5, 'compass': 98.75, 'pitch': -2.6, 'roll': -1.05}
{'lipoC2': 7.93, 'temp': 0.0, 'lipoC3S3': 12.27, 'state': 'normal', 'rot1': 47, 'rot0': 57, 'rot3': 8, 'rot2': 9, 'depth': -0.14, 'yaw': 139.23, 'datetime': '2018-12-12 11:00:29.459934', 'mgs': 0, 'flw2': 0.0, 'flw1': 1.67, 'flw0': 0.0, 'time': 9.71, 'compass': 97.98, 'pitch': -2.28, 'roll': -0.54}
{'lipoC2': 7.99, 'temp': 0.0, 'lipoC3S3': 11.89, 'state': 'normal', 'rot1': 47, 'rot0': 57, 'rot3': 9, 'rot2': 10, 'depth': -0.217, 'yaw': 138.53, 'datetime': '2018-12-12 11:00:29.667382', 'mgs': 0, 'flw2': 0.31, 'flw1': 1.61, 'flw0': 0.31, 'time': 9.92, 'compass': 97.28, 'pitch': -1.66, 'roll': -0.21}
{'lipoC2': 8.12, 'temp': 0.0, 'lipoC3S3': 11.92, 'state': 'normal', 'rot1': 47, 'rot0': 57, 'rot3': 10, 'rot2': 11, 'depth': 1.385, 'yaw': 137.88, 'datetime': '2018-12-12 11:00:29.882010', 'mgs': 0, 'flw2': 0.32, 'flw1': 1.76, 'flw0': 0.22, 'time': 10.13, 'compass': 96.63, 'pitch': -1.69, 'roll': -0.03}
{'lipoC2': 7.97, 'temp': 0.0, 'lipoC3S3': 12.01, 'state': 'normal', 'rot1': 47, 'rot0': 57, 'rot3': 10, 'rot2': 12, 'depth': -0.217, 'yaw': 137.27, 'datetime': '2018-12-12 11:00:30.087536', 'mgs': 0, 'flw2': 0.0, 'flw1': 2.58, 'flw0': 0.0, 'time': 10.34, 'compass': 96.02, 'pitch': -2.19, 'roll': 0.28}
{'lipoC2': 7.99, 'temp': 0.0, 'lipoC3S3': 12.14, 'state': 'normal', 'rot1': 47, 'rot0': 57, 'rot3': 11, 'rot2': 13, 'depth': 1.004, 'yaw': 136.66, 'datetime': '2018-12-12 11:00:30.294343', 'mgs': 0, 'flw2': 0.0, 'flw1': 2.31, 'flw0': 0.0, 'time': 10.55, 'compass': 95.41, 'pitch': -2.35, 'roll': 0.7}
{'lipoC2': 7.97, 'temp': 0.0, 'lipoC3S3': 11.96, 'state': 'normal', 'rot1': 47, 'rot0': 57, 'rot3': 12, 'rot2': 14, 'depth': 2.301, 'yaw': 136.09, 'datetime': '2018-12-12 11:00:30.509201', 'mgs': 0, 'flw2': 0.0, 'flw1': 2.58, 'flw0': 0.0, 'time': 10.76, 'compass': 94.83, 'pitch': -1.83, 'roll': 0.82}
{'lipoC2': 8.26, 'temp': 0.0, 'lipoC3S3': 12.02, 'state': 'normal', 'rot1': 47, 'rot0': 57, 'rot3': 12, 'rot2': 15, 'depth': -0.98, 'yaw': 135.55, 'datetime': '2018-12-12 11:00:30.726003', 'mgs': 0, 'flw2': 0.0, 'flw1': 2.64, 'flw0': 0.0, 'time': 10.97, 'compass': 94.3, 'pitch': -1.41, 'roll': 0.81}
{'lipoC2': 7.98, 'temp': 0.0, 'lipoC3S3': 11.9, 'state': 'normal', 'rot1': 47, 'rot0': 57, 'rot3': 13, 'rot2': 15, 'depth': -0.14, 'yaw': 135.04, 'datetime': '2018-12-12 11:00:30.930412', 'mgs': 0, 'flw2': 0.13, 'flw1': 1.58, 'flw0': 0.29, 'time': 11.18, 'compass': 93.78, 'pitch': -1.77, 'roll': 0.88}
{'lipoC2': 7.95, 'temp': 0.0, 'lipoC3S3': 12.19, 'state': 'normal', 'rot1': 47, 'rot0': 57, 'rot3': 14, 'rot2': 16, 'depth': 1.233, 'yaw': 134.57, 'datetime': '2018-12-12 11:00:31.138215', 'mgs': 0, 'flw2': 0.18, 'flw1': 1.52, 'flw0': 0.29, 'time': 11.39, 'compass': 93.32, 'pitch': -2.19, 'roll': 0.89}
{'lipoC2': 8.14, 'temp': 0.0, 'lipoC3S3': 11.94, 'state': 'normal', 'rot1': 47, 'rot0': 57, 'rot3': 14, 'rot2': 17, 'depth': -0.369, 'yaw': 134.08, 'datetime': '2018-12-12 11:00:31.349553', 'mgs': 0, 'flw2': 0.0, 'flw1': 2.61, 'flw0': 0.09, 'time': 11.6, 'compass': 92.83, 'pitch': -1.97, 'roll': 0.97}
{'lipoC2': 7.98, 'temp': 0.0, 'lipoC3S3': 12.02, 'state': 'normal', 'rot1': 47, 'rot0': 57, 'rot3': 15, 'rot2': 18, 'depth': 0.089, 'yaw': 133.56, 'datetime': '2018-12-12 11:00:31.557979', 'mgs': 0, 'flw2': 0.0, 'flw1': 2.67, 'flw0': 0.0, 'time': 11.81, 'compass': 92.31, 'pitch': -1.18, 'roll': 1.41}
{'lipoC2': 8.23, 'temp': 0.0, 'lipoC3S3': 12.01, 'state': 'normal', 'rot1': 47, 'rot0': 57, 'rot3': 16, 'rot2': 19, 'depth': 2.454, 'yaw': 133.08, 'datetime': '2018-12-12 11:00:31.766773', 'mgs': 0, 'flw2': 0.22, 'flw1': 1.58, 'flw0': 0.0, 'time': 12.02, 'compass': 91.83, 'pitch': -1.05, 'roll': 1.79}
{'lipoC2': 7.97, 'temp': 0.0, 'lipoC3S3': 11.92, 'state': 'normal', 'rot1': 47, 'rot0': 57, 'rot3': 17, 'rot2': 19, 'depth': 2.301, 'yaw': 132.61, 'datetime': '2018-12-12 11:00:31.977989', 'mgs': 0, 'flw2': 0.13, 'flw1': 1.32, 'flw0': 0.24, 'time': 12.23, 'compass': 91.36, 'pitch': -1.75, 'roll': 1.82}
{'lipoC2': 8.19, 'temp': 0.0, 'lipoC3S3': 11.97, 'state': 'normal', 'rot1': 47, 'rot0': 57, 'rot3': 17, 'rot2': 20, 'depth': 2.53, 'yaw': 132.17, 'datetime': '2018-12-12 11:00:32.188282', 'mgs': 0, 'flw2': 0.0, 'flw1': 2.55, 'flw0': 0.0, 'time': 12.44, 'compass': 90.92, 'pitch': -1.87, 'roll': 1.62}
{'lipoC2': 7.96, 'temp': 0.0, 'lipoC3S3': 11.98, 'state': 'normal', 'rot1': 47, 'rot0': 57, 'rot3': 18, 'rot2': 21, 'depth': 2.072, 'yaw': 131.75, 'datetime': '2018-12-12 11:00:32.399054', 'mgs': 0, 'flw2': 0.11, 'flw1': 1.29, 'flw0': 0.22, 'time': 12.65, 'compass': 90.5, 'pitch': -1.38, 'roll': 1.41}
{'lipoC2': 8.15, 'temp': 0.0, 'lipoC3S3': 11.88, 'state': 'normal', 'rot1': 47, 'rot0': 57, 'rot3': 19, 'rot2': 22, 'depth': -0.064, 'yaw': 131.38, 'datetime': '2018-12-12 11:00:32.606521', 'mgs': 0, 'flw2': 0.31, 'flw1': 1.7, 'flw0': 0.26, 'time': 12.85, 'compass': 90.13, 'pitch': -1.51, 'roll': 1.15}
{'lipoC2': 7.97, 'temp': 0.0, 'lipoC3S3': 12.02, 'state': 'normal', 'rot1': 47, 'rot0': 57, 'rot3': 19, 'rot2': 23, 'depth': 0.012, 'yaw': 131.04, 'datetime': '2018-12-12 11:00:32.815219', 'mgs': 0, 'flw2': 0.0, 'flw1': 1.23, 'flw0': 0.15, 'time': 13.06, 'compass': 89.79, 'pitch': -2.06, 'roll': 0.83}
{'lipoC2': 8.02, 'temp': 0.0, 'lipoC3S3': 11.87, 'state': 'normal', 'rot1': 47, 'rot0': 57, 'rot3': 20, 'rot2': 24, 'depth': -0.217, 'yaw': 130.67, 'datetime': '2018-12-12 11:00:33.026315', 'mgs': 0, 'flw2': 0.18, 'flw1': 1.46, 'flw0': 0.32, 'time': 13.28, 'compass': 89.42, 'pitch': -2.24, 'roll': 0.53}
{'lipoC2': 7.98, 'temp': 0.0, 'lipoC3S3': 11.93, 'state': 'normal', 'rot1': 47, 'rot0': 57, 'rot3': 21, 'rot2': 25, 'depth': 2.606, 'yaw': 130.32, 'datetime': '2018-12-12 11:00:33.236512', 'mgs': 0, 'flw2': 0.23, 'flw1': 1.52, 'flw0': 0.31, 'time': 13.49, 'compass': 89.07, 'pitch': -1.88, 'roll': 0.47}
{'lipoC2': 8.04, 'temp': 0.0, 'lipoC3S3': 11.88, 'state': 'normal', 'rot1': 47, 'rot0': 57, 'rot3': 22, 'rot2': 25, 'depth': -0.369, 'yaw': 129.98, 'datetime': '2018-12-12 11:00:33.446589', 'mgs': 0, 'flw2': 0.29, 'flw1': 1.79, 'flw0': 0.31, 'time': 13.7, 'compass': 88.72, 'pitch': -1.76, 'roll': 0.63}
{'lipoC2': 8.25, 'temp': 0.0, 'lipoC3S3': 12.01, 'state': 'normal', 'rot1': 47, 'rot0': 57, 'rot3': 22, 'rot2': 26, 'depth': -0.98, 'yaw': 129.61, 'datetime': '2018-12-12 11:00:33.656372', 'mgs': 0, 'flw2': 0.0, 'flw1': 1.26, 'flw0': 0.0, 'time': 13.9, 'compass': 88.36, 'pitch': -1.79, 'roll': 0.71}
{'lipoC2': 7.94, 'temp': 0.0, 'lipoC3S3': 12.31, 'state': 'normal', 'rot1': 47, 'rot0': 57, 'rot3': 23, 'rot2': 27, 'depth': -0.446, 'yaw': 129.23, 'datetime': '2018-12-12 11:00:33.865144', 'mgs': 0, 'flw2': 0.0, 'flw1': 1.26, 'flw0': 0.0, 'time': 14.11, 'compass': 87.98, 'pitch': -1.74, 'roll': 0.69}
{'lipoC2': 7.97, 'temp': 0.0, 'lipoC3S3': 12.04, 'state': 'normal', 'rot1': 47, 'rot0': 57, 'rot3': 24, 'rot2': 28, 'depth': 2.454, 'yaw': 128.79, 'datetime': '2018-12-12 11:00:34.076269', 'mgs': 0, 'flw2': 0.0, 'flw1': 2.29, 'flw0': 0.0, 'time': 14.32, 'compass': 87.54, 'pitch': -1.56, 'roll': 0.75}
{'lipoC2': 7.98, 'temp': 0.0, 'lipoC3S3': 12.05, 'state': 'normal', 'rot1': 47, 'rot0': 57, 'rot3': 25, 'rot2': 29, 'depth': 2.148, 'yaw': 128.37, 'datetime': '2018-12-12 11:00:34.286955', 'mgs': 0, 'flw2': 0.0, 'flw1': 2.43, 'flw0': 0.0, 'time': 14.53, 'compass': 87.12, 'pitch': -1.63, 'roll': 1.0}
{'lipoC2': 8.19, 'temp': 0.0, 'lipoC3S3': 12.01, 'state': 'normal', 'rot1': 47, 'rot0': 57, 'rot3': 25, 'rot2': 30, 'depth': -0.903, 'yaw': 127.97, 'datetime': '2018-12-12 11:00:34.496799', 'mgs': 0, 'flw2': 0.0, 'flw1': 2.26, 'flw0': 0.0, 'time': 14.74, 'compass': 86.72, 'pitch': -1.85, 'roll': 1.29}
{'lipoC2': 8.1, 'temp': 0.0, 'lipoC3S3': 12.02, 'state': 'normal', 'rot1': 47, 'rot0': 57, 'rot3': 26, 'rot2': 30, 'depth': -0.446, 'yaw': 127.57, 'datetime': '2018-12-12 11:00:34.706912', 'mgs': 0, 'flw2': 0.0, 'flw1': 2.61, 'flw0': 0.0, 'time': 14.95, 'compass': 86.32, 'pitch': -1.74, 'roll': 1.42}
{'lipoC2': 8.26, 'temp': 0.0, 'lipoC3S3': 12.05, 'state': 'normal', 'rot1': 47, 'rot0': 57, 'rot3': 27, 'rot2': 31, 'depth': -0.903, 'yaw': 127.17, 'datetime': '2018-12-12 11:00:34.915717', 'mgs': 0, 'flw2': 0.0, 'flw1': 1.41, 'flw0': 0.0, 'time': 15.16, 'compass': 85.92, 'pitch': -1.18, 'roll': 1.32}
{'lipoC2': 7.97, 'temp': 0.0, 'lipoC3S3': 11.97, 'state': 'normal', 'rot1': 47, 'rot0': 57, 'rot3': 27, 'rot2': 32, 'depth': 0.089, 'yaw': 126.8, 'datetime': '2018-12-12 11:00:35.126512', 'mgs': 0, 'flw2': 0.0, 'flw1': 1.26, 'flw0': 0.13, 'time': 15.37, 'compass': 85.55, 'pitch': -0.92, 'roll': 1.14}
{'lipoC2': 8.15, 'temp': 0.0, 'lipoC3S3': 11.93, 'state': 'normal', 'rot1': 47, 'rot0': 57, 'rot3': 28, 'rot2': 33, 'depth': 0.775, 'yaw': 126.45, 'datetime': '2018-12-12 11:00:35.337810', 'mgs': 0, 'flw2': 0.31, 'flw1': 1.58, 'flw0': 0.24, 'time': 15.58, 'compass': 85.2, 'pitch': -1.5, 'roll': 1.13}
{'lipoC2': 7.97, 'temp': 0.0, 'lipoC3S3': 12.06, 'state': 'normal', 'rot1': 47, 'rot0': 57, 'rot3': 29, 'rot2': 34, 'depth': 2.072, 'yaw': 126.13, 'datetime': '2018-12-12 11:00:35.547515', 'mgs': 0, 'flw2': 0.0, 'flw1': 2.31, 'flw0': 0.0, 'time': 15.79, 'compass': 84.88, 'pitch': -2.18, 'roll': 1.21}
{'lipoC2': 8.13, 'temp': 0.0, 'lipoC3S3': 11.93, 'state': 'normal', 'rot1': 47, 'rot0': 57, 'rot3': 30, 'rot2': 35, 'depth': 0.165, 'yaw': 125.8, 'datetime': '2018-12-12 11:00:35.759779', 'mgs': 0, 'flw2': 0.0, 'flw1': 2.75, 'flw0': 0.18, 'time': 16.0, 'compass': 84.55, 'pitch': -1.83, 'roll': 1.39}
{'lipoC2': 8.01, 'temp': 0.0, 'lipoC3S3': 11.88, 'state': 'normal', 'rot1': 47, 'rot0': 57, 'rot3': 30, 'rot2': 35, 'depth': 2.911, 'yaw': 125.46, 'datetime': '2018-12-12 11:00:35.970054', 'mgs': 0, 'flw2': 0.27, 'flw1': 1.76, 'flw0': 0.32, 'time': 16.21, 'compass': 84.21, 'pitch': -0.93, 'roll': 1.59}
{'lipoC2': 7.98, 'temp': 0.0, 'lipoC3S3': 11.89, 'state': 'normal', 'rot1': 47, 'rot0': 57, 'rot3': 31, 'rot2': 36, 'depth': 2.53, 'yaw': 125.1, 'datetime': '2018-12-12 11:00:36.180231', 'mgs': 0, 'flw2': 0.17, 'flw1': 1.58, 'flw0': 0.29, 'time': 16.42, 'compass': 83.85, 'pitch': -0.79, 'roll': 1.81}
{'lipoC2': 8.22, 'temp': 0.0, 'lipoC3S3': 12.01, 'state': 'normal', 'rot1': 47, 'rot0': 57, 'rot3': 32, 'rot2': 37, 'depth': 2.072, 'yaw': 124.75, 'datetime': '2018-12-12 11:00:36.390478', 'mgs': 0, 'flw2': 0.09, 'flw1': 1.44, 'flw0': 0.0, 'time': 16.63, 'compass': 83.5, 'pitch': -1.41, 'roll': 1.86}
{'lipoC2': 7.95, 'temp': 0.0, 'lipoC3S3': 12.34, 'state': 'normal', 'rot1': 47, 'rot0': 57, 'rot3': 32, 'rot2': 38, 'depth': -0.446, 'yaw': 124.38, 'datetime': '2018-12-12 11:00:36.600874', 'mgs': 0, 'flw2': 0.0, 'flw1': 1.26, 'flw0': 0.0, 'time': 16.84, 'compass': 83.13, 'pitch': -1.63, 'roll': 1.85}
{'lipoC2': 7.93, 'temp': 0.0, 'lipoC3S3': 11.88, 'state': 'normal', 'rot1': 47, 'rot0': 57, 'rot3': 33, 'rot2': 39, 'depth': -0.14, 'yaw': 124.0, 'datetime': '2018-12-12 11:00:36.811139', 'mgs': 0, 'flw2': 0.2, 'flw1': 1.73, 'flw0': 0.32, 'time': 17.05, 'compass': 82.75, 'pitch': -1.15, 'roll': 1.86}
{'lipoC2': 8.2, 'temp': 0.0, 'lipoC3S3': 12.0, 'state': 'normal', 'rot1': 47, 'rot0': 57, 'rot3': 34, 'rot2': 40, 'depth': 0.089, 'yaw': 123.66, 'datetime': '2018-12-12 11:00:37.017493', 'mgs': 0, 'flw2': 0.27, 'flw1': 1.61, 'flw0': 0.1, 'time': 17.26, 'compass': 82.41, 'pitch': -0.92, 'roll': 1.95}
{'lipoC2': 7.94, 'temp': 0.0, 'lipoC3S3': 12.34, 'state': 'normal', 'rot1': 47, 'rot0': 57, 'rot3': 35, 'rot2': 41, 'depth': -0.446, 'yaw': 123.37, 'datetime': '2018-12-12 11:00:37.227349', 'mgs': 0, 'flw2': 0.24, 'flw1': 1.58, 'flw0': 0.31, 'time': 17.47, 'compass': 82.12, 'pitch': -1.31, 'roll': 1.94}
{'lipoC2': 8.26, 'temp': 0.0, 'lipoC3S3': 12.04, 'state': 'normal', 'rot1': 47, 'rot0': 57, 'rot3': 35, 'rot2': 41, 'depth': -0.98, 'yaw': 123.1, 'datetime': '2018-12-12 11:00:37.438509', 'mgs': 0, 'flw2': 0.0, 'flw1': 1.23, 'flw0': 0.0, 'time': 17.68, 'compass': 81.85, 'pitch': -1.38, 'roll': 1.93}
{'lipoC2': 8.26, 'temp': 0.0, 'lipoC3S3': 12.02, 'state': 'normal', 'rot1': 47, 'rot0': 57, 'rot3': 36, 'rot2': 42, 'depth': -0.98, 'yaw': 122.84, 'datetime': '2018-12-12 11:00:37.650457', 'mgs': 0, 'flw2': 0.0, 'flw1': 2.37, 'flw0': 0.0, 'time': 17.89, 'compass': 81.59, 'pitch': -0.93, 'roll': 1.84}
{'lipoC2': 7.99, 'temp': 0.0, 'lipoC3S3': 11.87, 'state': 'normal', 'rot1': 47, 'rot0': 57, 'rot3': 37, 'rot2': 43, 'depth': -0.217, 'yaw': 122.56, 'datetime': '2018-12-12 11:00:37.861135', 'mgs': 0, 'flw2': 0.04, 'flw1': 1.35, 'flw0': 0.26, 'time': 18.1, 'compass': 81.31, 'pitch': -0.76, 'roll': 1.81}
{'lipoC2': 8.16, 'temp': 0.0, 'lipoC3S3': 11.98, 'state': 'normal', 'rot1': 47, 'rot0': 57, 'rot3': 38, 'rot2': 44, 'depth': -0.827, 'yaw': 122.26, 'datetime': '2018-12-12 11:00:38.073016', 'mgs': 0, 'flw2': 0.0, 'flw1': 2.58, 'flw0': 0.0, 'time': 18.31, 'compass': 81.01, 'pitch': -0.95, 'roll': 1.81}
{'lipoC2': 7.98, 'temp': 0.0, 'lipoC3S3': 11.94, 'state': 'normal', 'rot1': 47, 'rot0': 57, 'rot3': 38, 'rot2': 45, 'depth': 2.53, 'yaw': 122.0, 'datetime': '2018-12-12 11:00:38.279823', 'mgs': 0, 'flw2': 0.0, 'flw1': 2.37, 'flw0': 0.0, 'time': 18.52, 'compass': 80.75, 'pitch': -1.11, 'roll': 1.81}
{'lipoC2': 7.93, 'temp': 0.0, 'lipoC3S3': 12.19, 'state': 'normal', 'rot1': 47, 'rot0': 57, 'rot3': 39, 'rot2': 46, 'depth': 0.165, 'yaw': 121.79, 'datetime': '2018-12-12 11:00:38.486617', 'mgs': 0, 'flw2': 0.0, 'flw1': 2.58, 'flw0': 0.0, 'time': 18.73, 'compass': 80.54, 'pitch': -0.75, 'roll': 1.58}
{'lipoC2': 7.91, 'temp': 0.0, 'lipoC3S3': 12.22, 'state': 'normal', 'rot1': 47, 'rot0': 57, 'rot3': 40, 'rot2': 46, 'depth': -0.293, 'yaw': 121.51, 'datetime': '2018-12-12 11:00:38.696912', 'mgs': 0, 'flw2': 0.0, 'flw1': 1.38, 'flw0': 0.0, 'time': 18.94, 'compass': 80.26, 'pitch': -0.5, 'roll': 1.37}
{'lipoC2': 7.97, 'temp': 0.0, 'lipoC3S3': 12.21, 'state': 'normal', 'rot1': 47, 'rot0': 57, 'rot3': 40, 'rot2': 47, 'depth': -0.064, 'yaw': 121.28, 'datetime': '2018-12-12 11:00:38.907955', 'mgs': 0, 'flw2': 0.29, 'flw1': 1.58, 'flw0': 0.02, 'time': 19.15, 'compass': 80.03, 'pitch': -0.86, 'roll': 1.44}
{'lipoC2': 8.22, 'temp': 0.0, 'lipoC3S3': 12.0, 'state': 'normal', 'rot1': 47, 'rot0': 57, 'rot3': 41, 'rot2': 48, 'depth': 0.394, 'yaw': 121.06, 'datetime': '2018-12-12 11:00:39.123573', 'mgs': 0, 'flw2': 0.0, 'flw1': 2.49, 'flw0': 0.01, 'time': 19.36, 'compass': 79.81, 'pitch': -1.25, 'roll': 1.67}
{'lipoC2': 7.97, 'temp': 0.0, 'lipoC3S3': 12.41, 'state': 'normal', 'rot1': 47, 'rot0': 57, 'rot3': 42, 'rot2': 49, 'depth': 0.546, 'yaw': 120.84, 'datetime': '2018-12-12 11:00:39.326671', 'mgs': 0, 'flw2': 0.0, 'flw1': 1.17, 'flw0': 0.15, 'time': 19.57, 'compass': 79.59, 'pitch': -1.12, 'roll': 1.69}
{'lipoC2': 7.98, 'temp': 0.0, 'lipoC3S3': 12.45, 'state': 'normal', 'rot1': 47, 'rot0': 57, 'rot3': 43, 'rot2': 50, 'depth': -0.064, 'yaw': 120.64, 'datetime': '2018-12-12 11:00:39.536397', 'mgs': 0, 'flw2': 0.0, 'flw1': 1.41, 'flw0': 0.32, 'time': 19.78, 'compass': 79.39, 'pitch': -0.65, 'roll': 1.69}
{'lipoC2': 7.92, 'temp': 0.0, 'lipoC3S3': 12.35, 'state': 'normal', 'rot1': 47, 'rot0': 57, 'rot3': 43, 'rot2': 51, 'depth': -0.369, 'yaw': 120.34, 'datetime': '2018-12-12 11:00:39.748811', 'mgs': 0, 'flw2': 0.24, 'flw1': 1.61, 'flw0': 0.32, 'time': 19.99, 'compass': 79.09, 'pitch': -0.45, 'roll': 1.8}
{'lipoC2': 8.0, 'temp': 0.0, 'lipoC3S3': 11.88, 'state': 'normal', 'rot1': 47, 'rot0': 57, 'rot3': 44, 'rot2': 52, 'depth': 0.165, 'yaw': 120.04, 'datetime': '2018-12-12 11:00:39.964811', 'mgs': 0, 'flw2': 0.21, 'flw1': 1.64, 'flw0': 0.32, 'time': 20.2, 'compass': 78.79, 'pitch': -0.73, 'roll': 1.76}
{'lipoC2': 7.96, 'temp': 0.0, 'lipoC3S3': 12.09, 'state': 'normal', 'rot1': 47, 'rot0': 57, 'rot3': 45, 'rot2': 52, 'depth': 2.072, 'yaw': 119.76, 'datetime': '2018-12-12 11:00:40.170211', 'mgs': 0, 'flw2': 0.0, 'flw1': 2.14, 'flw0': 0.0, 'time': 20.41, 'compass': 78.51, 'pitch': -1.05, 'roll': 1.64}
{'lipoC2': 8.0, 'temp': 0.0, 'lipoC3S3': 12.37, 'state': 'normal', 'rot1': 47, 'rot0': 57, 'rot3': 46, 'rot2': 53, 'depth': 0.699, 'yaw': 119.5, 'datetime': '2018-12-12 11:00:40.379623', 'mgs': 0, 'flw2': 0.0, 'flw1': 1.32, 'flw0': 0.0, 'time': 20.62, 'compass': 78.25, 'pitch': -0.93, 'roll': 1.73}
{'lipoC2': 7.96, 'temp': 0.0, 'lipoC3S3': 12.18, 'state': 'normal', 'rot1': 47, 'rot0': 57, 'rot3': 46, 'rot2': 54, 'depth': -0.293, 'yaw': 119.2, 'datetime': '2018-12-12 11:00:40.588196', 'mgs': 0, 'flw2': 0.0, 'flw1': 1.2, 'flw0': 0.0, 'time': 20.83, 'compass': 77.95, 'pitch': -0.56, 'roll': 1.93}
{'lipoC2': 8.14, 'temp': 0.0, 'lipoC3S3': 11.93, 'state': 'normal', 'rot1': 47, 'rot0': 57, 'rot3': 47, 'rot2': 55, 'depth': 1.538, 'yaw': 118.79, 'datetime': '2018-12-12 11:00:40.800230', 'mgs': 0, 'flw2': 0.22, 'flw1': 1.52, 'flw0': 0.06, 'time': 21.04, 'compass': 77.54, 'pitch': -0.4, 'roll': 1.92}
{'lipoC2': 7.97, 'temp': 0.0, 'lipoC3S3': 11.96, 'state': 'normal', 'rot1': 47, 'rot0': 57, 'rot3': 48, 'rot2': 56, 'depth': 0.241, 'yaw': 118.38, 'datetime': '2018-12-12 11:00:41.012795', 'mgs': 0, 'flw2': 0.0, 'flw1': 2.7, 'flw0': 0.0, 'time': 21.25, 'compass': 77.13, 'pitch': -0.69, 'roll': 1.91}
{'lipoC2': 8.07, 'temp': 0.0, 'lipoC3S3': 11.87, 'state': 'normal', 'rot1': 47, 'rot0': 57, 'rot3': 48, 'rot2': 57, 'depth': 1.996, 'yaw': 117.98, 'datetime': '2018-12-12 11:00:41.226019', 'mgs': 0, 'flw2': 0.26, 'flw1': 1.64, 'flw0': 0.34, 'time': 21.46, 'compass': 76.73, 'pitch': -0.99, 'roll': 2.12}
{'lipoC2': 7.97, 'temp': 0.0, 'lipoC3S3': 11.88, 'state': 'normal', 'rot1': 47, 'rot0': 57, 'rot3': 49, 'rot2': 57, 'depth': 0.012, 'yaw': 117.61, 'datetime': '2018-12-12 11:00:41.434178', 'mgs': 0, 'flw2': 0.0, 'flw1': 2.55, 'flw0': 0.0, 'time': 21.67, 'compass': 76.36, 'pitch': -0.93, 'roll': 2.2}
{'lipoC2': 7.98, 'temp': 0.0, 'lipoC3S3': 12.06, 'state': 'normal', 'rot1': 47, 'rot0': 57, 'rot3': 50, 'rot2': 58, 'depth': -0.217, 'yaw': 117.25, 'datetime': '2018-12-12 11:00:41.645523', 'mgs': 0, 'flw2': 0.04, 'flw1': 1.29, 'flw0': 0.16, 'time': 21.88, 'compass': 76.0, 'pitch': -0.66, 'roll': 2.02}
{'lipoC2': 8.26, 'temp': 0.0, 'lipoC3S3': 12.02, 'state': 'normal', 'rot1': 47, 'rot0': 57, 'rot3': 51, 'rot2': 59, 'depth': 1.767, 'yaw': 116.9, 'datetime': '2018-12-12 11:00:41.856675', 'mgs': 0, 'flw2': 0.0, 'flw1': 2.52, 'flw0': 0.0, 'time': 22.09, 'compass': 75.65, 'pitch': -0.66, 'roll': 2.12}
{'lipoC2': 8.11, 'temp': 0.0, 'lipoC3S3': 11.9, 'state': 'normal', 'rot1': 47, 'rot0': 57, 'rot3': 51, 'rot2': 60, 'depth': -0.064, 'yaw': 116.55, 'datetime': '2018-12-12 11:00:42.064267', 'mgs': 0, 'flw2': 0.31, 'flw1': 1.82, 'flw0': 0.21, 'time': 22.3, 'compass': 75.3, 'pitch': -1.09, 'roll': 2.54}
{'lipoC2': 7.97, 'temp': 0.0, 'lipoC3S3': 12.37, 'state': 'normal', 'rot1': 47, 'rot0': 57, 'rot3': 52, 'rot2': 61, 'depth': -0.98, 'yaw': 116.24, 'datetime': '2018-12-12 11:00:42.277209', 'mgs': 0, 'flw2': 0.0, 'flw1': 1.23, 'flw0': 0.0, 'time': 22.51, 'compass': 74.99, 'pitch': -1.36, 'roll': 2.68}
{'lipoC2': 7.97, 'temp': 0.0, 'lipoC3S3': 11.89, 'state': 'normal', 'rot1': 47, 'rot0': 57, 'rot3': 53, 'rot2': 62, 'depth': 2.759, 'yaw': 116.02, 'datetime': '2018-12-12 11:00:42.487638', 'mgs': 0, 'flw2': 0.16, 'flw1': 1.55, 'flw0': 0.28, 'time': 22.72, 'compass': 74.77, 'pitch': -0.99, 'roll': 2.56}
{'lipoC2': 7.95, 'temp': 0.0, 'lipoC3S3': 12.38, 'state': 'normal', 'rot1': 47, 'rot0': 57, 'rot3': 54, 'rot2': 62, 'depth': -0.369, 'yaw': 115.79, 'datetime': '2018-12-12 11:00:42.695373', 'mgs': 0, 'flw2': 0.0, 'flw1': 2.31, 'flw0': 0.0, 'time': 22.93, 'compass': 74.54, 'pitch': -0.5, 'roll': 2.76}
{'lipoC2': 7.94, 'temp': 0.0, 'lipoC3S3': 12.29, 'state': 'normal', 'rot1': 47, 'rot0': 57, 'rot3': 54, 'rot2': 63, 'depth': 0.928, 'yaw': 115.52, 'datetime': '2018-12-12 11:00:42.903040', 'mgs': 0, 'flw2': 0.0, 'flw1': 1.41, 'flw0': 0.0, 'time': 23.14, 'compass': 74.27, 'pitch': -0.65, 'roll': 2.98}
{'lipoC2': 7.97, 'temp': 0.0, 'lipoC3S3': 11.96, 'state': 'normal', 'rot1': 47, 'rot0': 57, 'rot3': 55, 'rot2': 64, 'depth': 2.835, 'yaw': 115.27, 'datetime': '2018-12-12 11:00:43.112135', 'mgs': 0, 'flw2': 0.0, 'flw1': 2.67, 'flw0': 0.0, 'time': 23.35, 'compass': 74.02, 'pitch': -0.92, 'roll': 2.89}
{'lipoC2': 8.26, 'temp': 0.0, 'lipoC3S3': 12.04, 'state': 'normal', 'rot1': 47, 'rot0': 57, 'rot3': 56, 'rot2': 65, 'depth': -0.98, 'yaw': 115.03, 'datetime': '2018-12-12 11:00:43.321850', 'mgs': 0, 'flw2': 0.37, 'flw1': 1.73, 'flw0': 0.18, 'time': 23.56, 'compass': 73.78, 'pitch': -0.8, 'roll': 2.65}
