{'lipoC2': 0.0, 'temp': 0.0, 'lipoC3S3': 12.54, 'state': 'normal', 'rot1': 0, 'rot0': 0, 'rot3': 0, 'rot2': 0, 'depth': -0.14, 'yaw': 0.0, 'datetime': '2018-12-18 18:01:01.424663', 'mgs': 0, 'flw2': 0.0, 'flw1': 0.0, 'flw0': 0.2, 'time': 1.26, 'compass': -150.26, 'pitch': 0.05, 'roll': 1.56}
{'lipoC2': 0.0, 'temp': 0.0, 'lipoC3S3': 12.55, 'state': 'normal', 'rot1': 0, 'rot0': 0, 'rot3': 0, 'rot2': 0, 'depth': 1.691, 'yaw': 0.0, 'datetime': '2018-12-18 18:01:01.632772', 'mgs': 0, 'flw2': 0.0, 'flw1': 0.18, 'flw0': 0.18, 'time': 1.47, 'compass': -150.25, 'pitch': 0.1, 'roll': 1.55}
{'lipoC2': 0.0, 'temp': 0.0, 'lipoC3S3': 12.43, 'state': 'normal', 'rot1': 0, 'rot0': 0, 'rot3': 0, 'rot2': 0, 'depth': 1.309, 'yaw': -0.0, 'datetime': '2018-12-18 18:01:01.843727', 'mgs': 0, 'flw2': 0.18, 'flw1': 0.0, 'flw0': 0.0, 'time': 1.67, 'compass': -150.26, 'pitch': 0.28, 'roll': 1.56}
{'lipoC2': 0.02, 'temp': 0.0, 'lipoC3S3': 12.38, 'state': 'normal', 'rot1': 0, 'rot0': 0, 'rot3': 0, 'rot2': 0, 'depth': -0.903, 'yaw': -0.0, 'datetime': '2018-12-18 18:01:02.049378', 'mgs': 0, 'flw2': 0.11, 'flw1': 0.0, 'flw0': 0.06, 'time': 1.88, 'compass': -150.26, 'pitch': 0.3, 'roll': 1.55}
{'lipoC2': 0.1, 'temp': 0.0, 'lipoC3S3': 12.35, 'state': 'normal', 'rot1': 0, 'rot0': 0, 'rot3': 0, 'rot2': 0, 'depth': 1.843, 'yaw': 0.03, 'datetime': '2018-12-18 18:01:02.256193', 'mgs': 0, 'flw2': 2.43, 'flw1': 0.41, 'flw0': 2.4, 'time': 2.09, 'compass': -150.23, 'pitch': 0.31, 'roll': 1.57}
{'lipoC2': 0.11, 'temp': 0.0, 'lipoC3S3': 12.34, 'state': 'normal', 'rot1': 3, 'rot0': 2, 'rot3': 0, 'rot2': 0, 'depth': 1.92, 'yaw': 2.4, 'datetime': '2018-12-18 18:01:02.463951', 'mgs': 0, 'flw2': 1.98, 'flw1': 0.0, 'flw0': 2.1, 'time': 2.3, 'compass': -147.86, 'pitch': 0.63, 'roll': 2.13}
{'lipoC2': 0.0, 'temp': 0.0, 'lipoC3S3': 12.43, 'state': 'normal', 'rot1': 5, 'rot0': 4, 'rot3': 0, 'rot2': 0, 'depth': 1.614, 'yaw': 8.08, 'datetime': '2018-12-18 18:01:02.672986', 'mgs': 0, 'flw2': 2.06, 'flw1': 0.0, 'flw0': 1.89, 'time': 2.51, 'compass': -142.17, 'pitch': 1.42, 'roll': 3.09}
{'lipoC2': 0.09, 'temp': 0.0, 'lipoC3S3': 12.35, 'state': 'normal', 'rot1': 7, 'rot0': 6, 'rot3': 0, 'rot2': 0, 'depth': 1.843, 'yaw': 16.09, 'datetime': '2018-12-18 18:01:02.880886', 'mgs': 0, 'flw2': 1.57, 'flw1': 0.0, 'flw0': 1.78, 'time': 2.71, 'compass': -134.16, 'pitch': 1.86, 'roll': 3.73}
{'lipoC2': 0.08, 'temp': 0.0, 'lipoC3S3': 12.38, 'state': 'normal', 'rot1': 9, 'rot0': 8, 'rot3': 0, 'rot2': 0, 'depth': 1.843, 'yaw': 24.91, 'datetime': '2018-12-18 18:01:03.091548', 'mgs': 0, 'flw2': 1.56, 'flw1': 0.0, 'flw0': 1.51, 'time': 2.92, 'compass': -125.35, 'pitch': 1.66, 'roll': 3.68}
{'lipoC2': 0.0, 'temp': 0.0, 'lipoC3S3': 12.5, 'state': 'normal', 'rot1': 11, 'rot0': 10, 'rot3': 0, 'rot2': 0, 'depth': 1.691, 'yaw': 34.71, 'datetime': '2018-12-18 18:01:03.300290', 'mgs': 0, 'flw2': 1.31, 'flw1': 0.0, 'flw0': 1.03, 'time': 3.13, 'compass': -115.54, 'pitch': 1.47, 'roll': 3.31}
{'lipoC2': 0.08, 'temp': 0.0, 'lipoC3S3': 12.14, 'state': 'normal', 'rot1': 12, 'rot0': 12, 'rot3': 0, 'rot2': 0, 'depth': 1.233, 'yaw': 44.39, 'datetime': '2018-12-18 18:01:03.509659', 'mgs': 0, 'flw2': 1.23, 'flw1': 0.0, 'flw0': 0.84, 'time': 3.34, 'compass': -105.87, 'pitch': 1.73, 'roll': 2.63}
{'lipoC2': 0.03, 'temp': 0.0, 'lipoC3S3': 12.17, 'state': 'normal', 'rot1': 14, 'rot0': 13, 'rot3': 0, 'rot2': 0, 'depth': 0.317, 'yaw': 53.82, 'datetime': '2018-12-18 18:01:03.719058', 'mgs': 0, 'flw2': 1.06, 'flw1': 0.0, 'flw0': 0.68, 'time': 3.55, 'compass': -96.44, 'pitch': 2.0, 'roll': 2.02}
{'lipoC2': 0.0, 'temp': 0.0, 'lipoC3S3': 12.47, 'state': 'normal', 'rot1': 16, 'rot0': 15, 'rot3': 0, 'rot2': 0, 'depth': 1.691, 'yaw': 62.57, 'datetime': '2018-12-18 18:01:03.927972', 'mgs': 0, 'flw2': 0.96, 'flw1': 0.0, 'flw0': 0.5, 'time': 3.76, 'compass': -87.69, 'pitch': 1.82, 'roll': 1.82}
{'lipoC2': 0.0, 'temp': 0.0, 'lipoC3S3': 12.51, 'state': 'normal', 'rot1': 17, 'rot0': 16, 'rot3': 0, 'rot2': 0, 'depth': -1.819, 'yaw': 71.41, 'datetime': '2018-12-18 18:01:04.136803', 'mgs': 0, 'flw2': 0.73, 'flw1': 0.0, 'flw0': 0.26, 'time': 3.96, 'compass': -78.85, 'pitch': 1.46, 'roll': 1.92}
{'lipoC2': 0.0, 'temp': 0.0, 'lipoC3S3': 12.46, 'state': 'normal', 'rot1': 18, 'rot0': 17, 'rot3': 0, 'rot2': 0, 'depth': 1.462, 'yaw': 79.8, 'datetime': '2018-12-18 18:01:04.344821', 'mgs': 0, 'flw2': 0.7, 'flw1': 0.0, 'flw0': 0.34, 'time': 4.17, 'compass': -70.45, 'pitch': 1.25, 'roll': 2.04}
{'lipoC2': 0.0, 'temp': 0.0, 'lipoC3S3': 12.43, 'state': 'normal', 'rot1': 19, 'rot0': 18, 'rot3': 0, 'rot2': 0, 'depth': 1.538, 'yaw': 87.73, 'datetime': '2018-12-18 18:01:04.554684', 'mgs': 0, 'flw2': 0.22, 'flw1': 0.44, 'flw0': 0.4, 'time': 4.38, 'compass': -62.52, 'pitch': 1.16, 'roll': 1.97}
{'lipoC2': 0.12, 'temp': 0.0, 'lipoC3S3': 12.33, 'state': 'normal', 'rot1': 20, 'rot0': 19, 'rot3': 0, 'rot2': 0, 'depth': -1.819, 'yaw': 95.19, 'datetime': '2018-12-18 18:01:04.763961', 'mgs': 0, 'flw2': 0.45, 'flw1': 0.35, 'flw0': 0.29, 'time': 4.59, 'compass': -55.07, 'pitch': 1.0, 'roll': 1.83}
{'lipoC2': 0.0, 'temp': 0.0, 'lipoC3S3': 12.16, 'state': 'normal', 'rot1': 21, 'rot0': 20, 'rot3': 0, 'rot2': 0, 'depth': -0.674, 'yaw': 101.86, 'datetime': '2018-12-18 18:01:04.983229', 'mgs': 0, 'flw2': 0.52, 'flw1': 0.21, 'flw0': 0.0, 'time': 4.8, 'compass': -48.39, 'pitch': 0.85, 'roll': 1.66}
{'lipoC2': 0.03, 'temp': 0.0, 'lipoC3S3': 12.19, 'state': 'normal', 'rot1': 22, 'rot0': 21, 'rot3': 0, 'rot2': 0, 'depth': 1.385, 'yaw': 107.96, 'datetime': '2018-12-18 18:01:05.192167', 'mgs': 0, 'flw2': 0.57, 'flw1': 0.0, 'flw0': 0.18, 'time': 5.01, 'compass': -42.3, 'pitch': 0.69, 'roll': 1.46}
{'lipoC2': 0.0, 'temp': 0.0, 'lipoC3S3': 12.27, 'state': 'normal', 'rot1': 23, 'rot0': 22, 'rot3': 0, 'rot2': 0, 'depth': 0.928, 'yaw': 114.23, 'datetime': '2018-12-18 18:01:05.401496', 'mgs': 0, 'flw2': 0.43, 'flw1': 0.41, 'flw0': 0.34, 'time': 5.22, 'compass': -36.03, 'pitch': 1.01, 'roll': 1.43}
{'lipoC2': 0.04, 'temp': 0.0, 'lipoC3S3': 12.41, 'state': 'normal', 'rot1': 24, 'rot0': 23, 'rot3': 0, 'rot2': 0, 'depth': -1.208, 'yaw': 120.59, 'datetime': '2018-12-18 18:01:05.607366', 'mgs': 0, 'flw2': 0.24, 'flw1': 0.5, 'flw0': 0.38, 'time': 5.43, 'compass': -29.67, 'pitch': 1.44, 'roll': 1.58}
{'lipoC2': 0.0, 'temp': 0.0, 'lipoC3S3': 12.55, 'state': 'normal', 'rot1': 26, 'rot0': 24, 'rot3': 0, 'rot2': 0, 'depth': 0.089, 'yaw': 126.67, 'datetime': '2018-12-18 18:01:05.817161', 'mgs': 0, 'flw2': 0.18, 'flw1': 0.0, 'flw0': 0.59, 'time': 5.64, 'compass': -23.59, 'pitch': 1.5, 'roll': 1.68}
{'lipoC2': 0.04, 'temp': 0.0, 'lipoC3S3': 12.17, 'state': 'normal', 'rot1': 26, 'rot0': 24, 'rot3': 0, 'rot2': 0, 'depth': 0.394, 'yaw': 133.02, 'datetime': '2018-12-18 18:01:06.026612', 'mgs': 0, 'flw2': 0.0, 'flw1': 0.21, 'flw0': 0.54, 'time': 5.84, 'compass': -17.23, 'pitch': 1.2, 'roll': 1.68}
{'lipoC2': 0.0, 'temp': 0.0, 'lipoC3S3': 12.52, 'state': 'normal', 'rot1': 28, 'rot0': 25, 'rot3': 0, 'rot2': 0, 'depth': -0.14, 'yaw': 139.33, 'datetime': '2018-12-18 18:01:06.235219', 'mgs': 0, 'flw2': 0.35, 'flw1': 0.0, 'flw0': 0.57, 'time': 6.05, 'compass': -10.92, 'pitch': 1.09, 'roll': 1.54}
{'lipoC2': 0.0, 'temp': 0.0, 'lipoC3S3': 12.39, 'state': 'normal', 'rot1': 29, 'rot0': 26, 'rot3': 0, 'rot2': 0, 'depth': 1.08, 'yaw': 145.6, 'datetime': '2018-12-18 18:01:06.442636', 'mgs': 0, 'flw2': 0.13, 'flw1': 0.0, 'flw0': 0.04, 'time': 6.26, 'compass': -4.66, 'pitch': 1.24, 'roll': 1.32}
{'lipoC2': 0.0, 'temp': 0.0, 'lipoC3S3': 12.27, 'state': 'normal', 'rot1': 29, 'rot0': 26, 'rot3': 0, 'rot2': 0, 'depth': 0.851, 'yaw': 151.33, 'datetime': '2018-12-18 18:01:06.652245', 'mgs': 0, 'flw2': 0.0, 'flw1': 0.0, 'flw0': 0.21, 'time': 6.47, 'compass': 1.07, 'pitch': 1.2, 'roll': 0.95}
{'lipoC2': 0.0, 'temp': 0.0, 'lipoC3S3': 12.35, 'state': 'normal', 'rot1': 29, 'rot0': 26, 'rot3': 0, 'rot2': 0, 'depth': 0.089, 'yaw': 156.27, 'datetime': '2018-12-18 18:01:06.860759', 'mgs': 0, 'flw2': 0.0, 'flw1': 0.44, 'flw0': 0.0, 'time': 6.68, 'compass': 6.02, 'pitch': 0.95, 'roll': 0.67}
{'lipoC2': 0.04, 'temp': 0.0, 'lipoC3S3': 12.16, 'state': 'normal', 'rot1': 29, 'rot0': 26, 'rot3': 0, 'rot2': 0, 'depth': 0.241, 'yaw': 161.03, 'datetime': '2018-12-18 18:01:07.069045', 'mgs': 0, 'flw2': 0.63, 'flw1': 0.0, 'flw0': 0.13, 'time': 6.89, 'compass': 10.78, 'pitch': 0.82, 'roll': 0.6}
{'lipoC2': 0.0, 'temp': 0.0, 'lipoC3S3': 12.39, 'state': 'normal', 'rot1': 30, 'rot0': 27, 'rot3': 0, 'rot2': 0, 'depth': 0.775, 'yaw': 164.75, 'datetime': '2018-12-18 18:01:07.278896', 'mgs': 0, 'flw2': 0.54, 'flw1': 0.0, 'flw0': 0.26, 'time': 7.09, 'compass': 14.49, 'pitch': 0.9, 'roll': 0.54}
{'lipoC2': 0.13, 'temp': 0.0, 'lipoC3S3': 12.34, 'state': 'normal', 'rot1': 31, 'rot0': 28, 'rot3': 0, 'rot2': 0, 'depth': -1.666, 'yaw': 167.45, 'datetime': '2018-12-18 18:01:07.486675', 'mgs': 0, 'flw2': 0.39, 'flw1': 0.44, 'flw0': 0.33, 'time': 7.3, 'compass': 17.2, 'pitch': 1.15, 'roll': 0.53}
{'lipoC2': 0.17, 'temp': 0.0, 'lipoC3S3': 12.23, 'state': 'normal', 'rot1': 32, 'rot0': 29, 'rot3': 0, 'rot2': 0, 'depth': -0.446, 'yaw': 169.27, 'datetime': '2018-12-18 18:01:07.696435', 'mgs': 0, 'flw2': 0.31, 'flw1': 0.0, 'flw0': 0.12, 'time': 7.51, 'compass': 19.02, 'pitch': 1.26, 'roll': 0.69}
{'lipoC2': 0.0, 'temp': 0.0, 'lipoC3S3': 12.54, 'state': 'normal', 'rot1': 33, 'rot0': 30, 'rot3': 0, 'rot2': 0, 'depth': 1.691, 'yaw': 170.43, 'datetime': '2018-12-18 18:01:07.905495', 'mgs': 0, 'flw2': 0.49, 'flw1': 0.0, 'flw0': 0.02, 'time': 7.72, 'compass': 20.17, 'pitch': 1.28, 'roll': 0.87}
{'lipoC2': 0.0, 'temp': 0.0, 'lipoC3S3': 12.23, 'state': 'normal', 'rot1': 34, 'rot0': 31, 'rot3': 0, 'rot2': 0, 'depth': 1.233, 'yaw': 170.85, 'datetime': '2018-12-18 18:01:08.113292', 'mgs': 0, 'flw2': 0.49, 'flw1': 0.15, 'flw0': 0.11, 'time': 7.93, 'compass': 20.6, 'pitch': 1.29, 'roll': 0.94}
{'lipoC2': 0.0, 'temp': 0.0, 'lipoC3S3': 12.37, 'state': 'normal', 'rot1': 35, 'rot0': 32, 'rot3': 0, 'rot2': 0, 'depth': 0.546, 'yaw': 170.61, 'datetime': '2018-12-18 18:01:08.321878', 'mgs': 0, 'flw2': 0.43, 'flw1': 0.0, 'flw0': 0.44, 'time': 8.14, 'compass': 20.35, 'pitch': 1.29, 'roll': 0.92}
{'lipoC2': 0.0, 'temp': 0.0, 'lipoC3S3': 12.37, 'state': 'normal', 'rot1': 36, 'rot0': 33, 'rot3': 0, 'rot2': 0, 'depth': 0.775, 'yaw': 169.84, 'datetime': '2018-12-18 18:01:08.531751', 'mgs': 0, 'flw2': 0.45, 'flw1': 0.0, 'flw0': 0.43, 'time': 8.35, 'compass': 19.58, 'pitch': 1.27, 'roll': 0.79}
{'lipoC2': 0.0, 'temp': 0.0, 'lipoC3S3': 12.55, 'state': 'normal', 'rot1': 37, 'rot0': 34, 'rot3': 0, 'rot2': 0, 'depth': 1.691, 'yaw': 168.53, 'datetime': '2018-12-18 18:01:08.740855', 'mgs': 0, 'flw2': 0.0, 'flw1': 0.15, 'flw0': 0.59, 'time': 8.56, 'compass': 18.28, 'pitch': 1.26, 'roll': 0.76}
{'lipoC2': 0.1, 'temp': 0.0, 'lipoC3S3': 12.35, 'state': 'normal', 'rot1': 38, 'rot0': 35, 'rot3': 0, 'rot2': 0, 'depth': 1.843, 'yaw': 166.74, 'datetime': '2018-12-18 18:01:08.952614', 'mgs': 0, 'flw2': 0.43, 'flw1': 0.0, 'flw0': 0.49, 'time': 8.77, 'compass': 16.49, 'pitch': 1.23, 'roll': 0.8}
{'lipoC2': 0.1, 'temp': 0.0, 'lipoC3S3': 12.35, 'state': 'normal', 'rot1': 39, 'rot0': 36, 'rot3': 0, 'rot2': 0, 'depth': -2.048, 'yaw': 164.54, 'datetime': '2018-12-18 18:01:09.164165', 'mgs': 0, 'flw2': 0.4, 'flw1': 0.41, 'flw0': 0.33, 'time': 8.98, 'compass': 14.29, 'pitch': 1.2, 'roll': 0.89}
{'lipoC2': 0.0, 'temp': 0.0, 'lipoC3S3': 12.19, 'state': 'normal', 'rot1': 40, 'rot0': 37, 'rot3': 0, 'rot2': 0, 'depth': -0.598, 'yaw': 161.92, 'datetime': '2018-12-18 18:01:09.370609', 'mgs': 0, 'flw2': 0.31, 'flw1': 0.0, 'flw0': 0.57, 'time': 9.18, 'compass': 11.67, 'pitch': 1.16, 'roll': 0.95}
{'lipoC2': 0.08, 'temp': 0.0, 'lipoC3S3': 12.13, 'state': 'normal', 'rot1': 41, 'rot0': 38, 'rot3': 0, 'rot2': 0, 'depth': 0.394, 'yaw': 159.12, 'datetime': '2018-12-18 18:01:09.579060', 'mgs': 0, 'flw2': 0.22, 'flw1': 0.0, 'flw0': 0.57, 'time': 9.39, 'compass': 8.86, 'pitch': 1.12, 'roll': 1.0}
{'lipoC2': 0.08, 'temp': 0.0, 'lipoC3S3': 12.13, 'state': 'normal', 'rot1': 42, 'rot0': 39, 'rot3': 0, 'rot2': 0, 'depth': 1.08, 'yaw': 155.86, 'datetime': '2018-12-18 18:01:09.787292', 'mgs': 0, 'flw2': 0.0, 'flw1': 0.21, 'flw0': 0.55, 'time': 9.6, 'compass': 5.61, 'pitch': 1.18, 'roll': 1.07}
{'lipoC2': 0.0, 'temp': 0.0, 'lipoC3S3': 12.33, 'state': 'normal', 'rot1': 43, 'rot0': 40, 'rot3': 0, 'rot2': 0, 'depth': 0.317, 'yaw': 152.37, 'datetime': '2018-12-18 18:01:09.998720', 'mgs': 0, 'flw2': 0.01, 'flw1': 0.0, 'flw0': 0.15, 'time': 9.81, 'compass': 2.11, 'pitch': 1.17, 'roll': 1.14}
{'lipoC2': 0.0, 'temp': 0.0, 'lipoC3S3': 12.55, 'state': 'normal', 'rot1': 43, 'rot0': 40, 'rot3': 0, 'rot2': 0, 'depth': -0.064, 'yaw': 149.27, 'datetime': '2018-12-18 18:01:10.206852', 'mgs': 0, 'flw2': 0.0, 'flw1': 0.12, 'flw0': 0.2, 'time': 10.02, 'compass': -0.99, 'pitch': 1.1, 'roll': 1.35}
{'lipoC2': 0.03, 'temp': 0.0, 'lipoC3S3': 12.21, 'state': 'normal', 'rot1': 43, 'rot0': 40, 'rot3': 0, 'rot2': 0, 'depth': 0.241, 'yaw': 146.58, 'datetime': '2018-12-18 18:01:10.413593', 'mgs': 0, 'flw2': 0.22, 'flw1': 0.0, 'flw0': 0.0, 'time': 10.23, 'compass': -3.67, 'pitch': 1.03, 'roll': 1.67}
{'lipoC2': 0.1, 'temp': 0.0, 'lipoC3S3': 12.12, 'state': 'normal', 'rot1': 43, 'rot0': 40, 'rot3': 0, 'rot2': 0, 'depth': 1.004, 'yaw': 144.3, 'datetime': '2018-12-18 18:01:10.621415', 'mgs': 0, 'flw2': 0.0, 'flw1': 0.18, 'flw0': 0.21, 'time': 10.44, 'compass': -5.95, 'pitch': 1.03, 'roll': 1.83}
{'lipoC2': 0.0, 'temp': 0.0, 'lipoC3S3': 12.41, 'state': 'normal', 'rot1': 43, 'rot0': 40, 'rot3': 0, 'rot2': 0, 'depth': 1.233, 'yaw': 142.14, 'datetime': '2018-12-18 18:01:10.830429', 'mgs': 0, 'flw2': 0.0, 'flw1': 0.47, 'flw0': 0.0, 'time': 10.64, 'compass': -8.11, 'pitch': 1.1, 'roll': 1.87}
{'lipoC2': 0.0, 'temp': 0.0, 'lipoC3S3': 12.29, 'state': 'normal', 'rot1': 43, 'rot0': 40, 'rot3': 0, 'rot2': 0, 'depth': 0.851, 'yaw': 140.19, 'datetime': '2018-12-18 18:01:11.039366', 'mgs': 0, 'flw2': 0.55, 'flw1': 0.41, 'flw0': 0.43, 'time': 10.85, 'compass': -10.07, 'pitch': 1.12, 'roll': 1.89}
{'lipoC2': 0.14, 'temp': 0.0, 'lipoC3S3': 12.31, 'state': 'normal', 'rot1': 44, 'rot0': 41, 'rot3': 0, 'rot2': 0, 'depth': -1.437, 'yaw': 139.21, 'datetime': '2018-12-18 18:01:11.248377', 'mgs': 0, 'flw2': 0.35, 'flw1': 0.47, 'flw0': 0.35, 'time': 11.06, 'compass': -11.05, 'pitch': 1.28, 'roll': 1.8}
{'lipoC2': 0.08, 'temp': 0.0, 'lipoC3S3': 12.13, 'state': 'normal', 'rot1': 45, 'rot0': 42, 'rot3': 0, 'rot2': 0, 'depth': 1.309, 'yaw': 139.03, 'datetime': '2018-12-18 18:01:11.458042', 'mgs': 0, 'flw2': 0.21, 'flw1': 0.0, 'flw0': 0.6, 'time': 11.27, 'compass': -11.22, 'pitch': 1.55, 'roll': 1.8}
{'lipoC2': 0.0, 'temp': 0.0, 'lipoC3S3': 12.18, 'state': 'normal', 'rot1': 46, 'rot0': 42, 'rot3': 0, 'rot2': 0, 'depth': -0.98, 'yaw': 139.54, 'datetime': '2018-12-18 18:01:11.666787', 'mgs': 0, 'flw2': 0.38, 'flw1': 0.0, 'flw0': 0.55, 'time': 11.48, 'compass': -10.71, 'pitch': 1.8, 'roll': 1.84}
{'lipoC2': 0.03, 'temp': 0.0, 'lipoC3S3': 12.18, 'state': 'normal', 'rot1': 47, 'rot0': 43, 'rot3': 0, 'rot2': 0, 'depth': 0.317, 'yaw': 140.45, 'datetime': '2018-12-18 18:01:11.876843', 'mgs': 0, 'flw2': 0.04, 'flw1': 0.23, 'flw0': 0.5, 'time': 11.69, 'compass': -9.81, 'pitch': 1.8, 'roll': 2.04}
{'lipoC2': 0.03, 'temp': 0.0, 'lipoC3S3': 12.19, 'state': 'normal', 'rot1': 48, 'rot0': 44, 'rot3': 0, 'rot2': 0, 'depth': 1.462, 'yaw': 141.9, 'datetime': '2018-12-18 18:01:12.084820', 'mgs': 0, 'flw2': 0.04, 'flw1': 0.26, 'flw0': 0.5, 'time': 11.9, 'compass': -8.36, 'pitch': 1.67, 'roll': 2.25}
{'lipoC2': 0.12, 'temp': 0.0, 'lipoC3S3': 12.12, 'state': 'normal', 'rot1': 48, 'rot0': 45, 'rot3': 0, 'rot2': 0, 'depth': 0.47, 'yaw': 143.73, 'datetime': '2018-12-18 18:01:12.289930', 'mgs': 0, 'flw2': 0.0, 'flw1': 0.0, 'flw0': 0.21, 'time': 12.1, 'compass': -6.53, 'pitch': 1.65, 'roll': 2.3}
{'lipoC2': 0.0, 'temp': 0.0, 'lipoC3S3': 12.56, 'state': 'normal', 'rot1': 48, 'rot0': 45, 'rot3': 0, 'rot2': 0, 'depth': 1.614, 'yaw': 145.49, 'datetime': '2018-12-18 18:01:12.502376', 'mgs': 0, 'flw2': 0.12, 'flw1': 0.35, 'flw0': 0.0, 'time': 12.31, 'compass': -4.76, 'pitch': 1.72, 'roll': 2.12}
{'lipoC2': 0.15, 'temp': 0.0, 'lipoC3S3': 12.25, 'state': 'normal', 'rot1': 48, 'rot0': 45, 'rot3': 0, 'rot2': 0, 'depth': -1.285, 'yaw': 147.0, 'datetime': '2018-12-18 18:01:12.707850', 'mgs': 0, 'flw2': 0.16, 'flw1': 0.23, 'flw0': 0.0, 'time': 12.52, 'compass': -3.25, 'pitch': 1.77, 'roll': 1.77}
{'lipoC2': 0.09, 'temp': 0.0, 'lipoC3S3': 12.38, 'state': 'normal', 'rot1': 48, 'rot0': 45, 'rot3': 0, 'rot2': 0, 'depth': -1.666, 'yaw': 148.34, 'datetime': '2018-12-18 18:01:12.921149', 'mgs': 0, 'flw2': 0.1, 'flw1': 0.0, 'flw0': 0.09, 'time': 12.73, 'compass': -1.91, 'pitch': 1.74, 'roll': 1.58}
{'lipoC2': 0.0, 'temp': 0.0, 'lipoC3S3': 12.39, 'state': 'normal', 'rot1': 48, 'rot0': 45, 'rot3': 0, 'rot2': 0, 'depth': 0.775, 'yaw': 150.15, 'datetime': '2018-12-18 18:01:13.233644', 'mgs': 0, 'flw2': 0.21, 'flw1': 0.0, 'flw0': 0.0, 'time': 13.04, 'compass': -0.11, 'pitch': 1.43, 'roll': 1.59}
{'lipoC2': 0.02, 'temp': 0.0, 'lipoC3S3': 12.18, 'state': 'normal', 'rot1': 48, 'rot0': 45, 'rot3': 0, 'rot2': 0, 'depth': 0.089, 'yaw': 151.29, 'datetime': '2018-12-18 18:01:13.440118', 'mgs': 0, 'flw2': 0.0, 'flw1': 0.29, 'flw0': 0.13, 'time': 13.25, 'compass': 1.03, 'pitch': 1.48, 'roll': 1.74}
{'lipoC2': 0.15, 'temp': 0.0, 'lipoC3S3': 12.3, 'state': 'normal', 'rot1': 48, 'rot0': 45, 'rot3': 0, 'rot2': 0, 'depth': -1.59, 'yaw': 152.05, 'datetime': '2018-12-18 18:01:13.651728', 'mgs': 0, 'flw2': 0.05, 'flw1': 0.0, 'flw0': 0.13, 'time': 13.46, 'compass': 1.8, 'pitch': 1.76, 'roll': 1.88}
