{'lipoC2': 7.25, 'temp': 0.0, 'lipoC3S3': 11.05, 'state': 'normal', 'rot1': 0, 'rot0': 0, 'rot3': 0, 'rot2': 0, 'depth': -0.827, 'yaw': -0.0, 'datetime': '2018-12-12 14:44:10.211620', 'mgs': 0, 'flw2': 0.22, 'flw1': 0.0, 'flw0': 0.0, 'time': 1.26, 'compass': 81.51, 'pitch': -3.75, 'roll': 0.53}
{'lipoC2': 7.13, 'temp': 0.0, 'lipoC3S3': 11.11, 'state': 'normal', 'rot1': 0, 'rot0': 0, 'rot3': 0, 'rot2': 0, 'depth': -0.903, 'yaw': 0.0, 'datetime': '2018-12-12 14:44:10.420391', 'mgs': 0, 'flw2': 0.2, 'flw1': 0.0, 'flw0': 0.0, 'time': 1.46, 'compass': 81.51, 'pitch': -3.28, 'roll': 0.34}
{'lipoC2': 7.28, 'temp': 0.0, 'lipoC3S3': 11.23, 'state': 'normal', 'rot1': 0, 'rot0': 0, 'rot3': 0, 'rot2': 0, 'depth': -1.895, 'yaw': 0.0, 'datetime': '2018-12-12 14:44:10.627372', 'mgs': 0, 'flw2': 0.24, 'flw1': 0.0, 'flw0': 0.0, 'time': 1.67, 'compass': 81.51, 'pitch': -2.61, 'roll': 0.23}
{'lipoC2': 7.36, 'temp': 0.0, 'lipoC3S3': 11.23, 'state': 'normal', 'rot1': 0, 'rot0': 0, 'rot3': 0, 'rot2': 0, 'depth': 1.004, 'yaw': 0.0, 'datetime': '2018-12-12 14:44:10.835713', 'mgs': 0, 'flw2': 0.0, 'flw1': 0.0, 'flw0': 0.26, 'time': 1.88, 'compass': 81.51, 'pitch': -1.98, 'roll': 0.14}
{'lipoC2': 7.4, 'temp': 0.0, 'lipoC3S3': 10.89, 'state': 'normal', 'rot1': 0, 'rot0': 0, 'rot3': 0, 'rot2': 0, 'depth': 0.699, 'yaw': -0.0, 'datetime': '2018-12-12 14:44:11.041360', 'mgs': 0, 'flw2': 2.76, 'flw1': 0.0, 'flw0': 3.41, 'time': 2.09, 'compass': 81.51, 'pitch': -2.24, 'roll': 0.02}
{'lipoC2': 7.44, 'temp': 0.0, 'lipoC3S3': 11.13, 'state': 'normal', 'rot1': 3, 'rot0': 2, 'rot3': 0, 'rot2': 0, 'depth': -0.751, 'yaw': -1.78, 'datetime': '2018-12-12 14:44:11.250234', 'mgs': 0, 'flw2': 2.11, 'flw1': 0.0, 'flw0': 2.12, 'time': 2.29, 'compass': 79.73, 'pitch': -2.8, 'roll': -0.48}
{'lipoC2': 7.14, 'temp': 0.0, 'lipoC3S3': 11.47, 'state': 'normal', 'rot1': 6, 'rot0': 5, 'rot3': 0, 'rot2': 0, 'depth': 1.233, 'yaw': -7.46, 'datetime': '2018-12-12 14:44:11.458185', 'mgs': 0, 'flw2': 1.64, 'flw1': 0.59, 'flw0': 2.08, 'time': 2.5, 'compass': 74.05, 'pitch': -2.08, 'roll': -1.64}
{'lipoC2': 7.34, 'temp': 0.0, 'lipoC3S3': 11.05, 'state': 'normal', 'rot1': 8, 'rot0': 7, 'rot3': 0, 'rot2': 0, 'depth': -1.056, 'yaw': -15.58, 'datetime': '2018-12-12 14:44:11.667927', 'mgs': 0, 'flw2': 1.4, 'flw1': 0.0, 'flw0': 1.92, 'time': 2.71, 'compass': 65.93, 'pitch': -1.03, 'roll': -2.47}
{'lipoC2': 7.32, 'temp': 0.0, 'lipoC3S3': 10.96, 'state': 'normal', 'rot1': 10, 'rot0': 9, 'rot3': 0, 'rot2': 0, 'depth': -1.056, 'yaw': -24.58, 'datetime': '2018-12-12 14:44:11.886765', 'mgs': 0, 'flw2': 1.11, 'flw1': 0.0, 'flw0': 1.0, 'time': 2.92, 'compass': 56.93, 'pitch': -1.01, 'roll': -2.68}
{'lipoC2': 7.24, 'temp': 0.0, 'lipoC3S3': 11.09, 'state': 'normal', 'rot1': 12, 'rot0': 10, 'rot3': 0, 'rot2': 0, 'depth': 0.012, 'yaw': -34.28, 'datetime': '2018-12-12 14:44:12.091113', 'mgs': 0, 'flw2': 1.16, 'flw1': 0.0, 'flw0': 0.98, 'time': 3.13, 'compass': 47.23, 'pitch': -1.79, 'roll': -2.51}
{'lipoC2': 7.21, 'temp': 0.0, 'lipoC3S3': 11.22, 'state': 'normal', 'rot1': 13, 'rot0': 11, 'rot3': 0, 'rot2': 0, 'depth': 1.385, 'yaw': -43.55, 'datetime': '2018-12-12 14:44:12.300611', 'mgs': 0, 'flw2': 0.39, 'flw1': 0.0, 'flw0': 0.89, 'time': 3.34, 'compass': 37.96, 'pitch': -1.93, 'roll': -1.76}
{'lipoC2': 7.09, 'temp': 0.0, 'lipoC3S3': 11.18, 'state': 'normal', 'rot1': 14, 'rot0': 13, 'rot3': 0, 'rot2': 0, 'depth': -0.369, 'yaw': -51.95, 'datetime': '2018-12-12 14:44:12.507879', 'mgs': 0, 'flw2': 0.68, 'flw1': 0.0, 'flw0': 0.46, 'time': 3.54, 'compass': 29.56, 'pitch': -1.31, 'roll': -0.87}
{'lipoC2': 7.35, 'temp': 0.0, 'lipoC3S3': 11.09, 'state': 'normal', 'rot1': 15, 'rot0': 14, 'rot3': 0, 'rot2': 0, 'depth': 0.165, 'yaw': -59.27, 'datetime': '2018-12-12 14:44:12.724446', 'mgs': 0, 'flw2': 0.57, 'flw1': 0.0, 'flw0': 0.34, 'time': 3.75, 'compass': 22.24, 'pitch': -0.93, 'roll': -0.35}
{'lipoC2': 7.18, 'temp': 0.0, 'lipoC3S3': 11.29, 'state': 'normal', 'rot1': 16, 'rot0': 15, 'rot3': 0, 'rot2': 0, 'depth': -0.751, 'yaw': -66.39, 'datetime': '2018-12-12 14:44:12.932842', 'mgs': 0, 'flw2': 0.37, 'flw1': 0.35, 'flw0': 0.24, 'time': 3.96, 'compass': 15.12, 'pitch': -1.3, 'roll': -0.36}
{'lipoC2': 7.2, 'temp': 0.0, 'lipoC3S3': 11.46, 'state': 'normal', 'rot1': 17, 'rot0': 16, 'rot3': 0, 'rot2': 0, 'depth': -1.743, 'yaw': -73.02, 'datetime': '2018-12-12 14:44:13.136299', 'mgs': 0, 'flw2': 0.2, 'flw1': 0.0, 'flw0': 0.09, 'time': 4.17, 'compass': 8.49, 'pitch': -1.8, 'roll': -1.01}
{'lipoC2': 7.38, 'temp': 0.0, 'lipoC3S3': 11.35, 'state': 'normal', 'rot1': 19, 'rot0': 17, 'rot3': 0, 'rot2': 0, 'depth': -0.217, 'yaw': -79.28, 'datetime': '2018-12-12 14:44:13.346362', 'mgs': 0, 'flw2': 0.21, 'flw1': 0.56, 'flw0': 0.31, 'time': 4.38, 'compass': 2.23, 'pitch': -1.69, 'roll': -1.63}
{'lipoC2': 7.09, 'temp': 0.0, 'lipoC3S3': 11.38, 'state': 'normal', 'rot1': 19, 'rot0': 17, 'rot3': 0, 'rot2': 0, 'depth': -0.903, 'yaw': -84.88, 'datetime': '2018-12-12 14:44:13.553274', 'mgs': 0, 'flw2': 0.0, 'flw1': 0.0, 'flw0': 0.04, 'time': 4.59, 'compass': -3.37, 'pitch': -1.42, 'roll': -1.55}
{'lipoC2': 7.25, 'temp': 0.0, 'lipoC3S3': 11.22, 'state': 'normal', 'rot1': 19, 'rot0': 17, 'rot3': 0, 'rot2': 0, 'depth': -0.98, 'yaw': -90.05, 'datetime': '2018-12-12 14:44:13.766042', 'mgs': 0, 'flw2': 0.0, 'flw1': 0.0, 'flw0': 0.28, 'time': 4.8, 'compass': -8.54, 'pitch': -1.56, 'roll': -0.97}
{'lipoC2': 7.21, 'temp': 0.0, 'lipoC3S3': 11.21, 'state': 'normal', 'rot1': 19, 'rot0': 18, 'rot3': 0, 'rot2': 0, 'depth': -1.208, 'yaw': -94.57, 'datetime': '2018-12-12 14:44:13.973137', 'mgs': 0, 'flw2': 0.29, 'flw1': 0.03, 'flw0': 0.16, 'time': 5.0, 'compass': -13.06, 'pitch': -1.6, 'roll': -0.46}
{'lipoC2': 7.39, 'temp': 0.0, 'lipoC3S3': 11.27, 'state': 'normal', 'rot1': 20, 'rot0': 18, 'rot3': 0, 'rot2': 0, 'depth': -0.751, 'yaw': -98.05, 'datetime': '2018-12-12 14:44:14.181062', 'mgs': 0, 'flw2': 0.21, 'flw1': 0.35, 'flw0': 0.29, 'time': 5.21, 'compass': -16.53, 'pitch': -1.29, 'roll': -0.19}
{'lipoC2': 7.09, 'temp': 0.0, 'lipoC3S3': 11.26, 'state': 'normal', 'rot1': 21, 'rot0': 19, 'rot3': 0, 'rot2': 0, 'depth': 0.089, 'yaw': -100.69, 'datetime': '2018-12-12 14:44:14.394858', 'mgs': 0, 'flw2': 0.26, 'flw1': 0.03, 'flw0': 0.16, 'time': 5.42, 'compass': -19.17, 'pitch': -0.76, 'roll': -0.38}
{'lipoC2': 7.41, 'temp': 0.0, 'lipoC3S3': 11.0, 'state': 'normal', 'rot1': 23, 'rot0': 20, 'rot3': 0, 'rot2': 0, 'depth': -0.674, 'yaw': -102.58, 'datetime': '2018-12-12 14:44:14.603424', 'mgs': 0, 'flw2': 0.29, 'flw1': 0.06, 'flw0': 0.46, 'time': 5.63, 'compass': -21.07, 'pitch': -0.82, 'roll': -0.71}
{'lipoC2': 7.08, 'temp': 0.0, 'lipoC3S3': 11.5, 'state': 'normal', 'rot1': 24, 'rot0': 21, 'rot3': 0, 'rot2': 0, 'depth': -0.522, 'yaw': -103.94, 'datetime': '2018-12-12 14:44:14.810252', 'mgs': 0, 'flw2': 0.28, 'flw1': 0.85, 'flw0': 0.28, 'time': 5.84, 'compass': -22.43, 'pitch': -1.4, 'roll': -0.8}
{'lipoC2': 7.08, 'temp': 0.0, 'lipoC3S3': 11.56, 'state': 'normal', 'rot1': 24, 'rot0': 22, 'rot3': 0, 'rot2': 0, 'depth': -0.293, 'yaw': -104.72, 'datetime': '2018-12-12 14:44:15.020088', 'mgs': 0, 'flw2': 0.32, 'flw1': 0.67, 'flw0': 0.39, 'time': 6.05, 'compass': -23.21, 'pitch': -1.64, 'roll': -0.75}
{'lipoC2': 7.29, 'temp': 0.0, 'lipoC3S3': 11.06, 'state': 'normal', 'rot1': 25, 'rot0': 23, 'rot3': 0, 'rot2': 0, 'depth': -0.903, 'yaw': -105.0, 'datetime': '2018-12-12 14:44:15.225271', 'mgs': 0, 'flw2': 0.18, 'flw1': 0.0, 'flw0': 0.4, 'time': 6.26, 'compass': -23.49, 'pitch': -1.48, 'roll': -0.38}
{'lipoC2': 7.09, 'temp': 0.0, 'lipoC3S3': 11.18, 'state': 'normal', 'rot1': 26, 'rot0': 23, 'rot3': 0, 'rot2': 0, 'depth': 0.546, 'yaw': -104.79, 'datetime': '2018-12-12 14:44:15.434643', 'mgs': 0, 'flw2': 0.24, 'flw1': 0.59, 'flw0': 0.24, 'time': 6.47, 'compass': -23.28, 'pitch': -1.42, 'roll': 0.15}
{'lipoC2': 7.14, 'temp': 0.0, 'lipoC3S3': 11.15, 'state': 'normal', 'rot1': 27, 'rot0': 24, 'rot3': 0, 'rot2': 0, 'depth': -0.903, 'yaw': -104.14, 'datetime': '2018-12-12 14:44:15.644178', 'mgs': 0, 'flw2': 0.22, 'flw1': 0.0, 'flw0': 0.48, 'time': 6.68, 'compass': -22.63, 'pitch': -1.58, 'roll': 0.18}
{'lipoC2': 7.17, 'temp': 0.0, 'lipoC3S3': 11.5, 'state': 'normal', 'rot1': 28, 'rot0': 25, 'rot3': 0, 'rot2': 0, 'depth': -0.751, 'yaw': -103.02, 'datetime': '2018-12-12 14:44:15.855661', 'mgs': 0, 'flw2': 0.27, 'flw1': 0.0, 'flw0': 0.13, 'time': 6.89, 'compass': -21.51, 'pitch': -1.73, 'roll': -0.17}
{'lipoC2': 7.23, 'temp': 0.0, 'lipoC3S3': 11.29, 'state': 'normal', 'rot1': 29, 'rot0': 26, 'rot3': 0, 'rot2': 0, 'depth': -0.064, 'yaw': -101.51, 'datetime': '2018-12-12 14:44:16.066749', 'mgs': 0, 'flw2': 0.13, 'flw1': 0.0, 'flw0': 0.52, 'time': 7.09, 'compass': -20.0, 'pitch': -1.74, 'roll': -0.43}
{'lipoC2': 7.39, 'temp': 0.0, 'lipoC3S3': 11.26, 'state': 'normal', 'rot1': 30, 'rot0': 27, 'rot3': 0, 'rot2': 0, 'depth': 0.241, 'yaw': -99.61, 'datetime': '2018-12-12 14:44:16.272180', 'mgs': 0, 'flw2': 0.34, 'flw1': 0.0, 'flw0': 0.27, 'time': 7.3, 'compass': -18.09, 'pitch': -1.76, 'roll': -0.45}
{'lipoC2': 7.25, 'temp': 0.0, 'lipoC3S3': 11.06, 'state': 'normal', 'rot1': 31, 'rot0': 28, 'rot3': 0, 'rot2': 0, 'depth': -0.98, 'yaw': -97.4, 'datetime': '2018-12-12 14:44:16.480313', 'mgs': 0, 'flw2': 0.56, 'flw1': 0.0, 'flw0': 0.26, 'time': 7.51, 'compass': -15.89, 'pitch': -1.73, 'roll': -0.09}
{'lipoC2': 7.3, 'temp': 0.0, 'lipoC3S3': 11.07, 'state': 'normal', 'rot1': 32, 'rot0': 28, 'rot3': 0, 'rot2': 0, 'depth': -0.293, 'yaw': -95.05, 'datetime': '2018-12-12 14:44:16.690946', 'mgs': 0, 'flw2': 0.18, 'flw1': 0.0, 'flw0': 0.67, 'time': 7.72, 'compass': -13.54, 'pitch': -1.62, 'roll': 0.61}
{'lipoC2': 7.43, 'temp': 0.0, 'lipoC3S3': 11.06, 'state': 'normal', 'rot1': 34, 'rot0': 29, 'rot3': 0, 'rot2': 0, 'depth': -1.285, 'yaw': -92.33, 'datetime': '2018-12-12 14:44:16.901856', 'mgs': 0, 'flw2': 0.22, 'flw1': 0.06, 'flw0': 0.23, 'time': 7.93, 'compass': -10.82, 'pitch': -1.93, 'roll': 0.99}
{'lipoC2': 7.24, 'temp': 0.0, 'lipoC3S3': 11.09, 'state': 'normal', 'rot1': 35, 'rot0': 30, 'rot3': 0, 'rot2': 0, 'depth': 0.775, 'yaw': -89.42, 'datetime': '2018-12-12 14:44:17.111474', 'mgs': 0, 'flw2': 0.1, 'flw1': 0.0, 'flw0': 0.59, 'time': 8.14, 'compass': -7.91, 'pitch': -2.68, 'roll': 0.91}
{'lipoC2': 7.09, 'temp': 0.0, 'lipoC3S3': 11.25, 'state': 'normal', 'rot1': 35, 'rot0': 30, 'rot3': 0, 'rot2': 0, 'depth': 1.157, 'yaw': -86.56, 'datetime': '2018-12-12 14:44:17.320113', 'mgs': 0, 'flw2': 0.23, 'flw1': 0.0, 'flw0': 0.17, 'time': 8.35, 'compass': -5.05, 'pitch': -2.76, 'roll': 0.73}
{'lipoC2': 7.53, 'temp': 0.0, 'lipoC3S3': 11.19, 'state': 'normal', 'rot1': 35, 'rot0': 30, 'rot3': 0, 'rot2': 0, 'depth': 1.385, 'yaw': -84.19, 'datetime': '2018-12-12 14:44:17.528667', 'mgs': 0, 'flw2': 0.0, 'flw1': 0.0, 'flw0': 0.23, 'time': 8.56, 'compass': -2.68, 'pitch': -1.93, 'roll': 0.52}
{'lipoC2': 7.44, 'temp': 0.0, 'lipoC3S3': 11.02, 'state': 'normal', 'rot1': 35, 'rot0': 30, 'rot3': 0, 'rot2': 0, 'depth': -0.293, 'yaw': -82.26, 'datetime': '2018-12-12 14:44:17.740020', 'mgs': 0, 'flw2': 0.0, 'flw1': 0.0, 'flw0': 0.31, 'time': 8.76, 'compass': -0.75, 'pitch': -1.53, 'roll': 0.4}
{'lipoC2': 7.42, 'temp': 0.0, 'lipoC3S3': 11.17, 'state': 'normal', 'rot1': 35, 'rot0': 30, 'rot3': 0, 'rot2': 0, 'depth': -1.59, 'yaw': -80.44, 'datetime': '2018-12-12 14:44:17.947194', 'mgs': 0, 'flw2': 0.22, 'flw1': 0.0, 'flw0': 0.0, 'time': 8.97, 'compass': 1.07, 'pitch': -1.94, 'roll': 0.14}
{'lipoC2': 7.13, 'temp': 0.0, 'lipoC3S3': 11.07, 'state': 'normal', 'rot1': 35, 'rot0': 30, 'rot3': 0, 'rot2': 0, 'depth': -1.132, 'yaw': -78.82, 'datetime': '2018-12-12 14:44:18.152867', 'mgs': 0, 'flw2': 0.0, 'flw1': 0.0, 'flw0': 0.0, 'time': 9.18, 'compass': 2.69, 'pitch': -2.57, 'roll': 0.02}
{'lipoC2': 7.46, 'temp': 0.0, 'lipoC3S3': 11.0, 'state': 'normal', 'rot1': 35, 'rot0': 30, 'rot3': 0, 'rot2': 0, 'depth': -0.827, 'yaw': -77.38, 'datetime': '2018-12-12 14:44:18.358431', 'mgs': 0, 'flw2': 0.04, 'flw1': 0.0, 'flw0': 0.21, 'time': 9.39, 'compass': 4.13, 'pitch': -2.86, 'roll': 0.02}
{'lipoC2': 7.13, 'temp': 0.0, 'lipoC3S3': 11.13, 'state': 'normal', 'rot1': 35, 'rot0': 30, 'rot3': 0, 'rot2': 0, 'depth': -0.598, 'yaw': -76.18, 'datetime': '2018-12-12 14:44:18.568213', 'mgs': 0, 'flw2': 0.0, 'flw1': 0.67, 'flw0': 0.0, 'time': 9.6, 'compass': 5.33, 'pitch': -2.7, 'roll': 0.22}
{'lipoC2': 7.2, 'temp': 0.0, 'lipoC3S3': 11.48, 'state': 'normal', 'rot1': 36, 'rot0': 31, 'rot3': 0, 'rot2': 0, 'depth': -1.056, 'yaw': -75.16, 'datetime': '2018-12-12 14:44:18.777857', 'mgs': 0, 'flw2': 0.56, 'flw1': 0.0, 'flw0': 0.26, 'time': 9.81, 'compass': 6.35, 'pitch': -2.39, 'roll': 0.42}
{'lipoC2': 7.33, 'temp': 0.0, 'lipoC3S3': 11.35, 'state': 'normal', 'rot1': 36, 'rot0': 32, 'rot3': 0, 'rot2': 0, 'depth': 0.546, 'yaw': -74.97, 'datetime': '2018-12-12 14:44:18.985081', 'mgs': 0, 'flw2': 0.2, 'flw1': 0.64, 'flw0': 0.29, 'time': 10.02, 'compass': 6.54, 'pitch': -2.08, 'roll': 0.34}
{'lipoC2': 7.41, 'temp': 0.0, 'lipoC3S3': 11.03, 'state': 'normal', 'rot1': 37, 'rot0': 33, 'rot3': 0, 'rot2': 0, 'depth': 0.546, 'yaw': -75.45, 'datetime': '2018-12-12 14:44:19.192807', 'mgs': 0, 'flw2': 0.09, 'flw1': 0.0, 'flw0': 0.54, 'time': 10.22, 'compass': 6.06, 'pitch': -1.64, 'roll': 0.03}
{'lipoC2': 7.22, 'temp': 0.0, 'lipoC3S3': 11.29, 'state': 'normal', 'rot1': 38, 'rot0': 34, 'rot3': 0, 'rot2': 0, 'depth': 0.928, 'yaw': -76.46, 'datetime': '2018-12-12 14:44:19.402518', 'mgs': 0, 'flw2': 0.11, 'flw1': 0.0, 'flw0': 0.54, 'time': 10.43, 'compass': 5.05, 'pitch': -1.67, 'roll': -0.18}
{'lipoC2': 7.24, 'temp': 0.0, 'lipoC3S3': 11.32, 'state': 'normal', 'rot1': 39, 'rot0': 34, 'rot3': 0, 'rot2': 0, 'depth': 0.317, 'yaw': -78.1, 'datetime': '2018-12-12 14:44:19.611100', 'mgs': 0, 'flw2': 0.0, 'flw1': 0.0, 'flw0': 0.24, 'time': 10.64, 'compass': 3.41, 'pitch': -2.17, 'roll': -0.18}
{'lipoC2': 7.25, 'temp': 0.0, 'lipoC3S3': 11.47, 'state': 'normal', 'rot1': 39, 'rot0': 34, 'rot3': 0, 'rot2': 0, 'depth': -0.522, 'yaw': -79.65, 'datetime': '2018-12-12 14:44:19.821582', 'mgs': 0, 'flw2': 0.0, 'flw1': 0.03, 'flw0': 0.0, 'time': 10.85, 'compass': 1.86, 'pitch': -2.65, 'roll': 0.34}
{'lipoC2': 7.17, 'temp': 0.0, 'lipoC3S3': 11.29, 'state': 'normal', 'rot1': 39, 'rot0': 34, 'rot3': 0, 'rot2': 0, 'depth': -0.674, 'yaw': -81.02, 'datetime': '2018-12-12 14:44:20.030170', 'mgs': 0, 'flw2': 0.0, 'flw1': 0.0, 'flw0': 0.22, 'time': 11.06, 'compass': 0.49, 'pitch': -2.52, 'roll': 0.56}
{'lipoC2': 7.25, 'temp': 0.0, 'lipoC3S3': 11.34, 'state': 'normal', 'rot1': 39, 'rot0': 34, 'rot3': 0, 'rot2': 0, 'depth': -0.903, 'yaw': -82.22, 'datetime': '2018-12-12 14:44:20.237672', 'mgs': 0, 'flw2': 0.22, 'flw1': 0.0, 'flw0': 0.0, 'time': 11.27, 'compass': -0.7, 'pitch': -1.97, 'roll': 0.29}
{'lipoC2': 7.21, 'temp': 0.0, 'lipoC3S3': 11.47, 'state': 'normal', 'rot1': 39, 'rot0': 34, 'rot3': 0, 'rot2': 0, 'depth': -1.666, 'yaw': -83.25, 'datetime': '2018-12-12 14:44:20.446721', 'mgs': 0, 'flw2': 0.0, 'flw1': 0.5, 'flw0': 0.0, 'time': 11.47, 'compass': -1.74, 'pitch': -1.78, 'roll': 0.05}
{'lipoC2': 7.28, 'temp': 0.0, 'lipoC3S3': 11.36, 'state': 'normal', 'rot1': 39, 'rot0': 34, 'rot3': 0, 'rot2': 0, 'depth': -0.903, 'yaw': -84.27, 'datetime': '2018-12-12 14:44:20.654826', 'mgs': 0, 'flw2': 0.26, 'flw1': 0.0, 'flw0': 0.0, 'time': 11.68, 'compass': -2.76, 'pitch': -2.08, 'roll': -0.06}
{'lipoC2': 7.22, 'temp': 0.0, 'lipoC3S3': 10.9, 'state': 'normal', 'rot1': 39, 'rot0': 34, 'rot3': 0, 'rot2': 0, 'depth': -0.369, 'yaw': -85.2, 'datetime': '2018-12-12 14:44:20.866973', 'mgs': 0, 'flw2': 0.0, 'flw1': 0.0, 'flw0': 0.0, 'time': 11.89, 'compass': -3.69, 'pitch': -2.57, 'roll': -0.09}
{'lipoC2': 7.24, 'temp': 0.0, 'lipoC3S3': 11.44, 'state': 'normal', 'rot1': 39, 'rot0': 34, 'rot3': 0, 'rot2': 0, 'depth': 1.462, 'yaw': -86.08, 'datetime': '2018-12-12 14:44:21.075821', 'mgs': 0, 'flw2': 0.0, 'flw1': 0.18, 'flw0': 0.0, 'time': 12.1, 'compass': -4.57, 'pitch': -2.74, 'roll': 0.16}
{'lipoC2': 7.39, 'temp': 0.0, 'lipoC3S3': 11.02, 'state': 'normal', 'rot1': 39, 'rot0': 34, 'rot3': 0, 'rot2': 0, 'depth': -0.064, 'yaw': -86.87, 'datetime': '2018-12-12 14:44:21.285062', 'mgs': 0, 'flw2': 0.0, 'flw1': 0.0, 'flw0': 0.24, 'time': 12.31, 'compass': -5.36, 'pitch': -2.55, 'roll': 0.24}
{'lipoC2': 7.24, 'temp': 0.0, 'lipoC3S3': 11.47, 'state': 'normal', 'rot1': 39, 'rot0': 34, 'rot3': 0, 'rot2': 0, 'depth': -0.674, 'yaw': -87.7, 'datetime': '2018-12-12 14:44:21.492036', 'mgs': 0, 'flw2': 0.0, 'flw1': 0.26, 'flw0': 0.0, 'time': 12.52, 'compass': -6.19, 'pitch': -2.48, 'roll': 0.21}
{'lipoC2': 7.18, 'temp': 0.0, 'lipoC3S3': 11.3, 'state': 'normal', 'rot1': 39, 'rot0': 34, 'rot3': 0, 'rot2': 0, 'depth': -0.674, 'yaw': -88.51, 'datetime': '2018-12-12 14:44:21.703512', 'mgs': 0, 'flw2': 0.0, 'flw1': 0.0, 'flw0': 0.24, 'time': 12.73, 'compass': -7.0, 'pitch': -2.9, 'roll': 0.33}
{'lipoC2': 7.3, 'temp': 0.0, 'lipoC3S3': 11.22, 'state': 'normal', 'rot1': 39, 'rot0': 34, 'rot3': 0, 'rot2': 0, 'depth': 1.614, 'yaw': -89.3, 'datetime': '2018-12-12 14:44:21.909805', 'mgs': 0, 'flw2': 0.0, 'flw1': 0.0, 'flw0': 0.28, 'time': 12.94, 'compass': -7.79, 'pitch': -3.0, 'roll': 0.32}
{'lipoC2': 7.3, 'temp': 0.0, 'lipoC3S3': 11.05, 'state': 'normal', 'rot1': 39, 'rot0': 34, 'rot3': 0, 'rot2': 0, 'depth': -2.124, 'yaw': -90.01, 'datetime': '2018-12-12 14:44:22.119907', 'mgs': 0, 'flw2': 0.0, 'flw1': 0.09, 'flw0': 0.0, 'time': 13.14, 'compass': -8.5, 'pitch': -2.54, 'roll': 0.13}
{'lipoC2': 7.09, 'temp': 0.0, 'lipoC3S3': 11.13, 'state': 'normal', 'rot1': 39, 'rot0': 34, 'rot3': 0, 'rot2': 0, 'depth': 1.309, 'yaw': -90.73, 'datetime': '2018-12-12 14:44:22.327185', 'mgs': 0, 'flw2': 0.7, 'flw1': 0.0, 'flw0': 0.6, 'time': 13.35, 'compass': -9.22, 'pitch': -2.15, 'roll': 0.0}
{'lipoC2': 7.29, 'temp': 0.0, 'lipoC3S3': 11.47, 'state': 'normal', 'rot1': 40, 'rot0': 35, 'rot3': 0, 'rot2': 0, 'depth': -1.285, 'yaw': -90.94, 'datetime': '2018-12-12 14:44:22.537329', 'mgs': 0, 'flw2': 0.11, 'flw1': 0.03, 'flw0': 0.11, 'time': 13.56, 'compass': -9.43, 'pitch': -2.25, 'roll': 0.38}
{'lipoC2': 7.34, 'temp': 0.0, 'lipoC3S3': 11.39, 'state': 'normal', 'rot1': 42, 'rot0': 36, 'rot3': 0, 'rot2': 0, 'depth': -0.827, 'yaw': -90.41, 'datetime': '2018-12-12 14:44:22.745430', 'mgs': 0, 'flw2': 0.27, 'flw1': 0.0, 'flw0': 0.57, 'time': 13.77, 'compass': -8.9, 'pitch': -2.61, 'roll': 0.79}
{'lipoC2': 7.34, 'temp': 0.0, 'lipoC3S3': 11.4, 'state': 'normal', 'rot1': 43, 'rot0': 37, 'rot3': 0, 'rot2': 0, 'depth': -1.285, 'yaw': -89.22, 'datetime': '2018-12-12 14:44:22.954611', 'mgs': 0, 'flw2': 0.5, 'flw1': 0.0, 'flw0': 0.27, 'time': 13.98, 'compass': -7.71, 'pitch': -2.87, 'roll': 0.9}
{'lipoC2': 7.12, 'temp': 0.0, 'lipoC3S3': 11.55, 'state': 'normal', 'rot1': 43, 'rot0': 37, 'rot3': 0, 'rot2': 0, 'depth': -0.674, 'yaw': -87.75, 'datetime': '2018-12-12 14:44:23.162596', 'mgs': 0, 'flw2': 0.0, 'flw1': 0.64, 'flw0': 0.0, 'time': 14.19, 'compass': -6.24, 'pitch': -2.68, 'roll': 0.71}
{'lipoC2': 7.33, 'temp': 0.0, 'lipoC3S3': 11.05, 'state': 'normal', 'rot1': 43, 'rot0': 37, 'rot3': 0, 'rot2': 0, 'depth': -1.971, 'yaw': -86.42, 'datetime': '2018-12-12 14:44:23.371694', 'mgs': 0, 'flw2': 0.01, 'flw1': 0.79, 'flw0': 0.0, 'time': 14.4, 'compass': -4.91, 'pitch': -1.95, 'roll': 0.0}
{'lipoC2': 7.34, 'temp': 0.0, 'lipoC3S3': 11.14, 'state': 'normal', 'rot1': 43, 'rot0': 37, 'rot3': 0, 'rot2': 0, 'depth': -1.437, 'yaw': -85.25, 'datetime': '2018-12-12 14:44:23.579508', 'mgs': 0, 'flw2': 0.0, 'flw1': 0.44, 'flw0': 0.0, 'time': 14.6, 'compass': -3.74, 'pitch': -1.66, 'roll': -0.75}
{'lipoC2': 7.12, 'temp': 0.0, 'lipoC3S3': 11.26, 'state': 'normal', 'rot1': 43, 'rot0': 37, 'rot3': 0, 'rot2': 0, 'depth': 1.92, 'yaw': -84.16, 'datetime': '2018-12-12 14:44:23.789665', 'mgs': 0, 'flw2': 0.0, 'flw1': 0.0, 'flw0': 0.26, 'time': 14.81, 'compass': -2.65, 'pitch': -2.33, 'roll': -0.84}
{'lipoC2': 7.09, 'temp': 0.0, 'lipoC3S3': 11.23, 'state': 'normal', 'rot1': 43, 'rot0': 37, 'rot3': 0, 'rot2': 0, 'depth': -0.064, 'yaw': -83.11, 'datetime': '2018-12-12 14:44:23.998153', 'mgs': 0, 'flw2': 0.21, 'flw1': 0.0, 'flw0': 0.07, 'time': 15.02, 'compass': -1.6, 'pitch': -2.84, 'roll': -0.22}
{'lipoC2': 7.33, 'temp': 0.0, 'lipoC3S3': 11.03, 'state': 'normal', 'rot1': 43, 'rot0': 37, 'rot3': 0, 'rot2': 0, 'depth': -0.369, 'yaw': -82.2, 'datetime': '2018-12-12 14:44:24.207233', 'mgs': 0, 'flw2': 0.0, 'flw1': 0.0, 'flw0': 0.1, 'time': 15.23, 'compass': -0.69, 'pitch': -2.47, 'roll': 0.51}
{'lipoC2': 7.43, 'temp': 0.0, 'lipoC3S3': 11.01, 'state': 'normal', 'rot1': 43, 'rot0': 37, 'rot3': 0, 'rot2': 0, 'depth': -1.208, 'yaw': -81.31, 'datetime': '2018-12-12 14:44:24.414989', 'mgs': 0, 'flw2': 0.27, 'flw1': 0.0, 'flw0': 0.0, 'time': 15.44, 'compass': 0.2, 'pitch': -1.98, 'roll': 0.89}
{'lipoC2': 7.13, 'temp': 0.0, 'lipoC3S3': 11.14, 'state': 'normal', 'rot1': 43, 'rot0': 37, 'rot3': 0, 'rot2': 0, 'depth': -0.827, 'yaw': -80.46, 'datetime': '2018-12-12 14:44:24.623960', 'mgs': 0, 'flw2': 0.0, 'flw1': 0.59, 'flw0': 0.0, 'time': 15.65, 'compass': 1.05, 'pitch': -2.2, 'roll': 0.8}
{'lipoC2': 7.12, 'temp': 0.0, 'lipoC3S3': 11.1, 'state': 'normal', 'rot1': 43, 'rot0': 37, 'rot3': 0, 'rot2': 0, 'depth': -1.132, 'yaw': -79.73, 'datetime': '2018-12-12 14:44:24.832444', 'mgs': 0, 'flw2': 0.1, 'flw1': 0.0, 'flw0': 0.0, 'time': 15.85, 'compass': 1.78, 'pitch': -2.77, 'roll': 0.29}
{'lipoC2': 7.12, 'temp': 0.0, 'lipoC3S3': 11.13, 'state': 'normal', 'rot1': 43, 'rot0': 37, 'rot3': 0, 'rot2': 0, 'depth': -1.132, 'yaw': -78.99, 'datetime': '2018-12-12 14:44:25.042439', 'mgs': 0, 'flw2': 0.22, 'flw1': 0.0, 'flw0': 0.0, 'time': 16.06, 'compass': 2.53, 'pitch': -2.95, 'roll': -0.24}
{'lipoC2': 7.15, 'temp': 0.0, 'lipoC3S3': 11.18, 'state': 'normal', 'rot1': 43, 'rot0': 37, 'rot3': 0, 'rot2': 0, 'depth': -1.056, 'yaw': -78.24, 'datetime': '2018-12-12 14:44:25.252368', 'mgs': 0, 'flw2': 0.0, 'flw1': 0.0, 'flw0': 0.04, 'time': 16.27, 'compass': 3.27, 'pitch': -2.49, 'roll': -0.3}
{'lipoC2': 7.2, 'temp': 0.0, 'lipoC3S3': 11.27, 'state': 'normal', 'rot1': 43, 'rot0': 37, 'rot3': 0, 'rot2': 0, 'depth': 0.851, 'yaw': -77.55, 'datetime': '2018-12-12 14:44:25.460997', 'mgs': 0, 'flw2': 0.0, 'flw1': 0.15, 'flw0': 0.0, 'time': 16.48, 'compass': 3.96, 'pitch': -1.89, 'roll': -0.12}
{'lipoC2': 7.38, 'temp': 0.0, 'lipoC3S3': 11.17, 'state': 'normal', 'rot1': 43, 'rot0': 37, 'rot3': 0, 'rot2': 0, 'depth': 0.623, 'yaw': -76.92, 'datetime': '2018-12-12 14:44:25.667503', 'mgs': 0, 'flw2': 0.0, 'flw1': 0.62, 'flw0': 0.0, 'time': 16.69, 'compass': 4.59, 'pitch': -1.76, 'roll': 0.29}
{'lipoC2': 7.22, 'temp': 0.0, 'lipoC3S3': 10.89, 'state': 'normal', 'rot1': 44, 'rot0': 38, 'rot3': 0, 'rot2': 0, 'depth': -1.056, 'yaw': -76.57, 'datetime': '2018-12-12 14:44:25.875670', 'mgs': 0, 'flw2': 0.57, 'flw1': 0.0, 'flw0': 0.26, 'time': 16.9, 'compass': 4.94, 'pitch': -2.19, 'roll': 0.68}
{'lipoC2': 7.37, 'temp': 0.0, 'lipoC3S3': 11.18, 'state': 'normal', 'rot1': 45, 'rot0': 39, 'rot3': 0, 'rot2': 0, 'depth': -1.666, 'yaw': -77.02, 'datetime': '2018-12-12 14:44:26.085036', 'mgs': 0, 'flw2': 0.52, 'flw1': 0.0, 'flw0': 0.49, 'time': 17.1, 'compass': 4.49, 'pitch': -2.56, 'roll': 0.64}
{'lipoC2': 7.15, 'temp': 0.0, 'lipoC3S3': 11.56, 'state': 'normal', 'rot1': 45, 'rot0': 39, 'rot3': 0, 'rot2': 0, 'depth': -1.895, 'yaw': -77.88, 'datetime': '2018-12-12 14:44:26.294977', 'mgs': 0, 'flw2': 0.0, 'flw1': 0.29, 'flw0': 0.0, 'time': 17.31, 'compass': 3.63, 'pitch': -2.47, 'roll': 0.22}
{'lipoC2': 7.33, 'temp': 0.0, 'lipoC3S3': 11.4, 'state': 'normal', 'rot1': 45, 'rot0': 39, 'rot3': 0, 'rot2': 0, 'depth': -0.827, 'yaw': -78.62, 'datetime': '2018-12-12 14:44:26.505355', 'mgs': 0, 'flw2': 0.07, 'flw1': 0.0, 'flw0': 0.2, 'time': 17.52, 'compass': 2.89, 'pitch': -2.51, 'roll': -0.17}
{'lipoC2': 7.09, 'temp': 0.0, 'lipoC3S3': 11.48, 'state': 'normal', 'rot1': 45, 'rot0': 39, 'rot3': 0, 'rot2': 0, 'depth': 0.317, 'yaw': -79.32, 'datetime': '2018-12-12 14:44:26.717493', 'mgs': 0, 'flw2': 0.0, 'flw1': 0.44, 'flw0': 0.0, 'time': 17.73, 'compass': 2.19, 'pitch': -2.49, 'roll': -0.21}
{'lipoC2': 7.21, 'temp': 0.0, 'lipoC3S3': 11.4, 'state': 'normal', 'rot1': 45, 'rot0': 39, 'rot3': 0, 'rot2': 0, 'depth': 1.08, 'yaw': -79.96, 'datetime': '2018-12-12 14:44:26.922139', 'mgs': 0, 'flw2': 0.0, 'flw1': 0.0, 'flw0': 0.15, 'time': 17.94, 'compass': 1.55, 'pitch': -2.23, 'roll': -0.05}
{'lipoC2': 7.36, 'temp': 0.0, 'lipoC3S3': 11.32, 'state': 'normal', 'rot1': 45, 'rot0': 39, 'rot3': 0, 'rot2': 0, 'depth': -0.064, 'yaw': -80.63, 'datetime': '2018-12-12 14:44:27.129894', 'mgs': 0, 'flw2': 0.27, 'flw1': 0.0, 'flw0': 0.02, 'time': 18.15, 'compass': 0.88, 'pitch': -2.2, 'roll': 0.18}
{'lipoC2': 7.27, 'temp': 0.0, 'lipoC3S3': 11.31, 'state': 'normal', 'rot1': 45, 'rot0': 39, 'rot3': 0, 'rot2': 0, 'depth': -1.59, 'yaw': -81.26, 'datetime': '2018-12-12 14:44:27.339031', 'mgs': 0, 'flw2': 0.27, 'flw1': 0.0, 'flw0': 0.0, 'time': 18.36, 'compass': 0.26, 'pitch': -2.42, 'roll': 0.5}
{'lipoC2': 7.19, 'temp': 0.0, 'lipoC3S3': 11.23, 'state': 'normal', 'rot1': 45, 'rot0': 39, 'rot3': 0, 'rot2': 0, 'depth': 1.462, 'yaw': -81.87, 'datetime': '2018-12-12 14:44:27.548855', 'mgs': 0, 'flw2': 0.0, 'flw1': 0.0, 'flw0': 0.27, 'time': 18.57, 'compass': -0.35, 'pitch': -2.29, 'roll': 0.26}
{'lipoC2': 7.17, 'temp': 0.0, 'lipoC3S3': 10.96, 'state': 'normal', 'rot1': 45, 'rot0': 39, 'rot3': 0, 'rot2': 0, 'depth': -0.751, 'yaw': -82.52, 'datetime': '2018-12-12 14:44:27.757584', 'mgs': 0, 'flw2': 0.16, 'flw1': 0.0, 'flw0': 0.0, 'time': 18.77, 'compass': -1.0, 'pitch': -1.91, 'roll': -0.18}
{'lipoC2': 7.23, 'temp': 0.0, 'lipoC3S3': 11.31, 'state': 'normal', 'rot1': 45, 'rot0': 39, 'rot3': 0, 'rot2': 0, 'depth': -0.903, 'yaw': -83.11, 'datetime': '2018-12-12 14:44:27.967820', 'mgs': 0, 'flw2': 0.22, 'flw1': 0.0, 'flw0': 0.0, 'time': 18.98, 'compass': -1.6, 'pitch': -1.98, 'roll': -0.29}
{'lipoC2': 7.33, 'temp': 0.0, 'lipoC3S3': 11.05, 'state': 'normal', 'rot1': 45, 'rot0': 39, 'rot3': 0, 'rot2': 0, 'depth': -1.819, 'yaw': -83.72, 'datetime': '2018-12-12 14:44:28.176230', 'mgs': 0, 'flw2': 0.0, 'flw1': 0.03, 'flw0': 0.0, 'time': 19.19, 'compass': -2.21, 'pitch': -2.38, 'roll': -0.15}
{'lipoC2': 7.5, 'temp': 0.0, 'lipoC3S3': 11.17, 'state': 'normal', 'rot1': 45, 'rot0': 39, 'rot3': 0, 'rot2': 0, 'depth': 1.462, 'yaw': -84.33, 'datetime': '2018-12-12 14:44:28.384944', 'mgs': 0, 'flw2': 0.01, 'flw1': 0.0, 'flw0': 0.33, 'time': 19.4, 'compass': -2.81, 'pitch': -2.55, 'roll': 0.08}
{'lipoC2': 7.24, 'temp': 0.0, 'lipoC3S3': 11.22, 'state': 'normal', 'rot1': 45, 'rot0': 39, 'rot3': 0, 'rot2': 0, 'depth': 1.767, 'yaw': -84.89, 'datetime': '2018-12-12 14:44:28.592008', 'mgs': 0, 'flw2': 0.0, 'flw1': 0.0, 'flw0': 0.12, 'time': 19.61, 'compass': -3.38, 'pitch': -2.55, 'roll': 0.26}
{'lipoC2': 7.34, 'temp': 0.0, 'lipoC3S3': 11.09, 'state': 'normal', 'rot1': 45, 'rot0': 39, 'rot3': 0, 'rot2': 0, 'depth': -1.208, 'yaw': -85.47, 'datetime': '2018-12-12 14:44:28.806643', 'mgs': 0, 'flw2': 0.04, 'flw1': 0.5, 'flw0': 0.0, 'time': 19.82, 'compass': -3.96, 'pitch': -2.59, 'roll': 0.3}
{'lipoC2': 7.09, 'temp': 0.0, 'lipoC3S3': 11.27, 'state': 'normal', 'rot1': 45, 'rot0': 39, 'rot3': 0, 'rot2': 0, 'depth': -0.369, 'yaw': -86.03, 'datetime': '2018-12-12 14:44:29.011716', 'mgs': 0, 'flw2': 0.0, 'flw1': 0.82, 'flw0': 0.0, 'time': 20.02, 'compass': -4.52, 'pitch': -2.82, 'roll': 0.27}
{'lipoC2': 7.21, 'temp': 0.0, 'lipoC3S3': 11.34, 'state': 'normal', 'rot1': 45, 'rot0': 39, 'rot3': 0, 'rot2': 0, 'depth': -1.59, 'yaw': -86.6, 'datetime': '2018-12-12 14:44:29.222546', 'mgs': 0, 'flw2': 0.0, 'flw1': 0.56, 'flw0': 0.0, 'time': 20.24, 'compass': -5.09, 'pitch': -2.86, 'roll': 0.21}
{'lipoC2': 7.12, 'temp': 0.0, 'lipoC3S3': 11.13, 'state': 'normal', 'rot1': 45, 'rot0': 39, 'rot3': 0, 'rot2': 0, 'depth': -0.903, 'yaw': -87.13, 'datetime': '2018-12-12 14:44:29.428132', 'mgs': 0, 'flw2': 0.0, 'flw1': 0.62, 'flw0': 0.0, 'time': 20.44, 'compass': -5.62, 'pitch': -2.55, 'roll': 0.18}
{'lipoC2': 7.17, 'temp': 0.0, 'lipoC3S3': 11.54, 'state': 'normal', 'rot1': 45, 'rot0': 39, 'rot3': 0, 'rot2': 0, 'depth': 0.928, 'yaw': -87.66, 'datetime': '2018-12-12 14:44:29.638523', 'mgs': 0, 'flw2': 0.0, 'flw1': 0.53, 'flw0': 0.0, 'time': 20.65, 'compass': -6.15, 'pitch': -2.38, 'roll': 0.24}
{'lipoC2': 7.22, 'temp': 0.0, 'lipoC3S3': 11.06, 'state': 'normal', 'rot1': 45, 'rot0': 39, 'rot3': 0, 'rot2': 0, 'depth': 1.385, 'yaw': -88.2, 'datetime': '2018-12-12 14:44:29.848738', 'mgs': 0, 'flw2': 0.0, 'flw1': 0.0, 'flw0': 0.06, 'time': 20.86, 'compass': -6.69, 'pitch': -2.57, 'roll': 0.21}
{'lipoC2': 7.08, 'temp': 0.0, 'lipoC3S3': 11.39, 'state': 'normal', 'rot1': 45, 'rot0': 39, 'rot3': 0, 'rot2': 0, 'depth': 0.317, 'yaw': -88.76, 'datetime': '2018-12-12 14:44:30.057724', 'mgs': 0, 'flw2': 0.0, 'flw1': 0.56, 'flw0': 0.01, 'time': 21.07, 'compass': -7.25, 'pitch': -2.63, 'roll': 0.13}
{'lipoC2': 7.25, 'temp': 0.0, 'lipoC3S3': 11.21, 'state': 'normal', 'rot1': 45, 'rot0': 39, 'rot3': 0, 'rot2': 0, 'depth': 1.462, 'yaw': -89.26, 'datetime': '2018-12-12 14:44:30.266084', 'mgs': 0, 'flw2': 0.0, 'flw1': 0.0, 'flw0': 0.15, 'time': 21.28, 'compass': -7.75, 'pitch': -2.53, 'roll': 0.02}
{'lipoC2': 7.27, 'temp': 0.0, 'lipoC3S3': 11.32, 'state': 'normal', 'rot1': 45, 'rot0': 39, 'rot3': 0, 'rot2': 0, 'depth': -1.514, 'yaw': -89.77, 'datetime': '2018-12-12 14:44:30.473249', 'mgs': 0, 'flw2': 0.0, 'flw1': 0.0, 'flw0': 0.13, 'time': 21.49, 'compass': -8.26, 'pitch': -2.53, 'roll': -0.0}
{'lipoC2': 7.17, 'temp': 0.0, 'lipoC3S3': 11.29, 'state': 'normal', 'rot1': 46, 'rot0': 40, 'rot3': 0, 'rot2': 0, 'depth': -0.751, 'yaw': -90.12, 'datetime': '2018-12-12 14:44:30.687989', 'mgs': 0, 'flw2': 0.09, 'flw1': 0.0, 'flw0': 0.29, 'time': 21.7, 'compass': -8.6, 'pitch': -2.48, 'roll': -0.05}
{'lipoC2': 7.32, 'temp': 0.0, 'lipoC3S3': 11.07, 'state': 'normal', 'rot1': 47, 'rot0': 41, 'rot3': 0, 'rot2': 0, 'depth': -2.505, 'yaw': -89.7, 'datetime': '2018-12-12 14:44:30.895316', 'mgs': 0, 'flw2': 0.49, 'flw1': 0.0, 'flw0': 0.11, 'time': 21.9, 'compass': -8.19, 'pitch': -2.14, 'roll': -0.03}
{'lipoC2': 7.11, 'temp': 0.0, 'lipoC3S3': 11.5, 'state': 'normal', 'rot1': 48, 'rot0': 41, 'rot3': 0, 'rot2': 0, 'depth': -0.98, 'yaw': -88.69, 'datetime': '2018-12-12 14:44:31.101273', 'mgs': 0, 'flw2': 0.0, 'flw1': 0.5, 'flw0': 0.01, 'time': 22.11, 'compass': -7.18, 'pitch': -1.88, 'roll': 0.06}
{'lipoC2': 7.08, 'temp': 0.0, 'lipoC3S3': 11.25, 'state': 'normal', 'rot1': 48, 'rot0': 41, 'rot3': 0, 'rot2': 0, 'depth': -0.369, 'yaw': -87.68, 'datetime': '2018-12-12 14:44:31.312625', 'mgs': 0, 'flw2': 0.0, 'flw1': 0.0, 'flw0': 0.18, 'time': 22.32, 'compass': -6.17, 'pitch': -1.87, 'roll': 0.07}
{'lipoC2': 7.08, 'temp': 0.0, 'lipoC3S3': 11.54, 'state': 'normal', 'rot1': 48, 'rot0': 41, 'rot3': 0, 'rot2': 0, 'depth': -0.446, 'yaw': -86.77, 'datetime': '2018-12-12 14:44:31.521716', 'mgs': 0, 'flw2': 0.0, 'flw1': 0.26, 'flw0': 0.0, 'time': 22.53, 'compass': -5.26, 'pitch': -1.95, 'roll': 0.07}
{'lipoC2': 7.36, 'temp': 0.0, 'lipoC3S3': 11.18, 'state': 'normal', 'rot1': 48, 'rot0': 41, 'rot3': 0, 'rot2': 0, 'depth': -1.59, 'yaw': -85.93, 'datetime': '2018-12-12 14:44:31.730349', 'mgs': 0, 'flw2': 0.0, 'flw1': 0.64, 'flw0': 0.0, 'time': 22.74, 'compass': -4.42, 'pitch': -2.43, 'roll': 0.1}
{'lipoC2': 7.19, 'temp': 0.0, 'lipoC3S3': 11.18, 'state': 'normal', 'rot1': 48, 'rot0': 41, 'rot3': 0, 'rot2': 0, 'depth': -0.98, 'yaw': -85.11, 'datetime': '2018-12-12 14:44:31.939618', 'mgs': 0, 'flw2': 0.0, 'flw1': 0.26, 'flw0': 0.0, 'time': 22.95, 'compass': -3.6, 'pitch': -3.12, 'roll': 0.1}
{'lipoC2': 7.41, 'temp': 0.0, 'lipoC3S3': 11.02, 'state': 'normal', 'rot1': 48, 'rot0': 41, 'rot3': 0, 'rot2': 0, 'depth': 0.623, 'yaw': -84.33, 'datetime': '2018-12-12 14:44:32.144422', 'mgs': 0, 'flw2': 0.05, 'flw1': 0.56, 'flw0': 0.0, 'time': 23.16, 'compass': -2.82, 'pitch': -3.02, 'roll': 0.01}
{'lipoC2': 7.23, 'temp': 0.0, 'lipoC3S3': 11.34, 'state': 'normal', 'rot1': 48, 'rot0': 41, 'rot3': 0, 'rot2': 0, 'depth': -1.59, 'yaw': -83.66, 'datetime': '2018-12-12 14:44:32.353651', 'mgs': 0, 'flw2': 0.23, 'flw1': 0.0, 'flw0': 0.0, 'time': 23.36, 'compass': -2.15, 'pitch': -2.21, 'roll': 0.0}
{'lipoC2': 7.09, 'temp': 0.0, 'lipoC3S3': 11.26, 'state': 'normal', 'rot1': 48, 'rot0': 41, 'rot3': 0, 'rot2': 0, 'depth': -0.369, 'yaw': -82.98, 'datetime': '2018-12-12 14:44:32.561538', 'mgs': 0, 'flw2': 0.0, 'flw1': 0.0, 'flw0': 0.22, 'time': 23.57, 'compass': -1.47, 'pitch': -1.68, 'roll': -0.01}
{'lipoC2': 7.26, 'temp': 0.0, 'lipoC3S3': 11.31, 'state': 'normal', 'rot1': 48, 'rot0': 41, 'rot3': 0, 'rot2': 0, 'depth': -1.59, 'yaw': -82.37, 'datetime': '2018-12-12 14:44:32.770870', 'mgs': 0, 'flw2': 0.27, 'flw1': 0.0, 'flw0': 0.0, 'time': 23.78, 'compass': -0.86, 'pitch': -2.23, 'roll': 0.14}
{'lipoC2': 7.09, 'temp': 0.0, 'lipoC3S3': 11.32, 'state': 'normal', 'rot1': 48, 'rot0': 41, 'rot3': 0, 'rot2': 0, 'depth': -0.751, 'yaw': -81.74, 'datetime': '2018-12-12 14:44:32.978648', 'mgs': 0, 'flw2': 0.28, 'flw1': 0.0, 'flw0': 0.0, 'time': 23.99, 'compass': -0.23, 'pitch': -2.88, 'roll': 0.18}
{'lipoC2': 7.28, 'temp': 0.0, 'lipoC3S3': 11.1, 'state': 'normal', 'rot1': 48, 'rot0': 41, 'rot3': 0, 'rot2': 0, 'depth': -2.734, 'yaw': -81.2, 'datetime': '2018-12-12 14:44:33.188487', 'mgs': 0, 'flw2': 0.0, 'flw1': 0.0, 'flw0': 0.11, 'time': 24.2, 'compass': 0.31, 'pitch': -2.62, 'roll': 0.08}
{'lipoC2': 7.12, 'temp': 0.0, 'lipoC3S3': 11.25, 'state': 'normal', 'rot1': 48, 'rot0': 41, 'rot3': 0, 'rot2': 0, 'depth': -0.522, 'yaw': -80.67, 'datetime': '2018-12-12 14:44:33.398511', 'mgs': 0, 'flw2': 0.0, 'flw1': 0.06, 'flw0': 0.0, 'time': 24.41, 'compass': 0.84, 'pitch': -1.83, 'roll': -0.01}
{'lipoC2': 7.26, 'temp': 0.0, 'lipoC3S3': 11.0, 'state': 'normal', 'rot1': 48, 'rot0': 41, 'rot3': 0, 'rot2': 0, 'depth': -2.2, 'yaw': -80.16, 'datetime': '2018-12-12 14:44:33.610177', 'mgs': 0, 'flw2': 0.0, 'flw1': 0.0, 'flw0': 0.0, 'time': 24.61, 'compass': 1.35, 'pitch': -1.82, 'roll': 0.13}
{'lipoC2': 7.23, 'temp': 0.0, 'lipoC3S3': 11.52, 'state': 'normal', 'rot1': 48, 'rot0': 41, 'rot3': 0, 'rot2': 0, 'depth': -1.132, 'yaw': -79.66, 'datetime': '2018-12-12 14:44:33.820876', 'mgs': 0, 'flw2': 0.0, 'flw1': 0.73, 'flw0': 0.0, 'time': 24.82, 'compass': 1.85, 'pitch': -2.6, 'roll': 0.29}
{'lipoC2': 7.42, 'temp': 0.0, 'lipoC3S3': 11.19, 'state': 'normal', 'rot1': 48, 'rot0': 41, 'rot3': 0, 'rot2': 0, 'depth': 1.309, 'yaw': -79.22, 'datetime': '2018-12-12 14:44:34.032931', 'mgs': 0, 'flw2': 0.0, 'flw1': 0.0, 'flw0': 0.23, 'time': 25.03, 'compass': 2.29, 'pitch': -3.23, 'roll': 0.39}
{'lipoC2': 7.12, 'temp': 0.0, 'lipoC3S3': 11.1, 'state': 'normal', 'rot1': 48, 'rot0': 41, 'rot3': 0, 'rot2': 0, 'depth': 1.691, 'yaw': -78.76, 'datetime': '2018-12-12 14:44:34.239743', 'mgs': 0, 'flw2': 0.0, 'flw1': 0.0, 'flw0': 0.35, 'time': 25.24, 'compass': 2.75, 'pitch': -2.78, 'roll': 0.48}
{'lipoC2': 7.23, 'temp': 0.0, 'lipoC3S3': 11.3, 'state': 'normal', 'rot1': 48, 'rot0': 41, 'rot3': 0, 'rot2': 0, 'depth': -0.369, 'yaw': -78.34, 'datetime': '2018-12-12 14:44:34.448859', 'mgs': 0, 'flw2': 0.0, 'flw1': 0.0, 'flw0': 0.16, 'time': 25.45, 'compass': 3.17, 'pitch': -1.72, 'roll': 0.42}
{'lipoC2': 7.33, 'temp': 0.0, 'lipoC3S3': 11.27, 'state': 'normal', 'rot1': 48, 'rot0': 41, 'rot3': 0, 'rot2': 0, 'depth': -0.369, 'yaw': -77.94, 'datetime': '2018-12-12 14:44:34.657432', 'mgs': 0, 'flw2': 0.28, 'flw1': 0.0, 'flw0': 0.0, 'time': 25.66, 'compass': 3.57, 'pitch': -1.76, 'roll': 0.32}
{'lipoC2': 7.41, 'temp': 0.0, 'lipoC3S3': 11.01, 'state': 'normal', 'rot1': 48, 'rot0': 41, 'rot3': 0, 'rot2': 0, 'depth': 0.775, 'yaw': -77.6, 'datetime': '2018-12-12 14:44:34.867855', 'mgs': 0, 'flw2': 0.18, 'flw1': 0.0, 'flw0': 0.0, 'time': 25.87, 'compass': 3.92, 'pitch': -2.7, 'roll': 0.12}
{'lipoC2': 7.35, 'temp': 0.0, 'lipoC3S3': 11.05, 'state': 'normal', 'rot1': 48, 'rot0': 41, 'rot3': 0, 'rot2': 0, 'depth': -1.437, 'yaw': -77.21, 'datetime': '2018-12-12 14:44:35.075340', 'mgs': 0, 'flw2': 0.0, 'flw1': 0.0, 'flw0': 0.06, 'time': 26.08, 'compass': 4.3, 'pitch': -3.12, 'roll': -0.04}
{'lipoC2': 7.34, 'temp': 0.0, 'lipoC3S3': 11.39, 'state': 'normal', 'rot1': 48, 'rot0': 41, 'rot3': 0, 'rot2': 0, 'depth': -0.98, 'yaw': -76.82, 'datetime': '2018-12-12 14:44:35.280221', 'mgs': 0, 'flw2': 0.0, 'flw1': 0.73, 'flw0': 0.0, 'time': 26.28, 'compass': 4.69, 'pitch': -2.71, 'roll': -0.11}
{'lipoC2': 7.48, 'temp': 0.0, 'lipoC3S3': 11.02, 'state': 'normal', 'rot1': 48, 'rot0': 41, 'rot3': 0, 'rot2': 0, 'depth': 0.775, 'yaw': -76.52, 'datetime': '2018-12-12 14:44:35.490952', 'mgs': 0, 'flw2': 0.33, 'flw1': 0.0, 'flw0': 0.67, 'time': 26.49, 'compass': 5.0, 'pitch': -2.14, 'roll': 0.06}
{'lipoC2': 7.19, 'temp': 0.0, 'lipoC3S3': 11.26, 'state': 'normal', 'rot1': 49, 'rot0': 42, 'rot3': 0, 'rot2': 0, 'depth': 1.233, 'yaw': -76.73, 'datetime': '2018-12-12 14:44:35.698066', 'mgs': 0, 'flw2': 0.0, 'flw1': 0.0, 'flw0': 0.57, 'time': 26.7, 'compass': 4.78, 'pitch': -2.15, 'roll': 0.2}
{'lipoC2': 7.11, 'temp': 0.0, 'lipoC3S3': 11.27, 'state': 'normal', 'rot1': 50, 'rot0': 43, 'rot3': 0, 'rot2': 0, 'depth': 0.165, 'yaw': -77.65, 'datetime': '2018-12-12 14:44:35.908053', 'mgs': 0, 'flw2': 0.04, 'flw1': 0.0, 'flw0': 0.2, 'time': 26.91, 'compass': 3.86, 'pitch': -2.44, 'roll': 0.22}
