{'lipoC2': 7.32, 'temp': 0.0, 'lipoC3S3': 11.64, 'state': 'normal', 'rot1': 0, 'rot0': 0, 'rot3': 0, 'rot2': 0, 'depth': 1.767, 'yaw': 0.0, 'datetime': '2018-12-12 14:21:42.147834', 'mgs': 0, 'flw2': 0.18, 'flw1': 0.0, 'flw0': 0.0, 'time': 1.26, 'compass': 22.21, 'pitch': -0.39, 'roll': 0.2}
{'lipoC2': 7.38, 'temp': 0.0, 'lipoC3S3': 11.36, 'state': 'normal', 'rot1': 0, 'rot0': 0, 'rot3': 0, 'rot2': 0, 'depth': -0.446, 'yaw': 0.19, 'datetime': '2018-12-12 14:21:42.356046', 'mgs': 0, 'flw2': 0.0, 'flw1': 0.32, 'flw0': 0.0, 'time': 1.47, 'compass': 22.4, 'pitch': -0.34, 'roll': 0.2}
{'lipoC2': 7.32, 'temp': 0.0, 'lipoC3S3': 11.39, 'state': 'normal', 'rot1': 0, 'rot0': 0, 'rot3': 0, 'rot2': 0, 'depth': 1.462, 'yaw': 0.41, 'datetime': '2018-12-12 14:21:42.564178', 'mgs': 0, 'flw2': 0.0, 'flw1': 0.21, 'flw0': 0.0, 'time': 1.67, 'compass': 22.62, 'pitch': -0.65, 'roll': 0.2}
{'lipoC2': 7.35, 'temp': 0.0, 'lipoC3S3': 11.65, 'state': 'normal', 'rot1': 0, 'rot0': 0, 'rot3': 0, 'rot2': 0, 'depth': 1.08, 'yaw': 0.63, 'datetime': '2018-12-12 14:21:42.771118', 'mgs': 0, 'flw2': 0.1, 'flw1': 0.0, 'flw0': 0.0, 'time': 1.88, 'compass': 22.85, 'pitch': -0.74, 'roll': 0.2}
{'lipoC2': 7.39, 'temp': 0.0, 'lipoC3S3': 11.67, 'state': 'normal', 'rot1': 0, 'rot0': 0, 'rot3': 0, 'rot2': 0, 'depth': -0.064, 'yaw': 0.95, 'datetime': '2018-12-12 14:21:42.973658', 'mgs': 0, 'flw2': 0.0, 'flw1': 0.79, 'flw0': 0.18, 'time': 2.09, 'compass': 23.16, 'pitch': -0.57, 'roll': 0.2}
{'lipoC2': 7.39, 'temp': 0.0, 'lipoC3S3': 11.19, 'state': 'normal', 'rot1': 3, 'rot0': 1, 'rot3': 0, 'rot2': 0, 'depth': -0.674, 'yaw': 0.46, 'datetime': '2018-12-12 14:21:43.181438', 'mgs': 0, 'flw2': 0.49, 'flw1': 0.0, 'flw0': 2.48, 'time': 2.29, 'compass': 22.67, 'pitch': 0.16, 'roll': 0.22}
{'lipoC2': 7.35, 'temp': 0.0, 'lipoC3S3': 11.55, 'state': 'normal', 'rot1': 6, 'rot0': 2, 'rot3': 0, 'rot2': 0, 'depth': 1.08, 'yaw': -2.15, 'datetime': '2018-12-12 14:21:43.390672', 'mgs': 0, 'flw2': 0.49, 'flw1': 0.64, 'flw0': 2.61, 'time': 2.5, 'compass': 20.06, 'pitch': 1.75, 'roll': 0.19}
{'lipoC2': 7.54, 'temp': 0.0, 'lipoC3S3': 11.25, 'state': 'normal', 'rot1': 9, 'rot0': 3, 'rot3': 0, 'rot2': 0, 'depth': -1.132, 'yaw': -6.63, 'datetime': '2018-12-12 14:21:43.598979', 'mgs': 0, 'flw2': 1.0, 'flw1': 0.0, 'flw0': 2.72, 'time': 2.71, 'compass': 15.58, 'pitch': 2.6, 'roll': -0.03}
{'lipoC2': 7.37, 'temp': 0.0, 'lipoC3S3': 11.26, 'state': 'normal', 'rot1': 11, 'rot0': 5, 'rot3': 0, 'rot2': 0, 'depth': -0.369, 'yaw': -12.27, 'datetime': '2018-12-12 14:21:43.816645', 'mgs': 0, 'flw2': 0.5, 'flw1': 0.0, 'flw0': 3.05, 'time': 2.92, 'compass': 9.94, 'pitch': 2.34, 'roll': -0.11}
{'lipoC2': 7.34, 'temp': 0.0, 'lipoC3S3': 11.4, 'state': 'normal', 'rot1': 14, 'rot0': 6, 'rot3': 0, 'rot2': 0, 'depth': -0.14, 'yaw': -18.52, 'datetime': '2018-12-12 14:21:44.025388', 'mgs': 0, 'flw2': 0.56, 'flw1': 0.15, 'flw0': 2.65, 'time': 3.13, 'compass': 3.69, 'pitch': 1.63, 'roll': 0.07}
{'lipoC2': 7.41, 'temp': 0.0, 'lipoC3S3': 11.32, 'state': 'normal', 'rot1': 17, 'rot0': 7, 'rot3': 0, 'rot2': 0, 'depth': 0.928, 'yaw': -24.7, 'datetime': '2018-12-12 14:21:44.230494', 'mgs': 0, 'flw2': 0.51, 'flw1': 0.0, 'flw0': 2.43, 'time': 3.34, 'compass': -2.49, 'pitch': 1.35, 'roll': 0.06}
{'lipoC2': 7.35, 'temp': 0.0, 'lipoC3S3': 11.54, 'state': 'normal', 'rot1': 19, 'rot0': 9, 'rot3': 0, 'rot2': 0, 'depth': 1.309, 'yaw': -30.87, 'datetime': '2018-12-12 14:21:44.439895', 'mgs': 0, 'flw2': 2.42, 'flw1': 0.56, 'flw0': 2.58, 'time': 3.54, 'compass': -8.66, 'pitch': 1.84, 'roll': -0.11}
{'lipoC2': 7.41, 'temp': 0.0, 'lipoC3S3': 11.15, 'state': 'normal', 'rot1': 21, 'rot0': 12, 'rot3': 0, 'rot2': 0, 'depth': 0.012, 'yaw': -35.32, 'datetime': '2018-12-12 14:21:44.648851', 'mgs': 0, 'flw2': 2.8, 'flw1': 0.0, 'flw0': 0.9, 'time': 3.75, 'compass': -13.11, 'pitch': 3.17, 'roll': -0.12}
{'lipoC2': 7.35, 'temp': 0.0, 'lipoC3S3': 11.55, 'state': 'normal', 'rot1': 23, 'rot0': 14, 'rot3': 0, 'rot2': 0, 'depth': 0.699, 'yaw': -37.33, 'datetime': '2018-12-12 14:21:44.858138', 'mgs': 0, 'flw2': 2.48, 'flw1': 0.53, 'flw0': 0.59, 'time': 3.96, 'compass': -15.12, 'pitch': 2.77, 'roll': 0.1}
{'lipoC2': 7.32, 'temp': 0.0, 'lipoC3S3': 11.29, 'state': 'normal', 'rot1': 25, 'rot0': 16, 'rot3': 0, 'rot2': 0, 'depth': -0.751, 'yaw': -37.34, 'datetime': '2018-12-12 14:21:45.069132', 'mgs': 0, 'flw2': 2.34, 'flw1': 0.0, 'flw0': 0.52, 'time': 4.17, 'compass': -15.13, 'pitch': 1.07, 'roll': 0.43}
{'lipoC2': 7.32, 'temp': 0.0, 'lipoC3S3': 11.29, 'state': 'normal', 'rot1': 26, 'rot0': 18, 'rot3': 0, 'rot2': 0, 'depth': -0.674, 'yaw': -36.17, 'datetime': '2018-12-12 14:21:45.281202', 'mgs': 0, 'flw2': 2.86, 'flw1': 0.0, 'flw0': 0.99, 'time': 4.38, 'compass': -13.96, 'pitch': -0.04, 'roll': 0.71}
{'lipoC2': 7.3, 'temp': 0.0, 'lipoC3S3': 11.55, 'state': 'normal', 'rot1': 28, 'rot0': 20, 'rot3': 0, 'rot2': 0, 'depth': -0.369, 'yaw': -34.28, 'datetime': '2018-12-12 14:21:45.489176', 'mgs': 0, 'flw2': 2.6, 'flw1': 0.0, 'flw0': 0.72, 'time': 4.59, 'compass': -12.07, 'pitch': 0.17, 'roll': 0.92}
{'lipoC2': 7.4, 'temp': 0.0, 'lipoC3S3': 11.21, 'state': 'normal', 'rot1': 30, 'rot0': 23, 'rot3': 0, 'rot2': 0, 'depth': 0.317, 'yaw': -31.79, 'datetime': '2018-12-12 14:21:45.691104', 'mgs': 0, 'flw2': 2.77, 'flw1': 0.0, 'flw0': 1.0, 'time': 4.8, 'compass': -9.58, 'pitch': 0.41, 'roll': 1.16}
{'lipoC2': 7.33, 'temp': 0.0, 'lipoC3S3': 11.51, 'state': 'normal', 'rot1': 31, 'rot0': 25, 'rot3': 0, 'rot2': 0, 'depth': -0.217, 'yaw': -29.07, 'datetime': '2018-12-12 14:21:45.897309', 'mgs': 0, 'flw2': 2.43, 'flw1': 0.56, 'flw0': 0.62, 'time': 5.01, 'compass': -6.85, 'pitch': 0.4, 'roll': 1.4}
{'lipoC2': 7.34, 'temp': 0.0, 'lipoC3S3': 11.6, 'state': 'normal', 'rot1': 33, 'rot0': 27, 'rot3': 0, 'rot2': 0, 'depth': -0.14, 'yaw': -25.93, 'datetime': '2018-12-12 14:21:46.107443', 'mgs': 0, 'flw2': 2.39, 'flw1': 0.62, 'flw0': 0.6, 'time': 5.21, 'compass': -3.71, 'pitch': 0.58, 'roll': 1.39}
{'lipoC2': 7.38, 'temp': 0.0, 'lipoC3S3': 11.61, 'state': 'normal', 'rot1': 35, 'rot0': 29, 'rot3': 0, 'rot2': 0, 'depth': -0.064, 'yaw': -22.86, 'datetime': '2018-12-12 14:21:46.315267', 'mgs': 0, 'flw2': 2.54, 'flw1': 0.21, 'flw0': 2.81, 'time': 5.42, 'compass': -0.65, 'pitch': 1.19, 'roll': 1.35}
{'lipoC2': 7.4, 'temp': 0.0, 'lipoC3S3': 11.22, 'state': 'normal', 'rot1': 37, 'rot0': 32, 'rot3': 0, 'rot2': 0, 'depth': 0.089, 'yaw': -21.26, 'datetime': '2018-12-12 14:21:46.524006', 'mgs': 0, 'flw2': 2.69, 'flw1': 0.0, 'flw0': 3.02, 'time': 5.63, 'compass': 0.95, 'pitch': 2.18, 'roll': 1.04}
{'lipoC2': 7.34, 'temp': 0.0, 'lipoC3S3': 11.1, 'state': 'normal', 'rot1': 40, 'rot0': 34, 'rot3': 0, 'rot2': 0, 'depth': 0.089, 'yaw': -20.49, 'datetime': '2018-12-12 14:21:46.734389', 'mgs': 0, 'flw2': 2.88, 'flw1': 0.0, 'flw0': 2.73, 'time': 5.84, 'compass': 1.72, 'pitch': 2.43, 'roll': 0.87}
{'lipoC2': 7.26, 'temp': 0.0, 'lipoC3S3': 11.56, 'state': 'normal', 'rot1': 44, 'rot0': 36, 'rot3': 0, 'rot2': 0, 'depth': 0.089, 'yaw': -20.34, 'datetime': '2018-12-12 14:21:46.941563', 'mgs': 0, 'flw2': 0.81, 'flw1': 0.0, 'flw0': 3.08, 'time': 6.05, 'compass': 1.88, 'pitch': 1.94, 'roll': 0.86}
{'lipoC2': 7.51, 'temp': 0.0, 'lipoC3S3': 11.34, 'state': 'normal', 'rot1': 47, 'rot0': 37, 'rot3': 0, 'rot2': 0, 'depth': 1.843, 'yaw': -21.88, 'datetime': '2018-12-12 14:21:47.150744', 'mgs': 0, 'flw2': 0.79, 'flw1': 0.0, 'flw0': 2.45, 'time': 6.26, 'compass': 0.33, 'pitch': 1.09, 'roll': 0.6}
{'lipoC2': 7.29, 'temp': 0.0, 'lipoC3S3': 11.29, 'state': 'normal', 'rot1': 51, 'rot0': 38, 'rot3': 0, 'rot2': 0, 'depth': -0.14, 'yaw': -24.78, 'datetime': '2018-12-12 14:21:47.359011', 'mgs': 0, 'flw2': 0.44, 'flw1': 0.0, 'flw0': 2.69, 'time': 6.47, 'compass': -2.57, 'pitch': 0.91, 'roll': 0.16}
{'lipoC2': 7.46, 'temp': 0.0, 'lipoC3S3': 11.01, 'state': 'normal', 'rot1': 56, 'rot0': 41, 'rot3': 0, 'rot2': 0, 'depth': -1.514, 'yaw': -28.0, 'datetime': '2018-12-12 14:21:47.572919', 'mgs': 0, 'flw2': 2.87, 'flw1': 0.0, 'flw0': 2.8, 'time': 6.67, 'compass': -5.79, 'pitch': 1.19, 'roll': 0.06}
{'lipoC2': 7.55, 'temp': 0.0, 'lipoC3S3': 11.25, 'state': 'normal', 'rot1': 59, 'rot0': 43, 'rot3': 0, 'rot2': 0, 'depth': -2.2, 'yaw': -30.04, 'datetime': '2018-12-12 14:21:47.781913', 'mgs': 0, 'flw2': 2.66, 'flw1': 0.0, 'flw0': 0.52, 'time': 6.88, 'compass': -7.83, 'pitch': 1.64, 'roll': 0.65}
{'lipoC2': 7.33, 'temp': 0.0, 'lipoC3S3': 11.13, 'state': 'normal', 'rot1': 61, 'rot0': 46, 'rot3': 0, 'rot2': 0, 'depth': -0.674, 'yaw': -30.24, 'datetime': '2018-12-12 14:21:47.992077', 'mgs': 0, 'flw2': 2.42, 'flw1': 0.67, 'flw0': 0.57, 'time': 7.09, 'compass': -8.03, 'pitch': 1.17, 'roll': 1.5}
{'lipoC2': 7.35, 'temp': 0.0, 'lipoC3S3': 11.29, 'state': 'normal', 'rot1': 62, 'rot0': 48, 'rot3': 0, 'rot2': 0, 'depth': -0.14, 'yaw': -29.0, 'datetime': '2018-12-12 14:21:48.198245', 'mgs': 0, 'flw2': 2.91, 'flw1': 0.0, 'flw0': 0.96, 'time': 7.3, 'compass': -6.79, 'pitch': 0.25, 'roll': 2.07}
{'lipoC2': 7.4, 'temp': 0.0, 'lipoC3S3': 11.18, 'state': 'normal', 'rot1': 64, 'rot0': 51, 'rot3': 0, 'rot2': 0, 'depth': -1.59, 'yaw': -26.75, 'datetime': '2018-12-12 14:21:48.406986', 'mgs': 0, 'flw2': 2.58, 'flw1': 0.56, 'flw0': 0.63, 'time': 7.51, 'compass': -4.54, 'pitch': 0.02, 'roll': 2.05}
{'lipoC2': 7.27, 'temp': 0.0, 'lipoC3S3': 11.3, 'state': 'normal', 'rot1': 65, 'rot0': 53, 'rot3': 0, 'rot2': 0, 'depth': -0.674, 'yaw': -23.8, 'datetime': '2018-12-12 14:21:48.618021', 'mgs': 0, 'flw2': 2.29, 'flw1': 0.09, 'flw0': 0.7, 'time': 7.72, 'compass': -1.59, 'pitch': 0.39, 'roll': 1.96}
{'lipoC2': 7.39, 'temp': 0.0, 'lipoC3S3': 11.6, 'state': 'normal', 'rot1': 67, 'rot0': 55, 'rot3': 0, 'rot2': 0, 'depth': 0.317, 'yaw': -20.88, 'datetime': '2018-12-12 14:21:48.826701', 'mgs': 0, 'flw2': 2.72, 'flw1': 0.0, 'flw0': 2.64, 'time': 7.93, 'compass': 1.34, 'pitch': 0.9, 'roll': 1.74}
{'lipoC2': 7.33, 'temp': 0.0, 'lipoC3S3': 11.29, 'state': 'normal', 'rot1': 70, 'rot0': 58, 'rot3': 0, 'rot2': 0, 'depth': -0.522, 'yaw': -19.1, 'datetime': '2018-12-12 14:21:49.037647', 'mgs': 0, 'flw2': 0.48, 'flw1': 0.03, 'flw0': 2.81, 'time': 8.14, 'compass': 3.11, 'pitch': 1.76, 'roll': 1.27}
{'lipoC2': 7.54, 'temp': 0.0, 'lipoC3S3': 11.32, 'state': 'normal', 'rot1': 72, 'rot0': 59, 'rot3': 0, 'rot2': 0, 'depth': -0.751, 'yaw': -19.06, 'datetime': '2018-12-12 14:21:49.247318', 'mgs': 0, 'flw2': 0.54, 'flw1': 0.0, 'flw0': 2.6, 'time': 8.35, 'compass': 3.15, 'pitch': 1.55, 'roll': 0.69}
{'lipoC2': 7.38, 'temp': 0.0, 'lipoC3S3': 11.29, 'state': 'normal', 'rot1': 75, 'rot0': 60, 'rot3': 0, 'rot2': 0, 'depth': 0.394, 'yaw': -20.47, 'datetime': '2018-12-12 14:21:49.455600', 'mgs': 0, 'flw2': 0.65, 'flw1': 0.0, 'flw0': 2.42, 'time': 8.56, 'compass': 1.74, 'pitch': 0.76, 'roll': 0.07}
{'lipoC2': 7.56, 'temp': 0.0, 'lipoC3S3': 11.19, 'state': 'normal', 'rot1': 78, 'rot0': 62, 'rot3': 0, 'rot2': 0, 'depth': -0.751, 'yaw': -22.85, 'datetime': '2018-12-12 14:21:49.663494', 'mgs': 0, 'flw2': 3.11, 'flw1': 0.0, 'flw0': 2.61, 'time': 8.76, 'compass': -0.64, 'pitch': 0.36, 'roll': -0.46}
{'lipoC2': 7.36, 'temp': 0.0, 'lipoC3S3': 11.27, 'state': 'normal', 'rot1': 81, 'rot0': 64, 'rot3': 0, 'rot2': 0, 'depth': -0.522, 'yaw': -24.57, 'datetime': '2018-12-12 14:21:49.873254', 'mgs': 0, 'flw2': 2.75, 'flw1': 0.0, 'flw0': 2.38, 'time': 8.97, 'compass': -2.36, 'pitch': 0.88, 'roll': -0.37}
{'lipoC2': 7.3, 'temp': 0.0, 'lipoC3S3': 11.6, 'state': 'normal', 'rot1': 84, 'rot0': 66, 'rot3': 0, 'rot2': 0, 'depth': -0.14, 'yaw': -25.54, 'datetime': '2018-12-12 14:21:50.075540', 'mgs': 0, 'flw2': 2.61, 'flw1': 0.76, 'flw0': 2.55, 'time': 9.18, 'compass': -3.33, 'pitch': 1.72, 'roll': 0.42}
{'lipoC2': 7.55, 'temp': 0.0, 'lipoC3S3': 11.13, 'state': 'normal', 'rot1': 87, 'rot0': 69, 'rot3': 0, 'rot2': 0, 'depth': 1.92, 'yaw': -26.42, 'datetime': '2018-12-12 14:21:50.284819', 'mgs': 0, 'flw2': 2.5, 'flw1': 0.0, 'flw0': 2.77, 'time': 9.39, 'compass': -4.21, 'pitch': 1.93, 'roll': 1.14}
{'lipoC2': 7.3, 'temp': 0.0, 'lipoC3S3': 11.42, 'state': 'normal', 'rot1': 90, 'rot0': 71, 'rot3': 0, 'rot2': 0, 'depth': 2.606, 'yaw': -27.42, 'datetime': '2018-12-12 14:21:50.496768', 'mgs': 0, 'flw2': 2.67, 'flw1': 0.0, 'flw0': 2.84, 'time': 9.6, 'compass': -5.2, 'pitch': 1.81, 'roll': 1.5}
{'lipoC2': 7.37, 'temp': 0.0, 'lipoC3S3': 11.31, 'state': 'normal', 'rot1': 92, 'rot0': 74, 'rot3': 0, 'rot2': 0, 'depth': -0.14, 'yaw': -28.05, 'datetime': '2018-12-12 14:21:50.705428', 'mgs': 0, 'flw2': 2.45, 'flw1': 0.0, 'flw0': 1.0, 'time': 9.81, 'compass': -5.84, 'pitch': 1.22, 'roll': 1.72}
{'lipoC2': 7.26, 'temp': 0.0, 'lipoC3S3': 11.29, 'state': 'normal', 'rot1': 94, 'rot0': 76, 'rot3': 0, 'rot2': 0, 'depth': -0.751, 'yaw': -27.24, 'datetime': '2018-12-12 14:21:50.916946', 'mgs': 0, 'flw2': 2.56, 'flw1': 0.0, 'flw0': 0.7, 'time': 10.02, 'compass': -5.03, 'pitch': 0.35, 'roll': 1.84}
{'lipoC2': 7.53, 'temp': 0.0, 'lipoC3S3': 11.19, 'state': 'normal', 'rot1': 95, 'rot0': 79, 'rot3': 0, 'rot2': 0, 'depth': 1.309, 'yaw': -25.24, 'datetime': '2018-12-12 14:21:51.124152', 'mgs': 0, 'flw2': 2.56, 'flw1': 0.0, 'flw0': 0.62, 'time': 10.22, 'compass': -3.02, 'pitch': 0.32, 'roll': 1.8}
{'lipoC2': 7.3, 'temp': 0.0, 'lipoC3S3': 11.4, 'state': 'normal', 'rot1': 97, 'rot0': 81, 'rot3': 0, 'rot2': 0, 'depth': 2.072, 'yaw': -22.79, 'datetime': '2018-12-12 14:21:51.333308', 'mgs': 0, 'flw2': 2.5, 'flw1': 0.0, 'flw0': 2.95, 'time': 10.43, 'compass': -0.58, 'pitch': 0.8, 'roll': 1.54}
{'lipoC2': 7.33, 'temp': 0.0, 'lipoC3S3': 11.31, 'state': 'normal', 'rot1': 100, 'rot0': 84, 'rot3': 0, 'rot2': 1, 'depth': 0.623, 'yaw': -21.49, 'datetime': '2018-12-12 14:21:51.541612', 'mgs': 0, 'flw2': 2.6, 'flw1': 2.64, 'flw0': 2.95, 'time': 10.64, 'compass': 0.72, 'pitch': 1.8, 'roll': 0.81}
{'lipoC2': 7.3, 'temp': 0.0, 'lipoC3S3': 11.47, 'state': 'normal', 'rot1': 103, 'rot0': 86, 'rot3': 1, 'rot2': 1, 'depth': 1.996, 'yaw': -20.56, 'datetime': '2018-12-12 14:21:51.752834', 'mgs': 0, 'flw2': 2.67, 'flw1': 0.0, 'flw0': 2.78, 'time': 10.85, 'compass': 1.65, 'pitch': 2.48, 'roll': -0.01}
{'lipoC2': 7.53, 'temp': 0.0, 'lipoC3S3': 11.23, 'state': 'normal', 'rot1': 105, 'rot0': 87, 'rot3': 1, 'rot2': 1, 'depth': -1.361, 'yaw': -19.96, 'datetime': '2018-12-12 14:21:51.965767', 'mgs': 0, 'flw2': 0.61, 'flw1': 0.0, 'flw0': 2.58, 'time': 11.06, 'compass': 2.25, 'pitch': 1.72, 'roll': -0.21}
{'lipoC2': 7.35, 'temp': 0.0, 'lipoC3S3': 11.55, 'state': 'normal', 'rot1': 108, 'rot0': 89, 'rot3': 1, 'rot2': 1, 'depth': -0.14, 'yaw': -21.19, 'datetime': '2018-12-12 14:21:52.173915', 'mgs': 0, 'flw2': 0.66, 'flw1': 0.32, 'flw0': 2.6, 'time': 11.27, 'compass': 1.02, 'pitch': -0.27, 'roll': -0.1}
{'lipoC2': 7.55, 'temp': 0.0, 'lipoC3S3': 11.27, 'state': 'normal', 'rot1': 111, 'rot0': 90, 'rot3': 1, 'rot2': 1, 'depth': -1.132, 'yaw': -23.67, 'datetime': '2018-12-12 14:21:52.383350', 'mgs': 0, 'flw2': 0.54, 'flw1': 0.0, 'flw0': 2.53, 'time': 11.48, 'compass': -1.46, 'pitch': -0.77, 'roll': -0.2}
{'lipoC2': 7.35, 'temp': 0.0, 'lipoC3S3': 11.5, 'state': 'normal', 'rot1': 113, 'rot0': 92, 'rot3': 1, 'rot2': 1, 'depth': 1.08, 'yaw': -26.4, 'datetime': '2018-12-12 14:21:52.592811', 'mgs': 0, 'flw2': 2.58, 'flw1': 0.41, 'flw0': 2.62, 'time': 11.69, 'compass': -4.19, 'pitch': 0.49, 'roll': -0.13}
{'lipoC2': 7.34, 'temp': 0.0, 'lipoC3S3': 11.35, 'state': 'normal', 'rot1': 116, 'rot0': 94, 'rot3': 1, 'rot2': 1, 'depth': 1.614, 'yaw': -28.44, 'datetime': '2018-12-12 14:21:52.799337', 'mgs': 0, 'flw2': 2.89, 'flw1': 0.0, 'flw0': 0.89, 'time': 11.89, 'compass': -6.23, 'pitch': 1.65, 'roll': 0.33}
{'lipoC2': 7.43, 'temp': 0.0, 'lipoC3S3': 11.17, 'state': 'normal', 'rot1': 117, 'rot0': 97, 'rot3': 1, 'rot2': 1, 'depth': -0.14, 'yaw': -28.84, 'datetime': '2018-12-12 14:21:53.008835', 'mgs': 0, 'flw2': 2.56, 'flw1': 0.0, 'flw0': 0.68, 'time': 12.1, 'compass': -6.63, 'pitch': 0.82, 'roll': 0.94}
{'lipoC2': 7.49, 'temp': 0.0, 'lipoC3S3': 11.14, 'state': 'normal', 'rot1': 118, 'rot0': 99, 'rot3': 1, 'rot2': 1, 'depth': -1.361, 'yaw': -27.75, 'datetime': '2018-12-12 14:21:53.217545', 'mgs': 0, 'flw2': 2.59, 'flw1': 0.0, 'flw0': 0.71, 'time': 12.31, 'compass': -5.54, 'pitch': -0.22, 'roll': 1.37}
{'lipoC2': 7.48, 'temp': 0.0, 'lipoC3S3': 11.17, 'state': 'normal', 'rot1': 119, 'rot0': 102, 'rot3': 1, 'rot2': 1, 'depth': -1.361, 'yaw': -25.76, 'datetime': '2018-12-12 14:21:53.428411', 'mgs': 0, 'flw2': 2.72, 'flw1': 0.0, 'flw0': 0.89, 'time': 12.52, 'compass': -3.55, 'pitch': -0.01, 'roll': 1.41}
{'lipoC2': 7.54, 'temp': 0.0, 'lipoC3S3': 11.1, 'state': 'normal', 'rot1': 121, 'rot0': 104, 'rot3': 1, 'rot2': 2, 'depth': -1.285, 'yaw': -23.19, 'datetime': '2018-12-12 14:21:53.636221', 'mgs': 0, 'flw2': 2.45, 'flw1': 4.19, 'flw0': 0.77, 'time': 12.73, 'compass': -0.97, 'pitch': 0.4, 'roll': 1.21}
{'lipoC2': 7.49, 'temp': 0.0, 'lipoC3S3': 11.29, 'state': 'normal', 'rot1': 123, 'rot0': 106, 'rot3': 3, 'rot2': 3, 'depth': 1.385, 'yaw': -20.6, 'datetime': '2018-12-12 14:21:53.846592', 'mgs': 0, 'flw2': 2.64, 'flw1': 2.55, 'flw0': 2.62, 'time': 12.94, 'compass': 1.61, 'pitch': 1.0, 'roll': 0.75}
{'lipoC2': 7.53, 'temp': 0.0, 'lipoC3S3': 11.25, 'state': 'normal', 'rot1': 125, 'rot0': 108, 'rot3': 3, 'rot2': 3, 'depth': -1.132, 'yaw': -19.0, 'datetime': '2018-12-12 14:21:54.055373', 'mgs': 0, 'flw2': 0.44, 'flw1': 0.0, 'flw0': 2.53, 'time': 13.15, 'compass': 3.21, 'pitch': 2.04, 'roll': 0.31}
{'lipoC2': 7.48, 'temp': 0.0, 'lipoC3S3': 11.14, 'state': 'normal', 'rot1': 128, 'rot0': 110, 'rot3': 3, 'rot2': 3, 'depth': 0.47, 'yaw': -19.19, 'datetime': '2018-12-12 14:21:54.265312', 'mgs': 0, 'flw2': 0.67, 'flw1': 0.29, 'flw0': 2.62, 'time': 13.36, 'compass': 3.02, 'pitch': 1.16, 'roll': 0.04}
{'lipoC2': 7.48, 'temp': 0.0, 'lipoC3S3': 11.29, 'state': 'normal', 'rot1': 130, 'rot0': 111, 'rot3': 3, 'rot2': 3, 'depth': -1.361, 'yaw': -21.1, 'datetime': '2018-12-12 14:21:54.475170', 'mgs': 0, 'flw2': 0.51, 'flw1': 0.62, 'flw0': 2.67, 'time': 13.57, 'compass': 1.11, 'pitch': -0.68, 'roll': -0.26}
{'lipoC2': 7.35, 'temp': 0.0, 'lipoC3S3': 11.15, 'state': 'normal', 'rot1': 133, 'rot0': 113, 'rot3': 3, 'rot2': 3, 'depth': -0.522, 'yaw': -24.17, 'datetime': '2018-12-12 14:21:54.685025', 'mgs': 0, 'flw2': 2.93, 'flw1': 0.0, 'flw0': 2.92, 'time': 13.78, 'compass': -1.96, 'pitch': -0.53, 'roll': -0.54}
{'lipoC2': 7.3, 'temp': 0.0, 'lipoC3S3': 11.46, 'state': 'normal', 'rot1': 135, 'rot0': 115, 'rot3': 3, 'rot2': 3, 'depth': -0.217, 'yaw': -26.77, 'datetime': '2018-12-12 14:21:54.897772', 'mgs': 0, 'flw2': 2.56, 'flw1': 4.1, 'flw0': 2.94, 'time': 13.99, 'compass': -4.56, 'pitch': 1.26, 'roll': -0.59}
{'lipoC2': 7.27, 'temp': 0.0, 'lipoC3S3': 11.27, 'state': 'normal', 'rot1': 137, 'rot0': 117, 'rot3': 4, 'rot2': 4, 'depth': -0.293, 'yaw': -28.46, 'datetime': '2018-12-12 14:21:55.107493', 'mgs': 0, 'flw2': 2.6, 'flw1': 2.31, 'flw0': 2.77, 'time': 14.19, 'compass': -6.25, 'pitch': 2.82, 'roll': -0.58}
{'lipoC2': 7.32, 'temp': 0.0, 'lipoC3S3': 11.43, 'state': 'normal', 'rot1': 140, 'rot0': 120, 'rot3': 5, 'rot2': 5, 'depth': 1.691, 'yaw': -29.58, 'datetime': '2018-12-12 14:21:55.318381', 'mgs': 0, 'flw2': 2.67, 'flw1': 0.0, 'flw0': 0.82, 'time': 14.4, 'compass': -7.37, 'pitch': 2.77, 'roll': -0.42}
{'lipoC2': 7.46, 'temp': 0.0, 'lipoC3S3': 11.18, 'state': 'normal', 'rot1': 140, 'rot0': 120, 'rot3': 5, 'rot2': 5, 'depth': 0.394, 'yaw': -29.77, 'datetime': '2018-12-12 14:21:55.528567', 'mgs': 0, 'flw2': 0.0, 'flw1': 0.0, 'flw0': 0.0, 'time': 14.61, 'compass': -7.56, 'pitch': 0.22, 'roll': 0.22}
{'lipoC2': 7.4, 'temp': 0.0, 'lipoC3S3': 11.26, 'state': 'normal', 'rot1': 141, 'rot0': 121, 'rot3': 5, 'rot2': 5, 'depth': -0.903, 'yaw': -30.4, 'datetime': '2018-12-12 14:21:55.834222', 'mgs': 0, 'flw2': 2.81, 'flw1': 0.0, 'flw0': 0.72, 'time': 14.93, 'compass': -8.19, 'pitch': -3.38, 'roll': 1.38}
{'lipoC2': 7.4, 'temp': 0.0, 'lipoC3S3': 11.11, 'state': 'normal', 'rot1': 142, 'rot0': 123, 'rot3': 5, 'rot2': 5, 'depth': 0.012, 'yaw': -29.8, 'datetime': '2018-12-12 14:21:56.042414', 'mgs': 0, 'flw2': 2.75, 'flw1': 0.0, 'flw0': 0.95, 'time': 15.14, 'compass': -7.58, 'pitch': -1.29, 'roll': 1.55}
{'lipoC2': 7.32, 'temp': 0.0, 'lipoC3S3': 11.47, 'state': 'normal', 'rot1': 144, 'rot0': 126, 'rot3': 5, 'rot2': 5, 'depth': 2.072, 'yaw': -27.84, 'datetime': '2018-12-12 14:21:56.251877', 'mgs': 0, 'flw2': 2.69, 'flw1': 0.0, 'flw0': 0.99, 'time': 15.35, 'compass': -5.63, 'pitch': 1.05, 'roll': 1.14}
{'lipoC2': 7.27, 'temp': 0.0, 'lipoC3S3': 11.13, 'state': 'normal', 'rot1': 146, 'rot0': 128, 'rot3': 5, 'rot2': 5, 'depth': -1.285, 'yaw': -25.23, 'datetime': '2018-12-12 14:21:56.463481', 'mgs': 0, 'flw2': 2.51, 'flw1': 2.96, 'flw0': 3.0, 'time': 15.55, 'compass': -3.02, 'pitch': 0.94, 'roll': 0.7}
