{'lipoC2': 7.38, 'temp': 29.69, 'lipoC3S3': 11.63, 'state': 'normal', 'rot1': 0, 'rot0': 0, 'rot3': 0, 'rot2': 0, 'depth': 1.92, 'yaw': 0.0, 'datetime': '2018-11-26 12:54:20.435602', 'mgs': 0, 'flw2': 0.0, 'flw1': 0.0, 'flw0': 0.0, 'time': 1.36, 'compass': -27.63, 'pitch': 0.13, 'roll': -5.1}
{'lipoC2': 7.38, 'temp': 29.63, 'lipoC3S3': 11.63, 'state': 'normal', 'rot1': 0, 'rot0': 0, 'rot3': 0, 'rot2': 0, 'depth': 1.92, 'yaw': 0.0, 'datetime': '2018-11-26 12:54:20.643341', 'mgs': 0, 'flw2': 0.0, 'flw1': 0.0, 'flw0': 0.0, 'time': 1.57, 'compass': -27.63, 'pitch': 0.13, 'roll': -5.1}
{'lipoC2': 7.37, 'temp': 29.63, 'lipoC3S3': 11.63, 'state': 'normal', 'rot1': 0, 'rot0': 0, 'rot3': 0, 'rot2': 0, 'depth': 1.843, 'yaw': 0.0, 'datetime': '2018-11-26 12:54:20.853039', 'mgs': 0, 'flw2': 0.0, 'flw1': 0.0, 'flw0': 0.0, 'time': 1.78, 'compass': -27.62, 'pitch': 0.13, 'roll': -5.0}
{'lipoC2': 7.38, 'temp': 29.69, 'lipoC3S3': 11.61, 'state': 'normal', 'rot1': 0, 'rot0': 0, 'rot3': 0, 'rot2': 0, 'depth': 1.92, 'yaw': 0.0, 'datetime': '2018-11-26 12:54:21.061238', 'mgs': 0, 'flw2': 0.0, 'flw1': 0.0, 'flw0': 0.0, 'time': 1.99, 'compass': -27.62, 'pitch': 0.13, 'roll': -4.98}
{'lipoC2': 7.38, 'temp': 29.69, 'lipoC3S3': 11.61, 'state': 'normal', 'rot1': 0, 'rot0': 0, 'rot3': 0, 'rot2': 0, 'depth': 1.996, 'yaw': 0.0, 'datetime': '2018-11-26 12:54:21.270851', 'mgs': 0, 'flw2': 0.0, 'flw1': 0.0, 'flw0': 0.0, 'time': 2.2, 'compass': -27.63, 'pitch': 0.13, 'roll': -5.14}
{'lipoC2': 7.37, 'temp': 29.69, 'lipoC3S3': 11.63, 'state': 'normal', 'rot1': 0, 'rot0': 0, 'rot3': 0, 'rot2': 0, 'depth': 1.996, 'yaw': -0.0, 'datetime': '2018-11-26 12:54:21.479097', 'mgs': 0, 'flw2': 0.0, 'flw1': 0.0, 'flw0': 0.0, 'time': 2.41, 'compass': -27.63, 'pitch': 0.11, 'roll': -5.31}
{'lipoC2': 7.38, 'temp': 29.69, 'lipoC3S3': 11.63, 'state': 'normal', 'rot1': 0, 'rot0': 0, 'rot3': 0, 'rot2': 0, 'depth': 1.92, 'yaw': 0.0, 'datetime': '2018-11-26 12:54:21.687583', 'mgs': 0, 'flw2': 0.0, 'flw1': 0.0, 'flw0': 0.0, 'time': 2.62, 'compass': -27.62, 'pitch': 0.02, 'roll': -5.24}
{'lipoC2': 7.37, 'temp': 29.63, 'lipoC3S3': 11.63, 'state': 'normal', 'rot1': 0, 'rot0': 0, 'rot3': 0, 'rot2': 0, 'depth': 1.92, 'yaw': 0.0, 'datetime': '2018-11-26 12:54:21.895308', 'mgs': 0, 'flw2': 0.0, 'flw1': 0.0, 'flw0': 0.0, 'time': 2.83, 'compass': -27.63, 'pitch': -0.05, 'roll': -5.17}
{'lipoC2': 7.38, 'temp': 29.63, 'lipoC3S3': 11.61, 'state': 'normal', 'rot1': 0, 'rot0': 0, 'rot3': 0, 'rot2': 0, 'depth': 1.92, 'yaw': 0.0, 'datetime': '2018-11-26 12:54:22.104450', 'mgs': 0, 'flw2': 0.0, 'flw1': 0.0, 'flw0': 0.0, 'time': 3.04, 'compass': -27.62, 'pitch': -0.1, 'roll': -5.13}
{'lipoC2': 7.37, 'temp': 29.75, 'lipoC3S3': 11.61, 'state': 'normal', 'rot1': 0, 'rot0': 0, 'rot3': 0, 'rot2': 0, 'depth': 1.843, 'yaw': -0.0, 'datetime': '2018-11-26 12:54:22.313693', 'mgs': 0, 'flw2': 0.0, 'flw1': 0.0, 'flw0': 0.0, 'time': 3.24, 'compass': -27.63, 'pitch': -0.14, 'roll': -5.09}
{'lipoC2': 7.38, 'temp': 29.69, 'lipoC3S3': 11.63, 'state': 'normal', 'rot1': 0, 'rot0': 0, 'rot3': 0, 'rot2': 0, 'depth': 1.996, 'yaw': 0.0, 'datetime': '2018-11-26 12:54:22.522086', 'mgs': 0, 'flw2': 0.0, 'flw1': 0.0, 'flw0': 0.0, 'time': 3.45, 'compass': -27.63, 'pitch': -0.17, 'roll': -5.05}
{'lipoC2': 7.38, 'temp': 29.63, 'lipoC3S3': 11.63, 'state': 'normal', 'rot1': 0, 'rot0': 0, 'rot3': 0, 'rot2': 0, 'depth': 1.92, 'yaw': 0.0, 'datetime': '2018-11-26 12:54:22.732063', 'mgs': 0, 'flw2': 0.0, 'flw1': 0.0, 'flw0': 0.0, 'time': 3.66, 'compass': -27.63, 'pitch': -0.17, 'roll': -5.05}
{'lipoC2': 7.37, 'temp': 29.63, 'lipoC3S3': 11.61, 'state': 'normal', 'rot1': 0, 'rot0': 0, 'rot3': 0, 'rot2': 0, 'depth': 1.843, 'yaw': 0.0, 'datetime': '2018-11-26 12:54:22.939010', 'mgs': 0, 'flw2': 0.0, 'flw1': 0.0, 'flw0': 0.0, 'time': 3.87, 'compass': -27.63, 'pitch': -0.17, 'roll': -5.05}
{'lipoC2': 7.37, 'temp': 29.63, 'lipoC3S3': 11.63, 'state': 'normal', 'rot1': 0, 'rot0': 0, 'rot3': 0, 'rot2': 0, 'depth': 1.92, 'yaw': 0.0, 'datetime': '2018-11-26 12:54:23.151695', 'mgs': 0, 'flw2': 0.0, 'flw1': 1.35, 'flw0': 0.0, 'time': 4.08, 'compass': -27.63, 'pitch': -0.17, 'roll': -5.05}
{'lipoC2': 7.37, 'temp': 29.69, 'lipoC3S3': 11.61, 'state': 'normal', 'rot1': 0, 'rot0': 0, 'rot3': 1, 'rot2': 0, 'depth': 1.92, 'yaw': -0.0, 'datetime': '2018-11-26 12:54:23.360417', 'mgs': 0, 'flw2': 0.0, 'flw1': 0.97, 'flw0': 0.0, 'time': 4.29, 'compass': -27.63, 'pitch': -0.17, 'roll': -5.04}
{'lipoC2': 7.38, 'temp': 29.69, 'lipoC3S3': 11.59, 'state': 'normal', 'rot1': 0, 'rot0': 0, 'rot3': 1, 'rot2': 1, 'depth': 1.92, 'yaw': -0.0, 'datetime': '2018-11-26 12:54:23.568013', 'mgs': 0, 'flw2': 0.0, 'flw1': 0.94, 'flw0': 0.0, 'time': 4.5, 'compass': -27.63, 'pitch': -0.17, 'roll': -5.04}
{'lipoC2': 7.38, 'temp': 29.69, 'lipoC3S3': 11.59, 'state': 'normal', 'rot1': 0, 'rot0': 0, 'rot3': 2, 'rot2': 1, 'depth': 1.843, 'yaw': -0.0, 'datetime': '2018-11-26 12:54:23.777034', 'mgs': 0, 'flw2': 0.0, 'flw1': 0.97, 'flw0': 0.0, 'time': 4.71, 'compass': -27.63, 'pitch': -0.17, 'roll': -5.04}
{'lipoC2': 7.37, 'temp': 29.63, 'lipoC3S3': 11.61, 'state': 'normal', 'rot1': 0, 'rot0': 0, 'rot3': 2, 'rot2': 2, 'depth': 1.843, 'yaw': -0.0, 'datetime': '2018-11-26 12:54:23.986127', 'mgs': 0, 'flw2': 0.0, 'flw1': 0.91, 'flw0': 0.0, 'time': 4.92, 'compass': -27.63, 'pitch': -0.17, 'roll': -5.04}
{'lipoC2': 7.37, 'temp': 29.63, 'lipoC3S3': 11.61, 'state': 'normal', 'rot1': 0, 'rot0': 0, 'rot3': 2, 'rot2': 2, 'depth': 1.92, 'yaw': 0.0, 'datetime': '2018-11-26 12:54:24.196236', 'mgs': 0, 'flw2': 0.0, 'flw1': 1.0, 'flw0': 0.0, 'time': 5.13, 'compass': -27.62, 'pitch': -0.17, 'roll': -4.93}
{'lipoC2': 7.37, 'temp': 29.69, 'lipoC3S3': 11.61, 'state': 'normal', 'rot1': 0, 'rot0': 0, 'rot3': 3, 'rot2': 3, 'depth': 2.225, 'yaw': 0.0, 'datetime': '2018-11-26 12:54:24.403914', 'mgs': 0, 'flw2': 0.0, 'flw1': 1.03, 'flw0': 0.0, 'time': 5.33, 'compass': -27.63, 'pitch': -0.16, 'roll': -4.85}
{'lipoC2': 7.38, 'temp': 29.69, 'lipoC3S3': 11.61, 'state': 'normal', 'rot1': 0, 'rot0': 0, 'rot3': 3, 'rot2': 4, 'depth': 1.843, 'yaw': 0.0, 'datetime': '2018-11-26 12:54:24.613590', 'mgs': 0, 'flw2': 0.0, 'flw1': 1.05, 'flw0': 0.0, 'time': 5.54, 'compass': -27.62, 'pitch': -0.16, 'roll': -4.89}
{'lipoC2': 7.38, 'temp': 29.63, 'lipoC3S3': 11.61, 'state': 'normal', 'rot1': 0, 'rot0': 0, 'rot3': 4, 'rot2': 4, 'depth': 1.843, 'yaw': 0.0, 'datetime': '2018-11-26 12:54:24.821663', 'mgs': 0, 'flw2': 0.0, 'flw1': 0.94, 'flw0': 0.0, 'time': 5.75, 'compass': -27.62, 'pitch': -0.2, 'roll': -4.96}
{'lipoC2': 7.38, 'temp': 29.69, 'lipoC3S3': 11.59, 'state': 'normal', 'rot1': 0, 'rot0': 0, 'rot3': 4, 'rot2': 5, 'depth': 1.767, 'yaw': -0.0, 'datetime': '2018-11-26 12:54:25.030504', 'mgs': 0, 'flw2': 0.0, 'flw1': 0.97, 'flw0': 0.0, 'time': 5.96, 'compass': -27.63, 'pitch': -0.25, 'roll': -4.94}
{'lipoC2': 7.38, 'temp': 29.69, 'lipoC3S3': 11.59, 'state': 'normal', 'rot1': 0, 'rot0': 0, 'rot3': 5, 'rot2': 5, 'depth': 1.691, 'yaw': 0.0, 'datetime': '2018-11-26 12:54:25.239737', 'mgs': 0, 'flw2': 0.0, 'flw1': 0.94, 'flw0': 0.0, 'time': 6.17, 'compass': -27.63, 'pitch': -0.3, 'roll': -4.66}
{'lipoC2': 7.37, 'temp': 29.69, 'lipoC3S3': 11.61, 'state': 'normal', 'rot1': 0, 'rot0': 0, 'rot3': 5, 'rot2': 6, 'depth': 1.767, 'yaw': -0.0, 'datetime': '2018-11-26 12:54:25.447495', 'mgs': 0, 'flw2': 0.0, 'flw1': 1.03, 'flw0': 0.0, 'time': 6.38, 'compass': -27.63, 'pitch': -0.35, 'roll': -4.45}
{'lipoC2': 7.37, 'temp': 29.69, 'lipoC3S3': 11.61, 'state': 'normal', 'rot1': 0, 'rot0': 0, 'rot3': 6, 'rot2': 6, 'depth': 1.691, 'yaw': -0.0, 'datetime': '2018-11-26 12:54:25.656107', 'mgs': 0, 'flw2': 0.0, 'flw1': 1.0, 'flw0': 0.0, 'time': 6.59, 'compass': -27.63, 'pitch': -0.4, 'roll': -4.42}
{'lipoC2': 7.37, 'temp': 29.69, 'lipoC3S3': 11.61, 'state': 'normal', 'rot1': 0, 'rot0': 0, 'rot3': 6, 'rot2': 7, 'depth': 1.691, 'yaw': -0.01, 'datetime': '2018-11-26 12:54:25.865025', 'mgs': 0, 'flw2': 0.0, 'flw1': 1.0, 'flw0': 0.0, 'time': 6.8, 'compass': -27.63, 'pitch': -0.44, 'roll': -4.45}
{'lipoC2': 7.38, 'temp': 29.69, 'lipoC3S3': 11.61, 'state': 'normal', 'rot1': 0, 'rot0': 0, 'rot3': 7, 'rot2': 7, 'depth': 1.614, 'yaw': -0.02, 'datetime': '2018-11-26 12:54:26.074621', 'mgs': 0, 'flw2': 0.0, 'flw1': 0.97, 'flw0': 0.0, 'time': 7.01, 'compass': -27.65, 'pitch': -0.45, 'roll': -4.41}
{'lipoC2': 7.38, 'temp': 29.69, 'lipoC3S3': 11.61, 'state': 'normal', 'rot1': 0, 'rot0': 0, 'rot3': 7, 'rot2': 8, 'depth': 1.691, 'yaw': -0.28, 'datetime': '2018-11-26 12:54:26.283573', 'mgs': 0, 'flw2': 0.34, 'flw1': 1.03, 'flw0': 0.35, 'time': 7.21, 'compass': -27.9, 'pitch': -0.49, 'roll': -4.19}
{'lipoC2': 7.37, 'temp': 29.69, 'lipoC3S3': 11.54, 'state': 'normal', 'rot1': 1, 'rot0': 1, 'rot3': 8, 'rot2': 9, 'depth': 1.691, 'yaw': -1.25, 'datetime': '2018-11-26 12:54:26.492863', 'mgs': 0, 'flw2': 0.32, 'flw1': 0.97, 'flw0': 0.32, 'time': 7.42, 'compass': -28.87, 'pitch': -0.61, 'roll': -3.8}
{'lipoC2': 7.37, 'temp': 29.69, 'lipoC3S3': 11.61, 'state': 'normal', 'rot1': 2, 'rot0': 2, 'rot3': 8, 'rot2': 9, 'depth': 1.691, 'yaw': -2.89, 'datetime': '2018-11-26 12:54:26.701743', 'mgs': 0, 'flw2': 0.31, 'flw1': 0.97, 'flw0': 0.33, 'time': 7.63, 'compass': -30.52, 'pitch': -0.74, 'roll': -3.57}
{'lipoC2': 7.37, 'temp': 29.63, 'lipoC3S3': 11.61, 'state': 'normal', 'rot1': 3, 'rot0': 3, 'rot3': 9, 'rot2': 10, 'depth': 1.691, 'yaw': -5.08, 'datetime': '2018-11-26 12:54:26.909557', 'mgs': 0, 'flw2': 0.33, 'flw1': 1.0, 'flw0': 0.33, 'time': 7.84, 'compass': -32.7, 'pitch': -0.91, 'roll': -3.33}
{'lipoC2': 7.38, 'temp': 29.69, 'lipoC3S3': 11.61, 'state': 'normal', 'rot1': 4, 'rot0': 4, 'rot3': 9, 'rot2': 10, 'depth': 2.072, 'yaw': -7.71, 'datetime': '2018-11-26 12:54:27.118788', 'mgs': 0, 'flw2': 0.33, 'flw1': 1.08, 'flw0': 0.33, 'time': 8.05, 'compass': -35.33, 'pitch': -1.07, 'roll': -3.09}
{'lipoC2': 7.37, 'temp': 29.63, 'lipoC3S3': 11.61, 'state': 'normal', 'rot1': 5, 'rot0': 5, 'rot3': 10, 'rot2': 11, 'depth': 1.614, 'yaw': -10.7, 'datetime': '2018-11-26 12:54:27.327051', 'mgs': 0, 'flw2': 0.32, 'flw1': 1.03, 'flw0': 0.33, 'time': 8.26, 'compass': -38.32, 'pitch': -1.22, 'roll': -2.98}
{'lipoC2': 7.38, 'temp': 29.63, 'lipoC3S3': 11.55, 'state': 'normal', 'rot1': 6, 'rot0': 6, 'rot3': 10, 'rot2': 11, 'depth': 1.691, 'yaw': -14.04, 'datetime': '2018-11-26 12:54:27.537722', 'mgs': 0, 'flw2': 0.32, 'flw1': 0.97, 'flw0': 0.33, 'time': 8.47, 'compass': -41.67, 'pitch': -1.29, 'roll': -3.03}
{'lipoC2': 7.38, 'temp': 29.63, 'lipoC3S3': 11.6, 'state': 'normal', 'rot1': 6, 'rot0': 6, 'rot3': 11, 'rot2': 12, 'depth': 1.691, 'yaw': -17.66, 'datetime': '2018-11-26 12:54:27.747066', 'mgs': 0, 'flw2': 0.33, 'flw1': 0.97, 'flw0': 0.33, 'time': 8.68, 'compass': -45.28, 'pitch': -1.27, 'roll': -3.09}
{'lipoC2': 7.37, 'temp': 29.69, 'lipoC3S3': 11.54, 'state': 'normal', 'rot1': 7, 'rot0': 7, 'rot3': 11, 'rot2': 12, 'depth': 1.691, 'yaw': -21.48, 'datetime': '2018-11-26 12:54:27.954373', 'mgs': 0, 'flw2': 0.31, 'flw1': 1.0, 'flw0': 0.32, 'time': 8.89, 'compass': -49.1, 'pitch': -1.2, 'roll': -3.26}
{'lipoC2': 7.38, 'temp': 29.69, 'lipoC3S3': 11.55, 'state': 'normal', 'rot1': 8, 'rot0': 8, 'rot3': 12, 'rot2': 13, 'depth': 1.614, 'yaw': -25.26, 'datetime': '2018-11-26 12:54:28.164694', 'mgs': 0, 'flw2': 0.31, 'flw1': 0.94, 'flw0': 0.33, 'time': 9.1, 'compass': -52.89, 'pitch': -1.22, 'roll': -3.54}
{'lipoC2': 7.38, 'temp': 29.69, 'lipoC3S3': 11.61, 'state': 'normal', 'rot1': 9, 'rot0': 9, 'rot3': 12, 'rot2': 14, 'depth': 1.691, 'yaw': -29.37, 'datetime': '2018-11-26 12:54:28.373244', 'mgs': 0, 'flw2': 0.32, 'flw1': 1.0, 'flw0': 0.33, 'time': 9.31, 'compass': -57.0, 'pitch': -1.39, 'roll': -3.61}
{'lipoC2': 7.38, 'temp': 29.69, 'lipoC3S3': 11.6, 'state': 'normal', 'rot1': 10, 'rot0': 10, 'rot3': 13, 'rot2': 14, 'depth': 1.691, 'yaw': -33.62, 'datetime': '2018-11-26 12:54:28.585965', 'mgs': 0, 'flw2': 0.33, 'flw1': 1.05, 'flw0': 0.35, 'time': 9.52, 'compass': -61.25, 'pitch': -1.56, 'roll': -3.5}
{'lipoC2': 7.37, 'temp': 29.63, 'lipoC3S3': 11.61, 'state': 'normal', 'rot1': 11, 'rot0': 11, 'rot3': 13, 'rot2': 15, 'depth': 1.996, 'yaw': -37.93, 'datetime': '2018-11-26 12:54:28.793900', 'mgs': 0, 'flw2': 0.33, 'flw1': 0.97, 'flw0': 0.32, 'time': 9.73, 'compass': -65.55, 'pitch': -1.67, 'roll': -3.38}
{'lipoC2': 7.38, 'temp': 29.69, 'lipoC3S3': 11.61, 'state': 'normal', 'rot1': 12, 'rot0': 12, 'rot3': 14, 'rot2': 15, 'depth': 1.92, 'yaw': -42.31, 'datetime': '2018-11-26 12:54:29.005941', 'mgs': 0, 'flw2': 0.33, 'flw1': 0.97, 'flw0': 0.32, 'time': 9.94, 'compass': -69.94, 'pitch': -1.82, 'roll': -3.21}
{'lipoC2': 7.37, 'temp': 29.69, 'lipoC3S3': 11.6, 'state': 'normal', 'rot1': 13, 'rot0': 13, 'rot3': 14, 'rot2': 16, 'depth': 1.843, 'yaw': -46.8, 'datetime': '2018-11-26 12:54:29.216299', 'mgs': 0, 'flw2': 1.38, 'flw1': 0.97, 'flw0': 1.26, 'time': 10.15, 'compass': -74.43, 'pitch': -1.95, 'roll': -2.99}
{'lipoC2': 7.38, 'temp': 29.69, 'lipoC3S3': 11.6, 'state': 'normal', 'rot1': 15, 'rot0': 15, 'rot3': 15, 'rot2': 16, 'depth': 1.767, 'yaw': -52.37, 'datetime': '2018-11-26 12:54:29.426712', 'mgs': 0, 'flw2': 1.22, 'flw1': 1.03, 'flw0': 1.31, 'time': 10.36, 'compass': -80.0, 'pitch': -2.19, 'roll': -2.72}
{'lipoC2': 7.37, 'temp': 29.69, 'lipoC3S3': 11.55, 'state': 'normal', 'rot1': 16, 'rot0': 16, 'rot3': 15, 'rot2': 17, 'depth': 1.767, 'yaw': -59.14, 'datetime': '2018-11-26 12:54:29.637292', 'mgs': 0, 'flw2': 1.21, 'flw1': 0.97, 'flw0': 1.26, 'time': 10.57, 'compass': -86.77, 'pitch': -2.45, 'roll': -2.15}
{'lipoC2': 7.38, 'temp': 29.69, 'lipoC3S3': 11.6, 'state': 'normal', 'rot1': 18, 'rot0': 18, 'rot3': 16, 'rot2': 17, 'depth': 2.606, 'yaw': -66.61, 'datetime': '2018-11-26 12:54:29.847615', 'mgs': 0, 'flw2': 1.25, 'flw1': 1.03, 'flw0': 1.2, 'time': 10.78, 'compass': -94.24, 'pitch': -2.61, 'roll': -1.55}
{'lipoC2': 7.37, 'temp': 29.63, 'lipoC3S3': 11.6, 'state': 'normal', 'rot1': 20, 'rot0': 20, 'rot3': 16, 'rot2': 18, 'depth': 2.759, 'yaw': -74.92, 'datetime': '2018-11-26 12:54:30.059442', 'mgs': 0, 'flw2': 1.28, 'flw1': 1.03, 'flw0': 1.2, 'time': 10.99, 'compass': -102.55, 'pitch': -2.69, 'roll': -1.17}
{'lipoC2': 7.37, 'temp': 29.63, 'lipoC3S3': 11.6, 'state': 'normal', 'rot1': 21, 'rot0': 21, 'rot3': 17, 'rot2': 18, 'depth': 1.843, 'yaw': -83.13, 'datetime': '2018-11-26 12:54:30.266903', 'mgs': 0, 'flw2': 1.26, 'flw1': 1.03, 'flw0': 1.31, 'time': 11.2, 'compass': -110.75, 'pitch': -2.56, 'roll': -0.85}
{'lipoC2': 7.38, 'temp': 29.63, 'lipoC3S3': 11.6, 'state': 'normal', 'rot1': 23, 'rot0': 23, 'rot3': 17, 'rot2': 19, 'depth': 1.767, 'yaw': -91.54, 'datetime': '2018-11-26 12:54:30.479464', 'mgs': 0, 'flw2': 1.2, 'flw1': 1.05, 'flw0': 1.27, 'time': 11.41, 'compass': -119.17, 'pitch': -2.3, 'roll': -0.62}
{'lipoC2': 7.38, 'temp': 29.63, 'lipoC3S3': 11.63, 'state': 'normal', 'rot1': 25, 'rot0': 25, 'rot3': 18, 'rot2': 19, 'depth': 1.767, 'yaw': -100.07, 'datetime': '2018-11-26 12:54:30.690452', 'mgs': 0, 'flw2': 1.21, 'flw1': 1.0, 'flw0': 1.25, 'time': 11.62, 'compass': -127.7, 'pitch': -2.08, 'roll': -0.66}
{'lipoC2': 7.37, 'temp': 29.63, 'lipoC3S3': 11.6, 'state': 'normal', 'rot1': 26, 'rot0': 26, 'rot3': 18, 'rot2': 20, 'depth': 2.53, 'yaw': -108.65, 'datetime': '2018-11-26 12:54:30.899357', 'mgs': 0, 'flw2': 1.23, 'flw1': 1.03, 'flw0': 1.22, 'time': 11.83, 'compass': -136.28, 'pitch': -1.89, 'roll': -0.93}
{'lipoC2': 7.38, 'temp': 29.63, 'lipoC3S3': 11.6, 'state': 'normal', 'rot1': 28, 'rot0': 28, 'rot3': 19, 'rot2': 21, 'depth': 1.843, 'yaw': -117.34, 'datetime': '2018-11-26 12:54:31.110927', 'mgs': 0, 'flw2': 1.28, 'flw1': 1.05, 'flw0': 1.25, 'time': 12.05, 'compass': -144.96, 'pitch': -1.79, 'roll': -1.29}
{'lipoC2': 7.37, 'temp': 29.63, 'lipoC3S3': 11.6, 'state': 'normal', 'rot1': 30, 'rot0': 30, 'rot3': 19, 'rot2': 21, 'depth': 1.843, 'yaw': -126.2, 'datetime': '2018-11-26 12:54:31.319841', 'mgs': 0, 'flw2': 1.21, 'flw1': 1.03, 'flw0': 1.31, 'time': 12.26, 'compass': -153.83, 'pitch': -1.81, 'roll': -1.59}
{'lipoC2': 7.37, 'temp': 29.63, 'lipoC3S3': 11.6, 'state': 'normal', 'rot1': 32, 'rot0': 31, 'rot3': 19, 'rot2': 22, 'depth': 1.843, 'yaw': -135.22, 'datetime': '2018-11-26 12:54:31.529555', 'mgs': 0, 'flw2': 1.18, 'flw1': 1.03, 'flw0': 1.31, 'time': 12.47, 'compass': -162.85, 'pitch': -1.99, 'roll': -1.65}
{'lipoC2': 7.38, 'temp': 29.63, 'lipoC3S3': 11.48, 'state': 'normal', 'rot1': 34, 'rot0': 33, 'rot3': 20, 'rot2': 22, 'depth': 1.767, 'yaw': -144.37, 'datetime': '2018-11-26 12:54:31.741825', 'mgs': 0, 'flw2': 1.2, 'flw1': 0.97, 'flw0': 1.25, 'time': 12.68, 'compass': -172.0, 'pitch': -2.18, 'roll': -1.46}
{'lipoC2': 7.38, 'temp': 29.63, 'lipoC3S3': 11.6, 'state': 'normal', 'rot1': 36, 'rot0': 35, 'rot3': 20, 'rot2': 23, 'depth': 1.92, 'yaw': -153.61, 'datetime': '2018-11-26 12:54:31.951227', 'mgs': 0, 'flw2': 1.22, 'flw1': 1.08, 'flw0': 1.25, 'time': 12.89, 'compass': 178.77, 'pitch': -2.38, 'roll': -1.3}
{'lipoC2': 7.38, 'temp': 29.63, 'lipoC3S3': 11.59, 'state': 'normal', 'rot1': 37, 'rot0': 36, 'rot3': 21, 'rot2': 23, 'depth': 3.064, 'yaw': -162.83, 'datetime': '2018-11-26 12:54:32.160541', 'mgs': 0, 'flw2': 1.59, 'flw1': 1.08, 'flw0': 2.1, 'time': 13.1, 'compass': 169.54, 'pitch': -2.46, 'roll': -1.37}
{'lipoC2': 7.38, 'temp': 29.63, 'lipoC3S3': 11.58, 'state': 'normal', 'rot1': 40, 'rot0': 39, 'rot3': 21, 'rot2': 24, 'depth': 3.217, 'yaw': -172.96, 'datetime': '2018-11-26 12:54:32.369135', 'mgs': 0, 'flw2': 2.72, 'flw1': 1.0, 'flw0': 2.73, 'time': 13.31, 'compass': 159.42, 'pitch': -2.55, 'roll': -1.24}
{'lipoC2': 7.37, 'temp': 29.38, 'lipoC3S3': 11.6, 'state': 'normal', 'rot1': 42, 'rot0': 41, 'rot3': 22, 'rot2': 24, 'depth': 1.92, 'yaw': 175.39, 'datetime': '2018-11-26 12:54:32.579823', 'mgs': 0, 'flw2': 2.66, 'flw1': 1.05, 'flw0': 2.87, 'time': 13.52, 'compass': 147.76, 'pitch': -2.76, 'roll': -0.79}
{'lipoC2': 7.37, 'temp': 29.38, 'lipoC3S3': 11.59, 'state': 'normal', 'rot1': 44, 'rot0': 43, 'rot3': 22, 'rot2': 25, 'depth': 1.843, 'yaw': 162.98, 'datetime': '2018-11-26 12:54:32.788893', 'mgs': 0, 'flw2': 2.65, 'flw1': 1.03, 'flw0': 2.81, 'time': 13.73, 'compass': 135.35, 'pitch': -2.87, 'roll': -0.28}
{'lipoC2': 7.38, 'temp': 29.63, 'lipoC3S3': 11.46, 'state': 'normal', 'rot1': 47, 'rot0': 46, 'rot3': 23, 'rot2': 25, 'depth': 1.843, 'yaw': 150.23, 'datetime': '2018-11-26 12:54:33.000050', 'mgs': 0, 'flw2': 2.55, 'flw1': 0.94, 'flw0': 2.76, 'time': 13.94, 'compass': 122.6, 'pitch': -2.65, 'roll': 0.21}
{'lipoC2': 7.37, 'temp': 29.63, 'lipoC3S3': 11.44, 'state': 'normal', 'rot1': 49, 'rot0': 48, 'rot3': 23, 'rot2': 26, 'depth': 1.843, 'yaw': 138.0, 'datetime': '2018-11-26 12:54:33.209481', 'mgs': 0, 'flw2': 2.61, 'flw1': 0.94, 'flw0': 2.71, 'time': 14.15, 'compass': 110.37, 'pitch': -2.1, 'roll': 0.61}
{'lipoC2': 7.38, 'temp': 29.63, 'lipoC3S3': 11.46, 'state': 'normal', 'rot1': 51, 'rot0': 50, 'rot3': 24, 'rot2': 26, 'depth': 1.843, 'yaw': 124.96, 'datetime': '2018-11-26 12:54:33.419940', 'mgs': 0, 'flw2': 2.53, 'flw1': 0.94, 'flw0': 2.76, 'time': 14.36, 'compass': 97.33, 'pitch': -1.52, 'roll': 0.83}
{'lipoC2': 7.38, 'temp': 29.63, 'lipoC3S3': 11.56, 'state': 'normal', 'rot1': 54, 'rot0': 53, 'rot3': 24, 'rot2': 27, 'depth': 2.682, 'yaw': 111.82, 'datetime': '2018-11-26 12:54:33.631109', 'mgs': 0, 'flw2': 2.71, 'flw1': 1.03, 'flw0': 2.69, 'time': 14.57, 'compass': 84.19, 'pitch': -1.42, 'roll': 0.65}
{'lipoC2': 7.38, 'temp': 29.63, 'lipoC3S3': 11.58, 'state': 'normal', 'rot1': 56, 'rot0': 55, 'rot3': 25, 'rot2': 27, 'depth': 3.217, 'yaw': 98.02, 'datetime': '2018-11-26 12:54:33.840635', 'mgs': 0, 'flw2': 2.75, 'flw1': 1.08, 'flw0': 2.75, 'time': 14.78, 'compass': 70.4, 'pitch': -1.8, 'roll': 0.23}
{'lipoC2': 7.37, 'temp': 29.63, 'lipoC3S3': 11.58, 'state': 'normal', 'rot1': 58, 'rot0': 57, 'rot3': 25, 'rot2': 28, 'depth': 1.843, 'yaw': 84.79, 'datetime': '2018-11-26 12:54:34.051251', 'mgs': 0, 'flw2': 2.61, 'flw1': 1.0, 'flw0': 2.82, 'time': 14.99, 'compass': 57.17, 'pitch': -2.16, 'roll': -0.04}
{'lipoC2': 7.37, 'temp': 29.63, 'lipoC3S3': 11.58, 'state': 'normal', 'rot1': 61, 'rot0': 60, 'rot3': 26, 'rot2': 28, 'depth': 1.843, 'yaw': 72.03, 'datetime': '2018-11-26 12:54:34.261842', 'mgs': 0, 'flw2': 2.62, 'flw1': 1.03, 'flw0': 2.88, 'time': 15.2, 'compass': 44.41, 'pitch': -2.52, 'roll': -0.05}
{'lipoC2': 7.37, 'temp': 29.56, 'lipoC3S3': 11.59, 'state': 'normal', 'rot1': 63, 'rot0': 62, 'rot3': 26, 'rot2': 29, 'depth': 1.92, 'yaw': 58.62, 'datetime': '2018-11-26 12:54:34.473526', 'mgs': 0, 'flw2': 2.65, 'flw1': 1.03, 'flw0': 2.83, 'time': 15.41, 'compass': 30.99, 'pitch': -2.85, 'roll': 0.03}
{'lipoC2': 7.37, 'temp': 29.94, 'lipoC3S3': 11.6, 'state': 'normal', 'rot1': 65, 'rot0': 65, 'rot3': 27, 'rot2': 29, 'depth': 1.843, 'yaw': 44.52, 'datetime': '2018-11-26 12:54:34.685864', 'mgs': 0, 'flw2': 2.65, 'flw1': 1.0, 'flw0': 2.83, 'time': 15.62, 'compass': 16.9, 'pitch': -3.02, 'roll': 0.15}
{'lipoC2': 7.37, 'temp': 29.5, 'lipoC3S3': 11.46, 'state': 'normal', 'rot1': 68, 'rot0': 67, 'rot3': 27, 'rot2': 30, 'depth': 1.843, 'yaw': 30.94, 'datetime': '2018-11-26 12:54:34.896051', 'mgs': 0, 'flw2': 2.59, 'flw1': 0.94, 'flw0': 2.76, 'time': 15.83, 'compass': 3.32, 'pitch': -2.86, 'roll': 0.25}
{'lipoC2': 7.38, 'temp': 29.81, 'lipoC3S3': 11.56, 'state': 'normal', 'rot1': 70, 'rot0': 69, 'rot3': 28, 'rot2': 31, 'depth': 2.682, 'yaw': 17.39, 'datetime': '2018-11-26 12:54:35.105838', 'mgs': 0, 'flw2': 2.66, 'flw1': 1.05, 'flw0': 2.7, 'time': 16.04, 'compass': -10.24, 'pitch': -2.45, 'roll': 0.28}
{'lipoC2': 7.38, 'temp': 29.69, 'lipoC3S3': 11.54, 'state': 'normal', 'rot1': 73, 'rot0': 72, 'rot3': 28, 'rot2': 31, 'depth': 3.14, 'yaw': 4.14, 'datetime': '2018-11-26 12:54:35.314730', 'mgs': 0, 'flw2': 4.69, 'flw1': 1.08, 'flw0': 4.86, 'time': 16.25, 'compass': -23.48, 'pitch': -2.11, 'roll': 0.27}
{'lipoC2': 7.38, 'temp': 29.69, 'lipoC3S3': 11.55, 'state': 'normal', 'rot1': 76, 'rot0': 75, 'rot3': 29, 'rot2': 32, 'depth': 3.064, 'yaw': -11.42, 'datetime': '2018-11-26 12:54:35.526683', 'mgs': 0, 'flw2': 4.71, 'flw1': 1.08, 'flw0': 4.74, 'time': 16.46, 'compass': -39.04, 'pitch': -1.97, 'roll': 0.51}
{'lipoC2': 7.37, 'temp': 29.69, 'lipoC3S3': 11.55, 'state': 'normal', 'rot1': 79, 'rot0': 78, 'rot3': 29, 'rot2': 32, 'depth': 3.445, 'yaw': -28.6, 'datetime': '2018-11-26 12:54:35.734118', 'mgs': 0, 'flw2': 4.75, 'flw1': 0.97, 'flw0': 4.83, 'time': 16.67, 'compass': -56.22, 'pitch': -1.9, 'roll': 0.81}
{'lipoC2': 7.37, 'temp': 29.63, 'lipoC3S3': 11.56, 'state': 'normal', 'rot1': 81, 'rot0': 80, 'rot3': 30, 'rot2': 33, 'depth': 1.843, 'yaw': -45.25, 'datetime': '2018-11-26 12:54:35.943397', 'mgs': 0, 'flw2': 4.57, 'flw1': 1.0, 'flw0': 5.03, 'time': 16.89, 'compass': -72.88, 'pitch': -1.95, 'roll': 0.89}
{'lipoC2': 7.37, 'temp': 29.63, 'lipoC3S3': 11.4, 'state': 'normal', 'rot1': 84, 'rot0': 83, 'rot3': 30, 'rot2': 33, 'depth': 1.843, 'yaw': -61.79, 'datetime': '2018-11-26 12:54:36.152479', 'mgs': 0, 'flw2': 4.53, 'flw1': 0.94, 'flw0': 4.87, 'time': 17.1, 'compass': -89.42, 'pitch': -2.0, 'roll': 1.1}
{'lipoC2': 7.37, 'temp': 29.5, 'lipoC3S3': 11.46, 'state': 'normal', 'rot1': 87, 'rot0': 86, 'rot3': 31, 'rot2': 34, 'depth': 1.843, 'yaw': -78.14, 'datetime': '2018-11-26 12:54:36.362426', 'mgs': 0, 'flw2': 4.57, 'flw1': 0.94, 'flw0': 4.83, 'time': 17.31, 'compass': -105.76, 'pitch': -1.79, 'roll': 1.34}
{'lipoC2': 7.37, 'temp': 29.69, 'lipoC3S3': 11.42, 'state': 'normal', 'rot1': 90, 'rot0': 89, 'rot3': 31, 'rot2': 34, 'depth': 1.767, 'yaw': -94.66, 'datetime': '2018-11-26 12:54:36.572457', 'mgs': 0, 'flw2': 4.49, 'flw1': 0.91, 'flw0': 4.77, 'time': 17.52, 'compass': -122.29, 'pitch': -1.49, 'roll': 1.36}
{'lipoC2': 7.38, 'temp': 29.63, 'lipoC3S3': 11.54, 'state': 'normal', 'rot1': 93, 'rot0': 92, 'rot3': 32, 'rot2': 35, 'depth': 2.759, 'yaw': -111.34, 'datetime': '2018-11-26 12:54:36.787751', 'mgs': 0, 'flw2': 4.68, 'flw1': 1.05, 'flw0': 4.7, 'time': 17.73, 'compass': -138.97, 'pitch': -1.16, 'roll': 1.36}
{'lipoC2': 7.37, 'temp': 29.69, 'lipoC3S3': 11.56, 'state': 'normal', 'rot1': 97, 'rot0': 95, 'rot3': 32, 'rot2': 35, 'depth': 1.767, 'yaw': -128.08, 'datetime': '2018-11-26 12:54:37.005186', 'mgs': 0, 'flw2': 4.61, 'flw1': 1.0, 'flw0': 4.97, 'time': 17.94, 'compass': -155.7, 'pitch': -1.04, 'roll': 1.11}
{'lipoC2': 7.37, 'temp': 29.69, 'lipoC3S3': 11.39, 'state': 'normal', 'rot1': 104, 'rot0': 97, 'rot3': 33, 'rot2': 36, 'depth': 1.691, 'yaw': -144.93, 'datetime': '2018-11-26 12:54:37.207134', 'mgs': 0, 'flw2': 4.55, 'flw1': 0.97, 'flw0': 4.88, 'time': 18.15, 'compass': -172.56, 'pitch': -1.32, 'roll': 0.85}
{'lipoC2': 7.38, 'temp': 29.63, 'lipoC3S3': 11.54, 'state': 'normal', 'rot1': 107, 'rot0': 100, 'rot3': 33, 'rot2': 36, 'depth': 3.217, 'yaw': -162.0, 'datetime': '2018-11-26 12:54:37.416876', 'mgs': 0, 'flw2': 4.75, 'flw1': 1.05, 'flw0': 4.74, 'time': 18.36, 'compass': 170.38, 'pitch': -1.8, 'roll': 0.9}
{'lipoC2': 7.37, 'temp': 29.63, 'lipoC3S3': 11.51, 'state': 'normal', 'rot1': 110, 'rot0': 103, 'rot3': 33, 'rot2': 37, 'depth': 1.767, 'yaw': -179.25, 'datetime': '2018-11-26 12:54:37.633381', 'mgs': 0, 'flw2': 4.52, 'flw1': 0.94, 'flw0': 4.97, 'time': 18.57, 'compass': 153.13, 'pitch': -2.26, 'roll': 1.09}
{'lipoC2': 7.38, 'temp': 29.69, 'lipoC3S3': 11.51, 'state': 'normal', 'rot1': 113, 'rot0': 106, 'rot3': 34, 'rot2': 37, 'depth': 2.148, 'yaw': 163.37, 'datetime': '2018-11-26 12:54:37.841014', 'mgs': 0, 'flw2': 4.55, 'flw1': 0.94, 'flw0': 4.86, 'time': 18.78, 'compass': 135.75, 'pitch': -2.59, 'roll': 1.4}
{'lipoC2': 7.37, 'temp': 29.63, 'lipoC3S3': 11.51, 'state': 'normal', 'rot1': 115, 'rot0': 109, 'rot3': 34, 'rot2': 38, 'depth': 1.691, 'yaw': 145.9, 'datetime': '2018-11-26 12:54:38.053945', 'mgs': 0, 'flw2': 4.55, 'flw1': 0.94, 'flw0': 4.92, 'time': 18.99, 'compass': 118.27, 'pitch': -2.77, 'roll': 1.69}
{'lipoC2': 7.38, 'temp': 29.63, 'lipoC3S3': 11.34, 'state': 'normal', 'rot1': 119, 'rot0': 112, 'rot3': 35, 'rot2': 38, 'depth': 1.767, 'yaw': 128.49, 'datetime': '2018-11-26 12:54:38.264451', 'mgs': 0, 'flw2': 6.88, 'flw1': 0.97, 'flw0': 6.59, 'time': 19.21, 'compass': 100.86, 'pitch': -2.89, 'roll': 1.75}
{'lipoC2': 7.37, 'temp': 29.63, 'lipoC3S3': 11.52, 'state': 'normal', 'rot1': 122, 'rot0': 115, 'rot3': 35, 'rot2': 39, 'depth': 1.691, 'yaw': 110.28, 'datetime': '2018-11-26 12:54:38.473271', 'mgs': 0, 'flw2': 7.17, 'flw1': 1.0, 'flw0': 6.84, 'time': 19.42, 'compass': 82.65, 'pitch': -2.9, 'roll': 1.75}
{'lipoC2': 7.37, 'temp': 29.63, 'lipoC3S3': 11.4, 'state': 'normal', 'rot1': 126, 'rot0': 118, 'rot3': 36, 'rot2': 39, 'depth': 1.691, 'yaw': 91.4, 'datetime': '2018-11-26 12:54:38.683945', 'mgs': 0, 'flw2': 6.86, 'flw1': 0.97, 'flw0': 6.87, 'time': 19.63, 'compass': 63.78, 'pitch': -2.57, 'roll': 1.87}
{'lipoC2': 7.37, 'temp': 29.63, 'lipoC3S3': 11.44, 'state': 'normal', 'rot1': 129, 'rot0': 121, 'rot3': 36, 'rot2': 40, 'depth': 1.614, 'yaw': 72.3, 'datetime': '2018-11-26 12:54:38.895606', 'mgs': 0, 'flw2': 6.84, 'flw1': 1.0, 'flw0': 6.79, 'time': 19.84, 'compass': 44.68, 'pitch': -1.99, 'roll': 2.02}
{'lipoC2': 7.38, 'temp': 29.63, 'lipoC3S3': 11.51, 'state': 'normal', 'rot1': 133, 'rot0': 124, 'rot3': 37, 'rot2': 40, 'depth': 3.14, 'yaw': 52.9, 'datetime': '2018-11-26 12:54:39.107051', 'mgs': 0, 'flw2': 7.25, 'flw1': 1.11, 'flw0': 6.62, 'time': 20.05, 'compass': 25.28, 'pitch': -1.58, 'roll': 1.96}
{'lipoC2': 7.37, 'temp': 29.63, 'lipoC3S3': 11.51, 'state': 'normal', 'rot1': 136, 'rot0': 127, 'rot3': 37, 'rot2': 41, 'depth': 1.691, 'yaw': 33.52, 'datetime': '2018-11-26 12:54:39.317683', 'mgs': 0, 'flw2': 6.97, 'flw1': 0.97, 'flw0': 6.85, 'time': 20.26, 'compass': 5.89, 'pitch': -1.04, 'roll': 1.88}
{'lipoC2': 7.37, 'temp': 29.69, 'lipoC3S3': 11.42, 'state': 'normal', 'rot1': 140, 'rot0': 130, 'rot3': 38, 'rot2': 41, 'depth': 1.462, 'yaw': 13.91, 'datetime': '2018-11-26 12:54:39.525440', 'mgs': 0, 'flw2': 6.77, 'flw1': 0.94, 'flw0': 6.68, 'time': 20.47, 'compass': -13.72, 'pitch': -0.79, 'roll': 1.57}
{'lipoC2': 7.38, 'temp': 29.63, 'lipoC3S3': 11.29, 'state': 'normal', 'rot1': 143, 'rot0': 134, 'rot3': 38, 'rot2': 42, 'depth': 2.377, 'yaw': -5.96, 'datetime': '2018-11-26 12:54:39.739677', 'mgs': 0, 'flw2': 6.95, 'flw1': 1.0, 'flw0': 6.38, 'time': 20.68, 'compass': -33.58, 'pitch': -1.09, 'roll': 0.9}
{'lipoC2': 7.37, 'temp': 29.63, 'lipoC3S3': 11.46, 'state': 'normal', 'rot1': 147, 'rot0': 137, 'rot3': 39, 'rot2': 43, 'depth': 1.538, 'yaw': -25.88, 'datetime': '2018-11-26 12:54:39.951734', 'mgs': 0, 'flw2': 7.02, 'flw1': 0.97, 'flw0': 6.77, 'time': 20.89, 'compass': -53.5, 'pitch': -1.89, 'roll': 0.38}
{'lipoC2': 7.37, 'temp': 29.63, 'lipoC3S3': 11.38, 'state': 'normal', 'rot1': 150, 'rot0': 140, 'rot3': 39, 'rot2': 43, 'depth': 1.462, 'yaw': -45.99, 'datetime': '2018-11-26 12:54:40.162651', 'mgs': 0, 'flw2': 6.8, 'flw1': 0.97, 'flw0': 6.76, 'time': 21.1, 'compass': -73.61, 'pitch': -2.62, 'roll': 0.12}
{'lipoC2': 7.38, 'temp': 29.63, 'lipoC3S3': 11.47, 'state': 'normal', 'rot1': 154, 'rot0': 144, 'rot3': 40, 'rot2': 44, 'depth': 2.759, 'yaw': -67.08, 'datetime': '2018-11-26 12:54:40.373927', 'mgs': 0, 'flw2': 7.06, 'flw1': 1.11, 'flw0': 6.46, 'time': 21.32, 'compass': -94.71, 'pitch': -3.39, 'roll': 0.37}
{'lipoC2': 7.37, 'temp': 29.63, 'lipoC3S3': 11.52, 'state': 'normal', 'rot1': 157, 'rot0': 147, 'rot3': 40, 'rot2': 44, 'depth': 1.691, 'yaw': -87.33, 'datetime': '2018-11-26 12:54:40.583659', 'mgs': 0, 'flw2': 7.07, 'flw1': 1.0, 'flw0': 6.71, 'time': 21.53, 'compass': -114.96, 'pitch': -4.04, 'roll': 0.7}
{'lipoC2': 7.38, 'temp': 29.69, 'lipoC3S3': 11.55, 'state': 'normal', 'rot1': 161, 'rot0': 150, 'rot3': 41, 'rot2': 45, 'depth': 1.767, 'yaw': -107.61, 'datetime': '2018-11-26 12:54:40.794714', 'mgs': 0, 'flw2': 6.77, 'flw1': 0.97, 'flw0': 6.6, 'time': 21.74, 'compass': -135.23, 'pitch': -4.28, 'roll': 0.82}
{'lipoC2': 7.37, 'temp': 29.69, 'lipoC3S3': 11.43, 'state': 'normal', 'rot1': 175, 'rot0': 153, 'rot3': 41, 'rot2': 45, 'depth': 1.385, 'yaw': -127.95, 'datetime': '2018-11-26 12:54:41.005873', 'mgs': 0, 'flw2': 6.96, 'flw1': 1.0, 'flw0': 6.7, 'time': 21.95, 'compass': -155.58, 'pitch': -4.35, 'roll': 1.08}
{'lipoC2': 7.38, 'temp': 29.63, 'lipoC3S3': 11.36, 'state': 'normal', 'rot1': 198, 'rot0': 157, 'rot3': 42, 'rot2': 46, 'depth': 1.462, 'yaw': -148.35, 'datetime': '2018-11-26 12:54:41.217667', 'mgs': 0, 'flw2': 7.87, 'flw1': 0.94, 'flw0': 7.74, 'time': 22.16, 'compass': -175.98, 'pitch': -3.99, 'roll': 1.09}
{'lipoC2': 7.37, 'temp': 29.69, 'lipoC3S3': 11.47, 'state': 'normal', 'rot1': 202, 'rot0': 160, 'rot3': 42, 'rot2': 46, 'depth': 1.462, 'yaw': -169.3, 'datetime': '2018-11-26 12:54:41.429323', 'mgs': 0, 'flw2': 9.47, 'flw1': 1.0, 'flw0': 8.58, 'time': 22.37, 'compass': 163.08, 'pitch': -3.52, 'roll': 0.76}
{'lipoC2': 7.38, 'temp': 29.69, 'lipoC3S3': 11.48, 'state': 'normal', 'rot1': 206, 'rot0': 164, 'rot3': 43, 'rot2': 47, 'depth': 2.988, 'yaw': 168.61, 'datetime': '2018-11-26 12:54:41.637881', 'mgs': 0, 'flw2': 9.55, 'flw1': 1.03, 'flw0': 8.23, 'time': 22.58, 'compass': 140.98, 'pitch': -3.64, 'roll': 0.44}
{'lipoC2': 7.37, 'temp': 29.63, 'lipoC3S3': 11.5, 'state': 'normal', 'rot1': 210, 'rot0': 167, 'rot3': 43, 'rot2': 47, 'depth': 2.148, 'yaw': 146.22, 'datetime': '2018-11-26 12:54:41.848446', 'mgs': 0, 'flw2': 9.25, 'flw1': 1.08, 'flw0': 8.23, 'time': 22.8, 'compass': 118.6, 'pitch': -3.79, 'roll': 0.61}
{'lipoC2': 7.38, 'temp': 29.63, 'lipoC3S3': 11.29, 'state': 'normal', 'rot1': 213, 'rot0': 171, 'rot3': 44, 'rot2': 48, 'depth': 2.682, 'yaw': 123.65, 'datetime': '2018-11-26 12:54:42.061407', 'mgs': 0, 'flw2': 9.23, 'flw1': 1.08, 'flw0': 8.14, 'time': 23.01, 'compass': 96.03, 'pitch': -3.37, 'roll': 0.84}
{'lipoC2': 7.38, 'temp': 29.63, 'lipoC3S3': 11.5, 'state': 'normal', 'rot1': 217, 'rot0': 175, 'rot3': 44, 'rot2': 48, 'depth': 2.301, 'yaw': 100.91, 'datetime': '2018-11-26 12:54:42.272742', 'mgs': 0, 'flw2': 9.23, 'flw1': 1.03, 'flw0': 8.34, 'time': 23.22, 'compass': 73.28, 'pitch': -2.72, 'roll': 0.44}
{'lipoC2': 7.37, 'temp': 29.69, 'lipoC3S3': 11.38, 'state': 'normal', 'rot1': 221, 'rot0': 178, 'rot3': 45, 'rot2': 49, 'depth': 1.233, 'yaw': 77.92, 'datetime': '2018-11-26 12:54:42.481205', 'mgs': 0, 'flw2': 8.87, 'flw1': 1.0, 'flw0': 8.4, 'time': 23.43, 'compass': 50.29, 'pitch': -2.34, 'roll': -0.42}
{'lipoC2': 7.37, 'temp': 29.63, 'lipoC3S3': 11.47, 'state': 'normal', 'rot1': 225, 'rot0': 182, 'rot3': 45, 'rot2': 49, 'depth': 1.996, 'yaw': 54.72, 'datetime': '2018-11-26 12:54:42.693930', 'mgs': 0, 'flw2': 9.34, 'flw1': 1.05, 'flw0': 8.08, 'time': 23.64, 'compass': 27.09, 'pitch': -2.68, 'roll': -1.05}
{'lipoC2': 7.38, 'temp': 29.63, 'lipoC3S3': 11.34, 'state': 'normal', 'rot1': 229, 'rot0': 186, 'rot3': 45, 'rot2': 50, 'depth': 1.157, 'yaw': 31.63, 'datetime': '2018-11-26 12:54:42.910468', 'mgs': 0, 'flw2': 8.98, 'flw1': 0.97, 'flw0': 8.34, 'time': 23.85, 'compass': 4.01, 'pitch': -3.4, 'roll': -1.76}
{'lipoC2': 7.38, 'temp': 29.69, 'lipoC3S3': 11.29, 'state': 'normal', 'rot1': 233, 'rot0': 189, 'rot3': 46, 'rot2': 50, 'depth': 1.157, 'yaw': 8.55, 'datetime': '2018-11-26 12:54:43.118822', 'mgs': 0, 'flw2': 9.2, 'flw1': 0.94, 'flw0': 8.46, 'time': 24.06, 'compass': -19.08, 'pitch': -4.21, 'roll': -2.45}
{'lipoC2': 7.38, 'temp': 29.69, 'lipoC3S3': 11.36, 'state': 'normal', 'rot1': 237, 'rot0': 193, 'rot3': 46, 'rot2': 51, 'depth': 2.759, 'yaw': -15.85, 'datetime': '2018-11-26 12:54:43.329779', 'mgs': 0, 'flw2': 9.03, 'flw1': 1.05, 'flw0': 8.22, 'time': 24.27, 'compass': -43.47, 'pitch': -4.94, 'roll': -2.97}
{'lipoC2': 7.37, 'temp': 29.63, 'lipoC3S3': 11.47, 'state': 'normal', 'rot1': 240, 'rot0': 196, 'rot3': 47, 'rot2': 51, 'depth': 2.148, 'yaw': -39.23, 'datetime': '2018-11-26 12:54:43.538831', 'mgs': 0, 'flw2': 9.24, 'flw1': 1.05, 'flw0': 8.31, 'time': 24.48, 'compass': -66.86, 'pitch': -5.51, 'roll': -2.89}
{'lipoC2': 7.38, 'temp': 29.63, 'lipoC3S3': 11.34, 'state': 'normal', 'rot1': 244, 'rot0': 200, 'rot3': 47, 'rot2': 52, 'depth': 1.157, 'yaw': -62.76, 'datetime': '2018-11-26 12:54:43.747232', 'mgs': 0, 'flw2': 8.84, 'flw1': 0.97, 'flw0': 8.61, 'time': 24.69, 'compass': -90.38, 'pitch': -5.65, 'roll': -2.67}
{'lipoC2': 7.38, 'temp': 29.69, 'lipoC3S3': 11.47, 'state': 'normal', 'rot1': 248, 'rot0': 204, 'rot3': 48, 'rot2': 52, 'depth': 1.996, 'yaw': -86.36, 'datetime': '2018-11-26 12:54:43.960324', 'mgs': 0, 'flw2': 9.23, 'flw1': 1.05, 'flw0': 8.33, 'time': 24.91, 'compass': -113.99, 'pitch': -5.69, 'roll': -2.27}
{'lipoC2': 7.38, 'temp': 29.63, 'lipoC3S3': 11.44, 'state': 'normal', 'rot1': 252, 'rot0': 207, 'rot3': 48, 'rot2': 52, 'depth': 2.606, 'yaw': -110.11, 'datetime': '2018-11-26 12:54:44.171989', 'mgs': 0, 'flw2': 9.48, 'flw1': 1.08, 'flw0': 8.19, 'time': 25.12, 'compass': -137.74, 'pitch': -5.76, 'roll': -2.05}
{'lipoC2': 7.38, 'temp': 29.63, 'lipoC3S3': 11.25, 'state': 'normal', 'rot1': 274, 'rot0': 211, 'rot3': 49, 'rot2': 53, 'depth': 2.682, 'yaw': -133.61, 'datetime': '2018-11-26 12:54:44.385264', 'mgs': 0, 'flw2': 11.28, 'flw1': 1.05, 'flw0': 10.33, 'time': 25.33, 'compass': -161.24, 'pitch': -5.92, 'roll': -1.91}
{'lipoC2': 7.38, 'temp': 29.69, 'lipoC3S3': 11.23, 'state': 'normal', 'rot1': 274, 'rot0': 216, 'rot3': 49, 'rot2': 53, 'depth': 1.92, 'yaw': -157.94, 'datetime': '2018-11-26 12:54:44.596512', 'mgs': 0, 'flw2': 11.32, 'flw1': 0.97, 'flw0': 9.77, 'time': 25.54, 'compass': 174.43, 'pitch': -6.15, 'roll': -1.61}
{'lipoC2': 7.37, 'temp': 29.63, 'lipoC3S3': 11.44, 'state': 'normal', 'rot1': 283, 'rot0': 220, 'rot3': 50, 'rot2': 54, 'depth': 2.911, 'yaw': 177.52, 'datetime': '2018-11-26 12:54:44.804757', 'mgs': 0, 'flw2': 11.34, 'flw1': 1.03, 'flw0': 10.11, 'time': 25.75, 'compass': 149.9, 'pitch': -6.24, 'roll': -1.32}
{'lipoC2': 7.38, 'temp': 29.69, 'lipoC3S3': 11.26, 'state': 'normal', 'rot1': 287, 'rot0': 224, 'rot3': 50, 'rot2': 54, 'depth': 1.157, 'yaw': 152.84, 'datetime': '2018-11-26 12:54:45.015660', 'mgs': 0, 'flw2': 11.11, 'flw1': 0.97, 'flw0': 9.94, 'time': 25.96, 'compass': 125.22, 'pitch': -5.9, 'roll': -1.01}
{'lipoC2': 7.38, 'temp': 29.69, 'lipoC3S3': 11.46, 'state': 'normal', 'rot1': 291, 'rot0': 228, 'rot3': 51, 'rot2': 55, 'depth': 2.911, 'yaw': 128.12, 'datetime': '2018-11-26 12:54:45.226907', 'mgs': 0, 'flw2': 11.25, 'flw1': 1.11, 'flw0': 10.34, 'time': 26.17, 'compass': 100.49, 'pitch': -5.23, 'roll': -1.08}
{'lipoC2': 7.38, 'temp': 29.69, 'lipoC3S3': 11.46, 'state': 'normal', 'rot1': 296, 'rot0': 232, 'rot3': 51, 'rot2': 55, 'depth': 0.851, 'yaw': 103.45, 'datetime': '2018-11-26 12:54:45.437885', 'mgs': 0, 'flw2': 11.22, 'flw1': 1.0, 'flw0': 10.24, 'time': 26.39, 'compass': 75.82, 'pitch': -5.0, 'roll': -1.52}
{'lipoC2': 7.38, 'temp': 29.69, 'lipoC3S3': 11.4, 'state': 'normal', 'rot1': 300, 'rot0': 236, 'rot3': 52, 'rot2': 56, 'depth': 2.377, 'yaw': 78.96, 'datetime': '2018-11-26 12:54:45.648373', 'mgs': 0, 'flw2': 11.32, 'flw1': 1.03, 'flw0': 9.96, 'time': 26.6, 'compass': 51.33, 'pitch': -4.99, 'roll': -1.79}
{'lipoC2': 7.38, 'temp': 29.69, 'lipoC3S3': 11.27, 'state': 'normal', 'rot1': 304, 'rot0': 240, 'rot3': 52, 'rot2': 56, 'depth': 1.767, 'yaw': 54.68, 'datetime': '2018-11-26 12:54:45.861046', 'mgs': 0, 'flw2': 11.28, 'flw1': 1.03, 'flw0': 10.01, 'time': 26.81, 'compass': 27.06, 'pitch': -5.4, 'roll': -2.11}
{'lipoC2': 7.38, 'temp': 29.69, 'lipoC3S3': 11.34, 'state': 'normal', 'rot1': 308, 'rot0': 244, 'rot3': 53, 'rot2': 57, 'depth': 1.157, 'yaw': 29.16, 'datetime': '2018-11-26 12:54:46.069945', 'mgs': 0, 'flw2': 11.07, 'flw1': 0.91, 'flw0': 10.16, 'time': 27.02, 'compass': 1.53, 'pitch': -6.14, 'roll': -2.04}
{'lipoC2': 7.38, 'temp': 29.63, 'lipoC3S3': 11.26, 'state': 'normal', 'rot1': 312, 'rot0': 248, 'rot3': 53, 'rot2': 57, 'depth': 2.301, 'yaw': 4.77, 'datetime': '2018-11-26 12:54:46.281559', 'mgs': 0, 'flw2': 11.07, 'flw1': 0.97, 'flw0': 9.97, 'time': 27.23, 'compass': -22.85, 'pitch': -6.53, 'roll': -1.47}
{'lipoC2': 7.37, 'temp': 29.63, 'lipoC3S3': 11.4, 'state': 'normal', 'rot1': 316, 'rot0': 252, 'rot3': 54, 'rot2': 58, 'depth': 2.835, 'yaw': -19.54, 'datetime': '2018-11-26 12:54:46.490210', 'mgs': 0, 'flw2': 11.5, 'flw1': 1.03, 'flw0': 9.95, 'time': 27.44, 'compass': -47.16, 'pitch': -6.51, 'roll': -1.25}
{'lipoC2': 7.37, 'temp': 29.69, 'lipoC3S3': 11.46, 'state': 'normal', 'rot1': 321, 'rot0': 256, 'rot3': 54, 'rot2': 58, 'depth': 3.064, 'yaw': -43.79, 'datetime': '2018-11-26 12:54:46.701900', 'mgs': 0, 'flw2': 11.39, 'flw1': 1.08, 'flw0': 10.23, 'time': 27.65, 'compass': -71.42, 'pitch': -6.18, 'roll': -1.74}
{'lipoC2': 7.38, 'temp': 29.69, 'lipoC3S3': 11.31, 'state': 'normal', 'rot1': 325, 'rot0': 260, 'rot3': 55, 'rot2': 59, 'depth': 1.996, 'yaw': -68.09, 'datetime': '2018-11-26 12:54:46.913113', 'mgs': 0, 'flw2': 11.16, 'flw1': 0.94, 'flw0': 9.94, 'time': 27.86, 'compass': -95.72, 'pitch': -5.82, 'roll': -2.01}
{'lipoC2': 7.37, 'temp': 29.69, 'lipoC3S3': 11.31, 'state': 'normal', 'rot1': 329, 'rot0': 263, 'rot3': 55, 'rot2': 59, 'depth': 1.309, 'yaw': -92.41, 'datetime': '2018-11-26 12:54:47.124714', 'mgs': 0, 'flw2': 11.28, 'flw1': 0.94, 'flw0': 10.14, 'time': 28.08, 'compass': -120.04, 'pitch': -5.71, 'roll': -1.9}
{'lipoC2': 7.38, 'temp': 29.69, 'lipoC3S3': 11.39, 'state': 'normal', 'rot1': 341, 'rot0': 267, 'rot3': 56, 'rot2': 60, 'depth': 2.759, 'yaw': -116.88, 'datetime': '2018-11-26 12:54:47.336864', 'mgs': 0, 'flw2': 12.49, 'flw1': 1.2, 'flw0': 11.8, 'time': 28.28, 'compass': -144.51, 'pitch': -5.92, 'roll': -1.42}
{'lipoC2': 7.37, 'temp': 29.69, 'lipoC3S3': 11.31, 'state': 'normal', 'rot1': 357, 'rot0': 272, 'rot3': 56, 'rot2': 60, 'depth': 2.072, 'yaw': -142.3, 'datetime': '2018-11-26 12:54:47.541353', 'mgs': 0, 'flw2': 12.49, 'flw1': 1.0, 'flw0': 11.83, 'time': 28.5, 'compass': -169.92, 'pitch': -6.08, 'roll': -1.06}
{'lipoC2': 7.37, 'temp': 29.69, 'lipoC3S3': 11.29, 'state': 'normal', 'rot1': 363, 'rot0': 277, 'rot3': 57, 'rot2': 61, 'depth': 2.911, 'yaw': -167.76, 'datetime': '2018-11-26 12:54:47.753134', 'mgs': 0, 'flw2': 12.49, 'flw1': 0.88, 'flw0': 12.22, 'time': 28.71, 'compass': 164.62, 'pitch': -6.11, 'roll': -0.98}
{'lipoC2': 7.4, 'temp': 29.63, 'lipoC3S3': 11.22, 'state': 'normal', 'rot1': 377, 'rot0': 281, 'rot3': 57, 'rot2': 61, 'depth': 2.988, 'yaw': 166.44, 'datetime': '2018-11-26 12:54:47.966113', 'mgs': 0, 'flw2': 12.49, 'flw1': 1.03, 'flw0': 11.95, 'time': 28.92, 'compass': 138.81, 'pitch': -6.0, 'roll': -1.02}
{'lipoC2': 7.37, 'temp': 29.63, 'lipoC3S3': 11.29, 'state': 'normal', 'rot1': 381, 'rot0': 286, 'rot3': 58, 'rot2': 62, 'depth': 2.148, 'yaw': 140.46, 'datetime': '2018-11-26 12:54:48.174671', 'mgs': 0, 'flw2': 12.49, 'flw1': 1.03, 'flw0': 12.1, 'time': 29.13, 'compass': 112.84, 'pitch': -5.68, 'roll': -1.24}
{'lipoC2': 7.38, 'temp': 29.63, 'lipoC3S3': 11.31, 'state': 'normal', 'rot1': 386, 'rot0': 291, 'rot3': 58, 'rot2': 62, 'depth': 1.233, 'yaw': 114.29, 'datetime': '2018-11-26 12:54:48.387442', 'mgs': 0, 'flw2': 12.49, 'flw1': 1.0, 'flw0': 11.89, 'time': 29.34, 'compass': 86.66, 'pitch': -5.85, 'roll': -1.37}
{'lipoC2': 7.38, 'temp': 29.63, 'lipoC3S3': 11.34, 'state': 'normal', 'rot1': 391, 'rot0': 295, 'rot3': 59, 'rot2': 63, 'depth': 2.911, 'yaw': 87.98, 'datetime': '2018-11-26 12:54:48.597022', 'mgs': 0, 'flw2': 12.49, 'flw1': 1.11, 'flw0': 11.68, 'time': 29.55, 'compass': 60.35, 'pitch': -6.45, 'roll': -1.25}
{'lipoC2': 7.38, 'temp': 29.63, 'lipoC3S3': 11.22, 'state': 'normal', 'rot1': 395, 'rot0': 300, 'rot3': 59, 'rot2': 63, 'depth': 1.233, 'yaw': 61.62, 'datetime': '2018-11-26 12:54:48.807356', 'mgs': 0, 'flw2': 12.49, 'flw1': 0.97, 'flw0': 12.19, 'time': 29.76, 'compass': 33.99, 'pitch': -6.84, 'roll': -0.93}
{'lipoC2': 7.36, 'temp': 29.63, 'lipoC3S3': 11.3, 'state': 'normal', 'rot1': 399, 'rot0': 304, 'rot3': 59, 'rot2': 64, 'depth': 2.988, 'yaw': 35.63, 'datetime': '2018-11-26 12:54:49.018658', 'mgs': 0, 'flw2': 12.49, 'flw1': 1.08, 'flw0': 11.96, 'time': 29.98, 'compass': 8.0, 'pitch': -6.81, 'roll': -0.86}
{'lipoC2': 7.37, 'temp': 29.69, 'lipoC3S3': 11.26, 'state': 'normal', 'rot1': 404, 'rot0': 308, 'rot3': 60, 'rot2': 64, 'depth': 3.674, 'yaw': 8.75, 'datetime': '2018-11-26 12:54:49.231831', 'mgs': 0, 'flw2': 12.49, 'flw1': 0.94, 'flw0': 12.3, 'time': 30.19, 'compass': -18.88, 'pitch': -7.01, 'roll': -0.98}
{'lipoC2': 7.38, 'temp': 29.69, 'lipoC3S3': 11.29, 'state': 'normal', 'rot1': 409, 'rot0': 312, 'rot3': 60, 'rot2': 65, 'depth': 2.301, 'yaw': -17.14, 'datetime': '2018-11-26 12:54:49.442710', 'mgs': 0, 'flw2': 12.49, 'flw1': 1.03, 'flw0': 11.79, 'time': 30.4, 'compass': -44.77, 'pitch': -7.14, 'roll': -0.97}
{'lipoC2': 7.38, 'temp': 29.69, 'lipoC3S3': 11.19, 'state': 'normal', 'rot1': 413, 'rot0': 317, 'rot3': 61, 'rot2': 65, 'depth': 1.996, 'yaw': -43.24, 'datetime': '2018-11-26 12:54:49.652466', 'mgs': 0, 'flw2': 12.49, 'flw1': 1.0, 'flw0': 11.95, 'time': 30.61, 'compass': -70.87, 'pitch': -7.1, 'roll': -0.8}
{'lipoC2': 7.37, 'temp': 29.75, 'lipoC3S3': 11.4, 'state': 'normal', 'rot1': 418, 'rot0': 322, 'rot3': 61, 'rot2': 66, 'depth': 2.835, 'yaw': -69.26, 'datetime': '2018-11-26 12:54:49.862515', 'mgs': 0, 'flw2': 12.49, 'flw1': 1.05, 'flw0': 12.0, 'time': 30.82, 'compass': -96.89, 'pitch': -6.82, 'roll': -1.09}
{'lipoC2': 7.38, 'temp': 29.69, 'lipoC3S3': 11.36, 'state': 'normal', 'rot1': 423, 'rot0': 327, 'rot3': 62, 'rot2': 66, 'depth': 2.835, 'yaw': -95.19, 'datetime': '2018-11-26 12:54:50.074320', 'mgs': 0, 'flw2': 12.49, 'flw1': 1.05, 'flw0': 11.82, 'time': 31.03, 'compass': -122.82, 'pitch': -6.79, 'roll': -1.16}
{'lipoC2': 7.38, 'temp': 29.69, 'lipoC3S3': 11.19, 'state': 'normal', 'rot1': 434, 'rot0': 332, 'rot3': 62, 'rot2': 67, 'depth': 1.309, 'yaw': -121.04, 'datetime': '2018-11-26 12:54:50.284436', 'mgs': 0, 'flw2': 12.49, 'flw1': 0.88, 'flw0': 12.49, 'time': 31.24, 'compass': -148.66, 'pitch': -6.77, 'roll': -1.35}
{'lipoC2': 7.37, 'temp': 29.75, 'lipoC3S3': 11.29, 'state': 'normal', 'rot1': 454, 'rot0': 337, 'rot3': 63, 'rot2': 67, 'depth': 3.064, 'yaw': -147.68, 'datetime': '2018-11-26 12:54:50.497456', 'mgs': 0, 'flw2': 12.49, 'flw1': 0.94, 'flw0': 12.49, 'time': 31.45, 'compass': -175.3, 'pitch': -7.07, 'roll': -1.58}
{'lipoC2': 7.38, 'temp': 29.75, 'lipoC3S3': 11.19, 'state': 'normal', 'rot1': 455, 'rot0': 343, 'rot3': 63, 'rot2': 68, 'depth': 2.911, 'yaw': -174.81, 'datetime': '2018-11-26 12:54:50.709088', 'mgs': 0, 'flw2': 12.49, 'flw1': 1.05, 'flw0': 12.49, 'time': 31.67, 'compass': 157.56, 'pitch': -7.61, 'roll': -1.07}
{'lipoC2': 7.37, 'temp': 29.75, 'lipoC3S3': 11.35, 'state': 'normal', 'rot1': 471, 'rot0': 349, 'rot3': 64, 'rot2': 68, 'depth': 3.064, 'yaw': 158.08, 'datetime': '2018-11-26 12:54:50.919741', 'mgs': 0, 'flw2': 12.49, 'flw1': 0.97, 'flw0': 12.49, 'time': 31.88, 'compass': 130.46, 'pitch': -7.42, 'roll': -0.37}
{'lipoC2': 7.38, 'temp': 29.69, 'lipoC3S3': 11.19, 'state': 'normal', 'rot1': 476, 'rot0': 354, 'rot3': 64, 'rot2': 68, 'depth': 2.072, 'yaw': 131.25, 'datetime': '2018-11-26 12:54:51.130448', 'mgs': 0, 'flw2': 12.49, 'flw1': 0.88, 'flw0': 12.49, 'time': 32.09, 'compass': 103.62, 'pitch': -6.9, 'roll': -0.4}
{'lipoC2': 7.38, 'temp': 29.69, 'lipoC3S3': 11.19, 'state': 'normal', 'rot1': 481, 'rot0': 359, 'rot3': 65, 'rot2': 69, 'depth': 1.996, 'yaw': 104.36, 'datetime': '2018-11-26 12:54:51.341389', 'mgs': 0, 'flw2': 12.49, 'flw1': 1.05, 'flw0': 12.49, 'time': 32.3, 'compass': 76.74, 'pitch': -7.07, 'roll': -0.51}
{'lipoC2': 7.38, 'temp': 29.69, 'lipoC3S3': 11.36, 'state': 'normal', 'rot1': 486, 'rot0': 365, 'rot3': 65, 'rot2': 69, 'depth': 3.064, 'yaw': 77.39, 'datetime': '2018-11-26 12:54:51.551071', 'mgs': 0, 'flw2': 12.49, 'flw1': 0.88, 'flw0': 12.49, 'time': 32.51, 'compass': 49.76, 'pitch': -7.49, 'roll': 0.14}
{'lipoC2': 7.37, 'temp': 29.75, 'lipoC3S3': 11.15, 'state': 'normal', 'rot1': 490, 'rot0': 370, 'rot3': 66, 'rot2': 70, 'depth': 2.759, 'yaw': 50.6, 'datetime': '2018-11-26 12:54:51.763393', 'mgs': 0, 'flw2': 12.49, 'flw1': 1.0, 'flw0': 12.49, 'time': 32.72, 'compass': 22.98, 'pitch': -7.28, 'roll': 0.26}
{'lipoC2': 7.38, 'temp': 29.75, 'lipoC3S3': 11.26, 'state': 'normal', 'rot1': 495, 'rot0': 374, 'rot3': 66, 'rot2': 70, 'depth': 2.454, 'yaw': 23.6, 'datetime': '2018-11-26 12:54:51.975260', 'mgs': 0, 'flw2': 12.49, 'flw1': 1.05, 'flw0': 12.49, 'time': 32.93, 'compass': -4.02, 'pitch': -7.1, 'roll': -0.34}
{'lipoC2': 7.38, 'temp': 29.75, 'lipoC3S3': 11.35, 'state': 'normal', 'rot1': 501, 'rot0': 379, 'rot3': 67, 'rot2': 71, 'depth': 0.775, 'yaw': -3.77, 'datetime': '2018-11-26 12:54:52.185340', 'mgs': 0, 'flw2': 12.49, 'flw1': 1.05, 'flw0': 12.49, 'time': 33.14, 'compass': -31.4, 'pitch': -7.31, 'roll': -0.8}
{'lipoC2': 7.38, 'temp': 29.75, 'lipoC3S3': 11.17, 'state': 'normal', 'rot1': 505, 'rot0': 384, 'rot3': 67, 'rot2': 71, 'depth': 2.835, 'yaw': -32.98, 'datetime': '2018-11-26 12:54:52.396226', 'mgs': 0, 'flw2': 12.49, 'flw1': 1.05, 'flw0': 12.49, 'time': 33.35, 'compass': -60.6, 'pitch': -7.51, 'roll': -0.77}
{'lipoC2': 7.38, 'temp': 29.69, 'lipoC3S3': 11.15, 'state': 'normal', 'rot1': 510, 'rot0': 389, 'rot3': 68, 'rot2': 72, 'depth': 2.988, 'yaw': -60.99, 'datetime': '2018-11-26 12:54:52.606970', 'mgs': 0, 'flw2': 12.49, 'flw1': 0.97, 'flw0': 12.49, 'time': 33.56, 'compass': -88.62, 'pitch': -7.73, 'roll': -0.97}
{'lipoC2': 7.38, 'temp': 29.75, 'lipoC3S3': 11.19, 'state': 'normal', 'rot1': 516, 'rot0': 395, 'rot3': 68, 'rot2': 72, 'depth': 3.14, 'yaw': -88.86, 'datetime': '2018-11-26 12:54:52.819378', 'mgs': 0, 'flw2': 12.49, 'flw1': 0.97, 'flw0': 12.49, 'time': 33.78, 'compass': -116.48, 'pitch': -7.26, 'roll': -1.52}
{'lipoC2': 7.37, 'temp': 29.75, 'lipoC3S3': 11.19, 'state': 'normal', 'rot1': 521, 'rot0': 399, 'rot3': 69, 'rot2': 73, 'depth': 3.598, 'yaw': -116.63, 'datetime': '2018-11-26 12:54:53.035249', 'mgs': 0, 'flw2': 12.49, 'flw1': 1.0, 'flw0': 12.49, 'time': 33.99, 'compass': -144.26, 'pitch': -6.98, 'roll': -2.02}
{'lipoC2': 7.38, 'temp': 29.75, 'lipoC3S3': 11.17, 'state': 'normal', 'rot1': 526, 'rot0': 404, 'rot3': 69, 'rot2': 73, 'depth': 3.064, 'yaw': -144.03, 'datetime': '2018-11-26 12:54:53.266583', 'mgs': 0, 'flw2': 12.49, 'flw1': 1.03, 'flw0': 12.49, 'time': 34.2, 'compass': -171.66, 'pitch': -7.05, 'roll': -1.93}
{'lipoC2': 7.37, 'temp': 29.75, 'lipoC3S3': 11.5, 'state': 'normal', 'rot1': 526, 'rot0': 405, 'rot3': 69, 'rot2': 73, 'depth': 1.157, 'yaw': -177.1, 'datetime': '2018-11-26 12:54:53.553708', 'mgs': 0, 'flw2': 0.0, 'flw1': 0.0, 'flw0': 0.0, 'time': 34.52, 'compass': 155.27, 'pitch': -5.24, 'roll': -3.1}
{'lipoC2': 7.37, 'temp': 29.69, 'lipoC3S3': 11.5, 'state': 'normal', 'rot1': 529, 'rot0': 405, 'rot3': 69, 'rot2': 73, 'depth': 1.08, 'yaw': 168.27, 'datetime': '2018-11-26 12:54:53.765946', 'mgs': 0, 'flw2': 0.0, 'flw1': 0.0, 'flw0': 0.0, 'time': 34.73, 'compass': 140.65, 'pitch': -2.87, 'roll': -5.37}
{'lipoC2': 7.37, 'temp': 29.75, 'lipoC3S3': 11.51, 'state': 'normal', 'rot1': 529, 'rot0': 405, 'rot3': 69, 'rot2': 73, 'depth': 1.004, 'yaw': 156.4, 'datetime': '2018-11-26 12:54:53.976066', 'mgs': 0, 'flw2': 0.0, 'flw1': 0.0, 'flw0': 0.0, 'time': 34.94, 'compass': 128.77, 'pitch': -1.55, 'roll': -6.68}
{'lipoC2': 7.37, 'temp': 30.25, 'lipoC3S3': 11.51, 'state': 'normal', 'rot1': 529, 'rot0': 405, 'rot3': 69, 'rot2': 73, 'depth': 1.004, 'yaw': 145.81, 'datetime': '2018-11-26 12:54:54.192405', 'mgs': 0, 'flw2': 0.0, 'flw1': 0.0, 'flw0': 0.0, 'time': 35.15, 'compass': 118.19, 'pitch': -1.1, 'roll': -6.72}
{'lipoC2': 7.37, 'temp': 30.25, 'lipoC3S3': 11.51, 'state': 'normal', 'rot1': 529, 'rot0': 405, 'rot3': 69, 'rot2': 73, 'depth': 0.928, 'yaw': 137.06, 'datetime': '2018-11-26 12:54:54.403553', 'mgs': 0, 'flw2': 0.0, 'flw1': 0.0, 'flw0': 0.0, 'time': 35.36, 'compass': 109.44, 'pitch': -0.97, 'roll': -6.23}
{'lipoC2': 7.37, 'temp': 29.69, 'lipoC3S3': 11.52, 'state': 'normal', 'rot1': 529, 'rot0': 405, 'rot3': 69, 'rot2': 73, 'depth': 1.004, 'yaw': 129.87, 'datetime': '2018-11-26 12:54:54.612221', 'mgs': 0, 'flw2': 0.0, 'flw1': 0.0, 'flw0': 0.0, 'time': 35.57, 'compass': 102.24, 'pitch': -0.59, 'roll': -5.9}
{'lipoC2': 7.37, 'temp': 29.75, 'lipoC3S3': 11.52, 'state': 'normal', 'rot1': 529, 'rot0': 405, 'rot3': 69, 'rot2': 73, 'depth': 1.004, 'yaw': 123.17, 'datetime': '2018-11-26 12:54:54.824022', 'mgs': 0, 'flw2': 0.0, 'flw1': 0.0, 'flw0': 0.0, 'time': 35.78, 'compass': 95.55, 'pitch': -0.14, 'roll': -5.78}
{'lipoC2': 7.37, 'temp': 29.75, 'lipoC3S3': 11.52, 'state': 'normal', 'rot1': 529, 'rot0': 405, 'rot3': 69, 'rot2': 73, 'depth': 1.004, 'yaw': 117.26, 'datetime': '2018-11-26 12:54:55.034820', 'mgs': 0, 'flw2': 0.0, 'flw1': 0.0, 'flw0': 0.0, 'time': 35.99, 'compass': 89.63, 'pitch': 0.02, 'roll': -5.8}
{'lipoC2': 7.37, 'temp': 29.69, 'lipoC3S3': 11.54, 'state': 'normal', 'rot1': 529, 'rot0': 405, 'rot3': 69, 'rot2': 73, 'depth': 1.08, 'yaw': 111.91, 'datetime': '2018-11-26 12:54:55.244048', 'mgs': 0, 'flw2': 0.0, 'flw1': 0.0, 'flw0': 0.0, 'time': 36.2, 'compass': 84.28, 'pitch': -0.02, 'roll': -5.5}
{'lipoC2': 7.37, 'temp': 29.69, 'lipoC3S3': 11.54, 'state': 'normal', 'rot1': 529, 'rot0': 405, 'rot3': 69, 'rot2': 73, 'depth': 1.08, 'yaw': 106.97, 'datetime': '2018-11-26 12:54:55.454906', 'mgs': 0, 'flw2': 0.0, 'flw1': 0.0, 'flw0': 0.0, 'time': 36.41, 'compass': 79.34, 'pitch': -0.15, 'roll': -4.83}
{'lipoC2': 7.37, 'temp': 29.69, 'lipoC3S3': 11.54, 'state': 'normal', 'rot1': 529, 'rot0': 405, 'rot3': 69, 'rot2': 73, 'depth': 1.157, 'yaw': 102.45, 'datetime': '2018-11-26 12:54:55.665501', 'mgs': 0, 'flw2': 0.0, 'flw1': 0.0, 'flw0': 0.0, 'time': 36.62, 'compass': 74.82, 'pitch': -0.28, 'roll': -4.21}
{'lipoC2': 7.37, 'temp': 29.69, 'lipoC3S3': 11.54, 'state': 'normal', 'rot1': 529, 'rot0': 405, 'rot3': 69, 'rot2': 73, 'depth': 1.233, 'yaw': 98.09, 'datetime': '2018-11-26 12:54:55.871342', 'mgs': 0, 'flw2': 0.0, 'flw1': 0.0, 'flw0': 0.0, 'time': 36.83, 'compass': 70.47, 'pitch': -0.5, 'roll': -3.78}
{'lipoC2': 7.37, 'temp': 29.69, 'lipoC3S3': 11.54, 'state': 'normal', 'rot1': 529, 'rot0': 405, 'rot3': 69, 'rot2': 73, 'depth': 1.233, 'yaw': 94.26, 'datetime': '2018-11-26 12:54:56.086383', 'mgs': 0, 'flw2': 0.0, 'flw1': 0.0, 'flw0': 0.0, 'time': 37.04, 'compass': 66.64, 'pitch': -0.89, 'roll': -3.52}
{'lipoC2': 7.37, 'temp': 29.75, 'lipoC3S3': 11.54, 'state': 'normal', 'rot1': 529, 'rot0': 405, 'rot3': 69, 'rot2': 73, 'depth': 1.233, 'yaw': 90.78, 'datetime': '2018-11-26 12:54:56.295875', 'mgs': 0, 'flw2': 0.0, 'flw1': 0.0, 'flw0': 0.0, 'time': 37.25, 'compass': 63.15, 'pitch': -1.11, 'roll': -3.44}
{'lipoC2': 7.37, 'temp': 29.75, 'lipoC3S3': 11.55, 'state': 'normal', 'rot1': 529, 'rot0': 405, 'rot3': 69, 'rot2': 73, 'depth': 1.309, 'yaw': 87.76, 'datetime': '2018-11-26 12:54:56.505495', 'mgs': 0, 'flw2': 0.0, 'flw1': 0.0, 'flw0': 0.0, 'time': 37.47, 'compass': 60.13, 'pitch': -1.12, 'roll': -3.16}
{'lipoC2': 7.37, 'temp': 29.69, 'lipoC3S3': 11.55, 'state': 'normal', 'rot1': 529, 'rot0': 405, 'rot3': 69, 'rot2': 73, 'depth': 1.385, 'yaw': 84.83, 'datetime': '2018-11-26 12:54:56.716170', 'mgs': 0, 'flw2': 0.0, 'flw1': 0.0, 'flw0': 0.0, 'time': 37.67, 'compass': 57.2, 'pitch': -1.2, 'roll': -2.93}
{'lipoC2': 7.37, 'temp': 29.69, 'lipoC3S3': 11.54, 'state': 'normal', 'rot1': 529, 'rot0': 405, 'rot3': 69, 'rot2': 73, 'depth': 1.385, 'yaw': 82.12, 'datetime': '2018-11-26 12:54:56.922673', 'mgs': 0, 'flw2': 0.0, 'flw1': 0.0, 'flw0': 0.0, 'time': 37.88, 'compass': 54.49, 'pitch': -1.28, 'roll': -3.03}
{'lipoC2': 7.37, 'temp': 29.75, 'lipoC3S3': 11.54, 'state': 'normal', 'rot1': 529, 'rot0': 405, 'rot3': 69, 'rot2': 73, 'depth': 1.385, 'yaw': 79.6, 'datetime': '2018-11-26 12:54:57.133257', 'mgs': 0, 'flw2': 0.0, 'flw1': 0.0, 'flw0': 0.0, 'time': 38.1, 'compass': 51.98, 'pitch': -1.02, 'roll': -3.38}
{'lipoC2': 7.37, 'temp': 29.75, 'lipoC3S3': 11.54, 'state': 'normal', 'rot1': 529, 'rot0': 405, 'rot3': 69, 'rot2': 73, 'depth': 1.309, 'yaw': 77.12, 'datetime': '2018-11-26 12:54:57.342805', 'mgs': 0, 'flw2': 0.0, 'flw1': 0.0, 'flw0': 0.0, 'time': 38.31, 'compass': 49.5, 'pitch': -0.77, 'roll': -3.63}
{'lipoC2': 7.37, 'temp': 29.75, 'lipoC3S3': 11.55, 'state': 'normal', 'rot1': 529, 'rot0': 405, 'rot3': 69, 'rot2': 73, 'depth': 1.462, 'yaw': 74.96, 'datetime': '2018-11-26 12:54:57.553279', 'mgs': 0, 'flw2': 0.0, 'flw1': 0.0, 'flw0': 0.0, 'time': 38.52, 'compass': 47.33, 'pitch': -0.76, 'roll': -3.72}
{'lipoC2': 7.37, 'temp': 29.69, 'lipoC3S3': 11.55, 'state': 'normal', 'rot1': 529, 'rot0': 405, 'rot3': 69, 'rot2': 73, 'depth': 1.385, 'yaw': 72.81, 'datetime': '2018-11-26 12:54:57.763064', 'mgs': 0, 'flw2': 0.0, 'flw1': 0.0, 'flw0': 0.0, 'time': 38.73, 'compass': 45.19, 'pitch': -0.78, 'roll': -4.01}
{'lipoC2': 7.37, 'temp': 29.75, 'lipoC3S3': 11.55, 'state': 'normal', 'rot1': 529, 'rot0': 405, 'rot3': 69, 'rot2': 73, 'depth': 1.462, 'yaw': 70.76, 'datetime': '2018-11-26 12:54:57.973896', 'mgs': 0, 'flw2': 0.0, 'flw1': 0.0, 'flw0': 0.0, 'time': 38.94, 'compass': 43.13, 'pitch': -0.75, 'roll': -4.4}
{'lipoC2': 7.37, 'temp': 29.75, 'lipoC3S3': 11.55, 'state': 'normal', 'rot1': 529, 'rot0': 405, 'rot3': 69, 'rot2': 73, 'depth': 1.462, 'yaw': 68.74, 'datetime': '2018-11-26 12:54:58.184675', 'mgs': 0, 'flw2': 0.0, 'flw1': 0.0, 'flw0': 0.0, 'time': 39.15, 'compass': 41.11, 'pitch': -0.93, 'roll': -4.44}
{'lipoC2': 7.37, 'temp': 29.69, 'lipoC3S3': 11.55, 'state': 'normal', 'rot1': 529, 'rot0': 405, 'rot3': 69, 'rot2': 73, 'depth': 1.538, 'yaw': 66.73, 'datetime': '2018-11-26 12:54:58.394198', 'mgs': 0, 'flw2': 0.0, 'flw1': 0.0, 'flw0': 0.0, 'time': 39.36, 'compass': 39.11, 'pitch': -1.26, 'roll': -4.24}
{'lipoC2': 7.37, 'temp': 29.69, 'lipoC3S3': 11.56, 'state': 'normal', 'rot1': 529, 'rot0': 405, 'rot3': 69, 'rot2': 73, 'depth': 1.462, 'yaw': 64.76, 'datetime': '2018-11-26 12:54:58.604882', 'mgs': 0, 'flw2': 0.0, 'flw1': 0.0, 'flw0': 0.0, 'time': 39.57, 'compass': 37.14, 'pitch': -1.32, 'roll': -4.12}
{'lipoC2': 7.37, 'temp': 29.75, 'lipoC3S3': 11.55, 'state': 'normal', 'rot1': 529, 'rot0': 405, 'rot3': 69, 'rot2': 73, 'depth': 1.538, 'yaw': 62.87, 'datetime': '2018-11-26 12:54:58.814235', 'mgs': 0, 'flw2': 0.0, 'flw1': 0.0, 'flw0': 0.0, 'time': 39.78, 'compass': 35.24, 'pitch': -1.35, 'roll': -4.01}
{'lipoC2': 7.37, 'temp': 29.69, 'lipoC3S3': 11.55, 'state': 'normal', 'rot1': 529, 'rot0': 405, 'rot3': 69, 'rot2': 73, 'depth': 1.614, 'yaw': 61.02, 'datetime': '2018-11-26 12:54:59.025276', 'mgs': 0, 'flw2': 0.0, 'flw1': 0.0, 'flw0': 0.0, 'time': 39.99, 'compass': 33.4, 'pitch': -1.39, 'roll': -3.9}
{'lipoC2': 7.37, 'temp': 29.69, 'lipoC3S3': 11.55, 'state': 'normal', 'rot1': 529, 'rot0': 405, 'rot3': 69, 'rot2': 73, 'depth': 1.538, 'yaw': 59.21, 'datetime': '2018-11-26 12:54:59.236065', 'mgs': 0, 'flw2': 0.0, 'flw1': 0.0, 'flw0': 0.0, 'time': 40.2, 'compass': 31.59, 'pitch': -1.42, 'roll': -3.78}
{'lipoC2': 7.37, 'temp': 29.69, 'lipoC3S3': 11.56, 'state': 'normal', 'rot1': 529, 'rot0': 405, 'rot3': 69, 'rot2': 73, 'depth': 1.614, 'yaw': 57.44, 'datetime': '2018-11-26 12:54:59.450111', 'mgs': 0, 'flw2': 0.0, 'flw1': 0.0, 'flw0': 0.0, 'time': 40.41, 'compass': 29.81, 'pitch': -1.41, 'roll': -3.68}
{'lipoC2': 7.37, 'temp': 29.75, 'lipoC3S3': 11.56, 'state': 'normal', 'rot1': 529, 'rot0': 405, 'rot3': 69, 'rot2': 73, 'depth': 1.614, 'yaw': 55.86, 'datetime': '2018-11-26 12:54:59.658649', 'mgs': 0, 'flw2': 0.0, 'flw1': 0.0, 'flw0': 0.0, 'time': 40.62, 'compass': 28.24, 'pitch': -1.38, 'roll': -3.61}
{'lipoC2': 7.37, 'temp': 29.81, 'lipoC3S3': 11.56, 'state': 'normal', 'rot1': 529, 'rot0': 405, 'rot3': 69, 'rot2': 73, 'depth': 1.538, 'yaw': 54.3, 'datetime': '2018-11-26 12:54:59.867884', 'mgs': 0, 'flw2': 0.0, 'flw1': 0.0, 'flw0': 0.0, 'time': 40.83, 'compass': 26.67, 'pitch': -1.35, 'roll': -3.69}
{'lipoC2': 7.37, 'temp': 29.75, 'lipoC3S3': 11.55, 'state': 'normal', 'rot1': 529, 'rot0': 405, 'rot3': 69, 'rot2': 73, 'depth': 1.614, 'yaw': 52.82, 'datetime': '2018-11-26 12:55:00.084010', 'mgs': 0, 'flw2': 0.0, 'flw1': 0.0, 'flw0': 0.0, 'time': 41.04, 'compass': 25.19, 'pitch': -1.35, 'roll': -3.95}
{'lipoC2': 7.37, 'temp': 29.75, 'lipoC3S3': 11.56, 'state': 'normal', 'rot1': 529, 'rot0': 405, 'rot3': 69, 'rot2': 73, 'depth': 1.538, 'yaw': 51.37, 'datetime': '2018-11-26 12:55:00.290256', 'mgs': 0, 'flw2': 0.0, 'flw1': 0.0, 'flw0': 0.0, 'time': 41.25, 'compass': 23.74, 'pitch': -1.41, 'roll': -3.92}
{'lipoC2': 7.37, 'temp': 29.56, 'lipoC3S3': 11.56, 'state': 'normal', 'rot1': 529, 'rot0': 405, 'rot3': 69, 'rot2': 73, 'depth': 1.614, 'yaw': 49.96, 'datetime': '2018-11-26 12:55:00.497118', 'mgs': 0, 'flw2': 0.0, 'flw1': 0.0, 'flw0': 0.0, 'time': 41.46, 'compass': 22.34, 'pitch': -1.56, 'roll': -3.87}
{'lipoC2': 7.37, 'temp': 29.56, 'lipoC3S3': 11.56, 'state': 'normal', 'rot1': 529, 'rot0': 405, 'rot3': 69, 'rot2': 73, 'depth': 1.614, 'yaw': 48.66, 'datetime': '2018-11-26 12:55:00.713657', 'mgs': 0, 'flw2': 0.0, 'flw1': 0.0, 'flw0': 0.0, 'time': 41.67, 'compass': 21.03, 'pitch': -1.54, 'roll': -4.12}
{'lipoC2': 7.37, 'temp': 29.63, 'lipoC3S3': 11.56, 'state': 'normal', 'rot1': 529, 'rot0': 405, 'rot3': 69, 'rot2': 73, 'depth': 1.614, 'yaw': 47.35, 'datetime': '2018-11-26 12:55:00.925091', 'mgs': 0, 'flw2': 0.0, 'flw1': 0.0, 'flw0': 0.0, 'time': 41.88, 'compass': 19.72, 'pitch': -1.53, 'roll': -4.13}
{'lipoC2': 7.37, 'temp': 29.81, 'lipoC3S3': 11.56, 'state': 'normal', 'rot1': 529, 'rot0': 405, 'rot3': 69, 'rot2': 73, 'depth': 1.691, 'yaw': 46.09, 'datetime': '2018-11-26 12:55:01.128153', 'mgs': 0, 'flw2': 0.0, 'flw1': 0.0, 'flw0': 0.0, 'time': 42.1, 'compass': 18.47, 'pitch': -1.62, 'roll': -3.99}
{'lipoC2': 7.37, 'temp': 29.69, 'lipoC3S3': 11.56, 'state': 'normal', 'rot1': 529, 'rot0': 405, 'rot3': 69, 'rot2': 73, 'depth': 1.614, 'yaw': 44.86, 'datetime': '2018-11-26 12:55:01.345144', 'mgs': 0, 'flw2': 0.0, 'flw1': 0.0, 'flw0': 0.0, 'time': 42.31, 'compass': 17.23, 'pitch': -1.64, 'roll': -4.26}
{'lipoC2': 7.37, 'temp': 29.81, 'lipoC3S3': 11.56, 'state': 'normal', 'rot1': 529, 'rot0': 405, 'rot3': 69, 'rot2': 73, 'depth': 1.691, 'yaw': 43.69, 'datetime': '2018-11-26 12:55:01.557992', 'mgs': 0, 'flw2': 0.0, 'flw1': 0.0, 'flw0': 0.0, 'time': 42.52, 'compass': 16.07, 'pitch': -1.62, 'roll': -4.33}
