{'lipoC2': 8.22, 'temp': 0.0, 'lipoC3S3': 12.18, 'state': 'normal', 'rot1': 0, 'rot0': 0, 'rot3': 0, 'rot2': 0, 'depth': -0.751, 'yaw': -0.31, 'datetime': '2018-12-12 10:45:33.853982', 'mgs': 0, 'flw2': 0.13, 'flw1': 0.0, 'flw0': 0.33, 'time': 1.36, 'compass': -149.32, 'pitch': -4.66, 'roll': 0.68}
{'lipoC2': 8.25, 'temp': 0.0, 'lipoC3S3': 12.16, 'state': 'normal', 'rot1': 0, 'rot0': 0, 'rot3': 0, 'rot2': 0, 'depth': 1.004, 'yaw': -0.91, 'datetime': '2018-12-12 10:45:34.063187', 'mgs': 0, 'flw2': 0.26, 'flw1': 0.0, 'flw0': 0.0, 'time': 1.57, 'compass': -149.92, 'pitch': -4.51, 'roll': 0.81}
{'lipoC2': 8.04, 'temp': 0.0, 'lipoC3S3': 12.17, 'state': 'normal', 'rot1': 0, 'rot0': 0, 'rot3': 0, 'rot2': 0, 'depth': 0.089, 'yaw': -1.47, 'datetime': '2018-12-12 10:45:34.270457', 'mgs': 0, 'flw2': 0.32, 'flw1': 0.0, 'flw0': 0.2, 'time': 1.78, 'compass': -150.49, 'pitch': -4.52, 'roll': 0.71}
{'lipoC2': 8.34, 'temp': 0.0, 'lipoC3S3': 12.19, 'state': 'normal', 'rot1': 0, 'rot0': 0, 'rot3': 0, 'rot2': 0, 'depth': -0.98, 'yaw': -2.08, 'datetime': '2018-12-12 10:45:34.478874', 'mgs': 0, 'flw2': 0.0, 'flw1': 0.35, 'flw0': 0.0, 'time': 1.98, 'compass': -151.09, 'pitch': -4.59, 'roll': 0.48}
{'lipoC2': 8.02, 'temp': 0.0, 'lipoC3S3': 12.33, 'state': 'normal', 'rot1': 0, 'rot0': 0, 'rot3': 0, 'rot2': 0, 'depth': 1.843, 'yaw': -2.67, 'datetime': '2018-12-12 10:45:34.687316', 'mgs': 0, 'flw2': 0.17, 'flw1': 0.0, 'flw0': 0.32, 'time': 2.19, 'compass': -151.68, 'pitch': -4.61, 'roll': 0.44}
{'lipoC2': 8.33, 'temp': 0.0, 'lipoC3S3': 12.19, 'state': 'normal', 'rot1': 0, 'rot0': 0, 'rot3': 0, 'rot2': 0, 'depth': -0.903, 'yaw': -3.23, 'datetime': '2018-12-12 10:45:34.894865', 'mgs': 0, 'flw2': 0.0, 'flw1': 0.53, 'flw0': 0.0, 'time': 2.4, 'compass': -152.24, 'pitch': -4.53, 'roll': 0.49}
{'lipoC2': 8.0, 'temp': 0.0, 'lipoC3S3': 12.47, 'state': 'normal', 'rot1': 0, 'rot0': 0, 'rot3': 0, 'rot2': 0, 'depth': 0.089, 'yaw': -3.82, 'datetime': '2018-12-12 10:45:35.103937', 'mgs': 0, 'flw2': 0.0, 'flw1': 0.0, 'flw0': 0.28, 'time': 2.61, 'compass': -152.83, 'pitch': -4.26, 'roll': 0.51}
{'lipoC2': 8.04, 'temp': 0.0, 'lipoC3S3': 12.14, 'state': 'normal', 'rot1': 0, 'rot0': 0, 'rot3': 0, 'rot2': 0, 'depth': 0.012, 'yaw': -4.4, 'datetime': '2018-12-12 10:45:35.311318', 'mgs': 0, 'flw2': 0.33, 'flw1': 0.0, 'flw0': 0.15, 'time': 2.81, 'compass': -153.41, 'pitch': -4.18, 'roll': 0.58}
{'lipoC2': 8.08, 'temp': 0.0, 'lipoC3S3': 12.04, 'state': 'normal', 'rot1': 0, 'rot0': 0, 'rot3': 0, 'rot2': 0, 'depth': 2.606, 'yaw': -5.01, 'datetime': '2018-12-12 10:45:35.520925', 'mgs': 0, 'flw2': 0.32, 'flw1': 0.0, 'flw0': 0.0, 'time': 3.02, 'compass': -154.03, 'pitch': -4.42, 'roll': 0.68}
{'lipoC2': 8.06, 'temp': 0.0, 'lipoC3S3': 12.41, 'state': 'normal', 'rot1': 0, 'rot0': 0, 'rot3': 0, 'rot2': 0, 'depth': 0.012, 'yaw': -5.56, 'datetime': '2018-12-12 10:45:35.730951', 'mgs': 0, 'flw2': 0.16, 'flw1': 0.0, 'flw0': 0.32, 'time': 3.23, 'compass': -154.57, 'pitch': -4.76, 'roll': 0.64}
{'lipoC2': 8.29, 'temp': 0.0, 'lipoC3S3': 12.16, 'state': 'normal', 'rot1': 0, 'rot0': 0, 'rot3': 0, 'rot2': 0, 'depth': 0.47, 'yaw': -6.11, 'datetime': '2018-12-12 10:45:35.939040', 'mgs': 0, 'flw2': 0.13, 'flw1': 0.0, 'flw0': 0.0, 'time': 3.44, 'compass': -155.12, 'pitch': -4.55, 'roll': 0.65}
{'lipoC2': 8.34, 'temp': 0.0, 'lipoC3S3': 12.55, 'state': 'normal', 'rot1': 0, 'rot0': 0, 'rot3': 0, 'rot2': 0, 'depth': -0.827, 'yaw': -6.67, 'datetime': '2018-12-12 10:45:36.145064', 'mgs': 0, 'flw2': 0.04, 'flw1': 0.0, 'flw0': 0.22, 'time': 3.65, 'compass': -155.68, 'pitch': -3.74, 'roll': 0.62}
{'lipoC2': 8.08, 'temp': 0.0, 'lipoC3S3': 12.45, 'state': 'normal', 'rot1': 0, 'rot0': 0, 'rot3': 0, 'rot2': 0, 'depth': -0.674, 'yaw': -7.2, 'datetime': '2018-12-12 10:45:36.352635', 'mgs': 0, 'flw2': 0.0, 'flw1': 0.41, 'flw0': 0.0, 'time': 3.85, 'compass': -156.22, 'pitch': -3.69, 'roll': 0.59}
{'lipoC2': 8.2, 'temp': 0.0, 'lipoC3S3': 12.18, 'state': 'normal', 'rot1': 0, 'rot0': 0, 'rot3': 0, 'rot2': 0, 'depth': -0.598, 'yaw': -7.74, 'datetime': '2018-12-12 10:45:36.560445', 'mgs': 0, 'flw2': 0.31, 'flw1': 0.0, 'flw0': 0.44, 'time': 4.06, 'compass': -156.75, 'pitch': -4.5, 'roll': 0.55}
{'lipoC2': 8.25, 'temp': 0.0, 'lipoC3S3': 12.14, 'state': 'normal', 'rot1': 1, 'rot0': 0, 'rot3': 0, 'rot2': 0, 'depth': 0.699, 'yaw': -8.51, 'datetime': '2018-12-12 10:45:36.769496', 'mgs': 0, 'flw2': 0.0, 'flw1': 0.0, 'flw0': 0.48, 'time': 4.27, 'compass': -157.52, 'pitch': -4.59, 'roll': 0.56}
{'lipoC2': 8.08, 'temp': 0.0, 'lipoC3S3': 12.0, 'state': 'normal', 'rot1': 2, 'rot0': 0, 'rot3': 0, 'rot2': 0, 'depth': 2.759, 'yaw': -10.01, 'datetime': '2018-12-12 10:45:36.978235', 'mgs': 0, 'flw2': 0.11, 'flw1': 0.0, 'flw0': 1.28, 'time': 4.48, 'compass': -159.02, 'pitch': -3.48, 'roll': 0.15}
{'lipoC2': 8.06, 'temp': 0.0, 'lipoC3S3': 12.3, 'state': 'normal', 'rot1': 4, 'rot0': 0, 'rot3': 0, 'rot2': 0, 'depth': 2.072, 'yaw': -12.75, 'datetime': '2018-12-12 10:45:37.187075', 'mgs': 0, 'flw2': 3.49, 'flw1': 0.0, 'flw0': 0.4, 'time': 4.69, 'compass': -161.76, 'pitch': -2.14, 'roll': -0.51}
{'lipoC2': 8.26, 'temp': 0.0, 'lipoC3S3': 12.12, 'state': 'normal', 'rot1': 5, 'rot0': 3, 'rot3': 0, 'rot2': 0, 'depth': -0.751, 'yaw': -14.37, 'datetime': '2018-12-12 10:45:37.395922', 'mgs': 0, 'flw2': 3.42, 'flw1': 0.21, 'flw0': 0.74, 'time': 4.89, 'compass': -163.38, 'pitch': -0.63, 'roll': -0.52}
{'lipoC2': 8.06, 'temp': 0.0, 'lipoC3S3': 12.22, 'state': 'normal', 'rot1': 7, 'rot0': 5, 'rot3': 0, 'rot2': 0, 'depth': 2.225, 'yaw': -13.29, 'datetime': '2018-12-12 10:45:37.602799', 'mgs': 0, 'flw2': 3.5, 'flw1': 0.0, 'flw0': 0.71, 'time': 5.1, 'compass': -162.3, 'pitch': 1.73, 'roll': -0.04}
{'lipoC2': 8.33, 'temp': 0.0, 'lipoC3S3': 12.16, 'state': 'normal', 'rot1': 9, 'rot0': 8, 'rot3': 0, 'rot2': 0, 'depth': -0.674, 'yaw': -10.31, 'datetime': '2018-12-12 10:45:37.812230', 'mgs': 0, 'flw2': 2.17, 'flw1': 0.0, 'flw0': 1.28, 'time': 5.31, 'compass': -159.32, 'pitch': 4.69, 'roll': 0.47}
{'lipoC2': 8.06, 'temp': 0.0, 'lipoC3S3': 12.16, 'state': 'normal', 'rot1': 12, 'rot0': 10, 'rot3': 0, 'rot2': 0, 'depth': 0.089, 'yaw': -7.46, 'datetime': '2018-12-12 10:45:38.020170', 'mgs': 0, 'flw2': 3.27, 'flw1': 0.0, 'flw0': 2.73, 'time': 5.52, 'compass': -156.47, 'pitch': 6.91, 'roll': 0.66}
{'lipoC2': 8.0, 'temp': 0.0, 'lipoC3S3': 12.38, 'state': 'normal', 'rot1': 15, 'rot0': 13, 'rot3': 0, 'rot2': 0, 'depth': 0.394, 'yaw': -5.69, 'datetime': '2018-12-12 10:45:38.229987', 'mgs': 0, 'flw2': 2.93, 'flw1': 0.0, 'flw0': 2.89, 'time': 5.73, 'compass': -154.7, 'pitch': 7.66, 'roll': 0.88}
{'lipoC2': 8.09, 'temp': 0.0, 'lipoC3S3': 11.97, 'state': 'normal', 'rot1': 17, 'rot0': 15, 'rot3': 0, 'rot2': 0, 'depth': 0.851, 'yaw': -4.23, 'datetime': '2018-12-12 10:45:38.441676', 'mgs': 0, 'flw2': 3.02, 'flw1': 0.0, 'flw0': 2.78, 'time': 5.94, 'compass': -153.24, 'pitch': 7.38, 'roll': 1.43}
{'lipoC2': 8.0, 'temp': 0.0, 'lipoC3S3': 12.43, 'state': 'normal', 'rot1': 20, 'rot0': 18, 'rot3': 0, 'rot2': 0, 'depth': 0.394, 'yaw': -2.92, 'datetime': '2018-12-12 10:45:38.648276', 'mgs': 0, 'flw2': 2.37, 'flw1': 0.0, 'flw0': 2.81, 'time': 6.14, 'compass': -151.93, 'pitch': 6.87, 'roll': 2.04}
{'lipoC2': 8.25, 'temp': 0.0, 'lipoC3S3': 11.97, 'state': 'normal', 'rot1': 23, 'rot0': 20, 'rot3': 0, 'rot2': 0, 'depth': -0.827, 'yaw': -2.21, 'datetime': '2018-12-12 10:45:38.856081', 'mgs': 0, 'flw2': 2.2, 'flw1': 0.09, 'flw0': 4.9, 'time': 6.35, 'compass': -151.22, 'pitch': 6.33, 'roll': 2.4}
{'lipoC2': 8.01, 'temp': 0.0, 'lipoC3S3': 12.45, 'state': 'normal', 'rot1': 26, 'rot0': 23, 'rot3': 0, 'rot2': 0, 'depth': 0.394, 'yaw': -3.43, 'datetime': '2018-12-12 10:45:39.065962', 'mgs': 0, 'flw2': 2.34, 'flw1': 0.0, 'flw0': 5.13, 'time': 6.56, 'compass': -152.44, 'pitch': 5.82, 'roll': 2.08}
{'lipoC2': 8.22, 'temp': 0.0, 'lipoC3S3': 12.01, 'state': 'normal', 'rot1': 29, 'rot0': 25, 'rot3': 0, 'rot2': 0, 'depth': 0.241, 'yaw': -6.0, 'datetime': '2018-12-12 10:45:39.277075', 'mgs': 0, 'flw2': 4.57, 'flw1': 0.67, 'flw0': 4.86, 'time': 6.77, 'compass': -155.01, 'pitch': 4.8, 'roll': 1.45}
{'lipoC2': 8.17, 'temp': 0.0, 'lipoC3S3': 11.85, 'state': 'normal', 'rot1': 33, 'rot0': 28, 'rot3': 0, 'rot2': 0, 'depth': 1.996, 'yaw': -8.09, 'datetime': '2018-12-12 10:45:39.484439', 'mgs': 0, 'flw2': 5.59, 'flw1': 0.0, 'flw0': 4.97, 'time': 6.98, 'compass': -157.1, 'pitch': 4.65, 'roll': 0.92}
{'lipoC2': 8.1, 'temp': 0.0, 'lipoC3S3': 11.92, 'state': 'normal', 'rot1': 36, 'rot0': 32, 'rot3': 0, 'rot2': 0, 'depth': 2.606, 'yaw': -8.5, 'datetime': '2018-12-12 10:45:39.693996', 'mgs': 0, 'flw2': 5.77, 'flw1': 0.0, 'flw0': 5.53, 'time': 7.19, 'compass': -157.51, 'pitch': 5.59, 'roll': 0.65}
{'lipoC2': 8.28, 'temp': 0.0, 'lipoC3S3': 12.02, 'state': 'normal', 'rot1': 40, 'rot0': 35, 'rot3': 0, 'rot2': 0, 'depth': -0.903, 'yaw': -8.25, 'datetime': '2018-12-12 10:45:39.901993', 'mgs': 0, 'flw2': 2.51, 'flw1': 0.26, 'flw0': 4.99, 'time': 7.4, 'compass': -157.26, 'pitch': 6.77, 'roll': 0.53}
{'lipoC2': 8.33, 'temp': 0.0, 'lipoC3S3': 12.08, 'state': 'normal', 'rot1': 44, 'rot0': 38, 'rot3': 0, 'rot2': 0, 'depth': 1.691, 'yaw': -8.83, 'datetime': '2018-12-12 10:45:40.113295', 'mgs': 0, 'flw2': 2.69, 'flw1': 0.0, 'flw0': 4.69, 'time': 7.61, 'compass': -157.84, 'pitch': 7.04, 'roll': 0.48}
{'lipoC2': 8.09, 'temp': 0.0, 'lipoC3S3': 11.93, 'state': 'normal', 'rot1': 47, 'rot0': 40, 'rot3': 0, 'rot2': 0, 'depth': 2.225, 'yaw': -10.62, 'datetime': '2018-12-12 10:45:40.323713', 'mgs': 0, 'flw2': 2.73, 'flw1': 0.0, 'flw0': 5.37, 'time': 7.82, 'compass': -159.63, 'pitch': 6.31, 'roll': 0.35}
{'lipoC2': 8.05, 'temp': 0.0, 'lipoC3S3': 12.06, 'state': 'normal', 'rot1': 50, 'rot0': 42, 'rot3': 0, 'rot2': 0, 'depth': -0.217, 'yaw': -13.18, 'datetime': '2018-12-12 10:45:40.530912', 'mgs': 0, 'flw2': 2.6, 'flw1': 0.0, 'flw0': 4.94, 'time': 8.02, 'compass': -162.2, 'pitch': 5.93, 'roll': 0.13}
{'lipoC2': 8.27, 'temp': 0.0, 'lipoC3S3': 12.35, 'state': 'normal', 'rot1': 54, 'rot0': 45, 'rot3': 0, 'rot2': 0, 'depth': -0.064, 'yaw': -16.12, 'datetime': '2018-12-12 10:45:40.739021', 'mgs': 0, 'flw2': 2.8, 'flw1': 0.0, 'flw0': 5.76, 'time': 8.23, 'compass': -165.13, 'pitch': 5.94, 'roll': -0.3}
{'lipoC2': 8.07, 'temp': 0.0, 'lipoC3S3': 12.25, 'state': 'normal', 'rot1': 57, 'rot0': 48, 'rot3': 0, 'rot2': 0, 'depth': -0.369, 'yaw': -19.43, 'datetime': '2018-12-12 10:45:40.949347', 'mgs': 0, 'flw2': 2.26, 'flw1': 0.0, 'flw0': 5.0, 'time': 8.44, 'compass': -168.44, 'pitch': 6.07, 'roll': -0.87}
{'lipoC2': 8.0, 'temp': 0.0, 'lipoC3S3': 12.35, 'state': 'normal', 'rot1': 61, 'rot0': 50, 'rot3': 0, 'rot2': 0, 'depth': 0.928, 'yaw': -22.94, 'datetime': '2018-12-12 10:45:41.158814', 'mgs': 0, 'flw2': 2.39, 'flw1': 0.62, 'flw0': 5.44, 'time': 8.65, 'compass': -171.95, 'pitch': 6.03, 'roll': -1.23}
{'lipoC2': 8.05, 'temp': 0.0, 'lipoC3S3': 12.13, 'state': 'normal', 'rot1': 65, 'rot0': 53, 'rot3': 0, 'rot2': 0, 'depth': 1.767, 'yaw': -26.84, 'datetime': '2018-12-12 10:45:41.369503', 'mgs': 0, 'flw2': 2.56, 'flw1': 0.0, 'flw0': 5.86, 'time': 8.86, 'compass': -175.85, 'pitch': 6.0, 'roll': -1.66}
{'lipoC2': 8.13, 'temp': 0.0, 'lipoC3S3': 12.08, 'state': 'normal', 'rot1': 68, 'rot0': 55, 'rot3': 0, 'rot2': 0, 'depth': 0.775, 'yaw': -31.07, 'datetime': '2018-12-12 10:45:41.579203', 'mgs': 0, 'flw2': 2.31, 'flw1': 0.32, 'flw0': 5.03, 'time': 9.07, 'compass': 179.92, 'pitch': 6.01, 'roll': -2.29}
{'lipoC2': 8.05, 'temp': 0.0, 'lipoC3S3': 11.93, 'state': 'normal', 'rot1': 72, 'rot0': 57, 'rot3': 0, 'rot2': 0, 'depth': 0.089, 'yaw': -35.38, 'datetime': '2018-12-12 10:45:41.787244', 'mgs': 0, 'flw2': 2.28, 'flw1': 0.0, 'flw0': 5.0, 'time': 9.28, 'compass': 175.61, 'pitch': 6.14, 'roll': -3.13}
{'lipoC2': 8.04, 'temp': 0.0, 'lipoC3S3': 12.01, 'state': 'normal', 'rot1': 76, 'rot0': 59, 'rot3': 0, 'rot2': 0, 'depth': 1.004, 'yaw': -39.84, 'datetime': '2018-12-12 10:45:41.996684', 'mgs': 0, 'flw2': 2.27, 'flw1': 0.29, 'flw0': 5.11, 'time': 9.49, 'compass': 171.15, 'pitch': 6.74, 'roll': -3.81}
{'lipoC2': 8.06, 'temp': 0.0, 'lipoC3S3': 11.93, 'state': 'normal', 'rot1': 79, 'rot0': 62, 'rot3': 0, 'rot2': 0, 'depth': 0.317, 'yaw': -44.35, 'datetime': '2018-12-12 10:45:42.205275', 'mgs': 0, 'flw2': 2.44, 'flw1': 0.0, 'flw0': 5.05, 'time': 9.7, 'compass': 166.63, 'pitch': 7.26, 'roll': -4.39}
{'lipoC2': 8.04, 'temp': 0.0, 'lipoC3S3': 12.42, 'state': 'normal', 'rot1': 83, 'rot0': 64, 'rot3': 0, 'rot2': 0, 'depth': -0.064, 'yaw': -49.41, 'datetime': '2018-12-12 10:45:42.413813', 'mgs': 0, 'flw2': 2.32, 'flw1': 0.0, 'flw0': 5.18, 'time': 9.91, 'compass': 161.58, 'pitch': 7.73, 'roll': -4.93}
{'lipoC2': 8.14, 'temp': 0.0, 'lipoC3S3': 11.97, 'state': 'normal', 'rot1': 86, 'rot0': 66, 'rot3': 0, 'rot2': 0, 'depth': 0.851, 'yaw': -54.4, 'datetime': '2018-12-12 10:45:42.625780', 'mgs': 0, 'flw2': 2.37, 'flw1': 0.0, 'flw0': 5.26, 'time': 10.11, 'compass': 156.59, 'pitch': 8.0, 'roll': -5.27}
{'lipoC2': 8.22, 'temp': 0.0, 'lipoC3S3': 12.05, 'state': 'normal', 'rot1': 90, 'rot0': 69, 'rot3': 0, 'rot2': 0, 'depth': 0.546, 'yaw': -59.7, 'datetime': '2018-12-12 10:45:42.834146', 'mgs': 0, 'flw2': 2.73, 'flw1': 0.0, 'flw0': 5.35, 'time': 10.32, 'compass': 151.29, 'pitch': 7.92, 'roll': -5.38}
{'lipoC2': 8.07, 'temp': 0.0, 'lipoC3S3': 12.22, 'state': 'normal', 'rot1': 93, 'rot0': 71, 'rot3': 0, 'rot2': 0, 'depth': 0.546, 'yaw': -65.06, 'datetime': '2018-12-12 10:45:43.044660', 'mgs': 0, 'flw2': 5.14, 'flw1': 0.0, 'flw0': 4.09, 'time': 10.53, 'compass': 145.93, 'pitch': 7.86, 'roll': -5.48}
{'lipoC2': 8.31, 'temp': 0.0, 'lipoC3S3': 12.05, 'state': 'normal', 'rot1': 96, 'rot0': 74, 'rot3': 0, 'rot2': 0, 'depth': -0.674, 'yaw': -69.43, 'datetime': '2018-12-12 10:45:43.254946', 'mgs': 0, 'flw2': 5.43, 'flw1': 0.21, 'flw0': 3.81, 'time': 10.74, 'compass': 141.56, 'pitch': 8.21, 'roll': -5.75}
{'lipoC2': 8.02, 'temp': 0.0, 'lipoC3S3': 12.25, 'state': 'normal', 'rot1': 99, 'rot0': 78, 'rot3': 0, 'rot2': 0, 'depth': 1.08, 'yaw': -71.83, 'datetime': '2018-12-12 10:45:43.466508', 'mgs': 0, 'flw2': 5.68, 'flw1': 0.0, 'flw0': 3.54, 'time': 10.95, 'compass': 139.15, 'pitch': 8.61, 'roll': -5.85}
{'lipoC2': 8.06, 'temp': 0.0, 'lipoC3S3': 12.06, 'state': 'normal', 'rot1': 102, 'rot0': 82, 'rot3': 0, 'rot2': 0, 'depth': 0.47, 'yaw': -73.08, 'datetime': '2018-12-12 10:45:43.674330', 'mgs': 0, 'flw2': 6.01, 'flw1': 0.0, 'flw0': 2.93, 'time': 11.16, 'compass': 137.91, 'pitch': 8.65, 'roll': -5.67}
{'lipoC2': 8.01, 'temp': 0.0, 'lipoC3S3': 12.38, 'state': 'normal', 'rot1': 105, 'rot0': 85, 'rot3': 0, 'rot2': 0, 'depth': -0.369, 'yaw': -73.53, 'datetime': '2018-12-12 10:45:43.883909', 'mgs': 0, 'flw2': 5.36, 'flw1': 0.06, 'flw0': 1.98, 'time': 11.37, 'compass': 137.46, 'pitch': 8.08, 'roll': -5.36}
{'lipoC2': 8.25, 'temp': 0.0, 'lipoC3S3': 11.97, 'state': 'normal', 'rot1': 108, 'rot0': 88, 'rot3': 0, 'rot2': 0, 'depth': 0.928, 'yaw': -73.1, 'datetime': '2018-12-12 10:45:44.091741', 'mgs': 0, 'flw2': 5.36, 'flw1': 0.0, 'flw0': 1.77, 'time': 11.58, 'compass': 137.89, 'pitch': 6.98, 'roll': -4.61}
{'lipoC2': 8.21, 'temp': 0.0, 'lipoC3S3': 11.94, 'state': 'normal', 'rot1': 109, 'rot0': 91, 'rot3': 0, 'rot2': 0, 'depth': -0.064, 'yaw': -71.74, 'datetime': '2018-12-12 10:45:44.302208', 'mgs': 0, 'flw2': 5.38, 'flw1': 0.59, 'flw0': 0.99, 'time': 11.78, 'compass': 139.25, 'pitch': 5.48, 'roll': -3.67}
{'lipoC2': 8.05, 'temp': 0.0, 'lipoC3S3': 12.05, 'state': 'normal', 'rot1': 112, 'rot0': 95, 'rot3': 0, 'rot2': 0, 'depth': 2.53, 'yaw': -69.14, 'datetime': '2018-12-12 10:45:44.510542', 'mgs': 0, 'flw2': 5.76, 'flw1': 0.0, 'flw0': 1.07, 'time': 11.99, 'compass': 141.84, 'pitch': 3.82, 'roll': -2.49}
{'lipoC2': 8.19, 'temp': 0.0, 'lipoC3S3': 11.93, 'state': 'normal', 'rot1': 114, 'rot0': 98, 'rot3': 0, 'rot2': 0, 'depth': -0.217, 'yaw': -65.59, 'datetime': '2018-12-12 10:45:44.718058', 'mgs': 0, 'flw2': 3.89, 'flw1': 0.0, 'flw0': 1.22, 'time': 12.2, 'compass': 145.4, 'pitch': 2.67, 'roll': -1.0}
{'lipoC2': 8.06, 'temp': 0.0, 'lipoC3S3': 11.94, 'state': 'normal', 'rot1': 116, 'rot0': 101, 'rot3': 0, 'rot2': 0, 'depth': 0.623, 'yaw': -62.41, 'datetime': '2018-12-12 10:45:44.926572', 'mgs': 0, 'flw2': 4.53, 'flw1': 0.0, 'flw0': 2.23, 'time': 12.41, 'compass': 148.58, 'pitch': 2.05, 'roll': 0.96}
{'lipoC2': 8.23, 'temp': 0.0, 'lipoC3S3': 12.08, 'state': 'normal', 'rot1': 118, 'rot0': 104, 'rot3': 0, 'rot2': 0, 'depth': -0.751, 'yaw': -60.06, 'datetime': '2018-12-12 10:45:45.136452', 'mgs': 0, 'flw2': 4.35, 'flw1': 0.0, 'flw0': 2.31, 'time': 12.62, 'compass': 150.92, 'pitch': 2.4, 'roll': 2.87}
{'lipoC2': 8.17, 'temp': 0.0, 'lipoC3S3': 11.98, 'state': 'normal', 'rot1': 120, 'rot0': 107, 'rot3': 0, 'rot2': 0, 'depth': 0.394, 'yaw': -58.26, 'datetime': '2018-12-12 10:45:45.346034', 'mgs': 0, 'flw2': 4.17, 'flw1': 0.76, 'flw0': 2.01, 'time': 12.83, 'compass': 152.73, 'pitch': 2.99, 'roll': 4.28}
{'lipoC2': 8.05, 'temp': 0.0, 'lipoC3S3': 12.08, 'state': 'normal', 'rot1': 122, 'rot0': 110, 'rot3': 0, 'rot2': 0, 'depth': 2.377, 'yaw': -56.2, 'datetime': '2018-12-12 10:45:45.555517', 'mgs': 0, 'flw2': 4.06, 'flw1': 0.26, 'flw0': 0.02, 'time': 13.04, 'compass': 154.78, 'pitch': 3.44, 'roll': 5.28}
{'lipoC2': 8.24, 'temp': 0.0, 'lipoC3S3': 11.97, 'state': 'normal', 'rot1': 123, 'rot0': 113, 'rot3': 0, 'rot2': 0, 'depth': 0.089, 'yaw': -52.49, 'datetime': '2018-12-12 10:45:45.764437', 'mgs': 0, 'flw2': 4.21, 'flw1': 0.15, 'flw0': 0.0, 'time': 13.25, 'compass': 158.5, 'pitch': 3.4, 'roll': 5.9}
{'lipoC2': 8.09, 'temp': 0.0, 'lipoC3S3': 11.98, 'state': 'normal', 'rot1': 123, 'rot0': 116, 'rot3': 0, 'rot2': 0, 'depth': 0.012, 'yaw': -46.7, 'datetime': '2018-12-12 10:45:45.974042', 'mgs': 0, 'flw2': 0.63, 'flw1': 0.0, 'flw0': 0.0, 'time': 13.46, 'compass': 164.29, 'pitch': 3.22, 'roll': 6.41}
{'lipoC2': 8.07, 'temp': 0.0, 'lipoC3S3': 12.14, 'state': 'normal', 'rot1': 123, 'rot0': 116, 'rot3': 0, 'rot2': 0, 'depth': 0.241, 'yaw': -41.05, 'datetime': '2018-12-12 10:45:46.186654', 'mgs': 0, 'flw2': 0.0, 'flw1': 0.44, 'flw0': 0.0, 'time': 13.67, 'compass': 169.94, 'pitch': 1.74, 'roll': 6.6}
{'lipoC2': 8.26, 'temp': 0.0, 'lipoC3S3': 12.1, 'state': 'normal', 'rot1': 123, 'rot0': 116, 'rot3': 0, 'rot2': 0, 'depth': 1.004, 'yaw': -36.91, 'datetime': '2018-12-12 10:45:46.397055', 'mgs': 0, 'flw2': 0.0, 'flw1': 0.09, 'flw0': 0.0, 'time': 13.88, 'compass': 174.08, 'pitch': -1.32, 'roll': 6.3}
{'lipoC2': 8.04, 'temp': 0.0, 'lipoC3S3': 12.19, 'state': 'normal', 'rot1': 123, 'rot0': 116, 'rot3': 0, 'rot2': 0, 'depth': 0.089, 'yaw': -33.67, 'datetime': '2018-12-12 10:45:46.603908', 'mgs': 0, 'flw2': 0.28, 'flw1': 0.0, 'flw0': 0.11, 'time': 14.08, 'compass': 177.32, 'pitch': -4.21, 'roll': 5.54}
{'lipoC2': 8.33, 'temp': 0.0, 'lipoC3S3': 12.16, 'state': 'normal', 'rot1': 123, 'rot0': 116, 'rot3': 0, 'rot2': 0, 'depth': 0.928, 'yaw': -30.78, 'datetime': '2018-12-12 10:45:46.814121', 'mgs': 0, 'flw2': 0.31, 'flw1': 0.0, 'flw0': 0.0, 'time': 14.29, 'compass': -179.79, 'pitch': -6.83, 'roll': 4.55}
{'lipoC2': 8.09, 'temp': 0.0, 'lipoC3S3': 11.94, 'state': 'normal', 'rot1': 124, 'rot0': 116, 'rot3': 0, 'rot2': 0, 'depth': -0.064, 'yaw': -28.45, 'datetime': '2018-12-12 10:45:47.022048', 'mgs': 0, 'flw2': 0.0, 'flw1': 0.0, 'flw0': 4.68, 'time': 14.5, 'compass': -177.46, 'pitch': -8.87, 'roll': 3.67}
{'lipoC2': 8.16, 'temp': 0.0, 'lipoC3S3': 12.05, 'state': 'normal', 'rot1': 125, 'rot0': 116, 'rot3': 0, 'rot2': 0, 'depth': 2.53, 'yaw': -28.24, 'datetime': '2018-12-12 10:45:47.229803', 'mgs': 0, 'flw2': 0.0, 'flw1': 0.29, 'flw0': 0.0, 'time': 14.71, 'compass': -177.25, 'pitch': -9.28, 'roll': 2.3}
{'lipoC2': 8.06, 'temp': 0.0, 'lipoC3S3': 12.14, 'state': 'normal', 'rot1': 125, 'rot0': 116, 'rot3': 0, 'rot2': 0, 'depth': 0.012, 'yaw': -28.03, 'datetime': '2018-12-12 10:45:47.439512', 'mgs': 0, 'flw2': 0.28, 'flw1': 0.0, 'flw0': 0.01, 'time': 14.92, 'compass': -177.04, 'pitch': -8.68, 'roll': 1.34}
{'lipoC2': 8.27, 'temp': 0.0, 'lipoC3S3': 12.1, 'state': 'normal', 'rot1': 125, 'rot0': 116, 'rot3': 0, 'rot2': 0, 'depth': 0.623, 'yaw': -27.74, 'datetime': '2018-12-12 10:45:47.648923', 'mgs': 0, 'flw2': 0.18, 'flw1': 0.0, 'flw0': 0.0, 'time': 15.13, 'compass': -176.75, 'pitch': -7.29, 'roll': 0.99}
{'lipoC2': 8.23, 'temp': 0.0, 'lipoC3S3': 12.38, 'state': 'normal', 'rot1': 125, 'rot0': 116, 'rot3': 0, 'rot2': 0, 'depth': 0.394, 'yaw': -27.43, 'datetime': '2018-12-12 10:45:47.857376', 'mgs': 0, 'flw2': 0.0, 'flw1': 0.18, 'flw0': 0.0, 'time': 15.34, 'compass': -176.44, 'pitch': -6.0, 'roll': 1.05}
{'lipoC2': 8.07, 'temp': 0.0, 'lipoC3S3': 12.42, 'state': 'normal', 'rot1': 125, 'rot0': 116, 'rot3': 0, 'rot2': 0, 'depth': 0.775, 'yaw': -27.11, 'datetime': '2018-12-12 10:45:48.066330', 'mgs': 0, 'flw2': 0.0, 'flw1': 0.38, 'flw0': 0.0, 'time': 15.55, 'compass': -176.12, 'pitch': -5.14, 'roll': 1.41}
{'lipoC2': 8.05, 'temp': 0.0, 'lipoC3S3': 12.54, 'state': 'normal', 'rot1': 125, 'rot0': 116, 'rot3': 0, 'rot2': 0, 'depth': -0.369, 'yaw': -26.8, 'datetime': '2018-12-12 10:45:48.276110', 'mgs': 0, 'flw2': 0.27, 'flw1': 0.0, 'flw0': 0.0, 'time': 15.76, 'compass': -175.81, 'pitch': -4.6, 'roll': 2.07}
{'lipoC2': 7.99, 'temp': 0.0, 'lipoC3S3': 12.43, 'state': 'normal', 'rot1': 125, 'rot0': 116, 'rot3': 0, 'rot2': 0, 'depth': 0.851, 'yaw': -26.48, 'datetime': '2018-12-12 10:45:48.486528', 'mgs': 0, 'flw2': 0.0, 'flw1': 0.0, 'flw0': 0.26, 'time': 15.97, 'compass': -175.5, 'pitch': -4.35, 'roll': 2.72}
{'lipoC2': 8.06, 'temp': 0.0, 'lipoC3S3': 12.16, 'state': 'normal', 'rot1': 125, 'rot0': 116, 'rot3': 0, 'rot2': 0, 'depth': 1.996, 'yaw': -26.15, 'datetime': '2018-12-12 10:45:48.696092', 'mgs': 0, 'flw2': 0.0, 'flw1': 0.35, 'flw0': 0.0, 'time': 16.17, 'compass': -175.16, 'pitch': -4.79, 'roll': 3.08}
{'lipoC2': 8.21, 'temp': 0.0, 'lipoC3S3': 12.14, 'state': 'normal', 'rot1': 125, 'rot0': 116, 'rot3': 0, 'rot2': 0, 'depth': 3.369, 'yaw': -25.83, 'datetime': '2018-12-12 10:45:48.904980', 'mgs': 0, 'flw2': 0.0, 'flw1': 0.64, 'flw0': 0.0, 'time': 16.38, 'compass': -174.84, 'pitch': -5.7, 'roll': 3.14}
{'lipoC2': 8.07, 'temp': 0.0, 'lipoC3S3': 12.46, 'state': 'normal', 'rot1': 125, 'rot0': 116, 'rot3': 0, 'rot2': 0, 'depth': -0.14, 'yaw': -25.47, 'datetime': '2018-12-12 10:45:49.114513', 'mgs': 0, 'flw2': 0.28, 'flw1': 0.0, 'flw0': 0.0, 'time': 16.59, 'compass': -174.48, 'pitch': -6.41, 'roll': 2.9}
{'lipoC2': 8.28, 'temp': 0.0, 'lipoC3S3': 12.13, 'state': 'normal', 'rot1': 125, 'rot0': 116, 'rot3': 0, 'rot2': 0, 'depth': -0.293, 'yaw': -25.07, 'datetime': '2018-12-12 10:45:49.322994', 'mgs': 0, 'flw2': 0.0, 'flw1': 0.67, 'flw0': 0.0, 'time': 16.8, 'compass': -174.08, 'pitch': -6.76, 'roll': 2.45}
{'lipoC2': 8.06, 'temp': 0.0, 'lipoC3S3': 12.18, 'state': 'normal', 'rot1': 125, 'rot0': 116, 'rot3': 0, 'rot2': 0, 'depth': 1.767, 'yaw': -24.69, 'datetime': '2018-12-12 10:45:49.532762', 'mgs': 0, 'flw2': 0.29, 'flw1': 0.0, 'flw0': 0.23, 'time': 17.01, 'compass': -173.71, 'pitch': -7.06, 'roll': 1.97}
{'lipoC2': 8.05, 'temp': 0.0, 'lipoC3S3': 12.04, 'state': 'normal', 'rot1': 125, 'rot0': 116, 'rot3': 0, 'rot2': 0, 'depth': 2.759, 'yaw': -24.33, 'datetime': '2018-12-12 10:45:49.742473', 'mgs': 0, 'flw2': 0.0, 'flw1': 0.64, 'flw0': 0.0, 'time': 17.22, 'compass': -173.34, 'pitch': -7.25, 'roll': 1.53}
{'lipoC2': 8.3, 'temp': 0.0, 'lipoC3S3': 12.16, 'state': 'normal', 'rot1': 125, 'rot0': 116, 'rot3': 0, 'rot2': 0, 'depth': 0.775, 'yaw': -23.97, 'datetime': '2018-12-12 10:45:49.952008', 'mgs': 0, 'flw2': 0.27, 'flw1': 0.0, 'flw0': 0.0, 'time': 17.43, 'compass': -172.98, 'pitch': -7.25, 'roll': 1.22}
{'lipoC2': 8.04, 'temp': 0.0, 'lipoC3S3': 12.5, 'state': 'normal', 'rot1': 125, 'rot0': 116, 'rot3': 0, 'rot2': 0, 'depth': 0.012, 'yaw': -23.64, 'datetime': '2018-12-12 10:45:50.162364', 'mgs': 0, 'flw2': 0.28, 'flw1': 0.0, 'flw0': 0.01, 'time': 17.64, 'compass': -172.65, 'pitch': -7.01, 'roll': 1.21}
{'lipoC2': 8.0, 'temp': 0.0, 'lipoC3S3': 12.41, 'state': 'normal', 'rot1': 125, 'rot0': 116, 'rot3': 0, 'rot2': 0, 'depth': 0.546, 'yaw': -23.35, 'datetime': '2018-12-12 10:45:50.363782', 'mgs': 0, 'flw2': 0.0, 'flw1': 0.29, 'flw0': 0.0, 'time': 17.85, 'compass': -172.36, 'pitch': -6.55, 'roll': 1.38}
{'lipoC2': 8.02, 'temp': 0.0, 'lipoC3S3': 12.31, 'state': 'normal', 'rot1': 125, 'rot0': 116, 'rot3': 0, 'rot2': 0, 'depth': 0.699, 'yaw': -23.09, 'datetime': '2018-12-12 10:45:50.573228', 'mgs': 0, 'flw2': 0.0, 'flw1': 0.03, 'flw0': 0.0, 'time': 18.06, 'compass': -172.1, 'pitch': -6.14, 'roll': 1.58}
{'lipoC2': 8.06, 'temp': 0.0, 'lipoC3S3': 12.27, 'state': 'normal', 'rot1': 125, 'rot0': 116, 'rot3': 0, 'rot2': 0, 'depth': 0.089, 'yaw': -22.85, 'datetime': '2018-12-12 10:45:50.781865', 'mgs': 0, 'flw2': 0.31, 'flw1': 0.0, 'flw0': 0.17, 'time': 18.26, 'compass': -171.86, 'pitch': -5.98, 'roll': 1.82}
{'lipoC2': 8.05, 'temp': 0.0, 'lipoC3S3': 12.06, 'state': 'normal', 'rot1': 125, 'rot0': 116, 'rot3': 0, 'rot2': 0, 'depth': 2.911, 'yaw': -22.69, 'datetime': '2018-12-12 10:45:50.993734', 'mgs': 0, 'flw2': 0.0, 'flw1': 0.67, 'flw0': 0.0, 'time': 18.48, 'compass': -171.7, 'pitch': -5.98, 'roll': 2.17}
{'lipoC2': 8.0, 'temp': 0.0, 'lipoC3S3': 12.45, 'state': 'normal', 'rot1': 125, 'rot0': 116, 'rot3': 0, 'rot2': 0, 'depth': 0.851, 'yaw': -22.61, 'datetime': '2018-12-12 10:45:51.209317', 'mgs': 0, 'flw2': 0.0, 'flw1': 0.0, 'flw0': 0.28, 'time': 18.68, 'compass': -171.63, 'pitch': -6.06, 'roll': 2.48}
{'lipoC2': 8.11, 'temp': 0.0, 'lipoC3S3': 12.02, 'state': 'normal', 'rot1': 125, 'rot0': 116, 'rot3': 0, 'rot2': 0, 'depth': 2.988, 'yaw': -22.62, 'datetime': '2018-12-12 10:45:51.418405', 'mgs': 0, 'flw2': 0.29, 'flw1': 0.0, 'flw0': 0.0, 'time': 18.89, 'compass': -171.63, 'pitch': -6.13, 'roll': 2.5}
{'lipoC2': 8.04, 'temp': 0.0, 'lipoC3S3': 12.51, 'state': 'normal', 'rot1': 125, 'rot0': 116, 'rot3': 0, 'rot2': 0, 'depth': -0.217, 'yaw': -22.61, 'datetime': '2018-12-12 10:45:51.628577', 'mgs': 0, 'flw2': 0.27, 'flw1': 0.0, 'flw0': 0.01, 'time': 19.1, 'compass': -171.62, 'pitch': -6.14, 'roll': 2.44}
{'lipoC2': 8.12, 'temp': 0.0, 'lipoC3S3': 12.04, 'state': 'normal', 'rot1': 125, 'rot0': 116, 'rot3': 0, 'rot2': 0, 'depth': 0.317, 'yaw': -22.6, 'datetime': '2018-12-12 10:45:51.839499', 'mgs': 0, 'flw2': 0.11, 'flw1': 0.0, 'flw0': 0.0, 'time': 19.31, 'compass': -171.62, 'pitch': -6.13, 'roll': 2.38}
{'lipoC2': 8.07, 'temp': 0.0, 'lipoC3S3': 12.43, 'state': 'normal', 'rot1': 125, 'rot0': 116, 'rot3': 0, 'rot2': 0, 'depth': 0.546, 'yaw': -22.59, 'datetime': '2018-12-12 10:45:52.048752', 'mgs': 0, 'flw2': 0.28, 'flw1': 0.0, 'flw0': 0.1, 'time': 19.52, 'compass': -171.6, 'pitch': -6.13, 'roll': 2.3}
{'lipoC2': 8.11, 'temp': 0.0, 'lipoC3S3': 12.25, 'state': 'normal', 'rot1': 125, 'rot0': 116, 'rot3': 0, 'rot2': 0, 'depth': 0.241, 'yaw': -22.57, 'datetime': '2018-12-12 10:45:52.258893', 'mgs': 0, 'flw2': 0.24, 'flw1': 0.0, 'flw0': 0.26, 'time': 19.73, 'compass': -171.59, 'pitch': -6.13, 'roll': 2.1}
{'lipoC2': 8.01, 'temp': 0.0, 'lipoC3S3': 12.52, 'state': 'normal', 'rot1': 125, 'rot0': 116, 'rot3': 0, 'rot2': 0, 'depth': -0.369, 'yaw': -22.55, 'datetime': '2018-12-12 10:45:52.462558', 'mgs': 0, 'flw2': 0.0, 'flw1': 0.7, 'flw0': 0.0, 'time': 19.94, 'compass': -171.56, 'pitch': -6.13, 'roll': 1.89}
{'lipoC2': 8.25, 'temp': 0.0, 'lipoC3S3': 12.14, 'state': 'normal', 'rot1': 125, 'rot0': 116, 'rot3': 0, 'rot2': 0, 'depth': -0.446, 'yaw': -22.55, 'datetime': '2018-12-12 10:45:52.673180', 'mgs': 0, 'flw2': 0.26, 'flw1': 0.0, 'flw0': 0.02, 'time': 20.15, 'compass': -171.56, 'pitch': -5.98, 'roll': 1.87}
{'lipoC2': 8.22, 'temp': 0.0, 'lipoC3S3': 12.09, 'state': 'normal', 'rot1': 125, 'rot0': 116, 'rot3': 0, 'rot2': 0, 'depth': 0.089, 'yaw': -22.55, 'datetime': '2018-12-12 10:45:52.881395', 'mgs': 0, 'flw2': 0.0, 'flw1': 0.09, 'flw0': 0.0, 'time': 20.36, 'compass': -171.56, 'pitch': -5.6, 'roll': 1.87}
{'lipoC2': 8.25, 'temp': 0.0, 'lipoC3S3': 12.08, 'state': 'normal', 'rot1': 125, 'rot0': 116, 'rot3': 0, 'rot2': 0, 'depth': 1.157, 'yaw': -22.61, 'datetime': '2018-12-12 10:45:53.096980', 'mgs': 0, 'flw2': 0.0, 'flw1': 0.0, 'flw0': 0.15, 'time': 20.57, 'compass': -171.62, 'pitch': -5.3, 'roll': 1.98}
{'lipoC2': 8.22, 'temp': 0.0, 'lipoC3S3': 12.12, 'state': 'normal', 'rot1': 125, 'rot0': 116, 'rot3': 0, 'rot2': 0, 'depth': 0.089, 'yaw': -22.65, 'datetime': '2018-12-12 10:45:53.306549', 'mgs': 0, 'flw2': 0.0, 'flw1': 0.35, 'flw0': 0.0, 'time': 20.78, 'compass': -171.66, 'pitch': -5.38, 'roll': 2.22}
{'lipoC2': 8.06, 'temp': 0.0, 'lipoC3S3': 12.21, 'state': 'normal', 'rot1': 125, 'rot0': 116, 'rot3': 0, 'rot2': 0, 'depth': -0.064, 'yaw': -22.67, 'datetime': '2018-12-12 10:45:53.517458', 'mgs': 0, 'flw2': 0.29, 'flw1': 0.0, 'flw0': 0.11, 'time': 20.99, 'compass': -171.68, 'pitch': -5.5, 'roll': 2.28}
{'lipoC2': 8.14, 'temp': 0.0, 'lipoC3S3': 12.05, 'state': 'normal', 'rot1': 125, 'rot0': 116, 'rot3': 0, 'rot2': 0, 'depth': 2.682, 'yaw': -22.68, 'datetime': '2018-12-12 10:45:53.725553', 'mgs': 0, 'flw2': 0.0, 'flw1': 0.18, 'flw0': 0.0, 'time': 21.2, 'compass': -171.69, 'pitch': -5.44, 'roll': 2.35}
{'lipoC2': 8.28, 'temp': 0.0, 'lipoC3S3': 12.16, 'state': 'normal', 'rot1': 125, 'rot0': 116, 'rot3': 0, 'rot2': 0, 'depth': -0.751, 'yaw': -22.7, 'datetime': '2018-12-12 10:45:53.935631', 'mgs': 0, 'flw2': 0.29, 'flw1': 0.0, 'flw0': 0.07, 'time': 21.41, 'compass': -171.71, 'pitch': -5.3, 'roll': 2.43}
{'lipoC2': 8.05, 'temp': 0.0, 'lipoC3S3': 12.16, 'state': 'normal', 'rot1': 125, 'rot0': 116, 'rot3': 0, 'rot2': 0, 'depth': 0.089, 'yaw': -22.71, 'datetime': '2018-12-12 10:45:54.146031', 'mgs': 0, 'flw2': 0.0, 'flw1': 0.67, 'flw0': 0.0, 'time': 21.62, 'compass': -171.72, 'pitch': -5.3, 'roll': 2.52}
{'lipoC2': 8.05, 'temp': 0.0, 'lipoC3S3': 12.02, 'state': 'normal', 'rot1': 125, 'rot0': 116, 'rot3': 0, 'rot2': 0, 'depth': 0.317, 'yaw': -22.76, 'datetime': '2018-12-12 10:45:54.355125', 'mgs': 0, 'flw2': 0.01, 'flw1': 0.0, 'flw0': 0.28, 'time': 21.83, 'compass': -171.77, 'pitch': -5.51, 'roll': 2.43}
{'lipoC2': 8.29, 'temp': 0.0, 'lipoC3S3': 12.17, 'state': 'normal', 'rot1': 125, 'rot0': 116, 'rot3': 0, 'rot2': 0, 'depth': 0.47, 'yaw': -22.8, 'datetime': '2018-12-12 10:45:54.565579', 'mgs': 0, 'flw2': 0.29, 'flw1': 0.0, 'flw0': 0.12, 'time': 22.03, 'compass': -171.81, 'pitch': -5.67, 'roll': 2.32}
{'lipoC2': 8.31, 'temp': 0.0, 'lipoC3S3': 12.16, 'state': 'normal', 'rot1': 125, 'rot0': 116, 'rot3': 0, 'rot2': 0, 'depth': -0.674, 'yaw': -22.8, 'datetime': '2018-12-12 10:45:54.775137', 'mgs': 0, 'flw2': 0.24, 'flw1': 0.0, 'flw0': 0.0, 'time': 22.25, 'compass': -171.82, 'pitch': -5.57, 'roll': 2.2}
{'lipoC2': 8.26, 'temp': 0.0, 'lipoC3S3': 12.14, 'state': 'normal', 'rot1': 125, 'rot0': 116, 'rot3': 0, 'rot2': 0, 'depth': 0.165, 'yaw': -22.8, 'datetime': '2018-12-12 10:45:54.989749', 'mgs': 0, 'flw2': 0.0, 'flw1': 0.21, 'flw0': 0.0, 'time': 22.45, 'compass': -171.81, 'pitch': -5.42, 'roll': 2.07}
{'lipoC2': 8.27, 'temp': 0.0, 'lipoC3S3': 12.16, 'state': 'normal', 'rot1': 125, 'rot0': 116, 'rot3': 0, 'rot2': 0, 'depth': -0.827, 'yaw': -22.79, 'datetime': '2018-12-12 10:45:55.194409', 'mgs': 0, 'flw2': 0.28, 'flw1': 0.0, 'flw0': 0.12, 'time': 22.66, 'compass': -171.8, 'pitch': -5.18, 'roll': 1.94}
{'lipoC2': 8.15, 'temp': 0.0, 'lipoC3S3': 12.26, 'state': 'normal', 'rot1': 125, 'rot0': 116, 'rot3': 0, 'rot2': 0, 'depth': -0.598, 'yaw': -22.79, 'datetime': '2018-12-12 10:45:55.398983', 'mgs': 0, 'flw2': 0.0, 'flw1': 0.09, 'flw0': 0.0, 'time': 22.87, 'compass': -171.8, 'pitch': -4.84, 'roll': 1.87}
{'lipoC2': 8.17, 'temp': 0.0, 'lipoC3S3': 12.09, 'state': 'normal', 'rot1': 125, 'rot0': 116, 'rot3': 0, 'rot2': 0, 'depth': -0.14, 'yaw': -22.79, 'datetime': '2018-12-12 10:45:55.610841', 'mgs': 0, 'flw2': 0.0, 'flw1': 0.38, 'flw0': 0.0, 'time': 23.08, 'compass': -171.8, 'pitch': -4.76, 'roll': 1.84}
{'lipoC2': 8.26, 'temp': 0.0, 'lipoC3S3': 12.17, 'state': 'normal', 'rot1': 125, 'rot0': 116, 'rot3': 0, 'rot2': 0, 'depth': 1.004, 'yaw': -22.81, 'datetime': '2018-12-12 10:45:55.819118', 'mgs': 0, 'flw2': 0.0, 'flw1': 0.64, 'flw0': 0.0, 'time': 23.29, 'compass': -171.82, 'pitch': -5.1, 'roll': 2.01}
{'lipoC2': 8.19, 'temp': 0.0, 'lipoC3S3': 12.09, 'state': 'normal', 'rot1': 125, 'rot0': 116, 'rot3': 0, 'rot2': 0, 'depth': -0.14, 'yaw': -22.84, 'datetime': '2018-12-12 10:45:56.031284', 'mgs': 0, 'flw2': 0.0, 'flw1': 0.18, 'flw0': 0.0, 'time': 23.5, 'compass': -171.85, 'pitch': -5.17, 'roll': 2.32}
{'lipoC2': 8.05, 'temp': 0.0, 'lipoC3S3': 12.29, 'state': 'normal', 'rot1': 125, 'rot0': 116, 'rot3': 0, 'rot2': 0, 'depth': 1.157, 'yaw': -22.85, 'datetime': '2018-12-12 10:45:56.239770', 'mgs': 0, 'flw2': 0.2, 'flw1': 0.0, 'flw0': 0.24, 'time': 23.71, 'compass': -171.86, 'pitch': -4.97, 'roll': 2.34}
{'lipoC2': 8.04, 'temp': 0.0, 'lipoC3S3': 12.06, 'state': 'normal', 'rot1': 125, 'rot0': 116, 'rot3': 0, 'rot2': 0, 'depth': 0.241, 'yaw': -22.84, 'datetime': '2018-12-12 10:45:56.451453', 'mgs': 0, 'flw2': 0.0, 'flw1': 0.0, 'flw0': 0.29, 'time': 23.92, 'compass': -171.85, 'pitch': -4.87, 'roll': 2.18}
{'lipoC2': 8.05, 'temp': 0.0, 'lipoC3S3': 12.1, 'state': 'normal', 'rot1': 125, 'rot0': 116, 'rot3': 0, 'rot2': 0, 'depth': 0.165, 'yaw': -22.83, 'datetime': '2018-12-12 10:45:56.662913', 'mgs': 0, 'flw2': 0.0, 'flw1': 0.0, 'flw0': 0.31, 'time': 24.13, 'compass': -171.84, 'pitch': -4.83, 'roll': 2.16}
{'lipoC2': 8.07, 'temp': 0.0, 'lipoC3S3': 12.02, 'state': 'normal', 'rot1': 125, 'rot0': 116, 'rot3': 0, 'rot2': 0, 'depth': 0.241, 'yaw': -22.85, 'datetime': '2018-12-12 10:45:56.870349', 'mgs': 0, 'flw2': 0.0, 'flw1': 0.0, 'flw0': 0.0, 'time': 24.34, 'compass': -171.86, 'pitch': -4.92, 'roll': 2.31}
{'lipoC2': 8.31, 'temp': 0.0, 'lipoC3S3': 12.18, 'state': 'normal', 'rot1': 125, 'rot0': 116, 'rot3': 0, 'rot2': 0, 'depth': 0.928, 'yaw': -22.85, 'datetime': '2018-12-12 10:45:57.079630', 'mgs': 0, 'flw2': 0.0, 'flw1': 0.64, 'flw0': 0.0, 'time': 24.55, 'compass': -171.86, 'pitch': -5.16, 'roll': 2.36}
{'lipoC2': 8.19, 'temp': 0.0, 'lipoC3S3': 12.05, 'state': 'normal', 'rot1': 125, 'rot0': 116, 'rot3': 0, 'rot2': 0, 'depth': 2.072, 'yaw': -22.85, 'datetime': '2018-12-12 10:45:57.288804', 'mgs': 0, 'flw2': 0.0, 'flw1': 0.0, 'flw0': 0.11, 'time': 24.76, 'compass': -171.86, 'pitch': -5.11, 'roll': 2.22}
{'lipoC2': 8.06, 'temp': 0.0, 'lipoC3S3': 12.02, 'state': 'normal', 'rot1': 125, 'rot0': 116, 'rot3': 0, 'rot2': 0, 'depth': 0.317, 'yaw': -22.84, 'datetime': '2018-12-12 10:45:57.498743', 'mgs': 0, 'flw2': 0.0, 'flw1': 0.0, 'flw0': 0.0, 'time': 24.97, 'compass': -171.86, 'pitch': -5.0, 'roll': 2.03}
{'lipoC2': 8.05, 'temp': 0.0, 'lipoC3S3': 12.05, 'state': 'normal', 'rot1': 125, 'rot0': 116, 'rot3': 0, 'rot2': 0, 'depth': 2.454, 'yaw': -22.81, 'datetime': '2018-12-12 10:45:57.708065', 'mgs': 0, 'flw2': 0.0, 'flw1': 0.5, 'flw0': 0.0, 'time': 25.18, 'compass': -171.83, 'pitch': -5.17, 'roll': 1.93}
{'lipoC2': 8.15, 'temp': 0.0, 'lipoC3S3': 12.3, 'state': 'normal', 'rot1': 125, 'rot0': 116, 'rot3': 0, 'rot2': 0, 'depth': 2.225, 'yaw': -22.77, 'datetime': '2018-12-12 10:45:57.917595', 'mgs': 0, 'flw2': 0.0, 'flw1': 0.0, 'flw0': 0.04, 'time': 25.39, 'compass': -171.78, 'pitch': -5.08, 'roll': 1.87}
{'lipoC2': 8.25, 'temp': 0.0, 'lipoC3S3': 12.43, 'state': 'normal', 'rot1': 125, 'rot0': 116, 'rot3': 0, 'rot2': 0, 'depth': 1.004, 'yaw': -22.62, 'datetime': '2018-12-12 10:45:58.128338', 'mgs': 0, 'flw2': 0.0, 'flw1': 0.0, 'flw0': 0.28, 'time': 25.6, 'compass': -171.63, 'pitch': -4.84, 'roll': 1.86}
{'lipoC2': 8.1, 'temp': 0.0, 'lipoC3S3': 12.22, 'state': 'normal', 'rot1': 125, 'rot0': 116, 'rot3': 0, 'rot2': 0, 'depth': 0.012, 'yaw': -22.44, 'datetime': '2018-12-12 10:45:58.339932', 'mgs': 0, 'flw2': 0.11, 'flw1': 0.0, 'flw0': 0.0, 'time': 25.81, 'compass': -171.45, 'pitch': -5.06, 'roll': 1.89}
{'lipoC2': 8.07, 'temp': 0.0, 'lipoC3S3': 12.02, 'state': 'normal', 'rot1': 125, 'rot0': 116, 'rot3': 0, 'rot2': 0, 'depth': 2.988, 'yaw': -22.2, 'datetime': '2018-12-12 10:45:58.550810', 'mgs': 0, 'flw2': 0.0, 'flw1': 0.0, 'flw0': 0.11, 'time': 26.01, 'compass': -171.21, 'pitch': -5.52, 'roll': 2.11}
{'lipoC2': 8.06, 'temp': 0.0, 'lipoC3S3': 12.02, 'state': 'normal', 'rot1': 125, 'rot0': 116, 'rot3': 0, 'rot2': 0, 'depth': 0.089, 'yaw': -21.93, 'datetime': '2018-12-12 10:45:58.755127', 'mgs': 0, 'flw2': 0.0, 'flw1': 0.7, 'flw0': 0.0, 'time': 26.22, 'compass': -170.94, 'pitch': -5.41, 'roll': 2.26}
{'lipoC2': 8.31, 'temp': 0.0, 'lipoC3S3': 12.16, 'state': 'normal', 'rot1': 125, 'rot0': 116, 'rot3': 0, 'rot2': 0, 'depth': -0.446, 'yaw': -21.59, 'datetime': '2018-12-12 10:45:58.964514', 'mgs': 0, 'flw2': 0.23, 'flw1': 0.0, 'flw0': 0.0, 'time': 26.43, 'compass': -170.6, 'pitch': -4.85, 'roll': 2.2}
{'lipoC2': 8.24, 'temp': 0.0, 'lipoC3S3': 12.1, 'state': 'normal', 'rot1': 125, 'rot0': 116, 'rot3': 0, 'rot2': 0, 'depth': 0.089, 'yaw': -21.25, 'datetime': '2018-12-12 10:45:59.174089', 'mgs': 0, 'flw2': 0.18, 'flw1': 0.0, 'flw0': 0.0, 'time': 26.64, 'compass': -170.26, 'pitch': -4.55, 'roll': 2.18}
{'lipoC2': 8.07, 'temp': 0.0, 'lipoC3S3': 12.01, 'state': 'normal', 'rot1': 125, 'rot0': 116, 'rot3': 0, 'rot2': 0, 'depth': -0.064, 'yaw': -20.85, 'datetime': '2018-12-12 10:45:59.382685', 'mgs': 0, 'flw2': 0.0, 'flw1': 0.59, 'flw0': 0.0, 'time': 26.85, 'compass': -169.86, 'pitch': -4.78, 'roll': 2.29}
{'lipoC2': 8.09, 'temp': 0.0, 'lipoC3S3': 12.18, 'state': 'normal', 'rot1': 125, 'rot0': 116, 'rot3': 0, 'rot2': 0, 'depth': -0.064, 'yaw': -20.43, 'datetime': '2018-12-12 10:45:59.608328', 'mgs': 0, 'flw2': 0.0, 'flw1': 0.5, 'flw0': 0.0, 'time': 27.06, 'compass': -169.44, 'pitch': -5.28, 'roll': 2.57}
{'lipoC2': 8.34, 'temp': 0.0, 'lipoC3S3': 12.16, 'state': 'normal', 'rot1': 125, 'rot0': 116, 'rot3': 0, 'rot2': 0, 'depth': -1.132, 'yaw': -19.74, 'datetime': '2018-12-12 10:45:59.907044', 'mgs': 0, 'flw2': 0.0, 'flw1': 0.0, 'flw0': 0.0, 'time': 27.38, 'compass': -168.75, 'pitch': -5.26, 'roll': 2.53}
{'lipoC2': 8.15, 'temp': 0.0, 'lipoC3S3': 12.06, 'state': 'normal', 'rot1': 125, 'rot0': 116, 'rot3': 0, 'rot2': 0, 'depth': -0.14, 'yaw': -19.3, 'datetime': '2018-12-12 10:46:00.117320', 'mgs': 0, 'flw2': 0.0, 'flw1': 0.09, 'flw0': 0.0, 'time': 27.58, 'compass': -168.31, 'pitch': -4.95, 'roll': 2.32}
{'lipoC2': 8.26, 'temp': 0.0, 'lipoC3S3': 12.16, 'state': 'normal', 'rot1': 125, 'rot0': 116, 'rot3': 0, 'rot2': 0, 'depth': 0.165, 'yaw': -18.85, 'datetime': '2018-12-12 10:46:00.324816', 'mgs': 0, 'flw2': 0.0, 'flw1': 0.44, 'flw0': 0.0, 'time': 27.79, 'compass': -167.86, 'pitch': -5.03, 'roll': 2.18}
{'lipoC2': 8.19, 'temp': 0.0, 'lipoC3S3': 12.1, 'state': 'normal', 'rot1': 125, 'rot0': 116, 'rot3': 0, 'rot2': 0, 'depth': -0.14, 'yaw': -18.39, 'datetime': '2018-12-12 10:46:00.534621', 'mgs': 0, 'flw2': 0.0, 'flw1': 0.64, 'flw0': 0.0, 'time': 28.0, 'compass': -167.4, 'pitch': -5.17, 'roll': 2.16}
{'lipoC2': 8.22, 'temp': 0.0, 'lipoC3S3': 12.12, 'state': 'normal', 'rot1': 125, 'rot0': 116, 'rot3': 0, 'rot2': 0, 'depth': 1.309, 'yaw': -17.93, 'datetime': '2018-12-12 10:46:00.745386', 'mgs': 0, 'flw2': 0.29, 'flw1': 0.0, 'flw0': 0.05, 'time': 28.21, 'compass': -166.94, 'pitch': -4.91, 'roll': 2.13}
{'lipoC2': 8.29, 'temp': 0.0, 'lipoC3S3': 12.14, 'state': 'normal', 'rot1': 125, 'rot0': 116, 'rot3': 0, 'rot2': 0, 'depth': -0.674, 'yaw': -17.49, 'datetime': '2018-12-12 10:46:00.955636', 'mgs': 0, 'flw2': 0.06, 'flw1': 0.0, 'flw0': 0.0, 'time': 28.42, 'compass': -166.5, 'pitch': -4.89, 'roll': 2.07}
{'lipoC2': 8.07, 'temp': 0.0, 'lipoC3S3': 12.02, 'state': 'normal', 'rot1': 125, 'rot0': 116, 'rot3': 0, 'rot2': 0, 'depth': 2.759, 'yaw': -17.05, 'datetime': '2018-12-12 10:46:01.163805', 'mgs': 0, 'flw2': 0.0, 'flw1': 0.32, 'flw0': 0.0, 'time': 28.63, 'compass': -166.06, 'pitch': -5.38, 'roll': 2.05}
{'lipoC2': 8.14, 'temp': 0.0, 'lipoC3S3': 12.3, 'state': 'normal', 'rot1': 125, 'rot0': 116, 'rot3': 0, 'rot2': 0, 'depth': 2.454, 'yaw': -16.62, 'datetime': '2018-12-12 10:46:01.379614', 'mgs': 0, 'flw2': 0.0, 'flw1': 0.0, 'flw0': 0.0, 'time': 28.84, 'compass': -165.63, 'pitch': -5.49, 'roll': 2.08}
{'lipoC2': 8.07, 'temp': 0.0, 'lipoC3S3': 12.02, 'state': 'normal', 'rot1': 125, 'rot0': 116, 'rot3': 0, 'rot2': 0, 'depth': 0.241, 'yaw': -16.19, 'datetime': '2018-12-12 10:46:01.588196', 'mgs': 0, 'flw2': 0.0, 'flw1': 0.0, 'flw0': 0.15, 'time': 29.05, 'compass': -165.2, 'pitch': -5.02, 'roll': 2.13}
{'lipoC2': 8.22, 'temp': 0.0, 'lipoC3S3': 12.13, 'state': 'normal', 'rot1': 125, 'rot0': 116, 'rot3': 0, 'rot2': 0, 'depth': -0.064, 'yaw': -15.76, 'datetime': '2018-12-12 10:46:01.797855', 'mgs': 0, 'flw2': 0.0, 'flw1': 0.47, 'flw0': 0.0, 'time': 29.26, 'compass': -164.77, 'pitch': -4.77, 'roll': 2.16}
{'lipoC2': 8.27, 'temp': 0.0, 'lipoC3S3': 12.16, 'state': 'normal', 'rot1': 125, 'rot0': 116, 'rot3': 0, 'rot2': 0, 'depth': 0.317, 'yaw': -15.36, 'datetime': '2018-12-12 10:46:02.006800', 'mgs': 0, 'flw2': 0.22, 'flw1': 0.0, 'flw0': 0.0, 'time': 29.47, 'compass': -164.37, 'pitch': -5.13, 'roll': 2.27}
{'lipoC2': 8.04, 'temp': 0.0, 'lipoC3S3': 12.13, 'state': 'normal', 'rot1': 125, 'rot0': 116, 'rot3': 0, 'rot2': 0, 'depth': 2.454, 'yaw': -14.94, 'datetime': '2018-12-12 10:46:02.217812', 'mgs': 0, 'flw2': 0.32, 'flw1': 0.0, 'flw0': 0.18, 'time': 29.68, 'compass': -163.95, 'pitch': -5.46, 'roll': 2.4}
{'lipoC2': 8.29, 'temp': 0.0, 'lipoC3S3': 12.16, 'state': 'normal', 'rot1': 125, 'rot0': 116, 'rot3': 0, 'rot2': 0, 'depth': 0.47, 'yaw': -14.52, 'datetime': '2018-12-12 10:46:02.427245', 'mgs': 0, 'flw2': 0.0, 'flw1': 0.35, 'flw0': 0.0, 'time': 29.89, 'compass': -163.54, 'pitch': -5.38, 'roll': 2.44}
{'lipoC2': 8.27, 'temp': 0.0, 'lipoC3S3': 12.16, 'state': 'normal', 'rot1': 125, 'rot0': 116, 'rot3': 0, 'rot2': 0, 'depth': -0.827, 'yaw': -14.12, 'datetime': '2018-12-12 10:46:02.635617', 'mgs': 0, 'flw2': 0.2, 'flw1': 0.0, 'flw0': 0.0, 'time': 30.09, 'compass': -163.13, 'pitch': -5.3, 'roll': 2.39}
{'lipoC2': 7.99, 'temp': 0.0, 'lipoC3S3': 12.43, 'state': 'normal', 'rot1': 125, 'rot0': 116, 'rot3': 0, 'rot2': 0, 'depth': 0.241, 'yaw': -13.7, 'datetime': '2018-12-12 10:46:02.845165', 'mgs': 0, 'flw2': 0.09, 'flw1': 0.0, 'flw0': 0.29, 'time': 30.3, 'compass': -162.71, 'pitch': -5.21, 'roll': 2.37}
{'lipoC2': 8.11, 'temp': 0.0, 'lipoC3S3': 12.01, 'state': 'normal', 'rot1': 125, 'rot0': 116, 'rot3': 0, 'rot2': 0, 'depth': 2.682, 'yaw': -13.3, 'datetime': '2018-12-12 10:46:03.053472', 'mgs': 0, 'flw2': 0.0, 'flw1': 0.0, 'flw0': 0.33, 'time': 30.51, 'compass': -162.31, 'pitch': -5.12, 'roll': 2.33}
{'lipoC2': 8.05, 'temp': 0.0, 'lipoC3S3': 12.12, 'state': 'normal', 'rot1': 125, 'rot0': 116, 'rot3': 0, 'rot2': 0, 'depth': 2.148, 'yaw': -12.9, 'datetime': '2018-12-12 10:46:03.264540', 'mgs': 0, 'flw2': 0.0, 'flw1': 0.67, 'flw0': 0.0, 'time': 30.72, 'compass': -161.91, 'pitch': -5.07, 'roll': 2.25}
{'lipoC2': 8.31, 'temp': 0.0, 'lipoC3S3': 12.18, 'state': 'normal', 'rot1': 125, 'rot0': 116, 'rot3': 0, 'rot2': 0, 'depth': -0.293, 'yaw': -12.49, 'datetime': '2018-12-12 10:46:03.474543', 'mgs': 0, 'flw2': 0.0, 'flw1': 0.64, 'flw0': 0.0, 'time': 30.93, 'compass': -161.5, 'pitch': -4.89, 'roll': 2.15}
{'lipoC2': 8.0, 'temp': 0.0, 'lipoC3S3': 12.51, 'state': 'normal', 'rot1': 125, 'rot0': 116, 'rot3': 0, 'rot2': 0, 'depth': 0.394, 'yaw': -12.14, 'datetime': '2018-12-12 10:46:03.682509', 'mgs': 0, 'flw2': 0.0, 'flw1': 0.67, 'flw0': 0.0, 'time': 31.14, 'compass': -161.15, 'pitch': -4.79, 'roll': 2.23}
{'lipoC2': 8.07, 'temp': 0.0, 'lipoC3S3': 12.27, 'state': 'normal', 'rot1': 125, 'rot0': 116, 'rot3': 0, 'rot2': 0, 'depth': -0.446, 'yaw': -11.77, 'datetime': '2018-12-12 10:46:03.891148', 'mgs': 0, 'flw2': 0.17, 'flw1': 0.0, 'flw0': 0.28, 'time': 31.35, 'compass': -160.78, 'pitch': -4.85, 'roll': 2.23}
{'lipoC2': 8.0, 'temp': 0.0, 'lipoC3S3': 12.04, 'state': 'normal', 'rot1': 125, 'rot0': 116, 'rot3': 0, 'rot2': 0, 'depth': 0.317, 'yaw': -11.39, 'datetime': '2018-12-12 10:46:04.100573', 'mgs': 0, 'flw2': 0.16, 'flw1': 0.0, 'flw0': 0.0, 'time': 31.56, 'compass': -160.4, 'pitch': -4.79, 'roll': 2.38}
{'lipoC2': 8.11, 'temp': 0.0, 'lipoC3S3': 12.05, 'state': 'normal', 'rot1': 125, 'rot0': 116, 'rot3': 0, 'rot2': 0, 'depth': 2.682, 'yaw': -10.99, 'datetime': '2018-12-12 10:46:04.307162', 'mgs': 0, 'flw2': 0.0, 'flw1': 0.0, 'flw0': 0.01, 'time': 31.77, 'compass': -160.0, 'pitch': -4.69, 'roll': 2.62}
{'lipoC2': 8.09, 'temp': 0.0, 'lipoC3S3': 12.04, 'state': 'normal', 'rot1': 125, 'rot0': 116, 'rot3': 0, 'rot2': 0, 'depth': 2.682, 'yaw': -10.58, 'datetime': '2018-12-12 10:46:04.516029', 'mgs': 0, 'flw2': 0.13, 'flw1': 0.0, 'flw0': 0.0, 'time': 31.98, 'compass': -159.59, 'pitch': -5.01, 'roll': 2.81}
{'lipoC2': 8.05, 'temp': 0.0, 'lipoC3S3': 12.09, 'state': 'normal', 'rot1': 125, 'rot0': 116, 'rot3': 0, 'rot2': 0, 'depth': -0.064, 'yaw': -10.16, 'datetime': '2018-12-12 10:46:04.726812', 'mgs': 0, 'flw2': 0.0, 'flw1': 0.0, 'flw0': 0.29, 'time': 32.19, 'compass': -159.17, 'pitch': -5.33, 'roll': 2.83}
{'lipoC2': 7.99, 'temp': 0.0, 'lipoC3S3': 12.45, 'state': 'normal', 'rot1': 125, 'rot0': 116, 'rot3': 0, 'rot2': 0, 'depth': 0.928, 'yaw': -9.74, 'datetime': '2018-12-12 10:46:04.935040', 'mgs': 0, 'flw2': 0.0, 'flw1': 0.0, 'flw0': 0.2, 'time': 32.39, 'compass': -158.75, 'pitch': -4.95, 'roll': 2.74}
{'lipoC2': 8.33, 'temp': 0.0, 'lipoC3S3': 12.18, 'state': 'normal', 'rot1': 125, 'rot0': 116, 'rot3': 0, 'rot2': 0, 'depth': -0.598, 'yaw': -9.33, 'datetime': '2018-12-12 10:46:05.144778', 'mgs': 0, 'flw2': 0.0, 'flw1': 0.56, 'flw0': 0.0, 'time': 32.6, 'compass': -158.34, 'pitch': -4.53, 'roll': 2.71}
{'lipoC2': 8.05, 'temp': 0.0, 'lipoC3S3': 12.18, 'state': 'normal', 'rot1': 125, 'rot0': 116, 'rot3': 0, 'rot2': 0, 'depth': -0.217, 'yaw': -8.88, 'datetime': '2018-12-12 10:46:05.353088', 'mgs': 0, 'flw2': 0.0, 'flw1': 0.0, 'flw0': 0.28, 'time': 32.81, 'compass': -157.89, 'pitch': -4.55, 'roll': 2.64}
{'lipoC2': 8.06, 'temp': 0.0, 'lipoC3S3': 12.26, 'state': 'normal', 'rot1': 125, 'rot0': 116, 'rot3': 0, 'rot2': 0, 'depth': 1.462, 'yaw': -8.41, 'datetime': '2018-12-12 10:46:05.562660', 'mgs': 0, 'flw2': 0.15, 'flw1': 0.0, 'flw0': 0.0, 'time': 33.02, 'compass': -157.43, 'pitch': -4.84, 'roll': 2.49}
{'lipoC2': 8.1, 'temp': 0.0, 'lipoC3S3': 12.05, 'state': 'normal', 'rot1': 125, 'rot0': 116, 'rot3': 0, 'rot2': 0, 'depth': 0.165, 'yaw': -7.94, 'datetime': '2018-12-12 10:46:05.773149', 'mgs': 0, 'flw2': 0.0, 'flw1': 0.18, 'flw0': 0.0, 'time': 33.23, 'compass': -156.95, 'pitch': -5.02, 'roll': 2.27}
{'lipoC2': 8.05, 'temp': 0.0, 'lipoC3S3': 12.04, 'state': 'normal', 'rot1': 125, 'rot0': 116, 'rot3': 0, 'rot2': 0, 'depth': 2.225, 'yaw': -7.51, 'datetime': '2018-12-12 10:46:05.984663', 'mgs': 0, 'flw2': 0.07, 'flw1': 0.0, 'flw0': 0.0, 'time': 33.44, 'compass': -156.52, 'pitch': -4.86, 'roll': 2.03}
{'lipoC2': 8.13, 'temp': 0.0, 'lipoC3S3': 12.27, 'state': 'normal', 'rot1': 125, 'rot0': 116, 'rot3': 0, 'rot2': 0, 'depth': -0.14, 'yaw': -7.15, 'datetime': '2018-12-12 10:46:06.190264', 'mgs': 0, 'flw2': 0.12, 'flw1': 0.0, 'flw0': 0.0, 'time': 33.65, 'compass': -156.16, 'pitch': -4.49, 'roll': 1.84}
{'lipoC2': 8.31, 'temp': 0.0, 'lipoC3S3': 12.16, 'state': 'normal', 'rot1': 125, 'rot0': 116, 'rot3': 0, 'rot2': 0, 'depth': -0.827, 'yaw': -6.82, 'datetime': '2018-12-12 10:46:06.398481', 'mgs': 0, 'flw2': 0.13, 'flw1': 0.0, 'flw0': 0.0, 'time': 33.86, 'compass': -155.83, 'pitch': -4.43, 'roll': 1.89}
{'lipoC2': 8.04, 'temp': 0.0, 'lipoC3S3': 12.04, 'state': 'normal', 'rot1': 125, 'rot0': 116, 'rot3': 0, 'rot2': 0, 'depth': 2.835, 'yaw': -6.46, 'datetime': '2018-12-12 10:46:06.607976', 'mgs': 0, 'flw2': 0.0, 'flw1': 0.62, 'flw0': 0.0, 'time': 34.07, 'compass': -155.47, 'pitch': -4.67, 'roll': 2.23}
{'lipoC2': 8.0, 'temp': 0.0, 'lipoC3S3': 12.52, 'state': 'normal', 'rot1': 125, 'rot0': 116, 'rot3': 0, 'rot2': 0, 'depth': 0.317, 'yaw': -6.13, 'datetime': '2018-12-12 10:46:06.818872', 'mgs': 0, 'flw2': 0.0, 'flw1': 0.09, 'flw0': 0.0, 'time': 34.28, 'compass': -155.14, 'pitch': -4.69, 'roll': 2.45}
{'lipoC2': 8.06, 'temp': 0.0, 'lipoC3S3': 12.02, 'state': 'normal', 'rot1': 125, 'rot0': 116, 'rot3': 0, 'rot2': 0, 'depth': 2.454, 'yaw': -5.81, 'datetime': '2018-12-12 10:46:07.029480', 'mgs': 0, 'flw2': 0.0, 'flw1': 0.21, 'flw0': 0.0, 'time': 34.49, 'compass': -154.82, 'pitch': -4.64, 'roll': 2.49}
{'lipoC2': 8.04, 'temp': 0.0, 'lipoC3S3': 12.13, 'state': 'normal', 'rot1': 125, 'rot0': 116, 'rot3': 0, 'rot2': 0, 'depth': 0.165, 'yaw': -5.48, 'datetime': '2018-12-12 10:46:07.240115', 'mgs': 0, 'flw2': 0.13, 'flw1': 0.0, 'flw0': 0.29, 'time': 34.69, 'compass': -154.49, 'pitch': -4.95, 'roll': 2.66}
{'lipoC2': 8.05, 'temp': 0.0, 'lipoC3S3': 12.06, 'state': 'normal', 'rot1': 125, 'rot0': 116, 'rot3': 0, 'rot2': 0, 'depth': 2.148, 'yaw': -5.16, 'datetime': '2018-12-12 10:46:07.448312', 'mgs': 0, 'flw2': 0.06, 'flw1': 0.0, 'flw0': 0.33, 'time': 34.9, 'compass': -154.17, 'pitch': -5.19, 'roll': 2.8}
{'lipoC2': 8.13, 'temp': 0.0, 'lipoC3S3': 12.27, 'state': 'normal', 'rot1': 125, 'rot0': 116, 'rot3': 0, 'rot2': 0, 'depth': 2.301, 'yaw': -4.85, 'datetime': '2018-12-12 10:46:07.657597', 'mgs': 0, 'flw2': 0.05, 'flw1': 0.0, 'flw0': 0.0, 'time': 35.11, 'compass': -153.86, 'pitch': -5.04, 'roll': 2.85}
{'lipoC2': 8.05, 'temp': 0.0, 'lipoC3S3': 12.19, 'state': 'normal', 'rot1': 125, 'rot0': 116, 'rot3': 0, 'rot2': 0, 'depth': 0.012, 'yaw': -4.53, 'datetime': '2018-12-12 10:46:07.866880', 'mgs': 0, 'flw2': 0.0, 'flw1': 0.67, 'flw0': 0.0, 'time': 35.32, 'compass': -153.54, 'pitch': -4.88, 'roll': 2.87}
{'lipoC2': 8.3, 'temp': 0.0, 'lipoC3S3': 12.14, 'state': 'normal', 'rot1': 125, 'rot0': 116, 'rot3': 0, 'rot2': 0, 'depth': -0.903, 'yaw': -4.18, 'datetime': '2018-12-12 10:46:08.075519', 'mgs': 0, 'flw2': 0.27, 'flw1': 0.0, 'flw0': 0.0, 'time': 35.53, 'compass': -153.2, 'pitch': -4.84, 'roll': 2.85}
{'lipoC2': 8.28, 'temp': 0.0, 'lipoC3S3': 12.16, 'state': 'normal', 'rot1': 125, 'rot0': 116, 'rot3': 0, 'rot2': 0, 'depth': -0.751, 'yaw': -3.86, 'datetime': '2018-12-12 10:46:08.286222', 'mgs': 0, 'flw2': 0.22, 'flw1': 0.0, 'flw0': 0.0, 'time': 35.74, 'compass': -152.87, 'pitch': -4.65, 'roll': 2.62}
{'lipoC2': 8.05, 'temp': 0.0, 'lipoC3S3': 12.12, 'state': 'normal', 'rot1': 125, 'rot0': 116, 'rot3': 0, 'rot2': 0, 'depth': 0.165, 'yaw': -3.55, 'datetime': '2018-12-12 10:46:08.496670', 'mgs': 0, 'flw2': 0.05, 'flw1': 0.0, 'flw0': 0.31, 'time': 35.95, 'compass': -152.56, 'pitch': -4.48, 'roll': 2.42}
{'lipoC2': 8.06, 'temp': 0.0, 'lipoC3S3': 12.21, 'state': 'normal', 'rot1': 125, 'rot0': 116, 'rot3': 0, 'rot2': 0, 'depth': 1.233, 'yaw': -3.21, 'datetime': '2018-12-12 10:46:08.705215', 'mgs': 0, 'flw2': 0.27, 'flw1': 0.0, 'flw0': 0.21, 'time': 36.16, 'compass': -152.22, 'pitch': -4.63, 'roll': 2.25}
{'lipoC2': 8.07, 'temp': 0.0, 'lipoC3S3': 12.02, 'state': 'normal', 'rot1': 125, 'rot0': 116, 'rot3': 0, 'rot2': 0, 'depth': 2.682, 'yaw': -2.89, 'datetime': '2018-12-12 10:46:08.914655', 'mgs': 0, 'flw2': 0.0, 'flw1': 0.0, 'flw0': 0.28, 'time': 36.37, 'compass': -151.9, 'pitch': -4.78, 'roll': 2.26}
{'lipoC2': 8.0, 'temp': 0.0, 'lipoC3S3': 12.45, 'state': 'normal', 'rot1': 125, 'rot0': 116, 'rot3': 0, 'rot2': 0, 'depth': 0.851, 'yaw': -2.56, 'datetime': '2018-12-12 10:46:09.123069', 'mgs': 0, 'flw2': 0.0, 'flw1': 0.0, 'flw0': 0.16, 'time': 36.58, 'compass': -151.57, 'pitch': -4.64, 'roll': 2.44}
{'lipoC2': 8.27, 'temp': 0.0, 'lipoC3S3': 12.17, 'state': 'normal', 'rot1': 125, 'rot0': 116, 'rot3': 0, 'rot2': 0, 'depth': -0.751, 'yaw': -2.23, 'datetime': '2018-12-12 10:46:09.332895', 'mgs': 0, 'flw2': 0.26, 'flw1': 0.0, 'flw0': 0.16, 'time': 36.78, 'compass': -151.24, 'pitch': -4.59, 'roll': 2.6}
{'lipoC2': 8.3, 'temp': 0.0, 'lipoC3S3': 12.17, 'state': 'normal', 'rot1': 125, 'rot0': 116, 'rot3': 0, 'rot2': 0, 'depth': -0.598, 'yaw': -1.89, 'datetime': '2018-12-12 10:46:09.542409', 'mgs': 0, 'flw2': 0.0, 'flw1': 0.38, 'flw0': 0.0, 'time': 36.99, 'compass': -150.9, 'pitch': -5.03, 'roll': 2.61}
{'lipoC2': 8.2, 'temp': 0.0, 'lipoC3S3': 12.12, 'state': 'normal', 'rot1': 125, 'rot0': 116, 'rot3': 0, 'rot2': 0, 'depth': -0.14, 'yaw': -1.54, 'datetime': '2018-12-12 10:46:09.753124', 'mgs': 0, 'flw2': 0.0, 'flw1': 0.38, 'flw0': 0.0, 'time': 37.2, 'compass': -150.55, 'pitch': -5.37, 'roll': 2.64}
{'lipoC2': 8.29, 'temp': 0.0, 'lipoC3S3': 12.16, 'state': 'normal', 'rot1': 125, 'rot0': 116, 'rot3': 0, 'rot2': 0, 'depth': -0.751, 'yaw': -1.16, 'datetime': '2018-12-12 10:46:09.963409', 'mgs': 0, 'flw2': 0.23, 'flw1': 0.0, 'flw0': 0.17, 'time': 37.41, 'compass': -150.17, 'pitch': -5.11, 'roll': 2.8}
{'lipoC2': 8.26, 'temp': 0.0, 'lipoC3S3': 12.17, 'state': 'normal', 'rot1': 125, 'rot0': 116, 'rot3': 0, 'rot2': 0, 'depth': -0.903, 'yaw': -0.79, 'datetime': '2018-12-12 10:46:10.174190', 'mgs': 0, 'flw2': 0.13, 'flw1': 0.0, 'flw0': 0.0, 'time': 37.62, 'compass': -149.8, 'pitch': -4.92, 'roll': 2.77}
{'lipoC2': 8.2, 'temp': 0.0, 'lipoC3S3': 12.12, 'state': 'normal', 'rot1': 125, 'rot0': 116, 'rot3': 0, 'rot2': 0, 'depth': 1.767, 'yaw': -0.38, 'datetime': '2018-12-12 10:46:10.384224', 'mgs': 0, 'flw2': 0.0, 'flw1': 0.29, 'flw0': 0.0, 'time': 37.83, 'compass': -149.39, 'pitch': -5.17, 'roll': 2.65}
{'lipoC2': 8.05, 'temp': 0.0, 'lipoC3S3': 12.04, 'state': 'normal', 'rot1': 125, 'rot0': 116, 'rot3': 0, 'rot2': 0, 'depth': 0.317, 'yaw': 0.04, 'datetime': '2018-12-12 10:46:10.593165', 'mgs': 0, 'flw2': 0.0, 'flw1': 0.09, 'flw0': 0.0, 'time': 38.04, 'compass': -148.97, 'pitch': -5.17, 'roll': 2.6}
{'lipoC2': 8.22, 'temp': 0.0, 'lipoC3S3': 12.18, 'state': 'normal', 'rot1': 125, 'rot0': 116, 'rot3': 0, 'rot2': 0, 'depth': 2.454, 'yaw': 0.45, 'datetime': '2018-12-12 10:46:10.800478', 'mgs': 0, 'flw2': 0.0, 'flw1': 0.06, 'flw0': 0.0, 'time': 38.25, 'compass': -148.56, 'pitch': -4.86, 'roll': 2.6}
{'lipoC2': 8.31, 'temp': 0.0, 'lipoC3S3': 12.18, 'state': 'normal', 'rot1': 125, 'rot0': 116, 'rot3': 0, 'rot2': 0, 'depth': 0.851, 'yaw': 0.85, 'datetime': '2018-12-12 10:46:11.010609', 'mgs': 0, 'flw2': 0.29, 'flw1': 0.0, 'flw0': 0.0, 'time': 38.46, 'compass': -148.16, 'pitch': -4.7, 'roll': 2.38}
{'lipoC2': 8.2, 'temp': 0.0, 'lipoC3S3': 12.14, 'state': 'normal', 'rot1': 125, 'rot0': 116, 'rot3': 0, 'rot2': 0, 'depth': 2.072, 'yaw': 1.24, 'datetime': '2018-12-12 10:46:11.220453', 'mgs': 0, 'flw2': 0.27, 'flw1': 0.0, 'flw0': 0.0, 'time': 38.67, 'compass': -147.78, 'pitch': -4.64, 'roll': 2.26}
{'lipoC2': 8.16, 'temp': 0.0, 'lipoC3S3': 12.21, 'state': 'normal', 'rot1': 125, 'rot0': 116, 'rot3': 0, 'rot2': 0, 'depth': -0.522, 'yaw': 1.62, 'datetime': '2018-12-12 10:46:11.429718', 'mgs': 0, 'flw2': 0.28, 'flw1': 0.0, 'flw0': 0.18, 'time': 38.88, 'compass': -147.39, 'pitch': -4.56, 'roll': 2.45}
{'lipoC2': 8.33, 'temp': 0.0, 'lipoC3S3': 12.18, 'state': 'normal', 'rot1': 125, 'rot0': 116, 'rot3': 0, 'rot2': 0, 'depth': -0.903, 'yaw': 2.01, 'datetime': '2018-12-12 10:46:11.638761', 'mgs': 0, 'flw2': 0.0, 'flw1': 0.53, 'flw0': 0.0, 'time': 39.08, 'compass': -147.0, 'pitch': -4.74, 'roll': 2.65}
{'lipoC2': 8.05, 'temp': 0.0, 'lipoC3S3': 12.18, 'state': 'normal', 'rot1': 125, 'rot0': 116, 'rot3': 0, 'rot2': 0, 'depth': -0.369, 'yaw': 2.42, 'datetime': '2018-12-12 10:46:11.847064', 'mgs': 0, 'flw2': 0.12, 'flw1': 0.0, 'flw0': 0.28, 'time': 39.29, 'compass': -146.59, 'pitch': -5.26, 'roll': 2.7}
{'lipoC2': 7.99, 'temp': 0.0, 'lipoC3S3': 12.48, 'state': 'normal', 'rot1': 125, 'rot0': 116, 'rot3': 0, 'rot2': 0, 'depth': 0.089, 'yaw': 2.86, 'datetime': '2018-12-12 10:46:12.059032', 'mgs': 0, 'flw2': 0.0, 'flw1': 0.41, 'flw0': 0.0, 'time': 39.5, 'compass': -146.15, 'pitch': -5.48, 'roll': 2.82}
{'lipoC2': 8.31, 'temp': 0.0, 'lipoC3S3': 12.17, 'state': 'normal', 'rot1': 125, 'rot0': 116, 'rot3': 0, 'rot2': 0, 'depth': -0.674, 'yaw': 3.3, 'datetime': '2018-12-12 10:46:12.268046', 'mgs': 0, 'flw2': 0.0, 'flw1': 0.67, 'flw0': 0.0, 'time': 39.71, 'compass': -145.72, 'pitch': -4.99, 'roll': 2.87}
{'lipoC2': 8.01, 'temp': 0.0, 'lipoC3S3': 12.54, 'state': 'normal', 'rot1': 125, 'rot0': 116, 'rot3': 0, 'rot2': 0, 'depth': -0.674, 'yaw': 3.72, 'datetime': '2018-12-12 10:46:12.476649', 'mgs': 0, 'flw2': 0.0, 'flw1': 0.0, 'flw0': 0.13, 'time': 39.92, 'compass': -145.29, 'pitch': -4.58, 'roll': 2.66}
{'lipoC2': 8.05, 'temp': 0.0, 'lipoC3S3': 12.18, 'state': 'normal', 'rot1': 125, 'rot0': 116, 'rot3': 0, 'rot2': 0, 'depth': 1.385, 'yaw': 4.11, 'datetime': '2018-12-12 10:46:12.685938', 'mgs': 0, 'flw2': 0.0, 'flw1': 0.64, 'flw0': 0.0, 'time': 40.13, 'compass': -144.9, 'pitch': -4.96, 'roll': 2.54}
{'lipoC2': 8.06, 'temp': 0.0, 'lipoC3S3': 12.04, 'state': 'normal', 'rot1': 125, 'rot0': 116, 'rot3': 0, 'rot2': 0, 'depth': 0.317, 'yaw': 4.55, 'datetime': '2018-12-12 10:46:12.895100', 'mgs': 0, 'flw2': 0.07, 'flw1': 0.0, 'flw0': 0.0, 'time': 40.34, 'compass': -144.46, 'pitch': -5.48, 'roll': 2.64}
{'lipoC2': 8.21, 'temp': 0.0, 'lipoC3S3': 12.12, 'state': 'normal', 'rot1': 125, 'rot0': 116, 'rot3': 0, 'rot2': 0, 'depth': -0.14, 'yaw': 5.03, 'datetime': '2018-12-12 10:46:13.105822', 'mgs': 0, 'flw2': 0.0, 'flw1': 0.35, 'flw0': 0.0, 'time': 40.55, 'compass': -143.98, 'pitch': -5.38, 'roll': 2.75}
{'lipoC2': 8.23, 'temp': 0.0, 'lipoC3S3': 12.16, 'state': 'normal', 'rot1': 125, 'rot0': 116, 'rot3': 0, 'rot2': 0, 'depth': -0.598, 'yaw': 5.5, 'datetime': '2018-12-12 10:46:13.315510', 'mgs': 0, 'flw2': 0.27, 'flw1': 0.0, 'flw0': 0.0, 'time': 40.76, 'compass': -143.51, 'pitch': -5.17, 'roll': 2.66}
{'lipoC2': 8.23, 'temp': 0.0, 'lipoC3S3': 12.12, 'state': 'normal', 'rot1': 125, 'rot0': 116, 'rot3': 0, 'rot2': 0, 'depth': 1.157, 'yaw': 5.96, 'datetime': '2018-12-12 10:46:13.525542', 'mgs': 0, 'flw2': 0.0, 'flw1': 0.0, 'flw0': 0.0, 'time': 40.97, 'compass': -143.05, 'pitch': -5.29, 'roll': 2.48}
{'lipoC2': 8.07, 'temp': 0.0, 'lipoC3S3': 12.29, 'state': 'normal', 'rot1': 125, 'rot0': 116, 'rot3': 0, 'rot2': 0, 'depth': 1.004, 'yaw': 6.42, 'datetime': '2018-12-12 10:46:13.735895', 'mgs': 0, 'flw2': 0.21, 'flw1': 0.0, 'flw0': 0.22, 'time': 41.18, 'compass': -142.6, 'pitch': -5.1, 'roll': 2.36}
{'lipoC2': 8.09, 'temp': 0.0, 'lipoC3S3': 12.04, 'state': 'normal', 'rot1': 125, 'rot0': 116, 'rot3': 0, 'rot2': 0, 'depth': 2.682, 'yaw': 6.95, 'datetime': '2018-12-12 10:46:13.945164', 'mgs': 0, 'flw2': 0.0, 'flw1': 0.0, 'flw0': 0.0, 'time': 41.38, 'compass': -142.06, 'pitch': -4.67, 'roll': 2.31}
{'lipoC2': 8.05, 'temp': 0.0, 'lipoC3S3': 12.1, 'state': 'normal', 'rot1': 125, 'rot0': 116, 'rot3': 0, 'rot2': 0, 'depth': 0.089, 'yaw': 7.46, 'datetime': '2018-12-12 10:46:14.152679', 'mgs': 0, 'flw2': 0.0, 'flw1': 0.5, 'flw0': 0.0, 'time': 41.59, 'compass': -141.55, 'pitch': -4.68, 'roll': 2.42}
{'lipoC2': 8.05, 'temp': 0.0, 'lipoC3S3': 12.16, 'state': 'normal', 'rot1': 125, 'rot0': 116, 'rot3': 0, 'rot2': 0, 'depth': 2.301, 'yaw': 7.93, 'datetime': '2018-12-12 10:46:14.361790', 'mgs': 0, 'flw2': 0.0, 'flw1': 0.53, 'flw0': 0.0, 'time': 41.8, 'compass': -141.08, 'pitch': -4.91, 'roll': 2.53}
{'lipoC2': 8.21, 'temp': 0.0, 'lipoC3S3': 12.13, 'state': 'normal', 'rot1': 125, 'rot0': 116, 'rot3': 0, 'rot2': 0, 'depth': -0.14, 'yaw': 8.39, 'datetime': '2018-12-12 10:46:14.571398', 'mgs': 0, 'flw2': 0.0, 'flw1': 0.62, 'flw0': 0.0, 'time': 42.01, 'compass': -140.62, 'pitch': -4.96, 'roll': 2.5}
{'lipoC2': 8.12, 'temp': 0.0, 'lipoC3S3': 12.06, 'state': 'normal', 'rot1': 125, 'rot0': 116, 'rot3': 0, 'rot2': 0, 'depth': 2.606, 'yaw': 8.9, 'datetime': '2018-12-12 10:46:14.783355', 'mgs': 0, 'flw2': 0.0, 'flw1': 0.15, 'flw0': 0.0, 'time': 42.22, 'compass': -140.11, 'pitch': -5.17, 'roll': 2.42}
{'lipoC2': 8.31, 'temp': 0.0, 'lipoC3S3': 12.17, 'state': 'normal', 'rot1': 125, 'rot0': 116, 'rot3': 0, 'rot2': 0, 'depth': 0.851, 'yaw': 9.4, 'datetime': '2018-12-12 10:46:14.991128', 'mgs': 0, 'flw2': 0.0, 'flw1': 0.38, 'flw0': 0.0, 'time': 42.43, 'compass': -139.61, 'pitch': -5.5, 'roll': 2.54}
{'lipoC2': 8.09, 'temp': 0.0, 'lipoC3S3': 12.04, 'state': 'normal', 'rot1': 125, 'rot0': 116, 'rot3': 0, 'rot2': 0, 'depth': 2.759, 'yaw': 9.92, 'datetime': '2018-12-12 10:46:15.198929', 'mgs': 0, 'flw2': 0.16, 'flw1': 0.0, 'flw0': 0.0, 'time': 42.64, 'compass': -139.1, 'pitch': -5.38, 'roll': 2.66}
