{'lipoC2': 7.56, 'temp': 0.0, 'lipoC3S3': 11.22, 'state': 'normal', 'rot1': 0, 'rot0': 0, 'rot3': 0, 'rot2': 0, 'depth': 0.775, 'yaw': 0.0, 'datetime': '2018-12-12 14:40:57.033081', 'mgs': 0, 'flw2': 0.23, 'flw1': 0.0, 'flw0': 0.04, 'time': 1.25, 'compass': 11.5, 'pitch': -2.96, 'roll': 0.59}
{'lipoC2': 7.37, 'temp': 0.0, 'lipoC3S3': 11.1, 'state': 'normal', 'rot1': 0, 'rot0': 0, 'rot3': 0, 'rot2': 0, 'depth': 0.623, 'yaw': 0.59, 'datetime': '2018-12-12 14:40:57.242219', 'mgs': 0, 'flw2': 0.0, 'flw1': 0.0, 'flw0': 0.0, 'time': 1.46, 'compass': 12.09, 'pitch': -2.24, 'roll': 0.6}
{'lipoC2': 7.44, 'temp': 0.0, 'lipoC3S3': 11.06, 'state': 'normal', 'rot1': 0, 'rot0': 0, 'rot3': 0, 'rot2': 0, 'depth': 0.851, 'yaw': 1.15, 'datetime': '2018-12-12 14:40:57.449187', 'mgs': 0, 'flw2': 0.0, 'flw1': 0.0, 'flw0': 0.09, 'time': 1.67, 'compass': 12.65, 'pitch': -2.5, 'roll': 0.6}
{'lipoC2': 7.4, 'temp': 0.0, 'lipoC3S3': 11.02, 'state': 'normal', 'rot1': 0, 'rot0': 0, 'rot3': 0, 'rot2': 0, 'depth': -2.277, 'yaw': 1.46, 'datetime': '2018-12-12 14:40:57.657262', 'mgs': 0, 'flw2': 0.0, 'flw1': 0.0, 'flw0': 0.26, 'time': 1.88, 'compass': 12.96, 'pitch': -3.17, 'roll': 0.38}
{'lipoC2': 7.12, 'temp': 0.0, 'lipoC3S3': 11.02, 'state': 'normal', 'rot1': 0, 'rot0': 0, 'rot3': 0, 'rot2': 0, 'depth': 1.157, 'yaw': 2.21, 'datetime': '2018-12-12 14:40:57.864202', 'mgs': 0, 'flw2': 0.26, 'flw1': 0.0, 'flw0': 0.0, 'time': 2.08, 'compass': 13.71, 'pitch': -3.1, 'roll': 0.25}
{'lipoC2': 7.24, 'temp': 0.0, 'lipoC3S3': 11.26, 'state': 'normal', 'rot1': 0, 'rot0': 0, 'rot3': 0, 'rot2': 0, 'depth': 0.851, 'yaw': 2.86, 'datetime': '2018-12-12 14:40:58.072475', 'mgs': 0, 'flw2': 0.0, 'flw1': 0.0, 'flw0': 0.04, 'time': 2.29, 'compass': 14.36, 'pitch': -2.24, 'roll': 0.09}
{'lipoC2': 7.27, 'temp': 0.0, 'lipoC3S3': 11.26, 'state': 'normal', 'rot1': 0, 'rot0': 0, 'rot3': 0, 'rot2': 0, 'depth': 0.928, 'yaw': 3.18, 'datetime': '2018-12-12 14:40:58.279408', 'mgs': 0, 'flw2': 0.0, 'flw1': 0.0, 'flw0': 0.31, 'time': 2.5, 'compass': 14.68, 'pitch': -1.39, 'roll': -0.3}
{'lipoC2': 7.26, 'temp': 0.0, 'lipoC3S3': 11.29, 'state': 'normal', 'rot1': 0, 'rot0': 0, 'rot3': 0, 'rot2': 0, 'depth': -0.522, 'yaw': 3.79, 'datetime': '2018-12-12 14:40:58.488797', 'mgs': 0, 'flw2': 0.02, 'flw1': 0.32, 'flw0': 0.0, 'time': 2.71, 'compass': 15.29, 'pitch': -1.74, 'roll': -0.22}
{'lipoC2': 7.23, 'temp': 0.0, 'lipoC3S3': 11.42, 'state': 'normal', 'rot1': 0, 'rot0': 0, 'rot3': 0, 'rot2': 0, 'depth': 1.233, 'yaw': 4.38, 'datetime': '2018-12-12 14:40:58.697077', 'mgs': 0, 'flw2': 0.0, 'flw1': 0.0, 'flw0': 0.04, 'time': 2.92, 'compass': 15.88, 'pitch': -2.45, 'roll': 0.29}
{'lipoC2': 7.12, 'temp': 0.0, 'lipoC3S3': 11.44, 'state': 'normal', 'rot1': 0, 'rot0': 0, 'rot3': 0, 'rot2': 0, 'depth': -0.98, 'yaw': 4.97, 'datetime': '2018-12-12 14:40:58.905371', 'mgs': 0, 'flw2': 0.0, 'flw1': 0.56, 'flw0': 0.0, 'time': 3.12, 'compass': 16.47, 'pitch': -2.41, 'roll': 0.84}
{'lipoC2': 7.15, 'temp': 0.0, 'lipoC3S3': 10.96, 'state': 'normal', 'rot1': 0, 'rot0': 0, 'rot3': 0, 'rot2': 0, 'depth': 1.157, 'yaw': 5.57, 'datetime': '2018-12-12 14:40:59.112257', 'mgs': 0, 'flw2': 0.28, 'flw1': 0.0, 'flw0': 0.0, 'time': 3.33, 'compass': 17.07, 'pitch': -1.79, 'roll': 1.05}
{'lipoC2': 7.21, 'temp': 0.0, 'lipoC3S3': 11.14, 'state': 'normal', 'rot1': 0, 'rot0': 0, 'rot3': 0, 'rot2': 0, 'depth': 0.928, 'yaw': 6.12, 'datetime': '2018-12-12 14:40:59.320287', 'mgs': 0, 'flw2': 0.18, 'flw1': 0.0, 'flw0': 0.0, 'time': 3.54, 'compass': 17.62, 'pitch': -1.49, 'roll': 0.68}
{'lipoC2': 7.2, 'temp': 0.0, 'lipoC3S3': 11.34, 'state': 'normal', 'rot1': 0, 'rot0': 0, 'rot3': 0, 'rot2': 0, 'depth': -0.751, 'yaw': 6.67, 'datetime': '2018-12-12 14:40:59.527338', 'mgs': 0, 'flw2': 0.07, 'flw1': 0.0, 'flw0': 0.0, 'time': 3.74, 'compass': 18.17, 'pitch': -1.86, 'roll': 0.03}
{'lipoC2': 7.11, 'temp': 0.0, 'lipoC3S3': 11.51, 'state': 'normal', 'rot1': 0, 'rot0': 0, 'rot3': 0, 'rot2': 0, 'depth': -0.98, 'yaw': 7.24, 'datetime': '2018-12-12 14:40:59.735531', 'mgs': 0, 'flw2': 0.0, 'flw1': 0.56, 'flw0': 0.0, 'time': 3.95, 'compass': 18.74, 'pitch': -2.72, 'roll': -0.33}
{'lipoC2': 7.33, 'temp': 0.0, 'lipoC3S3': 11.05, 'state': 'normal', 'rot1': 0, 'rot0': 0, 'rot3': 0, 'rot2': 0, 'depth': 0.241, 'yaw': 7.8, 'datetime': '2018-12-12 14:40:59.943673', 'mgs': 0, 'flw2': 0.0, 'flw1': 0.0, 'flw0': 0.18, 'time': 4.16, 'compass': 19.3, 'pitch': -3.25, 'roll': -0.36}
{'lipoC2': 7.43, 'temp': 0.0, 'lipoC3S3': 11.06, 'state': 'normal', 'rot1': 0, 'rot0': 0, 'rot3': 0, 'rot2': 0, 'depth': -0.064, 'yaw': 8.38, 'datetime': '2018-12-12 14:41:00.151655', 'mgs': 0, 'flw2': 0.0, 'flw1': 0.0, 'flw0': 0.0, 'time': 4.37, 'compass': 19.88, 'pitch': -2.94, 'roll': 0.05}
{'lipoC2': 7.13, 'temp': 0.0, 'lipoC3S3': 11.14, 'state': 'normal', 'rot1': 0, 'rot0': 0, 'rot3': 0, 'rot2': 0, 'depth': -0.522, 'yaw': 8.99, 'datetime': '2018-12-12 14:41:00.359784', 'mgs': 0, 'flw2': 0.0, 'flw1': 0.0, 'flw0': 0.18, 'time': 4.58, 'compass': 20.49, 'pitch': -2.01, 'roll': 0.42}
{'lipoC2': 7.18, 'temp': 0.0, 'lipoC3S3': 11.51, 'state': 'normal', 'rot1': 0, 'rot0': 0, 'rot3': 0, 'rot2': 0, 'depth': -0.14, 'yaw': 9.5, 'datetime': '2018-12-12 14:41:00.568658', 'mgs': 0, 'flw2': 0.0, 'flw1': 0.0, 'flw0': 1.73, 'time': 4.78, 'compass': 21.0, 'pitch': -1.48, 'roll': 0.62}
{'lipoC2': 7.55, 'temp': 0.0, 'lipoC3S3': 11.18, 'state': 'normal', 'rot1': 2, 'rot0': 0, 'rot3': 0, 'rot2': 0, 'depth': -1.361, 'yaw': 8.19, 'datetime': '2018-12-12 14:41:00.775848', 'mgs': 0, 'flw2': 0.21, 'flw1': 0.56, 'flw0': 1.89, 'time': 4.99, 'compass': 19.69, 'pitch': -1.05, 'roll': 0.35}
{'lipoC2': 7.27, 'temp': 0.0, 'lipoC3S3': 11.05, 'state': 'normal', 'rot1': 5, 'rot0': 0, 'rot3': 0, 'rot2': 0, 'depth': -1.208, 'yaw': 4.89, 'datetime': '2018-12-12 14:41:00.984574', 'mgs': 0, 'flw2': 0.55, 'flw1': 0.0, 'flw0': 1.64, 'time': 5.2, 'compass': 16.39, 'pitch': -0.66, 'roll': -0.42}
{'lipoC2': 7.11, 'temp': 0.0, 'lipoC3S3': 11.52, 'state': 'normal', 'rot1': 7, 'rot0': 1, 'rot3': 0, 'rot2': 0, 'depth': -0.903, 'yaw': 0.53, 'datetime': '2018-12-12 14:41:01.192349', 'mgs': 0, 'flw2': 0.18, 'flw1': 0.21, 'flw0': 1.62, 'time': 5.41, 'compass': 12.03, 'pitch': -0.33, 'roll': -1.02}
{'lipoC2': 7.1, 'temp': 0.0, 'lipoC3S3': 11.36, 'state': 'normal', 'rot1': 9, 'rot0': 2, 'rot3': 0, 'rot2': 0, 'depth': 0.241, 'yaw': -4.72, 'datetime': '2018-12-12 14:41:01.402220', 'mgs': 0, 'flw2': 0.71, 'flw1': 0.0, 'flw0': 1.68, 'time': 5.62, 'compass': 6.78, 'pitch': -0.27, 'roll': -1.03}
{'lipoC2': 7.22, 'temp': 0.0, 'lipoC3S3': 11.22, 'state': 'normal', 'rot1': 11, 'rot0': 4, 'rot3': 0, 'rot2': 0, 'depth': -0.064, 'yaw': -10.0, 'datetime': '2018-12-12 14:41:01.609845', 'mgs': 0, 'flw2': 1.06, 'flw1': 0.0, 'flw0': 1.7, 'time': 5.82, 'compass': 1.5, 'pitch': -0.37, 'roll': -0.89}
{'lipoC2': 7.1, 'temp': 0.0, 'lipoC3S3': 11.15, 'state': 'normal', 'rot1': 13, 'rot0': 5, 'rot3': 0, 'rot2': 0, 'depth': -0.064, 'yaw': -14.68, 'datetime': '2018-12-12 14:41:01.819877', 'mgs': 0, 'flw2': 0.98, 'flw1': 0.09, 'flw0': 1.61, 'time': 6.03, 'compass': -3.18, 'pitch': 0.02, 'roll': -0.8}
{'lipoC2': 7.57, 'temp': 0.0, 'lipoC3S3': 11.44, 'state': 'normal', 'rot1': 15, 'rot0': 7, 'rot3': 0, 'rot2': 0, 'depth': 0.699, 'yaw': -18.7, 'datetime': '2018-12-12 14:41:02.028457', 'mgs': 0, 'flw2': 1.2, 'flw1': 0.0, 'flw0': 1.61, 'time': 6.24, 'compass': -7.2, 'pitch': 0.73, 'roll': -0.4}
{'lipoC2': 7.22, 'temp': 0.0, 'lipoC3S3': 11.27, 'state': 'normal', 'rot1': 17, 'rot0': 9, 'rot3': 0, 'rot2': 0, 'depth': -0.446, 'yaw': -22.21, 'datetime': '2018-12-12 14:41:02.241154', 'mgs': 0, 'flw2': 0.0, 'flw1': 0.09, 'flw0': 1.57, 'time': 6.45, 'compass': -10.71, 'pitch': 0.53, 'roll': -0.15}
{'lipoC2': 7.35, 'temp': 0.0, 'lipoC3S3': 11.32, 'state': 'normal', 'rot1': 20, 'rot0': 9, 'rot3': 0, 'rot2': 0, 'depth': -0.14, 'yaw': -27.47, 'datetime': '2018-12-12 14:41:02.446631', 'mgs': 0, 'flw2': 0.0, 'flw1': 0.67, 'flw0': 2.92, 'time': 6.66, 'compass': -15.97, 'pitch': -0.62, 'roll': -0.86}
{'lipoC2': 7.19, 'temp': 0.0, 'lipoC3S3': 11.13, 'state': 'normal', 'rot1': 22, 'rot0': 9, 'rot3': 0, 'rot2': 0, 'depth': -0.446, 'yaw': -34.68, 'datetime': '2018-12-12 14:41:02.654226', 'mgs': 0, 'flw2': 0.32, 'flw1': 0.0, 'flw0': 3.23, 'time': 6.86, 'compass': -23.18, 'pitch': -0.6, 'roll': -1.99}
{'lipoC2': 7.15, 'temp': 0.0, 'lipoC3S3': 11.21, 'state': 'normal', 'rot1': 25, 'rot0': 9, 'rot3': 0, 'rot2': 0, 'depth': -0.446, 'yaw': -42.68, 'datetime': '2018-12-12 14:41:02.862344', 'mgs': 0, 'flw2': 0.33, 'flw1': 0.0, 'flw0': 3.19, 'time': 7.07, 'compass': -31.18, 'pitch': 0.46, 'roll': -2.56}
{'lipoC2': 7.12, 'temp': 0.0, 'lipoC3S3': 11.01, 'state': 'normal', 'rot1': 27, 'rot0': 9, 'rot3': 0, 'rot2': 0, 'depth': 1.538, 'yaw': -52.37, 'datetime': '2018-12-12 14:41:03.072569', 'mgs': 0, 'flw2': 0.68, 'flw1': 0.0, 'flw0': 2.62, 'time': 7.28, 'compass': -40.87, 'pitch': 1.13, 'roll': -2.56}
{'lipoC2': 7.42, 'temp': 0.0, 'lipoC3S3': 11.14, 'state': 'normal', 'rot1': 30, 'rot0': 10, 'rot3': 0, 'rot2': 0, 'depth': -0.369, 'yaw': -61.35, 'datetime': '2018-12-12 14:41:03.278693', 'mgs': 0, 'flw2': 0.84, 'flw1': 0.18, 'flw0': 2.67, 'time': 7.49, 'compass': -49.85, 'pitch': 1.31, 'roll': -2.31}
{'lipoC2': 7.18, 'temp': 0.0, 'lipoC3S3': 11.48, 'state': 'normal', 'rot1': 32, 'rot0': 11, 'rot3': 0, 'rot2': 0, 'depth': -0.827, 'yaw': -70.64, 'datetime': '2018-12-12 14:41:03.489283', 'mgs': 0, 'flw2': 0.4, 'flw1': 0.0, 'flw0': 2.98, 'time': 7.7, 'compass': -59.14, 'pitch': 1.06, 'roll': -2.05}
{'lipoC2': 7.22, 'temp': 0.0, 'lipoC3S3': 11.19, 'state': 'normal', 'rot1': 35, 'rot0': 13, 'rot3': 0, 'rot2': 0, 'depth': 1.462, 'yaw': -79.19, 'datetime': '2018-12-12 14:41:03.697955', 'mgs': 0, 'flw2': 1.71, 'flw1': 0.0, 'flw0': 3.88, 'time': 7.91, 'compass': -67.69, 'pitch': 0.52, 'roll': -2.22}
{'lipoC2': 7.25, 'temp': 0.0, 'lipoC3S3': 11.03, 'state': 'normal', 'rot1': 38, 'rot0': 15, 'rot3': 0, 'rot2': 0, 'depth': 1.843, 'yaw': -87.6, 'datetime': '2018-12-12 14:41:03.907457', 'mgs': 0, 'flw2': 1.92, 'flw1': 0.0, 'flw0': 4.65, 'time': 8.12, 'compass': -76.1, 'pitch': 1.47, 'roll': -2.79}
{'lipoC2': 7.33, 'temp': 0.0, 'lipoC3S3': 11.29, 'state': 'normal', 'rot1': 41, 'rot0': 17, 'rot3': 0, 'rot2': 0, 'depth': -0.598, 'yaw': -96.7, 'datetime': '2018-12-12 14:41:04.117707', 'mgs': 0, 'flw2': 2.31, 'flw1': 0.0, 'flw0': 4.66, 'time': 8.32, 'compass': -85.2, 'pitch': 3.38, 'roll': -3.45}
{'lipoC2': 7.12, 'temp': 0.0, 'lipoC3S3': 11.11, 'state': 'normal', 'rot1': 44, 'rot0': 19, 'rot3': 0, 'rot2': 0, 'depth': 2.072, 'yaw': -104.29, 'datetime': '2018-12-12 14:41:04.324753', 'mgs': 0, 'flw2': 2.19, 'flw1': 0.0, 'flw0': 4.5, 'time': 8.53, 'compass': -92.79, 'pitch': 4.07, 'roll': -3.92}
{'lipoC2': 7.23, 'temp': 0.0, 'lipoC3S3': 11.13, 'state': 'normal', 'rot1': 47, 'rot0': 21, 'rot3': 0, 'rot2': 0, 'depth': -0.446, 'yaw': -112.32, 'datetime': '2018-12-12 14:41:04.535391', 'mgs': 0, 'flw2': 2.72, 'flw1': 0.0, 'flw0': 4.5, 'time': 8.74, 'compass': -100.82, 'pitch': 3.41, 'roll': -4.3}
{'lipoC2': 7.17, 'temp': 0.0, 'lipoC3S3': 11.21, 'state': 'normal', 'rot1': 49, 'rot0': 23, 'rot3': 0, 'rot2': 0, 'depth': 0.851, 'yaw': -120.05, 'datetime': '2018-12-12 14:41:04.743620', 'mgs': 0, 'flw2': 2.44, 'flw1': 0.0, 'flw0': 4.43, 'time': 8.95, 'compass': -108.55, 'pitch': 2.93, 'roll': -4.58}
{'lipoC2': 7.26, 'temp': 0.0, 'lipoC3S3': 11.17, 'state': 'normal', 'rot1': 52, 'rot0': 26, 'rot3': 0, 'rot2': 0, 'depth': -0.369, 'yaw': -126.29, 'datetime': '2018-12-12 14:41:04.952605', 'mgs': 0, 'flw2': 2.58, 'flw1': 0.5, 'flw0': 1.95, 'time': 9.16, 'compass': -114.79, 'pitch': 3.18, 'roll': -4.41}
{'lipoC2': 7.33, 'temp': 0.0, 'lipoC3S3': 11.31, 'state': 'normal', 'rot1': 54, 'rot0': 28, 'rot3': 0, 'rot2': 0, 'depth': -0.827, 'yaw': -131.19, 'datetime': '2018-12-12 14:41:05.161352', 'mgs': 0, 'flw2': 2.84, 'flw1': 0.0, 'flw0': 2.44, 'time': 9.37, 'compass': -119.69, 'pitch': 2.82, 'roll': -3.98}
{'lipoC2': 7.12, 'temp': 0.0, 'lipoC3S3': 11.46, 'state': 'normal', 'rot1': 56, 'rot0': 30, 'rot3': 0, 'rot2': 0, 'depth': 1.462, 'yaw': -135.34, 'datetime': '2018-12-12 14:41:05.369927', 'mgs': 0, 'flw2': 2.36, 'flw1': 0.15, 'flw0': 1.97, 'time': 9.58, 'compass': -123.84, 'pitch': 2.04, 'roll': -3.55}
{'lipoC2': 7.43, 'temp': 0.0, 'lipoC3S3': 10.96, 'state': 'normal', 'rot1': 58, 'rot0': 33, 'rot3': 0, 'rot2': 0, 'depth': -2.353, 'yaw': -138.66, 'datetime': '2018-12-12 14:41:05.580766', 'mgs': 0, 'flw2': 2.81, 'flw1': 0.03, 'flw0': 2.28, 'time': 9.79, 'compass': -127.16, 'pitch': 1.01, 'roll': -3.2}
{'lipoC2': 7.34, 'temp': 0.0, 'lipoC3S3': 11.17, 'state': 'normal', 'rot1': 60, 'rot0': 35, 'rot3': 0, 'rot2': 0, 'depth': 0.317, 'yaw': -141.46, 'datetime': '2018-12-12 14:41:05.793176', 'mgs': 0, 'flw2': 2.49, 'flw1': 0.0, 'flw0': 2.34, 'time': 10.0, 'compass': -129.96, 'pitch': 0.26, 'roll': -2.9}
{'lipoC2': 7.41, 'temp': 0.0, 'lipoC3S3': 11.27, 'state': 'normal', 'rot1': 63, 'rot0': 37, 'rot3': 0, 'rot2': 0, 'depth': -0.674, 'yaw': -143.55, 'datetime': '2018-12-12 14:41:06.002191', 'mgs': 0, 'flw2': 2.66, 'flw1': 0.0, 'flw0': 1.94, 'time': 10.21, 'compass': -132.05, 'pitch': 0.47, 'roll': -2.8}
{'lipoC2': 7.29, 'temp': 0.0, 'lipoC3S3': 11.19, 'state': 'normal', 'rot1': 65, 'rot0': 39, 'rot3': 0, 'rot2': 0, 'depth': -1.437, 'yaw': -145.5, 'datetime': '2018-12-12 14:41:06.213333', 'mgs': 0, 'flw2': 2.32, 'flw1': 0.0, 'flw0': 2.33, 'time': 10.42, 'compass': -134.0, 'pitch': 1.14, 'roll': -2.73}
{'lipoC2': 7.28, 'temp': 0.0, 'lipoC3S3': 11.3, 'state': 'normal', 'rot1': 67, 'rot0': 42, 'rot3': 0, 'rot2': 0, 'depth': -1.437, 'yaw': -147.17, 'datetime': '2018-12-12 14:41:06.417682', 'mgs': 0, 'flw2': 2.34, 'flw1': 0.0, 'flw0': 2.1, 'time': 10.63, 'compass': -135.67, 'pitch': 1.18, 'roll': -2.31}
{'lipoC2': 7.21, 'temp': 0.0, 'lipoC3S3': 11.36, 'state': 'normal', 'rot1': 69, 'rot0': 44, 'rot3': 0, 'rot2': 0, 'depth': -1.208, 'yaw': -148.8, 'datetime': '2018-12-12 14:41:06.629691', 'mgs': 0, 'flw2': 1.97, 'flw1': 0.0, 'flw0': 2.12, 'time': 10.83, 'compass': -137.3, 'pitch': 0.7, 'roll': -2.02}
{'lipoC2': 7.34, 'temp': 0.0, 'lipoC3S3': 11.19, 'state': 'normal', 'rot1': 71, 'rot0': 47, 'rot3': 0, 'rot2': 0, 'depth': -1.514, 'yaw': -150.45, 'datetime': '2018-12-12 14:41:06.840818', 'mgs': 0, 'flw2': 2.21, 'flw1': 0.0, 'flw0': 2.5, 'time': 11.04, 'compass': -138.95, 'pitch': 0.43, 'roll': -2.0}
{'lipoC2': 7.23, 'temp': 0.0, 'lipoC3S3': 10.9, 'state': 'normal', 'rot1': 73, 'rot0': 49, 'rot3': 0, 'rot2': 0, 'depth': -0.903, 'yaw': -152.35, 'datetime': '2018-12-12 14:41:07.050670', 'mgs': 0, 'flw2': 2.36, 'flw1': 0.0, 'flw0': 2.21, 'time': 11.25, 'compass': -140.85, 'pitch': 0.52, 'roll': -1.97}
{'lipoC2': 7.18, 'temp': 0.0, 'lipoC3S3': 11.22, 'state': 'normal', 'rot1': 75, 'rot0': 51, 'rot3': 0, 'rot2': 0, 'depth': -0.064, 'yaw': -154.06, 'datetime': '2018-12-12 14:41:07.256666', 'mgs': 0, 'flw2': 2.91, 'flw1': 0.0, 'flw0': 2.28, 'time': 11.46, 'compass': -142.56, 'pitch': 0.71, 'roll': -1.65}
{'lipoC2': 7.18, 'temp': 0.0, 'lipoC3S3': 11.1, 'state': 'normal', 'rot1': 77, 'rot0': 54, 'rot3': 0, 'rot2': 0, 'depth': 1.385, 'yaw': -155.8, 'datetime': '2018-12-12 14:41:07.466167', 'mgs': 0, 'flw2': 2.38, 'flw1': 0.0, 'flw0': 1.97, 'time': 11.67, 'compass': -144.3, 'pitch': 0.86, 'roll': -1.38}
{'lipoC2': 7.44, 'temp': 0.0, 'lipoC3S3': 10.96, 'state': 'normal', 'rot1': 79, 'rot0': 56, 'rot3': 0, 'rot2': 0, 'depth': -0.598, 'yaw': -157.03, 'datetime': '2018-12-12 14:41:07.674445', 'mgs': 0, 'flw2': 2.89, 'flw1': 0.0, 'flw0': 2.34, 'time': 11.88, 'compass': -145.53, 'pitch': 0.89, 'roll': -1.35}
{'lipoC2': 7.38, 'temp': 0.0, 'lipoC3S3': 11.05, 'state': 'normal', 'rot1': 81, 'rot0': 59, 'rot3': 0, 'rot2': 0, 'depth': -0.598, 'yaw': -157.68, 'datetime': '2018-12-12 14:41:07.884408', 'mgs': 0, 'flw2': 2.92, 'flw1': 0.0, 'flw0': 2.51, 'time': 12.09, 'compass': -146.18, 'pitch': 0.94, 'roll': -1.08}
{'lipoC2': 7.44, 'temp': 0.0, 'lipoC3S3': 10.96, 'state': 'normal', 'rot1': 83, 'rot0': 61, 'rot3': 0, 'rot2': 0, 'depth': -0.598, 'yaw': -158.08, 'datetime': '2018-12-12 14:41:08.095360', 'mgs': 0, 'flw2': 2.67, 'flw1': 0.26, 'flw0': 1.87, 'time': 12.3, 'compass': -146.58, 'pitch': 0.85, 'roll': -1.0}
{'lipoC2': 7.26, 'temp': 0.0, 'lipoC3S3': 10.9, 'state': 'normal', 'rot1': 85, 'rot0': 64, 'rot3': 0, 'rot2': 0, 'depth': 0.241, 'yaw': -158.27, 'datetime': '2018-12-12 14:41:08.304798', 'mgs': 0, 'flw2': 3.09, 'flw1': 0.0, 'flw0': 1.95, 'time': 12.51, 'compass': -146.77, 'pitch': 0.83, 'roll': -1.26}
{'lipoC2': 7.37, 'temp': 0.0, 'lipoC3S3': 10.9, 'state': 'normal', 'rot1': 87, 'rot0': 66, 'rot3': 0, 'rot2': 0, 'depth': -1.514, 'yaw': -158.25, 'datetime': '2018-12-12 14:41:08.514479', 'mgs': 0, 'flw2': 2.91, 'flw1': 0.0, 'flw0': 2.4, 'time': 12.72, 'compass': -146.76, 'pitch': 0.99, 'roll': -1.04}
{'lipoC2': 7.34, 'temp': 0.0, 'lipoC3S3': 11.21, 'state': 'normal', 'rot1': 89, 'rot0': 68, 'rot3': 0, 'rot2': 0, 'depth': 0.165, 'yaw': -157.78, 'datetime': '2018-12-12 14:41:08.722742', 'mgs': 0, 'flw2': 2.61, 'flw1': 0.0, 'flw0': 2.53, 'time': 12.93, 'compass': -146.28, 'pitch': 1.0, 'roll': -0.33}
{'lipoC2': 7.14, 'temp': 0.0, 'lipoC3S3': 11.25, 'state': 'normal', 'rot1': 91, 'rot0': 71, 'rot3': 0, 'rot2': 0, 'depth': -0.369, 'yaw': -157.37, 'datetime': '2018-12-12 14:41:08.932386', 'mgs': 0, 'flw2': 2.48, 'flw1': 0.03, 'flw0': 2.05, 'time': 13.14, 'compass': -145.87, 'pitch': 1.0, 'roll': 0.08}
{'lipoC2': 7.42, 'temp': 0.0, 'lipoC3S3': 10.96, 'state': 'normal', 'rot1': 94, 'rot0': 73, 'rot3': 0, 'rot2': 0, 'depth': -1.285, 'yaw': -157.07, 'datetime': '2018-12-12 14:41:09.140968', 'mgs': 0, 'flw2': 2.76, 'flw1': 0.0, 'flw0': 2.33, 'time': 13.34, 'compass': -145.57, 'pitch': 0.85, 'roll': -0.06}
{'lipoC2': 7.22, 'temp': 0.0, 'lipoC3S3': 11.1, 'state': 'normal', 'rot1': 96, 'rot0': 76, 'rot3': 0, 'rot2': 0, 'depth': -0.064, 'yaw': -157.01, 'datetime': '2018-12-12 14:41:09.351834', 'mgs': 0, 'flw2': 3.17, 'flw1': 0.0, 'flw0': 2.15, 'time': 13.55, 'compass': -145.51, 'pitch': 0.61, 'roll': -0.37}
{'lipoC2': 7.1, 'temp': 0.0, 'lipoC3S3': 11.46, 'state': 'normal', 'rot1': 97, 'rot0': 78, 'rot3': 0, 'rot2': 0, 'depth': 1.843, 'yaw': -156.75, 'datetime': '2018-12-12 14:41:09.561164', 'mgs': 0, 'flw2': 2.76, 'flw1': 0.0, 'flw0': 2.19, 'time': 13.76, 'compass': -145.25, 'pitch': 0.91, 'roll': -0.77}
{'lipoC2': 7.1, 'temp': 0.0, 'lipoC3S3': 11.05, 'state': 'normal', 'rot1': 100, 'rot0': 81, 'rot3': 0, 'rot2': 0, 'depth': 0.089, 'yaw': -156.37, 'datetime': '2018-12-12 14:41:09.770640', 'mgs': 0, 'flw2': 3.13, 'flw1': 0.64, 'flw0': 2.05, 'time': 13.97, 'compass': -144.87, 'pitch': 1.22, 'roll': -0.85}
{'lipoC2': 7.29, 'temp': 0.0, 'lipoC3S3': 11.43, 'state': 'normal', 'rot1': 102, 'rot0': 83, 'rot3': 0, 'rot2': 0, 'depth': -0.522, 'yaw': -155.59, 'datetime': '2018-12-12 14:41:09.980190', 'mgs': 0, 'flw2': 2.98, 'flw1': 0.03, 'flw0': 2.03, 'time': 14.18, 'compass': -144.09, 'pitch': 1.16, 'roll': -0.37}
{'lipoC2': 7.23, 'temp': 0.0, 'lipoC3S3': 10.82, 'state': 'normal', 'rot1': 104, 'rot0': 86, 'rot3': 0, 'rot2': 0, 'depth': -0.369, 'yaw': -154.49, 'datetime': '2018-12-12 14:41:10.190100', 'mgs': 0, 'flw2': 3.11, 'flw1': 0.0, 'flw0': 1.97, 'time': 14.39, 'compass': -142.99, 'pitch': 0.97, 'roll': 0.18}
{'lipoC2': 7.28, 'temp': 0.0, 'lipoC3S3': 11.02, 'state': 'normal', 'rot1': 106, 'rot0': 88, 'rot3': 0, 'rot2': 0, 'depth': -0.903, 'yaw': -153.52, 'datetime': '2018-12-12 14:41:10.399423', 'mgs': 0, 'flw2': 3.28, 'flw1': 0.41, 'flw0': 2.21, 'time': 14.6, 'compass': -142.02, 'pitch': 0.94, 'roll': 0.27}
{'lipoC2': 7.17, 'temp': 0.0, 'lipoC3S3': 11.46, 'state': 'normal', 'rot1': 108, 'rot0': 91, 'rot3': 0, 'rot2': 0, 'depth': -0.369, 'yaw': -152.41, 'datetime': '2018-12-12 14:41:10.609759', 'mgs': 0, 'flw2': 3.25, 'flw1': 0.0, 'flw0': 2.09, 'time': 14.81, 'compass': -140.91, 'pitch': 0.97, 'roll': 0.25}
{'lipoC2': 7.37, 'temp': 0.0, 'lipoC3S3': 11.29, 'state': 'normal', 'rot1': 110, 'rot0': 94, 'rot3': 0, 'rot2': 0, 'depth': -1.361, 'yaw': -150.86, 'datetime': '2018-12-12 14:41:10.819733', 'mgs': 0, 'flw2': 3.86, 'flw1': 0.0, 'flw0': 2.28, 'time': 15.02, 'compass': -139.36, 'pitch': 1.06, 'roll': 0.53}
{'lipoC2': 7.46, 'temp': 0.0, 'lipoC3S3': 10.97, 'state': 'normal', 'rot1': 113, 'rot0': 96, 'rot3': 0, 'rot2': 0, 'depth': 0.089, 'yaw': -149.15, 'datetime': '2018-12-12 14:41:11.029073', 'mgs': 0, 'flw2': 3.47, 'flw1': 0.0, 'flw0': 2.27, 'time': 15.23, 'compass': -137.65, 'pitch': 1.06, 'roll': 0.84}
{'lipoC2': 7.17, 'temp': 0.0, 'lipoC3S3': 11.18, 'state': 'normal', 'rot1': 115, 'rot0': 99, 'rot3': 0, 'rot2': 0, 'depth': 1.385, 'yaw': -147.35, 'datetime': '2018-12-12 14:41:11.237452', 'mgs': 0, 'flw2': 3.32, 'flw1': 0.21, 'flw0': 2.03, 'time': 15.44, 'compass': -135.85, 'pitch': 0.87, 'roll': 1.08}
{'lipoC2': 7.48, 'temp': 0.0, 'lipoC3S3': 10.93, 'state': 'normal', 'rot1': 117, 'rot0': 101, 'rot3': 0, 'rot2': 0, 'depth': -1.59, 'yaw': -145.31, 'datetime': '2018-12-12 14:41:11.447428', 'mgs': 0, 'flw2': 3.45, 'flw1': 0.64, 'flw0': 2.83, 'time': 15.65, 'compass': -133.81, 'pitch': 0.98, 'roll': 1.29}
{'lipoC2': 7.32, 'temp': 0.0, 'lipoC3S3': 11.23, 'state': 'normal', 'rot1': 119, 'rot0': 104, 'rot3': 0, 'rot2': 0, 'depth': -1.056, 'yaw': -143.59, 'datetime': '2018-12-12 14:41:11.656305', 'mgs': 0, 'flw2': 3.7, 'flw1': 0.0, 'flw0': 3.1, 'time': 15.85, 'compass': -132.09, 'pitch': 1.67, 'roll': 1.2}
{'lipoC2': 7.24, 'temp': 0.0, 'lipoC3S3': 11.13, 'state': 'normal', 'rot1': 121, 'rot0': 106, 'rot3': 0, 'rot2': 0, 'depth': -1.056, 'yaw': -141.94, 'datetime': '2018-12-12 14:41:11.866403', 'mgs': 0, 'flw2': 3.59, 'flw1': 0.53, 'flw0': 2.71, 'time': 16.07, 'compass': -130.44, 'pitch': 1.97, 'roll': 1.2}
{'lipoC2': 7.23, 'temp': 0.0, 'lipoC3S3': 11.18, 'state': 'normal', 'rot1': 124, 'rot0': 109, 'rot3': 0, 'rot2': 0, 'depth': -0.751, 'yaw': -140.09, 'datetime': '2018-12-12 14:41:12.080135', 'mgs': 0, 'flw2': 3.88, 'flw1': 0.0, 'flw0': 2.67, 'time': 16.28, 'compass': -128.59, 'pitch': 1.51, 'roll': 1.35}
{'lipoC2': 7.27, 'temp': 0.0, 'lipoC3S3': 10.86, 'state': 'normal', 'rot1': 126, 'rot0': 112, 'rot3': 0, 'rot2': 0, 'depth': -0.369, 'yaw': -138.3, 'datetime': '2018-12-12 14:41:12.288319', 'mgs': 0, 'flw2': 3.86, 'flw1': 0.0, 'flw0': 2.62, 'time': 16.49, 'compass': -126.8, 'pitch': 1.21, 'roll': 1.3}
{'lipoC2': 7.29, 'temp': 0.0, 'lipoC3S3': 11.23, 'state': 'normal', 'rot1': 129, 'rot0': 114, 'rot3': 0, 'rot2': 0, 'depth': -0.827, 'yaw': -136.6, 'datetime': '2018-12-12 14:41:12.498070', 'mgs': 0, 'flw2': 4.16, 'flw1': 0.0, 'flw0': 2.56, 'time': 16.69, 'compass': -125.1, 'pitch': 1.45, 'roll': 1.23}
{'lipoC2': 7.29, 'temp': 0.0, 'lipoC3S3': 10.85, 'state': 'normal', 'rot1': 131, 'rot0': 117, 'rot3': 0, 'rot2': 0, 'depth': 0.47, 'yaw': -134.06, 'datetime': '2018-12-12 14:41:12.707213', 'mgs': 0, 'flw2': 3.56, 'flw1': 0.0, 'flw0': 3.02, 'time': 16.9, 'compass': -122.56, 'pitch': 1.89, 'roll': 1.3}
{'lipoC2': 7.3, 'temp': 0.0, 'lipoC3S3': 11.02, 'state': 'normal', 'rot1': 134, 'rot0': 120, 'rot3': 0, 'rot2': 0, 'depth': -0.598, 'yaw': -130.4, 'datetime': '2018-12-12 14:41:12.920090', 'mgs': 0, 'flw2': 3.72, 'flw1': 0.0, 'flw0': 3.05, 'time': 17.11, 'compass': -118.9, 'pitch': 2.05, 'roll': 1.45}
{'lipoC2': 7.24, 'temp': 0.0, 'lipoC3S3': 10.85, 'state': 'normal', 'rot1': 136, 'rot0': 122, 'rot3': 0, 'rot2': 0, 'depth': 0.699, 'yaw': -126.85, 'datetime': '2018-12-12 14:41:13.129867', 'mgs': 0, 'flw2': 3.75, 'flw1': 0.44, 'flw0': 2.55, 'time': 17.33, 'compass': -115.35, 'pitch': 2.1, 'roll': 1.81}
{'lipoC2': 7.48, 'temp': 0.0, 'lipoC3S3': 10.8, 'state': 'normal', 'rot1': 138, 'rot0': 125, 'rot3': 0, 'rot2': 0, 'depth': -0.598, 'yaw': -122.97, 'datetime': '2018-12-12 14:41:13.344885', 'mgs': 0, 'flw2': 3.75, 'flw1': 0.0, 'flw0': 3.0, 'time': 17.53, 'compass': -111.47, 'pitch': 2.17, 'roll': 2.07}
{'lipoC2': 7.22, 'temp': 0.0, 'lipoC3S3': 11.18, 'state': 'normal', 'rot1': 141, 'rot0': 127, 'rot3': 0, 'rot2': 0, 'depth': -1.285, 'yaw': -119.02, 'datetime': '2018-12-12 14:41:13.554451', 'mgs': 0, 'flw2': 3.56, 'flw1': 0.0, 'flw0': 3.02, 'time': 17.74, 'compass': -107.52, 'pitch': 2.07, 'roll': 2.19}
{'lipoC2': 7.39, 'temp': 0.0, 'lipoC3S3': 10.97, 'state': 'normal', 'rot1': 143, 'rot0': 130, 'rot3': 0, 'rot2': 0, 'depth': 1.309, 'yaw': -115.74, 'datetime': '2018-12-12 14:41:13.761731', 'mgs': 0, 'flw2': 3.86, 'flw1': 0.0, 'flw0': 2.93, 'time': 17.95, 'compass': -104.24, 'pitch': 1.91, 'roll': 2.06}
{'lipoC2': 7.26, 'temp': 0.0, 'lipoC3S3': 10.89, 'state': 'normal', 'rot1': 146, 'rot0': 132, 'rot3': 0, 'rot2': 0, 'depth': 0.851, 'yaw': -112.73, 'datetime': '2018-12-12 14:41:13.971271', 'mgs': 0, 'flw2': 3.85, 'flw1': 0.0, 'flw0': 2.83, 'time': 18.16, 'compass': -101.23, 'pitch': 1.62, 'roll': 1.93}
{'lipoC2': 7.49, 'temp': 0.0, 'lipoC3S3': 10.97, 'state': 'normal', 'rot1': 148, 'rot0': 135, 'rot3': 0, 'rot2': 0, 'depth': -0.293, 'yaw': -109.44, 'datetime': '2018-12-12 14:41:14.182491', 'mgs': 0, 'flw2': 4.09, 'flw1': 0.0, 'flw0': 2.87, 'time': 18.37, 'compass': -97.94, 'pitch': 1.34, 'roll': 2.1}
{'lipoC2': 7.13, 'temp': 0.0, 'lipoC3S3': 11.02, 'state': 'normal', 'rot1': 150, 'rot0': 138, 'rot3': 0, 'rot2': 0, 'depth': 1.385, 'yaw': -106.21, 'datetime': '2018-12-12 14:41:14.394871', 'mgs': 0, 'flw2': 3.74, 'flw1': 0.44, 'flw0': 3.59, 'time': 18.58, 'compass': -94.71, 'pitch': 1.27, 'roll': 2.31}
{'lipoC2': 7.38, 'temp': 0.0, 'lipoC3S3': 11.15, 'state': 'normal', 'rot1': 153, 'rot0': 140, 'rot3': 0, 'rot2': 0, 'depth': 0.851, 'yaw': -103.84, 'datetime': '2018-12-12 14:41:14.606705', 'mgs': 0, 'flw2': 3.72, 'flw1': 0.0, 'flw0': 3.7, 'time': 18.79, 'compass': -92.34, 'pitch': 1.74, 'roll': 2.21}
{'lipoC2': 7.13, 'temp': 0.0, 'lipoC3S3': 11.44, 'state': 'normal', 'rot1': 156, 'rot0': 143, 'rot3': 0, 'rot2': 0, 'depth': -0.293, 'yaw': -101.06, 'datetime': '2018-12-12 14:41:14.812953', 'mgs': 0, 'flw2': 3.69, 'flw1': 0.0, 'flw0': 3.6, 'time': 19.0, 'compass': -89.56, 'pitch': 2.18, 'roll': 2.29}
{'lipoC2': 7.36, 'temp': 0.0, 'lipoC3S3': 10.92, 'state': 'normal', 'rot1': 159, 'rot0': 145, 'rot3': 0, 'rot2': 0, 'depth': 0.394, 'yaw': -98.37, 'datetime': '2018-12-12 14:41:15.025870', 'mgs': 0, 'flw2': 4.09, 'flw1': 0.0, 'flw0': 3.32, 'time': 19.21, 'compass': -86.87, 'pitch': 2.31, 'roll': 2.33}
{'lipoC2': 7.19, 'temp': 0.0, 'lipoC3S3': 11.05, 'state': 'normal', 'rot1': 161, 'rot0': 148, 'rot3': 0, 'rot2': 0, 'depth': 1.767, 'yaw': -95.47, 'datetime': '2018-12-12 14:41:15.234487', 'mgs': 0, 'flw2': 3.56, 'flw1': 0.0, 'flw0': 3.55, 'time': 19.42, 'compass': -83.97, 'pitch': 1.91, 'roll': 2.21}
{'lipoC2': 7.38, 'temp': 0.0, 'lipoC3S3': 10.72, 'state': 'normal', 'rot1': 164, 'rot0': 151, 'rot3': 0, 'rot2': 0, 'depth': -0.827, 'yaw': -93.24, 'datetime': '2018-12-12 14:41:15.443739', 'mgs': 0, 'flw2': 3.78, 'flw1': 0.0, 'flw0': 3.39, 'time': 19.63, 'compass': -81.74, 'pitch': 1.62, 'roll': 2.11}
{'lipoC2': 7.23, 'temp': 0.0, 'lipoC3S3': 11.19, 'state': 'normal', 'rot1': 166, 'rot0': 153, 'rot3': 0, 'rot2': 0, 'depth': -0.217, 'yaw': -90.33, 'datetime': '2018-12-12 14:41:15.654425', 'mgs': 0, 'flw2': 3.59, 'flw1': 0.21, 'flw0': 3.25, 'time': 19.84, 'compass': -78.83, 'pitch': 1.84, 'roll': 2.18}
{'lipoC2': 7.17, 'temp': 0.0, 'lipoC3S3': 11.13, 'state': 'normal', 'rot1': 169, 'rot0': 156, 'rot3': 0, 'rot2': 0, 'depth': 1.157, 'yaw': -86.93, 'datetime': '2018-12-12 14:41:15.864100', 'mgs': 0, 'flw2': 3.34, 'flw1': 0.44, 'flw0': 3.6, 'time': 20.05, 'compass': -75.43, 'pitch': 1.97, 'roll': 2.3}
{'lipoC2': 7.23, 'temp': 0.0, 'lipoC3S3': 11.03, 'state': 'normal', 'rot1': 171, 'rot0': 158, 'rot3': 0, 'rot2': 0, 'depth': 1.462, 'yaw': -83.64, 'datetime': '2018-12-12 14:41:16.069772', 'mgs': 0, 'flw2': 3.61, 'flw1': 0.0, 'flw0': 3.74, 'time': 20.26, 'compass': -72.14, 'pitch': 1.64, 'roll': 2.32}
{'lipoC2': 7.1, 'temp': 0.0, 'lipoC3S3': 11.06, 'state': 'normal', 'rot1': 174, 'rot0': 161, 'rot3': 0, 'rot2': 0, 'depth': 1.157, 'yaw': -80.09, 'datetime': '2018-12-12 14:41:16.278548', 'mgs': 0, 'flw2': 3.49, 'flw1': 0.44, 'flw0': 3.71, 'time': 20.47, 'compass': -68.59, 'pitch': 1.56, 'roll': 2.17}
{'lipoC2': 7.3, 'temp': 0.0, 'lipoC3S3': 10.81, 'state': 'normal', 'rot1': 177, 'rot0': 163, 'rot3': 0, 'rot2': 0, 'depth': 0.012, 'yaw': -77.13, 'datetime': '2018-12-12 14:41:16.487231', 'mgs': 0, 'flw2': 3.81, 'flw1': 0.0, 'flw0': 3.42, 'time': 20.67, 'compass': -65.63, 'pitch': 2.22, 'roll': 1.99}
{'lipoC2': 7.46, 'temp': 0.0, 'lipoC3S3': 10.93, 'state': 'normal', 'rot1': 179, 'rot0': 166, 'rot3': 0, 'rot2': 0, 'depth': -0.446, 'yaw': -74.04, 'datetime': '2018-12-12 14:41:16.697904', 'mgs': 0, 'flw2': 3.99, 'flw1': 0.0, 'flw0': 3.52, 'time': 20.88, 'compass': -62.54, 'pitch': 2.92, 'roll': 2.0}
{'lipoC2': 7.22, 'temp': 0.0, 'lipoC3S3': 11.07, 'state': 'normal', 'rot1': 182, 'rot0': 168, 'rot3': 0, 'rot2': 0, 'depth': -0.827, 'yaw': -70.99, 'datetime': '2018-12-12 14:41:16.910899', 'mgs': 0, 'flw2': 2.55, 'flw1': 0.0, 'flw0': 3.61, 'time': 21.09, 'compass': -59.49, 'pitch': 2.87, 'roll': 2.08}
{'lipoC2': 7.09, 'temp': 0.0, 'lipoC3S3': 11.46, 'state': 'normal', 'rot1': 185, 'rot0': 171, 'rot3': 0, 'rot2': 0, 'depth': 0.851, 'yaw': -67.09, 'datetime': '2018-12-12 14:41:17.221513', 'mgs': 0, 'flw2': 2.2, 'flw1': 0.0, 'flw0': 3.56, 'time': 21.41, 'compass': -55.59, 'pitch': 1.96, 'roll': 2.35}
{'lipoC2': 7.12, 'temp': 0.0, 'lipoC3S3': 10.88, 'state': 'normal', 'rot1': 188, 'rot0': 174, 'rot3': 0, 'rot2': 0, 'depth': -0.217, 'yaw': -64.77, 'datetime': '2018-12-12 14:41:17.432522', 'mgs': 0, 'flw2': 2.21, 'flw1': 0.0, 'flw0': 3.83, 'time': 21.62, 'compass': -53.27, 'pitch': 1.61, 'roll': 2.26}
{'lipoC2': 7.34, 'temp': 0.0, 'lipoC3S3': 11.36, 'state': 'normal', 'rot1': 191, 'rot0': 176, 'rot3': 0, 'rot2': 0, 'depth': 0.394, 'yaw': -62.77, 'datetime': '2018-12-12 14:41:17.634421', 'mgs': 0, 'flw2': 2.39, 'flw1': 0.0, 'flw0': 3.63, 'time': 21.83, 'compass': -51.28, 'pitch': 1.73, 'roll': 1.91}
{'lipoC2': 7.22, 'temp': 0.0, 'lipoC3S3': 11.56, 'state': 'normal', 'rot1': 193, 'rot0': 179, 'rot3': 0, 'rot2': 0, 'depth': 0.699, 'yaw': -60.99, 'datetime': '2018-12-12 14:41:17.845025', 'mgs': 0, 'flw2': 2.29, 'flw1': 0.0, 'flw0': 3.54, 'time': 22.03, 'compass': -49.49, 'pitch': 1.79, 'roll': 1.68}
{'lipoC2': 7.3, 'temp': 0.0, 'lipoC3S3': 10.84, 'state': 'normal', 'rot1': 195, 'rot0': 181, 'rot3': 0, 'rot2': 0, 'depth': 1.157, 'yaw': -59.24, 'datetime': '2018-12-12 14:41:18.054753', 'mgs': 0, 'flw2': 1.77, 'flw1': 0.0, 'flw0': 3.42, 'time': 22.25, 'compass': -47.74, 'pitch': 1.8, 'roll': 1.42}
{'lipoC2': 7.23, 'temp': 0.0, 'lipoC3S3': 11.15, 'state': 'normal', 'rot1': 198, 'rot0': 183, 'rot3': 0, 'rot2': 0, 'depth': -0.522, 'yaw': -58.45, 'datetime': '2018-12-12 14:41:18.265243', 'mgs': 0, 'flw2': 1.67, 'flw1': 0.0, 'flw0': 3.56, 'time': 22.45, 'compass': -46.95, 'pitch': 1.49, 'roll': 0.97}
{'lipoC2': 7.27, 'temp': 0.0, 'lipoC3S3': 10.86, 'state': 'normal', 'rot1': 200, 'rot0': 184, 'rot3': 0, 'rot2': 0, 'depth': 0.546, 'yaw': -58.21, 'datetime': '2018-12-12 14:41:18.476252', 'mgs': 0, 'flw2': 1.45, 'flw1': 0.0, 'flw0': 3.72, 'time': 22.66, 'compass': -46.71, 'pitch': 1.01, 'roll': 0.96}
{'lipoC2': 7.24, 'temp': 0.0, 'lipoC3S3': 11.18, 'state': 'normal', 'rot1': 203, 'rot0': 186, 'rot3': 0, 'rot2': 0, 'depth': -0.903, 'yaw': -58.12, 'datetime': '2018-12-12 14:41:18.683900', 'mgs': 0, 'flw2': 1.81, 'flw1': 0.0, 'flw0': 3.71, 'time': 22.87, 'compass': -46.62, 'pitch': 0.64, 'roll': 1.28}
{'lipoC2': 7.4, 'temp': 0.0, 'lipoC3S3': 10.96, 'state': 'normal', 'rot1': 206, 'rot0': 188, 'rot3': 0, 'rot2': 0, 'depth': -0.14, 'yaw': -58.36, 'datetime': '2018-12-12 14:41:18.890847', 'mgs': 0, 'flw2': 1.72, 'flw1': 0.0, 'flw0': 2.92, 'time': 23.08, 'compass': -46.86, 'pitch': 0.77, 'roll': 1.32}
{'lipoC2': 7.41, 'temp': 0.0, 'lipoC3S3': 11.1, 'state': 'normal', 'rot1': 208, 'rot0': 190, 'rot3': 0, 'rot2': 0, 'depth': 1.385, 'yaw': -58.58, 'datetime': '2018-12-12 14:41:19.101491', 'mgs': 0, 'flw2': 1.09, 'flw1': 0.0, 'flw0': 1.7, 'time': 23.29, 'compass': -47.08, 'pitch': 1.26, 'roll': 1.18}
{'lipoC2': 7.37, 'temp': 0.0, 'lipoC3S3': 11.0, 'state': 'normal', 'rot1': 209, 'rot0': 190, 'rot3': 0, 'rot2': 0, 'depth': -1.971, 'yaw': -58.41, 'datetime': '2018-12-12 14:41:19.314987', 'mgs': 0, 'flw2': 0.0, 'flw1': 0.0, 'flw0': 0.26, 'time': 23.5, 'compass': -46.91, 'pitch': 0.95, 'roll': 1.12}
{'lipoC2': 7.24, 'temp': 0.0, 'lipoC3S3': 11.27, 'state': 'normal', 'rot1': 209, 'rot0': 190, 'rot3': 0, 'rot2': 0, 'depth': -1.59, 'yaw': -57.61, 'datetime': '2018-12-12 14:41:19.520128', 'mgs': 0, 'flw2': 0.0, 'flw1': 0.0, 'flw0': 0.28, 'time': 23.71, 'compass': -46.11, 'pitch': -1.86, 'roll': 1.35}
{'lipoC2': 7.15, 'temp': 0.0, 'lipoC3S3': 11.26, 'state': 'normal', 'rot1': 209, 'rot0': 190, 'rot3': 0, 'rot2': 0, 'depth': -0.293, 'yaw': -56.31, 'datetime': '2018-12-12 14:41:19.732046', 'mgs': 0, 'flw2': 0.0, 'flw1': 0.26, 'flw0': 0.0, 'time': 23.92, 'compass': -44.81, 'pitch': -3.5, 'roll': 1.51}
{'lipoC2': 7.39, 'temp': 0.0, 'lipoC3S3': 11.06, 'state': 'normal', 'rot1': 209, 'rot0': 190, 'rot3': 0, 'rot2': 0, 'depth': -0.369, 'yaw': -54.57, 'datetime': '2018-12-12 14:41:19.940096', 'mgs': 0, 'flw2': 0.26, 'flw1': 0.0, 'flw0': 0.0, 'time': 24.13, 'compass': -43.07, 'pitch': -2.74, 'roll': 1.35}
{'lipoC2': 7.13, 'temp': 0.0, 'lipoC3S3': 11.52, 'state': 'normal', 'rot1': 209, 'rot0': 190, 'rot3': 0, 'rot2': 0, 'depth': 0.851, 'yaw': -52.71, 'datetime': '2018-12-12 14:41:20.148686', 'mgs': 0, 'flw2': 0.0, 'flw1': 0.0, 'flw0': 0.18, 'time': 24.33, 'compass': -41.21, 'pitch': -1.83, 'roll': 0.8}
{'lipoC2': 7.35, 'temp': 0.0, 'lipoC3S3': 11.36, 'state': 'normal', 'rot1': 209, 'rot0': 190, 'rot3': 0, 'rot2': 0, 'depth': -1.437, 'yaw': -50.61, 'datetime': '2018-12-12 14:41:20.358125', 'mgs': 0, 'flw2': 0.0, 'flw1': 0.82, 'flw0': 0.0, 'time': 24.54, 'compass': -39.11, 'pitch': -2.0, 'roll': 0.4}
{'lipoC2': 7.14, 'temp': 0.0, 'lipoC3S3': 11.43, 'state': 'normal', 'rot1': 209, 'rot0': 190, 'rot3': 0, 'rot2': 0, 'depth': -0.751, 'yaw': -48.35, 'datetime': '2018-12-12 14:41:20.567562', 'mgs': 0, 'flw2': 0.0, 'flw1': 0.21, 'flw0': 0.0, 'time': 24.75, 'compass': -36.85, 'pitch': -2.73, 'roll': 0.46}
{'lipoC2': 7.25, 'temp': 0.0, 'lipoC3S3': 11.03, 'state': 'normal', 'rot1': 209, 'rot0': 191, 'rot3': 0, 'rot2': 0, 'depth': -1.59, 'yaw': -45.88, 'datetime': '2018-12-12 14:41:20.777651', 'mgs': 0, 'flw2': 0.17, 'flw1': 0.0, 'flw0': 0.21, 'time': 24.96, 'compass': -34.38, 'pitch': -2.92, 'roll': 0.85}
{'lipoC2': 7.43, 'temp': 0.0, 'lipoC3S3': 11.01, 'state': 'normal', 'rot1': 209, 'rot0': 192, 'rot3': 0, 'rot2': 0, 'depth': 0.928, 'yaw': -42.79, 'datetime': '2018-12-12 14:41:20.985299', 'mgs': 0, 'flw2': 0.96, 'flw1': 0.0, 'flw0': 0.0, 'time': 25.17, 'compass': -31.29, 'pitch': -2.11, 'roll': 1.46}
{'lipoC2': 7.15, 'temp': 0.0, 'lipoC3S3': 11.27, 'state': 'normal', 'rot1': 209, 'rot0': 193, 'rot3': 0, 'rot2': 0, 'depth': -0.293, 'yaw': -39.15, 'datetime': '2018-12-12 14:41:21.193570', 'mgs': 0, 'flw2': 0.66, 'flw1': 0.0, 'flw0': 0.5, 'time': 25.38, 'compass': -27.65, 'pitch': -1.31, 'roll': 1.81}
{'lipoC2': 7.21, 'temp': 0.0, 'lipoC3S3': 11.25, 'state': 'normal', 'rot1': 210, 'rot0': 195, 'rot3': 0, 'rot2': 0, 'depth': 1.614, 'yaw': -34.96, 'datetime': '2018-12-12 14:41:21.402790', 'mgs': 0, 'flw2': 0.98, 'flw1': 0.0, 'flw0': 0.71, 'time': 25.59, 'compass': -23.46, 'pitch': -1.0, 'roll': 1.88}
{'lipoC2': 7.13, 'temp': 0.0, 'lipoC3S3': 11.46, 'state': 'normal', 'rot1': 212, 'rot0': 196, 'rot3': 0, 'rot2': 0, 'depth': 1.996, 'yaw': -30.95, 'datetime': '2018-12-12 14:41:21.612856', 'mgs': 0, 'flw2': 0.51, 'flw1': 0.0, 'flw0': 1.54, 'time': 25.8, 'compass': -19.45, 'pitch': -0.59, 'roll': 1.76}
{'lipoC2': 7.29, 'temp': 0.0, 'lipoC3S3': 11.21, 'state': 'normal', 'rot1': 214, 'rot0': 197, 'rot3': 0, 'rot2': 0, 'depth': -1.59, 'yaw': -28.06, 'datetime': '2018-12-12 14:41:21.821571', 'mgs': 0, 'flw2': 0.67, 'flw1': 0.56, 'flw0': 1.57, 'time': 26.0, 'compass': -16.56, 'pitch': -0.04, 'roll': 1.16}
{'lipoC2': 7.49, 'temp': 0.0, 'lipoC3S3': 10.92, 'state': 'normal', 'rot1': 216, 'rot0': 199, 'rot3': 0, 'rot2': 0, 'depth': -2.2, 'yaw': -26.47, 'datetime': '2018-12-12 14:41:22.033453', 'mgs': 0, 'flw2': 0.92, 'flw1': 0.0, 'flw0': 2.0, 'time': 26.22, 'compass': -14.97, 'pitch': -0.2, 'roll': 0.42}
{'lipoC2': 7.35, 'temp': 0.0, 'lipoC3S3': 11.07, 'state': 'normal', 'rot1': 218, 'rot0': 200, 'rot3': 0, 'rot2': 0, 'depth': 1.92, 'yaw': -26.26, 'datetime': '2018-12-12 14:41:22.242323', 'mgs': 0, 'flw2': 0.09, 'flw1': 0.0, 'flw0': 3.67, 'time': 26.42, 'compass': -14.76, 'pitch': -0.48, 'roll': 0.2}
{'lipoC2': 7.1, 'temp': 0.0, 'lipoC3S3': 11.25, 'state': 'normal', 'rot1': 221, 'rot0': 200, 'rot3': 0, 'rot2': 0, 'depth': 0.165, 'yaw': -28.11, 'datetime': '2018-12-12 14:41:22.452306', 'mgs': 0, 'flw2': 0.38, 'flw1': 0.0, 'flw0': 3.44, 'time': 26.63, 'compass': -16.61, 'pitch': -0.37, 'roll': 0.24}
{'lipoC2': 7.1, 'temp': 0.0, 'lipoC3S3': 11.15, 'state': 'normal', 'rot1': 223, 'rot0': 201, 'rot3': 0, 'rot2': 0, 'depth': 0.165, 'yaw': -31.67, 'datetime': '2018-12-12 14:41:22.659199', 'mgs': 0, 'flw2': 0.49, 'flw1': 0.62, 'flw0': 3.36, 'time': 26.84, 'compass': -20.17, 'pitch': -0.01, 'roll': -0.0}
{'lipoC2': 7.43, 'temp': 0.0, 'lipoC3S3': 10.92, 'state': 'normal', 'rot1': 226, 'rot0': 203, 'rot3': 0, 'rot2': 0, 'depth': -0.903, 'yaw': -36.16, 'datetime': '2018-12-12 14:41:22.869705', 'mgs': 0, 'flw2': 1.49, 'flw1': 0.0, 'flw0': 3.13, 'time': 27.05, 'compass': -24.66, 'pitch': 0.17, 'roll': -0.57}
{'lipoC2': 7.27, 'temp': 0.0, 'lipoC3S3': 11.06, 'state': 'normal', 'rot1': 228, 'rot0': 205, 'rot3': 0, 'rot2': 0, 'depth': -0.98, 'yaw': -40.39, 'datetime': '2018-12-12 14:41:23.078646', 'mgs': 0, 'flw2': 1.53, 'flw1': 0.79, 'flw0': 2.44, 'time': 27.26, 'compass': -28.89, 'pitch': 0.24, 'roll': -0.85}
{'lipoC2': 7.46, 'temp': 0.0, 'lipoC3S3': 11.13, 'state': 'normal', 'rot1': 231, 'rot0': 207, 'rot3': 0, 'rot2': 0, 'depth': 2.072, 'yaw': -43.62, 'datetime': '2018-12-12 14:41:23.291156', 'mgs': 0, 'flw2': 1.88, 'flw1': 0.0, 'flw0': 2.19, 'time': 27.47, 'compass': -32.12, 'pitch': 0.3, 'roll': -0.55}
{'lipoC2': 7.34, 'temp': 0.0, 'lipoC3S3': 11.09, 'state': 'normal', 'rot1': 233, 'rot0': 209, 'rot3': 0, 'rot2': 0, 'depth': 0.317, 'yaw': -46.31, 'datetime': '2018-12-12 14:41:23.497988', 'mgs': 0, 'flw2': 1.55, 'flw1': 0.38, 'flw0': 2.38, 'time': 27.68, 'compass': -34.81, 'pitch': 0.35, 'roll': 0.04}
{'lipoC2': 7.17, 'temp': 0.0, 'lipoC3S3': 11.32, 'state': 'normal', 'rot1': 235, 'rot0': 211, 'rot3': 0, 'rot2': 0, 'depth': -0.827, 'yaw': -48.95, 'datetime': '2018-12-12 14:41:23.707522', 'mgs': 0, 'flw2': 3.14, 'flw1': 0.0, 'flw0': 2.21, 'time': 27.89, 'compass': -37.45, 'pitch': 0.36, 'roll': 0.1}
{'lipoC2': 7.22, 'temp': 0.0, 'lipoC3S3': 11.09, 'state': 'normal', 'rot1': 237, 'rot0': 213, 'rot3': 0, 'rot2': 0, 'depth': -0.903, 'yaw': -51.04, 'datetime': '2018-12-12 14:41:23.917711', 'mgs': 0, 'flw2': 3.36, 'flw1': 0.0, 'flw0': 2.23, 'time': 28.09, 'compass': -39.54, 'pitch': 0.79, 'roll': -0.49}
{'lipoC2': 7.27, 'temp': 0.0, 'lipoC3S3': 11.0, 'state': 'normal', 'rot1': 240, 'rot0': 216, 'rot3': 0, 'rot2': 0, 'depth': 1.843, 'yaw': -51.77, 'datetime': '2018-12-12 14:41:24.124526', 'mgs': 0, 'flw2': 3.09, 'flw1': 0.0, 'flw0': 2.51, 'time': 28.3, 'compass': -40.27, 'pitch': 1.56, 'roll': -1.06}
{'lipoC2': 7.12, 'temp': 0.0, 'lipoC3S3': 11.17, 'state': 'normal', 'rot1': 242, 'rot0': 218, 'rot3': 0, 'rot2': 0, 'depth': 2.53, 'yaw': -51.56, 'datetime': '2018-12-12 14:41:24.334676', 'mgs': 0, 'flw2': 3.03, 'flw1': 0.09, 'flw0': 2.15, 'time': 28.51, 'compass': -40.06, 'pitch': 1.58, 'roll': -1.19}
{'lipoC2': 7.44, 'temp': 0.0, 'lipoC3S3': 10.9, 'state': 'normal', 'rot1': 245, 'rot0': 221, 'rot3': 0, 'rot2': 0, 'depth': -1.132, 'yaw': -51.85, 'datetime': '2018-12-12 14:41:24.544772', 'mgs': 0, 'flw2': 3.25, 'flw1': 0.0, 'flw0': 2.34, 'time': 28.72, 'compass': -40.35, 'pitch': 0.77, 'roll': -0.8}
{'lipoC2': 7.1, 'temp': 0.0, 'lipoC3S3': 11.14, 'state': 'normal', 'rot1': 247, 'rot0': 224, 'rot3': 0, 'rot2': 0, 'depth': 1.691, 'yaw': -51.73, 'datetime': '2018-12-12 14:41:24.752803', 'mgs': 0, 'flw2': 2.99, 'flw1': 0.0, 'flw0': 2.28, 'time': 28.93, 'compass': -40.23, 'pitch': 0.29, 'roll': -0.32}
{'lipoC2': 7.11, 'temp': 0.0, 'lipoC3S3': 11.05, 'state': 'normal', 'rot1': 249, 'rot0': 226, 'rot3': 0, 'rot2': 0, 'depth': 1.309, 'yaw': -51.4, 'datetime': '2018-12-12 14:41:24.962333', 'mgs': 0, 'flw2': 3.03, 'flw1': 0.44, 'flw0': 2.66, 'time': 29.14, 'compass': -39.9, 'pitch': 0.58, 'roll': -0.24}
{'lipoC2': 7.12, 'temp': 0.0, 'lipoC3S3': 11.03, 'state': 'normal', 'rot1': 251, 'rot0': 229, 'rot3': 0, 'rot2': 0, 'depth': 1.309, 'yaw': -51.67, 'datetime': '2018-12-12 14:41:25.171287', 'mgs': 0, 'flw2': 3.02, 'flw1': 0.44, 'flw0': 2.91, 'time': 29.35, 'compass': -40.17, 'pitch': 1.02, 'roll': -0.51}
{'lipoC2': 7.28, 'temp': 0.0, 'lipoC3S3': 10.98, 'state': 'normal', 'rot1': 253, 'rot0': 231, 'rot3': 0, 'rot2': 0, 'depth': -0.293, 'yaw': -51.35, 'datetime': '2018-12-12 14:41:25.380327', 'mgs': 0, 'flw2': 3.21, 'flw1': 0.12, 'flw0': 2.78, 'time': 29.56, 'compass': -39.85, 'pitch': 1.03, 'roll': -0.51}
{'lipoC2': 7.29, 'temp': 0.0, 'lipoC3S3': 10.84, 'state': 'normal', 'rot1': 256, 'rot0': 234, 'rot3': 0, 'rot2': 0, 'depth': 0.546, 'yaw': -51.24, 'datetime': '2018-12-12 14:41:25.591051', 'mgs': 0, 'flw2': 3.26, 'flw1': 0.0, 'flw0': 3.08, 'time': 29.77, 'compass': -39.74, 'pitch': 0.81, 'roll': -0.22}
{'lipoC2': 7.13, 'temp': 0.0, 'lipoC3S3': 11.43, 'state': 'normal', 'rot1': 258, 'rot0': 236, 'rot3': 0, 'rot2': 0, 'depth': -0.446, 'yaw': -51.33, 'datetime': '2018-12-12 14:41:25.800626', 'mgs': 0, 'flw2': 3.06, 'flw1': 0.32, 'flw0': 2.92, 'time': 29.98, 'compass': -39.83, 'pitch': 0.67, 'roll': -0.29}
{'lipoC2': 7.26, 'temp': 0.0, 'lipoC3S3': 10.74, 'state': 'normal', 'rot1': 260, 'rot0': 239, 'rot3': 0, 'rot2': 0, 'depth': -0.293, 'yaw': -52.29, 'datetime': '2018-12-12 14:41:26.010446', 'mgs': 0, 'flw2': 3.11, 'flw1': 0.29, 'flw0': 2.77, 'time': 30.19, 'compass': -40.79, 'pitch': 0.58, 'roll': -0.36}
{'lipoC2': 7.44, 'temp': 0.0, 'lipoC3S3': 10.94, 'state': 'normal', 'rot1': 263, 'rot0': 241, 'rot3': 0, 'rot2': 0, 'depth': 1.309, 'yaw': -52.54, 'datetime': '2018-12-12 14:41:26.223635', 'mgs': 0, 'flw2': 3.26, 'flw1': 0.0, 'flw0': 2.88, 'time': 30.4, 'compass': -41.04, 'pitch': 0.28, 'roll': -0.1}
{'lipoC2': 7.15, 'temp': 0.0, 'lipoC3S3': 10.98, 'state': 'normal', 'rot1': 266, 'rot0': 244, 'rot3': 0, 'rot2': 0, 'depth': -0.751, 'yaw': -52.75, 'datetime': '2018-12-12 14:41:26.432596', 'mgs': 0, 'flw2': 3.37, 'flw1': 0.0, 'flw0': 3.22, 'time': 30.6, 'compass': -41.25, 'pitch': 0.2, 'roll': 0.43}
{'lipoC2': 7.27, 'temp': 0.0, 'lipoC3S3': 11.26, 'state': 'normal', 'rot1': 268, 'rot0': 246, 'rot3': 0, 'rot2': 0, 'depth': 0.089, 'yaw': -52.71, 'datetime': '2018-12-12 14:41:26.641681', 'mgs': 0, 'flw2': 3.13, 'flw1': 0.0, 'flw0': 2.94, 'time': 30.81, 'compass': -41.21, 'pitch': 0.43, 'roll': 0.74}
{'lipoC2': 7.21, 'temp': 0.0, 'lipoC3S3': 11.34, 'state': 'normal', 'rot1': 270, 'rot0': 249, 'rot3': 0, 'rot2': 0, 'depth': -0.446, 'yaw': -52.92, 'datetime': '2018-12-12 14:41:26.852517', 'mgs': 0, 'flw2': 3.13, 'flw1': 0.0, 'flw0': 2.93, 'time': 31.02, 'compass': -41.42, 'pitch': 0.81, 'roll': 0.81}
{'lipoC2': 7.27, 'temp': 0.0, 'lipoC3S3': 11.26, 'state': 'normal', 'rot1': 273, 'rot0': 251, 'rot3': 0, 'rot2': 0, 'depth': -1.514, 'yaw': -54.51, 'datetime': '2018-12-12 14:41:27.062194', 'mgs': 0, 'flw2': 3.21, 'flw1': 0.0, 'flw0': 2.94, 'time': 31.23, 'compass': -43.01, 'pitch': 1.09, 'roll': 0.96}
{'lipoC2': 7.26, 'temp': 0.0, 'lipoC3S3': 11.29, 'state': 'normal', 'rot1': 275, 'rot0': 254, 'rot3': 0, 'rot2': 0, 'depth': -0.98, 'yaw': -55.33, 'datetime': '2018-12-12 14:41:27.271750', 'mgs': 0, 'flw2': 3.08, 'flw1': 0.18, 'flw0': 2.98, 'time': 31.44, 'compass': -43.83, 'pitch': 1.32, 'roll': 0.98}
{'lipoC2': 7.12, 'temp': 0.0, 'lipoC3S3': 11.36, 'state': 'normal', 'rot1': 278, 'rot0': 256, 'rot3': 0, 'rot2': 0, 'depth': -0.064, 'yaw': -56.5, 'datetime': '2018-12-12 14:41:27.480856', 'mgs': 0, 'flw2': 2.93, 'flw1': 0.18, 'flw0': 3.0, 'time': 31.65, 'compass': -45.0, 'pitch': 1.27, 'roll': 0.77}
{'lipoC2': 7.11, 'temp': 0.0, 'lipoC3S3': 11.32, 'state': 'normal', 'rot1': 280, 'rot0': 259, 'rot3': 0, 'rot2': 0, 'depth': 0.546, 'yaw': -56.65, 'datetime': '2018-12-12 14:41:27.690323', 'mgs': 0, 'flw2': 3.3, 'flw1': 0.21, 'flw0': 2.92, 'time': 31.86, 'compass': -45.15, 'pitch': 0.99, 'roll': 0.7}
{'lipoC2': 7.47, 'temp': 0.0, 'lipoC3S3': 10.97, 'state': 'normal', 'rot1': 283, 'rot0': 261, 'rot3': 0, 'rot2': 0, 'depth': -1.056, 'yaw': -56.74, 'datetime': '2018-12-12 14:41:27.898570', 'mgs': 0, 'flw2': 3.39, 'flw1': 0.0, 'flw0': 2.89, 'time': 32.07, 'compass': -45.24, 'pitch': 1.24, 'roll': 0.65}
{'lipoC2': 7.29, 'temp': 0.0, 'lipoC3S3': 11.09, 'state': 'normal', 'rot1': 285, 'rot0': 263, 'rot3': 0, 'rot2': 0, 'depth': -1.514, 'yaw': -56.87, 'datetime': '2018-12-12 14:41:28.109927', 'mgs': 0, 'flw2': 3.13, 'flw1': 0.21, 'flw0': 2.88, 'time': 32.28, 'compass': -45.37, 'pitch': 1.88, 'roll': 0.57}
{'lipoC2': 7.54, 'temp': 0.0, 'lipoC3S3': 11.02, 'state': 'normal', 'rot1': 288, 'rot0': 266, 'rot3': 0, 'rot2': 0, 'depth': -0.293, 'yaw': -56.83, 'datetime': '2018-12-12 14:41:28.319128', 'mgs': 0, 'flw2': 2.91, 'flw1': 0.0, 'flw0': 3.31, 'time': 32.49, 'compass': -45.33, 'pitch': 2.51, 'roll': 0.51}
{'lipoC2': 7.22, 'temp': 0.0, 'lipoC3S3': 11.1, 'state': 'normal', 'rot1': 290, 'rot0': 269, 'rot3': 0, 'rot2': 0, 'depth': 1.538, 'yaw': -56.82, 'datetime': '2018-12-12 14:41:28.527455', 'mgs': 0, 'flw2': 3.37, 'flw1': 0.0, 'flw0': 3.09, 'time': 32.7, 'compass': -45.32, 'pitch': 2.59, 'roll': 0.41}
{'lipoC2': 7.11, 'temp': 0.0, 'lipoC3S3': 11.19, 'state': 'normal', 'rot1': 293, 'rot0': 271, 'rot3': 0, 'rot2': 0, 'depth': -0.751, 'yaw': -56.6, 'datetime': '2018-12-12 14:41:28.737521', 'mgs': 0, 'flw2': 2.86, 'flw1': 0.03, 'flw0': 2.92, 'time': 32.91, 'compass': -45.1, 'pitch': 2.17, 'roll': 0.28}
{'lipoC2': 7.19, 'temp': 0.0, 'lipoC3S3': 11.35, 'state': 'normal', 'rot1': 295, 'rot0': 274, 'rot3': 0, 'rot2': 0, 'depth': -1.056, 'yaw': -55.9, 'datetime': '2018-12-12 14:41:28.946116', 'mgs': 0, 'flw2': 2.98, 'flw1': 0.0, 'flw0': 3.16, 'time': 33.12, 'compass': -44.4, 'pitch': 1.74, 'roll': 0.38}
{'lipoC2': 7.23, 'temp': 0.0, 'lipoC3S3': 11.05, 'state': 'normal', 'rot1': 297, 'rot0': 276, 'rot3': 0, 'rot2': 0, 'depth': 1.843, 'yaw': -55.33, 'datetime': '2018-12-12 14:41:29.155074', 'mgs': 0, 'flw2': 3.27, 'flw1': 0.0, 'flw0': 2.99, 'time': 33.32, 'compass': -43.83, 'pitch': 1.49, 'roll': 0.46}
{'lipoC2': 7.12, 'temp': 0.0, 'lipoC3S3': 11.35, 'state': 'normal', 'rot1': 300, 'rot0': 278, 'rot3': 0, 'rot2': 0, 'depth': -0.751, 'yaw': -54.81, 'datetime': '2018-12-12 14:41:29.366033', 'mgs': 0, 'flw2': 2.08, 'flw1': 0.0, 'flw0': 1.4, 'time': 33.53, 'compass': -43.31, 'pitch': 1.15, 'roll': 0.56}
{'lipoC2': 7.27, 'temp': 0.0, 'lipoC3S3': 11.27, 'state': 'normal', 'rot1': 301, 'rot0': 281, 'rot3': 0, 'rot2': 0, 'depth': -1.895, 'yaw': -53.83, 'datetime': '2018-12-12 14:41:29.575088', 'mgs': 0, 'flw2': 1.57, 'flw1': 0.0, 'flw0': 0.28, 'time': 33.74, 'compass': -42.33, 'pitch': 0.21, 'roll': 0.96}
{'lipoC2': 7.43, 'temp': 0.0, 'lipoC3S3': 11.18, 'state': 'normal', 'rot1': 302, 'rot0': 282, 'rot3': 0, 'rot2': 0, 'depth': 1.385, 'yaw': -52.26, 'datetime': '2018-12-12 14:41:29.785048', 'mgs': 0, 'flw2': 0.0, 'flw1': 0.18, 'flw0': 0.12, 'time': 33.95, 'compass': -40.76, 'pitch': -0.73, 'roll': 1.15}
{'lipoC2': 7.11, 'temp': 0.0, 'lipoC3S3': 11.09, 'state': 'normal', 'rot1': 302, 'rot0': 282, 'rot3': 0, 'rot2': 0, 'depth': -0.522, 'yaw': -51.01, 'datetime': '2018-12-12 14:41:29.993762', 'mgs': 0, 'flw2': 0.0, 'flw1': 0.0, 'flw0': 0.11, 'time': 34.16, 'compass': -39.51, 'pitch': -1.8, 'roll': 0.95}
{'lipoC2': 7.2, 'temp': 0.0, 'lipoC3S3': 11.25, 'state': 'normal', 'rot1': 302, 'rot0': 282, 'rot3': 0, 'rot2': 0, 'depth': 1.309, 'yaw': -49.98, 'datetime': '2018-12-12 14:41:30.201856', 'mgs': 0, 'flw2': 0.2, 'flw1': 0.0, 'flw0': 0.0, 'time': 34.37, 'compass': -38.48, 'pitch': -2.68, 'roll': 0.53}
{'lipoC2': 7.39, 'temp': 0.0, 'lipoC3S3': 10.97, 'state': 'normal', 'rot1': 302, 'rot0': 282, 'rot3': 0, 'rot2': 0, 'depth': 1.462, 'yaw': -48.96, 'datetime': '2018-12-12 14:41:30.410804', 'mgs': 0, 'flw2': 0.24, 'flw1': 0.0, 'flw0': 0.0, 'time': 34.58, 'compass': -37.46, 'pitch': -2.44, 'roll': 0.41}
{'lipoC2': 7.11, 'temp': 0.0, 'lipoC3S3': 11.17, 'state': 'normal', 'rot1': 302, 'rot0': 282, 'rot3': 0, 'rot2': 0, 'depth': 1.614, 'yaw': -48.02, 'datetime': '2018-12-12 14:41:30.621234', 'mgs': 0, 'flw2': 0.0, 'flw1': 0.0, 'flw0': 0.0, 'time': 34.79, 'compass': -36.52, 'pitch': -2.02, 'roll': 0.57}
{'lipoC2': 7.13, 'temp': 0.0, 'lipoC3S3': 10.98, 'state': 'normal', 'rot1': 302, 'rot0': 282, 'rot3': 0, 'rot2': 0, 'depth': 1.614, 'yaw': -47.25, 'datetime': '2018-12-12 14:41:30.833122', 'mgs': 0, 'flw2': 0.06, 'flw1': 0.0, 'flw0': 0.0, 'time': 35.0, 'compass': -35.75, 'pitch': -2.44, 'roll': 0.65}
{'lipoC2': 7.32, 'temp': 0.0, 'lipoC3S3': 11.19, 'state': 'normal', 'rot1': 302, 'rot0': 282, 'rot3': 0, 'rot2': 0, 'depth': -0.217, 'yaw': -46.6, 'datetime': '2018-12-12 14:41:31.041267', 'mgs': 0, 'flw2': 0.26, 'flw1': 0.0, 'flw0': 0.2, 'time': 35.21, 'compass': -35.11, 'pitch': -2.91, 'roll': 0.67}
{'lipoC2': 7.1, 'temp': 0.0, 'lipoC3S3': 11.1, 'state': 'normal', 'rot1': 302, 'rot0': 282, 'rot3': 0, 'rot2': 0, 'depth': 1.004, 'yaw': -45.97, 'datetime': '2018-12-12 14:41:31.250000', 'mgs': 0, 'flw2': 1.21, 'flw1': 0.21, 'flw0': 0.0, 'time': 35.42, 'compass': -34.47, 'pitch': -2.67, 'roll': 0.74}
{'lipoC2': 7.24, 'temp': 0.0, 'lipoC3S3': 11.19, 'state': 'normal', 'rot1': 302, 'rot0': 284, 'rot3': 0, 'rot2': 0, 'depth': -0.369, 'yaw': -44.07, 'datetime': '2018-12-12 14:41:31.458262', 'mgs': 0, 'flw2': 4.3, 'flw1': 0.0, 'flw0': 0.06, 'time': 35.62, 'compass': -32.57, 'pitch': -1.27, 'roll': 1.12}
{'lipoC2': 7.17, 'temp': 0.0, 'lipoC3S3': 11.23, 'state': 'normal', 'rot1': 302, 'rot0': 287, 'rot3': 0, 'rot2': 0, 'depth': 1.462, 'yaw': -37.84, 'datetime': '2018-12-12 14:41:31.668134', 'mgs': 0, 'flw2': 3.16, 'flw1': 0.21, 'flw0': 0.0, 'time': 35.83, 'compass': -26.34, 'pitch': 0.67, 'roll': 1.81}
{'lipoC2': 7.42, 'temp': 0.0, 'lipoC3S3': 10.94, 'state': 'normal', 'rot1': 302, 'rot0': 289, 'rot3': 0, 'rot2': 0, 'depth': -0.827, 'yaw': -29.53, 'datetime': '2018-12-12 14:41:31.879124', 'mgs': 0, 'flw2': 3.37, 'flw1': 0.56, 'flw0': 0.2, 'time': 36.04, 'compass': -18.03, 'pitch': 0.64, 'roll': 2.45}
{'lipoC2': 7.18, 'temp': 0.0, 'lipoC3S3': 11.15, 'state': 'normal', 'rot1': 303, 'rot0': 292, 'rot3': 0, 'rot2': 0, 'depth': 1.462, 'yaw': -20.52, 'datetime': '2018-12-12 14:41:32.088367', 'mgs': 0, 'flw2': 3.43, 'flw1': 0.03, 'flw0': 0.35, 'time': 36.25, 'compass': -9.02, 'pitch': -0.21, 'roll': 2.9}
{'lipoC2': 7.35, 'temp': 0.0, 'lipoC3S3': 11.18, 'state': 'normal', 'rot1': 304, 'rot0': 295, 'rot3': 0, 'rot2': 0, 'depth': -0.98, 'yaw': -11.83, 'datetime': '2018-12-12 14:41:32.298875', 'mgs': 0, 'flw2': 3.16, 'flw1': 0.41, 'flw0': 1.16, 'time': 36.46, 'compass': -0.33, 'pitch': 0.28, 'roll': 3.21}
{'lipoC2': 7.47, 'temp': 0.0, 'lipoC3S3': 10.96, 'state': 'normal', 'rot1': 306, 'rot0': 297, 'rot3': 0, 'rot2': 0, 'depth': 0.775, 'yaw': -2.9, 'datetime': '2018-12-12 14:41:32.506747', 'mgs': 0, 'flw2': 2.97, 'flw1': 0.0, 'flw0': 1.06, 'time': 36.67, 'compass': 8.6, 'pitch': 2.48, 'roll': 2.99}
{'lipoC2': 7.41, 'temp': 0.0, 'lipoC3S3': 10.96, 'state': 'normal', 'rot1': 308, 'rot0': 299, 'rot3': 0, 'rot2': 0, 'depth': -1.971, 'yaw': 5.34, 'datetime': '2018-12-12 14:41:32.716594', 'mgs': 0, 'flw2': 2.75, 'flw1': 0.0, 'flw0': 1.45, 'time': 36.88, 'compass': 16.84, 'pitch': 3.93, 'roll': 2.82}
{'lipoC2': 7.36, 'temp': 0.0, 'lipoC3S3': 11.19, 'state': 'normal', 'rot1': 310, 'rot0': 302, 'rot3': 0, 'rot2': 0, 'depth': -1.361, 'yaw': 12.53, 'datetime': '2018-12-12 14:41:32.925507', 'mgs': 0, 'flw2': 2.73, 'flw1': 0.0, 'flw0': 1.4, 'time': 37.09, 'compass': 24.03, 'pitch': 3.79, 'roll': 3.07}
{'lipoC2': 7.1, 'temp': 0.0, 'lipoC3S3': 11.31, 'state': 'normal', 'rot1': 312, 'rot0': 305, 'rot3': 0, 'rot2': 0, 'depth': 1.462, 'yaw': 19.48, 'datetime': '2018-12-12 14:41:33.136376', 'mgs': 0, 'flw2': 2.55, 'flw1': 0.0, 'flw0': 1.28, 'time': 37.3, 'compass': 30.98, 'pitch': 2.87, 'roll': 3.26}
{'lipoC2': 7.43, 'temp': 0.0, 'lipoC3S3': 10.98, 'state': 'normal', 'rot1': 314, 'rot0': 307, 'rot3': 0, 'rot2': 0, 'depth': -1.132, 'yaw': 26.36, 'datetime': '2018-12-12 14:41:33.345801', 'mgs': 0, 'flw2': 1.83, 'flw1': 0.0, 'flw0': 1.17, 'time': 37.51, 'compass': 37.86, 'pitch': 2.17, 'roll': 3.36}
{'lipoC2': 7.27, 'temp': 0.0, 'lipoC3S3': 11.23, 'state': 'normal', 'rot1': 315, 'rot0': 309, 'rot3': 0, 'rot2': 0, 'depth': -1.59, 'yaw': 31.63, 'datetime': '2018-12-12 14:41:33.555055', 'mgs': 0, 'flw2': 1.68, 'flw1': 0.41, 'flw0': 1.25, 'time': 37.72, 'compass': 43.13, 'pitch': 1.75, 'roll': 3.42}
{'lipoC2': 7.35, 'temp': 0.0, 'lipoC3S3': 11.18, 'state': 'normal', 'rot1': 317, 'rot0': 311, 'rot3': 0, 'rot2': 0, 'depth': 0.775, 'yaw': 36.34, 'datetime': '2018-12-12 14:41:33.764198', 'mgs': 0, 'flw2': 1.7, 'flw1': 0.0, 'flw0': 1.38, 'time': 37.92, 'compass': 47.84, 'pitch': 1.39, 'roll': 3.28}
{'lipoC2': 7.11, 'temp': 0.0, 'lipoC3S3': 10.97, 'state': 'normal', 'rot1': 319, 'rot0': 313, 'rot3': 0, 'rot2': 0, 'depth': 1.614, 'yaw': 40.44, 'datetime': '2018-12-12 14:41:33.973136', 'mgs': 0, 'flw2': 1.35, 'flw1': 0.03, 'flw0': 1.31, 'time': 38.13, 'compass': 51.94, 'pitch': 1.11, 'roll': 3.08}
{'lipoC2': 7.25, 'temp': 0.0, 'lipoC3S3': 11.02, 'state': 'normal', 'rot1': 320, 'rot0': 315, 'rot3': 0, 'rot2': 0, 'depth': -1.59, 'yaw': 43.95, 'datetime': '2018-12-12 14:41:34.182194', 'mgs': 0, 'flw2': 1.55, 'flw1': 0.5, 'flw0': 1.29, 'time': 38.34, 'compass': 55.45, 'pitch': 0.73, 'roll': 2.87}
{'lipoC2': 7.49, 'temp': 0.0, 'lipoC3S3': 10.98, 'state': 'normal', 'rot1': 322, 'rot0': 317, 'rot3': 0, 'rot2': 0, 'depth': -1.895, 'yaw': 47.67, 'datetime': '2018-12-12 14:41:34.392947', 'mgs': 0, 'flw2': 1.44, 'flw1': 0.73, 'flw0': 1.2, 'time': 38.55, 'compass': 59.17, 'pitch': 0.4, 'roll': 2.69}
{'lipoC2': 7.15, 'temp': 0.0, 'lipoC3S3': 11.23, 'state': 'normal', 'rot1': 324, 'rot0': 319, 'rot3': 0, 'rot2': 0, 'depth': 1.538, 'yaw': 50.36, 'datetime': '2018-12-12 14:41:34.602432', 'mgs': 0, 'flw2': 0.81, 'flw1': 0.03, 'flw0': 1.97, 'time': 38.76, 'compass': 61.86, 'pitch': 0.38, 'roll': 2.33}
{'lipoC2': 7.36, 'temp': 0.0, 'lipoC3S3': 11.0, 'state': 'normal', 'rot1': 326, 'rot0': 320, 'rot3': 0, 'rot2': 0, 'depth': -1.132, 'yaw': 52.07, 'datetime': '2018-12-12 14:41:34.812950', 'mgs': 0, 'flw2': 0.9, 'flw1': 0.0, 'flw0': 2.53, 'time': 38.97, 'compass': 63.57, 'pitch': 0.59, 'roll': 1.95}
{'lipoC2': 7.34, 'temp': 0.0, 'lipoC3S3': 11.19, 'state': 'normal', 'rot1': 328, 'rot0': 321, 'rot3': 0, 'rot2': 0, 'depth': -1.59, 'yaw': 53.26, 'datetime': '2018-12-12 14:41:35.021124', 'mgs': 0, 'flw2': 1.0, 'flw1': 0.0, 'flw0': 2.43, 'time': 39.18, 'compass': 64.76, 'pitch': 0.76, 'roll': 1.67}
{'lipoC2': 7.38, 'temp': 0.0, 'lipoC3S3': 11.18, 'state': 'normal', 'rot1': 330, 'rot0': 323, 'rot3': 0, 'rot2': 0, 'depth': 0.623, 'yaw': 52.72, 'datetime': '2018-12-12 14:41:35.230638', 'mgs': 0, 'flw2': 0.45, 'flw1': 0.23, 'flw0': 2.03, 'time': 39.39, 'compass': 64.22, 'pitch': 0.21, 'roll': 1.41}
{'lipoC2': 7.38, 'temp': 0.0, 'lipoC3S3': 11.23, 'state': 'normal', 'rot1': 332, 'rot0': 324, 'rot3': 0, 'rot2': 0, 'depth': -1.132, 'yaw': 51.46, 'datetime': '2018-12-12 14:41:35.439092', 'mgs': 0, 'flw2': 1.05, 'flw1': 0.0, 'flw0': 2.03, 'time': 39.6, 'compass': 62.96, 'pitch': -0.7, 'roll': 1.18}
{'lipoC2': 7.29, 'temp': 0.0, 'lipoC3S3': 11.21, 'state': 'normal', 'rot1': 334, 'rot0': 326, 'rot3': 0, 'rot2': 0, 'depth': -1.895, 'yaw': 49.83, 'datetime': '2018-12-12 14:41:35.649148', 'mgs': 0, 'flw2': 1.55, 'flw1': 0.0, 'flw0': 2.01, 'time': 39.81, 'compass': 61.33, 'pitch': -0.87, 'roll': 1.02}
{'lipoC2': 7.21, 'temp': 0.0, 'lipoC3S3': 10.96, 'state': 'normal', 'rot1': 337, 'rot0': 328, 'rot3': 0, 'rot2': 0, 'depth': -0.369, 'yaw': 48.11, 'datetime': '2018-12-12 14:41:35.861079', 'mgs': 0, 'flw2': 1.23, 'flw1': 0.0, 'flw0': 2.34, 'time': 40.02, 'compass': 59.61, 'pitch': -0.17, 'roll': 0.71}
{'lipoC2': 7.27, 'temp': 0.0, 'lipoC3S3': 11.15, 'state': 'normal', 'rot1': 339, 'rot0': 330, 'rot3': 0, 'rot2': 0, 'depth': -0.598, 'yaw': 46.49, 'datetime': '2018-12-12 14:41:36.069311', 'mgs': 0, 'flw2': 2.61, 'flw1': 0.0, 'flw0': 2.47, 'time': 40.23, 'compass': 57.99, 'pitch': 0.65, 'roll': 0.3}
{'lipoC2': 7.28, 'temp': 0.0, 'lipoC3S3': 11.22, 'state': 'normal', 'rot1': 341, 'rot0': 332, 'rot3': 0, 'rot2': 0, 'depth': -0.293, 'yaw': 45.65, 'datetime': '2018-12-12 14:41:36.278556', 'mgs': 0, 'flw2': 3.13, 'flw1': 0.0, 'flw0': 2.31, 'time': 40.44, 'compass': 57.15, 'pitch': 0.96, 'roll': 0.35}
{'lipoC2': 7.09, 'temp': 0.0, 'lipoC3S3': 11.25, 'state': 'normal', 'rot1': 343, 'rot0': 335, 'rot3': 0, 'rot2': 0, 'depth': -0.522, 'yaw': 45.57, 'datetime': '2018-12-12 14:41:36.486935', 'mgs': 0, 'flw2': 3.41, 'flw1': 0.21, 'flw0': 2.19, 'time': 40.65, 'compass': 57.07, 'pitch': 1.04, 'roll': 0.83}
{'lipoC2': 7.32, 'temp': 0.0, 'lipoC3S3': 11.14, 'state': 'normal', 'rot1': 345, 'rot0': 337, 'rot3': 0, 'rot2': 0, 'depth': -1.208, 'yaw': 46.53, 'datetime': '2018-12-12 14:41:36.696941', 'mgs': 0, 'flw2': 3.53, 'flw1': 0.0, 'flw0': 2.45, 'time': 40.85, 'compass': 58.03, 'pitch': 1.24, 'roll': 1.62}
{'lipoC2': 7.12, 'temp': 0.0, 'lipoC3S3': 11.51, 'state': 'normal', 'rot1': 347, 'rot0': 340, 'rot3': 0, 'rot2': 0, 'depth': -1.514, 'yaw': 48.3, 'datetime': '2018-12-12 14:41:36.906631', 'mgs': 0, 'flw2': 3.49, 'flw1': 0.41, 'flw0': 2.17, 'time': 41.06, 'compass': 59.8, 'pitch': 1.61, 'roll': 2.12}
{'lipoC2': 7.32, 'temp': 0.0, 'lipoC3S3': 10.89, 'state': 'normal', 'rot1': 349, 'rot0': 343, 'rot3': 0, 'rot2': 0, 'depth': 0.241, 'yaw': 50.57, 'datetime': '2018-12-12 14:41:37.117642', 'mgs': 0, 'flw2': 3.67, 'flw1': 0.29, 'flw0': 2.25, 'time': 41.27, 'compass': 62.07, 'pitch': 1.73, 'roll': 1.96}
{'lipoC2': 7.09, 'temp': 0.0, 'lipoC3S3': 11.06, 'state': 'normal', 'rot1': 351, 'rot0': 346, 'rot3': 0, 'rot2': 0, 'depth': 0.851, 'yaw': 52.97, 'datetime': '2018-12-12 14:41:37.325507', 'mgs': 0, 'flw2': 3.48, 'flw1': 0.38, 'flw0': 2.76, 'time': 41.48, 'compass': 64.47, 'pitch': 1.48, 'roll': 1.55}
{'lipoC2': 7.34, 'temp': 0.0, 'lipoC3S3': 11.17, 'state': 'normal', 'rot1': 353, 'rot0': 349, 'rot3': 0, 'rot2': 0, 'depth': -0.598, 'yaw': 56.09, 'datetime': '2018-12-12 14:41:37.535833', 'mgs': 0, 'flw2': 3.27, 'flw1': 0.0, 'flw0': 3.34, 'time': 41.69, 'compass': 67.59, 'pitch': 1.4, 'roll': 1.43}
{'lipoC2': 7.38, 'temp': 0.0, 'lipoC3S3': 11.03, 'state': 'normal', 'rot1': 356, 'rot0': 352, 'rot3': 0, 'rot2': 0, 'depth': 0.851, 'yaw': 60.59, 'datetime': '2018-12-12 14:41:37.743868', 'mgs': 0, 'flw2': 3.77, 'flw1': 0.0, 'flw0': 2.93, 'time': 41.9, 'compass': 72.09, 'pitch': 1.58, 'roll': 1.51}
{'lipoC2': 7.22, 'temp': 0.0, 'lipoC3S3': 11.02, 'state': 'normal', 'rot1': 358, 'rot0': 354, 'rot3': 0, 'rot2': 0, 'depth': -0.903, 'yaw': 64.13, 'datetime': '2018-12-12 14:41:37.953484', 'mgs': 0, 'flw2': 3.38, 'flw1': 0.0, 'flw0': 2.83, 'time': 42.11, 'compass': 75.63, 'pitch': 1.46, 'roll': 1.43}
{'lipoC2': 7.22, 'temp': 0.0, 'lipoC3S3': 11.1, 'state': 'normal', 'rot1': 360, 'rot0': 356, 'rot3': 0, 'rot2': 0, 'depth': -0.827, 'yaw': 66.93, 'datetime': '2018-12-12 14:41:38.163841', 'mgs': 0, 'flw2': 3.45, 'flw1': 0.0, 'flw0': 3.13, 'time': 42.32, 'compass': 78.43, 'pitch': 1.11, 'roll': 1.34}
{'lipoC2': 7.39, 'temp': 0.0, 'lipoC3S3': 10.8, 'state': 'normal', 'rot1': 363, 'rot0': 359, 'rot3': 0, 'rot2': 0, 'depth': -0.14, 'yaw': 69.42, 'datetime': '2018-12-12 14:41:38.373688', 'mgs': 0, 'flw2': 3.5, 'flw1': 0.0, 'flw0': 2.95, 'time': 42.53, 'compass': 80.92, 'pitch': 0.8, 'roll': 1.41}
