{'lipoC2': 0.08, 'temp': 0.0, 'lipoC3S3': 11.9, 'state': 'normal', 'rot1': 0, 'rot0': 0, 'rot3': 0, 'rot2': 0, 'depth': -2.582, 'yaw': 0.0, 'datetime': '2018-12-18 21:06:15.666100', 'mgs': 0, 'flw2': 0.15, 'flw1': 0.0, 'flw0': 0.0, 'time': 1.26, 'compass': 27.19, 'pitch': 0.99, 'roll': -0.72}
{'lipoC2': 0.2, 'temp': 0.0, 'lipoC3S3': 11.77, 'state': 'normal', 'rot1': 0, 'rot0': 0, 'rot3': 0, 'rot2': 0, 'depth': -2.658, 'yaw': 0.2, 'datetime': '2018-12-18 21:06:15.873912', 'mgs': 0, 'flw2': 0.0, 'flw1': 0.0, 'flw0': 0.22, 'time': 1.47, 'compass': 27.39, 'pitch': 0.9, 'roll': -0.72}
{'lipoC2': 0.09, 'temp': 0.0, 'lipoC3S3': 11.87, 'state': 'normal', 'rot1': 0, 'rot0': 0, 'rot3': 0, 'rot2': 0, 'depth': -2.734, 'yaw': 0.37, 'datetime': '2018-12-18 21:06:16.084443', 'mgs': 0, 'flw2': 0.15, 'flw1': 0.0, 'flw0': 0.01, 'time': 1.67, 'compass': 27.57, 'pitch': 1.07, 'roll': -0.72}
{'lipoC2': 0.0, 'temp': 0.0, 'lipoC3S3': 12.0, 'state': 'normal', 'rot1': 0, 'rot0': 0, 'rot3': 0, 'rot2': 0, 'depth': -1.819, 'yaw': 0.51, 'datetime': '2018-12-18 21:06:16.297261', 'mgs': 0, 'flw2': 0.11, 'flw1': 0.23, 'flw0': 0.0, 'time': 1.88, 'compass': 27.7, 'pitch': 1.31, 'roll': -0.73}
{'lipoC2': 0.13, 'temp': 0.0, 'lipoC3S3': 11.75, 'state': 'normal', 'rot1': 0, 'rot0': 0, 'rot3': 0, 'rot2': 0, 'depth': -0.217, 'yaw': 0.67, 'datetime': '2018-12-18 21:06:16.503796', 'mgs': 0, 'flw2': 0.0, 'flw1': 0.35, 'flw0': 0.0, 'time': 2.09, 'compass': 27.87, 'pitch': 1.29, 'roll': -0.72}
{'lipoC2': 0.14, 'temp': 0.0, 'lipoC3S3': 11.85, 'state': 'normal', 'rot1': 1, 'rot0': 1, 'rot3': 0, 'rot2': 0, 'depth': -1.056, 'yaw': 0.63, 'datetime': '2018-12-18 21:06:16.712903', 'mgs': 0, 'flw2': 4.42, 'flw1': 0.44, 'flw0': 7.53, 'time': 2.3, 'compass': 27.82, 'pitch': 0.78, 'roll': -0.75}
{'lipoC2': 0.0, 'temp': 0.0, 'lipoC3S3': 11.79, 'state': 'normal', 'rot1': 8, 'rot0': 4, 'rot3': 0, 'rot2': 0, 'depth': 1.233, 'yaw': 1.04, 'datetime': '2018-12-18 21:06:16.921804', 'mgs': 0, 'flw2': 9.72, 'flw1': 0.76, 'flw0': 12.49, 'time': 2.51, 'compass': 28.23, 'pitch': -2.05, 'roll': -0.6}
{'lipoC2': 0.14, 'temp': 0.0, 'lipoC3S3': 11.85, 'state': 'normal', 'rot1': 19, 'rot0': 10, 'rot3': 0, 'rot2': 0, 'depth': -1.361, 'yaw': 2.47, 'datetime': '2018-12-18 21:06:17.130454', 'mgs': 0, 'flw2': 9.81, 'flw1': 0.62, 'flw0': 12.49, 'time': 2.71, 'compass': 29.66, 'pitch': -4.94, 'roll': -0.1}
{'lipoC2': 0.1, 'temp': 0.0, 'lipoC3S3': 11.68, 'state': 'normal', 'rot1': 30, 'rot0': 14, 'rot3': 0, 'rot2': 0, 'depth': 0.699, 'yaw': 4.44, 'datetime': '2018-12-18 21:06:17.339865', 'mgs': 0, 'flw2': 9.88, 'flw1': 0.0, 'flw0': 11.84, 'time': 2.92, 'compass': 31.64, 'pitch': -5.08, 'roll': 0.25}
{'lipoC2': 0.01, 'temp': 0.0, 'lipoC3S3': 12.01, 'state': 'normal', 'rot1': 36, 'rot0': 19, 'rot3': 0, 'rot2': 0, 'depth': -0.369, 'yaw': 6.33, 'datetime': '2018-12-18 21:06:17.548219', 'mgs': 0, 'flw2': 9.67, 'flw1': 0.0, 'flw0': 9.16, 'time': 3.13, 'compass': 33.52, 'pitch': -3.19, 'roll': -0.02}
{'lipoC2': 0.11, 'temp': 0.0, 'lipoC3S3': 11.68, 'state': 'normal', 'rot1': 38, 'rot0': 23, 'rot3': 0, 'rot2': 0, 'depth': -0.064, 'yaw': 6.95, 'datetime': '2018-12-18 21:06:17.756490', 'mgs': 0, 'flw2': 10.89, 'flw1': 0.0, 'flw0': 0.12, 'time': 3.34, 'compass': 34.14, 'pitch': -0.96, 'roll': -0.66}
{'lipoC2': 0.0, 'temp': 0.0, 'lipoC3S3': 11.89, 'state': 'normal', 'rot1': 38, 'rot0': 27, 'rot3': 0, 'rot2': 0, 'depth': 0.241, 'yaw': 3.49, 'datetime': '2018-12-18 21:06:17.964925', 'mgs': 0, 'flw2': 12.49, 'flw1': 0.06, 'flw0': 0.0, 'time': 3.55, 'compass': 30.68, 'pitch': 0.94, 'roll': -2.13}
{'lipoC2': 0.0, 'temp': 0.0, 'lipoC3S3': 12.05, 'state': 'normal', 'rot1': 38, 'rot0': 32, 'rot3': 0, 'rot2': 0, 'depth': 1.462, 'yaw': -3.04, 'datetime': '2018-12-18 21:06:18.174737', 'mgs': 0, 'flw2': 12.49, 'flw1': 0.0, 'flw0': 0.2, 'time': 3.76, 'compass': 24.15, 'pitch': 0.96, 'roll': -3.15}
{'lipoC2': 0.08, 'temp': 0.0, 'lipoC3S3': 11.67, 'state': 'normal', 'rot1': 38, 'rot0': 38, 'rot3': 0, 'rot2': 0, 'depth': 0.012, 'yaw': -11.53, 'datetime': '2018-12-18 21:06:18.383310', 'mgs': 0, 'flw2': 12.49, 'flw1': 0.35, 'flw0': 0.29, 'time': 3.96, 'compass': 15.66, 'pitch': 0.69, 'roll': -2.9}
{'lipoC2': 0.11, 'temp': 0.0, 'lipoC3S3': 12.05, 'state': 'normal', 'rot1': 42, 'rot0': 44, 'rot3': 0, 'rot2': 0, 'depth': -0.064, 'yaw': -23.19, 'datetime': '2018-12-18 21:06:18.593119', 'mgs': 0, 'flw2': 12.49, 'flw1': 0.0, 'flw0': 10.85, 'time': 4.17, 'compass': 4.0, 'pitch': 1.49, 'roll': -2.33}
{'lipoC2': 0.0, 'temp': 0.0, 'lipoC3S3': 12.06, 'state': 'normal', 'rot1': 48, 'rot0': 50, 'rot3': 0, 'rot2': 0, 'depth': 1.538, 'yaw': -41.18, 'datetime': '2018-12-18 21:06:18.800942', 'mgs': 0, 'flw2': 12.49, 'flw1': 0.56, 'flw0': 11.32, 'time': 4.38, 'compass': -13.99, 'pitch': 4.72, 'roll': -2.46}
{'lipoC2': 0.0, 'temp': 0.0, 'lipoC3S3': 12.05, 'state': 'normal', 'rot1': 54, 'rot0': 54, 'rot3': 0, 'rot2': 0, 'depth': 1.157, 'yaw': -64.23, 'datetime': '2018-12-18 21:06:19.011180', 'mgs': 0, 'flw2': 0.05, 'flw1': 0.0, 'flw0': 8.75, 'time': 4.59, 'compass': -37.04, 'pitch': 6.27, 'roll': -1.26}
{'lipoC2': 0.0, 'temp': 0.0, 'lipoC3S3': 12.01, 'state': 'normal', 'rot1': 59, 'rot0': 54, 'rot3': 0, 'rot2': 0, 'depth': -1.971, 'yaw': -85.13, 'datetime': '2018-12-18 21:06:19.220074', 'mgs': 0, 'flw2': 0.0, 'flw1': 0.0, 'flw0': 8.73, 'time': 4.8, 'compass': -57.94, 'pitch': 6.09, 'roll': 0.98}
{'lipoC2': 0.14, 'temp': 0.0, 'lipoC3S3': 11.85, 'state': 'normal', 'rot1': 64, 'rot0': 55, 'rot3': 0, 'rot2': 0, 'depth': 0.928, 'yaw': -104.2, 'datetime': '2018-12-18 21:06:19.426820', 'mgs': 0, 'flw2': 0.0, 'flw1': 0.29, 'flw0': 8.56, 'time': 5.01, 'compass': -77.01, 'pitch': 4.85, 'roll': 2.52}
{'lipoC2': 0.0, 'temp': 0.0, 'lipoC3S3': 11.79, 'state': 'normal', 'rot1': 70, 'rot0': 55, 'rot3': 0, 'rot2': 0, 'depth': -1.285, 'yaw': -124.65, 'datetime': '2018-12-18 21:06:19.637333', 'mgs': 0, 'flw2': 0.0, 'flw1': 0.41, 'flw0': 8.24, 'time': 5.22, 'compass': -97.46, 'pitch': 3.63, 'roll': 1.58}
{'lipoC2': 0.06, 'temp': 0.0, 'lipoC3S3': 11.92, 'state': 'normal', 'rot1': 74, 'rot0': 57, 'rot3': 0, 'rot2': 0, 'depth': -2.277, 'yaw': -144.77, 'datetime': '2018-12-18 21:06:19.846565', 'mgs': 0, 'flw2': 5.38, 'flw1': 0.0, 'flw0': 7.59, 'time': 5.43, 'compass': -117.58, 'pitch': 4.13, 'roll': -0.21}
{'lipoC2': 0.0, 'temp': 0.0, 'lipoC3S3': 11.87, 'state': 'normal', 'rot1': 79, 'rot0': 60, 'rot3': 0, 'rot2': 0, 'depth': 0.241, 'yaw': -161.01, 'datetime': '2018-12-18 21:06:20.057488', 'mgs': 0, 'flw2': 6.52, 'flw1': 0.0, 'flw0': 7.04, 'time': 5.63, 'compass': -133.82, 'pitch': 7.27, 'roll': -2.02}
{'lipoC2': 0.12, 'temp': 0.0, 'lipoC3S3': 11.71, 'state': 'normal', 'rot1': 83, 'rot0': 63, 'rot3': 0, 'rot2': 0, 'depth': -0.064, 'yaw': -172.64, 'datetime': '2018-12-18 21:06:20.268562', 'mgs': 0, 'flw2': 6.73, 'flw1': 0.0, 'flw0': 5.14, 'time': 5.84, 'compass': -145.45, 'pitch': 9.9, 'roll': -3.71}
{'lipoC2': 0.0, 'temp': 0.0, 'lipoC3S3': 12.05, 'state': 'normal', 'rot1': 85, 'rot0': 67, 'rot3': 0, 'rot2': 0, 'depth': 1.309, 'yaw': -179.2, 'datetime': '2018-12-18 21:06:20.474564', 'mgs': 0, 'flw2': 6.6, 'flw1': 0.0, 'flw0': 5.2, 'time': 6.05, 'compass': -152.01, 'pitch': 9.55, 'roll': -4.38}
{'lipoC2': 0.0, 'temp': 0.0, 'lipoC3S3': 11.9, 'state': 'normal', 'rot1': 88, 'rot0': 71, 'rot3': 0, 'rot2': 0, 'depth': -0.369, 'yaw': 176.03, 'datetime': '2018-12-18 21:06:20.684561', 'mgs': 0, 'flw2': 4.44, 'flw1': 0.0, 'flw0': 4.66, 'time': 6.26, 'compass': -156.78, 'pitch': 8.02, 'roll': -4.28}
{'lipoC2': 0.0, 'temp': 0.0, 'lipoC3S3': 12.06, 'state': 'normal', 'rot1': 91, 'rot0': 73, 'rot3': 0, 'rot2': 0, 'depth': 1.691, 'yaw': 171.42, 'datetime': '2018-12-18 21:06:20.892481', 'mgs': 0, 'flw2': 2.65, 'flw1': 0.47, 'flw0': 5.03, 'time': 6.47, 'compass': -161.38, 'pitch': 6.39, 'roll': -3.81}
{'lipoC2': 0.0, 'temp': 0.0, 'lipoC3S3': 12.0, 'state': 'normal', 'rot1': 94, 'rot0': 75, 'rot3': 0, 'rot2': 0, 'depth': 0.699, 'yaw': 165.22, 'datetime': '2018-12-18 21:06:21.102329', 'mgs': 0, 'flw2': 0.26, 'flw1': 0.0, 'flw0': 4.76, 'time': 6.68, 'compass': -167.58, 'pitch': 5.36, 'roll': -3.48}
{'lipoC2': 0.0, 'temp': 0.0, 'lipoC3S3': 11.81, 'state': 'normal', 'rot1': 96, 'rot0': 76, 'rot3': 0, 'rot2': 0, 'depth': -0.674, 'yaw': 157.0, 'datetime': '2018-12-18 21:06:21.311652', 'mgs': 0, 'flw2': 0.07, 'flw1': 0.53, 'flw0': 4.94, 'time': 6.89, 'compass': -175.81, 'pitch': 4.69, 'roll': -3.39}
{'lipoC2': 0.04, 'temp': 0.0, 'lipoC3S3': 11.64, 'state': 'normal', 'rot1': 100, 'rot0': 77, 'rot3': 0, 'rot2': 0, 'depth': -0.217, 'yaw': 147.53, 'datetime': '2018-12-18 21:06:21.519178', 'mgs': 0, 'flw2': 0.23, 'flw1': 0.06, 'flw0': 4.76, 'time': 7.09, 'compass': 174.73, 'pitch': 4.54, 'roll': -3.35}
{'lipoC2': 0.12, 'temp': 0.0, 'lipoC3S3': 11.69, 'state': 'normal', 'rot1': 103, 'rot0': 77, 'rot3': 0, 'rot2': 0, 'depth': -0.064, 'yaw': 136.34, 'datetime': '2018-12-18 21:06:21.728480', 'mgs': 0, 'flw2': 0.0, 'flw1': 0.29, 'flw0': 4.68, 'time': 7.3, 'compass': 163.53, 'pitch': 5.04, 'roll': -3.23}
{'lipoC2': 0.0, 'temp': 0.0, 'lipoC3S3': 12.06, 'state': 'normal', 'rot1': 105, 'rot0': 77, 'rot3': 0, 'rot2': 0, 'depth': 1.462, 'yaw': 124.08, 'datetime': '2018-12-18 21:06:21.936898', 'mgs': 0, 'flw2': 0.0, 'flw1': 0.5, 'flw0': 3.81, 'time': 7.51, 'compass': 151.27, 'pitch': 5.5, 'roll': -3.04}
{'lipoC2': 0.14, 'temp': 0.0, 'lipoC3S3': 11.75, 'state': 'normal', 'rot1': 107, 'rot0': 77, 'rot3': 0, 'rot2': 0, 'depth': 0.165, 'yaw': 112.03, 'datetime': '2018-12-18 21:06:22.147105', 'mgs': 0, 'flw2': 0.0, 'flw1': 0.47, 'flw0': 0.0, 'time': 7.72, 'compass': 139.22, 'pitch': 4.72, 'roll': -2.95}
{'lipoC2': 0.08, 'temp': 0.0, 'lipoC3S3': 11.65, 'state': 'normal', 'rot1': 107, 'rot0': 77, 'rot3': 0, 'rot2': 0, 'depth': -0.217, 'yaw': 102.15, 'datetime': '2018-12-18 21:06:22.355437', 'mgs': 0, 'flw2': 0.09, 'flw1': 0.29, 'flw0': 0.0, 'time': 7.93, 'compass': 129.34, 'pitch': 2.36, 'roll': -2.69}
{'lipoC2': 0.0, 'temp': 0.0, 'lipoC3S3': 11.88, 'state': 'normal', 'rot1': 107, 'rot0': 77, 'rot3': 0, 'rot2': 0, 'depth': -0.217, 'yaw': 93.96, 'datetime': '2018-12-18 21:06:22.565305', 'mgs': 0, 'flw2': 2.58, 'flw1': 0.41, 'flw0': 0.02, 'time': 8.14, 'compass': 121.16, 'pitch': 1.31, 'roll': -2.2}
{'lipoC2': 0.0, 'temp': 0.0, 'lipoC3S3': 11.8, 'state': 'normal', 'rot1': 107, 'rot0': 80, 'rot3': 0, 'rot2': 0, 'depth': -0.827, 'yaw': 87.94, 'datetime': '2018-12-18 21:06:22.773547', 'mgs': 0, 'flw2': 0.85, 'flw1': 0.38, 'flw0': 0.0, 'time': 8.35, 'compass': 115.13, 'pitch': 2.48, 'roll': -1.3}
{'lipoC2': 0.0, 'temp': 0.0, 'lipoC3S3': 11.85, 'state': 'normal', 'rot1': 107, 'rot0': 80, 'rot3': 0, 'rot2': 0, 'depth': -0.522, 'yaw': 85.27, 'datetime': '2018-12-18 21:06:22.985591', 'mgs': 0, 'flw2': 0.0, 'flw1': 0.32, 'flw0': 0.0, 'time': 8.56, 'compass': 112.46, 'pitch': 3.25, 'roll': -0.88}
{'lipoC2': 0.04, 'temp': 0.0, 'lipoC3S3': 11.64, 'state': 'normal', 'rot1': 107, 'rot0': 80, 'rot3': 0, 'rot2': 0, 'depth': 0.699, 'yaw': 82.32, 'datetime': '2018-12-18 21:06:23.192169', 'mgs': 0, 'flw2': 0.12, 'flw1': 0.15, 'flw0': 0.0, 'time': 8.77, 'compass': 109.52, 'pitch': 1.07, 'roll': -0.96}
{'lipoC2': 0.16, 'temp': 0.0, 'lipoC3S3': 11.77, 'state': 'normal', 'rot1': 107, 'rot0': 80, 'rot3': 0, 'rot2': 0, 'depth': 0.089, 'yaw': 79.51, 'datetime': '2018-12-18 21:06:23.397294', 'mgs': 0, 'flw2': 0.13, 'flw1': 0.0, 'flw0': 0.07, 'time': 8.97, 'compass': 106.71, 'pitch': -0.32, 'roll': -1.39}
{'lipoC2': 0.14, 'temp': 0.0, 'lipoC3S3': 11.85, 'state': 'normal', 'rot1': 107, 'rot0': 80, 'rot3': 0, 'rot2': 0, 'depth': -1.361, 'yaw': 76.69, 'datetime': '2018-12-18 21:06:23.610158', 'mgs': 0, 'flw2': 0.2, 'flw1': 0.0, 'flw0': 0.02, 'time': 9.18, 'compass': 103.88, 'pitch': 0.53, 'roll': -1.77}
{'lipoC2': 0.05, 'temp': 0.0, 'lipoC3S3': 11.93, 'state': 'normal', 'rot1': 107, 'rot0': 80, 'rot3': 0, 'rot2': 0, 'depth': 1.157, 'yaw': 73.94, 'datetime': '2018-12-18 21:06:23.818522', 'mgs': 0, 'flw2': 0.12, 'flw1': 0.18, 'flw0': 0.0, 'time': 9.39, 'compass': 101.14, 'pitch': 2.08, 'roll': -1.67}
{'lipoC2': 0.0, 'temp': 0.0, 'lipoC3S3': 11.97, 'state': 'normal', 'rot1': 107, 'rot0': 80, 'rot3': 0, 'rot2': 0, 'depth': 0.546, 'yaw': 71.33, 'datetime': '2018-12-18 21:06:24.025997', 'mgs': 0, 'flw2': 0.06, 'flw1': 0.26, 'flw0': 0.0, 'time': 9.6, 'compass': 98.52, 'pitch': 2.3, 'roll': -1.18}
{'lipoC2': 0.06, 'temp': 0.0, 'lipoC3S3': 11.65, 'state': 'normal', 'rot1': 107, 'rot0': 80, 'rot3': 0, 'rot2': 0, 'depth': -0.369, 'yaw': 68.8, 'datetime': '2018-12-18 21:06:24.233085', 'mgs': 0, 'flw2': 0.0, 'flw1': 0.41, 'flw0': 0.0, 'time': 9.81, 'compass': 96.0, 'pitch': 1.46, 'roll': -0.8}
{'lipoC2': 0.16, 'temp': 0.0, 'lipoC3S3': 11.8, 'state': 'normal', 'rot1': 107, 'rot0': 80, 'rot3': 0, 'rot2': 0, 'depth': 0.241, 'yaw': 66.44, 'datetime': '2018-12-18 21:06:24.442065', 'mgs': 0, 'flw2': 0.0, 'flw1': 0.32, 'flw0': 0.0, 'time': 10.02, 'compass': 93.63, 'pitch': 1.16, 'roll': -0.69}
{'lipoC2': 0.0, 'temp': 0.0, 'lipoC3S3': 12.01, 'state': 'normal', 'rot1': 107, 'rot0': 80, 'rot3': 0, 'rot2': 0, 'depth': 0.699, 'yaw': 64.04, 'datetime': '2018-12-18 21:06:24.649840', 'mgs': 0, 'flw2': 0.0, 'flw1': 0.0, 'flw0': 0.21, 'time': 10.23, 'compass': 91.23, 'pitch': 1.62, 'roll': -0.68}
{'lipoC2': 0.09, 'temp': 0.0, 'lipoC3S3': 11.65, 'state': 'normal', 'rot1': 107, 'rot0': 80, 'rot3': 0, 'rot2': 0, 'depth': 0.699, 'yaw': 61.7, 'datetime': '2018-12-18 21:06:24.861183', 'mgs': 0, 'flw2': 0.0, 'flw1': 0.44, 'flw0': 0.0, 'time': 10.43, 'compass': 88.89, 'pitch': 1.88, 'roll': -0.71}
{'lipoC2': 0.0, 'temp': 0.0, 'lipoC3S3': 11.76, 'state': 'normal', 'rot1': 107, 'rot0': 80, 'rot3': 0, 'rot2': 0, 'depth': -1.743, 'yaw': 59.42, 'datetime': '2018-12-18 21:06:25.069793', 'mgs': 0, 'flw2': 0.0, 'flw1': 0.44, 'flw0': 0.0, 'time': 10.64, 'compass': 86.61, 'pitch': 1.77, 'roll': -1.0}
{'lipoC2': 0.0, 'temp': 0.0, 'lipoC3S3': 12.01, 'state': 'normal', 'rot1': 107, 'rot0': 80, 'rot3': 0, 'rot2': 0, 'depth': 0.546, 'yaw': 57.21, 'datetime': '2018-12-18 21:06:25.278366', 'mgs': 0, 'flw2': 0.0, 'flw1': 0.0, 'flw0': 0.21, 'time': 10.85, 'compass': 84.4, 'pitch': 1.63, 'roll': -1.09}
{'lipoC2': 0.17, 'temp': 0.0, 'lipoC3S3': 11.84, 'state': 'normal', 'rot1': 107, 'rot0': 80, 'rot3': 0, 'rot2': 0, 'depth': 0.775, 'yaw': 55.17, 'datetime': '2018-12-18 21:06:25.487536', 'mgs': 0, 'flw2': 0.0, 'flw1': 0.47, 'flw0': 0.0, 'time': 11.06, 'compass': 82.36, 'pitch': 1.52, 'roll': -0.99}
{'lipoC2': 0.0, 'temp': 0.0, 'lipoC3S3': 11.72, 'state': 'normal', 'rot1': 107, 'rot0': 80, 'rot3': 0, 'rot2': 0, 'depth': 0.928, 'yaw': 53.12, 'datetime': '2018-12-18 21:06:25.695986', 'mgs': 0, 'flw2': 0.0, 'flw1': 0.0, 'flw0': 0.18, 'time': 11.27, 'compass': 80.32, 'pitch': 1.42, 'roll': -0.77}
{'lipoC2': 0.0, 'temp': 0.0, 'lipoC3S3': 11.75, 'state': 'normal', 'rot1': 107, 'rot0': 80, 'rot3': 0, 'rot2': 0, 'depth': -1.437, 'yaw': 51.14, 'datetime': '2018-12-18 21:06:25.910000', 'mgs': 0, 'flw2': 0.0, 'flw1': 0.47, 'flw0': 0.0, 'time': 11.48, 'compass': 78.33, 'pitch': 1.36, 'roll': -0.56}
{'lipoC2': 0.04, 'temp': 0.0, 'lipoC3S3': 11.93, 'state': 'normal', 'rot1': 107, 'rot0': 80, 'rot3': 0, 'rot2': 0, 'depth': 1.233, 'yaw': 49.21, 'datetime': '2018-12-18 21:06:26.115768', 'mgs': 0, 'flw2': 0.0, 'flw1': 0.03, 'flw0': 0.0, 'time': 11.69, 'compass': 76.4, 'pitch': 1.5, 'roll': -0.5}
{'lipoC2': 0.0, 'temp': 0.0, 'lipoC3S3': 11.76, 'state': 'normal', 'rot1': 107, 'rot0': 80, 'rot3': 0, 'rot2': 0, 'depth': 0.851, 'yaw': 47.45, 'datetime': '2018-12-18 21:06:26.328311', 'mgs': 0, 'flw2': 0.0, 'flw1': 0.47, 'flw0': 0.0, 'time': 11.89, 'compass': 74.64, 'pitch': 1.46, 'roll': -0.63}
{'lipoC2': 0.0, 'temp': 0.0, 'lipoC3S3': 12.02, 'state': 'normal', 'rot1': 107, 'rot0': 80, 'rot3': 0, 'rot2': 0, 'depth': 1.157, 'yaw': 45.67, 'datetime': '2018-12-18 21:06:26.534231', 'mgs': 0, 'flw2': 1.81, 'flw1': 0.0, 'flw0': 0.1, 'time': 12.1, 'compass': 72.86, 'pitch': 1.52, 'roll': -0.78}
{'lipoC2': 0.15, 'temp': 0.0, 'lipoC3S3': 11.79, 'state': 'normal', 'rot1': 107, 'rot0': 82, 'rot3': 0, 'rot2': 0, 'depth': -0.446, 'yaw': 45.07, 'datetime': '2018-12-18 21:06:26.745904', 'mgs': 0, 'flw2': 2.09, 'flw1': 0.41, 'flw0': 0.0, 'time': 12.31, 'compass': 72.26, 'pitch': 2.5, 'roll': -0.66}
{'lipoC2': 0.14, 'temp': 0.0, 'lipoC3S3': 11.87, 'state': 'normal', 'rot1': 107, 'rot0': 84, 'rot3': 0, 'rot2': 0, 'depth': -1.437, 'yaw': 46.92, 'datetime': '2018-12-18 21:06:26.952145', 'mgs': 0, 'flw2': 2.56, 'flw1': 0.0, 'flw0': 0.0, 'time': 12.52, 'compass': 74.11, 'pitch': 3.49, 'roll': -0.44}
{'lipoC2': 0.0, 'temp': 0.0, 'lipoC3S3': 11.88, 'state': 'normal', 'rot1': 107, 'rot0': 86, 'rot3': 0, 'rot2': 0, 'depth': -0.369, 'yaw': 50.45, 'datetime': '2018-12-18 21:06:27.159816', 'mgs': 0, 'flw2': 1.12, 'flw1': 0.0, 'flw0': 0.0, 'time': 12.73, 'compass': 77.64, 'pitch': 3.24, 'roll': -0.31}
{'lipoC2': 0.0, 'temp': 0.0, 'lipoC3S3': 12.04, 'state': 'normal', 'rot1': 107, 'rot0': 88, 'rot3': 0, 'rot2': 0, 'depth': 1.004, 'yaw': 54.87, 'datetime': '2018-12-18 21:06:27.369519', 'mgs': 0, 'flw2': 0.21, 'flw1': 0.0, 'flw0': 0.21, 'time': 12.94, 'compass': 82.07, 'pitch': 2.09, 'roll': -0.43}
{'lipoC2': 0.0, 'temp': 0.0, 'lipoC3S3': 11.77, 'state': 'normal', 'rot1': 107, 'rot0': 88, 'rot3': 0, 'rot2': 0, 'depth': -1.437, 'yaw': 58.88, 'datetime': '2018-12-18 21:06:27.580627', 'mgs': 0, 'flw2': 0.52, 'flw1': 0.0, 'flw0': 0.09, 'time': 13.15, 'compass': 86.07, 'pitch': 1.15, 'roll': -0.88}
{'lipoC2': 0.05, 'temp': 0.0, 'lipoC3S3': 11.64, 'state': 'normal', 'rot1': 107, 'rot0': 90, 'rot3': 0, 'rot2': 0, 'depth': -0.369, 'yaw': 62.86, 'datetime': '2018-12-18 21:06:27.785734', 'mgs': 0, 'flw2': 2.7, 'flw1': 0.41, 'flw0': 0.0, 'time': 13.35, 'compass': 90.05, 'pitch': 1.52, 'roll': -1.23}
{'lipoC2': 0.12, 'temp': 0.0, 'lipoC3S3': 11.98, 'state': 'normal', 'rot1': 107, 'rot0': 92, 'rot3': 0, 'rot2': 0, 'depth': -2.048, 'yaw': 68.97, 'datetime': '2018-12-18 21:06:27.995853', 'mgs': 0, 'flw2': 4.53, 'flw1': 0.0, 'flw0': 0.06, 'time': 13.56, 'compass': 96.16, 'pitch': 3.01, 'roll': -0.94}
{'lipoC2': 0.06, 'temp': 0.0, 'lipoC3S3': 11.9, 'state': 'normal', 'rot1': 107, 'rot0': 95, 'rot3': 0, 'rot2': 0, 'depth': -2.124, 'yaw': 77.08, 'datetime': '2018-12-18 21:06:28.204632', 'mgs': 0, 'flw2': 4.32, 'flw1': 0.38, 'flw0': 0.04, 'time': 13.77, 'compass': 104.27, 'pitch': 3.5, 'roll': -0.26}
{'lipoC2': 0.0, 'temp': 0.0, 'lipoC3S3': 12.05, 'state': 'normal', 'rot1': 107, 'rot0': 98, 'rot3': 0, 'rot2': 0, 'depth': 1.691, 'yaw': 87.19, 'datetime': '2018-12-18 21:06:28.417501', 'mgs': 0, 'flw2': 4.81, 'flw1': 0.0, 'flw0': 5.96, 'time': 13.98, 'compass': 114.39, 'pitch': 3.2, 'roll': 0.63}
{'lipoC2': 0.15, 'temp': 0.0, 'lipoC3S3': 11.84, 'state': 'normal', 'rot1': 111, 'rot0': 101, 'rot3': 0, 'rot2': 0, 'depth': -1.361, 'yaw': 95.32, 'datetime': '2018-12-18 21:06:28.624168', 'mgs': 0, 'flw2': 5.73, 'flw1': 0.5, 'flw0': 8.74, 'time': 14.19, 'compass': 122.52, 'pitch': 5.44, 'roll': 0.82}
{'lipoC2': 0.11, 'temp': 0.0, 'lipoC3S3': 11.67, 'state': 'normal', 'rot1': 116, 'rot0': 104, 'rot3': 0, 'rot2': 0, 'depth': 0.699, 'yaw': 98.32, 'datetime': '2018-12-18 21:06:28.832680', 'mgs': 0, 'flw2': 6.59, 'flw1': 0.18, 'flw0': 8.3, 'time': 14.4, 'compass': 125.51, 'pitch': 9.84, 'roll': 0.37}
{'lipoC2': 0.05, 'temp': 0.0, 'lipoC3S3': 12.0, 'state': 'normal', 'rot1': 118, 'rot0': 108, 'rot3': 0, 'rot2': 0, 'depth': -0.217, 'yaw': 100.03, 'datetime': '2018-12-18 21:06:29.043718', 'mgs': 0, 'flw2': 6.64, 'flw1': 0.09, 'flw0': 0.0, 'time': 14.61, 'compass': 127.22, 'pitch': 10.56, 'roll': 0.19}
{'lipoC2': 0.08, 'temp': 0.0, 'lipoC3S3': 11.89, 'state': 'normal', 'rot1': 118, 'rot0': 111, 'rot3': 0, 'rot2': 0, 'depth': -2.277, 'yaw': 105.45, 'datetime': '2018-12-18 21:06:29.253460', 'mgs': 0, 'flw2': 7.5, 'flw1': 0.0, 'flw0': 0.0, 'time': 14.82, 'compass': 132.64, 'pitch': 6.92, 'roll': 0.32}
{'lipoC2': 0.15, 'temp': 0.0, 'lipoC3S3': 11.73, 'state': 'normal', 'rot1': 118, 'rot0': 115, 'rot3': 0, 'rot2': 0, 'depth': 0.394, 'yaw': 114.2, 'datetime': '2018-12-18 21:06:29.464363', 'mgs': 0, 'flw2': 7.21, 'flw1': 0.44, 'flw0': 0.0, 'time': 15.03, 'compass': 141.39, 'pitch': 4.44, 'roll': 0.84}
{'lipoC2': 0.03, 'temp': 0.0, 'lipoC3S3': 11.65, 'state': 'normal', 'rot1': 118, 'rot0': 118, 'rot3': 0, 'rot2': 0, 'depth': 1.004, 'yaw': 124.59, 'datetime': '2018-12-18 21:06:29.674147', 'mgs': 0, 'flw2': 7.15, 'flw1': 0.21, 'flw0': 0.48, 'time': 15.23, 'compass': 151.78, 'pitch': 5.5, 'roll': 1.31}
{'lipoC2': 0.0, 'temp': 0.0, 'lipoC3S3': 11.79, 'state': 'normal', 'rot1': 121, 'rot0': 122, 'rot3': 0, 'rot2': 0, 'depth': 0.012, 'yaw': 135.47, 'datetime': '2018-12-18 21:06:29.879486', 'mgs': 0, 'flw2': 7.62, 'flw1': 0.38, 'flw0': 5.41, 'time': 15.44, 'compass': 162.66, 'pitch': 7.75, 'roll': 2.04}
{'lipoC2': 0.0, 'temp': 0.0, 'lipoC3S3': 11.96, 'state': 'normal', 'rot1': 124, 'rot0': 125, 'rot3': 0, 'rot2': 0, 'depth': 0.775, 'yaw': 143.36, 'datetime': '2018-12-18 21:06:30.088669', 'mgs': 0, 'flw2': 7.02, 'flw1': 0.12, 'flw0': 4.88, 'time': 15.65, 'compass': 170.55, 'pitch': 10.36, 'roll': 3.04}
{'lipoC2': 0.0, 'temp': 0.0, 'lipoC3S3': 11.73, 'state': 'normal', 'rot1': 126, 'rot0': 129, 'rot3': 0, 'rot2': 0, 'depth': -1.208, 'yaw': 149.5, 'datetime': '2018-12-18 21:06:30.297529', 'mgs': 0, 'flw2': 8.3, 'flw1': 0.23, 'flw0': 2.19, 'time': 15.86, 'compass': 176.69, 'pitch': 11.04, 'roll': 3.84}
{'lipoC2': 0.0, 'temp': 0.0, 'lipoC3S3': 12.06, 'state': 'normal', 'rot1': 129, 'rot0': 133, 'rot3': 0, 'rot2': 0, 'depth': 1.691, 'yaw': 156.57, 'datetime': '2018-12-18 21:06:30.509066', 'mgs': 0, 'flw2': 8.04, 'flw1': 0.29, 'flw0': 2.29, 'time': 16.07, 'compass': -176.24, 'pitch': 9.67, 'roll': 4.56}
{'lipoC2': 0.0, 'temp': 0.0, 'lipoC3S3': 11.87, 'state': 'normal', 'rot1': 131, 'rot0': 137, 'rot3': 0, 'rot2': 0, 'depth': 0.47, 'yaw': 164.31, 'datetime': '2018-12-18 21:06:30.717873', 'mgs': 0, 'flw2': 7.8, 'flw1': 0.47, 'flw0': 3.1, 'time': 16.28, 'compass': -168.5, 'pitch': 8.21, 'roll': 5.4}
{'lipoC2': 0.1, 'temp': 0.0, 'lipoC3S3': 11.88, 'state': 'normal', 'rot1': 134, 'rot0': 140, 'rot3': 0, 'rot2': 0, 'depth': 1.233, 'yaw': 172.24, 'datetime': '2018-12-18 21:06:30.924161', 'mgs': 0, 'flw2': 8.03, 'flw1': 0.0, 'flw0': 4.69, 'time': 16.49, 'compass': -160.57, 'pitch': 8.1, 'roll': 6.43}
{'lipoC2': 0.0, 'temp': 0.0, 'lipoC3S3': 11.71, 'state': 'normal', 'rot1': 138, 'rot0': 144, 'rot3': 0, 'rot2': 0, 'depth': -1.361, 'yaw': 179.32, 'datetime': '2018-12-18 21:06:31.138217', 'mgs': 0, 'flw2': 8.17, 'flw1': 0.35, 'flw0': 6.18, 'time': 16.7, 'compass': -153.49, 'pitch': 9.77, 'roll': 7.5}
{'lipoC2': 0.0, 'temp': 0.0, 'lipoC3S3': 12.05, 'state': 'normal', 'rot1': 141, 'rot0': 148, 'rot3': 0, 'rot2': 0, 'depth': 1.614, 'yaw': -175.17, 'datetime': '2018-12-18 21:06:31.346005', 'mgs': 0, 'flw2': 8.06, 'flw1': 0.0, 'flw0': 6.27, 'time': 16.91, 'compass': -147.98, 'pitch': 11.18, 'roll': 8.06}
{'lipoC2': 0.14, 'temp': 0.0, 'lipoC3S3': 11.65, 'state': 'normal', 'rot1': 145, 'rot0': 152, 'rot3': 0, 'rot2': 0, 'depth': 0.241, 'yaw': -171.13, 'datetime': '2018-12-18 21:06:31.555879', 'mgs': 0, 'flw2': 6.25, 'flw1': 0.21, 'flw0': 6.95, 'time': 17.12, 'compass': -143.94, 'pitch': 10.99, 'roll': 8.1}
{'lipoC2': 0.0, 'temp': 0.0, 'lipoC3S3': 11.72, 'state': 'normal', 'rot1': 149, 'rot0': 155, 'rot3': 0, 'rot2': 0, 'depth': -1.59, 'yaw': -169.11, 'datetime': '2018-12-18 21:06:31.764025', 'mgs': 0, 'flw2': 6.23, 'flw1': 0.0, 'flw0': 7.1, 'time': 17.33, 'compass': -141.92, 'pitch': 9.42, 'roll': 7.66}
{'lipoC2': 0.14, 'temp': 0.0, 'lipoC3S3': 11.69, 'state': 'normal', 'rot1': 154, 'rot0': 158, 'rot3': 0, 'rot2': 0, 'depth': 0.165, 'yaw': -168.27, 'datetime': '2018-12-18 21:06:31.972816', 'mgs': 0, 'flw2': 6.12, 'flw1': 0.0, 'flw0': 7.13, 'time': 17.54, 'compass': -141.08, 'pitch': 8.3, 'roll': 6.26}
{'lipoC2': 0.11, 'temp': 0.0, 'lipoC3S3': 11.67, 'state': 'normal', 'rot1': 158, 'rot0': 162, 'rot3': 0, 'rot2': 0, 'depth': 0.546, 'yaw': -167.81, 'datetime': '2018-12-18 21:06:32.184682', 'mgs': 0, 'flw2': 6.2, 'flw1': 0.29, 'flw0': 6.79, 'time': 17.75, 'compass': -140.61, 'pitch': 7.9, 'roll': 4.71}
{'lipoC2': 0.1, 'temp': 0.0, 'lipoC3S3': 12.06, 'state': 'normal', 'rot1': 161, 'rot0': 165, 'rot3': 0, 'rot2': 0, 'depth': 0.775, 'yaw': -167.42, 'datetime': '2018-12-18 21:06:32.391558', 'mgs': 0, 'flw2': 5.97, 'flw1': 0.0, 'flw0': 7.14, 'time': 17.95, 'compass': -140.23, 'pitch': 7.83, 'roll': 3.26}
{'lipoC2': 0.05, 'temp': 0.0, 'lipoC3S3': 11.9, 'state': 'normal', 'rot1': 166, 'rot0': 168, 'rot3': 0, 'rot2': 0, 'depth': -2.124, 'yaw': -166.99, 'datetime': '2018-12-18 21:06:32.602437', 'mgs': 0, 'flw2': 6.16, 'flw1': 0.0, 'flw0': 7.01, 'time': 18.17, 'compass': -139.8, 'pitch': 7.87, 'roll': 2.29}
{'lipoC2': 0.06, 'temp': 0.0, 'lipoC3S3': 11.65, 'state': 'normal', 'rot1': 171, 'rot0': 171, 'rot3': 0, 'rot2': 0, 'depth': 1.309, 'yaw': -166.59, 'datetime': '2018-12-18 21:06:32.813899', 'mgs': 0, 'flw2': 6.19, 'flw1': 0.15, 'flw0': 8.0, 'time': 18.38, 'compass': -139.39, 'pitch': 7.75, 'roll': 1.53}
{'lipoC2': 0.06, 'temp': 0.0, 'lipoC3S3': 11.65, 'state': 'normal', 'rot1': 177, 'rot0': 175, 'rot3': 0, 'rot2': 0, 'depth': 0.089, 'yaw': -166.86, 'datetime': '2018-12-18 21:06:33.025071', 'mgs': 0, 'flw2': 6.14, 'flw1': 0.06, 'flw0': 8.81, 'time': 18.58, 'compass': -139.66, 'pitch': 8.05, 'roll': 0.74}
{'lipoC2': 0.05, 'temp': 0.0, 'lipoC3S3': 11.64, 'state': 'normal', 'rot1': 182, 'rot0': 178, 'rot3': 0, 'rot2': 0, 'depth': 0.165, 'yaw': -167.69, 'datetime': '2018-12-18 21:06:33.235074', 'mgs': 0, 'flw2': 6.37, 'flw1': 0.15, 'flw0': 9.14, 'time': 18.8, 'compass': -140.5, 'pitch': 8.38, 'roll': 0.15}
{'lipoC2': 0.13, 'temp': 0.0, 'lipoC3S3': 11.87, 'state': 'normal', 'rot1': 187, 'rot0': 182, 'rot3': 0, 'rot2': 0, 'depth': -1.743, 'yaw': -168.96, 'datetime': '2018-12-18 21:06:33.441788', 'mgs': 0, 'flw2': 6.37, 'flw1': 0.0, 'flw0': 9.2, 'time': 19.0, 'compass': -141.77, 'pitch': 8.76, 'roll': -0.24}
{'lipoC2': 0.1, 'temp': 0.0, 'lipoC3S3': 11.89, 'state': 'normal', 'rot1': 193, 'rot0': 185, 'rot3': 0, 'rot2': 0, 'depth': -1.895, 'yaw': -170.54, 'datetime': '2018-12-18 21:06:33.653169', 'mgs': 0, 'flw2': 6.1, 'flw1': 0.0, 'flw0': 8.98, 'time': 19.21, 'compass': -143.35, 'pitch': 9.19, 'roll': -0.13}
{'lipoC2': 0.09, 'temp': 0.0, 'lipoC3S3': 11.89, 'state': 'normal', 'rot1': 198, 'rot0': 189, 'rot3': 0, 'rot2': 0, 'depth': -1.895, 'yaw': -172.63, 'datetime': '2018-12-18 21:06:33.860629', 'mgs': 0, 'flw2': 6.13, 'flw1': 0.0, 'flw0': 8.98, 'time': 19.42, 'compass': -145.44, 'pitch': 9.9, 'roll': 0.01}
{'lipoC2': 0.17, 'temp': 0.0, 'lipoC3S3': 11.81, 'state': 'normal', 'rot1': 203, 'rot0': 192, 'rot3': 0, 'rot2': 0, 'depth': 0.851, 'yaw': -174.85, 'datetime': '2018-12-18 21:06:34.074321', 'mgs': 0, 'flw2': 5.97, 'flw1': 0.44, 'flw0': 9.35, 'time': 19.63, 'compass': -147.66, 'pitch': 10.6, 'roll': -0.45}
{'lipoC2': 0.0, 'temp': 0.0, 'lipoC3S3': 11.87, 'state': 'normal', 'rot1': 208, 'rot0': 196, 'rot3': 0, 'rot2': 0, 'depth': 0.241, 'yaw': -177.3, 'datetime': '2018-12-18 21:06:34.281686', 'mgs': 0, 'flw2': 5.79, 'flw1': 0.0, 'flw0': 9.23, 'time': 19.84, 'compass': -150.11, 'pitch': 11.06, 'roll': -1.19}
{'lipoC2': 0.0, 'temp': 0.0, 'lipoC3S3': 11.71, 'state': 'normal', 'rot1': 212, 'rot0': 199, 'rot3': 0, 'rot2': 0, 'depth': -1.437, 'yaw': -179.74, 'datetime': '2018-12-18 21:06:34.491302', 'mgs': 0, 'flw2': 6.03, 'flw1': 0.38, 'flw0': 9.18, 'time': 20.05, 'compass': -152.55, 'pitch': 10.78, 'roll': -1.58}
{'lipoC2': 0.05, 'temp': 0.0, 'lipoC3S3': 11.92, 'state': 'normal', 'rot1': 217, 'rot0': 202, 'rot3': 0, 'rot2': 0, 'depth': -2.124, 'yaw': 178.13, 'datetime': '2018-12-18 21:06:34.701037', 'mgs': 0, 'flw2': 5.83, 'flw1': 0.0, 'flw0': 9.22, 'time': 20.26, 'compass': -154.68, 'pitch': 10.37, 'roll': -1.41}
{'lipoC2': 0.12, 'temp': 0.0, 'lipoC3S3': 11.88, 'state': 'normal', 'rot1': 221, 'rot0': 206, 'rot3': 0, 'rot2': 0, 'depth': -1.59, 'yaw': 175.5, 'datetime': '2018-12-18 21:06:34.909592', 'mgs': 0, 'flw2': 7.09, 'flw1': 0.0, 'flw0': 9.55, 'time': 20.47, 'compass': -157.31, 'pitch': 9.9, 'roll': -1.13}
{'lipoC2': 0.08, 'temp': 0.0, 'lipoC3S3': 11.64, 'state': 'normal', 'rot1': 226, 'rot0': 210, 'rot3': 0, 'rot2': 0, 'depth': 0.317, 'yaw': 172.78, 'datetime': '2018-12-18 21:06:35.119661', 'mgs': 0, 'flw2': 7.53, 'flw1': 0.21, 'flw0': 9.14, 'time': 20.68, 'compass': -160.03, 'pitch': 9.85, 'roll': -1.49}
{'lipoC2': 0.0, 'temp': 0.0, 'lipoC3S3': 11.93, 'state': 'normal', 'rot1': 231, 'rot0': 213, 'rot3': 0, 'rot2': 0, 'depth': -1.056, 'yaw': 170.37, 'datetime': '2018-12-18 21:06:35.335158', 'mgs': 0, 'flw2': 8.58, 'flw1': 0.0, 'flw0': 9.05, 'time': 20.89, 'compass': -162.44, 'pitch': 10.1, 'roll': -2.07}
{'lipoC2': 0.0, 'temp': 0.0, 'lipoC3S3': 11.77, 'state': 'normal', 'rot1': 236, 'rot0': 217, 'rot3': 0, 'rot2': 0, 'depth': -0.674, 'yaw': 168.69, 'datetime': '2018-12-18 21:06:35.543120', 'mgs': 0, 'flw2': 8.68, 'flw1': 0.47, 'flw0': 9.41, 'time': 21.1, 'compass': -164.12, 'pitch': 10.27, 'roll': -2.26}
{'lipoC2': 0.04, 'temp': 0.0, 'lipoC3S3': 11.65, 'state': 'normal', 'rot1': 242, 'rot0': 221, 'rot3': 0, 'rot2': 0, 'depth': -0.14, 'yaw': 167.37, 'datetime': '2018-12-18 21:06:35.754574', 'mgs': 0, 'flw2': 8.87, 'flw1': 0.12, 'flw0': 9.42, 'time': 21.31, 'compass': -165.44, 'pitch': 10.19, 'roll': -2.35}
{'lipoC2': 0.02, 'temp': 0.0, 'lipoC3S3': 11.65, 'state': 'normal', 'rot1': 247, 'rot0': 226, 'rot3': 0, 'rot2': 0, 'depth': 1.309, 'yaw': 166.11, 'datetime': '2018-12-18 21:06:35.960198', 'mgs': 0, 'flw2': 8.97, 'flw1': 0.03, 'flw0': 9.23, 'time': 21.52, 'compass': -166.7, 'pitch': 9.71, 'roll': -2.62}
{'lipoC2': 0.03, 'temp': 0.0, 'lipoC3S3': 11.67, 'state': 'normal', 'rot1': 252, 'rot0': 230, 'rot3': 0, 'rot2': 0, 'depth': 1.157, 'yaw': 164.89, 'datetime': '2018-12-18 21:06:36.170880', 'mgs': 0, 'flw2': 8.8, 'flw1': 0.12, 'flw0': 9.35, 'time': 21.73, 'compass': -167.92, 'pitch': 9.42, 'roll': -2.83}
{'lipoC2': 0.14, 'temp': 0.0, 'lipoC3S3': 11.85, 'state': 'normal', 'rot1': 257, 'rot0': 234, 'rot3': 0, 'rot2': 0, 'depth': -1.361, 'yaw': 163.5, 'datetime': '2018-12-18 21:06:36.381228', 'mgs': 0, 'flw2': 8.89, 'flw1': 0.5, 'flw0': 9.89, 'time': 21.93, 'compass': -169.31, 'pitch': 9.42, 'roll': -2.81}
{'lipoC2': 0.0, 'temp': 0.0, 'lipoC3S3': 12.0, 'state': 'normal', 'rot1': 261, 'rot0': 238, 'rot3': 0, 'rot2': 0, 'depth': 1.157, 'yaw': 161.88, 'datetime': '2018-12-18 21:06:36.591714', 'mgs': 0, 'flw2': 9.69, 'flw1': 0.0, 'flw0': 9.02, 'time': 22.14, 'compass': -170.93, 'pitch': 9.83, 'roll': -2.84}
{'lipoC2': 0.0, 'temp': 0.0, 'lipoC3S3': 12.04, 'state': 'normal', 'rot1': 266, 'rot0': 242, 'rot3': 0, 'rot2': 0, 'depth': 1.92, 'yaw': 160.02, 'datetime': '2018-12-18 21:06:36.801605', 'mgs': 0, 'flw2': 9.75, 'flw1': 0.0, 'flw0': 9.57, 'time': 22.35, 'compass': -172.79, 'pitch': 10.72, 'roll': -2.62}
{'lipoC2': 0.0, 'temp': 0.0, 'lipoC3S3': 12.0, 'state': 'normal', 'rot1': 271, 'rot0': 246, 'rot3': 0, 'rot2': 0, 'depth': 1.08, 'yaw': 157.97, 'datetime': '2018-12-18 21:06:37.013065', 'mgs': 0, 'flw2': 9.44, 'flw1': 0.06, 'flw0': 9.34, 'time': 22.56, 'compass': -174.84, 'pitch': 11.13, 'roll': -2.45}
{'lipoC2': 0.01, 'temp': 0.0, 'lipoC3S3': 11.67, 'state': 'normal', 'rot1': 275, 'rot0': 250, 'rot3': 0, 'rot2': 0, 'depth': -0.293, 'yaw': 155.97, 'datetime': '2018-12-18 21:06:37.221501', 'mgs': 0, 'flw2': 10.03, 'flw1': 0.06, 'flw0': 9.22, 'time': 22.77, 'compass': -176.84, 'pitch': 11.23, 'roll': -2.34}
{'lipoC2': 0.0, 'temp': 0.0, 'lipoC3S3': 12.05, 'state': 'normal', 'rot1': 280, 'rot0': 254, 'rot3': 0, 'rot2': 0, 'depth': 1.691, 'yaw': 153.96, 'datetime': '2018-12-18 21:06:37.430817', 'mgs': 0, 'flw2': 11.05, 'flw1': 0.0, 'flw0': 9.83, 'time': 22.98, 'compass': -178.85, 'pitch': 11.53, 'roll': -2.25}
{'lipoC2': 0.0, 'temp': 0.0, 'lipoC3S3': 11.89, 'state': 'normal', 'rot1': 286, 'rot0': 258, 'rot3': 0, 'rot2': 0, 'depth': 0.012, 'yaw': 152.34, 'datetime': '2018-12-18 21:06:37.639234', 'mgs': 0, 'flw2': 11.1, 'flw1': 0.26, 'flw0': 9.72, 'time': 23.19, 'compass': 179.53, 'pitch': 11.76, 'roll': -2.19}
{'lipoC2': 0.0, 'temp': 0.0, 'lipoC3S3': 11.85, 'state': 'normal', 'rot1': 291, 'rot0': 262, 'rot3': 0, 'rot2': 0, 'depth': 0.241, 'yaw': 150.63, 'datetime': '2018-12-18 21:06:37.851309', 'mgs': 0, 'flw2': 12.35, 'flw1': 0.5, 'flw0': 9.18, 'time': 23.4, 'compass': 177.82, 'pitch': 11.72, 'roll': -2.07}
{'lipoC2': 0.08, 'temp': 0.0, 'lipoC3S3': 11.89, 'state': 'normal', 'rot1': 295, 'rot0': 267, 'rot3': 0, 'rot2': 0, 'depth': -1.819, 'yaw': 149.55, 'datetime': '2018-12-18 21:06:38.063697', 'mgs': 0, 'flw2': 12.49, 'flw1': 0.0, 'flw0': 6.56, 'time': 23.61, 'compass': 176.74, 'pitch': 11.77, 'roll': -1.95}
{'lipoC2': 0.0, 'temp': 0.0, 'lipoC3S3': 11.88, 'state': 'normal', 'rot1': 298, 'rot0': 272, 'rot3': 0, 'rot2': 0, 'depth': -0.217, 'yaw': 149.67, 'datetime': '2018-12-18 21:06:38.270542', 'mgs': 0, 'flw2': 12.49, 'flw1': 0.0, 'flw0': 5.98, 'time': 23.82, 'compass': 176.87, 'pitch': 11.72, 'roll': -1.82}
{'lipoC2': 0.0, 'temp': 0.0, 'lipoC3S3': 11.72, 'state': 'normal', 'rot1': 302, 'rot0': 278, 'rot3': 0, 'rot2': 0, 'depth': -1.132, 'yaw': 151.06, 'datetime': '2018-12-18 21:06:38.476932', 'mgs': 0, 'flw2': 12.49, 'flw1': 0.0, 'flw0': 6.3, 'time': 24.03, 'compass': 178.25, 'pitch': 11.49, 'roll': -1.48}
{'lipoC2': 0.14, 'temp': 0.0, 'lipoC3S3': 11.85, 'state': 'normal', 'rot1': 305, 'rot0': 284, 'rot3': 0, 'rot2': 0, 'depth': -1.514, 'yaw': 153.12, 'datetime': '2018-12-18 21:06:38.686332', 'mgs': 0, 'flw2': 12.49, 'flw1': 0.41, 'flw0': 6.58, 'time': 24.24, 'compass': -179.68, 'pitch': 11.33, 'roll': -1.07}
{'lipoC2': 0.03, 'temp': 0.0, 'lipoC3S3': 11.93, 'state': 'normal', 'rot1': 309, 'rot0': 288, 'rot3': 0, 'rot2': 0, 'depth': -1.666, 'yaw': 155.35, 'datetime': '2018-12-18 21:06:38.895337', 'mgs': 0, 'flw2': 12.49, 'flw1': 0.0, 'flw0': 6.26, 'time': 24.44, 'compass': -177.46, 'pitch': 11.53, 'roll': -0.85}
{'lipoC2': 0.09, 'temp': 0.0, 'lipoC3S3': 11.89, 'state': 'normal', 'rot1': 313, 'rot0': 294, 'rot3': 0, 'rot2': 0, 'depth': 1.92, 'yaw': 157.88, 'datetime': '2018-12-18 21:06:39.105710', 'mgs': 0, 'flw2': 12.49, 'flw1': 0.0, 'flw0': 6.56, 'time': 24.65, 'compass': -174.92, 'pitch': 11.92, 'roll': -0.31}
{'lipoC2': 0.0, 'temp': 0.0, 'lipoC3S3': 11.71, 'state': 'normal', 'rot1': 317, 'rot0': 299, 'rot3': 0, 'rot2': 0, 'depth': -1.59, 'yaw': 160.42, 'datetime': '2018-12-18 21:06:39.316824', 'mgs': 0, 'flw2': 12.49, 'flw1': 0.38, 'flw0': 6.27, 'time': 24.86, 'compass': -172.39, 'pitch': 12.22, 'roll': 0.46}
{'lipoC2': 0.0, 'temp': 0.0, 'lipoC3S3': 12.0, 'state': 'normal', 'rot1': 321, 'rot0': 304, 'rot3': 0, 'rot2': 0, 'depth': 1.08, 'yaw': 162.68, 'datetime': '2018-12-18 21:06:39.525456', 'mgs': 0, 'flw2': 12.49, 'flw1': 0.12, 'flw0': 7.42, 'time': 25.07, 'compass': -170.12, 'pitch': 12.46, 'roll': 1.16}
{'lipoC2': 0.0, 'temp': 0.0, 'lipoC3S3': 12.05, 'state': 'normal', 'rot1': 326, 'rot0': 310, 'rot3': 0, 'rot2': 0, 'depth': 1.462, 'yaw': 164.19, 'datetime': '2018-12-18 21:06:39.734498', 'mgs': 0, 'flw2': 12.49, 'flw1': 0.0, 'flw0': 8.11, 'time': 25.28, 'compass': -168.62, 'pitch': 12.85, 'roll': 1.64}
{'lipoC2': 0.0, 'temp': 0.0, 'lipoC3S3': 12.05, 'state': 'normal', 'rot1': 331, 'rot0': 314, 'rot3': 0, 'rot2': 0, 'depth': -0.217, 'yaw': 165.24, 'datetime': '2018-12-18 21:06:39.943722', 'mgs': 0, 'flw2': 12.49, 'flw1': 0.35, 'flw0': 7.59, 'time': 25.49, 'compass': -167.57, 'pitch': 12.94, 'roll': 2.28}
{'lipoC2': 0.1, 'temp': 0.0, 'lipoC3S3': 11.88, 'state': 'normal', 'rot1': 335, 'rot0': 318, 'rot3': 0, 'rot2': 0, 'depth': -1.819, 'yaw': 165.92, 'datetime': '2018-12-18 21:06:40.152577', 'mgs': 0, 'flw2': 12.49, 'flw1': 0.0, 'flw0': 7.53, 'time': 25.7, 'compass': -166.89, 'pitch': 12.85, 'roll': 2.61}
{'lipoC2': 0.06, 'temp': 0.0, 'lipoC3S3': 11.65, 'state': 'normal', 'rot1': 339, 'rot0': 324, 'rot3': 0, 'rot2': 0, 'depth': 1.08, 'yaw': 166.75, 'datetime': '2018-12-18 21:06:40.363850', 'mgs': 0, 'flw2': 12.49, 'flw1': 0.0, 'flw0': 7.86, 'time': 25.91, 'compass': -166.06, 'pitch': 12.35, 'roll': 2.88}
{'lipoC2': 0.1, 'temp': 0.0, 'lipoC3S3': 11.68, 'state': 'normal', 'rot1': 344, 'rot0': 329, 'rot3': 0, 'rot2': 0, 'depth': 1.157, 'yaw': 167.94, 'datetime': '2018-12-18 21:06:40.574361', 'mgs': 0, 'flw2': 12.49, 'flw1': 0.38, 'flw0': 6.8, 'time': 26.12, 'compass': -164.87, 'pitch': 12.25, 'roll': 3.01}
{'lipoC2': 0.03, 'temp': 0.0, 'lipoC3S3': 11.65, 'state': 'normal', 'rot1': 347, 'rot0': 334, 'rot3': 0, 'rot2': 0, 'depth': -0.14, 'yaw': 170.17, 'datetime': '2018-12-18 21:06:40.783281', 'mgs': 0, 'flw2': 12.49, 'flw1': 0.0, 'flw0': 7.02, 'time': 26.33, 'compass': -162.64, 'pitch': 12.34, 'roll': 2.77}
{'lipoC2': 0.13, 'temp': 0.0, 'lipoC3S3': 11.87, 'state': 'normal', 'rot1': 351, 'rot0': 340, 'rot3': 0, 'rot2': 0, 'depth': -1.59, 'yaw': 173.24, 'datetime': '2018-12-18 21:06:40.991920', 'mgs': 0, 'flw2': 12.49, 'flw1': 0.0, 'flw0': 6.77, 'time': 26.54, 'compass': -159.56, 'pitch': 12.45, 'roll': 2.65}
{'lipoC2': 0.0, 'temp': 0.0, 'lipoC3S3': 11.68, 'state': 'normal', 'rot1': 355, 'rot0': 345, 'rot3': 0, 'rot2': 0, 'depth': -1.361, 'yaw': 177.1, 'datetime': '2018-12-18 21:06:41.201534', 'mgs': 0, 'flw2': 12.49, 'flw1': 0.18, 'flw0': 6.9, 'time': 26.75, 'compass': -155.71, 'pitch': 12.79, 'roll': 2.88}
{'lipoC2': 0.0, 'temp': 0.0, 'lipoC3S3': 12.08, 'state': 'normal', 'rot1': 359, 'rot0': 349, 'rot3': 0, 'rot2': 0, 'depth': 1.767, 'yaw': -178.51, 'datetime': '2018-12-18 21:06:41.409866', 'mgs': 0, 'flw2': 12.49, 'flw1': 0.0, 'flw0': 8.89, 'time': 26.96, 'compass': -151.32, 'pitch': 13.26, 'roll': 3.22}
{'lipoC2': 0.16, 'temp': 0.0, 'lipoC3S3': 11.81, 'state': 'normal', 'rot1': 363, 'rot0': 353, 'rot3': 0, 'rot2': 0, 'depth': -0.522, 'yaw': -174.25, 'datetime': '2018-12-18 21:06:41.620619', 'mgs': 0, 'flw2': 12.49, 'flw1': 0.5, 'flw0': 8.98, 'time': 27.17, 'compass': -147.06, 'pitch': 13.52, 'roll': 3.86}
{'lipoC2': 0.0, 'temp': 0.0, 'lipoC3S3': 11.76, 'state': 'normal', 'rot1': 369, 'rot0': 358, 'rot3': 0, 'rot2': 0, 'depth': -0.522, 'yaw': -170.44, 'datetime': '2018-12-18 21:06:41.831916', 'mgs': 0, 'flw2': 12.49, 'flw1': 0.0, 'flw0': 9.41, 'time': 27.38, 'compass': -143.25, 'pitch': 13.46, 'roll': 4.61}
{'lipoC2': 0.11, 'temp': 0.0, 'lipoC3S3': 11.65, 'state': 'normal', 'rot1': 375, 'rot0': 364, 'rot3': 0, 'rot2': 0, 'depth': 0.241, 'yaw': -167.06, 'datetime': '2018-12-18 21:06:42.041225', 'mgs': 0, 'flw2': 12.49, 'flw1': 0.09, 'flw0': 8.53, 'time': 27.58, 'compass': -139.87, 'pitch': 13.27, 'roll': 5.39}
{'lipoC2': 0.13, 'temp': 0.0, 'lipoC3S3': 11.65, 'state': 'normal', 'rot1': 379, 'rot0': 369, 'rot3': 0, 'rot2': 0, 'depth': 0.394, 'yaw': -163.78, 'datetime': '2018-12-18 21:06:42.252034', 'mgs': 0, 'flw2': 12.49, 'flw1': 0.12, 'flw0': 8.91, 'time': 27.8, 'compass': -136.59, 'pitch': 13.0, 'roll': 5.88}
{'lipoC2': 0.0, 'temp': 0.0, 'lipoC3S3': 11.72, 'state': 'normal', 'rot1': 385, 'rot0': 373, 'rot3': 0, 'rot2': 0, 'depth': -1.437, 'yaw': -159.92, 'datetime': '2018-12-18 21:06:42.468749', 'mgs': 0, 'flw2': 12.49, 'flw1': 0.0, 'flw0': 8.65, 'time': 28.0, 'compass': -132.72, 'pitch': 13.03, 'roll': 6.22}
{'lipoC2': 0.0, 'temp': 0.0, 'lipoC3S3': 12.1, 'state': 'normal', 'rot1': 395, 'rot0': 380, 'rot3': 0, 'rot2': 0, 'depth': 2.072, 'yaw': -153.82, 'datetime': '2018-12-18 21:06:42.767499', 'mgs': 0, 'flw2': 9.41, 'flw1': 0.0, 'flw0': 12.06, 'time': 28.32, 'compass': -126.63, 'pitch': 13.53, 'roll': 6.59}
{'lipoC2': 0.04, 'temp': 0.0, 'lipoC3S3': 11.65, 'state': 'normal', 'rot1': 406, 'rot0': 385, 'rot3': 0, 'rot2': 0, 'depth': 1.385, 'yaw': -151.67, 'datetime': '2018-12-18 21:06:42.980155', 'mgs': 0, 'flw2': 8.23, 'flw1': 0.15, 'flw0': 12.49, 'time': 28.53, 'compass': -124.48, 'pitch': 13.01, 'roll': 6.54}
{'lipoC2': 0.0, 'temp': 0.0, 'lipoC3S3': 12.06, 'state': 'normal', 'rot1': 414, 'rot0': 389, 'rot3': 0, 'rot2': 0, 'depth': -0.446, 'yaw': -151.53, 'datetime': '2018-12-18 21:06:43.188741', 'mgs': 0, 'flw2': 8.62, 'flw1': 0.38, 'flw0': 12.49, 'time': 28.74, 'compass': -124.34, 'pitch': 12.23, 'roll': 6.1}
{'lipoC2': 0.0, 'temp': 0.0, 'lipoC3S3': 12.09, 'state': 'normal', 'rot1': 423, 'rot0': 393, 'rot3': 0, 'rot2': 0, 'depth': 2.148, 'yaw': -152.27, 'datetime': '2018-12-18 21:06:43.401658', 'mgs': 0, 'flw2': 8.65, 'flw1': 0.38, 'flw0': 12.49, 'time': 28.95, 'compass': -125.07, 'pitch': 11.51, 'roll': 5.33}
{'lipoC2': 0.03, 'temp': 0.0, 'lipoC3S3': 11.64, 'state': 'normal', 'rot1': 433, 'rot0': 396, 'rot3': 0, 'rot2': 0, 'depth': 1.462, 'yaw': -153.29, 'datetime': '2018-12-18 21:06:43.612996', 'mgs': 0, 'flw2': 9.29, 'flw1': 0.0, 'flw0': 12.49, 'time': 29.16, 'compass': -126.1, 'pitch': 11.02, 'roll': 4.4}
{'lipoC2': 0.09, 'temp': 0.0, 'lipoC3S3': 11.67, 'state': 'normal', 'rot1': 442, 'rot0': 401, 'rot3': 0, 'rot2': 0, 'depth': 0.317, 'yaw': -154.08, 'datetime': '2018-12-18 21:06:43.824072', 'mgs': 0, 'flw2': 9.48, 'flw1': 0.38, 'flw0': 12.49, 'time': 29.36, 'compass': -126.89, 'pitch': 11.26, 'roll': 3.42}
{'lipoC2': 0.02, 'temp': 0.0, 'lipoC3S3': 11.96, 'state': 'normal', 'rot1': 450, 'rot0': 404, 'rot3': 0, 'rot2': 0, 'depth': -1.59, 'yaw': -154.58, 'datetime': '2018-12-18 21:06:44.033659', 'mgs': 0, 'flw2': 10.03, 'flw1': 0.0, 'flw0': 12.49, 'time': 29.58, 'compass': -127.39, 'pitch': 12.09, 'roll': 2.51}
{'lipoC2': 0.0, 'temp': 0.0, 'lipoC3S3': 12.06, 'state': 'normal', 'rot1': 459, 'rot0': 408, 'rot3': 0, 'rot2': 0, 'depth': 1.691, 'yaw': -154.99, 'datetime': '2018-12-18 21:06:44.242002', 'mgs': 0, 'flw2': 10.05, 'flw1': 0.0, 'flw0': 12.49, 'time': 29.78, 'compass': -127.8, 'pitch': 12.7, 'roll': 1.65}
{'lipoC2': 0.0, 'temp': 0.0, 'lipoC3S3': 12.05, 'state': 'normal', 'rot1': 467, 'rot0': 412, 'rot3': 0, 'rot2': 0, 'depth': 1.767, 'yaw': -155.27, 'datetime': '2018-12-18 21:06:44.451995', 'mgs': 0, 'flw2': 9.83, 'flw1': 0.0, 'flw0': 12.49, 'time': 29.99, 'compass': -128.08, 'pitch': 12.97, 'roll': 0.73}
{'lipoC2': 0.0, 'temp': 0.0, 'lipoC3S3': 12.05, 'state': 'normal', 'rot1': 476, 'rot0': 417, 'rot3': 0, 'rot2': 0, 'depth': -1.971, 'yaw': -155.55, 'datetime': '2018-12-18 21:06:44.661607', 'mgs': 0, 'flw2': 9.63, 'flw1': 0.0, 'flw0': 12.49, 'time': 30.2, 'compass': -128.36, 'pitch': 12.91, 'roll': -0.0}
{'lipoC2': 0.0, 'temp': 0.0, 'lipoC3S3': 11.87, 'state': 'normal', 'rot1': 483, 'rot0': 421, 'rot3': 0, 'rot2': 0, 'depth': 0.165, 'yaw': -156.08, 'datetime': '2018-12-18 21:06:44.869816', 'mgs': 0, 'flw2': 10.18, 'flw1': 0.0, 'flw0': 12.49, 'time': 30.41, 'compass': -128.89, 'pitch': 12.9, 'roll': -0.25}
{'lipoC2': 0.0, 'temp': 0.0, 'lipoC3S3': 11.71, 'state': 'normal', 'rot1': 492, 'rot0': 425, 'rot3': 0, 'rot2': 0, 'depth': -1.514, 'yaw': -157.19, 'datetime': '2018-12-18 21:06:45.078860', 'mgs': 0, 'flw2': 9.61, 'flw1': 0.47, 'flw0': 12.49, 'time': 30.62, 'compass': -129.99, 'pitch': 12.84, 'roll': -0.37}
{'lipoC2': 0.16, 'temp': 0.0, 'lipoC3S3': 11.73, 'state': 'normal', 'rot1': 499, 'rot0': 429, 'rot3': 0, 'rot2': 0, 'depth': 0.546, 'yaw': -159.14, 'datetime': '2018-12-18 21:06:45.291719', 'mgs': 0, 'flw2': 9.86, 'flw1': 0.53, 'flw0': 12.49, 'time': 30.83, 'compass': -131.95, 'pitch': 12.34, 'roll': -0.58}
{'lipoC2': 0.0, 'temp': 0.0, 'lipoC3S3': 12.04, 'state': 'normal', 'rot1': 508, 'rot0': 434, 'rot3': 0, 'rot2': 0, 'depth': 1.614, 'yaw': -161.42, 'datetime': '2018-12-18 21:06:45.501824', 'mgs': 0, 'flw2': 9.52, 'flw1': 0.0, 'flw0': 12.49, 'time': 31.04, 'compass': -134.23, 'pitch': 11.7, 'roll': -0.9}
{'lipoC2': 0.0, 'temp': 0.0, 'lipoC3S3': 11.93, 'state': 'normal', 'rot1': 516, 'rot0': 438, 'rot3': 0, 'rot2': 0, 'depth': 0.699, 'yaw': -163.85, 'datetime': '2018-12-18 21:06:45.712623', 'mgs': 0, 'flw2': 10.14, 'flw1': 0.0, 'flw0': 12.49, 'time': 31.25, 'compass': -136.66, 'pitch': 11.51, 'roll': -1.25}
{'lipoC2': 0.12, 'temp': 0.0, 'lipoC3S3': 11.87, 'state': 'normal', 'rot1': 524, 'rot0': 443, 'rot3': 0, 'rot2': 0, 'depth': -1.437, 'yaw': -166.56, 'datetime': '2018-12-18 21:06:45.929588', 'mgs': 0, 'flw2': 9.22, 'flw1': 0.41, 'flw0': 12.49, 'time': 31.46, 'compass': -139.37, 'pitch': 11.51, 'roll': -1.4}
{'lipoC2': 0.0, 'temp': 0.0, 'lipoC3S3': 12.01, 'state': 'normal', 'rot1': 531, 'rot0': 447, 'rot3': 0, 'rot2': 0, 'depth': 1.08, 'yaw': -169.8, 'datetime': '2018-12-18 21:06:46.133708', 'mgs': 0, 'flw2': 10.1, 'flw1': 0.0, 'flw0': 12.49, 'time': 31.67, 'compass': -142.61, 'pitch': 11.38, 'roll': -2.0}
{'lipoC2': 0.0, 'temp': 0.0, 'lipoC3S3': 12.06, 'state': 'normal', 'rot1': 533, 'rot0': 449, 'rot3': 0, 'rot2': 0, 'depth': 1.462, 'yaw': -173.24, 'datetime': '2018-12-18 21:06:46.339055', 'mgs': 0, 'flw2': 0.0, 'flw1': 0.0, 'flw0': 0.2, 'time': 31.88, 'compass': -146.05, 'pitch': 9.75, 'roll': -2.81}
{'lipoC2': 0.14, 'temp': 0.0, 'lipoC3S3': 11.71, 'state': 'normal', 'rot1': 533, 'rot0': 449, 'rot3': 0, 'rot2': 0, 'depth': 0.165, 'yaw': -175.75, 'datetime': '2018-12-18 21:06:46.551814', 'mgs': 0, 'flw2': 0.0, 'flw1': 0.41, 'flw0': 0.0, 'time': 32.09, 'compass': -148.56, 'pitch': 3.45, 'roll': -2.71}
{'lipoC2': 0.0, 'temp': 0.0, 'lipoC3S3': 11.87, 'state': 'normal', 'rot1': 533, 'rot0': 449, 'rot3': 0, 'rot2': 0, 'depth': 0.47, 'yaw': -178.36, 'datetime': '2018-12-18 21:06:46.759206', 'mgs': 0, 'flw2': 0.18, 'flw1': 0.0, 'flw0': 0.0, 'time': 32.3, 'compass': -151.17, 'pitch': 0.49, 'roll': -1.77}
{'lipoC2': 0.0, 'temp': 0.0, 'lipoC3S3': 11.85, 'state': 'normal', 'rot1': 533, 'rot0': 449, 'rot3': 0, 'rot2': 0, 'depth': 0.47, 'yaw': 178.93, 'datetime': '2018-12-18 21:06:46.970928', 'mgs': 0, 'flw2': 0.0, 'flw1': 0.32, 'flw0': 0.0, 'time': 32.51, 'compass': -153.87, 'pitch': 1.2, 'roll': -0.99}
{'lipoC2': 0.0, 'temp': 0.0, 'lipoC3S3': 11.89, 'state': 'normal', 'rot1': 533, 'rot0': 449, 'rot3': 0, 'rot2': 0, 'depth': -0.217, 'yaw': 176.07, 'datetime': '2018-12-18 21:06:47.181336', 'mgs': 0, 'flw2': 0.0, 'flw1': 0.26, 'flw0': 0.07, 'time': 32.71, 'compass': -156.74, 'pitch': 2.82, 'roll': -0.49}
{'lipoC2': 0.0, 'temp': 0.0, 'lipoC3S3': 11.79, 'state': 'normal', 'rot1': 533, 'rot0': 449, 'rot3': 0, 'rot2': 0, 'depth': -1.132, 'yaw': 173.36, 'datetime': '2018-12-18 21:06:47.391261', 'mgs': 0, 'flw2': 0.0, 'flw1': 0.35, 'flw0': 0.0, 'time': 32.92, 'compass': -159.44, 'pitch': 3.59, 'roll': -0.27}
{'lipoC2': 0.0, 'temp': 0.0, 'lipoC3S3': 12.05, 'state': 'normal', 'rot1': 533, 'rot0': 449, 'rot3': 0, 'rot2': 0, 'depth': 1.385, 'yaw': 171.02, 'datetime': '2018-12-18 21:06:47.600648', 'mgs': 0, 'flw2': 0.04, 'flw1': 0.0, 'flw0': 0.16, 'time': 33.13, 'compass': -161.78, 'pitch': 3.51, 'roll': -0.14}
{'lipoC2': 0.16, 'temp': 0.0, 'lipoC3S3': 11.77, 'state': 'normal', 'rot1': 533, 'rot0': 449, 'rot3': 0, 'rot2': 0, 'depth': 0.394, 'yaw': 169.1, 'datetime': '2018-12-18 21:06:47.812128', 'mgs': 0, 'flw2': 0.0, 'flw1': 0.53, 'flw0': 0.0, 'time': 33.34, 'compass': -163.71, 'pitch': 3.06, 'roll': -0.28}
{'lipoC2': 0.0, 'temp': 0.0, 'lipoC3S3': 12.02, 'state': 'normal', 'rot1': 533, 'rot0': 449, 'rot3': 0, 'rot2': 0, 'depth': 1.08, 'yaw': 167.48, 'datetime': '2018-12-18 21:06:48.022378', 'mgs': 0, 'flw2': 0.11, 'flw1': 0.23, 'flw0': 0.0, 'time': 33.55, 'compass': -165.33, 'pitch': 2.87, 'roll': -0.57}
{'lipoC2': 0.13, 'temp': 0.0, 'lipoC3S3': 11.87, 'state': 'normal', 'rot1': 533, 'rot0': 449, 'rot3': 0, 'rot2': 0, 'depth': -1.666, 'yaw': 166.09, 'datetime': '2018-12-18 21:06:48.228055', 'mgs': 0, 'flw2': 0.18, 'flw1': 0.0, 'flw0': 0.0, 'time': 33.76, 'compass': -166.72, 'pitch': 2.63, 'roll': -0.86}
{'lipoC2': 0.02, 'temp': 0.0, 'lipoC3S3': 11.65, 'state': 'normal', 'rot1': 542, 'rot0': 452, 'rot3': 0, 'rot2': 0, 'depth': 0.775, 'yaw': 164.19, 'datetime': '2018-12-18 21:06:48.439496', 'mgs': 0, 'flw2': 12.15, 'flw1': 0.26, 'flw0': 12.49, 'time': 33.97, 'compass': -168.62, 'pitch': 4.18, 'roll': -1.08}
{'lipoC2': 0.0, 'temp': 0.0, 'lipoC3S3': 11.9, 'state': 'normal', 'rot1': 552, 'rot0': 457, 'rot3': 0, 'rot2': 0, 'depth': -0.217, 'yaw': 160.91, 'datetime': '2018-12-18 21:06:48.649042', 'mgs': 0, 'flw2': 11.33, 'flw1': 0.29, 'flw0': 12.49, 'time': 34.18, 'compass': -171.9, 'pitch': 11.51, 'roll': -1.32}
{'lipoC2': 0.0, 'temp': 0.0, 'lipoC3S3': 12.05, 'state': 'normal', 'rot1': 562, 'rot0': 462, 'rot3': 0, 'rot2': 0, 'depth': 1.309, 'yaw': 157.56, 'datetime': '2018-12-18 21:06:48.858589', 'mgs': 0, 'flw2': 11.67, 'flw1': 0.0, 'flw0': 12.49, 'time': 34.39, 'compass': -175.24, 'pitch': 14.96, 'roll': -2.21}
{'lipoC2': 0.0, 'temp': 0.0, 'lipoC3S3': 12.05, 'state': 'normal', 'rot1': 571, 'rot0': 466, 'rot3': 0, 'rot2': 0, 'depth': 1.385, 'yaw': 154.72, 'datetime': '2018-12-18 21:06:49.067211', 'mgs': 0, 'flw2': 11.9, 'flw1': 0.32, 'flw0': 12.49, 'time': 34.6, 'compass': -178.08, 'pitch': 12.95, 'roll': -3.03}
{'lipoC2': 0.0, 'temp': 0.0, 'lipoC3S3': 12.05, 'state': 'normal', 'rot1': 581, 'rot0': 471, 'rot3': 0, 'rot2': 0, 'depth': -1.743, 'yaw': 152.42, 'datetime': '2018-12-18 21:06:49.269157', 'mgs': 0, 'flw2': 11.82, 'flw1': 0.0, 'flw0': 12.49, 'time': 34.81, 'compass': 179.61, 'pitch': 10.04, 'roll': -2.96}
{'lipoC2': 0.09, 'temp': 0.0, 'lipoC3S3': 11.89, 'state': 'normal', 'rot1': 589, 'rot0': 476, 'rot3': 0, 'rot2': 0, 'depth': -1.514, 'yaw': 149.92, 'datetime': '2018-12-18 21:06:49.478803', 'mgs': 0, 'flw2': 11.95, 'flw1': 0.0, 'flw0': 12.49, 'time': 35.02, 'compass': 177.11, 'pitch': 9.56, 'roll': -2.78}
{'lipoC2': 0.1, 'temp': 0.0, 'lipoC3S3': 11.96, 'state': 'normal', 'rot1': 598, 'rot0': 481, 'rot3': 0, 'rot2': 0, 'depth': 1.843, 'yaw': 147.24, 'datetime': '2018-12-18 21:06:49.687201', 'mgs': 0, 'flw2': 12.49, 'flw1': 0.0, 'flw0': 12.49, 'time': 35.22, 'compass': 174.43, 'pitch': 10.72, 'roll': -3.05}
{'lipoC2': 0.04, 'temp': 0.0, 'lipoC3S3': 11.94, 'state': 'normal', 'rot1': 605, 'rot0': 486, 'rot3': 0, 'rot2': 0, 'depth': -1.895, 'yaw': 145.2, 'datetime': '2018-12-18 21:06:49.897046', 'mgs': 0, 'flw2': 12.49, 'flw1': 0.09, 'flw0': 12.49, 'time': 35.43, 'compass': 172.39, 'pitch': 12.21, 'roll': -3.22}
{'lipoC2': 0.08, 'temp': 0.0, 'lipoC3S3': 11.67, 'state': 'normal', 'rot1': 613, 'rot0': 491, 'rot3': 0, 'rot2': 0, 'depth': 0.394, 'yaw': 143.74, 'datetime': '2018-12-18 21:06:50.105357', 'mgs': 0, 'flw2': 12.49, 'flw1': 0.44, 'flw0': 12.49, 'time': 35.64, 'compass': 170.93, 'pitch': 13.23, 'roll': -3.07}
{'lipoC2': 0.05, 'temp': 0.0, 'lipoC3S3': 11.94, 'state': 'normal', 'rot1': 620, 'rot0': 495, 'rot3': 0, 'rot2': 0, 'depth': 1.92, 'yaw': 142.1, 'datetime': '2018-12-18 21:06:50.316037', 'mgs': 0, 'flw2': 12.49, 'flw1': 0.18, 'flw0': 12.49, 'time': 35.85, 'compass': 169.3, 'pitch': 12.83, 'roll': -2.91}
{'lipoC2': 0.0, 'temp': 0.0, 'lipoC3S3': 12.04, 'state': 'normal', 'rot1': 628, 'rot0': 500, 'rot3': 0, 'rot2': 0, 'depth': 1.996, 'yaw': 140.68, 'datetime': '2018-12-18 21:06:50.525649', 'mgs': 0, 'flw2': 12.49, 'flw1': 0.0, 'flw0': 12.49, 'time': 36.06, 'compass': 167.87, 'pitch': 12.26, 'roll': -2.71}
{'lipoC2': 0.0, 'temp': 0.0, 'lipoC3S3': 11.94, 'state': 'normal', 'rot1': 636, 'rot0': 505, 'rot3': 0, 'rot2': 0, 'depth': 0.775, 'yaw': 138.76, 'datetime': '2018-12-18 21:06:50.735097', 'mgs': 0, 'flw2': 12.49, 'flw1': 0.0, 'flw0': 12.49, 'time': 36.27, 'compass': 165.95, 'pitch': 12.57, 'roll': -2.66}
{'lipoC2': 0.0, 'temp': 0.0, 'lipoC3S3': 11.71, 'state': 'normal', 'rot1': 644, 'rot0': 510, 'rot3': 0, 'rot2': 0, 'depth': 1.92, 'yaw': 136.78, 'datetime': '2018-12-18 21:06:50.943402', 'mgs': 0, 'flw2': 12.49, 'flw1': 0.47, 'flw0': 12.49, 'time': 36.48, 'compass': 163.97, 'pitch': 13.39, 'roll': -2.79}
{'lipoC2': 0.12, 'temp': 0.0, 'lipoC3S3': 11.71, 'state': 'normal', 'rot1': 652, 'rot0': 514, 'rot3': 0, 'rot2': 0, 'depth': 0.775, 'yaw': 134.95, 'datetime': '2018-12-18 21:06:51.152921', 'mgs': 0, 'flw2': 12.49, 'flw1': 0.0, 'flw0': 12.49, 'time': 36.69, 'compass': 162.14, 'pitch': 13.88, 'roll': -2.92}
{'lipoC2': 0.0, 'temp': 0.0, 'lipoC3S3': 12.06, 'state': 'normal', 'rot1': 659, 'rot0': 520, 'rot3': 0, 'rot2': 0, 'depth': 1.767, 'yaw': 133.49, 'datetime': '2018-12-18 21:06:51.361196', 'mgs': 0, 'flw2': 12.49, 'flw1': 0.0, 'flw0': 12.49, 'time': 36.9, 'compass': 160.68, 'pitch': 13.8, 'roll': -3.12}
{'lipoC2': 0.0, 'temp': 0.0, 'lipoC3S3': 12.02, 'state': 'normal', 'rot1': 665, 'rot0': 525, 'rot3': 0, 'rot2': 0, 'depth': 1.157, 'yaw': 132.39, 'datetime': '2018-12-18 21:06:51.571522', 'mgs': 0, 'flw2': 12.49, 'flw1': 0.0, 'flw0': 12.49, 'time': 37.11, 'compass': 159.58, 'pitch': 13.61, 'roll': -3.16}
{'lipoC2': 0.0, 'temp': 0.0, 'lipoC3S3': 11.89, 'state': 'normal', 'rot1': 671, 'rot0': 530, 'rot3': 0, 'rot2': 0, 'depth': 0.241, 'yaw': 131.48, 'datetime': '2018-12-18 21:06:51.782408', 'mgs': 0, 'flw2': 12.49, 'flw1': 0.0, 'flw0': 7.46, 'time': 37.32, 'compass': 158.67, 'pitch': 13.84, 'roll': -3.0}
{'lipoC2': 0.14, 'temp': 0.0, 'lipoC3S3': 11.72, 'state': 'normal', 'rot1': 674, 'rot0': 535, 'rot3': 0, 'rot2': 0, 'depth': 0.317, 'yaw': 132.36, 'datetime': '2018-12-18 21:06:51.990795', 'mgs': 0, 'flw2': 12.49, 'flw1': 0.44, 'flw0': 5.68, 'time': 37.53, 'compass': 159.55, 'pitch': 13.01, 'roll': -2.83}
{'lipoC2': 0.0, 'temp': 0.0, 'lipoC3S3': 11.93, 'state': 'normal', 'rot1': 678, 'rot0': 539, 'rot3': 0, 'rot2': 0, 'depth': -0.064, 'yaw': 134.96, 'datetime': '2018-12-18 21:06:52.200526', 'mgs': 0, 'flw2': 12.49, 'flw1': 0.03, 'flw0': 4.44, 'time': 37.73, 'compass': 162.15, 'pitch': 11.53, 'roll': -2.18}
{'lipoC2': 0.14, 'temp': 0.0, 'lipoC3S3': 11.87, 'state': 'normal', 'rot1': 681, 'rot0': 544, 'rot3': 0, 'rot2': 0, 'depth': -0.903, 'yaw': 138.61, 'datetime': '2018-12-18 21:06:52.412843', 'mgs': 0, 'flw2': 12.49, 'flw1': 0.0, 'flw0': 4.27, 'time': 37.94, 'compass': 165.8, 'pitch': 10.49, 'roll': -1.12}
{'lipoC2': 0.1, 'temp': 0.0, 'lipoC3S3': 11.67, 'state': 'normal', 'rot1': 685, 'rot0': 552, 'rot3': 0, 'rot2': 0, 'depth': 1.08, 'yaw': 145.42, 'datetime': '2018-12-18 21:06:52.725105', 'mgs': 0, 'flw2': 12.49, 'flw1': 0.35, 'flw0': 4.33, 'time': 38.26, 'compass': 172.61, 'pitch': 10.66, 'roll': 1.04}
{'lipoC2': 0.05, 'temp': 0.0, 'lipoC3S3': 11.92, 'state': 'normal', 'rot1': 688, 'rot0': 558, 'rot3': 0, 'rot2': 0, 'depth': -1.895, 'yaw': 150.45, 'datetime': '2018-12-18 21:06:52.942426', 'mgs': 0, 'flw2': 12.49, 'flw1': 0.0, 'flw0': 3.99, 'time': 38.47, 'compass': 177.65, 'pitch': 11.46, 'roll': 2.11}
{'lipoC2': 0.0, 'temp': 0.0, 'lipoC3S3': 12.05, 'state': 'normal', 'rot1': 692, 'rot0': 562, 'rot3': 0, 'rot2': 0, 'depth': 1.538, 'yaw': 155.64, 'datetime': '2018-12-18 21:06:53.150071', 'mgs': 0, 'flw2': 12.49, 'flw1': 0.0, 'flw0': 4.41, 'time': 38.68, 'compass': -177.16, 'pitch': 12.27, 'roll': 3.28}
{'lipoC2': 0.0, 'temp': 0.0, 'lipoC3S3': 11.85, 'state': 'normal', 'rot1': 695, 'rot0': 568, 'rot3': 1, 'rot2': 1, 'depth': 1.08, 'yaw': 160.68, 'datetime': '2018-12-18 21:06:53.357439', 'mgs': 0, 'flw2': 12.49, 'flw1': 0.47, 'flw0': 4.5, 'time': 38.88, 'compass': -172.13, 'pitch': 12.98, 'roll': 4.52}
{'lipoC2': 0.13, 'temp': 0.0, 'lipoC3S3': 11.87, 'state': 'normal', 'rot1': 698, 'rot0': 572, 'rot3': 1, 'rot2': 1, 'depth': -1.208, 'yaw': 166.01, 'datetime': '2018-12-18 21:06:53.566065', 'mgs': 0, 'flw2': 12.49, 'flw1': 0.0, 'flw0': 4.28, 'time': 39.09, 'compass': -166.79, 'pitch': 13.46, 'roll': 5.68}
{'lipoC2': 0.0, 'temp': 0.0, 'lipoC3S3': 12.04, 'state': 'normal', 'rot1': 702, 'rot0': 577, 'rot3': 1, 'rot2': 1, 'depth': 1.233, 'yaw': 171.48, 'datetime': '2018-12-18 21:06:53.775025', 'mgs': 0, 'flw2': 12.49, 'flw1': 0.0, 'flw0': 9.25, 'time': 39.3, 'compass': -161.33, 'pitch': 13.97, 'roll': 6.26}
{'lipoC2': 0.12, 'temp': 0.0, 'lipoC3S3': 11.71, 'state': 'normal', 'rot1': 708, 'rot0': 582, 'rot3': 1, 'rot2': 1, 'depth': 0.775, 'yaw': 175.68, 'datetime': '2018-12-18 21:06:53.987305', 'mgs': 0, 'flw2': 12.49, 'flw1': 0.26, 'flw0': 8.76, 'time': 39.51, 'compass': -157.13, 'pitch': 15.04, 'roll': 6.53}
{'lipoC2': 0.09, 'temp': 0.0, 'lipoC3S3': 11.88, 'state': 'normal', 'rot1': 713, 'rot0': 587, 'rot3': 1, 'rot2': 1, 'depth': -1.743, 'yaw': 178.54, 'datetime': '2018-12-18 21:06:54.197823', 'mgs': 0, 'flw2': 12.49, 'flw1': 0.0, 'flw0': 8.64, 'time': 39.72, 'compass': -154.27, 'pitch': 15.79, 'roll': 6.93}
{'lipoC2': 0.01, 'temp': 0.0, 'lipoC3S3': 11.67, 'state': 'normal', 'rot1': 717, 'rot0': 592, 'rot3': 1, 'rot2': 1, 'depth': -0.064, 'yaw': -179.3, 'datetime': '2018-12-18 21:06:54.406123', 'mgs': 0, 'flw2': 12.49, 'flw1': 0.03, 'flw0': 8.53, 'time': 39.93, 'compass': -152.1, 'pitch': 15.34, 'roll': 7.39}
{'lipoC2': 0.14, 'temp': 0.0, 'lipoC3S3': 11.73, 'state': 'normal', 'rot1': 723, 'rot0': 597, 'rot3': 1, 'rot2': 1, 'depth': 0.47, 'yaw': -177.63, 'datetime': '2018-12-18 21:06:54.615422', 'mgs': 0, 'flw2': 12.49, 'flw1': 0.44, 'flw0': 8.61, 'time': 40.14, 'compass': -150.43, 'pitch': 14.29, 'roll': 7.51}
{'lipoC2': 0.0, 'temp': 0.0, 'lipoC3S3': 11.88, 'state': 'normal', 'rot1': 728, 'rot0': 602, 'rot3': 1, 'rot2': 1, 'depth': 0.317, 'yaw': -176.19, 'datetime': '2018-12-18 21:06:54.825425', 'mgs': 0, 'flw2': 12.49, 'flw1': 0.41, 'flw0': 8.57, 'time': 40.35, 'compass': -149.0, 'pitch': 13.15, 'roll': 7.63}
{'lipoC2': 0.0, 'temp': 0.0, 'lipoC3S3': 11.88, 'state': 'normal', 'rot1': 734, 'rot0': 607, 'rot3': 1, 'rot2': 1, 'depth': 0.241, 'yaw': -174.57, 'datetime': '2018-12-18 21:06:55.038086', 'mgs': 0, 'flw2': 12.49, 'flw1': 0.0, 'flw0': 7.97, 'time': 40.56, 'compass': -147.38, 'pitch': 12.53, 'roll': 7.59}
{'lipoC2': 0.06, 'temp': 0.0, 'lipoC3S3': 11.9, 'state': 'normal', 'rot1': 739, 'rot0': 612, 'rot3': 1, 'rot2': 1, 'depth': -2.048, 'yaw': -171.99, 'datetime': '2018-12-18 21:06:55.246047', 'mgs': 0, 'flw2': 12.49, 'flw1': 0.0, 'flw0': 10.14, 'time': 40.77, 'compass': -144.8, 'pitch': 11.92, 'roll': 7.24}
{'lipoC2': 0.11, 'temp': 0.0, 'lipoC3S3': 11.88, 'state': 'normal', 'rot1': 748, 'rot0': 616, 'rot3': 1, 'rot2': 1, 'depth': -1.514, 'yaw': -169.45, 'datetime': '2018-12-18 21:06:55.456420', 'mgs': 0, 'flw2': 10.82, 'flw1': 0.21, 'flw0': 12.49, 'time': 40.98, 'compass': -142.26, 'pitch': 11.59, 'roll': 6.74}
{'lipoC2': 0.0, 'temp': 0.0, 'lipoC3S3': 11.77, 'state': 'normal', 'rot1': 757, 'rot0': 621, 'rot3': 1, 'rot2': 1, 'depth': -0.98, 'yaw': -167.91, 'datetime': '2018-12-18 21:06:55.666880', 'mgs': 0, 'flw2': 12.49, 'flw1': 0.0, 'flw0': 12.49, 'time': 41.19, 'compass': -140.72, 'pitch': 11.47, 'roll': 6.11}
{'lipoC2': 0.12, 'temp': 0.0, 'lipoC3S3': 11.71, 'state': 'normal', 'rot1': 767, 'rot0': 625, 'rot3': 1, 'rot2': 1, 'depth': 0.317, 'yaw': -166.51, 'datetime': '2018-12-18 21:06:55.877215', 'mgs': 0, 'flw2': 12.49, 'flw1': 0.47, 'flw0': 12.49, 'time': 41.4, 'compass': -139.31, 'pitch': 11.56, 'roll': 5.51}
{'lipoC2': 0.0, 'temp': 0.0, 'lipoC3S3': 12.0, 'state': 'normal', 'rot1': 779, 'rot0': 630, 'rot3': 1, 'rot2': 1, 'depth': 1.385, 'yaw': -165.21, 'datetime': '2018-12-18 21:06:56.086535', 'mgs': 0, 'flw2': 12.49, 'flw1': 0.03, 'flw0': 12.49, 'time': 41.61, 'compass': -138.02, 'pitch': 12.17, 'roll': 5.06}
{'lipoC2': 0.0, 'temp': 0.0, 'lipoC3S3': 12.04, 'state': 'normal', 'rot1': 789, 'rot0': 636, 'rot3': 1, 'rot2': 1, 'depth': -0.293, 'yaw': -163.67, 'datetime': '2018-12-18 21:06:56.296595', 'mgs': 0, 'flw2': 12.49, 'flw1': 0.0, 'flw0': 12.49, 'time': 41.82, 'compass': -136.48, 'pitch': 12.45, 'roll': 4.59}
{'lipoC2': 0.0, 'temp': 0.0, 'lipoC3S3': 12.06, 'state': 'normal', 'rot1': 803, 'rot0': 640, 'rot3': 1, 'rot2': 1, 'depth': 1.538, 'yaw': -162.83, 'datetime': '2018-12-18 21:06:56.505833', 'mgs': 0, 'flw2': 10.02, 'flw1': 0.0, 'flw0': 12.49, 'time': 42.03, 'compass': -135.64, 'pitch': 12.19, 'roll': 4.09}
{'lipoC2': 0.06, 'temp': 0.0, 'lipoC3S3': 11.65, 'state': 'normal', 'rot1': 815, 'rot0': 644, 'rot3': 1, 'rot2': 1, 'depth': 1.157, 'yaw': -163.17, 'datetime': '2018-12-18 21:06:56.715548', 'mgs': 0, 'flw2': 6.73, 'flw1': 0.09, 'flw0': 12.49, 'time': 42.24, 'compass': -135.98, 'pitch': 11.12, 'roll': 3.13}
{'lipoC2': 0.05, 'temp': 0.0, 'lipoC3S3': 11.89, 'state': 'normal', 'rot1': 827, 'rot0': 647, 'rot3': 1, 'rot2': 1, 'depth': -1.895, 'yaw': -164.76, 'datetime': '2018-12-18 21:06:56.926791', 'mgs': 0, 'flw2': 5.27, 'flw1': 0.26, 'flw0': 12.49, 'time': 42.45, 'compass': -137.57, 'pitch': 9.6, 'roll': 2.18}
