{'lipoC2': 0.0, 'temp': 0.0, 'lipoC3S3': 12.35, 'state': 'normal', 'rot1': 0, 'rot0': 0, 'rot3': 0, 'rot2': 0, 'depth': 0.623, 'yaw': 0.0, 'datetime': '2018-12-18 17:48:55.851495', 'mgs': 0, 'flw2': 0.05, 'flw1': 0.0, 'flw0': 0.0, 'time': 1.25, 'compass': 33.51, 'pitch': 0.47, 'roll': 1.4}
{'lipoC2': 0.05, 'temp': 0.0, 'lipoC3S3': 12.17, 'state': 'normal', 'rot1': 0, 'rot0': 0, 'rot3': 0, 'rot2': 0, 'depth': 1.157, 'yaw': 0.31, 'datetime': '2018-12-18 17:48:56.058288', 'mgs': 0, 'flw2': 0.0, 'flw1': 0.12, 'flw0': 0.21, 'time': 1.46, 'compass': 33.82, 'pitch': 0.36, 'roll': 1.39}
{'lipoC2': 0.0, 'temp': 0.0, 'lipoC3S3': 12.56, 'state': 'normal', 'rot1': 0, 'rot0': 0, 'rot3': 0, 'rot2': 0, 'depth': -2.277, 'yaw': 0.59, 'datetime': '2018-12-18 17:48:56.264932', 'mgs': 0, 'flw2': 0.0, 'flw1': 0.0, 'flw0': 0.17, 'time': 1.67, 'compass': 34.1, 'pitch': 0.02, 'roll': 1.38}
{'lipoC2': 0.11, 'temp': 0.0, 'lipoC3S3': 12.37, 'state': 'normal', 'rot1': 0, 'rot0': 0, 'rot3': 0, 'rot2': 0, 'depth': -2.429, 'yaw': 0.9, 'datetime': '2018-12-18 17:48:56.472644', 'mgs': 0, 'flw2': 0.0, 'flw1': 0.0, 'flw0': 0.16, 'time': 1.88, 'compass': 34.41, 'pitch': -0.09, 'roll': 1.38}
{'lipoC2': 0.0, 'temp': 0.0, 'lipoC3S3': 12.58, 'state': 'normal', 'rot1': 0, 'rot0': 0, 'rot3': 0, 'rot2': 0, 'depth': 1.614, 'yaw': 1.18, 'datetime': '2018-12-18 17:48:56.683917', 'mgs': 0, 'flw2': 0.0, 'flw1': 0.0, 'flw0': 0.18, 'time': 2.08, 'compass': 34.69, 'pitch': 0.13, 'roll': 1.37}
{'lipoC2': 0.01, 'temp': 0.0, 'lipoC3S3': 12.21, 'state': 'normal', 'rot1': 0, 'rot0': 0, 'rot3': 0, 'rot2': 0, 'depth': 1.309, 'yaw': 1.47, 'datetime': '2018-12-18 17:48:56.890643', 'mgs': 0, 'flw2': 0.0, 'flw1': 0.0, 'flw0': 0.2, 'time': 2.29, 'compass': 34.98, 'pitch': 0.21, 'roll': 1.38}
{'lipoC2': 0.03, 'temp': 0.0, 'lipoC3S3': 12.21, 'state': 'normal', 'rot1': 0, 'rot0': 0, 'rot3': 0, 'rot2': 0, 'depth': -0.064, 'yaw': 1.75, 'datetime': '2018-12-18 17:48:57.099574', 'mgs': 0, 'flw2': 0.15, 'flw1': 0.0, 'flw0': 0.0, 'time': 2.5, 'compass': 35.26, 'pitch': 0.07, 'roll': 1.37}
{'lipoC2': 0.03, 'temp': 0.0, 'lipoC3S3': 12.17, 'state': 'normal', 'rot1': 0, 'rot0': 0, 'rot3': 0, 'rot2': 0, 'depth': -0.14, 'yaw': 2.01, 'datetime': '2018-12-18 17:48:57.312365', 'mgs': 0, 'flw2': 0.0, 'flw1': 0.0, 'flw0': 0.2, 'time': 2.71, 'compass': 35.52, 'pitch': 0.04, 'roll': 1.37}
{'lipoC2': 0.0, 'temp': 0.0, 'lipoC3S3': 12.22, 'state': 'normal', 'rot1': 0, 'rot0': 0, 'rot3': 0, 'rot2': 0, 'depth': 1.233, 'yaw': 2.27, 'datetime': '2018-12-18 17:48:57.516404', 'mgs': 0, 'flw2': 0.02, 'flw1': 0.41, 'flw0': 0.0, 'time': 2.92, 'compass': 35.78, 'pitch': 0.18, 'roll': 1.38}
{'lipoC2': 0.0, 'temp': 0.0, 'lipoC3S3': 12.29, 'state': 'normal', 'rot1': 0, 'rot0': 0, 'rot3': 0, 'rot2': 0, 'depth': -0.598, 'yaw': 2.54, 'datetime': '2018-12-18 17:48:57.728778', 'mgs': 0, 'flw2': 0.09, 'flw1': 0.0, 'flw0': 0.13, 'time': 3.13, 'compass': 36.05, 'pitch': 0.18, 'roll': 1.37}
{'lipoC2': 0.0, 'temp': 0.0, 'lipoC3S3': 12.25, 'state': 'normal', 'rot1': 0, 'rot0': 0, 'rot3': 0, 'rot2': 0, 'depth': 1.233, 'yaw': 2.78, 'datetime': '2018-12-18 17:48:57.938779', 'mgs': 0, 'flw2': 0.0, 'flw1': 0.38, 'flw0': 0.0, 'time': 3.33, 'compass': 36.29, 'pitch': 0.19, 'roll': 1.37}
{'lipoC2': 0.0, 'temp': 0.0, 'lipoC3S3': 12.56, 'state': 'normal', 'rot1': 0, 'rot0': 0, 'rot3': 0, 'rot2': 0, 'depth': 1.385, 'yaw': 3.04, 'datetime': '2018-12-18 17:48:58.149052', 'mgs': 0, 'flw2': 0.0, 'flw1': 0.47, 'flw0': 0.0, 'time': 3.54, 'compass': 36.55, 'pitch': 0.2, 'roll': 1.37}
{'lipoC2': 0.15, 'temp': 0.0, 'lipoC3S3': 12.27, 'state': 'normal', 'rot1': 0, 'rot0': 0, 'rot3': 0, 'rot2': 0, 'depth': -0.293, 'yaw': 3.35, 'datetime': '2018-12-18 17:48:58.454344', 'mgs': 0, 'flw2': 0.09, 'flw1': 0.0, 'flw0': 0.12, 'time': 3.85, 'compass': 36.86, 'pitch': 0.26, 'roll': 1.37}
{'lipoC2': 0.0, 'temp': 0.0, 'lipoC3S3': 12.25, 'state': 'normal', 'rot1': 0, 'rot0': 0, 'rot3': 0, 'rot2': 0, 'depth': -1.056, 'yaw': 3.54, 'datetime': '2018-12-18 17:48:58.663249', 'mgs': 0, 'flw2': 0.0, 'flw1': 0.41, 'flw0': 0.0, 'time': 4.06, 'compass': 37.05, 'pitch': 0.21, 'roll': 1.37}
{'lipoC2': 0.13, 'temp': 0.0, 'lipoC3S3': 12.38, 'state': 'normal', 'rot1': 0, 'rot0': 0, 'rot3': 0, 'rot2': 0, 'depth': 1.233, 'yaw': 3.69, 'datetime': '2018-12-18 17:48:58.976742', 'mgs': 0, 'flw2': 0.13, 'flw1': 0.0, 'flw0': 0.07, 'time': 4.37, 'compass': 37.2, 'pitch': 0.27, 'roll': 1.34}
{'lipoC2': 0.09, 'temp': 0.0, 'lipoC3S3': 12.17, 'state': 'normal', 'rot1': 0, 'rot0': 0, 'rot3': 0, 'rot2': 0, 'depth': 0.165, 'yaw': 3.75, 'datetime': '2018-12-18 17:48:59.183228', 'mgs': 0, 'flw2': 0.01, 'flw1': 0.0, 'flw0': 0.18, 'time': 4.58, 'compass': 37.26, 'pitch': 0.27, 'roll': 1.32}
{'lipoC2': 0.0, 'temp': 0.0, 'lipoC3S3': 12.56, 'state': 'normal', 'rot1': 0, 'rot0': 0, 'rot3': 0, 'rot2': 0, 'depth': 1.462, 'yaw': 3.78, 'datetime': '2018-12-18 17:48:59.389003', 'mgs': 0, 'flw2': 0.0, 'flw1': 0.41, 'flw0': 0.0, 'time': 4.79, 'compass': 37.29, 'pitch': 0.09, 'roll': 1.37}
{'lipoC2': 0.13, 'temp': 0.0, 'lipoC3S3': 12.25, 'state': 'normal', 'rot1': 0, 'rot0': 0, 'rot3': 0, 'rot2': 0, 'depth': 0.47, 'yaw': 3.78, 'datetime': '2018-12-18 17:48:59.597425', 'mgs': 0, 'flw2': 0.0, 'flw1': 0.44, 'flw0': 0.0, 'time': 5.0, 'compass': 37.29, 'pitch': 0.03, 'roll': 1.48}
{'lipoC2': 0.09, 'temp': 0.0, 'lipoC3S3': 12.56, 'state': 'normal', 'rot1': 0, 'rot0': 0, 'rot3': 0, 'rot2': 0, 'depth': 1.08, 'yaw': 3.78, 'datetime': '2018-12-18 17:48:59.808365', 'mgs': 0, 'flw2': 0.01, 'flw1': 0.0, 'flw0': 0.18, 'time': 5.2, 'compass': 37.29, 'pitch': 0.26, 'roll': 1.48}
{'lipoC2': 0.04, 'temp': 0.0, 'lipoC3S3': 12.46, 'state': 'normal', 'rot1': 0, 'rot0': 0, 'rot3': 0, 'rot2': 0, 'depth': -1.971, 'yaw': 3.78, 'datetime': '2018-12-18 17:49:00.013092', 'mgs': 0, 'flw2': 0.0, 'flw1': 0.26, 'flw0': 0.1, 'time': 5.41, 'compass': 37.29, 'pitch': 0.41, 'roll': 1.49}
{'lipoC2': 0.0, 'temp': 0.0, 'lipoC3S3': 12.41, 'state': 'normal', 'rot1': 0, 'rot0': 0, 'rot3': 0, 'rot2': 0, 'depth': -0.369, 'yaw': 3.78, 'datetime': '2018-12-18 17:49:00.222551', 'mgs': 0, 'flw2': 0.11, 'flw1': 0.32, 'flw0': 0.0, 'time': 5.62, 'compass': 37.29, 'pitch': 0.24, 'roll': 1.48}
{'lipoC2': 0.11, 'temp': 0.0, 'lipoC3S3': 12.18, 'state': 'normal', 'rot1': 0, 'rot0': 0, 'rot3': 0, 'rot2': 0, 'depth': 0.241, 'yaw': 3.78, 'datetime': '2018-12-18 17:49:00.433216', 'mgs': 0, 'flw2': 0.02, 'flw1': 0.0, 'flw0': 0.17, 'time': 5.83, 'compass': 37.29, 'pitch': 0.12, 'roll': 1.49}
{'lipoC2': 0.01, 'temp': 0.0, 'lipoC3S3': 12.47, 'state': 'normal', 'rot1': 0, 'rot0': 0, 'rot3': 0, 'rot2': 0, 'depth': -1.514, 'yaw': 3.78, 'datetime': '2018-12-18 17:49:00.641054', 'mgs': 0, 'flw2': 0.0, 'flw1': 0.21, 'flw0': 0.15, 'time': 6.04, 'compass': 37.29, 'pitch': 0.24, 'roll': 1.48}
{'lipoC2': 0.09, 'temp': 0.0, 'lipoC3S3': 12.42, 'state': 'normal', 'rot1': 0, 'rot0': 0, 'rot3': 0, 'rot2': 0, 'depth': -1.971, 'yaw': 3.78, 'datetime': '2018-12-18 17:49:00.847214', 'mgs': 0, 'flw2': 0.0, 'flw1': 0.47, 'flw0': 0.01, 'time': 6.24, 'compass': 37.29, 'pitch': 0.41, 'roll': 1.49}
{'lipoC2': 0.08, 'temp': 0.0, 'lipoC3S3': 12.16, 'state': 'normal', 'rot1': 0, 'rot0': 0, 'rot3': 0, 'rot2': 0, 'depth': 0.165, 'yaw': 3.78, 'datetime': '2018-12-18 17:49:01.055783', 'mgs': 0, 'flw2': 0.18, 'flw1': 0.0, 'flw0': 0.0, 'time': 6.45, 'compass': 37.29, 'pitch': 0.41, 'roll': 1.49}
{'lipoC2': 0.05, 'temp': 0.0, 'lipoC3S3': 12.16, 'state': 'normal', 'rot1': 0, 'rot0': 0, 'rot3': 0, 'rot2': 0, 'depth': 0.165, 'yaw': 3.78, 'datetime': '2018-12-18 17:49:01.263739', 'mgs': 0, 'flw2': 0.15, 'flw1': 0.09, 'flw0': 0.0, 'time': 6.66, 'compass': 37.29, 'pitch': 0.34, 'roll': 1.49}
{'lipoC2': 0.09, 'temp': 0.0, 'lipoC3S3': 12.16, 'state': 'normal', 'rot1': 0, 'rot0': 0, 'rot3': 0, 'rot2': 0, 'depth': 0.165, 'yaw': 3.78, 'datetime': '2018-12-18 17:49:01.471719', 'mgs': 0, 'flw2': 0.0, 'flw1': 0.0, 'flw0': 0.2, 'time': 6.87, 'compass': 37.29, 'pitch': 0.34, 'roll': 1.49}
{'lipoC2': 0.14, 'temp': 0.0, 'lipoC3S3': 12.3, 'state': 'normal', 'rot1': 0, 'rot0': 0, 'rot3': 0, 'rot2': 0, 'depth': 0.851, 'yaw': 3.78, 'datetime': '2018-12-18 17:49:01.680204', 'mgs': 0, 'flw2': 0.07, 'flw1': 0.0, 'flw0': 0.12, 'time': 7.07, 'compass': 37.29, 'pitch': 0.43, 'roll': 1.49}
{'lipoC2': 0.14, 'temp': 0.0, 'lipoC3S3': 12.29, 'state': 'normal', 'rot1': 0, 'rot0': 0, 'rot3': 0, 'rot2': 0, 'depth': -0.522, 'yaw': 3.78, 'datetime': '2018-12-18 17:49:01.889348', 'mgs': 0, 'flw2': 0.0, 'flw1': 0.38, 'flw0': 0.0, 'time': 7.28, 'compass': 37.29, 'pitch': 0.44, 'roll': 1.48}
{'lipoC2': 0.08, 'temp': 0.0, 'lipoC3S3': 12.42, 'state': 'normal', 'rot1': 0, 'rot0': 0, 'rot3': 0, 'rot2': 0, 'depth': -2.124, 'yaw': 3.78, 'datetime': '2018-12-18 17:49:02.096388', 'mgs': 0, 'flw2': 0.17, 'flw1': 0.0, 'flw0': 0.0, 'time': 7.49, 'compass': 37.29, 'pitch': 0.35, 'roll': 1.48}
{'lipoC2': 0.11, 'temp': 0.0, 'lipoC3S3': 12.17, 'state': 'normal', 'rot1': 0, 'rot0': 0, 'rot3': 0, 'rot2': 0, 'depth': 0.317, 'yaw': 3.79, 'datetime': '2018-12-18 17:49:02.305800', 'mgs': 0, 'flw2': 0.01, 'flw1': 0.0, 'flw0': 0.17, 'time': 7.7, 'compass': 37.29, 'pitch': 0.09, 'roll': 1.5}
{'lipoC2': 0.0, 'temp': 0.0, 'lipoC3S3': 12.52, 'state': 'normal', 'rot1': 0, 'rot0': 0, 'rot3': 0, 'rot2': 0, 'depth': 1.004, 'yaw': 3.78, 'datetime': '2018-12-18 17:49:02.512466', 'mgs': 0, 'flw2': 0.0, 'flw1': 0.0, 'flw0': 0.21, 'time': 7.91, 'compass': 37.29, 'pitch': 0.01, 'roll': 1.5}
{'lipoC2': 0.09, 'temp': 0.0, 'lipoC3S3': 12.16, 'state': 'normal', 'rot1': 0, 'rot0': 0, 'rot3': 0, 'rot2': 0, 'depth': 1.004, 'yaw': 3.78, 'datetime': '2018-12-18 17:49:02.720921', 'mgs': 0, 'flw2': 0.0, 'flw1': 0.0, 'flw0': 0.18, 'time': 8.11, 'compass': 37.29, 'pitch': 0.18, 'roll': 1.5}
{'lipoC2': 0.08, 'temp': 0.0, 'lipoC3S3': 12.17, 'state': 'normal', 'rot1': 0, 'rot0': 0, 'rot3': 0, 'rot2': 0, 'depth': 1.08, 'yaw': 3.78, 'datetime': '2018-12-18 17:49:02.929358', 'mgs': 0, 'flw2': 0.0, 'flw1': 0.0, 'flw0': 0.17, 'time': 8.32, 'compass': 37.29, 'pitch': 0.29, 'roll': 1.5}
{'lipoC2': 0.09, 'temp': 0.0, 'lipoC3S3': 12.17, 'state': 'normal', 'rot1': 0, 'rot0': 0, 'rot3': 0, 'rot2': 0, 'depth': 0.241, 'yaw': 3.78, 'datetime': '2018-12-18 17:49:03.138282', 'mgs': 0, 'flw2': 0.0, 'flw1': 0.0, 'flw0': 0.18, 'time': 8.53, 'compass': 37.29, 'pitch': 0.18, 'roll': 1.5}
{'lipoC2': 0.0, 'temp': 0.0, 'lipoC3S3': 12.43, 'state': 'normal', 'rot1': 0, 'rot0': 0, 'rot3': 0, 'rot2': 0, 'depth': -0.369, 'yaw': 3.78, 'datetime': '2018-12-18 17:49:03.345235', 'mgs': 0, 'flw2': 0.0, 'flw1': 0.29, 'flw0': 0.09, 'time': 8.74, 'compass': 37.29, 'pitch': -0.04, 'roll': 1.5}
{'lipoC2': 0.0, 'temp': 0.0, 'lipoC3S3': 12.38, 'state': 'normal', 'rot1': 0, 'rot0': 0, 'rot3': 0, 'rot2': 0, 'depth': 0.394, 'yaw': 3.78, 'datetime': '2018-12-18 17:49:03.554537', 'mgs': 0, 'flw2': 0.0, 'flw1': 0.41, 'flw0': 0.0, 'time': 8.95, 'compass': 37.29, 'pitch': -0.09, 'roll': 1.5}
{'lipoC2': 0.0, 'temp': 0.0, 'lipoC3S3': 12.42, 'state': 'normal', 'rot1': 0, 'rot0': 0, 'rot3': 0, 'rot2': 0, 'depth': -0.369, 'yaw': 3.78, 'datetime': '2018-12-18 17:49:03.762797', 'mgs': 0, 'flw2': 0.0, 'flw1': 0.29, 'flw0': 0.07, 'time': 9.15, 'compass': 37.29, 'pitch': 0.01, 'roll': 1.5}
{'lipoC2': 0.0, 'temp': 0.0, 'lipoC3S3': 12.56, 'state': 'normal', 'rot1': 0, 'rot0': 0, 'rot3': 0, 'rot2': 0, 'depth': -0.827, 'yaw': 3.78, 'datetime': '2018-12-18 17:49:03.971180', 'mgs': 0, 'flw2': 0.0, 'flw1': 0.44, 'flw0': 0.0, 'time': 9.36, 'compass': 37.29, 'pitch': 0.19, 'roll': 1.5}
{'lipoC2': 0.06, 'temp': 0.0, 'lipoC3S3': 12.52, 'state': 'normal', 'rot1': 0, 'rot0': 0, 'rot3': 0, 'rot2': 0, 'depth': 1.004, 'yaw': 3.78, 'datetime': '2018-12-18 17:49:04.182443', 'mgs': 0, 'flw2': 0.12, 'flw1': 0.21, 'flw0': 0.0, 'time': 9.57, 'compass': 37.29, 'pitch': 0.14, 'roll': 1.5}
{'lipoC2': 0.12, 'temp': 0.0, 'lipoC3S3': 12.22, 'state': 'normal', 'rot1': 0, 'rot0': 0, 'rot3': 0, 'rot2': 0, 'depth': 0.394, 'yaw': 3.78, 'datetime': '2018-12-18 17:49:04.389531', 'mgs': 0, 'flw2': 0.0, 'flw1': 0.35, 'flw0': 0.0, 'time': 9.78, 'compass': 37.29, 'pitch': -0.13, 'roll': 1.51}
{'lipoC2': 0.14, 'temp': 0.0, 'lipoC3S3': 12.34, 'state': 'normal', 'rot1': 0, 'rot0': 0, 'rot3': 0, 'rot2': 0, 'depth': -0.522, 'yaw': 3.78, 'datetime': '2018-12-18 17:49:04.597411', 'mgs': 0, 'flw2': 0.0, 'flw1': 0.38, 'flw0': 0.0, 'time': 9.99, 'compass': 37.29, 'pitch': -0.26, 'roll': 1.48}
{'lipoC2': 0.1, 'temp': 0.0, 'lipoC3S3': 12.41, 'state': 'normal', 'rot1': 0, 'rot0': 0, 'rot3': 0, 'rot2': 0, 'depth': -2.2, 'yaw': 3.78, 'datetime': '2018-12-18 17:49:04.805716', 'mgs': 0, 'flw2': 0.0, 'flw1': 0.35, 'flw0': 0.05, 'time': 10.19, 'compass': 37.29, 'pitch': -0.19, 'roll': 1.47}
{'lipoC2': 0.13, 'temp': 0.0, 'lipoC3S3': 12.23, 'state': 'normal', 'rot1': 0, 'rot0': 0, 'rot3': 0, 'rot2': 0, 'depth': 0.47, 'yaw': 3.78, 'datetime': '2018-12-18 17:49:05.015123', 'mgs': 0, 'flw2': 0.0, 'flw1': 0.47, 'flw0': 0.0, 'time': 10.4, 'compass': 37.29, 'pitch': -0.06, 'roll': 1.48}
{'lipoC2': 0.13, 'temp': 0.0, 'lipoC3S3': 12.37, 'state': 'normal', 'rot1': 0, 'rot0': 0, 'rot3': 0, 'rot2': 0, 'depth': 1.233, 'yaw': 3.78, 'datetime': '2018-12-18 17:49:05.221193', 'mgs': 0, 'flw2': 0.16, 'flw1': 0.0, 'flw0': 0.06, 'time': 10.61, 'compass': 37.29, 'pitch': -0.07, 'roll': 1.5}
{'lipoC2': 0.08, 'temp': 0.0, 'lipoC3S3': 12.14, 'state': 'normal', 'rot1': 0, 'rot0': 0, 'rot3': 0, 'rot2': 0, 'depth': 0.165, 'yaw': 3.78, 'datetime': '2018-12-18 17:49:05.429747', 'mgs': 0, 'flw2': 0.0, 'flw1': 0.0, 'flw0': 0.21, 'time': 10.82, 'compass': 37.29, 'pitch': -0.26, 'roll': 1.51}
{'lipoC2': 0.04, 'temp': 0.0, 'lipoC3S3': 12.17, 'state': 'normal', 'rot1': 0, 'rot0': 0, 'rot3': 0, 'rot2': 0, 'depth': 1.157, 'yaw': 3.78, 'datetime': '2018-12-18 17:49:05.641802', 'mgs': 0, 'flw2': 0.0, 'flw1': 0.0, 'flw0': 0.18, 'time': 11.03, 'compass': 37.29, 'pitch': -0.39, 'roll': 1.52}
{'lipoC2': 0.03, 'temp': 0.0, 'lipoC3S3': 12.17, 'state': 'normal', 'rot1': 0, 'rot0': 0, 'rot3': 0, 'rot2': 0, 'depth': 0.012, 'yaw': 3.78, 'datetime': '2018-12-18 17:49:05.844638', 'mgs': 0, 'flw2': 0.0, 'flw1': 0.0, 'flw0': 0.2, 'time': 11.23, 'compass': 37.29, 'pitch': -0.39, 'roll': 1.52}
{'lipoC2': 0.0, 'temp': 0.0, 'lipoC3S3': 12.41, 'state': 'normal', 'rot1': 0, 'rot0': 0, 'rot3': 0, 'rot2': 0, 'depth': 0.165, 'yaw': 3.78, 'datetime': '2018-12-18 17:49:06.052633', 'mgs': 0, 'flw2': 0.0, 'flw1': 0.32, 'flw0': 0.0, 'time': 11.44, 'compass': 37.29, 'pitch': -0.32, 'roll': 1.52}
{'lipoC2': 0.0, 'temp': 0.0, 'lipoC3S3': 12.26, 'state': 'normal', 'rot1': 0, 'rot0': 0, 'rot3': 0, 'rot2': 0, 'depth': -1.056, 'yaw': 3.78, 'datetime': '2018-12-18 17:49:06.261982', 'mgs': 0, 'flw2': 0.0, 'flw1': 0.35, 'flw0': 0.0, 'time': 11.65, 'compass': 37.29, 'pitch': -0.24, 'roll': 1.49}
{'lipoC2': 0.08, 'temp': 0.0, 'lipoC3S3': 12.16, 'state': 'normal', 'rot1': 0, 'rot0': 0, 'rot3': 0, 'rot2': 0, 'depth': 1.08, 'yaw': 3.78, 'datetime': '2018-12-18 17:49:06.468665', 'mgs': 0, 'flw2': 0.04, 'flw1': 0.0, 'flw0': 0.18, 'time': 11.86, 'compass': 37.29, 'pitch': -0.32, 'roll': 1.49}
{'lipoC2': 0.0, 'temp': 0.0, 'lipoC3S3': 12.56, 'state': 'normal', 'rot1': 0, 'rot0': 0, 'rot3': 0, 'rot2': 0, 'depth': 1.614, 'yaw': 3.78, 'datetime': '2018-12-18 17:49:06.678054', 'mgs': 0, 'flw2': 0.02, 'flw1': 0.0, 'flw0': 0.16, 'time': 12.07, 'compass': 37.29, 'pitch': -0.49, 'roll': 1.49}
{'lipoC2': 0.0, 'temp': 0.0, 'lipoC3S3': 12.56, 'state': 'normal', 'rot1': 0, 'rot0': 0, 'rot3': 0, 'rot2': 0, 'depth': 1.462, 'yaw': 3.78, 'datetime': '2018-12-18 17:49:06.885877', 'mgs': 0, 'flw2': 0.0, 'flw1': 0.41, 'flw0': 0.0, 'time': 12.27, 'compass': 37.29, 'pitch': -0.49, 'roll': 1.49}
{'lipoC2': 0.11, 'temp': 0.0, 'lipoC3S3': 12.39, 'state': 'normal', 'rot1': 0, 'rot0': 0, 'rot3': 0, 'rot2': 0, 'depth': -1.895, 'yaw': 3.78, 'datetime': '2018-12-18 17:49:07.094397', 'mgs': 0, 'flw2': 0.2, 'flw1': 0.0, 'flw0': 0.0, 'time': 12.48, 'compass': 37.29, 'pitch': -0.4, 'roll': 1.49}
{'lipoC2': 0.0, 'temp': 0.0, 'lipoC3S3': 12.27, 'state': 'normal', 'rot1': 0, 'rot0': 0, 'rot3': 0, 'rot2': 0, 'depth': -0.598, 'yaw': 3.78, 'datetime': '2018-12-18 17:49:07.301440', 'mgs': 0, 'flw2': 0.0, 'flw1': 0.35, 'flw0': 0.0, 'time': 12.69, 'compass': 37.29, 'pitch': -0.44, 'roll': 1.49}
{'lipoC2': 0.0, 'temp': 0.0, 'lipoC3S3': 12.43, 'state': 'normal', 'rot1': 0, 'rot0': 0, 'rot3': 0, 'rot2': 0, 'depth': -0.369, 'yaw': 3.78, 'datetime': '2018-12-18 17:49:07.510532', 'mgs': 0, 'flw2': 0.0, 'flw1': 0.29, 'flw0': 0.09, 'time': 12.9, 'compass': 37.29, 'pitch': -0.58, 'roll': 1.49}
{'lipoC2': 0.03, 'temp': 0.0, 'lipoC3S3': 12.18, 'state': 'normal', 'rot1': 0, 'rot0': 0, 'rot3': 0, 'rot2': 0, 'depth': -0.064, 'yaw': 3.78, 'datetime': '2018-12-18 17:49:07.717885', 'mgs': 0, 'flw2': 0.0, 'flw1': 0.0, 'flw0': 0.2, 'time': 13.1, 'compass': 37.29, 'pitch': -0.5, 'roll': 1.48}
{'lipoC2': 0.11, 'temp': 0.0, 'lipoC3S3': 12.51, 'state': 'normal', 'rot1': 0, 'rot0': 0, 'rot3': 0, 'rot2': 0, 'depth': -1.666, 'yaw': 3.78, 'datetime': '2018-12-18 17:49:07.927239', 'mgs': 0, 'flw2': 0.0, 'flw1': 0.29, 'flw0': 0.0, 'time': 13.31, 'compass': 37.29, 'pitch': -0.35, 'roll': 1.48}
{'lipoC2': 0.09, 'temp': 0.0, 'lipoC3S3': 12.16, 'state': 'normal', 'rot1': 0, 'rot0': 0, 'rot3': 0, 'rot2': 0, 'depth': 0.165, 'yaw': 3.78, 'datetime': '2018-12-18 17:49:08.135132', 'mgs': 0, 'flw2': 0.01, 'flw1': 0.0, 'flw0': 0.18, 'time': 13.52, 'compass': 37.29, 'pitch': -0.46, 'roll': 1.48}
{'lipoC2': 0.14, 'temp': 0.0, 'lipoC3S3': 12.33, 'state': 'normal', 'rot1': 0, 'rot0': 0, 'rot3': 0, 'rot2': 0, 'depth': -0.522, 'yaw': 3.78, 'datetime': '2018-12-18 17:49:08.343318', 'mgs': 0, 'flw2': 0.0, 'flw1': 0.41, 'flw0': 0.0, 'time': 13.73, 'compass': 37.29, 'pitch': -0.76, 'roll': 1.48}
{'lipoC2': 0.1, 'temp': 0.0, 'lipoC3S3': 12.38, 'state': 'normal', 'rot1': 0, 'rot0': 0, 'rot3': 0, 'rot2': 0, 'depth': -1.819, 'yaw': 3.78, 'datetime': '2018-12-18 17:49:08.551648', 'mgs': 0, 'flw2': 0.16, 'flw1': 0.0, 'flw0': 0.0, 'time': 13.94, 'compass': 37.29, 'pitch': -0.76, 'roll': 1.52}
{'lipoC2': 0.02, 'temp': 0.0, 'lipoC3S3': 12.19, 'state': 'normal', 'rot1': 0, 'rot0': 0, 'rot3': 0, 'rot2': 0, 'depth': 1.309, 'yaw': 3.78, 'datetime': '2018-12-18 17:49:08.759395', 'mgs': 0, 'flw2': 0.13, 'flw1': 0.21, 'flw0': 0.0, 'time': 14.14, 'compass': 37.29, 'pitch': -0.4, 'roll': 1.52}
{'lipoC2': 0.0, 'temp': 0.0, 'lipoC3S3': 12.52, 'state': 'normal', 'rot1': 0, 'rot0': 0, 'rot3': 0, 'rot2': 0, 'depth': 1.309, 'yaw': 3.78, 'datetime': '2018-12-18 17:49:08.966861', 'mgs': 0, 'flw2': 0.0, 'flw1': 0.12, 'flw0': 0.2, 'time': 14.35, 'compass': 37.29, 'pitch': -0.21, 'roll': 1.52}
{'lipoC2': 0.13, 'temp': 0.0, 'lipoC3S3': 12.37, 'state': 'normal', 'rot1': 0, 'rot0': 0, 'rot3': 0, 'rot2': 0, 'depth': -1.59, 'yaw': 3.78, 'datetime': '2018-12-18 17:49:09.187891', 'mgs': 0, 'flw2': 0.16, 'flw1': 0.0, 'flw0': 0.05, 'time': 14.56, 'compass': 37.29, 'pitch': -0.54, 'roll': 1.52}
{'lipoC2': 0.12, 'temp': 0.0, 'lipoC3S3': 12.39, 'state': 'normal', 'rot1': 0, 'rot0': 0, 'rot3': 0, 'rot2': 0, 'depth': -1.285, 'yaw': 3.78, 'datetime': '2018-12-18 17:49:09.390844', 'mgs': 0, 'flw2': 0.17, 'flw1': 0.0, 'flw0': 0.0, 'time': 14.77, 'compass': 37.29, 'pitch': -0.95, 'roll': 1.51}
{'lipoC2': 0.04, 'temp': 0.0, 'lipoC3S3': 12.18, 'state': 'normal', 'rot1': 0, 'rot0': 0, 'rot3': 0, 'rot2': 0, 'depth': 1.233, 'yaw': 3.78, 'datetime': '2018-12-18 17:49:09.595949', 'mgs': 0, 'flw2': 0.0, 'flw1': 0.0, 'flw0': 0.2, 'time': 14.98, 'compass': 37.29, 'pitch': -0.86, 'roll': 1.49}
{'lipoC2': 0.0, 'temp': 0.0, 'lipoC3S3': 12.23, 'state': 'normal', 'rot1': 0, 'rot0': 0, 'rot3': 0, 'rot2': 0, 'depth': -1.285, 'yaw': 3.78, 'datetime': '2018-12-18 17:49:09.810950', 'mgs': 0, 'flw2': 0.0, 'flw1': 0.41, 'flw0': 0.0, 'time': 15.18, 'compass': 37.29, 'pitch': -0.48, 'roll': 1.49}
{'lipoC2': 0.13, 'temp': 0.0, 'lipoC3S3': 12.38, 'state': 'normal', 'rot1': 0, 'rot0': 0, 'rot3': 0, 'rot2': 0, 'depth': -1.285, 'yaw': 3.78, 'datetime': '2018-12-18 17:49:10.020126', 'mgs': 0, 'flw2': 0.0, 'flw1': 0.32, 'flw0': 0.09, 'time': 15.39, 'compass': 37.29, 'pitch': -0.4, 'roll': 1.59}
{'lipoC2': 0.0, 'temp': 0.0, 'lipoC3S3': 12.18, 'state': 'normal', 'rot1': 0, 'rot0': 0, 'rot3': 0, 'rot2': 0, 'depth': -1.361, 'yaw': 3.78, 'datetime': '2018-12-18 17:49:10.228429', 'mgs': 0, 'flw2': 0.0, 'flw1': 0.44, 'flw0': 0.0, 'time': 15.6, 'compass': 37.29, 'pitch': -0.79, 'roll': 1.66}
{'lipoC2': 0.15, 'temp': 0.0, 'lipoC3S3': 12.25, 'state': 'normal', 'rot1': 0, 'rot0': 0, 'rot3': 0, 'rot2': 0, 'depth': 0.623, 'yaw': 3.78, 'datetime': '2018-12-18 17:49:10.436685', 'mgs': 0, 'flw2': 0.0, 'flw1': 0.44, 'flw0': 0.0, 'time': 15.81, 'compass': 37.29, 'pitch': -1.07, 'roll': 1.65}
{'lipoC2': 0.0, 'temp': 0.0, 'lipoC3S3': 12.39, 'state': 'normal', 'rot1': 0, 'rot0': 0, 'rot3': 0, 'rot2': 0, 'depth': 0.928, 'yaw': 3.78, 'datetime': '2018-12-18 17:49:10.643687', 'mgs': 0, 'flw2': 0.16, 'flw1': 0.0, 'flw0': 0.0, 'time': 16.01, 'compass': 37.29, 'pitch': -0.89, 'roll': 1.66}
{'lipoC2': 0.0, 'temp': 0.0, 'lipoC3S3': 12.56, 'state': 'normal', 'rot1': 0, 'rot0': 0, 'rot3': 0, 'rot2': 0, 'depth': 1.538, 'yaw': 3.78, 'datetime': '2018-12-18 17:49:10.852597', 'mgs': 0, 'flw2': 0.0, 'flw1': 0.44, 'flw0': 0.0, 'time': 16.22, 'compass': 37.29, 'pitch': -0.5, 'roll': 1.65}
{'lipoC2': 0.0, 'temp': 0.0, 'lipoC3S3': 12.56, 'state': 'normal', 'rot1': 0, 'rot0': 0, 'rot3': 0, 'rot2': 0, 'depth': 1.538, 'yaw': 3.78, 'datetime': '2018-12-18 17:49:11.057117', 'mgs': 0, 'flw2': 0.0, 'flw1': 0.41, 'flw0': 0.0, 'time': 16.43, 'compass': 37.29, 'pitch': -0.48, 'roll': 1.65}
{'lipoC2': 0.1, 'temp': 0.0, 'lipoC3S3': 12.18, 'state': 'normal', 'rot1': 0, 'rot0': 0, 'rot3': 0, 'rot2': 0, 'depth': 1.004, 'yaw': 3.78, 'datetime': '2018-12-18 17:49:11.264324', 'mgs': 0, 'flw2': 0.0, 'flw1': 0.38, 'flw0': 0.0, 'time': 16.64, 'compass': 37.29, 'pitch': -0.81, 'roll': 1.66}
{'lipoC2': 0.0, 'temp': 0.0, 'lipoC3S3': 12.26, 'state': 'normal', 'rot1': 0, 'rot0': 0, 'rot3': 0, 'rot2': 0, 'depth': 1.233, 'yaw': 3.78, 'datetime': '2018-12-18 17:49:11.469182', 'mgs': 0, 'flw2': 0.16, 'flw1': 0.0, 'flw0': 0.07, 'time': 16.84, 'compass': 37.29, 'pitch': -1.0, 'roll': 1.65}
{'lipoC2': 0.13, 'temp': 0.0, 'lipoC3S3': 12.19, 'state': 'normal', 'rot1': 0, 'rot0': 0, 'rot3': 0, 'rot2': 0, 'depth': 0.317, 'yaw': 3.78, 'datetime': '2018-12-18 17:49:11.680714', 'mgs': 0, 'flw2': 0.0, 'flw1': 0.47, 'flw0': 0.0, 'time': 17.05, 'compass': 37.29, 'pitch': -0.87, 'roll': 1.65}
{'lipoC2': 0.02, 'temp': 0.0, 'lipoC3S3': 12.19, 'state': 'normal', 'rot1': 0, 'rot0': 0, 'rot3': 0, 'rot2': 0, 'depth': -0.293, 'yaw': 3.78, 'datetime': '2018-12-18 17:49:11.891466', 'mgs': 0, 'flw2': 0.0, 'flw1': 0.0, 'flw0': 0.2, 'time': 17.26, 'compass': 37.29, 'pitch': -0.65, 'roll': 1.65}
{'lipoC2': 0.13, 'temp': 0.0, 'lipoC3S3': 12.27, 'state': 'normal', 'rot1': 0, 'rot0': 0, 'rot3': 0, 'rot2': 0, 'depth': 0.47, 'yaw': 3.78, 'datetime': '2018-12-18 17:49:12.097753', 'mgs': 0, 'flw2': 0.15, 'flw1': 0.0, 'flw0': 0.09, 'time': 17.47, 'compass': 37.29, 'pitch': -0.71, 'roll': 1.66}
{'lipoC2': 0.08, 'temp': 0.0, 'lipoC3S3': 12.17, 'state': 'normal', 'rot1': 0, 'rot0': 0, 'rot3': 0, 'rot2': 0, 'depth': 0.165, 'yaw': 3.78, 'datetime': '2018-12-18 17:49:12.304678', 'mgs': 0, 'flw2': 0.02, 'flw1': 0.0, 'flw0': 0.17, 'time': 17.68, 'compass': 37.29, 'pitch': -0.93, 'roll': 1.66}
{'lipoC2': 0.0, 'temp': 0.0, 'lipoC3S3': 12.56, 'state': 'normal', 'rot1': 0, 'rot0': 0, 'rot3': 0, 'rot2': 0, 'depth': 1.462, 'yaw': 3.78, 'datetime': '2018-12-18 17:49:12.512284', 'mgs': 0, 'flw2': 0.0, 'flw1': 0.41, 'flw0': 0.0, 'time': 17.89, 'compass': 37.29, 'pitch': -1.01, 'roll': 1.65}
{'lipoC2': 0.0, 'temp': 0.0, 'lipoC3S3': 12.52, 'state': 'normal', 'rot1': 0, 'rot0': 0, 'rot3': 0, 'rot2': 0, 'depth': 1.004, 'yaw': 3.78, 'datetime': '2018-12-18 17:49:12.718915', 'mgs': 0, 'flw2': 0.01, 'flw1': 0.0, 'flw0': 0.18, 'time': 18.09, 'compass': 37.29, 'pitch': -0.99, 'roll': 1.66}
{'lipoC2': 0.01, 'temp': 0.0, 'lipoC3S3': 12.19, 'state': 'normal', 'rot1': 0, 'rot0': 0, 'rot3': 0, 'rot2': 0, 'depth': 1.385, 'yaw': 3.78, 'datetime': '2018-12-18 17:49:12.935220', 'mgs': 0, 'flw2': 0.0, 'flw1': 0.0, 'flw0': 0.2, 'time': 18.3, 'compass': 37.29, 'pitch': -0.93, 'roll': 1.66}
{'lipoC2': 0.0, 'temp': 0.0, 'lipoC3S3': 12.42, 'state': 'normal', 'rot1': 0, 'rot0': 0, 'rot3': 0, 'rot2': 0, 'depth': -0.14, 'yaw': 3.78, 'datetime': '2018-12-18 17:49:13.143127', 'mgs': 0, 'flw2': 0.0, 'flw1': 0.0, 'flw0': 0.0, 'time': 18.51, 'compass': 37.29, 'pitch': -0.93, 'roll': 1.66}
{'lipoC2': 0.13, 'temp': 0.0, 'lipoC3S3': 12.37, 'state': 'normal', 'rot1': 0, 'rot0': 0, 'rot3': 0, 'rot2': 0, 'depth': -1.132, 'yaw': 3.78, 'datetime': '2018-12-18 17:49:13.350675', 'mgs': 0, 'flw2': 0.16, 'flw1': 0.0, 'flw0': 0.05, 'time': 18.72, 'compass': 37.29, 'pitch': -0.96, 'roll': 1.65}
{'lipoC2': 0.05, 'temp': 0.0, 'lipoC3S3': 12.16, 'state': 'normal', 'rot1': 0, 'rot0': 0, 'rot3': 0, 'rot2': 0, 'depth': 0.012, 'yaw': 3.78, 'datetime': '2018-12-18 17:49:13.557584', 'mgs': 0, 'flw2': 0.11, 'flw1': 0.26, 'flw0': 0.0, 'time': 18.93, 'compass': 37.29, 'pitch': -0.96, 'roll': 1.65}
{'lipoC2': 0.11, 'temp': 0.0, 'lipoC3S3': 12.41, 'state': 'normal', 'rot1': 0, 'rot0': 0, 'rot3': 0, 'rot2': 0, 'depth': 1.233, 'yaw': 3.78, 'datetime': '2018-12-18 17:49:13.761546', 'mgs': 0, 'flw2': 0.0, 'flw1': 0.32, 'flw0': 0.05, 'time': 19.14, 'compass': 37.29, 'pitch': -0.96, 'roll': 1.65}
{'lipoC2': 0.09, 'temp': 0.0, 'lipoC3S3': 12.16, 'state': 'normal', 'rot1': 0, 'rot0': 0, 'rot3': 0, 'rot2': 0, 'depth': 1.08, 'yaw': 3.78, 'datetime': '2018-12-18 17:49:13.969873', 'mgs': 0, 'flw2': 0.02, 'flw1': 0.0, 'flw0': 0.17, 'time': 19.34, 'compass': 37.29, 'pitch': -0.96, 'roll': 1.65}
{'lipoC2': 0.0, 'temp': 0.0, 'lipoC3S3': 12.56, 'state': 'normal', 'rot1': 0, 'rot0': 0, 'rot3': 0, 'rot2': 0, 'depth': 1.385, 'yaw': 3.78, 'datetime': '2018-12-18 17:49:14.177541', 'mgs': 0, 'flw2': 0.0, 'flw1': 0.47, 'flw0': 0.0, 'time': 19.55, 'compass': 37.29, 'pitch': -0.96, 'roll': 1.65}
{'lipoC2': 0.0, 'temp': 0.0, 'lipoC3S3': 12.55, 'state': 'normal', 'rot1': 0, 'rot0': 0, 'rot3': 0, 'rot2': 0, 'depth': 1.385, 'yaw': 3.78, 'datetime': '2018-12-18 17:49:14.386344', 'mgs': 0, 'flw2': 0.01, 'flw1': 0.0, 'flw0': 0.17, 'time': 19.76, 'compass': 37.29, 'pitch': -0.96, 'roll': 1.65}
{'lipoC2': 0.14, 'temp': 0.0, 'lipoC3S3': 12.37, 'state': 'normal', 'rot1': 0, 'rot0': 0, 'rot3': 0, 'rot2': 0, 'depth': -1.285, 'yaw': 3.78, 'datetime': '2018-12-18 17:49:14.594485', 'mgs': 0, 'flw2': 0.16, 'flw1': 0.0, 'flw0': 0.05, 'time': 19.97, 'compass': 37.29, 'pitch': -1.1, 'roll': 1.65}
{'lipoC2': 0.1, 'temp': 0.0, 'lipoC3S3': 12.16, 'state': 'normal', 'rot1': 0, 'rot0': 0, 'rot3': 0, 'rot2': 0, 'depth': 0.165, 'yaw': 3.78, 'datetime': '2018-12-18 17:49:14.803631', 'mgs': 0, 'flw2': 0.05, 'flw1': 0.0, 'flw0': 0.17, 'time': 20.17, 'compass': 37.29, 'pitch': -1.29, 'roll': 1.65}
{'lipoC2': 0.0, 'temp': 0.0, 'lipoC3S3': 12.42, 'state': 'normal', 'rot1': 0, 'rot0': 0, 'rot3': 0, 'rot2': 0, 'depth': -0.369, 'yaw': 3.78, 'datetime': '2018-12-18 17:49:15.010630', 'mgs': 0, 'flw2': 0.13, 'flw1': 0.0, 'flw0': 0.0, 'time': 20.38, 'compass': 37.29, 'pitch': -1.28, 'roll': 1.69}
{'lipoC2': 0.12, 'temp': 0.0, 'lipoC3S3': 12.38, 'state': 'normal', 'rot1': 0, 'rot0': 0, 'rot3': 0, 'rot2': 0, 'depth': -1.514, 'yaw': 3.78, 'datetime': '2018-12-18 17:49:15.219914', 'mgs': 0, 'flw2': 0.16, 'flw1': 0.0, 'flw0': 0.0, 'time': 20.59, 'compass': 37.29, 'pitch': -1.18, 'roll': 1.68}
{'lipoC2': 0.11, 'temp': 0.0, 'lipoC3S3': 12.55, 'state': 'normal', 'rot1': 0, 'rot0': 0, 'rot3': 0, 'rot2': 0, 'depth': 1.004, 'yaw': 3.78, 'datetime': '2018-12-18 17:49:15.428746', 'mgs': 0, 'flw2': 0.0, 'flw1': 0.0, 'flw0': 0.2, 'time': 20.8, 'compass': 37.29, 'pitch': -1.2, 'roll': 1.69}
{'lipoC2': 0.03, 'temp': 0.0, 'lipoC3S3': 12.47, 'state': 'normal', 'rot1': 0, 'rot0': 0, 'rot3': 0, 'rot2': 0, 'depth': -1.895, 'yaw': 3.78, 'datetime': '2018-12-18 17:49:15.637503', 'mgs': 0, 'flw2': 0.0, 'flw1': 0.0, 'flw0': 0.2, 'time': 21.01, 'compass': 37.29, 'pitch': -1.4, 'roll': 1.68}
{'lipoC2': 0.0, 'temp': 0.0, 'lipoC3S3': 12.56, 'state': 'normal', 'rot1': 0, 'rot0': 0, 'rot3': 0, 'rot2': 0, 'depth': 1.462, 'yaw': 3.78, 'datetime': '2018-12-18 17:49:15.844463', 'mgs': 0, 'flw2': 0.02, 'flw1': 0.38, 'flw0': 0.0, 'time': 21.21, 'compass': 37.29, 'pitch': -1.64, 'roll': 1.69}
{'lipoC2': 0.12, 'temp': 0.0, 'lipoC3S3': 12.38, 'state': 'normal', 'rot1': 0, 'rot0': 0, 'rot3': 0, 'rot2': 0, 'depth': -1.285, 'yaw': 3.78, 'datetime': '2018-12-18 17:49:16.057044', 'mgs': 0, 'flw2': 0.2, 'flw1': 0.0, 'flw0': 0.0, 'time': 21.42, 'compass': 37.29, 'pitch': -1.66, 'roll': 1.69}
{'lipoC2': 0.09, 'temp': 0.0, 'lipoC3S3': 12.14, 'state': 'normal', 'rot1': 0, 'rot0': 0, 'rot3': 0, 'rot2': 0, 'depth': 1.004, 'yaw': 3.78, 'datetime': '2018-12-18 17:49:16.264822', 'mgs': 0, 'flw2': 0.04, 'flw1': 0.0, 'flw0': 0.17, 'time': 21.63, 'compass': 37.29, 'pitch': -1.49, 'roll': 1.68}
{'lipoC2': 0.0, 'temp': 0.0, 'lipoC3S3': 12.58, 'state': 'normal', 'rot1': 0, 'rot0': 0, 'rot3': 0, 'rot2': 0, 'depth': 1.462, 'yaw': 3.78, 'datetime': '2018-12-18 17:49:16.569626', 'mgs': 0, 'flw2': 0.02, 'flw1': 0.35, 'flw0': 0.0, 'time': 21.94, 'compass': 37.29, 'pitch': -1.51, 'roll': 1.68}
{'lipoC2': 0.0, 'temp': 0.0, 'lipoC3S3': 12.3, 'state': 'normal', 'rot1': 0, 'rot0': 0, 'rot3': 0, 'rot2': 0, 'depth': 0.928, 'yaw': 3.78, 'datetime': '2018-12-18 17:49:16.776080', 'mgs': 0, 'flw2': 0.0, 'flw1': 0.47, 'flw0': 0.0, 'time': 22.15, 'compass': 37.29, 'pitch': -1.72, 'roll': 1.65}
{'lipoC2': 0.14, 'temp': 0.0, 'lipoC3S3': 12.33, 'state': 'normal', 'rot1': 0, 'rot0': 0, 'rot3': 0, 'rot2': 0, 'depth': 0.928, 'yaw': 3.79, 'datetime': '2018-12-18 17:49:16.984775', 'mgs': 0, 'flw2': 0.0, 'flw1': 0.44, 'flw0': 0.0, 'time': 22.36, 'compass': 37.3, 'pitch': -1.73, 'roll': 1.62}
{'lipoC2': 0.0, 'temp': 0.0, 'lipoC3S3': 12.37, 'state': 'normal', 'rot1': 0, 'rot0': 0, 'rot3': 0, 'rot2': 0, 'depth': 0.928, 'yaw': 3.79, 'datetime': '2018-12-18 17:49:17.193800', 'mgs': 0, 'flw2': 0.16, 'flw1': 0.0, 'flw0': 0.04, 'time': 22.57, 'compass': 37.3, 'pitch': -1.53, 'roll': 1.6}
{'lipoC2': 0.09, 'temp': 0.0, 'lipoC3S3': 12.16, 'state': 'normal', 'rot1': 0, 'rot0': 0, 'rot3': 0, 'rot2': 0, 'depth': 1.004, 'yaw': 3.79, 'datetime': '2018-12-18 17:49:17.400959', 'mgs': 0, 'flw2': 0.01, 'flw1': 0.0, 'flw0': 0.18, 'time': 22.77, 'compass': 37.3, 'pitch': -1.37, 'roll': 1.57}
{'lipoC2': 0.0, 'temp': 0.0, 'lipoC3S3': 12.48, 'state': 'normal', 'rot1': 0, 'rot0': 1, 'rot3': 0, 'rot2': 0, 'depth': 1.233, 'yaw': 4.36, 'datetime': '2018-12-18 17:49:17.609778', 'mgs': 0, 'flw2': 2.65, 'flw1': 0.06, 'flw0': 0.17, 'time': 22.98, 'compass': 37.87, 'pitch': -1.02, 'roll': 1.67}
{'lipoC2': 0.08, 'temp': 0.0, 'lipoC3S3': 12.16, 'state': 'normal', 'rot1': 0, 'rot0': 3, 'rot3': 0, 'rot2': 0, 'depth': 0.241, 'yaw': 7.84, 'datetime': '2018-12-18 17:49:17.825666', 'mgs': 0, 'flw2': 2.93, 'flw1': 0.26, 'flw0': 0.0, 'time': 23.19, 'compass': 41.35, 'pitch': 0.61, 'roll': 2.24}
{'lipoC2': 0.05, 'temp': 0.0, 'lipoC3S3': 12.17, 'state': 'normal', 'rot1': 0, 'rot0': 6, 'rot3': 0, 'rot2': 0, 'depth': 0.241, 'yaw': 14.02, 'datetime': '2018-12-18 17:49:18.032311', 'mgs': 0, 'flw2': 2.87, 'flw1': 0.0, 'flw0': 0.2, 'time': 23.4, 'compass': 47.53, 'pitch': 1.86, 'roll': 2.82}
{'lipoC2': 0.1, 'temp': 0.0, 'lipoC3S3': 12.16, 'state': 'normal', 'rot1': 1, 'rot0': 8, 'rot3': 0, 'rot2': 0, 'depth': 0.241, 'yaw': 20.88, 'datetime': '2018-12-18 17:49:18.238687', 'mgs': 0, 'flw2': 2.89, 'flw1': 0.0, 'flw0': 3.03, 'time': 23.6, 'compass': 54.39, 'pitch': 2.2, 'roll': 2.94}
{'lipoC2': 0.08, 'temp': 0.0, 'lipoC3S3': 12.16, 'state': 'normal', 'rot1': 4, 'rot0': 10, 'rot3': 0, 'rot2': 0, 'depth': 1.309, 'yaw': 26.1, 'datetime': '2018-12-18 17:49:18.442417', 'mgs': 0, 'flw2': 2.89, 'flw1': 0.0, 'flw0': 2.98, 'time': 23.81, 'compass': 59.61, 'pitch': 3.13, 'roll': 2.62}
{'lipoC2': 0.0, 'temp': 0.0, 'lipoC3S3': 12.55, 'state': 'normal', 'rot1': 6, 'rot0': 12, 'rot3': 0, 'rot2': 0, 'depth': 1.614, 'yaw': 29.62, 'datetime': '2018-12-18 17:49:18.649908', 'mgs': 0, 'flw2': 2.73, 'flw1': 0.0, 'flw0': 3.08, 'time': 24.02, 'compass': 63.13, 'pitch': 4.17, 'roll': 2.34}
{'lipoC2': 0.04, 'temp': 0.0, 'lipoC3S3': 12.16, 'state': 'normal', 'rot1': 8, 'rot0': 15, 'rot3': 0, 'rot2': 0, 'depth': 0.089, 'yaw': 31.98, 'datetime': '2018-12-18 17:49:18.858266', 'mgs': 0, 'flw2': 2.81, 'flw1': 0.09, 'flw0': 2.6, 'time': 24.23, 'compass': 65.49, 'pitch': 4.54, 'roll': 2.36}
{'lipoC2': 0.12, 'temp': 0.0, 'lipoC3S3': 12.17, 'state': 'normal', 'rot1': 11, 'rot0': 17, 'rot3': 0, 'rot2': 0, 'depth': 0.394, 'yaw': 33.65, 'datetime': '2018-12-18 17:49:19.068762', 'mgs': 0, 'flw2': 2.88, 'flw1': 0.15, 'flw0': 3.16, 'time': 24.44, 'compass': 67.16, 'pitch': 4.07, 'roll': 2.57}
{'lipoC2': 0.08, 'temp': 0.0, 'lipoC3S3': 12.16, 'state': 'normal', 'rot1': 13, 'rot0': 20, 'rot3': 0, 'rot2': 0, 'depth': 0.241, 'yaw': 34.75, 'datetime': '2018-12-18 17:49:19.277321', 'mgs': 0, 'flw2': 2.81, 'flw1': 0.0, 'flw0': 3.23, 'time': 24.64, 'compass': 68.26, 'pitch': 3.2, 'roll': 2.92}
{'lipoC2': 0.14, 'temp': 0.0, 'lipoC3S3': 12.37, 'state': 'normal', 'rot1': 15, 'rot0': 22, 'rot3': 0, 'rot2': 0, 'depth': -0.98, 'yaw': 35.55, 'datetime': '2018-12-18 17:49:19.488369', 'mgs': 0, 'flw2': 2.86, 'flw1': 0.0, 'flw0': 2.98, 'time': 24.85, 'compass': 69.06, 'pitch': 2.68, 'roll': 3.18}
{'lipoC2': 0.0, 'temp': 0.0, 'lipoC3S3': 12.55, 'state': 'normal', 'rot1': 18, 'rot0': 24, 'rot3': 0, 'rot2': 0, 'depth': 1.538, 'yaw': 36.15, 'datetime': '2018-12-18 17:49:19.695800', 'mgs': 0, 'flw2': 0.0, 'flw1': 0.0, 'flw0': 3.1, 'time': 25.06, 'compass': 69.66, 'pitch': 2.69, 'roll': 3.19}
{'lipoC2': 0.12, 'temp': 0.0, 'lipoC3S3': 12.37, 'state': 'normal', 'rot1': 20, 'rot0': 24, 'rot3': 0, 'rot2': 0, 'depth': -1.285, 'yaw': 34.82, 'datetime': '2018-12-18 17:49:19.904408', 'mgs': 0, 'flw2': 0.12, 'flw1': 0.0, 'flw0': 3.04, 'time': 25.27, 'compass': 68.33, 'pitch': 1.86, 'roll': 3.06}
{'lipoC2': 0.01, 'temp': 0.0, 'lipoC3S3': 12.25, 'state': 'normal', 'rot1': 22, 'rot0': 24, 'rot3': 0, 'rot2': 0, 'depth': -0.217, 'yaw': 31.36, 'datetime': '2018-12-18 17:49:20.112974', 'mgs': 0, 'flw2': 0.18, 'flw1': 0.0, 'flw0': 3.13, 'time': 25.48, 'compass': 64.87, 'pitch': 0.71, 'roll': 2.5}
{'lipoC2': 0.01, 'temp': 0.0, 'lipoC3S3': 12.22, 'state': 'normal', 'rot1': 25, 'rot0': 24, 'rot3': 0, 'rot2': 0, 'depth': -0.217, 'yaw': 26.55, 'datetime': '2018-12-18 17:49:20.321867', 'mgs': 0, 'flw2': 0.0, 'flw1': 0.09, 'flw0': 3.15, 'time': 25.69, 'compass': 60.06, 'pitch': 0.35, 'roll': 1.63}
{'lipoC2': 0.0, 'temp': 0.0, 'lipoC3S3': 12.56, 'state': 'normal', 'rot1': 27, 'rot0': 24, 'rot3': 0, 'rot2': 0, 'depth': 1.614, 'yaw': 20.92, 'datetime': '2018-12-18 17:49:20.535443', 'mgs': 0, 'flw2': 2.45, 'flw1': 0.35, 'flw0': 2.7, 'time': 25.9, 'compass': 54.43, 'pitch': 0.63, 'roll': 0.91}
{'lipoC2': 0.0, 'temp': 0.0, 'lipoC3S3': 12.45, 'state': 'normal', 'rot1': 29, 'rot0': 26, 'rot3': 0, 'rot2': 0, 'depth': 0.699, 'yaw': 15.4, 'datetime': '2018-12-18 17:49:20.744618', 'mgs': 0, 'flw2': 2.42, 'flw1': 0.35, 'flw0': 2.95, 'time': 26.1, 'compass': 48.9, 'pitch': 1.57, 'roll': 0.71}
{'lipoC2': 0.11, 'temp': 0.0, 'lipoC3S3': 12.55, 'state': 'normal', 'rot1': 31, 'rot0': 29, 'rot3': 0, 'rot2': 0, 'depth': 0.317, 'yaw': 11.83, 'datetime': '2018-12-18 17:49:20.957774', 'mgs': 0, 'flw2': 2.51, 'flw1': 0.15, 'flw0': 3.15, 'time': 26.31, 'compass': 45.34, 'pitch': 2.87, 'roll': 0.82}
{'lipoC2': 0.09, 'temp': 0.0, 'lipoC3S3': 12.41, 'state': 'normal', 'rot1': 34, 'rot0': 31, 'rot3': 0, 'rot2': 0, 'depth': -2.048, 'yaw': 9.34, 'datetime': '2018-12-18 17:49:21.167743', 'mgs': 0, 'flw2': 2.45, 'flw1': 0.41, 'flw0': 3.0, 'time': 26.52, 'compass': 42.85, 'pitch': 3.26, 'roll': 0.89}
{'lipoC2': 0.04, 'temp': 0.0, 'lipoC3S3': 12.16, 'state': 'normal', 'rot1': 36, 'rot0': 34, 'rot3': 0, 'rot2': 0, 'depth': 1.309, 'yaw': 7.5, 'datetime': '2018-12-18 17:49:21.375492', 'mgs': 0, 'flw2': 2.76, 'flw1': 0.0, 'flw0': 3.2, 'time': 26.73, 'compass': 41.01, 'pitch': 2.98, 'roll': 0.72}
{'lipoC2': 0.02, 'temp': 0.0, 'lipoC3S3': 12.21, 'state': 'normal', 'rot1': 39, 'rot0': 37, 'rot3': 0, 'rot2': 0, 'depth': 0.165, 'yaw': 5.72, 'datetime': '2018-12-18 17:49:21.581065', 'mgs': 0, 'flw2': 2.55, 'flw1': 0.23, 'flw0': 3.0, 'time': 26.94, 'compass': 39.23, 'pitch': 2.81, 'roll': 0.39}
{'lipoC2': 0.04, 'temp': 0.0, 'lipoC3S3': 12.39, 'state': 'normal', 'rot1': 41, 'rot0': 39, 'rot3': 0, 'rot2': 0, 'depth': -1.743, 'yaw': 4.13, 'datetime': '2018-12-18 17:49:21.793571', 'mgs': 0, 'flw2': 2.38, 'flw1': 0.38, 'flw0': 2.98, 'time': 27.15, 'compass': 37.64, 'pitch': 2.99, 'roll': 0.1}
{'lipoC2': 0.05, 'temp': 0.0, 'lipoC3S3': 12.16, 'state': 'normal', 'rot1': 43, 'rot0': 41, 'rot3': 0, 'rot2': 0, 'depth': 1.538, 'yaw': 2.64, 'datetime': '2018-12-18 17:49:22.002074', 'mgs': 0, 'flw2': 2.88, 'flw1': 0.0, 'flw0': 3.04, 'time': 27.36, 'compass': 36.15, 'pitch': 3.29, 'roll': -0.13}
{'lipoC2': 0.0, 'temp': 0.0, 'lipoC3S3': 12.39, 'state': 'normal', 'rot1': 46, 'rot0': 44, 'rot3': 0, 'rot2': 0, 'depth': 0.47, 'yaw': 1.21, 'datetime': '2018-12-18 17:49:22.210035', 'mgs': 0, 'flw2': 2.94, 'flw1': 0.0, 'flw0': 2.97, 'time': 27.57, 'compass': 34.72, 'pitch': 3.36, 'roll': -0.1}
{'lipoC2': 0.0, 'temp': 0.0, 'lipoC3S3': 12.56, 'state': 'normal', 'rot1': 48, 'rot0': 47, 'rot3': 0, 'rot2': 0, 'depth': 1.996, 'yaw': -0.36, 'datetime': '2018-12-18 17:49:22.418361', 'mgs': 0, 'flw2': 2.88, 'flw1': 0.29, 'flw0': 2.73, 'time': 27.77, 'compass': 33.15, 'pitch': 3.12, 'roll': -0.01}
{'lipoC2': 0.13, 'temp': 0.0, 'lipoC3S3': 12.37, 'state': 'normal', 'rot1': 50, 'rot0': 49, 'rot3': 0, 'rot2': 0, 'depth': -1.514, 'yaw': -1.99, 'datetime': '2018-12-18 17:49:22.629247', 'mgs': 0, 'flw2': 2.97, 'flw1': 0.0, 'flw0': 2.92, 'time': 27.98, 'compass': 31.52, 'pitch': 2.66, 'roll': 0.08}
{'lipoC2': 0.02, 'temp': 0.0, 'lipoC3S3': 12.18, 'state': 'normal', 'rot1': 53, 'rot0': 51, 'rot3': 0, 'rot2': 0, 'depth': 0.089, 'yaw': -3.49, 'datetime': '2018-12-18 17:49:22.835897', 'mgs': 0, 'flw2': 3.03, 'flw1': 0.0, 'flw0': 2.59, 'time': 28.19, 'compass': 30.02, 'pitch': 2.31, 'roll': 0.29}
{'lipoC2': 0.05, 'temp': 0.0, 'lipoC3S3': 12.46, 'state': 'normal', 'rot1': 55, 'rot0': 53, 'rot3': 0, 'rot2': 0, 'depth': -1.666, 'yaw': -5.1, 'datetime': '2018-12-18 17:49:23.045916', 'mgs': 0, 'flw2': 2.61, 'flw1': 0.21, 'flw0': 3.0, 'time': 28.4, 'compass': 28.41, 'pitch': 2.1, 'roll': 0.42}
{'lipoC2': 0.0, 'temp': 0.0, 'lipoC3S3': 12.21, 'state': 'normal', 'rot1': 57, 'rot0': 56, 'rot3': 0, 'rot2': 0, 'depth': -1.056, 'yaw': -6.71, 'datetime': '2018-12-18 17:49:23.255077', 'mgs': 0, 'flw2': 2.87, 'flw1': 0.26, 'flw0': 2.69, 'time': 28.61, 'compass': 26.8, 'pitch': 1.81, 'roll': 0.39}
{'lipoC2': 0.0, 'temp': 0.0, 'lipoC3S3': 12.39, 'state': 'normal', 'rot1': 59, 'rot0': 58, 'rot3': 0, 'rot2': 0, 'depth': -0.217, 'yaw': -8.46, 'datetime': '2018-12-18 17:49:23.458820', 'mgs': 0, 'flw2': 2.87, 'flw1': 0.0, 'flw0': 2.94, 'time': 28.82, 'compass': 25.05, 'pitch': 1.74, 'roll': 0.3}
{'lipoC2': 0.08, 'temp': 0.0, 'lipoC3S3': 12.43, 'state': 'normal', 'rot1': 61, 'rot0': 60, 'rot3': 0, 'rot2': 0, 'depth': -1.971, 'yaw': -10.52, 'datetime': '2018-12-18 17:49:23.673513', 'mgs': 0, 'flw2': 2.47, 'flw1': 0.41, 'flw0': 2.93, 'time': 29.03, 'compass': 22.99, 'pitch': 1.73, 'roll': 0.36}
{'lipoC2': 0.1, 'temp': 0.0, 'lipoC3S3': 12.16, 'state': 'normal', 'rot1': 64, 'rot0': 62, 'rot3': 0, 'rot2': 0, 'depth': 1.08, 'yaw': -12.65, 'datetime': '2018-12-18 17:49:23.879349', 'mgs': 0, 'flw2': 2.71, 'flw1': 0.0, 'flw0': 3.11, 'time': 29.24, 'compass': 20.86, 'pitch': 1.71, 'roll': 0.37}
{'lipoC2': 0.12, 'temp': 0.0, 'lipoC3S3': 12.52, 'state': 'normal', 'rot1': 66, 'rot0': 65, 'rot3': 0, 'rot2': 0, 'depth': -1.132, 'yaw': -15.02, 'datetime': '2018-12-18 17:49:24.091622', 'mgs': 0, 'flw2': 2.88, 'flw1': 0.0, 'flw0': 3.06, 'time': 29.44, 'compass': 18.49, 'pitch': 1.81, 'roll': 0.22}
{'lipoC2': 0.08, 'temp': 0.0, 'lipoC3S3': 12.42, 'state': 'normal', 'rot1': 69, 'rot0': 67, 'rot3': 0, 'rot2': 0, 'depth': -1.895, 'yaw': -17.52, 'datetime': '2018-12-18 17:49:24.296059', 'mgs': 0, 'flw2': 2.42, 'flw1': 0.0, 'flw0': 2.86, 'time': 29.65, 'compass': 15.99, 'pitch': 2.03, 'roll': -0.02}
{'lipoC2': 0.0, 'temp': 0.0, 'lipoC3S3': 12.41, 'state': 'normal', 'rot1': 71, 'rot0': 70, 'rot3': 0, 'rot2': 0, 'depth': 0.241, 'yaw': -19.96, 'datetime': '2018-12-18 17:49:24.505944', 'mgs': 0, 'flw2': 2.56, 'flw1': 0.41, 'flw0': 2.97, 'time': 29.86, 'compass': 13.55, 'pitch': 2.06, 'roll': 0.01}
{'lipoC2': 0.0, 'temp': 0.0, 'lipoC3S3': 12.52, 'state': 'normal', 'rot1': 73, 'rot0': 72, 'rot3': 0, 'rot2': 0, 'depth': 1.385, 'yaw': -22.74, 'datetime': '2018-12-18 17:49:24.717453', 'mgs': 0, 'flw2': 2.83, 'flw1': 0.0, 'flw0': 3.06, 'time': 30.07, 'compass': 10.77, 'pitch': 2.3, 'roll': 0.13}
{'lipoC2': 0.05, 'temp': 0.0, 'lipoC3S3': 12.17, 'state': 'normal', 'rot1': 76, 'rot0': 75, 'rot3': 0, 'rot2': 0, 'depth': 0.241, 'yaw': -25.76, 'datetime': '2018-12-18 17:49:24.926183', 'mgs': 0, 'flw2': 2.65, 'flw1': 0.0, 'flw0': 3.05, 'time': 30.28, 'compass': 7.75, 'pitch': 2.75, 'roll': 0.14}
{'lipoC2': 0.0, 'temp': 0.0, 'lipoC3S3': 12.21, 'state': 'normal', 'rot1': 78, 'rot0': 77, 'rot3': 0, 'rot2': 0, 'depth': -1.208, 'yaw': -28.85, 'datetime': '2018-12-18 17:49:25.137828', 'mgs': 0, 'flw2': 2.92, 'flw1': 0.23, 'flw0': 2.67, 'time': 30.49, 'compass': 4.66, 'pitch': 3.09, 'roll': 0.06}
{'lipoC2': 0.0, 'temp': 0.0, 'lipoC3S3': 12.55, 'state': 'normal', 'rot1': 80, 'rot0': 79, 'rot3': 0, 'rot2': 0, 'depth': 1.691, 'yaw': -31.92, 'datetime': '2018-12-18 17:49:25.347080', 'mgs': 0, 'flw2': 2.81, 'flw1': 0.0, 'flw0': 3.14, 'time': 30.7, 'compass': 1.59, 'pitch': 3.05, 'roll': 0.02}
{'lipoC2': 0.04, 'temp': 0.0, 'lipoC3S3': 12.45, 'state': 'normal', 'rot1': 84, 'rot0': 83, 'rot3': 0, 'rot2': 0, 'depth': -1.514, 'yaw': -36.35, 'datetime': '2018-12-18 17:49:25.649809', 'mgs': 0, 'flw2': 2.54, 'flw1': 0.41, 'flw0': 2.61, 'time': 31.01, 'compass': -2.84, 'pitch': 2.97, 'roll': -0.12}
{'lipoC2': 0.05, 'temp': 0.0, 'lipoC3S3': 12.14, 'state': 'normal', 'rot1': 86, 'rot0': 85, 'rot3': 0, 'rot2': 0, 'depth': 1.309, 'yaw': -39.1, 'datetime': '2018-12-18 17:49:25.859438', 'mgs': 0, 'flw2': 2.71, 'flw1': 0.0, 'flw0': 2.64, 'time': 31.22, 'compass': -5.59, 'pitch': 2.91, 'roll': -0.29}
{'lipoC2': 0.0, 'temp': 0.0, 'lipoC3S3': 12.55, 'state': 'normal', 'rot1': 88, 'rot0': 88, 'rot3': 0, 'rot2': 0, 'depth': 1.767, 'yaw': -41.62, 'datetime': '2018-12-18 17:49:26.068475', 'mgs': 0, 'flw2': 2.76, 'flw1': 0.0, 'flw0': 1.95, 'time': 31.42, 'compass': -8.11, 'pitch': 2.67, 'roll': -0.21}
{'lipoC2': 0.01, 'temp': 0.0, 'lipoC3S3': 12.19, 'state': 'normal', 'rot1': 90, 'rot0': 90, 'rot3': 0, 'rot2': 0, 'depth': 0.089, 'yaw': -43.4, 'datetime': '2018-12-18 17:49:26.276372', 'mgs': 0, 'flw2': 2.8, 'flw1': 0.0, 'flw0': 1.73, 'time': 31.63, 'compass': -9.89, 'pitch': 2.27, 'roll': 0.03}
{'lipoC2': 0.11, 'temp': 0.0, 'lipoC3S3': 12.16, 'state': 'normal', 'rot1': 91, 'rot0': 93, 'rot3': 0, 'rot2': 0, 'depth': -0.14, 'yaw': -44.65, 'datetime': '2018-12-18 17:49:26.485538', 'mgs': 0, 'flw2': 2.92, 'flw1': 0.0, 'flw0': 0.95, 'time': 31.84, 'compass': -11.14, 'pitch': 1.87, 'roll': 0.14}
{'lipoC2': 0.05, 'temp': 0.0, 'lipoC3S3': 12.17, 'state': 'normal', 'rot1': 93, 'rot0': 95, 'rot3': 0, 'rot2': 0, 'depth': 0.47, 'yaw': -45.41, 'datetime': '2018-12-18 17:49:26.694515', 'mgs': 0, 'flw2': 2.81, 'flw1': 0.0, 'flw0': 1.4, 'time': 32.05, 'compass': -11.9, 'pitch': 1.44, 'roll': 0.38}
{'lipoC2': 0.01, 'temp': 0.0, 'lipoC3S3': 12.22, 'state': 'normal', 'rot1': 94, 'rot0': 97, 'rot3': 0, 'rot2': 0, 'depth': 1.385, 'yaw': -45.67, 'datetime': '2018-12-18 17:49:26.905664', 'mgs': 0, 'flw2': 2.47, 'flw1': 0.12, 'flw0': 1.37, 'time': 32.26, 'compass': -12.16, 'pitch': 1.06, 'roll': 0.66}
{'lipoC2': 0.0, 'temp': 0.0, 'lipoC3S3': 12.56, 'state': 'normal', 'rot1': 96, 'rot0': 99, 'rot3': 0, 'rot2': 0, 'depth': 1.538, 'yaw': -45.44, 'datetime': '2018-12-18 17:49:27.112874', 'mgs': 0, 'flw2': 2.81, 'flw1': 0.03, 'flw0': 0.87, 'time': 32.47, 'compass': -11.93, 'pitch': 0.85, 'roll': 0.86}
{'lipoC2': 0.0, 'temp': 0.0, 'lipoC3S3': 12.56, 'state': 'normal', 'rot1': 98, 'rot0': 102, 'rot3': 0, 'rot2': 0, 'depth': 1.691, 'yaw': -44.85, 'datetime': '2018-12-18 17:49:27.322254', 'mgs': 0, 'flw2': 2.8, 'flw1': 0.26, 'flw0': 1.05, 'time': 32.68, 'compass': -11.34, 'pitch': 0.86, 'roll': 0.97}
{'lipoC2': 0.0, 'temp': 0.0, 'lipoC3S3': 12.39, 'state': 'normal', 'rot1': 100, 'rot0': 104, 'rot3': 0, 'rot2': 0, 'depth': 0.394, 'yaw': -44.0, 'datetime': '2018-12-18 17:49:27.531855', 'mgs': 0, 'flw2': 2.93, 'flw1': 0.0, 'flw0': 1.18, 'time': 32.89, 'compass': -10.49, 'pitch': 0.82, 'roll': 1.12}
{'lipoC2': 0.0, 'temp': 0.0, 'lipoC3S3': 12.56, 'state': 'normal', 'rot1': 101, 'rot0': 107, 'rot3': 0, 'rot2': 0, 'depth': 1.767, 'yaw': -42.95, 'datetime': '2018-12-18 17:49:27.743015', 'mgs': 0, 'flw2': 2.94, 'flw1': 0.35, 'flw0': 1.09, 'time': 33.1, 'compass': -9.44, 'pitch': 0.89, 'roll': 1.34}
{'lipoC2': 0.11, 'temp': 0.0, 'lipoC3S3': 12.39, 'state': 'normal', 'rot1': 103, 'rot0': 109, 'rot3': 0, 'rot2': 0, 'depth': -1.819, 'yaw': -41.79, 'datetime': '2018-12-18 17:49:27.951553', 'mgs': 0, 'flw2': 2.83, 'flw1': 0.0, 'flw0': 1.18, 'time': 33.31, 'compass': -8.28, 'pitch': 1.06, 'roll': 1.46}
{'lipoC2': 0.12, 'temp': 0.0, 'lipoC3S3': 12.18, 'state': 'normal', 'rot1': 105, 'rot0': 112, 'rot3': 0, 'rot2': 0, 'depth': 1.309, 'yaw': -40.58, 'datetime': '2018-12-18 17:49:28.159805', 'mgs': 0, 'flw2': 2.82, 'flw1': 0.38, 'flw0': 2.38, 'time': 33.51, 'compass': -7.07, 'pitch': 1.24, 'roll': 1.7}
{'lipoC2': 0.12, 'temp': 0.0, 'lipoC3S3': 12.22, 'state': 'normal', 'rot1': 107, 'rot0': 114, 'rot3': 0, 'rot2': 0, 'depth': 0.47, 'yaw': -40.15, 'datetime': '2018-12-18 17:49:28.372148', 'mgs': 0, 'flw2': 2.89, 'flw1': 0.0, 'flw0': 3.13, 'time': 33.72, 'compass': -6.64, 'pitch': 1.87, 'roll': 1.85}
{'lipoC2': 0.0, 'temp': 0.0, 'lipoC3S3': 12.31, 'state': 'normal', 'rot1': 109, 'rot0': 117, 'rot3': 0, 'rot2': 0, 'depth': 1.233, 'yaw': -40.72, 'datetime': '2018-12-18 17:49:28.577047', 'mgs': 0, 'flw2': 2.53, 'flw1': 0.47, 'flw0': 3.08, 'time': 33.93, 'compass': -7.21, 'pitch': 2.56, 'roll': 1.84}
{'lipoC2': 0.08, 'temp': 0.0, 'lipoC3S3': 12.16, 'state': 'normal', 'rot1': 111, 'rot0': 119, 'rot3': 0, 'rot2': 0, 'depth': 0.241, 'yaw': -42.19, 'datetime': '2018-12-18 17:49:28.786712', 'mgs': 0, 'flw2': 2.8, 'flw1': 0.0, 'flw0': 2.69, 'time': 34.14, 'compass': -8.68, 'pitch': 3.07, 'roll': 1.64}
{'lipoC2': 0.0, 'temp': 0.0, 'lipoC3S3': 12.41, 'state': 'normal', 'rot1': 114, 'rot0': 122, 'rot3': 0, 'rot2': 0, 'depth': 0.317, 'yaw': -43.9, 'datetime': '2018-12-18 17:49:28.996934', 'mgs': 0, 'flw2': 2.62, 'flw1': 0.32, 'flw0': 1.26, 'time': 34.35, 'compass': -10.39, 'pitch': 3.09, 'roll': 1.35}
{'lipoC2': 0.12, 'temp': 0.0, 'lipoC3S3': 12.39, 'state': 'normal', 'rot1': 115, 'rot0': 124, 'rot3': 0, 'rot2': 0, 'depth': -1.59, 'yaw': -44.49, 'datetime': '2018-12-18 17:49:29.208536', 'mgs': 0, 'flw2': 2.82, 'flw1': 0.35, 'flw0': 0.57, 'time': 34.56, 'compass': -10.99, 'pitch': 2.42, 'roll': 1.43}
{'lipoC2': 0.08, 'temp': 0.0, 'lipoC3S3': 12.16, 'state': 'normal', 'rot1': 116, 'rot0': 127, 'rot3': 0, 'rot2': 0, 'depth': 0.317, 'yaw': -43.62, 'datetime': '2018-12-18 17:49:29.419305', 'mgs': 0, 'flw2': 2.81, 'flw1': 0.0, 'flw0': 0.57, 'time': 34.77, 'compass': -10.11, 'pitch': 1.75, 'roll': 1.96}
{'lipoC2': 0.14, 'temp': 0.0, 'lipoC3S3': 12.26, 'state': 'normal', 'rot1': 117, 'rot0': 129, 'rot3': 0, 'rot2': 0, 'depth': 0.851, 'yaw': -41.37, 'datetime': '2018-12-18 17:49:29.627125', 'mgs': 0, 'flw2': 2.82, 'flw1': 0.32, 'flw0': 0.22, 'time': 34.98, 'compass': -7.86, 'pitch': 1.56, 'roll': 2.48}
{'lipoC2': 0.08, 'temp': 0.0, 'lipoC3S3': 12.14, 'state': 'normal', 'rot1': 118, 'rot0': 131, 'rot3': 0, 'rot2': 0, 'depth': 1.157, 'yaw': -38.37, 'datetime': '2018-12-18 17:49:29.835945', 'mgs': 0, 'flw2': 2.73, 'flw1': 0.0, 'flw0': 3.04, 'time': 35.19, 'compass': -4.86, 'pitch': 1.79, 'roll': 2.67}
{'lipoC2': 0.05, 'temp': 0.0, 'lipoC3S3': 12.43, 'state': 'normal', 'rot1': 120, 'rot0': 134, 'rot3': 0, 'rot2': 0, 'depth': 1.92, 'yaw': -36.5, 'datetime': '2018-12-18 17:49:30.044843', 'mgs': 0, 'flw2': 2.54, 'flw1': 0.38, 'flw0': 3.0, 'time': 35.39, 'compass': -2.99, 'pitch': 2.86, 'roll': 2.45}
{'lipoC2': 0.0, 'temp': 0.0, 'lipoC3S3': 12.56, 'state': 'normal', 'rot1': 123, 'rot0': 136, 'rot3': 0, 'rot2': 0, 'depth': 1.614, 'yaw': -35.74, 'datetime': '2018-12-18 17:49:30.257359', 'mgs': 0, 'flw2': 2.82, 'flw1': 0.32, 'flw0': 2.7, 'time': 35.6, 'compass': -2.23, 'pitch': 3.4, 'roll': 2.33}
{'lipoC2': 0.0, 'temp': 0.0, 'lipoC3S3': 12.5, 'state': 'normal', 'rot1': 125, 'rot0': 138, 'rot3': 0, 'rot2': 0, 'depth': 1.157, 'yaw': -35.29, 'datetime': '2018-12-18 17:49:30.465161', 'mgs': 0, 'flw2': 2.93, 'flw1': 0.03, 'flw0': 2.69, 'time': 35.81, 'compass': -1.78, 'pitch': 3.16, 'roll': 2.44}
{'lipoC2': 0.04, 'temp': 0.0, 'lipoC3S3': 12.17, 'state': 'normal', 'rot1': 127, 'rot0': 141, 'rot3': 0, 'rot2': 0, 'depth': 0.165, 'yaw': -35.01, 'datetime': '2018-12-18 17:49:30.673123', 'mgs': 0, 'flw2': 2.71, 'flw1': 0.0, 'flw0': 3.03, 'time': 36.02, 'compass': -1.5, 'pitch': 2.71, 'roll': 2.67}
{'lipoC2': 0.0, 'temp': 0.0, 'lipoC3S3': 12.56, 'state': 'normal', 'rot1': 130, 'rot0': 143, 'rot3': 0, 'rot2': 0, 'depth': 1.614, 'yaw': -35.0, 'datetime': '2018-12-18 17:49:30.882566', 'mgs': 0, 'flw2': 2.91, 'flw1': 0.15, 'flw0': 2.67, 'time': 36.23, 'compass': -1.49, 'pitch': 2.45, 'roll': 2.76}
{'lipoC2': 0.08, 'temp': 0.0, 'lipoC3S3': 12.14, 'state': 'normal', 'rot1': 132, 'rot0': 146, 'rot3': 0, 'rot2': 0, 'depth': 0.317, 'yaw': -35.0, 'datetime': '2018-12-18 17:49:31.093511', 'mgs': 0, 'flw2': 2.78, 'flw1': 0.0, 'flw0': 3.15, 'time': 36.44, 'compass': -1.49, 'pitch': 2.6, 'roll': 2.74}
{'lipoC2': 0.0, 'temp': 0.0, 'lipoC3S3': 12.3, 'state': 'normal', 'rot1': 134, 'rot0': 148, 'rot3': 0, 'rot2': 0, 'depth': -0.293, 'yaw': -34.99, 'datetime': '2018-12-18 17:49:31.300321', 'mgs': 0, 'flw2': 2.94, 'flw1': 0.0, 'flw0': 2.95, 'time': 36.65, 'compass': -1.48, 'pitch': 2.74, 'roll': 2.79}
{'lipoC2': 0.13, 'temp': 0.0, 'lipoC3S3': 12.18, 'state': 'normal', 'rot1': 137, 'rot0': 150, 'rot3': 0, 'rot2': 0, 'depth': 0.623, 'yaw': -34.97, 'datetime': '2018-12-18 17:49:31.514326', 'mgs': 0, 'flw2': 2.86, 'flw1': 0.23, 'flw0': 2.64, 'time': 36.86, 'compass': -1.46, 'pitch': 2.54, 'roll': 3.26}
{'lipoC2': 0.0, 'temp': 0.0, 'lipoC3S3': 12.47, 'state': 'normal', 'rot1': 139, 'rot0': 153, 'rot3': 0, 'rot2': 0, 'depth': 1.004, 'yaw': -35.12, 'datetime': '2018-12-18 17:49:31.719592', 'mgs': 0, 'flw2': 2.62, 'flw1': 0.06, 'flw0': 3.08, 'time': 37.07, 'compass': -1.61, 'pitch': 2.19, 'roll': 3.73}
{'lipoC2': 0.0, 'temp': 0.0, 'lipoC3S3': 12.46, 'state': 'normal', 'rot1': 142, 'rot0': 155, 'rot3': 0, 'rot2': 0, 'depth': 1.157, 'yaw': -35.34, 'datetime': '2018-12-18 17:49:31.931542', 'mgs': 0, 'flw2': 2.65, 'flw1': 0.23, 'flw0': 2.91, 'time': 37.28, 'compass': -1.83, 'pitch': 1.94, 'roll': 3.73}
{'lipoC2': 0.14, 'temp': 0.0, 'lipoC3S3': 12.34, 'state': 'normal', 'rot1': 144, 'rot0': 158, 'rot3': 0, 'rot2': 0, 'depth': -0.522, 'yaw': -35.35, 'datetime': '2018-12-18 17:49:32.141237', 'mgs': 0, 'flw2': 2.7, 'flw1': 0.5, 'flw0': 2.89, 'time': 37.49, 'compass': -1.84, 'pitch': 1.92, 'roll': 3.6}
{'lipoC2': 0.13, 'temp': 0.0, 'lipoC3S3': 12.37, 'state': 'normal', 'rot1': 147, 'rot0': 160, 'rot3': 0, 'rot2': 0, 'depth': -0.98, 'yaw': -35.36, 'datetime': '2018-12-18 17:49:32.348802', 'mgs': 0, 'flw2': 2.93, 'flw1': 0.0, 'flw0': 2.95, 'time': 37.7, 'compass': -1.85, 'pitch': 2.04, 'roll': 3.46}
{'lipoC2': 0.0, 'temp': 0.0, 'lipoC3S3': 12.23, 'state': 'normal', 'rot1': 149, 'rot0': 162, 'rot3': 0, 'rot2': 0, 'depth': -1.285, 'yaw': -35.25, 'datetime': '2018-12-18 17:49:32.559274', 'mgs': 0, 'flw2': 2.87, 'flw1': 0.44, 'flw0': 2.92, 'time': 37.91, 'compass': -1.74, 'pitch': 2.06, 'roll': 3.42}
{'lipoC2': 0.06, 'temp': 0.0, 'lipoC3S3': 12.43, 'state': 'normal', 'rot1': 152, 'rot0': 164, 'rot3': 0, 'rot2': 0, 'depth': -1.895, 'yaw': -34.93, 'datetime': '2018-12-18 17:49:32.769951', 'mgs': 0, 'flw2': 2.56, 'flw1': 0.38, 'flw0': 2.92, 'time': 38.12, 'compass': -1.42, 'pitch': 2.15, 'roll': 3.36}
{'lipoC2': 0.13, 'temp': 0.0, 'lipoC3S3': 12.35, 'state': 'normal', 'rot1': 154, 'rot0': 167, 'rot3': 0, 'rot2': 0, 'depth': -0.827, 'yaw': -34.45, 'datetime': '2018-12-18 17:49:32.978297', 'mgs': 0, 'flw2': 2.95, 'flw1': 0.0, 'flw0': 3.04, 'time': 38.33, 'compass': -0.94, 'pitch': 2.33, 'roll': 3.31}
{'lipoC2': 0.0, 'temp': 0.0, 'lipoC3S3': 12.21, 'state': 'normal', 'rot1': 156, 'rot0': 169, 'rot3': 0, 'rot2': 0, 'depth': -1.514, 'yaw': -33.97, 'datetime': '2018-12-18 17:49:33.196498', 'mgs': 0, 'flw2': 2.7, 'flw1': 0.38, 'flw0': 2.72, 'time': 38.54, 'compass': -0.46, 'pitch': 2.51, 'roll': 3.28}
{'lipoC2': 0.0, 'temp': 0.0, 'lipoC3S3': 12.43, 'state': 'normal', 'rot1': 158, 'rot0': 171, 'rot3': 0, 'rot2': 0, 'depth': -0.064, 'yaw': -33.52, 'datetime': '2018-12-18 17:49:33.405428', 'mgs': 0, 'flw2': 2.62, 'flw1': 0.26, 'flw0': 2.92, 'time': 38.74, 'compass': -0.01, 'pitch': 2.76, 'roll': 3.17}
{'lipoC2': 0.06, 'temp': 0.0, 'lipoC3S3': 12.17, 'state': 'normal', 'rot1': 160, 'rot0': 174, 'rot3': 0, 'rot2': 0, 'depth': 0.241, 'yaw': -33.0, 'datetime': '2018-12-18 17:49:33.614191', 'mgs': 0, 'flw2': 2.91, 'flw1': 0.0, 'flw0': 2.59, 'time': 38.95, 'compass': 0.51, 'pitch': 2.88, 'roll': 3.03}
{'lipoC2': 0.0, 'temp': 0.0, 'lipoC3S3': 12.58, 'state': 'normal', 'rot1': 174, 'rot0': 187, 'rot3': 0, 'rot2': 0, 'depth': 1.996, 'yaw': -29.69, 'datetime': '2018-12-18 17:49:34.756054', 'mgs': 0, 'flw2': 3.02, 'flw1': 0.0, 'flw0': 2.54, 'time': 40.1, 'compass': 3.82, 'pitch': 3.05, 'roll': 3.75}
{'lipoC2': 0.0, 'temp': 0.0, 'lipoC3S3': 12.55, 'state': 'normal', 'rot1': 177, 'rot0': 189, 'rot3': 0, 'rot2': 0, 'depth': 1.92, 'yaw': -29.12, 'datetime': '2018-12-18 17:49:34.965482', 'mgs': 0, 'flw2': 2.47, 'flw1': 0.35, 'flw0': 3.11, 'time': 40.31, 'compass': 4.39, 'pitch': 3.09, 'roll': 3.63}
{'lipoC2': 0.19, 'temp': 0.0, 'lipoC3S3': 12.29, 'state': 'normal', 'rot1': 179, 'rot0': 192, 'rot3': 0, 'rot2': 0, 'depth': -0.598, 'yaw': -28.27, 'datetime': '2018-12-18 17:49:35.173634', 'mgs': 0, 'flw2': 2.72, 'flw1': 0.5, 'flw0': 3.11, 'time': 40.52, 'compass': 5.24, 'pitch': 3.19, 'roll': 3.66}
{'lipoC2': 0.0, 'temp': 0.0, 'lipoC3S3': 12.42, 'state': 'normal', 'rot1': 182, 'rot0': 194, 'rot3': 0, 'rot2': 0, 'depth': 0.012, 'yaw': -27.39, 'datetime': '2018-12-18 17:49:35.392575', 'mgs': 0, 'flw2': 3.03, 'flw1': 0.0, 'flw0': 2.64, 'time': 40.73, 'compass': 6.12, 'pitch': 3.42, 'roll': 3.84}
{'lipoC2': 0.14, 'temp': 0.0, 'lipoC3S3': 12.23, 'state': 'normal', 'rot1': 184, 'rot0': 196, 'rot3': 0, 'rot2': 0, 'depth': 0.546, 'yaw': -26.49, 'datetime': '2018-12-18 17:49:35.603254', 'mgs': 0, 'flw2': 2.29, 'flw1': 0.29, 'flw0': 2.81, 'time': 40.94, 'compass': 7.02, 'pitch': 3.78, 'roll': 3.93}
{'lipoC2': 0.0, 'temp': 0.0, 'lipoC3S3': 12.56, 'state': 'normal', 'rot1': 187, 'rot0': 198, 'rot3': 0, 'rot2': 0, 'depth': 1.691, 'yaw': -26.19, 'datetime': '2018-12-18 17:49:35.813040', 'mgs': 0, 'flw2': 0.84, 'flw1': 0.0, 'flw0': 3.13, 'time': 41.15, 'compass': 7.32, 'pitch': 3.61, 'roll': 3.92}
{'lipoC2': 0.0, 'temp': 0.0, 'lipoC3S3': 12.58, 'state': 'normal', 'rot1': 190, 'rot0': 199, 'rot3': 0, 'rot2': 0, 'depth': 1.614, 'yaw': -27.16, 'datetime': '2018-12-18 17:49:36.022471', 'mgs': 0, 'flw2': 0.87, 'flw1': 0.21, 'flw0': 2.86, 'time': 41.36, 'compass': 6.35, 'pitch': 2.78, 'roll': 3.78}
{'lipoC2': 0.06, 'temp': 0.0, 'lipoC3S3': 12.18, 'state': 'normal', 'rot1': 192, 'rot0': 201, 'rot3': 0, 'rot2': 0, 'depth': 0.241, 'yaw': -29.2, 'datetime': '2018-12-18 17:49:36.231202', 'mgs': 0, 'flw2': 0.62, 'flw1': 0.0, 'flw0': 3.04, 'time': 41.57, 'compass': 4.31, 'pitch': 2.16, 'roll': 3.54}
{'lipoC2': 0.04, 'temp': 0.0, 'lipoC3S3': 12.18, 'state': 'normal', 'rot1': 194, 'rot0': 202, 'rot3': 0, 'rot2': 0, 'depth': 0.317, 'yaw': -32.01, 'datetime': '2018-12-18 17:49:36.439262', 'mgs': 0, 'flw2': 0.77, 'flw1': 0.0, 'flw0': 2.99, 'time': 41.78, 'compass': 1.5, 'pitch': 1.93, 'roll': 3.17}
{'lipoC2': 0.0, 'temp': 0.0, 'lipoC3S3': 12.23, 'state': 'normal', 'rot1': 196, 'rot0': 203, 'rot3': 0, 'rot2': 0, 'depth': -1.132, 'yaw': -35.31, 'datetime': '2018-12-18 17:49:36.645360', 'mgs': 0, 'flw2': 0.77, 'flw1': 0.29, 'flw0': 2.78, 'time': 41.98, 'compass': -1.8, 'pitch': 1.93, 'roll': 2.84}
{'lipoC2': 0.0, 'temp': 0.0, 'lipoC3S3': 12.58, 'state': 'normal', 'rot1': 199, 'rot0': 205, 'rot3': 0, 'rot2': 0, 'depth': 1.538, 'yaw': -38.79, 'datetime': '2018-12-18 17:49:36.862150', 'mgs': 0, 'flw2': 0.79, 'flw1': 0.23, 'flw0': 2.8, 'time': 42.19, 'compass': -5.28, 'pitch': 2.05, 'roll': 2.41}
{'lipoC2': 0.12, 'temp': 0.0, 'lipoC3S3': 12.38, 'state': 'normal', 'rot1': 201, 'rot0': 206, 'rot3': 0, 'rot2': 0, 'depth': -1.59, 'yaw': -42.75, 'datetime': '2018-12-18 17:49:37.069612', 'mgs': 0, 'flw2': 0.88, 'flw1': 0.0, 'flw0': 2.8, 'time': 42.4, 'compass': -9.24, 'pitch': 1.94, 'roll': 1.81}
{'lipoC2': 0.0, 'temp': 0.0, 'lipoC3S3': 12.21, 'state': 'normal', 'rot1': 203, 'rot0': 207, 'rot3': 0, 'rot2': 0, 'depth': -1.208, 'yaw': -46.9, 'datetime': '2018-12-18 17:49:37.277920', 'mgs': 0, 'flw2': 0.71, 'flw1': 0.18, 'flw0': 2.81, 'time': 42.61, 'compass': -13.39, 'pitch': 1.65, 'roll': 1.17}
{'lipoC2': 0.03, 'temp': 0.0, 'lipoC3S3': 12.46, 'state': 'normal', 'rot1': 206, 'rot0': 208, 'rot3': 0, 'rot2': 0, 'depth': -1.666, 'yaw': -51.28, 'datetime': '2018-12-18 17:49:37.484893', 'mgs': 0, 'flw2': 0.0, 'flw1': 0.18, 'flw0': 3.1, 'time': 42.82, 'compass': -17.77, 'pitch': 1.59, 'roll': 0.57}
{'lipoC2': 0.03, 'temp': 0.0, 'lipoC3S3': 12.19, 'state': 'normal', 'rot1': 208, 'rot0': 208, 'rot3': 0, 'rot2': 0, 'depth': 0.089, 'yaw': -56.27, 'datetime': '2018-12-18 17:49:37.694905', 'mgs': 0, 'flw2': 0.16, 'flw1': 0.0, 'flw0': 2.69, 'time': 43.03, 'compass': -22.76, 'pitch': 1.16, 'roll': -0.07}
{'lipoC2': 0.12, 'temp': 0.0, 'lipoC3S3': 12.51, 'state': 'normal', 'rot1': 210, 'rot0': 208, 'rot3': 0, 'rot2': 0, 'depth': -1.59, 'yaw': -61.94, 'datetime': '2018-12-18 17:49:37.904007', 'mgs': 0, 'flw2': 0.18, 'flw1': 0.0, 'flw0': 2.86, 'time': 43.24, 'compass': -28.43, 'pitch': 0.72, 'roll': -0.75}
{'lipoC2': 0.03, 'temp': 0.0, 'lipoC3S3': 12.19, 'state': 'normal', 'rot1': 212, 'rot0': 208, 'rot3': 0, 'rot2': 0, 'depth': 0.012, 'yaw': -68.74, 'datetime': '2018-12-18 17:49:38.114500', 'mgs': 0, 'flw2': 0.0, 'flw1': 0.0, 'flw0': 3.16, 'time': 43.45, 'compass': -35.23, 'pitch': 0.83, 'roll': -1.29}
{'lipoC2': 0.0, 'temp': 0.0, 'lipoC3S3': 12.38, 'state': 'normal', 'rot1': 215, 'rot0': 208, 'rot3': 0, 'rot2': 0, 'depth': 0.851, 'yaw': -76.28, 'datetime': '2018-12-18 17:49:38.323340', 'mgs': 0, 'flw2': 0.17, 'flw1': 0.0, 'flw0': 2.86, 'time': 43.66, 'compass': -42.77, 'pitch': 1.34, 'roll': -1.53}
{'lipoC2': 0.06, 'temp': 0.0, 'lipoC3S3': 12.43, 'state': 'normal', 'rot1': 217, 'rot0': 208, 'rot3': 0, 'rot2': 0, 'depth': -1.819, 'yaw': -84.62, 'datetime': '2018-12-18 17:49:38.531433', 'mgs': 0, 'flw2': 0.0, 'flw1': 0.38, 'flw0': 2.94, 'time': 43.87, 'compass': -51.11, 'pitch': 1.65, 'roll': -1.53}
{'lipoC2': 0.12, 'temp': 0.0, 'lipoC3S3': 12.38, 'state': 'normal', 'rot1': 219, 'rot0': 208, 'rot3': 0, 'rot2': 0, 'depth': -1.59, 'yaw': -93.41, 'datetime': '2018-12-18 17:49:38.743598', 'mgs': 0, 'flw2': 0.12, 'flw1': 0.0, 'flw0': 2.91, 'time': 44.07, 'compass': -59.9, 'pitch': 1.82, 'roll': -1.63}
{'lipoC2': 0.01, 'temp': 0.0, 'lipoC3S3': 12.23, 'state': 'normal', 'rot1': 222, 'rot0': 208, 'rot3': 0, 'rot2': 0, 'depth': 1.614, 'yaw': -103.5, 'datetime': '2018-12-18 17:49:38.951431', 'mgs': 0, 'flw2': 0.0, 'flw1': 0.18, 'flw0': 2.97, 'time': 44.28, 'compass': -69.99, 'pitch': 2.24, 'roll': -2.09}
