{'lipoC2': 7.41, 'temp': 30.25, 'lipoC3S3': 11.65, 'state': 'normal', 'rot1': 0, 'rot0': 0, 'rot3': 0, 'rot2': 0, 'depth': 1.843, 'yaw': -0.17, 'datetime': '2018-11-26 12:40:44.919981', 'mgs': 0, 'flw2': 0.0, 'flw1': 0.0, 'flw0': 0.0, 'time': 1.36, 'compass': -34.17, 'pitch': -0.87, 'roll': -5.91}
{'lipoC2': 7.41, 'temp': 30.25, 'lipoC3S3': 11.65, 'state': 'normal', 'rot1': 0, 'rot0': 0, 'rot3': 0, 'rot2': 0, 'depth': 1.843, 'yaw': -0.75, 'datetime': '2018-11-26 12:40:45.133306', 'mgs': 0, 'flw2': 0.0, 'flw1': 0.0, 'flw0': 0.0, 'time': 1.57, 'compass': -34.76, 'pitch': -0.01, 'roll': -5.91}
{'lipoC2': 7.41, 'temp': 30.06, 'lipoC3S3': 11.67, 'state': 'normal', 'rot1': 0, 'rot0': 0, 'rot3': 0, 'rot2': 0, 'depth': 1.767, 'yaw': -1.46, 'datetime': '2018-11-26 12:40:45.339048', 'mgs': 0, 'flw2': 0.0, 'flw1': 0.0, 'flw0': 0.0, 'time': 1.78, 'compass': -35.46, 'pitch': 1.12, 'roll': -5.88}
{'lipoC2': 7.41, 'temp': 30.31, 'lipoC3S3': 11.65, 'state': 'normal', 'rot1': 0, 'rot0': 0, 'rot3': 0, 'rot2': 0, 'depth': 1.843, 'yaw': -2.12, 'datetime': '2018-11-26 12:40:45.546252', 'mgs': 0, 'flw2': 0.0, 'flw1': 0.0, 'flw0': 0.0, 'time': 1.99, 'compass': -36.13, 'pitch': 2.52, 'roll': -5.61}
{'lipoC2': 7.41, 'temp': 30.25, 'lipoC3S3': 11.64, 'state': 'normal', 'rot1': 0, 'rot0': 0, 'rot3': 0, 'rot2': 0, 'depth': 1.767, 'yaw': -2.7, 'datetime': '2018-11-26 12:40:45.751704', 'mgs': 0, 'flw2': 0.0, 'flw1': 0.0, 'flw0': 0.0, 'time': 2.2, 'compass': -36.7, 'pitch': 3.78, 'roll': -5.27}
{'lipoC2': 7.41, 'temp': 30.25, 'lipoC3S3': 11.65, 'state': 'normal', 'rot1': 0, 'rot0': 0, 'rot3': 0, 'rot2': 0, 'depth': 1.767, 'yaw': -3.11, 'datetime': '2018-11-26 12:40:45.959281', 'mgs': 0, 'flw2': 0.0, 'flw1': 0.0, 'flw0': 0.0, 'time': 2.41, 'compass': -37.11, 'pitch': 4.62, 'roll': -5.27}
{'lipoC2': 7.41, 'temp': 30.31, 'lipoC3S3': 11.67, 'state': 'normal', 'rot1': 0, 'rot0': 0, 'rot3': 0, 'rot2': 0, 'depth': 1.767, 'yaw': -3.38, 'datetime': '2018-11-26 12:40:46.168750', 'mgs': 0, 'flw2': 0.0, 'flw1': 0.0, 'flw0': 0.0, 'time': 2.62, 'compass': -37.38, 'pitch': 4.85, 'roll': -5.63}
{'lipoC2': 7.41, 'temp': 30.31, 'lipoC3S3': 11.65, 'state': 'normal', 'rot1': 0, 'rot0': 0, 'rot3': 0, 'rot2': 0, 'depth': 1.691, 'yaw': -3.44, 'datetime': '2018-11-26 12:40:46.379408', 'mgs': 0, 'flw2': 0.0, 'flw1': 0.0, 'flw0': 0.0, 'time': 2.82, 'compass': -37.45, 'pitch': 4.47, 'roll': -5.89}
{'lipoC2': 7.41, 'temp': 30.31, 'lipoC3S3': 11.65, 'state': 'normal', 'rot1': 0, 'rot0': 0, 'rot3': 0, 'rot2': 0, 'depth': 1.843, 'yaw': -3.27, 'datetime': '2018-11-26 12:40:46.589153', 'mgs': 0, 'flw2': 0.0, 'flw1': 0.0, 'flw0': 0.0, 'time': 3.03, 'compass': -37.27, 'pitch': 3.65, 'roll': -5.89}
{'lipoC2': 7.41, 'temp': 30.31, 'lipoC3S3': 11.65, 'state': 'normal', 'rot1': 0, 'rot0': 0, 'rot3': 0, 'rot2': 0, 'depth': 1.843, 'yaw': -2.78, 'datetime': '2018-11-26 12:40:46.796350', 'mgs': 0, 'flw2': 0.0, 'flw1': 0.0, 'flw0': 0.0, 'time': 3.24, 'compass': -36.78, 'pitch': 2.68, 'roll': -5.86}
{'lipoC2': 7.41, 'temp': 30.25, 'lipoC3S3': 11.65, 'state': 'normal', 'rot1': 0, 'rot0': 0, 'rot3': 0, 'rot2': 0, 'depth': 1.92, 'yaw': -2.15, 'datetime': '2018-11-26 12:40:47.005380', 'mgs': 0, 'flw2': 0.0, 'flw1': 0.0, 'flw0': 0.0, 'time': 3.45, 'compass': -36.15, 'pitch': 1.75, 'roll': -5.84}
{'lipoC2': 7.41, 'temp': 30.31, 'lipoC3S3': 11.65, 'state': 'normal', 'rot1': 0, 'rot0': 0, 'rot3': 0, 'rot2': 0, 'depth': 1.843, 'yaw': -1.72, 'datetime': '2018-11-26 12:40:47.214743', 'mgs': 0, 'flw2': 0.0, 'flw1': 0.0, 'flw0': 0.0, 'time': 3.66, 'compass': -35.73, 'pitch': 0.88, 'roll': -5.83}
{'lipoC2': 7.41, 'temp': 30.31, 'lipoC3S3': 11.67, 'state': 'normal', 'rot1': 0, 'rot0': 0, 'rot3': 0, 'rot2': 0, 'depth': 1.92, 'yaw': -1.41, 'datetime': '2018-11-26 12:40:47.425674', 'mgs': 0, 'flw2': 0.0, 'flw1': 0.0, 'flw0': 0.0, 'time': 3.87, 'compass': -35.41, 'pitch': 0.2, 'roll': -5.83}
{'lipoC2': 7.41, 'temp': 30.31, 'lipoC3S3': 11.67, 'state': 'normal', 'rot1': 0, 'rot0': 0, 'rot3': 0, 'rot2': 0, 'depth': 1.92, 'yaw': -1.34, 'datetime': '2018-11-26 12:40:47.630435', 'mgs': 0, 'flw2': 0.0, 'flw1': 0.0, 'flw0': 0.0, 'time': 4.08, 'compass': -35.34, 'pitch': -0.16, 'roll': -5.84}
{'lipoC2': 7.41, 'temp': 30.31, 'lipoC3S3': 11.65, 'state': 'normal', 'rot1': 0, 'rot0': 0, 'rot3': 0, 'rot2': 0, 'depth': 1.92, 'yaw': -1.66, 'datetime': '2018-11-26 12:40:47.842601', 'mgs': 0, 'flw2': 0.0, 'flw1': 0.0, 'flw0': 0.0, 'time': 4.28, 'compass': -35.67, 'pitch': -0.16, 'roll': -5.84}
{'lipoC2': 7.41, 'temp': 30.31, 'lipoC3S3': 11.65, 'state': 'normal', 'rot1': 0, 'rot0': 0, 'rot3': 0, 'rot2': 0, 'depth': 1.843, 'yaw': -2.1, 'datetime': '2018-11-26 12:40:48.047930', 'mgs': 0, 'flw2': 0.0, 'flw1': 0.0, 'flw0': 0.0, 'time': 4.49, 'compass': -36.1, 'pitch': 0.3, 'roll': -5.86}
{'lipoC2': 7.41, 'temp': 30.13, 'lipoC3S3': 11.65, 'state': 'normal', 'rot1': 0, 'rot0': 0, 'rot3': 0, 'rot2': 0, 'depth': 1.843, 'yaw': -2.37, 'datetime': '2018-11-26 12:40:48.255153', 'mgs': 0, 'flw2': 0.0, 'flw1': 0.0, 'flw0': 0.0, 'time': 4.7, 'compass': -36.37, 'pitch': 1.18, 'roll': -6.09}
{'lipoC2': 7.41, 'temp': 30.31, 'lipoC3S3': 11.65, 'state': 'normal', 'rot1': 0, 'rot0': 0, 'rot3': 0, 'rot2': 0, 'depth': 1.843, 'yaw': -2.47, 'datetime': '2018-11-26 12:40:48.466649', 'mgs': 0, 'flw2': 0.0, 'flw1': 0.0, 'flw0': 0.0, 'time': 4.91, 'compass': -36.47, 'pitch': 2.22, 'roll': -6.1}
{'lipoC2': 7.41, 'temp': 30.31, 'lipoC3S3': 11.65, 'state': 'normal', 'rot1': 0, 'rot0': 0, 'rot3': 0, 'rot2': 0, 'depth': 1.843, 'yaw': -2.67, 'datetime': '2018-11-26 12:40:48.671901', 'mgs': 0, 'flw2': 0.0, 'flw1': 0.0, 'flw0': 0.0, 'time': 5.12, 'compass': -36.68, 'pitch': 3.12, 'roll': -5.94}
{'lipoC2': 7.41, 'temp': 30.31, 'lipoC3S3': 11.65, 'state': 'normal', 'rot1': 0, 'rot0': 0, 'rot3': 0, 'rot2': 0, 'depth': 1.843, 'yaw': -3.02, 'datetime': '2018-11-26 12:40:48.881425', 'mgs': 0, 'flw2': 0.0, 'flw1': 0.0, 'flw0': 0.0, 'time': 5.33, 'compass': -37.02, 'pitch': 3.55, 'roll': -5.69}
{'lipoC2': 7.41, 'temp': 30.31, 'lipoC3S3': 11.65, 'state': 'normal', 'rot1': 0, 'rot0': 0, 'rot3': 0, 'rot2': 0, 'depth': 1.843, 'yaw': -3.06, 'datetime': '2018-11-26 12:40:49.089479', 'mgs': 0, 'flw2': 0.0, 'flw1': 0.0, 'flw0': 0.0, 'time': 5.54, 'compass': -37.06, 'pitch': 3.63, 'roll': -5.39}
{'lipoC2': 7.41, 'temp': 30.31, 'lipoC3S3': 11.65, 'state': 'normal', 'rot1': 0, 'rot0': 0, 'rot3': 0, 'rot2': 0, 'depth': 1.767, 'yaw': -3.02, 'datetime': '2018-11-26 12:40:49.302387', 'mgs': 0, 'flw2': 0.0, 'flw1': 0.0, 'flw0': 0.0, 'time': 5.74, 'compass': -37.03, 'pitch': 3.33, 'roll': -5.4}
{'lipoC2': 7.41, 'temp': 30.31, 'lipoC3S3': 11.65, 'state': 'normal', 'rot1': 0, 'rot0': 0, 'rot3': 0, 'rot2': 0, 'depth': 1.92, 'yaw': -2.87, 'datetime': '2018-11-26 12:40:49.507275', 'mgs': 0, 'flw2': 0.0, 'flw1': 0.0, 'flw0': 0.0, 'time': 5.95, 'compass': -36.87, 'pitch': 2.75, 'roll': -5.39}
{'lipoC2': 7.41, 'temp': 30.31, 'lipoC3S3': 11.65, 'state': 'normal', 'rot1': 0, 'rot0': 0, 'rot3': 0, 'rot2': 0, 'depth': 1.767, 'yaw': -2.7, 'datetime': '2018-11-26 12:40:49.716669', 'mgs': 0, 'flw2': 0.0, 'flw1': 0.0, 'flw0': 0.0, 'time': 6.16, 'compass': -36.7, 'pitch': 1.99, 'roll': -5.39}
{'lipoC2': 7.41, 'temp': 30.31, 'lipoC3S3': 11.65, 'state': 'normal', 'rot1': 0, 'rot0': 0, 'rot3': 0, 'rot2': 0, 'depth': 1.843, 'yaw': -2.59, 'datetime': '2018-11-26 12:40:49.922380', 'mgs': 0, 'flw2': 0.0, 'flw1': 0.0, 'flw0': 0.0, 'time': 6.37, 'compass': -36.59, 'pitch': 1.13, 'roll': -5.38}
{'lipoC2': 7.41, 'temp': 30.31, 'lipoC3S3': 11.67, 'state': 'normal', 'rot1': 0, 'rot0': 0, 'rot3': 0, 'rot2': 0, 'depth': 1.767, 'yaw': -2.47, 'datetime': '2018-11-26 12:40:50.132598', 'mgs': 0, 'flw2': 0.0, 'flw1': 0.0, 'flw0': 0.0, 'time': 6.58, 'compass': -36.47, 'pitch': 0.45, 'roll': -5.25}
{'lipoC2': 7.41, 'temp': 29.94, 'lipoC3S3': 11.65, 'state': 'normal', 'rot1': 0, 'rot0': 0, 'rot3': 0, 'rot2': 0, 'depth': 1.843, 'yaw': -2.3, 'datetime': '2018-11-26 12:40:50.343047', 'mgs': 0, 'flw2': 0.0, 'flw1': 0.0, 'flw0': 0.0, 'time': 6.79, 'compass': -36.3, 'pitch': 0.13, 'roll': -5.09}
{'lipoC2': 7.41, 'temp': 29.94, 'lipoC3S3': 11.67, 'state': 'normal', 'rot1': 0, 'rot0': 0, 'rot3': 0, 'rot2': 0, 'depth': 1.843, 'yaw': -2.23, 'datetime': '2018-11-26 12:40:50.550727', 'mgs': 0, 'flw2': 0.0, 'flw1': 0.0, 'flw0': 0.0, 'time': 7.0, 'compass': -36.24, 'pitch': 0.16, 'roll': -5.08}
{'lipoC2': 7.42, 'temp': 30.38, 'lipoC3S3': 11.65, 'state': 'normal', 'rot1': 0, 'rot0': 0, 'rot3': 0, 'rot2': 0, 'depth': 1.843, 'yaw': -2.32, 'datetime': '2018-11-26 12:40:50.761719', 'mgs': 0, 'flw2': 0.0, 'flw1': 0.0, 'flw0': 0.0, 'time': 7.2, 'compass': -36.33, 'pitch': 0.39, 'roll': -5.08}
{'lipoC2': 7.42, 'temp': 30.31, 'lipoC3S3': 11.65, 'state': 'normal', 'rot1': 0, 'rot0': 0, 'rot3': 0, 'rot2': 0, 'depth': 1.767, 'yaw': -2.65, 'datetime': '2018-11-26 12:40:50.969390', 'mgs': 0, 'flw2': 0.0, 'flw1': 0.0, 'flw0': 0.0, 'time': 7.41, 'compass': -36.66, 'pitch': 0.77, 'roll': -4.94}
{'lipoC2': 7.41, 'temp': 30.31, 'lipoC3S3': 11.65, 'state': 'normal', 'rot1': 0, 'rot0': 0, 'rot3': 0, 'rot2': 0, 'depth': 1.767, 'yaw': -3.14, 'datetime': '2018-11-26 12:40:51.174287', 'mgs': 0, 'flw2': 0.0, 'flw1': 0.0, 'flw0': 0.0, 'time': 7.62, 'compass': -37.14, 'pitch': 1.24, 'roll': -4.73}
{'lipoC2': 7.41, 'temp': 30.44, 'lipoC3S3': 11.65, 'state': 'normal', 'rot1': 0, 'rot0': 0, 'rot3': 0, 'rot2': 0, 'depth': 1.843, 'yaw': -3.59, 'datetime': '2018-11-26 12:40:51.385892', 'mgs': 0, 'flw2': 0.0, 'flw1': 0.0, 'flw0': 0.0, 'time': 7.83, 'compass': -37.59, 'pitch': 1.79, 'roll': -4.77}
{'lipoC2': 7.42, 'temp': 30.31, 'lipoC3S3': 11.65, 'state': 'normal', 'rot1': 0, 'rot0': 0, 'rot3': 0, 'rot2': 0, 'depth': 1.767, 'yaw': -3.93, 'datetime': '2018-11-26 12:40:51.593099', 'mgs': 0, 'flw2': 0.0, 'flw1': 0.0, 'flw0': 0.0, 'time': 8.04, 'compass': -37.94, 'pitch': 2.3, 'roll': -4.99}
{'lipoC2': 7.41, 'temp': 30.31, 'lipoC3S3': 11.65, 'state': 'normal', 'rot1': 0, 'rot0': 0, 'rot3': 0, 'rot2': 0, 'depth': 1.767, 'yaw': -4.2, 'datetime': '2018-11-26 12:40:51.804327', 'mgs': 0, 'flw2': 0.0, 'flw1': 0.0, 'flw0': 0.0, 'time': 8.25, 'compass': -38.2, 'pitch': 2.59, 'roll': -5.17}
{'lipoC2': 7.41, 'temp': 30.31, 'lipoC3S3': 11.65, 'state': 'normal', 'rot1': 0, 'rot0': 0, 'rot3': 0, 'rot2': 0, 'depth': 1.767, 'yaw': -4.39, 'datetime': '2018-11-26 12:40:52.012281', 'mgs': 0, 'flw2': 0.0, 'flw1': 0.0, 'flw0': 0.0, 'time': 8.46, 'compass': -38.39, 'pitch': 2.59, 'roll': -5.42}
{'lipoC2': 7.41, 'temp': 30.31, 'lipoC3S3': 11.65, 'state': 'normal', 'rot1': 0, 'rot0': 0, 'rot3': 0, 'rot2': 0, 'depth': 1.767, 'yaw': -4.44, 'datetime': '2018-11-26 12:40:52.218754', 'mgs': 0, 'flw2': 0.0, 'flw1': 0.0, 'flw0': 0.0, 'time': 8.67, 'compass': -38.44, 'pitch': 2.49, 'roll': -5.68}
{'lipoC2': 7.41, 'temp': 30.31, 'lipoC3S3': 11.67, 'state': 'normal', 'rot1': 0, 'rot0': 0, 'rot3': 0, 'rot2': 0, 'depth': 1.767, 'yaw': -4.4, 'datetime': '2018-11-26 12:40:52.428805', 'mgs': 0, 'flw2': 0.0, 'flw1': 0.0, 'flw0': 0.0, 'time': 8.88, 'compass': -38.4, 'pitch': 2.12, 'roll': -5.71}
{'lipoC2': 7.41, 'temp': 30.25, 'lipoC3S3': 11.65, 'state': 'normal', 'rot1': 0, 'rot0': 0, 'rot3': 0, 'rot2': 0, 'depth': 1.767, 'yaw': -4.35, 'datetime': '2018-11-26 12:40:52.638016', 'mgs': 0, 'flw2': 0.0, 'flw1': 0.0, 'flw0': 0.0, 'time': 9.08, 'compass': -38.35, 'pitch': 1.55, 'roll': -5.64}
{'lipoC2': 7.41, 'temp': 30.31, 'lipoC3S3': 11.65, 'state': 'normal', 'rot1': 0, 'rot0': 0, 'rot3': 0, 'rot2': 0, 'depth': 1.767, 'yaw': -4.29, 'datetime': '2018-11-26 12:40:52.846799', 'mgs': 0, 'flw2': 0.0, 'flw1': 0.0, 'flw0': 0.0, 'time': 9.29, 'compass': -38.3, 'pitch': 1.01, 'roll': -5.58}
{'lipoC2': 7.41, 'temp': 30.31, 'lipoC3S3': 11.67, 'state': 'normal', 'rot1': 0, 'rot0': 0, 'rot3': 0, 'rot2': 0, 'depth': 1.843, 'yaw': -4.25, 'datetime': '2018-11-26 12:40:53.056520', 'mgs': 0, 'flw2': 0.0, 'flw1': 0.0, 'flw0': 0.0, 'time': 9.5, 'compass': -38.26, 'pitch': 0.59, 'roll': -5.43}
{'lipoC2': 7.41, 'temp': 30.31, 'lipoC3S3': 11.65, 'state': 'normal', 'rot1': 0, 'rot0': 0, 'rot3': 0, 'rot2': 0, 'depth': 1.767, 'yaw': -4.23, 'datetime': '2018-11-26 12:40:53.264057', 'mgs': 0, 'flw2': 0.0, 'flw1': 0.0, 'flw0': 0.0, 'time': 9.71, 'compass': -38.23, 'pitch': 0.32, 'roll': -5.17}
{'lipoC2': 7.41, 'temp': 30.31, 'lipoC3S3': 11.67, 'state': 'normal', 'rot1': 0, 'rot0': 0, 'rot3': 0, 'rot2': 0, 'depth': 1.767, 'yaw': -4.22, 'datetime': '2018-11-26 12:40:53.473283', 'mgs': 0, 'flw2': 0.0, 'flw1': 0.0, 'flw0': 0.0, 'time': 9.92, 'compass': -38.23, 'pitch': 0.26, 'roll': -5.03}
{'lipoC2': 7.41, 'temp': 30.31, 'lipoC3S3': 11.67, 'state': 'normal', 'rot1': 0, 'rot0': 0, 'rot3': 0, 'rot2': 0, 'depth': 1.843, 'yaw': -4.24, 'datetime': '2018-11-26 12:40:53.684621', 'mgs': 0, 'flw2': 0.0, 'flw1': 0.0, 'flw0': 0.0, 'time': 10.13, 'compass': -38.25, 'pitch': 0.5, 'roll': -5.04}
{'lipoC2': 7.41, 'temp': 30.31, 'lipoC3S3': 11.65, 'state': 'normal', 'rot1': 0, 'rot0': 0, 'rot3': 0, 'rot2': 0, 'depth': 1.767, 'yaw': -4.28, 'datetime': '2018-11-26 12:40:53.891587', 'mgs': 0, 'flw2': 0.0, 'flw1': 0.0, 'flw0': 0.0, 'time': 10.34, 'compass': -38.28, 'pitch': 0.91, 'roll': -5.17}
{'lipoC2': 7.41, 'temp': 30.31, 'lipoC3S3': 11.65, 'state': 'normal', 'rot1': 0, 'rot0': 0, 'rot3': 0, 'rot2': 0, 'depth': 1.767, 'yaw': -4.32, 'datetime': '2018-11-26 12:40:54.099604', 'mgs': 0, 'flw2': 0.0, 'flw1': 0.0, 'flw0': 0.0, 'time': 10.55, 'compass': -38.32, 'pitch': 1.35, 'roll': -5.39}
{'lipoC2': 7.41, 'temp': 30.31, 'lipoC3S3': 11.65, 'state': 'normal', 'rot1': 0, 'rot0': 0, 'rot3': 0, 'rot2': 0, 'depth': 1.767, 'yaw': -4.35, 'datetime': '2018-11-26 12:40:54.309452', 'mgs': 0, 'flw2': 0.0, 'flw1': 0.0, 'flw0': 0.0, 'time': 10.76, 'compass': -38.36, 'pitch': 1.7, 'roll': -5.6}
{'lipoC2': 7.41, 'temp': 30.31, 'lipoC3S3': 11.65, 'state': 'normal', 'rot1': 0, 'rot0': 0, 'rot3': 0, 'rot2': 0, 'depth': 1.767, 'yaw': -4.37, 'datetime': '2018-11-26 12:40:54.518039', 'mgs': 0, 'flw2': 0.0, 'flw1': 0.0, 'flw0': 0.0, 'time': 10.97, 'compass': -38.37, 'pitch': 1.93, 'roll': -5.6}
{'lipoC2': 7.41, 'temp': 30.31, 'lipoC3S3': 11.65, 'state': 'normal', 'rot1': 0, 'rot0': 0, 'rot3': 0, 'rot2': 0, 'depth': 1.767, 'yaw': -4.38, 'datetime': '2018-11-26 12:40:54.727259', 'mgs': 0, 'flw2': 0.0, 'flw1': 0.0, 'flw0': 0.0, 'time': 11.18, 'compass': -38.39, 'pitch': 1.99, 'roll': -5.6}
{'lipoC2': 7.41, 'temp': 30.31, 'lipoC3S3': 11.67, 'state': 'normal', 'rot1': 0, 'rot0': 0, 'rot3': 0, 'rot2': 0, 'depth': 1.767, 'yaw': -4.37, 'datetime': '2018-11-26 12:40:54.935855', 'mgs': 0, 'flw2': 0.0, 'flw1': 0.0, 'flw0': 0.0, 'time': 11.38, 'compass': -38.37, 'pitch': 1.84, 'roll': -5.78}
{'lipoC2': 7.41, 'temp': 30.31, 'lipoC3S3': 11.65, 'state': 'normal', 'rot1': 0, 'rot0': 0, 'rot3': 0, 'rot2': 0, 'depth': 1.843, 'yaw': -4.33, 'datetime': '2018-11-26 12:40:55.143855', 'mgs': 0, 'flw2': 0.0, 'flw1': 0.0, 'flw0': 0.0, 'time': 11.59, 'compass': -38.33, 'pitch': 1.46, 'roll': -5.8}
{'lipoC2': 7.41, 'temp': 30.31, 'lipoC3S3': 11.65, 'state': 'normal', 'rot1': 0, 'rot0': 0, 'rot3': 0, 'rot2': 0, 'depth': 1.843, 'yaw': -4.28, 'datetime': '2018-11-26 12:40:55.351955', 'mgs': 0, 'flw2': 0.0, 'flw1': 0.0, 'flw0': 0.0, 'time': 11.8, 'compass': -38.29, 'pitch': 1.01, 'roll': -5.48}
{'lipoC2': 7.41, 'temp': 30.31, 'lipoC3S3': 11.65, 'state': 'normal', 'rot1': 0, 'rot0': 0, 'rot3': 0, 'rot2': 0, 'depth': 1.843, 'yaw': -4.24, 'datetime': '2018-11-26 12:40:55.562325', 'mgs': 0, 'flw2': 0.0, 'flw1': 0.0, 'flw0': 0.0, 'time': 12.01, 'compass': -38.25, 'pitch': 0.63, 'roll': -5.26}
{'lipoC2': 7.42, 'temp': 30.31, 'lipoC3S3': 11.65, 'state': 'normal', 'rot1': 0, 'rot0': 0, 'rot3': 0, 'rot2': 0, 'depth': 1.767, 'yaw': -4.23, 'datetime': '2018-11-26 12:40:55.771664', 'mgs': 0, 'flw2': 0.0, 'flw1': 0.0, 'flw0': 0.0, 'time': 12.22, 'compass': -38.23, 'pitch': 0.37, 'roll': -5.32}
{'lipoC2': 7.41, 'temp': 30.31, 'lipoC3S3': 11.65, 'state': 'normal', 'rot1': 0, 'rot0': 0, 'rot3': 0, 'rot2': 0, 'depth': 1.843, 'yaw': -4.22, 'datetime': '2018-11-26 12:40:55.980035', 'mgs': 0, 'flw2': 0.0, 'flw1': 0.0, 'flw0': 0.0, 'time': 12.43, 'compass': -38.22, 'pitch': 0.33, 'roll': -5.41}
{'lipoC2': 7.41, 'temp': 30.31, 'lipoC3S3': 11.65, 'state': 'normal', 'rot1': 0, 'rot0': 0, 'rot3': 0, 'rot2': 0, 'depth': 1.843, 'yaw': -4.22, 'datetime': '2018-11-26 12:40:56.192357', 'mgs': 0, 'flw2': 0.0, 'flw1': 0.0, 'flw0': 0.0, 'time': 12.64, 'compass': -38.22, 'pitch': 0.35, 'roll': -5.41}
{'lipoC2': 7.41, 'temp': 30.38, 'lipoC3S3': 11.65, 'state': 'normal', 'rot1': 0, 'rot0': 0, 'rot3': 0, 'rot2': 0, 'depth': 1.843, 'yaw': -4.25, 'datetime': '2018-11-26 12:40:56.397764', 'mgs': 0, 'flw2': 0.0, 'flw1': 0.0, 'flw0': 0.0, 'time': 12.85, 'compass': -38.25, 'pitch': 0.61, 'roll': -5.4}
{'lipoC2': 7.41, 'temp': 30.38, 'lipoC3S3': 11.65, 'state': 'normal', 'rot1': 0, 'rot0': 0, 'rot3': 0, 'rot2': 0, 'depth': 1.843, 'yaw': -4.28, 'datetime': '2018-11-26 12:40:56.606701', 'mgs': 0, 'flw2': 0.0, 'flw1': 0.0, 'flw0': 0.0, 'time': 13.06, 'compass': -38.29, 'pitch': 1.01, 'roll': -5.46}
{'lipoC2': 7.41, 'temp': 30.19, 'lipoC3S3': 11.65, 'state': 'normal', 'rot1': 0, 'rot0': 0, 'rot3': 0, 'rot2': 0, 'depth': 1.843, 'yaw': -4.32, 'datetime': '2018-11-26 12:40:56.814740', 'mgs': 0, 'flw2': 0.0, 'flw1': 0.0, 'flw0': 0.0, 'time': 13.27, 'compass': -38.32, 'pitch': 1.33, 'roll': -5.52}
{'lipoC2': 7.42, 'temp': 30.31, 'lipoC3S3': 11.65, 'state': 'normal', 'rot1': 0, 'rot0': 0, 'rot3': 0, 'rot2': 0, 'depth': 1.843, 'yaw': -4.33, 'datetime': '2018-11-26 12:40:57.025309', 'mgs': 0, 'flw2': 0.0, 'flw1': 0.0, 'flw0': 0.0, 'time': 13.47, 'compass': -38.34, 'pitch': 1.52, 'roll': -5.53}
{'lipoC2': 7.41, 'temp': 30.31, 'lipoC3S3': 11.65, 'state': 'normal', 'rot1': 0, 'rot0': 0, 'rot3': 0, 'rot2': 0, 'depth': 1.843, 'yaw': -4.34, 'datetime': '2018-11-26 12:40:57.234284', 'mgs': 0, 'flw2': 0.0, 'flw1': 0.0, 'flw0': 0.0, 'time': 13.68, 'compass': -38.34, 'pitch': 1.54, 'roll': -5.52}
{'lipoC2': 7.41, 'temp': 30.31, 'lipoC3S3': 11.65, 'state': 'normal', 'rot1': 0, 'rot0': 0, 'rot3': 0, 'rot2': 0, 'depth': 1.843, 'yaw': -4.34, 'datetime': '2018-11-26 12:40:57.441871', 'mgs': 0, 'flw2': 0.0, 'flw1': 0.0, 'flw0': 0.0, 'time': 13.89, 'compass': -38.34, 'pitch': 1.5, 'roll': -5.36}
{'lipoC2': 7.42, 'temp': 30.25, 'lipoC3S3': 11.65, 'state': 'normal', 'rot1': 0, 'rot0': 0, 'rot3': 0, 'rot2': 0, 'depth': 1.843, 'yaw': -4.31, 'datetime': '2018-11-26 12:40:57.651471', 'mgs': 0, 'flw2': 0.0, 'flw1': 0.0, 'flw0': 0.0, 'time': 14.1, 'compass': -38.32, 'pitch': 1.26, 'roll': -5.24}
{'lipoC2': 7.41, 'temp': 30.31, 'lipoC3S3': 11.67, 'state': 'normal', 'rot1': 0, 'rot0': 0, 'rot3': 0, 'rot2': 0, 'depth': 1.767, 'yaw': -4.27, 'datetime': '2018-11-26 12:40:57.858580', 'mgs': 0, 'flw2': 0.0, 'flw1': 0.0, 'flw0': 0.0, 'time': 14.31, 'compass': -38.27, 'pitch': 0.88, 'roll': -5.29}
{'lipoC2': 7.41, 'temp': 30.31, 'lipoC3S3': 11.65, 'state': 'normal', 'rot1': 0, 'rot0': 0, 'rot3': 0, 'rot2': 0, 'depth': 1.92, 'yaw': -4.24, 'datetime': '2018-11-26 12:40:58.067379', 'mgs': 0, 'flw2': 0.0, 'flw1': 0.0, 'flw0': 0.0, 'time': 14.52, 'compass': -38.24, 'pitch': 0.5, 'roll': -5.29}
{'lipoC2': 7.41, 'temp': 30.13, 'lipoC3S3': 11.65, 'state': 'normal', 'rot1': 0, 'rot0': 0, 'rot3': 0, 'rot2': 0, 'depth': 1.843, 'yaw': -4.22, 'datetime': '2018-11-26 12:40:58.275220', 'mgs': 0, 'flw2': 0.0, 'flw1': 0.0, 'flw0': 0.0, 'time': 14.73, 'compass': -38.22, 'pitch': 0.27, 'roll': -5.15}
{'lipoC2': 7.41, 'temp': 30.44, 'lipoC3S3': 11.65, 'state': 'normal', 'rot1': 0, 'rot0': 0, 'rot3': 0, 'rot2': 0, 'depth': 1.843, 'yaw': -4.22, 'datetime': '2018-11-26 12:40:58.485246', 'mgs': 0, 'flw2': 0.0, 'flw1': 0.0, 'flw0': 0.0, 'time': 14.94, 'compass': -38.22, 'pitch': 0.24, 'roll': -5.16}
