{'lipoC2': 7.35, 'temp': 0.0, 'lipoC3S3': 11.47, 'state': 'normal', 'rot1': 0, 'rot0': 0, 'rot3': 0, 'rot2': 0, 'depth': -1.361, 'yaw': 0.0, 'datetime': '2018-12-12 13:47:05.363350', 'mgs': 0, 'flw2': 0.0, 'flw1': 0.0, 'flw0': 0.17, 'time': 1.26, 'compass': -132.86, 'pitch': -3.54, 'roll': -0.35}
{'lipoC2': 7.38, 'temp': 0.0, 'lipoC3S3': 11.43, 'state': 'normal', 'rot1': 0, 'rot0': 0, 'rot3': 0, 'rot2': 0, 'depth': 0.775, 'yaw': 0.0, 'datetime': '2018-12-12 13:47:05.570251', 'mgs': 0, 'flw2': 0.0, 'flw1': 0.0, 'flw0': 0.0, 'time': 1.47, 'compass': -132.86, 'pitch': -3.54, 'roll': -0.35}
{'lipoC2': 7.62, 'temp': 0.0, 'lipoC3S3': 11.38, 'state': 'normal', 'rot1': 0, 'rot0': 0, 'rot3': 0, 'rot2': 0, 'depth': -1.895, 'yaw': 0.0, 'datetime': '2018-12-12 13:47:05.779923', 'mgs': 0, 'flw2': 0.23, 'flw1': 0.0, 'flw0': 0.01, 'time': 1.67, 'compass': -132.86, 'pitch': -3.54, 'roll': -0.35}
{'lipoC2': 7.58, 'temp': 0.0, 'lipoC3S3': 11.36, 'state': 'normal', 'rot1': 0, 'rot0': 0, 'rot3': 0, 'rot2': 0, 'depth': -2.048, 'yaw': 0.0, 'datetime': '2018-12-12 13:47:05.987983', 'mgs': 0, 'flw2': 0.0, 'flw1': 0.0, 'flw0': 0.0, 'time': 1.88, 'compass': -132.86, 'pitch': -3.54, 'roll': -0.35}
{'lipoC2': 7.47, 'temp': 0.0, 'lipoC3S3': 11.34, 'state': 'normal', 'rot1': 3, 'rot0': 4, 'rot3': 0, 'rot2': 0, 'depth': -0.293, 'yaw': 0.0, 'datetime': '2018-12-12 13:47:06.191077', 'mgs': 0, 'flw2': 5.15, 'flw1': 0.62, 'flw0': 5.21, 'time': 2.09, 'compass': -132.86, 'pitch': -3.54, 'roll': -0.35}
{'lipoC2': 7.48, 'temp': 0.0, 'lipoC3S3': 11.31, 'state': 'normal', 'rot1': 10, 'rot0': 10, 'rot3': 0, 'rot2': 0, 'depth': -1.895, 'yaw': -0.03, 'datetime': '2018-12-12 13:47:06.400860', 'mgs': 0, 'flw2': 1.73, 'flw1': 0.0, 'flw0': 2.0, 'time': 2.3, 'compass': -132.88, 'pitch': -3.54, 'roll': -0.35}
{'lipoC2': 7.34, 'temp': 0.0, 'lipoC3S3': 11.38, 'state': 'normal', 'rot1': 17, 'rot0': 16, 'rot3': 0, 'rot2': 0, 'depth': -1.208, 'yaw': -0.03, 'datetime': '2018-12-12 13:47:06.609639', 'mgs': 0, 'flw2': 1.45, 'flw1': 0.0, 'flw0': 1.66, 'time': 2.51, 'compass': -132.88, 'pitch': -3.54, 'roll': -0.34}
{'lipoC2': 7.33, 'temp': 0.0, 'lipoC3S3': 11.27, 'state': 'normal', 'rot1': 23, 'rot0': 22, 'rot3': 0, 'rot2': 0, 'depth': -1.895, 'yaw': -0.0, 'datetime': '2018-12-12 13:47:06.819863', 'mgs': 0, 'flw2': 1.64, 'flw1': 0.0, 'flw0': 1.5, 'time': 2.72, 'compass': -132.86, 'pitch': -3.54, 'roll': -0.33}
{'lipoC2': 7.62, 'temp': 0.0, 'lipoC3S3': 11.4, 'state': 'normal', 'rot1': 29, 'rot0': 27, 'rot3': 0, 'rot2': 0, 'depth': 1.843, 'yaw': 0.0, 'datetime': '2018-12-12 13:47:07.035269', 'mgs': 0, 'flw2': 1.66, 'flw1': 0.0, 'flw0': 1.72, 'time': 2.92, 'compass': -132.86, 'pitch': -3.54, 'roll': -0.35}
{'lipoC2': 7.39, 'temp': 0.0, 'lipoC3S3': 11.54, 'state': 'normal', 'rot1': 35, 'rot0': 32, 'rot3': 0, 'rot2': 0, 'depth': -0.446, 'yaw': -0.01, 'datetime': '2018-12-12 13:47:07.243618', 'mgs': 0, 'flw2': 1.55, 'flw1': 0.32, 'flw0': 1.76, 'time': 3.13, 'compass': -132.87, 'pitch': -3.55, 'roll': -0.35}
{'lipoC2': 7.41, 'temp': 0.0, 'lipoC3S3': 11.72, 'state': 'normal', 'rot1': 41, 'rot0': 37, 'rot3': 0, 'rot2': 0, 'depth': 0.775, 'yaw': -0.03, 'datetime': '2018-12-12 13:47:07.453484', 'mgs': 0, 'flw2': 1.67, 'flw1': 0.23, 'flw0': 1.77, 'time': 3.34, 'compass': -132.88, 'pitch': -3.55, 'roll': -0.4}
{'lipoC2': 7.39, 'temp': 0.0, 'lipoC3S3': 11.4, 'state': 'normal', 'rot1': 46, 'rot0': 42, 'rot3': 0, 'rot2': 0, 'depth': 1.309, 'yaw': -0.05, 'datetime': '2018-12-12 13:47:07.663655', 'mgs': 0, 'flw2': 1.71, 'flw1': 0.0, 'flw0': 1.81, 'time': 3.55, 'compass': -132.9, 'pitch': -3.52, 'roll': -0.43}
{'lipoC2': 7.55, 'temp': 0.0, 'lipoC3S3': 11.39, 'state': 'normal', 'rot1': 52, 'rot0': 47, 'rot3': 0, 'rot2': 0, 'depth': -0.903, 'yaw': -0.04, 'datetime': '2018-12-12 13:47:07.874386', 'mgs': 0, 'flw2': 1.64, 'flw1': 0.0, 'flw0': 1.59, 'time': 3.76, 'compass': -132.9, 'pitch': -3.49, 'roll': -0.45}
{'lipoC2': 7.53, 'temp': 0.0, 'lipoC3S3': 11.22, 'state': 'normal', 'rot1': 58, 'rot0': 52, 'rot3': 0, 'rot2': 0, 'depth': 0.317, 'yaw': -0.04, 'datetime': '2018-12-12 13:47:08.083088', 'mgs': 0, 'flw2': 2.0, 'flw1': 0.0, 'flw0': 1.98, 'time': 3.97, 'compass': -132.9, 'pitch': -3.47, 'roll': -0.46}
{'lipoC2': 7.41, 'temp': 0.0, 'lipoC3S3': 11.6, 'state': 'normal', 'rot1': 64, 'rot0': 58, 'rot3': 0, 'rot2': 0, 'depth': -0.293, 'yaw': -0.04, 'datetime': '2018-12-12 13:47:08.292249', 'mgs': 0, 'flw2': 1.5, 'flw1': 0.64, 'flw0': 1.6, 'time': 4.18, 'compass': -132.9, 'pitch': -3.47, 'roll': -0.47}
{'lipoC2': 7.34, 'temp': 0.0, 'lipoC3S3': 11.36, 'state': 'normal', 'rot1': 69, 'rot0': 63, 'rot3': 0, 'rot2': 0, 'depth': -1.514, 'yaw': -0.06, 'datetime': '2018-12-12 13:47:08.500986', 'mgs': 0, 'flw2': 1.62, 'flw1': 0.0, 'flw0': 1.7, 'time': 4.39, 'compass': -132.91, 'pitch': -3.46, 'roll': -0.47}
{'lipoC2': 7.62, 'temp': 0.0, 'lipoC3S3': 11.29, 'state': 'normal', 'rot1': 75, 'rot0': 68, 'rot3': 0, 'rot2': 0, 'depth': -1.819, 'yaw': -0.04, 'datetime': '2018-12-12 13:47:08.711425', 'mgs': 0, 'flw2': 1.86, 'flw1': 0.0, 'flw0': 1.84, 'time': 4.6, 'compass': -132.89, 'pitch': -3.46, 'roll': -0.48}
{'lipoC2': 7.51, 'temp': 0.0, 'lipoC3S3': 11.31, 'state': 'normal', 'rot1': 80, 'rot0': 73, 'rot3': 0, 'rot2': 0, 'depth': -0.217, 'yaw': -0.05, 'datetime': '2018-12-12 13:47:08.920485', 'mgs': 0, 'flw2': 1.82, 'flw1': 0.0, 'flw0': 2.06, 'time': 4.81, 'compass': -132.91, 'pitch': -3.46, 'roll': -0.51}
{'lipoC2': 7.36, 'temp': 0.0, 'lipoC3S3': 11.64, 'state': 'normal', 'rot1': 86, 'rot0': 79, 'rot3': 0, 'rot2': 0, 'depth': -0.903, 'yaw': -0.08, 'datetime': '2018-12-12 13:47:09.131999', 'mgs': 0, 'flw2': 1.66, 'flw1': 0.0, 'flw0': 1.77, 'time': 5.02, 'compass': -132.93, 'pitch': -3.46, 'roll': -0.51}
{'lipoC2': 7.38, 'temp': 0.0, 'lipoC3S3': 11.56, 'state': 'normal', 'rot1': 92, 'rot0': 84, 'rot3': 0, 'rot2': 0, 'depth': 0.546, 'yaw': -0.07, 'datetime': '2018-12-12 13:47:09.339862', 'mgs': 0, 'flw2': 1.61, 'flw1': 0.03, 'flw0': 1.79, 'time': 5.23, 'compass': -132.93, 'pitch': -3.45, 'roll': -0.51}
{'lipoC2': 7.59, 'temp': 0.0, 'lipoC3S3': 11.39, 'state': 'normal', 'rot1': 97, 'rot0': 89, 'rot3': 0, 'rot2': 0, 'depth': -0.674, 'yaw': -0.07, 'datetime': '2018-12-12 13:47:09.548845', 'mgs': 0, 'flw2': 1.82, 'flw1': 0.0, 'flw0': 1.59, 'time': 5.44, 'compass': -132.93, 'pitch': -3.45, 'roll': -0.51}
{'lipoC2': 7.4, 'temp': 0.0, 'lipoC3S3': 11.69, 'state': 'normal', 'rot1': 102, 'rot0': 95, 'rot3': 0, 'rot2': 0, 'depth': 1.157, 'yaw': -0.07, 'datetime': '2018-12-12 13:47:09.762722', 'mgs': 0, 'flw2': 1.7, 'flw1': 0.18, 'flw0': 1.75, 'time': 5.64, 'compass': -132.93, 'pitch': -3.44, 'roll': -0.51}
{'lipoC2': 7.49, 'temp': 0.0, 'lipoC3S3': 11.25, 'state': 'normal', 'rot1': 108, 'rot0': 100, 'rot3': 0, 'rot2': 0, 'depth': -1.285, 'yaw': -0.09, 'datetime': '2018-12-12 13:47:09.967534', 'mgs': 0, 'flw2': 1.54, 'flw1': 0.0, 'flw0': 1.61, 'time': 5.85, 'compass': -132.94, 'pitch': -3.45, 'roll': -0.56}
{'lipoC2': 7.63, 'temp': 0.0, 'lipoC3S3': 11.32, 'state': 'normal', 'rot1': 113, 'rot0': 106, 'rot3': 0, 'rot2': 0, 'depth': -1.056, 'yaw': -0.09, 'datetime': '2018-12-12 13:47:10.178255', 'mgs': 0, 'flw2': 1.62, 'flw1': 0.38, 'flw0': 1.78, 'time': 6.06, 'compass': -132.95, 'pitch': -3.47, 'roll': -0.58}
{'lipoC2': 7.47, 'temp': 0.0, 'lipoC3S3': 11.69, 'state': 'normal', 'rot1': 118, 'rot0': 111, 'rot3': 0, 'rot2': 0, 'depth': -0.98, 'yaw': -0.11, 'datetime': '2018-12-12 13:47:10.390070', 'mgs': 0, 'flw2': 1.77, 'flw1': 0.15, 'flw0': 1.79, 'time': 6.27, 'compass': -132.96, 'pitch': -3.45, 'roll': -0.59}
{'lipoC2': 7.51, 'temp': 0.0, 'lipoC3S3': 11.25, 'state': 'normal', 'rot1': 124, 'rot0': 116, 'rot3': 0, 'rot2': 0, 'depth': -2.048, 'yaw': -0.1, 'datetime': '2018-12-12 13:47:10.598520', 'mgs': 0, 'flw2': 2.08, 'flw1': 0.0, 'flw0': 2.03, 'time': 6.48, 'compass': -132.96, 'pitch': -3.44, 'roll': -0.6}
{'lipoC2': 7.58, 'temp': 0.0, 'lipoC3S3': 11.25, 'state': 'normal', 'rot1': 130, 'rot0': 121, 'rot3': 0, 'rot2': 0, 'depth': -1.971, 'yaw': -0.1, 'datetime': '2018-12-12 13:47:10.809461', 'mgs': 0, 'flw2': 2.05, 'flw1': 0.0, 'flw0': 1.93, 'time': 6.69, 'compass': -132.96, 'pitch': -3.41, 'roll': -0.61}
{'lipoC2': 7.48, 'temp': 0.0, 'lipoC3S3': 11.69, 'state': 'normal', 'rot1': 135, 'rot0': 127, 'rot3': 0, 'rot2': 0, 'depth': -0.674, 'yaw': -0.12, 'datetime': '2018-12-12 13:47:11.019193', 'mgs': 0, 'flw2': 1.49, 'flw1': 0.0, 'flw0': 1.59, 'time': 6.9, 'compass': -132.98, 'pitch': -3.44, 'roll': -0.61}
{'lipoC2': 7.62, 'temp': 0.0, 'lipoC3S3': 11.36, 'state': 'normal', 'rot1': 140, 'rot0': 132, 'rot3': 0, 'rot2': 0, 'depth': -1.056, 'yaw': -0.11, 'datetime': '2018-12-12 13:47:11.228507', 'mgs': 0, 'flw2': 1.72, 'flw1': 0.0, 'flw0': 1.64, 'time': 7.11, 'compass': -132.96, 'pitch': -3.44, 'roll': -0.61}
{'lipoC2': 7.42, 'temp': 0.0, 'lipoC3S3': 11.56, 'state': 'normal', 'rot1': 146, 'rot0': 137, 'rot3': 0, 'rot2': 0, 'depth': -0.903, 'yaw': -0.11, 'datetime': '2018-12-12 13:47:11.436937', 'mgs': 0, 'flw2': 1.61, 'flw1': 0.47, 'flw0': 1.65, 'time': 7.32, 'compass': -132.96, 'pitch': -3.4, 'roll': -0.61}
{'lipoC2': 7.61, 'temp': 0.0, 'lipoC3S3': 11.39, 'state': 'normal', 'rot1': 152, 'rot0': 142, 'rot3': 0, 'rot2': 0, 'depth': -0.827, 'yaw': -0.11, 'datetime': '2018-12-12 13:47:11.648951', 'mgs': 0, 'flw2': 1.9, 'flw1': 0.0, 'flw0': 1.62, 'time': 7.53, 'compass': -132.97, 'pitch': -3.35, 'roll': -0.63}
{'lipoC2': 7.46, 'temp': 0.0, 'lipoC3S3': 11.39, 'state': 'normal', 'rot1': 157, 'rot0': 148, 'rot3': 0, 'rot2': 0, 'depth': -0.903, 'yaw': -0.07, 'datetime': '2018-12-12 13:47:11.859429', 'mgs': 0, 'flw2': 1.6, 'flw1': 0.0, 'flw0': 1.49, 'time': 7.74, 'compass': -132.92, 'pitch': -3.35, 'roll': -0.61}
{'lipoC2': 7.38, 'temp': 0.0, 'lipoC3S3': 11.58, 'state': 'normal', 'rot1': 163, 'rot0': 153, 'rot3': 0, 'rot2': 0, 'depth': 1.004, 'yaw': 0.01, 'datetime': '2018-12-12 13:47:12.068113', 'mgs': 0, 'flw2': 1.88, 'flw1': 0.0, 'flw0': 1.81, 'time': 7.95, 'compass': -132.85, 'pitch': -3.55, 'roll': -0.41}
{'lipoC2': 7.52, 'temp': 0.0, 'lipoC3S3': 11.4, 'state': 'normal', 'rot1': 169, 'rot0': 158, 'rot3': 0, 'rot2': 0, 'depth': -0.98, 'yaw': 1.29, 'datetime': '2018-12-12 13:47:12.277124', 'mgs': 0, 'flw2': 1.9, 'flw1': 0.0, 'flw0': 1.9, 'time': 8.16, 'compass': -131.56, 'pitch': -3.67, 'roll': -0.34}
{'lipoC2': 7.56, 'temp': 0.0, 'lipoC3S3': 11.42, 'state': 'normal', 'rot1': 174, 'rot0': 164, 'rot3': 0, 'rot2': 0, 'depth': 0.47, 'yaw': 4.65, 'datetime': '2018-12-12 13:47:12.486099', 'mgs': 0, 'flw2': 1.49, 'flw1': 0.56, 'flw0': 1.68, 'time': 8.37, 'compass': -128.21, 'pitch': -3.59, 'roll': -0.3}
{'lipoC2': 7.51, 'temp': 0.0, 'lipoC3S3': 11.21, 'state': 'normal', 'rot1': 180, 'rot0': 170, 'rot3': 0, 'rot2': 0, 'depth': 0.089, 'yaw': 7.87, 'datetime': '2018-12-12 13:47:12.695996', 'mgs': 0, 'flw2': 1.7, 'flw1': 0.0, 'flw0': 1.9, 'time': 8.58, 'compass': -124.99, 'pitch': -3.79, 'roll': -0.13}
{'lipoC2': 7.59, 'temp': 0.0, 'lipoC3S3': 11.23, 'state': 'normal', 'rot1': 185, 'rot0': 174, 'rot3': 0, 'rot2': 0, 'depth': -2.048, 'yaw': 13.05, 'datetime': '2018-12-12 13:47:12.906989', 'mgs': 0, 'flw2': 1.73, 'flw1': 0.0, 'flw0': 1.94, 'time': 8.79, 'compass': -119.81, 'pitch': -3.75, 'roll': -0.06}
{'lipoC2': 7.33, 'temp': 0.0, 'lipoC3S3': 11.35, 'state': 'normal', 'rot1': 190, 'rot0': 179, 'rot3': 0, 'rot2': 0, 'depth': -1.437, 'yaw': 19.68, 'datetime': '2018-12-12 13:47:13.116392', 'mgs': 0, 'flw2': 1.38, 'flw1': 0.0, 'flw0': 1.34, 'time': 9.0, 'compass': -113.18, 'pitch': -3.77, 'roll': 0.04}
{'lipoC2': 7.43, 'temp': 0.0, 'lipoC3S3': 11.38, 'state': 'normal', 'rot1': 195, 'rot0': 184, 'rot3': 0, 'rot2': 0, 'depth': -0.446, 'yaw': 26.02, 'datetime': '2018-12-12 13:47:13.325480', 'mgs': 0, 'flw2': 1.32, 'flw1': 0.0, 'flw0': 1.65, 'time': 9.2, 'compass': -106.84, 'pitch': -3.8, 'roll': 0.17}
{'lipoC2': 7.4, 'temp': 0.0, 'lipoC3S3': 11.38, 'state': 'normal', 'rot1': 199, 'rot0': 188, 'rot3': 0, 'rot2': 0, 'depth': -0.369, 'yaw': 31.87, 'datetime': '2018-12-12 13:47:13.533731', 'mgs': 0, 'flw2': 1.17, 'flw1': 0.0, 'flw0': 1.2, 'time': 9.41, 'compass': -100.98, 'pitch': -3.8, 'roll': 0.29}
{'lipoC2': 7.59, 'temp': 0.0, 'lipoC3S3': 11.29, 'state': 'normal', 'rot1': 204, 'rot0': 192, 'rot3': 0, 'rot2': 0, 'depth': -2.124, 'yaw': 38.17, 'datetime': '2018-12-12 13:47:13.744819', 'mgs': 0, 'flw2': 1.17, 'flw1': 0.26, 'flw0': 1.12, 'time': 9.62, 'compass': -94.69, 'pitch': -3.72, 'roll': 0.38}
{'lipoC2': 7.51, 'temp': 0.0, 'lipoC3S3': 11.15, 'state': 'normal', 'rot1': 209, 'rot0': 196, 'rot3': 0, 'rot2': 0, 'depth': -0.369, 'yaw': 43.21, 'datetime': '2018-12-12 13:47:13.953550', 'mgs': 0, 'flw2': 1.33, 'flw1': 0.0, 'flw0': 1.37, 'time': 9.83, 'compass': -89.65, 'pitch': -3.73, 'roll': 0.5}
{'lipoC2': 7.61, 'temp': 0.0, 'lipoC3S3': 11.44, 'state': 'normal', 'rot1': 212, 'rot0': 199, 'rot3': 0, 'rot2': 0, 'depth': 0.394, 'yaw': 48.72, 'datetime': '2018-12-12 13:47:14.163648', 'mgs': 0, 'flw2': 0.88, 'flw1': 0.35, 'flw0': 1.0, 'time': 10.04, 'compass': -84.14, 'pitch': -3.68, 'roll': 0.61}
{'lipoC2': 7.51, 'temp': 0.0, 'lipoC3S3': 11.36, 'state': 'normal', 'rot1': 216, 'rot0': 202, 'rot3': 0, 'rot2': 0, 'depth': -0.14, 'yaw': 53.61, 'datetime': '2018-12-12 13:47:14.373342', 'mgs': 0, 'flw2': 0.76, 'flw1': 0.0, 'flw0': 0.68, 'time': 10.25, 'compass': -79.25, 'pitch': -3.61, 'roll': 0.7}
{'lipoC2': 7.44, 'temp': 0.0, 'lipoC3S3': 11.38, 'state': 'normal', 'rot1': 219, 'rot0': 205, 'rot3': 0, 'rot2': 0, 'depth': -0.903, 'yaw': 58.64, 'datetime': '2018-12-12 13:47:14.582599', 'mgs': 0, 'flw2': 0.96, 'flw1': 0.0, 'flw0': 1.1, 'time': 10.46, 'compass': -74.22, 'pitch': -3.63, 'roll': 0.75}
{'lipoC2': 7.35, 'temp': 0.0, 'lipoC3S3': 11.38, 'state': 'normal', 'rot1': 222, 'rot0': 208, 'rot3': 0, 'rot2': 0, 'depth': -1.743, 'yaw': 64.59, 'datetime': '2018-12-12 13:47:14.792490', 'mgs': 0, 'flw2': 0.49, 'flw1': 0.0, 'flw0': 0.56, 'time': 10.67, 'compass': -68.27, 'pitch': -3.55, 'roll': 0.82}
{'lipoC2': 7.59, 'temp': 0.0, 'lipoC3S3': 11.39, 'state': 'normal', 'rot1': 225, 'rot0': 210, 'rot3': 0, 'rot2': 0, 'depth': 0.851, 'yaw': 69.02, 'datetime': '2018-12-12 13:47:15.002808', 'mgs': 0, 'flw2': 0.92, 'flw1': 0.0, 'flw0': 0.66, 'time': 10.88, 'compass': -63.83, 'pitch': -3.44, 'roll': 0.94}
{'lipoC2': 7.36, 'temp': 0.0, 'lipoC3S3': 11.5, 'state': 'normal', 'rot1': 228, 'rot0': 213, 'rot3': 0, 'rot2': 0, 'depth': -1.132, 'yaw': 71.29, 'datetime': '2018-12-12 13:47:15.210321', 'mgs': 0, 'flw2': 0.51, 'flw1': 0.26, 'flw0': 0.61, 'time': 11.09, 'compass': -61.56, 'pitch': -3.45, 'roll': 0.99}
{'lipoC2': 7.55, 'temp': 0.0, 'lipoC3S3': 11.43, 'state': 'normal', 'rot1': 231, 'rot0': 215, 'rot3': 0, 'rot2': 0, 'depth': -1.056, 'yaw': 76.0, 'datetime': '2018-12-12 13:47:15.419959', 'mgs': 0, 'flw2': 0.93, 'flw1': 0.0, 'flw0': 0.67, 'time': 11.3, 'compass': -56.86, 'pitch': -3.39, 'roll': 1.07}
{'lipoC2': 7.36, 'temp': 0.0, 'lipoC3S3': 11.46, 'state': 'normal', 'rot1': 233, 'rot0': 217, 'rot3': 0, 'rot2': 0, 'depth': -1.056, 'yaw': 81.39, 'datetime': '2018-12-12 13:47:15.631130', 'mgs': 0, 'flw2': 0.31, 'flw1': 0.15, 'flw0': 0.4, 'time': 11.51, 'compass': -51.46, 'pitch': -3.28, 'roll': 1.1}
{'lipoC2': 7.58, 'temp': 0.0, 'lipoC3S3': 11.29, 'state': 'normal', 'rot1': 236, 'rot0': 219, 'rot3': 0, 'rot2': 0, 'depth': -2.124, 'yaw': 86.01, 'datetime': '2018-12-12 13:47:15.843572', 'mgs': 0, 'flw2': 0.31, 'flw1': 0.53, 'flw0': 0.34, 'time': 11.72, 'compass': -46.84, 'pitch': -3.27, 'roll': 1.19}
{'lipoC2': 7.47, 'temp': 0.0, 'lipoC3S3': 11.34, 'state': 'normal', 'rot1': 238, 'rot0': 220, 'rot3': 0, 'rot2': 0, 'depth': -0.827, 'yaw': 90.84, 'datetime': '2018-12-12 13:47:16.052225', 'mgs': 0, 'flw2': 0.17, 'flw1': 0.0, 'flw0': 0.63, 'time': 11.93, 'compass': -42.01, 'pitch': -3.24, 'roll': 1.21}
{'lipoC2': 7.62, 'temp': 0.0, 'lipoC3S3': 11.47, 'state': 'normal', 'rot1': 240, 'rot0': 222, 'rot3': 0, 'rot2': 0, 'depth': -1.666, 'yaw': 95.57, 'datetime': '2018-12-12 13:47:16.257019', 'mgs': 0, 'flw2': 0.1, 'flw1': 0.0, 'flw0': 0.24, 'time': 12.13, 'compass': -37.29, 'pitch': -3.15, 'roll': 1.23}
{'lipoC2': 7.38, 'temp': 0.0, 'lipoC3S3': 11.48, 'state': 'normal', 'rot1': 241, 'rot0': 223, 'rot3': 0, 'rot2': 0, 'depth': -1.208, 'yaw': 99.92, 'datetime': '2018-12-12 13:47:16.466573', 'mgs': 0, 'flw2': 0.46, 'flw1': 0.0, 'flw0': 0.46, 'time': 12.34, 'compass': -32.93, 'pitch': -3.11, 'roll': 1.28}
{'lipoC2': 7.52, 'temp': 0.0, 'lipoC3S3': 11.42, 'state': 'normal', 'rot1': 243, 'rot0': 224, 'rot3': 0, 'rot2': 0, 'depth': 0.089, 'yaw': 104.01, 'datetime': '2018-12-12 13:47:16.680736', 'mgs': 0, 'flw2': 0.06, 'flw1': 0.0, 'flw0': 0.02, 'time': 12.55, 'compass': -28.85, 'pitch': -3.04, 'roll': 1.33}
{'lipoC2': 7.42, 'temp': 0.0, 'lipoC3S3': 11.39, 'state': 'normal', 'rot1': 244, 'rot0': 225, 'rot3': 0, 'rot2': 0, 'depth': -1.132, 'yaw': 107.98, 'datetime': '2018-12-12 13:47:16.888712', 'mgs': 0, 'flw2': 0.04, 'flw1': 0.0, 'flw0': 0.02, 'time': 12.76, 'compass': -24.88, 'pitch': -3.05, 'roll': 1.32}
{'lipoC2': 7.47, 'temp': 0.0, 'lipoC3S3': 11.38, 'state': 'normal', 'rot1': 245, 'rot0': 226, 'rot3': 0, 'rot2': 0, 'depth': -1.743, 'yaw': 112.7, 'datetime': '2018-12-12 13:47:17.101351', 'mgs': 0, 'flw2': 0.18, 'flw1': 0.0, 'flw0': 0.37, 'time': 12.97, 'compass': -20.16, 'pitch': -2.92, 'roll': 1.38}
{'lipoC2': 7.55, 'temp': 0.0, 'lipoC3S3': 11.25, 'state': 'normal', 'rot1': 247, 'rot0': 227, 'rot3': 0, 'rot2': 0, 'depth': 0.165, 'yaw': 117.66, 'datetime': '2018-12-12 13:47:17.308840', 'mgs': 0, 'flw2': 0.33, 'flw1': 0.0, 'flw0': 0.52, 'time': 13.18, 'compass': -15.2, 'pitch': -2.91, 'roll': 1.38}
{'lipoC2': 7.61, 'temp': 0.0, 'lipoC3S3': 11.34, 'state': 'normal', 'rot1': 249, 'rot0': 228, 'rot3': 0, 'rot2': 0, 'depth': 0.623, 'yaw': 122.75, 'datetime': '2018-12-12 13:47:17.518614', 'mgs': 0, 'flw2': 0.46, 'flw1': 0.0, 'flw0': 0.24, 'time': 13.39, 'compass': -10.11, 'pitch': -2.76, 'roll': 1.35}
{'lipoC2': 7.57, 'temp': 0.0, 'lipoC3S3': 11.42, 'state': 'normal', 'rot1': 250, 'rot0': 230, 'rot3': 0, 'rot2': 0, 'depth': 0.623, 'yaw': 125.81, 'datetime': '2018-12-12 13:47:17.727557', 'mgs': 0, 'flw2': 0.01, 'flw1': 0.0, 'flw0': 0.12, 'time': 13.6, 'compass': -7.05, 'pitch': -2.8, 'roll': 1.36}
{'lipoC2': 7.39, 'temp': 0.0, 'lipoC3S3': 11.63, 'state': 'normal', 'rot1': 250, 'rot0': 230, 'rot3': 0, 'rot2': 0, 'depth': 0.546, 'yaw': 127.94, 'datetime': '2018-12-12 13:47:17.935708', 'mgs': 0, 'flw2': 0.0, 'flw1': 0.0, 'flw0': 0.0, 'time': 13.81, 'compass': -4.92, 'pitch': -2.77, 'roll': 1.39}
{'lipoC2': 7.54, 'temp': 0.0, 'lipoC3S3': 11.43, 'state': 'normal', 'rot1': 250, 'rot0': 230, 'rot3': 0, 'rot2': 0, 'depth': -0.903, 'yaw': 129.47, 'datetime': '2018-12-12 13:47:18.143896', 'mgs': 0, 'flw2': 0.0, 'flw1': 0.0, 'flw0': 0.0, 'time': 14.02, 'compass': -3.38, 'pitch': -2.63, 'roll': 1.35}
{'lipoC2': 7.41, 'temp': 0.0, 'lipoC3S3': 11.46, 'state': 'normal', 'rot1': 250, 'rot0': 230, 'rot3': 0, 'rot2': 0, 'depth': -1.361, 'yaw': 129.49, 'datetime': '2018-12-12 13:47:18.352143', 'mgs': 0, 'flw2': 0.0, 'flw1': 0.0, 'flw0': 0.17, 'time': 14.23, 'compass': -3.37, 'pitch': -2.39, 'roll': 1.18}
{'lipoC2': 7.35, 'temp': 0.0, 'lipoC3S3': 11.44, 'state': 'normal', 'rot1': 250, 'rot0': 230, 'rot3': 0, 'rot2': 0, 'depth': -1.361, 'yaw': 129.61, 'datetime': '2018-12-12 13:47:18.563078', 'mgs': 0, 'flw2': 0.0, 'flw1': 0.64, 'flw0': 0.0, 'time': 14.44, 'compass': -3.24, 'pitch': -2.14, 'roll': 1.02}
{'lipoC2': 7.36, 'temp': 0.0, 'lipoC3S3': 11.5, 'state': 'normal', 'rot1': 250, 'rot0': 230, 'rot3': 0, 'rot2': 0, 'depth': -0.598, 'yaw': 129.81, 'datetime': '2018-12-12 13:47:18.775548', 'mgs': 0, 'flw2': 0.28, 'flw1': 0.0, 'flw0': 0.16, 'time': 14.64, 'compass': -3.05, 'pitch': -2.22, 'roll': 0.82}
{'lipoC2': 7.51, 'temp': 0.0, 'lipoC3S3': 11.3, 'state': 'normal', 'rot1': 250, 'rot0': 230, 'rot3': 0, 'rot2': 0, 'depth': 0.165, 'yaw': 130.0, 'datetime': '2018-12-12 13:47:18.983340', 'mgs': 0, 'flw2': 0.0, 'flw1': 0.53, 'flw0': 0.0, 'time': 14.85, 'compass': -2.86, 'pitch': -2.43, 'roll': 0.49}
{'lipoC2': 7.5, 'temp': 0.0, 'lipoC3S3': 11.42, 'state': 'normal', 'rot1': 250, 'rot0': 230, 'rot3': 0, 'rot2': 0, 'depth': 0.012, 'yaw': 130.27, 'datetime': '2018-12-12 13:47:19.190254', 'mgs': 0, 'flw2': 0.0, 'flw1': 0.09, 'flw0': 0.0, 'time': 15.06, 'compass': -2.58, 'pitch': -2.55, 'roll': 0.29}
{'lipoC2': 7.52, 'temp': 0.0, 'lipoC3S3': 11.27, 'state': 'normal', 'rot1': 250, 'rot0': 230, 'rot3': 0, 'rot2': 0, 'depth': -2.124, 'yaw': 130.66, 'datetime': '2018-12-12 13:47:19.401238', 'mgs': 0, 'flw2': 0.07, 'flw1': 0.0, 'flw0': 0.27, 'time': 15.27, 'compass': -2.19, 'pitch': -2.66, 'roll': 0.12}
{'lipoC2': 7.4, 'temp': 0.0, 'lipoC3S3': 11.56, 'state': 'normal', 'rot1': 250, 'rot0': 230, 'rot3': 0, 'rot2': 0, 'depth': -1.285, 'yaw': 130.66, 'datetime': '2018-12-12 13:47:19.610435', 'mgs': 0, 'flw2': 0.0, 'flw1': 0.41, 'flw0': 0.0, 'time': 15.48, 'compass': -2.2, 'pitch': -2.74, 'roll': 0.01}
{'lipoC2': 7.55, 'temp': 0.0, 'lipoC3S3': 11.26, 'state': 'normal', 'rot1': 250, 'rot0': 230, 'rot3': 0, 'rot2': 0, 'depth': 0.317, 'yaw': 130.66, 'datetime': '2018-12-12 13:47:19.823089', 'mgs': 0, 'flw2': 0.02, 'flw1': 0.0, 'flw0': 0.28, 'time': 15.69, 'compass': -2.19, 'pitch': -2.8, 'roll': -0.08}
{'lipoC2': 7.34, 'temp': 0.0, 'lipoC3S3': 11.43, 'state': 'normal', 'rot1': 250, 'rot0': 230, 'rot3': 0, 'rot2': 0, 'depth': -1.285, 'yaw': 130.66, 'datetime': '2018-12-12 13:47:20.033135', 'mgs': 0, 'flw2': 0.0, 'flw1': 0.53, 'flw0': 0.0, 'time': 15.9, 'compass': -2.19, 'pitch': -2.85, 'roll': -0.16}
{'lipoC2': 7.64, 'temp': 0.0, 'lipoC3S3': 11.51, 'state': 'normal', 'rot1': 250, 'rot0': 230, 'rot3': 0, 'rot2': 0, 'depth': -1.514, 'yaw': 130.66, 'datetime': '2018-12-12 13:47:20.239833', 'mgs': 0, 'flw2': 0.0, 'flw1': 0.59, 'flw0': 0.0, 'time': 16.11, 'compass': -2.19, 'pitch': -2.89, 'roll': -0.22}
{'lipoC2': 7.43, 'temp': 0.0, 'lipoC3S3': 11.46, 'state': 'normal', 'rot1': 250, 'rot0': 230, 'rot3': 0, 'rot2': 0, 'depth': -0.98, 'yaw': 130.66, 'datetime': '2018-12-12 13:47:20.450003', 'mgs': 0, 'flw2': 0.0, 'flw1': 0.0, 'flw0': 0.06, 'time': 16.32, 'compass': -2.2, 'pitch': -2.92, 'roll': -0.27}
{'lipoC2': 7.57, 'temp': 0.0, 'lipoC3S3': 11.26, 'state': 'normal', 'rot1': 250, 'rot0': 230, 'rot3': 0, 'rot2': 0, 'depth': 0.623, 'yaw': 130.66, 'datetime': '2018-12-12 13:47:20.662634', 'mgs': 0, 'flw2': 0.0, 'flw1': 0.0, 'flw0': 0.26, 'time': 16.53, 'compass': -2.2, 'pitch': -2.91, 'roll': -0.27}
{'lipoC2': 7.35, 'temp': 0.0, 'lipoC3S3': 11.46, 'state': 'normal', 'rot1': 250, 'rot0': 230, 'rot3': 0, 'rot2': 0, 'depth': -1.208, 'yaw': 130.66, 'datetime': '2018-12-12 13:47:20.870829', 'mgs': 0, 'flw2': 0.0, 'flw1': 0.64, 'flw0': 0.0, 'time': 16.74, 'compass': -2.2, 'pitch': -2.91, 'roll': -0.27}
{'lipoC2': 7.35, 'temp': 0.0, 'lipoC3S3': 11.39, 'state': 'normal', 'rot1': 250, 'rot0': 230, 'rot3': 0, 'rot2': 0, 'depth': -1.514, 'yaw': 130.66, 'datetime': '2018-12-12 13:47:21.080658', 'mgs': 0, 'flw2': 0.0, 'flw1': 0.21, 'flw0': 0.0, 'time': 16.95, 'compass': -2.2, 'pitch': -2.91, 'roll': -0.27}
{'lipoC2': 7.41, 'temp': 0.0, 'lipoC3S3': 11.39, 'state': 'normal', 'rot1': 250, 'rot0': 230, 'rot3': 0, 'rot2': 0, 'depth': -1.361, 'yaw': 130.66, 'datetime': '2018-12-12 13:47:21.289394', 'mgs': 0, 'flw2': 0.0, 'flw1': 0.0, 'flw0': 0.0, 'time': 17.16, 'compass': -2.2, 'pitch': -2.91, 'roll': -0.27}
{'lipoC2': 7.39, 'temp': 0.0, 'lipoC3S3': 11.51, 'state': 'normal', 'rot1': 250, 'rot0': 230, 'rot3': 0, 'rot2': 0, 'depth': -0.293, 'yaw': 130.66, 'datetime': '2018-12-12 13:47:21.499400', 'mgs': 0, 'flw2': 0.0, 'flw1': 0.62, 'flw0': 0.0, 'time': 17.37, 'compass': -2.2, 'pitch': -2.91, 'roll': -0.27}
{'lipoC2': 7.46, 'temp': 0.0, 'lipoC3S3': 11.39, 'state': 'normal', 'rot1': 250, 'rot0': 230, 'rot3': 0, 'rot2': 0, 'depth': -1.437, 'yaw': 130.66, 'datetime': '2018-12-12 13:47:21.710852', 'mgs': 0, 'flw2': 0.0, 'flw1': 0.0, 'flw0': 0.15, 'time': 17.58, 'compass': -2.2, 'pitch': -2.91, 'roll': -0.27}
{'lipoC2': 7.34, 'temp': 0.0, 'lipoC3S3': 11.43, 'state': 'normal', 'rot1': 250, 'rot0': 230, 'rot3': 0, 'rot2': 0, 'depth': -1.285, 'yaw': 130.66, 'datetime': '2018-12-12 13:47:21.921112', 'mgs': 0, 'flw2': 0.0, 'flw1': 0.53, 'flw0': 0.0, 'time': 17.79, 'compass': -2.2, 'pitch': -2.91, 'roll': -0.27}
{'lipoC2': 7.36, 'temp': 0.0, 'lipoC3S3': 11.38, 'state': 'normal', 'rot1': 250, 'rot0': 230, 'rot3': 0, 'rot2': 0, 'depth': -1.514, 'yaw': 130.66, 'datetime': '2018-12-12 13:47:22.128623', 'mgs': 0, 'flw2': 0.0, 'flw1': 0.21, 'flw0': 0.0, 'time': 17.99, 'compass': -2.2, 'pitch': -2.91, 'roll': -0.27}
{'lipoC2': 7.57, 'temp': 0.0, 'lipoC3S3': 11.44, 'state': 'normal', 'rot1': 250, 'rot0': 230, 'rot3': 0, 'rot2': 0, 'depth': 0.623, 'yaw': 130.66, 'datetime': '2018-12-12 13:47:22.338780', 'mgs': 0, 'flw2': 0.0, 'flw1': 0.0, 'flw0': 0.0, 'time': 18.2, 'compass': -2.2, 'pitch': -2.91, 'roll': -0.27}
{'lipoC2': 7.4, 'temp': 0.0, 'lipoC3S3': 11.72, 'state': 'normal', 'rot1': 250, 'rot0': 230, 'rot3': 0, 'rot2': 0, 'depth': 1.004, 'yaw': 130.66, 'datetime': '2018-12-12 13:47:22.550749', 'mgs': 0, 'flw2': 0.0, 'flw1': 0.0, 'flw0': 0.0, 'time': 18.41, 'compass': -2.2, 'pitch': -2.91, 'roll': -0.27}
{'lipoC2': 7.38, 'temp': 0.0, 'lipoC3S3': 11.68, 'state': 'normal', 'rot1': 250, 'rot0': 230, 'rot3': 0, 'rot2': 0, 'depth': 0.699, 'yaw': 130.66, 'datetime': '2018-12-12 13:47:22.759748', 'mgs': 0, 'flw2': 0.0, 'flw1': 0.03, 'flw0': 0.0, 'time': 18.62, 'compass': -2.2, 'pitch': -2.91, 'roll': -0.27}
{'lipoC2': 7.34, 'temp': 0.0, 'lipoC3S3': 11.43, 'state': 'normal', 'rot1': 250, 'rot0': 230, 'rot3': 0, 'rot2': 0, 'depth': -1.285, 'yaw': 130.66, 'datetime': '2018-12-12 13:47:22.967869', 'mgs': 0, 'flw2': 0.0, 'flw1': 0.0, 'flw0': 0.11, 'time': 18.83, 'compass': -2.2, 'pitch': -2.91, 'roll': -0.27}
{'lipoC2': 7.39, 'temp': 0.0, 'lipoC3S3': 11.39, 'state': 'normal', 'rot1': 250, 'rot0': 230, 'rot3': 0, 'rot2': 0, 'depth': -1.514, 'yaw': 130.66, 'datetime': '2018-12-12 13:47:23.176036', 'mgs': 0, 'flw2': 0.0, 'flw1': 0.26, 'flw0': 0.0, 'time': 19.04, 'compass': -2.2, 'pitch': -2.91, 'roll': -0.27}
{'lipoC2': 7.64, 'temp': 0.0, 'lipoC3S3': 11.35, 'state': 'normal', 'rot1': 250, 'rot0': 230, 'rot3': 0, 'rot2': 0, 'depth': -1.361, 'yaw': 130.66, 'datetime': '2018-12-12 13:47:23.384598', 'mgs': 0, 'flw2': 0.0, 'flw1': 0.62, 'flw0': 0.0, 'time': 19.25, 'compass': -2.2, 'pitch': -2.91, 'roll': -0.27}
{'lipoC2': 7.41, 'temp': 0.0, 'lipoC3S3': 11.71, 'state': 'normal', 'rot1': 250, 'rot0': 230, 'rot3': 0, 'rot2': 0, 'depth': 1.004, 'yaw': 130.66, 'datetime': '2018-12-12 13:47:23.595130', 'mgs': 0, 'flw2': 0.0, 'flw1': 0.0, 'flw0': 0.0, 'time': 19.46, 'compass': -2.2, 'pitch': -2.91, 'roll': -0.27}
{'lipoC2': 7.63, 'temp': 0.0, 'lipoC3S3': 11.36, 'state': 'normal', 'rot1': 250, 'rot0': 230, 'rot3': 0, 'rot2': 0, 'depth': 1.157, 'yaw': 130.66, 'datetime': '2018-12-12 13:47:23.810223', 'mgs': 0, 'flw2': 0.27, 'flw1': 0.0, 'flw0': 0.13, 'time': 19.67, 'compass': -2.2, 'pitch': -2.91, 'roll': -0.27}
{'lipoC2': 7.63, 'temp': 0.0, 'lipoC3S3': 11.4, 'state': 'normal', 'rot1': 250, 'rot0': 230, 'rot3': 0, 'rot2': 0, 'depth': -1.056, 'yaw': 130.66, 'datetime': '2018-12-12 13:47:24.016433', 'mgs': 0, 'flw2': 0.0, 'flw1': 0.0, 'flw0': 0.0, 'time': 19.88, 'compass': -2.2, 'pitch': -2.91, 'roll': -0.27}
{'lipoC2': 7.34, 'temp': 0.0, 'lipoC3S3': 11.42, 'state': 'normal', 'rot1': 250, 'rot0': 230, 'rot3': 0, 'rot2': 0, 'depth': -1.361, 'yaw': 130.66, 'datetime': '2018-12-12 13:47:24.225496', 'mgs': 0, 'flw2': 0.0, 'flw1': 0.56, 'flw0': 0.0, 'time': 20.09, 'compass': -2.2, 'pitch': -2.91, 'roll': -0.27}
{'lipoC2': 7.51, 'temp': 0.0, 'lipoC3S3': 11.27, 'state': 'normal', 'rot1': 250, 'rot0': 230, 'rot3': 0, 'rot2': 0, 'depth': -0.14, 'yaw': 130.66, 'datetime': '2018-12-12 13:47:24.433830', 'mgs': 0, 'flw2': 0.11, 'flw1': 0.0, 'flw0': 0.28, 'time': 20.3, 'compass': -2.2, 'pitch': -2.91, 'roll': -0.27}
{'lipoC2': 7.63, 'temp': 0.0, 'lipoC3S3': 11.4, 'state': 'normal', 'rot1': 250, 'rot0': 230, 'rot3': 0, 'rot2': 0, 'depth': -1.208, 'yaw': 130.66, 'datetime': '2018-12-12 13:47:24.645112', 'mgs': 0, 'flw2': 0.0, 'flw1': 0.0, 'flw0': 0.0, 'time': 20.51, 'compass': -2.2, 'pitch': -2.91, 'roll': -0.27}
{'lipoC2': 7.57, 'temp': 0.0, 'lipoC3S3': 11.26, 'state': 'normal', 'rot1': 250, 'rot0': 230, 'rot3': 0, 'rot2': 0, 'depth': -2.124, 'yaw': 130.66, 'datetime': '2018-12-12 13:47:24.856336', 'mgs': 0, 'flw2': 0.22, 'flw1': 0.0, 'flw0': 0.26, 'time': 20.72, 'compass': -2.2, 'pitch': -2.91, 'roll': -0.27}
{'lipoC2': 7.63, 'temp': 0.0, 'lipoC3S3': 11.36, 'state': 'normal', 'rot1': 250, 'rot0': 230, 'rot3': 0, 'rot2': 0, 'depth': -1.743, 'yaw': 130.66, 'datetime': '2018-12-12 13:47:25.065979', 'mgs': 0, 'flw2': 0.0, 'flw1': 0.0, 'flw0': 0.0, 'time': 20.93, 'compass': -2.2, 'pitch': -2.91, 'roll': -0.27}
{'lipoC2': 7.38, 'temp': 0.0, 'lipoC3S3': 11.69, 'state': 'normal', 'rot1': 250, 'rot0': 230, 'rot3': 0, 'rot2': 0, 'depth': -1.514, 'yaw': 130.66, 'datetime': '2018-12-12 13:47:25.276173', 'mgs': 0, 'flw2': 0.0, 'flw1': 0.41, 'flw0': 0.0, 'time': 21.14, 'compass': -2.2, 'pitch': -2.91, 'roll': -0.27}
{'lipoC2': 7.38, 'temp': 0.0, 'lipoC3S3': 11.38, 'state': 'normal', 'rot1': 250, 'rot0': 230, 'rot3': 0, 'rot2': 0, 'depth': -1.437, 'yaw': 130.66, 'datetime': '2018-12-12 13:47:25.480283', 'mgs': 0, 'flw2': 0.0, 'flw1': 0.29, 'flw0': 0.0, 'time': 21.35, 'compass': -2.2, 'pitch': -2.91, 'roll': -0.27}
{'lipoC2': 7.63, 'temp': 0.0, 'lipoC3S3': 11.38, 'state': 'normal', 'rot1': 250, 'rot0': 230, 'rot3': 0, 'rot2': 0, 'depth': -1.361, 'yaw': 130.66, 'datetime': '2018-12-12 13:47:25.688757', 'mgs': 0, 'flw2': 0.0, 'flw1': 0.0, 'flw0': 0.0, 'time': 21.56, 'compass': -2.2, 'pitch': -2.91, 'roll': -0.27}
{'lipoC2': 7.52, 'temp': 0.0, 'lipoC3S3': 11.26, 'state': 'normal', 'rot1': 250, 'rot0': 230, 'rot3': 0, 'rot2': 0, 'depth': -0.14, 'yaw': 130.66, 'datetime': '2018-12-12 13:47:25.898499', 'mgs': 0, 'flw2': 0.21, 'flw1': 0.0, 'flw0': 0.28, 'time': 21.76, 'compass': -2.2, 'pitch': -2.91, 'roll': -0.27}
{'lipoC2': 7.34, 'temp': 0.0, 'lipoC3S3': 11.4, 'state': 'normal', 'rot1': 250, 'rot0': 230, 'rot3': 0, 'rot2': 0, 'depth': -1.59, 'yaw': 130.66, 'datetime': '2018-12-12 13:47:26.108506', 'mgs': 0, 'flw2': 0.0, 'flw1': 0.0, 'flw0': 0.29, 'time': 21.98, 'compass': -2.2, 'pitch': -2.91, 'roll': -0.27}
{'lipoC2': 7.64, 'temp': 0.0, 'lipoC3S3': 11.31, 'state': 'normal', 'rot1': 250, 'rot0': 230, 'rot3': 0, 'rot2': 0, 'depth': -1.514, 'yaw': 130.66, 'datetime': '2018-12-12 13:47:26.319138', 'mgs': 0, 'flw2': 0.15, 'flw1': 0.0, 'flw0': 0.31, 'time': 22.18, 'compass': -2.2, 'pitch': -2.91, 'roll': -0.27}
{'lipoC2': 7.53, 'temp': 0.0, 'lipoC3S3': 11.26, 'state': 'normal', 'rot1': 250, 'rot0': 230, 'rot3': 0, 'rot2': 0, 'depth': 0.165, 'yaw': 130.66, 'datetime': '2018-12-12 13:47:26.528992', 'mgs': 0, 'flw2': 0.1, 'flw1': 0.0, 'flw0': 0.27, 'time': 22.39, 'compass': -2.2, 'pitch': -2.91, 'roll': -0.27}
{'lipoC2': 7.39, 'temp': 0.0, 'lipoC3S3': 11.39, 'state': 'normal', 'rot1': 250, 'rot0': 230, 'rot3': 0, 'rot2': 0, 'depth': -1.514, 'yaw': 130.66, 'datetime': '2018-12-12 13:47:26.739314', 'mgs': 0, 'flw2': 0.0, 'flw1': 0.38, 'flw0': 0.0, 'time': 22.6, 'compass': -2.2, 'pitch': -2.91, 'roll': -0.27}
{'lipoC2': 7.49, 'temp': 0.0, 'lipoC3S3': 11.43, 'state': 'normal', 'rot1': 250, 'rot0': 230, 'rot3': 0, 'rot2': 0, 'depth': -1.285, 'yaw': 130.66, 'datetime': '2018-12-12 13:47:26.948738', 'mgs': 0, 'flw2': 0.0, 'flw1': 0.0, 'flw0': 0.0, 'time': 22.81, 'compass': -2.2, 'pitch': -2.91, 'roll': -0.27}
{'lipoC2': 7.41, 'temp': 0.0, 'lipoC3S3': 11.39, 'state': 'normal', 'rot1': 250, 'rot0': 230, 'rot3': 0, 'rot2': 0, 'depth': -1.056, 'yaw': 130.66, 'datetime': '2018-12-12 13:47:27.157270', 'mgs': 0, 'flw2': 0.0, 'flw1': 0.47, 'flw0': 0.0, 'time': 23.02, 'compass': -2.2, 'pitch': -2.91, 'roll': -0.27}
{'lipoC2': 7.36, 'temp': 0.0, 'lipoC3S3': 11.43, 'state': 'normal', 'rot1': 250, 'rot0': 230, 'rot3': 0, 'rot2': 0, 'depth': -0.98, 'yaw': 130.66, 'datetime': '2018-12-12 13:47:27.367533', 'mgs': 0, 'flw2': 0.0, 'flw1': 0.0, 'flw0': 0.1, 'time': 23.23, 'compass': -2.2, 'pitch': -2.91, 'roll': -0.27}
{'lipoC2': 7.55, 'temp': 0.0, 'lipoC3S3': 11.26, 'state': 'normal', 'rot1': 250, 'rot0': 230, 'rot3': 0, 'rot2': 0, 'depth': -2.124, 'yaw': 130.66, 'datetime': '2018-12-12 13:47:27.577090', 'mgs': 0, 'flw2': 0.21, 'flw1': 0.0, 'flw0': 0.28, 'time': 23.44, 'compass': -2.2, 'pitch': -2.91, 'roll': -0.27}
{'lipoC2': 7.34, 'temp': 0.0, 'lipoC3S3': 11.42, 'state': 'normal', 'rot1': 250, 'rot0': 230, 'rot3': 0, 'rot2': 0, 'depth': -1.361, 'yaw': 130.66, 'datetime': '2018-12-12 13:47:27.787435', 'mgs': 0, 'flw2': 0.0, 'flw1': 0.0, 'flw0': 0.07, 'time': 23.65, 'compass': -2.2, 'pitch': -2.91, 'roll': -0.27}
{'lipoC2': 7.42, 'temp': 0.0, 'lipoC3S3': 11.51, 'state': 'normal', 'rot1': 250, 'rot0': 230, 'rot3': 0, 'rot2': 0, 'depth': -1.514, 'yaw': 130.66, 'datetime': '2018-12-12 13:47:27.993994', 'mgs': 0, 'flw2': 0.0, 'flw1': 0.0, 'flw0': 0.01, 'time': 23.86, 'compass': -2.2, 'pitch': -2.91, 'roll': -0.27}
{'lipoC2': 7.52, 'temp': 0.0, 'lipoC3S3': 11.3, 'state': 'normal', 'rot1': 250, 'rot0': 230, 'rot3': 0, 'rot2': 0, 'depth': -2.353, 'yaw': 130.66, 'datetime': '2018-12-12 13:47:28.203539', 'mgs': 0, 'flw2': 0.0, 'flw1': 0.59, 'flw0': 0.0, 'time': 24.07, 'compass': -2.2, 'pitch': -2.91, 'roll': -0.27}
{'lipoC2': 7.63, 'temp': 0.0, 'lipoC3S3': 11.36, 'state': 'normal', 'rot1': 250, 'rot0': 230, 'rot3': 0, 'rot2': 0, 'depth': 0.317, 'yaw': 130.66, 'datetime': '2018-12-12 13:47:28.414594', 'mgs': 0, 'flw2': 0.0, 'flw1': 0.0, 'flw0': 0.32, 'time': 24.28, 'compass': -2.2, 'pitch': -2.91, 'roll': -0.27}
{'lipoC2': 7.34, 'temp': 0.0, 'lipoC3S3': 11.38, 'state': 'normal', 'rot1': 250, 'rot0': 230, 'rot3': 0, 'rot2': 0, 'depth': -1.59, 'yaw': 130.66, 'datetime': '2018-12-12 13:47:28.624090', 'mgs': 0, 'flw2': 0.0, 'flw1': 0.32, 'flw0': 0.0, 'time': 24.49, 'compass': -2.2, 'pitch': -2.91, 'roll': -0.27}
{'lipoC2': 7.35, 'temp': 0.0, 'lipoC3S3': 11.39, 'state': 'normal', 'rot1': 250, 'rot0': 230, 'rot3': 0, 'rot2': 0, 'depth': -1.514, 'yaw': 130.66, 'datetime': '2018-12-12 13:47:28.837275', 'mgs': 0, 'flw2': 0.0, 'flw1': 0.64, 'flw0': 0.0, 'time': 24.7, 'compass': -2.2, 'pitch': -2.91, 'roll': -0.27}
{'lipoC2': 7.42, 'temp': 0.0, 'lipoC3S3': 11.69, 'state': 'normal', 'rot1': 250, 'rot0': 230, 'rot3': 0, 'rot2': 0, 'depth': 0.546, 'yaw': 130.66, 'datetime': '2018-12-12 13:47:29.047709', 'mgs': 0, 'flw2': 0.0, 'flw1': 0.0, 'flw0': 0.0, 'time': 24.91, 'compass': -2.2, 'pitch': -2.91, 'roll': -0.27}
{'lipoC2': 7.37, 'temp': 0.0, 'lipoC3S3': 11.72, 'state': 'normal', 'rot1': 250, 'rot0': 230, 'rot3': 0, 'rot2': 0, 'depth': 1.309, 'yaw': 130.66, 'datetime': '2018-12-12 13:47:29.264199', 'mgs': 0, 'flw2': 0.0, 'flw1': 0.35, 'flw0': 0.0, 'time': 25.12, 'compass': -2.2, 'pitch': -2.91, 'roll': -0.27}
{'lipoC2': 7.41, 'temp': 0.0, 'lipoC3S3': 11.52, 'state': 'normal', 'rot1': 250, 'rot0': 230, 'rot3': 0, 'rot2': 0, 'depth': -0.751, 'yaw': 130.66, 'datetime': '2018-12-12 13:47:29.466696', 'mgs': 0, 'flw2': 0.0, 'flw1': 0.62, 'flw0': 0.0, 'time': 25.33, 'compass': -2.2, 'pitch': -2.91, 'roll': -0.27}
{'lipoC2': 7.61, 'temp': 0.0, 'lipoC3S3': 11.27, 'state': 'normal', 'rot1': 250, 'rot0': 230, 'rot3': 0, 'rot2': 0, 'depth': -1.971, 'yaw': 130.66, 'datetime': '2018-12-12 13:47:29.673035', 'mgs': 0, 'flw2': 0.22, 'flw1': 0.0, 'flw0': 0.28, 'time': 25.53, 'compass': -2.2, 'pitch': -2.91, 'roll': -0.27}
{'lipoC2': 7.58, 'temp': 0.0, 'lipoC3S3': 11.42, 'state': 'normal', 'rot1': 250, 'rot0': 230, 'rot3': 0, 'rot2': 0, 'depth': 0.317, 'yaw': 130.66, 'datetime': '2018-12-12 13:47:29.882590', 'mgs': 0, 'flw2': 0.0, 'flw1': 0.0, 'flw0': 0.0, 'time': 25.74, 'compass': -2.2, 'pitch': -2.91, 'roll': -0.27}
{'lipoC2': 7.4, 'temp': 0.0, 'lipoC3S3': 11.4, 'state': 'normal', 'rot1': 250, 'rot0': 230, 'rot3': 0, 'rot2': 0, 'depth': -1.514, 'yaw': 130.66, 'datetime': '2018-12-12 13:47:30.090853', 'mgs': 0, 'flw2': 0.0, 'flw1': 0.0, 'flw0': 0.17, 'time': 25.95, 'compass': -2.2, 'pitch': -2.91, 'roll': -0.27}
{'lipoC2': 7.61, 'temp': 0.0, 'lipoC3S3': 11.27, 'state': 'normal', 'rot1': 250, 'rot0': 230, 'rot3': 0, 'rot2': 0, 'depth': -1.971, 'yaw': 130.66, 'datetime': '2018-12-12 13:47:30.300843', 'mgs': 0, 'flw2': 0.18, 'flw1': 0.0, 'flw0': 0.31, 'time': 26.16, 'compass': -2.2, 'pitch': -2.91, 'roll': -0.27}
{'lipoC2': 7.46, 'temp': 0.0, 'lipoC3S3': 11.4, 'state': 'normal', 'rot1': 250, 'rot0': 230, 'rot3': 0, 'rot2': 0, 'depth': -1.208, 'yaw': 130.66, 'datetime': '2018-12-12 13:47:30.515041', 'mgs': 0, 'flw2': 0.15, 'flw1': 0.0, 'flw0': 0.24, 'time': 26.37, 'compass': -2.2, 'pitch': -2.91, 'roll': -0.27}
{'lipoC2': 7.34, 'temp': 0.0, 'lipoC3S3': 11.42, 'state': 'normal', 'rot1': 250, 'rot0': 230, 'rot3': 0, 'rot2': 0, 'depth': -1.514, 'yaw': 130.66, 'datetime': '2018-12-12 13:47:30.730320', 'mgs': 0, 'flw2': 0.0, 'flw1': 0.62, 'flw0': 0.0, 'time': 26.58, 'compass': -2.2, 'pitch': -2.91, 'roll': -0.27}
{'lipoC2': 7.53, 'temp': 0.0, 'lipoC3S3': 11.43, 'state': 'normal', 'rot1': 250, 'rot0': 230, 'rot3': 0, 'rot2': 0, 'depth': -0.903, 'yaw': 130.66, 'datetime': '2018-12-12 13:47:30.939807', 'mgs': 0, 'flw2': 0.0, 'flw1': 0.15, 'flw0': 0.0, 'time': 26.79, 'compass': -2.2, 'pitch': -2.91, 'roll': -0.27}
{'lipoC2': 7.36, 'temp': 0.0, 'lipoC3S3': 11.52, 'state': 'normal', 'rot1': 250, 'rot0': 230, 'rot3': 0, 'rot2': 0, 'depth': -1.208, 'yaw': 130.66, 'datetime': '2018-12-12 13:47:31.146246', 'mgs': 0, 'flw2': 0.0, 'flw1': 0.18, 'flw0': 0.0, 'time': 27.0, 'compass': -2.2, 'pitch': -2.91, 'roll': -0.27}
{'lipoC2': 7.63, 'temp': 0.0, 'lipoC3S3': 11.39, 'state': 'normal', 'rot1': 250, 'rot0': 230, 'rot3': 0, 'rot2': 0, 'depth': -1.666, 'yaw': 130.66, 'datetime': '2018-12-12 13:47:31.356726', 'mgs': 0, 'flw2': 0.0, 'flw1': 0.0, 'flw0': 0.0, 'time': 27.21, 'compass': -2.2, 'pitch': -2.91, 'roll': -0.27}
{'lipoC2': 7.48, 'temp': 0.0, 'lipoC3S3': 11.42, 'state': 'normal', 'rot1': 250, 'rot0': 230, 'rot3': 0, 'rot2': 0, 'depth': -0.98, 'yaw': 130.66, 'datetime': '2018-12-12 13:47:31.562177', 'mgs': 0, 'flw2': 0.1, 'flw1': 0.0, 'flw0': 0.0, 'time': 27.42, 'compass': -2.2, 'pitch': -2.91, 'roll': -0.27}
{'lipoC2': 7.39, 'temp': 0.0, 'lipoC3S3': 11.71, 'state': 'normal', 'rot1': 250, 'rot0': 230, 'rot3': 0, 'rot2': 0, 'depth': 1.309, 'yaw': 130.66, 'datetime': '2018-12-12 13:47:31.776162', 'mgs': 0, 'flw2': 0.15, 'flw1': 0.0, 'flw0': 0.0, 'time': 27.63, 'compass': -2.2, 'pitch': -2.91, 'roll': -0.27}
{'lipoC2': 7.54, 'temp': 0.0, 'lipoC3S3': 11.25, 'state': 'normal', 'rot1': 250, 'rot0': 230, 'rot3': 0, 'rot2': 0, 'depth': -0.064, 'yaw': 130.66, 'datetime': '2018-12-12 13:47:31.988106', 'mgs': 0, 'flw2': 0.24, 'flw1': 0.0, 'flw0': 0.28, 'time': 27.84, 'compass': -2.2, 'pitch': -2.91, 'roll': -0.27}
{'lipoC2': 7.49, 'temp': 0.0, 'lipoC3S3': 11.73, 'state': 'normal', 'rot1': 250, 'rot0': 230, 'rot3': 0, 'rot2': 0, 'depth': -1.056, 'yaw': 130.66, 'datetime': '2018-12-12 13:47:32.197166', 'mgs': 0, 'flw2': 0.0, 'flw1': 0.0, 'flw0': 0.0, 'time': 28.05, 'compass': -2.2, 'pitch': -2.91, 'roll': -0.27}
{'lipoC2': 7.61, 'temp': 0.0, 'lipoC3S3': 11.42, 'state': 'normal', 'rot1': 250, 'rot0': 230, 'rot3': 0, 'rot2': 0, 'depth': -1.132, 'yaw': 130.66, 'datetime': '2018-12-12 13:47:32.403127', 'mgs': 0, 'flw2': 0.0, 'flw1': 0.0, 'flw0': 0.0, 'time': 28.26, 'compass': -2.2, 'pitch': -2.91, 'roll': -0.27}
{'lipoC2': 7.34, 'temp': 0.0, 'lipoC3S3': 11.44, 'state': 'normal', 'rot1': 250, 'rot0': 230, 'rot3': 0, 'rot2': 0, 'depth': -1.437, 'yaw': 130.66, 'datetime': '2018-12-12 13:47:32.616361', 'mgs': 0, 'flw2': 0.0, 'flw1': 0.53, 'flw0': 0.0, 'time': 28.47, 'compass': -2.2, 'pitch': -2.91, 'roll': -0.27}
{'lipoC2': 7.34, 'temp': 0.0, 'lipoC3S3': 11.43, 'state': 'normal', 'rot1': 250, 'rot0': 230, 'rot3': 0, 'rot2': 0, 'depth': -1.514, 'yaw': 130.66, 'datetime': '2018-12-12 13:47:32.823631', 'mgs': 0, 'flw2': 0.0, 'flw1': 0.56, 'flw0': 0.0, 'time': 28.68, 'compass': -2.2, 'pitch': -2.91, 'roll': -0.27}
{'lipoC2': 7.38, 'temp': 0.0, 'lipoC3S3': 11.73, 'state': 'normal', 'rot1': 250, 'rot0': 230, 'rot3': 0, 'rot2': 0, 'depth': 1.309, 'yaw': 130.66, 'datetime': '2018-12-12 13:47:33.033649', 'mgs': 0, 'flw2': 0.13, 'flw1': 0.0, 'flw0': 0.0, 'time': 28.89, 'compass': -2.2, 'pitch': -2.91, 'roll': -0.27}
{'lipoC2': 7.44, 'temp': 0.0, 'lipoC3S3': 11.38, 'state': 'normal', 'rot1': 250, 'rot0': 230, 'rot3': 0, 'rot2': 0, 'depth': -0.751, 'yaw': 130.66, 'datetime': '2018-12-12 13:47:33.239371', 'mgs': 0, 'flw2': 0.0, 'flw1': 0.5, 'flw0': 0.0, 'time': 29.09, 'compass': -2.2, 'pitch': -2.91, 'roll': -0.27}
{'lipoC2': 7.61, 'temp': 0.0, 'lipoC3S3': 11.44, 'state': 'normal', 'rot1': 250, 'rot0': 230, 'rot3': 0, 'rot2': 0, 'depth': -0.98, 'yaw': 130.66, 'datetime': '2018-12-12 13:47:33.448804', 'mgs': 0, 'flw2': 0.0, 'flw1': 0.0, 'flw0': 0.0, 'time': 29.3, 'compass': -2.2, 'pitch': -2.91, 'roll': -0.27}
{'lipoC2': 7.41, 'temp': 0.0, 'lipoC3S3': 11.39, 'state': 'normal', 'rot1': 250, 'rot0': 230, 'rot3': 0, 'rot2': 0, 'depth': -1.514, 'yaw': 130.66, 'datetime': '2018-12-12 13:47:33.664107', 'mgs': 0, 'flw2': 0.0, 'flw1': 0.32, 'flw0': 0.0, 'time': 29.51, 'compass': -2.2, 'pitch': -2.91, 'roll': -0.27}
{'lipoC2': 7.34, 'temp': 0.0, 'lipoC3S3': 11.38, 'state': 'normal', 'rot1': 250, 'rot0': 230, 'rot3': 0, 'rot2': 0, 'depth': -1.514, 'yaw': 130.66, 'datetime': '2018-12-12 13:47:33.871854', 'mgs': 0, 'flw2': 0.1, 'flw1': 0.0, 'flw0': 0.26, 'time': 29.72, 'compass': -2.2, 'pitch': -2.91, 'roll': -0.27}
{'lipoC2': 7.63, 'temp': 0.0, 'lipoC3S3': 11.42, 'state': 'normal', 'rot1': 250, 'rot0': 230, 'rot3': 0, 'rot2': 0, 'depth': -1.437, 'yaw': 130.66, 'datetime': '2018-12-12 13:47:34.082948', 'mgs': 0, 'flw2': 0.0, 'flw1': 0.0, 'flw0': 0.0, 'time': 29.93, 'compass': -2.2, 'pitch': -2.91, 'roll': -0.27}
{'lipoC2': 7.5, 'temp': 0.0, 'lipoC3S3': 11.43, 'state': 'normal', 'rot1': 250, 'rot0': 230, 'rot3': 0, 'rot2': 0, 'depth': -0.14, 'yaw': 130.66, 'datetime': '2018-12-12 13:47:34.287999', 'mgs': 0, 'flw2': 0.0, 'flw1': 0.0, 'flw0': 0.0, 'time': 30.14, 'compass': -2.2, 'pitch': -2.91, 'roll': -0.27}
{'lipoC2': 7.58, 'temp': 0.0, 'lipoC3S3': 11.44, 'state': 'normal', 'rot1': 250, 'rot0': 230, 'rot3': 0, 'rot2': 0, 'depth': -0.903, 'yaw': 130.66, 'datetime': '2018-12-12 13:47:34.496541', 'mgs': 0, 'flw2': 0.0, 'flw1': 0.0, 'flw0': 0.0, 'time': 30.35, 'compass': -2.2, 'pitch': -2.91, 'roll': -0.27}
{'lipoC2': 7.63, 'temp': 0.0, 'lipoC3S3': 11.32, 'state': 'normal', 'rot1': 250, 'rot0': 230, 'rot3': 0, 'rot2': 0, 'depth': -1.819, 'yaw': 130.66, 'datetime': '2018-12-12 13:47:34.707195', 'mgs': 0, 'flw2': 0.0, 'flw1': 0.59, 'flw0': 0.0, 'time': 30.56, 'compass': -2.2, 'pitch': -2.91, 'roll': -0.27}
{'lipoC2': 7.63, 'temp': 0.0, 'lipoC3S3': 11.4, 'state': 'normal', 'rot1': 250, 'rot0': 230, 'rot3': 0, 'rot2': 0, 'depth': -1.056, 'yaw': 130.66, 'datetime': '2018-12-12 13:47:34.917567', 'mgs': 0, 'flw2': 0.12, 'flw1': 0.0, 'flw0': 0.0, 'time': 30.77, 'compass': -2.2, 'pitch': -2.91, 'roll': -0.27}
{'lipoC2': 7.64, 'temp': 0.0, 'lipoC3S3': 11.38, 'state': 'normal', 'rot1': 250, 'rot0': 230, 'rot3': 0, 'rot2': 0, 'depth': -1.437, 'yaw': 130.66, 'datetime': '2018-12-12 13:47:35.127785', 'mgs': 0, 'flw2': 0.0, 'flw1': 0.0, 'flw0': 0.0, 'time': 30.98, 'compass': -2.2, 'pitch': -2.91, 'roll': -0.27}
{'lipoC2': 7.38, 'temp': 0.0, 'lipoC3S3': 11.39, 'state': 'normal', 'rot1': 250, 'rot0': 230, 'rot3': 0, 'rot2': 0, 'depth': -1.361, 'yaw': 130.66, 'datetime': '2018-12-12 13:47:35.337425', 'mgs': 0, 'flw2': 0.0, 'flw1': 0.53, 'flw0': 0.0, 'time': 31.19, 'compass': -2.2, 'pitch': -2.91, 'roll': -0.27}
{'lipoC2': 7.34, 'temp': 0.0, 'lipoC3S3': 11.4, 'state': 'normal', 'rot1': 250, 'rot0': 230, 'rot3': 0, 'rot2': 0, 'depth': -1.59, 'yaw': 130.66, 'datetime': '2018-12-12 13:47:35.546983', 'mgs': 0, 'flw2': 0.0, 'flw1': 0.62, 'flw0': 0.0, 'time': 31.4, 'compass': -2.2, 'pitch': -2.91, 'roll': -0.27}
{'lipoC2': 7.58, 'temp': 0.0, 'lipoC3S3': 11.65, 'state': 'normal', 'rot1': 250, 'rot0': 230, 'rot3': 0, 'rot2': 0, 'depth': -0.827, 'yaw': 130.66, 'datetime': '2018-12-12 13:47:35.756277', 'mgs': 0, 'flw2': 0.0, 'flw1': 0.32, 'flw0': 0.0, 'time': 31.61, 'compass': -2.2, 'pitch': -2.91, 'roll': -0.27}
{'lipoC2': 7.41, 'temp': 0.0, 'lipoC3S3': 11.51, 'state': 'normal', 'rot1': 250, 'rot0': 230, 'rot3': 0, 'rot2': 0, 'depth': -0.446, 'yaw': 130.66, 'datetime': '2018-12-12 13:47:35.968844', 'mgs': 0, 'flw2': 0.0, 'flw1': 0.0, 'flw0': 0.16, 'time': 31.82, 'compass': -2.2, 'pitch': -2.91, 'roll': -0.27}
{'lipoC2': 7.59, 'temp': 0.0, 'lipoC3S3': 11.3, 'state': 'normal', 'rot1': 250, 'rot0': 230, 'rot3': 0, 'rot2': 0, 'depth': -1.971, 'yaw': 130.66, 'datetime': '2018-12-12 13:47:36.176333', 'mgs': 0, 'flw2': 0.28, 'flw1': 0.0, 'flw0': 0.22, 'time': 32.03, 'compass': -2.2, 'pitch': -2.91, 'roll': -0.27}
{'lipoC2': 7.34, 'temp': 0.0, 'lipoC3S3': 11.4, 'state': 'normal', 'rot1': 250, 'rot0': 230, 'rot3': 0, 'rot2': 0, 'depth': -1.59, 'yaw': 130.66, 'datetime': '2018-12-12 13:47:36.386749', 'mgs': 0, 'flw2': 0.21, 'flw1': 0.0, 'flw0': 0.29, 'time': 32.24, 'compass': -2.2, 'pitch': -2.91, 'roll': -0.27}
{'lipoC2': 7.58, 'temp': 0.0, 'lipoC3S3': 11.27, 'state': 'normal', 'rot1': 250, 'rot0': 230, 'rot3': 0, 'rot2': 0, 'depth': 0.623, 'yaw': 130.66, 'datetime': '2018-12-12 13:47:36.597117', 'mgs': 0, 'flw2': 0.21, 'flw1': 0.0, 'flw0': 0.27, 'time': 32.45, 'compass': -2.2, 'pitch': -2.91, 'roll': -0.27}
{'lipoC2': 7.34, 'temp': 0.0, 'lipoC3S3': 11.4, 'state': 'normal', 'rot1': 250, 'rot0': 230, 'rot3': 0, 'rot2': 0, 'depth': -2.277, 'yaw': 130.66, 'datetime': '2018-12-12 13:47:36.806608', 'mgs': 0, 'flw2': 0.09, 'flw1': 0.0, 'flw0': 0.29, 'time': 32.65, 'compass': -2.2, 'pitch': -2.91, 'roll': -0.27}
{'lipoC2': 7.5, 'temp': 0.0, 'lipoC3S3': 11.29, 'state': 'normal', 'rot1': 250, 'rot0': 230, 'rot3': 0, 'rot2': 0, 'depth': -1.895, 'yaw': 130.66, 'datetime': '2018-12-12 13:47:37.014516', 'mgs': 0, 'flw2': 0.05, 'flw1': 0.0, 'flw0': 0.26, 'time': 32.86, 'compass': -2.2, 'pitch': -2.91, 'roll': -0.27}
{'lipoC2': 7.58, 'temp': 0.0, 'lipoC3S3': 11.43, 'state': 'normal', 'rot1': 250, 'rot0': 230, 'rot3': 0, 'rot2': 0, 'depth': -0.827, 'yaw': 130.66, 'datetime': '2018-12-12 13:47:37.223954', 'mgs': 0, 'flw2': 0.0, 'flw1': 0.0, 'flw0': 0.0, 'time': 33.07, 'compass': -2.2, 'pitch': -2.91, 'roll': -0.27}
{'lipoC2': 7.57, 'temp': 0.0, 'lipoC3S3': 11.29, 'state': 'normal', 'rot1': 250, 'rot0': 230, 'rot3': 0, 'rot2': 0, 'depth': -2.2, 'yaw': 130.66, 'datetime': '2018-12-12 13:47:37.434090', 'mgs': 0, 'flw2': 0.0, 'flw1': 0.0, 'flw0': 0.0, 'time': 33.28, 'compass': -2.2, 'pitch': -2.91, 'roll': -0.27}
{'lipoC2': 7.62, 'temp': 0.0, 'lipoC3S3': 11.31, 'state': 'normal', 'rot1': 250, 'rot0': 230, 'rot3': 0, 'rot2': 0, 'depth': -1.971, 'yaw': 130.66, 'datetime': '2018-12-12 13:47:37.644868', 'mgs': 0, 'flw2': 0.0, 'flw1': 0.21, 'flw0': 0.18, 'time': 33.49, 'compass': -2.2, 'pitch': -2.91, 'roll': -0.27}
{'lipoC2': 7.58, 'temp': 0.0, 'lipoC3S3': 11.44, 'state': 'normal', 'rot1': 250, 'rot0': 230, 'rot3': 0, 'rot2': 0, 'depth': 0.851, 'yaw': 130.66, 'datetime': '2018-12-12 13:47:37.853917', 'mgs': 0, 'flw2': 0.0, 'flw1': 0.0, 'flw0': 0.0, 'time': 33.7, 'compass': -2.2, 'pitch': -2.91, 'roll': -0.27}
{'lipoC2': 7.64, 'temp': 0.0, 'lipoC3S3': 11.36, 'state': 'normal', 'rot1': 250, 'rot0': 230, 'rot3': 0, 'rot2': 0, 'depth': -1.132, 'yaw': 130.66, 'datetime': '2018-12-12 13:47:38.063458', 'mgs': 0, 'flw2': 0.26, 'flw1': 0.0, 'flw0': 0.04, 'time': 33.91, 'compass': -2.2, 'pitch': -2.91, 'roll': -0.27}
{'lipoC2': 7.34, 'temp': 0.0, 'lipoC3S3': 11.42, 'state': 'normal', 'rot1': 250, 'rot0': 230, 'rot3': 0, 'rot2': 0, 'depth': -1.437, 'yaw': 130.66, 'datetime': '2018-12-12 13:47:38.273439', 'mgs': 0, 'flw2': 0.0, 'flw1': 0.62, 'flw0': 0.0, 'time': 34.12, 'compass': -2.2, 'pitch': -2.91, 'roll': -0.27}
{'lipoC2': 7.53, 'temp': 0.0, 'lipoC3S3': 11.27, 'state': 'normal', 'rot1': 250, 'rot0': 230, 'rot3': 0, 'rot2': 0, 'depth': -1.971, 'yaw': 130.66, 'datetime': '2018-12-12 13:47:38.488242', 'mgs': 0, 'flw2': 0.21, 'flw1': 0.0, 'flw0': 0.28, 'time': 34.33, 'compass': -2.2, 'pitch': -2.91, 'roll': -0.27}
{'lipoC2': 7.63, 'temp': 0.0, 'lipoC3S3': 11.38, 'state': 'normal', 'rot1': 250, 'rot0': 230, 'rot3': 0, 'rot2': 0, 'depth': -0.98, 'yaw': 130.66, 'datetime': '2018-12-12 13:47:38.695224', 'mgs': 0, 'flw2': 0.06, 'flw1': 0.0, 'flw0': 0.0, 'time': 34.54, 'compass': -2.2, 'pitch': -2.91, 'roll': -0.27}
{'lipoC2': 7.34, 'temp': 0.0, 'lipoC3S3': 11.39, 'state': 'normal', 'rot1': 250, 'rot0': 230, 'rot3': 0, 'rot2': 0, 'depth': -1.514, 'yaw': 130.66, 'datetime': '2018-12-12 13:47:38.905169', 'mgs': 0, 'flw2': 0.0, 'flw1': 0.62, 'flw0': 0.0, 'time': 34.75, 'compass': -2.2, 'pitch': -2.91, 'roll': -0.27}
{'lipoC2': 7.38, 'temp': 0.0, 'lipoC3S3': 11.69, 'state': 'normal', 'rot1': 250, 'rot0': 230, 'rot3': 0, 'rot2': 0, 'depth': -1.514, 'yaw': 130.66, 'datetime': '2018-12-12 13:47:39.117931', 'mgs': 0, 'flw2': 0.09, 'flw1': 0.0, 'flw0': 0.0, 'time': 34.96, 'compass': -2.2, 'pitch': -2.91, 'roll': -0.27}
{'lipoC2': 7.48, 'temp': 0.0, 'lipoC3S3': 11.32, 'state': 'normal', 'rot1': 250, 'rot0': 230, 'rot3': 0, 'rot2': 0, 'depth': -0.369, 'yaw': 130.66, 'datetime': '2018-12-12 13:47:39.324871', 'mgs': 0, 'flw2': 0.0, 'flw1': 0.59, 'flw0': 0.0, 'time': 35.17, 'compass': -2.2, 'pitch': -2.91, 'roll': -0.27}
{'lipoC2': 7.46, 'temp': 0.0, 'lipoC3S3': 11.4, 'state': 'normal', 'rot1': 250, 'rot0': 230, 'rot3': 0, 'rot2': 0, 'depth': -1.132, 'yaw': 130.66, 'datetime': '2018-12-12 13:47:39.532836', 'mgs': 0, 'flw2': 0.0, 'flw1': 0.0, 'flw0': 0.2, 'time': 35.38, 'compass': -2.2, 'pitch': -2.91, 'roll': -0.27}
{'lipoC2': 7.57, 'temp': 0.0, 'lipoC3S3': 11.44, 'state': 'normal', 'rot1': 250, 'rot0': 230, 'rot3': 0, 'rot2': 0, 'depth': -0.903, 'yaw': 130.66, 'datetime': '2018-12-12 13:47:39.745552', 'mgs': 0, 'flw2': 0.0, 'flw1': 0.0, 'flw0': 0.0, 'time': 35.59, 'compass': -2.2, 'pitch': -2.91, 'roll': -0.27}
{'lipoC2': 7.46, 'temp': 0.0, 'lipoC3S3': 11.42, 'state': 'normal', 'rot1': 250, 'rot0': 230, 'rot3': 0, 'rot2': 0, 'depth': -1.285, 'yaw': 130.66, 'datetime': '2018-12-12 13:47:39.952713', 'mgs': 0, 'flw2': 0.0, 'flw1': 0.0, 'flw0': 0.0, 'time': 35.79, 'compass': -2.2, 'pitch': -2.91, 'roll': -0.27}
{'lipoC2': 7.5, 'temp': 0.0, 'lipoC3S3': 11.42, 'state': 'normal', 'rot1': 250, 'rot0': 230, 'rot3': 0, 'rot2': 0, 'depth': 0.241, 'yaw': 130.66, 'datetime': '2018-12-12 13:47:40.161967', 'mgs': 0, 'flw2': 0.0, 'flw1': 0.23, 'flw0': 0.0, 'time': 36.01, 'compass': -2.2, 'pitch': -2.91, 'roll': -0.27}
{'lipoC2': 7.37, 'temp': 0.0, 'lipoC3S3': 11.39, 'state': 'normal', 'rot1': 250, 'rot0': 230, 'rot3': 0, 'rot2': 0, 'depth': -1.514, 'yaw': 130.66, 'datetime': '2018-12-12 13:47:40.373095', 'mgs': 0, 'flw2': 0.0, 'flw1': 0.35, 'flw0': 0.0, 'time': 36.22, 'compass': -2.2, 'pitch': -2.91, 'roll': -0.27}
{'lipoC2': 7.5, 'temp': 0.0, 'lipoC3S3': 11.3, 'state': 'normal', 'rot1': 250, 'rot0': 230, 'rot3': 0, 'rot2': 0, 'depth': -0.14, 'yaw': 130.66, 'datetime': '2018-12-12 13:47:40.580721', 'mgs': 0, 'flw2': 0.0, 'flw1': 0.0, 'flw0': 0.21, 'time': 36.42, 'compass': -2.2, 'pitch': -2.91, 'roll': -0.27}
{'lipoC2': 7.4, 'temp': 0.0, 'lipoC3S3': 11.5, 'state': 'normal', 'rot1': 250, 'rot0': 230, 'rot3': 0, 'rot2': 0, 'depth': -1.437, 'yaw': 130.66, 'datetime': '2018-12-12 13:47:40.790765', 'mgs': 0, 'flw2': 0.0, 'flw1': 0.0, 'flw0': 0.18, 'time': 36.63, 'compass': -2.2, 'pitch': -2.91, 'roll': -0.27}
{'lipoC2': 7.54, 'temp': 0.0, 'lipoC3S3': 11.27, 'state': 'normal', 'rot1': 250, 'rot0': 230, 'rot3': 0, 'rot2': 0, 'depth': 0.241, 'yaw': 130.66, 'datetime': '2018-12-12 13:47:41.003701', 'mgs': 0, 'flw2': 0.23, 'flw1': 0.0, 'flw0': 0.27, 'time': 36.84, 'compass': -2.2, 'pitch': -2.91, 'roll': -0.27}
{'lipoC2': 7.52, 'temp': 0.0, 'lipoC3S3': 11.27, 'state': 'normal', 'rot1': 250, 'rot0': 230, 'rot3': 0, 'rot2': 0, 'depth': -0.064, 'yaw': 130.66, 'datetime': '2018-12-12 13:47:41.210989', 'mgs': 0, 'flw2': 0.1, 'flw1': 0.0, 'flw0': 0.27, 'time': 37.05, 'compass': -2.2, 'pitch': -2.91, 'roll': -0.27}
{'lipoC2': 7.51, 'temp': 0.0, 'lipoC3S3': 11.43, 'state': 'normal', 'rot1': 250, 'rot0': 230, 'rot3': 0, 'rot2': 0, 'depth': -1.056, 'yaw': 130.66, 'datetime': '2018-12-12 13:47:41.416580', 'mgs': 0, 'flw2': 0.0, 'flw1': 0.0, 'flw0': 0.0, 'time': 37.26, 'compass': -2.2, 'pitch': -2.91, 'roll': -0.27}
{'lipoC2': 7.51, 'temp': 0.0, 'lipoC3S3': 11.31, 'state': 'normal', 'rot1': 250, 'rot0': 230, 'rot3': 0, 'rot2': 0, 'depth': -2.124, 'yaw': 130.66, 'datetime': '2018-12-12 13:47:41.628726', 'mgs': 0, 'flw2': 0.0, 'flw1': 0.0, 'flw0': 0.27, 'time': 37.47, 'compass': -2.2, 'pitch': -2.91, 'roll': -0.27}
{'lipoC2': 7.61, 'temp': 0.0, 'lipoC3S3': 11.27, 'state': 'normal', 'rot1': 250, 'rot0': 230, 'rot3': 0, 'rot2': 0, 'depth': 1.157, 'yaw': 130.66, 'datetime': '2018-12-12 13:47:41.836973', 'mgs': 0, 'flw2': 0.24, 'flw1': 0.0, 'flw0': 0.27, 'time': 37.68, 'compass': -2.2, 'pitch': -2.91, 'roll': -0.27}
{'lipoC2': 7.52, 'temp': 0.0, 'lipoC3S3': 11.31, 'state': 'normal', 'rot1': 250, 'rot0': 230, 'rot3': 0, 'rot2': 0, 'depth': -2.048, 'yaw': 130.66, 'datetime': '2018-12-12 13:47:42.046837', 'mgs': 0, 'flw2': 0.0, 'flw1': 0.09, 'flw0': 0.02, 'time': 37.89, 'compass': -2.2, 'pitch': -2.91, 'roll': -0.27}
{'lipoC2': 7.38, 'temp': 0.0, 'lipoC3S3': 11.34, 'state': 'normal', 'rot1': 250, 'rot0': 230, 'rot3': 0, 'rot2': 0, 'depth': -0.522, 'yaw': 130.66, 'datetime': '2018-12-12 13:47:42.259417', 'mgs': 0, 'flw2': 0.01, 'flw1': 0.0, 'flw0': 0.2, 'time': 38.1, 'compass': -2.2, 'pitch': -2.91, 'roll': -0.27}
{'lipoC2': 7.39, 'temp': 0.0, 'lipoC3S3': 11.54, 'state': 'normal', 'rot1': 250, 'rot0': 230, 'rot3': 0, 'rot2': 0, 'depth': -0.522, 'yaw': 130.66, 'datetime': '2018-12-12 13:47:42.471303', 'mgs': 0, 'flw2': 0.0, 'flw1': 0.47, 'flw0': 0.0, 'time': 38.31, 'compass': -2.2, 'pitch': -2.91, 'roll': -0.27}
{'lipoC2': 7.63, 'temp': 0.0, 'lipoC3S3': 11.39, 'state': 'normal', 'rot1': 250, 'rot0': 230, 'rot3': 0, 'rot2': 0, 'depth': -1.132, 'yaw': 130.66, 'datetime': '2018-12-12 13:47:42.676176', 'mgs': 0, 'flw2': 0.28, 'flw1': 0.0, 'flw0': 0.09, 'time': 38.52, 'compass': -2.2, 'pitch': -2.91, 'roll': -0.27}
{'lipoC2': 7.44, 'temp': 0.0, 'lipoC3S3': 11.4, 'state': 'normal', 'rot1': 250, 'rot0': 230, 'rot3': 0, 'rot2': 0, 'depth': -1.361, 'yaw': 130.66, 'datetime': '2018-12-12 13:47:42.886202', 'mgs': 0, 'flw2': 0.0, 'flw1': 0.0, 'flw0': 0.1, 'time': 38.73, 'compass': -2.2, 'pitch': -2.91, 'roll': -0.27}
{'lipoC2': 7.34, 'temp': 0.0, 'lipoC3S3': 11.46, 'state': 'normal', 'rot1': 250, 'rot0': 230, 'rot3': 0, 'rot2': 0, 'depth': -2.2, 'yaw': 130.66, 'datetime': '2018-12-12 13:47:43.095750', 'mgs': 0, 'flw2': 0.0, 'flw1': 0.64, 'flw0': 0.0, 'time': 38.94, 'compass': -2.2, 'pitch': -2.91, 'roll': -0.27}
{'lipoC2': 7.36, 'temp': 0.0, 'lipoC3S3': 11.5, 'state': 'normal', 'rot1': 250, 'rot0': 230, 'rot3': 0, 'rot2': 0, 'depth': -1.056, 'yaw': 130.66, 'datetime': '2018-12-12 13:47:43.304428', 'mgs': 0, 'flw2': 0.0, 'flw1': 0.56, 'flw0': 0.0, 'time': 39.15, 'compass': -2.2, 'pitch': -2.91, 'roll': -0.27}
{'lipoC2': 7.41, 'temp': 0.0, 'lipoC3S3': 11.26, 'state': 'normal', 'rot1': 250, 'rot0': 230, 'rot3': 0, 'rot2': 0, 'depth': -0.293, 'yaw': 130.66, 'datetime': '2018-12-12 13:47:43.517797', 'mgs': 0, 'flw2': 0.27, 'flw1': 0.0, 'flw0': 0.16, 'time': 39.36, 'compass': -2.2, 'pitch': -2.91, 'roll': -0.27}
{'lipoC2': 7.42, 'temp': 0.0, 'lipoC3S3': 11.38, 'state': 'normal', 'rot1': 250, 'rot0': 230, 'rot3': 0, 'rot2': 0, 'depth': -1.132, 'yaw': 130.66, 'datetime': '2018-12-12 13:47:43.727017', 'mgs': 0, 'flw2': 0.1, 'flw1': 0.0, 'flw0': 0.24, 'time': 39.57, 'compass': -2.2, 'pitch': -2.91, 'roll': -0.27}
{'lipoC2': 7.34, 'temp': 0.0, 'lipoC3S3': 11.42, 'state': 'normal', 'rot1': 250, 'rot0': 230, 'rot3': 0, 'rot2': 0, 'depth': -1.437, 'yaw': 130.66, 'datetime': '2018-12-12 13:47:43.937940', 'mgs': 0, 'flw2': 0.0, 'flw1': 0.59, 'flw0': 0.0, 'time': 39.78, 'compass': -2.2, 'pitch': -2.91, 'roll': -0.27}
{'lipoC2': 7.47, 'temp': 0.0, 'lipoC3S3': 11.42, 'state': 'normal', 'rot1': 250, 'rot0': 230, 'rot3': 0, 'rot2': 0, 'depth': -1.208, 'yaw': 130.66, 'datetime': '2018-12-12 13:47:44.147059', 'mgs': 0, 'flw2': 0.0, 'flw1': 0.06, 'flw0': 0.0, 'time': 39.99, 'compass': -2.2, 'pitch': -2.91, 'roll': -0.27}
{'lipoC2': 7.34, 'temp': 0.0, 'lipoC3S3': 11.42, 'state': 'normal', 'rot1': 250, 'rot0': 230, 'rot3': 0, 'rot2': 0, 'depth': -1.437, 'yaw': 130.66, 'datetime': '2018-12-12 13:47:44.355085', 'mgs': 0, 'flw2': 0.0, 'flw1': 0.56, 'flw0': 0.0, 'time': 40.19, 'compass': -2.2, 'pitch': -2.91, 'roll': -0.27}
{'lipoC2': 7.52, 'temp': 0.0, 'lipoC3S3': 11.27, 'state': 'normal', 'rot1': 250, 'rot0': 230, 'rot3': 0, 'rot2': 0, 'depth': -1.895, 'yaw': 130.66, 'datetime': '2018-12-12 13:47:44.565704', 'mgs': 0, 'flw2': 0.24, 'flw1': 0.0, 'flw0': 0.26, 'time': 40.4, 'compass': -2.2, 'pitch': -2.91, 'roll': -0.27}
{'lipoC2': 7.52, 'temp': 0.0, 'lipoC3S3': 11.44, 'state': 'normal', 'rot1': 250, 'rot0': 230, 'rot3': 0, 'rot2': 0, 'depth': -0.903, 'yaw': 130.66, 'datetime': '2018-12-12 13:47:44.774806', 'mgs': 0, 'flw2': 0.0, 'flw1': 0.0, 'flw0': 0.0, 'time': 40.61, 'compass': -2.2, 'pitch': -2.91, 'roll': -0.27}
{'lipoC2': 7.36, 'temp': 0.0, 'lipoC3S3': 11.39, 'state': 'normal', 'rot1': 250, 'rot0': 230, 'rot3': 0, 'rot2': 0, 'depth': -1.514, 'yaw': 130.66, 'datetime': '2018-12-12 13:47:44.985209', 'mgs': 0, 'flw2': 0.0, 'flw1': 0.06, 'flw0': 0.0, 'time': 40.82, 'compass': -2.2, 'pitch': -2.91, 'roll': -0.27}
{'lipoC2': 7.38, 'temp': 0.0, 'lipoC3S3': 11.68, 'state': 'normal', 'rot1': 250, 'rot0': 230, 'rot3': 0, 'rot2': 0, 'depth': 1.004, 'yaw': 130.66, 'datetime': '2018-12-12 13:47:45.195995', 'mgs': 0, 'flw2': 0.0, 'flw1': 0.35, 'flw0': 0.0, 'time': 41.03, 'compass': -2.2, 'pitch': -2.91, 'roll': -0.27}
{'lipoC2': 7.63, 'temp': 0.0, 'lipoC3S3': 11.38, 'state': 'normal', 'rot1': 250, 'rot0': 230, 'rot3': 0, 'rot2': 0, 'depth': -1.437, 'yaw': 130.66, 'datetime': '2018-12-12 13:47:45.404456', 'mgs': 0, 'flw2': 0.0, 'flw1': 0.0, 'flw0': 0.0, 'time': 41.24, 'compass': -2.2, 'pitch': -2.91, 'roll': -0.27}
{'lipoC2': 7.62, 'temp': 0.0, 'lipoC3S3': 11.3, 'state': 'normal', 'rot1': 250, 'rot0': 230, 'rot3': 0, 'rot2': 0, 'depth': -1.971, 'yaw': 130.66, 'datetime': '2018-12-12 13:47:45.613930', 'mgs': 0, 'flw2': 0.0, 'flw1': 0.0, 'flw0': 0.0, 'time': 41.45, 'compass': -2.2, 'pitch': -2.91, 'roll': -0.27}
{'lipoC2': 7.41, 'temp': 0.0, 'lipoC3S3': 11.72, 'state': 'normal', 'rot1': 250, 'rot0': 230, 'rot3': 0, 'rot2': 0, 'depth': -0.903, 'yaw': 130.66, 'datetime': '2018-12-12 13:47:45.824331', 'mgs': 0, 'flw2': 0.0, 'flw1': 0.0, 'flw0': 0.0, 'time': 41.66, 'compass': -2.2, 'pitch': -2.91, 'roll': -0.27}
{'lipoC2': 7.38, 'temp': 0.0, 'lipoC3S3': 11.67, 'state': 'normal', 'rot1': 250, 'rot0': 230, 'rot3': 0, 'rot2': 0, 'depth': 1.004, 'yaw': 130.66, 'datetime': '2018-12-12 13:47:46.032962', 'mgs': 0, 'flw2': 0.0, 'flw1': 0.0, 'flw0': 0.01, 'time': 41.87, 'compass': -2.2, 'pitch': -2.91, 'roll': -0.27}
{'lipoC2': 7.46, 'temp': 0.0, 'lipoC3S3': 11.31, 'state': 'normal', 'rot1': 250, 'rot0': 230, 'rot3': 0, 'rot2': 0, 'depth': -1.208, 'yaw': 130.66, 'datetime': '2018-12-12 13:47:46.243430', 'mgs': 0, 'flw2': 0.26, 'flw1': 0.0, 'flw0': 0.26, 'time': 42.08, 'compass': -2.2, 'pitch': -2.91, 'roll': -0.27}
{'lipoC2': 7.4, 'temp': 0.0, 'lipoC3S3': 11.6, 'state': 'normal', 'rot1': 250, 'rot0': 230, 'rot3': 0, 'rot2': 0, 'depth': -0.446, 'yaw': 130.66, 'datetime': '2018-12-12 13:47:46.454145', 'mgs': 0, 'flw2': 0.2, 'flw1': 0.0, 'flw0': 0.0, 'time': 42.29, 'compass': -2.2, 'pitch': -2.91, 'roll': -0.27}
{'lipoC2': 7.41, 'temp': 0.0, 'lipoC3S3': 11.43, 'state': 'normal', 'rot1': 250, 'rot0': 230, 'rot3': 0, 'rot2': 0, 'depth': -0.293, 'yaw': 130.66, 'datetime': '2018-12-12 13:47:46.667100', 'mgs': 0, 'flw2': 0.0, 'flw1': 0.09, 'flw0': 0.0, 'time': 42.5, 'compass': -2.2, 'pitch': -2.91, 'roll': -0.27}
