{'lipoC2': 7.4, 'temp': 0.0, 'lipoC3S3': 11.1, 'state': 'normal', 'rot1': 0, 'rot0': 0, 'rot3': 0, 'rot2': 0, 'depth': -1.666, 'yaw': 0.0, 'datetime': '2018-12-12 14:38:11.279913', 'mgs': 0, 'flw2': 0.0, 'flw1': 0.35, 'flw0': 0.0, 'time': 1.25, 'compass': 140.46, 'pitch': -1.94, 'roll': 3.17}
{'lipoC2': 7.3, 'temp': 0.0, 'lipoC3S3': 11.36, 'state': 'normal', 'rot1': 0, 'rot0': 0, 'rot3': 0, 'rot2': 0, 'depth': -1.743, 'yaw': 0.27, 'datetime': '2018-12-12 14:38:11.486855', 'mgs': 0, 'flw2': 0.0, 'flw1': 0.73, 'flw0': 0.0, 'time': 1.46, 'compass': 140.73, 'pitch': -1.78, 'roll': 3.11}
{'lipoC2': 7.29, 'temp': 0.0, 'lipoC3S3': 11.32, 'state': 'normal', 'rot1': 0, 'rot0': 0, 'rot3': 0, 'rot2': 0, 'depth': -0.98, 'yaw': 0.45, 'datetime': '2018-12-12 14:38:11.695072', 'mgs': 0, 'flw2': 0.15, 'flw1': 0.0, 'flw0': 0.27, 'time': 1.67, 'compass': 140.91, 'pitch': -0.81, 'roll': 2.72}
{'lipoC2': 7.35, 'temp': 0.0, 'lipoC3S3': 11.51, 'state': 'normal', 'rot1': 0, 'rot0': 0, 'rot3': 0, 'rot2': 0, 'depth': -1.285, 'yaw': 0.72, 'datetime': '2018-12-12 14:38:11.903263', 'mgs': 0, 'flw2': 0.0, 'flw1': 0.44, 'flw0': 0.0, 'time': 1.88, 'compass': 141.18, 'pitch': -0.55, 'roll': 2.49}
{'lipoC2': 7.36, 'temp': 0.0, 'lipoC3S3': 10.89, 'state': 'normal', 'rot1': 0, 'rot0': 0, 'rot3': 0, 'rot2': 0, 'depth': 0.394, 'yaw': 0.98, 'datetime': '2018-12-12 14:38:12.110323', 'mgs': 0, 'flw2': 6.62, 'flw1': 0.47, 'flw0': 5.97, 'time': 2.09, 'compass': 141.43, 'pitch': -1.77, 'roll': 2.68}
{'lipoC2': 7.17, 'temp': 0.0, 'lipoC3S3': 11.14, 'state': 'normal', 'rot1': 5, 'rot0': 4, 'rot3': 0, 'rot2': 0, 'depth': 3.14, 'yaw': -2.82, 'datetime': '2018-12-12 14:38:12.318443', 'mgs': 0, 'flw2': 5.83, 'flw1': 0.0, 'flw0': 6.62, 'time': 2.29, 'compass': 137.64, 'pitch': -2.29, 'roll': 1.88}
{'lipoC2': 7.17, 'temp': 0.0, 'lipoC3S3': 11.27, 'state': 'normal', 'rot1': 9, 'rot0': 7, 'rot3': 0, 'rot2': 0, 'depth': -0.98, 'yaw': -13.9, 'datetime': '2018-12-12 14:38:12.528022', 'mgs': 0, 'flw2': 4.81, 'flw1': 0.0, 'flw0': 5.71, 'time': 2.5, 'compass': 126.56, 'pitch': -0.68, 'roll': -0.41}
{'lipoC2': 7.1, 'temp': 0.0, 'lipoC3S3': 11.47, 'state': 'normal', 'rot1': 13, 'rot0': 10, 'rot3': 0, 'rot2': 0, 'depth': -1.132, 'yaw': -27.93, 'datetime': '2018-12-12 14:38:12.736143', 'mgs': 0, 'flw2': 4.3, 'flw1': 0.0, 'flw0': 5.24, 'time': 2.71, 'compass': 112.53, 'pitch': 0.55, 'roll': -1.96}
{'lipoC2': 7.23, 'temp': 0.0, 'lipoC3S3': 11.09, 'state': 'normal', 'rot1': 16, 'rot0': 13, 'rot3': 0, 'rot2': 0, 'depth': -1.59, 'yaw': -35.57, 'datetime': '2018-12-12 14:38:12.946946', 'mgs': 0, 'flw2': 3.52, 'flw1': 0.23, 'flw0': 4.19, 'time': 2.92, 'compass': 104.89, 'pitch': -0.5, 'roll': -1.8}
{'lipoC2': 7.3, 'temp': 0.0, 'lipoC3S3': 11.11, 'state': 'normal', 'rot1': 18, 'rot0': 16, 'rot3': 0, 'rot2': 0, 'depth': -2.277, 'yaw': -46.94, 'datetime': '2018-12-12 14:38:13.155057', 'mgs': 0, 'flw2': 2.69, 'flw1': 0.23, 'flw0': 2.97, 'time': 3.13, 'compass': 93.52, 'pitch': -1.41, 'roll': -1.4}
{'lipoC2': 7.36, 'temp': 0.0, 'lipoC3S3': 11.21, 'state': 'normal', 'rot1': 21, 'rot0': 18, 'rot3': 0, 'rot2': 0, 'depth': -1.208, 'yaw': -59.99, 'datetime': '2018-12-12 14:38:13.365296', 'mgs': 0, 'flw2': 2.7, 'flw1': 0.0, 'flw0': 3.02, 'time': 3.34, 'compass': 80.47, 'pitch': -0.61, 'roll': -1.53}
{'lipoC2': 7.18, 'temp': 0.0, 'lipoC3S3': 11.14, 'state': 'normal', 'rot1': 24, 'rot0': 20, 'rot3': 0, 'rot2': 0, 'depth': 2.072, 'yaw': -73.06, 'datetime': '2018-12-12 14:38:13.575777', 'mgs': 0, 'flw2': 1.55, 'flw1': 0.53, 'flw0': 1.7, 'time': 3.55, 'compass': 67.4, 'pitch': -0.12, 'roll': -1.86}
{'lipoC2': 7.38, 'temp': 0.0, 'lipoC3S3': 11.22, 'state': 'normal', 'rot1': 26, 'rot0': 22, 'rot3': 0, 'rot2': 0, 'depth': -0.369, 'yaw': -86.51, 'datetime': '2018-12-12 14:38:13.785214', 'mgs': 0, 'flw2': 1.27, 'flw1': 0.0, 'flw0': 1.21, 'time': 3.76, 'compass': 53.95, 'pitch': -1.82, 'roll': -2.42}
{'lipoC2': 7.32, 'temp': 0.0, 'lipoC3S3': 11.09, 'state': 'normal', 'rot1': 27, 'rot0': 23, 'rot3': 0, 'rot2': 0, 'depth': 0.699, 'yaw': -99.03, 'datetime': '2018-12-12 14:38:13.993944', 'mgs': 0, 'flw2': 0.55, 'flw1': 0.0, 'flw0': 0.94, 'time': 3.96, 'compass': 41.43, 'pitch': -3.59, 'roll': -2.9}
{'lipoC2': 7.5, 'temp': 0.0, 'lipoC3S3': 11.02, 'state': 'normal', 'rot1': 28, 'rot0': 25, 'rot3': 0, 'rot2': 0, 'depth': -0.827, 'yaw': -110.41, 'datetime': '2018-12-12 14:38:14.202830', 'mgs': 0, 'flw2': 0.7, 'flw1': 0.0, 'flw0': 0.37, 'time': 4.17, 'compass': 30.05, 'pitch': -3.57, 'roll': -2.69}
{'lipoC2': 7.4, 'temp': 0.0, 'lipoC3S3': 11.35, 'state': 'normal', 'rot1': 30, 'rot0': 26, 'rot3': 0, 'rot2': 0, 'depth': -1.971, 'yaw': -119.78, 'datetime': '2018-12-12 14:38:14.410061', 'mgs': 0, 'flw2': 0.5, 'flw1': 0.0, 'flw0': 0.46, 'time': 4.38, 'compass': 20.68, 'pitch': -2.86, 'roll': -1.71}
{'lipoC2': 7.29, 'temp': 0.0, 'lipoC3S3': 11.21, 'state': 'normal', 'rot1': 32, 'rot0': 27, 'rot3': 0, 'rot2': 0, 'depth': -1.056, 'yaw': -127.36, 'datetime': '2018-12-12 14:38:14.619867', 'mgs': 0, 'flw2': 0.34, 'flw1': 0.0, 'flw0': 0.29, 'time': 4.59, 'compass': 13.1, 'pitch': -2.62, 'roll': -1.23}
{'lipoC2': 7.48, 'temp': 0.0, 'lipoC3S3': 11.18, 'state': 'normal', 'rot1': 33, 'rot0': 28, 'rot3': 0, 'rot2': 0, 'depth': -1.895, 'yaw': -134.85, 'datetime': '2018-12-12 14:38:14.829648', 'mgs': 0, 'flw2': 0.2, 'flw1': 0.62, 'flw0': 0.38, 'time': 4.8, 'compass': 5.61, 'pitch': -2.39, 'roll': -1.6}
{'lipoC2': 7.3, 'temp': 0.0, 'lipoC3S3': 11.47, 'state': 'normal', 'rot1': 34, 'rot0': 29, 'rot3': 0, 'rot2': 0, 'depth': -1.361, 'yaw': -142.1, 'datetime': '2018-12-12 14:38:15.041580', 'mgs': 0, 'flw2': 0.0, 'flw1': 0.47, 'flw0': 0.0, 'time': 5.01, 'compass': -1.64, 'pitch': -1.86, 'roll': -2.3}
{'lipoC2': 7.18, 'temp': 0.0, 'lipoC3S3': 11.18, 'state': 'normal', 'rot1': 34, 'rot0': 29, 'rot3': 0, 'rot2': 0, 'depth': -0.369, 'yaw': -148.55, 'datetime': '2018-12-12 14:38:15.249830', 'mgs': 0, 'flw2': 0.0, 'flw1': 0.0, 'flw0': 0.0, 'time': 5.22, 'compass': -8.09, 'pitch': -1.81, 'roll': -2.86}
{'lipoC2': 7.38, 'temp': 0.0, 'lipoC3S3': 11.18, 'state': 'normal', 'rot1': 35, 'rot0': 30, 'rot3': 0, 'rot2': 0, 'depth': -0.674, 'yaw': -154.27, 'datetime': '2018-12-12 14:38:15.459411', 'mgs': 0, 'flw2': 0.59, 'flw1': 0.0, 'flw0': 0.71, 'time': 5.43, 'compass': -13.81, 'pitch': -1.46, 'roll': -3.11}
{'lipoC2': 7.37, 'temp': 0.0, 'lipoC3S3': 11.18, 'state': 'normal', 'rot1': 35, 'rot0': 30, 'rot3': 0, 'rot2': 0, 'depth': -0.522, 'yaw': -158.81, 'datetime': '2018-12-12 14:38:15.665251', 'mgs': 0, 'flw2': 0.39, 'flw1': 0.0, 'flw0': 0.6, 'time': 5.64, 'compass': -18.35, 'pitch': -0.64, 'roll': -2.63}
{'lipoC2': 7.27, 'temp': 0.0, 'lipoC3S3': 11.17, 'state': 'normal', 'rot1': 37, 'rot0': 31, 'rot3': 0, 'rot2': 0, 'depth': -1.361, 'yaw': -161.93, 'datetime': '2018-12-12 14:38:15.875223', 'mgs': 0, 'flw2': 0.15, 'flw1': 0.38, 'flw0': 0.38, 'time': 5.85, 'compass': -21.47, 'pitch': -0.5, 'roll': -2.0}
{'lipoC2': 7.27, 'temp': 0.0, 'lipoC3S3': 11.3, 'state': 'normal', 'rot1': 38, 'rot0': 32, 'rot3': 0, 'rot2': 0, 'depth': -0.751, 'yaw': -163.99, 'datetime': '2018-12-12 14:38:16.085922', 'mgs': 0, 'flw2': 0.57, 'flw1': 0.0, 'flw0': 0.39, 'time': 6.05, 'compass': -23.53, 'pitch': -0.74, 'roll': -1.75}
{'lipoC2': 7.47, 'temp': 0.0, 'lipoC3S3': 11.13, 'state': 'normal', 'rot1': 40, 'rot0': 33, 'rot3': 0, 'rot2': 0, 'depth': -1.666, 'yaw': -165.19, 'datetime': '2018-12-12 14:38:16.297461', 'mgs': 0, 'flw2': 0.67, 'flw1': 0.0, 'flw0': 0.4, 'time': 6.26, 'compass': -24.73, 'pitch': -0.64, 'roll': -1.8}
{'lipoC2': 7.21, 'temp': 0.0, 'lipoC3S3': 11.54, 'state': 'normal', 'rot1': 41, 'rot0': 34, 'rot3': 0, 'rot2': 0, 'depth': -0.446, 'yaw': -165.65, 'datetime': '2018-12-12 14:38:16.510157', 'mgs': 0, 'flw2': 0.16, 'flw1': 0.0, 'flw0': 0.34, 'time': 6.47, 'compass': -25.19, 'pitch': -0.41, 'roll': -2.21}
{'lipoC2': 7.23, 'temp': 0.0, 'lipoC3S3': 11.14, 'state': 'normal', 'rot1': 42, 'rot0': 35, 'rot3': 0, 'rot2': 0, 'depth': -1.285, 'yaw': -165.38, 'datetime': '2018-12-12 14:38:16.718930', 'mgs': 0, 'flw2': 0.5, 'flw1': 0.0, 'flw0': 0.21, 'time': 6.68, 'compass': -24.92, 'pitch': -0.7, 'roll': -2.34}
{'lipoC2': 7.36, 'temp': 0.0, 'lipoC3S3': 11.3, 'state': 'normal', 'rot1': 43, 'rot0': 36, 'rot3': 0, 'rot2': 0, 'depth': -1.285, 'yaw': -164.65, 'datetime': '2018-12-12 14:38:16.924215', 'mgs': 0, 'flw2': 0.24, 'flw1': 0.32, 'flw0': 0.18, 'time': 6.89, 'compass': -24.19, 'pitch': -0.97, 'roll': -2.1}
{'lipoC2': 7.21, 'temp': 0.0, 'lipoC3S3': 11.44, 'state': 'normal', 'rot1': 44, 'rot0': 37, 'rot3': 0, 'rot2': 0, 'depth': -0.674, 'yaw': -163.39, 'datetime': '2018-12-12 14:38:17.134626', 'mgs': 0, 'flw2': 0.09, 'flw1': 0.0, 'flw0': 0.09, 'time': 7.1, 'compass': -22.93, 'pitch': -1.02, 'roll': -1.69}
{'lipoC2': 7.22, 'temp': 0.0, 'lipoC3S3': 11.22, 'state': 'normal', 'rot1': 45, 'rot0': 37, 'rot3': 0, 'rot2': 0, 'depth': -0.751, 'yaw': -161.66, 'datetime': '2018-12-12 14:38:17.343905', 'mgs': 0, 'flw2': 0.34, 'flw1': 0.12, 'flw0': 0.13, 'time': 7.31, 'compass': -21.2, 'pitch': -1.16, 'roll': -1.55}
{'lipoC2': 7.34, 'temp': 0.0, 'lipoC3S3': 11.05, 'state': 'normal', 'rot1': 46, 'rot0': 38, 'rot3': 0, 'rot2': 0, 'depth': 1.08, 'yaw': -159.58, 'datetime': '2018-12-12 14:38:17.554336', 'mgs': 0, 'flw2': 0.27, 'flw1': 0.21, 'flw0': 0.17, 'time': 7.52, 'compass': -19.12, 'pitch': -1.2, 'roll': -1.65}
{'lipoC2': 7.35, 'temp': 0.0, 'lipoC3S3': 11.4, 'state': 'normal', 'rot1': 47, 'rot0': 39, 'rot3': 0, 'rot2': 0, 'depth': -1.208, 'yaw': -157.24, 'datetime': '2018-12-12 14:38:17.762689', 'mgs': 0, 'flw2': 0.26, 'flw1': 0.5, 'flw0': 0.23, 'time': 7.73, 'compass': -16.78, 'pitch': -0.94, 'roll': -1.62}
{'lipoC2': 7.26, 'temp': 0.0, 'lipoC3S3': 11.22, 'state': 'normal', 'rot1': 48, 'rot0': 40, 'rot3': 0, 'rot2': 0, 'depth': -1.361, 'yaw': -154.61, 'datetime': '2018-12-12 14:38:17.972056', 'mgs': 0, 'flw2': 0.48, 'flw1': 0.0, 'flw0': 0.6, 'time': 7.94, 'compass': -14.15, 'pitch': -1.03, 'roll': -1.36}
{'lipoC2': 7.24, 'temp': 0.0, 'lipoC3S3': 11.11, 'state': 'normal', 'rot1': 49, 'rot0': 41, 'rot3': 0, 'rot2': 0, 'depth': -0.446, 'yaw': -151.82, 'datetime': '2018-12-12 14:38:18.180420', 'mgs': 0, 'flw2': 0.18, 'flw1': 0.0, 'flw0': 0.39, 'time': 8.15, 'compass': -11.37, 'pitch': -1.57, 'roll': -0.99}
{'lipoC2': 7.29, 'temp': 0.0, 'lipoC3S3': 11.32, 'state': 'normal', 'rot1': 50, 'rot0': 42, 'rot3': 0, 'rot2': 0, 'depth': -1.819, 'yaw': -148.68, 'datetime': '2018-12-12 14:38:18.390877', 'mgs': 0, 'flw2': 0.11, 'flw1': 0.09, 'flw0': 0.12, 'time': 8.35, 'compass': -8.22, 'pitch': -2.12, 'roll': -0.86}
{'lipoC2': 7.23, 'temp': 0.0, 'lipoC3S3': 11.22, 'state': 'normal', 'rot1': 51, 'rot0': 43, 'rot3': 0, 'rot2': 0, 'depth': -1.666, 'yaw': -145.34, 'datetime': '2018-12-12 14:38:18.601357', 'mgs': 0, 'flw2': 0.0, 'flw1': 0.0, 'flw0': 0.22, 'time': 8.56, 'compass': -4.88, 'pitch': -2.41, 'roll': -0.76}
{'lipoC2': 7.19, 'temp': 0.0, 'lipoC3S3': 11.3, 'state': 'normal', 'rot1': 51, 'rot0': 43, 'rot3': 0, 'rot2': 0, 'depth': -0.293, 'yaw': -142.29, 'datetime': '2018-12-12 14:38:18.810446', 'mgs': 0, 'flw2': 0.0, 'flw1': 0.12, 'flw0': 0.0, 'time': 8.77, 'compass': -1.83, 'pitch': -2.71, 'roll': -1.13}
{'lipoC2': 7.34, 'temp': 0.0, 'lipoC3S3': 11.09, 'state': 'normal', 'rot1': 51, 'rot0': 43, 'rot3': 0, 'rot2': 0, 'depth': -0.064, 'yaw': -139.6, 'datetime': '2018-12-12 14:38:19.021803', 'mgs': 0, 'flw2': 0.24, 'flw1': 0.0, 'flw0': 0.04, 'time': 8.98, 'compass': 0.86, 'pitch': -2.69, 'roll': -1.55}
{'lipoC2': 7.33, 'temp': 0.0, 'lipoC3S3': 11.18, 'state': 'normal', 'rot1': 51, 'rot0': 43, 'rot3': 0, 'rot2': 0, 'depth': -1.819, 'yaw': -137.16, 'datetime': '2018-12-12 14:38:19.228361', 'mgs': 0, 'flw2': 0.0, 'flw1': 0.0, 'flw0': 0.28, 'time': 9.19, 'compass': 3.3, 'pitch': -2.27, 'roll': -1.71}
{'lipoC2': 7.15, 'temp': 0.0, 'lipoC3S3': 11.4, 'state': 'normal', 'rot1': 51, 'rot0': 43, 'rot3': 0, 'rot2': 0, 'depth': -1.056, 'yaw': -134.98, 'datetime': '2018-12-12 14:38:19.437871', 'mgs': 0, 'flw2': 0.26, 'flw1': 0.0, 'flw0': 0.17, 'time': 9.4, 'compass': 5.48, 'pitch': -2.12, 'roll': -1.47}
{'lipoC2': 7.2, 'temp': 0.0, 'lipoC3S3': 11.39, 'state': 'normal', 'rot1': 52, 'rot0': 43, 'rot3': 0, 'rot2': 0, 'depth': 0.241, 'yaw': -132.98, 'datetime': '2018-12-12 14:38:19.647020', 'mgs': 0, 'flw2': 0.34, 'flw1': 0.0, 'flw0': 0.11, 'time': 9.61, 'compass': 7.48, 'pitch': -2.74, 'roll': -0.7}
{'lipoC2': 7.12, 'temp': 0.0, 'lipoC3S3': 11.36, 'state': 'normal', 'rot1': 52, 'rot0': 44, 'rot3': 0, 'rot2': 0, 'depth': 1.538, 'yaw': -131.69, 'datetime': '2018-12-12 14:38:19.858060', 'mgs': 0, 'flw2': 0.18, 'flw1': 0.03, 'flw0': 0.23, 'time': 9.82, 'compass': 8.77, 'pitch': -3.23, 'roll': -0.19}
{'lipoC2': 7.34, 'temp': 0.0, 'lipoC3S3': 11.19, 'state': 'normal', 'rot1': 53, 'rot0': 45, 'rot3': 0, 'rot2': 0, 'depth': -1.285, 'yaw': -131.23, 'datetime': '2018-12-12 14:38:20.066268', 'mgs': 0, 'flw2': 0.39, 'flw1': 0.0, 'flw0': 0.57, 'time': 10.03, 'compass': 9.23, 'pitch': -3.13, 'roll': -0.21}
{'lipoC2': 7.3, 'temp': 0.0, 'lipoC3S3': 11.42, 'state': 'normal', 'rot1': 54, 'rot0': 46, 'rot3': 0, 'rot2': 0, 'depth': -1.285, 'yaw': -131.48, 'datetime': '2018-12-12 14:38:20.275956', 'mgs': 0, 'flw2': 0.21, 'flw1': 0.0, 'flw0': 0.18, 'time': 10.24, 'compass': 8.98, 'pitch': -2.57, 'roll': -0.7}
{'lipoC2': 7.22, 'temp': 0.0, 'lipoC3S3': 11.44, 'state': 'normal', 'rot1': 56, 'rot0': 46, 'rot3': 0, 'rot2': 0, 'depth': -1.208, 'yaw': -132.29, 'datetime': '2018-12-12 14:38:20.484187', 'mgs': 0, 'flw2': 0.1, 'flw1': 0.15, 'flw0': 0.12, 'time': 10.45, 'compass': 8.17, 'pitch': -2.58, 'roll': -0.9}
{'lipoC2': 7.48, 'temp': 0.0, 'lipoC3S3': 11.05, 'state': 'normal', 'rot1': 56, 'rot0': 47, 'rot3': 0, 'rot2': 0, 'depth': -0.14, 'yaw': -133.65, 'datetime': '2018-12-12 14:38:20.693602', 'mgs': 0, 'flw2': 0.6, 'flw1': 0.0, 'flw0': 0.24, 'time': 10.65, 'compass': 6.81, 'pitch': -3.18, 'roll': -0.83}
{'lipoC2': 7.18, 'temp': 0.0, 'lipoC3S3': 11.27, 'state': 'normal', 'rot1': 57, 'rot0': 48, 'rot3': 0, 'rot2': 0, 'depth': 1.004, 'yaw': -135.48, 'datetime': '2018-12-12 14:38:20.902234', 'mgs': 0, 'flw2': 0.44, 'flw1': 0.0, 'flw0': 0.29, 'time': 10.86, 'compass': 4.98, 'pitch': -3.46, 'roll': -0.66}
{'lipoC2': 7.25, 'temp': 0.0, 'lipoC3S3': 11.1, 'state': 'normal', 'rot1': 59, 'rot0': 49, 'rot3': 0, 'rot2': 0, 'depth': 0.546, 'yaw': -137.73, 'datetime': '2018-12-12 14:38:21.111294', 'mgs': 0, 'flw2': 0.01, 'flw1': 0.0, 'flw0': 0.13, 'time': 11.07, 'compass': 2.73, 'pitch': -3.17, 'roll': -0.79}
{'lipoC2': 7.3, 'temp': 0.0, 'lipoC3S3': 11.05, 'state': 'normal', 'rot1': 59, 'rot0': 49, 'rot3': 0, 'rot2': 0, 'depth': 0.928, 'yaw': -139.71, 'datetime': '2018-12-12 14:38:21.321713', 'mgs': 0, 'flw2': 0.0, 'flw1': 0.0, 'flw0': 0.27, 'time': 11.28, 'compass': 0.75, 'pitch': -3.2, 'roll': -0.81}
{'lipoC2': 7.15, 'temp': 0.0, 'lipoC3S3': 11.09, 'state': 'normal', 'rot1': 59, 'rot0': 49, 'rot3': 0, 'rot2': 0, 'depth': 0.012, 'yaw': -141.46, 'datetime': '2018-12-12 14:38:21.530925', 'mgs': 0, 'flw2': 0.0, 'flw1': 0.38, 'flw0': 0.0, 'time': 11.49, 'compass': -1.0, 'pitch': -3.53, 'roll': -0.57}
{'lipoC2': 7.3, 'temp': 0.0, 'lipoC3S3': 11.26, 'state': 'normal', 'rot1': 59, 'rot0': 49, 'rot3': 0, 'rot2': 0, 'depth': 0.851, 'yaw': -142.92, 'datetime': '2018-12-12 14:38:21.740314', 'mgs': 0, 'flw2': 0.1, 'flw1': 0.0, 'flw0': 0.33, 'time': 11.7, 'compass': -2.46, 'pitch': -3.56, 'roll': -0.19}
{'lipoC2': 7.29, 'temp': 0.0, 'lipoC3S3': 11.32, 'state': 'normal', 'rot1': 59, 'rot0': 49, 'rot3': 0, 'rot2': 0, 'depth': -1.514, 'yaw': -144.27, 'datetime': '2018-12-12 14:38:21.949272', 'mgs': 0, 'flw2': 0.0, 'flw1': 0.21, 'flw0': 0.0, 'time': 11.91, 'compass': -3.81, 'pitch': -2.76, 'roll': -0.04}
{'lipoC2': 7.13, 'temp': 0.0, 'lipoC3S3': 11.36, 'state': 'normal', 'rot1': 59, 'rot0': 49, 'rot3': 0, 'rot2': 0, 'depth': 1.462, 'yaw': -145.49, 'datetime': '2018-12-12 14:38:22.157484', 'mgs': 0, 'flw2': 0.18, 'flw1': 0.0, 'flw0': 0.0, 'time': 12.12, 'compass': -5.03, 'pitch': -2.18, 'roll': -0.4}
{'lipoC2': 7.26, 'temp': 0.0, 'lipoC3S3': 11.31, 'state': 'normal', 'rot1': 59, 'rot0': 49, 'rot3': 0, 'rot2': 0, 'depth': -1.743, 'yaw': -146.6, 'datetime': '2018-12-12 14:38:22.366581', 'mgs': 0, 'flw2': 0.0, 'flw1': 0.62, 'flw0': 0.0, 'time': 12.32, 'compass': -6.14, 'pitch': -2.78, 'roll': -0.82}
{'lipoC2': 7.14, 'temp': 0.0, 'lipoC3S3': 11.21, 'state': 'normal', 'rot1': 59, 'rot0': 49, 'rot3': 0, 'rot2': 0, 'depth': 1.004, 'yaw': -147.57, 'datetime': '2018-12-12 14:38:22.576911', 'mgs': 0, 'flw2': 0.0, 'flw1': 0.21, 'flw0': 0.0, 'time': 12.53, 'compass': -7.11, 'pitch': -3.89, 'roll': -0.92}
{'lipoC2': 7.32, 'temp': 0.0, 'lipoC3S3': 11.03, 'state': 'normal', 'rot1': 59, 'rot0': 49, 'rot3': 0, 'rot2': 0, 'depth': 0.775, 'yaw': -148.45, 'datetime': '2018-12-12 14:38:22.787619', 'mgs': 0, 'flw2': 0.0, 'flw1': 0.23, 'flw0': 0.04, 'time': 12.74, 'compass': -7.99, 'pitch': -4.03, 'roll': -0.73}
{'lipoC2': 7.3, 'temp': 0.0, 'lipoC3S3': 11.27, 'state': 'normal', 'rot1': 59, 'rot0': 49, 'rot3': 0, 'rot2': 0, 'depth': -1.437, 'yaw': -149.24, 'datetime': '2018-12-12 14:38:22.995639', 'mgs': 0, 'flw2': 0.27, 'flw1': 0.0, 'flw0': 0.72, 'time': 12.95, 'compass': -8.78, 'pitch': -3.33, 'roll': -0.44}
{'lipoC2': 7.14, 'temp': 0.0, 'lipoC3S3': 11.54, 'state': 'normal', 'rot1': 60, 'rot0': 50, 'rot3': 0, 'rot2': 0, 'depth': -0.674, 'yaw': -149.48, 'datetime': '2018-12-12 14:38:23.206116', 'mgs': 0, 'flw2': 0.16, 'flw1': 0.0, 'flw0': 0.18, 'time': 13.16, 'compass': -9.02, 'pitch': -3.1, 'roll': -0.28}
{'lipoC2': 7.19, 'temp': 0.0, 'lipoC3S3': 11.48, 'state': 'normal', 'rot1': 61, 'rot0': 51, 'rot3': 0, 'rot2': 0, 'depth': -0.598, 'yaw': -148.96, 'datetime': '2018-12-12 14:38:23.414336', 'mgs': 0, 'flw2': 0.39, 'flw1': 0.0, 'flw0': 0.55, 'time': 13.37, 'compass': -8.5, 'pitch': -3.63, 'roll': -0.21}
{'lipoC2': 7.15, 'temp': 0.0, 'lipoC3S3': 11.54, 'state': 'normal', 'rot1': 62, 'rot0': 51, 'rot3': 0, 'rot2': 0, 'depth': -0.446, 'yaw': -147.73, 'datetime': '2018-12-12 14:38:23.624332', 'mgs': 0, 'flw2': 0.16, 'flw1': 0.0, 'flw0': 0.0, 'time': 13.58, 'compass': -7.27, 'pitch': -3.92, 'roll': -0.14}
{'lipoC2': 7.15, 'temp': 0.0, 'lipoC3S3': 11.58, 'state': 'normal', 'rot1': 62, 'rot0': 51, 'rot3': 0, 'rot2': 0, 'depth': 0.012, 'yaw': -146.59, 'datetime': '2018-12-12 14:38:23.834761', 'mgs': 0, 'flw2': 0.0, 'flw1': 0.0, 'flw0': 0.0, 'time': 13.79, 'compass': -6.13, 'pitch': -3.44, 'roll': -0.3}
{'lipoC2': 7.36, 'temp': 0.0, 'lipoC3S3': 11.56, 'state': 'normal', 'rot1': 62, 'rot0': 51, 'rot3': 0, 'rot2': 0, 'depth': 1.004, 'yaw': -145.48, 'datetime': '2018-12-12 14:38:24.043591', 'mgs': 0, 'flw2': 0.0, 'flw1': 0.0, 'flw0': 0.0, 'time': 14.0, 'compass': -5.02, 'pitch': -2.95, 'roll': -0.29}
{'lipoC2': 7.12, 'temp': 0.0, 'lipoC3S3': 11.52, 'state': 'normal', 'rot1': 62, 'rot0': 51, 'rot3': 0, 'rot2': 0, 'depth': 0.928, 'yaw': -144.59, 'datetime': '2018-12-12 14:38:24.252677', 'mgs': 0, 'flw2': 0.27, 'flw1': 0.0, 'flw0': 0.0, 'time': 14.21, 'compass': -4.13, 'pitch': -3.25, 'roll': -0.21}
{'lipoC2': 7.37, 'temp': 0.0, 'lipoC3S3': 11.36, 'state': 'normal', 'rot1': 62, 'rot0': 51, 'rot3': 0, 'rot2': 0, 'depth': -1.056, 'yaw': -143.65, 'datetime': '2018-12-12 14:38:24.460770', 'mgs': 0, 'flw2': 0.04, 'flw1': 0.56, 'flw0': 0.0, 'time': 14.42, 'compass': -3.19, 'pitch': -4.08, 'roll': 0.09}
{'lipoC2': 7.41, 'temp': 0.0, 'lipoC3S3': 11.47, 'state': 'normal', 'rot1': 62, 'rot0': 51, 'rot3': 0, 'rot2': 0, 'depth': 0.012, 'yaw': -142.82, 'datetime': '2018-12-12 14:38:24.669988', 'mgs': 0, 'flw2': 0.0, 'flw1': 0.03, 'flw0': 0.0, 'time': 14.63, 'compass': -2.36, 'pitch': -4.55, 'roll': 0.31}
{'lipoC2': 7.19, 'temp': 0.0, 'lipoC3S3': 11.3, 'state': 'normal', 'rot1': 62, 'rot0': 51, 'rot3': 0, 'rot2': 0, 'depth': -0.598, 'yaw': -142.01, 'datetime': '2018-12-12 14:38:24.880032', 'mgs': 0, 'flw2': 0.0, 'flw1': 0.59, 'flw0': 0.0, 'time': 14.83, 'compass': -1.55, 'pitch': -4.31, 'roll': 0.26}
{'lipoC2': 7.46, 'temp': 0.0, 'lipoC3S3': 11.06, 'state': 'normal', 'rot1': 62, 'rot0': 51, 'rot3': 0, 'rot2': 0, 'depth': -1.514, 'yaw': -141.22, 'datetime': '2018-12-12 14:38:25.089378', 'mgs': 0, 'flw2': 0.0, 'flw1': 0.5, 'flw0': 0.0, 'time': 15.04, 'compass': -0.76, 'pitch': -4.04, 'roll': 0.19}
{'lipoC2': 7.25, 'temp': 0.0, 'lipoC3S3': 11.42, 'state': 'normal', 'rot1': 62, 'rot0': 51, 'rot3': 0, 'rot2': 0, 'depth': -0.598, 'yaw': -140.46, 'datetime': '2018-12-12 14:38:25.299686', 'mgs': 0, 'flw2': 0.0, 'flw1': 0.0, 'flw0': 0.04, 'time': 15.25, 'compass': 0.0, 'pitch': -4.17, 'roll': 0.25}
{'lipoC2': 7.49, 'temp': 0.0, 'lipoC3S3': 11.05, 'state': 'normal', 'rot1': 62, 'rot0': 51, 'rot3': 0, 'rot2': 0, 'depth': -2.658, 'yaw': -139.75, 'datetime': '2018-12-12 14:38:25.507730', 'mgs': 0, 'flw2': 0.0, 'flw1': 0.0, 'flw0': 0.0, 'time': 15.46, 'compass': 0.71, 'pitch': -4.29, 'roll': 0.56}
{'lipoC2': 7.29, 'temp': 0.0, 'lipoC3S3': 10.9, 'state': 'normal', 'rot1': 62, 'rot0': 51, 'rot3': 0, 'rot2': 0, 'depth': 0.699, 'yaw': -139.03, 'datetime': '2018-12-12 14:38:25.716980', 'mgs': 0, 'flw2': 0.0, 'flw1': 0.0, 'flw0': 0.12, 'time': 15.67, 'compass': 1.43, 'pitch': -4.14, 'roll': 0.82}
{'lipoC2': 7.3, 'temp': 0.0, 'lipoC3S3': 11.43, 'state': 'normal', 'rot1': 62, 'rot0': 51, 'rot3': 0, 'rot2': 0, 'depth': -1.971, 'yaw': -138.35, 'datetime': '2018-12-12 14:38:25.925071', 'mgs': 0, 'flw2': 0.0, 'flw1': 0.59, 'flw0': 0.0, 'time': 15.88, 'compass': 2.11, 'pitch': -3.97, 'roll': 1.12}
{'lipoC2': 7.21, 'temp': 0.0, 'lipoC3S3': 11.52, 'state': 'normal', 'rot1': 62, 'rot0': 51, 'rot3': 0, 'rot2': 0, 'depth': -1.208, 'yaw': -137.73, 'datetime': '2018-12-12 14:38:26.135178', 'mgs': 0, 'flw2': 0.29, 'flw1': 0.0, 'flw0': 0.09, 'time': 16.09, 'compass': 2.73, 'pitch': -4.08, 'roll': 1.32}
{'lipoC2': 7.35, 'temp': 0.0, 'lipoC3S3': 11.36, 'state': 'normal', 'rot1': 62, 'rot0': 51, 'rot3': 0, 'rot2': 0, 'depth': -0.98, 'yaw': -137.08, 'datetime': '2018-12-12 14:38:26.345305', 'mgs': 0, 'flw2': 0.16, 'flw1': 0.0, 'flw0': 0.24, 'time': 16.3, 'compass': 3.38, 'pitch': -4.4, 'roll': 1.22}
{'lipoC2': 7.14, 'temp': 0.0, 'lipoC3S3': 11.26, 'state': 'normal', 'rot1': 62, 'rot0': 51, 'rot3': 0, 'rot2': 0, 'depth': -0.98, 'yaw': -136.47, 'datetime': '2018-12-12 14:38:26.554442', 'mgs': 0, 'flw2': 0.26, 'flw1': 0.0, 'flw0': 0.0, 'time': 16.51, 'compass': 3.99, 'pitch': -4.79, 'roll': 0.94}
{'lipoC2': 7.3, 'temp': 0.0, 'lipoC3S3': 11.22, 'state': 'normal', 'rot1': 62, 'rot0': 51, 'rot3': 0, 'rot2': 0, 'depth': -0.522, 'yaw': -135.88, 'datetime': '2018-12-12 14:38:26.763632', 'mgs': 0, 'flw2': 0.0, 'flw1': 0.0, 'flw0': 0.12, 'time': 16.72, 'compass': 4.58, 'pitch': -5.21, 'roll': 0.73}
{'lipoC2': 7.4, 'temp': 0.0, 'lipoC3S3': 11.32, 'state': 'normal', 'rot1': 62, 'rot0': 52, 'rot3': 0, 'rot2': 0, 'depth': 0.928, 'yaw': -135.31, 'datetime': '2018-12-12 14:38:26.971594', 'mgs': 0, 'flw2': 0.38, 'flw1': 0.53, 'flw0': 0.43, 'time': 16.92, 'compass': 5.15, 'pitch': -5.44, 'roll': 0.88}
{'lipoC2': 7.21, 'temp': 0.0, 'lipoC3S3': 11.27, 'state': 'normal', 'rot1': 63, 'rot0': 52, 'rot3': 0, 'rot2': 0, 'depth': 2.225, 'yaw': -135.26, 'datetime': '2018-12-12 14:38:27.181123', 'mgs': 0, 'flw2': 0.01, 'flw1': 0.0, 'flw0': 0.34, 'time': 17.13, 'compass': 5.2, 'pitch': -4.71, 'roll': 0.96}
{'lipoC2': 7.25, 'temp': 0.0, 'lipoC3S3': 10.92, 'state': 'normal', 'rot1': 64, 'rot0': 53, 'rot3': 0, 'rot2': 0, 'depth': 1.614, 'yaw': -136.04, 'datetime': '2018-12-12 14:38:27.389871', 'mgs': 0, 'flw2': 0.28, 'flw1': 0.21, 'flw0': 0.27, 'time': 17.34, 'compass': 4.42, 'pitch': -3.43, 'roll': 0.97}
{'lipoC2': 7.25, 'temp': 0.0, 'lipoC3S3': 11.25, 'state': 'normal', 'rot1': 65, 'rot0': 53, 'rot3': 0, 'rot2': 0, 'depth': -0.98, 'yaw': -137.22, 'datetime': '2018-12-12 14:38:27.599715', 'mgs': 0, 'flw2': 0.11, 'flw1': 0.0, 'flw0': 0.0, 'time': 17.55, 'compass': 3.24, 'pitch': -3.58, 'roll': 1.28}
{'lipoC2': 7.38, 'temp': 0.0, 'lipoC3S3': 11.36, 'state': 'normal', 'rot1': 65, 'rot0': 53, 'rot3': 0, 'rot2': 0, 'depth': 1.843, 'yaw': -138.3, 'datetime': '2018-12-12 14:38:27.807934', 'mgs': 0, 'flw2': 0.0, 'flw1': 0.41, 'flw0': 0.0, 'time': 17.76, 'compass': 2.16, 'pitch': -4.95, 'roll': 1.61}
{'lipoC2': 7.35, 'temp': 0.0, 'lipoC3S3': 11.22, 'state': 'normal', 'rot1': 65, 'rot0': 53, 'rot3': 0, 'rot2': 0, 'depth': -0.369, 'yaw': -139.24, 'datetime': '2018-12-12 14:38:28.023302', 'mgs': 0, 'flw2': 0.15, 'flw1': 0.0, 'flw0': 0.22, 'time': 17.97, 'compass': 1.22, 'pitch': -5.58, 'roll': 1.5}
{'lipoC2': 7.23, 'temp': 0.0, 'lipoC3S3': 11.0, 'state': 'normal', 'rot1': 65, 'rot0': 53, 'rot3': 0, 'rot2': 0, 'depth': 1.233, 'yaw': -140.11, 'datetime': '2018-12-12 14:38:28.228566', 'mgs': 0, 'flw2': 0.33, 'flw1': 0.0, 'flw0': 0.0, 'time': 18.18, 'compass': 0.35, 'pitch': -4.89, 'roll': 1.07}
{'lipoC2': 7.28, 'temp': 0.0, 'lipoC3S3': 11.5, 'state': 'normal', 'rot1': 65, 'rot0': 53, 'rot3': 0, 'rot2': 0, 'depth': -0.751, 'yaw': -140.92, 'datetime': '2018-12-12 14:38:28.436632', 'mgs': 0, 'flw2': 0.29, 'flw1': 0.0, 'flw0': 0.0, 'time': 18.39, 'compass': -0.46, 'pitch': -4.34, 'roll': 0.94}
