{'lipoC3S3': 0.0, 'datetime': '2019-02-27 10:36:41.346281', 'pitch': -1.63, 'rot1': 0, 'rot0': 0, 'rot3': 0, 'rot2': 0, 'state': 'normal', 'flw3': 0, 'flw2': 0, 'flw1': 0, 'flw0': 0, 'roll': -0.36, 'cur2': 0.0, 'cur0': 0.0, 'cur1': 0.0, 'mgs': 0, 'compass': -175.1, 'lipoC2': 0.0, 'temp': 25.46, 'thr3': 32.0, 'depth': 0.149, 'time': 1.39, 'thr2': 31.0, 'yaw': -0.06, 'thr0': 27.0, 'thr1': 27.0}
{'lipoC3S3': 0.0, 'datetime': '2019-02-27 10:36:41.666852', 'pitch': -1.71, 'rot1': 0, 'rot0': 0, 'rot3': 0, 'rot2': 0, 'state': 'normal', 'flw3': 0, 'flw2': 0, 'flw1': 0, 'flw0': 0, 'roll': -0.38, 'cur2': 0.0, 'cur0': 0.0, 'cur1': 0.0, 'mgs': 0, 'compass': -175.99, 'lipoC2': 0.0, 'temp': 25.4, 'thr3': 32.0, 'depth': 0.149, 'time': 1.71, 'thr2': 31.0, 'yaw': -0.94, 'thr0': 26.0, 'thr1': 27.0}
{'lipoC3S3': 0.0, 'datetime': '2019-02-27 10:36:41.986316', 'pitch': -1.65, 'rot1': 0, 'rot0': 0, 'rot3': 0, 'rot2': 0, 'state': 'normal', 'flw3': 0, 'flw2': 0, 'flw1': 0, 'flw0': 0, 'roll': -0.39, 'cur2': 0.0, 'cur0': 0.0, 'cur1': 0.0, 'mgs': 0, 'compass': -175.64, 'lipoC2': 0.0, 'temp': 25.41, 'thr3': 32.0, 'depth': 0.149, 'time': 2.03, 'thr2': 31.0, 'yaw': -0.59, 'thr0': 26.0, 'thr1': 27.0}
{'lipoC3S3': 0.0, 'datetime': '2019-02-27 10:36:42.306201', 'pitch': -1.64, 'rot1': 0, 'rot0': 0, 'rot3': 0, 'rot2': 0, 'state': 'normal', 'flw3': 0, 'flw2': 0, 'flw1': 0, 'flw0': 0, 'roll': -0.39, 'cur2': 0.0, 'cur0': 0.0, 'cur1': 0.0, 'mgs': 0, 'compass': -175.64, 'lipoC2': 0.0, 'temp': 25.41, 'thr3': 32.0, 'depth': 0.149, 'time': 2.36, 'thr2': 31.0, 'yaw': -0.59, 'thr0': 27.0, 'thr1': 27.0}
{'lipoC3S3': 0.0, 'datetime': '2019-02-27 10:36:42.626496', 'pitch': -1.64, 'rot1': 0, 'rot0': 0, 'rot3': 0, 'rot2': 0, 'state': 'normal', 'flw3': 0, 'flw2': 0, 'flw1': 0, 'flw0': 0, 'roll': -0.39, 'cur2': 0.0, 'cur0': 0.0, 'cur1': 0.0, 'mgs': 0, 'compass': -175.64, 'lipoC2': 0.0, 'temp': 25.42, 'thr3': 32.0, 'depth': 0.149, 'time': 2.68, 'thr2': 31.0, 'yaw': -0.59, 'thr0': 27.0, 'thr1': 27.0}
{'lipoC3S3': 0.0, 'datetime': '2019-02-27 10:36:42.955612', 'pitch': -1.65, 'rot1': 0, 'rot0': 0, 'rot3': 0, 'rot2': 0, 'state': 'normal', 'flw3': 0, 'flw2': 0, 'flw1': 0, 'flw0': 0, 'roll': -0.38, 'cur2': 0.0, 'cur0': 0.0, 'cur1': 0.0, 'mgs': 0, 'compass': -175.48, 'lipoC2': 0.0, 'temp': 25.42, 'thr3': 32.0, 'depth': 0.139, 'time': 3.0, 'thr2': 31.0, 'yaw': -0.43, 'thr0': 27.0, 'thr1': 27.0}
{'lipoC3S3': 0.0, 'datetime': '2019-02-27 10:36:43.281175', 'pitch': -1.65, 'rot1': 0, 'rot0': 0, 'rot3': 0, 'rot2': 0, 'state': 'normal', 'flw3': 0, 'flw2': 0, 'flw1': 0, 'flw0': 0, 'roll': -0.41, 'cur2': 0.0, 'cur0': 0.0, 'cur1': 0.0, 'mgs': 0, 'compass': -175.1, 'lipoC2': 0.0, 'temp': 25.42, 'thr3': 32.0, 'depth': 0.149, 'time': 3.32, 'thr2': 31.0, 'yaw': -0.06, 'thr0': 27.0, 'thr1': 27.0}
{'lipoC3S3': 0.0, 'datetime': '2019-02-27 10:36:43.601968', 'pitch': -1.56, 'rot1': 0, 'rot0': 0, 'rot3': 0, 'rot2': 0, 'state': 'normal', 'flw3': 0, 'flw2': 0, 'flw1': 0, 'flw0': 0, 'roll': -0.53, 'cur2': 0.0, 'cur0': 0.0, 'cur1': 0.0, 'mgs': 0, 'compass': -176.97, 'lipoC2': 0.0, 'temp': 25.42, 'thr3': 32.0, 'depth': 0.149, 'time': 3.64, 'thr2': 31.0, 'yaw': -1.92, 'thr0': 26.0, 'thr1': 27.0}
{'lipoC3S3': 0.0, 'datetime': '2019-02-27 10:36:43.923592', 'pitch': -1.59, 'rot1': 0, 'rot0': 0, 'rot3': 0, 'rot2': 0, 'state': 'normal', 'flw3': 0, 'flw2': 0, 'flw1': 0, 'flw0': 0, 'roll': -0.56, 'cur2': 0.0, 'cur0': 0.0, 'cur1': 0.0, 'mgs': 0, 'compass': -178.92, 'lipoC2': 0.0, 'temp': 25.42, 'thr3': 32.0, 'depth': 0.149, 'time': 3.96, 'thr2': 31.0, 'yaw': -3.87, 'thr0': 27.0, 'thr1': 27.0}
{'lipoC3S3': 0.0, 'datetime': '2019-02-27 10:36:44.244538', 'pitch': -1.66, 'rot1': 0, 'rot0': 0, 'rot3': 0, 'rot2': 0, 'state': 'normal', 'flw3': 0, 'flw2': 0, 'flw1': 0, 'flw0': 0, 'roll': -0.59, 'cur2': 0.0, 'cur0': 0.0, 'cur1': 0.0, 'mgs': 0, 'compass': -178.77, 'lipoC2': 0.0, 'temp': 25.42, 'thr3': 32.0, 'depth': 0.149, 'time': 4.28, 'thr2': 31.0, 'yaw': -3.73, 'thr0': 27.0, 'thr1': 27.0}
{'lipoC3S3': 0.0, 'datetime': '2019-02-27 10:36:44.564428', 'pitch': -1.8, 'rot1': 2, 'rot0': 3, 'rot3': 0, 'rot2': 0, 'state': 'normal', 'flw3': 0, 'flw2': 0, 'flw1': 0, 'flw0': 0, 'roll': -0.69, 'cur2': 0.0, 'cur0': 0.0, 'cur1': 0.0, 'mgs': 0, 'compass': -177.82, 'lipoC2': 0.0, 'temp': 25.43, 'thr3': 32.0, 'depth': 0.149, 'time': 4.6, 'thr2': 31.0, 'yaw': -2.77, 'thr0': 27.0, 'thr1': 27.0}
{'lipoC3S3': 0.0, 'datetime': '2019-02-27 10:36:44.886653', 'pitch': -1.8, 'rot1': 2, 'rot0': 3, 'rot3': 0, 'rot2': 0, 'state': 'normal', 'flw3': 0, 'flw2': 0, 'flw1': 0, 'flw0': 0, 'roll': -0.61, 'cur2': 0.0, 'cur0': 0.0, 'cur1': 0.0, 'mgs': 0, 'compass': -177.45, 'lipoC2': 0.0, 'temp': 25.43, 'thr3': 32.0, 'depth': 0.149, 'time': 4.92, 'thr2': 31.0, 'yaw': -2.4, 'thr0': 27.0, 'thr1': 27.0}
{'lipoC3S3': 0.0, 'datetime': '2019-02-27 10:36:45.205312', 'pitch': -1.76, 'rot1': 2, 'rot0': 3, 'rot3': 0, 'rot2': 0, 'state': 'normal', 'flw3': 0, 'flw2': 0, 'flw1': 0, 'flw0': 0, 'roll': -0.61, 'cur2': 0.0, 'cur0': 0.0, 'cur1': 0.0, 'mgs': 0, 'compass': -178.03, 'lipoC2': 0.0, 'temp': 25.43, 'thr3': 32.0, 'depth': 0.149, 'time': 5.24, 'thr2': 31.0, 'yaw': -2.98, 'thr0': 27.0, 'thr1': 27.0}
{'lipoC3S3': 0.0, 'datetime': '2019-02-27 10:36:45.528751', 'pitch': -1.6, 'rot1': 3, 'rot0': 10, 'rot3': 0, 'rot2': 0, 'state': 'normal', 'flw3': 0, 'flw2': 0, 'flw1': 0, 'flw0': 0, 'roll': -0.73, 'cur2': 0.0, 'cur0': 0.0, 'cur1': 0.0, 'mgs': 0, 'compass': -179.81, 'lipoC2': 0.0, 'temp': 25.43, 'thr3': 32.0, 'depth': 0.149, 'time': 5.56, 'thr2': 31.0, 'yaw': -4.77, 'thr0': 26.0, 'thr1': 27.0}
{'lipoC3S3': 0.0, 'datetime': '2019-02-27 10:36:45.850918', 'pitch': -1.54, 'rot1': 3, 'rot0': 10, 'rot3': 0, 'rot2': 0, 'state': 'normal', 'flw3': 0, 'flw2': 0, 'flw1': 0, 'flw0': 0, 'roll': -0.79, 'cur2': 0.0, 'cur0': 0.0, 'cur1': 0.0, 'mgs': 0, 'compass': 178.81, 'lipoC2': 0.0, 'temp': 25.43, 'thr3': 32.0, 'depth': 0.139, 'time': 5.88, 'thr2': 31.0, 'yaw': -6.14, 'thr0': 26.0, 'thr1': 27.0}
{'lipoC3S3': 0.0, 'datetime': '2019-02-27 10:36:46.171231', 'pitch': -1.56, 'rot1': 3, 'rot0': 10, 'rot3': 0, 'rot2': 0, 'state': 'normal', 'flw3': 0, 'flw2': 0, 'flw1': 0, 'flw0': 0, 'roll': -0.76, 'cur2': 0.0, 'cur0': 0.0, 'cur1': 0.0, 'mgs': 0, 'compass': 178.77, 'lipoC2': 0.0, 'temp': 25.43, 'thr3': 32.0, 'depth': 0.149, 'time': 6.2, 'thr2': 31.0, 'yaw': -6.18, 'thr0': 27.0, 'thr1': 27.0}
{'lipoC3S3': 0.0, 'datetime': '2019-02-27 10:36:46.480620', 'pitch': -1.56, 'rot1': 3, 'rot0': 10, 'rot3': 0, 'rot2': 0, 'state': 'normal', 'flw3': 0, 'flw2': 0, 'flw1': 0, 'flw0': 0, 'roll': -0.8, 'cur2': 0.0, 'cur0': 0.0, 'cur1': 0.0, 'mgs': 0, 'compass': 178.53, 'lipoC2': 0.0, 'temp': 25.43, 'thr3': 32.0, 'depth': 0.149, 'time': 6.52, 'thr2': 31.0, 'yaw': -6.42, 'thr0': 27.0, 'thr1': 27.0}
{'lipoC3S3': 0.0, 'datetime': '2019-02-27 10:36:46.800763', 'pitch': -1.54, 'rot1': 3, 'rot0': 10, 'rot3': 0, 'rot2': 0, 'state': 'normal', 'flw3': 0, 'flw2': 0, 'flw1': 0, 'flw0': 0, 'roll': -0.78, 'cur2': 0.0, 'cur0': 0.0, 'cur1': 0.0, 'mgs': 0, 'compass': 178.46, 'lipoC2': 0.0, 'temp': 25.43, 'thr3': 32.0, 'depth': 0.149, 'time': 6.84, 'thr2': 31.0, 'yaw': -6.49, 'thr0': 27.0, 'thr1': 27.0}
{'lipoC3S3': 0.0, 'datetime': '2019-02-27 10:36:47.123370', 'pitch': -1.54, 'rot1': 3, 'rot0': 10, 'rot3': 0, 'rot2': 0, 'state': 'normal', 'flw3': 0, 'flw2': 0, 'flw1': 0, 'flw0': 0, 'roll': -0.78, 'cur2': 0.0, 'cur0': 0.0, 'cur1': 0.0, 'mgs': 0, 'compass': 178.5, 'lipoC2': 0.0, 'temp': 25.43, 'thr3': 32.0, 'depth': 0.149, 'time': 7.16, 'thr2': 31.0, 'yaw': -6.45, 'thr0': 27.0, 'thr1': 27.0}
{'lipoC3S3': 0.0, 'datetime': '2019-02-27 10:36:47.444427', 'pitch': -1.54, 'rot1': 3, 'rot0': 10, 'rot3': 0, 'rot2': 0, 'state': 'normal', 'flw3': 0, 'flw2': 0, 'flw1': 0, 'flw0': 0, 'roll': -0.78, 'cur2': 0.0, 'cur0': 0.0, 'cur1': 0.0, 'mgs': 0, 'compass': 178.49, 'lipoC2': 0.0, 'temp': 25.43, 'thr3': 32.0, 'depth': 0.149, 'time': 7.49, 'thr2': 31.0, 'yaw': -6.46, 'thr0': 27.0, 'thr1': 27.0}
{'lipoC3S3': 0.0, 'datetime': '2019-02-27 10:36:47.781109', 'pitch': -1.54, 'rot1': 3, 'rot0': 10, 'rot3': 0, 'rot2': 0, 'state': 'normal', 'flw3': 0, 'flw2': 0, 'flw1': 0, 'flw0': 0, 'roll': -0.77, 'cur2': 0.0, 'cur0': 0.0, 'cur1': 0.0, 'mgs': 0, 'compass': 178.56, 'lipoC2': 0.0, 'temp': 25.43, 'thr3': 32.0, 'depth': 0.149, 'time': 7.81, 'thr2': 31.0, 'yaw': -6.39, 'thr0': 26.0, 'thr1': 27.0}
{'lipoC3S3': 0.0, 'datetime': '2019-02-27 10:36:48.090168', 'pitch': -1.54, 'rot1': 3, 'rot0': 10, 'rot3': 0, 'rot2': 0, 'state': 'normal', 'flw3': 0, 'flw2': 0, 'flw1': 0, 'flw0': 0, 'roll': -0.78, 'cur2': 0.0, 'cur0': 0.0, 'cur1': 0.0, 'mgs': 0, 'compass': 178.56, 'lipoC2': 0.0, 'temp': 25.43, 'thr3': 32.0, 'depth': 0.149, 'time': 8.13, 'thr2': 31.0, 'yaw': -6.39, 'thr0': 27.0, 'thr1': 27.0}
{'lipoC3S3': 0.0, 'datetime': '2019-02-27 10:36:48.410478', 'pitch': -1.55, 'rot1': 3, 'rot0': 10, 'rot3': 0, 'rot2': 0, 'state': 'normal', 'flw3': 0, 'flw2': 0, 'flw1': 0, 'flw0': 0, 'roll': -0.8, 'cur2': 0.0, 'cur0': 0.0, 'cur1': 0.0, 'mgs': 0, 'compass': 178.59, 'lipoC2': 0.0, 'temp': 25.43, 'thr3': 32.0, 'depth': 0.149, 'time': 8.45, 'thr2': 31.0, 'yaw': -6.36, 'thr0': 27.0, 'thr1': 27.0}
{'lipoC3S3': 0.0, 'datetime': '2019-02-27 10:36:48.733016', 'pitch': -1.63, 'rot1': 3, 'rot0': 10, 'rot3': 0, 'rot2': 0, 'state': 'normal', 'flw3': 0, 'flw2': 0, 'flw1': 0, 'flw0': 0, 'roll': -0.86, 'cur2': 0.0, 'cur0': 0.0, 'cur1': 0.0, 'mgs': 0, 'compass': 178.24, 'lipoC2': 0.0, 'temp': 25.43, 'thr3': 32.0, 'depth': 0.149, 'time': 8.77, 'thr2': 31.0, 'yaw': -6.71, 'thr0': 27.0, 'thr1': 27.0}
{'lipoC3S3': 0.0, 'datetime': '2019-02-27 10:36:49.053867', 'pitch': -1.57, 'rot1': 3, 'rot0': 10, 'rot3': 0, 'rot2': 0, 'state': 'normal', 'flw3': 0, 'flw2': 0, 'flw1': 0, 'flw0': 0, 'roll': -0.81, 'cur2': 0.0, 'cur0': 0.0, 'cur1': 0.0, 'mgs': 0, 'compass': 178.74, 'lipoC2': 0.0, 'temp': 25.43, 'thr3': 32.0, 'depth': 0.149, 'time': 9.09, 'thr2': 31.0, 'yaw': -6.21, 'thr0': 27.0, 'thr1': 27.0}
{'lipoC3S3': 0.0, 'datetime': '2019-02-27 10:36:49.390060', 'pitch': -1.56, 'rot1': 3, 'rot0': 10, 'rot3': 0, 'rot2': 0, 'state': 'normal', 'flw3': 0, 'flw2': 0, 'flw1': 0, 'flw0': 0, 'roll': -0.83, 'cur2': 0.0, 'cur0': 0.0, 'cur1': 0.0, 'mgs': 0, 'compass': 178.18, 'lipoC2': 0.0, 'temp': 25.43, 'thr3': 32.0, 'depth': 0.149, 'time': 9.41, 'thr2': 31.0, 'yaw': -6.77, 'thr0': 27.0, 'thr1': 27.0}
{'lipoC3S3': 0.0, 'datetime': '2019-02-27 10:36:49.708496', 'pitch': -1.56, 'rot1': 3, 'rot0': 10, 'rot3': 0, 'rot2': 0, 'state': 'normal', 'flw3': 0, 'flw2': 0, 'flw1': 0, 'flw0': 0, 'roll': -0.83, 'cur2': 0.0, 'cur0': 0.0, 'cur1': 0.0, 'mgs': 0, 'compass': 178.26, 'lipoC2': 0.0, 'temp': 25.43, 'thr3': 32.0, 'depth': 0.149, 'time': 9.74, 'thr2': 31.0, 'yaw': -6.7, 'thr0': 27.0, 'thr1': 27.0}
{'lipoC3S3': 0.0, 'datetime': '2019-02-27 10:36:50.019945', 'pitch': -1.61, 'rot1': 3, 'rot0': 10, 'rot3': 0, 'rot2': 0, 'state': 'normal', 'flw3': 0, 'flw2': 0, 'flw1': 0, 'flw0': 0, 'roll': -0.74, 'cur2': 0.0, 'cur0': 0.0, 'cur1': 0.0, 'mgs': 0, 'compass': 178.89, 'lipoC2': 0.0, 'temp': 25.43, 'thr3': 32.0, 'depth': 0.149, 'time': 10.06, 'thr2': 31.0, 'yaw': -6.06, 'thr0': 27.0, 'thr1': 27.0}
{'lipoC3S3': 0.0, 'datetime': '2019-02-27 10:36:50.340022', 'pitch': -1.57, 'rot1': 3, 'rot0': 10, 'rot3': 0, 'rot2': 0, 'state': 'normal', 'flw3': 0, 'flw2': 0, 'flw1': 0, 'flw0': 0, 'roll': -0.74, 'cur2': 0.0, 'cur0': 0.0, 'cur1': 0.0, 'mgs': 0, 'compass': 179.76, 'lipoC2': 0.0, 'temp': 25.44, 'thr3': 32.0, 'depth': 0.149, 'time': 10.38, 'thr2': 31.0, 'yaw': -5.19, 'thr0': 27.0, 'thr1': 27.0}
{'lipoC3S3': 0.0, 'datetime': '2019-02-27 10:36:50.670390', 'pitch': -1.57, 'rot1': 3, 'rot0': 10, 'rot3': 0, 'rot2': 0, 'state': 'normal', 'flw3': 0, 'flw2': 0, 'flw1': 0, 'flw0': 0, 'roll': -0.8, 'cur2': 0.0, 'cur0': 0.0, 'cur1': 0.0, 'mgs': 0, 'compass': 179.77, 'lipoC2': 0.0, 'temp': 25.43, 'thr3': 32.0, 'depth': 0.149, 'time': 10.7, 'thr2': 31.0, 'yaw': -5.19, 'thr0': 26.0, 'thr1': 27.0}
{'lipoC3S3': 0.0, 'datetime': '2019-02-27 10:36:50.995979', 'pitch': -1.52, 'rot1': 3, 'rot0': 10, 'rot3': 0, 'rot2': 0, 'state': 'normal', 'flw3': 0, 'flw2': 0, 'flw1': 0, 'flw0': 0, 'roll': -0.8, 'cur2': 0.0, 'cur0': 0.0, 'cur1': 0.0, 'mgs': 0, 'compass': 179.84, 'lipoC2': 0.0, 'temp': 25.44, 'thr3': 32.0, 'depth': 0.149, 'time': 11.02, 'thr2': 31.0, 'yaw': -5.12, 'thr0': 26.0, 'thr1': 27.0}
{'lipoC3S3': 0.0, 'datetime': '2019-02-27 10:36:51.316787', 'pitch': -1.46, 'rot1': 3, 'rot0': 10, 'rot3': 0, 'rot2': 0, 'state': 'normal', 'flw3': 0, 'flw2': 0, 'flw1': 0, 'flw0': 0, 'roll': -0.73, 'cur2': 0.0, 'cur0': 0.0, 'cur1': 0.0, 'mgs': 0, 'compass': -179.88, 'lipoC2': 0.0, 'temp': 25.44, 'thr3': 32.0, 'depth': 0.149, 'time': 11.34, 'thr2': 31.0, 'yaw': -4.83, 'thr0': 27.0, 'thr1': 27.0}
{'lipoC3S3': 0.0, 'datetime': '2019-02-27 10:36:51.640573', 'pitch': -1.42, 'rot1': 4, 'rot0': 10, 'rot3': 0, 'rot2': 0, 'state': 'normal', 'flw3': 0, 'flw2': 0, 'flw1': 0, 'flw0': 0, 'roll': -0.62, 'cur2': 0.0, 'cur0': 0.0, 'cur1': 0.0, 'mgs': 0, 'compass': -177.84, 'lipoC2': 0.0, 'temp': 25.44, 'thr3': 32.0, 'depth': 0.149, 'time': 11.66, 'thr2': 31.0, 'yaw': -2.8, 'thr0': 27.0, 'thr1': 27.0}
{'lipoC3S3': 0.0, 'datetime': '2019-02-27 10:36:51.962980', 'pitch': -1.4, 'rot1': 5, 'rot0': 10, 'rot3': 0, 'rot2': 0, 'state': 'normal', 'flw3': 0, 'flw2': 0, 'flw1': 0, 'flw0': 0, 'roll': -0.58, 'cur2': 0.0, 'cur0': 0.0, 'cur1': 0.0, 'mgs': 0, 'compass': -177.56, 'lipoC2': 0.0, 'temp': 25.44, 'thr3': 32.0, 'depth': 0.149, 'time': 11.98, 'thr2': 31.0, 'yaw': -2.51, 'thr0': 27.0, 'thr1': 27.0}
{'lipoC3S3': 0.0, 'datetime': '2019-02-27 10:36:52.283256', 'pitch': -1.39, 'rot1': 5, 'rot0': 10, 'rot3': 0, 'rot2': 0, 'state': 'normal', 'flw3': 0, 'flw2': 0, 'flw1': 0, 'flw0': 0, 'roll': -0.6, 'cur2': 0.0, 'cur0': 0.0, 'cur1': 0.0, 'mgs': 0, 'compass': -177.78, 'lipoC2': 0.0, 'temp': 25.43, 'thr3': 32.0, 'depth': 0.149, 'time': 12.31, 'thr2': 31.0, 'yaw': -2.73, 'thr0': 26.0, 'thr1': 27.0}
{'lipoC3S3': 0.0, 'datetime': '2019-02-27 10:36:52.603406', 'pitch': -1.4, 'rot1': 5, 'rot0': 10, 'rot3': 0, 'rot2': 0, 'state': 'normal', 'flw3': 0, 'flw2': 0, 'flw1': 0, 'flw0': 0, 'roll': -0.58, 'cur2': 0.0, 'cur0': 0.0, 'cur1': 0.0, 'mgs': 0, 'compass': -177.94, 'lipoC2': 0.0, 'temp': 25.44, 'thr3': 32.0, 'depth': 0.149, 'time': 12.63, 'thr2': 31.0, 'yaw': -2.89, 'thr0': 26.0, 'thr1': 27.0}
{'lipoC3S3': 0.0, 'datetime': '2019-02-27 10:36:52.925154', 'pitch': -1.31, 'rot1': 5, 'rot0': 10, 'rot3': 0, 'rot2': 0, 'state': 'normal', 'flw3': 0, 'flw2': 0, 'flw1': 0, 'flw0': 0, 'roll': -0.59, 'cur2': 0.0, 'cur0': 0.0, 'cur1': 0.0, 'mgs': 0, 'compass': -179.02, 'lipoC2': 0.0, 'temp': 25.44, 'thr3': 32.0, 'depth': 0.139, 'time': 12.95, 'thr2': 31.0, 'yaw': -3.97, 'thr0': 27.0, 'thr1': 27.0}
{'lipoC3S3': 0.0, 'datetime': '2019-02-27 10:36:53.244066', 'pitch': -1.29, 'rot1': 5, 'rot0': 10, 'rot3': 0, 'rot2': 0, 'state': 'normal', 'flw3': 0, 'flw2': 0, 'flw1': 0, 'flw0': 0, 'roll': -0.66, 'cur2': 0.0, 'cur0': 0.0, 'cur1': 0.0, 'mgs': 0, 'compass': -179.31, 'lipoC2': 0.0, 'temp': 25.43, 'thr3': 32.0, 'depth': 0.149, 'time': 13.27, 'thr2': 31.0, 'yaw': -4.26, 'thr0': 27.0, 'thr1': 27.0}
{'lipoC3S3': 0.0, 'datetime': '2019-02-27 10:36:53.570192', 'pitch': -1.28, 'rot1': 5, 'rot0': 10, 'rot3': 0, 'rot2': 0, 'state': 'normal', 'flw3': 0, 'flw2': 0, 'flw1': 0, 'flw0': 0, 'roll': -0.68, 'cur2': 0.0, 'cur0': 0.0, 'cur1': 0.0, 'mgs': 0, 'compass': -179.95, 'lipoC2': 0.0, 'temp': 25.43, 'thr3': 32.0, 'depth': 0.149, 'time': 13.59, 'thr2': 31.0, 'yaw': -4.9, 'thr0': 27.0, 'thr1': 27.0}
{'lipoC3S3': 0.0, 'datetime': '2019-02-27 10:36:53.888403', 'pitch': -1.23, 'rot1': 6, 'rot0': 10, 'rot3': 0, 'rot2': 0, 'state': 'normal', 'flw3': 0, 'flw2': 0, 'flw1': 0, 'flw0': 0, 'roll': -0.65, 'cur2': 0.0, 'cur0': 0.0, 'cur1': 0.0, 'mgs': 0, 'compass': -179.55, 'lipoC2': 0.0, 'temp': 25.44, 'thr3': 32.0, 'depth': 0.149, 'time': 13.91, 'thr2': 31.0, 'yaw': -4.5, 'thr0': 26.0, 'thr1': 27.0}
{'lipoC3S3': 0.0, 'datetime': '2019-02-27 10:36:54.211803', 'pitch': -1.31, 'rot1': 6, 'rot0': 10, 'rot3': 0, 'rot2': 0, 'state': 'normal', 'flw3': 0, 'flw2': 0, 'flw1': 0, 'flw0': 0, 'roll': -0.7, 'cur2': 0.0, 'cur0': 0.0, 'cur1': 0.0, 'mgs': 0, 'compass': -179.72, 'lipoC2': 0.0, 'temp': 25.44, 'thr3': 32.0, 'depth': 0.149, 'time': 14.23, 'thr2': 31.0, 'yaw': -4.67, 'thr0': 27.0, 'thr1': 27.0}
{'lipoC3S3': 0.0, 'datetime': '2019-02-27 10:36:54.537698', 'pitch': -1.29, 'rot1': 7, 'rot0': 10, 'rot3': 0, 'rot2': 0, 'state': 'normal', 'flw3': 0, 'flw2': 0, 'flw1': 0, 'flw0': 0, 'roll': -0.71, 'cur2': 0.0, 'cur0': 0.0, 'cur1': 0.0, 'mgs': 0, 'compass': -179.92, 'lipoC2': 0.0, 'temp': 25.44, 'thr3': 32.0, 'depth': 0.149, 'time': 14.56, 'thr2': 31.0, 'yaw': -4.87, 'thr0': 26.0, 'thr1': 27.0}
{'lipoC3S3': 0.0, 'datetime': '2019-02-27 10:36:54.859066', 'pitch': -1.31, 'rot1': 7, 'rot0': 10, 'rot3': 0, 'rot2': 0, 'state': 'normal', 'flw3': 0, 'flw2': 0, 'flw1': 0, 'flw0': 0, 'roll': -0.75, 'cur2': 0.0, 'cur0': 0.0, 'cur1': 0.0, 'mgs': 0, 'compass': 179.64, 'lipoC2': 0.0, 'temp': 25.44, 'thr3': 32.0, 'depth': 0.149, 'time': 14.88, 'thr2': 31.0, 'yaw': -5.31, 'thr0': 27.0, 'thr1': 27.0}
{'lipoC3S3': 0.0, 'datetime': '2019-02-27 10:36:55.173708', 'pitch': -1.14, 'rot1': 7, 'rot0': 10, 'rot3': 0, 'rot2': 0, 'state': 'normal', 'flw3': 0, 'flw2': 0, 'flw1': 0, 'flw0': 0, 'roll': -0.72, 'cur2': 0.0, 'cur0': 0.0, 'cur1': 0.0, 'mgs': 0, 'compass': 179.99, 'lipoC2': 0.0, 'temp': 25.44, 'thr3': 32.0, 'depth': 0.139, 'time': 15.2, 'thr2': 31.0, 'yaw': -4.97, 'thr0': 26.0, 'thr1': 27.0}
{'lipoC3S3': 0.0, 'datetime': '2019-02-27 10:36:55.501644', 'pitch': -1.17, 'rot1': 7, 'rot0': 10, 'rot3': 0, 'rot2': 0, 'state': 'normal', 'flw3': 0, 'flw2': 0, 'flw1': 0, 'flw0': 0, 'roll': -0.73, 'cur2': 0.0, 'cur0': 0.0, 'cur1': 0.0, 'mgs': 0, 'compass': 179.56, 'lipoC2': 0.0, 'temp': 25.44, 'thr3': 32.0, 'depth': 0.149, 'time': 15.52, 'thr2': 31.0, 'yaw': -5.39, 'thr0': 27.0, 'thr1': 27.0}
{'lipoC3S3': 0.0, 'datetime': '2019-02-27 10:36:55.823319', 'pitch': -1.15, 'rot1': 8, 'rot0': 10, 'rot3': 0, 'rot2': 0, 'state': 'normal', 'flw3': 0, 'flw2': 0, 'flw1': 0, 'flw0': 0, 'roll': -0.68, 'cur2': 0.0, 'cur0': 0.0, 'cur1': 0.0, 'mgs': 0, 'compass': 179.64, 'lipoC2': 0.0, 'temp': 25.44, 'thr3': 32.0, 'depth': 0.149, 'time': 15.84, 'thr2': 31.0, 'yaw': -5.32, 'thr0': 27.0, 'thr1': 27.0}
{'lipoC3S3': 0.0, 'datetime': '2019-02-27 10:36:56.139885', 'pitch': -1.17, 'rot1': 8, 'rot0': 10, 'rot3': 0, 'rot2': 0, 'state': 'normal', 'flw3': 0, 'flw2': 0, 'flw1': 0, 'flw0': 0, 'roll': -0.7, 'cur2': 0.0, 'cur0': 0.0, 'cur1': 0.0, 'mgs': 0, 'compass': -179.92, 'lipoC2': 0.0, 'temp': 25.44, 'thr3': 32.0, 'depth': 0.149, 'time': 16.16, 'thr2': 31.0, 'yaw': -4.87, 'thr0': 27.0, 'thr1': 27.0}
{'lipoC3S3': 0.0, 'datetime': '2019-02-27 10:36:56.466798', 'pitch': -1.15, 'rot1': 8, 'rot0': 10, 'rot3': 0, 'rot2': 0, 'state': 'normal', 'flw3': 0, 'flw2': 0, 'flw1': 0, 'flw0': 0, 'roll': -0.67, 'cur2': 0.0, 'cur0': 0.0, 'cur1': 0.0, 'mgs': 0, 'compass': 179.79, 'lipoC2': 0.0, 'temp': 25.44, 'thr3': 32.0, 'depth': 0.149, 'time': 16.48, 'thr2': 31.0, 'yaw': -5.16, 'thr0': 27.0, 'thr1': 27.0}
{'lipoC3S3': 0.0, 'datetime': '2019-02-27 10:36:56.787727', 'pitch': -1.17, 'rot1': 9, 'rot0': 10, 'rot3': 0, 'rot2': 0, 'state': 'normal', 'flw3': 0, 'flw2': 0, 'flw1': 0, 'flw0': 0, 'roll': -0.69, 'cur2': 0.0, 'cur0': 0.0, 'cur1': 0.0, 'mgs': 0, 'compass': 179.59, 'lipoC2': 0.0, 'temp': 25.44, 'thr3': 32.0, 'depth': 0.149, 'time': 16.81, 'thr2': 31.0, 'yaw': -5.36, 'thr0': 27.0, 'thr1': 27.0}
{'lipoC3S3': 0.0, 'datetime': '2019-02-27 10:36:57.110882', 'pitch': -1.13, 'rot1': 9, 'rot0': 10, 'rot3': 0, 'rot2': 0, 'state': 'normal', 'flw3': 0, 'flw2': 0, 'flw1': 0, 'flw0': 0, 'roll': -0.72, 'cur2': 0.0, 'cur0': 0.0, 'cur1': 0.0, 'mgs': 0, 'compass': 179.56, 'lipoC2': 0.0, 'temp': 25.44, 'thr3': 32.0, 'depth': 0.149, 'time': 17.13, 'thr2': 31.0, 'yaw': -5.39, 'thr0': 26.0, 'thr1': 27.0}
{'lipoC3S3': 0.0, 'datetime': '2019-02-27 10:36:57.433197', 'pitch': -1.02, 'rot1': 9, 'rot0': 10, 'rot3': 0, 'rot2': 0, 'state': 'normal', 'flw3': 0, 'flw2': 0, 'flw1': 0, 'flw0': 0, 'roll': -0.67, 'cur2': 0.0, 'cur0': 0.0, 'cur1': 0.0, 'mgs': 0, 'compass': 179.08, 'lipoC2': 0.0, 'temp': 25.44, 'thr3': 32.0, 'depth': 0.149, 'time': 17.45, 'thr2': 31.0, 'yaw': -5.88, 'thr0': 27.0, 'thr1': 27.0}
{'lipoC3S3': 0.0, 'datetime': '2019-02-27 10:36:57.749773', 'pitch': -1.16, 'rot1': 9, 'rot0': 10, 'rot3': 0, 'rot2': 0, 'state': 'normal', 'flw3': 0, 'flw2': 0, 'flw1': 0, 'flw0': 0, 'roll': -0.74, 'cur2': 0.0, 'cur0': 0.0, 'cur1': 0.0, 'mgs': 0, 'compass': 179.25, 'lipoC2': 0.0, 'temp': 25.44, 'thr3': 32.0, 'depth': 0.149, 'time': 17.77, 'thr2': 31.0, 'yaw': -5.7, 'thr0': 27.0, 'thr1': 27.0}
{'lipoC3S3': 0.0, 'datetime': '2019-02-27 10:36:58.072155', 'pitch': -1.11, 'rot1': 9, 'rot0': 10, 'rot3': 0, 'rot2': 0, 'state': 'normal', 'flw3': 0, 'flw2': 0, 'flw1': 0, 'flw0': 0, 'roll': -0.74, 'cur2': 0.0, 'cur0': 0.0, 'cur1': 0.0, 'mgs': 0, 'compass': 179.09, 'lipoC2': 0.0, 'temp': 25.44, 'thr3': 32.0, 'depth': 0.149, 'time': 18.09, 'thr2': 31.0, 'yaw': -5.86, 'thr0': 27.0, 'thr1': 27.0}
{'lipoC3S3': 0.0, 'datetime': '2019-02-27 10:36:58.394230', 'pitch': -1.11, 'rot1': 10, 'rot0': 10, 'rot3': 0, 'rot2': 0, 'state': 'normal', 'flw3': 0, 'flw2': 0, 'flw1': 0, 'flw0': 0, 'roll': -0.77, 'cur2': 0.0, 'cur0': 0.0, 'cur1': 0.0, 'mgs': 0, 'compass': 178.87, 'lipoC2': 0.0, 'temp': 25.44, 'thr3': 32.0, 'depth': 0.149, 'time': 18.41, 'thr2': 31.0, 'yaw': -6.08, 'thr0': 26.0, 'thr1': 27.0}
{'lipoC3S3': 0.0, 'datetime': '2019-02-27 10:36:58.716204', 'pitch': -1.14, 'rot1': 10, 'rot0': 10, 'rot3': 0, 'rot2': 0, 'state': 'normal', 'flw3': 0, 'flw2': 0, 'flw1': 0, 'flw0': 0, 'roll': -0.81, 'cur2': 0.0, 'cur0': 0.0, 'cur1': 0.0, 'mgs': 0, 'compass': 177.8, 'lipoC2': 0.0, 'temp': 25.44, 'thr3': 32.0, 'depth': 0.149, 'time': 18.73, 'thr2': 31.0, 'yaw': -7.15, 'thr0': 27.0, 'thr1': 27.0}
{'lipoC3S3': 0.0, 'datetime': '2019-02-27 10:36:59.037261', 'pitch': -1.14, 'rot1': 10, 'rot0': 10, 'rot3': 0, 'rot2': 0, 'state': 'normal', 'flw3': 0, 'flw2': 0, 'flw1': 0, 'flw0': 0, 'roll': -0.81, 'cur2': 0.0, 'cur0': 0.0, 'cur1': 0.0, 'mgs': 0, 'compass': 177.56, 'lipoC2': 0.0, 'temp': 25.44, 'thr3': 32.0, 'depth': 0.149, 'time': 19.06, 'thr2': 31.0, 'yaw': -7.39, 'thr0': 26.0, 'thr1': 27.0}
{'lipoC3S3': 0.0, 'datetime': '2019-02-27 10:36:59.362426', 'pitch': -1.14, 'rot1': 10, 'rot0': 10, 'rot3': 0, 'rot2': 0, 'state': 'normal', 'flw3': 0, 'flw2': 0, 'flw1': 0, 'flw0': 0, 'roll': -0.83, 'cur2': 0.0, 'cur0': 0.0, 'cur1': 0.0, 'mgs': 0, 'compass': 177.68, 'lipoC2': 0.0, 'temp': 25.44, 'thr3': 32.0, 'depth': 0.149, 'time': 19.38, 'thr2': 31.0, 'yaw': -7.27, 'thr0': 27.0, 'thr1': 27.0}
{'lipoC3S3': 0.0, 'datetime': '2019-02-27 10:36:59.683056', 'pitch': -1.14, 'rot1': 10, 'rot0': 10, 'rot3': 0, 'rot2': 0, 'state': 'normal', 'flw3': 0, 'flw2': 0, 'flw1': 0, 'flw0': 0, 'roll': -0.83, 'cur2': 0.0, 'cur0': 0.0, 'cur1': 0.0, 'mgs': 0, 'compass': 177.64, 'lipoC2': 0.0, 'temp': 25.44, 'thr3': 32.0, 'depth': 0.149, 'time': 19.7, 'thr2': 31.0, 'yaw': -7.31, 'thr0': 27.0, 'thr1': 27.0}
{'lipoC3S3': 0.0, 'datetime': '2019-02-27 10:37:00.007723', 'pitch': -1.14, 'rot1': 10, 'rot0': 10, 'rot3': 0, 'rot2': 0, 'state': 'normal', 'flw3': 0, 'flw2': 0, 'flw1': 0, 'flw0': 0, 'roll': -0.81, 'cur2': 0.0, 'cur0': 0.0, 'cur1': 0.0, 'mgs': 0, 'compass': 177.64, 'lipoC2': 0.0, 'temp': 25.44, 'thr3': 32.0, 'depth': 0.149, 'time': 20.02, 'thr2': 31.0, 'yaw': -7.31, 'thr0': 27.0, 'thr1': 27.0}
{'lipoC3S3': 0.0, 'datetime': '2019-02-27 10:37:00.325902', 'pitch': -1.14, 'rot1': 10, 'rot0': 10, 'rot3': 0, 'rot2': 0, 'state': 'normal', 'flw3': 0, 'flw2': 0, 'flw1': 0, 'flw0': 0, 'roll': -0.84, 'cur2': 0.0, 'cur0': 0.0, 'cur1': 0.0, 'mgs': 0, 'compass': 177.69, 'lipoC2': 0.0, 'temp': 25.44, 'thr3': 32.0, 'depth': 0.149, 'time': 20.34, 'thr2': 31.0, 'yaw': -7.26, 'thr0': 27.0, 'thr1': 27.0}
{'lipoC3S3': 0.0, 'datetime': '2019-02-27 10:37:00.651483', 'pitch': -1.14, 'rot1': 10, 'rot0': 10, 'rot3': 0, 'rot2': 0, 'state': 'normal', 'flw3': 0, 'flw2': 0, 'flw1': 0, 'flw0': 0, 'roll': -0.84, 'cur2': 0.0, 'cur0': 0.0, 'cur1': 0.0, 'mgs': 0, 'compass': 177.69, 'lipoC2': 0.0, 'temp': 25.44, 'thr3': 32.0, 'depth': 0.149, 'time': 20.66, 'thr2': 31.0, 'yaw': -7.26, 'thr0': 27.0, 'thr1': 27.0}
{'lipoC3S3': 0.0, 'datetime': '2019-02-27 10:37:00.970122', 'pitch': -1.14, 'rot1': 10, 'rot0': 10, 'rot3': 0, 'rot2': 0, 'state': 'normal', 'flw3': 0, 'flw2': 0, 'flw1': 0, 'flw0': 0, 'roll': -0.84, 'cur2': 0.0, 'cur0': 0.0, 'cur1': 0.0, 'mgs': 0, 'compass': 177.65, 'lipoC2': 0.0, 'temp': 25.44, 'thr3': 32.0, 'depth': 0.149, 'time': 20.98, 'thr2': 31.0, 'yaw': -7.3, 'thr0': 26.0, 'thr1': 27.0}
{'lipoC3S3': 0.0, 'datetime': '2019-02-27 10:37:01.283968', 'pitch': -1.14, 'rot1': 10, 'rot0': 10, 'rot3': 0, 'rot2': 0, 'state': 'normal', 'flw3': 0, 'flw2': 0, 'flw1': 0, 'flw0': 0, 'roll': -0.84, 'cur2': 0.0, 'cur0': 0.0, 'cur1': 0.0, 'mgs': 0, 'compass': 177.65, 'lipoC2': 0.0, 'temp': 25.44, 'thr3': 32.0, 'depth': 0.149, 'time': 21.31, 'thr2': 31.0, 'yaw': -7.3, 'thr0': 27.0, 'thr1': 27.0}
{'lipoC3S3': 0.0, 'datetime': '2019-02-27 10:37:01.606384', 'pitch': -1.14, 'rot1': 10, 'rot0': 10, 'rot3': 0, 'rot2': 0, 'state': 'normal', 'flw3': 0, 'flw2': 0, 'flw1': 0, 'flw0': 0, 'roll': -0.84, 'cur2': 0.0, 'cur0': 0.0, 'cur1': 0.0, 'mgs': 0, 'compass': 177.64, 'lipoC2': 0.0, 'temp': 25.44, 'thr3': 32.0, 'depth': 0.149, 'time': 21.63, 'thr2': 31.0, 'yaw': -7.31, 'thr0': 27.0, 'thr1': 27.0}
{'lipoC3S3': 0.0, 'datetime': '2019-02-27 10:37:01.930096', 'pitch': -1.1, 'rot1': 10, 'rot0': 10, 'rot3': 0, 'rot2': 0, 'state': 'normal', 'flw3': 0, 'flw2': 0, 'flw1': 0, 'flw0': 0, 'roll': -0.85, 'cur2': 0.0, 'cur0': 0.0, 'cur1': 0.0, 'mgs': 0, 'compass': 177.6, 'lipoC2': 0.0, 'temp': 25.44, 'thr3': 32.0, 'depth': 0.149, 'time': 21.95, 'thr2': 31.0, 'yaw': -7.35, 'thr0': 27.0, 'thr1': 27.0}
{'lipoC3S3': 0.0, 'datetime': '2019-02-27 10:37:02.256799', 'pitch': -1.1, 'rot1': 10, 'rot0': 10, 'rot3': 0, 'rot2': 0, 'state': 'normal', 'flw3': 0, 'flw2': 0, 'flw1': 0, 'flw0': 0, 'roll': -0.85, 'cur2': 0.0, 'cur0': 0.0, 'cur1': 0.0, 'mgs': 0, 'compass': 177.6, 'lipoC2': 0.0, 'temp': 25.44, 'thr3': 32.0, 'depth': 0.149, 'time': 22.27, 'thr2': 31.0, 'yaw': -7.35, 'thr0': 27.0, 'thr1': 27.0}
{'lipoC3S3': 0.0, 'datetime': '2019-02-27 10:37:02.577578', 'pitch': -1.1, 'rot1': 10, 'rot0': 10, 'rot3': 0, 'rot2': 0, 'state': 'normal', 'flw3': 0, 'flw2': 0, 'flw1': 0, 'flw0': 0, 'roll': -0.84, 'cur2': 0.0, 'cur0': 0.0, 'cur1': 0.0, 'mgs': 0, 'compass': 177.88, 'lipoC2': 0.0, 'temp': 25.44, 'thr3': 32.0, 'depth': 0.149, 'time': 22.59, 'thr2': 31.0, 'yaw': -7.07, 'thr0': 26.0, 'thr1': 27.0}
{'lipoC3S3': 0.0, 'datetime': '2019-02-27 10:37:02.896300', 'pitch': -1.11, 'rot1': 10, 'rot0': 10, 'rot3': 0, 'rot2': 0, 'state': 'normal', 'flw3': 0, 'flw2': 0, 'flw1': 0, 'flw0': 0, 'roll': -0.85, 'cur2': 0.0, 'cur0': 0.0, 'cur1': 0.0, 'mgs': 0, 'compass': 178.14, 'lipoC2': 0.0, 'temp': 25.44, 'thr3': 32.0, 'depth': 0.149, 'time': 22.91, 'thr2': 31.0, 'yaw': -6.81, 'thr0': 27.0, 'thr1': 27.0}
{'lipoC3S3': 0.0, 'datetime': '2019-02-27 10:37:03.223172', 'pitch': -1.11, 'rot1': 10, 'rot0': 10, 'rot3': 0, 'rot2': 0, 'state': 'normal', 'flw3': 0, 'flw2': 0, 'flw1': 0, 'flw0': 0, 'roll': -0.86, 'cur2': 0.0, 'cur0': 0.0, 'cur1': 0.0, 'mgs': 0, 'compass': 178.14, 'lipoC2': 0.0, 'temp': 25.44, 'thr3': 32.0, 'depth': 0.149, 'time': 23.23, 'thr2': 31.0, 'yaw': -6.81, 'thr0': 27.0, 'thr1': 27.0}
{'lipoC3S3': 0.0, 'datetime': '2019-02-27 10:37:03.538498', 'pitch': -1.11, 'rot1': 10, 'rot0': 10, 'rot3': 0, 'rot2': 0, 'state': 'normal', 'flw3': 0, 'flw2': 0, 'flw1': 0, 'flw0': 0, 'roll': -0.86, 'cur2': 0.0, 'cur0': 0.0, 'cur1': 0.0, 'mgs': 0, 'compass': 178.18, 'lipoC2': 0.0, 'temp': 25.44, 'thr3': 32.0, 'depth': 0.149, 'time': 23.56, 'thr2': 31.0, 'yaw': -6.78, 'thr0': 27.0, 'thr1': 27.0}
{'lipoC3S3': 0.0, 'datetime': '2019-02-27 10:37:03.861525', 'pitch': -1.1, 'rot1': 10, 'rot0': 10, 'rot3': 0, 'rot2': 0, 'state': 'normal', 'flw3': 0, 'flw2': 0, 'flw1': 0, 'flw0': 0, 'roll': -0.87, 'cur2': 0.0, 'cur0': 0.0, 'cur1': 0.0, 'mgs': 0, 'compass': 178.18, 'lipoC2': 0.0, 'temp': 25.44, 'thr3': 32.0, 'depth': 0.159, 'time': 23.88, 'thr2': 31.0, 'yaw': -6.78, 'thr0': 26.0, 'thr1': 27.0}
{'lipoC3S3': 0.0, 'datetime': '2019-02-27 10:37:04.183907', 'pitch': -1.1, 'rot1': 10, 'rot0': 10, 'rot3': 0, 'rot2': 0, 'state': 'normal', 'flw3': 0, 'flw2': 0, 'flw1': 0, 'flw0': 0, 'roll': -0.87, 'cur2': 0.0, 'cur0': 0.0, 'cur1': 0.0, 'mgs': 0, 'compass': 178.18, 'lipoC2': 0.0, 'temp': 25.44, 'thr3': 32.0, 'depth': 0.149, 'time': 24.2, 'thr2': 31.0, 'yaw': -6.78, 'thr0': 26.0, 'thr1': 27.0}
{'lipoC3S3': 0.0, 'datetime': '2019-02-27 10:37:04.504754', 'pitch': -1.1, 'rot1': 10, 'rot0': 10, 'rot3': 0, 'rot2': 0, 'state': 'normal', 'flw3': 0, 'flw2': 0, 'flw1': 0, 'flw0': 0, 'roll': -0.88, 'cur2': 0.0, 'cur0': 0.0, 'cur1': 0.0, 'mgs': 0, 'compass': 178.15, 'lipoC2': 0.0, 'temp': 25.44, 'thr3': 32.0, 'depth': 0.149, 'time': 24.52, 'thr2': 31.0, 'yaw': -6.8, 'thr0': 27.0, 'thr1': 27.0}
{'lipoC3S3': 0.0, 'datetime': '2019-02-27 10:37:04.827004', 'pitch': -1.09, 'rot1': 10, 'rot0': 10, 'rot3': 0, 'rot2': 0, 'state': 'normal', 'flw3': 0, 'flw2': 0, 'flw1': 0, 'flw0': 0, 'roll': -0.86, 'cur2': 0.0, 'cur0': 0.0, 'cur1': 0.0, 'mgs': 0, 'compass': 178.15, 'lipoC2': 0.0, 'temp': 25.44, 'thr3': 32.0, 'depth': 0.149, 'time': 24.84, 'thr2': 31.0, 'yaw': -6.8, 'thr0': 26.0, 'thr1': 27.0}
{'lipoC3S3': 0.0, 'datetime': '2019-02-27 10:37:05.150828', 'pitch': -1.1, 'rot1': 10, 'rot0': 10, 'rot3': 0, 'rot2': 0, 'state': 'normal', 'flw3': 0, 'flw2': 0, 'flw1': 0, 'flw0': 0, 'roll': -0.87, 'cur2': 0.0, 'cur0': 0.0, 'cur1': 0.0, 'mgs': 0, 'compass': 178.15, 'lipoC2': 0.0, 'temp': 25.45, 'thr3': 32.0, 'depth': 0.149, 'time': 25.16, 'thr2': 31.0, 'yaw': -6.8, 'thr0': 27.0, 'thr1': 27.0}
{'lipoC3S3': 0.0, 'datetime': '2019-02-27 10:37:05.470109', 'pitch': -1.1, 'rot1': 10, 'rot0': 10, 'rot3': 0, 'rot2': 0, 'state': 'normal', 'flw3': 0, 'flw2': 0, 'flw1': 0, 'flw0': 0, 'roll': -0.9, 'cur2': 0.0, 'cur0': 0.0, 'cur1': 0.0, 'mgs': 0, 'compass': 178.13, 'lipoC2': 0.0, 'temp': 25.45, 'thr3': 32.0, 'depth': 0.149, 'time': 25.48, 'thr2': 31.0, 'yaw': -6.82, 'thr0': 27.0, 'thr1': 27.0}
{'lipoC3S3': 0.0, 'datetime': '2019-02-27 10:37:05.793470', 'pitch': -1.06, 'rot1': 10, 'rot0': 10, 'rot3': 0, 'rot2': 0, 'state': 'normal', 'flw3': 0, 'flw2': 0, 'flw1': 0, 'flw0': 0, 'roll': -0.87, 'cur2': 0.0, 'cur0': 0.0, 'cur1': 0.0, 'mgs': 0, 'compass': 178.1, 'lipoC2': 0.0, 'temp': 25.44, 'thr3': 32.0, 'depth': 0.149, 'time': 25.8, 'thr2': 31.0, 'yaw': -6.85, 'thr0': 27.0, 'thr1': 27.0}
{'lipoC3S3': 0.0, 'datetime': '2019-02-27 10:37:06.113975', 'pitch': -1.06, 'rot1': 10, 'rot0': 10, 'rot3': 0, 'rot2': 0, 'state': 'normal', 'flw3': 0, 'flw2': 0, 'flw1': 0, 'flw0': 0, 'roll': -0.89, 'cur2': 0.0, 'cur0': 0.0, 'cur1': 0.0, 'mgs': 0, 'compass': 178.11, 'lipoC2': 0.0, 'temp': 25.44, 'thr3': 32.0, 'depth': 0.149, 'time': 26.13, 'thr2': 31.0, 'yaw': -6.85, 'thr0': 27.0, 'thr1': 27.0}
{'lipoC3S3': 0.0, 'datetime': '2019-02-27 10:37:06.439785', 'pitch': -1.06, 'rot1': 10, 'rot0': 10, 'rot3': 0, 'rot2': 0, 'state': 'normal', 'flw3': 0, 'flw2': 0, 'flw1': 0, 'flw0': 0, 'roll': -0.9, 'cur2': 0.0, 'cur0': 0.0, 'cur1': 0.0, 'mgs': 0, 'compass': 178.09, 'lipoC2': 0.0, 'temp': 25.45, 'thr3': 32.0, 'depth': 0.149, 'time': 26.44, 'thr2': 31.0, 'yaw': -6.86, 'thr0': 27.0, 'thr1': 27.0}
{'lipoC3S3': 0.0, 'datetime': '2019-02-27 10:37:06.763121', 'pitch': -1.02, 'rot1': 10, 'rot0': 10, 'rot3': 0, 'rot2': 0, 'state': 'normal', 'flw3': 0, 'flw2': 0, 'flw1': 0, 'flw0': 0, 'roll': -0.94, 'cur2': 0.0, 'cur0': 0.0, 'cur1': 0.0, 'mgs': 0, 'compass': 177.99, 'lipoC2': 0.0, 'temp': 25.45, 'thr3': 32.0, 'depth': 0.149, 'time': 26.77, 'thr2': 31.0, 'yaw': -6.97, 'thr0': 27.0, 'thr1': 27.0}
{'lipoC3S3': 0.0, 'datetime': '2019-02-27 10:37:07.081577', 'pitch': -1.02, 'rot1': 10, 'rot0': 10, 'rot3': 0, 'rot2': 0, 'state': 'normal', 'flw3': 0, 'flw2': 0, 'flw1': 0, 'flw0': 0, 'roll': -0.94, 'cur2': 0.0, 'cur0': 0.0, 'cur1': 0.0, 'mgs': 0, 'compass': 177.99, 'lipoC2': 0.0, 'temp': 25.45, 'thr3': 32.0, 'depth': 0.149, 'time': 27.09, 'thr2': 31.0, 'yaw': -6.97, 'thr0': 26.0, 'thr1': 27.0}
{'lipoC3S3': 0.0, 'datetime': '2019-02-27 10:37:07.400225', 'pitch': -1.0, 'rot1': 10, 'rot0': 10, 'rot3': 0, 'rot2': 0, 'state': 'normal', 'flw3': 0, 'flw2': 0, 'flw1': 0, 'flw0': 0, 'roll': -0.95, 'cur2': 0.0, 'cur0': 0.0, 'cur1': 0.0, 'mgs': 0, 'compass': 177.99, 'lipoC2': 0.0, 'temp': 25.45, 'thr3': 32.0, 'depth': 0.149, 'time': 27.41, 'thr2': 31.0, 'yaw': -6.97, 'thr0': 27.0, 'thr1': 27.0}
{'lipoC3S3': 0.0, 'datetime': '2019-02-27 10:37:07.723825', 'pitch': -1.0, 'rot1': 10, 'rot0': 10, 'rot3': 0, 'rot2': 0, 'state': 'normal', 'flw3': 0, 'flw2': 0, 'flw1': 0, 'flw0': 0, 'roll': -0.96, 'cur2': 0.0, 'cur0': 0.0, 'cur1': 0.0, 'mgs': 0, 'compass': 177.95, 'lipoC2': 0.0, 'temp': 25.45, 'thr3': 32.0, 'depth': 0.149, 'time': 27.73, 'thr2': 31.0, 'yaw': -7.0, 'thr0': 27.0, 'thr1': 27.0}
{'lipoC3S3': 0.0, 'datetime': '2019-02-27 10:37:08.044032', 'pitch': -0.99, 'rot1': 10, 'rot0': 10, 'rot3': 0, 'rot2': 0, 'state': 'normal', 'flw3': 0, 'flw2': 0, 'flw1': 0, 'flw0': 0, 'roll': -0.96, 'cur2': 0.0, 'cur0': 0.0, 'cur1': 0.0, 'mgs': 0, 'compass': 177.8, 'lipoC2': 0.0, 'temp': 25.45, 'thr3': 32.0, 'depth': 0.149, 'time': 28.05, 'thr2': 31.0, 'yaw': -7.15, 'thr0': 26.0, 'thr1': 27.0}
{'lipoC3S3': 0.0, 'datetime': '2019-02-27 10:37:08.369369', 'pitch': -0.99, 'rot1': 10, 'rot0': 10, 'rot3': 0, 'rot2': 0, 'state': 'normal', 'flw3': 0, 'flw2': 0, 'flw1': 0, 'flw0': 0, 'roll': -0.96, 'cur2': 0.0, 'cur0': 0.0, 'cur1': 0.0, 'mgs': 0, 'compass': 177.81, 'lipoC2': 0.0, 'temp': 25.45, 'thr3': 32.0, 'depth': 0.149, 'time': 28.38, 'thr2': 31.0, 'yaw': -7.14, 'thr0': 27.0, 'thr1': 27.0}
{'lipoC3S3': 0.0, 'datetime': '2019-02-27 10:37:08.688380', 'pitch': -1.0, 'rot1': 10, 'rot0': 10, 'rot3': 0, 'rot2': 0, 'state': 'normal', 'flw3': 0, 'flw2': 0, 'flw1': 0, 'flw0': 0, 'roll': -0.96, 'cur2': 0.0, 'cur0': 0.0, 'cur1': 0.0, 'mgs': 0, 'compass': 177.83, 'lipoC2': 0.0, 'temp': 25.45, 'thr3': 32.0, 'depth': 0.149, 'time': 28.69, 'thr2': 31.0, 'yaw': -7.12, 'thr0': 27.0, 'thr1': 27.0}
{'lipoC3S3': 0.0, 'datetime': '2019-02-27 10:37:09.013572', 'pitch': -1.0, 'rot1': 10, 'rot0': 10, 'rot3': 0, 'rot2': 0, 'state': 'normal', 'flw3': 0, 'flw2': 0, 'flw1': 0, 'flw0': 0, 'roll': -0.96, 'cur2': 0.0, 'cur0': 0.0, 'cur1': 0.0, 'mgs': 0, 'compass': 177.8, 'lipoC2': 0.0, 'temp': 25.45, 'thr3': 32.0, 'depth': 0.149, 'time': 29.02, 'thr2': 31.0, 'yaw': -7.15, 'thr0': 26.0, 'thr1': 27.0}
{'lipoC3S3': 0.0, 'datetime': '2019-02-27 10:37:09.332205', 'pitch': -1.0, 'rot1': 10, 'rot0': 10, 'rot3': 0, 'rot2': 0, 'state': 'normal', 'flw3': 0, 'flw2': 0, 'flw1': 0, 'flw0': 0, 'roll': -0.96, 'cur2': 0.0, 'cur0': 0.0, 'cur1': 0.0, 'mgs': 0, 'compass': 177.8, 'lipoC2': 0.0, 'temp': 25.45, 'thr3': 32.0, 'depth': 0.149, 'time': 29.34, 'thr2': 31.0, 'yaw': -7.15, 'thr0': 27.0, 'thr1': 27.0}
{'lipoC3S3': 0.0, 'datetime': '2019-02-27 10:37:09.658570', 'pitch': -0.98, 'rot1': 10, 'rot0': 10, 'rot3': 0, 'rot2': 0, 'state': 'normal', 'flw3': 0, 'flw2': 0, 'flw1': 0, 'flw0': 0, 'roll': -0.96, 'cur2': 0.0, 'cur0': 0.0, 'cur1': 0.0, 'mgs': 0, 'compass': 177.76, 'lipoC2': 0.0, 'temp': 25.45, 'thr3': 32.0, 'depth': 0.149, 'time': 29.66, 'thr2': 31.0, 'yaw': -7.19, 'thr0': 26.0, 'thr1': 27.0}
{'lipoC3S3': 0.0, 'datetime': '2019-02-27 10:37:09.982827', 'pitch': -0.96, 'rot1': 10, 'rot0': 10, 'rot3': 0, 'rot2': 0, 'state': 'normal', 'flw3': 0, 'flw2': 0, 'flw1': 0, 'flw0': 0, 'roll': -0.98, 'cur2': 0.0, 'cur0': 0.0, 'cur1': 0.0, 'mgs': 0, 'compass': 177.76, 'lipoC2': 0.0, 'temp': 25.45, 'thr3': 32.0, 'depth': 0.139, 'time': 29.98, 'thr2': 31.0, 'yaw': -7.2, 'thr0': 26.0, 'thr1': 27.0}
{'lipoC3S3': 0.0, 'datetime': '2019-02-27 10:37:10.300702', 'pitch': -0.94, 'rot1': 11, 'rot0': 10, 'rot3': 0, 'rot2': 0, 'state': 'normal', 'flw3': 0, 'flw2': 0, 'flw1': 0, 'flw0': 0, 'roll': -0.99, 'cur2': 0.0, 'cur0': 0.0, 'cur1': 0.0, 'mgs': 0, 'compass': 177.76, 'lipoC2': 0.0, 'temp': 25.45, 'thr3': 32.0, 'depth': 0.149, 'time': 30.3, 'thr2': 31.0, 'yaw': -7.2, 'thr0': 26.0, 'thr1': 27.0}
{'lipoC3S3': 0.0, 'datetime': '2019-02-27 10:37:10.623992', 'pitch': -0.9, 'rot1': 11, 'rot0': 10, 'rot3': 0, 'rot2': 0, 'state': 'normal', 'flw3': 0, 'flw2': 0, 'flw1': 0, 'flw0': 0, 'roll': -1.0, 'cur2': 0.0, 'cur0': 0.0, 'cur1': 0.0, 'mgs': 0, 'compass': 177.76, 'lipoC2': 0.0, 'temp': 25.45, 'thr3': 32.0, 'depth': 0.149, 'time': 30.62, 'thr2': 31.0, 'yaw': -7.2, 'thr0': 26.0, 'thr1': 27.0}
{'lipoC3S3': 0.0, 'datetime': '2019-02-27 10:37:10.946048', 'pitch': -0.9, 'rot1': 11, 'rot0': 10, 'rot3': 0, 'rot2': 0, 'state': 'normal', 'flw3': 0, 'flw2': 0, 'flw1': 0, 'flw0': 0, 'roll': -1.01, 'cur2': 0.0, 'cur0': 0.0, 'cur1': 0.0, 'mgs': 0, 'compass': 177.74, 'lipoC2': 0.0, 'temp': 25.45, 'thr3': 32.0, 'depth': 0.149, 'time': 30.94, 'thr2': 31.0, 'yaw': -7.21, 'thr0': 27.0, 'thr1': 27.0}
{'lipoC3S3': 0.0, 'datetime': '2019-02-27 10:37:11.264656', 'pitch': -0.9, 'rot1': 11, 'rot0': 10, 'rot3': 0, 'rot2': 0, 'state': 'normal', 'flw3': 0, 'flw2': 0, 'flw1': 0, 'flw0': 0, 'roll': -1.01, 'cur2': 0.0, 'cur0': 0.0, 'cur1': 0.0, 'mgs': 0, 'compass': 177.74, 'lipoC2': 0.0, 'temp': 25.45, 'thr3': 32.0, 'depth': 0.149, 'time': 31.27, 'thr2': 31.0, 'yaw': -7.21, 'thr0': 27.0, 'thr1': 27.0}
{'lipoC3S3': 0.0, 'datetime': '2019-02-27 10:37:11.590678', 'pitch': -0.9, 'rot1': 11, 'rot0': 10, 'rot3': 0, 'rot2': 0, 'state': 'normal', 'flw3': 0, 'flw2': 0, 'flw1': 0, 'flw0': 0, 'roll': -1.01, 'cur2': 0.0, 'cur0': 0.0, 'cur1': 0.0, 'mgs': 0, 'compass': 177.74, 'lipoC2': 0.0, 'temp': 25.45, 'thr3': 32.0, 'depth': 0.149, 'time': 31.59, 'thr2': 31.0, 'yaw': -7.21, 'thr0': 27.0, 'thr1': 27.0}
{'lipoC3S3': 0.0, 'datetime': '2019-02-27 10:37:11.912823', 'pitch': -0.89, 'rot1': 11, 'rot0': 10, 'rot3': 0, 'rot2': 0, 'state': 'normal', 'flw3': 0, 'flw2': 0, 'flw1': 0, 'flw0': 0, 'roll': -1.02, 'cur2': 0.0, 'cur0': 0.0, 'cur1': 0.0, 'mgs': 0, 'compass': 177.3, 'lipoC2': 0.0, 'temp': 25.45, 'thr3': 32.0, 'depth': 0.149, 'time': 31.91, 'thr2': 31.0, 'yaw': -7.65, 'thr0': 27.0, 'thr1': 27.0}
{'lipoC3S3': 0.0, 'datetime': '2019-02-27 10:37:12.235188', 'pitch': -0.91, 'rot1': 11, 'rot0': 10, 'rot3': 0, 'rot2': 0, 'state': 'normal', 'flw3': 0, 'flw2': 0, 'flw1': 0, 'flw0': 0, 'roll': -1.02, 'cur2': 0.0, 'cur0': 0.0, 'cur1': 0.0, 'mgs': 0, 'compass': 177.28, 'lipoC2': 0.0, 'temp': 25.45, 'thr3': 32.0, 'depth': 0.149, 'time': 32.23, 'thr2': 31.0, 'yaw': -7.67, 'thr0': 27.0, 'thr1': 27.0}
{'lipoC3S3': 0.0, 'datetime': '2019-02-27 10:37:12.551212', 'pitch': -0.89, 'rot1': 11, 'rot0': 10, 'rot3': 0, 'rot2': 0, 'state': 'normal', 'flw3': 0, 'flw2': 0, 'flw1': 0, 'flw0': 0, 'roll': -0.96, 'cur2': 0.0, 'cur0': 0.0, 'cur1': 0.0, 'mgs': 0, 'compass': 178.07, 'lipoC2': 0.0, 'temp': 25.45, 'thr3': 32.0, 'depth': 0.149, 'time': 32.55, 'thr2': 31.0, 'yaw': -6.88, 'thr0': 26.0, 'thr1': 27.0}
{'lipoC3S3': 0.0, 'datetime': '2019-02-27 10:37:12.869311', 'pitch': -0.89, 'rot1': 11, 'rot0': 10, 'rot3': 0, 'rot2': 0, 'state': 'normal', 'flw3': 0, 'flw2': 0, 'flw1': 0, 'flw0': 0, 'roll': -0.87, 'cur2': 0.0, 'cur0': 0.0, 'cur1': 0.0, 'mgs': 0, 'compass': 179.91, 'lipoC2': 0.0, 'temp': 25.45, 'thr3': 32.0, 'depth': 0.149, 'time': 32.87, 'thr2': 31.0, 'yaw': -5.04, 'thr0': 26.0, 'thr1': 27.0}
{'lipoC3S3': 0.0, 'datetime': '2019-02-27 10:37:13.193230', 'pitch': -0.9, 'rot1': 11, 'rot0': 10, 'rot3': 0, 'rot2': 0, 'state': 'normal', 'flw3': 0, 'flw2': 0, 'flw1': 0, 'flw0': 0, 'roll': -0.87, 'cur2': 0.0, 'cur0': 0.0, 'cur1': 0.0, 'mgs': 0, 'compass': 179.61, 'lipoC2': 0.0, 'temp': 25.45, 'thr3': 32.0, 'depth': 0.149, 'time': 33.19, 'thr2': 31.0, 'yaw': -5.34, 'thr0': 27.0, 'thr1': 27.0}
{'lipoC3S3': 0.0, 'datetime': '2019-02-27 10:37:13.521470', 'pitch': -0.94, 'rot1': 11, 'rot0': 10, 'rot3': 0, 'rot2': 0, 'state': 'normal', 'flw3': 0, 'flw2': 0, 'flw1': 0, 'flw0': 0, 'roll': -1.0, 'cur2': 0.0, 'cur0': 0.0, 'cur1': 0.0, 'mgs': 0, 'compass': 178.2, 'lipoC2': 0.0, 'temp': 25.45, 'thr3': 32.0, 'depth': 0.149, 'time': 33.51, 'thr2': 31.0, 'yaw': -6.76, 'thr0': 27.0, 'thr1': 27.0}
{'lipoC3S3': 0.0, 'datetime': '2019-02-27 10:37:13.843164', 'pitch': -0.92, 'rot1': 12, 'rot0': 10, 'rot3': 0, 'rot2': 0, 'state': 'normal', 'flw3': 0, 'flw2': 0, 'flw1': 0, 'flw0': 0, 'roll': -1.1, 'cur2': 0.0, 'cur0': 0.0, 'cur1': 0.0, 'mgs': 0, 'compass': 176.46, 'lipoC2': 0.0, 'temp': 25.45, 'thr3': 32.0, 'depth': 0.149, 'time': 33.84, 'thr2': 31.0, 'yaw': -8.49, 'thr0': 26.0, 'thr1': 27.0}
{'lipoC3S3': 0.0, 'datetime': '2019-02-27 10:37:14.165314', 'pitch': -0.84, 'rot1': 12, 'rot0': 10, 'rot3': 0, 'rot2': 0, 'state': 'normal', 'flw3': 0, 'flw2': 0, 'flw1': 0, 'flw0': 0, 'roll': -1.05, 'cur2': 0.0, 'cur0': 0.0, 'cur1': 0.0, 'mgs': 0, 'compass': 176.67, 'lipoC2': 0.0, 'temp': 25.45, 'thr3': 32.0, 'depth': 0.149, 'time': 34.16, 'thr2': 31.0, 'yaw': -8.28, 'thr0': 27.0, 'thr1': 27.0}
{'lipoC3S3': 0.0, 'datetime': '2019-02-27 10:37:14.487449', 'pitch': -0.84, 'rot1': 12, 'rot0': 10, 'rot3': 0, 'rot2': 0, 'state': 'normal', 'flw3': 0, 'flw2': 0, 'flw1': 0, 'flw0': 0, 'roll': -1.04, 'cur2': 0.0, 'cur0': 0.0, 'cur1': 0.0, 'mgs': 0, 'compass': 176.56, 'lipoC2': 0.0, 'temp': 25.45, 'thr3': 32.0, 'depth': 0.149, 'time': 34.48, 'thr2': 31.0, 'yaw': -8.39, 'thr0': 26.0, 'thr1': 27.0}
{'lipoC3S3': 0.0, 'datetime': '2019-02-27 10:37:14.808944', 'pitch': -0.77, 'rot1': 12, 'rot0': 10, 'rot3': 0, 'rot2': 0, 'state': 'normal', 'flw3': 0, 'flw2': 0, 'flw1': 0, 'flw0': 0, 'roll': -1.05, 'cur2': 0.0, 'cur0': 0.0, 'cur1': 0.0, 'mgs': 0, 'compass': 176.37, 'lipoC2': 0.0, 'temp': 25.45, 'thr3': 32.0, 'depth': 0.149, 'time': 34.8, 'thr2': 31.0, 'yaw': -8.58, 'thr0': 26.0, 'thr1': 27.0}
{'lipoC3S3': 0.0, 'datetime': '2019-02-27 10:37:15.131522', 'pitch': -0.72, 'rot1': 12, 'rot0': 10, 'rot3': 0, 'rot2': 0, 'state': 'normal', 'flw3': 0, 'flw2': 0, 'flw1': 0, 'flw0': 0, 'roll': -1.05, 'cur2': 0.0, 'cur0': 0.0, 'cur1': 0.0, 'mgs': 0, 'compass': 175.93, 'lipoC2': 0.0, 'temp': 25.45, 'thr3': 32.0, 'depth': 0.149, 'time': 35.12, 'thr2': 31.0, 'yaw': -9.02, 'thr0': 27.0, 'thr1': 27.0}
{'lipoC3S3': 0.0, 'datetime': '2019-02-27 10:37:15.453336', 'pitch': -0.8, 'rot1': 12, 'rot0': 10, 'rot3': 0, 'rot2': 0, 'state': 'normal', 'flw3': 0, 'flw2': 0, 'flw1': 0, 'flw0': 0, 'roll': -1.08, 'cur2': 0.0, 'cur0': 0.0, 'cur1': 0.0, 'mgs': 0, 'compass': 176.08, 'lipoC2': 0.0, 'temp': 25.45, 'thr3': 32.0, 'depth': 0.149, 'time': 35.44, 'thr2': 31.0, 'yaw': -8.88, 'thr0': 27.0, 'thr1': 27.0}
{'lipoC3S3': 0.0, 'datetime': '2019-02-27 10:37:15.775099', 'pitch': -0.69, 'rot1': 12, 'rot0': 10, 'rot3': 0, 'rot2': 0, 'state': 'normal', 'flw3': 0, 'flw2': 0, 'flw1': 0, 'flw0': 0, 'roll': -0.93, 'cur2': 0.0, 'cur0': 0.0, 'cur1': 0.0, 'mgs': 0, 'compass': 176.4, 'lipoC2': 0.0, 'temp': 25.45, 'thr3': 32.0, 'depth': 0.149, 'time': 35.77, 'thr2': 31.0, 'yaw': -8.55, 'thr0': 27.0, 'thr1': 27.0}
{'lipoC3S3': 0.0, 'datetime': '2019-02-27 10:37:16.095630', 'pitch': -0.84, 'rot1': 12, 'rot0': 10, 'rot3': 0, 'rot2': 0, 'state': 'normal', 'flw3': 0, 'flw2': 0, 'flw1': 0, 'flw0': 0, 'roll': -1.0, 'cur2': 0.0, 'cur0': 0.0, 'cur1': 0.0, 'mgs': 0, 'compass': 176.49, 'lipoC2': 0.0, 'temp': 25.45, 'thr3': 32.0, 'depth': 0.149, 'time': 36.08, 'thr2': 31.0, 'yaw': -8.46, 'thr0': 27.0, 'thr1': 27.0}
{'lipoC3S3': 0.0, 'datetime': '2019-02-27 10:37:16.417780', 'pitch': -0.84, 'rot1': 13, 'rot0': 10, 'rot3': 0, 'rot2': 0, 'state': 'normal', 'flw3': 0, 'flw2': 0, 'flw1': 0, 'flw0': 0, 'roll': -1.12, 'cur2': 0.0, 'cur0': 0.0, 'cur1': 0.0, 'mgs': 0, 'compass': 175.83, 'lipoC2': 0.0, 'temp': 25.45, 'thr3': 32.0, 'depth': 0.149, 'time': 36.41, 'thr2': 31.0, 'yaw': -9.12, 'thr0': 26.0, 'thr1': 27.0}
{'lipoC3S3': 0.0, 'datetime': '2019-02-27 10:37:16.741181', 'pitch': -0.82, 'rot1': 16, 'rot0': 10, 'rot3': 0, 'rot2': 0, 'state': 'normal', 'flw3': 0, 'flw2': 0, 'flw1': 0, 'flw0': 0, 'roll': -1.12, 'cur2': 0.0, 'cur0': 0.0, 'cur1': 0.0, 'mgs': 0, 'compass': 175.04, 'lipoC2': 0.0, 'temp': 25.45, 'thr3': 32.0, 'depth': 0.149, 'time': 36.73, 'thr2': 31.0, 'yaw': -9.91, 'thr0': 27.0, 'thr1': 27.0}
{'lipoC3S3': 0.0, 'datetime': '2019-02-27 10:37:17.062076', 'pitch': -0.76, 'rot1': 16, 'rot0': 10, 'rot3': 0, 'rot2': 0, 'state': 'normal', 'flw3': 0, 'flw2': 0, 'flw1': 0, 'flw0': 0, 'roll': -1.12, 'cur2': 0.0, 'cur0': 0.0, 'cur1': 0.0, 'mgs': 0, 'compass': 174.96, 'lipoC2': 0.0, 'temp': 25.45, 'thr3': 32.0, 'depth': 0.149, 'time': 37.05, 'thr2': 31.0, 'yaw': -10.0, 'thr0': 26.0, 'thr1': 27.0}
{'lipoC3S3': 0.0, 'datetime': '2019-02-27 10:37:17.382148', 'pitch': -0.76, 'rot1': 16, 'rot0': 10, 'rot3': 0, 'rot2': 0, 'state': 'normal', 'flw3': 0, 'flw2': 0, 'flw1': 0, 'flw0': 0, 'roll': -1.13, 'cur2': 0.0, 'cur0': 0.0, 'cur1': 0.0, 'mgs': 0, 'compass': 174.91, 'lipoC2': 0.0, 'temp': 25.45, 'thr3': 32.0, 'depth': 0.149, 'time': 37.37, 'thr2': 31.0, 'yaw': -10.04, 'thr0': 27.0, 'thr1': 27.0}
{'lipoC3S3': 0.0, 'datetime': '2019-02-27 10:37:17.703324', 'pitch': -0.78, 'rot1': 16, 'rot0': 10, 'rot3': 0, 'rot2': 0, 'state': 'normal', 'flw3': 0, 'flw2': 0, 'flw1': 0, 'flw0': 0, 'roll': -1.13, 'cur2': 0.0, 'cur0': 0.0, 'cur1': 0.0, 'mgs': 0, 'compass': 174.91, 'lipoC2': 0.0, 'temp': 25.45, 'thr3': 32.0, 'depth': 0.149, 'time': 37.69, 'thr2': 31.0, 'yaw': -10.04, 'thr0': 26.0, 'thr1': 27.0}
{'lipoC3S3': 0.0, 'datetime': '2019-02-27 10:37:18.026509', 'pitch': -0.77, 'rot1': 16, 'rot0': 10, 'rot3': 0, 'rot2': 0, 'state': 'normal', 'flw3': 0, 'flw2': 0, 'flw1': 0, 'flw0': 0, 'roll': -1.13, 'cur2': 0.0, 'cur0': 0.0, 'cur1': 0.0, 'mgs': 0, 'compass': 174.91, 'lipoC2': 0.0, 'temp': 25.45, 'thr3': 32.0, 'depth': 0.149, 'time': 38.01, 'thr2': 31.0, 'yaw': -10.04, 'thr0': 26.0, 'thr1': 27.0}
{'lipoC3S3': 0.0, 'datetime': '2019-02-27 10:37:18.343542', 'pitch': -0.77, 'rot1': 16, 'rot0': 10, 'rot3': 0, 'rot2': 0, 'state': 'normal', 'flw3': 0, 'flw2': 0, 'flw1': 0, 'flw0': 0, 'roll': -1.13, 'cur2': 0.0, 'cur0': 0.0, 'cur1': 0.0, 'mgs': 0, 'compass': 174.9, 'lipoC2': 0.0, 'temp': 25.45, 'thr3': 32.0, 'depth': 0.149, 'time': 38.34, 'thr2': 31.0, 'yaw': -10.05, 'thr0': 27.0, 'thr1': 27.0}
{'lipoC3S3': 0.0, 'datetime': '2019-02-27 10:37:18.667033', 'pitch': -0.77, 'rot1': 16, 'rot0': 10, 'rot3': 0, 'rot2': 0, 'state': 'normal', 'flw3': 0, 'flw2': 0, 'flw1': 0, 'flw0': 0, 'roll': -1.13, 'cur2': 0.0, 'cur0': 0.0, 'cur1': 0.0, 'mgs': 0, 'compass': 175.05, 'lipoC2': 0.0, 'temp': 25.45, 'thr3': 32.0, 'depth': 0.149, 'time': 38.66, 'thr2': 31.0, 'yaw': -9.91, 'thr0': 26.0, 'thr1': 27.0}
{'lipoC3S3': 0.0, 'datetime': '2019-02-27 10:37:18.991022', 'pitch': -0.78, 'rot1': 16, 'rot0': 10, 'rot3': 0, 'rot2': 0, 'state': 'normal', 'flw3': 0, 'flw2': 0, 'flw1': 0, 'flw0': 0, 'roll': -1.13, 'cur2': 0.0, 'cur0': 0.0, 'cur1': 0.0, 'mgs': 0, 'compass': 175.29, 'lipoC2': 0.0, 'temp': 25.45, 'thr3': 32.0, 'depth': 0.149, 'time': 38.98, 'thr2': 31.0, 'yaw': -9.66, 'thr0': 26.0, 'thr1': 27.0}
{'lipoC3S3': 0.0, 'datetime': '2019-02-27 10:37:19.310950', 'pitch': -0.78, 'rot1': 16, 'rot0': 10, 'rot3': 0, 'rot2': 0, 'state': 'normal', 'flw3': 0, 'flw2': 0, 'flw1': 0, 'flw0': 0, 'roll': -1.13, 'cur2': 0.0, 'cur0': 0.0, 'cur1': 0.0, 'mgs': 0, 'compass': 175.29, 'lipoC2': 0.0, 'temp': 25.45, 'thr3': 32.0, 'depth': 0.149, 'time': 39.3, 'thr2': 31.0, 'yaw': -9.66, 'thr0': 27.0, 'thr1': 27.0}
{'lipoC3S3': 0.0, 'datetime': '2019-02-27 10:37:19.631768', 'pitch': -0.77, 'rot1': 16, 'rot0': 10, 'rot3': 0, 'rot2': 0, 'state': 'normal', 'flw3': 0, 'flw2': 0, 'flw1': 0, 'flw0': 0, 'roll': -1.14, 'cur2': 0.0, 'cur0': 0.0, 'cur1': 0.0, 'mgs': 0, 'compass': 175.0, 'lipoC2': 0.0, 'temp': 25.45, 'thr3': 32.0, 'depth': 0.149, 'time': 39.62, 'thr2': 31.0, 'yaw': -9.95, 'thr0': 26.0, 'thr1': 27.0}
{'lipoC3S3': 0.0, 'datetime': '2019-02-27 10:37:19.953488', 'pitch': -0.78, 'rot1': 16, 'rot0': 10, 'rot3': 0, 'rot2': 0, 'state': 'normal', 'flw3': 0, 'flw2': 0, 'flw1': 0, 'flw0': 0, 'roll': -1.22, 'cur2': 0.0, 'cur0': 0.0, 'cur1': 0.0, 'mgs': 0, 'compass': 174.09, 'lipoC2': 0.0, 'temp': 25.45, 'thr3': 32.0, 'depth': 0.149, 'time': 39.94, 'thr2': 31.0, 'yaw': -10.86, 'thr0': 27.0, 'thr1': 27.0}
{'lipoC3S3': 0.0, 'datetime': '2019-02-27 10:37:20.276204', 'pitch': -0.78, 'rot1': 16, 'rot0': 10, 'rot3': 0, 'rot2': 0, 'state': 'normal', 'flw3': 0, 'flw2': 0, 'flw1': 0, 'flw0': 0, 'roll': -1.22, 'cur2': 0.0, 'cur0': 0.0, 'cur1': 0.0, 'mgs': 0, 'compass': 174.1, 'lipoC2': 0.0, 'temp': 25.45, 'thr3': 32.0, 'depth': 0.149, 'time': 40.26, 'thr2': 31.0, 'yaw': -10.85, 'thr0': 27.0, 'thr1': 27.0}
{'lipoC3S3': 0.0, 'datetime': '2019-02-27 10:37:20.597228', 'pitch': -0.78, 'rot1': 16, 'rot0': 10, 'rot3': 0, 'rot2': 0, 'state': 'normal', 'flw3': 0, 'flw2': 0, 'flw1': 0, 'flw0': 0, 'roll': -1.22, 'cur2': 0.0, 'cur0': 0.0, 'cur1': 0.0, 'mgs': 0, 'compass': 174.1, 'lipoC2': 0.0, 'temp': 25.45, 'thr3': 32.0, 'depth': 0.159, 'time': 40.59, 'thr2': 31.0, 'yaw': -10.85, 'thr0': 27.0, 'thr1': 27.0}
{'lipoC3S3': 0.0, 'datetime': '2019-02-27 10:37:20.922145', 'pitch': -0.78, 'rot1': 16, 'rot0': 10, 'rot3': 0, 'rot2': 0, 'state': 'normal', 'flw3': 0, 'flw2': 0, 'flw1': 0, 'flw0': 0, 'roll': -1.22, 'cur2': 0.0, 'cur0': 0.0, 'cur1': 0.0, 'mgs': 0, 'compass': 174.1, 'lipoC2': 0.0, 'temp': 25.45, 'thr3': 32.0, 'depth': 0.149, 'time': 40.91, 'thr2': 31.0, 'yaw': -10.85, 'thr0': 27.0, 'thr1': 27.0}
{'lipoC3S3': 0.0, 'datetime': '2019-02-27 10:37:21.245545', 'pitch': -0.78, 'rot1': 16, 'rot0': 10, 'rot3': 0, 'rot2': 0, 'state': 'normal', 'flw3': 0, 'flw2': 0, 'flw1': 0, 'flw0': 0, 'roll': -1.22, 'cur2': 0.0, 'cur0': 0.0, 'cur1': 0.0, 'mgs': 0, 'compass': 174.1, 'lipoC2': 0.0, 'temp': 25.45, 'thr3': 32.0, 'depth': 0.149, 'time': 41.23, 'thr2': 31.0, 'yaw': -10.85, 'thr0': 27.0, 'thr1': 27.0}
{'lipoC3S3': 0.0, 'datetime': '2019-02-27 10:37:21.564687', 'pitch': -0.96, 'rot1': 16, 'rot0': 10, 'rot3': 0, 'rot2': 0, 'state': 'normal', 'flw3': 0, 'flw2': 0, 'flw1': 0, 'flw0': 0, 'roll': -1.2, 'cur2': 0.0, 'cur0': 0.0, 'cur1': 0.0, 'mgs': 0, 'compass': 174.36, 'lipoC2': 0.0, 'temp': 25.45, 'thr3': 32.0, 'depth': 0.149, 'time': 41.55, 'thr2': 31.0, 'yaw': -10.59, 'thr0': 27.0, 'thr1': 27.0}
{'lipoC3S3': 0.0, 'datetime': '2019-02-27 10:37:21.885239', 'pitch': -1.48, 'rot1': 16, 'rot0': 10, 'rot3': 0, 'rot2': 0, 'state': 'normal', 'flw3': 0, 'flw2': 0, 'flw1': 0, 'flw0': 0, 'roll': -0.99, 'cur2': 0.0, 'cur0': 0.0, 'cur1': 0.0, 'mgs': 0, 'compass': 178.42, 'lipoC2': 0.0, 'temp': 25.46, 'thr3': 32.0, 'depth': 0.149, 'time': 41.87, 'thr2': 31.0, 'yaw': -6.53, 'thr0': 27.0, 'thr1': 27.0}
{'lipoC3S3': 0.0, 'datetime': '2019-02-27 10:37:22.211032', 'pitch': -1.7, 'rot1': 16, 'rot0': 10, 'rot3': 0, 'rot2': 0, 'state': 'normal', 'flw3': 0, 'flw2': 0, 'flw1': 0, 'flw0': 0, 'roll': -0.95, 'cur2': 0.0, 'cur0': 0.0, 'cur1': 0.0, 'mgs': 0, 'compass': -178.66, 'lipoC2': 0.0, 'temp': 25.46, 'thr3': 32.0, 'depth': 0.149, 'time': 42.19, 'thr2': 31.0, 'yaw': -3.62, 'thr0': 27.0, 'thr1': 27.0}
{'lipoC3S3': 0.0, 'datetime': '2019-02-27 10:37:22.528702', 'pitch': -1.39, 'rot1': 16, 'rot0': 10, 'rot3': 0, 'rot2': 0, 'state': 'normal', 'flw3': 0, 'flw2': 0, 'flw1': 0, 'flw0': 0, 'roll': -0.95, 'cur2': 0.0, 'cur0': 0.0, 'cur1': 0.0, 'mgs': 0, 'compass': -179.69, 'lipoC2': 0.0, 'temp': 25.46, 'thr3': 32.0, 'depth': 0.149, 'time': 42.51, 'thr2': 31.0, 'yaw': -4.65, 'thr0': 26.0, 'thr1': 27.0}
{'lipoC3S3': 0.0, 'datetime': '2019-02-27 10:37:22.854608', 'pitch': -0.98, 'rot1': 16, 'rot0': 10, 'rot3': 0, 'rot2': 0, 'state': 'normal', 'flw3': 0, 'flw2': 0, 'flw1': 0, 'flw0': 0, 'roll': -1.14, 'cur2': 0.0, 'cur0': 0.0, 'cur1': 0.0, 'mgs': 0, 'compass': -179.73, 'lipoC2': 0.0, 'temp': 25.46, 'thr3': 32.0, 'depth': 0.149, 'time': 42.83, 'thr2': 31.0, 'yaw': -4.68, 'thr0': 26.0, 'thr1': 27.0}
{'lipoC3S3': 0.0, 'datetime': '2019-02-27 10:37:23.171265', 'pitch': -0.99, 'rot1': 16, 'rot0': 10, 'rot3': 0, 'rot2': 0, 'state': 'normal', 'flw3': 0, 'flw2': 0, 'flw1': 0, 'flw0': 0, 'roll': -1.18, 'cur2': 0.0, 'cur0': 0.0, 'cur1': 0.0, 'mgs': 0, 'compass': -179.72, 'lipoC2': 0.0, 'temp': 25.46, 'thr3': 32.0, 'depth': 0.149, 'time': 43.16, 'thr2': 31.0, 'yaw': -4.67, 'thr0': 26.0, 'thr1': 27.0}
{'lipoC3S3': 0.0, 'datetime': '2019-02-27 10:37:23.501363', 'pitch': -1.13, 'rot1': 16, 'rot0': 10, 'rot3': 0, 'rot2': 0, 'state': 'normal', 'flw3': 0, 'flw2': 0, 'flw1': 0, 'flw0': 0, 'roll': -1.23, 'cur2': 0.0, 'cur0': 0.0, 'cur1': 0.0, 'mgs': 0, 'compass': -179.65, 'lipoC2': 0.0, 'temp': 25.45, 'thr3': 32.0, 'depth': 0.149, 'time': 43.48, 'thr2': 31.0, 'yaw': -4.6, 'thr0': 27.0, 'thr1': 27.0}
{'lipoC3S3': 0.0, 'datetime': '2019-02-27 10:37:23.818294', 'pitch': -1.94, 'rot1': 16, 'rot0': 10, 'rot3': 0, 'rot2': 0, 'state': 'normal', 'flw3': 0, 'flw2': 0, 'flw1': 0, 'flw0': 0, 'roll': -4.09, 'cur2': 0.0, 'cur0': 0.0, 'cur1': 0.0, 'mgs': 0, 'compass': -179.27, 'lipoC2': 0.0, 'temp': 25.46, 'thr3': 32.0, 'depth': 0.149, 'time': 43.8, 'thr2': 31.0, 'yaw': -4.22, 'thr0': 27.0, 'thr1': 27.0}
{'lipoC3S3': 0.0, 'datetime': '2019-02-27 10:37:24.139388', 'pitch': -2.31, 'rot1': 16, 'rot0': 10, 'rot3': 0, 'rot2': 0, 'state': 'normal', 'flw3': 0, 'flw2': 0, 'flw1': 0, 'flw0': 0, 'roll': -11.53, 'cur2': 0.0, 'cur0': 0.0, 'cur1': 0.0, 'mgs': 0, 'compass': -179.23, 'lipoC2': 0.0, 'temp': 25.46, 'thr3': 32.0, 'depth': 0.149, 'time': 44.12, 'thr2': 31.0, 'yaw': -4.18, 'thr0': 27.0, 'thr1': 27.0}
{'lipoC3S3': 0.0, 'datetime': '2019-02-27 10:37:24.461363', 'pitch': -2.74, 'rot1': 16, 'rot0': 10, 'rot3': 0, 'rot2': 0, 'state': 'normal', 'flw3': 0, 'flw2': 0, 'flw1': 0, 'flw0': 0, 'roll': -24.33, 'cur2': 0.0, 'cur0': 0.0, 'cur1': 0.0, 'mgs': 0, 'compass': -179.8, 'lipoC2': 0.0, 'temp': 25.46, 'thr3': 32.0, 'depth': 0.149, 'time': 44.44, 'thr2': 31.0, 'yaw': -4.75, 'thr0': 26.0, 'thr1': 27.0}
{'lipoC3S3': 0.0, 'datetime': '2019-02-27 10:37:24.780814', 'pitch': -2.52, 'rot1': 16, 'rot0': 10, 'rot3': 0, 'rot2': 0, 'state': 'normal', 'flw3': 0, 'flw2': 0, 'flw1': 0, 'flw0': 0, 'roll': -42.69, 'cur2': 0.0, 'cur0': 0.0, 'cur1': 0.0, 'mgs': 0, 'compass': -177.84, 'lipoC2': 0.0, 'temp': 25.46, 'thr3': 32.0, 'depth': 0.149, 'time': 44.76, 'thr2': 31.0, 'yaw': -2.8, 'thr0': 27.0, 'thr1': 27.0}
{'lipoC3S3': 0.0, 'datetime': '2019-02-27 10:37:25.107019', 'pitch': -3.69, 'rot1': 16, 'rot0': 10, 'rot3': 0, 'rot2': 0, 'state': 'normal', 'flw3': 0, 'flw2': 0, 'flw1': 0, 'flw0': 0, 'roll': -62.26, 'cur2': 0.0, 'cur0': 0.0, 'cur1': 0.0, 'mgs': 0, 'compass': -177.87, 'lipoC2': 0.0, 'temp': 25.46, 'thr3': 32.0, 'depth': 0.149, 'time': 45.08, 'thr2': 31.0, 'yaw': -2.82, 'thr0': 26.0, 'thr1': 27.0}
{'lipoC3S3': 0.0, 'datetime': '2019-02-27 10:37:25.425094', 'pitch': -23.14, 'rot1': 16, 'rot0': 10, 'rot3': 0, 'rot2': 0, 'state': 'normal', 'flw3': 0, 'flw2': 0, 'flw1': 0, 'flw0': 0, 'roll': -82.05, 'cur2': 0.0, 'cur0': 0.0, 'cur1': 0.0, 'mgs': 0, 'compass': -155.04, 'lipoC2': 0.0, 'temp': 25.46, 'thr3': 32.0, 'depth': 0.149, 'time': 45.41, 'thr2': 31.0, 'yaw': 20.01, 'thr0': 27.0, 'thr1': 27.0}
{'lipoC3S3': 0.0, 'datetime': '2019-02-27 10:37:25.751359', 'pitch': -157.41, 'rot1': 16, 'rot0': 10, 'rot3': 0, 'rot2': 0, 'state': 'normal', 'flw3': 0, 'flw2': 0, 'flw1': 0, 'flw0': 0, 'roll': -79.82, 'cur2': 0.0, 'cur0': 0.0, 'cur1': 0.0, 'mgs': 0, 'compass': -19.32, 'lipoC2': 0.0, 'temp': 25.46, 'thr3': 32.0, 'depth': 0.149, 'time': 45.73, 'thr2': 31.0, 'yaw': 155.73, 'thr0': 27.0, 'thr1': 27.0}
{'lipoC3S3': 0.0, 'datetime': '2019-02-27 10:37:26.072940', 'pitch': -170.88, 'rot1': 16, 'rot0': 10, 'rot3': 0, 'rot2': 0, 'state': 'normal', 'flw3': 0, 'flw2': 0, 'flw1': 0, 'flw0': 0, 'roll': -58.81, 'cur2': 0.0, 'cur0': 0.0, 'cur1': 0.0, 'mgs': 0, 'compass': -7.09, 'lipoC2': 0.0, 'temp': 25.46, 'thr3': 32.0, 'depth': 0.149, 'time': 46.05, 'thr2': 31.0, 'yaw': 167.96, 'thr0': 27.0, 'thr1': 27.0}
{'lipoC3S3': 0.0, 'datetime': '2019-02-27 10:37:26.386895', 'pitch': -168.98, 'rot1': 16, 'rot0': 10, 'rot3': 0, 'rot2': 0, 'state': 'normal', 'flw3': 0, 'flw2': 0, 'flw1': 0, 'flw0': 0, 'roll': -42.61, 'cur2': 0.0, 'cur0': 0.0, 'cur1': 0.0, 'mgs': 0, 'compass': -7.3, 'lipoC2': 0.0, 'temp': 25.46, 'thr3': 32.0, 'depth': 0.149, 'time': 46.37, 'thr2': 31.0, 'yaw': 167.75, 'thr0': 27.0, 'thr1': 27.0}
{'lipoC3S3': 0.0, 'datetime': '2019-02-27 10:37:26.709343', 'pitch': -166.78, 'rot1': 16, 'rot0': 10, 'rot3': 0, 'rot2': 0, 'state': 'normal', 'flw3': 0, 'flw2': 0, 'flw1': 0, 'flw0': 0, 'roll': -30.35, 'cur2': 0.0, 'cur0': 0.0, 'cur1': 0.0, 'mgs': 0, 'compass': -5.83, 'lipoC2': 0.0, 'temp': 25.46, 'thr3': 32.0, 'depth': 0.149, 'time': 46.69, 'thr2': 31.0, 'yaw': 169.22, 'thr0': 27.0, 'thr1': 27.0}
{'lipoC3S3': 0.0, 'datetime': '2019-02-27 10:37:27.035452', 'pitch': -159.23, 'rot1': 16, 'rot0': 10, 'rot3': 0, 'rot2': 0, 'state': 'normal', 'flw3': 0, 'flw2': 0, 'flw1': 0, 'flw0': 0, 'roll': -23.86, 'cur2': 0.0, 'cur0': 0.0, 'cur1': 0.0, 'mgs': 0, 'compass': -4.46, 'lipoC2': 0.0, 'temp': 25.46, 'thr3': 32.0, 'depth': 0.149, 'time': 47.01, 'thr2': 31.0, 'yaw': 170.58, 'thr0': 26.0, 'thr1': 27.0}
{'lipoC3S3': 0.0, 'datetime': '2019-02-27 10:37:27.357613', 'pitch': -159.2, 'rot1': 16, 'rot0': 10, 'rot3': 0, 'rot2': 0, 'state': 'normal', 'flw3': 0, 'flw2': 0, 'flw1': 0, 'flw0': 0, 'roll': -17.83, 'cur2': 0.0, 'cur0': 0.0, 'cur1': 0.0, 'mgs': 0, 'compass': -2.38, 'lipoC2': 0.0, 'temp': 25.46, 'thr3': 32.0, 'depth': 0.149, 'time': 47.33, 'thr2': 31.0, 'yaw': 172.66, 'thr0': 26.0, 'thr1': 27.0}
{'lipoC3S3': 0.0, 'datetime': '2019-02-27 10:37:27.681829', 'pitch': -160.86, 'rot1': 16, 'rot0': 10, 'rot3': 0, 'rot2': 0, 'state': 'normal', 'flw3': 0, 'flw2': 0, 'flw1': 0, 'flw0': 0, 'roll': -14.09, 'cur2': 0.0, 'cur0': 0.0, 'cur1': 0.0, 'mgs': 0, 'compass': -1.44, 'lipoC2': 0.0, 'temp': 25.46, 'thr3': 32.0, 'depth': 0.149, 'time': 47.65, 'thr2': 31.0, 'yaw': 173.61, 'thr0': 27.0, 'thr1': 27.0}
{'lipoC3S3': 0.0, 'datetime': '2019-02-27 10:37:28.002931', 'pitch': -161.11, 'rot1': 16, 'rot0': 10, 'rot3': 0, 'rot2': 0, 'state': 'normal', 'flw3': 0, 'flw2': 0, 'flw1': 0, 'flw0': 0, 'roll': -13.64, 'cur2': 0.0, 'cur0': 0.0, 'cur1': 0.0, 'mgs': 0, 'compass': -1.19, 'lipoC2': 0.0, 'temp': 25.46, 'thr3': 32.0, 'depth': 0.149, 'time': 47.98, 'thr2': 31.0, 'yaw': 173.85, 'thr0': 27.0, 'thr1': 27.0}
{'lipoC3S3': 0.0, 'datetime': '2019-02-27 10:37:28.326809', 'pitch': -161.19, 'rot1': 16, 'rot0': 10, 'rot3': 0, 'rot2': 0, 'state': 'normal', 'flw3': 0, 'flw2': 0, 'flw1': 0, 'flw0': 0, 'roll': -13.39, 'cur2': 0.0, 'cur0': 0.0, 'cur1': 0.0, 'mgs': 0, 'compass': -0.84, 'lipoC2': 0.0, 'temp': 25.46, 'thr3': 32.0, 'depth': 0.149, 'time': 48.3, 'thr2': 31.0, 'yaw': 174.2, 'thr0': 27.0, 'thr1': 27.0}
{'lipoC3S3': 0.0, 'datetime': '2019-02-27 10:37:28.647464', 'pitch': -161.55, 'rot1': 16, 'rot0': 10, 'rot3': 0, 'rot2': 0, 'state': 'normal', 'flw3': 0, 'flw2': 0, 'flw1': 0, 'flw0': 0, 'roll': -13.5, 'cur2': 0.0, 'cur0': 0.0, 'cur1': 0.0, 'mgs': 0, 'compass': -0.43, 'lipoC2': 0.0, 'temp': 25.46, 'thr3': 32.0, 'depth': 0.149, 'time': 48.62, 'thr2': 31.0, 'yaw': 174.62, 'thr0': 27.0, 'thr1': 27.0}
{'lipoC3S3': 0.0, 'datetime': '2019-02-27 10:37:28.964348', 'pitch': -161.39, 'rot1': 16, 'rot0': 10, 'rot3': 0, 'rot2': 0, 'state': 'normal', 'flw3': 0, 'flw2': 0, 'flw1': 0, 'flw0': 0, 'roll': -13.26, 'cur2': 0.0, 'cur0': 0.0, 'cur1': 0.0, 'mgs': 0, 'compass': -0.41, 'lipoC2': 0.0, 'temp': 25.46, 'thr3': 32.0, 'depth': 0.149, 'time': 48.94, 'thr2': 31.0, 'yaw': 174.64, 'thr0': 27.0, 'thr1': 27.0}
{'lipoC3S3': 0.0, 'datetime': '2019-02-27 10:37:29.287440', 'pitch': -161.24, 'rot1': 16, 'rot0': 10, 'rot3': 0, 'rot2': 0, 'state': 'normal', 'flw3': 0, 'flw2': 0, 'flw1': 0, 'flw0': 0, 'roll': -13.28, 'cur2': 0.0, 'cur0': 0.0, 'cur1': 0.0, 'mgs': 0, 'compass': -0.4, 'lipoC2': 0.0, 'temp': 25.46, 'thr3': 32.0, 'depth': 0.149, 'time': 49.26, 'thr2': 31.0, 'yaw': 174.64, 'thr0': 27.0, 'thr1': 27.0}
