{'lipoC2': 0.14, 'temp': 0.0, 'lipoC3S3': 11.98, 'state': 'normal', 'rot1': 0, 'rot0': 0, 'rot3': 0, 'rot2': 0, 'depth': 1.843, 'yaw': 0.0, 'datetime': '2018-12-18 19:56:02.484101', 'mgs': 0, 'flw2': 0.13, 'flw1': 0.29, 'flw0': 0.0, 'time': 1.26, 'compass': -106.0, 'pitch': -3.29, 'roll': -0.32}
{'lipoC2': 0.0, 'temp': 0.0, 'lipoC3S3': 12.01, 'state': 'normal', 'rot1': 0, 'rot0': 0, 'rot3': 0, 'rot2': 0, 'depth': 0.775, 'yaw': -0.01, 'datetime': '2018-12-18 19:56:02.692993', 'mgs': 0, 'flw2': 0.1, 'flw1': 0.47, 'flw0': 0.0, 'time': 1.47, 'compass': -106.01, 'pitch': -2.83, 'roll': -0.23}
{'lipoC2': 0.14, 'temp': 0.0, 'lipoC3S3': 11.85, 'state': 'normal', 'rot1': 0, 'rot0': 0, 'rot3': 0, 'rot2': 0, 'depth': -0.446, 'yaw': -0.0, 'datetime': '2018-12-18 19:56:02.900511', 'mgs': 0, 'flw2': 0.17, 'flw1': 0.06, 'flw0': 0.0, 'time': 1.67, 'compass': -106.0, 'pitch': -2.6, 'roll': -0.16}
{'lipoC2': 0.0, 'temp': 0.0, 'lipoC3S3': 12.19, 'state': 'normal', 'rot1': 0, 'rot0': 0, 'rot3': 0, 'rot2': 0, 'depth': 1.767, 'yaw': -0.0, 'datetime': '2018-12-18 19:56:03.109949', 'mgs': 0, 'flw2': 0.0, 'flw1': 0.26, 'flw0': 0.15, 'time': 1.88, 'compass': -106.0, 'pitch': -2.41, 'roll': -0.11}
{'lipoC2': 0.08, 'temp': 0.0, 'lipoC3S3': 11.8, 'state': 'normal', 'rot1': 0, 'rot0': 0, 'rot3': 0, 'rot2': 0, 'depth': 1.233, 'yaw': -0.01, 'datetime': '2018-12-18 19:56:03.317190', 'mgs': 0, 'flw2': 0.18, 'flw1': 0.0, 'flw0': 0.0, 'time': 2.09, 'compass': -106.01, 'pitch': -2.23, 'roll': -0.07}
{'lipoC2': 0.0, 'temp': 0.0, 'lipoC3S3': 12.13, 'state': 'normal', 'rot1': 0, 'rot0': 0, 'rot3': 0, 'rot2': 0, 'depth': 1.614, 'yaw': -0.0, 'datetime': '2018-12-18 19:56:03.526770', 'mgs': 0, 'flw2': 0.18, 'flw1': 0.0, 'flw0': 0.0, 'time': 2.3, 'compass': -106.0, 'pitch': -2.07, 'roll': -0.04}
{'lipoC2': 0.11, 'temp': 0.0, 'lipoC3S3': 12.0, 'state': 'normal', 'rot1': 1, 'rot0': 0, 'rot3': 0, 'rot2': 0, 'depth': -1.514, 'yaw': -0.13, 'datetime': '2018-12-18 19:56:03.736225', 'mgs': 0, 'flw2': 0.1, 'flw1': 0.35, 'flw0': 2.88, 'time': 2.51, 'compass': -106.12, 'pitch': -1.81, 'roll': -0.08}
{'lipoC2': 0.0, 'temp': 0.0, 'lipoC3S3': 11.96, 'state': 'normal', 'rot1': 3, 'rot0': 0, 'rot3': 0, 'rot2': 0, 'depth': 0.928, 'yaw': -2.74, 'datetime': '2018-12-18 19:56:03.944252', 'mgs': 0, 'flw2': 2.22, 'flw1': 0.0, 'flw0': 3.02, 'time': 2.71, 'compass': -108.74, 'pitch': 0.17, 'roll': -0.16}
{'lipoC2': 0.02, 'temp': 0.0, 'lipoC3S3': 12.09, 'state': 'normal', 'rot1': 4, 'rot0': 2, 'rot3': 0, 'rot2': 0, 'depth': 0.317, 'yaw': -5.26, 'datetime': '2018-12-18 19:56:04.155155', 'mgs': 0, 'flw2': 0.17, 'flw1': 0.0, 'flw0': 3.66, 'time': 2.92, 'compass': -111.26, 'pitch': 2.16, 'roll': 1.0}
{'lipoC2': 0.0, 'temp': 0.0, 'lipoC3S3': 12.21, 'state': 'normal', 'rot1': 5, 'rot0': 2, 'rot3': 0, 'rot2': 0, 'depth': 1.767, 'yaw': -8.66, 'datetime': '2018-12-18 19:56:04.361178', 'mgs': 0, 'flw2': 1.89, 'flw1': 0.0, 'flw0': 0.0, 'time': 3.13, 'compass': -114.65, 'pitch': 0.83, 'roll': 1.21}
{'lipoC2': 0.0, 'temp': 0.0, 'lipoC3S3': 11.9, 'state': 'normal', 'rot1': 5, 'rot0': 4, 'rot3': 0, 'rot2': 0, 'depth': 1.233, 'yaw': -10.93, 'datetime': '2018-12-18 19:56:04.571074', 'mgs': 0, 'flw2': 2.81, 'flw1': 0.0, 'flw0': 0.18, 'time': 3.34, 'compass': -116.93, 'pitch': -0.8, 'roll': 0.96}
{'lipoC2': 0.15, 'temp': 0.0, 'lipoC3S3': 11.96, 'state': 'normal', 'rot1': 5, 'rot0': 6, 'rot3': 0, 'rot2': 0, 'depth': -0.903, 'yaw': -9.93, 'datetime': '2018-12-18 19:56:04.776651', 'mgs': 0, 'flw2': 2.84, 'flw1': 0.35, 'flw0': 0.0, 'time': 3.54, 'compass': -115.93, 'pitch': 0.17, 'roll': 0.68}
{'lipoC2': 0.14, 'temp': 0.0, 'lipoC3S3': 11.84, 'state': 'normal', 'rot1': 5, 'rot0': 8, 'rot3': 0, 'rot2': 0, 'depth': 0.928, 'yaw': -6.07, 'datetime': '2018-12-18 19:56:04.986111', 'mgs': 0, 'flw2': 2.87, 'flw1': 0.06, 'flw0': 0.0, 'time': 3.75, 'compass': -112.07, 'pitch': 1.98, 'roll': 0.49}
{'lipoC2': 0.0, 'temp': 0.0, 'lipoC3S3': 12.16, 'state': 'normal', 'rot1': 5, 'rot0': 11, 'rot3': 0, 'rot2': 0, 'depth': 1.92, 'yaw': -0.54, 'datetime': '2018-12-18 19:56:05.195730', 'mgs': 0, 'flw2': 2.61, 'flw1': 0.41, 'flw0': 0.06, 'time': 3.96, 'compass': -106.54, 'pitch': 2.08, 'roll': 0.56}
{'lipoC2': 0.0, 'temp': 0.0, 'lipoC3S3': 12.21, 'state': 'normal', 'rot1': 5, 'rot0': 13, 'rot3': 0, 'rot2': 0, 'depth': 1.767, 'yaw': 6.59, 'datetime': '2018-12-18 19:56:05.406216', 'mgs': 0, 'flw2': 2.6, 'flw1': 0.15, 'flw0': 0.22, 'time': 4.17, 'compass': -99.41, 'pitch': 0.83, 'roll': 1.17}
{'lipoC2': 0.08, 'temp': 0.0, 'lipoC3S3': 12.02, 'state': 'normal', 'rot1': 6, 'rot0': 15, 'rot3': 0, 'rot2': 0, 'depth': -1.361, 'yaw': 14.26, 'datetime': '2018-12-18 19:56:05.609644', 'mgs': 0, 'flw2': 2.89, 'flw1': 0.0, 'flw0': 3.03, 'time': 4.38, 'compass': -91.73, 'pitch': 0.32, 'roll': 2.01}
{'lipoC2': 0.0, 'temp': 0.0, 'lipoC3S3': 12.17, 'state': 'normal', 'rot1': 9, 'rot0': 18, 'rot3': 0, 'rot2': 0, 'depth': 1.92, 'yaw': 19.64, 'datetime': '2018-12-18 19:56:05.818151', 'mgs': 0, 'flw2': 2.53, 'flw1': 0.38, 'flw0': 2.92, 'time': 4.59, 'compass': -86.35, 'pitch': 1.94, 'roll': 2.23}
{'lipoC2': 0.0, 'temp': 0.0, 'lipoC3S3': 12.02, 'state': 'normal', 'rot1': 11, 'rot0': 20, 'rot3': 0, 'rot2': 0, 'depth': 0.012, 'yaw': 23.03, 'datetime': '2018-12-18 19:56:06.026002', 'mgs': 0, 'flw2': 2.94, 'flw1': 0.32, 'flw0': 2.88, 'time': 4.79, 'compass': -82.97, 'pitch': 3.31, 'roll': 2.05}
{'lipoC2': 0.1, 'temp': 0.0, 'lipoC3S3': 12.01, 'state': 'normal', 'rot1': 14, 'rot0': 23, 'rot3': 0, 'rot2': 0, 'depth': -1.361, 'yaw': 25.51, 'datetime': '2018-12-18 19:56:06.235663', 'mgs': 0, 'flw2': 2.94, 'flw1': 0.21, 'flw0': 2.72, 'time': 5.0, 'compass': -80.49, 'pitch': 3.39, 'roll': 2.0}
{'lipoC2': 0.11, 'temp': 0.0, 'lipoC3S3': 11.98, 'state': 'normal', 'rot1': 16, 'rot0': 25, 'rot3': 0, 'rot2': 0, 'depth': -1.666, 'yaw': 27.49, 'datetime': '2018-12-18 19:56:06.443811', 'mgs': 0, 'flw2': 2.77, 'flw1': 0.0, 'flw0': 3.0, 'time': 5.21, 'compass': -78.51, 'pitch': 2.85, 'roll': 1.97}
{'lipoC2': 0.11, 'temp': 0.0, 'lipoC3S3': 11.98, 'state': 'normal', 'rot1': 18, 'rot0': 28, 'rot3': 0, 'rot2': 0, 'depth': -1.437, 'yaw': 29.03, 'datetime': '2018-12-18 19:56:06.653887', 'mgs': 0, 'flw2': 2.98, 'flw1': 0.06, 'flw0': 2.53, 'time': 5.42, 'compass': -76.97, 'pitch': 2.59, 'roll': 1.95}
{'lipoC2': 0.0, 'temp': 0.0, 'lipoC3S3': 11.85, 'state': 'normal', 'rot1': 21, 'rot0': 30, 'rot3': 0, 'rot2': 0, 'depth': 1.843, 'yaw': 30.27, 'datetime': '2018-12-18 19:56:06.864320', 'mgs': 0, 'flw2': 2.55, 'flw1': 0.23, 'flw0': 3.02, 'time': 5.63, 'compass': -75.72, 'pitch': 2.75, 'roll': 2.04}
{'lipoC2': 0.03, 'temp': 0.0, 'lipoC3S3': 12.05, 'state': 'normal', 'rot1': 23, 'rot0': 32, 'rot3': 0, 'rot2': 0, 'depth': -0.751, 'yaw': 31.39, 'datetime': '2018-12-18 19:56:07.075983', 'mgs': 0, 'flw2': 2.81, 'flw1': 0.0, 'flw0': 2.97, 'time': 5.84, 'compass': -74.61, 'pitch': 3.11, 'roll': 2.1}
{'lipoC2': 0.09, 'temp': 0.0, 'lipoC3S3': 12.01, 'state': 'normal', 'rot1': 25, 'rot0': 35, 'rot3': 0, 'rot2': 0, 'depth': -1.666, 'yaw': 32.25, 'datetime': '2018-12-18 19:56:07.284711', 'mgs': 0, 'flw2': 2.82, 'flw1': 0.29, 'flw0': 2.72, 'time': 6.04, 'compass': -73.75, 'pitch': 3.25, 'roll': 2.04}
{'lipoC2': 0.0, 'temp': 0.0, 'lipoC3S3': 11.83, 'state': 'normal', 'rot1': 28, 'rot0': 37, 'rot3': 0, 'rot2': 0, 'depth': 1.385, 'yaw': 32.72, 'datetime': '2018-12-18 19:56:07.491226', 'mgs': 0, 'flw2': 2.94, 'flw1': 0.0, 'flw0': 2.6, 'time': 6.25, 'compass': -73.27, 'pitch': 3.44, 'roll': 1.96}
{'lipoC2': 0.08, 'temp': 0.0, 'lipoC3S3': 11.8, 'state': 'normal', 'rot1': 30, 'rot0': 40, 'rot3': 0, 'rot2': 0, 'depth': 0.623, 'yaw': 32.8, 'datetime': '2018-12-18 19:56:07.700645', 'mgs': 0, 'flw2': 3.04, 'flw1': 0.0, 'flw0': 2.75, 'time': 6.46, 'compass': -73.2, 'pitch': 4.28, 'roll': 1.72}
{'lipoC2': 0.0, 'temp': 0.0, 'lipoC3S3': 12.01, 'state': 'normal', 'rot1': 32, 'rot0': 42, 'rot3': 0, 'rot2': 0, 'depth': 0.012, 'yaw': 33.3, 'datetime': '2018-12-18 19:56:07.908721', 'mgs': 0, 'flw2': 2.92, 'flw1': 0.29, 'flw0': 2.77, 'time': 6.67, 'compass': -72.7, 'pitch': 4.77, 'roll': 1.7}
{'lipoC2': 0.11, 'temp': 0.0, 'lipoC3S3': 11.8, 'state': 'normal', 'rot1': 35, 'rot0': 44, 'rot3': 0, 'rot2': 0, 'depth': 1.08, 'yaw': 34.34, 'datetime': '2018-12-18 19:56:08.117304', 'mgs': 0, 'flw2': 3.05, 'flw1': 0.0, 'flw0': 2.65, 'time': 6.88, 'compass': -71.66, 'pitch': 4.05, 'roll': 1.89}
{'lipoC2': 0.0, 'temp': 0.0, 'lipoC3S3': 12.18, 'state': 'normal', 'rot1': 37, 'rot0': 47, 'rot3': 0, 'rot2': 0, 'depth': 1.996, 'yaw': 35.54, 'datetime': '2018-12-18 19:56:08.326414', 'mgs': 0, 'flw2': 2.95, 'flw1': 0.0, 'flw0': 2.72, 'time': 7.09, 'compass': -70.46, 'pitch': 3.43, 'roll': 1.98}
{'lipoC2': 0.0, 'temp': 0.0, 'lipoC3S3': 11.93, 'state': 'normal', 'rot1': 40, 'rot0': 49, 'rot3': 0, 'rot2': 0, 'depth': 0.699, 'yaw': 36.65, 'datetime': '2018-12-18 19:56:08.536333', 'mgs': 0, 'flw2': 2.92, 'flw1': 0.0, 'flw0': 2.58, 'time': 7.3, 'compass': -69.35, 'pitch': 3.4, 'roll': 1.92}
{'lipoC2': 0.15, 'temp': 0.0, 'lipoC3S3': 11.9, 'state': 'normal', 'rot1': 42, 'rot0': 52, 'rot3': 0, 'rot2': 0, 'depth': -0.98, 'yaw': 37.8, 'datetime': '2018-12-18 19:56:08.746998', 'mgs': 0, 'flw2': 2.95, 'flw1': 0.0, 'flw0': 2.56, 'time': 7.5, 'compass': -68.2, 'pitch': 3.54, 'roll': 2.0}
{'lipoC2': 0.0, 'temp': 0.0, 'lipoC3S3': 12.08, 'state': 'normal', 'rot1': 45, 'rot0': 54, 'rot3': 0, 'rot2': 0, 'depth': 1.614, 'yaw': 38.95, 'datetime': '2018-12-18 19:56:08.951318', 'mgs': 0, 'flw2': 2.95, 'flw1': 0.0, 'flw0': 2.82, 'time': 7.71, 'compass': -67.05, 'pitch': 3.6, 'roll': 2.15}
{'lipoC2': 0.12, 'temp': 0.0, 'lipoC3S3': 11.8, 'state': 'normal', 'rot1': 46, 'rot0': 57, 'rot3': 0, 'rot2': 0, 'depth': 0.699, 'yaw': 40.38, 'datetime': '2018-12-18 19:56:09.168956', 'mgs': 0, 'flw2': 3.0, 'flw1': 0.03, 'flw0': 0.0, 'time': 7.92, 'compass': -65.62, 'pitch': 3.08, 'roll': 2.33}
{'lipoC2': 0.04, 'temp': 0.0, 'lipoC3S3': 11.83, 'state': 'normal', 'rot1': 46, 'rot0': 59, 'rot3': 0, 'rot2': 0, 'depth': 0.699, 'yaw': 44.25, 'datetime': '2018-12-18 19:56:09.370269', 'mgs': 0, 'flw2': 2.98, 'flw1': 0.0, 'flw0': 0.0, 'time': 8.13, 'compass': -61.75, 'pitch': 1.57, 'roll': 2.59}
{'lipoC2': 0.0, 'temp': 0.0, 'lipoC3S3': 12.22, 'state': 'normal', 'rot1': 46, 'rot0': 61, 'rot3': 0, 'rot2': 0, 'depth': 1.767, 'yaw': 49.71, 'datetime': '2018-12-18 19:56:09.579148', 'mgs': 0, 'flw2': 2.45, 'flw1': 0.12, 'flw0': 0.2, 'time': 8.34, 'compass': -56.29, 'pitch': 0.94, 'roll': 2.83}
{'lipoC2': 0.0, 'temp': 0.0, 'lipoC3S3': 12.21, 'state': 'normal', 'rot1': 46, 'rot0': 64, 'rot3': 0, 'rot2': 0, 'depth': 1.614, 'yaw': 56.78, 'datetime': '2018-12-18 19:56:09.787861', 'mgs': 0, 'flw2': 2.67, 'flw1': 0.0, 'flw0': 0.21, 'time': 8.55, 'compass': -49.22, 'pitch': 1.23, 'roll': 3.15}
{'lipoC2': 0.03, 'temp': 0.0, 'lipoC3S3': 11.84, 'state': 'normal', 'rot1': 46, 'rot0': 67, 'rot3': 0, 'rot2': 0, 'depth': 1.614, 'yaw': 64.78, 'datetime': '2018-12-18 19:56:09.995674', 'mgs': 0, 'flw2': 2.64, 'flw1': 0.35, 'flw0': 0.07, 'time': 8.76, 'compass': -41.22, 'pitch': 1.6, 'roll': 3.53}
{'lipoC2': 0.13, 'temp': 0.0, 'lipoC3S3': 11.98, 'state': 'normal', 'rot1': 46, 'rot0': 70, 'rot3': 0, 'rot2': 0, 'depth': -1.59, 'yaw': 73.53, 'datetime': '2018-12-18 19:56:10.204888', 'mgs': 0, 'flw2': 2.8, 'flw1': 0.47, 'flw0': 0.0, 'time': 8.96, 'compass': -32.47, 'pitch': 1.71, 'roll': 4.15}
{'lipoC2': 0.15, 'temp': 0.0, 'lipoC3S3': 11.81, 'state': 'normal', 'rot1': 47, 'rot0': 73, 'rot3': 0, 'rot2': 0, 'depth': 0.928, 'yaw': 82.26, 'datetime': '2018-12-18 19:56:10.413299', 'mgs': 0, 'flw2': 2.87, 'flw1': 0.15, 'flw0': 0.0, 'time': 9.17, 'compass': -23.74, 'pitch': 1.89, 'roll': 4.74}
{'lipoC2': 0.0, 'temp': 0.0, 'lipoC3S3': 12.04, 'state': 'normal', 'rot1': 48, 'rot0': 75, 'rot3': 0, 'rot2': 0, 'depth': 0.775, 'yaw': 91.89, 'datetime': '2018-12-18 19:56:10.623365', 'mgs': 0, 'flw2': 2.56, 'flw1': 0.41, 'flw0': 0.0, 'time': 9.38, 'compass': -14.1, 'pitch': 2.31, 'roll': 5.26}
{'lipoC2': 0.06, 'temp': 0.0, 'lipoC3S3': 11.81, 'state': 'normal', 'rot1': 48, 'rot0': 78, 'rot3': 0, 'rot2': 0, 'depth': 0.47, 'yaw': 102.0, 'datetime': '2018-12-18 19:56:10.831920', 'mgs': 0, 'flw2': 2.82, 'flw1': 0.0, 'flw0': 1.49, 'time': 9.59, 'compass': -4.0, 'pitch': 2.79, 'roll': 5.74}
{'lipoC2': 0.0, 'temp': 0.0, 'lipoC3S3': 12.21, 'state': 'normal', 'rot1': 50, 'rot0': 80, 'rot3': 0, 'rot2': 0, 'depth': -0.064, 'yaw': 113.33, 'datetime': '2018-12-18 19:56:11.041410', 'mgs': 0, 'flw2': 2.66, 'flw1': 0.0, 'flw0': 3.22, 'time': 9.8, 'compass': 7.33, 'pitch': 2.78, 'roll': 6.41}
{'lipoC2': 0.15, 'temp': 0.0, 'lipoC3S3': 11.97, 'state': 'normal', 'rot1': 53, 'rot0': 82, 'rot3': 0, 'rot2': 0, 'depth': -1.285, 'yaw': 126.44, 'datetime': '2018-12-18 19:56:11.249788', 'mgs': 0, 'flw2': 2.75, 'flw1': 0.0, 'flw0': 3.28, 'time': 10.01, 'compass': 20.44, 'pitch': 2.67, 'roll': 7.22}
{'lipoC2': 0.0, 'temp': 0.0, 'lipoC3S3': 12.02, 'state': 'normal', 'rot1': 55, 'rot0': 85, 'rot3': 0, 'rot2': 0, 'depth': -0.064, 'yaw': 140.26, 'datetime': '2018-12-18 19:56:11.458485', 'mgs': 0, 'flw2': 2.88, 'flw1': 0.0, 'flw0': 3.11, 'time': 10.22, 'compass': 34.26, 'pitch': 3.65, 'roll': 7.74}
{'lipoC2': 0.04, 'temp': 0.0, 'lipoC3S3': 12.05, 'state': 'normal', 'rot1': 57, 'rot0': 88, 'rot3': 0, 'rot2': 0, 'depth': 1.843, 'yaw': 155.56, 'datetime': '2018-12-18 19:56:11.666367', 'mgs': 0, 'flw2': 2.97, 'flw1': 0.0, 'flw0': 0.09, 'time': 10.42, 'compass': 49.56, 'pitch': 5.11, 'roll': 7.81}
{'lipoC2': 0.1, 'temp': 0.0, 'lipoC3S3': 12.01, 'state': 'normal', 'rot1': 57, 'rot0': 90, 'rot3': 0, 'rot2': 0, 'depth': 1.92, 'yaw': 169.9, 'datetime': '2018-12-18 19:56:11.875619', 'mgs': 0, 'flw2': 0.0, 'flw1': 0.41, 'flw0': 0.0, 'time': 10.63, 'compass': 63.9, 'pitch': 6.59, 'roll': 7.21}
{'lipoC2': 0.14, 'temp': 0.0, 'lipoC3S3': 11.8, 'state': 'normal', 'rot1': 57, 'rot0': 90, 'rot3': 0, 'rot2': 0, 'depth': 0.546, 'yaw': -178.13, 'datetime': '2018-12-18 19:56:12.085560', 'mgs': 0, 'flw2': 0.16, 'flw1': 0.0, 'flw0': 0.0, 'time': 10.84, 'compass': 75.87, 'pitch': 5.65, 'roll': 5.74}
{'lipoC2': 0.06, 'temp': 0.0, 'lipoC3S3': 11.83, 'state': 'normal', 'rot1': 57, 'rot0': 90, 'rot3': 0, 'rot2': 0, 'depth': 0.47, 'yaw': -168.55, 'datetime': '2018-12-18 19:56:12.294540', 'mgs': 0, 'flw2': 0.21, 'flw1': 0.0, 'flw0': 0.0, 'time': 11.05, 'compass': 85.45, 'pitch': 3.34, 'roll': 4.1}
{'lipoC2': 0.0, 'temp': 0.0, 'lipoC3S3': 11.97, 'state': 'normal', 'rot1': 57, 'rot0': 90, 'rot3': 0, 'rot2': 0, 'depth': 1.157, 'yaw': -159.58, 'datetime': '2018-12-18 19:56:12.503345', 'mgs': 0, 'flw2': 0.01, 'flw1': 0.0, 'flw0': 0.15, 'time': 11.26, 'compass': 94.43, 'pitch': 1.71, 'roll': 2.78}
{'lipoC2': 0.0, 'temp': 0.0, 'lipoC3S3': 12.19, 'state': 'normal', 'rot1': 57, 'rot0': 90, 'rot3': 0, 'rot2': 0, 'depth': 1.691, 'yaw': -151.35, 'datetime': '2018-12-18 19:56:12.711291', 'mgs': 0, 'flw2': 0.1, 'flw1': 0.32, 'flw0': 0.0, 'time': 11.47, 'compass': 102.65, 'pitch': 1.17, 'roll': 1.98}
{'lipoC2': 0.03, 'temp': 0.0, 'lipoC3S3': 11.87, 'state': 'normal', 'rot1': 57, 'rot0': 90, 'rot3': 0, 'rot2': 0, 'depth': 0.394, 'yaw': -143.81, 'datetime': '2018-12-18 19:56:12.920514', 'mgs': 0, 'flw2': 0.0, 'flw1': 0.35, 'flw0': 0.07, 'time': 11.68, 'compass': 110.2, 'pitch': 0.6, 'roll': 1.54}
{'lipoC2': 0.13, 'temp': 0.0, 'lipoC3S3': 11.98, 'state': 'normal', 'rot1': 57, 'rot0': 90, 'rot3': 0, 'rot2': 0, 'depth': 1.843, 'yaw': -137.23, 'datetime': '2018-12-18 19:56:13.128858', 'mgs': 0, 'flw2': 0.11, 'flw1': 0.32, 'flw0': 0.0, 'time': 11.88, 'compass': 116.78, 'pitch': -0.17, 'roll': 1.36}
{'lipoC2': 0.08, 'temp': 0.0, 'lipoC3S3': 12.04, 'state': 'normal', 'rot1': 57, 'rot0': 90, 'rot3': 0, 'rot2': 0, 'depth': -1.666, 'yaw': -130.82, 'datetime': '2018-12-18 19:56:13.339202', 'mgs': 0, 'flw2': 0.0, 'flw1': 0.44, 'flw0': 0.0, 'time': 12.09, 'compass': 123.18, 'pitch': -0.72, 'roll': 1.41}
{'lipoC2': 0.01, 'temp': 0.0, 'lipoC3S3': 11.87, 'state': 'normal', 'rot1': 57, 'rot0': 90, 'rot3': 0, 'rot2': 0, 'depth': 0.241, 'yaw': -124.84, 'datetime': '2018-12-18 19:56:13.548446', 'mgs': 0, 'flw2': 0.0, 'flw1': 0.18, 'flw0': 0.16, 'time': 12.3, 'compass': 129.16, 'pitch': -0.76, 'roll': 1.33}
{'lipoC2': 0.0, 'temp': 0.0, 'lipoC3S3': 12.22, 'state': 'normal', 'rot1': 57, 'rot0': 90, 'rot3': 0, 'rot2': 0, 'depth': 1.767, 'yaw': -119.21, 'datetime': '2018-12-18 19:56:13.757509', 'mgs': 0, 'flw2': 0.0, 'flw1': 0.18, 'flw0': 0.2, 'time': 12.51, 'compass': 134.79, 'pitch': -0.69, 'roll': 1.25}
{'lipoC2': 0.08, 'temp': 0.0, 'lipoC3S3': 12.04, 'state': 'normal', 'rot1': 57, 'rot0': 90, 'rot3': 0, 'rot2': 0, 'depth': 1.92, 'yaw': -113.88, 'datetime': '2018-12-18 19:56:13.965461', 'mgs': 0, 'flw2': 0.0, 'flw1': 0.35, 'flw0': 0.0, 'time': 12.72, 'compass': 140.12, 'pitch': -0.66, 'roll': 1.14}
{'lipoC2': 0.13, 'temp': 0.0, 'lipoC3S3': 12.0, 'state': 'normal', 'rot1': 57, 'rot0': 90, 'rot3': 0, 'rot2': 0, 'depth': 1.843, 'yaw': -109.05, 'datetime': '2018-12-18 19:56:14.174836', 'mgs': 0, 'flw2': 0.0, 'flw1': 0.44, 'flw0': 0.0, 'time': 12.93, 'compass': 144.95, 'pitch': -0.8, 'roll': 1.03}
{'lipoC2': 0.0, 'temp': 0.0, 'lipoC3S3': 12.19, 'state': 'normal', 'rot1': 57, 'rot0': 90, 'rot3': 0, 'rot2': 0, 'depth': 1.538, 'yaw': -104.24, 'datetime': '2018-12-18 19:56:14.382281', 'mgs': 0, 'flw2': 0.09, 'flw1': 0.32, 'flw0': 0.0, 'time': 13.14, 'compass': 149.76, 'pitch': -0.76, 'roll': 0.95}
{'lipoC2': 0.01, 'temp': 0.0, 'lipoC3S3': 11.85, 'state': 'normal', 'rot1': 57, 'rot0': 90, 'rot3': 0, 'rot2': 0, 'depth': 0.317, 'yaw': -99.64, 'datetime': '2018-12-18 19:56:14.591411', 'mgs': 0, 'flw2': 0.17, 'flw1': 0.0, 'flw0': 0.0, 'time': 13.34, 'compass': 154.36, 'pitch': -0.57, 'roll': 0.87}
{'lipoC2': 0.0, 'temp': 0.0, 'lipoC3S3': 12.16, 'state': 'normal', 'rot1': 57, 'rot0': 90, 'rot3': 0, 'rot2': 0, 'depth': 1.614, 'yaw': -95.24, 'datetime': '2018-12-18 19:56:14.800032', 'mgs': 0, 'flw2': 0.0, 'flw1': 0.32, 'flw0': 0.09, 'time': 13.55, 'compass': 158.76, 'pitch': -0.55, 'roll': 0.9}
{'lipoC2': 0.0, 'temp': 0.0, 'lipoC3S3': 12.01, 'state': 'normal', 'rot1': 57, 'rot0': 90, 'rot3': 0, 'rot2': 0, 'depth': -0.217, 'yaw': -91.02, 'datetime': '2018-12-18 19:56:15.009877', 'mgs': 0, 'flw2': 0.0, 'flw1': 0.47, 'flw0': 0.0, 'time': 13.76, 'compass': 162.98, 'pitch': -0.73, 'roll': 0.94}
{'lipoC2': 0.13, 'temp': 0.0, 'lipoC3S3': 12.0, 'state': 'normal', 'rot1': 57, 'rot0': 90, 'rot3': 0, 'rot2': 0, 'depth': 1.92, 'yaw': -87.15, 'datetime': '2018-12-18 19:56:15.218667', 'mgs': 0, 'flw2': 0.02, 'flw1': 0.0, 'flw0': 0.12, 'time': 13.97, 'compass': 166.85, 'pitch': -0.89, 'roll': 1.0}
{'lipoC2': 0.0, 'temp': 0.0, 'lipoC3S3': 12.06, 'state': 'normal', 'rot1': 57, 'rot0': 90, 'rot3': 0, 'rot2': 0, 'depth': -1.514, 'yaw': -83.23, 'datetime': '2018-12-18 19:56:15.426191', 'mgs': 0, 'flw2': 0.21, 'flw1': 0.0, 'flw0': 0.0, 'time': 14.18, 'compass': 170.78, 'pitch': -1.0, 'roll': 1.0}
{'lipoC2': 0.0, 'temp': 0.0, 'lipoC3S3': 12.02, 'state': 'normal', 'rot1': 57, 'rot0': 90, 'rot3': 0, 'rot2': 0, 'depth': 1.004, 'yaw': -79.39, 'datetime': '2018-12-18 19:56:15.635104', 'mgs': 0, 'flw2': 0.0, 'flw1': 0.44, 'flw0': 0.0, 'time': 14.39, 'compass': 174.61, 'pitch': -0.97, 'roll': 0.96}
{'lipoC2': 0.08, 'temp': 0.0, 'lipoC3S3': 12.02, 'state': 'normal', 'rot1': 57, 'rot0': 90, 'rot3': 0, 'rot2': 0, 'depth': -1.666, 'yaw': -75.83, 'datetime': '2018-12-18 19:56:15.846278', 'mgs': 0, 'flw2': 0.0, 'flw1': 0.47, 'flw0': 0.0, 'time': 14.6, 'compass': 178.17, 'pitch': -0.92, 'roll': 0.92}
{'lipoC2': 0.0, 'temp': 0.0, 'lipoC3S3': 12.02, 'state': 'normal', 'rot1': 57, 'rot0': 90, 'rot3': 0, 'rot2': 0, 'depth': -0.217, 'yaw': -72.22, 'datetime': '2018-12-18 19:56:16.057939', 'mgs': 0, 'flw2': 0.09, 'flw1': 0.0, 'flw0': 0.06, 'time': 14.8, 'compass': -178.22, 'pitch': -0.99, 'roll': 0.9}
{'lipoC2': 0.1, 'temp': 0.0, 'lipoC3S3': 11.81, 'state': 'normal', 'rot1': 57, 'rot0': 90, 'rot3': 0, 'rot2': 0, 'depth': 0.394, 'yaw': -68.71, 'datetime': '2018-12-18 19:56:16.265409', 'mgs': 0, 'flw2': 0.17, 'flw1': 0.09, 'flw0': 0.0, 'time': 15.01, 'compass': -174.71, 'pitch': -1.14, 'roll': 0.88}
{'lipoC2': 0.01, 'temp': 0.0, 'lipoC3S3': 11.87, 'state': 'normal', 'rot1': 57, 'rot0': 90, 'rot3': 0, 'rot2': 0, 'depth': 1.462, 'yaw': -65.32, 'datetime': '2018-12-18 19:56:16.476407', 'mgs': 0, 'flw2': 0.0, 'flw1': 0.23, 'flw0': 0.13, 'time': 15.22, 'compass': -171.32, 'pitch': -1.2, 'roll': 0.93}
{'lipoC2': 0.08, 'temp': 0.0, 'lipoC3S3': 11.81, 'state': 'normal', 'rot1': 57, 'rot0': 90, 'rot3': 0, 'rot2': 0, 'depth': 0.47, 'yaw': -62.02, 'datetime': '2018-12-18 19:56:16.680801', 'mgs': 0, 'flw2': 0.18, 'flw1': 0.0, 'flw0': 0.0, 'time': 15.43, 'compass': -168.02, 'pitch': -1.15, 'roll': 1.0}
{'lipoC2': 0.0, 'temp': 0.0, 'lipoC3S3': 12.22, 'state': 'normal', 'rot1': 57, 'rot0': 90, 'rot3': 0, 'rot2': 0, 'depth': 0.241, 'yaw': -58.98, 'datetime': '2018-12-18 19:56:16.891621', 'mgs': 0, 'flw2': 0.0, 'flw1': 0.12, 'flw0': 0.21, 'time': 15.64, 'compass': -164.98, 'pitch': -1.09, 'roll': 1.05}
{'lipoC2': 0.0, 'temp': 0.0, 'lipoC3S3': 12.22, 'state': 'normal', 'rot1': 57, 'rot0': 90, 'rot3': 0, 'rot2': 0, 'depth': 0.165, 'yaw': -55.88, 'datetime': '2018-12-18 19:56:17.098774', 'mgs': 0, 'flw2': 0.0, 'flw1': 0.0, 'flw0': 0.21, 'time': 15.85, 'compass': -161.88, 'pitch': -1.07, 'roll': 1.04}
{'lipoC2': 0.0, 'temp': 0.0, 'lipoC3S3': 12.19, 'state': 'normal', 'rot1': 57, 'rot0': 90, 'rot3': 0, 'rot2': 0, 'depth': 1.767, 'yaw': -52.87, 'datetime': '2018-12-18 19:56:17.308162', 'mgs': 0, 'flw2': 0.18, 'flw1': 0.09, 'flw0': 0.0, 'time': 16.06, 'compass': -158.87, 'pitch': -1.15, 'roll': 0.95}
{'lipoC2': 0.04, 'temp': 0.0, 'lipoC3S3': 11.81, 'state': 'normal', 'rot1': 57, 'rot0': 90, 'rot3': 0, 'rot2': 0, 'depth': 0.317, 'yaw': -49.93, 'datetime': '2018-12-18 19:56:17.518299', 'mgs': 0, 'flw2': 0.2, 'flw1': 0.0, 'flw0': 0.0, 'time': 16.26, 'compass': -155.92, 'pitch': -1.12, 'roll': 0.9}
{'lipoC2': 0.09, 'temp': 0.0, 'lipoC3S3': 12.02, 'state': 'normal', 'rot1': 57, 'rot0': 90, 'rot3': 0, 'rot2': 0, 'depth': -1.819, 'yaw': -47.21, 'datetime': '2018-12-18 19:56:17.727615', 'mgs': 0, 'flw2': 0.09, 'flw1': 0.44, 'flw0': 0.1, 'time': 16.47, 'compass': -153.21, 'pitch': -1.07, 'roll': 0.85}
{'lipoC2': 0.0, 'temp': 0.0, 'lipoC3S3': 12.0, 'state': 'normal', 'rot1': 57, 'rot0': 90, 'rot3': 0, 'rot2': 0, 'depth': -0.064, 'yaw': -44.42, 'datetime': '2018-12-18 19:56:17.937588', 'mgs': 0, 'flw2': 0.11, 'flw1': 0.38, 'flw0': 0.0, 'time': 16.68, 'compass': -150.42, 'pitch': -1.02, 'roll': 0.84}
{'lipoC2': 0.04, 'temp': 0.0, 'lipoC3S3': 11.83, 'state': 'normal', 'rot1': 57, 'rot0': 90, 'rot3': 0, 'rot2': 0, 'depth': 1.309, 'yaw': -41.69, 'datetime': '2018-12-18 19:56:18.144141', 'mgs': 0, 'flw2': 0.2, 'flw1': 0.0, 'flw0': 0.0, 'time': 16.89, 'compass': -147.69, 'pitch': -0.98, 'roll': 0.86}
{'lipoC2': 0.0, 'temp': 0.0, 'lipoC3S3': 12.01, 'state': 'normal', 'rot1': 57, 'rot0': 90, 'rot3': 0, 'rot2': 0, 'depth': 0.699, 'yaw': -39.09, 'datetime': '2018-12-18 19:56:18.354434', 'mgs': 0, 'flw2': 0.09, 'flw1': 0.41, 'flw0': 3.45, 'time': 17.1, 'compass': -145.08, 'pitch': -0.98, 'roll': 0.88}
{'lipoC2': 0.15, 'temp': 0.0, 'lipoC3S3': 11.96, 'state': 'normal', 'rot1': 60, 'rot0': 90, 'rot3': 0, 'rot2': 0, 'depth': -1.132, 'yaw': -38.78, 'datetime': '2018-12-18 19:56:18.565342', 'mgs': 0, 'flw2': 0.0, 'flw1': 0.0, 'flw0': 3.0, 'time': 17.31, 'compass': -144.78, 'pitch': 0.17, 'roll': 0.29}
{'lipoC2': 0.0, 'temp': 0.0, 'lipoC3S3': 12.01, 'state': 'normal', 'rot1': 62, 'rot0': 90, 'rot3': 0, 'rot2': 0, 'depth': 0.546, 'yaw': -41.59, 'datetime': '2018-12-18 19:56:18.776023', 'mgs': 0, 'flw2': 0.1, 'flw1': 0.26, 'flw0': 2.97, 'time': 17.52, 'compass': -147.59, 'pitch': 1.65, 'roll': -0.46}
{'lipoC2': 0.02, 'temp': 0.0, 'lipoC3S3': 11.88, 'state': 'normal', 'rot1': 64, 'rot0': 90, 'rot3': 0, 'rot2': 0, 'depth': 1.385, 'yaw': -46.88, 'datetime': '2018-12-18 19:56:18.983264', 'mgs': 0, 'flw2': 0.0, 'flw1': 0.47, 'flw0': 3.03, 'time': 17.73, 'compass': -152.88, 'pitch': 1.79, 'roll': -0.91}
{'lipoC2': 0.0, 'temp': 0.0, 'lipoC3S3': 12.22, 'state': 'normal', 'rot1': 67, 'rot0': 90, 'rot3': 0, 'rot2': 0, 'depth': 1.691, 'yaw': -53.81, 'datetime': '2018-12-18 19:56:19.192147', 'mgs': 0, 'flw2': 0.18, 'flw1': 0.0, 'flw0': 2.73, 'time': 17.93, 'compass': -159.8, 'pitch': 1.02, 'roll': -1.02}
{'lipoC2': 0.0, 'temp': 0.0, 'lipoC3S3': 12.21, 'state': 'normal', 'rot1': 69, 'rot0': 90, 'rot3': 0, 'rot2': 0, 'depth': -0.369, 'yaw': -61.65, 'datetime': '2018-12-18 19:56:19.397466', 'mgs': 0, 'flw2': 0.0, 'flw1': 0.26, 'flw0': 2.99, 'time': 18.14, 'compass': -167.65, 'pitch': 0.83, 'roll': -0.92}
{'lipoC2': 0.0, 'temp': 0.0, 'lipoC3S3': 12.21, 'state': 'normal', 'rot1': 72, 'rot0': 90, 'rot3': 0, 'rot2': 0, 'depth': -0.217, 'yaw': -69.7, 'datetime': '2018-12-18 19:56:19.605796', 'mgs': 0, 'flw2': 3.04, 'flw1': 0.12, 'flw0': 3.08, 'time': 18.35, 'compass': -175.69, 'pitch': 1.48, 'roll': -0.77}
{'lipoC2': 0.0, 'temp': 0.0, 'lipoC3S3': 12.19, 'state': 'normal', 'rot1': 74, 'rot0': 92, 'rot3': 0, 'rot2': 0, 'depth': 0.241, 'yaw': -77.37, 'datetime': '2018-12-18 19:56:19.814840', 'mgs': 0, 'flw2': 2.86, 'flw1': 0.0, 'flw0': 3.04, 'time': 18.56, 'compass': 176.63, 'pitch': 2.79, 'roll': -0.53}
{'lipoC2': 0.0, 'temp': 0.0, 'lipoC3S3': 12.18, 'state': 'normal', 'rot1': 76, 'rot0': 94, 'rot3': 0, 'rot2': 0, 'depth': 2.377, 'yaw': -82.84, 'datetime': '2018-12-18 19:56:20.022471', 'mgs': 0, 'flw2': 3.13, 'flw1': 0.0, 'flw0': 2.45, 'time': 18.77, 'compass': 171.17, 'pitch': 3.99, 'roll': -0.39}
{'lipoC2': 0.0, 'temp': 0.0, 'lipoC3S3': 12.21, 'state': 'normal', 'rot1': 79, 'rot0': 97, 'rot3': 0, 'rot2': 0, 'depth': 1.691, 'yaw': -86.86, 'datetime': '2018-12-18 19:56:20.232042', 'mgs': 0, 'flw2': 2.75, 'flw1': 0.0, 'flw0': 3.02, 'time': 18.98, 'compass': 167.15, 'pitch': 4.37, 'roll': -0.44}
{'lipoC2': 0.0, 'temp': 0.0, 'lipoC3S3': 11.81, 'state': 'normal', 'rot1': 81, 'rot0': 99, 'rot3': 0, 'rot2': 0, 'depth': -0.751, 'yaw': -89.85, 'datetime': '2018-12-18 19:56:20.442848', 'mgs': 0, 'flw2': 1.9, 'flw1': 0.0, 'flw0': 2.64, 'time': 19.18, 'compass': 164.16, 'pitch': 4.03, 'roll': -0.73}
{'lipoC2': 0.02, 'temp': 0.0, 'lipoC3S3': 11.84, 'state': 'normal', 'rot1': 83, 'rot0': 101, 'rot3': 0, 'rot2': 0, 'depth': 0.394, 'yaw': -92.64, 'datetime': '2018-12-18 19:56:20.653377', 'mgs': 0, 'flw2': 1.54, 'flw1': 0.0, 'flw0': 2.69, 'time': 19.39, 'compass': 161.37, 'pitch': 3.35, 'roll': -1.07}
{'lipoC2': 0.0, 'temp': 0.0, 'lipoC3S3': 11.98, 'state': 'normal', 'rot1': 86, 'rot0': 103, 'rot3': 0, 'rot2': 0, 'depth': 0.851, 'yaw': -96.14, 'datetime': '2018-12-18 19:56:20.864413', 'mgs': 0, 'flw2': 1.76, 'flw1': 0.0, 'flw0': 2.98, 'time': 19.6, 'compass': 157.86, 'pitch': 2.87, 'roll': -1.48}
{'lipoC2': 0.0, 'temp': 0.0, 'lipoC3S3': 12.18, 'state': 'normal', 'rot1': 88, 'rot0': 105, 'rot3': 0, 'rot2': 0, 'depth': 1.996, 'yaw': -99.73, 'datetime': '2018-12-18 19:56:21.071992', 'mgs': 0, 'flw2': 2.06, 'flw1': 0.0, 'flw0': 2.61, 'time': 19.81, 'compass': 154.28, 'pitch': 3.04, 'roll': -1.74}
{'lipoC2': 0.12, 'temp': 0.0, 'lipoC3S3': 12.0, 'state': 'normal', 'rot1': 90, 'rot0': 107, 'rot3': 0, 'rot2': 0, 'depth': -1.59, 'yaw': -102.99, 'datetime': '2018-12-18 19:56:21.280704', 'mgs': 0, 'flw2': 1.89, 'flw1': 0.0, 'flw0': 2.92, 'time': 20.02, 'compass': 151.02, 'pitch': 3.3, 'roll': -1.73}
{'lipoC2': 0.0, 'temp': 0.0, 'lipoC3S3': 12.21, 'state': 'normal', 'rot1': 92, 'rot0': 109, 'rot3': 0, 'rot2': 0, 'depth': 0.241, 'yaw': -105.96, 'datetime': '2018-12-18 19:56:21.492462', 'mgs': 0, 'flw2': 1.98, 'flw1': 0.21, 'flw0': 3.08, 'time': 20.23, 'compass': 148.05, 'pitch': 3.44, 'roll': -1.66}
{'lipoC2': 0.01, 'temp': 0.0, 'lipoC3S3': 12.08, 'state': 'normal', 'rot1': 95, 'rot0': 111, 'rot3': 0, 'rot2': 0, 'depth': -0.598, 'yaw': -109.06, 'datetime': '2018-12-18 19:56:21.702652', 'mgs': 0, 'flw2': 1.97, 'flw1': 0.0, 'flw0': 2.75, 'time': 20.44, 'compass': 144.94, 'pitch': 3.42, 'roll': -1.5}
{'lipoC2': 0.0, 'temp': 0.0, 'lipoC3S3': 11.96, 'state': 'normal', 'rot1': 97, 'rot0': 113, 'rot3': 0, 'rot2': 0, 'depth': 0.851, 'yaw': -112.2, 'datetime': '2018-12-18 19:56:21.911296', 'mgs': 0, 'flw2': 1.54, 'flw1': 0.06, 'flw0': 2.64, 'time': 20.65, 'compass': 141.8, 'pitch': 3.18, 'roll': -1.3}
{'lipoC2': 0.0, 'temp': 0.0, 'lipoC3S3': 11.85, 'state': 'normal', 'rot1': 99, 'rot0': 115, 'rot3': 0, 'rot2': 0, 'depth': -0.293, 'yaw': -115.65, 'datetime': '2018-12-18 19:56:22.120327', 'mgs': 0, 'flw2': 1.97, 'flw1': 0.0, 'flw0': 2.58, 'time': 20.85, 'compass': 138.36, 'pitch': 3.16, 'roll': -1.22}
{'lipoC2': 0.0, 'temp': 0.0, 'lipoC3S3': 12.01, 'state': 'normal', 'rot1': 101, 'rot0': 117, 'rot3': 0, 'rot2': 0, 'depth': 0.241, 'yaw': -119.0, 'datetime': '2018-12-18 19:56:22.327838', 'mgs': 0, 'flw2': 1.95, 'flw1': 0.29, 'flw0': 2.71, 'time': 21.06, 'compass': 135.0, 'pitch': 3.19, 'roll': -1.47}
{'lipoC2': 0.09, 'temp': 0.0, 'lipoC3S3': 12.0, 'state': 'normal', 'rot1': 104, 'rot0': 119, 'rot3': 0, 'rot2': 0, 'depth': 1.92, 'yaw': -121.79, 'datetime': '2018-12-18 19:56:22.537296', 'mgs': 0, 'flw2': 1.92, 'flw1': 0.0, 'flw0': 2.86, 'time': 21.27, 'compass': 132.21, 'pitch': 3.21, 'roll': -1.81}
{'lipoC2': 0.0, 'temp': 0.0, 'lipoC3S3': 11.89, 'state': 'normal', 'rot1': 106, 'rot0': 121, 'rot3': 0, 'rot2': 0, 'depth': 1.233, 'yaw': -124.47, 'datetime': '2018-12-18 19:56:22.745614', 'mgs': 0, 'flw2': 1.76, 'flw1': 0.0, 'flw0': 3.04, 'time': 21.48, 'compass': 129.53, 'pitch': 3.53, 'roll': -1.99}
{'lipoC2': 0.11, 'temp': 0.0, 'lipoC3S3': 12.17, 'state': 'normal', 'rot1': 109, 'rot0': 123, 'rot3': 0, 'rot2': 0, 'depth': -1.59, 'yaw': -127.13, 'datetime': '2018-12-18 19:56:22.954994', 'mgs': 0, 'flw2': 1.9, 'flw1': 0.21, 'flw0': 2.7, 'time': 21.69, 'compass': 126.87, 'pitch': 3.75, 'roll': -1.85}
{'lipoC2': 0.04, 'temp': 0.0, 'lipoC3S3': 11.85, 'state': 'normal', 'rot1': 111, 'rot0': 125, 'rot3': 0, 'rot2': 0, 'depth': 0.47, 'yaw': -129.77, 'datetime': '2018-12-18 19:56:23.161920', 'mgs': 0, 'flw2': 1.95, 'flw1': 0.0, 'flw0': 2.8, 'time': 21.9, 'compass': 124.23, 'pitch': 3.71, 'roll': -1.68}
{'lipoC2': 0.0, 'temp': 0.0, 'lipoC3S3': 11.97, 'state': 'normal', 'rot1': 113, 'rot0': 127, 'rot3': 0, 'rot2': 0, 'depth': 0.699, 'yaw': -132.67, 'datetime': '2018-12-18 19:56:23.370271', 'mgs': 0, 'flw2': 1.88, 'flw1': 0.0, 'flw0': 2.92, 'time': 22.11, 'compass': 121.33, 'pitch': 3.65, 'roll': -1.4}
{'lipoC2': 0.0, 'temp': 0.0, 'lipoC3S3': 12.21, 'state': 'normal', 'rot1': 115, 'rot0': 129, 'rot3': 0, 'rot2': 0, 'depth': 0.089, 'yaw': -135.75, 'datetime': '2018-12-18 19:56:23.579914', 'mgs': 0, 'flw2': 1.48, 'flw1': 0.12, 'flw0': 3.09, 'time': 22.32, 'compass': 118.25, 'pitch': 3.59, 'roll': -1.16}
{'lipoC2': 0.0, 'temp': 0.0, 'lipoC3S3': 11.85, 'state': 'normal', 'rot1': 118, 'rot0': 131, 'rot3': 0, 'rot2': 0, 'depth': -0.293, 'yaw': -138.75, 'datetime': '2018-12-18 19:56:23.790903', 'mgs': 0, 'flw2': 1.97, 'flw1': 0.0, 'flw0': 2.55, 'time': 22.53, 'compass': 115.25, 'pitch': 3.53, 'roll': -1.18}
{'lipoC2': 0.03, 'temp': 0.0, 'lipoC3S3': 12.06, 'state': 'normal', 'rot1': 120, 'rot0': 133, 'rot3': 0, 'rot2': 0, 'depth': 1.843, 'yaw': -141.89, 'datetime': '2018-12-18 19:56:23.999221', 'mgs': 0, 'flw2': 1.84, 'flw1': 0.47, 'flw0': 2.76, 'time': 22.74, 'compass': 112.11, 'pitch': 3.5, 'roll': -1.36}
{'lipoC2': 0.12, 'temp': 0.0, 'lipoC3S3': 12.01, 'state': 'normal', 'rot1': 122, 'rot0': 135, 'rot3': 0, 'rot2': 0, 'depth': 1.92, 'yaw': -144.97, 'datetime': '2018-12-18 19:56:24.212951', 'mgs': 0, 'flw2': 2.01, 'flw1': 0.23, 'flw0': 2.71, 'time': 22.95, 'compass': 109.03, 'pitch': 3.69, 'roll': -1.64}
{'lipoC2': 0.0, 'temp': 0.0, 'lipoC3S3': 12.12, 'state': 'normal', 'rot1': 125, 'rot0': 138, 'rot3': 0, 'rot2': 0, 'depth': 1.767, 'yaw': -148.13, 'datetime': '2018-12-18 19:56:24.424596', 'mgs': 0, 'flw2': 2.04, 'flw1': 0.0, 'flw0': 2.66, 'time': 23.16, 'compass': 105.87, 'pitch': 3.83, 'roll': -1.78}
{'lipoC2': 0.03, 'temp': 0.0, 'lipoC3S3': 12.05, 'state': 'normal', 'rot1': 127, 'rot0': 140, 'rot3': 0, 'rot2': 0, 'depth': -0.903, 'yaw': -151.1, 'datetime': '2018-12-18 19:56:24.630687', 'mgs': 0, 'flw2': 1.89, 'flw1': 0.41, 'flw0': 2.97, 'time': 23.36, 'compass': 102.9, 'pitch': 3.84, 'roll': -1.71}
{'lipoC2': 0.09, 'temp': 0.0, 'lipoC3S3': 11.81, 'state': 'normal', 'rot1': 129, 'rot0': 141, 'rot3': 0, 'rot2': 0, 'depth': 1.385, 'yaw': -154.03, 'datetime': '2018-12-18 19:56:24.840444', 'mgs': 0, 'flw2': 1.76, 'flw1': 0.44, 'flw0': 2.86, 'time': 23.57, 'compass': 99.97, 'pitch': 3.82, 'roll': -1.71}
{'lipoC2': 0.0, 'temp': 0.0, 'lipoC3S3': 12.19, 'state': 'normal', 'rot1': 131, 'rot0': 143, 'rot3': 0, 'rot2': 0, 'depth': 2.072, 'yaw': -157.27, 'datetime': '2018-12-18 19:56:25.051767', 'mgs': 0, 'flw2': 1.62, 'flw1': 0.41, 'flw0': 2.95, 'time': 23.78, 'compass': 96.74, 'pitch': 3.83, 'roll': -1.67}
{'lipoC2': 0.0, 'temp': 0.0, 'lipoC3S3': 12.0, 'state': 'normal', 'rot1': 134, 'rot0': 145, 'rot3': 0, 'rot2': 0, 'depth': 0.699, 'yaw': -160.69, 'datetime': '2018-12-18 19:56:25.259171', 'mgs': 0, 'flw2': 1.93, 'flw1': 0.0, 'flw0': 2.93, 'time': 23.99, 'compass': 93.32, 'pitch': 3.85, 'roll': -1.62}
{'lipoC2': 0.04, 'temp': 0.0, 'lipoC3S3': 11.87, 'state': 'normal', 'rot1': 137, 'rot0': 148, 'rot3': 0, 'rot2': 0, 'depth': 1.385, 'yaw': -166.12, 'datetime': '2018-12-18 19:56:25.570712', 'mgs': 0, 'flw2': 1.79, 'flw1': 0.44, 'flw0': 2.95, 'time': 24.31, 'compass': 87.89, 'pitch': 3.87, 'roll': -1.36}
{'lipoC2': 0.0, 'temp': 0.0, 'lipoC3S3': 11.98, 'state': 'normal', 'rot1': 139, 'rot0': 151, 'rot3': 0, 'rot2': 0, 'depth': 0.775, 'yaw': -169.88, 'datetime': '2018-12-18 19:56:25.779130', 'mgs': 0, 'flw2': 1.87, 'flw1': 0.0, 'flw0': 3.0, 'time': 24.52, 'compass': 84.12, 'pitch': 3.89, 'roll': -1.39}
{'lipoC2': 0.0, 'temp': 0.0, 'lipoC3S3': 12.05, 'state': 'normal', 'rot1': 141, 'rot0': 153, 'rot3': 0, 'rot2': 0, 'depth': 1.309, 'yaw': -173.68, 'datetime': '2018-12-18 19:56:25.988736', 'mgs': 0, 'flw2': 1.93, 'flw1': 0.44, 'flw0': 2.93, 'time': 24.72, 'compass': 80.32, 'pitch': 3.9, 'roll': -1.58}
{'lipoC2': 0.0, 'temp': 0.0, 'lipoC3S3': 12.01, 'state': 'normal', 'rot1': 144, 'rot0': 155, 'rot3': 0, 'rot2': 0, 'depth': 1.08, 'yaw': -177.39, 'datetime': '2018-12-18 19:56:26.201585', 'mgs': 0, 'flw2': 2.03, 'flw1': 0.18, 'flw0': 2.64, 'time': 24.93, 'compass': 76.61, 'pitch': 3.9, 'roll': -1.76}
{'lipoC2': 0.14, 'temp': 0.0, 'lipoC3S3': 11.79, 'state': 'normal', 'rot1': 146, 'rot0': 157, 'rot3': 0, 'rot2': 0, 'depth': 0.928, 'yaw': 178.96, 'datetime': '2018-12-18 19:56:26.409355', 'mgs': 0, 'flw2': 2.01, 'flw1': 0.0, 'flw0': 2.64, 'time': 25.14, 'compass': 72.96, 'pitch': 3.88, 'roll': -2.03}
{'lipoC2': 0.1, 'temp': 0.0, 'lipoC3S3': 12.01, 'state': 'normal', 'rot1': 149, 'rot0': 159, 'rot3': 0, 'rot2': 0, 'depth': -1.59, 'yaw': 175.44, 'datetime': '2018-12-18 19:56:26.618810', 'mgs': 0, 'flw2': 2.64, 'flw1': 0.09, 'flw0': 2.73, 'time': 25.35, 'compass': 69.44, 'pitch': 3.88, 'roll': -2.13}
{'lipoC2': 0.0, 'temp': 0.0, 'lipoC3S3': 12.21, 'state': 'normal', 'rot1': 151, 'rot0': 161, 'rot3': 0, 'rot2': 0, 'depth': 0.317, 'yaw': 171.91, 'datetime': '2018-12-18 19:56:26.828241', 'mgs': 0, 'flw2': 2.43, 'flw1': 0.23, 'flw0': 0.22, 'time': 25.56, 'compass': 65.91, 'pitch': 4.03, 'roll': -1.96}
{'lipoC2': 0.09, 'temp': 0.0, 'lipoC3S3': 12.01, 'state': 'normal', 'rot1': 151, 'rot0': 164, 'rot3': 0, 'rot2': 0, 'depth': -1.514, 'yaw': 170.57, 'datetime': '2018-12-18 19:56:27.038352', 'mgs': 0, 'flw2': 2.78, 'flw1': 0.32, 'flw0': 0.0, 'time': 25.77, 'compass': 64.57, 'pitch': 3.0, 'roll': -1.46}
{'lipoC2': 0.11, 'temp': 0.0, 'lipoC3S3': 12.0, 'state': 'normal', 'rot1': 151, 'rot0': 166, 'rot3': 0, 'rot2': 0, 'depth': -1.819, 'yaw': 171.72, 'datetime': '2018-12-18 19:56:27.247604', 'mgs': 0, 'flw2': 2.8, 'flw1': 0.0, 'flw0': 0.18, 'time': 25.98, 'compass': 65.72, 'pitch': 1.44, 'roll': -0.68}
{'lipoC2': 0.0, 'temp': 0.0, 'lipoC3S3': 12.1, 'state': 'normal', 'rot1': 151, 'rot0': 169, 'rot3': 0, 'rot2': 0, 'depth': 1.996, 'yaw': 174.48, 'datetime': '2018-12-18 19:56:27.456494', 'mgs': 0, 'flw2': 2.7, 'flw1': 0.44, 'flw0': 0.0, 'time': 26.19, 'compass': 68.48, 'pitch': 0.9, 'roll': -0.06}
{'lipoC2': 0.03, 'temp': 0.0, 'lipoC3S3': 11.87, 'state': 'normal', 'rot1': 151, 'rot0': 171, 'rot3': 0, 'rot2': 0, 'depth': 1.462, 'yaw': 178.21, 'datetime': '2018-12-18 19:56:27.662665', 'mgs': 0, 'flw2': 2.72, 'flw1': 0.38, 'flw0': 0.06, 'time': 26.4, 'compass': 72.21, 'pitch': 1.03, 'roll': 0.29}
{'lipoC2': 0.0, 'temp': 0.0, 'lipoC3S3': 12.12, 'state': 'normal', 'rot1': 151, 'rot0': 174, 'rot3': 0, 'rot2': 0, 'depth': 1.691, 'yaw': -176.82, 'datetime': '2018-12-18 19:56:27.873144', 'mgs': 0, 'flw2': 2.88, 'flw1': 0.0, 'flw0': 0.0, 'time': 26.61, 'compass': 77.18, 'pitch': 1.18, 'roll': 0.78}
{'lipoC2': 0.11, 'temp': 0.0, 'lipoC3S3': 12.01, 'state': 'normal', 'rot1': 151, 'rot0': 176, 'rot3': 0, 'rot2': 0, 'depth': -1.666, 'yaw': -170.88, 'datetime': '2018-12-18 19:56:28.084007', 'mgs': 0, 'flw2': 2.69, 'flw1': 0.0, 'flw0': 0.22, 'time': 26.82, 'compass': 83.12, 'pitch': 0.88, 'roll': 1.43}
{'lipoC2': 0.0, 'temp': 0.0, 'lipoC3S3': 12.16, 'state': 'normal', 'rot1': 151, 'rot0': 178, 'rot3': 0, 'rot2': 0, 'depth': 1.996, 'yaw': -164.18, 'datetime': '2018-12-18 19:56:28.292631', 'mgs': 0, 'flw2': 2.97, 'flw1': 0.0, 'flw0': 0.06, 'time': 27.02, 'compass': 89.82, 'pitch': 0.69, 'roll': 1.91}
{'lipoC2': 0.0, 'temp': 0.0, 'lipoC3S3': 12.16, 'state': 'normal', 'rot1': 151, 'rot0': 181, 'rot3': 0, 'rot2': 0, 'depth': -1.132, 'yaw': -156.78, 'datetime': '2018-12-18 19:56:28.502042', 'mgs': 0, 'flw2': 2.62, 'flw1': 0.41, 'flw0': 0.04, 'time': 27.23, 'compass': 97.23, 'pitch': 0.94, 'roll': 2.14}
{'lipoC2': 0.0, 'temp': 0.0, 'lipoC3S3': 11.96, 'state': 'normal', 'rot1': 151, 'rot0': 183, 'rot3': 0, 'rot2': 0, 'depth': 0.317, 'yaw': -148.78, 'datetime': '2018-12-18 19:56:28.710705', 'mgs': 0, 'flw2': 2.87, 'flw1': 0.09, 'flw0': 0.0, 'time': 27.44, 'compass': 105.22, 'pitch': 1.26, 'roll': 2.31}
{'lipoC2': 0.0, 'temp': 0.0, 'lipoC3S3': 12.01, 'state': 'normal', 'rot1': 151, 'rot0': 186, 'rot3': 0, 'rot2': 0, 'depth': 0.775, 'yaw': -141.06, 'datetime': '2018-12-18 19:56:28.921274', 'mgs': 0, 'flw2': 2.48, 'flw1': 0.18, 'flw0': 2.92, 'time': 27.65, 'compass': 112.94, 'pitch': 1.58, 'roll': 2.31}
{'lipoC2': 0.16, 'temp': 0.0, 'lipoC3S3': 11.85, 'state': 'normal', 'rot1': 153, 'rot0': 188, 'rot3': 0, 'rot2': 0, 'depth': -1.056, 'yaw': -131.97, 'datetime': '2018-12-18 19:56:29.132245', 'mgs': 0, 'flw2': 2.83, 'flw1': 0.0, 'flw0': 2.65, 'time': 27.86, 'compass': 122.04, 'pitch': 1.23, 'roll': 2.74}
{'lipoC2': 0.0, 'temp': 0.0, 'lipoC3S3': 12.19, 'state': 'normal', 'rot1': 155, 'rot0': 190, 'rot3': 0, 'rot2': 0, 'depth': 0.165, 'yaw': -121.15, 'datetime': '2018-12-18 19:56:29.342104', 'mgs': 0, 'flw2': 2.89, 'flw1': 0.0, 'flw0': 2.77, 'time': 28.07, 'compass': 132.85, 'pitch': 0.53, 'roll': 4.05}
{'lipoC2': 0.0, 'temp': 0.0, 'lipoC3S3': 11.89, 'state': 'normal', 'rot1': 158, 'rot0': 193, 'rot3': 0, 'rot2': 0, 'depth': 0.928, 'yaw': -109.03, 'datetime': '2018-12-18 19:56:29.553438', 'mgs': 0, 'flw2': 2.65, 'flw1': 0.0, 'flw0': 3.15, 'time': 28.28, 'compass': 144.97, 'pitch': 0.86, 'roll': 5.43}
{'lipoC2': 0.12, 'temp': 0.0, 'lipoC3S3': 12.0, 'state': 'normal', 'rot1': 160, 'rot0': 195, 'rot3': 0, 'rot2': 0, 'depth': -1.819, 'yaw': -95.94, 'datetime': '2018-12-18 19:56:29.760775', 'mgs': 0, 'flw2': 2.65, 'flw1': 0.0, 'flw0': 3.31, 'time': 28.49, 'compass': 158.07, 'pitch': 1.55, 'roll': 6.17}
{'lipoC2': 0.0, 'temp': 0.0, 'lipoC3S3': 12.21, 'state': 'normal', 'rot1': 162, 'rot0': 197, 'rot3': 0, 'rot2': 0, 'depth': 1.538, 'yaw': -82.01, 'datetime': '2018-12-18 19:56:29.968510', 'mgs': 0, 'flw2': 0.0, 'flw1': 0.23, 'flw0': 0.23, 'time': 28.7, 'compass': 171.99, 'pitch': 1.71, 'roll': 6.33}
{'lipoC2': 0.11, 'temp': 0.0, 'lipoC3S3': 12.01, 'state': 'normal', 'rot1': 162, 'rot0': 197, 'rot3': 0, 'rot2': 0, 'depth': -1.666, 'yaw': -70.59, 'datetime': '2018-12-18 19:56:30.179459', 'mgs': 0, 'flw2': 0.02, 'flw1': 0.44, 'flw0': 0.0, 'time': 28.91, 'compass': -176.59, 'pitch': 0.56, 'roll': 5.1}
{'lipoC2': 0.0, 'temp': 0.0, 'lipoC3S3': 12.14, 'state': 'normal', 'rot1': 162, 'rot0': 197, 'rot3': 0, 'rot2': 0, 'depth': -1.666, 'yaw': -60.64, 'datetime': '2018-12-18 19:56:30.387894', 'mgs': 0, 'flw2': 0.18, 'flw1': 0.0, 'flw0': 0.0, 'time': 29.12, 'compass': -166.64, 'pitch': -0.84, 'roll': 2.85}
{'lipoC2': 0.0, 'temp': 0.0, 'lipoC3S3': 11.89, 'state': 'normal', 'rot1': 162, 'rot0': 197, 'rot3': 0, 'rot2': 0, 'depth': 0.851, 'yaw': -51.92, 'datetime': '2018-12-18 19:56:30.597332', 'mgs': 0, 'flw2': 0.0, 'flw1': 0.0, 'flw0': 0.22, 'time': 29.33, 'compass': -157.92, 'pitch': -1.19, 'roll': 1.11}
{'lipoC2': 0.0, 'temp': 0.0, 'lipoC3S3': 12.21, 'state': 'normal', 'rot1': 162, 'rot0': 197, 'rot3': 0, 'rot2': 0, 'depth': 1.538, 'yaw': -43.98, 'datetime': '2018-12-18 19:56:30.809076', 'mgs': 0, 'flw2': 0.0, 'flw1': 0.18, 'flw0': 0.2, 'time': 29.53, 'compass': -149.98, 'pitch': -0.8, 'roll': 0.75}
{'lipoC2': 0.13, 'temp': 0.0, 'lipoC3S3': 11.98, 'state': 'normal', 'rot1': 162, 'rot0': 197, 'rot3': 0, 'rot2': 0, 'depth': -1.59, 'yaw': -36.54, 'datetime': '2018-12-18 19:56:31.016136', 'mgs': 0, 'flw2': 0.0, 'flw1': 0.0, 'flw0': 0.17, 'time': 29.74, 'compass': -142.54, 'pitch': -0.58, 'roll': 1.47}
{'lipoC2': 0.0, 'temp': 0.0, 'lipoC3S3': 12.19, 'state': 'normal', 'rot1': 162, 'rot0': 197, 'rot3': 0, 'rot2': 0, 'depth': 1.462, 'yaw': -29.6, 'datetime': '2018-12-18 19:56:31.224265', 'mgs': 0, 'flw2': 0.16, 'flw1': 0.15, 'flw0': 0.0, 'time': 29.95, 'compass': -135.6, 'pitch': -0.97, 'roll': 2.48}
{'lipoC2': 0.0, 'temp': 0.0, 'lipoC3S3': 11.85, 'state': 'normal', 'rot1': 162, 'rot0': 197, 'rot3': 0, 'rot2': 0, 'depth': -0.293, 'yaw': -23.41, 'datetime': '2018-12-18 19:56:31.432504', 'mgs': 0, 'flw2': 0.16, 'flw1': 0.15, 'flw0': 0.0, 'time': 30.16, 'compass': -129.41, 'pitch': -1.21, 'roll': 3.03}
{'lipoC2': 0.0, 'temp': 0.0, 'lipoC3S3': 11.96, 'state': 'normal', 'rot1': 162, 'rot0': 197, 'rot3': 0, 'rot2': 0, 'depth': 0.47, 'yaw': -17.31, 'datetime': '2018-12-18 19:56:31.642687', 'mgs': 0, 'flw2': 0.16, 'flw1': 0.26, 'flw0': 0.0, 'time': 30.37, 'compass': -123.31, 'pitch': -0.98, 'roll': 2.82}
{'lipoC2': 0.0, 'temp': 0.0, 'lipoC3S3': 12.21, 'state': 'normal', 'rot1': 162, 'rot0': 197, 'rot3': 0, 'rot2': 0, 'depth': 1.385, 'yaw': -11.58, 'datetime': '2018-12-18 19:56:31.851073', 'mgs': 0, 'flw2': 0.0, 'flw1': 0.03, 'flw0': 0.2, 'time': 30.58, 'compass': -117.58, 'pitch': -0.75, 'roll': 2.03}
{'lipoC2': 0.0, 'temp': 0.0, 'lipoC3S3': 11.81, 'state': 'normal', 'rot1': 162, 'rot0': 197, 'rot3': 0, 'rot2': 0, 'depth': -0.827, 'yaw': -6.2, 'datetime': '2018-12-18 19:56:32.061830', 'mgs': 0, 'flw2': 0.15, 'flw1': 0.0, 'flw0': 0.0, 'time': 30.79, 'compass': -112.2, 'pitch': -0.67, 'roll': 1.22}
{'lipoC2': 0.11, 'temp': 0.0, 'lipoC3S3': 12.01, 'state': 'normal', 'rot1': 162, 'rot0': 197, 'rot3': 0, 'rot2': 0, 'depth': 1.843, 'yaw': -1.15, 'datetime': '2018-12-18 19:56:32.271268', 'mgs': 0, 'flw2': 0.0, 'flw1': 0.44, 'flw0': 0.0, 'time': 31.0, 'compass': -107.15, 'pitch': -0.85, 'roll': 0.81}
{'lipoC2': 0.0, 'temp': 0.0, 'lipoC3S3': 12.16, 'state': 'normal', 'rot1': 162, 'rot0': 197, 'rot3': 0, 'rot2': 0, 'depth': 1.767, 'yaw': 3.39, 'datetime': '2018-12-18 19:56:32.479435', 'mgs': 0, 'flw2': 0.0, 'flw1': 0.29, 'flw0': 0.1, 'time': 31.2, 'compass': -102.61, 'pitch': -1.02, 'roll': 0.88}
{'lipoC2': 0.1, 'temp': 0.0, 'lipoC3S3': 11.8, 'state': 'normal', 'rot1': 162, 'rot0': 197, 'rot3': 0, 'rot2': 0, 'depth': 0.47, 'yaw': 7.86, 'datetime': '2018-12-18 19:56:32.688791', 'mgs': 0, 'flw2': 0.15, 'flw1': 0.0, 'flw0': 0.0, 'time': 31.41, 'compass': -98.14, 'pitch': -0.99, 'roll': 1.27}
{'lipoC2': 0.0, 'temp': 0.0, 'lipoC3S3': 12.19, 'state': 'normal', 'rot1': 162, 'rot0': 197, 'rot3': 0, 'rot2': 0, 'depth': 1.691, 'yaw': 12.08, 'datetime': '2018-12-18 19:56:32.897080', 'mgs': 0, 'flw2': 0.0, 'flw1': 0.09, 'flw0': 0.0, 'time': 31.62, 'compass': -93.92, 'pitch': -0.88, 'roll': 1.63}
{'lipoC2': 0.05, 'temp': 0.0, 'lipoC3S3': 12.02, 'state': 'normal', 'rot1': 162, 'rot0': 197, 'rot3': 0, 'rot2': 0, 'depth': -1.285, 'yaw': 16.05, 'datetime': '2018-12-18 19:56:33.107801', 'mgs': 0, 'flw2': 0.02, 'flw1': 0.0, 'flw0': 0.11, 'time': 31.83, 'compass': -89.95, 'pitch': -0.83, 'roll': 1.68}
{'lipoC2': 0.02, 'temp': 0.0, 'lipoC3S3': 11.88, 'state': 'normal', 'rot1': 162, 'rot0': 197, 'rot3': 0, 'rot2': 0, 'depth': 0.317, 'yaw': 19.74, 'datetime': '2018-12-18 19:56:33.316719', 'mgs': 0, 'flw2': 0.0, 'flw1': 0.41, 'flw0': 0.05, 'time': 32.04, 'compass': -86.26, 'pitch': -1.12, 'roll': 1.42}
{'lipoC2': 0.0, 'temp': 0.0, 'lipoC3S3': 12.21, 'state': 'normal', 'rot1': 162, 'rot0': 197, 'rot3': 0, 'rot2': 0, 'depth': 0.012, 'yaw': 22.95, 'datetime': '2018-12-18 19:56:33.526284', 'mgs': 0, 'flw2': 0.0, 'flw1': 0.09, 'flw0': 0.21, 'time': 32.25, 'compass': -83.05, 'pitch': -1.41, 'roll': 1.02}
{'lipoC2': 0.0, 'temp': 0.0, 'lipoC3S3': 12.21, 'state': 'normal', 'rot1': 162, 'rot0': 197, 'rot3': 0, 'rot2': 0, 'depth': 0.089, 'yaw': 25.11, 'datetime': '2018-12-18 19:56:33.734534', 'mgs': 0, 'flw2': 0.0, 'flw1': 0.03, 'flw0': 0.22, 'time': 32.46, 'compass': -80.89, 'pitch': -2.77, 'roll': 0.22}
{'lipoC2': 0.0, 'temp': 0.0, 'lipoC3S3': 12.08, 'state': 'normal', 'rot1': 162, 'rot0': 197, 'rot3': 0, 'rot2': 0, 'depth': 1.004, 'yaw': 26.44, 'datetime': '2018-12-18 19:56:33.943911', 'mgs': 0, 'flw2': 0.21, 'flw1': 0.0, 'flw0': 0.0, 'time': 32.67, 'compass': -79.56, 'pitch': -3.87, 'roll': -0.43}
{'lipoC2': 0.05, 'temp': 0.0, 'lipoC3S3': 12.05, 'state': 'normal', 'rot1': 162, 'rot0': 197, 'rot3': 0, 'rot2': 0, 'depth': -1.437, 'yaw': 27.53, 'datetime': '2018-12-18 19:56:34.152853', 'mgs': 0, 'flw2': 0.0, 'flw1': 0.38, 'flw0': 0.0, 'time': 32.88, 'compass': -78.47, 'pitch': -4.06, 'roll': -0.36}
{'lipoC2': 0.0, 'temp': 0.0, 'lipoC3S3': 12.18, 'state': 'normal', 'rot1': 162, 'rot0': 197, 'rot3': 0, 'rot2': 0, 'depth': 1.691, 'yaw': 28.58, 'datetime': '2018-12-18 19:56:34.363426', 'mgs': 0, 'flw2': 0.0, 'flw1': 0.29, 'flw0': 0.11, 'time': 33.09, 'compass': -77.42, 'pitch': -3.95, 'roll': 0.35}
{'lipoC2': 0.06, 'temp': 0.0, 'lipoC3S3': 11.81, 'state': 'normal', 'rot1': 162, 'rot0': 197, 'rot3': 0, 'rot2': 0, 'depth': 1.08, 'yaw': 29.52, 'datetime': '2018-12-18 19:56:34.572416', 'mgs': 0, 'flw2': 0.2, 'flw1': 0.0, 'flw0': 0.0, 'time': 33.3, 'compass': -76.47, 'pitch': -3.73, 'roll': 0.98}
{'lipoC2': 0.08, 'temp': 0.0, 'lipoC3S3': 11.8, 'state': 'normal', 'rot1': 162, 'rot0': 197, 'rot3': 0, 'rot2': 0, 'depth': 0.317, 'yaw': 30.57, 'datetime': '2018-12-18 19:56:34.781782', 'mgs': 0, 'flw2': 0.18, 'flw1': 0.0, 'flw0': 0.0, 'time': 33.5, 'compass': -75.43, 'pitch': -3.06, 'roll': 1.12}
{'lipoC2': 0.0, 'temp': 0.0, 'lipoC3S3': 12.04, 'state': 'normal', 'rot1': 162, 'rot0': 197, 'rot3': 0, 'rot2': 0, 'depth': 0.699, 'yaw': 31.72, 'datetime': '2018-12-18 19:56:34.989801', 'mgs': 0, 'flw2': 0.0, 'flw1': 0.44, 'flw0': 0.0, 'time': 33.71, 'compass': -74.28, 'pitch': -2.61, 'roll': 0.81}
{'lipoC2': 0.14, 'temp': 0.0, 'lipoC3S3': 11.93, 'state': 'normal', 'rot1': 162, 'rot0': 197, 'rot3': 0, 'rot2': 0, 'depth': -1.285, 'yaw': 33.0, 'datetime': '2018-12-18 19:56:35.199381', 'mgs': 0, 'flw2': 0.0, 'flw1': 0.0, 'flw0': 0.2, 'time': 33.92, 'compass': -73.0, 'pitch': -2.26, 'roll': 0.49}
{'lipoC2': 0.15, 'temp': 0.0, 'lipoC3S3': 11.92, 'state': 'normal', 'rot1': 162, 'rot0': 197, 'rot3': 0, 'rot2': 0, 'depth': -1.514, 'yaw': 34.33, 'datetime': '2018-12-18 19:56:35.407613', 'mgs': 0, 'flw2': 0.0, 'flw1': 0.0, 'flw0': 0.22, 'time': 34.13, 'compass': -71.67, 'pitch': -2.15, 'roll': 0.52}
{'lipoC2': 0.0, 'temp': 0.0, 'lipoC3S3': 12.04, 'state': 'normal', 'rot1': 162, 'rot0': 197, 'rot3': 0, 'rot2': 0, 'depth': 1.157, 'yaw': 35.59, 'datetime': '2018-12-18 19:56:35.617786', 'mgs': 0, 'flw2': 0.01, 'flw1': 0.5, 'flw0': 0.0, 'time': 34.34, 'compass': -70.41, 'pitch': -2.05, 'roll': 0.79}
{'lipoC2': 0.0, 'temp': 0.0, 'lipoC3S3': 11.98, 'state': 'normal', 'rot1': 162, 'rot0': 197, 'rot3': 0, 'rot2': 0, 'depth': 0.089, 'yaw': 36.78, 'datetime': '2018-12-18 19:56:35.828148', 'mgs': 0, 'flw2': 0.0, 'flw1': 0.0, 'flw0': 0.18, 'time': 34.55, 'compass': -69.22, 'pitch': -1.79, 'roll': 1.08}
{'lipoC2': 0.0, 'temp': 0.0, 'lipoC3S3': 12.01, 'state': 'normal', 'rot1': 162, 'rot0': 197, 'rot3': 0, 'rot2': 0, 'depth': -0.217, 'yaw': 37.91, 'datetime': '2018-12-18 19:56:36.036382', 'mgs': 0, 'flw2': 0.06, 'flw1': 0.44, 'flw0': 0.0, 'time': 34.76, 'compass': -68.09, 'pitch': -1.79, 'roll': 1.2}
{'lipoC2': 0.0, 'temp': 0.0, 'lipoC3S3': 12.19, 'state': 'normal', 'rot1': 162, 'rot0': 197, 'rot3': 0, 'rot2': 0, 'depth': 1.767, 'yaw': 39.07, 'datetime': '2018-12-18 19:56:36.246068', 'mgs': 0, 'flw2': 0.0, 'flw1': 0.09, 'flw0': 0.0, 'time': 34.97, 'compass': -66.92, 'pitch': -1.79, 'roll': 1.22}
{'lipoC2': 0.12, 'temp': 0.0, 'lipoC3S3': 11.79, 'state': 'normal', 'rot1': 162, 'rot0': 197, 'rot3': 0, 'rot2': 0, 'depth': 0.623, 'yaw': 40.25, 'datetime': '2018-12-18 19:56:36.454046', 'mgs': 0, 'flw2': 0.18, 'flw1': 0.0, 'flw0': 0.0, 'time': 35.17, 'compass': -65.74, 'pitch': -1.84, 'roll': 1.07}
{'lipoC2': 0.03, 'temp': 0.0, 'lipoC3S3': 11.85, 'state': 'normal', 'rot1': 162, 'rot0': 197, 'rot3': 0, 'rot2': 0, 'depth': 0.165, 'yaw': 41.37, 'datetime': '2018-12-18 19:56:36.664666', 'mgs': 0, 'flw2': 0.1, 'flw1': 0.0, 'flw0': 0.02, 'time': 35.38, 'compass': -64.63, 'pitch': -1.8, 'roll': 0.9}
{'lipoC2': 0.0, 'temp': 0.0, 'lipoC3S3': 12.05, 'state': 'normal', 'rot1': 162, 'rot0': 197, 'rot3': 0, 'rot2': 0, 'depth': 1.157, 'yaw': 42.48, 'datetime': '2018-12-18 19:56:36.873867', 'mgs': 0, 'flw2': 0.0, 'flw1': 0.47, 'flw0': 0.0, 'time': 35.59, 'compass': -63.52, 'pitch': -1.77, 'roll': 0.87}
{'lipoC2': 0.15, 'temp': 0.0, 'lipoC3S3': 11.93, 'state': 'normal', 'rot1': 162, 'rot0': 197, 'rot3': 0, 'rot2': 0, 'depth': -1.59, 'yaw': 43.6, 'datetime': '2018-12-18 19:56:37.084921', 'mgs': 0, 'flw2': 0.2, 'flw1': 0.12, 'flw0': 0.0, 'time': 35.8, 'compass': -62.4, 'pitch': -1.76, 'roll': 0.9}
