{'lipoC2': 0.0, 'temp': 0.0, 'lipoC3S3': 12.48, 'state': 'normal', 'rot1': 0, 'rot0': 0, 'rot3': 0, 'rot2': 0, 'depth': 0.699, 'yaw': 0.0, 'datetime': '2018-12-18 17:21:18.262589', 'mgs': 0, 'flw2': 0.11, 'flw1': 0.0, 'flw0': 0.07, 'time': 1.26, 'compass': -91.33, 'pitch': 2.19, 'roll': 1.17}
{'lipoC2': 0.1, 'temp': 0.0, 'lipoC3S3': 12.47, 'state': 'normal', 'rot1': 0, 'rot0': 0, 'rot3': 0, 'rot2': 0, 'depth': -2.048, 'yaw': 0.01, 'datetime': '2018-12-18 17:21:18.471195', 'mgs': 0, 'flw2': 0.09, 'flw1': 0.0, 'flw0': 0.1, 'time': 1.47, 'compass': -91.31, 'pitch': 2.03, 'roll': 1.27}
{'lipoC2': 0.0, 'temp': 0.0, 'lipoC3S3': 12.48, 'state': 'normal', 'rot1': 0, 'rot0': 0, 'rot3': 0, 'rot2': 0, 'depth': 0.775, 'yaw': 0.01, 'datetime': '2018-12-18 17:21:18.679415', 'mgs': 0, 'flw2': 0.07, 'flw1': 0.38, 'flw0': 0.1, 'time': 1.67, 'compass': -91.31, 'pitch': 2.09, 'roll': 1.27}
{'lipoC2': 0.01, 'temp': 0.0, 'lipoC3S3': 12.35, 'state': 'normal', 'rot1': 0, 'rot0': 0, 'rot3': 0, 'rot2': 0, 'depth': 1.462, 'yaw': 0.01, 'datetime': '2018-12-18 17:21:18.886418', 'mgs': 0, 'flw2': 0.18, 'flw1': 0.0, 'flw0': 0.0, 'time': 1.88, 'compass': -91.32, 'pitch': 2.34, 'roll': 1.25}
{'lipoC2': 0.01, 'temp': 0.0, 'lipoC3S3': 12.54, 'state': 'normal', 'rot1': 0, 'rot0': 0, 'rot3': 0, 'rot2': 0, 'depth': -1.208, 'yaw': 0.01, 'datetime': '2018-12-18 17:21:19.096789', 'mgs': 0, 'flw2': 0.0, 'flw1': 0.29, 'flw0': 0.0, 'time': 2.09, 'compass': -91.32, 'pitch': 2.37, 'roll': 1.25}
{'lipoC2': 0.0, 'temp': 0.0, 'lipoC3S3': 12.5, 'state': 'normal', 'rot1': 0, 'rot0': 0, 'rot3': 0, 'rot2': 0, 'depth': 0.775, 'yaw': 0.01, 'datetime': '2018-12-18 17:21:19.306060', 'mgs': 0, 'flw2': 0.0, 'flw1': 0.41, 'flw0': 0.01, 'time': 2.3, 'compass': -91.32, 'pitch': 2.23, 'roll': 1.25}
{'lipoC2': 0.13, 'temp': 0.0, 'lipoC3S3': 12.45, 'state': 'normal', 'rot1': 0, 'rot0': 0, 'rot3': 0, 'rot2': 0, 'depth': -1.59, 'yaw': 0.01, 'datetime': '2018-12-18 17:21:19.516178', 'mgs': 0, 'flw2': 0.04, 'flw1': 0.0, 'flw0': 0.12, 'time': 2.5, 'compass': -91.32, 'pitch': 2.17, 'roll': 1.25}
{'lipoC2': 0.02, 'temp': 0.0, 'lipoC3S3': 12.52, 'state': 'normal', 'rot1': 0, 'rot0': 0, 'rot3': 0, 'rot2': 0, 'depth': -1.056, 'yaw': 0.01, 'datetime': '2018-12-18 17:21:19.721198', 'mgs': 0, 'flw2': 0.0, 'flw1': 0.32, 'flw0': 0.1, 'time': 2.71, 'compass': -91.31, 'pitch': 2.18, 'roll': 1.31}
{'lipoC2': 0.0, 'temp': 0.0, 'lipoC3S3': 12.46, 'state': 'normal', 'rot1': 0, 'rot0': 0, 'rot3': 0, 'rot2': 0, 'depth': 0.165, 'yaw': 0.01, 'datetime': '2018-12-18 17:21:19.931037', 'mgs': 0, 'flw2': 0.07, 'flw1': 0.0, 'flw0': 0.11, 'time': 2.92, 'compass': -91.32, 'pitch': 2.34, 'roll': 1.4}
{'lipoC2': 0.0, 'temp': 0.0, 'lipoC3S3': 12.47, 'state': 'normal', 'rot1': 0, 'rot0': 0, 'rot3': 0, 'rot2': 0, 'depth': -0.064, 'yaw': 0.01, 'datetime': '2018-12-18 17:21:20.137272', 'mgs': 0, 'flw2': 0.12, 'flw1': 0.0, 'flw0': 0.07, 'time': 3.13, 'compass': -91.32, 'pitch': 2.43, 'roll': 1.44}
{'lipoC2': 0.16, 'temp': 0.0, 'lipoC3S3': 12.34, 'state': 'normal', 'rot1': 0, 'rot0': 0, 'rot3': 0, 'rot2': 0, 'depth': -0.98, 'yaw': 0.01, 'datetime': '2018-12-18 17:21:20.345837', 'mgs': 0, 'flw2': 0.0, 'flw1': 0.0, 'flw0': 0.2, 'time': 3.34, 'compass': -91.32, 'pitch': 2.41, 'roll': 1.44}
{'lipoC2': 0.08, 'temp': 0.0, 'lipoC3S3': 12.5, 'state': 'normal', 'rot1': 0, 'rot0': 0, 'rot3': 0, 'rot2': 0, 'depth': -1.971, 'yaw': 0.01, 'datetime': '2018-12-18 17:21:20.555046', 'mgs': 0, 'flw2': 0.0, 'flw1': 0.38, 'flw0': 0.05, 'time': 3.55, 'compass': -91.32, 'pitch': 2.35, 'roll': 1.44}
{'lipoC2': 0.0, 'temp': 0.0, 'lipoC3S3': 12.63, 'state': 'normal', 'rot1': 0, 'rot0': 0, 'rot3': 0, 'rot2': 0, 'depth': 1.614, 'yaw': 0.01, 'datetime': '2018-12-18 17:21:20.763200', 'mgs': 0, 'flw2': 0.0, 'flw1': 0.18, 'flw0': 0.16, 'time': 3.76, 'compass': -91.32, 'pitch': 2.37, 'roll': 1.44}
{'lipoC2': 0.0, 'temp': 0.0, 'lipoC3S3': 12.64, 'state': 'normal', 'rot1': 0, 'rot0': 1, 'rot3': 0, 'rot2': 0, 'depth': 1.614, 'yaw': 0.22, 'datetime': '2018-12-18 17:21:20.971445', 'mgs': 0, 'flw2': 2.6, 'flw1': 0.21, 'flw0': 0.17, 'time': 3.96, 'compass': -91.11, 'pitch': 2.68, 'roll': 1.5}
{'lipoC2': 0.05, 'temp': 0.0, 'lipoC3S3': 12.26, 'state': 'normal', 'rot1': 0, 'rot0': 3, 'rot3': 0, 'rot2': 0, 'depth': 1.385, 'yaw': 3.12, 'datetime': '2018-12-18 17:21:21.179663', 'mgs': 0, 'flw2': 0.66, 'flw1': 0.26, 'flw0': 0.17, 'time': 4.17, 'compass': -88.2, 'pitch': 4.26, 'roll': 1.91}
{'lipoC2': 0.08, 'temp': 0.0, 'lipoC3S3': 12.25, 'state': 'normal', 'rot1': 0, 'rot0': 5, 'rot3': 0, 'rot2': 0, 'depth': 0.47, 'yaw': 7.83, 'datetime': '2018-12-18 17:21:21.393975', 'mgs': 0, 'flw2': 2.84, 'flw1': 0.0, 'flw0': 0.0, 'time': 4.38, 'compass': -83.49, 'pitch': 4.91, 'roll': 2.17}
{'lipoC2': 0.15, 'temp': 0.0, 'lipoC3S3': 12.31, 'state': 'normal', 'rot1': 1, 'rot0': 6, 'rot3': 0, 'rot2': 0, 'depth': -0.98, 'yaw': 13.17, 'datetime': '2018-12-18 17:21:21.595294', 'mgs': 0, 'flw2': 0.0, 'flw1': 0.0, 'flw0': 3.13, 'time': 4.59, 'compass': -78.16, 'pitch': 4.29, 'roll': 1.98}
{'lipoC2': 0.0, 'temp': 0.0, 'lipoC3S3': 12.45, 'state': 'normal', 'rot1': 4, 'rot0': 6, 'rot3': 0, 'rot2': 0, 'depth': 0.775, 'yaw': 14.09, 'datetime': '2018-12-18 17:21:21.802936', 'mgs': 0, 'flw2': 0.0, 'flw1': 0.0, 'flw0': 3.19, 'time': 4.79, 'compass': -77.24, 'pitch': 4.03, 'roll': 1.07}
{'lipoC2': 0.0, 'temp': 0.0, 'lipoC3S3': 12.47, 'state': 'normal', 'rot1': 7, 'rot0': 6, 'rot3': 0, 'rot2': 0, 'depth': -1.666, 'yaw': 11.74, 'datetime': '2018-12-18 17:21:22.009612', 'mgs': 0, 'flw2': 0.0, 'flw1': 0.0, 'flw0': 3.16, 'time': 5.0, 'compass': -79.59, 'pitch': 4.58, 'roll': 0.33}
{'lipoC2': 0.06, 'temp': 0.0, 'lipoC3S3': 12.25, 'state': 'normal', 'rot1': 10, 'rot0': 6, 'rot3': 0, 'rot2': 0, 'depth': 0.394, 'yaw': 6.91, 'datetime': '2018-12-18 17:21:22.226822', 'mgs': 0, 'flw2': 3.39, 'flw1': 0.0, 'flw0': 2.71, 'time': 5.21, 'compass': -84.41, 'pitch': 4.92, 'roll': 0.3}
{'lipoC2': 0.04, 'temp': 0.0, 'lipoC3S3': 12.3, 'state': 'normal', 'rot1': 12, 'rot0': 8, 'rot3': 0, 'rot2': 0, 'depth': 0.394, 'yaw': 2.25, 'datetime': '2018-12-18 17:21:22.439938', 'mgs': 0, 'flw2': 2.64, 'flw1': 0.41, 'flw0': 3.11, 'time': 5.42, 'compass': -89.07, 'pitch': 5.39, 'roll': 1.02}
{'lipoC2': 0.0, 'temp': 0.0, 'lipoC3S3': 12.7, 'state': 'normal', 'rot1': 17, 'rot0': 12, 'rot3': 0, 'rot2': 0, 'depth': 1.691, 'yaw': -2.03, 'datetime': '2018-12-18 17:21:22.741558', 'mgs': 0, 'flw2': 2.93, 'flw1': 0.03, 'flw0': 2.62, 'time': 5.73, 'compass': -93.35, 'pitch': 5.97, 'roll': 2.14}
{'lipoC2': 0.01, 'temp': 0.0, 'lipoC3S3': 12.52, 'state': 'normal', 'rot1': 20, 'rot0': 15, 'rot3': 0, 'rot2': 0, 'depth': 1.691, 'yaw': -4.07, 'datetime': '2018-12-18 17:21:22.951669', 'mgs': 0, 'flw2': 3.19, 'flw1': 0.0, 'flw0': 2.91, 'time': 5.94, 'compass': -95.4, 'pitch': 5.82, 'roll': 2.27}
{'lipoC2': 0.05, 'temp': 0.0, 'lipoC3S3': 12.48, 'state': 'normal', 'rot1': 22, 'rot0': 17, 'rot3': 0, 'rot2': 0, 'depth': -0.98, 'yaw': -5.73, 'datetime': '2018-12-18 17:21:23.162155', 'mgs': 0, 'flw2': 2.94, 'flw1': 0.0, 'flw0': 3.08, 'time': 6.15, 'compass': -97.06, 'pitch': 5.72, 'roll': 2.08}
{'lipoC2': 0.0, 'temp': 0.0, 'lipoC3S3': 12.63, 'state': 'normal', 'rot1': 25, 'rot0': 19, 'rot3': 0, 'rot2': 0, 'depth': 2.072, 'yaw': -7.3, 'datetime': '2018-12-18 17:21:23.379467', 'mgs': 0, 'flw2': 2.64, 'flw1': 0.15, 'flw0': 3.08, 'time': 6.36, 'compass': -98.62, 'pitch': 5.68, 'roll': 1.88}
{'lipoC2': 0.0, 'temp': 0.0, 'lipoC3S3': 12.62, 'state': 'normal', 'rot1': 27, 'rot0': 22, 'rot3': 0, 'rot2': 0, 'depth': 1.767, 'yaw': -8.7, 'datetime': '2018-12-18 17:21:23.586403', 'mgs': 0, 'flw2': 3.16, 'flw1': 0.15, 'flw0': 3.05, 'time': 6.56, 'compass': -100.03, 'pitch': 5.85, 'roll': 1.9}
{'lipoC2': 0.0, 'temp': 0.0, 'lipoC3S3': 12.64, 'state': 'normal', 'rot1': 29, 'rot0': 24, 'rot3': 0, 'rot2': 0, 'depth': 1.614, 'yaw': -9.9, 'datetime': '2018-12-18 17:21:23.796535', 'mgs': 0, 'flw2': 2.91, 'flw1': 0.0, 'flw0': 3.27, 'time': 6.77, 'compass': -101.22, 'pitch': 6.06, 'roll': 2.15}
{'lipoC2': 0.13, 'temp': 0.0, 'lipoC3S3': 12.43, 'state': 'normal', 'rot1': 32, 'rot0': 27, 'rot3': 0, 'rot2': 0, 'depth': -1.056, 'yaw': -11.19, 'datetime': '2018-12-18 17:21:24.006678', 'mgs': 0, 'flw2': 2.87, 'flw1': 0.38, 'flw0': 2.93, 'time': 6.98, 'compass': -102.51, 'pitch': 5.96, 'roll': 2.51}
{'lipoC2': 0.0, 'temp': 0.0, 'lipoC3S3': 12.64, 'state': 'normal', 'rot1': 34, 'rot0': 29, 'rot3': 0, 'rot2': 0, 'depth': 1.691, 'yaw': -12.54, 'datetime': '2018-12-18 17:21:24.217011', 'mgs': 0, 'flw2': 3.05, 'flw1': 0.0, 'flw0': 2.7, 'time': 7.19, 'compass': -103.87, 'pitch': 5.65, 'roll': 2.83}
{'lipoC2': 0.06, 'temp': 0.0, 'lipoC3S3': 12.55, 'state': 'normal', 'rot1': 37, 'rot0': 31, 'rot3': 0, 'rot2': 0, 'depth': -1.743, 'yaw': -13.9, 'datetime': '2018-12-18 17:21:24.425277', 'mgs': 0, 'flw2': 2.99, 'flw1': 0.0, 'flw0': 3.11, 'time': 7.4, 'compass': -105.23, 'pitch': 5.5, 'roll': 2.99}
{'lipoC2': 0.0, 'temp': 0.0, 'lipoC3S3': 12.52, 'state': 'normal', 'rot1': 39, 'rot0': 34, 'rot3': 0, 'rot2': 0, 'depth': 1.157, 'yaw': -15.15, 'datetime': '2018-12-18 17:21:24.640851', 'mgs': 0, 'flw2': 2.98, 'flw1': 0.0, 'flw0': 2.87, 'time': 7.61, 'compass': -106.48, 'pitch': 5.48, 'roll': 3.12}
{'lipoC2': 0.14, 'temp': 0.0, 'lipoC3S3': 12.37, 'state': 'normal', 'rot1': 43, 'rot0': 37, 'rot3': 0, 'rot2': 0, 'depth': -0.598, 'yaw': -16.87, 'datetime': '2018-12-18 17:21:24.948343', 'mgs': 0, 'flw2': 2.99, 'flw1': 0.0, 'flw0': 3.15, 'time': 7.92, 'compass': -108.19, 'pitch': 5.37, 'roll': 3.25}
{'lipoC2': 0.08, 'temp': 0.0, 'lipoC3S3': 12.23, 'state': 'normal', 'rot1': 46, 'rot0': 40, 'rot3': 0, 'rot2': 0, 'depth': 0.47, 'yaw': -17.99, 'datetime': '2018-12-18 17:21:25.153569', 'mgs': 0, 'flw2': 2.98, 'flw1': 0.06, 'flw0': 2.71, 'time': 8.13, 'compass': -109.31, 'pitch': 5.31, 'roll': 3.2}
{'lipoC2': 0.1, 'temp': 0.0, 'lipoC3S3': 12.46, 'state': 'normal', 'rot1': 48, 'rot0': 42, 'rot3': 0, 'rot2': 0, 'depth': 1.843, 'yaw': -19.01, 'datetime': '2018-12-18 17:21:25.362821', 'mgs': 0, 'flw2': 2.91, 'flw1': 0.47, 'flw0': 2.95, 'time': 8.34, 'compass': -110.33, 'pitch': 5.5, 'roll': 3.07}
{'lipoC2': 0.04, 'temp': 0.0, 'lipoC3S3': 12.56, 'state': 'normal', 'rot1': 51, 'rot0': 45, 'rot3': 0, 'rot2': 0, 'depth': 1.385, 'yaw': -19.94, 'datetime': '2018-12-18 17:21:25.574713', 'mgs': 0, 'flw2': 3.04, 'flw1': 0.0, 'flw0': 2.95, 'time': 8.55, 'compass': -111.27, 'pitch': 5.91, 'roll': 3.17}
{'lipoC2': 0.0, 'temp': 0.0, 'lipoC3S3': 12.29, 'state': 'normal', 'rot1': 53, 'rot0': 47, 'rot3': 0, 'rot2': 0, 'depth': -0.674, 'yaw': -20.94, 'datetime': '2018-12-18 17:21:25.781544', 'mgs': 0, 'flw2': 2.87, 'flw1': 0.0, 'flw0': 3.23, 'time': 8.76, 'compass': -112.27, 'pitch': 6.18, 'roll': 3.27}
{'lipoC2': 0.0, 'temp': 0.0, 'lipoC3S3': 12.52, 'state': 'normal', 'rot1': 55, 'rot0': 50, 'rot3': 0, 'rot2': 0, 'depth': 1.157, 'yaw': -22.08, 'datetime': '2018-12-18 17:21:25.994350', 'mgs': 0, 'flw2': 2.69, 'flw1': 0.47, 'flw0': 3.15, 'time': 8.97, 'compass': -113.4, 'pitch': 6.0, 'roll': 3.4}
{'lipoC2': 0.0, 'temp': 0.0, 'lipoC3S3': 12.5, 'state': 'normal', 'rot1': 58, 'rot0': 52, 'rot3': 0, 'rot2': 0, 'depth': -0.369, 'yaw': -23.37, 'datetime': '2018-12-18 17:21:26.199873', 'mgs': 0, 'flw2': 2.97, 'flw1': 0.0, 'flw0': 2.94, 'time': 9.18, 'compass': -114.7, 'pitch': 5.72, 'roll': 3.51}
{'lipoC2': 0.0, 'temp': 0.0, 'lipoC3S3': 12.55, 'state': 'normal', 'rot1': 60, 'rot0': 55, 'rot3': 0, 'rot2': 0, 'depth': 1.462, 'yaw': -24.58, 'datetime': '2018-12-18 17:21:26.411468', 'mgs': 0, 'flw2': 2.66, 'flw1': 0.44, 'flw0': 3.19, 'time': 9.39, 'compass': -115.91, 'pitch': 5.91, 'roll': 3.64}
{'lipoC2': 0.0, 'temp': 0.0, 'lipoC3S3': 12.62, 'state': 'normal', 'rot1': 63, 'rot0': 57, 'rot3': 0, 'rot2': 0, 'depth': 1.767, 'yaw': -25.75, 'datetime': '2018-12-18 17:21:26.622747', 'mgs': 0, 'flw2': 2.95, 'flw1': 0.06, 'flw0': 2.71, 'time': 9.6, 'compass': -117.08, 'pitch': 6.43, 'roll': 3.79}
{'lipoC2': 0.01, 'temp': 0.0, 'lipoC3S3': 12.34, 'state': 'normal', 'rot1': 65, 'rot0': 60, 'rot3': 0, 'rot2': 0, 'depth': 1.614, 'yaw': -26.98, 'datetime': '2018-12-18 17:21:26.830646', 'mgs': 0, 'flw2': 3.13, 'flw1': 0.0, 'flw0': 3.03, 'time': 9.81, 'compass': -118.31, 'pitch': 6.91, 'roll': 3.95}
{'lipoC2': 0.0, 'temp': 0.0, 'lipoC3S3': 12.31, 'state': 'normal', 'rot1': 68, 'rot0': 62, 'rot3': 0, 'rot2': 0, 'depth': -0.522, 'yaw': -28.54, 'datetime': '2018-12-18 17:21:27.037397', 'mgs': 0, 'flw2': 2.88, 'flw1': 0.0, 'flw0': 3.31, 'time': 10.01, 'compass': -119.87, 'pitch': 7.01, 'roll': 4.14}
{'lipoC2': 0.09, 'temp': 0.0, 'lipoC3S3': 12.47, 'state': 'normal', 'rot1': 70, 'rot0': 64, 'rot3': 0, 'rot2': 0, 'depth': 1.843, 'yaw': -30.31, 'datetime': '2018-12-18 17:21:27.246524', 'mgs': 0, 'flw2': 2.93, 'flw1': 0.0, 'flw0': 3.16, 'time': 10.22, 'compass': -121.64, 'pitch': 6.69, 'roll': 4.14}
{'lipoC2': 0.0, 'temp': 0.0, 'lipoC3S3': 12.59, 'state': 'normal', 'rot1': 73, 'rot0': 67, 'rot3': 0, 'rot2': 0, 'depth': 1.691, 'yaw': -31.98, 'datetime': '2018-12-18 17:21:27.454481', 'mgs': 0, 'flw2': 2.59, 'flw1': 0.44, 'flw0': 3.17, 'time': 10.43, 'compass': -123.31, 'pitch': 6.24, 'roll': 4.1}
{'lipoC2': 0.13, 'temp': 0.0, 'lipoC3S3': 12.23, 'state': 'normal', 'rot1': 75, 'rot0': 69, 'rot3': 0, 'rot2': 0, 'depth': 1.004, 'yaw': -33.39, 'datetime': '2018-12-18 17:21:27.668285', 'mgs': 0, 'flw2': 3.1, 'flw1': 0.03, 'flw0': 2.76, 'time': 10.64, 'compass': -124.71, 'pitch': 6.15, 'roll': 4.25}
{'lipoC2': 0.08, 'temp': 0.0, 'lipoC3S3': 12.48, 'state': 'normal', 'rot1': 78, 'rot0': 72, 'rot3': 0, 'rot2': 0, 'depth': -1.59, 'yaw': -34.82, 'datetime': '2018-12-18 17:21:27.874219', 'mgs': 0, 'flw2': 2.88, 'flw1': 0.5, 'flw0': 2.95, 'time': 10.85, 'compass': -126.15, 'pitch': 6.51, 'roll': 4.27}
{'lipoC2': 0.06, 'temp': 0.0, 'lipoC3S3': 12.5, 'state': 'normal', 'rot1': 80, 'rot0': 74, 'rot3': 0, 'rot2': 0, 'depth': -1.59, 'yaw': -36.38, 'datetime': '2018-12-18 17:21:28.086872', 'mgs': 0, 'flw2': 2.93, 'flw1': 0.0, 'flw0': 3.03, 'time': 11.06, 'compass': -127.71, 'pitch': 6.66, 'roll': 4.3}
{'lipoC2': 0.0, 'temp': 0.0, 'lipoC3S3': 12.27, 'state': 'normal', 'rot1': 83, 'rot0': 77, 'rot3': 0, 'rot2': 0, 'depth': -0.522, 'yaw': -37.93, 'datetime': '2018-12-18 17:21:28.293948', 'mgs': 0, 'flw2': 2.93, 'flw1': 0.09, 'flw0': 3.16, 'time': 11.27, 'compass': -129.26, 'pitch': 6.41, 'roll': 4.48}
{'lipoC2': 0.12, 'temp': 0.0, 'lipoC3S3': 12.22, 'state': 'normal', 'rot1': 85, 'rot0': 79, 'rot3': 0, 'rot2': 0, 'depth': 0.851, 'yaw': -39.43, 'datetime': '2018-12-18 17:21:28.509347', 'mgs': 0, 'flw2': 3.05, 'flw1': 0.03, 'flw0': 2.67, 'time': 11.48, 'compass': -130.76, 'pitch': 6.06, 'roll': 4.64}
{'lipoC2': 0.13, 'temp': 0.0, 'lipoC3S3': 12.41, 'state': 'normal', 'rot1': 87, 'rot0': 82, 'rot3': 0, 'rot2': 0, 'depth': -1.361, 'yaw': -40.98, 'datetime': '2018-12-18 17:21:28.711868', 'mgs': 0, 'flw2': 2.99, 'flw1': 0.26, 'flw0': 2.87, 'time': 11.68, 'compass': -132.31, 'pitch': 6.09, 'roll': 4.64}
{'lipoC2': 0.15, 'temp': 0.0, 'lipoC3S3': 12.38, 'state': 'normal', 'rot1': 89, 'rot0': 84, 'rot3': 0, 'rot2': 0, 'depth': -1.132, 'yaw': -42.71, 'datetime': '2018-12-18 17:21:28.924782', 'mgs': 0, 'flw2': 2.88, 'flw1': 0.5, 'flw0': 2.83, 'time': 11.89, 'compass': -134.03, 'pitch': 6.3, 'roll': 4.53}
{'lipoC2': 0.0, 'temp': 0.0, 'lipoC3S3': 12.63, 'state': 'normal', 'rot1': 90, 'rot0': 86, 'rot3': 0, 'rot2': 0, 'depth': 1.767, 'yaw': -43.71, 'datetime': '2018-12-18 17:21:29.135938', 'mgs': 0, 'flw2': 3.03, 'flw1': 0.0, 'flw0': 0.17, 'time': 12.1, 'compass': -135.04, 'pitch': 6.0, 'roll': 4.6}
{'lipoC2': 0.11, 'temp': 0.0, 'lipoC3S3': 12.46, 'state': 'normal', 'rot1': 91, 'rot0': 89, 'rot3': 0, 'rot2': 0, 'depth': -1.437, 'yaw': -42.14, 'datetime': '2018-12-18 17:21:29.344185', 'mgs': 0, 'flw2': 2.82, 'flw1': 0.41, 'flw0': 0.07, 'time': 12.31, 'compass': -133.47, 'pitch': 4.71, 'roll': 5.34}
{'lipoC2': 0.01, 'temp': 0.0, 'lipoC3S3': 12.54, 'state': 'normal', 'rot1': 92, 'rot0': 92, 'rot3': 0, 'rot2': 0, 'depth': -1.132, 'yaw': -39.5, 'datetime': '2018-12-18 17:21:29.553948', 'mgs': 0, 'flw2': 3.02, 'flw1': 0.0, 'flw0': 2.76, 'time': 12.52, 'compass': -130.83, 'pitch': 4.75, 'roll': 6.01}
{'lipoC2': 0.13, 'temp': 0.0, 'lipoC3S3': 12.43, 'state': 'normal', 'rot1': 94, 'rot0': 94, 'rot3': 0, 'rot2': 0, 'depth': -1.132, 'yaw': -38.53, 'datetime': '2018-12-18 17:21:29.759478', 'mgs': 0, 'flw2': 3.0, 'flw1': 0.38, 'flw0': 2.64, 'time': 12.73, 'compass': -129.85, 'pitch': 6.29, 'roll': 6.13}
{'lipoC2': 0.02, 'temp': 0.0, 'lipoC3S3': 12.3, 'state': 'normal', 'rot1': 95, 'rot0': 96, 'rot3': 0, 'rot2': 0, 'depth': 0.394, 'yaw': -37.54, 'datetime': '2018-12-18 17:21:29.968174', 'mgs': 0, 'flw2': 2.61, 'flw1': 0.23, 'flw0': 0.15, 'time': 12.94, 'compass': -128.86, 'pitch': 6.64, 'roll': 6.2}
{'lipoC2': 0.0, 'temp': 0.0, 'lipoC3S3': 12.63, 'state': 'normal', 'rot1': 95, 'rot0': 99, 'rot3': 0, 'rot2': 0, 'depth': 2.072, 'yaw': -34.27, 'datetime': '2018-12-18 17:21:30.180287', 'mgs': 0, 'flw2': 2.6, 'flw1': 0.26, 'flw0': 0.15, 'time': 13.15, 'compass': -125.59, 'pitch': 5.42, 'roll': 6.54}
{'lipoC2': 0.0, 'temp': 0.0, 'lipoC3S3': 12.52, 'state': 'normal', 'rot1': 95, 'rot0': 101, 'rot3': 0, 'rot2': 0, 'depth': 1.462, 'yaw': -29.6, 'datetime': '2018-12-18 17:21:30.390955', 'mgs': 0, 'flw2': 3.1, 'flw1': 0.0, 'flw0': 0.0, 'time': 13.36, 'compass': -120.92, 'pitch': 4.98, 'roll': 6.94}
{'lipoC2': 0.0, 'temp': 0.0, 'lipoC3S3': 12.29, 'state': 'normal', 'rot1': 95, 'rot0': 104, 'rot3': 0, 'rot2': 0, 'depth': -0.446, 'yaw': -23.87, 'datetime': '2018-12-18 17:21:30.603533', 'mgs': 0, 'flw2': 2.87, 'flw1': 0.0, 'flw0': 0.21, 'time': 13.57, 'compass': -115.2, 'pitch': 6.01, 'roll': 6.92}
{'lipoC2': 0.05, 'temp': 0.0, 'lipoC3S3': 12.26, 'state': 'normal', 'rot1': 95, 'rot0': 106, 'rot3': 0, 'rot2': 0, 'depth': 1.614, 'yaw': -17.12, 'datetime': '2018-12-18 17:21:30.810829', 'mgs': 0, 'flw2': 2.98, 'flw1': 0.0, 'flw0': 0.0, 'time': 13.78, 'compass': -108.45, 'pitch': 7.02, 'roll': 6.79}
{'lipoC2': 0.06, 'temp': 0.0, 'lipoC3S3': 12.51, 'state': 'normal', 'rot1': 95, 'rot0': 109, 'rot3': 0, 'rot2': 0, 'depth': -1.666, 'yaw': -10.1, 'datetime': '2018-12-18 17:21:31.019445', 'mgs': 0, 'flw2': 2.94, 'flw1': 0.0, 'flw0': 0.0, 'time': 13.98, 'compass': -101.43, 'pitch': 7.35, 'roll': 6.96}
{'lipoC2': 0.0, 'temp': 0.0, 'lipoC3S3': 12.63, 'state': 'normal', 'rot1': 97, 'rot0': 111, 'rot3': 0, 'rot2': 0, 'depth': 1.614, 'yaw': -3.08, 'datetime': '2018-12-18 17:21:31.226909', 'mgs': 0, 'flw2': 2.43, 'flw1': 0.29, 'flw0': 3.02, 'time': 14.19, 'compass': -94.41, 'pitch': 8.09, 'roll': 7.07}
{'lipoC2': 0.0, 'temp': 0.0, 'lipoC3S3': 12.45, 'state': 'normal', 'rot1': 99, 'rot0': 113, 'rot3': 0, 'rot2': 0, 'depth': 0.851, 'yaw': 1.56, 'datetime': '2018-12-18 17:21:31.433534', 'mgs': 0, 'flw2': 3.02, 'flw1': 0.0, 'flw0': 2.98, 'time': 14.4, 'compass': -89.77, 'pitch': 9.63, 'roll': 6.57}
{'lipoC2': 0.08, 'temp': 0.0, 'lipoC3S3': 12.23, 'state': 'normal', 'rot1': 102, 'rot0': 116, 'rot3': 0, 'rot2': 0, 'depth': 1.157, 'yaw': 4.41, 'datetime': '2018-12-18 17:21:31.644944', 'mgs': 0, 'flw2': 2.92, 'flw1': 0.0, 'flw0': 2.7, 'time': 14.61, 'compass': -86.92, 'pitch': 10.3, 'roll': 6.08}
{'lipoC2': 0.0, 'temp': 0.0, 'lipoC3S3': 12.43, 'state': 'normal', 'rot1': 105, 'rot0': 118, 'rot3': 0, 'rot2': 0, 'depth': 0.699, 'yaw': 6.11, 'datetime': '2018-12-18 17:21:31.854942', 'mgs': 0, 'flw2': 0.0, 'flw1': 0.0, 'flw0': 3.05, 'time': 14.82, 'compass': -85.22, 'pitch': 9.98, 'roll': 5.87}
{'lipoC2': 0.14, 'temp': 0.0, 'lipoC3S3': 12.35, 'state': 'normal', 'rot1': 107, 'rot0': 118, 'rot3': 0, 'rot2': 0, 'depth': -0.598, 'yaw': 5.17, 'datetime': '2018-12-18 17:21:32.067273', 'mgs': 0, 'flw2': 0.15, 'flw1': 0.18, 'flw0': 2.71, 'time': 15.03, 'compass': -86.15, 'pitch': 8.51, 'roll': 5.56}
{'lipoC2': 0.0, 'temp': 0.0, 'lipoC3S3': 12.51, 'state': 'normal', 'rot1': 110, 'rot0': 120, 'rot3': 0, 'rot2': 0, 'depth': 1.157, 'yaw': 2.37, 'datetime': '2018-12-18 17:21:32.276896', 'mgs': 0, 'flw2': 2.61, 'flw1': 0.41, 'flw0': 3.13, 'time': 15.24, 'compass': -88.96, 'pitch': 7.36, 'roll': 5.11}
{'lipoC2': 0.04, 'temp': 0.0, 'lipoC3S3': 12.51, 'state': 'normal', 'rot1': 112, 'rot0': 122, 'rot3': 0, 'rot2': 0, 'depth': -1.437, 'yaw': 0.66, 'datetime': '2018-12-18 17:21:32.480842', 'mgs': 0, 'flw2': 1.25, 'flw1': 0.0, 'flw0': 2.94, 'time': 15.45, 'compass': -90.66, 'pitch': 8.51, 'roll': 4.94}
{'lipoC2': 0.01, 'temp': 0.0, 'lipoC3S3': 12.33, 'state': 'normal', 'rot1': 114, 'rot0': 123, 'rot3': 0, 'rot2': 0, 'depth': 1.462, 'yaw': -1.44, 'datetime': '2018-12-18 17:21:32.691276', 'mgs': 0, 'flw2': 0.18, 'flw1': 0.0, 'flw0': 2.81, 'time': 15.66, 'compass': -92.76, 'pitch': 8.86, 'roll': 5.08}
{'lipoC2': 0.01, 'temp': 0.0, 'lipoC3S3': 12.37, 'state': 'normal', 'rot1': 117, 'rot0': 123, 'rot3': 0, 'rot2': 0, 'depth': 1.462, 'yaw': -6.19, 'datetime': '2018-12-18 17:21:32.906673', 'mgs': 0, 'flw2': 0.0, 'flw1': 0.38, 'flw0': 3.05, 'time': 15.87, 'compass': -97.52, 'pitch': 6.92, 'roll': 4.92}
{'lipoC2': 0.08, 'temp': 0.0, 'lipoC3S3': 12.25, 'state': 'normal', 'rot1': 119, 'rot0': 124, 'rot3': 0, 'rot2': 0, 'depth': 0.47, 'yaw': -12.1, 'datetime': '2018-12-18 17:21:33.113675', 'mgs': 0, 'flw2': 2.08, 'flw1': 0.0, 'flw0': 2.76, 'time': 16.08, 'compass': -103.43, 'pitch': 5.12, 'roll': 4.96}
{'lipoC2': 0.0, 'temp': 0.0, 'lipoC3S3': 12.62, 'state': 'normal', 'rot1': 122, 'rot0': 126, 'rot3': 0, 'rot2': 0, 'depth': 1.691, 'yaw': -16.39, 'datetime': '2018-12-18 17:21:33.322032', 'mgs': 0, 'flw2': 3.05, 'flw1': 0.0, 'flw0': 2.83, 'time': 16.29, 'compass': -107.72, 'pitch': 5.44, 'roll': 5.63}
{'lipoC2': 0.04, 'temp': 0.0, 'lipoC3S3': 12.25, 'state': 'normal', 'rot1': 124, 'rot0': 128, 'rot3': 0, 'rot2': 0, 'depth': 1.309, 'yaw': -19.49, 'datetime': '2018-12-18 17:21:33.532808', 'mgs': 0, 'flw2': 3.0, 'flw1': 0.0, 'flw0': 2.7, 'time': 16.5, 'compass': -110.81, 'pitch': 6.22, 'roll': 6.26}
{'lipoC2': 0.0, 'temp': 0.0, 'lipoC3S3': 12.54, 'state': 'normal', 'rot1': 127, 'rot0': 131, 'rot3': 0, 'rot2': 0, 'depth': 1.157, 'yaw': -21.71, 'datetime': '2018-12-18 17:21:33.741513', 'mgs': 0, 'flw2': 1.86, 'flw1': 0.0, 'flw0': 2.95, 'time': 16.7, 'compass': -113.04, 'pitch': 5.99, 'roll': 6.45}
{'lipoC2': 0.1, 'temp': 0.0, 'lipoC3S3': 12.22, 'state': 'normal', 'rot1': 129, 'rot0': 131, 'rot3': 0, 'rot2': 0, 'depth': 1.08, 'yaw': -24.64, 'datetime': '2018-12-18 17:21:33.950367', 'mgs': 0, 'flw2': 0.2, 'flw1': 0.0, 'flw0': 2.75, 'time': 16.91, 'compass': -115.97, 'pitch': 4.66, 'roll': 6.31}
{'lipoC2': 0.0, 'temp': 0.0, 'lipoC3S3': 12.47, 'state': 'normal', 'rot1': 131, 'rot0': 131, 'rot3': 0, 'rot2': 0, 'depth': -0.217, 'yaw': -29.6, 'datetime': '2018-12-18 17:21:34.158660', 'mgs': 0, 'flw2': 0.0, 'flw1': 0.44, 'flw0': 0.0, 'time': 17.12, 'compass': -120.93, 'pitch': 3.05, 'roll': 5.91}
{'lipoC2': 0.01, 'temp': 0.0, 'lipoC3S3': 12.34, 'state': 'normal', 'rot1': 131, 'rot0': 131, 'rot3': 0, 'rot2': 0, 'depth': 1.538, 'yaw': -33.68, 'datetime': '2018-12-18 17:21:34.370152', 'mgs': 0, 'flw2': 0.0, 'flw1': 0.32, 'flw0': 0.11, 'time': 17.33, 'compass': -125.01, 'pitch': 2.32, 'roll': 5.86}
{'lipoC2': 0.02, 'temp': 0.0, 'lipoC3S3': 12.54, 'state': 'normal', 'rot1': 131, 'rot0': 131, 'rot3': 0, 'rot2': 0, 'depth': 1.462, 'yaw': -36.94, 'datetime': '2018-12-18 17:21:34.577786', 'mgs': 0, 'flw2': 0.0, 'flw1': 0.38, 'flw0': 0.04, 'time': 17.54, 'compass': -128.27, 'pitch': 2.17, 'roll': 6.37}
{'lipoC2': 0.09, 'temp': 0.0, 'lipoC3S3': 12.23, 'state': 'normal', 'rot1': 131, 'rot0': 131, 'rot3': 0, 'rot2': 0, 'depth': 0.47, 'yaw': -39.68, 'datetime': '2018-12-18 17:21:34.786160', 'mgs': 0, 'flw2': 0.16, 'flw1': 0.12, 'flw0': 0.0, 'time': 17.75, 'compass': -131.0, 'pitch': 2.49, 'roll': 6.98}
{'lipoC2': 0.0, 'temp': 0.0, 'lipoC3S3': 12.66, 'state': 'normal', 'rot1': 131, 'rot0': 131, 'rot3': 0, 'rot2': 0, 'depth': -0.369, 'yaw': -42.09, 'datetime': '2018-12-18 17:21:34.996166', 'mgs': 0, 'flw2': 0.0, 'flw1': 0.0, 'flw0': 0.2, 'time': 17.96, 'compass': -133.42, 'pitch': 2.69, 'roll': 7.33}
{'lipoC2': 0.18, 'temp': 0.0, 'lipoC3S3': 12.34, 'state': 'normal', 'rot1': 131, 'rot0': 131, 'rot3': 0, 'rot2': 0, 'depth': -0.98, 'yaw': -44.29, 'datetime': '2018-12-18 17:21:35.204586', 'mgs': 0, 'flw2': 0.0, 'flw1': 0.35, 'flw0': 0.0, 'time': 18.17, 'compass': -135.62, 'pitch': 2.56, 'roll': 7.48}
{'lipoC2': 0.0, 'temp': 0.0, 'lipoC3S3': 12.62, 'state': 'normal', 'rot1': 131, 'rot0': 131, 'rot3': 0, 'rot2': 0, 'depth': 1.691, 'yaw': -46.33, 'datetime': '2018-12-18 17:21:35.414786', 'mgs': 0, 'flw2': 0.18, 'flw1': 0.09, 'flw0': 0.0, 'time': 18.38, 'compass': -137.66, 'pitch': 2.3, 'roll': 7.57}
{'lipoC2': 0.15, 'temp': 0.0, 'lipoC3S3': 12.37, 'state': 'normal', 'rot1': 131, 'rot0': 131, 'rot3': 0, 'rot2': 0, 'depth': -0.903, 'yaw': -48.13, 'datetime': '2018-12-18 17:21:35.625237', 'mgs': 0, 'flw2': 0.0, 'flw1': 0.41, 'flw0': 0.0, 'time': 18.59, 'compass': -139.46, 'pitch': 1.95, 'roll': 7.55}
{'lipoC2': 0.0, 'temp': 0.0, 'lipoC3S3': 12.54, 'state': 'normal', 'rot1': 131, 'rot0': 131, 'rot3': 0, 'rot2': 0, 'depth': 1.157, 'yaw': -49.75, 'datetime': '2018-12-18 17:21:35.834593', 'mgs': 0, 'flw2': 0.0, 'flw1': 0.41, 'flw0': 0.06, 'time': 18.8, 'compass': -141.07, 'pitch': 1.57, 'roll': 7.39}
{'lipoC2': 0.06, 'temp': 0.0, 'lipoC3S3': 12.5, 'state': 'normal', 'rot1': 131, 'rot0': 131, 'rot3': 0, 'rot2': 0, 'depth': -1.666, 'yaw': -51.01, 'datetime': '2018-12-18 17:21:36.044953', 'mgs': 0, 'flw2': 0.2, 'flw1': 0.0, 'flw0': 0.0, 'time': 19.01, 'compass': -142.34, 'pitch': 1.35, 'roll': 7.36}
{'lipoC2': 0.0, 'temp': 0.0, 'lipoC3S3': 12.5, 'state': 'normal', 'rot1': 131, 'rot0': 131, 'rot3': 0, 'rot2': 0, 'depth': 0.546, 'yaw': -51.78, 'datetime': '2018-12-18 17:21:36.252972', 'mgs': 0, 'flw2': 0.2, 'flw1': 0.0, 'flw0': 0.0, 'time': 19.22, 'compass': -143.1, 'pitch': 1.26, 'roll': 7.41}
{'lipoC2': 0.0, 'temp': 0.0, 'lipoC3S3': 12.54, 'state': 'normal', 'rot1': 131, 'rot0': 131, 'rot3': 0, 'rot2': 0, 'depth': 1.08, 'yaw': -52.05, 'datetime': '2018-12-18 17:21:36.462099', 'mgs': 0, 'flw2': 0.0, 'flw1': 0.35, 'flw0': 0.07, 'time': 19.42, 'compass': -143.38, 'pitch': 1.22, 'roll': 7.58}
{'lipoC2': 0.12, 'temp': 0.0, 'lipoC3S3': 12.64, 'state': 'normal', 'rot1': 131, 'rot0': 131, 'rot3': 0, 'rot2': 0, 'depth': 0.699, 'yaw': -52.03, 'datetime': '2018-12-18 17:21:36.674409', 'mgs': 0, 'flw2': 0.0, 'flw1': 0.0, 'flw0': 0.2, 'time': 19.63, 'compass': -143.36, 'pitch': 1.22, 'roll': 7.59}
{'lipoC2': 0.15, 'temp': 0.0, 'lipoC3S3': 12.39, 'state': 'normal', 'rot1': 131, 'rot0': 131, 'rot3': 0, 'rot2': 0, 'depth': -1.132, 'yaw': -51.78, 'datetime': '2018-12-18 17:21:36.882363', 'mgs': 0, 'flw2': 0.01, 'flw1': 0.0, 'flw0': 0.16, 'time': 19.84, 'compass': -143.1, 'pitch': 1.25, 'roll': 7.51}
{'lipoC2': 0.13, 'temp': 0.0, 'lipoC3S3': 12.45, 'state': 'normal', 'rot1': 131, 'rot0': 131, 'rot3': 0, 'rot2': 0, 'depth': -1.514, 'yaw': -51.41, 'datetime': '2018-12-18 17:21:37.099006', 'mgs': 0, 'flw2': 0.0, 'flw1': 0.44, 'flw0': 0.0, 'time': 20.05, 'compass': -142.73, 'pitch': 1.29, 'roll': 7.47}
{'lipoC2': 0.0, 'temp': 0.0, 'lipoC3S3': 12.45, 'state': 'normal', 'rot1': 131, 'rot0': 131, 'rot3': 0, 'rot2': 0, 'depth': 0.47, 'yaw': -50.92, 'datetime': '2018-12-18 17:21:37.305621', 'mgs': 0, 'flw2': 0.0, 'flw1': 0.41, 'flw0': 0.0, 'time': 20.26, 'compass': -142.24, 'pitch': 1.35, 'roll': 7.46}
{'lipoC2': 0.0, 'temp': 0.0, 'lipoC3S3': 12.64, 'state': 'normal', 'rot1': 133, 'rot0': 131, 'rot3': 0, 'rot2': 0, 'depth': 1.614, 'yaw': -50.63, 'datetime': '2018-12-18 17:21:37.512879', 'mgs': 0, 'flw2': 0.0, 'flw1': 0.06, 'flw0': 3.2, 'time': 20.47, 'compass': -141.95, 'pitch': 1.49, 'roll': 7.41}
{'lipoC2': 0.0, 'temp': 0.0, 'lipoC3S3': 12.51, 'state': 'normal', 'rot1': 135, 'rot0': 131, 'rot3': 0, 'rot2': 0, 'depth': -1.208, 'yaw': -53.05, 'datetime': '2018-12-18 17:21:37.720307', 'mgs': 0, 'flw2': 0.16, 'flw1': 0.0, 'flw0': 3.0, 'time': 20.68, 'compass': -144.38, 'pitch': 2.75, 'roll': 6.94}
{'lipoC2': 0.06, 'temp': 0.0, 'lipoC3S3': 12.25, 'state': 'normal', 'rot1': 137, 'rot0': 131, 'rot3': 0, 'rot2': 0, 'depth': 0.394, 'yaw': -57.92, 'datetime': '2018-12-18 17:21:37.934331', 'mgs': 0, 'flw2': 0.24, 'flw1': 0.03, 'flw0': 0.0, 'time': 20.89, 'compass': -149.25, 'pitch': 3.34, 'roll': 6.54}
{'lipoC2': 0.14, 'temp': 0.0, 'lipoC3S3': 12.31, 'state': 'normal', 'rot1': 137, 'rot0': 131, 'rot3': 0, 'rot2': 0, 'depth': 1.004, 'yaw': -62.15, 'datetime': '2018-12-18 17:21:38.147216', 'mgs': 0, 'flw2': 0.0, 'flw1': 0.0, 'flw0': 0.17, 'time': 21.1, 'compass': -153.47, 'pitch': 1.22, 'roll': 6.79}
{'lipoC2': 0.0, 'temp': 0.0, 'lipoC3S3': 12.63, 'state': 'normal', 'rot1': 137, 'rot0': 131, 'rot3': 0, 'rot2': 0, 'depth': 1.767, 'yaw': -65.39, 'datetime': '2018-12-18 17:21:38.355489', 'mgs': 0, 'flw2': 0.0, 'flw1': 0.0, 'flw0': 0.2, 'time': 21.31, 'compass': -156.71, 'pitch': -1.28, 'roll': 7.35}
{'lipoC2': 0.0, 'temp': 0.0, 'lipoC3S3': 12.64, 'state': 'normal', 'rot1': 137, 'rot0': 131, 'rot3': 0, 'rot2': 0, 'depth': 1.767, 'yaw': -68.0, 'datetime': '2018-12-18 17:21:38.559181', 'mgs': 0, 'flw2': 0.0, 'flw1': 0.18, 'flw0': 0.17, 'time': 21.52, 'compass': -159.32, 'pitch': -1.52, 'roll': 7.69}
{'lipoC2': 0.0, 'temp': 0.0, 'lipoC3S3': 12.31, 'state': 'normal', 'rot1': 137, 'rot0': 131, 'rot3': 0, 'rot2': 0, 'depth': -0.98, 'yaw': -70.12, 'datetime': '2018-12-18 17:21:38.770424', 'mgs': 0, 'flw2': 0.02, 'flw1': 0.0, 'flw0': 0.15, 'time': 21.73, 'compass': -161.45, 'pitch': -0.37, 'roll': 7.76}
{'lipoC2': 0.15, 'temp': 0.0, 'lipoC3S3': 12.37, 'state': 'normal', 'rot1': 137, 'rot0': 131, 'rot3': 0, 'rot2': 0, 'depth': -0.751, 'yaw': -71.88, 'datetime': '2018-12-18 17:21:38.979739', 'mgs': 0, 'flw2': 0.0, 'flw1': 0.38, 'flw0': 0.0, 'time': 21.93, 'compass': -163.21, 'pitch': -0.12, 'roll': 7.74}
{'lipoC2': 0.13, 'temp': 0.0, 'lipoC3S3': 12.43, 'state': 'normal', 'rot1': 137, 'rot0': 131, 'rot3': 0, 'rot2': 0, 'depth': -1.056, 'yaw': -73.53, 'datetime': '2018-12-18 17:21:39.190413', 'mgs': 0, 'flw2': 0.0, 'flw1': 0.41, 'flw0': 0.0, 'time': 22.15, 'compass': -164.85, 'pitch': -1.03, 'roll': 7.71}
{'lipoC2': 0.0, 'temp': 0.0, 'lipoC3S3': 12.38, 'state': 'normal', 'rot1': 137, 'rot0': 131, 'rot3': 0, 'rot2': 0, 'depth': 1.233, 'yaw': -75.01, 'datetime': '2018-12-18 17:21:39.402517', 'mgs': 0, 'flw2': 0.0, 'flw1': 0.44, 'flw0': 0.0, 'time': 22.35, 'compass': -166.34, 'pitch': -1.87, 'roll': 7.68}
{'lipoC2': 0.08, 'temp': 0.0, 'lipoC3S3': 12.48, 'state': 'normal', 'rot1': 137, 'rot0': 131, 'rot3': 0, 'rot2': 0, 'depth': -1.895, 'yaw': -76.35, 'datetime': '2018-12-18 17:21:39.608848', 'mgs': 0, 'flw2': 0.18, 'flw1': 0.0, 'flw0': 0.0, 'time': 22.56, 'compass': -167.67, 'pitch': -1.68, 'roll': 7.64}
{'lipoC2': 0.0, 'temp': 0.0, 'lipoC3S3': 12.48, 'state': 'normal', 'rot1': 137, 'rot0': 131, 'rot3': 0, 'rot2': 0, 'depth': -0.064, 'yaw': -77.54, 'datetime': '2018-12-18 17:21:39.817713', 'mgs': 0, 'flw2': 0.18, 'flw1': 0.0, 'flw0': 0.0, 'time': 22.77, 'compass': -168.87, 'pitch': -1.1, 'roll': 7.6}
{'lipoC2': 0.08, 'temp': 0.0, 'lipoC3S3': 12.23, 'state': 'normal', 'rot1': 137, 'rot0': 131, 'rot3': 0, 'rot2': 0, 'depth': 0.317, 'yaw': -78.6, 'datetime': '2018-12-18 17:21:40.028774', 'mgs': 0, 'flw2': 0.17, 'flw1': 0.06, 'flw0': 0.0, 'time': 22.98, 'compass': -169.92, 'pitch': -1.19, 'roll': 7.76}
{'lipoC2': 0.0, 'temp': 0.0, 'lipoC3S3': 12.66, 'state': 'normal', 'rot1': 137, 'rot0': 131, 'rot3': 0, 'rot2': 0, 'depth': 1.691, 'yaw': -79.5, 'datetime': '2018-12-18 17:21:40.237856', 'mgs': 0, 'flw2': 0.0, 'flw1': 0.0, 'flw0': 0.21, 'time': 23.19, 'compass': -170.82, 'pitch': -1.9, 'roll': 8.0}
{'lipoC2': 0.0, 'temp': 0.0, 'lipoC3S3': 12.41, 'state': 'normal', 'rot1': 137, 'rot0': 131, 'rot3': 0, 'rot2': 0, 'depth': 0.623, 'yaw': -80.33, 'datetime': '2018-12-18 17:21:40.447124', 'mgs': 0, 'flw2': 0.04, 'flw1': 0.0, 'flw0': 0.15, 'time': 23.4, 'compass': -171.66, 'pitch': -2.33, 'roll': 8.05}
{'lipoC2': 0.0, 'temp': 0.0, 'lipoC3S3': 12.63, 'state': 'normal', 'rot1': 137, 'rot0': 131, 'rot3': 0, 'rot2': 0, 'depth': 1.691, 'yaw': -81.04, 'datetime': '2018-12-18 17:21:40.660324', 'mgs': 0, 'flw2': 0.0, 'flw1': 0.18, 'flw0': 0.17, 'time': 23.61, 'compass': -172.37, 'pitch': -2.04, 'roll': 8.01}
{'lipoC2': 0.0, 'temp': 0.0, 'lipoC3S3': 12.46, 'state': 'normal', 'rot1': 137, 'rot0': 131, 'rot3': 0, 'rot2': 0, 'depth': 0.623, 'yaw': -81.66, 'datetime': '2018-12-18 17:21:40.866557', 'mgs': 0, 'flw2': 0.12, 'flw1': 0.0, 'flw0': 0.09, 'time': 23.82, 'compass': -172.99, 'pitch': -1.66, 'roll': 7.99}
{'lipoC2': 0.02, 'temp': 0.0, 'lipoC3S3': 12.29, 'state': 'normal', 'rot1': 137, 'rot0': 131, 'rot3': 0, 'rot2': 0, 'depth': 0.241, 'yaw': -82.25, 'datetime': '2018-12-18 17:21:41.078487', 'mgs': 0, 'flw2': 0.0, 'flw1': 0.26, 'flw0': 0.13, 'time': 24.03, 'compass': -173.58, 'pitch': -1.83, 'roll': 7.97}
{'lipoC2': 0.0, 'temp': 0.0, 'lipoC3S3': 12.62, 'state': 'normal', 'rot1': 137, 'rot0': 131, 'rot3': 0, 'rot2': 0, 'depth': 1.767, 'yaw': -82.8, 'datetime': '2018-12-18 17:21:41.288384', 'mgs': 0, 'flw2': 0.17, 'flw1': 0.12, 'flw0': 0.0, 'time': 24.24, 'compass': -174.13, 'pitch': -2.22, 'roll': 7.95}
{'lipoC2': 0.11, 'temp': 0.0, 'lipoC3S3': 12.47, 'state': 'normal', 'rot1': 137, 'rot0': 131, 'rot3': 0, 'rot2': 0, 'depth': -1.971, 'yaw': -83.28, 'datetime': '2018-12-18 17:21:41.498947', 'mgs': 0, 'flw2': 0.12, 'flw1': 0.0, 'flw0': 0.06, 'time': 24.45, 'compass': -174.61, 'pitch': -2.2, 'roll': 7.93}
{'lipoC2': 0.14, 'temp': 0.0, 'lipoC3S3': 12.42, 'state': 'normal', 'rot1': 137, 'rot0': 131, 'rot3': 0, 'rot2': 0, 'depth': -1.208, 'yaw': -83.79, 'datetime': '2018-12-18 17:21:41.706924', 'mgs': 0, 'flw2': 0.05, 'flw1': 0.0, 'flw0': 0.13, 'time': 24.66, 'compass': -175.12, 'pitch': -1.84, 'roll': 7.92}
{'lipoC2': 0.0, 'temp': 0.0, 'lipoC3S3': 12.59, 'state': 'normal', 'rot1': 137, 'rot0': 131, 'rot3': 0, 'rot2': 0, 'depth': 1.538, 'yaw': -84.27, 'datetime': '2018-12-18 17:21:41.920994', 'mgs': 0, 'flw2': 0.0, 'flw1': 0.32, 'flw0': 0.1, 'time': 24.87, 'compass': -175.6, 'pitch': -1.82, 'roll': 8.04}
{'lipoC2': 0.0, 'temp': 0.0, 'lipoC3S3': 12.47, 'state': 'normal', 'rot1': 137, 'rot0': 131, 'rot3': 0, 'rot2': 0, 'depth': 0.012, 'yaw': -84.72, 'datetime': '2018-12-18 17:21:42.127052', 'mgs': 0, 'flw2': 0.13, 'flw1': 0.0, 'flw0': 0.04, 'time': 25.08, 'compass': -176.05, 'pitch': -2.18, 'roll': 8.26}
{'lipoC2': 0.1, 'temp': 0.0, 'lipoC3S3': 12.47, 'state': 'normal', 'rot1': 137, 'rot0': 131, 'rot3': 0, 'rot2': 0, 'depth': -1.971, 'yaw': -85.17, 'datetime': '2018-12-18 17:21:42.336461', 'mgs': 0, 'flw2': 0.12, 'flw1': 0.0, 'flw0': 0.06, 'time': 25.28, 'compass': -176.5, 'pitch': -2.44, 'roll': 8.38}
{'lipoC2': 0.0, 'temp': 0.0, 'lipoC3S3': 12.48, 'state': 'normal', 'rot1': 137, 'rot0': 131, 'rot3': 0, 'rot2': 0, 'depth': -0.369, 'yaw': -85.6, 'datetime': '2018-12-18 17:21:42.544675', 'mgs': 0, 'flw2': 0.12, 'flw1': 0.0, 'flw0': 0.04, 'time': 25.49, 'compass': -176.92, 'pitch': -2.34, 'roll': 8.36}
{'lipoC2': 0.08, 'temp': 0.0, 'lipoC3S3': 12.5, 'state': 'normal', 'rot1': 137, 'rot0': 131, 'rot3': 0, 'rot2': 0, 'depth': -1.895, 'yaw': -85.96, 'datetime': '2018-12-18 17:21:42.753797', 'mgs': 0, 'flw2': 0.18, 'flw1': 0.0, 'flw0': 0.0, 'time': 25.7, 'compass': -177.29, 'pitch': -2.1, 'roll': 8.24}
{'lipoC2': 0.0, 'temp': 0.0, 'lipoC3S3': 12.64, 'state': 'normal', 'rot1': 137, 'rot0': 131, 'rot3': 0, 'rot2': 0, 'depth': 1.614, 'yaw': -86.32, 'datetime': '2018-12-18 17:21:42.963868', 'mgs': 0, 'flw2': 0.0, 'flw1': 0.0, 'flw0': 0.2, 'time': 25.91, 'compass': -177.65, 'pitch': -2.08, 'roll': 8.21}
{'lipoC2': 0.12, 'temp': 0.0, 'lipoC3S3': 12.45, 'state': 'normal', 'rot1': 137, 'rot0': 131, 'rot3': 0, 'rot2': 0, 'depth': -1.895, 'yaw': -86.65, 'datetime': '2018-12-18 17:21:43.175385', 'mgs': 0, 'flw2': 0.0, 'flw1': 0.44, 'flw0': 0.0, 'time': 26.12, 'compass': -177.98, 'pitch': -2.25, 'roll': 8.2}
{'lipoC2': 0.0, 'temp': 0.0, 'lipoC3S3': 12.31, 'state': 'normal', 'rot1': 137, 'rot0': 131, 'rot3': 0, 'rot2': 0, 'depth': -0.674, 'yaw': -86.98, 'datetime': '2018-12-18 17:21:43.386021', 'mgs': 0, 'flw2': 0.0, 'flw1': 0.0, 'flw0': 0.17, 'time': 26.33, 'compass': -178.31, 'pitch': -2.52, 'roll': 8.2}
{'lipoC2': 0.0, 'temp': 0.0, 'lipoC3S3': 12.64, 'state': 'normal', 'rot1': 137, 'rot0': 131, 'rot3': 0, 'rot2': 0, 'depth': 1.614, 'yaw': -87.28, 'datetime': '2018-12-18 17:21:43.591510', 'mgs': 0, 'flw2': 0.16, 'flw1': 0.0, 'flw0': 0.21, 'time': 26.54, 'compass': -178.61, 'pitch': -2.64, 'roll': 8.18}
{'lipoC2': 0.03, 'temp': 0.0, 'lipoC3S3': 12.54, 'state': 'normal', 'rot1': 137, 'rot0': 131, 'rot3': 0, 'rot2': 0, 'depth': 1.538, 'yaw': -87.56, 'datetime': '2018-12-18 17:21:43.799983', 'mgs': 0, 'flw2': 0.17, 'flw1': 0.03, 'flw0': 0.0, 'time': 26.75, 'compass': -178.89, 'pitch': -2.49, 'roll': 8.17}
{'lipoC2': 0.01, 'temp': 0.0, 'lipoC3S3': 12.3, 'state': 'normal', 'rot1': 137, 'rot0': 131, 'rot3': 0, 'rot2': 0, 'depth': -0.14, 'yaw': -87.82, 'datetime': '2018-12-18 17:21:44.009938', 'mgs': 0, 'flw2': 0.17, 'flw1': 0.03, 'flw0': 0.0, 'time': 26.96, 'compass': -179.15, 'pitch': -2.22, 'roll': 8.16}
{'lipoC2': 0.1, 'temp': 0.0, 'lipoC3S3': 12.23, 'state': 'normal', 'rot1': 137, 'rot0': 131, 'rot3': 0, 'rot2': 0, 'depth': 0.47, 'yaw': -88.08, 'datetime': '2018-12-18 17:21:44.219651', 'mgs': 0, 'flw2': 0.12, 'flw1': 0.29, 'flw0': 0.0, 'time': 27.17, 'compass': -179.4, 'pitch': -2.23, 'roll': 8.15}
{'lipoC2': 0.0, 'temp': 0.0, 'lipoC3S3': 12.63, 'state': 'normal', 'rot1': 137, 'rot0': 131, 'rot3': 0, 'rot2': 0, 'depth': 1.691, 'yaw': -88.31, 'datetime': '2018-12-18 17:21:44.429311', 'mgs': 0, 'flw2': 0.0, 'flw1': 0.0, 'flw0': 0.2, 'time': 27.38, 'compass': -179.63, 'pitch': -2.55, 'roll': 8.17}
{'lipoC2': 0.05, 'temp': 0.0, 'lipoC3S3': 12.25, 'state': 'normal', 'rot1': 137, 'rot0': 131, 'rot3': 0, 'rot2': 0, 'depth': 0.241, 'yaw': -88.51, 'datetime': '2018-12-18 17:21:44.639154', 'mgs': 0, 'flw2': 0.18, 'flw1': 0.03, 'flw0': 0.0, 'time': 27.59, 'compass': -179.84, 'pitch': -2.69, 'roll': 8.25}
{'lipoC2': 0.0, 'temp': 0.0, 'lipoC3S3': 12.64, 'state': 'normal', 'rot1': 137, 'rot0': 131, 'rot3': 0, 'rot2': 0, 'depth': 1.691, 'yaw': -88.69, 'datetime': '2018-12-18 17:21:44.848902', 'mgs': 0, 'flw2': 0.0, 'flw1': 0.0, 'flw0': 0.2, 'time': 27.8, 'compass': 179.98, 'pitch': -2.48, 'roll': 8.23}
{'lipoC2': 0.15, 'temp': 0.0, 'lipoC3S3': 12.21, 'state': 'normal', 'rot1': 137, 'rot0': 131, 'rot3': 0, 'rot2': 0, 'depth': 0.47, 'yaw': -88.87, 'datetime': '2018-12-18 17:21:45.059167', 'mgs': 0, 'flw2': 0.16, 'flw1': 0.21, 'flw0': 0.0, 'time': 28.01, 'compass': 179.8, 'pitch': -2.17, 'roll': 8.23}
{'lipoC2': 0.12, 'temp': 0.0, 'lipoC3S3': 12.45, 'state': 'normal', 'rot1': 137, 'rot0': 131, 'rot3': 0, 'rot2': 0, 'depth': -1.971, 'yaw': -89.01, 'datetime': '2018-12-18 17:21:45.267979', 'mgs': 0, 'flw2': 0.0, 'flw1': 0.47, 'flw0': 0.0, 'time': 28.22, 'compass': 179.66, 'pitch': -2.23, 'roll': 8.23}
{'lipoC2': 0.0, 'temp': 0.0, 'lipoC3S3': 12.66, 'state': 'normal', 'rot1': 137, 'rot0': 131, 'rot3': 0, 'rot2': 0, 'depth': 1.691, 'yaw': -89.09, 'datetime': '2018-12-18 17:21:45.477224', 'mgs': 0, 'flw2': 0.13, 'flw1': 0.29, 'flw0': 0.0, 'time': 28.43, 'compass': 179.59, 'pitch': -2.58, 'roll': 8.33}
{'lipoC2': 0.0, 'temp': 0.0, 'lipoC3S3': 12.63, 'state': 'normal', 'rot1': 137, 'rot0': 131, 'rot3': 0, 'rot2': 0, 'depth': 1.691, 'yaw': -89.1, 'datetime': '2018-12-18 17:21:45.691996', 'mgs': 0, 'flw2': 0.18, 'flw1': 0.26, 'flw0': 0.17, 'time': 28.64, 'compass': 179.58, 'pitch': -2.7, 'roll': 8.33}
{'lipoC2': 0.01, 'temp': 0.0, 'lipoC3S3': 12.52, 'state': 'normal', 'rot1': 137, 'rot0': 131, 'rot3': 0, 'rot2': 0, 'depth': -1.132, 'yaw': -89.1, 'datetime': '2018-12-18 17:21:45.901612', 'mgs': 0, 'flw2': 0.21, 'flw1': 0.0, 'flw0': 0.0, 'time': 28.85, 'compass': 179.57, 'pitch': -2.39, 'roll': 8.33}
{'lipoC2': 0.0, 'temp': 0.0, 'lipoC3S3': 12.62, 'state': 'normal', 'rot1': 137, 'rot0': 131, 'rot3': 0, 'rot2': 0, 'depth': 1.691, 'yaw': -89.1, 'datetime': '2018-12-18 17:21:46.112192', 'mgs': 0, 'flw2': 0.0, 'flw1': 0.32, 'flw0': 0.11, 'time': 29.05, 'compass': 179.58, 'pitch': -2.16, 'roll': 8.33}
{'lipoC2': 0.0, 'temp': 0.0, 'lipoC3S3': 12.31, 'state': 'normal', 'rot1': 137, 'rot0': 131, 'rot3': 0, 'rot2': 0, 'depth': 1.233, 'yaw': -89.1, 'datetime': '2018-12-18 17:21:46.319864', 'mgs': 0, 'flw2': 0.01, 'flw1': 0.0, 'flw0': 0.16, 'time': 29.26, 'compass': 179.57, 'pitch': -2.3, 'roll': 8.33}
{'lipoC2': 0.0, 'temp': 0.0, 'lipoC3S3': 12.63, 'state': 'normal', 'rot1': 137, 'rot0': 131, 'rot3': 0, 'rot2': 0, 'depth': -1.819, 'yaw': -89.1, 'datetime': '2018-12-18 17:21:46.530082', 'mgs': 0, 'flw2': 0.0, 'flw1': 0.0, 'flw0': 0.18, 'time': 29.47, 'compass': 179.57, 'pitch': -2.53, 'roll': 8.34}
{'lipoC2': 0.0, 'temp': 0.0, 'lipoC3S3': 12.5, 'state': 'normal', 'rot1': 137, 'rot0': 131, 'rot3': 0, 'rot2': 0, 'depth': 0.775, 'yaw': -89.1, 'datetime': '2018-12-18 17:21:46.741797', 'mgs': 0, 'flw2': 0.0, 'flw1': 0.35, 'flw0': 0.05, 'time': 29.68, 'compass': 179.57, 'pitch': -2.46, 'roll': 8.38}
{'lipoC2': 0.0, 'temp': 0.0, 'lipoC3S3': 12.55, 'state': 'normal', 'rot1': 137, 'rot0': 131, 'rot3': 0, 'rot2': 0, 'depth': 1.157, 'yaw': -89.1, 'datetime': '2018-12-18 17:21:46.949766', 'mgs': 0, 'flw2': 0.0, 'flw1': 0.23, 'flw0': 0.13, 'time': 29.89, 'compass': 179.57, 'pitch': -2.22, 'roll': 8.37}
{'lipoC2': 0.12, 'temp': 0.0, 'lipoC3S3': 12.46, 'state': 'normal', 'rot1': 137, 'rot0': 131, 'rot3': 0, 'rot2': 0, 'depth': -1.666, 'yaw': -89.11, 'datetime': '2018-12-18 17:21:47.162298', 'mgs': 0, 'flw2': 0.17, 'flw1': 0.0, 'flw0': 0.01, 'time': 30.1, 'compass': 179.57, 'pitch': -2.17, 'roll': 8.37}
{'lipoC2': 0.05, 'temp': 0.0, 'lipoC3S3': 12.26, 'state': 'normal', 'rot1': 137, 'rot0': 131, 'rot3': 0, 'rot2': 0, 'depth': 1.309, 'yaw': -89.1, 'datetime': '2018-12-18 17:21:47.370856', 'mgs': 0, 'flw2': 0.15, 'flw1': 0.0, 'flw0': 0.0, 'time': 30.31, 'compass': 179.57, 'pitch': -2.39, 'roll': 8.37}
{'lipoC2': 0.0, 'temp': 0.0, 'lipoC3S3': 12.58, 'state': 'normal', 'rot1': 137, 'rot0': 131, 'rot3': 0, 'rot2': 0, 'depth': 1.385, 'yaw': -89.1, 'datetime': '2018-12-18 17:21:47.580053', 'mgs': 0, 'flw2': 0.0, 'flw1': 0.26, 'flw0': 0.12, 'time': 30.52, 'compass': 179.57, 'pitch': -2.57, 'roll': 8.38}
{'lipoC2': 0.0, 'temp': 0.0, 'lipoC3S3': 12.64, 'state': 'normal', 'rot1': 137, 'rot0': 131, 'rot3': 0, 'rot2': 0, 'depth': 1.691, 'yaw': -89.1, 'datetime': '2018-12-18 17:21:47.786596', 'mgs': 0, 'flw2': 0.0, 'flw1': 0.0, 'flw0': 0.18, 'time': 30.73, 'compass': 179.57, 'pitch': -2.4, 'roll': 8.37}
{'lipoC2': 0.0, 'temp': 0.0, 'lipoC3S3': 12.66, 'state': 'normal', 'rot1': 137, 'rot0': 131, 'rot3': 0, 'rot2': 0, 'depth': 1.614, 'yaw': -89.11, 'datetime': '2018-12-18 17:21:48.001317', 'mgs': 0, 'flw2': 0.0, 'flw1': 0.0, 'flw0': 0.22, 'time': 30.94, 'compass': 179.57, 'pitch': -2.08, 'roll': 8.37}
{'lipoC2': 0.03, 'temp': 0.0, 'lipoC3S3': 12.52, 'state': 'normal', 'rot1': 137, 'rot0': 131, 'rot3': 0, 'rot2': 0, 'depth': -1.59, 'yaw': -89.1, 'datetime': '2018-12-18 17:21:48.209561', 'mgs': 0, 'flw2': 0.0, 'flw1': 0.38, 'flw0': 0.04, 'time': 31.15, 'compass': 179.57, 'pitch': -2.03, 'roll': 8.37}
{'lipoC2': 0.06, 'temp': 0.0, 'lipoC3S3': 12.51, 'state': 'normal', 'rot1': 137, 'rot0': 131, 'rot3': 0, 'rot2': 0, 'depth': -1.743, 'yaw': -89.11, 'datetime': '2018-12-18 17:21:48.419717', 'mgs': 0, 'flw2': 0.2, 'flw1': 0.0, 'flw0': 0.0, 'time': 31.36, 'compass': 179.57, 'pitch': -2.24, 'roll': 8.46}
{'lipoC2': 0.04, 'temp': 0.0, 'lipoC3S3': 12.26, 'state': 'normal', 'rot1': 137, 'rot0': 131, 'rot3': 0, 'rot2': 0, 'depth': 1.309, 'yaw': -89.09, 'datetime': '2018-12-18 17:21:48.628172', 'mgs': 0, 'flw2': 0.0, 'flw1': 0.03, 'flw0': 0.18, 'time': 31.57, 'compass': 179.58, 'pitch': -2.41, 'roll': 8.5}
{'lipoC2': 0.0, 'temp': 0.0, 'lipoC3S3': 12.33, 'state': 'normal', 'rot1': 137, 'rot0': 131, 'rot3': 0, 'rot2': 0, 'depth': 1.309, 'yaw': -89.03, 'datetime': '2018-12-18 17:21:48.835087', 'mgs': 0, 'flw2': 0.05, 'flw1': 0.38, 'flw0': 0.0, 'time': 31.78, 'compass': 179.64, 'pitch': -2.38, 'roll': 8.5}
{'lipoC2': 0.0, 'temp': 0.0, 'lipoC3S3': 12.66, 'state': 'normal', 'rot1': 137, 'rot0': 131, 'rot3': 0, 'rot2': 0, 'depth': 1.767, 'yaw': -89.03, 'datetime': '2018-12-18 17:21:49.049975', 'mgs': 0, 'flw2': 0.0, 'flw1': 0.15, 'flw0': 0.18, 'time': 31.99, 'compass': 179.65, 'pitch': -2.13, 'roll': 8.5}
{'lipoC2': 0.14, 'temp': 0.0, 'lipoC3S3': 12.34, 'state': 'normal', 'rot1': 137, 'rot0': 131, 'rot3': 0, 'rot2': 0, 'depth': -0.446, 'yaw': -88.98, 'datetime': '2018-12-18 17:21:49.258951', 'mgs': 0, 'flw2': 0.0, 'flw1': 0.41, 'flw0': 0.0, 'time': 32.2, 'compass': 179.69, 'pitch': -1.97, 'roll': 8.5}
{'lipoC2': 0.0, 'temp': 0.0, 'lipoC3S3': 12.59, 'state': 'normal', 'rot1': 137, 'rot0': 131, 'rot3': 0, 'rot2': 0, 'depth': 1.538, 'yaw': -88.84, 'datetime': '2018-12-18 17:21:49.466064', 'mgs': 0, 'flw2': 0.0, 'flw1': 0.26, 'flw0': 0.12, 'time': 32.41, 'compass': 179.83, 'pitch': -2.11, 'roll': 8.5}
{'lipoC2': 0.0, 'temp': 0.0, 'lipoC3S3': 12.64, 'state': 'normal', 'rot1': 137, 'rot0': 131, 'rot3': 0, 'rot2': 0, 'depth': 1.614, 'yaw': -88.7, 'datetime': '2018-12-18 17:21:49.673729', 'mgs': 0, 'flw2': 0.0, 'flw1': 0.06, 'flw0': 0.22, 'time': 32.62, 'compass': 179.98, 'pitch': -2.31, 'roll': 8.51}
{'lipoC2': 0.11, 'temp': 0.0, 'lipoC3S3': 12.47, 'state': 'normal', 'rot1': 137, 'rot0': 131, 'rot3': 0, 'rot2': 0, 'depth': -1.819, 'yaw': -88.54, 'datetime': '2018-12-18 17:21:49.886907', 'mgs': 0, 'flw2': 0.0, 'flw1': 0.41, 'flw0': 0.0, 'time': 32.83, 'compass': -179.87, 'pitch': -2.18, 'roll': 8.52}
{'lipoC2': 0.0, 'temp': 0.0, 'lipoC3S3': 12.56, 'state': 'normal', 'rot1': 137, 'rot0': 131, 'rot3': 0, 'rot2': 0, 'depth': 1.309, 'yaw': -88.36, 'datetime': '2018-12-18 17:21:50.094935', 'mgs': 0, 'flw2': 0.16, 'flw1': 0.0, 'flw0': 0.0, 'time': 33.03, 'compass': -179.69, 'pitch': -1.93, 'roll': 8.53}
{'lipoC2': 0.0, 'temp': 0.0, 'lipoC3S3': 12.62, 'state': 'normal', 'rot1': 137, 'rot0': 131, 'rot3': 0, 'rot2': 0, 'depth': 1.691, 'yaw': -88.18, 'datetime': '2018-12-18 17:21:50.307625', 'mgs': 0, 'flw2': 0.0, 'flw1': 0.23, 'flw0': 0.15, 'time': 33.24, 'compass': -179.51, 'pitch': -1.96, 'roll': 8.57}
{'lipoC2': 0.13, 'temp': 0.0, 'lipoC3S3': 12.41, 'state': 'normal', 'rot1': 137, 'rot0': 131, 'rot3': 0, 'rot2': 0, 'depth': -1.132, 'yaw': -88.0, 'datetime': '2018-12-18 17:21:50.514025', 'mgs': 0, 'flw2': 0.04, 'flw1': 0.0, 'flw0': 0.13, 'time': 33.45, 'compass': -179.32, 'pitch': -2.08, 'roll': 8.58}
{'lipoC2': 0.02, 'temp': 0.0, 'lipoC3S3': 12.31, 'state': 'normal', 'rot1': 137, 'rot0': 131, 'rot3': 0, 'rot2': 0, 'depth': 0.012, 'yaw': -87.8, 'datetime': '2018-12-18 17:21:50.722155', 'mgs': 0, 'flw2': 0.0, 'flw1': 0.23, 'flw0': 0.15, 'time': 33.66, 'compass': -179.13, 'pitch': -2.05, 'roll': 8.59}
{'lipoC2': 0.0, 'temp': 0.0, 'lipoC3S3': 12.52, 'state': 'normal', 'rot1': 137, 'rot0': 131, 'rot3': 0, 'rot2': 0, 'depth': 1.08, 'yaw': -87.59, 'datetime': '2018-12-18 17:21:50.938269', 'mgs': 0, 'flw2': 0.0, 'flw1': 0.38, 'flw0': 0.04, 'time': 33.87, 'compass': -178.92, 'pitch': -1.81, 'roll': 8.59}
{'lipoC2': 0.09, 'temp': 0.0, 'lipoC3S3': 12.23, 'state': 'normal', 'rot1': 137, 'rot0': 131, 'rot3': 0, 'rot2': 0, 'depth': 0.394, 'yaw': -87.39, 'datetime': '2018-12-18 17:21:51.149291', 'mgs': 0, 'flw2': 0.13, 'flw1': 0.18, 'flw0': 0.0, 'time': 34.08, 'compass': -178.71, 'pitch': -1.64, 'roll': 8.6}
{'lipoC2': 0.0, 'temp': 0.0, 'lipoC3S3': 12.64, 'state': 'normal', 'rot1': 137, 'rot0': 131, 'rot3': 0, 'rot2': 0, 'depth': 1.691, 'yaw': -87.17, 'datetime': '2018-12-18 17:21:51.352045', 'mgs': 0, 'flw2': 0.0, 'flw1': 0.03, 'flw0': 0.18, 'time': 34.29, 'compass': -178.49, 'pitch': -1.7, 'roll': 8.61}
{'lipoC2': 0.0, 'temp': 0.0, 'lipoC3S3': 12.64, 'state': 'normal', 'rot1': 137, 'rot0': 131, 'rot3': 0, 'rot2': 0, 'depth': 1.614, 'yaw': -86.94, 'datetime': '2018-12-18 17:21:51.562436', 'mgs': 0, 'flw2': 0.07, 'flw1': 0.41, 'flw0': 0.0, 'time': 34.5, 'compass': -178.26, 'pitch': -1.97, 'roll': 8.61}
{'lipoC2': 0.0, 'temp': 0.0, 'lipoC3S3': 12.47, 'state': 'normal', 'rot1': 137, 'rot0': 131, 'rot3': 0, 'rot2': 0, 'depth': 0.394, 'yaw': -86.72, 'datetime': '2018-12-18 17:21:51.769419', 'mgs': 0, 'flw2': 0.13, 'flw1': 0.0, 'flw0': 0.04, 'time': 34.71, 'compass': -178.04, 'pitch': -1.94, 'roll': 8.62}
{'lipoC2': 0.0, 'temp': 0.0, 'lipoC3S3': 12.6, 'state': 'normal', 'rot1': 137, 'rot0': 131, 'rot3': 0, 'rot2': 0, 'depth': 1.614, 'yaw': -86.47, 'datetime': '2018-12-18 17:21:51.981092', 'mgs': 0, 'flw2': 0.0, 'flw1': 0.23, 'flw0': 0.16, 'time': 34.92, 'compass': -177.8, 'pitch': -1.58, 'roll': 8.63}
{'lipoC2': 0.03, 'temp': 0.0, 'lipoC3S3': 12.56, 'state': 'normal', 'rot1': 137, 'rot0': 131, 'rot3': 0, 'rot2': 0, 'depth': 0.165, 'yaw': -86.22, 'datetime': '2018-12-18 17:21:52.195869', 'mgs': 0, 'flw2': 0.15, 'flw1': 0.0, 'flw0': 0.0, 'time': 35.13, 'compass': -177.55, 'pitch': -1.45, 'roll': 8.64}
{'lipoC2': 0.02, 'temp': 0.0, 'lipoC3S3': 12.3, 'state': 'normal', 'rot1': 137, 'rot0': 131, 'rot3': 0, 'rot2': 0, 'depth': 0.089, 'yaw': -86.0, 'datetime': '2018-12-18 17:21:52.406028', 'mgs': 0, 'flw2': 0.15, 'flw1': 0.0, 'flw0': 0.0, 'time': 35.34, 'compass': -177.33, 'pitch': -1.6, 'roll': 8.64}
{'lipoC2': 0.0, 'temp': 0.0, 'lipoC3S3': 12.64, 'state': 'normal', 'rot1': 137, 'rot0': 131, 'rot3': 0, 'rot2': 0, 'depth': 1.691, 'yaw': -85.79, 'datetime': '2018-12-18 17:21:52.609534', 'mgs': 0, 'flw2': 0.0, 'flw1': 0.0, 'flw0': 0.21, 'time': 35.55, 'compass': -177.12, 'pitch': -1.69, 'roll': 8.83}
{'lipoC2': 0.15, 'temp': 0.0, 'lipoC3S3': 12.38, 'state': 'normal', 'rot1': 137, 'rot0': 131, 'rot3': 0, 'rot2': 0, 'depth': -0.98, 'yaw': -85.58, 'datetime': '2018-12-18 17:21:52.823359', 'mgs': 0, 'flw2': 0.02, 'flw1': 0.0, 'flw0': 0.15, 'time': 35.76, 'compass': -176.9, 'pitch': -1.65, 'roll': 8.95}
{'lipoC2': 0.14, 'temp': 0.0, 'lipoC3S3': 12.35, 'state': 'normal', 'rot1': 137, 'rot0': 131, 'rot3': 0, 'rot2': 0, 'depth': -0.674, 'yaw': -85.33, 'datetime': '2018-12-18 17:21:53.029195', 'mgs': 0, 'flw2': 0.06, 'flw1': 0.41, 'flw0': 0.0, 'time': 35.97, 'compass': -176.66, 'pitch': -1.48, 'roll': 8.95}
{'lipoC2': 0.13, 'temp': 0.0, 'lipoC3S3': 12.45, 'state': 'normal', 'rot1': 137, 'rot0': 131, 'rot3': 0, 'rot2': 0, 'depth': -1.437, 'yaw': -85.11, 'datetime': '2018-12-18 17:21:53.241168', 'mgs': 0, 'flw2': 0.0, 'flw1': 0.41, 'flw0': 0.0, 'time': 36.18, 'compass': -176.44, 'pitch': -1.3, 'roll': 8.8}
{'lipoC2': 0.11, 'temp': 0.0, 'lipoC3S3': 12.23, 'state': 'normal', 'rot1': 137, 'rot0': 131, 'rot3': 0, 'rot2': 0, 'depth': 0.623, 'yaw': -84.9, 'datetime': '2018-12-18 17:21:53.448657', 'mgs': 0, 'flw2': 0.17, 'flw1': 0.09, 'flw0': 0.0, 'time': 36.39, 'compass': -176.23, 'pitch': -1.3, 'roll': 8.79}
{'lipoC2': 0.02, 'temp': 0.0, 'lipoC3S3': 12.55, 'state': 'normal', 'rot1': 137, 'rot0': 131, 'rot3': 0, 'rot2': 0, 'depth': -1.361, 'yaw': -84.7, 'datetime': '2018-12-18 17:21:53.663352', 'mgs': 0, 'flw2': 0.0, 'flw1': 0.29, 'flw0': 0.09, 'time': 36.6, 'compass': -176.02, 'pitch': -1.47, 'roll': 8.8}
{'lipoC2': 0.06, 'temp': 0.0, 'lipoC3S3': 12.52, 'state': 'normal', 'rot1': 137, 'rot0': 131, 'rot3': 0, 'rot2': 0, 'depth': -1.743, 'yaw': -84.51, 'datetime': '2018-12-18 17:21:53.876899', 'mgs': 0, 'flw2': 0.0, 'flw1': 0.41, 'flw0': 0.02, 'time': 36.81, 'compass': -175.83, 'pitch': -1.44, 'roll': 8.92}
{'lipoC2': 0.1, 'temp': 0.0, 'lipoC3S3': 12.62, 'state': 'normal', 'rot1': 137, 'rot0': 131, 'rot3': 0, 'rot2': 0, 'depth': 0.47, 'yaw': -84.3, 'datetime': '2018-12-18 17:21:54.088087', 'mgs': 0, 'flw2': 0.15, 'flw1': 0.15, 'flw0': 0.0, 'time': 37.02, 'compass': -175.62, 'pitch': -1.16, 'roll': 9.11}
{'lipoC2': 0.0, 'temp': 0.0, 'lipoC3S3': 12.62, 'state': 'normal', 'rot1': 137, 'rot0': 131, 'rot3': 0, 'rot2': 0, 'depth': 1.614, 'yaw': -84.1, 'datetime': '2018-12-18 17:21:54.297096', 'mgs': 0, 'flw2': 0.0, 'flw1': 0.21, 'flw0': 0.17, 'time': 37.23, 'compass': -175.43, 'pitch': -1.03, 'roll': 9.31}
{'lipoC2': 0.08, 'temp': 0.0, 'lipoC3S3': 12.23, 'state': 'normal', 'rot1': 137, 'rot0': 131, 'rot3': 0, 'rot2': 0, 'depth': 0.394, 'yaw': -83.93, 'datetime': '2018-12-18 17:21:54.507299', 'mgs': 0, 'flw2': 0.2, 'flw1': 0.03, 'flw0': 0.0, 'time': 37.44, 'compass': -175.26, 'pitch': -1.18, 'roll': 9.36}
{'lipoC2': 0.02, 'temp': 0.0, 'lipoC3S3': 12.54, 'state': 'normal', 'rot1': 137, 'rot0': 131, 'rot3': 0, 'rot2': 0, 'depth': -1.437, 'yaw': -83.77, 'datetime': '2018-12-18 17:21:54.714548', 'mgs': 0, 'flw2': 0.0, 'flw1': 0.35, 'flw0': 0.07, 'time': 37.65, 'compass': -175.09, 'pitch': -1.28, 'roll': 9.34}
{'lipoC2': 0.0, 'temp': 0.0, 'lipoC3S3': 12.5, 'state': 'normal', 'rot1': 137, 'rot0': 131, 'rot3': 0, 'rot2': 0, 'depth': 0.775, 'yaw': -83.6, 'datetime': '2018-12-18 17:21:54.924292', 'mgs': 0, 'flw2': 0.0, 'flw1': 0.44, 'flw0': 0.02, 'time': 37.86, 'compass': -174.93, 'pitch': -1.17, 'roll': 9.17}
{'lipoC2': 0.0, 'temp': 0.0, 'lipoC3S3': 12.66, 'state': 'normal', 'rot1': 137, 'rot0': 131, 'rot3': 0, 'rot2': 0, 'depth': -0.064, 'yaw': -83.43, 'datetime': '2018-12-18 17:21:55.137320', 'mgs': 0, 'flw2': 0.0, 'flw1': 0.0, 'flw0': 0.22, 'time': 38.07, 'compass': -174.76, 'pitch': -0.97, 'roll': 9.11}
{'lipoC2': 0.14, 'temp': 0.0, 'lipoC3S3': 12.42, 'state': 'normal', 'rot1': 137, 'rot0': 131, 'rot3': 0, 'rot2': 0, 'depth': -1.666, 'yaw': -83.25, 'datetime': '2018-12-18 17:21:55.349709', 'mgs': 0, 'flw2': 0.04, 'flw1': 0.0, 'flw0': 0.13, 'time': 38.28, 'compass': -174.58, 'pitch': -0.92, 'roll': 9.16}
{'lipoC2': 0.15, 'temp': 0.0, 'lipoC3S3': 12.38, 'state': 'normal', 'rot1': 137, 'rot0': 131, 'rot3': 0, 'rot2': 0, 'depth': -1.666, 'yaw': -83.03, 'datetime': '2018-12-18 17:21:55.652419', 'mgs': 0, 'flw2': 0.01, 'flw1': 0.0, 'flw0': 0.16, 'time': 38.59, 'compass': -174.36, 'pitch': -0.89, 'roll': 9.49}
{'lipoC2': 0.0, 'temp': 0.0, 'lipoC3S3': 12.56, 'state': 'normal', 'rot1': 137, 'rot0': 131, 'rot3': 0, 'rot2': 0, 'depth': 1.309, 'yaw': -82.9, 'datetime': '2018-12-18 17:21:55.861147', 'mgs': 0, 'flw2': 0.2, 'flw1': 0.0, 'flw0': 0.0, 'time': 38.8, 'compass': -174.23, 'pitch': -0.86, 'roll': 9.68}
{'lipoC2': 0.0, 'temp': 0.0, 'lipoC3S3': 12.35, 'state': 'normal', 'rot1': 137, 'rot0': 131, 'rot3': 0, 'rot2': 0, 'depth': 1.233, 'yaw': -82.76, 'datetime': '2018-12-18 17:21:56.070722', 'mgs': 0, 'flw2': 0.06, 'flw1': 0.0, 'flw0': 0.13, 'time': 39.01, 'compass': -174.09, 'pitch': -0.84, 'roll': 9.71}
{'lipoC2': 0.0, 'temp': 0.0, 'lipoC3S3': 12.5, 'state': 'normal', 'rot1': 137, 'rot0': 131, 'rot3': 0, 'rot2': 0, 'depth': 0.699, 'yaw': -82.65, 'datetime': '2018-12-18 17:21:56.290741', 'mgs': 0, 'flw2': 0.0, 'flw1': 0.41, 'flw0': 0.02, 'time': 39.22, 'compass': -173.97, 'pitch': -0.82, 'roll': 9.7}
{'lipoC2': 0.14, 'temp': 0.0, 'lipoC3S3': 12.31, 'state': 'normal', 'rot1': 137, 'rot0': 131, 'rot3': 0, 'rot2': 0, 'depth': 0.851, 'yaw': -82.6, 'datetime': '2018-12-18 17:21:56.495689', 'mgs': 0, 'flw2': 0.07, 'flw1': 0.0, 'flw0': 0.13, 'time': 39.43, 'compass': -173.93, 'pitch': -0.81, 'roll': 9.59}
{'lipoC2': 0.0, 'temp': 0.0, 'lipoC3S3': 12.63, 'state': 'normal', 'rot1': 137, 'rot0': 131, 'rot3': 0, 'rot2': 0, 'depth': 1.691, 'yaw': -82.58, 'datetime': '2018-12-18 17:21:56.706597', 'mgs': 0, 'flw2': 0.0, 'flw1': 0.0, 'flw0': 0.2, 'time': 39.64, 'compass': -173.9, 'pitch': -0.74, 'roll': 9.59}
{'lipoC2': 0.06, 'temp': 0.0, 'lipoC3S3': 12.51, 'state': 'normal', 'rot1': 137, 'rot0': 131, 'rot3': 0, 'rot2': 0, 'depth': -1.819, 'yaw': -82.5, 'datetime': '2018-12-18 17:21:56.914557', 'mgs': 0, 'flw2': 0.2, 'flw1': 0.0, 'flw0': 0.0, 'time': 39.85, 'compass': -173.83, 'pitch': -0.67, 'roll': 9.59}
{'lipoC2': 0.0, 'temp': 0.0, 'lipoC3S3': 12.47, 'state': 'normal', 'rot1': 137, 'rot0': 131, 'rot3': 0, 'rot2': 0, 'depth': 0.546, 'yaw': -82.47, 'datetime': '2018-12-18 17:21:57.128513', 'mgs': 0, 'flw2': 0.12, 'flw1': 0.0, 'flw0': 0.06, 'time': 40.06, 'compass': -173.79, 'pitch': -0.66, 'roll': 9.7}
{'lipoC2': 0.14, 'temp': 0.0, 'lipoC3S3': 12.38, 'state': 'normal', 'rot1': 137, 'rot0': 131, 'rot3': 0, 'rot2': 0, 'depth': -0.751, 'yaw': -82.47, 'datetime': '2018-12-18 17:21:57.338684', 'mgs': 0, 'flw2': 0.04, 'flw1': 0.0, 'flw0': 0.13, 'time': 40.27, 'compass': -173.79, 'pitch': -0.67, 'roll': 9.97}
{'lipoC2': 0.0, 'temp': 0.0, 'lipoC3S3': 12.58, 'state': 'normal', 'rot1': 137, 'rot0': 131, 'rot3': 0, 'rot2': 0, 'depth': 1.385, 'yaw': -82.47, 'datetime': '2018-12-18 17:21:57.543477', 'mgs': 0, 'flw2': 0.0, 'flw1': 0.29, 'flw0': 0.11, 'time': 40.48, 'compass': -173.79, 'pitch': -0.77, 'roll': 10.2}
{'lipoC2': 0.05, 'temp': 0.0, 'lipoC3S3': 12.59, 'state': 'normal', 'rot1': 137, 'rot0': 131, 'rot3': 0, 'rot2': 0, 'depth': 1.309, 'yaw': -82.47, 'datetime': '2018-12-18 17:21:57.755987', 'mgs': 0, 'flw2': 0.0, 'flw1': 0.23, 'flw0': 0.13, 'time': 40.69, 'compass': -173.8, 'pitch': -0.8, 'roll': 10.18}
{'lipoC2': 0.0, 'temp': 0.0, 'lipoC3S3': 12.47, 'state': 'normal', 'rot1': 137, 'rot0': 131, 'rot3': 0, 'rot2': 0, 'depth': 0.546, 'yaw': -82.47, 'datetime': '2018-12-18 17:21:57.965825', 'mgs': 0, 'flw2': 0.15, 'flw1': 0.0, 'flw0': 0.04, 'time': 40.9, 'compass': -173.79, 'pitch': -0.65, 'roll': 9.95}
{'lipoC2': 0.06, 'temp': 0.0, 'lipoC3S3': 12.26, 'state': 'normal', 'rot1': 137, 'rot0': 131, 'rot3': 0, 'rot2': 0, 'depth': 0.317, 'yaw': -82.46, 'datetime': '2018-12-18 17:21:58.185925', 'mgs': 0, 'flw2': 0.0, 'flw1': 0.15, 'flw0': 0.17, 'time': 41.11, 'compass': -173.79, 'pitch': -0.57, 'roll': 9.86}
{'lipoC2': 0.09, 'temp': 0.0, 'lipoC3S3': 12.23, 'state': 'normal', 'rot1': 137, 'rot0': 131, 'rot3': 0, 'rot2': 0, 'depth': 0.394, 'yaw': -82.47, 'datetime': '2018-12-18 17:21:58.485733', 'mgs': 0, 'flw2': 0.15, 'flw1': 0.0, 'flw0': 0.0, 'time': 41.42, 'compass': -173.79, 'pitch': -0.84, 'roll': 9.99}
{'lipoC2': 0.0, 'temp': 0.0, 'lipoC3S3': 12.63, 'state': 'normal', 'rot1': 137, 'rot0': 131, 'rot3': 0, 'rot2': 0, 'depth': 1.767, 'yaw': -82.47, 'datetime': '2018-12-18 17:21:58.695577', 'mgs': 0, 'flw2': 0.0, 'flw1': 0.21, 'flw0': 0.18, 'time': 41.63, 'compass': -173.8, 'pitch': -0.82, 'roll': 10.07}
{'lipoC2': 0.1, 'temp': 0.0, 'lipoC3S3': 12.47, 'state': 'normal', 'rot1': 137, 'rot0': 131, 'rot3': 0, 'rot2': 0, 'depth': -1.971, 'yaw': -82.47, 'datetime': '2018-12-18 17:21:58.905572', 'mgs': 0, 'flw2': 0.0, 'flw1': 0.38, 'flw0': 0.0, 'time': 41.84, 'compass': -173.8, 'pitch': -0.55, 'roll': 10.07}
{'lipoC2': 0.16, 'temp': 0.0, 'lipoC3S3': 12.3, 'state': 'normal', 'rot1': 137, 'rot0': 131, 'rot3': 0, 'rot2': 0, 'depth': 0.928, 'yaw': -82.47, 'datetime': '2018-12-18 17:21:59.127345', 'mgs': 0, 'flw2': 0.0, 'flw1': 0.35, 'flw0': 0.0, 'time': 42.05, 'compass': -173.8, 'pitch': -0.48, 'roll': 10.08}
{'lipoC2': 0.0, 'temp': 0.0, 'lipoC3S3': 12.63, 'state': 'normal', 'rot1': 137, 'rot0': 131, 'rot3': 0, 'rot2': 0, 'depth': 1.538, 'yaw': -82.47, 'datetime': '2018-12-18 17:21:59.334239', 'mgs': 0, 'flw2': 0.0, 'flw1': 0.0, 'flw0': 0.18, 'time': 42.26, 'compass': -173.8, 'pitch': -0.65, 'roll': 10.16}
{'lipoC2': 0.09, 'temp': 0.0, 'lipoC3S3': 12.48, 'state': 'normal', 'rot1': 137, 'rot0': 131, 'rot3': 0, 'rot2': 0, 'depth': -1.895, 'yaw': -82.47, 'datetime': '2018-12-18 17:21:59.544561', 'mgs': 0, 'flw2': 0.18, 'flw1': 0.0, 'flw0': 0.0, 'time': 42.47, 'compass': -173.8, 'pitch': -0.69, 'roll': 10.16}
{'lipoC2': 0.0, 'temp': 0.0, 'lipoC3S3': 12.5, 'state': 'normal', 'rot1': 137, 'rot0': 131, 'rot3': 0, 'rot2': 0, 'depth': 0.775, 'yaw': -82.47, 'datetime': '2018-12-18 17:21:59.756679', 'mgs': 0, 'flw2': 0.0, 'flw1': 0.35, 'flw0': 0.06, 'time': 42.68, 'compass': -173.79, 'pitch': -0.5, 'roll': 10.12}
{'lipoC2': 0.0, 'temp': 0.0, 'lipoC3S3': 12.31, 'state': 'normal', 'rot1': 137, 'rot0': 131, 'rot3': 0, 'rot2': 0, 'depth': -0.522, 'yaw': -82.47, 'datetime': '2018-12-18 17:21:59.966534', 'mgs': 0, 'flw2': 0.0, 'flw1': 0.0, 'flw0': 0.18, 'time': 42.89, 'compass': -173.8, 'pitch': -0.41, 'roll': 10.07}
