{'lipoC2': 7.35, 'temp': 0.0, 'lipoC3S3': 11.67, 'state': 'normal', 'rot1': 0, 'rot0': 0, 'rot3': 0, 'rot2': 0, 'depth': -0.14, 'yaw': 0.0, 'datetime': '2018-12-12 14:18:08.214606', 'mgs': 0, 'flw2': 0.0, 'flw1': 0.0, 'flw0': 0.0, 'time': 1.25, 'compass': -116.54, 'pitch': -1.9, 'roll': 0.67}
{'lipoC2': 7.38, 'temp': 0.0, 'lipoC3S3': 11.26, 'state': 'normal', 'rot1': 0, 'rot0': 0, 'rot3': 0, 'rot2': 0, 'depth': -0.369, 'yaw': 1.28, 'datetime': '2018-12-12 14:18:08.424370', 'mgs': 0, 'flw2': 0.26, 'flw1': 0.0, 'flw0': 0.23, 'time': 1.46, 'compass': -115.25, 'pitch': -0.63, 'roll': 0.71}
{'lipoC2': 7.53, 'temp': 0.0, 'lipoC3S3': 11.38, 'state': 'normal', 'rot1': 0, 'rot0': 0, 'rot3': 0, 'rot2': 0, 'depth': -0.522, 'yaw': 2.53, 'datetime': '2018-12-12 14:18:08.632800', 'mgs': 0, 'flw2': 0.22, 'flw1': 0.0, 'flw0': 0.26, 'time': 1.67, 'compass': -114.01, 'pitch': -0.91, 'roll': 0.72}
{'lipoC2': 7.27, 'temp': 0.0, 'lipoC3S3': 11.38, 'state': 'normal', 'rot1': 0, 'rot0': 0, 'rot3': 0, 'rot2': 0, 'depth': -1.59, 'yaw': 3.69, 'datetime': '2018-12-12 14:18:08.841294', 'mgs': 0, 'flw2': 0.0, 'flw1': 0.0, 'flw0': 0.0, 'time': 1.88, 'compass': -112.85, 'pitch': -1.88, 'roll': 0.95}
{'lipoC2': 7.32, 'temp': 0.0, 'lipoC3S3': 11.54, 'state': 'normal', 'rot1': 0, 'rot0': 0, 'rot3': 0, 'rot2': 0, 'depth': -0.522, 'yaw': 4.9, 'datetime': '2018-12-12 14:18:09.048417', 'mgs': 0, 'flw2': 0.05, 'flw1': 0.0, 'flw0': 0.0, 'time': 2.09, 'compass': -111.64, 'pitch': -2.17, 'roll': 1.3}
{'lipoC2': 7.34, 'temp': 0.0, 'lipoC3S3': 11.65, 'state': 'normal', 'rot1': 0, 'rot0': 0, 'rot3': 0, 'rot2': 0, 'depth': 1.691, 'yaw': 5.95, 'datetime': '2018-12-12 14:18:09.256798', 'mgs': 0, 'flw2': 0.1, 'flw1': 0.0, 'flw0': 0.16, 'time': 2.3, 'compass': -110.59, 'pitch': -1.46, 'roll': 1.54}
{'lipoC2': 7.32, 'temp': 0.0, 'lipoC3S3': 11.56, 'state': 'normal', 'rot1': 0, 'rot0': 0, 'rot3': 0, 'rot2': 0, 'depth': -0.522, 'yaw': 7.06, 'datetime': '2018-12-12 14:18:09.466600', 'mgs': 0, 'flw2': 0.18, 'flw1': 0.0, 'flw0': 0.23, 'time': 2.5, 'compass': -109.48, 'pitch': -1.11, 'roll': 1.63}
{'lipoC2': 7.35, 'temp': 0.0, 'lipoC3S3': 11.64, 'state': 'normal', 'rot1': 0, 'rot0': 0, 'rot3': 0, 'rot2': 0, 'depth': 1.462, 'yaw': 8.12, 'datetime': '2018-12-12 14:18:09.675523', 'mgs': 0, 'flw2': 0.13, 'flw1': 0.0, 'flw0': 0.0, 'time': 2.71, 'compass': -108.41, 'pitch': -1.72, 'roll': 1.49}
{'lipoC2': 7.36, 'temp': 0.0, 'lipoC3S3': 11.61, 'state': 'normal', 'rot1': 0, 'rot0': 0, 'rot3': 0, 'rot2': 0, 'depth': 0.775, 'yaw': 9.15, 'datetime': '2018-12-12 14:18:09.882225', 'mgs': 0, 'flw2': 0.01, 'flw1': 0.0, 'flw0': 0.0, 'time': 2.92, 'compass': -107.39, 'pitch': -2.11, 'roll': 1.38}
{'lipoC2': 7.35, 'temp': 0.0, 'lipoC3S3': 11.64, 'state': 'normal', 'rot1': 0, 'rot0': 0, 'rot3': 0, 'rot2': 0, 'depth': -0.14, 'yaw': 10.2, 'datetime': '2018-12-12 14:18:10.092118', 'mgs': 0, 'flw2': 0.0, 'flw1': 0.0, 'flw0': 0.02, 'time': 3.13, 'compass': -106.34, 'pitch': -1.69, 'roll': 1.27}
{'lipoC2': 7.5, 'temp': 0.0, 'lipoC3S3': 11.25, 'state': 'normal', 'rot1': 0, 'rot0': 0, 'rot3': 0, 'rot2': 0, 'depth': -1.361, 'yaw': 11.16, 'datetime': '2018-12-12 14:18:10.299185', 'mgs': 0, 'flw2': 0.0, 'flw1': 0.0, 'flw0': 0.0, 'time': 3.34, 'compass': -105.38, 'pitch': -1.34, 'roll': 1.07}
{'lipoC2': 7.33, 'temp': 0.0, 'lipoC3S3': 11.38, 'state': 'normal', 'rot1': 0, 'rot0': 0, 'rot3': 0, 'rot2': 0, 'depth': 1.691, 'yaw': 12.13, 'datetime': '2018-12-12 14:18:10.507661', 'mgs': 0, 'flw2': 0.0, 'flw1': 0.5, 'flw0': 0.0, 'time': 3.55, 'compass': -104.4, 'pitch': -1.6, 'roll': 1.12}
{'lipoC2': 7.51, 'temp': 0.0, 'lipoC3S3': 11.22, 'state': 'normal', 'rot1': 0, 'rot0': 0, 'rot3': 0, 'rot2': 0, 'depth': 0.851, 'yaw': 13.07, 'datetime': '2018-12-12 14:18:10.714954', 'mgs': 0, 'flw2': 0.0, 'flw1': 0.0, 'flw0': 0.0, 'time': 3.75, 'compass': -103.46, 'pitch': -1.76, 'roll': 1.46}
{'lipoC2': 7.27, 'temp': 0.0, 'lipoC3S3': 11.43, 'state': 'normal', 'rot1': 0, 'rot0': 0, 'rot3': 0, 'rot2': 0, 'depth': -0.674, 'yaw': 14.02, 'datetime': '2018-12-12 14:18:10.925891', 'mgs': 0, 'flw2': 0.0, 'flw1': 0.0, 'flw0': 0.0, 'time': 3.96, 'compass': -102.52, 'pitch': -1.54, 'roll': 1.89}
{'lipoC2': 7.55, 'temp': 0.0, 'lipoC3S3': 11.38, 'state': 'normal', 'rot1': 0, 'rot0': 0, 'rot3': 0, 'rot2': 0, 'depth': 1.843, 'yaw': 14.91, 'datetime': '2018-12-12 14:18:11.132764', 'mgs': 0, 'flw2': 0.0, 'flw1': 0.09, 'flw0': 0.0, 'time': 4.17, 'compass': -101.62, 'pitch': -1.35, 'roll': 2.0}
{'lipoC2': 7.44, 'temp': 0.0, 'lipoC3S3': 11.21, 'state': 'normal', 'rot1': 0, 'rot0': 0, 'rot3': 0, 'rot2': 0, 'depth': 0.47, 'yaw': 15.69, 'datetime': '2018-12-12 14:18:11.341444', 'mgs': 0, 'flw2': 0.27, 'flw1': 0.0, 'flw0': 0.18, 'time': 4.38, 'compass': -100.85, 'pitch': -1.33, 'roll': 1.92}
{'lipoC2': 7.4, 'temp': 0.0, 'lipoC3S3': 11.34, 'state': 'normal', 'rot1': 0, 'rot0': 0, 'rot3': 0, 'rot2': 0, 'depth': 0.623, 'yaw': 16.45, 'datetime': '2018-12-12 14:18:11.553609', 'mgs': 0, 'flw2': 0.0, 'flw1': 0.38, 'flw0': 0.0, 'time': 4.59, 'compass': -100.09, 'pitch': -1.63, 'roll': 1.7}
{'lipoC2': 7.3, 'temp': 0.0, 'lipoC3S3': 11.34, 'state': 'normal', 'rot1': 0, 'rot0': 0, 'rot3': 0, 'rot2': 0, 'depth': -0.674, 'yaw': 17.13, 'datetime': '2018-12-12 14:18:11.756818', 'mgs': 0, 'flw2': 0.0, 'flw1': 0.56, 'flw0': 0.0, 'time': 4.79, 'compass': -99.41, 'pitch': -1.78, 'roll': 1.63}
{'lipoC2': 7.34, 'temp': 0.0, 'lipoC3S3': 11.34, 'state': 'normal', 'rot1': 0, 'rot0': 0, 'rot3': 0, 'rot2': 0, 'depth': -0.598, 'yaw': 17.83, 'datetime': '2018-12-12 14:18:11.964635', 'mgs': 0, 'flw2': 0.24, 'flw1': 0.0, 'flw0': 0.0, 'time': 5.0, 'compass': -98.7, 'pitch': -1.31, 'roll': 1.73}
{'lipoC2': 7.32, 'temp': 0.0, 'lipoC3S3': 11.73, 'state': 'normal', 'rot1': 0, 'rot0': 0, 'rot3': 0, 'rot2': 0, 'depth': -1.056, 'yaw': 18.46, 'datetime': '2018-12-12 14:18:12.171375', 'mgs': 0, 'flw2': 0.0, 'flw1': 0.21, 'flw0': 0.0, 'time': 5.21, 'compass': -98.08, 'pitch': -0.96, 'roll': 1.87}
{'lipoC2': 7.28, 'temp': 0.0, 'lipoC3S3': 11.31, 'state': 'normal', 'rot1': 0, 'rot0': 0, 'rot3': 0, 'rot2': 0, 'depth': -0.903, 'yaw': 19.09, 'datetime': '2018-12-12 14:18:12.379701', 'mgs': 0, 'flw2': 0.0, 'flw1': 0.18, 'flw0': 0.0, 'time': 5.42, 'compass': -97.44, 'pitch': -1.04, 'roll': 1.88}
{'lipoC2': 7.27, 'temp': 0.0, 'lipoC3S3': 11.4, 'state': 'normal', 'rot1': 0, 'rot0': 0, 'rot3': 0, 'rot2': 0, 'depth': -0.751, 'yaw': 19.7, 'datetime': '2018-12-12 14:18:12.597057', 'mgs': 0, 'flw2': 0.0, 'flw1': 0.0, 'flw0': 0.0, 'time': 5.62, 'compass': -96.84, 'pitch': -1.26, 'roll': 1.88}
{'lipoC2': 7.35, 'temp': 0.0, 'lipoC3S3': 11.67, 'state': 'normal', 'rot1': 0, 'rot0': 0, 'rot3': 0, 'rot2': 0, 'depth': 1.309, 'yaw': 20.26, 'datetime': '2018-12-12 14:18:12.804621', 'mgs': 0, 'flw2': 0.22, 'flw1': 0.0, 'flw0': 0.0, 'time': 5.83, 'compass': -96.28, 'pitch': -1.5, 'roll': 1.89}
{'lipoC2': 7.34, 'temp': 0.0, 'lipoC3S3': 11.67, 'state': 'normal', 'rot1': 0, 'rot0': 0, 'rot3': 0, 'rot2': 0, 'depth': -0.217, 'yaw': 20.83, 'datetime': '2018-12-12 14:18:13.015011', 'mgs': 0, 'flw2': 0.13, 'flw1': 0.0, 'flw0': 0.0, 'time': 6.04, 'compass': -95.7, 'pitch': -1.37, 'roll': 1.78}
{'lipoC2': 7.46, 'temp': 0.0, 'lipoC3S3': 11.21, 'state': 'normal', 'rot1': 0, 'rot0': 0, 'rot3': 0, 'rot2': 0, 'depth': 0.394, 'yaw': 21.41, 'datetime': '2018-12-12 14:18:13.220205', 'mgs': 0, 'flw2': 0.24, 'flw1': 0.0, 'flw0': 0.16, 'time': 6.25, 'compass': -95.13, 'pitch': -0.87, 'roll': 1.73}
{'lipoC2': 7.36, 'temp': 0.0, 'lipoC3S3': 11.31, 'state': 'normal', 'rot1': 0, 'rot0': 0, 'rot3': 0, 'rot2': 0, 'depth': 1.08, 'yaw': 22.0, 'datetime': '2018-12-12 14:18:13.427960', 'mgs': 0, 'flw2': 0.0, 'flw1': 0.15, 'flw0': 0.0, 'time': 6.46, 'compass': -94.54, 'pitch': -0.74, 'roll': 1.88}
{'lipoC2': 7.53, 'temp': 0.0, 'lipoC3S3': 11.39, 'state': 'normal', 'rot1': 0, 'rot0': 0, 'rot3': 0, 'rot2': 0, 'depth': -0.446, 'yaw': 22.52, 'datetime': '2018-12-12 14:18:13.635237', 'mgs': 0, 'flw2': 0.0, 'flw1': 0.35, 'flw0': 0.0, 'time': 6.66, 'compass': -94.01, 'pitch': -1.33, 'roll': 2.27}
{'lipoC2': 7.34, 'temp': 0.0, 'lipoC3S3': 11.56, 'state': 'normal', 'rot1': 0, 'rot0': 0, 'rot3': 0, 'rot2': 0, 'depth': -0.827, 'yaw': 23.04, 'datetime': '2018-12-12 14:18:13.847187', 'mgs': 0, 'flw2': 0.0, 'flw1': 0.0, 'flw0': 0.0, 'time': 6.87, 'compass': -93.5, 'pitch': -1.76, 'roll': 2.36}
{'lipoC2': 7.32, 'temp': 0.0, 'lipoC3S3': 11.52, 'state': 'normal', 'rot1': 0, 'rot0': 0, 'rot3': 0, 'rot2': 0, 'depth': -0.446, 'yaw': 23.58, 'datetime': '2018-12-12 14:18:14.054061', 'mgs': 0, 'flw2': 0.0, 'flw1': 0.15, 'flw0': 0.0, 'time': 7.08, 'compass': -92.95, 'pitch': -1.26, 'roll': 2.1}
{'lipoC2': 7.33, 'temp': 0.0, 'lipoC3S3': 11.63, 'state': 'normal', 'rot1': 0, 'rot0': 0, 'rot3': 0, 'rot2': 0, 'depth': 1.767, 'yaw': 24.15, 'datetime': '2018-12-12 14:18:14.261372', 'mgs': 0, 'flw2': 0.09, 'flw1': 0.0, 'flw0': 0.15, 'time': 7.29, 'compass': -92.39, 'pitch': -0.5, 'roll': 2.08}
{'lipoC2': 7.27, 'temp': 0.0, 'lipoC3S3': 11.48, 'state': 'normal', 'rot1': 0, 'rot0': 0, 'rot3': 0, 'rot2': 0, 'depth': -0.827, 'yaw': 24.65, 'datetime': '2018-12-12 14:18:14.469730', 'mgs': 0, 'flw2': 0.0, 'flw1': 0.0, 'flw0': 0.0, 'time': 7.5, 'compass': -91.88, 'pitch': -0.37, 'roll': 2.3}
{'lipoC2': 7.33, 'temp': 0.0, 'lipoC3S3': 11.35, 'state': 'normal', 'rot1': 0, 'rot0': 0, 'rot3': 0, 'rot2': 0, 'depth': 0.317, 'yaw': 25.21, 'datetime': '2018-12-12 14:18:14.680003', 'mgs': 0, 'flw2': 0.0, 'flw1': 0.15, 'flw0': 0.0, 'time': 7.7, 'compass': -91.33, 'pitch': -0.97, 'roll': 2.58}
{'lipoC2': 7.32, 'temp': 0.0, 'lipoC3S3': 11.52, 'state': 'normal', 'rot1': 0, 'rot0': 0, 'rot3': 0, 'rot2': 0, 'depth': -0.446, 'yaw': 25.72, 'datetime': '2018-12-12 14:18:14.886562', 'mgs': 0, 'flw2': 0.12, 'flw1': 0.0, 'flw0': 0.0, 'time': 7.91, 'compass': -90.82, 'pitch': -1.44, 'roll': 2.53}
{'lipoC2': 7.27, 'temp': 0.0, 'lipoC3S3': 11.39, 'state': 'normal', 'rot1': 0, 'rot0': 0, 'rot3': 0, 'rot2': 0, 'depth': -0.751, 'yaw': 26.2, 'datetime': '2018-12-12 14:18:15.094741', 'mgs': 0, 'flw2': 0.0, 'flw1': 0.03, 'flw0': 0.0, 'time': 8.12, 'compass': -90.34, 'pitch': -1.3, 'roll': 2.18}
{'lipoC2': 7.54, 'temp': 0.0, 'lipoC3S3': 11.39, 'state': 'normal', 'rot1': 0, 'rot0': 0, 'rot3': 0, 'rot2': 0, 'depth': 1.843, 'yaw': 26.69, 'datetime': '2018-12-12 14:18:15.299992', 'mgs': 0, 'flw2': 0.0, 'flw1': 0.53, 'flw0': 0.0, 'time': 8.33, 'compass': -89.85, 'pitch': -0.71, 'roll': 1.85}
{'lipoC2': 7.3, 'temp': 0.0, 'lipoC3S3': 11.34, 'state': 'normal', 'rot1': 0, 'rot0': 0, 'rot3': 0, 'rot2': 0, 'depth': -0.369, 'yaw': 27.25, 'datetime': '2018-12-12 14:18:15.509497', 'mgs': 0, 'flw2': 0.0, 'flw1': 0.44, 'flw0': 0.0, 'time': 8.53, 'compass': -89.29, 'pitch': -0.36, 'roll': 1.91}
{'lipoC2': 7.34, 'temp': 0.0, 'lipoC3S3': 11.64, 'state': 'normal', 'rot1': 0, 'rot0': 0, 'rot3': 0, 'rot2': 0, 'depth': 1.614, 'yaw': 27.71, 'datetime': '2018-12-12 14:18:15.719999', 'mgs': 0, 'flw2': 0.0, 'flw1': 0.0, 'flw0': 0.05, 'time': 8.74, 'compass': -88.83, 'pitch': -0.62, 'roll': 2.36}
{'lipoC2': 7.42, 'temp': 0.0, 'lipoC3S3': 11.23, 'state': 'normal', 'rot1': 0, 'rot0': 0, 'rot3': 0, 'rot2': 0, 'depth': -0.598, 'yaw': 28.22, 'datetime': '2018-12-12 14:18:15.923051', 'mgs': 0, 'flw2': 0.23, 'flw1': 0.0, 'flw0': 0.24, 'time': 8.95, 'compass': -88.32, 'pitch': -0.87, 'roll': 2.55}
{'lipoC2': 7.27, 'temp': 0.0, 'lipoC3S3': 11.38, 'state': 'normal', 'rot1': 0, 'rot0': 0, 'rot3': 0, 'rot2': 0, 'depth': -0.751, 'yaw': 28.69, 'datetime': '2018-12-12 14:18:16.132107', 'mgs': 0, 'flw2': 0.2, 'flw1': 0.0, 'flw0': 0.05, 'time': 9.16, 'compass': -87.84, 'pitch': -0.71, 'roll': 2.36}
{'lipoC2': 7.28, 'temp': 0.0, 'lipoC3S3': 11.31, 'state': 'normal', 'rot1': 0, 'rot0': 0, 'rot3': 0, 'rot2': 0, 'depth': -0.598, 'yaw': 29.25, 'datetime': '2018-12-12 14:18:16.339510', 'mgs': 0, 'flw2': 0.24, 'flw1': 0.0, 'flw0': 0.23, 'time': 9.37, 'compass': -87.29, 'pitch': -0.62, 'roll': 2.32}
{'lipoC2': 7.5, 'temp': 0.0, 'lipoC3S3': 11.26, 'state': 'normal', 'rot1': 0, 'rot0': 0, 'rot3': 0, 'rot2': 0, 'depth': 0.623, 'yaw': 29.76, 'datetime': '2018-12-12 14:18:16.547652', 'mgs': 0, 'flw2': 0.0, 'flw1': 0.0, 'flw0': 0.0, 'time': 9.57, 'compass': -86.78, 'pitch': -0.63, 'roll': 2.47}
{'lipoC2': 7.35, 'temp': 0.0, 'lipoC3S3': 11.67, 'state': 'normal', 'rot1': 0, 'rot0': 0, 'rot3': 0, 'rot2': 0, 'depth': -0.217, 'yaw': 30.26, 'datetime': '2018-12-12 14:18:16.755057', 'mgs': 0, 'flw2': 0.11, 'flw1': 0.0, 'flw0': 0.0, 'time': 9.78, 'compass': -86.28, 'pitch': -0.58, 'roll': 2.43}
{'lipoC2': 7.34, 'temp': 0.0, 'lipoC3S3': 11.64, 'state': 'normal', 'rot1': 0, 'rot0': 0, 'rot3': 0, 'rot2': 0, 'depth': -0.14, 'yaw': 30.76, 'datetime': '2018-12-12 14:18:16.963600', 'mgs': 0, 'flw2': 0.05, 'flw1': 0.0, 'flw0': 0.13, 'time': 9.99, 'compass': -85.78, 'pitch': -0.47, 'roll': 2.2}
{'lipoC2': 7.28, 'temp': 0.0, 'lipoC3S3': 11.46, 'state': 'normal', 'rot1': 0, 'rot0': 0, 'rot3': 0, 'rot2': 0, 'depth': -0.674, 'yaw': 31.23, 'datetime': '2018-12-12 14:18:17.172966', 'mgs': 0, 'flw2': 0.23, 'flw1': 0.0, 'flw0': 0.21, 'time': 10.2, 'compass': -85.31, 'pitch': -0.6, 'roll': 2.07}
{'lipoC2': 7.34, 'temp': 0.0, 'lipoC3S3': 11.4, 'state': 'normal', 'rot1': 0, 'rot0': 0, 'rot3': 0, 'rot2': 0, 'depth': 1.309, 'yaw': 31.73, 'datetime': '2018-12-12 14:18:17.382364', 'mgs': 0, 'flw2': 0.0, 'flw1': 0.0, 'flw0': 0.0, 'time': 10.41, 'compass': -84.81, 'pitch': -1.04, 'roll': 2.26}
{'lipoC2': 7.42, 'temp': 0.0, 'lipoC3S3': 11.23, 'state': 'normal', 'rot1': 0, 'rot0': 0, 'rot3': 0, 'rot2': 0, 'depth': 0.012, 'yaw': 32.23, 'datetime': '2018-12-12 14:18:17.590010', 'mgs': 0, 'flw2': 0.0, 'flw1': 0.44, 'flw0': 0.0, 'time': 10.62, 'compass': -84.3, 'pitch': -1.03, 'roll': 2.78}
{'lipoC2': 7.42, 'temp': 0.0, 'lipoC3S3': 11.22, 'state': 'normal', 'rot1': 0, 'rot0': 0, 'rot3': 0, 'rot2': 0, 'depth': -0.064, 'yaw': 32.71, 'datetime': '2018-12-12 14:18:17.798567', 'mgs': 0, 'flw2': 0.22, 'flw1': 0.0, 'flw0': 0.15, 'time': 10.82, 'compass': -83.83, 'pitch': -0.56, 'roll': 3.12}
{'lipoC2': 7.55, 'temp': 0.0, 'lipoC3S3': 11.35, 'state': 'normal', 'rot1': 0, 'rot0': 0, 'rot3': 0, 'rot2': 0, 'depth': -0.674, 'yaw': 33.18, 'datetime': '2018-12-12 14:18:18.005858', 'mgs': 0, 'flw2': 0.0, 'flw1': 0.0, 'flw0': 0.0, 'time': 11.03, 'compass': -83.36, 'pitch': -0.17, 'roll': 3.07}
{'lipoC2': 7.46, 'temp': 0.0, 'lipoC3S3': 11.23, 'state': 'normal', 'rot1': 0, 'rot0': 0, 'rot3': 0, 'rot2': 0, 'depth': 0.241, 'yaw': 33.62, 'datetime': '2018-12-12 14:18:18.213091', 'mgs': 0, 'flw2': 0.1, 'flw1': 0.0, 'flw0': 0.01, 'time': 11.24, 'compass': -82.92, 'pitch': -0.5, 'roll': 2.81}
{'lipoC2': 7.36, 'temp': 0.0, 'lipoC3S3': 11.31, 'state': 'normal', 'rot1': 0, 'rot0': 0, 'rot3': 0, 'rot2': 0, 'depth': -0.064, 'yaw': 34.05, 'datetime': '2018-12-12 14:18:18.425983', 'mgs': 0, 'flw2': 0.0, 'flw1': 0.0, 'flw0': 0.0, 'time': 11.45, 'compass': -82.49, 'pitch': -1.1, 'roll': 2.56}
{'lipoC2': 7.36, 'temp': 0.0, 'lipoC3S3': 11.67, 'state': 'normal', 'rot1': 0, 'rot0': 0, 'rot3': 0, 'rot2': 0, 'depth': 1.157, 'yaw': 34.48, 'datetime': '2018-12-12 14:18:18.634133', 'mgs': 0, 'flw2': 0.0, 'flw1': 0.0, 'flw0': 0.0, 'time': 11.66, 'compass': -82.06, 'pitch': -0.9, 'roll': 2.27}
{'lipoC2': 7.27, 'temp': 0.0, 'lipoC3S3': 11.34, 'state': 'normal', 'rot1': 0, 'rot0': 0, 'rot3': 0, 'rot2': 0, 'depth': -0.827, 'yaw': 34.94, 'datetime': '2018-12-12 14:18:18.842799', 'mgs': 0, 'flw2': 0.0, 'flw1': 0.53, 'flw0': 0.0, 'time': 11.86, 'compass': -81.59, 'pitch': -0.03, 'roll': 2.15}
{'lipoC2': 7.3, 'temp': 0.0, 'lipoC3S3': 11.34, 'state': 'normal', 'rot1': 0, 'rot0': 0, 'rot3': 0, 'rot2': 0, 'depth': -0.674, 'yaw': 35.39, 'datetime': '2018-12-12 14:18:19.050856', 'mgs': 0, 'flw2': 0.0, 'flw1': 0.0, 'flw0': 0.05, 'time': 12.07, 'compass': -81.14, 'pitch': 0.24, 'roll': 2.53}
{'lipoC2': 7.34, 'temp': 0.0, 'lipoC3S3': 11.34, 'state': 'normal', 'rot1': 0, 'rot0': 0, 'rot3': 0, 'rot2': 0, 'depth': -0.598, 'yaw': 35.8, 'datetime': '2018-12-12 14:18:19.257809', 'mgs': 0, 'flw2': 0.0, 'flw1': 0.56, 'flw0': 0.0, 'time': 12.28, 'compass': -80.74, 'pitch': -0.52, 'roll': 2.84}
{'lipoC2': 7.5, 'temp': 0.0, 'lipoC3S3': 11.38, 'state': 'normal', 'rot1': 0, 'rot0': 0, 'rot3': 0, 'rot2': 0, 'depth': -0.293, 'yaw': 36.22, 'datetime': '2018-12-12 14:18:19.466939', 'mgs': 0, 'flw2': 0.0, 'flw1': 0.0, 'flw0': 0.05, 'time': 12.49, 'compass': -80.32, 'pitch': -1.06, 'roll': 2.82}
{'lipoC2': 7.35, 'temp': 0.0, 'lipoC3S3': 11.67, 'state': 'normal', 'rot1': 0, 'rot0': 0, 'rot3': 0, 'rot2': 0, 'depth': -0.14, 'yaw': 36.63, 'datetime': '2018-12-12 14:18:19.674970', 'mgs': 0, 'flw2': 0.06, 'flw1': 0.0, 'flw0': 0.0, 'time': 12.69, 'compass': -79.9, 'pitch': -0.43, 'roll': 2.65}
{'lipoC2': 7.33, 'temp': 0.0, 'lipoC3S3': 11.44, 'state': 'normal', 'rot1': 0, 'rot0': 0, 'rot3': 0, 'rot2': 0, 'depth': 1.691, 'yaw': 37.0, 'datetime': '2018-12-12 14:18:19.882972', 'mgs': 0, 'flw2': 0.24, 'flw1': 0.0, 'flw0': 0.26, 'time': 12.9, 'compass': -79.54, 'pitch': 0.27, 'roll': 2.49}
{'lipoC2': 7.55, 'temp': 0.0, 'lipoC3S3': 11.38, 'state': 'normal', 'rot1': 0, 'rot0': 0, 'rot3': 0, 'rot2': 0, 'depth': -0.827, 'yaw': 37.39, 'datetime': '2018-12-12 14:18:20.092180', 'mgs': 0, 'flw2': 0.0, 'flw1': 0.0, 'flw0': 0.17, 'time': 13.11, 'compass': -79.14, 'pitch': 0.1, 'roll': 2.53}
{'lipoC2': 7.33, 'temp': 0.0, 'lipoC3S3': 11.42, 'state': 'normal', 'rot1': 0, 'rot0': 0, 'rot3': 0, 'rot2': 0, 'depth': 1.08, 'yaw': 37.78, 'datetime': '2018-12-12 14:18:20.299661', 'mgs': 0, 'flw2': 0.23, 'flw1': 0.0, 'flw0': 0.24, 'time': 13.32, 'compass': -78.76, 'pitch': -0.53, 'roll': 2.8}
{'lipoC2': 7.44, 'temp': 0.0, 'lipoC3S3': 11.25, 'state': 'normal', 'rot1': 0, 'rot0': 0, 'rot3': 0, 'rot2': 0, 'depth': -1.285, 'yaw': 38.16, 'datetime': '2018-12-12 14:18:20.506995', 'mgs': 0, 'flw2': 0.2, 'flw1': 0.0, 'flw0': 0.26, 'time': 13.53, 'compass': -78.37, 'pitch': -0.74, 'roll': 3.08}
{'lipoC2': 7.28, 'temp': 0.0, 'lipoC3S3': 11.32, 'state': 'normal', 'rot1': 0, 'rot0': 0, 'rot3': 0, 'rot2': 0, 'depth': -0.751, 'yaw': 38.52, 'datetime': '2018-12-12 14:18:20.715173', 'mgs': 0, 'flw2': 0.12, 'flw1': 0.0, 'flw0': 0.27, 'time': 13.73, 'compass': -78.02, 'pitch': -0.55, 'roll': 3.01}
{'lipoC2': 7.29, 'temp': 0.0, 'lipoC3S3': 11.34, 'state': 'normal', 'rot1': 0, 'rot0': 0, 'rot3': 0, 'rot2': 0, 'depth': -0.827, 'yaw': 38.87, 'datetime': '2018-12-12 14:18:20.924619', 'mgs': 0, 'flw2': 0.0, 'flw1': 0.59, 'flw0': 0.0, 'time': 13.94, 'compass': -77.67, 'pitch': -0.07, 'roll': 2.64}
{'lipoC2': 7.5, 'temp': 0.0, 'lipoC3S3': 11.34, 'state': 'normal', 'rot1': 0, 'rot0': 0, 'rot3': 0, 'rot2': 0, 'depth': -1.437, 'yaw': 39.24, 'datetime': '2018-12-12 14:18:21.132296', 'mgs': 0, 'flw2': 0.0, 'flw1': 0.44, 'flw0': 0.0, 'time': 14.15, 'compass': -77.3, 'pitch': 0.41, 'roll': 2.49}
{'lipoC2': 7.41, 'temp': 0.0, 'lipoC3S3': 11.35, 'state': 'normal', 'rot1': 0, 'rot0': 0, 'rot3': 0, 'rot2': 0, 'depth': -0.293, 'yaw': 39.63, 'datetime': '2018-12-12 14:18:21.341669', 'mgs': 0, 'flw2': 0.0, 'flw1': 0.23, 'flw0': 0.0, 'time': 14.36, 'compass': -76.91, 'pitch': 0.29, 'roll': 2.85}
{'lipoC2': 7.34, 'temp': 0.0, 'lipoC3S3': 11.34, 'state': 'normal', 'rot1': 0, 'rot0': 0, 'rot3': 0, 'rot2': 0, 'depth': -0.598, 'yaw': 40.01, 'datetime': '2018-12-12 14:18:21.548576', 'mgs': 0, 'flw2': 0.0, 'flw1': 0.53, 'flw0': 0.0, 'time': 14.57, 'compass': -76.53, 'pitch': -0.46, 'roll': 3.07}
{'lipoC2': 7.48, 'temp': 0.0, 'lipoC3S3': 11.34, 'state': 'normal', 'rot1': 0, 'rot0': 0, 'rot3': 0, 'rot2': 0, 'depth': -1.514, 'yaw': 40.4, 'datetime': '2018-12-12 14:18:21.757771', 'mgs': 0, 'flw2': 0.0, 'flw1': 0.53, 'flw0': 0.0, 'time': 14.77, 'compass': -76.14, 'pitch': -0.62, 'roll': 2.93}
{'lipoC2': 7.36, 'temp': 0.0, 'lipoC3S3': 11.63, 'state': 'normal', 'rot1': 0, 'rot0': 0, 'rot3': 0, 'rot2': 0, 'depth': -0.14, 'yaw': 40.75, 'datetime': '2018-12-12 14:18:21.964939', 'mgs': 0, 'flw2': 0.0, 'flw1': 0.0, 'flw0': 0.0, 'time': 14.98, 'compass': -75.78, 'pitch': -0.15, 'roll': 2.9}
{'lipoC2': 7.55, 'temp': 0.0, 'lipoC3S3': 11.29, 'state': 'normal', 'rot1': 0, 'rot0': 0, 'rot3': 0, 'rot2': 0, 'depth': -1.208, 'yaw': 41.15, 'datetime': '2018-12-12 14:18:22.172837', 'mgs': 0, 'flw2': 0.23, 'flw1': 0.0, 'flw0': 0.05, 'time': 15.19, 'compass': -75.39, 'pitch': 0.06, 'roll': 3.06}
{'lipoC2': 7.33, 'temp': 0.0, 'lipoC3S3': 11.5, 'state': 'normal', 'rot1': 0, 'rot0': 0, 'rot3': 0, 'rot2': 0, 'depth': 1.08, 'yaw': 41.46, 'datetime': '2018-12-12 14:18:22.382706', 'mgs': 0, 'flw2': 0.0, 'flw1': 0.0, 'flw0': 0.09, 'time': 15.4, 'compass': -75.07, 'pitch': -0.13, 'roll': 3.18}
{'lipoC2': 7.48, 'temp': 0.0, 'lipoC3S3': 11.22, 'state': 'normal', 'rot1': 0, 'rot0': 0, 'rot3': 0, 'rot2': 0, 'depth': -1.285, 'yaw': 42.54, 'datetime': '2018-12-12 14:18:22.697230', 'mgs': 0, 'flw2': 0.26, 'flw1': 0.0, 'flw0': 0.23, 'time': 15.71, 'compass': -74.0, 'pitch': 0.11, 'roll': 2.85}
{'lipoC2': 7.36, 'temp': 0.0, 'lipoC3S3': 11.65, 'state': 'normal', 'rot1': 0, 'rot0': 0, 'rot3': 0, 'rot2': 0, 'depth': -0.217, 'yaw': 43.98, 'datetime': '2018-12-12 14:18:22.905088', 'mgs': 0, 'flw2': 0.0, 'flw1': 0.0, 'flw0': 0.0, 'time': 15.92, 'compass': -72.56, 'pitch': 0.17, 'roll': 2.15}
{'lipoC2': 7.44, 'temp': 0.0, 'lipoC3S3': 11.22, 'state': 'normal', 'rot1': 0, 'rot0': 0, 'rot3': 0, 'rot2': 0, 'depth': 0.241, 'yaw': 45.3, 'datetime': '2018-12-12 14:18:23.115772', 'mgs': 0, 'flw2': 0.26, 'flw1': 0.0, 'flw0': 0.21, 'time': 16.13, 'compass': -71.24, 'pitch': 0.46, 'roll': 2.11}
{'lipoC2': 7.29, 'temp': 0.0, 'lipoC3S3': 11.36, 'state': 'normal', 'rot1': 0, 'rot0': 0, 'rot3': 0, 'rot2': 0, 'depth': -0.598, 'yaw': 46.58, 'datetime': '2018-12-12 14:18:23.321799', 'mgs': 0, 'flw2': 0.0, 'flw1': 0.15, 'flw0': 0.0, 'time': 16.33, 'compass': -69.96, 'pitch': 0.76, 'roll': 2.9}
{'lipoC2': 7.32, 'temp': 0.0, 'lipoC3S3': 11.54, 'state': 'normal', 'rot1': 0, 'rot0': 0, 'rot3': 0, 'rot2': 0, 'depth': 1.614, 'yaw': 47.82, 'datetime': '2018-12-12 14:18:23.532429', 'mgs': 0, 'flw2': 0.06, 'flw1': 0.0, 'flw0': 0.17, 'time': 16.54, 'compass': -68.72, 'pitch': 0.55, 'roll': 3.6}
{'lipoC2': 7.32, 'temp': 0.0, 'lipoC3S3': 11.58, 'state': 'normal', 'rot1': 0, 'rot0': 0, 'rot3': 0, 'rot2': 0, 'depth': 1.309, 'yaw': 48.86, 'datetime': '2018-12-12 14:18:23.740595', 'mgs': 0, 'flw2': 0.0, 'flw1': 0.47, 'flw0': 0.0, 'time': 16.75, 'compass': -67.67, 'pitch': 0.45, 'roll': 3.68}
{'lipoC2': 7.27, 'temp': 0.0, 'lipoC3S3': 11.34, 'state': 'normal', 'rot1': 0, 'rot0': 0, 'rot3': 0, 'rot2': 0, 'depth': -0.827, 'yaw': 50.36, 'datetime': '2018-12-12 14:18:24.044080', 'mgs': 0, 'flw2': 0.0, 'flw1': 0.18, 'flw0': 0.0, 'time': 17.06, 'compass': -66.17, 'pitch': 0.9, 'roll': 2.67}
{'lipoC2': 7.33, 'temp': 0.0, 'lipoC3S3': 11.36, 'state': 'normal', 'rot1': 0, 'rot0': 0, 'rot3': 0, 'rot2': 0, 'depth': -0.903, 'yaw': 51.31, 'datetime': '2018-12-12 14:18:24.251940', 'mgs': 0, 'flw2': 0.0, 'flw1': 0.67, 'flw0': 0.0, 'time': 17.27, 'compass': -65.23, 'pitch': 0.78, 'roll': 2.12}
{'lipoC2': 7.34, 'temp': 0.0, 'lipoC3S3': 11.48, 'state': 'normal', 'rot1': 0, 'rot0': 0, 'rot3': 0, 'rot2': 0, 'depth': -0.064, 'yaw': 52.29, 'datetime': '2018-12-12 14:18:24.458966', 'mgs': 0, 'flw2': 0.07, 'flw1': 0.0, 'flw0': 0.29, 'time': 17.48, 'compass': -64.25, 'pitch': 0.27, 'roll': 2.41}
{'lipoC2': 7.41, 'temp': 0.0, 'lipoC3S3': 11.26, 'state': 'normal', 'rot1': 0, 'rot0': 0, 'rot3': 0, 'rot2': 0, 'depth': 0.241, 'yaw': 53.26, 'datetime': '2018-12-12 14:18:24.675986', 'mgs': 0, 'flw2': 0.0, 'flw1': 0.64, 'flw0': 0.0, 'time': 17.69, 'compass': -63.28, 'pitch': 0.34, 'roll': 3.05}
{'lipoC2': 7.35, 'temp': 0.0, 'lipoC3S3': 11.58, 'state': 'normal', 'rot1': 0, 'rot0': 0, 'rot3': 0, 'rot2': 0, 'depth': 1.767, 'yaw': 54.71, 'datetime': '2018-12-12 14:18:24.982240', 'mgs': 0, 'flw2': 0.0, 'flw1': 0.62, 'flw0': 0.0, 'time': 18.0, 'compass': -61.82, 'pitch': 1.28, 'roll': 3.52}
{'lipoC2': 7.54, 'temp': 0.0, 'lipoC3S3': 11.38, 'state': 'normal', 'rot1': 0, 'rot0': 0, 'rot3': 0, 'rot2': 0, 'depth': 1.843, 'yaw': 55.64, 'datetime': '2018-12-12 14:18:25.187524', 'mgs': 0, 'flw2': 0.0, 'flw1': 0.0, 'flw0': 0.0, 'time': 18.2, 'compass': -60.9, 'pitch': 1.01, 'roll': 3.76}
{'lipoC2': 7.36, 'temp': 0.0, 'lipoC3S3': 11.67, 'state': 'normal', 'rot1': 0, 'rot0': 0, 'rot3': 0, 'rot2': 0, 'depth': 0.089, 'yaw': 56.54, 'datetime': '2018-12-12 14:18:25.401698', 'mgs': 0, 'flw2': 0.0, 'flw1': 0.0, 'flw0': 0.05, 'time': 18.41, 'compass': -60.0, 'pitch': 0.38, 'roll': 3.69}
{'lipoC2': 7.55, 'temp': 0.0, 'lipoC3S3': 11.39, 'state': 'normal', 'rot1': 0, 'rot0': 0, 'rot3': 0, 'rot2': 0, 'depth': 1.92, 'yaw': 57.42, 'datetime': '2018-12-12 14:18:25.611478', 'mgs': 0, 'flw2': 0.0, 'flw1': 0.12, 'flw0': 0.0, 'time': 18.62, 'compass': -59.12, 'pitch': 0.63, 'roll': 3.28}
{'lipoC2': 7.52, 'temp': 0.0, 'lipoC3S3': 11.39, 'state': 'normal', 'rot1': 0, 'rot0': 0, 'rot3': 0, 'rot2': 0, 'depth': 1.843, 'yaw': 58.29, 'datetime': '2018-12-12 14:18:25.825372', 'mgs': 0, 'flw2': 0.0, 'flw1': 0.0, 'flw0': 0.0, 'time': 18.83, 'compass': -58.25, 'pitch': 1.21, 'roll': 2.69}
{'lipoC2': 7.54, 'temp': 0.0, 'lipoC3S3': 11.32, 'state': 'normal', 'rot1': 0, 'rot0': 0, 'rot3': 0, 'rot2': 0, 'depth': -1.285, 'yaw': 58.95, 'datetime': '2018-12-12 14:18:26.028673', 'mgs': 0, 'flw2': 0.0, 'flw1': 0.0, 'flw0': 0.0, 'time': 19.04, 'compass': -57.58, 'pitch': 1.24, 'roll': 2.4}
{'lipoC2': 7.28, 'temp': 0.0, 'lipoC3S3': 11.35, 'state': 'normal', 'rot1': 0, 'rot0': 0, 'rot3': 0, 'rot2': 0, 'depth': -0.751, 'yaw': 59.59, 'datetime': '2018-12-12 14:18:26.235678', 'mgs': 0, 'flw2': 0.0, 'flw1': 0.0, 'flw0': 0.16, 'time': 19.25, 'compass': -56.95, 'pitch': 0.72, 'roll': 2.56}
{'lipoC2': 7.51, 'temp': 0.0, 'lipoC3S3': 11.26, 'state': 'normal', 'rot1': 0, 'rot0': 0, 'rot3': 0, 'rot2': 0, 'depth': 0.928, 'yaw': 60.14, 'datetime': '2018-12-12 14:18:26.444524', 'mgs': 0, 'flw2': 0.0, 'flw1': 0.0, 'flw0': 0.0, 'time': 19.45, 'compass': -56.4, 'pitch': 0.86, 'roll': 2.74}
{'lipoC2': 7.36, 'temp': 0.0, 'lipoC3S3': 11.27, 'state': 'normal', 'rot1': 0, 'rot0': 0, 'rot3': 0, 'rot2': 0, 'depth': 1.233, 'yaw': 60.69, 'datetime': '2018-12-12 14:18:26.653312', 'mgs': 0, 'flw2': 0.0, 'flw1': 0.0, 'flw0': 0.0, 'time': 19.66, 'compass': -55.85, 'pitch': 1.24, 'roll': 2.83}
{'lipoC2': 7.34, 'temp': 0.0, 'lipoC3S3': 11.67, 'state': 'normal', 'rot1': 0, 'rot0': 0, 'rot3': 0, 'rot2': 0, 'depth': -0.217, 'yaw': 61.08, 'datetime': '2018-12-12 14:18:26.862466', 'mgs': 0, 'flw2': 0.13, 'flw1': 0.0, 'flw0': 0.0, 'time': 19.87, 'compass': -55.45, 'pitch': 1.26, 'roll': 2.84}
{'lipoC2': 7.42, 'temp': 0.0, 'lipoC3S3': 11.36, 'state': 'normal', 'rot1': 0, 'rot0': 0, 'rot3': 0, 'rot2': 0, 'depth': 0.928, 'yaw': 61.45, 'datetime': '2018-12-12 14:18:27.070025', 'mgs': 0, 'flw2': 0.0, 'flw1': 0.56, 'flw0': 0.0, 'time': 20.08, 'compass': -55.09, 'pitch': 1.28, 'roll': 2.88}
{'lipoC2': 7.36, 'temp': 0.0, 'lipoC3S3': 11.67, 'state': 'normal', 'rot1': 0, 'rot0': 0, 'rot3': 0, 'rot2': 0, 'depth': -0.064, 'yaw': 61.9, 'datetime': '2018-12-12 14:18:27.279008', 'mgs': 0, 'flw2': 0.17, 'flw1': 0.0, 'flw0': 0.0, 'time': 20.28, 'compass': -54.64, 'pitch': 1.25, 'roll': 3.03}
{'lipoC2': 7.42, 'temp': 0.0, 'lipoC3S3': 11.23, 'state': 'normal', 'rot1': 0, 'rot0': 0, 'rot3': 0, 'rot2': 0, 'depth': 0.012, 'yaw': 62.32, 'datetime': '2018-12-12 14:18:27.486990', 'mgs': 0, 'flw2': 0.26, 'flw1': 0.0, 'flw0': 0.23, 'time': 20.49, 'compass': -54.22, 'pitch': 0.96, 'roll': 3.03}
{'lipoC2': 7.51, 'temp': 0.0, 'lipoC3S3': 11.39, 'state': 'normal', 'rot1': 0, 'rot0': 0, 'rot3': 0, 'rot2': 0, 'depth': 1.691, 'yaw': 62.48, 'datetime': '2018-12-12 14:18:27.694895', 'mgs': 0, 'flw2': 0.0, 'flw1': 0.47, 'flw0': 0.0, 'time': 20.7, 'compass': -54.05, 'pitch': 1.14, 'roll': 2.99}
{'lipoC2': 7.36, 'temp': 0.0, 'lipoC3S3': 11.25, 'state': 'normal', 'rot1': 0, 'rot0': 0, 'rot3': 0, 'rot2': 0, 'depth': 0.699, 'yaw': 62.51, 'datetime': '2018-12-12 14:18:27.904101', 'mgs': 0, 'flw2': 0.0, 'flw1': 0.0, 'flw0': 0.0, 'time': 20.91, 'compass': -54.03, 'pitch': 1.61, 'roll': 2.98}
{'lipoC2': 7.44, 'temp': 0.0, 'lipoC3S3': 11.22, 'state': 'normal', 'rot1': 0, 'rot0': 0, 'rot3': 0, 'rot2': 0, 'depth': -0.903, 'yaw': 62.59, 'datetime': '2018-12-12 14:18:28.111626', 'mgs': 0, 'flw2': 0.23, 'flw1': 0.0, 'flw0': 0.17, 'time': 21.12, 'compass': -53.95, 'pitch': 1.62, 'roll': 2.98}
{'lipoC2': 7.35, 'temp': 0.0, 'lipoC3S3': 11.32, 'state': 'normal', 'rot1': 0, 'rot0': 0, 'rot3': 0, 'rot2': 0, 'depth': 1.004, 'yaw': 62.74, 'datetime': '2018-12-12 14:18:28.312752', 'mgs': 0, 'flw2': 0.0, 'flw1': 0.0, 'flw0': 0.0, 'time': 21.32, 'compass': -53.79, 'pitch': 1.31, 'roll': 2.98}
{'lipoC2': 7.36, 'temp': 0.0, 'lipoC3S3': 11.67, 'state': 'normal', 'rot1': 0, 'rot0': 0, 'rot3': 0, 'rot2': 0, 'depth': -0.064, 'yaw': 62.92, 'datetime': '2018-12-12 14:18:28.522379', 'mgs': 0, 'flw2': 0.0, 'flw1': 0.0, 'flw0': 0.01, 'time': 21.53, 'compass': -53.61, 'pitch': 1.2, 'roll': 2.97}
{'lipoC2': 7.47, 'temp': 0.0, 'lipoC3S3': 11.22, 'state': 'normal', 'rot1': 0, 'rot0': 0, 'rot3': 0, 'rot2': 0, 'depth': -1.056, 'yaw': 63.15, 'datetime': '2018-12-12 14:18:28.731716', 'mgs': 0, 'flw2': 0.23, 'flw1': 0.0, 'flw0': 0.13, 'time': 21.74, 'compass': -53.39, 'pitch': 1.41, 'roll': 3.17}
{'lipoC2': 7.37, 'temp': 0.0, 'lipoC3S3': 11.31, 'state': 'normal', 'rot1': 0, 'rot0': 0, 'rot3': 0, 'rot2': 0, 'depth': 0.775, 'yaw': 63.33, 'datetime': '2018-12-12 14:18:28.943731', 'mgs': 0, 'flw2': 0.26, 'flw1': 0.0, 'flw0': 0.23, 'time': 21.95, 'compass': -53.21, 'pitch': 1.52, 'roll': 3.33}
{'lipoC2': 7.35, 'temp': 0.0, 'lipoC3S3': 11.42, 'state': 'normal', 'rot1': 0, 'rot0': 0, 'rot3': 0, 'rot2': 0, 'depth': 1.004, 'yaw': 63.55, 'datetime': '2018-12-12 14:18:29.151928', 'mgs': 0, 'flw2': 0.18, 'flw1': 0.0, 'flw0': 0.24, 'time': 22.16, 'compass': -52.98, 'pitch': 1.46, 'roll': 3.29}
{'lipoC2': 7.55, 'temp': 0.0, 'lipoC3S3': 11.34, 'state': 'normal', 'rot1': 0, 'rot0': 0, 'rot3': 0, 'rot2': 0, 'depth': -1.056, 'yaw': 63.73, 'datetime': '2018-12-12 14:18:29.361534', 'mgs': 0, 'flw2': 0.0, 'flw1': 0.0, 'flw0': 0.0, 'time': 22.37, 'compass': -52.81, 'pitch': 1.28, 'roll': 3.0}
{'lipoC2': 7.33, 'temp': 0.0, 'lipoC3S3': 11.51, 'state': 'normal', 'rot1': 0, 'rot0': 0, 'rot3': 0, 'rot2': 0, 'depth': 1.157, 'yaw': 63.94, 'datetime': '2018-12-12 14:18:29.568381', 'mgs': 0, 'flw2': 0.05, 'flw1': 0.0, 'flw0': 0.2, 'time': 22.57, 'compass': -52.6, 'pitch': 1.29, 'roll': 2.62}
{'lipoC2': 7.35, 'temp': 0.0, 'lipoC3S3': 11.67, 'state': 'normal', 'rot1': 0, 'rot0': 0, 'rot3': 0, 'rot2': 0, 'depth': 1.462, 'yaw': 64.2, 'datetime': '2018-12-12 14:18:29.776180', 'mgs': 0, 'flw2': 0.13, 'flw1': 0.0, 'flw0': 0.0, 'time': 22.78, 'compass': -52.33, 'pitch': 1.53, 'roll': 2.48}
{'lipoC2': 7.55, 'temp': 0.0, 'lipoC3S3': 11.3, 'state': 'normal', 'rot1': 0, 'rot0': 0, 'rot3': 0, 'rot2': 0, 'depth': -0.98, 'yaw': 64.47, 'datetime': '2018-12-12 14:18:29.985873', 'mgs': 0, 'flw2': 0.0, 'flw1': 0.0, 'flw0': 0.0, 'time': 22.99, 'compass': -52.07, 'pitch': 1.67, 'roll': 2.58}
{'lipoC2': 7.34, 'temp': 0.0, 'lipoC3S3': 11.36, 'state': 'normal', 'rot1': 0, 'rot0': 0, 'rot3': 0, 'rot2': 0, 'depth': 1.385, 'yaw': 64.79, 'datetime': '2018-12-12 14:18:30.191362', 'mgs': 0, 'flw2': 0.0, 'flw1': 0.59, 'flw0': 0.0, 'time': 23.19, 'compass': -51.75, 'pitch': 1.65, 'roll': 3.11}
{'lipoC2': 7.55, 'temp': 0.0, 'lipoC3S3': 11.38, 'state': 'normal', 'rot1': 0, 'rot0': 0, 'rot3': 0, 'rot2': 0, 'depth': -0.598, 'yaw': 65.11, 'datetime': '2018-12-12 14:18:30.400625', 'mgs': 0, 'flw2': 0.01, 'flw1': 0.0, 'flw0': 0.1, 'time': 23.4, 'compass': -51.43, 'pitch': 1.66, 'roll': 3.74}
{'lipoC2': 7.42, 'temp': 0.0, 'lipoC3S3': 11.23, 'state': 'normal', 'rot1': 0, 'rot0': 0, 'rot3': 0, 'rot2': 0, 'depth': -0.446, 'yaw': 65.37, 'datetime': '2018-12-12 14:18:30.609042', 'mgs': 0, 'flw2': 0.24, 'flw1': 0.0, 'flw0': 0.2, 'time': 23.61, 'compass': -51.17, 'pitch': 1.69, 'roll': 3.93}
{'lipoC2': 7.35, 'temp': 0.0, 'lipoC3S3': 11.67, 'state': 'normal', 'rot1': 0, 'rot0': 0, 'rot3': 0, 'rot2': 0, 'depth': 1.385, 'yaw': 65.58, 'datetime': '2018-12-12 14:18:30.821972', 'mgs': 0, 'flw2': 0.1, 'flw1': 0.0, 'flw0': 0.0, 'time': 23.82, 'compass': -50.95, 'pitch': 1.7, 'roll': 3.6}
{'lipoC2': 7.54, 'temp': 0.0, 'lipoC3S3': 11.32, 'state': 'normal', 'rot1': 0, 'rot0': 0, 'rot3': 0, 'rot2': 0, 'depth': -1.208, 'yaw': 65.78, 'datetime': '2018-12-12 14:18:31.027893', 'mgs': 0, 'flw2': 0.0, 'flw1': 0.0, 'flw0': 0.0, 'time': 24.03, 'compass': -50.76, 'pitch': 1.66, 'roll': 2.73}
{'lipoC2': 7.43, 'temp': 0.0, 'lipoC3S3': 11.38, 'state': 'normal', 'rot1': 0, 'rot0': 0, 'rot3': 0, 'rot2': 0, 'depth': 0.928, 'yaw': 66.0, 'datetime': '2018-12-12 14:18:31.236571', 'mgs': 0, 'flw2': 0.0, 'flw1': 0.38, 'flw0': 0.0, 'time': 24.24, 'compass': -50.53, 'pitch': 1.52, 'roll': 2.22}
{'lipoC2': 7.34, 'temp': 0.0, 'lipoC3S3': 11.38, 'state': 'normal', 'rot1': 0, 'rot0': 0, 'rot3': 0, 'rot2': 0, 'depth': 1.462, 'yaw': 66.28, 'datetime': '2018-12-12 14:18:31.442952', 'mgs': 0, 'flw2': 0.0, 'flw1': 0.5, 'flw0': 0.0, 'time': 24.44, 'compass': -50.26, 'pitch': 1.64, 'roll': 2.68}
{'lipoC2': 7.42, 'temp': 0.0, 'lipoC3S3': 11.25, 'state': 'normal', 'rot1': 0, 'rot0': 0, 'rot3': 0, 'rot2': 0, 'depth': 0.241, 'yaw': 66.64, 'datetime': '2018-12-12 14:18:31.652801', 'mgs': 0, 'flw2': 0.15, 'flw1': 0.0, 'flw0': 0.26, 'time': 24.65, 'compass': -49.9, 'pitch': 2.14, 'roll': 3.39}
{'lipoC2': 7.4, 'temp': 0.0, 'lipoC3S3': 11.26, 'state': 'normal', 'rot1': 0, 'rot0': 0, 'rot3': 0, 'rot2': 0, 'depth': -0.293, 'yaw': 66.98, 'datetime': '2018-12-12 14:18:31.866710', 'mgs': 0, 'flw2': 0.24, 'flw1': 0.0, 'flw0': 0.22, 'time': 24.86, 'compass': -49.56, 'pitch': 2.46, 'roll': 3.71}
{'lipoC2': 7.26, 'temp': 0.0, 'lipoC3S3': 11.39, 'state': 'normal', 'rot1': 0, 'rot0': 0, 'rot3': 0, 'rot2': 0, 'depth': -0.522, 'yaw': 67.33, 'datetime': '2018-12-12 14:18:32.165768', 'mgs': 0, 'flw2': 0.07, 'flw1': 0.41, 'flw0': 0.0, 'time': 25.17, 'compass': -49.2, 'pitch': 1.84, 'roll': 3.67}
{'lipoC2': 7.34, 'temp': 0.0, 'lipoC3S3': 11.56, 'state': 'normal', 'rot1': 0, 'rot0': 0, 'rot3': 0, 'rot2': 0, 'depth': -0.293, 'yaw': 67.52, 'datetime': '2018-12-12 14:18:32.374197', 'mgs': 0, 'flw2': 0.15, 'flw1': 0.15, 'flw0': 0.0, 'time': 25.38, 'compass': -49.02, 'pitch': 1.42, 'roll': 3.3}
{'lipoC2': 7.35, 'temp': 0.0, 'lipoC3S3': 11.56, 'state': 'normal', 'rot1': 0, 'rot0': 0, 'rot3': 0, 'rot2': 0, 'depth': -0.369, 'yaw': 67.73, 'datetime': '2018-12-12 14:18:32.582340', 'mgs': 0, 'flw2': 0.0, 'flw1': 0.35, 'flw0': 0.0, 'time': 25.59, 'compass': -48.81, 'pitch': 1.62, 'roll': 2.7}
{'lipoC2': 7.36, 'temp': 0.0, 'lipoC3S3': 11.61, 'state': 'normal', 'rot1': 0, 'rot0': 0, 'rot3': 0, 'rot2': 0, 'depth': -0.293, 'yaw': 68.01, 'datetime': '2018-12-12 14:18:32.802917', 'mgs': 0, 'flw2': 0.0, 'flw1': 0.0, 'flw0': 0.0, 'time': 25.8, 'compass': -48.53, 'pitch': 1.86, 'roll': 2.37}
{'lipoC2': 7.55, 'temp': 0.0, 'lipoC3S3': 11.36, 'state': 'normal', 'rot1': 0, 'rot0': 0, 'rot3': 0, 'rot2': 0, 'depth': 1.843, 'yaw': 68.28, 'datetime': '2018-12-12 14:18:33.009352', 'mgs': 0, 'flw2': 0.0, 'flw1': 0.0, 'flw0': 0.0, 'time': 26.0, 'compass': -48.26, 'pitch': 1.76, 'roll': 2.61}
{'lipoC2': 7.43, 'temp': 0.0, 'lipoC3S3': 11.23, 'state': 'normal', 'rot1': 0, 'rot0': 0, 'rot3': 0, 'rot2': 0, 'depth': -0.064, 'yaw': 68.44, 'datetime': '2018-12-12 14:18:33.310981', 'mgs': 0, 'flw2': 0.0, 'flw1': 0.32, 'flw0': 0.15, 'time': 26.31, 'compass': -48.09, 'pitch': 1.6, 'roll': 3.75}
{'lipoC2': 7.32, 'temp': 0.0, 'lipoC3S3': 11.35, 'state': 'normal', 'rot1': 0, 'rot0': 0, 'rot3': 0, 'rot2': 0, 'depth': -0.598, 'yaw': 68.45, 'datetime': '2018-12-12 14:18:33.519929', 'mgs': 0, 'flw2': 0.0, 'flw1': 0.56, 'flw0': 0.0, 'time': 26.52, 'compass': -48.09, 'pitch': 2.09, 'roll': 4.02}
{'lipoC2': 7.41, 'temp': 0.0, 'lipoC3S3': 11.35, 'state': 'normal', 'rot1': 0, 'rot0': 0, 'rot3': 0, 'rot2': 0, 'depth': 0.851, 'yaw': 68.42, 'datetime': '2018-12-12 14:18:33.727909', 'mgs': 0, 'flw2': 0.0, 'flw1': 0.47, 'flw0': 0.0, 'time': 26.73, 'compass': -48.11, 'pitch': 2.43, 'roll': 3.69}
{'lipoC2': 7.34, 'temp': 0.0, 'lipoC3S3': 11.46, 'state': 'normal', 'rot1': 0, 'rot0': 0, 'rot3': 0, 'rot2': 0, 'depth': 1.004, 'yaw': 68.41, 'datetime': '2018-12-12 14:18:33.938347', 'mgs': 0, 'flw2': 0.0, 'flw1': 0.0, 'flw0': 0.15, 'time': 26.94, 'compass': -48.13, 'pitch': 2.23, 'roll': 3.17}
{'lipoC2': 7.36, 'temp': 0.0, 'lipoC3S3': 11.65, 'state': 'normal', 'rot1': 0, 'rot0': 0, 'rot3': 0, 'rot2': 0, 'depth': -0.064, 'yaw': 68.35, 'datetime': '2018-12-12 14:18:34.145206', 'mgs': 0, 'flw2': 0.0, 'flw1': 0.0, 'flw0': 0.0, 'time': 27.15, 'compass': -48.18, 'pitch': 1.85, 'roll': 2.76}
{'lipoC2': 7.41, 'temp': 0.0, 'lipoC3S3': 11.25, 'state': 'normal', 'rot1': 0, 'rot0': 0, 'rot3': 0, 'rot2': 0, 'depth': 0.012, 'yaw': 68.34, 'datetime': '2018-12-12 14:18:34.353387', 'mgs': 0, 'flw2': 0.22, 'flw1': 0.0, 'flw0': 0.26, 'time': 27.35, 'compass': -48.2, 'pitch': 1.8, 'roll': 2.71}
{'lipoC2': 7.27, 'temp': 0.0, 'lipoC3S3': 11.38, 'state': 'normal', 'rot1': 0, 'rot0': 0, 'rot3': 0, 'rot2': 0, 'depth': -0.674, 'yaw': 68.34, 'datetime': '2018-12-12 14:18:34.563662', 'mgs': 0, 'flw2': 0.0, 'flw1': 0.59, 'flw0': 0.0, 'time': 27.56, 'compass': -48.19, 'pitch': 2.11, 'roll': 2.87}
{'lipoC2': 7.39, 'temp': 0.0, 'lipoC3S3': 11.35, 'state': 'normal', 'rot1': 0, 'rot0': 0, 'rot3': 0, 'rot2': 0, 'depth': 0.165, 'yaw': 68.35, 'datetime': '2018-12-12 14:18:34.769761', 'mgs': 0, 'flw2': 0.0, 'flw1': 0.53, 'flw0': 0.0, 'time': 27.77, 'compass': -48.18, 'pitch': 2.18, 'roll': 3.19}
{'lipoC2': 7.35, 'temp': 0.0, 'lipoC3S3': 11.63, 'state': 'normal', 'rot1': 0, 'rot0': 0, 'rot3': 0, 'rot2': 0, 'depth': -0.369, 'yaw': 68.37, 'datetime': '2018-12-12 14:18:34.977918', 'mgs': 0, 'flw2': 0.0, 'flw1': 0.0, 'flw0': 0.0, 'time': 27.98, 'compass': -48.17, 'pitch': 1.84, 'roll': 3.69}
{'lipoC2': 7.39, 'temp': 0.0, 'lipoC3S3': 11.27, 'state': 'normal', 'rot1': 0, 'rot0': 0, 'rot3': 0, 'rot2': 0, 'depth': -0.522, 'yaw': 68.38, 'datetime': '2018-12-12 14:18:35.186764', 'mgs': 0, 'flw2': 0.2, 'flw1': 0.0, 'flw0': 0.26, 'time': 28.19, 'compass': -48.15, 'pitch': 1.7, 'roll': 4.05}
{'lipoC2': 7.44, 'temp': 0.0, 'lipoC3S3': 11.25, 'state': 'normal', 'rot1': 0, 'rot0': 0, 'rot3': 0, 'rot2': 0, 'depth': -1.285, 'yaw': 68.38, 'datetime': '2018-12-12 14:18:35.396930', 'mgs': 0, 'flw2': 0.18, 'flw1': 0.0, 'flw0': 0.26, 'time': 28.4, 'compass': -48.16, 'pitch': 2.34, 'roll': 3.93}
{'lipoC2': 7.28, 'temp': 0.0, 'lipoC3S3': 11.43, 'state': 'normal', 'rot1': 0, 'rot0': 0, 'rot3': 0, 'rot2': 0, 'depth': -0.674, 'yaw': 68.36, 'datetime': '2018-12-12 14:18:35.602903', 'mgs': 0, 'flw2': 0.0, 'flw1': 0.0, 'flw0': 0.0, 'time': 28.6, 'compass': -48.18, 'pitch': 2.97, 'roll': 3.51}
{'lipoC2': 7.35, 'temp': 0.0, 'lipoC3S3': 11.67, 'state': 'normal', 'rot1': 0, 'rot0': 0, 'rot3': 0, 'rot2': 0, 'depth': -0.14, 'yaw': 68.32, 'datetime': '2018-12-12 14:18:35.811886', 'mgs': 0, 'flw2': 0.13, 'flw1': 0.0, 'flw0': 0.0, 'time': 28.81, 'compass': -48.22, 'pitch': 2.38, 'roll': 3.19}
{'lipoC2': 7.44, 'temp': 0.0, 'lipoC3S3': 11.09, 'state': 'normal', 'rot1': 0, 'rot0': 0, 'rot3': 0, 'rot2': 0, 'depth': 0.928, 'yaw': 68.36, 'datetime': '2018-12-12 14:18:36.024359', 'mgs': 0, 'flw2': 6.14, 'flw1': 0.0, 'flw0': 0.26, 'time': 29.02, 'compass': -48.17, 'pitch': 1.44, 'roll': 3.06}
{'lipoC2': 7.27, 'temp': 0.0, 'lipoC3S3': 11.36, 'state': 'normal', 'rot1': 0, 'rot0': 3, 'rot3': 0, 'rot2': 0, 'depth': -0.674, 'yaw': 71.69, 'datetime': '2018-12-12 14:18:36.231815', 'mgs': 0, 'flw2': 1.04, 'flw1': 0.0, 'flw0': 0.17, 'time': 29.22, 'compass': -44.85, 'pitch': 3.54, 'roll': 3.63}
{'lipoC2': 7.46, 'temp': 0.0, 'lipoC3S3': 11.22, 'state': 'normal', 'rot1': 0, 'rot0': 5, 'rot3': 0, 'rot2': 0, 'depth': -1.056, 'yaw': 75.42, 'datetime': '2018-12-12 14:18:36.440794', 'mgs': 0, 'flw2': 0.23, 'flw1': 0.0, 'flw0': 0.23, 'time': 29.43, 'compass': -41.12, 'pitch': 4.47, 'roll': 4.07}
{'lipoC2': 7.55, 'temp': 0.0, 'lipoC3S3': 11.32, 'state': 'normal', 'rot1': 0, 'rot0': 5, 'rot3': 0, 'rot2': 0, 'depth': 1.843, 'yaw': 79.17, 'datetime': '2018-12-12 14:18:36.648887', 'mgs': 0, 'flw2': 0.12, 'flw1': 0.0, 'flw0': 0.0, 'time': 29.64, 'compass': -37.37, 'pitch': 3.4, 'roll': 3.72}
{'lipoC2': 7.38, 'temp': 0.0, 'lipoC3S3': 11.35, 'state': 'normal', 'rot1': 0, 'rot0': 5, 'rot3': 0, 'rot2': 0, 'depth': -0.674, 'yaw': 82.2, 'datetime': '2018-12-12 14:18:36.858397', 'mgs': 0, 'flw2': 0.15, 'flw1': 0.12, 'flw0': 0.0, 'time': 29.85, 'compass': -34.34, 'pitch': 2.35, 'roll': 2.81}
{'lipoC2': 7.55, 'temp': 0.0, 'lipoC3S3': 11.25, 'state': 'normal', 'rot1': 0, 'rot0': 6, 'rot3': 0, 'rot2': 0, 'depth': -0.522, 'yaw': 84.59, 'datetime': '2018-12-12 14:18:37.064551', 'mgs': 0, 'flw2': 5.42, 'flw1': 0.0, 'flw0': 0.07, 'time': 30.06, 'compass': -31.95, 'pitch': 2.76, 'roll': 1.71}
{'lipoC2': 7.34, 'temp': 0.0, 'lipoC3S3': 11.54, 'state': 'normal', 'rot1': 0, 'rot0': 9, 'rot3': 0, 'rot2': 0, 'depth': -0.369, 'yaw': 84.66, 'datetime': '2018-12-12 14:18:37.272951', 'mgs': 0, 'flw2': 2.92, 'flw1': 0.0, 'flw0': 0.0, 'time': 30.26, 'compass': -31.88, 'pitch': 2.68, 'roll': 1.25}
{'lipoC2': 7.28, 'temp': 0.0, 'lipoC3S3': 11.29, 'state': 'normal', 'rot1': 0, 'rot0': 11, 'rot3': 0, 'rot2': 0, 'depth': -0.751, 'yaw': 83.37, 'datetime': '2018-12-12 14:18:37.480491', 'mgs': 0, 'flw2': 1.28, 'flw1': 0.0, 'flw0': 0.26, 'time': 30.47, 'compass': -33.17, 'pitch': 2.47, 'roll': 1.72}
{'lipoC2': 7.44, 'temp': 0.0, 'lipoC3S3': 11.23, 'state': 'normal', 'rot1': 0, 'rot0': 12, 'rot3': 0, 'rot2': 0, 'depth': 0.089, 'yaw': 82.07, 'datetime': '2018-12-12 14:18:37.689488', 'mgs': 0, 'flw2': 0.24, 'flw1': 0.0, 'flw0': 0.16, 'time': 30.68, 'compass': -34.47, 'pitch': 2.71, 'roll': 2.85}
{'lipoC2': 7.44, 'temp': 0.0, 'lipoC3S3': 11.22, 'state': 'normal', 'rot1': 0, 'rot0': 12, 'rot3': 0, 'rot2': 0, 'depth': -1.208, 'yaw': 81.29, 'datetime': '2018-12-12 14:18:37.898477', 'mgs': 0, 'flw2': 0.07, 'flw1': 0.0, 'flw0': 0.24, 'time': 30.89, 'compass': -35.24, 'pitch': 3.26, 'roll': 4.16}
{'lipoC2': 7.53, 'temp': 0.0, 'lipoC3S3': 11.27, 'state': 'normal', 'rot1': 0, 'rot0': 12, 'rot3': 0, 'rot2': 0, 'depth': -1.285, 'yaw': 80.78, 'datetime': '2018-12-12 14:18:38.107865', 'mgs': 0, 'flw2': 0.18, 'flw1': 0.0, 'flw0': 0.07, 'time': 31.1, 'compass': -35.76, 'pitch': 3.42, 'roll': 4.67}
{'lipoC2': 7.33, 'temp': 0.0, 'lipoC3S3': 11.63, 'state': 'normal', 'rot1': 0, 'rot0': 12, 'rot3': 0, 'rot2': 0, 'depth': -0.369, 'yaw': 80.44, 'datetime': '2018-12-12 14:18:38.316730', 'mgs': 0, 'flw2': 0.0, 'flw1': 0.0, 'flw0': 0.1, 'time': 31.31, 'compass': -36.09, 'pitch': 3.4, 'roll': 4.24}
{'lipoC2': 7.32, 'temp': 0.0, 'lipoC3S3': 11.56, 'state': 'normal', 'rot1': 0, 'rot0': 12, 'rot3': 0, 'rot2': 0, 'depth': 1.767, 'yaw': 80.33, 'datetime': '2018-12-12 14:18:38.524465', 'mgs': 0, 'flw2': 0.04, 'flw1': 0.0, 'flw0': 0.15, 'time': 31.51, 'compass': -36.2, 'pitch': 3.39, 'roll': 3.45}
{'lipoC2': 7.27, 'temp': 0.0, 'lipoC3S3': 11.42, 'state': 'normal', 'rot1': 0, 'rot0': 12, 'rot3': 0, 'rot2': 0, 'depth': -0.598, 'yaw': 80.31, 'datetime': '2018-12-12 14:18:38.734107', 'mgs': 0, 'flw2': 0.0, 'flw1': 0.26, 'flw0': 0.01, 'time': 31.72, 'compass': -36.23, 'pitch': 3.39, 'roll': 2.72}
{'lipoC2': 7.34, 'temp': 0.0, 'lipoC3S3': 11.42, 'state': 'normal', 'rot1': 1, 'rot0': 12, 'rot3': 0, 'rot2': 0, 'depth': 1.385, 'yaw': 80.58, 'datetime': '2018-12-12 14:18:38.941563', 'mgs': 0, 'flw2': 0.93, 'flw1': 0.0, 'flw0': 2.19, 'time': 31.93, 'compass': -35.96, 'pitch': 3.31, 'roll': 2.43}
{'lipoC2': 7.52, 'temp': 0.0, 'lipoC3S3': 11.22, 'state': 'normal', 'rot1': 3, 'rot0': 13, 'rot3': 0, 'rot2': 0, 'depth': 1.233, 'yaw': 82.49, 'datetime': '2018-12-12 14:18:39.149664', 'mgs': 0, 'flw2': 0.7, 'flw1': 0.0, 'flw0': 1.94, 'time': 32.14, 'compass': -34.05, 'pitch': 3.05, 'roll': 2.9}
{'lipoC2': 7.35, 'temp': 0.0, 'lipoC3S3': 11.56, 'state': 'normal', 'rot1': 5, 'rot0': 14, 'rot3': 0, 'rot2': 0, 'depth': 1.309, 'yaw': 86.8, 'datetime': '2018-12-12 14:18:39.357631', 'mgs': 0, 'flw2': 1.2, 'flw1': 0.41, 'flw0': 1.86, 'time': 32.35, 'compass': -29.73, 'pitch': 3.45, 'roll': 3.75}
{'lipoC2': 7.36, 'temp': 0.0, 'lipoC3S3': 11.58, 'state': 'normal', 'rot1': 7, 'rot0': 16, 'rot3': 0, 'rot2': 0, 'depth': -0.14, 'yaw': 93.41, 'datetime': '2018-12-12 14:18:39.567336', 'mgs': 0, 'flw2': 1.23, 'flw1': 0.41, 'flw0': 1.83, 'time': 32.56, 'compass': -23.13, 'pitch': 4.26, 'roll': 4.35}
{'lipoC2': 7.47, 'temp': 0.0, 'lipoC3S3': 11.18, 'state': 'normal', 'rot1': 9, 'rot0': 18, 'rot3': 0, 'rot2': 0, 'depth': -1.056, 'yaw': 101.22, 'datetime': '2018-12-12 14:18:39.777553', 'mgs': 0, 'flw2': 1.99, 'flw1': 0.0, 'flw0': 2.1, 'time': 32.76, 'compass': -15.32, 'pitch': 4.82, 'roll': 4.1}
{'lipoC2': 7.55, 'temp': 0.0, 'lipoC3S3': 11.32, 'state': 'normal', 'rot1': 11, 'rot0': 20, 'rot3': 0, 'rot2': 0, 'depth': -0.751, 'yaw': 110.81, 'datetime': '2018-12-12 14:18:39.986589', 'mgs': 0, 'flw2': 1.76, 'flw1': 0.0, 'flw0': 2.16, 'time': 32.97, 'compass': -5.72, 'pitch': 5.01, 'roll': 2.88}
{'lipoC2': 7.54, 'temp': 0.0, 'lipoC3S3': 11.27, 'state': 'normal', 'rot1': 14, 'rot0': 22, 'rot3': 0, 'rot2': 0, 'depth': -0.598, 'yaw': 121.5, 'datetime': '2018-12-12 14:18:40.194310', 'mgs': 0, 'flw2': 2.05, 'flw1': 0.56, 'flw0': 2.1, 'time': 33.18, 'compass': 4.96, 'pitch': 4.65, 'roll': 1.18}
{'lipoC2': 7.35, 'temp': 0.0, 'lipoC3S3': 11.61, 'state': 'normal', 'rot1': 16, 'rot0': 24, 'rot3': 0, 'rot2': 0, 'depth': 2.53, 'yaw': 133.5, 'datetime': '2018-12-12 14:18:40.403177', 'mgs': 0, 'flw2': 2.4, 'flw1': 0.0, 'flw0': 2.26, 'time': 33.39, 'compass': 16.96, 'pitch': 4.47, 'roll': -0.16}
{'lipoC2': 7.52, 'temp': 0.0, 'lipoC3S3': 11.26, 'state': 'normal', 'rot1': 18, 'rot0': 26, 'rot3': 0, 'rot2': 0, 'depth': 1.004, 'yaw': 146.04, 'datetime': '2018-12-12 14:18:40.612969', 'mgs': 0, 'flw2': 2.34, 'flw1': 0.0, 'flw0': 0.16, 'time': 33.6, 'compass': 29.5, 'pitch': 4.36, 'roll': -0.8}
{'lipoC2': 7.28, 'temp': 0.0, 'lipoC3S3': 11.3, 'state': 'normal', 'rot1': 19, 'rot0': 28, 'rot3': 0, 'rot2': 0, 'depth': -0.674, 'yaw': 159.09, 'datetime': '2018-12-12 14:18:40.823236', 'mgs': 0, 'flw2': 2.48, 'flw1': 0.0, 'flw0': 0.49, 'time': 33.81, 'compass': 42.55, 'pitch': 4.1, 'roll': -1.48}
{'lipoC2': 7.36, 'temp': 0.0, 'lipoC3S3': 11.58, 'state': 'normal', 'rot1': 19, 'rot0': 31, 'rot3': 0, 'rot2': 0, 'depth': -0.064, 'yaw': 171.82, 'datetime': '2018-12-12 14:18:41.032438', 'mgs': 0, 'flw2': 2.89, 'flw1': 0.09, 'flw0': 0.0, 'time': 34.02, 'compass': 55.28, 'pitch': 3.64, 'roll': -2.21}
{'lipoC2': 7.36, 'temp': 0.0, 'lipoC3S3': 11.32, 'state': 'normal', 'rot1': 20, 'rot0': 33, 'rot3': 0, 'rot2': 0, 'depth': 0.699, 'yaw': -175.53, 'datetime': '2018-12-12 14:18:41.242476', 'mgs': 0, 'flw2': 2.75, 'flw1': 0.53, 'flw0': 0.79, 'time': 34.23, 'compass': 67.93, 'pitch': 3.2, 'roll': -2.91}
{'lipoC2': 7.54, 'temp': 0.0, 'lipoC3S3': 11.29, 'state': 'normal', 'rot1': 22, 'rot0': 35, 'rot3': 0, 'rot2': 0, 'depth': -0.522, 'yaw': -163.62, 'datetime': '2018-12-12 14:18:41.449494', 'mgs': 0, 'flw2': 2.82, 'flw1': 0.0, 'flw0': 1.9, 'time': 34.44, 'compass': 79.84, 'pitch': 2.66, 'roll': -3.38}
{'lipoC2': 7.53, 'temp': 0.0, 'lipoC3S3': 11.22, 'state': 'normal', 'rot1': 23, 'rot0': 38, 'rot3': 0, 'rot2': 0, 'depth': -1.208, 'yaw': -153.47, 'datetime': '2018-12-12 14:18:41.659867', 'mgs': 0, 'flw2': 3.08, 'flw1': 0.0, 'flw0': 2.14, 'time': 34.64, 'compass': 89.99, 'pitch': 1.9, 'roll': -3.13}
{'lipoC2': 7.36, 'temp': 0.0, 'lipoC3S3': 11.58, 'state': 'normal', 'rot1': 26, 'rot0': 41, 'rot3': 0, 'rot2': 0, 'depth': 0.241, 'yaw': -144.44, 'datetime': '2018-12-12 14:18:41.868962', 'mgs': 0, 'flw2': 2.91, 'flw1': 0.0, 'flw0': 1.76, 'time': 34.85, 'compass': 99.02, 'pitch': 1.46, 'roll': -2.54}
{'lipoC2': 7.39, 'temp': 0.0, 'lipoC3S3': 11.07, 'state': 'normal', 'rot1': 28, 'rot0': 43, 'rot3': 0, 'rot2': 0, 'depth': -0.293, 'yaw': -136.55, 'datetime': '2018-12-12 14:18:42.081691', 'mgs': 0, 'flw2': 3.06, 'flw1': 0.0, 'flw0': 2.25, 'time': 35.06, 'compass': 106.91, 'pitch': 1.51, 'roll': -2.03}
{'lipoC2': 7.32, 'temp': 0.0, 'lipoC3S3': 11.47, 'state': 'normal', 'rot1': 30, 'rot0': 45, 'rot3': 0, 'rot2': 0, 'depth': -0.369, 'yaw': -129.42, 'datetime': '2018-12-12 14:18:42.291108', 'mgs': 0, 'flw2': 3.15, 'flw1': 0.0, 'flw0': 2.21, 'time': 35.27, 'compass': 114.04, 'pitch': 1.47, 'roll': -1.64}
{'lipoC2': 7.33, 'temp': 0.0, 'lipoC3S3': 11.3, 'state': 'normal', 'rot1': 32, 'rot0': 48, 'rot3': 0, 'rot2': 0, 'depth': 2.301, 'yaw': -123.23, 'datetime': '2018-12-12 14:18:42.501879', 'mgs': 0, 'flw2': 2.73, 'flw1': 0.0, 'flw0': 3.63, 'time': 35.48, 'compass': 120.24, 'pitch': 1.11, 'roll': -1.45}
{'lipoC2': 7.36, 'temp': 0.0, 'lipoC3S3': 11.27, 'state': 'normal', 'rot1': 35, 'rot0': 50, 'rot3': 0, 'rot2': 0, 'depth': -0.293, 'yaw': -118.84, 'datetime': '2018-12-12 14:18:42.709556', 'mgs': 0, 'flw2': 2.4, 'flw1': 0.09, 'flw0': 3.81, 'time': 35.69, 'compass': 124.63, 'pitch': 0.99, 'roll': -1.56}
{'lipoC2': 7.36, 'temp': 0.0, 'lipoC3S3': 11.56, 'state': 'normal', 'rot1': 37, 'rot0': 52, 'rot3': 0, 'rot2': 0, 'depth': 1.462, 'yaw': -116.13, 'datetime': '2018-12-12 14:18:42.919982', 'mgs': 0, 'flw2': 2.54, 'flw1': 0.0, 'flw0': 3.66, 'time': 35.9, 'compass': 127.33, 'pitch': 0.9, 'roll': -1.86}
{'lipoC2': 7.55, 'temp': 0.0, 'lipoC3S3': 11.26, 'state': 'normal', 'rot1': 40, 'rot0': 54, 'rot3': 0, 'rot2': 0, 'depth': -0.751, 'yaw': -114.29, 'datetime': '2018-12-12 14:18:43.134310', 'mgs': 0, 'flw2': 2.8, 'flw1': 0.0, 'flw0': 3.6, 'time': 36.11, 'compass': 129.17, 'pitch': 0.77, 'roll': -1.9}
{'lipoC2': 7.36, 'temp': 0.0, 'lipoC3S3': 11.55, 'state': 'normal', 'rot1': 44, 'rot0': 57, 'rot3': 0, 'rot2': 0, 'depth': 1.157, 'yaw': -112.98, 'datetime': '2018-12-12 14:18:43.341775', 'mgs': 0, 'flw2': 2.87, 'flw1': 0.41, 'flw0': 3.74, 'time': 36.32, 'compass': 130.49, 'pitch': 0.72, 'roll': -1.9}
{'lipoC2': 7.55, 'temp': 0.0, 'lipoC3S3': 11.19, 'state': 'normal', 'rot1': 46, 'rot0': 59, 'rot3': 0, 'rot2': 0, 'depth': -1.056, 'yaw': -111.84, 'datetime': '2018-12-12 14:18:43.550520', 'mgs': 0, 'flw2': 2.77, 'flw1': 0.0, 'flw0': 3.49, 'time': 36.53, 'compass': 131.62, 'pitch': 0.57, 'roll': -2.1}
{'lipoC2': 7.52, 'temp': 0.0, 'lipoC3S3': 11.06, 'state': 'normal', 'rot1': 49, 'rot0': 61, 'rot3': 0, 'rot2': 0, 'depth': 1.233, 'yaw': -110.94, 'datetime': '2018-12-12 14:18:43.761405', 'mgs': 0, 'flw2': 3.08, 'flw1': 0.0, 'flw0': 3.7, 'time': 36.74, 'compass': 132.52, 'pitch': 0.12, 'roll': -2.25}
{'lipoC2': 7.27, 'temp': 0.0, 'lipoC3S3': 11.26, 'state': 'normal', 'rot1': 52, 'rot0': 64, 'rot3': 0, 'rot2': 0, 'depth': -0.598, 'yaw': -110.23, 'datetime': '2018-12-12 14:18:43.968394', 'mgs': 0, 'flw2': 2.77, 'flw1': 0.5, 'flw0': 2.97, 'time': 36.95, 'compass': 133.24, 'pitch': 0.07, 'roll': -2.15}
{'lipoC2': 7.36, 'temp': 0.0, 'lipoC3S3': 11.27, 'state': 'normal', 'rot1': 54, 'rot0': 66, 'rot3': 0, 'rot2': 0, 'depth': -0.293, 'yaw': -109.24, 'datetime': '2018-12-12 14:18:44.172618', 'mgs': 0, 'flw2': 2.76, 'flw1': 0.09, 'flw0': 2.37, 'time': 37.15, 'compass': 134.22, 'pitch': 0.02, 'roll': -2.0}
{'lipoC2': 7.35, 'temp': 0.0, 'lipoC3S3': 11.54, 'state': 'normal', 'rot1': 57, 'rot0': 69, 'rot3': 0, 'rot2': 0, 'depth': 1.996, 'yaw': -107.9, 'datetime': '2018-12-12 14:18:44.383936', 'mgs': 0, 'flw2': 2.7, 'flw1': 0.47, 'flw0': 2.01, 'time': 37.36, 'compass': 135.57, 'pitch': -0.37, 'roll': -2.03}
{'lipoC2': 7.29, 'temp': 0.0, 'lipoC3S3': 11.35, 'state': 'normal', 'rot1': 59, 'rot0': 71, 'rot3': 0, 'rot2': 0, 'depth': -0.446, 'yaw': -106.33, 'datetime': '2018-12-12 14:18:44.592364', 'mgs': 0, 'flw2': 2.25, 'flw1': 0.59, 'flw0': 2.1, 'time': 37.57, 'compass': 137.13, 'pitch': -0.84, 'roll': -2.03}
{'lipoC2': 7.35, 'temp': 0.0, 'lipoC3S3': 11.46, 'state': 'normal', 'rot1': 61, 'rot0': 73, 'rot3': 0, 'rot2': 0, 'depth': -0.064, 'yaw': -104.57, 'datetime': '2018-12-12 14:18:44.803550', 'mgs': 0, 'flw2': 2.03, 'flw1': 0.0, 'flw0': 2.11, 'time': 37.78, 'compass': 138.89, 'pitch': -1.05, 'roll': -2.0}
{'lipoC2': 7.34, 'temp': 0.0, 'lipoC3S3': 11.6, 'state': 'normal', 'rot1': 63, 'rot0': 76, 'rot3': 0, 'rot2': 0, 'depth': 1.767, 'yaw': -102.94, 'datetime': '2018-12-12 14:18:45.019351', 'mgs': 0, 'flw2': 2.09, 'flw1': 0.0, 'flw0': 2.14, 'time': 37.99, 'compass': 140.52, 'pitch': -1.3, 'roll': -1.97}
{'lipoC2': 7.55, 'temp': 0.0, 'lipoC3S3': 11.23, 'state': 'normal', 'rot1': 65, 'rot0': 78, 'rot3': 0, 'rot2': 0, 'depth': -1.132, 'yaw': -101.55, 'datetime': '2018-12-12 14:18:45.224178', 'mgs': 0, 'flw2': 2.05, 'flw1': 0.59, 'flw0': 1.92, 'time': 38.2, 'compass': 141.92, 'pitch': -1.4, 'roll': -1.87}
{'lipoC2': 7.36, 'temp': 0.0, 'lipoC3S3': 11.18, 'state': 'normal', 'rot1': 67, 'rot0': 80, 'rot3': 0, 'rot2': 0, 'depth': 2.072, 'yaw': -100.03, 'datetime': '2018-12-12 14:18:45.436504', 'mgs': 0, 'flw2': 2.4, 'flw1': 0.0, 'flw0': 2.03, 'time': 38.41, 'compass': 143.43, 'pitch': -1.47, 'roll': -1.7}
{'lipoC2': 7.33, 'temp': 0.0, 'lipoC3S3': 11.47, 'state': 'normal', 'rot1': 70, 'rot0': 83, 'rot3': 0, 'rot2': 0, 'depth': 0.089, 'yaw': -97.94, 'datetime': '2018-12-12 14:18:45.736433', 'mgs': 0, 'flw2': 2.09, 'flw1': 0.0, 'flw0': 2.08, 'time': 38.72, 'compass': 145.52, 'pitch': -2.06, 'roll': -1.56}
{'lipoC2': 7.43, 'temp': 0.0, 'lipoC3S3': 11.58, 'state': 'normal', 'rot1': 73, 'rot0': 85, 'rot3': 0, 'rot2': 0, 'depth': -0.293, 'yaw': -96.61, 'datetime': '2018-12-12 14:18:45.948627', 'mgs': 0, 'flw2': 2.12, 'flw1': 0.0, 'flw0': 1.87, 'time': 38.93, 'compass': 146.85, 'pitch': -2.11, 'roll': -1.52}
{'lipoC2': 7.54, 'temp': 0.0, 'lipoC3S3': 11.32, 'state': 'normal', 'rot1': 75, 'rot0': 87, 'rot3': 0, 'rot2': 0, 'depth': 1.843, 'yaw': -95.17, 'datetime': '2018-12-12 14:18:46.156674', 'mgs': 0, 'flw2': 2.2, 'flw1': 0.0, 'flw0': 2.2, 'time': 39.14, 'compass': 148.3, 'pitch': -1.6, 'roll': -1.47}
{'lipoC2': 7.35, 'temp': 0.0, 'lipoC3S3': 11.52, 'state': 'normal', 'rot1': 77, 'rot0': 89, 'rot3': 0, 'rot2': 0, 'depth': -0.598, 'yaw': -93.81, 'datetime': '2018-12-12 14:18:46.376185', 'mgs': 0, 'flw2': 2.25, 'flw1': 0.0, 'flw0': 2.06, 'time': 39.35, 'compass': 149.65, 'pitch': -1.22, 'roll': -1.38}
{'lipoC2': 7.3, 'temp': 0.0, 'lipoC3S3': 11.27, 'state': 'normal', 'rot1': 80, 'rot0': 91, 'rot3': 0, 'rot2': 0, 'depth': -0.522, 'yaw': -92.45, 'datetime': '2018-12-12 14:18:46.580078', 'mgs': 0, 'flw2': 2.19, 'flw1': 0.23, 'flw0': 2.98, 'time': 39.56, 'compass': 151.01, 'pitch': -1.43, 'roll': -1.09}
{'lipoC2': 7.39, 'temp': 0.0, 'lipoC3S3': 11.22, 'state': 'normal', 'rot1': 83, 'rot0': 93, 'rot3': 0, 'rot2': 0, 'depth': 0.012, 'yaw': -91.32, 'datetime': '2018-12-12 14:18:46.789948', 'mgs': 0, 'flw2': 2.51, 'flw1': 0.0, 'flw0': 2.6, 'time': 39.77, 'compass': 152.14, 'pitch': -1.51, 'roll': -0.98}
{'lipoC2': 7.28, 'temp': 0.0, 'lipoC3S3': 11.39, 'state': 'normal', 'rot1': 85, 'rot0': 96, 'rot3': 0, 'rot2': 0, 'depth': -0.674, 'yaw': -90.23, 'datetime': '2018-12-12 14:18:47.004504', 'mgs': 0, 'flw2': 2.25, 'flw1': 0.47, 'flw0': 2.09, 'time': 39.97, 'compass': 153.24, 'pitch': -1.14, 'roll': -0.81}
{'lipoC2': 7.28, 'temp': 0.0, 'lipoC3S3': 11.39, 'state': 'normal', 'rot1': 87, 'rot0': 98, 'rot3': 0, 'rot2': 0, 'depth': -0.598, 'yaw': -88.75, 'datetime': '2018-12-12 14:18:47.211078', 'mgs': 0, 'flw2': 2.25, 'flw1': 0.41, 'flw0': 2.21, 'time': 40.18, 'compass': 154.71, 'pitch': -0.77, 'roll': -0.64}
{'lipoC2': 7.36, 'temp': 0.0, 'lipoC3S3': 11.59, 'state': 'normal', 'rot1': 89, 'rot0': 100, 'rot3': 0, 'rot2': 0, 'depth': 0.241, 'yaw': -87.34, 'datetime': '2018-12-12 14:18:47.422827', 'mgs': 0, 'flw2': 2.28, 'flw1': 0.0, 'flw0': 2.0, 'time': 40.39, 'compass': 156.13, 'pitch': -0.65, 'roll': -0.62}
{'lipoC2': 7.54, 'temp': 0.0, 'lipoC3S3': 11.4, 'state': 'normal', 'rot1': 91, 'rot0': 102, 'rot3': 0, 'rot2': 0, 'depth': -1.208, 'yaw': -86.06, 'datetime': '2018-12-12 14:18:47.624629', 'mgs': 0, 'flw2': 2.17, 'flw1': 0.0, 'flw0': 1.86, 'time': 40.6, 'compass': 157.4, 'pitch': -1.06, 'roll': -0.59}
{'lipoC2': 7.39, 'temp': 0.0, 'lipoC3S3': 11.27, 'state': 'normal', 'rot1': 94, 'rot0': 104, 'rot3': 0, 'rot2': 0, 'depth': 0.623, 'yaw': -84.89, 'datetime': '2018-12-12 14:18:47.834995', 'mgs': 0, 'flw2': 2.25, 'flw1': 0.0, 'flw0': 1.89, 'time': 40.81, 'compass': 158.57, 'pitch': -1.52, 'roll': -0.32}
{'lipoC2': 7.53, 'temp': 0.0, 'lipoC3S3': 11.22, 'state': 'normal', 'rot1': 96, 'rot0': 106, 'rot3': 0, 'rot2': 0, 'depth': -0.751, 'yaw': -83.53, 'datetime': '2018-12-12 14:18:48.041925', 'mgs': 0, 'flw2': 2.7, 'flw1': 0.0, 'flw0': 2.08, 'time': 41.02, 'compass': 159.93, 'pitch': -1.54, 'roll': -0.1}
{'lipoC2': 7.42, 'temp': 0.0, 'lipoC3S3': 11.1, 'state': 'normal', 'rot1': 98, 'rot0': 108, 'rot3': 0, 'rot2': 0, 'depth': -0.598, 'yaw': -81.86, 'datetime': '2018-12-12 14:18:48.251052', 'mgs': 0, 'flw2': 2.58, 'flw1': 0.0, 'flw0': 2.19, 'time': 41.23, 'compass': 161.6, 'pitch': -1.25, 'roll': -0.2}
{'lipoC2': 7.32, 'temp': 0.0, 'lipoC3S3': 11.35, 'state': 'normal', 'rot1': 100, 'rot0': 111, 'rot3': 0, 'rot2': 0, 'depth': 1.92, 'yaw': -80.04, 'datetime': '2018-12-12 14:18:48.459897', 'mgs': 0, 'flw2': 6.23, 'flw1': 0.0, 'flw0': 7.25, 'time': 41.44, 'compass': 163.42, 'pitch': -1.19, 'roll': -0.19}
{'lipoC2': 7.49, 'temp': 0.0, 'lipoC3S3': 11.23, 'state': 'normal', 'rot1': 104, 'rot0': 114, 'rot3': 0, 'rot2': 0, 'depth': 1.157, 'yaw': -78.71, 'datetime': '2018-12-12 14:18:48.669488', 'mgs': 0, 'flw2': 6.02, 'flw1': 0.0, 'flw0': 6.56, 'time': 41.65, 'compass': 164.76, 'pitch': 0.62, 'roll': -0.17}
{'lipoC2': 7.36, 'temp': 0.0, 'lipoC3S3': 11.1, 'state': 'normal', 'rot1': 107, 'rot0': 118, 'rot3': 0, 'rot2': 0, 'depth': 0.089, 'yaw': -77.86, 'datetime': '2018-12-12 14:18:48.880347', 'mgs': 0, 'flw2': 6.14, 'flw1': 0.0, 'flw0': 7.21, 'time': 41.86, 'compass': 165.6, 'pitch': 2.16, 'roll': -0.17}
{'lipoC2': 7.28, 'temp': 0.0, 'lipoC3S3': 11.1, 'state': 'normal', 'rot1': 110, 'rot0': 121, 'rot3': 0, 'rot2': 0, 'depth': -0.598, 'yaw': -77.28, 'datetime': '2018-12-12 14:18:49.088776', 'mgs': 0, 'flw2': 6.04, 'flw1': 0.0, 'flw0': 6.64, 'time': 42.07, 'compass': 166.18, 'pitch': 2.61, 'roll': -0.28}
{'lipoC2': 7.55, 'temp': 0.0, 'lipoC3S3': 11.22, 'state': 'normal', 'rot1': 114, 'rot0': 124, 'rot3': 0, 'rot2': 0, 'depth': 1.843, 'yaw': -77.21, 'datetime': '2018-12-12 14:18:49.298372', 'mgs': 0, 'flw2': 6.02, 'flw1': 0.0, 'flw0': 6.63, 'time': 42.28, 'compass': 166.25, 'pitch': 2.49, 'roll': -0.19}
{'lipoC2': 7.35, 'temp': 0.0, 'lipoC3S3': 11.44, 'state': 'normal', 'rot1': 117, 'rot0': 127, 'rot3': 0, 'rot2': 0, 'depth': 1.538, 'yaw': -77.2, 'datetime': '2018-12-12 14:18:49.508045', 'mgs': 0, 'flw2': 6.07, 'flw1': 0.06, 'flw0': 6.6, 'time': 42.49, 'compass': 166.27, 'pitch': 2.22, 'roll': 0.15}
{'lipoC2': 7.32, 'temp': 0.0, 'lipoC3S3': 11.35, 'state': 'normal', 'rot1': 121, 'rot0': 131, 'rot3': 0, 'rot2': 0, 'depth': -0.064, 'yaw': -77.21, 'datetime': '2018-12-12 14:18:49.717516', 'mgs': 0, 'flw2': 5.99, 'flw1': 0.32, 'flw0': 6.74, 'time': 42.69, 'compass': 166.25, 'pitch': 2.32, 'roll': 0.2}
{'lipoC2': 7.34, 'temp': 0.0, 'lipoC3S3': 11.25, 'state': 'normal', 'rot1': 125, 'rot0': 135, 'rot3': 0, 'rot2': 0, 'depth': 2.454, 'yaw': -77.22, 'datetime': '2018-12-12 14:18:49.928469', 'mgs': 0, 'flw2': 5.92, 'flw1': 0.0, 'flw0': 6.29, 'time': 42.9, 'compass': 166.24, 'pitch': 2.72, 'roll': 0.2}
{'lipoC2': 7.35, 'temp': 0.0, 'lipoC3S3': 11.47, 'state': 'normal', 'rot1': 129, 'rot0': 138, 'rot3': 0, 'rot2': 0, 'depth': 0.928, 'yaw': -77.24, 'datetime': '2018-12-12 14:18:50.139128', 'mgs': 0, 'flw2': 6.13, 'flw1': 0.03, 'flw0': 6.6, 'time': 43.12, 'compass': 166.22, 'pitch': 2.84, 'roll': 0.05}
{'lipoC2': 7.34, 'temp': 0.0, 'lipoC3S3': 11.34, 'state': 'normal', 'rot1': 133, 'rot0': 141, 'rot3': 0, 'rot2': 0, 'depth': 1.691, 'yaw': -77.56, 'datetime': '2018-12-12 14:18:50.347700', 'mgs': 0, 'flw2': 5.81, 'flw1': 0.0, 'flw0': 6.59, 'time': 43.32, 'compass': 165.9, 'pitch': 2.82, 'roll': -0.38}
