{'lipoC2': 0.01, 'temp': 0.0, 'lipoC3S3': 11.72, 'state': 'normal', 'rot1': 0, 'rot0': 0, 'rot3': 0, 'rot2': 0, 'depth': -0.369, 'yaw': 0.0, 'datetime': '2018-12-18 21:03:42.473111', 'mgs': 0, 'flw2': 0.18, 'flw1': 0.0, 'flw0': 0.0, 'time': 1.25, 'compass': -12.02, 'pitch': -0.39, 'roll': -1.92}
{'lipoC2': 0.12, 'temp': 0.0, 'lipoC3S3': 11.87, 'state': 'normal', 'rot1': 0, 'rot0': 0, 'rot3': 0, 'rot2': 0, 'depth': -2.124, 'yaw': 0.0, 'datetime': '2018-12-18 21:03:42.680575', 'mgs': 0, 'flw2': 0.0, 'flw1': 0.32, 'flw0': 0.0, 'time': 1.46, 'compass': -12.02, 'pitch': -0.48, 'roll': -2.21}
{'lipoC2': 0.0, 'temp': 0.0, 'lipoC3S3': 12.08, 'state': 'normal', 'rot1': 0, 'rot0': 0, 'rot3': 0, 'rot2': 0, 'depth': -0.751, 'yaw': 0.0, 'datetime': '2018-12-18 21:03:42.886890', 'mgs': 0, 'flw2': 0.21, 'flw1': 0.21, 'flw0': 0.0, 'time': 1.67, 'compass': -12.02, 'pitch': -0.11, 'roll': -2.35}
{'lipoC2': 0.0, 'temp': 0.0, 'lipoC3S3': 12.06, 'state': 'normal', 'rot1': 0, 'rot0': 0, 'rot3': 0, 'rot2': 0, 'depth': 1.385, 'yaw': -0.0, 'datetime': '2018-12-18 21:03:43.095598', 'mgs': 0, 'flw2': 0.06, 'flw1': 0.35, 'flw0': 0.0, 'time': 1.88, 'compass': -12.02, 'pitch': 0.11, 'roll': -2.35}
{'lipoC2': 0.0, 'temp': 0.0, 'lipoC3S3': 11.88, 'state': 'normal', 'rot1': 0, 'rot0': 0, 'rot3': 0, 'rot2': 0, 'depth': -0.064, 'yaw': 0.0, 'datetime': '2018-12-18 21:03:43.305415', 'mgs': 0, 'flw2': 0.18, 'flw1': 0.0, 'flw0': 0.0, 'time': 2.09, 'compass': -12.02, 'pitch': -0.17, 'roll': -2.35}
{'lipoC2': 0.1, 'temp': 0.0, 'lipoC3S3': 11.88, 'state': 'normal', 'rot1': 0, 'rot0': 0, 'rot3': 0, 'rot2': 0, 'depth': -2.048, 'yaw': -0.0, 'datetime': '2018-12-18 21:03:43.515554', 'mgs': 0, 'flw2': 0.16, 'flw1': 0.0, 'flw0': 0.0, 'time': 2.3, 'compass': -12.02, 'pitch': -0.32, 'roll': -2.35}
{'lipoC2': 0.0, 'temp': 0.0, 'lipoC3S3': 11.71, 'state': 'normal', 'rot1': 0, 'rot0': 3, 'rot3': 0, 'rot2': 0, 'depth': -0.827, 'yaw': 1.12, 'datetime': '2018-12-18 21:03:43.724261', 'mgs': 0, 'flw2': 10.97, 'flw1': 0.47, 'flw0': 0.0, 'time': 2.5, 'compass': -10.89, 'pitch': 0.39, 'roll': -2.18}
{'lipoC2': 0.11, 'temp': 0.0, 'lipoC3S3': 11.87, 'state': 'normal', 'rot1': 0, 'rot0': 9, 'rot3': 0, 'rot2': 0, 'depth': 1.843, 'yaw': 9.75, 'datetime': '2018-12-18 21:03:43.930406', 'mgs': 0, 'flw2': 12.49, 'flw1': 0.0, 'flw0': 0.0, 'time': 2.71, 'compass': -2.27, 'pitch': 4.1, 'roll': -1.2}
{'lipoC2': 0.0, 'temp': 0.0, 'lipoC3S3': 11.96, 'state': 'normal', 'rot1': 4, 'rot0': 14, 'rot3': 0, 'rot2': 0, 'depth': -1.285, 'yaw': 22.84, 'datetime': '2018-12-18 21:03:44.135849', 'mgs': 0, 'flw2': 12.49, 'flw1': 0.35, 'flw0': 12.49, 'time': 2.92, 'compass': 10.82, 'pitch': 6.3, 'roll': -0.56}
{'lipoC2': 0.0, 'temp': 0.0, 'lipoC3S3': 11.75, 'state': 'normal', 'rot1': 15, 'rot0': 20, 'rot3': 0, 'rot2': 0, 'depth': -0.598, 'yaw': 31.6, 'datetime': '2018-12-18 21:03:44.344538', 'mgs': 0, 'flw2': 12.49, 'flw1': 0.0, 'flw0': 12.49, 'time': 3.13, 'compass': 19.58, 'pitch': 9.29, 'roll': -0.21}
{'lipoC2': 0.0, 'temp': 0.0, 'lipoC3S3': 12.06, 'state': 'normal', 'rot1': 25, 'rot0': 24, 'rot3': 0, 'rot2': 0, 'depth': 2.148, 'yaw': 34.71, 'datetime': '2018-12-18 21:03:44.557127', 'mgs': 0, 'flw2': 10.25, 'flw1': 0.35, 'flw0': 12.49, 'time': 3.34, 'compass': 22.69, 'pitch': 10.64, 'roll': 0.13}
{'lipoC2': 0.09, 'temp': 0.0, 'lipoC3S3': 11.65, 'state': 'normal', 'rot1': 39, 'rot0': 29, 'rot3': 0, 'rot2': 0, 'depth': 1.309, 'yaw': 33.95, 'datetime': '2018-12-18 21:03:44.764162', 'mgs': 0, 'flw2': 12.49, 'flw1': 0.0, 'flw0': 12.49, 'time': 3.55, 'compass': 21.93, 'pitch': 8.73, 'roll': 0.31}
{'lipoC2': 0.14, 'temp': 0.0, 'lipoC3S3': 11.71, 'state': 'normal', 'rot1': 50, 'rot0': 35, 'rot3': 0, 'rot2': 0, 'depth': 0.851, 'yaw': 32.91, 'datetime': '2018-12-18 21:03:44.973308', 'mgs': 0, 'flw2': 12.49, 'flw1': 0.5, 'flw0': 12.49, 'time': 3.76, 'compass': 20.89, 'pitch': 7.54, 'roll': -0.24}
{'lipoC2': 0.15, 'temp': 0.0, 'lipoC3S3': 11.85, 'state': 'normal', 'rot1': 60, 'rot0': 40, 'rot3': 0, 'rot2': 0, 'depth': -0.446, 'yaw': 31.9, 'datetime': '2018-12-18 21:03:45.182572', 'mgs': 0, 'flw2': 12.49, 'flw1': 0.0, 'flw0': 12.49, 'time': 3.96, 'compass': 19.88, 'pitch': 8.04, 'roll': -0.93}
{'lipoC2': 0.05, 'temp': 0.0, 'lipoC3S3': 11.64, 'state': 'normal', 'rot1': 63, 'rot0': 45, 'rot3': 0, 'rot2': 0, 'depth': 0.394, 'yaw': 32.86, 'datetime': '2018-12-18 21:03:45.390577', 'mgs': 0, 'flw2': 12.49, 'flw1': 0.15, 'flw0': 1.04, 'time': 4.17, 'compass': 20.85, 'pitch': 7.88, 'roll': -1.25}
{'lipoC2': 0.1, 'temp': 0.0, 'lipoC3S3': 11.68, 'state': 'normal', 'rot1': 65, 'rot0': 51, 'rot3': 0, 'rot2': 0, 'depth': 1.309, 'yaw': 38.94, 'datetime': '2018-12-18 21:03:45.599650', 'mgs': 0, 'flw2': 12.49, 'flw1': 0.0, 'flw0': 1.54, 'time': 4.38, 'compass': 26.93, 'pitch': 5.42, 'roll': -1.07}
{'lipoC2': 0.0, 'temp': 0.0, 'lipoC3S3': 12.06, 'state': 'normal', 'rot1': 67, 'rot0': 56, 'rot3': 0, 'rot2': 0, 'depth': -0.369, 'yaw': 47.22, 'datetime': '2018-12-18 21:03:45.808237', 'mgs': 0, 'flw2': 12.49, 'flw1': 0.0, 'flw0': 2.6, 'time': 4.59, 'compass': 35.21, 'pitch': 3.89, 'roll': -0.19}
{'lipoC2': 0.0, 'temp': 0.0, 'lipoC3S3': 12.06, 'state': 'normal', 'rot1': 70, 'rot0': 60, 'rot3': 0, 'rot2': 0, 'depth': 2.072, 'yaw': 56.0, 'datetime': '2018-12-18 21:03:46.019375', 'mgs': 0, 'flw2': 12.49, 'flw1': 0.47, 'flw0': 6.32, 'time': 4.8, 'compass': 43.98, 'pitch': 4.8, 'roll': 1.32}
{'lipoC2': 0.03, 'temp': 0.0, 'lipoC3S3': 11.94, 'state': 'normal', 'rot1': 75, 'rot0': 67, 'rot3': 0, 'rot2': 0, 'depth': -1.437, 'yaw': 63.71, 'datetime': '2018-12-18 21:03:46.227627', 'mgs': 0, 'flw2': 12.49, 'flw1': 0.21, 'flw0': 8.0, 'time': 5.01, 'compass': 51.69, 'pitch': 7.65, 'roll': 3.2}
{'lipoC2': 0.0, 'temp': 0.0, 'lipoC3S3': 11.85, 'state': 'normal', 'rot1': 80, 'rot0': 72, 'rot3': 0, 'rot2': 0, 'depth': 0.394, 'yaw': 69.38, 'datetime': '2018-12-18 21:03:46.436798', 'mgs': 0, 'flw2': 12.49, 'flw1': 0.38, 'flw0': 8.03, 'time': 5.22, 'compass': 57.36, 'pitch': 10.13, 'roll': 4.66}
{'lipoC2': 0.0, 'temp': 0.0, 'lipoC3S3': 11.79, 'state': 'normal', 'rot1': 84, 'rot0': 78, 'rot3': 0, 'rot2': 0, 'depth': 1.462, 'yaw': 74.4, 'datetime': '2018-12-18 21:03:46.644604', 'mgs': 0, 'flw2': 12.49, 'flw1': 0.5, 'flw0': 7.98, 'time': 5.42, 'compass': 62.38, 'pitch': 10.63, 'roll': 5.94}
{'lipoC2': 0.0, 'temp': 0.0, 'lipoC3S3': 12.06, 'state': 'normal', 'rot1': 89, 'rot0': 83, 'rot3': 0, 'rot2': 0, 'depth': 1.92, 'yaw': 78.55, 'datetime': '2018-12-18 21:03:46.853878', 'mgs': 0, 'flw2': 12.49, 'flw1': 0.44, 'flw0': 8.11, 'time': 5.63, 'compass': 66.53, 'pitch': 9.69, 'roll': 6.52}
{'lipoC2': 0.15, 'temp': 0.0, 'lipoC3S3': 11.75, 'state': 'normal', 'rot1': 94, 'rot0': 89, 'rot3': 0, 'rot2': 0, 'depth': 0.546, 'yaw': 82.03, 'datetime': '2018-12-18 21:03:47.061999', 'mgs': 0, 'flw2': 12.49, 'flw1': 0.0, 'flw0': 8.01, 'time': 5.84, 'compass': 70.02, 'pitch': 8.44, 'roll': 6.41}
{'lipoC2': 0.0, 'temp': 0.0, 'lipoC3S3': 11.85, 'state': 'normal', 'rot1': 98, 'rot0': 92, 'rot3': 0, 'rot2': 0, 'depth': 0.851, 'yaw': 84.34, 'datetime': '2018-12-18 21:03:47.271845', 'mgs': 0, 'flw2': 0.0, 'flw1': 0.44, 'flw0': 0.49, 'time': 6.05, 'compass': 72.32, 'pitch': 6.93, 'roll': 6.48}
{'lipoC2': 0.0, 'temp': 0.0, 'lipoC3S3': 11.85, 'state': 'normal', 'rot1': 99, 'rot0': 92, 'rot3': 0, 'rot2': 0, 'depth': 1.004, 'yaw': 84.1, 'datetime': '2018-12-18 21:03:47.481873', 'mgs': 0, 'flw2': 0.0, 'flw1': 0.35, 'flw0': 0.0, 'time': 6.26, 'compass': 72.08, 'pitch': 0.71, 'roll': 5.83}
{'lipoC2': 0.13, 'temp': 0.0, 'lipoC3S3': 11.73, 'state': 'normal', 'rot1': 99, 'rot0': 92, 'rot3': 0, 'rot2': 0, 'depth': 0.775, 'yaw': 84.53, 'datetime': '2018-12-18 21:03:47.689631', 'mgs': 0, 'flw2': 0.0, 'flw1': 0.44, 'flw0': 0.0, 'time': 6.47, 'compass': 72.51, 'pitch': -4.34, 'roll': 4.56}
{'lipoC2': 0.13, 'temp': 0.0, 'lipoC3S3': 11.73, 'state': 'normal', 'rot1': 99, 'rot0': 92, 'rot3': 0, 'rot2': 0, 'depth': 0.165, 'yaw': 86.19, 'datetime': '2018-12-18 21:03:47.898758', 'mgs': 0, 'flw2': 0.0, 'flw1': 0.41, 'flw0': 0.0, 'time': 6.68, 'compass': 74.17, 'pitch': -5.24, 'roll': 3.66}
{'lipoC2': 0.0, 'temp': 0.0, 'lipoC3S3': 12.05, 'state': 'normal', 'rot1': 99, 'rot0': 92, 'rot3': 0, 'rot2': 0, 'depth': 1.462, 'yaw': 88.45, 'datetime': '2018-12-18 21:03:48.106567', 'mgs': 0, 'flw2': 0.12, 'flw1': 0.18, 'flw0': 0.0, 'time': 6.88, 'compass': 76.43, 'pitch': -4.8, 'roll': 3.17}
{'lipoC2': 0.0, 'temp': 0.0, 'lipoC3S3': 12.06, 'state': 'normal', 'rot1': 99, 'rot0': 92, 'rot3': 0, 'rot2': 0, 'depth': 1.538, 'yaw': 91.33, 'datetime': '2018-12-18 21:03:48.315740', 'mgs': 0, 'flw2': 0.09, 'flw1': 0.35, 'flw0': 0.0, 'time': 7.09, 'compass': 79.31, 'pitch': -4.9, 'roll': 2.42}
{'lipoC2': 0.1, 'temp': 0.0, 'lipoC3S3': 11.88, 'state': 'normal', 'rot1': 99, 'rot0': 92, 'rot3': 0, 'rot2': 0, 'depth': 1.843, 'yaw': 94.46, 'datetime': '2018-12-18 21:03:48.523740', 'mgs': 0, 'flw2': 0.0, 'flw1': 0.26, 'flw0': 0.06, 'time': 7.3, 'compass': 82.44, 'pitch': -5.49, 'roll': 1.66}
{'lipoC2': 0.0, 'temp': 0.0, 'lipoC3S3': 11.87, 'state': 'normal', 'rot1': 99, 'rot0': 92, 'rot3': 0, 'rot2': 0, 'depth': 0.241, 'yaw': 97.73, 'datetime': '2018-12-18 21:03:48.733709', 'mgs': 0, 'flw2': 0.23, 'flw1': 0.0, 'flw0': 0.0, 'time': 7.51, 'compass': 85.71, 'pitch': -5.96, 'roll': 1.33}
{'lipoC2': 0.0, 'temp': 0.0, 'lipoC3S3': 12.06, 'state': 'normal', 'rot1': 99, 'rot0': 92, 'rot3': 0, 'rot2': 0, 'depth': 1.614, 'yaw': 101.04, 'datetime': '2018-12-18 21:03:48.942996', 'mgs': 0, 'flw2': 8.97, 'flw1': 0.0, 'flw0': 0.22, 'time': 7.72, 'compass': 89.03, 'pitch': -5.86, 'roll': 1.46}
{'lipoC2': 0.11, 'temp': 0.0, 'lipoC3S3': 11.68, 'state': 'normal', 'rot1': 99, 'rot0': 97, 'rot3': 0, 'rot2': 0, 'depth': 0.394, 'yaw': 108.7, 'datetime': '2018-12-18 21:03:49.152120', 'mgs': 0, 'flw2': 12.22, 'flw1': 0.41, 'flw0': 0.0, 'time': 7.93, 'compass': 96.68, 'pitch': -2.87, 'roll': 3.11}
{'lipoC2': 0.0, 'temp': 0.0, 'lipoC3S3': 11.73, 'state': 'normal', 'rot1': 99, 'rot0': 103, 'rot3': 0, 'rot2': 0, 'depth': -1.208, 'yaw': 122.84, 'datetime': '2018-12-18 21:03:49.360148', 'mgs': 0, 'flw2': 12.49, 'flw1': 0.47, 'flw0': 0.0, 'time': 8.14, 'compass': 110.83, 'pitch': 1.32, 'roll': 6.06}
{'lipoC2': 0.14, 'temp': 0.0, 'lipoC3S3': 11.85, 'state': 'normal', 'rot1': 99, 'rot0': 108, 'rot3': 0, 'rot2': 0, 'depth': -1.208, 'yaw': 140.14, 'datetime': '2018-12-18 21:03:49.569605', 'mgs': 0, 'flw2': 12.24, 'flw1': 0.38, 'flw0': 0.0, 'time': 8.34, 'compass': 128.12, 'pitch': 3.5, 'roll': 8.88}
{'lipoC2': 0.0, 'temp': 0.0, 'lipoC3S3': 12.02, 'state': 'normal', 'rot1': 99, 'rot0': 114, 'rot3': 0, 'rot2': 0, 'depth': 1.691, 'yaw': 158.58, 'datetime': '2018-12-18 21:03:49.779509', 'mgs': 0, 'flw2': 12.49, 'flw1': 0.23, 'flw0': 0.0, 'time': 8.55, 'compass': 146.56, 'pitch': 5.57, 'roll': 10.09}
{'lipoC2': 0.1, 'temp': 0.0, 'lipoC3S3': 11.88, 'state': 'normal', 'rot1': 100, 'rot0': 119, 'rot3': 0, 'rot2': 0, 'depth': -1.514, 'yaw': 176.81, 'datetime': '2018-12-18 21:03:49.989360', 'mgs': 0, 'flw2': 12.49, 'flw1': 0.38, 'flw0': 6.24, 'time': 8.76, 'compass': 164.79, 'pitch': 9.36, 'roll': 10.16}
{'lipoC2': 0.01, 'temp': 0.0, 'lipoC3S3': 11.96, 'state': 'normal', 'rot1': 107, 'rot0': 125, 'rot3': 0, 'rot2': 0, 'depth': -1.208, 'yaw': -167.12, 'datetime': '2018-12-18 21:03:50.200244', 'mgs': 0, 'flw2': 12.49, 'flw1': 0.09, 'flw0': 12.49, 'time': 8.97, 'compass': -179.13, 'pitch': 14.92, 'roll': 9.94}
{'lipoC2': 0.0, 'temp': 0.0, 'lipoC3S3': 11.92, 'state': 'normal', 'rot1': 113, 'rot0': 130, 'rot3': 0, 'rot2': 0, 'depth': -0.14, 'yaw': -156.23, 'datetime': '2018-12-18 21:03:50.408855', 'mgs': 0, 'flw2': 12.49, 'flw1': 0.0, 'flw0': 6.87, 'time': 9.18, 'compass': -168.25, 'pitch': 19.72, 'roll': 10.78}
{'lipoC2': 0.1, 'temp': 0.0, 'lipoC3S3': 11.68, 'state': 'normal', 'rot1': 118, 'rot0': 134, 'rot3': 0, 'rot2': 0, 'depth': 0.623, 'yaw': -147.18, 'datetime': '2018-12-18 21:03:50.618653', 'mgs': 0, 'flw2': 12.49, 'flw1': 0.0, 'flw0': 9.05, 'time': 9.39, 'compass': -159.2, 'pitch': 20.2, 'roll': 11.95}
{'lipoC2': 0.09, 'temp': 0.0, 'lipoC3S3': 11.67, 'state': 'normal', 'rot1': 124, 'rot0': 139, 'rot3': 0, 'rot2': 0, 'depth': 1.385, 'yaw': -140.15, 'datetime': '2018-12-18 21:03:50.827512', 'mgs': 0, 'flw2': 12.49, 'flw1': 0.29, 'flw0': 9.97, 'time': 9.6, 'compass': -152.17, 'pitch': 18.01, 'roll': 13.08}
{'lipoC2': 0.18, 'temp': 0.0, 'lipoC3S3': 11.81, 'state': 'normal', 'rot1': 130, 'rot0': 144, 'rot3': 0, 'rot2': 0, 'depth': -0.293, 'yaw': -134.94, 'datetime': '2018-12-18 21:03:51.038806', 'mgs': 0, 'flw2': 12.49, 'flw1': 0.47, 'flw0': 11.13, 'time': 9.81, 'compass': -146.96, 'pitch': 16.52, 'roll': 13.53}
{'lipoC2': 0.0, 'temp': 0.0, 'lipoC3S3': 11.9, 'state': 'normal', 'rot1': 137, 'rot0': 149, 'rot3': 0, 'rot2': 0, 'depth': 0.775, 'yaw': -131.43, 'datetime': '2018-12-18 21:03:51.249786', 'mgs': 0, 'flw2': 12.49, 'flw1': 0.0, 'flw0': 12.1, 'time': 10.02, 'compass': -143.45, 'pitch': 16.97, 'roll': 13.47}
{'lipoC2': 0.0, 'temp': 0.0, 'lipoC3S3': 11.93, 'state': 'normal', 'rot1': 147, 'rot0': 153, 'rot3': 0, 'rot2': 0, 'depth': 0.775, 'yaw': -129.37, 'datetime': '2018-12-18 21:03:51.459505', 'mgs': 0, 'flw2': 12.49, 'flw1': 0.0, 'flw0': 11.88, 'time': 10.23, 'compass': -141.39, 'pitch': 17.8, 'roll': 13.2}
{'lipoC2': 0.06, 'temp': 0.0, 'lipoC3S3': 11.9, 'state': 'normal', 'rot1': 154, 'rot0': 159, 'rot3': 0, 'rot2': 0, 'depth': -1.437, 'yaw': -128.33, 'datetime': '2018-12-18 21:03:51.669529', 'mgs': 0, 'flw2': 12.49, 'flw1': 0.41, 'flw0': 11.74, 'time': 10.44, 'compass': -140.35, 'pitch': 17.58, 'roll': 12.28}
{'lipoC2': 0.0, 'temp': 0.0, 'lipoC3S3': 11.92, 'state': 'normal', 'rot1': 162, 'rot0': 164, 'rot3': 0, 'rot2': 0, 'depth': -0.369, 'yaw': -127.61, 'datetime': '2018-12-18 21:03:51.878195', 'mgs': 0, 'flw2': 12.49, 'flw1': 0.0, 'flw0': 11.63, 'time': 10.65, 'compass': -139.62, 'pitch': 15.5, 'roll': 10.82}
{'lipoC2': 0.05, 'temp': 0.0, 'lipoC3S3': 11.65, 'state': 'normal', 'rot1': 169, 'rot0': 169, 'rot3': 0, 'rot2': 0, 'depth': 1.385, 'yaw': -126.37, 'datetime': '2018-12-18 21:03:52.088278', 'mgs': 0, 'flw2': 12.49, 'flw1': 0.06, 'flw0': 12.29, 'time': 10.86, 'compass': -138.39, 'pitch': 14.29, 'roll': 9.15}
{'lipoC2': 0.0, 'temp': 0.0, 'lipoC3S3': 11.97, 'state': 'normal', 'rot1': 177, 'rot0': 173, 'rot3': 0, 'rot2': 0, 'depth': 1.157, 'yaw': -124.6, 'datetime': '2018-12-18 21:03:52.298830', 'mgs': 0, 'flw2': 12.49, 'flw1': 0.0, 'flw0': 11.54, 'time': 11.07, 'compass': -136.62, 'pitch': 14.17, 'roll': 7.72}
{'lipoC2': 0.11, 'temp': 0.0, 'lipoC3S3': 12.06, 'state': 'normal', 'rot1': 179, 'rot0': 175, 'rot3': 0, 'rot2': 0, 'depth': 0.317, 'yaw': -122.66, 'datetime': '2018-12-18 21:03:52.507728', 'mgs': 0, 'flw2': 0.05, 'flw1': 0.35, 'flw0': 0.0, 'time': 11.28, 'compass': -134.68, 'pitch': 12.6, 'roll': 6.63}
{'lipoC2': 0.14, 'temp': 0.0, 'lipoC3S3': 11.73, 'state': 'normal', 'rot1': 179, 'rot0': 175, 'rot3': 0, 'rot2': 0, 'depth': 0.47, 'yaw': -121.0, 'datetime': '2018-12-18 21:03:52.718764', 'mgs': 0, 'flw2': 0.0, 'flw1': 0.41, 'flw0': 0.0, 'time': 11.49, 'compass': -133.02, 'pitch': 6.75, 'roll': 5.82}
{'lipoC2': 0.0, 'temp': 0.0, 'lipoC3S3': 11.88, 'state': 'normal', 'rot1': 179, 'rot0': 175, 'rot3': 0, 'rot2': 0, 'depth': 0.241, 'yaw': -118.8, 'datetime': '2018-12-18 21:03:52.928087', 'mgs': 0, 'flw2': 0.0, 'flw1': 0.0, 'flw0': 0.0, 'time': 11.7, 'compass': -130.82, 'pitch': 4.08, 'roll': 5.56}
{'lipoC2': 0.08, 'temp': 0.0, 'lipoC3S3': 11.64, 'state': 'normal', 'rot1': 179, 'rot0': 175, 'rot3': 0, 'rot2': 0, 'depth': 0.241, 'yaw': -116.34, 'datetime': '2018-12-18 21:03:53.136731', 'mgs': 0, 'flw2': 0.12, 'flw1': 0.23, 'flw0': 0.0, 'time': 11.91, 'compass': -128.36, 'pitch': 4.5, 'roll': 5.58}
{'lipoC2': 0.0, 'temp': 0.0, 'lipoC3S3': 11.88, 'state': 'normal', 'rot1': 179, 'rot0': 175, 'rot3': 0, 'rot2': 0, 'depth': -0.14, 'yaw': -113.55, 'datetime': '2018-12-18 21:03:53.347574', 'mgs': 0, 'flw2': 0.2, 'flw1': 0.0, 'flw0': 0.0, 'time': 12.11, 'compass': -125.57, 'pitch': 5.02, 'roll': 5.47}
{'lipoC2': 0.12, 'temp': 0.0, 'lipoC3S3': 11.87, 'state': 'normal', 'rot1': 179, 'rot0': 175, 'rot3': 0, 'rot2': 0, 'depth': -2.048, 'yaw': -110.67, 'datetime': '2018-12-18 21:03:53.557492', 'mgs': 0, 'flw2': 0.16, 'flw1': 0.0, 'flw0': 0.02, 'time': 12.32, 'compass': -122.69, 'pitch': 4.71, 'roll': 4.95}
{'lipoC2': 0.0, 'temp': 0.0, 'lipoC3S3': 11.81, 'state': 'normal', 'rot1': 179, 'rot0': 175, 'rot3': 0, 'rot2': 0, 'depth': 0.851, 'yaw': -107.72, 'datetime': '2018-12-18 21:03:53.767926', 'mgs': 0, 'flw2': 0.0, 'flw1': 0.47, 'flw0': 0.0, 'time': 12.53, 'compass': -119.74, 'pitch': 4.02, 'roll': 4.03}
{'lipoC2': 0.0, 'temp': 0.0, 'lipoC3S3': 11.8, 'state': 'normal', 'rot1': 179, 'rot0': 175, 'rot3': 0, 'rot2': 0, 'depth': 0.851, 'yaw': -104.55, 'datetime': '2018-12-18 21:03:53.976387', 'mgs': 0, 'flw2': 0.0, 'flw1': 0.53, 'flw0': 0.0, 'time': 12.74, 'compass': -116.57, 'pitch': 3.32, 'roll': 3.12}
{'lipoC2': 0.11, 'temp': 0.0, 'lipoC3S3': 11.67, 'state': 'normal', 'rot1': 179, 'rot0': 175, 'rot3': 0, 'rot2': 0, 'depth': -0.064, 'yaw': -101.27, 'datetime': '2018-12-18 21:03:54.186167', 'mgs': 0, 'flw2': 0.09, 'flw1': 0.32, 'flw0': 0.0, 'time': 12.95, 'compass': -113.29, 'pitch': 3.07, 'roll': 2.45}
{'lipoC2': 0.0, 'temp': 0.0, 'lipoC3S3': 11.81, 'state': 'normal', 'rot1': 179, 'rot0': 175, 'rot3': 0, 'rot2': 0, 'depth': 0.928, 'yaw': -97.92, 'datetime': '2018-12-18 21:03:54.395657', 'mgs': 0, 'flw2': 0.0, 'flw1': 0.35, 'flw0': 0.0, 'time': 13.16, 'compass': -109.94, 'pitch': 3.54, 'roll': 2.12}
{'lipoC2': 0.0, 'temp': 0.0, 'lipoC3S3': 11.69, 'state': 'normal', 'rot1': 179, 'rot0': 175, 'rot3': 0, 'rot2': 0, 'depth': 1.233, 'yaw': -94.69, 'datetime': '2018-12-18 21:03:54.605366', 'mgs': 0, 'flw2': 0.01, 'flw1': 0.0, 'flw0': 2.32, 'time': 13.37, 'compass': -106.71, 'pitch': 4.22, 'roll': 1.99}
{'lipoC2': 0.0, 'temp': 0.0, 'lipoC3S3': 12.06, 'state': 'normal', 'rot1': 185, 'rot0': 176, 'rot3': 0, 'rot2': 0, 'depth': -1.59, 'yaw': -92.92, 'datetime': '2018-12-18 21:03:54.816079', 'mgs': 0, 'flw2': 10.01, 'flw1': 0.41, 'flw0': 11.89, 'time': 13.58, 'compass': -104.93, 'pitch': 5.34, 'roll': 1.73}
{'lipoC2': 0.0, 'temp': 0.0, 'lipoC3S3': 11.88, 'state': 'normal', 'rot1': 195, 'rot0': 180, 'rot3': 0, 'rot2': 0, 'depth': 0.012, 'yaw': -92.52, 'datetime': '2018-12-18 21:03:55.025634', 'mgs': 0, 'flw2': 10.95, 'flw1': 0.0, 'flw0': 12.49, 'time': 13.79, 'compass': -104.54, 'pitch': 10.92, 'roll': 1.67}
{'lipoC2': 0.0, 'temp': 0.0, 'lipoC3S3': 12.04, 'state': 'normal', 'rot1': 206, 'rot0': 184, 'rot3': 0, 'rot2': 0, 'depth': 1.767, 'yaw': -92.84, 'datetime': '2018-12-18 21:03:55.235339', 'mgs': 0, 'flw2': 11.19, 'flw1': 0.09, 'flw0': 12.49, 'time': 14.0, 'compass': -104.85, 'pitch': 15.65, 'roll': 2.35}
{'lipoC2': 0.0, 'temp': 0.0, 'lipoC3S3': 12.06, 'state': 'normal', 'rot1': 218, 'rot0': 189, 'rot3': 0, 'rot2': 0, 'depth': 1.767, 'yaw': -94.4, 'datetime': '2018-12-18 21:03:55.445092', 'mgs': 0, 'flw2': 10.85, 'flw1': 0.41, 'flw0': 12.49, 'time': 14.21, 'compass': -106.42, 'pitch': 15.86, 'roll': 3.08}
{'lipoC2': 0.0, 'temp': 0.0, 'lipoC3S3': 11.89, 'state': 'normal', 'rot1': 229, 'rot0': 193, 'rot3': 0, 'rot2': 0, 'depth': 0.699, 'yaw': -96.77, 'datetime': '2018-12-18 21:03:55.653788', 'mgs': 0, 'flw2': 11.02, 'flw1': 0.0, 'flw0': 12.49, 'time': 14.42, 'compass': -108.79, 'pitch': 13.81, 'roll': 3.29}
{'lipoC2': 0.15, 'temp': 0.0, 'lipoC3S3': 11.83, 'state': 'normal', 'rot1': 241, 'rot0': 198, 'rot3': 0, 'rot2': 0, 'depth': -0.598, 'yaw': -99.42, 'datetime': '2018-12-18 21:03:55.863847', 'mgs': 0, 'flw2': 10.75, 'flw1': 0.53, 'flw0': 12.49, 'time': 14.63, 'compass': -111.43, 'pitch': 12.72, 'roll': 2.61}
{'lipoC2': 0.1, 'temp': 0.0, 'lipoC3S3': 11.67, 'state': 'normal', 'rot1': 252, 'rot0': 202, 'rot3': 0, 'rot2': 0, 'depth': 1.233, 'yaw': -102.38, 'datetime': '2018-12-18 21:03:56.073765', 'mgs': 0, 'flw2': 11.15, 'flw1': 0.12, 'flw0': 12.49, 'time': 14.84, 'compass': -114.4, 'pitch': 12.97, 'roll': 1.24}
{'lipoC2': 0.01, 'temp': 0.0, 'lipoC3S3': 11.92, 'state': 'normal', 'rot1': 262, 'rot0': 206, 'rot3': 0, 'rot2': 0, 'depth': -1.361, 'yaw': -105.04, 'datetime': '2018-12-18 21:03:56.285029', 'mgs': 0, 'flw2': 11.0, 'flw1': 0.0, 'flw0': 12.49, 'time': 15.05, 'compass': -117.06, 'pitch': 13.91, 'roll': -0.17}
{'lipoC2': 0.04, 'temp': 0.0, 'lipoC3S3': 11.65, 'state': 'normal', 'rot1': 270, 'rot0': 211, 'rot3': 0, 'rot2': 0, 'depth': 0.317, 'yaw': -107.42, 'datetime': '2018-12-18 21:03:56.493738', 'mgs': 0, 'flw2': 11.28, 'flw1': 0.12, 'flw0': 12.49, 'time': 15.26, 'compass': -119.44, 'pitch': 14.2, 'roll': -0.7}
{'lipoC2': 0.0, 'temp': 0.0, 'lipoC3S3': 11.88, 'state': 'normal', 'rot1': 280, 'rot0': 215, 'rot3': 0, 'rot2': 0, 'depth': 0.775, 'yaw': -109.61, 'datetime': '2018-12-18 21:03:56.703371', 'mgs': 0, 'flw2': 11.36, 'flw1': 0.0, 'flw0': 12.49, 'time': 15.47, 'compass': -121.63, 'pitch': 13.85, 'roll': -1.03}
{'lipoC2': 0.0, 'temp': 0.0, 'lipoC3S3': 11.93, 'state': 'normal', 'rot1': 289, 'rot0': 219, 'rot3': 0, 'rot2': 0, 'depth': 1.004, 'yaw': -111.98, 'datetime': '2018-12-18 21:03:56.920605', 'mgs': 0, 'flw2': 10.93, 'flw1': 0.0, 'flw0': 12.49, 'time': 15.68, 'compass': -124.0, 'pitch': 13.21, 'roll': -1.69}
{'lipoC2': 0.11, 'temp': 0.0, 'lipoC3S3': 11.68, 'state': 'normal', 'rot1': 295, 'rot0': 222, 'rot3': 0, 'rot2': 0, 'depth': 0.47, 'yaw': -114.58, 'datetime': '2018-12-18 21:03:57.127903', 'mgs': 0, 'flw2': 0.09, 'flw1': 0.0, 'flw0': 0.18, 'time': 15.89, 'compass': -126.6, 'pitch': 12.51, 'roll': -2.26}
{'lipoC2': 0.14, 'temp': 0.0, 'lipoC3S3': 11.87, 'state': 'normal', 'rot1': 295, 'rot0': 222, 'rot3': 0, 'rot2': 0, 'depth': 1.233, 'yaw': -116.2, 'datetime': '2018-12-18 21:03:57.336706', 'mgs': 0, 'flw2': 0.2, 'flw1': 0.0, 'flw0': 0.0, 'time': 16.09, 'compass': -128.21, 'pitch': 6.67, 'roll': -2.11}
{'lipoC2': 0.15, 'temp': 0.0, 'lipoC3S3': 11.85, 'state': 'normal', 'rot1': 295, 'rot0': 222, 'rot3': 0, 'rot2': 0, 'depth': -1.056, 'yaw': -117.9, 'datetime': '2018-12-18 21:03:57.548837', 'mgs': 0, 'flw2': 0.0, 'flw1': 0.38, 'flw0': 0.0, 'time': 16.31, 'compass': -129.92, 'pitch': 1.75, 'roll': -1.24}
{'lipoC2': 0.0, 'temp': 0.0, 'lipoC3S3': 11.98, 'state': 'normal', 'rot1': 295, 'rot0': 222, 'rot3': 0, 'rot2': 0, 'depth': 1.004, 'yaw': -120.26, 'datetime': '2018-12-18 21:03:57.756846', 'mgs': 0, 'flw2': 0.0, 'flw1': 0.15, 'flw0': 0.16, 'time': 16.51, 'compass': -132.28, 'pitch': 1.68, 'roll': -0.37}
{'lipoC2': 0.0, 'temp': 0.0, 'lipoC3S3': 12.05, 'state': 'normal', 'rot1': 295, 'rot0': 222, 'rot3': 0, 'rot2': 0, 'depth': -0.14, 'yaw': -123.18, 'datetime': '2018-12-18 21:03:57.967181', 'mgs': 0, 'flw2': 0.09, 'flw1': 0.38, 'flw0': 0.0, 'time': 16.72, 'compass': -135.2, 'pitch': 3.82, 'roll': 0.39}
{'lipoC2': 0.0, 'temp': 0.0, 'lipoC3S3': 12.05, 'state': 'normal', 'rot1': 295, 'rot0': 222, 'rot3': 0, 'rot2': 0, 'depth': 1.462, 'yaw': -126.23, 'datetime': '2018-12-18 21:03:58.176211', 'mgs': 0, 'flw2': 0.0, 'flw1': 0.0, 'flw0': 0.22, 'time': 16.93, 'compass': -138.25, 'pitch': 4.73, 'roll': 1.53}
{'lipoC2': 0.16, 'temp': 0.0, 'lipoC3S3': 11.76, 'state': 'normal', 'rot1': 295, 'rot0': 222, 'rot3': 0, 'rot2': 0, 'depth': 0.623, 'yaw': -129.2, 'datetime': '2018-12-18 21:03:58.385230', 'mgs': 0, 'flw2': 0.02, 'flw1': 0.44, 'flw0': 0.0, 'time': 17.14, 'compass': -141.22, 'pitch': 4.17, 'roll': 2.63}
{'lipoC2': 0.0, 'temp': 0.0, 'lipoC3S3': 11.89, 'state': 'normal', 'rot1': 295, 'rot0': 222, 'rot3': 0, 'rot2': 0, 'depth': -1.132, 'yaw': -132.14, 'datetime': '2018-12-18 21:03:58.596478', 'mgs': 0, 'flw2': 0.22, 'flw1': 0.0, 'flw0': 0.0, 'time': 17.35, 'compass': -144.16, 'pitch': 3.64, 'roll': 2.86}
{'lipoC2': 0.0, 'temp': 0.0, 'lipoC3S3': 11.87, 'state': 'normal', 'rot1': 295, 'rot0': 222, 'rot3': 0, 'rot2': 0, 'depth': 0.165, 'yaw': -135.08, 'datetime': '2018-12-18 21:03:58.805618', 'mgs': 0, 'flw2': 0.0, 'flw1': 0.0, 'flw0': 0.0, 'time': 17.56, 'compass': -147.1, 'pitch': 3.98, 'roll': 2.47}
{'lipoC2': 0.11, 'temp': 0.0, 'lipoC3S3': 11.88, 'state': 'normal', 'rot1': 295, 'rot0': 222, 'rot3': 0, 'rot2': 0, 'depth': -2.277, 'yaw': -137.81, 'datetime': '2018-12-18 21:03:59.015791', 'mgs': 0, 'flw2': 0.22, 'flw1': 0.0, 'flw0': 0.0, 'time': 17.77, 'compass': -149.83, 'pitch': 4.84, 'roll': 2.02}
{'lipoC2': 0.02, 'temp': 0.0, 'lipoC3S3': 11.67, 'state': 'normal', 'rot1': 295, 'rot0': 222, 'rot3': 0, 'rot2': 0, 'depth': -0.064, 'yaw': -140.49, 'datetime': '2018-12-18 21:03:59.224990', 'mgs': 0, 'flw2': 0.23, 'flw1': 0.03, 'flw0': 0.0, 'time': 17.98, 'compass': -152.51, 'pitch': 5.31, 'roll': 1.79}
{'lipoC2': 0.0, 'temp': 0.0, 'lipoC3S3': 12.05, 'state': 'normal', 'rot1': 295, 'rot0': 223, 'rot3': 0, 'rot2': 0, 'depth': 1.614, 'yaw': -142.88, 'datetime': '2018-12-18 21:03:59.434150', 'mgs': 0, 'flw2': 4.63, 'flw1': 0.15, 'flw0': 0.0, 'time': 18.19, 'compass': -154.9, 'pitch': 4.9, 'roll': 2.06}
{'lipoC2': 0.0, 'temp': 0.0, 'lipoC3S3': 11.94, 'state': 'normal', 'rot1': 297, 'rot0': 226, 'rot3': 0, 'rot2': 0, 'depth': 1.004, 'yaw': -142.72, 'datetime': '2018-12-18 21:03:59.644577', 'mgs': 0, 'flw2': 8.33, 'flw1': 0.26, 'flw0': 2.65, 'time': 18.4, 'compass': -154.74, 'pitch': 6.75, 'roll': 2.58}
{'lipoC2': 0.0, 'temp': 0.0, 'lipoC3S3': 12.0, 'state': 'normal', 'rot1': 300, 'rot0': 231, 'rot3': 0, 'rot2': 0, 'depth': 1.843, 'yaw': -139.99, 'datetime': '2018-12-18 21:03:59.854752', 'mgs': 0, 'flw2': 8.04, 'flw1': 0.0, 'flw0': 7.51, 'time': 18.61, 'compass': -152.01, 'pitch': 10.9, 'roll': 2.63}
{'lipoC2': 0.1, 'temp': 0.0, 'lipoC3S3': 11.89, 'state': 'normal', 'rot1': 305, 'rot0': 234, 'rot3': 0, 'rot2': 0, 'depth': -1.895, 'yaw': -138.03, 'datetime': '2018-12-18 21:04:00.068175', 'mgs': 0, 'flw2': 7.8, 'flw1': 0.0, 'flw0': 9.28, 'time': 18.82, 'compass': -150.05, 'pitch': 13.38, 'roll': 2.34}
{'lipoC2': 0.13, 'temp': 0.0, 'lipoC3S3': 11.71, 'state': 'normal', 'rot1': 311, 'rot0': 238, 'rot3': 0, 'rot2': 0, 'depth': 0.775, 'yaw': -138.04, 'datetime': '2018-12-18 21:04:00.277420', 'mgs': 0, 'flw2': 7.6, 'flw1': 0.32, 'flw0': 8.26, 'time': 19.03, 'compass': -150.06, 'pitch': 13.2, 'roll': 1.99}
{'lipoC2': 0.0, 'temp': 0.0, 'lipoC3S3': 12.02, 'state': 'normal', 'rot1': 315, 'rot0': 242, 'rot3': 0, 'rot2': 0, 'depth': 1.767, 'yaw': -138.87, 'datetime': '2018-12-18 21:04:00.485923', 'mgs': 0, 'flw2': 7.69, 'flw1': 0.03, 'flw0': 6.82, 'time': 19.24, 'compass': -150.89, 'pitch': 11.58, 'roll': 1.41}
{'lipoC2': 0.12, 'temp': 0.0, 'lipoC3S3': 11.87, 'state': 'normal', 'rot1': 318, 'rot0': 246, 'rot3': 0, 'rot2': 0, 'depth': -1.59, 'yaw': -139.08, 'datetime': '2018-12-18 21:04:00.697095', 'mgs': 0, 'flw2': 8.22, 'flw1': 0.5, 'flw0': 5.07, 'time': 19.45, 'compass': -151.1, 'pitch': 10.04, 'roll': 0.92}
{'lipoC2': 0.04, 'temp': 0.0, 'lipoC3S3': 11.89, 'state': 'normal', 'rot1': 321, 'rot0': 250, 'rot3': 0, 'rot2': 0, 'depth': -1.437, 'yaw': -137.49, 'datetime': '2018-12-18 21:04:00.906858', 'mgs': 0, 'flw2': 8.61, 'flw1': 0.32, 'flw0': 5.03, 'time': 19.66, 'compass': -149.51, 'pitch': 9.74, 'roll': 0.49}
{'lipoC2': 0.14, 'temp': 0.0, 'lipoC3S3': 11.84, 'state': 'normal', 'rot1': 324, 'rot0': 254, 'rot3': 0, 'rot2': 0, 'depth': -1.361, 'yaw': -134.99, 'datetime': '2018-12-18 21:04:01.118178', 'mgs': 0, 'flw2': 8.94, 'flw1': 0.5, 'flw0': 4.75, 'time': 19.87, 'compass': -147.01, 'pitch': 10.16, 'roll': 0.75}
{'lipoC2': 0.14, 'temp': 0.0, 'lipoC3S3': 11.85, 'state': 'normal', 'rot1': 327, 'rot0': 258, 'rot3': 0, 'rot2': 0, 'depth': 1.233, 'yaw': -131.76, 'datetime': '2018-12-18 21:04:01.326963', 'mgs': 0, 'flw2': 8.5, 'flw1': 0.53, 'flw0': 4.8, 'time': 20.08, 'compass': -143.78, 'pitch': 10.48, 'roll': 1.61}
{'lipoC2': 0.0, 'temp': 0.0, 'lipoC3S3': 11.75, 'state': 'normal', 'rot1': 330, 'rot0': 262, 'rot3': 0, 'rot2': 0, 'depth': -0.903, 'yaw': -128.61, 'datetime': '2018-12-18 21:04:01.534245', 'mgs': 0, 'flw2': 8.7, 'flw1': 0.35, 'flw0': 4.66, 'time': 20.29, 'compass': -140.63, 'pitch': 10.83, 'roll': 2.01}
{'lipoC2': 0.15, 'temp': 0.0, 'lipoC3S3': 11.81, 'state': 'normal', 'rot1': 333, 'rot0': 266, 'rot3': 0, 'rot2': 0, 'depth': -0.751, 'yaw': -125.65, 'datetime': '2018-12-18 21:04:01.743569', 'mgs': 0, 'flw2': 8.47, 'flw1': 0.44, 'flw0': 4.81, 'time': 20.5, 'compass': -137.67, 'pitch': 11.18, 'roll': 1.98}
{'lipoC2': 0.06, 'temp': 0.0, 'lipoC3S3': 11.92, 'state': 'normal', 'rot1': 336, 'rot0': 270, 'rot3': 0, 'rot2': 0, 'depth': 1.843, 'yaw': -122.52, 'datetime': '2018-12-18 21:04:01.955921', 'mgs': 0, 'flw2': 8.45, 'flw1': 0.26, 'flw0': 4.77, 'time': 20.7, 'compass': -134.54, 'pitch': 11.27, 'roll': 2.07}
{'lipoC2': 0.0, 'temp': 0.0, 'lipoC3S3': 11.92, 'state': 'normal', 'rot1': 339, 'rot0': 274, 'rot3': 0, 'rot2': 0, 'depth': 0.775, 'yaw': -119.17, 'datetime': '2018-12-18 21:04:02.166380', 'mgs': 0, 'flw2': 9.07, 'flw1': 0.0, 'flw0': 4.39, 'time': 20.92, 'compass': -131.19, 'pitch': 11.15, 'roll': 2.46}
{'lipoC2': 0.06, 'temp': 0.0, 'lipoC3S3': 11.65, 'state': 'normal', 'rot1': 342, 'rot0': 278, 'rot3': 0, 'rot2': 0, 'depth': 1.309, 'yaw': -115.05, 'datetime': '2018-12-18 21:04:02.374370', 'mgs': 0, 'flw2': 9.17, 'flw1': 0.12, 'flw0': 4.36, 'time': 21.13, 'compass': -127.07, 'pitch': 11.16, 'roll': 2.98}
{'lipoC2': 0.0, 'temp': 0.0, 'lipoC3S3': 12.05, 'state': 'normal', 'rot1': 345, 'rot0': 282, 'rot3': 0, 'rot2': 0, 'depth': 1.614, 'yaw': -110.91, 'datetime': '2018-12-18 21:04:02.582961', 'mgs': 0, 'flw2': 9.53, 'flw1': 0.18, 'flw0': 6.75, 'time': 21.33, 'compass': -122.93, 'pitch': 11.29, 'roll': 3.28}
{'lipoC2': 0.01, 'temp': 0.0, 'lipoC3S3': 11.68, 'state': 'normal', 'rot1': 349, 'rot0': 287, 'rot3': 0, 'rot2': 0, 'depth': 1.462, 'yaw': -107.41, 'datetime': '2018-12-18 21:04:02.792652', 'mgs': 0, 'flw2': 9.34, 'flw1': 0.12, 'flw0': 7.25, 'time': 21.54, 'compass': -119.43, 'pitch': 12.1, 'roll': 3.14}
{'lipoC2': 0.14, 'temp': 0.0, 'lipoC3S3': 11.87, 'state': 'normal', 'rot1': 352, 'rot0': 291, 'rot3': 0, 'rot2': 0, 'depth': -0.903, 'yaw': -104.37, 'datetime': '2018-12-18 21:04:03.005578', 'mgs': 0, 'flw2': 9.63, 'flw1': 0.0, 'flw0': 7.53, 'time': 21.75, 'compass': -116.39, 'pitch': 13.03, 'roll': 2.93}
{'lipoC2': 0.0, 'temp': 0.0, 'lipoC3S3': 12.05, 'state': 'normal', 'rot1': 357, 'rot0': 295, 'rot3': 0, 'rot2': 0, 'depth': -1.895, 'yaw': -101.73, 'datetime': '2018-12-18 21:04:03.215379', 'mgs': 0, 'flw2': 9.41, 'flw1': 0.0, 'flw0': 8.72, 'time': 21.96, 'compass': -113.75, 'pitch': 13.44, 'roll': 2.63}
{'lipoC2': 0.09, 'temp': 0.0, 'lipoC3S3': 11.65, 'state': 'normal', 'rot1': 361, 'rot0': 299, 'rot3': 0, 'rot2': 0, 'depth': 0.089, 'yaw': -99.76, 'datetime': '2018-12-18 21:04:03.423493', 'mgs': 0, 'flw2': 9.13, 'flw1': 0.18, 'flw0': 8.76, 'time': 22.17, 'compass': -111.77, 'pitch': 13.47, 'roll': 2.44}
{'lipoC2': 0.15, 'temp': 0.0, 'lipoC3S3': 11.85, 'state': 'normal', 'rot1': 367, 'rot0': 304, 'rot3': 0, 'rot2': 0, 'depth': 1.233, 'yaw': -98.85, 'datetime': '2018-12-18 21:04:03.633943', 'mgs': 0, 'flw2': 9.23, 'flw1': 0.0, 'flw0': 8.89, 'time': 22.38, 'compass': -110.87, 'pitch': 13.1, 'roll': 2.41}
{'lipoC2': 0.09, 'temp': 0.0, 'lipoC3S3': 11.65, 'state': 'normal', 'rot1': 372, 'rot0': 308, 'rot3': 0, 'rot2': 0, 'depth': 0.165, 'yaw': -98.34, 'datetime': '2018-12-18 21:04:03.843598', 'mgs': 0, 'flw2': 9.12, 'flw1': 0.29, 'flw0': 9.03, 'time': 22.59, 'compass': -110.36, 'pitch': 12.61, 'roll': 2.32}
{'lipoC2': 0.0, 'temp': 0.0, 'lipoC3S3': 11.9, 'state': 'normal', 'rot1': 377, 'rot0': 312, 'rot3': 0, 'rot2': 0, 'depth': -0.14, 'yaw': -97.71, 'datetime': '2018-12-18 21:04:04.055202', 'mgs': 0, 'flw2': 9.46, 'flw1': 0.0, 'flw0': 8.54, 'time': 22.8, 'compass': -109.73, 'pitch': 11.99, 'roll': 2.06}
{'lipoC2': 0.0, 'temp': 0.0, 'lipoC3S3': 11.81, 'state': 'normal', 'rot1': 382, 'rot0': 316, 'rot3': 0, 'rot2': 0, 'depth': -0.598, 'yaw': -96.78, 'datetime': '2018-12-18 21:04:04.262193', 'mgs': 0, 'flw2': 9.07, 'flw1': 0.47, 'flw0': 9.0, 'time': 23.01, 'compass': -108.8, 'pitch': 11.44, 'roll': 1.69}
{'lipoC2': 0.0, 'temp': 0.0, 'lipoC3S3': 12.06, 'state': 'normal', 'rot1': 388, 'rot0': 321, 'rot3': 0, 'rot2': 0, 'depth': 2.148, 'yaw': -95.79, 'datetime': '2018-12-18 21:04:04.471859', 'mgs': 0, 'flw2': 9.64, 'flw1': 0.0, 'flw0': 8.81, 'time': 23.22, 'compass': -107.8, 'pitch': 10.99, 'roll': 1.24}
{'lipoC2': 0.0, 'temp': 0.0, 'lipoC3S3': 11.71, 'state': 'normal', 'rot1': 394, 'rot0': 326, 'rot3': 0, 'rot2': 0, 'depth': 0.165, 'yaw': -94.57, 'datetime': '2018-12-18 21:04:04.682755', 'mgs': 0, 'flw2': 9.41, 'flw1': 0.41, 'flw0': 8.67, 'time': 23.43, 'compass': -106.59, 'pitch': 10.63, 'roll': 0.73}
{'lipoC2': 0.13, 'temp': 0.0, 'lipoC3S3': 11.68, 'state': 'normal', 'rot1': 400, 'rot0': 329, 'rot3': 0, 'rot2': 0, 'depth': 0.851, 'yaw': -92.99, 'datetime': '2018-12-18 21:04:04.893133', 'mgs': 0, 'flw2': 9.44, 'flw1': 0.18, 'flw0': 9.48, 'time': 23.64, 'compass': -105.01, 'pitch': 10.81, 'roll': 0.44}
{'lipoC2': 0.04, 'temp': 0.0, 'lipoC3S3': 11.93, 'state': 'normal', 'rot1': 405, 'rot0': 333, 'rot3': 0, 'rot2': 0, 'depth': -1.819, 'yaw': -91.65, 'datetime': '2018-12-18 21:04:05.102721', 'mgs': 0, 'flw2': 7.85, 'flw1': 0.0, 'flw0': 8.74, 'time': 23.85, 'compass': -103.67, 'pitch': 11.13, 'roll': 0.16}
{'lipoC2': 0.14, 'temp': 0.0, 'lipoC3S3': 11.85, 'state': 'normal', 'rot1': 410, 'rot0': 337, 'rot3': 0, 'rot2': 0, 'depth': -1.132, 'yaw': -90.96, 'datetime': '2018-12-18 21:04:05.312046', 'mgs': 0, 'flw2': 3.36, 'flw1': 0.0, 'flw0': 9.01, 'time': 24.06, 'compass': -102.98, 'pitch': 11.08, 'roll': -0.27}
{'lipoC2': 0.15, 'temp': 0.0, 'lipoC3S3': 11.84, 'state': 'normal', 'rot1': 414, 'rot0': 339, 'rot3': 0, 'rot2': 0, 'depth': -0.98, 'yaw': -91.89, 'datetime': '2018-12-18 21:04:05.522646', 'mgs': 0, 'flw2': 1.44, 'flw1': 0.47, 'flw0': 8.9, 'time': 24.27, 'compass': -103.91, 'pitch': 10.34, 'roll': -0.78}
{'lipoC2': 0.11, 'temp': 0.0, 'lipoC3S3': 11.68, 'state': 'normal', 'rot1': 425, 'rot0': 341, 'rot3': 0, 'rot2': 0, 'depth': 0.241, 'yaw': -96.05, 'datetime': '2018-12-18 21:04:05.732289', 'mgs': 0, 'flw2': 2.81, 'flw1': 0.38, 'flw0': 12.49, 'time': 24.48, 'compass': -108.07, 'pitch': 9.96, 'roll': -1.32}
{'lipoC2': 0.0, 'temp': 0.0, 'lipoC3S3': 11.87, 'state': 'normal', 'rot1': 434, 'rot0': 342, 'rot3': 0, 'rot2': 0, 'depth': 0.699, 'yaw': -104.13, 'datetime': '2018-12-18 21:04:05.941849', 'mgs': 0, 'flw2': 0.28, 'flw1': 0.0, 'flw0': 12.49, 'time': 24.69, 'compass': -116.15, 'pitch': 11.42, 'roll': -1.95}
{'lipoC2': 0.06, 'temp': 0.0, 'lipoC3S3': 11.89, 'state': 'normal', 'rot1': 439, 'rot0': 343, 'rot3': 0, 'rot2': 0, 'depth': 2.225, 'yaw': -114.49, 'datetime': '2018-12-18 21:04:06.151872', 'mgs': 0, 'flw2': 4.53, 'flw1': 0.0, 'flw0': 4.02, 'time': 24.9, 'compass': -126.51, 'pitch': 12.3, 'roll': -2.41}
{'lipoC2': 0.0, 'temp': 0.0, 'lipoC3S3': 11.73, 'state': 'normal', 'rot1': 442, 'rot0': 346, 'rot3': 0, 'rot2': 0, 'depth': -0.903, 'yaw': -120.54, 'datetime': '2018-12-18 21:04:06.360437', 'mgs': 0, 'flw2': 4.35, 'flw1': 0.23, 'flw0': 4.31, 'time': 25.1, 'compass': -132.56, 'pitch': 12.66, 'roll': -2.4}
{'lipoC2': 0.1, 'temp': 0.0, 'lipoC3S3': 11.68, 'state': 'normal', 'rot1': 445, 'rot0': 349, 'rot3': 0, 'rot2': 0, 'depth': 0.394, 'yaw': -123.55, 'datetime': '2018-12-18 21:04:06.570748', 'mgs': 0, 'flw2': 4.55, 'flw1': 0.38, 'flw0': 3.06, 'time': 25.31, 'compass': -135.57, 'pitch': 12.37, 'roll': -2.69}
{'lipoC2': 0.01, 'temp': 0.0, 'lipoC3S3': 11.67, 'state': 'normal', 'rot1': 447, 'rot0': 352, 'rot3': 0, 'rot2': 0, 'depth': 1.767, 'yaw': -124.55, 'datetime': '2018-12-18 21:04:06.780159', 'mgs': 0, 'flw2': 6.52, 'flw1': 0.0, 'flw0': 2.09, 'time': 25.52, 'compass': -136.57, 'pitch': 11.77, 'roll': -3.53}
{'lipoC2': 0.16, 'temp': 0.0, 'lipoC3S3': 11.83, 'state': 'normal', 'rot1': 449, 'rot0': 355, 'rot3': 0, 'rot2': 0, 'depth': 1.309, 'yaw': -122.35, 'datetime': '2018-12-18 21:04:06.991825', 'mgs': 0, 'flw2': 4.63, 'flw1': 0.47, 'flw0': 2.45, 'time': 25.74, 'compass': -134.36, 'pitch': 10.83, 'roll': -4.44}
{'lipoC2': 0.14, 'temp': 0.0, 'lipoC3S3': 11.72, 'state': 'normal', 'rot1': 452, 'rot0': 358, 'rot3': 0, 'rot2': 0, 'depth': 0.47, 'yaw': -119.52, 'datetime': '2018-12-18 21:04:07.203481', 'mgs': 0, 'flw2': 3.54, 'flw1': 0.0, 'flw0': 2.55, 'time': 25.94, 'compass': -131.54, 'pitch': 9.47, 'roll': -4.65}
{'lipoC2': 0.17, 'temp': 0.0, 'lipoC3S3': 11.79, 'state': 'normal', 'rot1': 455, 'rot0': 359, 'rot3': 0, 'rot2': 0, 'depth': 1.233, 'yaw': -118.12, 'datetime': '2018-12-18 21:04:07.411084', 'mgs': 0, 'flw2': 0.24, 'flw1': 0.35, 'flw0': 8.41, 'time': 26.15, 'compass': -130.14, 'pitch': 7.67, 'roll': -4.37}
{'lipoC2': 0.14, 'temp': 0.0, 'lipoC3S3': 11.71, 'state': 'normal', 'rot1': 460, 'rot0': 361, 'rot3': 0, 'rot2': 0, 'depth': 0.47, 'yaw': -121.84, 'datetime': '2018-12-18 21:04:07.620506', 'mgs': 0, 'flw2': 2.98, 'flw1': 0.0, 'flw0': 3.77, 'time': 26.36, 'compass': -133.86, 'pitch': 6.59, 'roll': -4.72}
{'lipoC2': 0.09, 'temp': 0.0, 'lipoC3S3': 11.65, 'state': 'normal', 'rot1': 463, 'rot0': 363, 'rot3': 0, 'rot2': 0, 'depth': 0.165, 'yaw': -126.57, 'datetime': '2018-12-18 21:04:07.822792', 'mgs': 0, 'flw2': 0.65, 'flw1': 0.23, 'flw0': 4.59, 'time': 26.57, 'compass': -138.59, 'pitch': 6.94, 'roll': -5.39}
{'lipoC2': 0.0, 'temp': 0.0, 'lipoC3S3': 12.12, 'state': 'normal', 'rot1': 466, 'rot0': 364, 'rot3': 0, 'rot2': 0, 'depth': -0.217, 'yaw': -131.58, 'datetime': '2018-12-18 21:04:08.034947', 'mgs': 0, 'flw2': 2.15, 'flw1': 0.0, 'flw0': 4.53, 'time': 26.78, 'compass': -143.6, 'pitch': 7.25, 'roll': -5.57}
{'lipoC2': 0.01, 'temp': 0.0, 'lipoC3S3': 11.72, 'state': 'normal', 'rot1': 470, 'rot0': 366, 'rot3': 0, 'rot2': 0, 'depth': 0.012, 'yaw': -136.84, 'datetime': '2018-12-18 21:04:08.245671', 'mgs': 0, 'flw2': 2.14, 'flw1': 0.5, 'flw0': 4.86, 'time': 26.99, 'compass': -148.86, 'pitch': 7.41, 'roll': -5.16}
{'lipoC2': 0.0, 'temp': 0.0, 'lipoC3S3': 12.06, 'state': 'normal', 'rot1': 473, 'rot0': 368, 'rot3': 0, 'rot2': 0, 'depth': 1.767, 'yaw': -141.72, 'datetime': '2018-12-18 21:04:08.456129', 'mgs': 0, 'flw2': 2.23, 'flw1': 0.0, 'flw0': 3.91, 'time': 27.2, 'compass': -153.74, 'pitch': 8.68, 'roll': -4.87}
{'lipoC2': 0.0, 'temp': 0.0, 'lipoC3S3': 12.06, 'state': 'normal', 'rot1': 476, 'rot0': 371, 'rot3': 0, 'rot2': 0, 'depth': 1.767, 'yaw': -145.88, 'datetime': '2018-12-18 21:04:08.675917', 'mgs': 0, 'flw2': 4.02, 'flw1': 0.0, 'flw0': 5.07, 'time': 27.41, 'compass': -157.9, 'pitch': 9.99, 'roll': -4.78}
{'lipoC2': 0.0, 'temp': 0.0, 'lipoC3S3': 12.1, 'state': 'normal', 'rot1': 480, 'rot0': 375, 'rot3': 0, 'rot2': 0, 'depth': 1.614, 'yaw': -149.52, 'datetime': '2018-12-18 21:04:08.977806', 'mgs': 0, 'flw2': 4.16, 'flw1': 0.0, 'flw0': 1.59, 'time': 27.72, 'compass': -161.54, 'pitch': 11.18, 'roll': -4.3}
{'lipoC2': 0.0, 'temp': 0.0, 'lipoC3S3': 12.09, 'state': 'normal', 'rot1': 482, 'rot0': 378, 'rot3': 0, 'rot2': 0, 'depth': 1.996, 'yaw': -148.54, 'datetime': '2018-12-18 21:04:09.190118', 'mgs': 0, 'flw2': 4.59, 'flw1': 0.23, 'flw0': 1.15, 'time': 27.93, 'compass': -160.56, 'pitch': 9.95, 'roll': -3.69}
{'lipoC2': 0.19, 'temp': 0.0, 'lipoC3S3': 12.1, 'state': 'normal', 'rot1': 483, 'rot0': 382, 'rot3': 0, 'rot2': 0, 'depth': -0.98, 'yaw': -145.47, 'datetime': '2018-12-18 21:04:09.399132', 'mgs': 0, 'flw2': 6.85, 'flw1': 0.0, 'flw0': 0.48, 'time': 28.15, 'compass': -157.49, 'pitch': 8.68, 'roll': -3.03}
{'lipoC2': 0.14, 'temp': 0.0, 'lipoC3S3': 11.75, 'state': 'normal', 'rot1': 484, 'rot0': 386, 'rot3': 0, 'rot2': 0, 'depth': 0.317, 'yaw': -139.26, 'datetime': '2018-12-18 21:04:09.618802', 'mgs': 0, 'flw2': 6.54, 'flw1': 0.5, 'flw0': 0.35, 'time': 28.35, 'compass': -151.28, 'pitch': 8.03, 'roll': -2.79}
{'lipoC2': 0.04, 'temp': 0.0, 'lipoC3S3': 11.65, 'state': 'normal', 'rot1': 485, 'rot0': 389, 'rot3': 0, 'rot2': 0, 'depth': 1.385, 'yaw': -131.44, 'datetime': '2018-12-18 21:04:09.831651', 'mgs': 0, 'flw2': 6.58, 'flw1': 0.06, 'flw0': 0.2, 'time': 28.56, 'compass': -143.46, 'pitch': 7.54, 'roll': -2.61}
{'lipoC2': 0.0, 'temp': 0.0, 'lipoC3S3': 11.88, 'state': 'normal', 'rot1': 486, 'rot0': 392, 'rot3': 0, 'rot2': 0, 'depth': 0.165, 'yaw': -122.62, 'datetime': '2018-12-18 21:04:10.035277', 'mgs': 0, 'flw2': 6.63, 'flw1': 0.0, 'flw0': 0.34, 'time': 28.77, 'compass': -134.64, 'pitch': 7.12, 'roll': -2.12}
{'lipoC2': 0.1, 'temp': 0.0, 'lipoC3S3': 11.88, 'state': 'normal', 'rot1': 487, 'rot0': 397, 'rot3': 0, 'rot2': 0, 'depth': -2.048, 'yaw': -112.96, 'datetime': '2018-12-18 21:04:10.244299', 'mgs': 0, 'flw2': 11.12, 'flw1': 0.0, 'flw0': 2.77, 'time': 28.98, 'compass': -124.98, 'pitch': 6.63, 'roll': -1.52}
{'lipoC2': 0.15, 'temp': 0.0, 'lipoC3S3': 11.83, 'state': 'normal', 'rot1': 490, 'rot0': 401, 'rot3': 0, 'rot2': 0, 'depth': 0.851, 'yaw': -103.33, 'datetime': '2018-12-18 21:04:10.459104', 'mgs': 0, 'flw2': 3.98, 'flw1': 0.56, 'flw0': 10.53, 'time': 29.19, 'compass': -115.35, 'pitch': 7.89, 'roll': -0.57}
{'lipoC2': 0.12, 'temp': 0.0, 'lipoC3S3': 11.87, 'state': 'normal', 'rot1': 499, 'rot0': 404, 'rot3': 0, 'rot2': 0, 'depth': 1.385, 'yaw': -99.85, 'datetime': '2018-12-18 21:04:10.669322', 'mgs': 0, 'flw2': 2.2, 'flw1': 0.0, 'flw0': 12.0, 'time': 29.4, 'compass': -111.87, 'pitch': 9.83, 'roll': 0.4}
{'lipoC2': 0.12, 'temp': 0.0, 'lipoC3S3': 11.69, 'state': 'normal', 'rot1': 507, 'rot0': 406, 'rot3': 0, 'rot2': 0, 'depth': 0.394, 'yaw': -103.45, 'datetime': '2018-12-18 21:04:10.883424', 'mgs': 0, 'flw2': 2.45, 'flw1': 0.0, 'flw0': 6.41, 'time': 29.61, 'compass': -115.47, 'pitch': 10.31, 'roll': 0.49}
{'lipoC2': 0.0, 'temp': 0.0, 'lipoC3S3': 11.72, 'state': 'normal', 'rot1': 511, 'rot0': 409, 'rot3': 0, 'rot2': 0, 'depth': -1.59, 'yaw': -109.11, 'datetime': '2018-12-18 21:04:11.085995', 'mgs': 0, 'flw2': 8.94, 'flw1': 0.38, 'flw0': 5.86, 'time': 29.82, 'compass': -121.13, 'pitch': 9.05, 'roll': -0.68}
{'lipoC2': 0.0, 'temp': 0.0, 'lipoC3S3': 11.85, 'state': 'normal', 'rot1': 514, 'rot0': 413, 'rot3': 0, 'rot2': 0, 'depth': 0.851, 'yaw': -111.86, 'datetime': '2018-12-18 21:04:11.297778', 'mgs': 0, 'flw2': 6.42, 'flw1': 0.5, 'flw0': 4.06, 'time': 30.03, 'compass': -123.88, 'pitch': 9.37, 'roll': -2.55}
{'lipoC2': 0.14, 'temp': 0.0, 'lipoC3S3': 11.73, 'state': 'normal', 'rot1': 517, 'rot0': 416, 'rot3': 0, 'rot2': 0, 'depth': 0.851, 'yaw': -112.49, 'datetime': '2018-12-18 21:04:11.503023', 'mgs': 0, 'flw2': 6.09, 'flw1': 0.35, 'flw0': 5.08, 'time': 30.24, 'compass': -124.51, 'pitch': 9.69, 'roll': -4.19}
{'lipoC2': 0.06, 'temp': 0.0, 'lipoC3S3': 11.89, 'state': 'normal', 'rot1': 520, 'rot0': 419, 'rot3': 0, 'rot2': 0, 'depth': -1.59, 'yaw': -112.4, 'datetime': '2018-12-18 21:04:11.713971', 'mgs': 0, 'flw2': 6.45, 'flw1': 0.0, 'flw0': 4.36, 'time': 30.45, 'compass': -124.42, 'pitch': 9.4, 'roll': -4.82}
{'lipoC2': 0.1, 'temp': 0.0, 'lipoC3S3': 11.68, 'state': 'normal', 'rot1': 522, 'rot0': 422, 'rot3': 0, 'rot2': 0, 'depth': 1.08, 'yaw': -111.98, 'datetime': '2018-12-18 21:04:11.925754', 'mgs': 0, 'flw2': 5.24, 'flw1': 0.38, 'flw0': 3.83, 'time': 30.66, 'compass': -123.99, 'pitch': 8.97, 'roll': -4.58}
{'lipoC2': 0.0, 'temp': 0.0, 'lipoC3S3': 11.89, 'state': 'normal', 'rot1': 525, 'rot0': 426, 'rot3': 0, 'rot2': 0, 'depth': 0.241, 'yaw': -111.07, 'datetime': '2018-12-18 21:04:12.138332', 'mgs': 0, 'flw2': 6.71, 'flw1': 0.0, 'flw0': 4.82, 'time': 30.87, 'compass': -123.08, 'pitch': 7.75, 'roll': -4.03}
{'lipoC2': 0.02, 'temp': 0.0, 'lipoC3S3': 11.93, 'state': 'normal', 'rot1': 528, 'rot0': 430, 'rot3': 0, 'rot2': 0, 'depth': -1.514, 'yaw': -109.66, 'datetime': '2018-12-18 21:04:12.343670', 'mgs': 0, 'flw2': 11.4, 'flw1': 0.0, 'flw0': 4.0, 'time': 31.08, 'compass': -121.67, 'pitch': 7.2, 'roll': -3.5}
{'lipoC2': 0.0, 'temp': 0.0, 'lipoC3S3': 12.04, 'state': 'normal', 'rot1': 532, 'rot0': 435, 'rot3': 0, 'rot2': 0, 'depth': 1.538, 'yaw': -107.02, 'datetime': '2018-12-18 21:04:12.557498', 'mgs': 0, 'flw2': 10.97, 'flw1': 0.0, 'flw0': 12.49, 'time': 31.29, 'compass': -119.04, 'pitch': 7.97, 'roll': -3.09}
{'lipoC2': 0.0, 'temp': 0.0, 'lipoC3S3': 11.96, 'state': 'normal', 'rot1': 543, 'rot0': 440, 'rot3': 0, 'rot2': 0, 'depth': -0.751, 'yaw': -106.14, 'datetime': '2018-12-18 21:04:12.768273', 'mgs': 0, 'flw2': 12.49, 'flw1': 0.23, 'flw0': 12.49, 'time': 31.5, 'compass': -118.16, 'pitch': 10.3, 'roll': -2.71}
{'lipoC2': 0.0, 'temp': 0.0, 'lipoC3S3': 11.9, 'state': 'normal', 'rot1': 553, 'rot0': 444, 'rot3': 0, 'rot2': 0, 'depth': -0.14, 'yaw': -107.08, 'datetime': '2018-12-18 21:04:12.980266', 'mgs': 0, 'flw2': 12.49, 'flw1': 0.41, 'flw0': 12.49, 'time': 31.71, 'compass': -119.09, 'pitch': 12.43, 'roll': -2.29}
{'lipoC2': 0.11, 'temp': 0.0, 'lipoC3S3': 11.87, 'state': 'normal', 'rot1': 564, 'rot0': 449, 'rot3': 0, 'rot2': 0, 'depth': 1.92, 'yaw': -109.28, 'datetime': '2018-12-18 21:04:13.191458', 'mgs': 0, 'flw2': 12.49, 'flw1': 0.44, 'flw0': 12.49, 'time': 31.92, 'compass': -121.3, 'pitch': 12.94, 'roll': -2.02}
{'lipoC2': 0.06, 'temp': 0.0, 'lipoC3S3': 11.92, 'state': 'normal', 'rot1': 574, 'rot0': 454, 'rot3': 0, 'rot2': 0, 'depth': 1.843, 'yaw': -111.96, 'datetime': '2018-12-18 21:04:13.395258', 'mgs': 0, 'flw2': 12.49, 'flw1': 0.38, 'flw0': 12.49, 'time': 32.13, 'compass': -123.98, 'pitch': 12.24, 'roll': -2.49}
{'lipoC2': 0.0, 'temp': 0.0, 'lipoC3S3': 12.06, 'state': 'normal', 'rot1': 585, 'rot0': 459, 'rot3': 0, 'rot2': 0, 'depth': 2.225, 'yaw': -114.56, 'datetime': '2018-12-18 21:04:13.603828', 'mgs': 0, 'flw2': 12.49, 'flw1': 0.32, 'flw0': 12.49, 'time': 32.34, 'compass': -126.57, 'pitch': 11.47, 'roll': -3.28}
{'lipoC2': 0.03, 'temp': 0.0, 'lipoC3S3': 11.67, 'state': 'normal', 'rot1': 594, 'rot0': 464, 'rot3': 0, 'rot2': 0, 'depth': 1.767, 'yaw': -116.38, 'datetime': '2018-12-18 21:04:13.813256', 'mgs': 0, 'flw2': 12.49, 'flw1': 0.15, 'flw0': 12.49, 'time': 32.55, 'compass': -128.4, 'pitch': 11.92, 'roll': -4.24}
{'lipoC2': 0.0, 'temp': 0.0, 'lipoC3S3': 11.96, 'state': 'normal', 'rot1': 601, 'rot0': 470, 'rot3': 0, 'rot2': 0, 'depth': 1.309, 'yaw': -117.29, 'datetime': '2018-12-18 21:04:14.030045', 'mgs': 0, 'flw2': 12.49, 'flw1': 0.21, 'flw0': 12.49, 'time': 32.76, 'compass': -129.31, 'pitch': 12.76, 'roll': -5.12}
{'lipoC2': 0.0, 'temp': 0.0, 'lipoC3S3': 12.04, 'state': 'normal', 'rot1': 611, 'rot0': 474, 'rot3': 0, 'rot2': 0, 'depth': 1.538, 'yaw': -117.77, 'datetime': '2018-12-18 21:04:14.237625', 'mgs': 0, 'flw2': 12.49, 'flw1': 0.0, 'flw0': 12.49, 'time': 32.97, 'compass': -129.78, 'pitch': 13.54, 'roll': -5.96}
{'lipoC2': 0.01, 'temp': 0.0, 'lipoC3S3': 11.68, 'state': 'normal', 'rot1': 621, 'rot0': 479, 'rot3': 0, 'rot2': 0, 'depth': 1.767, 'yaw': -117.99, 'datetime': '2018-12-18 21:04:14.447848', 'mgs': 0, 'flw2': 12.49, 'flw1': 0.29, 'flw0': 12.49, 'time': 33.18, 'compass': -130.01, 'pitch': 13.9, 'roll': -6.65}
{'lipoC2': 0.0, 'temp': 0.0, 'lipoC3S3': 11.9, 'state': 'normal', 'rot1': 629, 'rot0': 484, 'rot3': 0, 'rot2': 0, 'depth': 1.08, 'yaw': -118.17, 'datetime': '2018-12-18 21:04:14.652975', 'mgs': 0, 'flw2': 12.49, 'flw1': 0.0, 'flw0': 12.49, 'time': 33.38, 'compass': -130.19, 'pitch': 14.23, 'roll': -6.88}
{'lipoC2': 0.0, 'temp': 0.0, 'lipoC3S3': 12.02, 'state': 'normal', 'rot1': 636, 'rot0': 489, 'rot3': 0, 'rot2': 0, 'depth': 1.996, 'yaw': -118.76, 'datetime': '2018-12-18 21:04:14.868750', 'mgs': 0, 'flw2': 12.49, 'flw1': 0.09, 'flw0': 12.49, 'time': 33.59, 'compass': -130.78, 'pitch': 14.29, 'roll': -6.72}
{'lipoC2': 0.0, 'temp': 0.0, 'lipoC3S3': 12.0, 'state': 'normal', 'rot1': 645, 'rot0': 494, 'rot3': 0, 'rot2': 0, 'depth': 1.767, 'yaw': -119.85, 'datetime': '2018-12-18 21:04:15.078555', 'mgs': 0, 'flw2': 12.49, 'flw1': 0.0, 'flw0': 12.49, 'time': 33.8, 'compass': -131.87, 'pitch': 14.59, 'roll': -6.41}
{'lipoC2': 0.0, 'temp': 0.0, 'lipoC3S3': 11.88, 'state': 'normal', 'rot1': 655, 'rot0': 499, 'rot3': 0, 'rot2': 0, 'depth': 0.317, 'yaw': -121.33, 'datetime': '2018-12-18 21:04:15.287235', 'mgs': 0, 'flw2': 12.49, 'flw1': 0.56, 'flw0': 12.49, 'time': 34.01, 'compass': -133.35, 'pitch': 14.69, 'roll': -6.12}
{'lipoC2': 0.1, 'temp': 0.0, 'lipoC3S3': 11.88, 'state': 'normal', 'rot1': 664, 'rot0': 504, 'rot3': 0, 'rot2': 0, 'depth': -1.285, 'yaw': -123.13, 'datetime': '2018-12-18 21:04:15.496797', 'mgs': 0, 'flw2': 12.49, 'flw1': 0.0, 'flw0': 12.49, 'time': 34.22, 'compass': -135.15, 'pitch': 15.06, 'roll': -6.14}
{'lipoC2': 0.11, 'temp': 0.0, 'lipoC3S3': 11.87, 'state': 'normal', 'rot1': 672, 'rot0': 510, 'rot3': 0, 'rot2': 0, 'depth': -1.971, 'yaw': -125.14, 'datetime': '2018-12-18 21:04:15.710747', 'mgs': 0, 'flw2': 12.49, 'flw1': 0.0, 'flw0': 12.49, 'time': 34.43, 'compass': -137.16, 'pitch': 15.58, 'roll': -6.17}
{'lipoC2': 0.09, 'temp': 0.0, 'lipoC3S3': 11.67, 'state': 'normal', 'rot1': 681, 'rot0': 515, 'rot3': 0, 'rot2': 0, 'depth': 1.462, 'yaw': -127.25, 'datetime': '2018-12-18 21:04:15.919815', 'mgs': 0, 'flw2': 12.49, 'flw1': 0.09, 'flw0': 12.49, 'time': 34.64, 'compass': -139.27, 'pitch': 16.07, 'roll': -6.48}
{'lipoC2': 0.09, 'temp': 0.0, 'lipoC3S3': 12.04, 'state': 'normal', 'rot1': 691, 'rot0': 519, 'rot3': 0, 'rot2': 0, 'depth': 1.462, 'yaw': -129.56, 'datetime': '2018-12-18 21:04:16.129104', 'mgs': 0, 'flw2': 12.49, 'flw1': 0.06, 'flw0': 12.49, 'time': 34.85, 'compass': -141.58, 'pitch': 16.44, 'roll': -7.29}
{'lipoC2': 0.0, 'temp': 0.0, 'lipoC3S3': 11.72, 'state': 'normal', 'rot1': 700, 'rot0': 525, 'rot3': 0, 'rot2': 0, 'depth': -0.674, 'yaw': -131.67, 'datetime': '2018-12-18 21:04:16.337161', 'mgs': 0, 'flw2': 12.49, 'flw1': 0.0, 'flw0': 12.49, 'time': 35.06, 'compass': -143.68, 'pitch': 16.84, 'roll': -7.63}
{'lipoC2': 0.14, 'temp': 0.0, 'lipoC3S3': 11.68, 'state': 'normal', 'rot1': 711, 'rot0': 531, 'rot3': 0, 'rot2': 0, 'depth': 1.004, 'yaw': -133.49, 'datetime': '2018-12-18 21:04:16.543804', 'mgs': 0, 'flw2': 12.49, 'flw1': 0.15, 'flw0': 12.49, 'time': 35.27, 'compass': -145.51, 'pitch': 17.41, 'roll': -7.69}
{'lipoC2': 0.0, 'temp': 0.0, 'lipoC3S3': 12.05, 'state': 'normal', 'rot1': 714, 'rot0': 536, 'rot3': 0, 'rot2': 0, 'depth': 1.996, 'yaw': -133.86, 'datetime': '2018-12-18 21:04:16.754587', 'mgs': 0, 'flw2': 12.49, 'flw1': 0.0, 'flw0': 1.28, 'time': 35.48, 'compass': -145.88, 'pitch': 16.1, 'roll': -7.81}
{'lipoC2': 0.0, 'temp': 0.0, 'lipoC3S3': 11.69, 'state': 'normal', 'rot1': 716, 'rot0': 542, 'rot3': 0, 'rot2': 0, 'depth': 1.843, 'yaw': -128.88, 'datetime': '2018-12-18 21:04:16.969728', 'mgs': 0, 'flw2': 12.49, 'flw1': 0.0, 'flw0': 1.99, 'time': 35.69, 'compass': -140.9, 'pitch': 11.21, 'roll': -7.9}
{'lipoC2': 0.14, 'temp': 0.0, 'lipoC3S3': 11.85, 'state': 'normal', 'rot1': 721, 'rot0': 547, 'rot3': 0, 'rot2': 0, 'depth': 1.843, 'yaw': -122.25, 'datetime': '2018-12-18 21:04:17.175775', 'mgs': 0, 'flw2': 12.49, 'flw1': 0.18, 'flw0': 12.49, 'time': 35.9, 'compass': -134.27, 'pitch': 8.54, 'roll': -7.25}
{'lipoC2': 0.0, 'temp': 0.0, 'lipoC3S3': 11.88, 'state': 'normal', 'rot1': 729, 'rot0': 552, 'rot3': 0, 'rot2': 0, 'depth': 0.317, 'yaw': -119.83, 'datetime': '2018-12-18 21:04:17.382119', 'mgs': 0, 'flw2': 12.49, 'flw1': 0.0, 'flw0': 12.49, 'time': 36.11, 'compass': -131.85, 'pitch': 11.04, 'roll': -6.0}
{'lipoC2': 0.0, 'temp': 0.0, 'lipoC3S3': 12.06, 'state': 'normal', 'rot1': 738, 'rot0': 557, 'rot3': 0, 'rot2': 0, 'depth': 1.614, 'yaw': -120.34, 'datetime': '2018-12-18 21:04:17.592491', 'mgs': 0, 'flw2': 12.49, 'flw1': 0.0, 'flw0': 3.78, 'time': 36.32, 'compass': -132.36, 'pitch': 14.54, 'roll': -4.57}
{'lipoC2': 0.0, 'temp': 0.0, 'lipoC3S3': 12.01, 'state': 'normal', 'rot1': 739, 'rot0': 562, 'rot3': 0, 'rot2': 0, 'depth': 1.385, 'yaw': -119.36, 'datetime': '2018-12-18 21:04:17.801803', 'mgs': 0, 'flw2': 12.49, 'flw1': 0.0, 'flw0': 0.22, 'time': 36.53, 'compass': -131.38, 'pitch': 14.63, 'roll': -4.49}
{'lipoC2': 0.06, 'temp': 0.0, 'lipoC3S3': 11.67, 'state': 'normal', 'rot1': 741, 'rot0': 568, 'rot3': 0, 'rot2': 0, 'depth': 0.317, 'yaw': -112.86, 'datetime': '2018-12-18 21:04:18.012933', 'mgs': 0, 'flw2': 12.49, 'flw1': 0.0, 'flw0': 12.37, 'time': 36.74, 'compass': -124.88, 'pitch': 11.33, 'roll': -4.88}
{'lipoC2': 0.12, 'temp': 0.0, 'lipoC3S3': 11.68, 'state': 'normal', 'rot1': 750, 'rot0': 573, 'rot3': 0, 'rot2': 0, 'depth': 1.08, 'yaw': -107.61, 'datetime': '2018-12-18 21:04:18.223966', 'mgs': 0, 'flw2': 12.49, 'flw1': 0.0, 'flw0': 12.49, 'time': 36.95, 'compass': -119.63, 'pitch': 11.68, 'roll': -5.18}
{'lipoC2': 0.0, 'temp': 0.0, 'lipoC3S3': 12.06, 'state': 'normal', 'rot1': 760, 'rot0': 578, 'rot3': 0, 'rot2': 0, 'depth': 2.225, 'yaw': -107.58, 'datetime': '2018-12-18 21:04:18.427631', 'mgs': 0, 'flw2': 12.49, 'flw1': 0.32, 'flw0': 12.49, 'time': 37.16, 'compass': -119.59, 'pitch': 15.63, 'roll': -4.32}
{'lipoC2': 0.0, 'temp': 0.0, 'lipoC3S3': 12.06, 'state': 'normal', 'rot1': 764, 'rot0': 583, 'rot3': 0, 'rot2': 0, 'depth': 2.377, 'yaw': -107.61, 'datetime': '2018-12-18 21:04:18.637324', 'mgs': 0, 'flw2': 12.49, 'flw1': 0.0, 'flw0': 0.23, 'time': 37.37, 'compass': -119.63, 'pitch': 15.9, 'roll': -3.12}
{'lipoC2': 0.0, 'temp': 0.0, 'lipoC3S3': 11.98, 'state': 'normal', 'rot1': 765, 'rot0': 587, 'rot3': 0, 'rot2': 0, 'depth': 1.385, 'yaw': -102.38, 'datetime': '2018-12-18 21:04:18.846514', 'mgs': 0, 'flw2': 12.49, 'flw1': 0.0, 'flw0': 5.08, 'time': 37.58, 'compass': -114.4, 'pitch': 10.75, 'roll': -3.36}
{'lipoC2': 0.15, 'temp': 0.0, 'lipoC3S3': 11.83, 'state': 'normal', 'rot1': 776, 'rot0': 593, 'rot3': 0, 'rot2': 0, 'depth': -0.827, 'yaw': -95.53, 'datetime': '2018-12-18 21:04:19.057786', 'mgs': 0, 'flw2': 12.49, 'flw1': 0.0, 'flw0': 12.49, 'time': 37.79, 'compass': -107.55, 'pitch': 7.29, 'roll': -3.11}
{'lipoC2': 0.0, 'temp': 0.0, 'lipoC3S3': 11.83, 'state': 'normal', 'rot1': 787, 'rot0': 597, 'rot3': 0, 'rot2': 0, 'depth': 0.546, 'yaw': -93.29, 'datetime': '2018-12-18 21:04:19.268263', 'mgs': 0, 'flw2': 12.49, 'flw1': 0.5, 'flw0': 12.49, 'time': 38.0, 'compass': -105.31, 'pitch': 9.58, 'roll': -2.14}
{'lipoC2': 0.0, 'temp': 0.0, 'lipoC3S3': 11.97, 'state': 'normal', 'rot1': 798, 'rot0': 602, 'rot3': 0, 'rot2': 0, 'depth': 1.004, 'yaw': -93.59, 'datetime': '2018-12-18 21:04:19.477097', 'mgs': 0, 'flw2': 12.49, 'flw1': 0.0, 'flw0': 12.49, 'time': 38.21, 'compass': -105.61, 'pitch': 11.56, 'roll': -1.59}
{'lipoC2': 0.0, 'temp': 0.0, 'lipoC3S3': 11.89, 'state': 'normal', 'rot1': 809, 'rot0': 608, 'rot3': 0, 'rot2': 0, 'depth': 0.012, 'yaw': -95.88, 'datetime': '2018-12-18 21:04:19.686845', 'mgs': 0, 'flw2': 12.49, 'flw1': 0.0, 'flw0': 12.49, 'time': 38.42, 'compass': -107.89, 'pitch': 11.57, 'roll': -1.57}
{'lipoC2': 0.01, 'temp': 0.0, 'lipoC3S3': 11.67, 'state': 'normal', 'rot1': 820, 'rot0': 613, 'rot3': 0, 'rot2': 0, 'depth': 2.454, 'yaw': -98.85, 'datetime': '2018-12-18 21:04:19.895313', 'mgs': 0, 'flw2': 12.49, 'flw1': 0.0, 'flw0': 12.49, 'time': 38.62, 'compass': -110.86, 'pitch': 10.02, 'roll': -2.58}
{'lipoC2': 0.0, 'temp': 0.0, 'lipoC3S3': 11.75, 'state': 'normal', 'rot1': 830, 'rot0': 618, 'rot3': 0, 'rot2': 0, 'depth': -0.598, 'yaw': -100.88, 'datetime': '2018-12-18 21:04:20.105503', 'mgs': 0, 'flw2': 12.49, 'flw1': 0.35, 'flw0': 12.49, 'time': 38.83, 'compass': -112.9, 'pitch': 8.16, 'roll': -4.13}
{'lipoC2': 0.12, 'temp': 0.0, 'lipoC3S3': 11.6, 'state': 'normal', 'rot1': 841, 'rot0': 622, 'rot3': 0, 'rot2': 0, 'depth': 0.317, 'yaw': -102.04, 'datetime': '2018-12-18 21:04:20.315044', 'mgs': 0, 'flw2': 12.49, 'flw1': 0.0, 'flw0': 12.49, 'time': 39.04, 'compass': -114.06, 'pitch': 7.66, 'roll': -5.46}
{'lipoC2': 0.0, 'temp': 0.0, 'lipoC3S3': 11.83, 'state': 'normal', 'rot1': 853, 'rot0': 627, 'rot3': 0, 'rot2': 0, 'depth': 0.394, 'yaw': -102.7, 'datetime': '2018-12-18 21:04:20.523925', 'mgs': 0, 'flw2': 12.49, 'flw1': 0.0, 'flw0': 12.49, 'time': 39.25, 'compass': -114.72, 'pitch': 8.67, 'roll': -6.36}
{'lipoC2': 0.0, 'temp': 0.0, 'lipoC3S3': 12.04, 'state': 'normal', 'rot1': 863, 'rot0': 632, 'rot3': 0, 'rot2': 0, 'depth': 2.072, 'yaw': -103.0, 'datetime': '2018-12-18 21:04:20.733682', 'mgs': 0, 'flw2': 12.49, 'flw1': 0.0, 'flw0': 12.49, 'time': 39.46, 'compass': -115.02, 'pitch': 10.12, 'roll': -7.39}
{'lipoC2': 0.0, 'temp': 0.0, 'lipoC3S3': 12.08, 'state': 'normal', 'rot1': 872, 'rot0': 637, 'rot3': 0, 'rot2': 0, 'depth': 2.225, 'yaw': -102.86, 'datetime': '2018-12-18 21:04:20.944452', 'mgs': 0, 'flw2': 12.49, 'flw1': 0.38, 'flw0': 12.49, 'time': 39.67, 'compass': -114.88, 'pitch': 11.08, 'roll': -8.79}
{'lipoC2': 0.03, 'temp': 0.0, 'lipoC3S3': 11.75, 'state': 'normal', 'rot1': 883, 'rot0': 642, 'rot3': 0, 'rot2': 0, 'depth': 1.462, 'yaw': -102.3, 'datetime': '2018-12-18 21:04:21.154146', 'mgs': 0, 'flw2': 12.49, 'flw1': 0.53, 'flw0': 12.49, 'time': 39.88, 'compass': -114.32, 'pitch': 11.12, 'roll': -9.61}
{'lipoC2': 0.0, 'temp': 0.0, 'lipoC3S3': 11.87, 'state': 'normal', 'rot1': 892, 'rot0': 648, 'rot3': 0, 'rot2': 0, 'depth': 0.699, 'yaw': -101.34, 'datetime': '2018-12-18 21:04:21.362756', 'mgs': 0, 'flw2': 12.49, 'flw1': 0.0, 'flw0': 12.49, 'time': 40.09, 'compass': -113.36, 'pitch': 10.64, 'roll': -9.5}
{'lipoC2': 0.0, 'temp': 0.0, 'lipoC3S3': 12.06, 'state': 'normal', 'rot1': 902, 'rot0': 653, 'rot3': 0, 'rot2': 0, 'depth': -0.217, 'yaw': -100.99, 'datetime': '2018-12-18 21:04:21.572881', 'mgs': 0, 'flw2': 12.49, 'flw1': 0.5, 'flw0': 12.49, 'time': 40.3, 'compass': -113.0, 'pitch': 10.19, 'roll': -9.17}
{'lipoC2': 0.0, 'temp': 0.0, 'lipoC3S3': 12.06, 'state': 'normal', 'rot1': 913, 'rot0': 659, 'rot3': 0, 'rot2': 0, 'depth': 2.225, 'yaw': -101.19, 'datetime': '2018-12-18 21:04:21.786541', 'mgs': 0, 'flw2': 12.49, 'flw1': 0.0, 'flw0': 12.49, 'time': 40.51, 'compass': -113.21, 'pitch': 10.11, 'roll': -9.13}
{'lipoC2': 0.02, 'temp': 0.0, 'lipoC3S3': 11.94, 'state': 'normal', 'rot1': 922, 'rot0': 664, 'rot3': 0, 'rot2': 0, 'depth': -1.132, 'yaw': -101.89, 'datetime': '2018-12-18 21:04:21.995442', 'mgs': 0, 'flw2': 12.49, 'flw1': 0.23, 'flw0': 12.49, 'time': 40.72, 'compass': -113.91, 'pitch': 10.1, 'roll': -9.21}
{'lipoC2': 0.0, 'temp': 0.0, 'lipoC3S3': 11.76, 'state': 'normal', 'rot1': 932, 'rot0': 670, 'rot3': 0, 'rot2': 0, 'depth': -0.446, 'yaw': -103.26, 'datetime': '2018-12-18 21:04:22.209837', 'mgs': 0, 'flw2': 12.49, 'flw1': 0.41, 'flw0': 12.49, 'time': 40.93, 'compass': -115.28, 'pitch': 10.34, 'roll': -9.32}
{'lipoC2': 0.09, 'temp': 0.0, 'lipoC3S3': 11.87, 'state': 'normal', 'rot1': 941, 'rot0': 676, 'rot3': 0, 'rot2': 0, 'depth': -1.361, 'yaw': -105.43, 'datetime': '2018-12-18 21:04:22.428046', 'mgs': 0, 'flw2': 12.49, 'flw1': 0.0, 'flw0': 12.49, 'time': 41.14, 'compass': -117.45, 'pitch': 11.02, 'roll': -9.09}
{'lipoC2': 0.1, 'temp': 0.0, 'lipoC3S3': 11.65, 'state': 'normal', 'rot1': 952, 'rot0': 680, 'rot3': 0, 'rot2': 0, 'depth': 0.623, 'yaw': -107.97, 'datetime': '2018-12-18 21:04:22.634345', 'mgs': 0, 'flw2': 12.49, 'flw1': 0.12, 'flw0': 12.49, 'time': 41.35, 'compass': -119.99, 'pitch': 11.9, 'roll': -9.31}
{'lipoC2': 0.0, 'temp': 0.0, 'lipoC3S3': 12.06, 'state': 'normal', 'rot1': 955, 'rot0': 682, 'rot3': 0, 'rot2': 0, 'depth': 1.767, 'yaw': -110.16, 'datetime': '2018-12-18 21:04:22.836197', 'mgs': 0, 'flw2': 0.11, 'flw1': 0.29, 'flw0': 0.0, 'time': 41.56, 'compass': -122.18, 'pitch': 10.77, 'roll': -9.97}
{'lipoC2': 0.0, 'temp': 0.0, 'lipoC3S3': 11.89, 'state': 'normal', 'rot1': 955, 'rot0': 682, 'rot3': 0, 'rot2': 0, 'depth': -0.293, 'yaw': -111.84, 'datetime': '2018-12-18 21:04:23.045929', 'mgs': 0, 'flw2': 0.2, 'flw1': 0.0, 'flw0': 0.0, 'time': 41.77, 'compass': -123.85, 'pitch': 4.21, 'roll': -10.07}
{'lipoC2': 0.15, 'temp': 0.0, 'lipoC3S3': 11.83, 'state': 'normal', 'rot1': 955, 'rot0': 682, 'rot3': 0, 'rot2': 0, 'depth': -0.674, 'yaw': -113.5, 'datetime': '2018-12-18 21:04:23.254372', 'mgs': 0, 'flw2': 0.0, 'flw1': 0.44, 'flw0': 0.0, 'time': 41.98, 'compass': -125.51, 'pitch': 0.68, 'roll': -9.56}
{'lipoC2': 0.1, 'temp': 0.0, 'lipoC3S3': 11.88, 'state': 'normal', 'rot1': 955, 'rot0': 682, 'rot3': 0, 'rot2': 0, 'depth': -1.895, 'yaw': -115.27, 'datetime': '2018-12-18 21:04:23.464132', 'mgs': 0, 'flw2': 0.21, 'flw1': 0.0, 'flw0': 0.0, 'time': 42.19, 'compass': -127.29, 'pitch': 0.88, 'roll': -9.0}
