{'lipoC2': 0.0, 'temp': 0.0, 'lipoC3S3': 0.0, 'state': 'normal', 'rot1': 0, 'rot0': 0, 'rot3': 0, 'rot2': 0, 'depth': -2.2, 'yaw': 0.0, 'datetime': '2018-12-18 14:08:14.595226', 'mgs': 0, 'flw2': 0.0, 'flw1': 0.56, 'flw0': 0.0, 'time': 1.36, 'compass': 3.14, 'pitch': -2.62, 'roll': -1.23}
{'lipoC2': 0.03, 'temp': 0.0, 'lipoC3S3': 0.0, 'state': 'normal', 'rot1': 0, 'rot0': 0, 'rot3': 0, 'rot2': 0, 'depth': -2.811, 'yaw': 0.0, 'datetime': '2018-12-18 14:08:14.802136', 'mgs': 0, 'flw2': 0.0, 'flw1': 0.0, 'flw0': 0.29, 'time': 1.57, 'compass': 3.14, 'pitch': -2.62, 'roll': -1.23}
{'lipoC2': 0.2, 'temp': 0.0, 'lipoC3S3': 0.01, 'state': 'normal', 'rot1': 0, 'rot0': 0, 'rot3': 0, 'rot2': 0, 'depth': -1.361, 'yaw': 0.0, 'datetime': '2018-12-18 14:08:15.011128', 'mgs': 0, 'flw2': 0.0, 'flw1': 0.32, 'flw0': 0.0, 'time': 1.77, 'compass': 3.14, 'pitch': -2.62, 'roll': -1.23}
{'lipoC2': 0.0, 'temp': 0.0, 'lipoC3S3': 0.04, 'state': 'normal', 'rot1': 0, 'rot0': 0, 'rot3': 0, 'rot2': 0, 'depth': 0.623, 'yaw': 0.0, 'datetime': '2018-12-18 14:08:15.219330', 'mgs': 0, 'flw2': 0.0, 'flw1': 0.32, 'flw0': 0.0, 'time': 1.98, 'compass': 3.14, 'pitch': -2.62, 'roll': -1.23}
{'lipoC2': 0.0, 'temp': 0.0, 'lipoC3S3': 0.0, 'state': 'normal', 'rot1': 0, 'rot0': 0, 'rot3': 0, 'rot2': 0, 'depth': -2.887, 'yaw': 0.0, 'datetime': '2018-12-18 14:08:15.428048', 'mgs': 0, 'flw2': 0.0, 'flw1': 0.7, 'flw0': 0.0, 'time': 2.19, 'compass': 3.14, 'pitch': -2.62, 'roll': -1.23}
{'lipoC2': 0.23, 'temp': 0.0, 'lipoC3S3': 0.0, 'state': 'normal', 'rot1': 0, 'rot0': 0, 'rot3': 0, 'rot2': 0, 'depth': -0.446, 'yaw': 0.0, 'datetime': '2018-12-18 14:08:15.634419', 'mgs': 0, 'flw2': 0.0, 'flw1': 0.56, 'flw0': 0.0, 'time': 2.4, 'compass': 3.14, 'pitch': -2.62, 'roll': -1.23}
{'lipoC2': 0.0, 'temp': 0.0, 'lipoC3S3': 0.0, 'state': 'normal', 'rot1': 0, 'rot0': 0, 'rot3': 0, 'rot2': 0, 'depth': -1.514, 'yaw': 0.0, 'datetime': '2018-12-18 14:08:15.842802', 'mgs': 0, 'flw2': 0.0, 'flw1': 0.64, 'flw0': 0.0, 'time': 2.61, 'compass': 3.14, 'pitch': -2.62, 'roll': -1.23}
{'lipoC2': 0.0, 'temp': 0.0, 'lipoC3S3': 0.0, 'state': 'normal', 'rot1': 0, 'rot0': 0, 'rot3': 0, 'rot2': 0, 'depth': -2.582, 'yaw': 0.0, 'datetime': '2018-12-18 14:08:16.051192', 'mgs': 0, 'flw2': 0.0, 'flw1': 0.76, 'flw0': 0.0, 'time': 2.82, 'compass': 3.14, 'pitch': -2.62, 'roll': -1.23}
{'lipoC2': 0.02, 'temp': 0.0, 'lipoC3S3': 0.0, 'state': 'normal', 'rot1': 0, 'rot0': 0, 'rot3': 0, 'rot2': 0, 'depth': 1.996, 'yaw': 0.0, 'datetime': '2018-12-18 14:08:16.259094', 'mgs': 0, 'flw2': 0.0, 'flw1': 0.67, 'flw0': 0.0, 'time': 3.02, 'compass': 3.14, 'pitch': -2.62, 'roll': -1.23}
{'lipoC2': 0.21, 'temp': 0.0, 'lipoC3S3': 0.01, 'state': 'normal', 'rot1': 0, 'rot0': 0, 'rot3': 0, 'rot2': 0, 'depth': -0.827, 'yaw': 0.0, 'datetime': '2018-12-18 14:08:16.465868', 'mgs': 0, 'flw2': 0.0, 'flw1': 0.35, 'flw0': 0.0, 'time': 3.23, 'compass': 3.14, 'pitch': -2.62, 'roll': -1.23}
{'lipoC2': 0.25, 'temp': 0.0, 'lipoC3S3': 0.0, 'state': 'normal', 'rot1': 0, 'rot0': 0, 'rot3': 0, 'rot2': 0, 'depth': -0.522, 'yaw': 0.0, 'datetime': '2018-12-18 14:08:16.674621', 'mgs': 0, 'flw2': 0.0, 'flw1': 0.44, 'flw0': 0.0, 'time': 3.44, 'compass': 3.14, 'pitch': -2.62, 'roll': -1.23}
{'lipoC2': 0.13, 'temp': 0.0, 'lipoC3S3': 0.11, 'state': 'normal', 'rot1': 0, 'rot0': 0, 'rot3': 0, 'rot2': 0, 'depth': 1.233, 'yaw': 0.0, 'datetime': '2018-12-18 14:08:16.882334', 'mgs': 0, 'flw2': 0.0, 'flw1': 0.62, 'flw0': 0.0, 'time': 3.64, 'compass': 3.14, 'pitch': -2.62, 'roll': -1.23}
{'lipoC2': 0.04, 'temp': 0.0, 'lipoC3S3': 0.2, 'state': 'normal', 'rot1': 0, 'rot0': 0, 'rot3': 0, 'rot2': 0, 'depth': 1.843, 'yaw': 0.0, 'datetime': '2018-12-18 14:08:17.091117', 'mgs': 0, 'flw2': 0.29, 'flw1': 0.0, 'flw0': 0.01, 'time': 3.85, 'compass': 3.14, 'pitch': -2.62, 'roll': -1.23}
{'lipoC2': 0.2, 'temp': 0.0, 'lipoC3S3': 0.03, 'state': 'normal', 'rot1': 0, 'rot0': 0, 'rot3': 0, 'rot2': 0, 'depth': -0.903, 'yaw': 0.0, 'datetime': '2018-12-18 14:08:17.299748', 'mgs': 0, 'flw2': 0.0, 'flw1': 0.38, 'flw0': 0.0, 'time': 4.06, 'compass': 3.14, 'pitch': -2.62, 'roll': -1.23}
{'lipoC2': 0.0, 'temp': 0.0, 'lipoC3S3': 0.0, 'state': 'normal', 'rot1': 0, 'rot0': 0, 'rot3': 0, 'rot2': 0, 'depth': -2.887, 'yaw': 0.0, 'datetime': '2018-12-18 14:08:17.506778', 'mgs': 0, 'flw2': 0.0, 'flw1': 0.64, 'flw0': 0.0, 'time': 4.27, 'compass': 3.14, 'pitch': -2.62, 'roll': -1.23}
{'lipoC2': 0.17, 'temp': 0.0, 'lipoC3S3': 0.07, 'state': 'normal', 'rot1': 0, 'rot0': 0, 'rot3': 0, 'rot2': 0, 'depth': -1.514, 'yaw': 0.0, 'datetime': '2018-12-18 14:08:17.714637', 'mgs': 0, 'flw2': 0.0, 'flw1': 0.64, 'flw0': 0.0, 'time': 4.48, 'compass': 3.14, 'pitch': -2.62, 'roll': -1.23}
{'lipoC2': 0.15, 'temp': 0.0, 'lipoC3S3': 0.08, 'state': 'normal', 'rot1': 0, 'rot0': 0, 'rot3': 0, 'rot2': 0, 'depth': -1.666, 'yaw': 0.0, 'datetime': '2018-12-18 14:08:17.923436', 'mgs': 0, 'flw2': 0.0, 'flw1': 0.44, 'flw0': 0.01, 'time': 4.68, 'compass': 3.14, 'pitch': -2.62, 'roll': -1.23}
{'lipoC2': 0.0, 'temp': 0.0, 'lipoC3S3': 0.0, 'state': 'normal', 'rot1': 0, 'rot0': 0, 'rot3': 0, 'rot2': 0, 'depth': -1.514, 'yaw': 0.0, 'datetime': '2018-12-18 14:08:18.132380', 'mgs': 0, 'flw2': 0.0, 'flw1': 0.53, 'flw0': 0.0, 'time': 4.89, 'compass': 3.14, 'pitch': -2.62, 'roll': -1.23}
{'lipoC2': 0.15, 'temp': 0.0, 'lipoC3S3': 0.0, 'state': 'normal', 'rot1': 0, 'rot0': 0, 'rot3': 0, 'rot2': 0, 'depth': 1.462, 'yaw': 0.0, 'datetime': '2018-12-18 14:08:18.340356', 'mgs': 0, 'flw2': 0.21, 'flw1': 0.0, 'flw0': 0.0, 'time': 5.1, 'compass': 3.14, 'pitch': -2.62, 'roll': -1.23}
{'lipoC2': 0.0, 'temp': 0.0, 'lipoC3S3': 0.26, 'state': 'normal', 'rot1': 0, 'rot0': 0, 'rot3': 0, 'rot2': 0, 'depth': 1.462, 'yaw': 0.0, 'datetime': '2018-12-18 14:08:18.548473', 'mgs': 0, 'flw2': 0.0, 'flw1': 0.35, 'flw0': 0.05, 'time': 5.31, 'compass': 3.14, 'pitch': -2.62, 'roll': -1.23}
{'lipoC2': 0.25, 'temp': 0.0, 'lipoC3S3': 0.0, 'state': 'normal', 'rot1': 0, 'rot0': 0, 'rot3': 0, 'rot2': 0, 'depth': -0.064, 'yaw': 0.0, 'datetime': '2018-12-18 14:08:18.757371', 'mgs': 0, 'flw2': 0.0, 'flw1': 0.62, 'flw0': 0.0, 'time': 5.52, 'compass': 3.14, 'pitch': -2.62, 'roll': -1.23}
{'lipoC2': 0.24, 'temp': 0.0, 'lipoC3S3': 0.0, 'state': 'normal', 'rot1': 0, 'rot0': 0, 'rot3': 0, 'rot2': 0, 'depth': -0.217, 'yaw': 0.0, 'datetime': '2018-12-18 14:08:18.963677', 'mgs': 0, 'flw2': 0.0, 'flw1': 0.56, 'flw0': 0.0, 'time': 5.72, 'compass': 3.14, 'pitch': -2.62, 'roll': -1.23}
{'lipoC2': 0.12, 'temp': 0.0, 'lipoC3S3': 0.11, 'state': 'normal', 'rot1': 0, 'rot0': 0, 'rot3': 0, 'rot2': 0, 'depth': -2.124, 'yaw': 0.0, 'datetime': '2018-12-18 14:08:19.172675', 'mgs': 0, 'flw2': 0.0, 'flw1': 0.29, 'flw0': 0.06, 'time': 5.93, 'compass': 3.14, 'pitch': -2.62, 'roll': -1.23}
{'lipoC2': 0.16, 'temp': 0.0, 'lipoC3S3': 0.0, 'state': 'normal', 'rot1': 0, 'rot0': 0, 'rot3': 0, 'rot2': 0, 'depth': 1.309, 'yaw': 0.0, 'datetime': '2018-12-18 14:08:19.380787', 'mgs': 0, 'flw2': 0.0, 'flw1': 0.7, 'flw0': 0.0, 'time': 6.14, 'compass': 3.14, 'pitch': -2.62, 'roll': -1.23}
{'lipoC2': 0.15, 'temp': 0.0, 'lipoC3S3': 0.0, 'state': 'normal', 'rot1': 0, 'rot0': 0, 'rot3': 0, 'rot2': 0, 'depth': 1.309, 'yaw': 0.0, 'datetime': '2018-12-18 14:08:19.686516', 'mgs': 0, 'flw2': 0.0, 'flw1': 0.23, 'flw0': 0.0, 'time': 6.45, 'compass': 3.14, 'pitch': -2.62, 'roll': -1.23}
{'lipoC2': 0.0, 'temp': 0.0, 'lipoC3S3': 0.13, 'state': 'normal', 'rot1': 0, 'rot0': 0, 'rot3': 0, 'rot2': 0, 'depth': -1.437, 'yaw': 0.0, 'datetime': '2018-12-18 14:08:19.895367', 'mgs': 0, 'flw2': 0.05, 'flw1': 0.0, 'flw0': 0.37, 'time': 6.66, 'compass': 3.14, 'pitch': -2.62, 'roll': -1.23}
{'lipoC2': 0.19, 'temp': 0.0, 'lipoC3S3': 0.01, 'state': 'normal', 'rot1': 0, 'rot0': 0, 'rot3': 0, 'rot2': 0, 'depth': -2.353, 'yaw': 0.0, 'datetime': '2018-12-18 14:08:20.103570', 'mgs': 0, 'flw2': 0.0, 'flw1': 0.85, 'flw0': 0.0, 'time': 6.86, 'compass': 3.14, 'pitch': -2.62, 'roll': -1.23}
{'lipoC2': 0.0, 'temp': 0.0, 'lipoC3S3': 0.0, 'state': 'normal', 'rot1': 0, 'rot0': 0, 'rot3': 0, 'rot2': 0, 'depth': -2.734, 'yaw': 0.0, 'datetime': '2018-12-18 14:08:20.315232', 'mgs': 0, 'flw2': 0.0, 'flw1': 0.67, 'flw0': 0.0, 'time': 7.07, 'compass': 3.14, 'pitch': -2.62, 'roll': -1.23}
{'lipoC2': 0.1, 'temp': 0.0, 'lipoC3S3': 0.0, 'state': 'normal', 'rot1': 0, 'rot0': 0, 'rot3': 0, 'rot2': 0, 'depth': -2.124, 'yaw': 0.0, 'datetime': '2018-12-18 14:08:20.521585', 'mgs': 0, 'flw2': 0.02, 'flw1': 0.0, 'flw0': 0.29, 'time': 7.28, 'compass': 3.14, 'pitch': -2.62, 'roll': -1.23}
{'lipoC2': 0.0, 'temp': 0.0, 'lipoC3S3': 0.25, 'state': 'normal', 'rot1': 0, 'rot0': 0, 'rot3': 0, 'rot2': 0, 'depth': 1.385, 'yaw': 0.0, 'datetime': '2018-12-18 14:08:20.731072', 'mgs': 0, 'flw2': 0.0, 'flw1': 0.67, 'flw0': 0.0, 'time': 7.49, 'compass': 3.14, 'pitch': -2.62, 'roll': -1.23}
{'lipoC2': 0.0, 'temp': 0.0, 'lipoC3S3': 0.17, 'state': 'normal', 'rot1': 0, 'rot0': 0, 'rot3': 0, 'rot2': 0, 'depth': 1.996, 'yaw': 0.0, 'datetime': '2018-12-18 14:08:20.948516', 'mgs': 0, 'flw2': 0.0, 'flw1': 0.76, 'flw0': 0.0, 'time': 7.7, 'compass': 3.14, 'pitch': -2.62, 'roll': -1.23}
{'lipoC2': 0.11, 'temp': 0.0, 'lipoC3S3': 0.15, 'state': 'normal', 'rot1': 0, 'rot0': 0, 'rot3': 0, 'rot2': 0, 'depth': -1.971, 'yaw': 0.0, 'datetime': '2018-12-18 14:08:21.252444', 'mgs': 0, 'flw2': 0.0, 'flw1': 0.12, 'flw0': 0.12, 'time': 8.01, 'compass': 3.14, 'pitch': -2.62, 'roll': -1.23}
{'lipoC2': 0.21, 'temp': 0.0, 'lipoC3S3': 0.0, 'state': 'normal', 'rot1': 0, 'rot0': 0, 'rot3': 0, 'rot2': 0, 'depth': -1.285, 'yaw': 0.0, 'datetime': '2018-12-18 14:08:21.457202', 'mgs': 0, 'flw2': 0.0, 'flw1': 0.64, 'flw0': 0.0, 'time': 8.21, 'compass': 3.14, 'pitch': -2.62, 'roll': -1.23}
{'lipoC2': 0.0, 'temp': 0.0, 'lipoC3S3': 0.0, 'state': 'normal', 'rot1': 0, 'rot0': 0, 'rot3': 0, 'rot2': 0, 'depth': 1.92, 'yaw': 0.0, 'datetime': '2018-12-18 14:08:21.663124', 'mgs': 0, 'flw2': 0.0, 'flw1': 0.76, 'flw0': 0.0, 'time': 8.42, 'compass': 3.14, 'pitch': -2.62, 'roll': -1.23}
{'lipoC2': 0.11, 'temp': 0.0, 'lipoC3S3': 0.0, 'state': 'normal', 'rot1': 0, 'rot0': 0, 'rot3': 0, 'rot2': 0, 'depth': 1.614, 'yaw': 0.0, 'datetime': '2018-12-18 14:08:21.874264', 'mgs': 0, 'flw2': 0.0, 'flw1': 0.53, 'flw0': 0.0, 'time': 8.63, 'compass': 3.14, 'pitch': -2.62, 'roll': -1.23}
{'lipoC2': 0.0, 'temp': 0.0, 'lipoC3S3': 0.0, 'state': 'normal', 'rot1': 0, 'rot0': 0, 'rot3': 0, 'rot2': 0, 'depth': -1.971, 'yaw': 0.0, 'datetime': '2018-12-18 14:08:22.079852', 'mgs': 0, 'flw2': 0.0, 'flw1': 0.47, 'flw0': 0.0, 'time': 8.84, 'compass': 3.14, 'pitch': -2.62, 'roll': -1.23}
{'lipoC2': 0.23, 'temp': 0.0, 'lipoC3S3': 0.01, 'state': 'normal', 'rot1': 0, 'rot0': 0, 'rot3': 0, 'rot2': 0, 'depth': 0.394, 'yaw': 0.0, 'datetime': '2018-12-18 14:08:22.288391', 'mgs': 0, 'flw2': 0.0, 'flw1': 0.21, 'flw0': 0.0, 'time': 9.05, 'compass': 3.14, 'pitch': -2.62, 'roll': -1.23}
{'lipoC2': 0.11, 'temp': 0.0, 'lipoC3S3': 0.0, 'state': 'normal', 'rot1': 0, 'rot0': 0, 'rot3': 0, 'rot2': 0, 'depth': 1.462, 'yaw': 0.0, 'datetime': '2018-12-18 14:08:22.496317', 'mgs': 0, 'flw2': 0.04, 'flw1': 0.0, 'flw0': 0.32, 'time': 9.25, 'compass': 3.14, 'pitch': -2.62, 'roll': -1.23}
{'lipoC2': 0.0, 'temp': 0.0, 'lipoC3S3': 0.26, 'state': 'normal', 'rot1': 0, 'rot0': 0, 'rot3': 0, 'rot2': 0, 'depth': 1.233, 'yaw': 0.0, 'datetime': '2018-12-18 14:08:22.704528', 'mgs': 0, 'flw2': 0.0, 'flw1': 0.56, 'flw0': 0.0, 'time': 9.46, 'compass': 3.14, 'pitch': -2.62, 'roll': -1.23}
{'lipoC2': 0.0, 'temp': 0.0, 'lipoC3S3': 0.25, 'state': 'normal', 'rot1': 0, 'rot0': 0, 'rot3': 0, 'rot2': 0, 'depth': 1.08, 'yaw': 0.0, 'datetime': '2018-12-18 14:08:22.912318', 'mgs': 0, 'flw2': 0.07, 'flw1': 0.0, 'flw0': 0.31, 'time': 9.67, 'compass': 3.14, 'pitch': -2.62, 'roll': -1.23}
{'lipoC2': 0.23, 'temp': 0.0, 'lipoC3S3': 0.0, 'state': 'normal', 'rot1': 0, 'rot0': 0, 'rot3': 0, 'rot2': 0, 'depth': 0.241, 'yaw': 0.0, 'datetime': '2018-12-18 14:08:23.122822', 'mgs': 0, 'flw2': 0.0, 'flw1': 0.32, 'flw0': 0.0, 'time': 9.88, 'compass': 3.14, 'pitch': -2.62, 'roll': -1.23}
{'lipoC2': 0.0, 'temp': 0.0, 'lipoC3S3': 0.0, 'state': 'normal', 'rot1': 0, 'rot0': 0, 'rot3': 0, 'rot2': 0, 'depth': 1.92, 'yaw': 0.0, 'datetime': '2018-12-18 14:08:23.325932', 'mgs': 0, 'flw2': 0.0, 'flw1': 0.7, 'flw0': 0.0, 'time': 10.08, 'compass': 3.14, 'pitch': -2.62, 'roll': -1.23}
{'lipoC2': 0.2, 'temp': 0.0, 'lipoC3S3': 0.0, 'state': 'normal', 'rot1': 0, 'rot0': 0, 'rot3': 0, 'rot2': 0, 'depth': -0.369, 'yaw': 0.0, 'datetime': '2018-12-18 14:08:23.537952', 'mgs': 0, 'flw2': 0.0, 'flw1': 0.7, 'flw0': 0.0, 'time': 10.29, 'compass': 3.14, 'pitch': -2.62, 'roll': -1.23}
{'lipoC2': 0.0, 'temp': 0.0, 'lipoC3S3': 0.0, 'state': 'normal', 'rot1': 0, 'rot0': 0, 'rot3': 0, 'rot2': 0, 'depth': -1.59, 'yaw': 0.0, 'datetime': '2018-12-18 14:08:23.747225', 'mgs': 0, 'flw2': 0.0, 'flw1': 0.62, 'flw0': 0.0, 'time': 10.5, 'compass': 3.14, 'pitch': -2.62, 'roll': -1.23}
{'lipoC2': 0.24, 'temp': 0.0, 'lipoC3S3': 0.0, 'state': 'normal', 'rot1': 0, 'rot0': 0, 'rot3': 0, 'rot2': 0, 'depth': -0.751, 'yaw': 0.0, 'datetime': '2018-12-18 14:08:23.951425', 'mgs': 0, 'flw2': 0.0, 'flw1': 0.53, 'flw0': 0.0, 'time': 10.7, 'compass': 3.14, 'pitch': -2.62, 'roll': -1.23}
{'lipoC2': 0.21, 'temp': 0.0, 'lipoC3S3': 0.0, 'state': 'normal', 'rot1': 0, 'rot0': 0, 'rot3': 0, 'rot2': 0, 'depth': -0.369, 'yaw': 0.0, 'datetime': '2018-12-18 14:08:24.157447', 'mgs': 0, 'flw2': 0.0, 'flw1': 0.73, 'flw0': 0.0, 'time': 10.91, 'compass': 3.14, 'pitch': -2.62, 'roll': -1.23}
{'lipoC2': 0.16, 'temp': 0.0, 'lipoC3S3': 0.07, 'state': 'normal', 'rot1': 0, 'rot0': 0, 'rot3': 0, 'rot2': 0, 'depth': -1.514, 'yaw': 0.0, 'datetime': '2018-12-18 14:08:24.368682', 'mgs': 0, 'flw2': 0.0, 'flw1': 0.73, 'flw0': 0.0, 'time': 11.12, 'compass': 3.14, 'pitch': -2.62, 'roll': -1.23}
{'lipoC2': 0.0, 'temp': 0.0, 'lipoC3S3': 0.25, 'state': 'normal', 'rot1': 0, 'rot0': 0, 'rot3': 0, 'rot2': 0, 'depth': 1.309, 'yaw': 0.0, 'datetime': '2018-12-18 14:08:24.573725', 'mgs': 0, 'flw2': 0.0, 'flw1': 0.62, 'flw0': 0.0, 'time': 11.33, 'compass': 3.14, 'pitch': -2.62, 'roll': -1.23}
{'lipoC2': 0.23, 'temp': 0.0, 'lipoC3S3': 0.0, 'state': 'normal', 'rot1': 0, 'rot0': 0, 'rot3': 0, 'rot2': 0, 'depth': -0.674, 'yaw': 0.0, 'datetime': '2018-12-18 14:08:24.785208', 'mgs': 0, 'flw2': 0.0, 'flw1': 0.56, 'flw0': 0.0, 'time': 11.54, 'compass': 3.14, 'pitch': -2.62, 'roll': -1.23}
{'lipoC2': 0.0, 'temp': 0.0, 'lipoC3S3': 0.0, 'state': 'normal', 'rot1': 0, 'rot0': 0, 'rot3': 0, 'rot2': 0, 'depth': 1.385, 'yaw': 0.0, 'datetime': '2018-12-18 14:08:24.990791', 'mgs': 0, 'flw2': 0.0, 'flw1': 0.47, 'flw0': 0.0, 'time': 11.74, 'compass': 3.14, 'pitch': -2.62, 'roll': -1.23}
{'lipoC2': 0.0, 'temp': 0.0, 'lipoC3S3': 0.0, 'state': 'normal', 'rot1': 0, 'rot0': 0, 'rot3': 0, 'rot2': 0, 'depth': -2.582, 'yaw': 0.0, 'datetime': '2018-12-18 14:08:25.200140', 'mgs': 0, 'flw2': 0.0, 'flw1': 0.7, 'flw0': 0.0, 'time': 11.95, 'compass': 3.14, 'pitch': -2.62, 'roll': -1.23}
{'lipoC2': 0.0, 'temp': 0.0, 'lipoC3S3': 0.26, 'state': 'normal', 'rot1': 0, 'rot0': 0, 'rot3': 0, 'rot2': 0, 'depth': 1.08, 'yaw': 0.0, 'datetime': '2018-12-18 14:08:25.408465', 'mgs': 0, 'flw2': 0.0, 'flw1': 0.73, 'flw0': 0.0, 'time': 12.16, 'compass': 3.14, 'pitch': -2.62, 'roll': -1.23}
{'lipoC2': 0.17, 'temp': 0.0, 'lipoC3S3': 0.05, 'state': 'normal', 'rot1': 0, 'rot0': 0, 'rot3': 0, 'rot2': 0, 'depth': -1.514, 'yaw': 0.0, 'datetime': '2018-12-18 14:08:25.616677', 'mgs': 0, 'flw2': 0.0, 'flw1': 0.23, 'flw0': 0.0, 'time': 12.37, 'compass': 3.14, 'pitch': -2.62, 'roll': -1.23}
{'lipoC2': 0.23, 'temp': 0.0, 'lipoC3S3': 0.0, 'state': 'normal', 'rot1': 0, 'rot0': 0, 'rot3': 0, 'rot2': 0, 'depth': -0.217, 'yaw': 0.0, 'datetime': '2018-12-18 14:08:25.823705', 'mgs': 0, 'flw2': 0.0, 'flw1': 0.73, 'flw0': 0.0, 'time': 12.57, 'compass': 3.14, 'pitch': -2.62, 'roll': -1.23}
{'lipoC2': 0.0, 'temp': 0.0, 'lipoC3S3': 0.0, 'state': 'normal', 'rot1': 0, 'rot0': 0, 'rot3': 0, 'rot2': 0, 'depth': 1.843, 'yaw': 0.0, 'datetime': '2018-12-18 14:08:26.035373', 'mgs': 0, 'flw2': 0.27, 'flw1': 0.0, 'flw0': 0.0, 'time': 12.78, 'compass': 3.14, 'pitch': -2.62, 'roll': -1.23}
{'lipoC2': 0.23, 'temp': 0.0, 'lipoC3S3': 0.0, 'state': 'normal', 'rot1': 0, 'rot0': 0, 'rot3': 0, 'rot2': 0, 'depth': 0.775, 'yaw': 0.0, 'datetime': '2018-12-18 14:08:26.240904', 'mgs': 0, 'flw2': 0.0, 'flw1': 0.73, 'flw0': 0.0, 'time': 12.99, 'compass': 3.14, 'pitch': -2.62, 'roll': -1.23}
{'lipoC2': 0.0, 'temp': 0.0, 'lipoC3S3': 0.0, 'state': 'normal', 'rot1': 0, 'rot0': 0, 'rot3': 0, 'rot2': 0, 'depth': 1.385, 'yaw': 0.0, 'datetime': '2018-12-18 14:08:26.449786', 'mgs': 0, 'flw2': 0.0, 'flw1': 0.38, 'flw0': 0.0, 'time': 13.2, 'compass': 3.14, 'pitch': -2.62, 'roll': -1.23}
{'lipoC2': 0.08, 'temp': 0.0, 'lipoC3S3': 0.0, 'state': 'normal', 'rot1': 0, 'rot0': 0, 'rot3': 0, 'rot2': 0, 'depth': 1.767, 'yaw': 0.0, 'datetime': '2018-12-18 14:08:26.655896', 'mgs': 0, 'flw2': 0.0, 'flw1': 0.5, 'flw0': 0.0, 'time': 13.41, 'compass': 3.14, 'pitch': -2.62, 'roll': -1.23}
{'lipoC2': 0.23, 'temp': 0.0, 'lipoC3S3': 0.01, 'state': 'normal', 'rot1': 0, 'rot0': 0, 'rot3': 0, 'rot2': 0, 'depth': -1.056, 'yaw': 0.0, 'datetime': '2018-12-18 14:08:26.868507', 'mgs': 0, 'flw2': 0.0, 'flw1': 0.41, 'flw0': 0.0, 'time': 13.61, 'compass': 3.14, 'pitch': -2.62, 'roll': -1.23}
{'lipoC2': 0.0, 'temp': 0.0, 'lipoC3S3': 0.13, 'state': 'normal', 'rot1': 0, 'rot0': 0, 'rot3': 0, 'rot2': 0, 'depth': -0.064, 'yaw': 0.0, 'datetime': '2018-12-18 14:08:27.072680', 'mgs': 0, 'flw2': 0.0, 'flw1': 0.59, 'flw0': 0.0, 'time': 13.82, 'compass': 3.14, 'pitch': -2.62, 'roll': -1.23}
{'lipoC2': 0.06, 'temp': 0.0, 'lipoC3S3': 0.0, 'state': 'normal', 'rot1': 0, 'rot0': 0, 'rot3': 0, 'rot2': 0, 'depth': 1.92, 'yaw': 0.0, 'datetime': '2018-12-18 14:08:27.281308', 'mgs': 0, 'flw2': 0.0, 'flw1': 0.67, 'flw0': 0.0, 'time': 14.03, 'compass': 3.14, 'pitch': -2.62, 'roll': -1.23}
{'lipoC2': 0.0, 'temp': 0.0, 'lipoC3S3': 0.07, 'state': 'normal', 'rot1': 0, 'rot0': 0, 'rot3': 0, 'rot2': 0, 'depth': -0.446, 'yaw': 0.0, 'datetime': '2018-12-18 14:08:27.488869', 'mgs': 0, 'flw2': 0.0, 'flw1': 0.67, 'flw0': 0.0, 'time': 14.24, 'compass': 3.14, 'pitch': -2.62, 'roll': -1.23}
{'lipoC2': 0.23, 'temp': 0.0, 'lipoC3S3': 0.0, 'state': 'normal', 'rot1': 0, 'rot0': 0, 'rot3': 0, 'rot2': 0, 'depth': 0.775, 'yaw': 0.0, 'datetime': '2018-12-18 14:08:27.697201', 'mgs': 0, 'flw2': 0.0, 'flw1': 0.67, 'flw0': 0.0, 'time': 14.44, 'compass': 3.14, 'pitch': -2.62, 'roll': -1.23}
{'lipoC2': 0.25, 'temp': 0.0, 'lipoC3S3': 0.0, 'state': 'normal', 'rot1': 0, 'rot0': 0, 'rot3': 0, 'rot2': 0, 'depth': 0.012, 'yaw': 0.0, 'datetime': '2018-12-18 14:08:27.904275', 'mgs': 0, 'flw2': 0.0, 'flw1': 0.67, 'flw0': 0.0, 'time': 14.65, 'compass': 3.14, 'pitch': -2.62, 'roll': -1.23}
{'lipoC2': 0.0, 'temp': 0.0, 'lipoC3S3': 0.25, 'state': 'normal', 'rot1': 0, 'rot0': 0, 'rot3': 0, 'rot2': 0, 'depth': 0.699, 'yaw': 0.0, 'datetime': '2018-12-18 14:08:28.111689', 'mgs': 0, 'flw2': 0.0, 'flw1': 0.21, 'flw0': 0.1, 'time': 14.86, 'compass': 3.14, 'pitch': -2.62, 'roll': -1.23}
{'lipoC2': 0.0, 'temp': 0.0, 'lipoC3S3': 0.26, 'state': 'normal', 'rot1': 0, 'rot0': 0, 'rot3': 0, 'rot2': 0, 'depth': 0.546, 'yaw': 0.0, 'datetime': '2018-12-18 14:08:28.319295', 'mgs': 0, 'flw2': 0.0, 'flw1': 0.15, 'flw0': 0.11, 'time': 15.07, 'compass': 3.14, 'pitch': -2.62, 'roll': -1.23}
{'lipoC2': 0.0, 'temp': 0.0, 'lipoC3S3': 0.0, 'state': 'normal', 'rot1': 0, 'rot0': 0, 'rot3': 0, 'rot2': 0, 'depth': -2.887, 'yaw': 0.0, 'datetime': '2018-12-18 14:08:28.528887', 'mgs': 0, 'flw2': 0.0, 'flw1': 0.7, 'flw0': 0.0, 'time': 15.28, 'compass': 3.14, 'pitch': -2.62, 'roll': -1.23}
{'lipoC2': 0.24, 'temp': 0.0, 'lipoC3S3': 0.0, 'state': 'normal', 'rot1': 0, 'rot0': 0, 'rot3': 0, 'rot2': 0, 'depth': 0.317, 'yaw': 0.0, 'datetime': '2018-12-18 14:08:28.734120', 'mgs': 0, 'flw2': 0.0, 'flw1': 0.5, 'flw0': 0.0, 'time': 15.48, 'compass': 3.14, 'pitch': -2.62, 'roll': -1.23}
{'lipoC2': 0.26, 'temp': 0.0, 'lipoC3S3': 0.0, 'state': 'normal', 'rot1': 0, 'rot0': 0, 'rot3': 0, 'rot2': 0, 'depth': -0.14, 'yaw': 0.0, 'datetime': '2018-12-18 14:08:28.943029', 'mgs': 0, 'flw2': 0.0, 'flw1': 0.79, 'flw0': 0.0, 'time': 15.69, 'compass': 3.14, 'pitch': -2.62, 'roll': -1.23}
{'lipoC2': 0.32, 'temp': 0.0, 'lipoC3S3': 0.0, 'state': 'normal', 'rot1': 0, 'rot0': 0, 'rot3': 0, 'rot2': 0, 'depth': 0.47, 'yaw': 0.0, 'datetime': '2018-12-18 14:08:29.148296', 'mgs': 0, 'flw2': 0.0, 'flw1': 0.0, 'flw0': 0.39, 'time': 15.9, 'compass': 3.14, 'pitch': -2.62, 'roll': -1.23}
{'lipoC2': 0.25, 'temp': 0.0, 'lipoC3S3': 0.0, 'state': 'normal', 'rot1': 0, 'rot0': 0, 'rot3': 0, 'rot2': 0, 'depth': -2.124, 'yaw': 0.0, 'datetime': '2018-12-18 14:08:29.357471', 'mgs': 0, 'flw2': 0.0, 'flw1': 0.88, 'flw0': 0.0, 'time': 16.1, 'compass': 3.14, 'pitch': -2.62, 'roll': -1.23}
{'lipoC2': 0.0, 'temp': 0.0, 'lipoC3S3': 0.03, 'state': 'normal', 'rot1': 0, 'rot0': 0, 'rot3': 0, 'rot2': 0, 'depth': -0.903, 'yaw': 0.0, 'datetime': '2018-12-18 14:08:32.101274', 'mgs': 0, 'flw2': 0.0, 'flw1': 0.41, 'flw0': 0.0, 'time': 1.26, 'compass': 3.14, 'pitch': -2.62, 'roll': -1.23}
