{'lipoC2': 0.05, 'temp': 0.0, 'lipoC3S3': 12.21, 'state': 'normal', 'rot1': 0, 'rot0': 0, 'rot3': 0, 'rot2': 0, 'depth': 0.317, 'yaw': 0.0, 'datetime': '2018-12-18 17:40:41.757954', 'mgs': 0, 'flw2': 0.18, 'flw1': 0.0, 'flw0': 0.0, 'time': 1.26, 'compass': -26.42, 'pitch': -0.81, 'roll': -0.48}
{'lipoC2': 0.0, 'temp': 0.0, 'lipoC3S3': 12.54, 'state': 'normal', 'rot1': 0, 'rot0': 0, 'rot3': 0, 'rot2': 0, 'depth': 1.767, 'yaw': -0.0, 'datetime': '2018-12-18 17:40:41.964742', 'mgs': 0, 'flw2': 0.18, 'flw1': 0.0, 'flw0': 0.0, 'time': 1.46, 'compass': -26.42, 'pitch': -0.82, 'roll': -0.44}
{'lipoC2': 0.05, 'temp': 0.0, 'lipoC3S3': 12.47, 'state': 'normal', 'rot1': 0, 'rot0': 0, 'rot3': 0, 'rot2': 0, 'depth': -1.666, 'yaw': -0.0, 'datetime': '2018-12-18 17:40:42.173476', 'mgs': 0, 'flw2': 0.0, 'flw1': 0.23, 'flw0': 0.12, 'time': 1.67, 'compass': -26.43, 'pitch': -0.83, 'roll': -0.33}
{'lipoC2': 0.11, 'temp': 0.0, 'lipoC3S3': 12.19, 'state': 'normal', 'rot1': 0, 'rot0': 0, 'rot3': 0, 'rot2': 0, 'depth': 1.08, 'yaw': -0.0, 'datetime': '2018-12-18 17:40:42.381625', 'mgs': 0, 'flw2': 0.12, 'flw1': 0.23, 'flw0': 0.0, 'time': 1.88, 'compass': -26.43, 'pitch': -0.79, 'roll': -0.23}
{'lipoC2': 0.08, 'temp': 0.0, 'lipoC3S3': 12.43, 'state': 'normal', 'rot1': 0, 'rot0': 0, 'rot3': 0, 'rot2': 0, 'depth': -1.895, 'yaw': -0.0, 'datetime': '2018-12-18 17:40:42.589669', 'mgs': 0, 'flw2': 0.0, 'flw1': 0.38, 'flw0': 0.01, 'time': 2.09, 'compass': -26.43, 'pitch': -0.76, 'roll': -0.14}
{'lipoC2': 0.08, 'temp': 0.0, 'lipoC3S3': 12.19, 'state': 'normal', 'rot1': 0, 'rot0': 0, 'rot3': 0, 'rot2': 0, 'depth': 0.47, 'yaw': -0.0, 'datetime': '2018-12-18 17:40:42.797811', 'mgs': 0, 'flw2': 0.17, 'flw1': 0.03, 'flw0': 0.0, 'time': 2.3, 'compass': -26.43, 'pitch': -0.76, 'roll': -0.14}
{'lipoC2': 0.0, 'temp': 0.0, 'lipoC3S3': 12.41, 'state': 'normal', 'rot1': 0, 'rot0': 0, 'rot3': 0, 'rot2': 0, 'depth': 0.623, 'yaw': -0.0, 'datetime': '2018-12-18 17:40:43.006825', 'mgs': 0, 'flw2': 0.12, 'flw1': 0.0, 'flw0': 0.05, 'time': 2.5, 'compass': -26.43, 'pitch': -0.9, 'roll': -0.13}
{'lipoC2': 0.0, 'temp': 0.0, 'lipoC3S3': 12.56, 'state': 'normal', 'rot1': 0, 'rot0': 0, 'rot3': 0, 'rot2': 0, 'depth': 1.691, 'yaw': -0.0, 'datetime': '2018-12-18 17:40:43.214152', 'mgs': 0, 'flw2': 0.0, 'flw1': 0.18, 'flw0': 0.16, 'time': 2.71, 'compass': -26.43, 'pitch': -0.91, 'roll': -0.18}
{'lipoC2': 0.0, 'temp': 0.0, 'lipoC3S3': 12.26, 'state': 'normal', 'rot1': 0, 'rot0': 0, 'rot3': 0, 'rot2': 0, 'depth': -0.446, 'yaw': -0.0, 'datetime': '2018-12-18 17:40:43.423640', 'mgs': 0, 'flw2': 0.01, 'flw1': 0.0, 'flw0': 0.16, 'time': 2.92, 'compass': -26.43, 'pitch': -0.88, 'roll': -0.31}
{'lipoC2': 0.02, 'temp': 0.0, 'lipoC3S3': 12.23, 'state': 'normal', 'rot1': 0, 'rot0': 0, 'rot3': 0, 'rot2': 0, 'depth': 0.089, 'yaw': -0.0, 'datetime': '2018-12-18 17:40:43.631453', 'mgs': 0, 'flw2': 0.13, 'flw1': 0.0, 'flw0': 0.0, 'time': 3.13, 'compass': -26.43, 'pitch': -0.87, 'roll': -0.31}
{'lipoC2': 0.0, 'temp': 0.0, 'lipoC3S3': 12.43, 'state': 'normal', 'rot1': 0, 'rot0': 0, 'rot3': 0, 'rot2': 0, 'depth': -0.369, 'yaw': -0.0, 'datetime': '2018-12-18 17:40:43.839895', 'mgs': 0, 'flw2': 0.0, 'flw1': 0.41, 'flw0': 0.02, 'time': 3.34, 'compass': -26.43, 'pitch': -0.87, 'roll': -0.31}
{'lipoC2': 0.0, 'temp': 0.0, 'lipoC3S3': 12.51, 'state': 'normal', 'rot1': 0, 'rot0': 0, 'rot3': 0, 'rot2': 0, 'depth': 1.614, 'yaw': -0.0, 'datetime': '2018-12-18 17:40:44.048091', 'mgs': 0, 'flw2': 0.0, 'flw1': 0.0, 'flw0': 0.0, 'time': 3.54, 'compass': -26.43, 'pitch': -0.87, 'roll': -0.31}
{'lipoC2': 0.11, 'temp': 0.0, 'lipoC3S3': 12.42, 'state': 'normal', 'rot1': 0, 'rot0': 0, 'rot3': 0, 'rot2': 0, 'depth': -1.59, 'yaw': -0.0, 'datetime': '2018-12-18 17:40:44.256356', 'mgs': 0, 'flw2': 0.0, 'flw1': 0.44, 'flw0': 0.0, 'time': 3.75, 'compass': -26.43, 'pitch': -0.92, 'roll': -0.32}
{'lipoC2': 0.0, 'temp': 0.0, 'lipoC3S3': 12.51, 'state': 'normal', 'rot1': 0, 'rot0': 0, 'rot3': 0, 'rot2': 0, 'depth': -1.666, 'yaw': -0.0, 'datetime': '2018-12-18 17:40:44.465351', 'mgs': 0, 'flw2': 0.0, 'flw1': 0.21, 'flw0': 0.17, 'time': 3.96, 'compass': -26.43, 'pitch': -1.05, 'roll': -0.32}
{'lipoC2': 0.0, 'temp': 0.0, 'lipoC3S3': 12.51, 'state': 'normal', 'rot1': 0, 'rot0': 0, 'rot3': 0, 'rot2': 0, 'depth': 1.385, 'yaw': -0.0, 'datetime': '2018-12-18 17:40:44.672295', 'mgs': 0, 'flw2': 0.0, 'flw1': 0.15, 'flw0': 0.18, 'time': 4.17, 'compass': -26.43, 'pitch': -1.05, 'roll': -0.33}
{'lipoC2': 0.1, 'temp': 0.0, 'lipoC3S3': 12.42, 'state': 'normal', 'rot1': 0, 'rot0': 0, 'rot3': 0, 'rot2': 0, 'depth': -1.819, 'yaw': -0.0, 'datetime': '2018-12-18 17:40:44.881705', 'mgs': 0, 'flw2': 0.0, 'flw1': 0.44, 'flw0': 0.0, 'time': 4.38, 'compass': -26.43, 'pitch': -1.02, 'roll': -0.35}
{'lipoC2': 0.03, 'temp': 0.0, 'lipoC3S3': 12.25, 'state': 'normal', 'rot1': 0, 'rot0': 0, 'rot3': 0, 'rot2': 0, 'depth': 0.317, 'yaw': -0.0, 'datetime': '2018-12-18 17:40:45.089461', 'mgs': 0, 'flw2': 0.0, 'flw1': 0.29, 'flw0': 0.13, 'time': 4.58, 'compass': -26.43, 'pitch': -0.94, 'roll': -0.35}
{'lipoC2': 0.13, 'temp': 0.0, 'lipoC3S3': 12.38, 'state': 'normal', 'rot1': 0, 'rot0': 0, 'rot3': 0, 'rot2': 0, 'depth': -1.59, 'yaw': -0.0, 'datetime': '2018-12-18 17:40:45.298201', 'mgs': 0, 'flw2': 0.06, 'flw1': 0.0, 'flw0': 0.13, 'time': 4.79, 'compass': -26.43, 'pitch': -0.94, 'roll': -0.35}
{'lipoC2': 0.0, 'temp': 0.0, 'lipoC3S3': 12.56, 'state': 'normal', 'rot1': 0, 'rot0': 0, 'rot3': 0, 'rot2': 0, 'depth': 1.767, 'yaw': -0.0, 'datetime': '2018-12-18 17:40:45.505542', 'mgs': 0, 'flw2': 0.0, 'flw1': 0.0, 'flw0': 0.21, 'time': 5.0, 'compass': -26.43, 'pitch': -1.02, 'roll': -0.35}
{'lipoC2': 0.14, 'temp': 0.0, 'lipoC3S3': 12.3, 'state': 'normal', 'rot1': 0, 'rot0': 0, 'rot3': 0, 'rot2': 0, 'depth': -0.598, 'yaw': -0.0, 'datetime': '2018-12-18 17:40:45.714900', 'mgs': 0, 'flw2': 0.02, 'flw1': 0.0, 'flw0': 0.16, 'time': 5.21, 'compass': -26.43, 'pitch': -1.03, 'roll': -0.34}
{'lipoC2': 0.0, 'temp': 0.0, 'lipoC3S3': 12.22, 'state': 'normal', 'rot1': 0, 'rot0': 0, 'rot3': 0, 'rot2': 0, 'depth': -0.903, 'yaw': -0.0, 'datetime': '2018-12-18 17:40:45.924262', 'mgs': 0, 'flw2': 0.11, 'flw1': 0.32, 'flw0': 0.0, 'time': 5.42, 'compass': -26.43, 'pitch': -1.02, 'roll': -0.35}
{'lipoC2': 0.0, 'temp': 0.0, 'lipoC3S3': 12.54, 'state': 'normal', 'rot1': 0, 'rot0': 0, 'rot3': 0, 'rot2': 0, 'depth': 1.538, 'yaw': -0.0, 'datetime': '2018-12-18 17:40:46.131074', 'mgs': 0, 'flw2': 0.18, 'flw1': 0.03, 'flw0': 0.0, 'time': 5.62, 'compass': -26.43, 'pitch': -1.01, 'roll': -0.35}
{'lipoC2': 0.06, 'temp': 0.0, 'lipoC3S3': 12.18, 'state': 'normal', 'rot1': 0, 'rot0': 0, 'rot3': 0, 'rot2': 0, 'depth': 0.394, 'yaw': -0.0, 'datetime': '2018-12-18 17:40:46.340402', 'mgs': 0, 'flw2': 0.16, 'flw1': 0.12, 'flw0': 0.0, 'time': 5.83, 'compass': -26.43, 'pitch': -1.01, 'roll': -0.35}
{'lipoC2': 0.06, 'temp': 0.0, 'lipoC3S3': 12.19, 'state': 'normal', 'rot1': 0, 'rot0': 0, 'rot3': 0, 'rot2': 0, 'depth': 0.47, 'yaw': -0.0, 'datetime': '2018-12-18 17:40:46.546977', 'mgs': 0, 'flw2': 0.0, 'flw1': 0.12, 'flw0': 0.18, 'time': 6.04, 'compass': -26.43, 'pitch': -1.04, 'roll': -0.34}
{'lipoC2': 0.11, 'temp': 0.0, 'lipoC3S3': 12.19, 'state': 'normal', 'rot1': 0, 'rot0': 0, 'rot3': 0, 'rot2': 0, 'depth': 1.004, 'yaw': -0.0, 'datetime': '2018-12-18 17:40:46.755108', 'mgs': 0, 'flw2': 0.0, 'flw1': 0.0, 'flw0': 0.2, 'time': 6.25, 'compass': -26.43, 'pitch': -1.04, 'roll': -0.34}
{'lipoC2': 0.0, 'temp': 0.0, 'lipoC3S3': 12.23, 'state': 'normal', 'rot1': 0, 'rot0': 0, 'rot3': 0, 'rot2': 0, 'depth': -1.056, 'yaw': -0.0, 'datetime': '2018-12-18 17:40:46.963408', 'mgs': 0, 'flw2': 0.02, 'flw1': 0.0, 'flw0': 0.15, 'time': 6.45, 'compass': -26.43, 'pitch': -1.04, 'roll': -0.34}
{'lipoC2': 0.1, 'temp': 0.0, 'lipoC3S3': 12.42, 'state': 'normal', 'rot1': 0, 'rot0': 0, 'rot3': 0, 'rot2': 0, 'depth': -1.819, 'yaw': -0.0, 'datetime': '2018-12-18 17:40:47.172653', 'mgs': 0, 'flw2': 0.21, 'flw1': 0.0, 'flw0': 0.0, 'time': 6.66, 'compass': -26.43, 'pitch': -0.98, 'roll': -0.34}
{'lipoC2': 0.0, 'temp': 0.0, 'lipoC3S3': 12.54, 'state': 'normal', 'rot1': 0, 'rot0': 0, 'rot3': 0, 'rot2': 0, 'depth': 1.385, 'yaw': -0.0, 'datetime': '2018-12-18 17:40:47.381614', 'mgs': 0, 'flw2': 0.0, 'flw1': 0.18, 'flw0': 0.16, 'time': 6.87, 'compass': -26.43, 'pitch': -0.98, 'roll': -0.34}
{'lipoC2': 0.08, 'temp': 0.0, 'lipoC3S3': 12.18, 'state': 'normal', 'rot1': 0, 'rot0': 0, 'rot3': 0, 'rot2': 0, 'depth': 1.309, 'yaw': 0.0, 'datetime': '2018-12-18 17:40:47.590109', 'mgs': 0, 'flw2': 0.0, 'flw1': 0.0, 'flw0': 0.2, 'time': 7.08, 'compass': -26.42, 'pitch': -1.16, 'roll': -0.34}
{'lipoC2': 0.0, 'temp': 0.0, 'lipoC3S3': 12.39, 'state': 'normal', 'rot1': 0, 'rot0': 0, 'rot3': 0, 'rot2': 0, 'depth': 0.928, 'yaw': -0.0, 'datetime': '2018-12-18 17:40:47.799081', 'mgs': 0, 'flw2': 0.11, 'flw1': 0.0, 'flw0': 0.1, 'time': 7.29, 'compass': -26.42, 'pitch': -1.32, 'roll': -0.31}
{'lipoC2': 0.05, 'temp': 0.0, 'lipoC3S3': 12.18, 'state': 'normal', 'rot1': 0, 'rot0': 0, 'rot3': 0, 'rot2': 0, 'depth': 0.47, 'yaw': -0.0, 'datetime': '2018-12-18 17:40:48.005446', 'mgs': 0, 'flw2': 0.18, 'flw1': 0.0, 'flw0': 0.39, 'time': 7.49, 'compass': -26.42, 'pitch': -1.28, 'roll': -0.31}
{'lipoC2': 0.06, 'temp': 0.0, 'lipoC3S3': 12.18, 'state': 'normal', 'rot1': 0, 'rot0': 0, 'rot3': 0, 'rot2': 0, 'depth': 1.309, 'yaw': -0.0, 'datetime': '2018-12-18 17:40:48.214260', 'mgs': 0, 'flw2': 0.0, 'flw1': 0.0, 'flw0': 0.38, 'time': 7.7, 'compass': -26.43, 'pitch': -1.08, 'roll': -0.31}
{'lipoC2': 0.0, 'temp': 0.0, 'lipoC3S3': 12.43, 'state': 'normal', 'rot1': 1, 'rot0': 0, 'rot3': 0, 'rot2': 0, 'depth': 0.775, 'yaw': -0.56, 'datetime': '2018-12-18 17:40:48.422372', 'mgs': 0, 'flw2': 0.0, 'flw1': 0.44, 'flw0': 2.91, 'time': 7.91, 'compass': -26.99, 'pitch': -0.63, 'roll': -0.4}
{'lipoC2': 0.14, 'temp': 0.0, 'lipoC3S3': 12.39, 'state': 'normal', 'rot1': 4, 'rot0': 0, 'rot3': 0, 'rot2': 0, 'depth': -1.437, 'yaw': -4.1, 'datetime': '2018-12-18 17:40:48.630000', 'mgs': 0, 'flw2': 0.11, 'flw1': 0.0, 'flw0': 3.04, 'time': 8.12, 'compass': -30.52, 'pitch': 0.85, 'roll': -0.89}
{'lipoC2': 0.0, 'temp': 0.0, 'lipoC3S3': 12.42, 'state': 'normal', 'rot1': 6, 'rot0': 0, 'rot3': 0, 'rot2': 0, 'depth': 0.546, 'yaw': -10.55, 'datetime': '2018-12-18 17:40:48.837135', 'mgs': 0, 'flw2': 0.13, 'flw1': 0.0, 'flw0': 2.97, 'time': 8.33, 'compass': -36.98, 'pitch': 1.69, 'roll': -1.35}
{'lipoC2': 0.12, 'temp': 0.0, 'lipoC3S3': 12.56, 'state': 'normal', 'rot1': 8, 'rot0': 0, 'rot3': 0, 'rot2': 0, 'depth': -1.971, 'yaw': -18.89, 'datetime': '2018-12-18 17:40:49.045839', 'mgs': 0, 'flw2': 0.27, 'flw1': 0.15, 'flw0': 2.61, 'time': 8.53, 'compass': -45.32, 'pitch': 1.45, 'roll': -1.49}
{'lipoC2': 0.0, 'temp': 0.0, 'lipoC3S3': 12.48, 'state': 'normal', 'rot1': 11, 'rot0': 1, 'rot3': 0, 'rot2': 0, 'depth': 2.148, 'yaw': -27.79, 'datetime': '2018-12-18 17:40:49.254251', 'mgs': 0, 'flw2': 2.94, 'flw1': 0.0, 'flw0': 3.0, 'time': 8.74, 'compass': -54.21, 'pitch': 1.41, 'roll': -1.32}
{'lipoC2': 0.1, 'temp': 0.0, 'lipoC3S3': 12.42, 'state': 'normal', 'rot1': 14, 'rot0': 3, 'rot3': 0, 'rot2': 0, 'depth': -1.895, 'yaw': -35.19, 'datetime': '2018-12-18 17:40:49.461056', 'mgs': 0, 'flw2': 2.91, 'flw1': 0.0, 'flw0': 2.91, 'time': 8.95, 'compass': -61.61, 'pitch': 3.22, 'roll': -0.89}
{'lipoC2': 0.06, 'temp': 0.0, 'lipoC3S3': 12.18, 'state': 'normal', 'rot1': 17, 'rot0': 6, 'rot3': 0, 'rot2': 0, 'depth': 1.309, 'yaw': -40.5, 'datetime': '2018-12-18 17:40:49.671357', 'mgs': 0, 'flw2': 2.56, 'flw1': 0.18, 'flw0': 3.13, 'time': 9.16, 'compass': -66.92, 'pitch': 4.92, 'roll': -0.46}
{'lipoC2': 0.01, 'temp': 0.0, 'lipoC3S3': 12.5, 'state': 'normal', 'rot1': 19, 'rot0': 8, 'rot3': 0, 'rot2': 0, 'depth': -0.98, 'yaw': -44.26, 'datetime': '2018-12-18 17:40:49.881260', 'mgs': 0, 'flw2': 2.59, 'flw1': 0.23, 'flw0': 3.11, 'time': 9.37, 'compass': -70.68, 'pitch': 5.19, 'roll': -0.26}
{'lipoC2': 0.06, 'temp': 0.0, 'lipoC3S3': 12.43, 'state': 'normal', 'rot1': 21, 'rot0': 10, 'rot3': 0, 'rot2': 0, 'depth': 1.843, 'yaw': -47.32, 'datetime': '2018-12-18 17:40:50.089089', 'mgs': 0, 'flw2': 2.76, 'flw1': 0.56, 'flw0': 2.95, 'time': 9.57, 'compass': -73.74, 'pitch': 4.56, 'roll': -0.4}
{'lipoC2': 0.11, 'temp': 0.0, 'lipoC3S3': 12.41, 'state': 'normal', 'rot1': 24, 'rot0': 13, 'rot3': 0, 'rot2': 0, 'depth': -1.895, 'yaw': -49.84, 'datetime': '2018-12-18 17:40:50.298463', 'mgs': 0, 'flw2': 2.88, 'flw1': 0.5, 'flw0': 2.95, 'time': 9.78, 'compass': -76.27, 'pitch': 3.97, 'roll': -0.79}
{'lipoC2': 0.0, 'temp': 0.0, 'lipoC3S3': 12.6, 'state': 'normal', 'rot1': 27, 'rot0': 15, 'rot3': 0, 'rot2': 0, 'depth': 0.47, 'yaw': -52.0, 'datetime': '2018-12-18 17:40:50.506519', 'mgs': 0, 'flw2': 2.62, 'flw1': 0.03, 'flw0': 3.09, 'time': 9.99, 'compass': -78.42, 'pitch': 3.76, 'roll': -1.07}
{'lipoC2': 0.03, 'temp': 0.0, 'lipoC3S3': 12.23, 'state': 'normal', 'rot1': 29, 'rot0': 17, 'rot3': 0, 'rot2': 0, 'depth': 1.614, 'yaw': -54.03, 'datetime': '2018-12-18 17:40:50.716463', 'mgs': 0, 'flw2': 3.0, 'flw1': 0.0, 'flw0': 2.92, 'time': 10.2, 'compass': -80.45, 'pitch': 3.8, 'roll': -1.01}
{'lipoC2': 0.0, 'temp': 0.0, 'lipoC3S3': 12.42, 'state': 'normal', 'rot1': 31, 'rot0': 20, 'rot3': 0, 'rot2': 0, 'depth': 0.012, 'yaw': -55.92, 'datetime': '2018-12-18 17:40:50.925795', 'mgs': 0, 'flw2': 2.97, 'flw1': 0.0, 'flw0': 2.99, 'time': 10.41, 'compass': -82.35, 'pitch': 3.83, 'roll': -0.87}
{'lipoC2': 0.04, 'temp': 0.0, 'lipoC3S3': 12.22, 'state': 'normal', 'rot1': 34, 'rot0': 23, 'rot3': 0, 'rot2': 0, 'depth': 0.546, 'yaw': -57.6, 'datetime': '2018-12-18 17:40:51.136089', 'mgs': 0, 'flw2': 2.99, 'flw1': 0.0, 'flw0': 2.84, 'time': 10.62, 'compass': -84.03, 'pitch': 3.8, 'roll': -0.54}
{'lipoC2': 0.0, 'temp': 0.0, 'lipoC3S3': 12.23, 'state': 'normal', 'rot1': 36, 'rot0': 25, 'rot3': 0, 'rot2': 0, 'depth': -0.598, 'yaw': -59.1, 'datetime': '2018-12-18 17:40:51.343868', 'mgs': 0, 'flw2': 2.92, 'flw1': 0.0, 'flw0': 3.14, 'time': 10.83, 'compass': -85.53, 'pitch': 3.47, 'roll': -0.14}
{'lipoC2': 0.01, 'temp': 0.0, 'lipoC3S3': 12.48, 'state': 'normal', 'rot1': 39, 'rot0': 27, 'rot3': 0, 'rot2': 0, 'depth': 1.614, 'yaw': -60.56, 'datetime': '2018-12-18 17:40:51.550354', 'mgs': 0, 'flw2': 3.04, 'flw1': 0.0, 'flw0': 2.92, 'time': 11.03, 'compass': -86.99, 'pitch': 3.19, 'roll': 0.22}
{'lipoC2': 0.0, 'temp': 0.0, 'lipoC3S3': 12.46, 'state': 'normal', 'rot1': 41, 'rot0': 30, 'rot3': 0, 'rot2': 0, 'depth': 1.157, 'yaw': -61.61, 'datetime': '2018-12-18 17:40:51.762079', 'mgs': 0, 'flw2': 3.02, 'flw1': 0.0, 'flw0': 2.98, 'time': 11.24, 'compass': -88.04, 'pitch': 3.1, 'roll': 0.32}
{'lipoC2': 0.11, 'temp': 0.0, 'lipoC3S3': 12.18, 'state': 'normal', 'rot1': 44, 'rot0': 32, 'rot3': 0, 'rot2': 0, 'depth': 1.157, 'yaw': -62.6, 'datetime': '2018-12-18 17:40:51.969817', 'mgs': 0, 'flw2': 3.16, 'flw1': 0.0, 'flw0': 3.11, 'time': 11.45, 'compass': -89.03, 'pitch': 3.32, 'roll': 0.19}
{'lipoC2': 0.14, 'temp': 0.0, 'lipoC3S3': 12.35, 'state': 'normal', 'rot1': 46, 'rot0': 35, 'rot3': 0, 'rot2': 0, 'depth': 1.767, 'yaw': -63.56, 'datetime': '2018-12-18 17:40:52.181999', 'mgs': 0, 'flw2': 2.93, 'flw1': 0.29, 'flw0': 2.94, 'time': 11.66, 'compass': -89.98, 'pitch': 3.59, 'roll': 0.05}
{'lipoC2': 0.0, 'temp': 0.0, 'lipoC3S3': 12.58, 'state': 'normal', 'rot1': 49, 'rot0': 37, 'rot3': 0, 'rot2': 0, 'depth': 0.165, 'yaw': -64.44, 'datetime': '2018-12-18 17:40:52.389947', 'mgs': 0, 'flw2': 3.03, 'flw1': 0.26, 'flw0': 2.84, 'time': 11.87, 'compass': -90.87, 'pitch': 3.79, 'roll': -0.01}
{'lipoC2': 0.0, 'temp': 0.0, 'lipoC3S3': 12.54, 'state': 'normal', 'rot1': 52, 'rot0': 40, 'rot3': 0, 'rot2': 0, 'depth': -1.666, 'yaw': -65.18, 'datetime': '2018-12-18 17:40:52.599080', 'mgs': 0, 'flw2': 2.58, 'flw1': 0.29, 'flw0': 3.14, 'time': 12.08, 'compass': -91.6, 'pitch': 3.97, 'roll': 0.05}
{'lipoC2': 0.0, 'temp': 0.0, 'lipoC3S3': 12.42, 'state': 'normal', 'rot1': 54, 'rot0': 42, 'rot3': 0, 'rot2': 0, 'depth': 0.241, 'yaw': -66.02, 'datetime': '2018-12-18 17:40:52.806014', 'mgs': 0, 'flw2': 3.0, 'flw1': 0.0, 'flw0': 2.86, 'time': 12.29, 'compass': -92.45, 'pitch': 3.98, 'roll': 0.04}
{'lipoC2': 0.06, 'temp': 0.0, 'lipoC3S3': 12.19, 'state': 'normal', 'rot1': 56, 'rot0': 45, 'rot3': 0, 'rot2': 0, 'depth': 1.385, 'yaw': -66.8, 'datetime': '2018-12-18 17:40:53.015958', 'mgs': 0, 'flw2': 3.02, 'flw1': 0.0, 'flw0': 3.26, 'time': 12.49, 'compass': -93.22, 'pitch': 3.98, 'roll': 0.0}
{'lipoC2': 0.0, 'temp': 0.0, 'lipoC3S3': 12.56, 'state': 'normal', 'rot1': 59, 'rot0': 47, 'rot3': 0, 'rot2': 0, 'depth': 1.691, 'yaw': -67.6, 'datetime': '2018-12-18 17:40:53.227286', 'mgs': 0, 'flw2': 2.89, 'flw1': 0.0, 'flw0': 2.71, 'time': 12.7, 'compass': -94.03, 'pitch': 3.98, 'roll': 0.01}
{'lipoC2': 0.02, 'temp': 0.0, 'lipoC3S3': 12.47, 'state': 'normal', 'rot1': 61, 'rot0': 49, 'rot3': 0, 'rot2': 0, 'depth': -0.827, 'yaw': -68.54, 'datetime': '2018-12-18 17:40:53.435949', 'mgs': 0, 'flw2': 2.53, 'flw1': 0.35, 'flw0': 3.05, 'time': 12.91, 'compass': -94.97, 'pitch': 4.06, 'roll': 0.08}
{'lipoC2': 0.04, 'temp': 0.0, 'lipoC3S3': 12.22, 'state': 'normal', 'rot1': 64, 'rot0': 52, 'rot3': 0, 'rot2': 0, 'depth': 0.623, 'yaw': -69.42, 'datetime': '2018-12-18 17:40:53.641278', 'mgs': 0, 'flw2': 2.6, 'flw1': 0.23, 'flw0': 3.08, 'time': 13.12, 'compass': -95.84, 'pitch': 4.15, 'roll': 0.12}
{'lipoC2': 0.13, 'temp': 0.0, 'lipoC3S3': 12.31, 'state': 'normal', 'rot1': 66, 'rot0': 54, 'rot3': 0, 'rot2': 0, 'depth': -0.903, 'yaw': -70.33, 'datetime': '2018-12-18 17:40:53.852624', 'mgs': 0, 'flw2': 2.77, 'flw1': 0.0, 'flw0': 3.06, 'time': 13.33, 'compass': -96.76, 'pitch': 4.33, 'roll': 0.19}
{'lipoC2': 0.02, 'temp': 0.0, 'lipoC3S3': 12.47, 'state': 'normal', 'rot1': 67, 'rot0': 56, 'rot3': 0, 'rot2': 0, 'depth': -1.056, 'yaw': -71.32, 'datetime': '2018-12-18 17:40:54.059340', 'mgs': 0, 'flw2': 3.08, 'flw1': 0.29, 'flw0': 0.12, 'time': 13.54, 'compass': -97.74, 'pitch': 3.79, 'roll': 0.26}
{'lipoC2': 0.0, 'temp': 0.0, 'lipoC3S3': 12.29, 'state': 'normal', 'rot1': 67, 'rot0': 58, 'rot3': 0, 'rot2': 0, 'depth': 0.546, 'yaw': -70.8, 'datetime': '2018-12-18 17:40:54.267376', 'mgs': 0, 'flw2': 2.93, 'flw1': 0.0, 'flw0': 0.18, 'time': 13.75, 'compass': -97.22, 'pitch': 1.99, 'roll': 0.56}
{'lipoC2': 0.0, 'temp': 0.0, 'lipoC3S3': 12.3, 'state': 'normal', 'rot1': 67, 'rot0': 61, 'rot3': 0, 'rot2': 0, 'depth': 0.699, 'yaw': -67.83, 'datetime': '2018-12-18 17:40:54.478486', 'mgs': 0, 'flw2': 2.91, 'flw1': 0.0, 'flw0': 0.18, 'time': 13.96, 'compass': -94.25, 'pitch': 1.48, 'roll': 1.19}
{'lipoC2': 0.0, 'temp': 0.0, 'lipoC3S3': 12.45, 'state': 'normal', 'rot1': 67, 'rot0': 63, 'rot3': 0, 'rot2': 0, 'depth': 1.004, 'yaw': -63.34, 'datetime': '2018-12-18 17:40:54.688072', 'mgs': 0, 'flw2': 2.59, 'flw1': 0.38, 'flw0': 0.0, 'time': 14.16, 'compass': -89.76, 'pitch': 1.88, 'roll': 1.83}
{'lipoC2': 0.0, 'temp': 0.0, 'lipoC3S3': 12.42, 'state': 'normal', 'rot1': 67, 'rot0': 66, 'rot3': 0, 'rot2': 0, 'depth': 0.699, 'yaw': -57.58, 'datetime': '2018-12-18 17:40:54.900076', 'mgs': 0, 'flw2': 2.91, 'flw1': 0.0, 'flw0': 0.09, 'time': 14.37, 'compass': -84.0, 'pitch': 2.12, 'roll': 2.35}
{'lipoC2': 0.0, 'temp': 0.0, 'lipoC3S3': 12.39, 'state': 'normal', 'rot1': 67, 'rot0': 69, 'rot3': 0, 'rot2': 0, 'depth': 0.851, 'yaw': -50.88, 'datetime': '2018-12-18 17:40:55.105893', 'mgs': 0, 'flw2': 2.8, 'flw1': 0.41, 'flw0': 0.0, 'time': 14.58, 'compass': -77.3, 'pitch': 2.04, 'roll': 2.85}
{'lipoC2': 0.06, 'temp': 0.0, 'lipoC3S3': 12.43, 'state': 'normal', 'rot1': 67, 'rot0': 71, 'rot3': 0, 'rot2': 0, 'depth': 1.843, 'yaw': -44.05, 'datetime': '2018-12-18 17:40:55.313193', 'mgs': 0, 'flw2': 2.98, 'flw1': 0.0, 'flw0': 0.01, 'time': 14.79, 'compass': -70.48, 'pitch': 2.06, 'roll': 3.31}
{'lipoC2': 0.09, 'temp': 0.0, 'lipoC3S3': 12.42, 'state': 'normal', 'rot1': 67, 'rot0': 74, 'rot3': 0, 'rot2': 0, 'depth': -1.743, 'yaw': -36.2, 'datetime': '2018-12-18 17:40:55.522921', 'mgs': 0, 'flw2': 2.99, 'flw1': 0.0, 'flw0': 0.1, 'time': 15.0, 'compass': -62.63, 'pitch': 2.37, 'roll': 3.64}
{'lipoC2': 0.0, 'temp': 0.0, 'lipoC3S3': 12.46, 'state': 'normal', 'rot1': 67, 'rot0': 76, 'rot3': 0, 'rot2': 0, 'depth': 1.385, 'yaw': -27.74, 'datetime': '2018-12-18 17:40:55.734900', 'mgs': 0, 'flw2': 2.76, 'flw1': 0.41, 'flw0': 0.0, 'time': 15.21, 'compass': -54.17, 'pitch': 2.77, 'roll': 3.86}
{'lipoC2': 0.0, 'temp': 0.0, 'lipoC3S3': 12.5, 'state': 'normal', 'rot1': 68, 'rot0': 78, 'rot3': 0, 'rot2': 0, 'depth': 1.691, 'yaw': -19.08, 'datetime': '2018-12-18 17:40:55.939751', 'mgs': 0, 'flw2': 2.78, 'flw1': 0.41, 'flw0': 3.5, 'time': 15.42, 'compass': -45.51, 'pitch': 2.94, 'roll': 4.38}
{'lipoC2': 0.0, 'temp': 0.0, 'lipoC3S3': 12.58, 'state': 'normal', 'rot1': 70, 'rot0': 81, 'rot3': 0, 'rot2': 0, 'depth': 1.767, 'yaw': -12.47, 'datetime': '2018-12-18 17:40:56.151752', 'mgs': 0, 'flw2': 2.95, 'flw1': 0.0, 'flw0': 2.73, 'time': 15.63, 'compass': -38.89, 'pitch': 3.86, 'roll': 4.58}
{'lipoC2': 0.0, 'temp': 0.0, 'lipoC3S3': 12.39, 'state': 'normal', 'rot1': 73, 'rot0': 83, 'rot3': 0, 'rot2': 0, 'depth': 0.928, 'yaw': -7.69, 'datetime': '2018-12-18 17:40:56.359545', 'mgs': 0, 'flw2': 0.16, 'flw1': 0.0, 'flw0': 2.98, 'time': 15.83, 'compass': -34.12, 'pitch': 5.31, 'roll': 4.5}
{'lipoC2': 0.01, 'temp': 0.0, 'lipoC3S3': 12.27, 'state': 'normal', 'rot1': 75, 'rot0': 83, 'rot3': 0, 'rot2': 0, 'depth': 1.538, 'yaw': -6.0, 'datetime': '2018-12-18 17:40:56.567691', 'mgs': 0, 'flw2': 0.0, 'flw1': 0.35, 'flw0': 3.03, 'time': 16.04, 'compass': -32.43, 'pitch': 4.64, 'roll': 4.19}
{'lipoC2': 0.03, 'temp': 0.0, 'lipoC3S3': 12.46, 'state': 'normal', 'rot1': 77, 'rot0': 83, 'rot3': 0, 'rot2': 0, 'depth': -1.208, 'yaw': -7.27, 'datetime': '2018-12-18 17:40:56.776489', 'mgs': 0, 'flw2': 2.84, 'flw1': 0.0, 'flw0': 2.82, 'time': 16.25, 'compass': -33.7, 'pitch': 2.57, 'roll': 3.43}
{'lipoC2': 0.08, 'temp': 0.0, 'lipoC3S3': 12.19, 'state': 'normal', 'rot1': 80, 'rot0': 86, 'rot3': 0, 'rot2': 0, 'depth': 1.309, 'yaw': -9.17, 'datetime': '2018-12-18 17:40:56.985421', 'mgs': 0, 'flw2': 2.5, 'flw1': 0.23, 'flw0': 3.11, 'time': 16.46, 'compass': -35.6, 'pitch': 2.37, 'roll': 2.69}
{'lipoC2': 0.09, 'temp': 0.0, 'lipoC3S3': 12.42, 'state': 'normal', 'rot1': 82, 'rot0': 88, 'rot3': 0, 'rot2': 0, 'depth': 1.843, 'yaw': -9.79, 'datetime': '2018-12-18 17:40:57.192366', 'mgs': 0, 'flw2': 2.86, 'flw1': 0.44, 'flw0': 2.98, 'time': 16.67, 'compass': -36.22, 'pitch': 4.08, 'roll': 2.5}
{'lipoC2': 0.13, 'temp': 0.0, 'lipoC3S3': 12.35, 'state': 'normal', 'rot1': 85, 'rot0': 91, 'rot3': 0, 'rot2': 0, 'depth': 1.843, 'yaw': -9.82, 'datetime': '2018-12-18 17:40:57.400865', 'mgs': 0, 'flw2': 2.91, 'flw1': 0.32, 'flw0': 2.83, 'time': 16.88, 'compass': -36.25, 'pitch': 4.95, 'roll': 2.47}
{'lipoC2': 0.13, 'temp': 0.0, 'lipoC3S3': 12.18, 'state': 'normal', 'rot1': 87, 'rot0': 93, 'rot3': 0, 'rot2': 0, 'depth': 0.546, 'yaw': -9.87, 'datetime': '2018-12-18 17:40:57.613244', 'mgs': 0, 'flw2': 2.86, 'flw1': 0.03, 'flw0': 2.62, 'time': 17.08, 'compass': -36.3, 'pitch': 4.38, 'roll': 2.45}
{'lipoC2': 0.0, 'temp': 0.0, 'lipoC3S3': 12.54, 'state': 'normal', 'rot1': 90, 'rot0': 96, 'rot3': 0, 'rot2': 0, 'depth': 1.691, 'yaw': -10.22, 'datetime': '2018-12-18 17:40:57.821205', 'mgs': 0, 'flw2': 2.98, 'flw1': 0.0, 'flw0': 3.09, 'time': 17.29, 'compass': -36.65, 'pitch': 3.43, 'roll': 2.61}
{'lipoC2': 0.06, 'temp': 0.0, 'lipoC3S3': 12.45, 'state': 'normal', 'rot1': 92, 'rot0': 98, 'rot3': 0, 'rot2': 0, 'depth': 1.843, 'yaw': -10.73, 'datetime': '2018-12-18 17:40:58.026471', 'mgs': 0, 'flw2': 2.8, 'flw1': 0.5, 'flw0': 3.05, 'time': 17.5, 'compass': -37.15, 'pitch': 2.58, 'roll': 2.71}
{'lipoC2': 0.1, 'temp': 0.0, 'lipoC3S3': 12.42, 'state': 'normal', 'rot1': 94, 'rot0': 100, 'rot3': 0, 'rot2': 0, 'depth': -1.666, 'yaw': -11.28, 'datetime': '2018-12-18 17:40:58.235980', 'mgs': 0, 'flw2': 2.82, 'flw1': 0.38, 'flw0': 2.99, 'time': 17.71, 'compass': -37.7, 'pitch': 2.16, 'roll': 2.75}
{'lipoC2': 0.0, 'temp': 0.0, 'lipoC3S3': 12.21, 'state': 'normal', 'rot1': 97, 'rot0': 103, 'rot3': 0, 'rot2': 0, 'depth': -0.674, 'yaw': -11.93, 'datetime': '2018-12-18 17:40:58.444570', 'mgs': 0, 'flw2': 2.71, 'flw1': 0.0, 'flw0': 3.11, 'time': 17.92, 'compass': -38.35, 'pitch': 2.13, 'roll': 2.78}
{'lipoC2': 0.0, 'temp': 0.0, 'lipoC3S3': 12.51, 'state': 'normal', 'rot1': 99, 'rot0': 105, 'rot3': 0, 'rot2': 0, 'depth': -1.819, 'yaw': -12.55, 'datetime': '2018-12-18 17:40:58.655187', 'mgs': 0, 'flw2': 2.55, 'flw1': 0.32, 'flw0': 3.23, 'time': 18.13, 'compass': -38.98, 'pitch': 2.27, 'roll': 2.69}
{'lipoC2': 0.05, 'temp': 0.0, 'lipoC3S3': 12.19, 'state': 'normal', 'rot1': 101, 'rot0': 108, 'rot3': 0, 'rot2': 0, 'depth': 1.614, 'yaw': -12.93, 'datetime': '2018-12-18 17:40:58.866300', 'mgs': 0, 'flw2': 2.87, 'flw1': 0.0, 'flw0': 3.09, 'time': 18.34, 'compass': -39.35, 'pitch': 2.37, 'roll': 2.57}
{'lipoC2': 0.13, 'temp': 0.0, 'lipoC3S3': 12.38, 'state': 'normal', 'rot1': 104, 'rot0': 110, 'rot3': 0, 'rot2': 0, 'depth': 1.843, 'yaw': -13.0, 'datetime': '2018-12-18 17:40:59.075230', 'mgs': 0, 'flw2': 2.97, 'flw1': 0.26, 'flw0': 2.83, 'time': 18.55, 'compass': -39.42, 'pitch': 2.38, 'roll': 2.64}
{'lipoC2': 0.0, 'temp': 0.0, 'lipoC3S3': 12.42, 'state': 'normal', 'rot1': 106, 'rot0': 112, 'rot3': 0, 'rot2': 0, 'depth': 0.699, 'yaw': -12.86, 'datetime': '2018-12-18 17:40:59.287390', 'mgs': 0, 'flw2': 2.91, 'flw1': 0.0, 'flw0': 2.93, 'time': 18.75, 'compass': -39.28, 'pitch': 2.39, 'roll': 2.89}
{'lipoC2': 0.04, 'temp': 0.0, 'lipoC3S3': 12.47, 'state': 'normal', 'rot1': 109, 'rot0': 115, 'rot3': 0, 'rot2': 0, 'depth': -1.208, 'yaw': -12.61, 'datetime': '2018-12-18 17:40:59.493345', 'mgs': 0, 'flw2': 2.61, 'flw1': 0.32, 'flw0': 2.97, 'time': 18.97, 'compass': -39.04, 'pitch': 2.27, 'roll': 2.96}
{'lipoC2': 0.13, 'temp': 0.0, 'lipoC3S3': 12.22, 'state': 'normal', 'rot1': 111, 'rot0': 118, 'rot3': 0, 'rot2': 0, 'depth': 0.928, 'yaw': -12.2, 'datetime': '2018-12-18 17:40:59.705672', 'mgs': 0, 'flw2': 2.92, 'flw1': 0.32, 'flw0': 2.84, 'time': 19.17, 'compass': -38.63, 'pitch': 2.28, 'roll': 2.95}
{'lipoC2': 0.09, 'temp': 0.0, 'lipoC3S3': 12.52, 'state': 'normal', 'rot1': 114, 'rot0': 120, 'rot3': 0, 'rot2': 0, 'depth': -1.666, 'yaw': -11.66, 'datetime': '2018-12-18 17:40:59.916604', 'mgs': 0, 'flw2': 2.92, 'flw1': 0.47, 'flw0': 3.02, 'time': 19.39, 'compass': -38.08, 'pitch': 2.54, 'roll': 2.93}
{'lipoC2': 0.06, 'temp': 0.0, 'lipoC3S3': 12.21, 'state': 'normal', 'rot1': 116, 'rot0': 123, 'rot3': 0, 'rot2': 0, 'depth': 1.385, 'yaw': -11.02, 'datetime': '2018-12-18 17:41:00.124651', 'mgs': 0, 'flw2': 2.58, 'flw1': 0.21, 'flw0': 3.19, 'time': 19.59, 'compass': -37.44, 'pitch': 2.93, 'roll': 2.86}
{'lipoC2': 0.01, 'temp': 0.0, 'lipoC3S3': 12.3, 'state': 'normal', 'rot1': 119, 'rot0': 125, 'rot3': 0, 'rot2': 0, 'depth': 1.614, 'yaw': -10.25, 'datetime': '2018-12-18 17:41:00.335432', 'mgs': 0, 'flw2': 2.55, 'flw1': 0.44, 'flw0': 3.05, 'time': 19.8, 'compass': -36.67, 'pitch': 3.04, 'roll': 2.74}
{'lipoC2': 0.04, 'temp': 0.0, 'lipoC3S3': 12.22, 'state': 'normal', 'rot1': 121, 'rot0': 128, 'rot3': 0, 'rot2': 0, 'depth': 1.462, 'yaw': -9.43, 'datetime': '2018-12-18 17:41:00.543614', 'mgs': 0, 'flw2': 2.54, 'flw1': 0.23, 'flw0': 3.03, 'time': 20.01, 'compass': -35.85, 'pitch': 3.11, 'roll': 2.62}
{'lipoC2': 0.0, 'temp': 0.0, 'lipoC3S3': 12.59, 'state': 'normal', 'rot1': 123, 'rot0': 130, 'rot3': 0, 'rot2': 0, 'depth': 0.089, 'yaw': -8.55, 'datetime': '2018-12-18 17:41:00.751585', 'mgs': 0, 'flw2': 2.86, 'flw1': 0.0, 'flw0': 3.23, 'time': 20.22, 'compass': -34.97, 'pitch': 3.39, 'roll': 2.56}
{'lipoC2': 0.09, 'temp': 0.0, 'lipoC3S3': 12.42, 'state': 'normal', 'rot1': 126, 'rot0': 133, 'rot3': 0, 'rot2': 0, 'depth': -1.59, 'yaw': -7.49, 'datetime': '2018-12-18 17:41:00.963164', 'mgs': 0, 'flw2': 2.92, 'flw1': 0.0, 'flw0': 3.09, 'time': 20.43, 'compass': -33.92, 'pitch': 3.48, 'roll': 2.59}
{'lipoC2': 0.11, 'temp': 0.0, 'lipoC3S3': 12.39, 'state': 'normal', 'rot1': 128, 'rot0': 135, 'rot3': 0, 'rot2': 0, 'depth': 1.92, 'yaw': -6.34, 'datetime': '2018-12-18 17:41:01.171683', 'mgs': 0, 'flw2': 2.82, 'flw1': 0.0, 'flw0': 3.09, 'time': 20.64, 'compass': -32.76, 'pitch': 3.56, 'roll': 2.56}
{'lipoC2': 0.0, 'temp': 0.0, 'lipoC3S3': 12.58, 'state': 'normal', 'rot1': 130, 'rot0': 137, 'rot3': 0, 'rot2': 0, 'depth': -1.132, 'yaw': -5.15, 'datetime': '2018-12-18 17:41:01.381810', 'mgs': 0, 'flw2': 2.65, 'flw1': 0.12, 'flw0': 3.22, 'time': 20.85, 'compass': -31.58, 'pitch': 3.7, 'roll': 2.6}
{'lipoC2': 0.1, 'temp': 0.0, 'lipoC3S3': 12.17, 'state': 'normal', 'rot1': 133, 'rot0': 140, 'rot3': 0, 'rot2': 0, 'depth': 1.004, 'yaw': -3.86, 'datetime': '2018-12-18 17:41:01.591947', 'mgs': 0, 'flw2': 2.47, 'flw1': 0.18, 'flw0': 3.09, 'time': 21.06, 'compass': -30.29, 'pitch': 3.81, 'roll': 2.67}
{'lipoC2': 0.15, 'temp': 0.0, 'lipoC3S3': 12.27, 'state': 'normal', 'rot1': 136, 'rot0': 142, 'rot3': 0, 'rot2': 0, 'depth': -0.446, 'yaw': -2.48, 'datetime': '2018-12-18 17:41:01.801902', 'mgs': 0, 'flw2': 3.1, 'flw1': 0.26, 'flw0': 2.67, 'time': 21.27, 'compass': -28.9, 'pitch': 3.64, 'roll': 2.56}
{'lipoC2': 0.03, 'temp': 0.0, 'lipoC3S3': 12.23, 'state': 'normal', 'rot1': 138, 'rot0': 144, 'rot3': 0, 'rot2': 0, 'depth': 0.47, 'yaw': -1.04, 'datetime': '2018-12-18 17:41:02.012091', 'mgs': 0, 'flw2': 3.02, 'flw1': 0.0, 'flw0': 2.83, 'time': 21.48, 'compass': -27.47, 'pitch': 3.39, 'roll': 2.44}
{'lipoC2': 0.11, 'temp': 0.0, 'lipoC3S3': 12.39, 'state': 'normal', 'rot1': 141, 'rot0': 147, 'rot3': 0, 'rot2': 0, 'depth': -1.285, 'yaw': 0.47, 'datetime': '2018-12-18 17:41:02.216059', 'mgs': 0, 'flw2': 3.03, 'flw1': 0.0, 'flw0': 2.99, 'time': 21.68, 'compass': -25.95, 'pitch': 3.37, 'roll': 2.36}
{'lipoC2': 0.0, 'temp': 0.0, 'lipoC3S3': 12.59, 'state': 'normal', 'rot1': 143, 'rot0': 149, 'rot3': 0, 'rot2': 0, 'depth': 1.767, 'yaw': 2.02, 'datetime': '2018-12-18 17:41:02.430609', 'mgs': 0, 'flw2': 2.77, 'flw1': 0.0, 'flw0': 3.13, 'time': 21.89, 'compass': -24.4, 'pitch': 3.25, 'roll': 2.49}
{'lipoC2': 0.06, 'temp': 0.0, 'lipoC3S3': 12.21, 'state': 'normal', 'rot1': 145, 'rot0': 152, 'rot3': 0, 'rot2': 0, 'depth': 1.614, 'yaw': 3.79, 'datetime': '2018-12-18 17:41:02.640973', 'mgs': 0, 'flw2': 3.08, 'flw1': 0.29, 'flw0': 3.15, 'time': 22.1, 'compass': -22.63, 'pitch': 3.18, 'roll': 2.66}
{'lipoC2': 0.0, 'temp': 0.0, 'lipoC3S3': 12.5, 'state': 'normal', 'rot1': 148, 'rot0': 154, 'rot3': 0, 'rot2': 0, 'depth': 1.538, 'yaw': 5.7, 'datetime': '2018-12-18 17:41:02.850453', 'mgs': 0, 'flw2': 2.61, 'flw1': 0.29, 'flw0': 3.16, 'time': 22.31, 'compass': -20.73, 'pitch': 3.29, 'roll': 2.86}
{'lipoC2': 0.06, 'temp': 0.0, 'lipoC3S3': 12.21, 'state': 'normal', 'rot1': 149, 'rot0': 155, 'rot3': 0, 'rot2': 0, 'depth': 0.623, 'yaw': 7.63, 'datetime': '2018-12-18 17:41:03.058676', 'mgs': 0, 'flw2': 0.16, 'flw1': 0.0, 'flw0': 0.0, 'time': 22.52, 'compass': -18.8, 'pitch': 2.58, 'roll': 3.08}
{'lipoC2': 0.13, 'temp': 0.0, 'lipoC3S3': 12.19, 'state': 'normal', 'rot1': 149, 'rot0': 155, 'rot3': 0, 'rot2': 0, 'depth': 0.928, 'yaw': 9.54, 'datetime': '2018-12-18 17:41:03.267959', 'mgs': 0, 'flw2': 0.0, 'flw1': 0.0, 'flw0': 0.21, 'time': 22.73, 'compass': -16.88, 'pitch': 0.02, 'roll': 3.15}
{'lipoC2': 0.14, 'temp': 0.0, 'lipoC3S3': 12.29, 'state': 'normal', 'rot1': 149, 'rot0': 155, 'rot3': 0, 'rot2': 0, 'depth': -0.903, 'yaw': 11.5, 'datetime': '2018-12-18 17:41:03.477077', 'mgs': 0, 'flw2': 0.0, 'flw1': 0.0, 'flw0': 0.2, 'time': 22.94, 'compass': -14.92, 'pitch': -1.29, 'roll': 3.07}
{'lipoC2': 0.1, 'temp': 0.0, 'lipoC3S3': 12.18, 'state': 'normal', 'rot1': 149, 'rot0': 155, 'rot3': 0, 'rot2': 0, 'depth': 0.623, 'yaw': 13.7, 'datetime': '2018-12-18 17:41:03.686693', 'mgs': 0, 'flw2': 0.0, 'flw1': 0.26, 'flw0': 0.18, 'time': 23.15, 'compass': -12.72, 'pitch': -1.12, 'roll': 2.82}
{'lipoC2': 0.08, 'temp': 0.0, 'lipoC3S3': 12.45, 'state': 'normal', 'rot1': 149, 'rot0': 155, 'rot3': 0, 'rot2': 0, 'depth': 1.767, 'yaw': 16.05, 'datetime': '2018-12-18 17:41:03.896180', 'mgs': 0, 'flw2': 0.0, 'flw1': 0.44, 'flw0': 0.02, 'time': 23.36, 'compass': -10.38, 'pitch': -0.71, 'roll': 2.45}
{'lipoC2': 0.09, 'temp': 0.0, 'lipoC3S3': 12.43, 'state': 'normal', 'rot1': 151, 'rot0': 155, 'rot3': 0, 'rot2': 0, 'depth': 1.92, 'yaw': 17.88, 'datetime': '2018-12-18 17:41:04.105779', 'mgs': 0, 'flw2': 0.0, 'flw1': 0.41, 'flw0': 2.89, 'time': 23.57, 'compass': -8.54, 'pitch': -0.41, 'roll': 1.96}
{'lipoC2': 0.0, 'temp': 0.0, 'lipoC3S3': 12.23, 'state': 'normal', 'rot1': 153, 'rot0': 155, 'rot3': 0, 'rot2': 0, 'depth': -0.674, 'yaw': 16.96, 'datetime': '2018-12-18 17:41:04.314733', 'mgs': 0, 'flw2': 0.0, 'flw1': 0.0, 'flw0': 3.13, 'time': 23.77, 'compass': -9.46, 'pitch': 0.53, 'roll': 1.22}
{'lipoC2': 0.02, 'temp': 0.0, 'lipoC3S3': 12.25, 'state': 'normal', 'rot1': 155, 'rot0': 155, 'rot3': 0, 'rot2': 0, 'depth': 0.241, 'yaw': 14.12, 'datetime': '2018-12-18 17:41:04.523322', 'mgs': 0, 'flw2': 0.0, 'flw1': 0.23, 'flw0': 3.05, 'time': 23.98, 'compass': -12.31, 'pitch': 0.85, 'roll': 0.75}
{'lipoC2': 0.0, 'temp': 0.0, 'lipoC3S3': 12.56, 'state': 'normal', 'rot1': 158, 'rot0': 155, 'rot3': 0, 'rot2': 0, 'depth': 1.767, 'yaw': 9.72, 'datetime': '2018-12-18 17:41:04.733060', 'mgs': 0, 'flw2': 0.17, 'flw1': 0.0, 'flw0': 2.58, 'time': 24.19, 'compass': -16.7, 'pitch': 0.41, 'roll': 0.39}
{'lipoC2': 0.14, 'temp': 0.0, 'lipoC3S3': 12.35, 'state': 'normal', 'rot1': 160, 'rot0': 156, 'rot3': 0, 'rot2': 0, 'depth': 1.843, 'yaw': 4.26, 'datetime': '2018-12-18 17:41:04.940922', 'mgs': 0, 'flw2': 2.22, 'flw1': 0.35, 'flw0': 2.76, 'time': 24.4, 'compass': -22.16, 'pitch': 0.45, 'roll': -0.02}
{'lipoC2': 0.0, 'temp': 0.0, 'lipoC3S3': 12.43, 'state': 'normal', 'rot1': 163, 'rot0': 158, 'rot3': 0, 'rot2': 0, 'depth': -0.369, 'yaw': -0.27, 'datetime': '2018-12-18 17:41:05.151503', 'mgs': 0, 'flw2': 1.92, 'flw1': 0.44, 'flw0': 2.92, 'time': 24.61, 'compass': -26.7, 'pitch': 1.86, 'roll': -0.07}
{'lipoC2': 0.12, 'temp': 0.0, 'lipoC3S3': 12.58, 'state': 'normal', 'rot1': 165, 'rot0': 160, 'rot3': 0, 'rot2': 0, 'depth': 0.851, 'yaw': -3.4, 'datetime': '2018-12-18 17:41:05.361865', 'mgs': 0, 'flw2': 1.83, 'flw1': 0.03, 'flw0': 3.11, 'time': 24.82, 'compass': -29.82, 'pitch': 2.77, 'roll': 0.22}
{'lipoC2': 0.11, 'temp': 0.0, 'lipoC3S3': 12.42, 'state': 'normal', 'rot1': 168, 'rot0': 162, 'rot3': 0, 'rot2': 0, 'depth': 1.843, 'yaw': -5.28, 'datetime': '2018-12-18 17:41:05.571031', 'mgs': 0, 'flw2': 2.99, 'flw1': 0.0, 'flw0': 2.87, 'time': 25.03, 'compass': -31.7, 'pitch': 2.73, 'roll': 0.59}
{'lipoC2': 0.0, 'temp': 0.0, 'lipoC3S3': 12.59, 'state': 'normal', 'rot1': 170, 'rot0': 165, 'rot3': 0, 'rot2': 0, 'depth': 0.165, 'yaw': -6.29, 'datetime': '2018-12-18 17:41:05.779552', 'mgs': 0, 'flw2': 2.92, 'flw1': 0.0, 'flw0': 2.98, 'time': 25.24, 'compass': -32.71, 'pitch': 2.83, 'roll': 0.9}
{'lipoC2': 0.0, 'temp': 0.0, 'lipoC3S3': 12.5, 'state': 'normal', 'rot1': 173, 'rot0': 167, 'rot3': 0, 'rot2': 0, 'depth': 1.614, 'yaw': -6.73, 'datetime': '2018-12-18 17:41:05.988710', 'mgs': 0, 'flw2': 2.69, 'flw1': 0.44, 'flw0': 3.03, 'time': 25.45, 'compass': -33.16, 'pitch': 3.18, 'roll': 1.06}
{'lipoC2': 0.01, 'temp': 0.0, 'lipoC3S3': 12.26, 'state': 'normal', 'rot1': 175, 'rot0': 169, 'rot3': 0, 'rot2': 0, 'depth': 0.012, 'yaw': -7.1, 'datetime': '2018-12-18 17:41:06.197985', 'mgs': 0, 'flw2': 2.88, 'flw1': 0.0, 'flw0': 2.73, 'time': 25.66, 'compass': -33.52, 'pitch': 3.43, 'roll': 1.18}
{'lipoC2': 0.03, 'temp': 0.0, 'lipoC3S3': 12.48, 'state': 'normal', 'rot1': 177, 'rot0': 172, 'rot3': 0, 'rot2': 0, 'depth': -0.98, 'yaw': -7.66, 'datetime': '2018-12-18 17:41:06.408285', 'mgs': 0, 'flw2': 2.51, 'flw1': 0.23, 'flw0': 3.04, 'time': 25.86, 'compass': -34.08, 'pitch': 3.23, 'roll': 1.22}
{'lipoC2': 0.0, 'temp': 0.0, 'lipoC3S3': 12.22, 'state': 'normal', 'rot1': 180, 'rot0': 174, 'rot3': 0, 'rot2': 0, 'depth': -0.598, 'yaw': -8.13, 'datetime': '2018-12-18 17:41:06.618184', 'mgs': 0, 'flw2': 2.89, 'flw1': 0.21, 'flw0': 2.69, 'time': 26.08, 'compass': -34.56, 'pitch': 2.9, 'roll': 1.03}
{'lipoC2': 0.0, 'temp': 0.0, 'lipoC3S3': 12.55, 'state': 'normal', 'rot1': 182, 'rot0': 176, 'rot3': 0, 'rot2': 0, 'depth': 2.148, 'yaw': -8.53, 'datetime': '2018-12-18 17:41:06.828807', 'mgs': 0, 'flw2': 2.56, 'flw1': 0.35, 'flw0': 2.98, 'time': 26.28, 'compass': -34.96, 'pitch': 2.68, 'roll': 0.57}
{'lipoC2': 0.15, 'temp': 0.0, 'lipoC3S3': 12.25, 'state': 'normal', 'rot1': 185, 'rot0': 179, 'rot3': 0, 'rot2': 0, 'depth': 1.309, 'yaw': -8.82, 'datetime': '2018-12-18 17:41:07.037675', 'mgs': 0, 'flw2': 2.75, 'flw1': 0.0, 'flw0': 3.11, 'time': 26.49, 'compass': -35.24, 'pitch': 2.62, 'roll': 0.18}
{'lipoC2': 0.0, 'temp': 0.0, 'lipoC3S3': 12.22, 'state': 'normal', 'rot1': 187, 'rot0': 181, 'rot3': 0, 'rot2': 0, 'depth': 1.843, 'yaw': -8.8, 'datetime': '2018-12-18 17:41:07.246748', 'mgs': 0, 'flw2': 3.05, 'flw1': 0.32, 'flw0': 2.76, 'time': 26.7, 'compass': -35.22, 'pitch': 2.62, 'roll': 0.15}
{'lipoC2': 0.1, 'temp': 0.0, 'lipoC3S3': 12.19, 'state': 'normal', 'rot1': 189, 'rot0': 184, 'rot3': 0, 'rot2': 0, 'depth': 0.623, 'yaw': -8.66, 'datetime': '2018-12-18 17:41:07.456447', 'mgs': 0, 'flw2': 2.71, 'flw1': 0.0, 'flw0': 3.27, 'time': 26.91, 'compass': -35.08, 'pitch': 2.31, 'roll': 0.14}
{'lipoC2': 0.12, 'temp': 0.0, 'lipoC3S3': 12.19, 'state': 'normal', 'rot1': 192, 'rot0': 186, 'rot3': 0, 'rot2': 0, 'depth': 1.08, 'yaw': -8.89, 'datetime': '2018-12-18 17:41:07.666185', 'mgs': 0, 'flw2': 2.91, 'flw1': 0.0, 'flw0': 3.33, 'time': 27.12, 'compass': -35.31, 'pitch': 2.0, 'roll': 0.14}
{'lipoC2': 0.0, 'temp': 0.0, 'lipoC3S3': 12.45, 'state': 'normal', 'rot1': 194, 'rot0': 189, 'rot3': 0, 'rot2': 0, 'depth': 1.309, 'yaw': -9.48, 'datetime': '2018-12-18 17:41:07.877316', 'mgs': 0, 'flw2': 2.91, 'flw1': 0.47, 'flw0': 2.88, 'time': 27.33, 'compass': -35.91, 'pitch': 2.0, 'roll': 0.11}
{'lipoC2': 0.0, 'temp': 0.0, 'lipoC3S3': 12.34, 'state': 'normal', 'rot1': 197, 'rot0': 191, 'rot3': 0, 'rot2': 0, 'depth': 0.928, 'yaw': -10.05, 'datetime': '2018-12-18 17:41:08.086910', 'mgs': 0, 'flw2': 2.92, 'flw1': 0.18, 'flw0': 2.91, 'time': 27.54, 'compass': -36.48, 'pitch': 2.17, 'roll': 0.13}
{'lipoC2': 0.0, 'temp': 0.0, 'lipoC3S3': 12.38, 'state': 'normal', 'rot1': 199, 'rot0': 194, 'rot3': 0, 'rot2': 0, 'depth': 0.394, 'yaw': -10.86, 'datetime': '2018-12-18 17:41:08.294332', 'mgs': 0, 'flw2': 2.78, 'flw1': 0.0, 'flw0': 3.14, 'time': 27.75, 'compass': -37.28, 'pitch': 2.25, 'roll': 0.02}
{'lipoC2': 0.12, 'temp': 0.0, 'lipoC3S3': 12.38, 'state': 'normal', 'rot1': 201, 'rot0': 196, 'rot3': 0, 'rot2': 0, 'depth': -1.437, 'yaw': -11.8, 'datetime': '2018-12-18 17:41:08.503310', 'mgs': 0, 'flw2': 2.81, 'flw1': 0.0, 'flw0': 3.04, 'time': 27.96, 'compass': -38.22, 'pitch': 2.28, 'roll': -0.29}
{'lipoC2': 0.05, 'temp': 0.0, 'lipoC3S3': 12.23, 'state': 'normal', 'rot1': 204, 'rot0': 198, 'rot3': 0, 'rot2': 0, 'depth': 1.385, 'yaw': -12.69, 'datetime': '2018-12-18 17:41:08.713075', 'mgs': 0, 'flw2': 2.93, 'flw1': 0.35, 'flw0': 3.14, 'time': 28.17, 'compass': -39.11, 'pitch': 2.34, 'roll': -0.45}
{'lipoC2': 0.0, 'temp': 0.0, 'lipoC3S3': 12.46, 'state': 'normal', 'rot1': 206, 'rot0': 201, 'rot3': 0, 'rot2': 0, 'depth': -1.056, 'yaw': -13.83, 'datetime': '2018-12-18 17:41:08.923130', 'mgs': 0, 'flw2': 2.66, 'flw1': 0.38, 'flw0': 3.02, 'time': 28.38, 'compass': -40.26, 'pitch': 2.41, 'roll': -0.26}
{'lipoC2': 0.0, 'temp': 0.0, 'lipoC3S3': 12.58, 'state': 'normal', 'rot1': 209, 'rot0': 203, 'rot3': 0, 'rot2': 0, 'depth': 1.996, 'yaw': -15.36, 'datetime': '2018-12-18 17:41:09.133972', 'mgs': 0, 'flw2': 2.93, 'flw1': 0.0, 'flw0': 2.82, 'time': 28.58, 'compass': -41.79, 'pitch': 2.83, 'roll': -0.03}
{'lipoC2': 0.0, 'temp': 0.0, 'lipoC3S3': 12.5, 'state': 'normal', 'rot1': 211, 'rot0': 206, 'rot3': 0, 'rot2': 0, 'depth': 1.614, 'yaw': -16.91, 'datetime': '2018-12-18 17:41:09.341363', 'mgs': 0, 'flw2': 2.42, 'flw1': 0.29, 'flw0': 3.11, 'time': 28.79, 'compass': -43.34, 'pitch': 3.17, 'roll': 0.01}
{'lipoC2': 0.03, 'temp': 0.0, 'lipoC3S3': 12.47, 'state': 'normal', 'rot1': 213, 'rot0': 208, 'rot3': 0, 'rot2': 0, 'depth': 1.843, 'yaw': -18.74, 'datetime': '2018-12-18 17:41:09.550896', 'mgs': 0, 'flw2': 3.08, 'flw1': 0.0, 'flw0': 2.83, 'time': 29.0, 'compass': -45.16, 'pitch': 3.23, 'roll': 0.05}
{'lipoC2': 0.0, 'temp': 0.0, 'lipoC3S3': 12.42, 'state': 'normal', 'rot1': 216, 'rot0': 211, 'rot3': 0, 'rot2': 0, 'depth': 0.699, 'yaw': -20.39, 'datetime': '2018-12-18 17:41:09.759621', 'mgs': 0, 'flw2': 2.89, 'flw1': 0.0, 'flw0': 3.13, 'time': 29.21, 'compass': -46.82, 'pitch': 3.23, 'roll': 0.1}
{'lipoC2': 0.01, 'temp': 0.0, 'lipoC3S3': 12.3, 'state': 'normal', 'rot1': 218, 'rot0': 213, 'rot3': 0, 'rot2': 0, 'depth': 1.538, 'yaw': -22.11, 'datetime': '2018-12-18 17:41:09.970762', 'mgs': 0, 'flw2': 2.7, 'flw1': 0.53, 'flw0': 3.02, 'time': 29.42, 'compass': -48.54, 'pitch': 3.23, 'roll': 0.12}
{'lipoC2': 0.1, 'temp': 0.0, 'lipoC3S3': 12.18, 'state': 'normal', 'rot1': 221, 'rot0': 215, 'rot3': 0, 'rot2': 0, 'depth': 1.08, 'yaw': -23.67, 'datetime': '2018-12-18 17:41:10.179780', 'mgs': 0, 'flw2': 3.0, 'flw1': 0.0, 'flw0': 2.81, 'time': 29.63, 'compass': -50.09, 'pitch': 3.24, 'roll': 0.15}
{'lipoC2': 0.13, 'temp': 0.0, 'lipoC3S3': 12.56, 'state': 'normal', 'rot1': 223, 'rot0': 218, 'rot3': 0, 'rot2': 0, 'depth': 1.843, 'yaw': -25.1, 'datetime': '2018-12-18 17:41:10.390550', 'mgs': 0, 'flw2': 2.65, 'flw1': 0.15, 'flw0': 2.69, 'time': 29.84, 'compass': -51.52, 'pitch': 3.25, 'roll': 0.07}
{'lipoC2': 0.0, 'temp': 0.0, 'lipoC3S3': 12.41, 'state': 'normal', 'rot1': 225, 'rot0': 220, 'rot3': 0, 'rot2': 0, 'depth': 0.165, 'yaw': -26.43, 'datetime': '2018-12-18 17:41:10.599176', 'mgs': 0, 'flw2': 2.89, 'flw1': 0.38, 'flw0': 2.99, 'time': 30.05, 'compass': -52.86, 'pitch': 3.35, 'roll': -0.11}
{'lipoC2': 0.1, 'temp': 0.0, 'lipoC3S3': 12.42, 'state': 'normal', 'rot1': 228, 'rot0': 222, 'rot3': 0, 'rot2': 0, 'depth': -1.666, 'yaw': -27.72, 'datetime': '2018-12-18 17:41:10.808113', 'mgs': 0, 'flw2': 2.83, 'flw1': 0.47, 'flw0': 2.99, 'time': 30.26, 'compass': -54.14, 'pitch': 3.36, 'roll': -0.26}
{'lipoC2': 0.12, 'temp': 0.0, 'lipoC3S3': 12.37, 'state': 'normal', 'rot1': 230, 'rot0': 225, 'rot3': 0, 'rot2': 0, 'depth': 1.843, 'yaw': -28.94, 'datetime': '2018-12-18 17:41:11.016878', 'mgs': 0, 'flw2': 2.83, 'flw1': 0.41, 'flw0': 2.91, 'time': 30.47, 'compass': -55.37, 'pitch': 3.27, 'roll': -0.21}
{'lipoC2': 0.04, 'temp': 0.0, 'lipoC3S3': 12.42, 'state': 'normal', 'rot1': 233, 'rot0': 228, 'rot3': 0, 'rot2': 0, 'depth': -0.674, 'yaw': -30.23, 'datetime': '2018-12-18 17:41:11.226325', 'mgs': 0, 'flw2': 2.67, 'flw1': 0.44, 'flw0': 3.02, 'time': 30.67, 'compass': -56.65, 'pitch': 3.11, 'roll': -0.14}
{'lipoC2': 0.02, 'temp': 0.0, 'lipoC3S3': 12.25, 'state': 'normal', 'rot1': 235, 'rot0': 231, 'rot3': 0, 'rot2': 0, 'depth': 1.691, 'yaw': -31.39, 'datetime': '2018-12-18 17:41:11.436093', 'mgs': 0, 'flw2': 2.66, 'flw1': 0.35, 'flw0': 3.02, 'time': 30.89, 'compass': -57.81, 'pitch': 3.23, 'roll': -0.07}
{'lipoC2': 0.05, 'temp': 0.0, 'lipoC3S3': 12.52, 'state': 'normal', 'rot1': 238, 'rot0': 233, 'rot3': 0, 'rot2': 0, 'depth': 0.623, 'yaw': -32.64, 'datetime': '2018-12-18 17:41:11.645513', 'mgs': 0, 'flw2': 2.51, 'flw1': 0.32, 'flw0': 0.77, 'time': 31.09, 'compass': -59.06, 'pitch': 3.33, 'roll': -0.01}
{'lipoC2': 0.0, 'temp': 0.0, 'lipoC3S3': 12.59, 'state': 'normal', 'rot1': 239, 'rot0': 236, 'rot3': 0, 'rot2': 0, 'depth': -0.14, 'yaw': -32.65, 'datetime': '2018-12-18 17:41:11.855453', 'mgs': 0, 'flw2': 2.84, 'flw1': 0.0, 'flw0': 0.95, 'time': 31.3, 'compass': -59.08, 'pitch': 2.61, 'roll': 0.14}
{'lipoC2': 0.06, 'temp': 0.0, 'lipoC3S3': 12.43, 'state': 'normal', 'rot1': 240, 'rot0': 238, 'rot3': 0, 'rot2': 0, 'depth': -1.437, 'yaw': -30.97, 'datetime': '2018-12-18 17:41:12.064251', 'mgs': 0, 'flw2': 2.88, 'flw1': 0.0, 'flw0': 0.26, 'time': 31.51, 'compass': -57.39, 'pitch': 1.64, 'roll': 0.51}
{'lipoC2': 0.14, 'temp': 0.0, 'lipoC3S3': 12.34, 'state': 'normal', 'rot1': 241, 'rot0': 241, 'rot3': 0, 'rot2': 0, 'depth': 1.843, 'yaw': -27.82, 'datetime': '2018-12-18 17:41:12.272803', 'mgs': 0, 'flw2': 2.71, 'flw1': 0.0, 'flw0': 0.35, 'time': 31.72, 'compass': -54.24, 'pitch': 1.36, 'roll': 1.1}
{'lipoC2': 0.0, 'temp': 0.0, 'lipoC3S3': 12.39, 'state': 'normal', 'rot1': 241, 'rot0': 244, 'rot3': 0, 'rot2': 0, 'depth': 0.928, 'yaw': -23.82, 'datetime': '2018-12-18 17:41:12.481910', 'mgs': 0, 'flw2': 2.81, 'flw1': 0.0, 'flw0': 0.27, 'time': 31.93, 'compass': -50.25, 'pitch': 1.64, 'roll': 1.82}
{'lipoC2': 0.0, 'temp': 0.0, 'lipoC3S3': 12.43, 'state': 'normal', 'rot1': 242, 'rot0': 246, 'rot3': 0, 'rot2': 0, 'depth': -0.064, 'yaw': -18.96, 'datetime': '2018-12-18 17:41:12.692363', 'mgs': 0, 'flw2': 2.82, 'flw1': 0.47, 'flw0': 1.01, 'time': 32.14, 'compass': -45.38, 'pitch': 2.17, 'roll': 2.38}
{'lipoC2': 0.0, 'temp': 0.0, 'lipoC3S3': 12.34, 'state': 'normal', 'rot1': 244, 'rot0': 249, 'rot3': 0, 'rot2': 0, 'depth': 1.233, 'yaw': -14.38, 'datetime': '2018-12-18 17:41:12.903213', 'mgs': 0, 'flw2': 2.81, 'flw1': 0.38, 'flw0': 0.98, 'time': 32.35, 'compass': -40.81, 'pitch': 2.76, 'roll': 2.63}
{'lipoC2': 0.1, 'temp': 0.0, 'lipoC3S3': 12.17, 'state': 'normal', 'rot1': 246, 'rot0': 251, 'rot3': 0, 'rot2': 0, 'depth': 0.928, 'yaw': -10.13, 'datetime': '2018-12-18 17:41:13.112791', 'mgs': 0, 'flw2': 3.1, 'flw1': 0.0, 'flw0': 0.65, 'time': 32.56, 'compass': -36.55, 'pitch': 3.03, 'roll': 2.8}
{'lipoC2': 0.0, 'temp': 0.0, 'lipoC3S3': 12.51, 'state': 'normal', 'rot1': 247, 'rot0': 253, 'rot3': 0, 'rot2': 0, 'depth': 1.92, 'yaw': -5.97, 'datetime': '2018-12-18 17:41:13.320174', 'mgs': 0, 'flw2': 2.62, 'flw1': 0.21, 'flw0': 2.94, 'time': 32.77, 'compass': -32.39, 'pitch': 3.06, 'roll': 3.18}
{'lipoC2': 0.0, 'temp': 0.0, 'lipoC3S3': 12.42, 'state': 'normal', 'rot1': 250, 'rot0': 256, 'rot3': 0, 'rot2': 0, 'depth': 0.775, 'yaw': -3.37, 'datetime': '2018-12-18 17:41:13.529583', 'mgs': 0, 'flw2': 2.93, 'flw1': 0.0, 'flw0': 3.1, 'time': 32.97, 'compass': -29.8, 'pitch': 3.6, 'roll': 3.54}
{'lipoC2': 0.0, 'temp': 0.0, 'lipoC3S3': 12.46, 'state': 'normal', 'rot1': 253, 'rot0': 259, 'rot3': 0, 'rot2': 0, 'depth': 1.233, 'yaw': -1.96, 'datetime': '2018-12-18 17:41:13.737686', 'mgs': 0, 'flw2': 2.84, 'flw1': 0.0, 'flw0': 2.89, 'time': 33.18, 'compass': -28.38, 'pitch': 4.09, 'roll': 3.62}
{'lipoC2': 0.0, 'temp': 0.0, 'lipoC3S3': 12.59, 'state': 'normal', 'rot1': 255, 'rot0': 261, 'rot3': 0, 'rot2': 0, 'depth': 1.614, 'yaw': -1.41, 'datetime': '2018-12-18 17:41:13.946940', 'mgs': 0, 'flw2': 2.49, 'flw1': 0.12, 'flw0': 3.28, 'time': 33.39, 'compass': -27.83, 'pitch': 4.0, 'roll': 3.51}
{'lipoC2': 0.13, 'temp': 0.0, 'lipoC3S3': 12.35, 'state': 'normal', 'rot1': 257, 'rot0': 264, 'rot3': 0, 'rot2': 0, 'depth': -1.132, 'yaw': -1.44, 'datetime': '2018-12-18 17:41:14.157198', 'mgs': 0, 'flw2': 2.94, 'flw1': 0.38, 'flw0': 2.99, 'time': 33.6, 'compass': -27.86, 'pitch': 3.82, 'roll': 3.29}
{'lipoC2': 0.0, 'temp': 0.0, 'lipoC3S3': 12.58, 'state': 'normal', 'rot1': 259, 'rot0': 266, 'rot3': 0, 'rot2': 0, 'depth': 2.072, 'yaw': -1.74, 'datetime': '2018-12-18 17:41:14.366102', 'mgs': 0, 'flw2': 2.95, 'flw1': 0.0, 'flw0': 3.13, 'time': 33.81, 'compass': -28.17, 'pitch': 3.78, 'roll': 2.97}
{'lipoC2': 0.12, 'temp': 0.0, 'lipoC3S3': 12.19, 'state': 'normal', 'rot1': 262, 'rot0': 269, 'rot3': 0, 'rot2': 0, 'depth': 0.928, 'yaw': -2.03, 'datetime': '2018-12-18 17:41:14.575831', 'mgs': 0, 'flw2': 2.83, 'flw1': 0.0, 'flw0': 3.14, 'time': 34.02, 'compass': -28.45, 'pitch': 3.72, 'roll': 2.62}
{'lipoC2': 0.0, 'temp': 0.0, 'lipoC3S3': 12.48, 'state': 'normal', 'rot1': 264, 'rot0': 271, 'rot3': 0, 'rot2': 0, 'depth': 1.309, 'yaw': -2.06, 'datetime': '2018-12-18 17:41:14.783967', 'mgs': 0, 'flw2': 2.98, 'flw1': 0.0, 'flw0': 2.77, 'time': 34.23, 'compass': -28.48, 'pitch': 3.35, 'roll': 2.43}
{'lipoC2': 0.0, 'temp': 0.0, 'lipoC3S3': 12.5, 'state': 'normal', 'rot1': 267, 'rot0': 273, 'rot3': 0, 'rot2': 0, 'depth': 1.691, 'yaw': -2.01, 'datetime': '2018-12-18 17:41:14.993276', 'mgs': 0, 'flw2': 2.92, 'flw1': 0.26, 'flw0': 3.05, 'time': 34.44, 'compass': -28.44, 'pitch': 2.86, 'roll': 2.5}
{'lipoC2': 0.12, 'temp': 0.0, 'lipoC3S3': 12.19, 'state': 'normal', 'rot1': 269, 'rot0': 276, 'rot3': 0, 'rot2': 0, 'depth': 0.546, 'yaw': -1.76, 'datetime': '2018-12-18 17:41:15.205008', 'mgs': 0, 'flw2': 2.53, 'flw1': 0.12, 'flw0': 3.16, 'time': 34.65, 'compass': -28.18, 'pitch': 2.72, 'roll': 2.81}
{'lipoC2': 0.06, 'temp': 0.0, 'lipoC3S3': 12.42, 'state': 'normal', 'rot1': 272, 'rot0': 278, 'rot3': 0, 'rot2': 0, 'depth': -1.819, 'yaw': -1.63, 'datetime': '2018-12-18 17:41:15.415941', 'mgs': 0, 'flw2': 3.04, 'flw1': 0.0, 'flw0': 2.95, 'time': 34.85, 'compass': -28.05, 'pitch': 2.91, 'roll': 3.06}
{'lipoC2': 0.0, 'temp': 0.0, 'lipoC3S3': 12.42, 'state': 'normal', 'rot1': 274, 'rot0': 281, 'rot3': 0, 'rot2': 0, 'depth': 1.08, 'yaw': -1.31, 'datetime': '2018-12-18 17:41:15.624739', 'mgs': 0, 'flw2': 2.92, 'flw1': 0.0, 'flw0': 2.99, 'time': 35.06, 'compass': -27.73, 'pitch': 2.95, 'roll': 3.24}
{'lipoC2': 0.0, 'temp': 0.0, 'lipoC3S3': 12.56, 'state': 'normal', 'rot1': 276, 'rot0': 283, 'rot3': 0, 'rot2': 0, 'depth': 2.148, 'yaw': -0.92, 'datetime': '2018-12-18 17:41:15.834571', 'mgs': 0, 'flw2': 3.11, 'flw1': 0.0, 'flw0': 2.58, 'time': 35.27, 'compass': -27.35, 'pitch': 2.9, 'roll': 3.44}
{'lipoC2': 0.13, 'temp': 0.0, 'lipoC3S3': 12.18, 'state': 'normal', 'rot1': 279, 'rot0': 285, 'rot3': 0, 'rot2': 0, 'depth': 0.699, 'yaw': -0.48, 'datetime': '2018-12-18 17:41:16.041784', 'mgs': 0, 'flw2': 2.99, 'flw1': 0.0, 'flw0': 2.72, 'time': 35.48, 'compass': -26.9, 'pitch': 2.71, 'roll': 3.38}
{'lipoC2': 0.0, 'temp': 0.0, 'lipoC3S3': 12.42, 'state': 'normal', 'rot1': 281, 'rot0': 287, 'rot3': 0, 'rot2': 0, 'depth': 0.241, 'yaw': 0.22, 'datetime': '2018-12-18 17:41:16.251976', 'mgs': 0, 'flw2': 2.91, 'flw1': 0.0, 'flw0': 3.02, 'time': 35.69, 'compass': -26.2, 'pitch': 2.75, 'roll': 3.23}
{'lipoC2': 0.0, 'temp': 0.0, 'lipoC3S3': 12.6, 'state': 'normal', 'rot1': 284, 'rot0': 290, 'rot3': 0, 'rot2': 0, 'depth': 0.012, 'yaw': 1.26, 'datetime': '2018-12-18 17:41:16.461303', 'mgs': 0, 'flw2': 2.64, 'flw1': 0.18, 'flw0': 3.06, 'time': 35.9, 'compass': -25.16, 'pitch': 2.95, 'roll': 3.18}
{'lipoC2': 0.0, 'temp': 0.0, 'lipoC3S3': 12.6, 'state': 'normal', 'rot1': 286, 'rot0': 292, 'rot3': 0, 'rot2': 0, 'depth': -0.14, 'yaw': 2.56, 'datetime': '2018-12-18 17:41:16.672066', 'mgs': 0, 'flw2': 2.56, 'flw1': 0.06, 'flw0': 3.2, 'time': 36.11, 'compass': -23.86, 'pitch': 3.07, 'roll': 3.03}
{'lipoC2': 0.13, 'temp': 0.0, 'lipoC3S3': 12.21, 'state': 'normal', 'rot1': 288, 'rot0': 295, 'rot3': 0, 'rot2': 0, 'depth': 0.546, 'yaw': 3.83, 'datetime': '2018-12-18 17:41:16.884976', 'mgs': 0, 'flw2': 2.82, 'flw1': 0.0, 'flw0': 3.06, 'time': 36.32, 'compass': -22.6, 'pitch': 3.14, 'roll': 2.86}
{'lipoC2': 0.0, 'temp': 0.0, 'lipoC3S3': 12.42, 'state': 'normal', 'rot1': 291, 'rot0': 297, 'rot3': 0, 'rot2': 0, 'depth': 0.089, 'yaw': 5.2, 'datetime': '2018-12-18 17:41:17.093860', 'mgs': 0, 'flw2': 3.02, 'flw1': 0.0, 'flw0': 2.89, 'time': 36.53, 'compass': -21.22, 'pitch': 3.31, 'roll': 2.65}
{'lipoC2': 0.01, 'temp': 0.0, 'lipoC3S3': 12.47, 'state': 'normal', 'rot1': 293, 'rot0': 299, 'rot3': 0, 'rot2': 0, 'depth': 1.691, 'yaw': 6.78, 'datetime': '2018-12-18 17:41:17.297188', 'mgs': 0, 'flw2': 2.7, 'flw1': 0.41, 'flw0': 3.06, 'time': 36.74, 'compass': -19.64, 'pitch': 3.62, 'roll': 2.52}
{'lipoC2': 0.05, 'temp': 0.0, 'lipoC3S3': 12.22, 'state': 'normal', 'rot1': 295, 'rot0': 302, 'rot3': 0, 'rot2': 0, 'depth': 1.462, 'yaw': 8.46, 'datetime': '2018-12-18 17:41:17.512111', 'mgs': 0, 'flw2': 2.49, 'flw1': 0.32, 'flw0': 3.14, 'time': 36.94, 'compass': -17.96, 'pitch': 3.93, 'roll': 2.63}
{'lipoC2': 0.0, 'temp': 0.0, 'lipoC3S3': 12.54, 'state': 'normal', 'rot1': 298, 'rot0': 304, 'rot3': 0, 'rot2': 0, 'depth': 1.767, 'yaw': 10.33, 'datetime': '2018-12-18 17:41:17.719481', 'mgs': 0, 'flw2': 2.51, 'flw1': 0.23, 'flw0': 3.08, 'time': 37.15, 'compass': -16.09, 'pitch': 4.09, 'roll': 2.92}
{'lipoC2': 0.0, 'temp': 0.0, 'lipoC3S3': 12.54, 'state': 'normal', 'rot1': 302, 'rot0': 308, 'rot3': 0, 'rot2': 0, 'depth': -1.208, 'yaw': 13.18, 'datetime': '2018-12-18 17:41:18.024679', 'mgs': 0, 'flw2': 2.67, 'flw1': 0.35, 'flw0': 3.02, 'time': 37.47, 'compass': -13.25, 'pitch': 4.15, 'roll': 3.28}
{'lipoC2': 0.06, 'temp': 0.0, 'lipoC3S3': 12.45, 'state': 'normal', 'rot1': 304, 'rot0': 310, 'rot3': 0, 'rot2': 0, 'depth': 1.92, 'yaw': 15.16, 'datetime': '2018-12-18 17:41:18.235438', 'mgs': 0, 'flw2': 0.96, 'flw1': 0.38, 'flw0': 2.92, 'time': 37.68, 'compass': -11.26, 'pitch': 4.07, 'roll': 3.52}
{'lipoC2': 0.1, 'temp': 0.0, 'lipoC3S3': 12.18, 'state': 'normal', 'rot1': 306, 'rot0': 311, 'rot3': 0, 'rot2': 0, 'depth': 0.623, 'yaw': 15.8, 'datetime': '2018-12-18 17:41:18.443776', 'mgs': 0, 'flw2': 0.27, 'flw1': 0.0, 'flw0': 3.23, 'time': 37.89, 'compass': -10.62, 'pitch': 3.21, 'roll': 3.52}
{'lipoC2': 0.1, 'temp': 0.0, 'lipoC3S3': 12.41, 'state': 'normal', 'rot1': 309, 'rot0': 312, 'rot3': 0, 'rot2': 0, 'depth': -1.59, 'yaw': 14.54, 'datetime': '2018-12-18 17:41:18.653545', 'mgs': 0, 'flw2': 0.37, 'flw1': 0.41, 'flw0': 2.93, 'time': 38.1, 'compass': -11.89, 'pitch': 1.87, 'roll': 3.1}
{'lipoC2': 0.08, 'temp': 0.0, 'lipoC3S3': 12.43, 'state': 'normal', 'rot1': 311, 'rot0': 314, 'rot3': 0, 'rot2': 0, 'depth': -1.59, 'yaw': 12.49, 'datetime': '2018-12-18 17:41:18.865067', 'mgs': 0, 'flw2': 2.88, 'flw1': 0.41, 'flw0': 3.06, 'time': 38.3, 'compass': -13.93, 'pitch': 1.52, 'roll': 2.54}
{'lipoC2': 0.06, 'temp': 0.0, 'lipoC3S3': 12.54, 'state': 'normal', 'rot1': 313, 'rot0': 317, 'rot3': 0, 'rot2': 0, 'depth': 1.385, 'yaw': 11.91, 'datetime': '2018-12-18 17:41:19.075745', 'mgs': 0, 'flw2': 3.02, 'flw1': 0.0, 'flw0': 2.82, 'time': 38.51, 'compass': -14.51, 'pitch': 2.64, 'roll': 2.4}
{'lipoC2': 0.0, 'temp': 0.0, 'lipoC3S3': 12.37, 'state': 'normal', 'rot1': 316, 'rot0': 319, 'rot3': 0, 'rot2': 0, 'depth': 0.775, 'yaw': 12.28, 'datetime': '2018-12-18 17:41:19.286627', 'mgs': 0, 'flw2': 2.97, 'flw1': 0.0, 'flw0': 2.94, 'time': 38.72, 'compass': -14.14, 'pitch': 3.42, 'roll': 2.44}
{'lipoC2': 0.09, 'temp': 0.0, 'lipoC3S3': 12.42, 'state': 'normal', 'rot1': 318, 'rot0': 321, 'rot3': 0, 'rot2': 0, 'depth': -1.666, 'yaw': 13.25, 'datetime': '2018-12-18 17:41:19.497437', 'mgs': 0, 'flw2': 2.92, 'flw1': 0.0, 'flw0': 2.95, 'time': 38.93, 'compass': -13.17, 'pitch': 3.53, 'roll': 2.35}
{'lipoC2': 0.0, 'temp': 0.0, 'lipoC3S3': 12.59, 'state': 'normal', 'rot1': 320, 'rot0': 324, 'rot3': 0, 'rot2': 0, 'depth': 1.767, 'yaw': 14.52, 'datetime': '2018-12-18 17:41:19.705412', 'mgs': 0, 'flw2': 2.87, 'flw1': 0.0, 'flw0': 3.15, 'time': 39.14, 'compass': -11.9, 'pitch': 3.62, 'roll': 2.37}
{'lipoC2': 0.0, 'temp': 0.0, 'lipoC3S3': 12.48, 'state': 'normal', 'rot1': 323, 'rot0': 326, 'rot3': 0, 'rot2': 0, 'depth': 1.309, 'yaw': 15.77, 'datetime': '2018-12-18 17:41:19.914398', 'mgs': 0, 'flw2': 1.76, 'flw1': 0.29, 'flw0': 3.14, 'time': 39.35, 'compass': -10.65, 'pitch': 3.82, 'roll': 2.79}
{'lipoC2': 0.14, 'temp': 0.0, 'lipoC3S3': 12.31, 'state': 'normal', 'rot1': 325, 'rot0': 328, 'rot3': 0, 'rot2': 0, 'depth': 1.538, 'yaw': 16.53, 'datetime': '2018-12-18 17:41:20.122948', 'mgs': 0, 'flw2': 2.12, 'flw1': 0.41, 'flw0': 2.98, 'time': 39.56, 'compass': -9.9, 'pitch': 3.87, 'roll': 3.14}
{'lipoC2': 0.0, 'temp': 0.0, 'lipoC3S3': 12.59, 'state': 'normal', 'rot1': 327, 'rot0': 330, 'rot3': 0, 'rot2': 0, 'depth': 1.691, 'yaw': 16.78, 'datetime': '2018-12-18 17:41:20.334550', 'mgs': 0, 'flw2': 1.66, 'flw1': 0.0, 'flw0': 3.2, 'time': 39.77, 'compass': -9.65, 'pitch': 3.89, 'roll': 3.22}
{'lipoC2': 0.01, 'temp': 0.0, 'lipoC3S3': 12.29, 'state': 'normal', 'rot1': 330, 'rot0': 333, 'rot3': 0, 'rot2': 0, 'depth': 0.394, 'yaw': 16.73, 'datetime': '2018-12-18 17:41:20.545008', 'mgs': 0, 'flw2': 1.54, 'flw1': 0.29, 'flw0': 3.03, 'time': 39.98, 'compass': -9.69, 'pitch': 3.88, 'roll': 3.09}
{'lipoC2': 0.12, 'temp': 0.0, 'lipoC3S3': 12.18, 'state': 'normal', 'rot1': 332, 'rot0': 335, 'rot3': 0, 'rot2': 0, 'depth': 1.08, 'yaw': 16.37, 'datetime': '2018-12-18 17:41:20.753457', 'mgs': 0, 'flw2': 1.49, 'flw1': 0.15, 'flw0': 3.2, 'time': 40.19, 'compass': -10.05, 'pitch': 4.03, 'roll': 2.95}
{'lipoC2': 0.02, 'temp': 0.0, 'lipoC3S3': 12.47, 'state': 'normal', 'rot1': 334, 'rot0': 337, 'rot3': 0, 'rot2': 0, 'depth': -0.903, 'yaw': 15.74, 'datetime': '2018-12-18 17:41:20.961979', 'mgs': 0, 'flw2': 1.9, 'flw1': 0.0, 'flw0': 2.93, 'time': 40.4, 'compass': -10.68, 'pitch': 4.13, 'roll': 2.64}
{'lipoC2': 0.0, 'temp': 0.0, 'lipoC3S3': 12.21, 'state': 'normal', 'rot1': 337, 'rot0': 339, 'rot3': 0, 'rot2': 0, 'depth': -0.598, 'yaw': 14.8, 'datetime': '2018-12-18 17:41:21.171611', 'mgs': 0, 'flw2': 2.05, 'flw1': 0.0, 'flw0': 2.6, 'time': 40.61, 'compass': -11.62, 'pitch': 3.99, 'roll': 2.08}
{'lipoC2': 0.12, 'temp': 0.0, 'lipoC3S3': 12.38, 'state': 'normal', 'rot1': 340, 'rot0': 341, 'rot3': 0, 'rot2': 0, 'depth': 1.843, 'yaw': 13.44, 'datetime': '2018-12-18 17:41:21.380925', 'mgs': 0, 'flw2': 1.86, 'flw1': 0.0, 'flw0': 3.06, 'time': 40.81, 'compass': -12.98, 'pitch': 3.47, 'roll': 1.62}
{'lipoC2': 0.0, 'temp': 0.0, 'lipoC3S3': 12.58, 'state': 'normal', 'rot1': 342, 'rot0': 343, 'rot3': 0, 'rot2': 0, 'depth': -0.064, 'yaw': 12.0, 'datetime': '2018-12-18 17:41:21.591939', 'mgs': 0, 'flw2': 1.76, 'flw1': 0.0, 'flw0': 3.06, 'time': 41.02, 'compass': -14.42, 'pitch': 2.92, 'roll': 1.31}
{'lipoC2': 0.09, 'temp': 0.0, 'lipoC3S3': 12.41, 'state': 'normal', 'rot1': 344, 'rot0': 345, 'rot3': 0, 'rot2': 0, 'depth': 1.92, 'yaw': 10.75, 'datetime': '2018-12-18 17:41:21.802781', 'mgs': 0, 'flw2': 1.93, 'flw1': 0.35, 'flw0': 2.87, 'time': 41.23, 'compass': -15.67, 'pitch': 2.61, 'roll': 1.02}
{'lipoC2': 0.12, 'temp': 0.0, 'lipoC3S3': 12.39, 'state': 'normal', 'rot1': 346, 'rot0': 348, 'rot3': 0, 'rot2': 0, 'depth': -1.514, 'yaw': 9.23, 'datetime': '2018-12-18 17:41:22.007438', 'mgs': 0, 'flw2': 1.88, 'flw1': 0.35, 'flw0': 2.97, 'time': 41.44, 'compass': -17.2, 'pitch': 2.4, 'roll': 0.7}
{'lipoC2': 0.11, 'temp': 0.0, 'lipoC3S3': 12.18, 'state': 'normal', 'rot1': 349, 'rot0': 350, 'rot3': 0, 'rot2': 0, 'depth': 0.928, 'yaw': 7.58, 'datetime': '2018-12-18 17:41:22.219163', 'mgs': 0, 'flw2': 1.61, 'flw1': 0.12, 'flw0': 3.06, 'time': 41.65, 'compass': -18.85, 'pitch': 2.11, 'roll': 0.39}
{'lipoC2': 0.0, 'temp': 0.0, 'lipoC3S3': 12.58, 'state': 'normal', 'rot1': 351, 'rot0': 352, 'rot3': 0, 'rot2': 0, 'depth': 1.767, 'yaw': 5.84, 'datetime': '2018-12-18 17:41:22.428174', 'mgs': 0, 'flw2': 1.83, 'flw1': 0.0, 'flw0': 3.2, 'time': 41.86, 'compass': -20.59, 'pitch': 1.89, 'roll': 0.21}
{'lipoC2': 0.04, 'temp': 0.0, 'lipoC3S3': 12.5, 'state': 'normal', 'rot1': 353, 'rot0': 354, 'rot3': 0, 'rot2': 0, 'depth': -0.98, 'yaw': 3.95, 'datetime': '2018-12-18 17:41:22.635129', 'mgs': 0, 'flw2': 2.01, 'flw1': 0.44, 'flw0': 3.11, 'time': 42.07, 'compass': -22.48, 'pitch': 1.87, 'roll': 0.26}
{'lipoC2': 0.0, 'temp': 0.0, 'lipoC3S3': 12.22, 'state': 'normal', 'rot1': 355, 'rot0': 356, 'rot3': 0, 'rot2': 0, 'depth': -0.674, 'yaw': 2.12, 'datetime': '2018-12-18 17:41:22.847735', 'mgs': 0, 'flw2': 1.75, 'flw1': 0.12, 'flw0': 2.72, 'time': 42.28, 'compass': -24.3, 'pitch': 1.82, 'roll': 0.28}
{'lipoC2': 0.0, 'temp': 0.0, 'lipoC3S3': 12.54, 'state': 'normal', 'rot1': 358, 'rot0': 358, 'rot3': 0, 'rot2': 0, 'depth': 1.767, 'yaw': -0.09, 'datetime': '2018-12-18 17:41:23.054476', 'mgs': 0, 'flw2': 2.1, 'flw1': 0.0, 'flw0': 2.65, 'time': 42.49, 'compass': -26.52, 'pitch': 1.8, 'roll': -0.01}
{'lipoC2': 0.01, 'temp': 0.0, 'lipoC3S3': 12.25, 'state': 'normal', 'rot1': 360, 'rot0': 360, 'rot3': 0, 'rot2': 0, 'depth': 1.767, 'yaw': -2.63, 'datetime': '2018-12-18 17:41:23.264640', 'mgs': 0, 'flw2': 1.71, 'flw1': 0.15, 'flw0': 3.16, 'time': 42.7, 'compass': -29.05, 'pitch': 2.02, 'roll': -0.2}
