{'lipoC2': 0.2, 'temp': 0.0, 'lipoC3S3': 0.0, 'state': 'd9_error', 'rot1': 0, 'rot0': 0, 'rot3': 0, 'rot2': 0, 'depth': -12.5, 'yaw': 0.0, 'datetime': '2019-02-26 09:12:13.215538', 'mgs': 0, 'flw2': 0.0, 'flw1': 0.0, 'flw0': 0.0, 'time': 1.35, 'compass': 0.0, 'pitch': 0.0, 'roll': 0.0}
{'lipoC2': 0.16, 'temp': 0.0, 'lipoC3S3': 0.0, 'state': 'd9_error', 'rot1': 0, 'rot0': 0, 'rot3': 0, 'rot2': 0, 'depth': -10.745, 'yaw': 0.0, 'datetime': '2019-02-26 09:12:13.419345', 'mgs': 0, 'flw2': 0.0, 'flw1': 0.44, 'flw0': 0.0, 'time': 1.56, 'compass': 0.0, 'pitch': 0.0, 'roll': 0.0}
{'lipoC2': 0.16, 'temp': 0.0, 'lipoC3S3': 0.0, 'state': 'd9_error', 'rot1': 0, 'rot0': 0, 'rot3': 0, 'rot2': 0, 'depth': -12.5, 'yaw': 0.0, 'datetime': '2019-02-26 09:12:13.623101', 'mgs': 0, 'flw2': 0.0, 'flw1': 0.0, 'flw0': 0.0, 'time': 1.76, 'compass': 0.0, 'pitch': 0.0, 'roll': 0.0}
{'lipoC2': 0.03, 'temp': 0.0, 'lipoC3S3': 0.04, 'state': 'd9_error', 'rot1': 0, 'rot0': 0, 'rot3': 0, 'rot2': 0, 'depth': -12.5, 'yaw': 0.0, 'datetime': '2019-02-26 09:12:13.828449', 'mgs': 0, 'flw2': 0.24, 'flw1': 0.0, 'flw0': 0.07, 'time': 1.97, 'compass': 0.0, 'pitch': 0.0, 'roll': 0.0}
{'lipoC2': 0.21, 'temp': 0.0, 'lipoC3S3': 0.0, 'state': 'd9_error', 'rot1': 0, 'rot0': 0, 'rot3': 0, 'rot2': 0, 'depth': -12.5, 'yaw': 0.0, 'datetime': '2019-02-26 09:12:14.030203', 'mgs': 0, 'flw2': 0.31, 'flw1': 0.0, 'flw0': 0.0, 'time': 2.17, 'compass': 0.0, 'pitch': 0.0, 'roll': 0.0}
{'lipoC2': 0.04, 'temp': 0.0, 'lipoC3S3': 0.0, 'state': 'd9_error', 'rot1': 0, 'rot0': 0, 'rot3': 0, 'rot2': 0, 'depth': -12.5, 'yaw': 0.0, 'datetime': '2019-02-26 09:12:14.235597', 'mgs': 0, 'flw2': 0.01, 'flw1': 0.73, 'flw0': 0.0, 'time': 2.37, 'compass': 0.0, 'pitch': 0.0, 'roll': 0.0}
{'lipoC2': 0.0, 'temp': 0.0, 'lipoC3S3': 0.12, 'state': 'd9_error', 'rot1': 0, 'rot0': 0, 'rot3': 0, 'rot2': 0, 'depth': -12.5, 'yaw': 0.0, 'datetime': '2019-02-26 09:12:14.439714', 'mgs': 0, 'flw2': 0.09, 'flw1': 0.0, 'flw0': 0.0, 'time': 2.58, 'compass': 0.0, 'pitch': 0.0, 'roll': 0.0}
{'lipoC2': 0.0, 'temp': 0.0, 'lipoC3S3': 0.0, 'state': 'd9_error', 'rot1': 0, 'rot0': 0, 'rot3': 0, 'rot2': 0, 'depth': -12.5, 'yaw': 0.0, 'datetime': '2019-02-26 09:12:14.645572', 'mgs': 0, 'flw2': 0.31, 'flw1': 0.0, 'flw0': 0.0, 'time': 2.78, 'compass': 0.0, 'pitch': 0.0, 'roll': 0.0}
{'lipoC2': 0.25, 'temp': 0.0, 'lipoC3S3': 0.0, 'state': 'd9_error', 'rot1': 0, 'rot0': 0, 'rot3': 0, 'rot2': 0, 'depth': -12.5, 'yaw': 0.0, 'datetime': '2019-02-26 09:12:14.849882', 'mgs': 0, 'flw2': 0.0, 'flw1': 0.0, 'flw0': 0.0, 'time': 2.98, 'compass': 0.0, 'pitch': 0.0, 'roll': 0.0}
{'lipoC2': 0.0, 'temp': 0.0, 'lipoC3S3': 0.0, 'state': 'd9_error', 'rot1': 0, 'rot0': 0, 'rot3': 0, 'rot2': 0, 'depth': -12.5, 'yaw': 0.0, 'datetime': '2019-02-26 09:12:15.053137', 'mgs': 0, 'flw2': 0.0, 'flw1': 0.0, 'flw0': 0.0, 'time': 3.19, 'compass': 0.0, 'pitch': 0.0, 'roll': 0.0}
{'lipoC2': 0.0, 'temp': 0.0, 'lipoC3S3': 0.0, 'state': 'd9_error', 'rot1': 0, 'rot0': 0, 'rot3': 0, 'rot2': 0, 'depth': -12.424, 'yaw': 0.0, 'datetime': '2019-02-26 09:12:15.257738', 'mgs': 0, 'flw2': 0.27, 'flw1': 0.0, 'flw0': 0.0, 'time': 3.39, 'compass': 0.0, 'pitch': 0.0, 'roll': 0.0}
{'lipoC2': 0.0, 'temp': 0.0, 'lipoC3S3': 0.0, 'state': 'd9_error', 'rot1': 0, 'rot0': 0, 'rot3': 0, 'rot2': 0, 'depth': -10.745, 'yaw': 0.0, 'datetime': '2019-02-26 09:12:15.460212', 'mgs': 0, 'flw2': 0.13, 'flw1': 0.0, 'flw0': 0.27, 'time': 3.6, 'compass': 0.0, 'pitch': 0.0, 'roll': 0.0}
{'lipoC2': 0.0, 'temp': 0.0, 'lipoC3S3': 0.0, 'state': 'd9_error', 'rot1': 0, 'rot0': 0, 'rot3': 0, 'rot2': 0, 'depth': -10.059, 'yaw': 0.0, 'datetime': '2019-02-26 09:12:15.665321', 'mgs': 0, 'flw2': 0.13, 'flw1': 0.0, 'flw0': 0.26, 'time': 3.8, 'compass': 0.0, 'pitch': 0.0, 'roll': 0.0}
{'lipoC2': 0.0, 'temp': 0.0, 'lipoC3S3': 0.0, 'state': 'd9_error', 'rot1': 0, 'rot0': 0, 'rot3': 0, 'rot2': 0, 'depth': -10.135, 'yaw': 0.0, 'datetime': '2019-02-26 09:12:15.877393', 'mgs': 0, 'flw2': 0.27, 'flw1': 0.0, 'flw0': 0.0, 'time': 4.01, 'compass': 0.0, 'pitch': 0.0, 'roll': 0.0}
{'lipoC2': 0.0, 'temp': 0.0, 'lipoC3S3': 0.0, 'state': 'd9_error', 'rot1': 0, 'rot0': 0, 'rot3': 0, 'rot2': 0, 'depth': -12.5, 'yaw': 0.0, 'datetime': '2019-02-26 09:12:16.184517', 'mgs': 0, 'flw2': 0.31, 'flw1': 0.0, 'flw0': 0.0, 'time': 4.31, 'compass': 0.0, 'pitch': 0.0, 'roll': 0.0}
{'lipoC2': 0.0, 'temp': 0.0, 'lipoC3S3': 0.0, 'state': 'd9_error', 'rot1': 0, 'rot0': 0, 'rot3': 0, 'rot2': 0, 'depth': -11.966, 'yaw': 0.0, 'datetime': '2019-02-26 09:12:16.491305', 'mgs': 0, 'flw2': 0.0, 'flw1': 0.0, 'flw0': 0.11, 'time': 4.62, 'compass': 0.0, 'pitch': 0.0, 'roll': 0.0}
{'lipoC2': 0.0, 'temp': 0.0, 'lipoC3S3': 0.0, 'state': 'd9_error', 'rot1': 0, 'rot0': 0, 'rot3': 0, 'rot2': 0, 'depth': -12.5, 'yaw': 0.0, 'datetime': '2019-02-26 09:12:16.695386', 'mgs': 0, 'flw2': 0.0, 'flw1': 0.0, 'flw0': 0.26, 'time': 4.82, 'compass': 0.0, 'pitch': 0.0, 'roll': 0.0}
{'lipoC2': 0.2, 'temp': 0.0, 'lipoC3S3': 0.0, 'state': 'd9_error', 'rot1': 0, 'rot0': 0, 'rot3': 0, 'rot2': 0, 'depth': -12.042, 'yaw': 0.0, 'datetime': '2019-02-26 09:12:16.896549', 'mgs': 0, 'flw2': 0.24, 'flw1': 0.03, 'flw0': 0.21, 'time': 5.03, 'compass': 0.0, 'pitch': 0.0, 'roll': 0.0}
{'lipoC2': 0.0, 'temp': 0.0, 'lipoC3S3': 0.0, 'state': 'd9_error', 'rot1': 0, 'rot0': 0, 'rot3': 0, 'rot2': 0, 'depth': -12.5, 'yaw': 0.0, 'datetime': '2019-02-26 09:12:17.099490', 'mgs': 0, 'flw2': 0.0, 'flw1': 0.12, 'flw0': 0.0, 'time': 5.23, 'compass': 0.0, 'pitch': 0.0, 'roll': 0.0}
{'lipoC2': 0.18, 'temp': 0.0, 'lipoC3S3': 0.0, 'state': 'd9_error', 'rot1': 0, 'rot0': 0, 'rot3': 0, 'rot2': 0, 'depth': -12.5, 'yaw': 0.0, 'datetime': '2019-02-26 09:12:17.303838', 'mgs': 0, 'flw2': 0.0, 'flw1': 0.44, 'flw0': 0.23, 'time': 5.43, 'compass': 0.0, 'pitch': 0.0, 'roll': 0.0}
{'lipoC2': 0.31, 'temp': 0.0, 'lipoC3S3': 0.0, 'state': 'd9_error', 'rot1': 0, 'rot0': 0, 'rot3': 0, 'rot2': 0, 'depth': -12.5, 'yaw': 0.0, 'datetime': '2019-02-26 09:12:17.508419', 'mgs': 0, 'flw2': 0.0, 'flw1': 0.0, 'flw0': 0.0, 'time': 5.64, 'compass': 0.0, 'pitch': 0.0, 'roll': 0.0}
{'lipoC2': 0.0, 'temp': 0.0, 'lipoC3S3': 0.04, 'state': 'd9_error', 'rot1': 0, 'rot0': 0, 'rot3': 0, 'rot2': 0, 'depth': -12.5, 'yaw': 0.0, 'datetime': '2019-02-26 09:12:17.712520', 'mgs': 0, 'flw2': 0.0, 'flw1': 0.0, 'flw0': 0.33, 'time': 5.84, 'compass': 0.0, 'pitch': 0.0, 'roll': 0.0}
{'lipoC2': 0.03, 'temp': 0.0, 'lipoC3S3': 0.21, 'state': 'd9_error', 'rot1': 0, 'rot0': 0, 'rot3': 0, 'rot2': 0, 'depth': -10.898, 'yaw': 0.0, 'datetime': '2019-02-26 09:12:17.916023', 'mgs': 0, 'flw2': 0.23, 'flw1': 0.0, 'flw0': 0.04, 'time': 6.05, 'compass': 0.0, 'pitch': 0.0, 'roll': 0.0}
{'lipoC2': 0.0, 'temp': 0.0, 'lipoC3S3': 0.0, 'state': 'd9_error', 'rot1': 0, 'rot0': 0, 'rot3': 0, 'rot2': 0, 'depth': -12.195, 'yaw': 0.0, 'datetime': '2019-02-26 09:12:18.119484', 'mgs': 0, 'flw2': 0.27, 'flw1': 0.0, 'flw0': 0.0, 'time': 6.25, 'compass': 0.0, 'pitch': 0.0, 'roll': 0.0}
{'lipoC2': 0.19, 'temp': 0.0, 'lipoC3S3': 0.07, 'state': 'd9_error', 'rot1': 0, 'rot0': 0, 'rot3': 0, 'rot2': 0, 'depth': -12.5, 'yaw': 0.0, 'datetime': '2019-02-26 09:12:18.323722', 'mgs': 0, 'flw2': 0.15, 'flw1': 0.5, 'flw0': 0.0, 'time': 6.45, 'compass': 0.0, 'pitch': 0.0, 'roll': 0.0}
{'lipoC2': 0.25, 'temp': 0.0, 'lipoC3S3': 0.0, 'state': 'd9_error', 'rot1': 0, 'rot0': 0, 'rot3': 0, 'rot2': 0, 'depth': -11.279, 'yaw': 0.0, 'datetime': '2019-02-26 09:12:18.531927', 'mgs': 0, 'flw2': 0.15, 'flw1': 0.0, 'flw0': 0.04, 'time': 6.66, 'compass': 0.0, 'pitch': 0.0, 'roll': 0.0}
{'lipoC2': 0.17, 'temp': 0.0, 'lipoC3S3': 0.0, 'state': 'd9_error', 'rot1': 0, 'rot0': 0, 'rot3': 0, 'rot2': 0, 'depth': -12.271, 'yaw': 0.0, 'datetime': '2019-02-26 09:12:18.733081', 'mgs': 0, 'flw2': 0.24, 'flw1': 0.0, 'flw0': 0.1, 'time': 6.86, 'compass': 0.0, 'pitch': 0.0, 'roll': 0.0}
{'lipoC2': 0.2, 'temp': 0.0, 'lipoC3S3': 0.0, 'state': 'd9_error', 'rot1': 0, 'rot0': 0, 'rot3': 0, 'rot2': 0, 'depth': -11.966, 'yaw': 0.0, 'datetime': '2019-02-26 09:12:18.939768', 'mgs': 0, 'flw2': 0.22, 'flw1': 0.0, 'flw0': 0.21, 'time': 7.07, 'compass': 0.0, 'pitch': 0.0, 'roll': 0.0}
{'lipoC2': 0.05, 'temp': 0.0, 'lipoC3S3': 0.0, 'state': 'd9_error', 'rot1': 0, 'rot0': 0, 'rot3': 0, 'rot2': 0, 'depth': -12.5, 'yaw': 0.0, 'datetime': '2019-02-26 09:12:19.143276', 'mgs': 0, 'flw2': 0.18, 'flw1': 0.0, 'flw0': 0.0, 'time': 7.27, 'compass': 0.0, 'pitch': 0.0, 'roll': 0.0}
{'lipoC2': 0.0, 'temp': 0.0, 'lipoC3S3': 0.2, 'state': 'd9_error', 'rot1': 0, 'rot0': 0, 'rot3': 0, 'rot2': 0, 'depth': -12.5, 'yaw': 0.0, 'datetime': '2019-02-26 09:12:19.346344', 'mgs': 0, 'flw2': 0.06, 'flw1': 0.0, 'flw0': 0.09, 'time': 7.48, 'compass': 0.0, 'pitch': 0.0, 'roll': 0.0}
{'lipoC2': 0.04, 'temp': 0.0, 'lipoC3S3': 0.05, 'state': 'd9_error', 'rot1': 0, 'rot0': 0, 'rot3': 0, 'rot2': 0, 'depth': -12.5, 'yaw': 0.0, 'datetime': '2019-02-26 09:12:19.554266', 'mgs': 0, 'flw2': 0.05, 'flw1': 0.29, 'flw0': 0.0, 'time': 7.68, 'compass': 0.0, 'pitch': 0.0, 'roll': 0.0}
{'lipoC2': 0.3, 'temp': 0.0, 'lipoC3S3': 0.0, 'state': 'd9_error', 'rot1': 0, 'rot0': 0, 'rot3': 0, 'rot2': 0, 'depth': -11.966, 'yaw': 0.0, 'datetime': '2019-02-26 09:12:19.757500', 'mgs': 0, 'flw2': 0.02, 'flw1': 0.0, 'flw0': 0.0, 'time': 7.88, 'compass': 0.0, 'pitch': 0.0, 'roll': 0.0}
{'lipoC2': 0.0, 'temp': 0.0, 'lipoC3S3': 0.0, 'state': 'd9_error', 'rot1': 0, 'rot0': 0, 'rot3': 0, 'rot2': 0, 'depth': -12.5, 'yaw': 0.0, 'datetime': '2019-02-26 09:12:19.959646', 'mgs': 0, 'flw2': 0.0, 'flw1': 0.29, 'flw0': 0.0, 'time': 8.09, 'compass': 0.0, 'pitch': 0.0, 'roll': 0.0}
{'lipoC2': 0.0, 'temp': 0.0, 'lipoC3S3': 0.01, 'state': 'd9_error', 'rot1': 0, 'rot0': 0, 'rot3': 0, 'rot2': 0, 'depth': -11.508, 'yaw': 0.0, 'datetime': '2019-02-26 09:12:20.164708', 'mgs': 0, 'flw2': 0.2, 'flw1': 0.0, 'flw0': 0.26, 'time': 8.29, 'compass': 0.0, 'pitch': 0.0, 'roll': 0.0}
{'lipoC2': 0.24, 'temp': 0.0, 'lipoC3S3': 0.0, 'state': 'd9_error', 'rot1': 0, 'rot0': 0, 'rot3': 0, 'rot2': 0, 'depth': -11.127, 'yaw': 0.0, 'datetime': '2019-02-26 09:12:20.370379', 'mgs': 0, 'flw2': 0.0, 'flw1': 0.0, 'flw0': 0.0, 'time': 8.5, 'compass': 0.0, 'pitch': 0.0, 'roll': 0.0}
{'lipoC2': 0.21, 'temp': 0.0, 'lipoC3S3': 0.0, 'state': 'd9_error', 'rot1': 0, 'rot0': 0, 'rot3': 0, 'rot2': 0, 'depth': -12.5, 'yaw': 0.0, 'datetime': '2019-02-26 09:12:20.573681', 'mgs': 0, 'flw2': 0.23, 'flw1': 0.0, 'flw0': 0.01, 'time': 8.7, 'compass': 0.0, 'pitch': 0.0, 'roll': 0.0}
{'lipoC2': 0.01, 'temp': 0.0, 'lipoC3S3': 0.0, 'state': 'd9_error', 'rot1': 0, 'rot0': 0, 'rot3': 0, 'rot2': 0, 'depth': -12.5, 'yaw': 0.0, 'datetime': '2019-02-26 09:12:20.780649', 'mgs': 0, 'flw2': 0.02, 'flw1': 0.0, 'flw0': 0.04, 'time': 8.9, 'compass': 0.0, 'pitch': 0.0, 'roll': 0.0}
{'lipoC2': 0.04, 'temp': 0.0, 'lipoC3S3': 0.0, 'state': 'd9_error', 'rot1': 0, 'rot0': 0, 'rot3': 0, 'rot2': 0, 'depth': -12.5, 'yaw': 0.0, 'datetime': '2019-02-26 09:12:20.985062', 'mgs': 0, 'flw2': 0.16, 'flw1': 0.0, 'flw0': 0.0, 'time': 9.11, 'compass': 0.0, 'pitch': 0.0, 'roll': 0.0}
{'lipoC2': 0.02, 'temp': 0.0, 'lipoC3S3': 0.0, 'state': 'd9_error', 'rot1': 0, 'rot0': 0, 'rot3': 0, 'rot2': 0, 'depth': -12.5, 'yaw': 0.0, 'datetime': '2019-02-26 09:12:21.190673', 'mgs': 0, 'flw2': 0.21, 'flw1': 0.0, 'flw0': 0.01, 'time': 9.31, 'compass': 0.0, 'pitch': 0.0, 'roll': 0.0}
{'lipoC2': 0.21, 'temp': 0.0, 'lipoC3S3': 0.0, 'state': 'd9_error', 'rot1': 0, 'rot0': 0, 'rot3': 0, 'rot2': 0, 'depth': -12.347, 'yaw': 0.0, 'datetime': '2019-02-26 09:12:21.395116', 'mgs': 0, 'flw2': 0.24, 'flw1': 0.0, 'flw0': 0.22, 'time': 9.52, 'compass': 0.0, 'pitch': 0.0, 'roll': 0.0}
{'lipoC2': 0.21, 'temp': 0.0, 'lipoC3S3': 0.0, 'state': 'd9_error', 'rot1': 0, 'rot0': 0, 'rot3': 0, 'rot2': 0, 'depth': -11.203, 'yaw': 0.0, 'datetime': '2019-02-26 09:12:21.596422', 'mgs': 0, 'flw2': 0.0, 'flw1': 0.12, 'flw0': 0.0, 'time': 9.72, 'compass': 0.0, 'pitch': 0.0, 'roll': 0.0}
{'lipoC2': 0.0, 'temp': 0.0, 'lipoC3S3': 0.09, 'state': 'd9_error', 'rot1': 0, 'rot0': 0, 'rot3': 0, 'rot2': 0, 'depth': -12.5, 'yaw': 0.0, 'datetime': '2019-02-26 09:12:21.803871', 'mgs': 0, 'flw2': 0.0, 'flw1': 0.23, 'flw0': 0.0, 'time': 9.93, 'compass': 0.0, 'pitch': 0.0, 'roll': 0.0}
{'lipoC2': 0.0, 'temp': 0.0, 'lipoC3S3': 0.0, 'state': 'd9_error', 'rot1': 0, 'rot0': 0, 'rot3': 0, 'rot2': 0, 'depth': -10.593, 'yaw': 0.0, 'datetime': '2019-02-26 09:12:22.005126', 'mgs': 0, 'flw2': 0.1, 'flw1': 0.0, 'flw0': 0.24, 'time': 10.13, 'compass': 0.0, 'pitch': 0.0, 'roll': 0.0}
{'lipoC2': 0.0, 'temp': 0.0, 'lipoC3S3': 0.0, 'state': 'd9_error', 'rot1': 0, 'rot0': 0, 'rot3': 0, 'rot2': 0, 'depth': -12.195, 'yaw': 0.0, 'datetime': '2019-02-26 09:12:22.209162', 'mgs': 0, 'flw2': 0.26, 'flw1': 0.0, 'flw0': 0.0, 'time': 10.33, 'compass': 0.0, 'pitch': 0.0, 'roll': 0.0}
{'lipoC2': 0.0, 'temp': 0.0, 'lipoC3S3': 0.0, 'state': 'd9_error', 'rot1': 0, 'rot0': 0, 'rot3': 0, 'rot2': 0, 'depth': -12.5, 'yaw': 0.0, 'datetime': '2019-02-26 09:12:22.413422', 'mgs': 0, 'flw2': 0.01, 'flw1': 0.44, 'flw0': 0.0, 'time': 10.54, 'compass': 0.0, 'pitch': 0.0, 'roll': 0.0}
{'lipoC2': 0.11, 'temp': 0.0, 'lipoC3S3': 0.0, 'state': 'd9_error', 'rot1': 0, 'rot0': 0, 'rot3': 0, 'rot2': 0, 'depth': -12.5, 'yaw': 0.0, 'datetime': '2019-02-26 09:12:22.619189', 'mgs': 0, 'flw2': 0.0, 'flw1': 0.0, 'flw0': 0.0, 'time': 10.74, 'compass': 0.0, 'pitch': 0.0, 'roll': 0.0}
{'lipoC2': 0.04, 'temp': 0.0, 'lipoC3S3': 0.0, 'state': 'd9_error', 'rot1': 0, 'rot0': 0, 'rot3': 0, 'rot2': 0, 'depth': -10.364, 'yaw': 0.0, 'datetime': '2019-02-26 09:12:22.821169', 'mgs': 0, 'flw2': 0.2, 'flw1': 0.0, 'flw0': 0.24, 'time': 10.95, 'compass': 0.0, 'pitch': 0.0, 'roll': 0.0}
{'lipoC2': 0.31, 'temp': 0.0, 'lipoC3S3': 0.0, 'state': 'd9_error', 'rot1': 0, 'rot0': 0, 'rot3': 0, 'rot2': 0, 'depth': -12.119, 'yaw': 0.0, 'datetime': '2019-02-26 09:12:23.026464', 'mgs': 0, 'flw2': 0.0, 'flw1': 0.73, 'flw0': 0.0, 'time': 11.15, 'compass': 0.0, 'pitch': 0.0, 'roll': 0.0}
{'lipoC2': 0.0, 'temp': 0.0, 'lipoC3S3': 0.17, 'state': 'd9_error', 'rot1': 0, 'rot0': 0, 'rot3': 0, 'rot2': 0, 'depth': -12.5, 'yaw': 0.0, 'datetime': '2019-02-26 09:12:23.230184', 'mgs': 0, 'flw2': 0.24, 'flw1': 0.0, 'flw0': 0.0, 'time': 11.35, 'compass': 0.0, 'pitch': 0.0, 'roll': 0.0}
{'lipoC2': 0.24, 'temp': 0.0, 'lipoC3S3': 0.0, 'state': 'd9_error', 'rot1': 0, 'rot0': 0, 'rot3': 0, 'rot2': 0, 'depth': -12.5, 'yaw': 0.0, 'datetime': '2019-02-26 09:12:23.436813', 'mgs': 0, 'flw2': 0.27, 'flw1': 0.0, 'flw0': 0.1, 'time': 11.56, 'compass': 0.0, 'pitch': 0.0, 'roll': 0.0}
{'lipoC2': 0.0, 'temp': 0.0, 'lipoC3S3': 0.0, 'state': 'd9_error', 'rot1': 0, 'rot0': 0, 'rot3': 0, 'rot2': 0, 'depth': -12.5, 'yaw': 0.0, 'datetime': '2019-02-26 09:12:23.638934', 'mgs': 0, 'flw2': 0.0, 'flw1': 0.56, 'flw0': 0.0, 'time': 11.76, 'compass': 0.0, 'pitch': 0.0, 'roll': 0.0}
{'lipoC2': 0.05, 'temp': 0.0, 'lipoC3S3': 0.0, 'state': 'd9_error', 'rot1': 0, 'rot0': 0, 'rot3': 0, 'rot2': 0, 'depth': -12.5, 'yaw': 0.0, 'datetime': '2019-02-26 09:12:23.845630', 'mgs': 0, 'flw2': 0.05, 'flw1': 0.23, 'flw0': 0.02, 'time': 11.97, 'compass': 0.0, 'pitch': 0.0, 'roll': 0.0}
{'lipoC2': 0.13, 'temp': 0.0, 'lipoC3S3': 0.01, 'state': 'd9_error', 'rot1': 0, 'rot0': 0, 'rot3': 0, 'rot2': 0, 'depth': -12.5, 'yaw': 0.0, 'datetime': '2019-02-26 09:12:24.047789', 'mgs': 0, 'flw2': 0.21, 'flw1': 0.0, 'flw0': 0.24, 'time': 12.17, 'compass': 0.0, 'pitch': 0.0, 'roll': 0.0}
{'lipoC2': 0.0, 'temp': 0.0, 'lipoC3S3': 0.0, 'state': 'd9_error', 'rot1': 0, 'rot0': 0, 'rot3': 0, 'rot2': 0, 'depth': -12.119, 'yaw': 0.0, 'datetime': '2019-02-26 09:12:24.254063', 'mgs': 0, 'flw2': 0.12, 'flw1': 0.0, 'flw0': 0.02, 'time': 12.38, 'compass': 0.0, 'pitch': 0.0, 'roll': 0.0}
{'lipoC2': 0.0, 'temp': 0.0, 'lipoC3S3': 0.0, 'state': 'd9_error', 'rot1': 0, 'rot0': 0, 'rot3': 0, 'rot2': 0, 'depth': -12.5, 'yaw': 0.0, 'datetime': '2019-02-26 09:12:24.460034', 'mgs': 0, 'flw2': 0.04, 'flw1': 0.23, 'flw0': 0.0, 'time': 12.58, 'compass': 0.0, 'pitch': 0.0, 'roll': 0.0}
{'lipoC2': 0.03, 'temp': 0.0, 'lipoC3S3': 0.0, 'state': 'd9_error', 'rot1': 0, 'rot0': 0, 'rot3': 0, 'rot2': 0, 'depth': -12.5, 'yaw': 0.0, 'datetime': '2019-02-26 09:12:24.663845', 'mgs': 0, 'flw2': 0.07, 'flw1': 0.0, 'flw0': 0.0, 'time': 12.78, 'compass': 0.0, 'pitch': 0.0, 'roll': 0.0}
{'lipoC2': 0.08, 'temp': 0.0, 'lipoC3S3': 0.15, 'state': 'd9_error', 'rot1': 0, 'rot0': 0, 'rot3': 0, 'rot2': 0, 'depth': -12.5, 'yaw': 0.0, 'datetime': '2019-02-26 09:12:24.867650', 'mgs': 0, 'flw2': 0.0, 'flw1': 0.0, 'flw0': 0.29, 'time': 12.99, 'compass': 0.0, 'pitch': 0.0, 'roll': 0.0}
{'lipoC2': 0.0, 'temp': 0.0, 'lipoC3S3': 0.08, 'state': 'd9_error', 'rot1': 0, 'rot0': 0, 'rot3': 0, 'rot2': 0, 'depth': -12.5, 'yaw': 0.0, 'datetime': '2019-02-26 09:12:25.071256', 'mgs': 0, 'flw2': 0.0, 'flw1': 0.09, 'flw0': 0.0, 'time': 13.19, 'compass': 0.0, 'pitch': 0.0, 'roll': 0.0}
{'lipoC2': 0.0, 'temp': 0.0, 'lipoC3S3': 0.0, 'state': 'd9_error', 'rot1': 0, 'rot0': 0, 'rot3': 0, 'rot2': 2, 'depth': -12.5, 'yaw': 0.0, 'datetime': '2019-02-26 09:12:25.276021', 'mgs': 0, 'flw2': 0.0, 'flw1': 0.64, 'flw0': 0.0, 'time': 13.4, 'compass': 0.0, 'pitch': 0.0, 'roll': 0.0}
{'lipoC2': 0.0, 'temp': 0.0, 'lipoC3S3': 0.08, 'state': 'd9_error', 'rot1': 0, 'rot0': 0, 'rot3': 0, 'rot2': 2, 'depth': -10.898, 'yaw': 0.0, 'datetime': '2019-02-26 09:12:25.483328', 'mgs': 0, 'flw2': 0.0, 'flw1': 0.0, 'flw0': 0.37, 'time': 13.6, 'compass': 0.0, 'pitch': 0.0, 'roll': 0.0}
{'lipoC2': 0.0, 'temp': 0.0, 'lipoC3S3': 0.08, 'state': 'd9_error', 'rot1': 0, 'rot0': 0, 'rot3': 0, 'rot2': 2, 'depth': -10.822, 'yaw': 0.0, 'datetime': '2019-02-26 09:12:25.686726', 'mgs': 0, 'flw2': 0.0, 'flw1': 0.23, 'flw0': 0.06, 'time': 13.8, 'compass': 0.0, 'pitch': 0.0, 'roll': 0.0}
{'lipoC2': 0.0, 'temp': 0.0, 'lipoC3S3': 0.0, 'state': 'd9_error', 'rot1': 0, 'rot0': 0, 'rot3': 0, 'rot2': 2, 'depth': -12.5, 'yaw': 0.0, 'datetime': '2019-02-26 09:12:25.889882', 'mgs': 0, 'flw2': 0.0, 'flw1': 0.15, 'flw0': 0.0, 'time': 14.01, 'compass': 0.0, 'pitch': 0.0, 'roll': 0.0}
{'lipoC2': 0.0, 'temp': 0.0, 'lipoC3S3': 0.0, 'state': 'd9_error', 'rot1': 0, 'rot0': 0, 'rot3': 0, 'rot2': 18, 'depth': -12.347, 'yaw': 0.0, 'datetime': '2019-02-26 09:12:26.092484', 'mgs': 0, 'flw2': 0.15, 'flw1': 0.0, 'flw0': 0.0, 'time': 14.21, 'compass': 0.0, 'pitch': 0.0, 'roll': 0.0}
{'lipoC2': 0.0, 'temp': 0.0, 'lipoC3S3': 0.0, 'state': 'd9_error', 'rot1': 0, 'rot0': 0, 'rot3': 0, 'rot2': 21, 'depth': -12.5, 'yaw': 0.0, 'datetime': '2019-02-26 09:12:26.296837', 'mgs': 0, 'flw2': 0.35, 'flw1': 0.0, 'flw0': 0.0, 'time': 14.42, 'compass': 0.0, 'pitch': 0.0, 'roll': 0.0}
{'lipoC2': 0.01, 'temp': 0.0, 'lipoC3S3': 0.0, 'state': 'd9_error', 'rot1': 0, 'rot0': 0, 'rot3': 0, 'rot2': 23, 'depth': -12.5, 'yaw': 0.0, 'datetime': '2019-02-26 09:12:26.501448', 'mgs': 0, 'flw2': 0.0, 'flw1': 0.15, 'flw0': 0.0, 'time': 14.62, 'compass': 0.0, 'pitch': 0.0, 'roll': 0.0}
{'lipoC2': 0.0, 'temp': 0.0, 'lipoC3S3': 0.01, 'state': 'd9_error', 'rot1': 0, 'rot0': 0, 'rot3': 0, 'rot2': 29, 'depth': -12.5, 'yaw': 0.0, 'datetime': '2019-02-26 09:12:26.706066', 'mgs': 0, 'flw2': 0.28, 'flw1': 0.0, 'flw0': 0.0, 'time': 14.82, 'compass': 0.0, 'pitch': 0.0, 'roll': 0.0}
{'lipoC2': 0.0, 'temp': 0.0, 'lipoC3S3': 0.0, 'state': 'd9_error', 'rot1': 0, 'rot0': 0, 'rot3': 0, 'rot2': 50, 'depth': -12.5, 'yaw': 0.0, 'datetime': '2019-02-26 09:12:26.910524', 'mgs': 0, 'flw2': 0.32, 'flw1': 0.0, 'flw0': 0.0, 'time': 15.03, 'compass': 0.0, 'pitch': 0.0, 'roll': 0.0}
{'lipoC2': 0.0, 'temp': 0.0, 'lipoC3S3': 0.0, 'state': 'd9_error', 'rot1': 0, 'rot0': 0, 'rot3': 0, 'rot2': 62, 'depth': -9.83, 'yaw': 0.0, 'datetime': '2019-02-26 09:12:27.114874', 'mgs': 0, 'flw2': 0.24, 'flw1': 0.0, 'flw0': 0.24, 'time': 15.23, 'compass': 0.0, 'pitch': 0.0, 'roll': 0.0}
{'lipoC2': 0.15, 'temp': 0.0, 'lipoC3S3': 0.0, 'state': 'd9_error', 'rot1': 0, 'rot0': 0, 'rot3': 0, 'rot2': 65, 'depth': -12.347, 'yaw': 0.0, 'datetime': '2019-02-26 09:12:27.319248', 'mgs': 0, 'flw2': 0.21, 'flw1': 0.0, 'flw0': 0.0, 'time': 15.44, 'compass': 0.0, 'pitch': 0.0, 'roll': 0.0}
{'lipoC2': 0.0, 'temp': 0.0, 'lipoC3S3': 0.04, 'state': 'd9_error', 'rot1': 0, 'rot0': 0, 'rot3': 0, 'rot2': 74, 'depth': -12.5, 'yaw': 0.0, 'datetime': '2019-02-26 09:12:27.526335', 'mgs': 0, 'flw2': 0.0, 'flw1': 0.62, 'flw0': 0.06, 'time': 15.64, 'compass': 0.0, 'pitch': 0.0, 'roll': 0.0}
{'lipoC2': 0.03, 'temp': 0.0, 'lipoC3S3': 0.0, 'state': 'd9_error', 'rot1': 0, 'rot0': 0, 'rot3': 0, 'rot2': 95, 'depth': -12.5, 'yaw': 0.0, 'datetime': '2019-02-26 09:12:27.729608', 'mgs': 0, 'flw2': 0.0, 'flw1': 0.0, 'flw0': 0.0, 'time': 15.85, 'compass': 0.0, 'pitch': 0.0, 'roll': 0.0}
{'lipoC2': 0.12, 'temp': 0.0, 'lipoC3S3': 0.0, 'state': 'd9_error', 'rot1': 0, 'rot0': 0, 'rot3': 0, 'rot2': 100, 'depth': -12.5, 'yaw': 0.0, 'datetime': '2019-02-26 09:12:27.935026', 'mgs': 0, 'flw2': 0.0, 'flw1': 0.0, 'flw0': 0.0, 'time': 16.05, 'compass': 0.0, 'pitch': 0.0, 'roll': 0.0}
{'lipoC2': 0.01, 'temp': 0.0, 'lipoC3S3': 0.0, 'state': 'd9_error', 'rot1': 0, 'rot0': 0, 'rot3': 0, 'rot2': 107, 'depth': -12.5, 'yaw': 0.0, 'datetime': '2019-02-26 09:12:28.139431', 'mgs': 0, 'flw2': 0.27, 'flw1': 0.0, 'flw0': 0.0, 'time': 16.26, 'compass': 0.0, 'pitch': 0.0, 'roll': 0.0}
{'lipoC2': 0.0, 'temp': 0.0, 'lipoC3S3': 0.0, 'state': 'd9_error', 'rot1': 0, 'rot0': 0, 'rot3': 0, 'rot2': 116, 'depth': -12.5, 'yaw': 0.0, 'datetime': '2019-02-26 09:12:28.345445', 'mgs': 0, 'flw2': 0.04, 'flw1': 0.41, 'flw0': 0.0, 'time': 16.46, 'compass': 0.0, 'pitch': 0.0, 'roll': 0.0}
{'lipoC2': 0.29, 'temp': 0.0, 'lipoC3S3': 0.0, 'state': 'd9_error', 'rot1': 0, 'rot0': 0, 'rot3': 0, 'rot2': 116, 'depth': -12.424, 'yaw': 0.0, 'datetime': '2019-02-26 09:12:28.548538', 'mgs': 0, 'flw2': 0.09, 'flw1': 0.0, 'flw0': 0.0, 'time': 16.66, 'compass': 0.0, 'pitch': 0.0, 'roll': 0.0}
{'lipoC2': 0.02, 'temp': 0.0, 'lipoC3S3': 0.0, 'state': 'd9_error', 'rot1': 0, 'rot0': 0, 'rot3': 0, 'rot2': 116, 'depth': -12.424, 'yaw': 0.0, 'datetime': '2019-02-26 09:12:28.756162', 'mgs': 0, 'flw2': 0.01, 'flw1': 0.0, 'flw0': 0.0, 'time': 16.87, 'compass': 0.0, 'pitch': 0.0, 'roll': 0.0}
{'lipoC2': 0.01, 'temp': 0.0, 'lipoC3S3': 0.0, 'state': 'd9_error', 'rot1': 0, 'rot0': 0, 'rot3': 0, 'rot2': 122, 'depth': -12.5, 'yaw': 0.0, 'datetime': '2019-02-26 09:12:28.961663', 'mgs': 0, 'flw2': 0.22, 'flw1': 0.0, 'flw0': 0.0, 'time': 17.07, 'compass': 0.0, 'pitch': 0.0, 'roll': 0.0}
{'lipoC2': 0.01, 'temp': 0.0, 'lipoC3S3': 0.0, 'state': 'd9_error', 'rot1': 0, 'rot0': 0, 'rot3': 0, 'rot2': 122, 'depth': -12.042, 'yaw': 0.0, 'datetime': '2019-02-26 09:12:29.164699', 'mgs': 0, 'flw2': 0.02, 'flw1': 0.0, 'flw0': 0.12, 'time': 17.28, 'compass': 0.0, 'pitch': 0.0, 'roll': 0.0}
{'lipoC2': 0.0, 'temp': 0.0, 'lipoC3S3': 0.0, 'state': 'd9_error', 'rot1': 0, 'rot0': 0, 'rot3': 0, 'rot2': 122, 'depth': -12.5, 'yaw': 0.0, 'datetime': '2019-02-26 09:12:29.369895', 'mgs': 0, 'flw2': 0.2, 'flw1': 0.0, 'flw0': 0.13, 'time': 17.48, 'compass': 0.0, 'pitch': 0.0, 'roll': 0.0}
{'lipoC2': 0.01, 'temp': 0.0, 'lipoC3S3': 0.0, 'state': 'd9_error', 'rot1': 0, 'rot0': 0, 'rot3': 0, 'rot2': 125, 'depth': -12.5, 'yaw': 0.0, 'datetime': '2019-02-26 09:12:29.571669', 'mgs': 0, 'flw2': 0.37, 'flw1': 0.0, 'flw0': 0.0, 'time': 17.69, 'compass': 0.0, 'pitch': 0.0, 'roll': 0.0}
{'lipoC2': 0.0, 'temp': 0.0, 'lipoC3S3': 0.0, 'state': 'd9_error', 'rot1': 0, 'rot0': 0, 'rot3': 0, 'rot2': 128, 'depth': -12.5, 'yaw': 0.0, 'datetime': '2019-02-26 09:12:29.776907', 'mgs': 0, 'flw2': 0.0, 'flw1': 0.21, 'flw0': 0.0, 'time': 17.89, 'compass': 0.0, 'pitch': 0.0, 'roll': 0.0}
{'lipoC2': 0.0, 'temp': 0.0, 'lipoC3S3': 0.2, 'state': 'd9_error', 'rot1': 0, 'rot0': 0, 'rot3': 0, 'rot2': 150, 'depth': -11.966, 'yaw': 0.0, 'datetime': '2019-02-26 09:12:29.981294', 'mgs': 0, 'flw2': 0.09, 'flw1': 0.0, 'flw0': 0.17, 'time': 18.1, 'compass': 0.0, 'pitch': 0.0, 'roll': 0.0}
{'lipoC2': 0.16, 'temp': 0.0, 'lipoC3S3': 0.0, 'state': 'd9_error', 'rot1': 0, 'rot0': 0, 'rot3': 0, 'rot2': 156, 'depth': -12.5, 'yaw': 0.0, 'datetime': '2019-02-26 09:12:30.185519', 'mgs': 0, 'flw2': 0.0, 'flw1': 0.0, 'flw0': 0.0, 'time': 18.3, 'compass': 0.0, 'pitch': 0.0, 'roll': 0.0}
{'lipoC2': 0.12, 'temp': 0.0, 'lipoC3S3': 0.0, 'state': 'd9_error', 'rot1': 0, 'rot0': 0, 'rot3': 0, 'rot2': 160, 'depth': -10.822, 'yaw': 0.0, 'datetime': '2019-02-26 09:12:30.390749', 'mgs': 0, 'flw2': 0.0, 'flw1': 0.0, 'flw0': 0.0, 'time': 18.5, 'compass': 0.0, 'pitch': 0.0, 'roll': 0.0}
{'lipoC2': 0.0, 'temp': 0.0, 'lipoC3S3': 0.13, 'state': 'd9_error', 'rot1': 0, 'rot0': 0, 'rot3': 0, 'rot2': 181, 'depth': -10.974, 'yaw': 0.0, 'datetime': '2019-02-26 09:12:30.599687', 'mgs': 0, 'flw2': 0.06, 'flw1': 0.0, 'flw0': 0.06, 'time': 18.71, 'compass': 0.0, 'pitch': 0.0, 'roll': 0.0}
{'lipoC2': 0.0, 'temp': 0.0, 'lipoC3S3': 0.2, 'state': 'd9_error', 'rot1': 0, 'rot0': 0, 'rot3': 0, 'rot2': 187, 'depth': -12.271, 'yaw': 0.0, 'datetime': '2019-02-26 09:12:30.802856', 'mgs': 0, 'flw2': 0.0, 'flw1': 0.44, 'flw0': 0.0, 'time': 18.91, 'compass': 0.0, 'pitch': 0.0, 'roll': 0.0}
{'lipoC2': 0.08, 'temp': 0.0, 'lipoC3S3': 0.0, 'state': 'd9_error', 'rot1': 0, 'rot0': 0, 'rot3': 0, 'rot2': 205, 'depth': -12.5, 'yaw': 0.0, 'datetime': '2019-02-26 09:12:31.009442', 'mgs': 0, 'flw2': 0.0, 'flw1': 0.26, 'flw0': 0.04, 'time': 19.12, 'compass': 0.0, 'pitch': 0.0, 'roll': 0.0}
{'lipoC2': 0.01, 'temp': 0.0, 'lipoC3S3': 0.04, 'state': 'd9_error', 'rot1': 0, 'rot0': 0, 'rot3': 0, 'rot2': 208, 'depth': -10.745, 'yaw': 0.0, 'datetime': '2019-02-26 09:12:31.210585', 'mgs': 0, 'flw2': 0.28, 'flw1': 0.09, 'flw0': 0.2, 'time': 19.32, 'compass': 0.0, 'pitch': 0.0, 'roll': 0.0}
{'lipoC2': 0.0, 'temp': 0.0, 'lipoC3S3': 0.0, 'state': 'd9_error', 'rot1': 0, 'rot0': 0, 'rot3': 0, 'rot2': 224, 'depth': -12.271, 'yaw': 0.0, 'datetime': '2019-02-26 09:12:31.416941', 'mgs': 0, 'flw2': 0.24, 'flw1': 0.0, 'flw0': 0.0, 'time': 19.53, 'compass': 0.0, 'pitch': 0.0, 'roll': 0.0}
{'lipoC2': 0.27, 'temp': 0.0, 'lipoC3S3': 0.0, 'state': 'd9_error', 'rot1': 0, 'rot0': 0, 'rot3': 0, 'rot2': 226, 'depth': -12.5, 'yaw': 0.0, 'datetime': '2019-02-26 09:12:31.619097', 'mgs': 0, 'flw2': 0.01, 'flw1': 0.64, 'flw0': 0.0, 'time': 19.73, 'compass': 0.0, 'pitch': 0.0, 'roll': 0.0}
{'lipoC2': 0.0, 'temp': 0.0, 'lipoC3S3': 0.0, 'state': 'd9_error', 'rot1': 0, 'rot0': 0, 'rot3': 0, 'rot2': 226, 'depth': -12.5, 'yaw': 0.0, 'datetime': '2019-02-26 09:12:31.830120', 'mgs': 0, 'flw2': 0.0, 'flw1': 0.44, 'flw0': 0.0, 'time': 19.94, 'compass': 0.0, 'pitch': 0.0, 'roll': 0.0}
{'lipoC2': 0.31, 'temp': 0.0, 'lipoC3S3': 0.0, 'state': 'd9_error', 'rot1': 0, 'rot0': 0, 'rot3': 0, 'rot2': 226, 'depth': -12.5, 'yaw': 0.0, 'datetime': '2019-02-26 09:12:32.134335', 'mgs': 0, 'flw2': 0.18, 'flw1': 0.0, 'flw0': 0.05, 'time': 20.24, 'compass': 0.0, 'pitch': 0.0, 'roll': 0.0}
{'lipoC2': 0.04, 'temp': 0.0, 'lipoC3S3': 0.07, 'state': 'd9_error', 'rot1': 0, 'rot0': 0, 'rot3': 0, 'rot2': 226, 'depth': -12.119, 'yaw': 0.0, 'datetime': '2019-02-26 09:12:32.339028', 'mgs': 0, 'flw2': 0.24, 'flw1': 0.0, 'flw0': 0.02, 'time': 20.45, 'compass': 0.0, 'pitch': 0.0, 'roll': 0.0}
{'lipoC2': 0.01, 'temp': 0.0, 'lipoC3S3': 0.0, 'state': 'd9_error', 'rot1': 0, 'rot0': 0, 'rot3': 0, 'rot2': 226, 'depth': -12.5, 'yaw': 0.0, 'datetime': '2019-02-26 09:12:32.545327', 'mgs': 0, 'flw2': 0.21, 'flw1': 0.0, 'flw0': 0.17, 'time': 20.65, 'compass': 0.0, 'pitch': 0.0, 'roll': 0.0}
{'lipoC2': 0.0, 'temp': 0.0, 'lipoC3S3': 0.0, 'state': 'd9_error', 'rot1': 0, 'rot0': 0, 'rot3': 0, 'rot2': 226, 'depth': -12.271, 'yaw': 0.0, 'datetime': '2019-02-26 09:12:32.747594', 'mgs': 0, 'flw2': 0.01, 'flw1': 0.0, 'flw0': 0.18, 'time': 20.86, 'compass': 0.0, 'pitch': 0.0, 'roll': 0.0}
{'lipoC2': 0.0, 'temp': 0.0, 'lipoC3S3': 0.3, 'state': 'd9_error', 'rot1': 0, 'rot0': 0, 'rot3': 0, 'rot2': 226, 'depth': -11.89, 'yaw': 0.0, 'datetime': '2019-02-26 09:12:32.952992', 'mgs': 0, 'flw2': 0.0, 'flw1': 0.0, 'flw0': 0.09, 'time': 21.06, 'compass': 0.0, 'pitch': 0.0, 'roll': 0.0}
{'lipoC2': 0.09, 'temp': 0.0, 'lipoC3S3': 0.0, 'state': 'd9_error', 'rot1': 0, 'rot0': 0, 'rot3': 0, 'rot2': 226, 'depth': -12.5, 'yaw': 0.0, 'datetime': '2019-02-26 09:12:33.160186', 'mgs': 0, 'flw2': 0.01, 'flw1': 0.0, 'flw0': 0.06, 'time': 21.27, 'compass': 0.0, 'pitch': 0.0, 'roll': 0.0}
{'lipoC2': 0.0, 'temp': 0.0, 'lipoC3S3': 0.12, 'state': 'd9_error', 'rot1': 0, 'rot0': 0, 'rot3': 0, 'rot2': 226, 'depth': -10.745, 'yaw': 0.0, 'datetime': '2019-02-26 09:12:33.363378', 'mgs': 0, 'flw2': 0.0, 'flw1': 0.0, 'flw0': 0.38, 'time': 21.47, 'compass': 0.0, 'pitch': 0.0, 'roll': 0.0}
{'lipoC2': 0.04, 'temp': 0.0, 'lipoC3S3': 0.0, 'state': 'd9_error', 'rot1': 0, 'rot0': 0, 'rot3': 0, 'rot2': 226, 'depth': -12.5, 'yaw': 0.0, 'datetime': '2019-02-26 09:12:33.567704', 'mgs': 0, 'flw2': 0.0, 'flw1': 0.12, 'flw0': 0.0, 'time': 21.68, 'compass': 0.0, 'pitch': 0.0, 'roll': 0.0}
{'lipoC2': 0.0, 'temp': 0.0, 'lipoC3S3': 0.03, 'state': 'd9_error', 'rot1': 0, 'rot0': 0, 'rot3': 0, 'rot2': 226, 'depth': -11.89, 'yaw': 0.0, 'datetime': '2019-02-26 09:12:33.771587', 'mgs': 0, 'flw2': 0.0, 'flw1': 0.62, 'flw0': 0.09, 'time': 21.88, 'compass': 0.0, 'pitch': 0.0, 'roll': 0.0}
{'lipoC2': 0.0, 'temp': 0.0, 'lipoC3S3': 0.0, 'state': 'd9_error', 'rot1': 0, 'rot0': 0, 'rot3': 0, 'rot2': 226, 'depth': -12.5, 'yaw': 0.0, 'datetime': '2019-02-26 09:12:33.977005', 'mgs': 0, 'flw2': 0.22, 'flw1': 0.0, 'flw0': 0.11, 'time': 22.08, 'compass': 0.0, 'pitch': 0.0, 'roll': 0.0}
{'lipoC2': 0.16, 'temp': 0.0, 'lipoC3S3': 0.0, 'state': 'd9_error', 'rot1': 0, 'rot0': 0, 'rot3': 0, 'rot2': 226, 'depth': -12.5, 'yaw': 0.0, 'datetime': '2019-02-26 09:12:34.179193', 'mgs': 0, 'flw2': 0.11, 'flw1': 0.0, 'flw0': 0.0, 'time': 22.29, 'compass': 0.0, 'pitch': 0.0, 'roll': 0.0}
{'lipoC2': 0.03, 'temp': 0.0, 'lipoC3S3': 0.0, 'state': 'd9_error', 'rot1': 0, 'rot0': 0, 'rot3': 0, 'rot2': 226, 'depth': -12.5, 'yaw': 0.0, 'datetime': '2019-02-26 09:12:34.384720', 'mgs': 0, 'flw2': 0.0, 'flw1': 0.82, 'flw0': 0.0, 'time': 22.49, 'compass': 0.0, 'pitch': 0.0, 'roll': 0.0}
{'lipoC2': 0.16, 'temp': 0.0, 'lipoC3S3': 0.0, 'state': 'd9_error', 'rot1': 0, 'rot0': 0, 'rot3': 0, 'rot2': 226, 'depth': -12.424, 'yaw': 0.0, 'datetime': '2019-02-26 09:12:34.590891', 'mgs': 0, 'flw2': 0.18, 'flw1': 0.0, 'flw0': 0.0, 'time': 22.7, 'compass': 0.0, 'pitch': 0.0, 'roll': 0.0}
{'lipoC2': 0.31, 'temp': 0.0, 'lipoC3S3': 0.0, 'state': 'd9_error', 'rot1': 0, 'rot0': 0, 'rot3': 0, 'rot2': 226, 'depth': -12.5, 'yaw': 0.0, 'datetime': '2019-02-26 09:12:34.800025', 'mgs': 0, 'flw2': 0.0, 'flw1': 0.73, 'flw0': 0.0, 'time': 22.9, 'compass': 0.0, 'pitch': 0.0, 'roll': 0.0}
{'lipoC2': 0.11, 'temp': 0.0, 'lipoC3S3': 0.0, 'state': 'd9_error', 'rot1': 0, 'rot0': 0, 'rot3': 0, 'rot2': 226, 'depth': -12.5, 'yaw': 0.0, 'datetime': '2019-02-26 09:12:35.103973', 'mgs': 0, 'flw2': 0.0, 'flw1': 0.0, 'flw0': 0.0, 'time': 23.21, 'compass': 0.0, 'pitch': 0.0, 'roll': 0.0}
{'lipoC2': 0.0, 'temp': 0.0, 'lipoC3S3': 0.25, 'state': 'd9_error', 'rot1': 0, 'rot0': 0, 'rot3': 0, 'rot2': 226, 'depth': -12.5, 'yaw': 0.0, 'datetime': '2019-02-26 09:12:35.307127', 'mgs': 0, 'flw2': 0.0, 'flw1': 0.59, 'flw0': 0.07, 'time': 23.41, 'compass': 0.0, 'pitch': 0.0, 'roll': 0.0}
{'lipoC2': 0.1, 'temp': 0.0, 'lipoC3S3': 0.0, 'state': 'd9_error', 'rot1': 0, 'rot0': 0, 'rot3': 0, 'rot2': 253, 'depth': -12.5, 'yaw': 0.0, 'datetime': '2019-02-26 09:12:35.514291', 'mgs': 0, 'flw2': 0.12, 'flw1': 0.0, 'flw0': 0.16, 'time': 23.62, 'compass': 0.0, 'pitch': 0.0, 'roll': 0.0}
{'lipoC2': 0.18, 'temp': 0.0, 'lipoC3S3': 0.0, 'state': 'd9_error', 'rot1': 0, 'rot0': 0, 'rot3': 0, 'rot2': 260, 'depth': -12.5, 'yaw': 0.0, 'datetime': '2019-02-26 09:12:35.715889', 'mgs': 0, 'flw2': 0.0, 'flw1': 0.0, 'flw0': 0.0, 'time': 23.82, 'compass': 0.0, 'pitch': 0.0, 'roll': 0.0}
{'lipoC2': 0.02, 'temp': 0.0, 'lipoC3S3': 0.04, 'state': 'd9_error', 'rot1': 0, 'rot0': 0, 'rot3': 0, 'rot2': 260, 'depth': -12.5, 'yaw': 0.0, 'datetime': '2019-02-26 09:12:35.923987', 'mgs': 0, 'flw2': 0.0, 'flw1': 0.59, 'flw0': 0.09, 'time': 24.03, 'compass': 0.0, 'pitch': 0.0, 'roll': 0.0}
{'lipoC2': 0.04, 'temp': 0.0, 'lipoC3S3': 0.08, 'state': 'd9_error', 'rot1': 0, 'rot0': 0, 'rot3': 0, 'rot2': 260, 'depth': -10.593, 'yaw': 0.0, 'datetime': '2019-02-26 09:12:36.128173', 'mgs': 0, 'flw2': 0.31, 'flw1': 0.0, 'flw0': 0.0, 'time': 24.23, 'compass': 0.0, 'pitch': 0.0, 'roll': 0.0}
{'lipoC2': 0.0, 'temp': 0.0, 'lipoC3S3': 0.17, 'state': 'd9_error', 'rot1': 0, 'rot0': 0, 'rot3': 0, 'rot2': 260, 'depth': -12.5, 'yaw': 0.0, 'datetime': '2019-02-26 09:12:36.332637', 'mgs': 0, 'flw2': 0.23, 'flw1': 0.0, 'flw0': 0.17, 'time': 24.44, 'compass': 0.0, 'pitch': 0.0, 'roll': 0.0}
{'lipoC2': 0.17, 'temp': 0.0, 'lipoC3S3': 0.04, 'state': 'd9_error', 'rot1': 0, 'rot0': 0, 'rot3': 0, 'rot2': 260, 'depth': -12.5, 'yaw': 0.0, 'datetime': '2019-02-26 09:12:36.538039', 'mgs': 0, 'flw2': 0.1, 'flw1': 0.0, 'flw0': 0.18, 'time': 24.64, 'compass': 0.0, 'pitch': 0.0, 'roll': 0.0}
{'lipoC2': 0.11, 'temp': 0.0, 'lipoC3S3': 0.04, 'state': 'd9_error', 'rot1': 0, 'rot0': 0, 'rot3': 0, 'rot2': 264, 'depth': -12.5, 'yaw': 0.0, 'datetime': '2019-02-26 09:12:36.739830', 'mgs': 0, 'flw2': 0.0, 'flw1': 0.0, 'flw0': 0.0, 'time': 24.84, 'compass': 0.0, 'pitch': 0.0, 'roll': 0.0}
{'lipoC2': 0.16, 'temp': 0.0, 'lipoC3S3': 0.0, 'state': 'd9_error', 'rot1': 0, 'rot0': 0, 'rot3': 0, 'rot2': 264, 'depth': -12.5, 'yaw': 0.0, 'datetime': '2019-02-26 09:12:36.945683', 'mgs': 0, 'flw2': 0.0, 'flw1': 0.0, 'flw0': 0.0, 'time': 25.05, 'compass': 0.0, 'pitch': 0.0, 'roll': 0.0}
{'lipoC2': 0.03, 'temp': 0.0, 'lipoC3S3': 0.0, 'state': 'd9_error', 'rot1': 0, 'rot0': 0, 'rot3': 0, 'rot2': 264, 'depth': -10.211, 'yaw': 0.0, 'datetime': '2019-02-26 09:12:37.153534', 'mgs': 0, 'flw2': 0.06, 'flw1': 0.0, 'flw0': 0.0, 'time': 25.25, 'compass': 0.0, 'pitch': 0.0, 'roll': 0.0}
{'lipoC2': 0.31, 'temp': 0.0, 'lipoC3S3': 0.0, 'state': 'd9_error', 'rot1': 0, 'rot0': 0, 'rot3': 0, 'rot2': 289, 'depth': -12.5, 'yaw': 0.0, 'datetime': '2019-02-26 09:12:37.358672', 'mgs': 0, 'flw2': 0.0, 'flw1': 0.0, 'flw0': 0.0, 'time': 25.46, 'compass': 0.0, 'pitch': 0.0, 'roll': 0.0}
{'lipoC2': 0.17, 'temp': 0.0, 'lipoC3S3': 0.0, 'state': 'd9_error', 'rot1': 0, 'rot0': 0, 'rot3': 0, 'rot2': 320, 'depth': -11.584, 'yaw': 0.0, 'datetime': '2019-02-26 09:12:37.560298', 'mgs': 0, 'flw2': 0.17, 'flw1': 0.0, 'flw0': 0.21, 'time': 25.66, 'compass': 0.0, 'pitch': 0.0, 'roll': 0.0}
{'lipoC2': 0.0, 'temp': 0.0, 'lipoC3S3': 0.01, 'state': 'd9_error', 'rot1': 0, 'rot0': 0, 'rot3': 0, 'rot2': 392, 'depth': -12.347, 'yaw': 0.0, 'datetime': '2019-02-26 09:12:37.765035', 'mgs': 0, 'flw2': 0.0, 'flw1': 0.0, 'flw0': 0.13, 'time': 25.87, 'compass': 0.0, 'pitch': 0.0, 'roll': 0.0}
{'lipoC2': 0.0, 'temp': 0.0, 'lipoC3S3': 0.0, 'state': 'd9_error', 'rot1': 0, 'rot0': 0, 'rot3': 0, 'rot2': 474, 'depth': -10.135, 'yaw': 0.0, 'datetime': '2019-02-26 09:12:37.969943', 'mgs': 0, 'flw2': 0.27, 'flw1': 0.0, 'flw0': 0.0, 'time': 26.07, 'compass': 0.0, 'pitch': 0.0, 'roll': 0.0}
{'lipoC2': 0.0, 'temp': 0.0, 'lipoC3S3': 0.0, 'state': 'd9_error', 'rot1': 0, 'rot0': 0, 'rot3': 0, 'rot2': 474, 'depth': -12.5, 'yaw': 0.0, 'datetime': '2019-02-26 09:12:38.176753', 'mgs': 0, 'flw2': 0.0, 'flw1': 0.32, 'flw0': 0.0, 'time': 26.28, 'compass': 0.0, 'pitch': 0.0, 'roll': 0.0}
{'lipoC2': 0.0, 'temp': 0.0, 'lipoC3S3': 0.0, 'state': 'd9_error', 'rot1': 0, 'rot0': 0, 'rot3': 0, 'rot2': 500, 'depth': -10.745, 'yaw': 0.0, 'datetime': '2019-02-26 09:12:38.381628', 'mgs': 0, 'flw2': 0.17, 'flw1': 0.0, 'flw0': 0.06, 'time': 26.48, 'compass': 0.0, 'pitch': 0.0, 'roll': 0.0}
{'lipoC2': 0.11, 'temp': 0.0, 'lipoC3S3': 0.04, 'state': 'd9_error', 'rot1': 0, 'rot0': 0, 'rot3': 0, 'rot2': 500, 'depth': -12.5, 'yaw': 0.0, 'datetime': '2019-02-26 09:12:38.586840', 'mgs': 0, 'flw2': 0.24, 'flw1': 0.0, 'flw0': 0.04, 'time': 26.69, 'compass': 0.0, 'pitch': 0.0, 'roll': 0.0}
{'lipoC2': 0.0, 'temp': 0.0, 'lipoC3S3': 0.0, 'state': 'd9_error', 'rot1': 0, 'rot0': 0, 'rot3': 0, 'rot2': 518, 'depth': -12.5, 'yaw': 0.0, 'datetime': '2019-02-26 09:12:38.791392', 'mgs': 0, 'flw2': 0.12, 'flw1': 0.0, 'flw0': 0.16, 'time': 26.89, 'compass': 0.0, 'pitch': 0.0, 'roll': 0.0}
{'lipoC2': 0.17, 'temp': 0.0, 'lipoC3S3': 0.0, 'state': 'd9_error', 'rot1': 0, 'rot0': 0, 'rot3': 0, 'rot2': 520, 'depth': -11.432, 'yaw': 0.0, 'datetime': '2019-02-26 09:12:38.994820', 'mgs': 0, 'flw2': 0.0, 'flw1': 0.0, 'flw0': 0.0, 'time': 27.09, 'compass': 0.0, 'pitch': 0.0, 'roll': 0.0}
{'lipoC2': 0.16, 'temp': 0.0, 'lipoC3S3': 0.0, 'state': 'd9_error', 'rot1': 0, 'rot0': 0, 'rot3': 0, 'rot2': 520, 'depth': -12.5, 'yaw': 0.0, 'datetime': '2019-02-26 09:12:39.200828', 'mgs': 0, 'flw2': 0.13, 'flw1': 0.0, 'flw0': 0.0, 'time': 27.3, 'compass': 0.0, 'pitch': 0.0, 'roll': 0.0}
{'lipoC2': 0.0, 'temp': 0.0, 'lipoC3S3': 0.25, 'state': 'd9_error', 'rot1': 0, 'rot0': 0, 'rot3': 0, 'rot2': 546, 'depth': -12.424, 'yaw': 0.0, 'datetime': '2019-02-26 09:12:39.404636', 'mgs': 0, 'flw2': 0.0, 'flw1': 0.0, 'flw0': 0.0, 'time': 27.5, 'compass': 0.0, 'pitch': 0.0, 'roll': 0.0}
{'lipoC2': 0.31, 'temp': 0.0, 'lipoC3S3': 0.0, 'state': 'd9_error', 'rot1': 0, 'rot0': 0, 'rot3': 0, 'rot2': 576, 'depth': -12.5, 'yaw': 0.0, 'datetime': '2019-02-26 09:12:39.711127', 'mgs': 0, 'flw2': 0.26, 'flw1': 0.03, 'flw0': 0.0, 'time': 27.81, 'compass': 0.0, 'pitch': 0.0, 'roll': 0.0}
{'lipoC2': 0.0, 'temp': 0.0, 'lipoC3S3': 0.17, 'state': 'd9_error', 'rot1': 0, 'rot0': 0, 'rot3': 0, 'rot2': 576, 'depth': -11.05, 'yaw': 0.0, 'datetime': '2019-02-26 09:12:39.916242', 'mgs': 0, 'flw2': 0.0, 'flw1': 0.0, 'flw0': 0.0, 'time': 28.01, 'compass': 0.0, 'pitch': 0.0, 'roll': 0.0}
{'lipoC2': 0.0, 'temp': 0.0, 'lipoC3S3': 0.04, 'state': 'd9_error', 'rot1': 0, 'rot0': 0, 'rot3': 0, 'rot2': 576, 'depth': -10.745, 'yaw': 0.0, 'datetime': '2019-02-26 09:12:40.120754', 'mgs': 0, 'flw2': 0.0, 'flw1': 0.0, 'flw0': 0.33, 'time': 28.22, 'compass': 0.0, 'pitch': 0.0, 'roll': 0.0}
{'lipoC2': 0.0, 'temp': 0.0, 'lipoC3S3': 0.0, 'state': 'd9_error', 'rot1': 0, 'rot0': 0, 'rot3': 0, 'rot2': 576, 'depth': -12.5, 'yaw': 0.0, 'datetime': '2019-02-26 09:12:40.328886', 'mgs': 0, 'flw2': 0.02, 'flw1': 0.0, 'flw0': 0.23, 'time': 28.42, 'compass': 0.0, 'pitch': 0.0, 'roll': 0.0}
{'lipoC2': 0.0, 'temp': 0.0, 'lipoC3S3': 0.0, 'state': 'd9_error', 'rot1': 0, 'rot0': 0, 'rot3': 0, 'rot2': 576, 'depth': -10.669, 'yaw': 0.0, 'datetime': '2019-02-26 09:12:40.535157', 'mgs': 0, 'flw2': 0.27, 'flw1': 0.15, 'flw0': 0.27, 'time': 28.63, 'compass': 0.0, 'pitch': 0.0, 'roll': 0.0}
{'lipoC2': 0.06, 'temp': 0.0, 'lipoC3S3': 0.0, 'state': 'd9_error', 'rot1': 0, 'rot0': 0, 'rot3': 0, 'rot2': 576, 'depth': -12.5, 'yaw': 0.0, 'datetime': '2019-02-26 09:12:40.836876', 'mgs': 0, 'flw2': 0.0, 'flw1': 0.64, 'flw0': 0.01, 'time': 28.94, 'compass': 0.0, 'pitch': 0.0, 'roll': 0.0}
{'lipoC2': 0.0, 'temp': 0.0, 'lipoC3S3': 0.0, 'state': 'd9_error', 'rot1': 0, 'rot0': 0, 'rot3': 0, 'rot2': 576, 'depth': -12.119, 'yaw': 0.0, 'datetime': '2019-02-26 09:12:41.043459', 'mgs': 0, 'flw2': 0.26, 'flw1': 0.0, 'flw0': 0.0, 'time': 29.14, 'compass': 0.0, 'pitch': 0.0, 'roll': 0.0}
{'lipoC2': 0.0, 'temp': 0.0, 'lipoC3S3': 0.2, 'state': 'd9_error', 'rot1': 0, 'rot0': 0, 'rot3': 0, 'rot2': 576, 'depth': -11.813, 'yaw': 0.0, 'datetime': '2019-02-26 09:12:41.246698', 'mgs': 0, 'flw2': 0.0, 'flw1': 0.0, 'flw0': 0.15, 'time': 29.34, 'compass': 0.0, 'pitch': 0.0, 'roll': 0.0}
{'lipoC2': 0.0, 'temp': 0.0, 'lipoC3S3': 0.2, 'state': 'd9_error', 'rot1': 0, 'rot0': 0, 'rot3': 0, 'rot2': 576, 'depth': -11.661, 'yaw': 0.0, 'datetime': '2019-02-26 09:12:41.464755', 'mgs': 0, 'flw2': 0.0, 'flw1': 0.0, 'flw0': 0.22, 'time': 29.55, 'compass': 0.0, 'pitch': 0.0, 'roll': 0.0}
{'lipoC2': 0.0, 'temp': 0.0, 'lipoC3S3': 0.0, 'state': 'd9_error', 'rot1': 0, 'rot0': 0, 'rot3': 0, 'rot2': 576, 'depth': -12.5, 'yaw': 0.0, 'datetime': '2019-02-26 09:12:41.757905', 'mgs': 0, 'flw2': 0.0, 'flw1': 0.64, 'flw0': 0.01, 'time': 29.85, 'compass': 0.0, 'pitch': 0.0, 'roll': 0.0}
{'lipoC2': 0.19, 'temp': 0.0, 'lipoC3S3': 0.0, 'state': 'd9_error', 'rot1': 0, 'rot0': 0, 'rot3': 0, 'rot2': 576, 'depth': -12.347, 'yaw': 0.0, 'datetime': '2019-02-26 09:12:41.962741', 'mgs': 0, 'flw2': 0.12, 'flw1': 0.0, 'flw0': 0.23, 'time': 30.06, 'compass': 0.0, 'pitch': 0.0, 'roll': 0.0}
{'lipoC2': 0.0, 'temp': 0.0, 'lipoC3S3': 0.0, 'state': 'd9_error', 'rot1': 0, 'rot0': 0, 'rot3': 0, 'rot2': 576, 'depth': -11.661, 'yaw': 0.0, 'datetime': '2019-02-26 09:12:42.168636', 'mgs': 0, 'flw2': 0.2, 'flw1': 0.0, 'flw0': 0.0, 'time': 30.26, 'compass': 0.0, 'pitch': 0.0, 'roll': 0.0}
{'lipoC2': 0.0, 'temp': 0.0, 'lipoC3S3': 0.09, 'state': 'd9_error', 'rot1': 0, 'rot0': 0, 'rot3': 0, 'rot2': 576, 'depth': -12.042, 'yaw': 0.0, 'datetime': '2019-02-26 09:12:42.374085', 'mgs': 0, 'flw2': 0.0, 'flw1': 0.0, 'flw0': 0.0, 'time': 30.47, 'compass': 0.0, 'pitch': 0.0, 'roll': 0.0}
{'lipoC2': 0.19, 'temp': 0.0, 'lipoC3S3': 0.05, 'state': 'd9_error', 'rot1': 0, 'rot0': 0, 'rot3': 0, 'rot2': 576, 'depth': -12.5, 'yaw': 0.0, 'datetime': '2019-02-26 09:12:42.579098', 'mgs': 0, 'flw2': 0.04, 'flw1': 0.0, 'flw0': 0.18, 'time': 30.67, 'compass': 0.0, 'pitch': 0.0, 'roll': 0.0}
{'lipoC2': 0.0, 'temp': 0.0, 'lipoC3S3': 0.0, 'state': 'd9_error', 'rot1': 0, 'rot0': 0, 'rot3': 0, 'rot2': 576, 'depth': -12.5, 'yaw': 0.0, 'datetime': '2019-02-26 09:12:42.783769', 'mgs': 0, 'flw2': 0.04, 'flw1': 0.0, 'flw0': 0.0, 'time': 30.88, 'compass': 0.0, 'pitch': 0.0, 'roll': 0.0}
{'lipoC2': 0.0, 'temp': 0.0, 'lipoC3S3': 0.11, 'state': 'd9_error', 'rot1': 0, 'rot0': 0, 'rot3': 0, 'rot2': 576, 'depth': -12.5, 'yaw': 0.0, 'datetime': '2019-02-26 09:12:42.988790', 'mgs': 0, 'flw2': 0.21, 'flw1': 0.0, 'flw0': 0.04, 'time': 31.08, 'compass': 0.0, 'pitch': 0.0, 'roll': 0.0}
{'lipoC2': 0.05, 'temp': 0.0, 'lipoC3S3': 0.01, 'state': 'd9_error', 'rot1': 0, 'rot0': 0, 'rot3': 0, 'rot2': 576, 'depth': -12.5, 'yaw': 0.0, 'datetime': '2019-02-26 09:12:43.196134', 'mgs': 0, 'flw2': 0.0, 'flw1': 0.0, 'flw0': 0.18, 'time': 31.29, 'compass': 0.0, 'pitch': 0.0, 'roll': 0.0}
{'lipoC2': 0.0, 'temp': 0.0, 'lipoC3S3': 0.08, 'state': 'd9_error', 'rot1': 0, 'rot0': 0, 'rot3': 0, 'rot2': 576, 'depth': -11.127, 'yaw': 0.0, 'datetime': '2019-02-26 09:12:43.401112', 'mgs': 0, 'flw2': 0.16, 'flw1': 0.0, 'flw0': 0.01, 'time': 31.49, 'compass': 0.0, 'pitch': 0.0, 'roll': 0.0}
{'lipoC2': 0.0, 'temp': 0.0, 'lipoC3S3': 0.03, 'state': 'd9_error', 'rot1': 0, 'rot0': 0, 'rot3': 0, 'rot2': 576, 'depth': -10.669, 'yaw': 0.0, 'datetime': '2019-02-26 09:12:43.607340', 'mgs': 0, 'flw2': 0.1, 'flw1': 0.0, 'flw0': 0.0, 'time': 31.7, 'compass': 0.0, 'pitch': 0.0, 'roll': 0.0}
{'lipoC2': 0.03, 'temp': 0.0, 'lipoC3S3': 0.0, 'state': 'd9_error', 'rot1': 0, 'rot0': 0, 'rot3': 0, 'rot2': 576, 'depth': -12.271, 'yaw': 0.0, 'datetime': '2019-02-26 09:12:43.812603', 'mgs': 0, 'flw2': 0.0, 'flw1': 0.0, 'flw0': 0.2, 'time': 31.9, 'compass': 0.0, 'pitch': 0.0, 'roll': 0.0}
{'lipoC2': 0.15, 'temp': 0.0, 'lipoC3S3': 0.0, 'state': 'd9_error', 'rot1': 0, 'rot0': 0, 'rot3': 0, 'rot2': 576, 'depth': -12.5, 'yaw': 0.0, 'datetime': '2019-02-26 09:12:44.016973', 'mgs': 0, 'flw2': 0.16, 'flw1': 0.0, 'flw0': 0.0, 'time': 32.1, 'compass': 0.0, 'pitch': 0.0, 'roll': 0.0}
{'lipoC2': 0.14, 'temp': 0.0, 'lipoC3S3': 0.0, 'state': 'd9_error', 'rot1': 0, 'rot0': 0, 'rot3': 0, 'rot2': 576, 'depth': -12.5, 'yaw': 0.0, 'datetime': '2019-02-26 09:12:44.221274', 'mgs': 0, 'flw2': 0.04, 'flw1': 0.0, 'flw0': 0.12, 'time': 32.31, 'compass': 0.0, 'pitch': 0.0, 'roll': 0.0}
{'lipoC2': 0.0, 'temp': 0.0, 'lipoC3S3': 0.2, 'state': 'd9_error', 'rot1': 0, 'rot0': 0, 'rot3': 0, 'rot2': 576, 'depth': -12.5, 'yaw': 0.0, 'datetime': '2019-02-26 09:12:44.423658', 'mgs': 0, 'flw2': 0.0, 'flw1': 0.0, 'flw0': 0.2, 'time': 32.51, 'compass': 0.0, 'pitch': 0.0, 'roll': 0.0}
{'lipoC2': 0.0, 'temp': 0.0, 'lipoC3S3': 0.0, 'state': 'd9_error', 'rot1': 0, 'rot0': 0, 'rot3': 0, 'rot2': 576, 'depth': -12.5, 'yaw': 0.0, 'datetime': '2019-02-26 09:12:44.627852', 'mgs': 0, 'flw2': 0.0, 'flw1': 0.03, 'flw0': 0.0, 'time': 32.72, 'compass': 0.0, 'pitch': 0.0, 'roll': 0.0}
{'lipoC2': 0.0, 'temp': 0.0, 'lipoC3S3': 0.0, 'state': 'd9_error', 'rot1': 0, 'rot0': 0, 'rot3': 0, 'rot2': 576, 'depth': -12.5, 'yaw': 0.0, 'datetime': '2019-02-26 09:12:44.832393', 'mgs': 0, 'flw2': 0.0, 'flw1': 0.0, 'flw0': 0.0, 'time': 32.92, 'compass': 0.0, 'pitch': 0.0, 'roll': 0.0}
{'lipoC2': 0.0, 'temp': 0.0, 'lipoC3S3': 0.0, 'state': 'd9_error', 'rot1': 0, 'rot0': 0, 'rot3': 0, 'rot2': 576, 'depth': -11.279, 'yaw': 0.0, 'datetime': '2019-02-26 09:12:45.040750', 'mgs': 0, 'flw2': 0.24, 'flw1': 0.0, 'flw0': 0.0, 'time': 33.13, 'compass': 0.0, 'pitch': 0.0, 'roll': 0.0}
{'lipoC2': 0.04, 'temp': 0.0, 'lipoC3S3': 0.0, 'state': 'd9_error', 'rot1': 0, 'rot0': 0, 'rot3': 0, 'rot2': 576, 'depth': -12.5, 'yaw': 0.0, 'datetime': '2019-02-26 09:12:45.245008', 'mgs': 0, 'flw2': 0.0, 'flw1': 0.18, 'flw0': 0.0, 'time': 33.33, 'compass': 0.0, 'pitch': 0.0, 'roll': 0.0}
{'lipoC2': 0.18, 'temp': 0.0, 'lipoC3S3': 0.0, 'state': 'd9_error', 'rot1': 0, 'rot0': 0, 'rot3': 0, 'rot2': 576, 'depth': -11.966, 'yaw': 0.0, 'datetime': '2019-02-26 09:12:45.450537', 'mgs': 0, 'flw2': 0.0, 'flw1': 0.44, 'flw0': 0.22, 'time': 33.54, 'compass': 0.0, 'pitch': 0.0, 'roll': 0.0}
{'lipoC2': 0.0, 'temp': 0.0, 'lipoC3S3': 0.09, 'state': 'd9_error', 'rot1': 0, 'rot0': 0, 'rot3': 0, 'rot2': 576, 'depth': -10.822, 'yaw': 0.0, 'datetime': '2019-02-26 09:12:45.655547', 'mgs': 0, 'flw2': 0.0, 'flw1': 0.09, 'flw0': 0.01, 'time': 33.74, 'compass': 0.0, 'pitch': 0.0, 'roll': 0.0}
{'lipoC2': 0.0, 'temp': 0.0, 'lipoC3S3': 0.0, 'state': 'd9_error', 'rot1': 0, 'rot0': 0, 'rot3': 0, 'rot2': 576, 'depth': -12.5, 'yaw': 0.0, 'datetime': '2019-02-26 09:12:45.860502', 'mgs': 0, 'flw2': 0.33, 'flw1': 0.0, 'flw0': 0.0, 'time': 33.95, 'compass': 0.0, 'pitch': 0.0, 'roll': 0.0}
{'lipoC2': 0.0, 'temp': 0.0, 'lipoC3S3': 0.0, 'state': 'd9_error', 'rot1': 0, 'rot0': 0, 'rot3': 0, 'rot2': 576, 'depth': -12.5, 'yaw': 0.0, 'datetime': '2019-02-26 09:12:46.064915', 'mgs': 0, 'flw2': 0.0, 'flw1': 0.21, 'flw0': 0.0, 'time': 34.15, 'compass': 0.0, 'pitch': 0.0, 'roll': 0.0}
{'lipoC2': 0.0, 'temp': 0.0, 'lipoC3S3': 0.28, 'state': 'd9_error', 'rot1': 0, 'rot0': 0, 'rot3': 0, 'rot2': 576, 'depth': -11.966, 'yaw': 0.0, 'datetime': '2019-02-26 09:12:46.370194', 'mgs': 0, 'flw2': 0.21, 'flw1': 0.0, 'flw0': 0.23, 'time': 34.46, 'compass': 0.0, 'pitch': 0.0, 'roll': 0.0}
{'lipoC2': 0.0, 'temp': 0.0, 'lipoC3S3': 0.34, 'state': 'd9_error', 'rot1': 0, 'rot0': 0, 'rot3': 0, 'rot2': 576, 'depth': -12.424, 'yaw': 0.0, 'datetime': '2019-02-26 09:12:46.578614', 'mgs': 0, 'flw2': 0.18, 'flw1': 0.0, 'flw0': 0.13, 'time': 34.66, 'compass': 0.0, 'pitch': 0.0, 'roll': 0.0}
{'lipoC2': 0.0, 'temp': 0.0, 'lipoC3S3': 0.0, 'state': 'd9_error', 'rot1': 0, 'rot0': 0, 'rot3': 0, 'rot2': 576, 'depth': -12.5, 'yaw': 0.0, 'datetime': '2019-02-26 09:12:46.880995', 'mgs': 0, 'flw2': 0.12, 'flw1': 0.0, 'flw0': 0.0, 'time': 34.97, 'compass': 0.0, 'pitch': 0.0, 'roll': 0.0}
{'lipoC2': 0.0, 'temp': 0.0, 'lipoC3S3': 0.04, 'state': 'd9_error', 'rot1': 0, 'rot0': 0, 'rot3': 0, 'rot2': 576, 'depth': -12.5, 'yaw': 0.0, 'datetime': '2019-02-26 09:12:47.088891', 'mgs': 0, 'flw2': 0.06, 'flw1': 0.0, 'flw0': 0.01, 'time': 35.17, 'compass': 0.0, 'pitch': 0.0, 'roll': 0.0}
{'lipoC2': 0.12, 'temp': 0.0, 'lipoC3S3': 0.0, 'state': 'd9_error', 'rot1': 0, 'rot0': 0, 'rot3': 0, 'rot2': 576, 'depth': -12.042, 'yaw': 0.0, 'datetime': '2019-02-26 09:12:47.292328', 'mgs': 0, 'flw2': 0.12, 'flw1': 0.0, 'flw0': 0.05, 'time': 35.38, 'compass': 0.0, 'pitch': 0.0, 'roll': 0.0}
{'lipoC2': 0.0, 'temp': 0.0, 'lipoC3S3': 0.12, 'state': 'd9_error', 'rot1': 0, 'rot0': 0, 'rot3': 0, 'rot2': 576, 'depth': -10.898, 'yaw': 0.0, 'datetime': '2019-02-26 09:12:47.496255', 'mgs': 0, 'flw2': 0.0, 'flw1': 0.0, 'flw0': 0.04, 'time': 35.58, 'compass': 0.0, 'pitch': 0.0, 'roll': 0.0}
{'lipoC2': 0.03, 'temp': 0.0, 'lipoC3S3': 0.0, 'state': 'd9_error', 'rot1': 0, 'rot0': 0, 'rot3': 0, 'rot2': 576, 'depth': -12.5, 'yaw': 0.0, 'datetime': '2019-02-26 09:12:47.700039', 'mgs': 0, 'flw2': 0.0, 'flw1': 0.0, 'flw0': 0.07, 'time': 35.79, 'compass': 0.0, 'pitch': 0.0, 'roll': 0.0}
{'lipoC2': 0.0, 'temp': 0.0, 'lipoC3S3': 0.0, 'state': 'd9_error', 'rot1': 0, 'rot0': 0, 'rot3': 0, 'rot2': 576, 'depth': -12.5, 'yaw': 0.0, 'datetime': '2019-02-26 09:12:47.908086', 'mgs': 0, 'flw2': 0.05, 'flw1': 0.0, 'flw0': 0.13, 'time': 35.99, 'compass': 0.0, 'pitch': 0.0, 'roll': 0.0}
{'lipoC2': 0.06, 'temp': 0.0, 'lipoC3S3': 0.0, 'state': 'd9_error', 'rot1': 0, 'rot0': 0, 'rot3': 0, 'rot2': 576, 'depth': -12.5, 'yaw': 0.0, 'datetime': '2019-02-26 09:12:48.110080', 'mgs': 0, 'flw2': 0.0, 'flw1': 0.0, 'flw0': 0.0, 'time': 36.19, 'compass': 0.0, 'pitch': 0.0, 'roll': 0.0}
{'lipoC2': 0.04, 'temp': 0.0, 'lipoC3S3': 0.0, 'state': 'd9_error', 'rot1': 0, 'rot0': 0, 'rot3': 0, 'rot2': 576, 'depth': -12.5, 'yaw': 0.0, 'datetime': '2019-02-26 09:12:48.316601', 'mgs': 0, 'flw2': 0.01, 'flw1': 0.26, 'flw0': 0.0, 'time': 36.4, 'compass': 0.0, 'pitch': 0.0, 'roll': 0.0}
{'lipoC2': 0.0, 'temp': 0.0, 'lipoC3S3': 0.0, 'state': 'd9_error', 'rot1': 0, 'rot0': 0, 'rot3': 0, 'rot2': 576, 'depth': -12.5, 'yaw': 0.0, 'datetime': '2019-02-26 09:12:48.521035', 'mgs': 0, 'flw2': 0.23, 'flw1': 0.0, 'flw0': 0.0, 'time': 36.6, 'compass': 0.0, 'pitch': 0.0, 'roll': 0.0}
{'lipoC2': 0.0, 'temp': 0.0, 'lipoC3S3': 0.03, 'state': 'd9_error', 'rot1': 0, 'rot0': 0, 'rot3': 0, 'rot2': 576, 'depth': -11.89, 'yaw': 0.0, 'datetime': '2019-02-26 09:12:48.723827', 'mgs': 0, 'flw2': 0.0, 'flw1': 0.44, 'flw0': 0.01, 'time': 36.81, 'compass': 0.0, 'pitch': 0.0, 'roll': 0.0}
{'lipoC2': 0.15, 'temp': 0.0, 'lipoC3S3': 0.0, 'state': 'd9_error', 'rot1': 0, 'rot0': 0, 'rot3': 0, 'rot2': 576, 'depth': -12.424, 'yaw': 0.0, 'datetime': '2019-02-26 09:12:48.928976', 'mgs': 0, 'flw2': 0.16, 'flw1': 0.0, 'flw0': 0.23, 'time': 37.01, 'compass': 0.0, 'pitch': 0.0, 'roll': 0.0}
{'lipoC2': 0.0, 'temp': 0.0, 'lipoC3S3': 0.08, 'state': 'd9_error', 'rot1': 0, 'rot0': 0, 'rot3': 0, 'rot2': 576, 'depth': -12.5, 'yaw': 0.0, 'datetime': '2019-02-26 09:12:49.135978', 'mgs': 0, 'flw2': 0.0, 'flw1': 0.0, 'flw0': 0.38, 'time': 37.22, 'compass': 0.0, 'pitch': 0.0, 'roll': 0.0}
{'lipoC2': 0.0, 'temp': 0.0, 'lipoC3S3': 0.0, 'state': 'd9_error', 'rot1': 0, 'rot0': 0, 'rot3': 0, 'rot2': 576, 'depth': -12.5, 'yaw': 0.0, 'datetime': '2019-02-26 09:12:49.342032', 'mgs': 0, 'flw2': 0.06, 'flw1': 0.38, 'flw0': 0.0, 'time': 37.42, 'compass': 0.0, 'pitch': 0.0, 'roll': 0.0}
{'lipoC2': 0.18, 'temp': 0.0, 'lipoC3S3': 0.0, 'state': 'd9_error', 'rot1': 0, 'rot0': 0, 'rot3': 0, 'rot2': 576, 'depth': -12.5, 'yaw': 0.0, 'datetime': '2019-02-26 09:12:49.547844', 'mgs': 0, 'flw2': 0.27, 'flw1': 0.12, 'flw0': 0.26, 'time': 37.63, 'compass': 0.0, 'pitch': 0.0, 'roll': 0.0}
{'lipoC2': 0.18, 'temp': 0.0, 'lipoC3S3': 0.0, 'state': 'd9_error', 'rot1': 0, 'rot0': 0, 'rot3': 0, 'rot2': 576, 'depth': -12.5, 'yaw': 0.0, 'datetime': '2019-02-26 09:12:49.752474', 'mgs': 0, 'flw2': 0.0, 'flw1': 0.0, 'flw0': 0.0, 'time': 37.83, 'compass': 0.0, 'pitch': 0.0, 'roll': 0.0}
{'lipoC2': 0.01, 'temp': 0.0, 'lipoC3S3': 0.0, 'state': 'd9_error', 'rot1': 0, 'rot0': 0, 'rot3': 0, 'rot2': 576, 'depth': -12.5, 'yaw': 0.0, 'datetime': '2019-02-26 09:12:49.957547', 'mgs': 0, 'flw2': 0.0, 'flw1': 0.0, 'flw0': 0.0, 'time': 38.04, 'compass': 0.0, 'pitch': 0.0, 'roll': 0.0}
{'lipoC2': 0.02, 'temp': 0.0, 'lipoC3S3': 0.0, 'state': 'd9_error', 'rot1': 0, 'rot0': 0, 'rot3': 0, 'rot2': 576, 'depth': -10.287, 'yaw': 0.0, 'datetime': '2019-02-26 09:12:50.162238', 'mgs': 0, 'flw2': 0.07, 'flw1': 0.59, 'flw0': 0.0, 'time': 38.24, 'compass': 0.0, 'pitch': 0.0, 'roll': 0.0}
{'lipoC2': 0.04, 'temp': 0.0, 'lipoC3S3': 0.08, 'state': 'd9_error', 'rot1': 0, 'rot0': 0, 'rot3': 0, 'rot2': 576, 'depth': -12.5, 'yaw': 0.0, 'datetime': '2019-02-26 09:12:50.367254', 'mgs': 0, 'flw2': 0.05, 'flw1': 0.26, 'flw0': 0.01, 'time': 38.44, 'compass': 0.0, 'pitch': 0.0, 'roll': 0.0}
{'lipoC2': 0.0, 'temp': 0.0, 'lipoC3S3': 0.0, 'state': 'd9_error', 'rot1': 0, 'rot0': 0, 'rot3': 0, 'rot2': 576, 'depth': -12.5, 'yaw': 0.0, 'datetime': '2019-02-26 09:12:50.572189', 'mgs': 0, 'flw2': 0.02, 'flw1': 0.0, 'flw0': 0.1, 'time': 38.65, 'compass': 0.0, 'pitch': 0.0, 'roll': 0.0}
{'lipoC2': 0.0, 'temp': 0.0, 'lipoC3S3': 0.0, 'state': 'd9_error', 'rot1': 0, 'rot0': 0, 'rot3': 0, 'rot2': 576, 'depth': -12.5, 'yaw': 0.0, 'datetime': '2019-02-26 09:12:50.776780', 'mgs': 0, 'flw2': 0.38, 'flw1': 0.0, 'flw0': 0.0, 'time': 38.85, 'compass': 0.0, 'pitch': 0.0, 'roll': 0.0}
{'lipoC2': 0.03, 'temp': 0.0, 'lipoC3S3': 0.0, 'state': 'd9_error', 'rot1': 0, 'rot0': 0, 'rot3': 0, 'rot2': 576, 'depth': -10.745, 'yaw': 0.0, 'datetime': '2019-02-26 09:12:50.981631', 'mgs': 0, 'flw2': 0.38, 'flw1': 0.0, 'flw0': 0.0, 'time': 39.06, 'compass': 0.0, 'pitch': 0.0, 'roll': 0.0}
{'lipoC2': 0.0, 'temp': 0.0, 'lipoC3S3': 0.0, 'state': 'd9_error', 'rot1': 0, 'rot0': 0, 'rot3': 0, 'rot2': 576, 'depth': -11.89, 'yaw': 0.0, 'datetime': '2019-02-26 09:12:51.186380', 'mgs': 0, 'flw2': 0.0, 'flw1': 0.0, 'flw0': 0.31, 'time': 39.26, 'compass': 0.0, 'pitch': 0.0, 'roll': 0.0}
{'lipoC2': 0.02, 'temp': 0.0, 'lipoC3S3': 0.0, 'state': 'd9_error', 'rot1': 0, 'rot0': 0, 'rot3': 0, 'rot2': 576, 'depth': -12.5, 'yaw': 0.0, 'datetime': '2019-02-26 09:12:51.399379', 'mgs': 0, 'flw2': 0.05, 'flw1': 0.0, 'flw0': 0.0, 'time': 39.47, 'compass': 0.0, 'pitch': 0.0, 'roll': 0.0}
{'lipoC2': 0.18, 'temp': 0.0, 'lipoC3S3': 0.04, 'state': 'd9_error', 'rot1': 0, 'rot0': 0, 'rot3': 0, 'rot2': 576, 'depth': -12.5, 'yaw': 0.0, 'datetime': '2019-02-26 09:12:51.694901', 'mgs': 0, 'flw2': 0.04, 'flw1': 0.38, 'flw0': 0.02, 'time': 39.78, 'compass': 0.0, 'pitch': 0.0, 'roll': 0.0}
{'lipoC2': 0.0, 'temp': 0.0, 'lipoC3S3': 0.0, 'state': 'd9_error', 'rot1': 0, 'rot0': 0, 'rot3': 0, 'rot2': 576, 'depth': -12.5, 'yaw': 0.0, 'datetime': '2019-02-26 09:12:51.902588', 'mgs': 0, 'flw2': 0.0, 'flw1': 0.67, 'flw0': 0.0, 'time': 39.98, 'compass': 0.0, 'pitch': 0.0, 'roll': 0.0}
{'lipoC2': 0.0, 'temp': 0.0, 'lipoC3S3': 0.0, 'state': 'd9_error', 'rot1': 0, 'rot0': 0, 'rot3': 0, 'rot2': 576, 'depth': -11.737, 'yaw': 0.0, 'datetime': '2019-02-26 09:12:52.108561', 'mgs': 0, 'flw2': 0.16, 'flw1': 0.0, 'flw0': 0.0, 'time': 40.18, 'compass': 0.0, 'pitch': 0.0, 'roll': 0.0}
{'lipoC2': 0.0, 'temp': 0.0, 'lipoC3S3': 0.0, 'state': 'd9_error', 'rot1': 0, 'rot0': 0, 'rot3': 0, 'rot2': 576, 'depth': -11.356, 'yaw': 0.0, 'datetime': '2019-02-26 09:12:52.313177', 'mgs': 0, 'flw2': 0.0, 'flw1': 0.0, 'flw0': 0.27, 'time': 40.39, 'compass': 0.0, 'pitch': 0.0, 'roll': 0.0}
{'lipoC2': 0.0, 'temp': 0.0, 'lipoC3S3': 0.0, 'state': 'd9_error', 'rot1': 0, 'rot0': 0, 'rot3': 0, 'rot2': 576, 'depth': -12.5, 'yaw': 0.0, 'datetime': '2019-02-26 09:12:52.516039', 'mgs': 0, 'flw2': 0.27, 'flw1': 0.03, 'flw0': 0.38, 'time': 40.59, 'compass': 0.0, 'pitch': 0.0, 'roll': 0.0}
{'lipoC2': 0.0, 'temp': 0.0, 'lipoC3S3': 0.04, 'state': 'd9_error', 'rot1': 0, 'rot0': 0, 'rot3': 0, 'rot2': 576, 'depth': -12.5, 'yaw': 0.0, 'datetime': '2019-02-26 09:12:52.721630', 'mgs': 0, 'flw2': 0.09, 'flw1': 0.53, 'flw0': 0.0, 'time': 40.8, 'compass': 0.0, 'pitch': 0.0, 'roll': 0.0}
{'lipoC2': 0.29, 'temp': 0.0, 'lipoC3S3': 0.0, 'state': 'd9_error', 'rot1': 0, 'rot0': 0, 'rot3': 0, 'rot2': 576, 'depth': -12.5, 'yaw': 0.0, 'datetime': '2019-02-26 09:12:52.924022', 'mgs': 0, 'flw2': 0.01, 'flw1': 0.0, 'flw0': 0.0, 'time': 41.0, 'compass': 0.0, 'pitch': 0.0, 'roll': 0.0}
{'lipoC2': 0.0, 'temp': 0.0, 'lipoC3S3': 0.0, 'state': 'd9_error', 'rot1': 0, 'rot0': 0, 'rot3': 0, 'rot2': 576, 'depth': -12.5, 'yaw': 0.0, 'datetime': '2019-02-26 09:12:53.128957', 'mgs': 0, 'flw2': 0.01, 'flw1': 0.29, 'flw0': 0.0, 'time': 41.21, 'compass': 0.0, 'pitch': 0.0, 'roll': 0.0}
{'lipoC2': 0.0, 'temp': 0.0, 'lipoC3S3': 0.0, 'state': 'd9_error', 'rot1': 0, 'rot0': 0, 'rot3': 0, 'rot2': 576, 'depth': -12.5, 'yaw': 0.0, 'datetime': '2019-02-26 09:12:53.335178', 'mgs': 0, 'flw2': 0.38, 'flw1': 0.0, 'flw0': 0.0, 'time': 41.41, 'compass': 0.0, 'pitch': 0.0, 'roll': 0.0}
{'lipoC2': 0.0, 'temp': 0.0, 'lipoC3S3': 0.0, 'state': 'd9_error', 'rot1': 0, 'rot0': 0, 'rot3': 0, 'rot2': 576, 'depth': -12.5, 'yaw': 0.0, 'datetime': '2019-02-26 09:12:53.538556', 'mgs': 0, 'flw2': 0.17, 'flw1': 0.0, 'flw0': 0.0, 'time': 41.62, 'compass': 0.0, 'pitch': 0.0, 'roll': 0.0}
{'lipoC2': 0.0, 'temp': 0.0, 'lipoC3S3': 0.3, 'state': 'd9_error', 'rot1': 0, 'rot0': 0, 'rot3': 0, 'rot2': 576, 'depth': -11.813, 'yaw': 0.0, 'datetime': '2019-02-26 09:12:53.744053', 'mgs': 0, 'flw2': 0.12, 'flw1': 0.0, 'flw0': 0.18, 'time': 41.82, 'compass': 0.0, 'pitch': 0.0, 'roll': 0.0}
{'lipoC2': 0.25, 'temp': 0.0, 'lipoC3S3': 0.0, 'state': 'd9_error', 'rot1': 0, 'rot0': 0, 'rot3': 0, 'rot2': 576, 'depth': -12.5, 'yaw': 0.0, 'datetime': '2019-02-26 09:12:53.948676', 'mgs': 0, 'flw2': 0.0, 'flw1': 0.0, 'flw0': 0.0, 'time': 42.02, 'compass': 0.0, 'pitch': 0.0, 'roll': 0.0}
{'lipoC2': 0.13, 'temp': 0.0, 'lipoC3S3': 0.0, 'state': 'd9_error', 'rot1': 0, 'rot0': 0, 'rot3': 0, 'rot2': 576, 'depth': -11.356, 'yaw': 0.0, 'datetime': '2019-02-26 09:12:54.152739', 'mgs': 0, 'flw2': 0.24, 'flw1': 0.09, 'flw0': 0.22, 'time': 42.23, 'compass': 0.0, 'pitch': 0.0, 'roll': 0.0}
{'lipoC2': 0.01, 'temp': 0.0, 'lipoC3S3': 0.0, 'state': 'd9_error', 'rot1': 0, 'rot0': 0, 'rot3': 0, 'rot2': 576, 'depth': -10.287, 'yaw': 0.0, 'datetime': '2019-02-26 09:12:54.356879', 'mgs': 0, 'flw2': 0.26, 'flw1': 0.0, 'flw0': 0.0, 'time': 42.43, 'compass': 0.0, 'pitch': 0.0, 'roll': 0.0}
{'lipoC2': 0.0, 'temp': 0.0, 'lipoC3S3': 0.0, 'state': 'd9_error', 'rot1': 0, 'rot0': 0, 'rot3': 0, 'rot2': 576, 'depth': -11.508, 'yaw': 0.0, 'datetime': '2019-02-26 09:12:54.565158', 'mgs': 0, 'flw2': 0.0, 'flw1': 0.0, 'flw0': 0.13, 'time': 42.64, 'compass': 0.0, 'pitch': 0.0, 'roll': 0.0}
{'lipoC2': 0.0, 'temp': 0.0, 'lipoC3S3': 0.0, 'state': 'd9_error', 'rot1': 0, 'rot0': 0, 'rot3': 0, 'rot2': 576, 'depth': -12.5, 'yaw': 0.0, 'datetime': '2019-02-26 09:12:54.768950', 'mgs': 0, 'flw2': 0.17, 'flw1': 0.0, 'flw0': 0.0, 'time': 42.84, 'compass': 0.0, 'pitch': 0.0, 'roll': 0.0}
{'lipoC2': 0.01, 'temp': 0.0, 'lipoC3S3': 0.0, 'state': 'd9_error', 'rot1': 0, 'rot0': 0, 'rot3': 0, 'rot2': 576, 'depth': -12.5, 'yaw': 0.0, 'datetime': '2019-02-26 09:12:54.972272', 'mgs': 0, 'flw2': 0.12, 'flw1': 0.0, 'flw0': 0.0, 'time': 43.05, 'compass': 0.0, 'pitch': 0.0, 'roll': 0.0}
{'lipoC2': 0.0, 'temp': 0.0, 'lipoC3S3': 0.0, 'state': 'd9_error', 'rot1': 0, 'rot0': 0, 'rot3': 0, 'rot2': 576, 'depth': -12.5, 'yaw': 0.0, 'datetime': '2019-02-26 09:12:55.177296', 'mgs': 0, 'flw2': 0.24, 'flw1': 0.03, 'flw0': 0.24, 'time': 43.25, 'compass': 0.0, 'pitch': 0.0, 'roll': 0.0}
{'lipoC2': 0.0, 'temp': 0.0, 'lipoC3S3': 0.0, 'state': 'd9_error', 'rot1': 0, 'rot0': 0, 'rot3': 0, 'rot2': 576, 'depth': -12.5, 'yaw': 0.0, 'datetime': '2019-02-26 09:12:55.384646', 'mgs': 0, 'flw2': 0.0, 'flw1': 0.62, 'flw0': 0.07, 'time': 43.46, 'compass': 0.0, 'pitch': 0.0, 'roll': 0.0}
{'lipoC2': 0.12, 'temp': 0.0, 'lipoC3S3': 0.0, 'state': 'd9_error', 'rot1': 0, 'rot0': 0, 'rot3': 0, 'rot2': 576, 'depth': -12.5, 'yaw': 0.0, 'datetime': '2019-02-26 09:12:55.589211', 'mgs': 0, 'flw2': 0.0, 'flw1': 0.0, 'flw0': 0.21, 'time': 43.66, 'compass': 0.0, 'pitch': 0.0, 'roll': 0.0}
{'lipoC2': 0.2, 'temp': 0.0, 'lipoC3S3': 0.08, 'state': 'd9_error', 'rot1': 0, 'rot0': 0, 'rot3': 0, 'rot2': 576, 'depth': -11.737, 'yaw': 0.0, 'datetime': '2019-02-26 09:12:55.794629', 'mgs': 0, 'flw2': 0.24, 'flw1': 0.03, 'flw0': 0.18, 'time': 43.87, 'compass': 0.0, 'pitch': 0.0, 'roll': 0.0}
{'lipoC2': 0.0, 'temp': 0.0, 'lipoC3S3': 0.0, 'state': 'd9_error', 'rot1': 0, 'rot0': 0, 'rot3': 0, 'rot2': 576, 'depth': -12.347, 'yaw': 0.0, 'datetime': '2019-02-26 09:12:55.996630', 'mgs': 0, 'flw2': 0.26, 'flw1': 0.0, 'flw0': 0.06, 'time': 44.07, 'compass': 0.0, 'pitch': 0.0, 'roll': 0.0}
