{'lipoC2': 0.0, 'temp': 0.0, 'lipoC3S3': 12.34, 'state': 'normal', 'rot1': 0, 'rot0': 0, 'rot3': 0, 'rot2': 0, 'depth': 0.928, 'yaw': 0.0, 'datetime': '2018-12-18 17:44:52.028083', 'mgs': 0, 'flw2': 0.0, 'flw1': 0.44, 'flw0': 0.0, 'time': 1.26, 'compass': -119.68, 'pitch': -0.65, 'roll': 1.91}
{'lipoC2': 0.0, 'temp': 0.0, 'lipoC3S3': 12.47, 'state': 'normal', 'rot1': 0, 'rot0': 0, 'rot3': 0, 'rot2': 0, 'depth': 1.08, 'yaw': 0.2, 'datetime': '2018-12-18 17:44:52.236221', 'mgs': 0, 'flw2': 0.0, 'flw1': 0.38, 'flw0': 0.06, 'time': 1.47, 'compass': -119.49, 'pitch': -0.72, 'roll': 1.91}
{'lipoC2': 0.0, 'temp': 0.0, 'lipoC3S3': 12.55, 'state': 'normal', 'rot1': 0, 'rot0': 0, 'rot3': 0, 'rot2': 0, 'depth': 1.538, 'yaw': 0.44, 'datetime': '2018-12-18 17:44:52.443541', 'mgs': 0, 'flw2': 0.0, 'flw1': 0.03, 'flw0': 0.0, 'time': 1.67, 'compass': -119.24, 'pitch': -0.43, 'roll': 1.91}
{'lipoC2': 0.0, 'temp': 0.0, 'lipoC3S3': 12.46, 'state': 'normal', 'rot1': 0, 'rot0': 0, 'rot3': 0, 'rot2': 0, 'depth': 1.004, 'yaw': 0.7, 'datetime': '2018-12-18 17:44:52.650336', 'mgs': 0, 'flw2': 0.0, 'flw1': 0.26, 'flw0': 0.12, 'time': 1.88, 'compass': -118.98, 'pitch': -0.19, 'roll': 1.93}
{'lipoC2': 0.03, 'temp': 0.0, 'lipoC3S3': 12.46, 'state': 'normal', 'rot1': 0, 'rot0': 0, 'rot3': 0, 'rot2': 0, 'depth': -1.437, 'yaw': 0.96, 'datetime': '2018-12-18 17:44:52.860804', 'mgs': 0, 'flw2': 0.17, 'flw1': 0.0, 'flw0': 0.0, 'time': 2.09, 'compass': -118.72, 'pitch': -0.23, 'roll': 2.06}
{'lipoC2': 0.0, 'temp': 0.0, 'lipoC3S3': 12.18, 'state': 'normal', 'rot1': 0, 'rot0': 0, 'rot3': 0, 'rot2': 0, 'depth': -0.522, 'yaw': 1.24, 'datetime': '2018-12-18 17:44:53.068480', 'mgs': 0, 'flw2': 0.0, 'flw1': 0.0, 'flw0': 0.18, 'time': 2.3, 'compass': -118.44, 'pitch': -0.29, 'roll': 2.13}
{'lipoC2': 0.0, 'temp': 0.0, 'lipoC3S3': 12.58, 'state': 'normal', 'rot1': 0, 'rot0': 0, 'rot3': 0, 'rot2': 0, 'depth': 1.538, 'yaw': 1.56, 'datetime': '2018-12-18 17:44:53.277382', 'mgs': 0, 'flw2': 0.0, 'flw1': 0.0, 'flw0': 0.22, 'time': 2.5, 'compass': -118.12, 'pitch': -0.19, 'roll': 2.13}
{'lipoC2': 0.0, 'temp': 0.0, 'lipoC3S3': 12.39, 'state': 'normal', 'rot1': 0, 'rot0': 0, 'rot3': 0, 'rot2': 0, 'depth': 0.165, 'yaw': 1.9, 'datetime': '2018-12-18 17:44:53.485818', 'mgs': 0, 'flw2': 0.12, 'flw1': 0.32, 'flw0': 0.13, 'time': 2.71, 'compass': -117.78, 'pitch': 0.03, 'roll': 2.13}
{'lipoC2': 0.0, 'temp': 0.0, 'lipoC3S3': 12.21, 'state': 'normal', 'rot1': 0, 'rot0': 0, 'rot3': 0, 'rot2': 0, 'depth': -0.98, 'yaw': 2.24, 'datetime': '2018-12-18 17:44:53.693705', 'mgs': 0, 'flw2': 0.0, 'flw1': 0.0, 'flw0': 0.18, 'time': 2.92, 'compass': -117.44, 'pitch': 0.06, 'roll': 2.13}
{'lipoC2': 0.0, 'temp': 0.0, 'lipoC3S3': 12.58, 'state': 'normal', 'rot1': 0, 'rot0': 0, 'rot3': 0, 'rot2': 0, 'depth': 1.614, 'yaw': 2.62, 'datetime': '2018-12-18 17:44:53.901258', 'mgs': 0, 'flw2': 0.17, 'flw1': 0.09, 'flw0': 0.0, 'time': 3.13, 'compass': -117.06, 'pitch': 0.07, 'roll': 2.13}
{'lipoC2': 0.02, 'temp': 0.0, 'lipoC3S3': 12.22, 'state': 'normal', 'rot1': 0, 'rot0': 0, 'rot3': 0, 'rot2': 0, 'depth': 1.385, 'yaw': 3.01, 'datetime': '2018-12-18 17:44:54.109346', 'mgs': 0, 'flw2': 0.0, 'flw1': 0.18, 'flw0': 0.17, 'time': 3.34, 'compass': -116.68, 'pitch': 0.09, 'roll': 2.14}
{'lipoC2': 0.14, 'temp': 0.0, 'lipoC3S3': 12.29, 'state': 'normal', 'rot1': 0, 'rot0': 0, 'rot3': 0, 'rot2': 0, 'depth': 0.928, 'yaw': 3.45, 'datetime': '2018-12-18 17:44:54.318332', 'mgs': 0, 'flw2': 0.06, 'flw1': 0.0, 'flw0': 0.13, 'time': 3.55, 'compass': -116.23, 'pitch': 0.23, 'roll': 2.28}
{'lipoC2': 0.0, 'temp': 0.0, 'lipoC3S3': 12.46, 'state': 'normal', 'rot1': 0, 'rot0': 0, 'rot3': 0, 'rot2': 0, 'depth': 0.775, 'yaw': 3.9, 'datetime': '2018-12-18 17:44:54.526136', 'mgs': 0, 'flw2': 0.0, 'flw1': 0.32, 'flw0': 0.07, 'time': 3.75, 'compass': -115.78, 'pitch': 0.27, 'roll': 2.46}
{'lipoC2': 0.12, 'temp': 0.0, 'lipoC3S3': 12.38, 'state': 'normal', 'rot1': 0, 'rot0': 0, 'rot3': 0, 'rot2': 0, 'depth': -1.666, 'yaw': 4.38, 'datetime': '2018-12-18 17:44:54.735640', 'mgs': 0, 'flw2': 0.07, 'flw1': 0.0, 'flw0': 0.11, 'time': 3.96, 'compass': -115.3, 'pitch': 0.29, 'roll': 2.48}
{'lipoC2': 0.0, 'temp': 0.0, 'lipoC3S3': 12.55, 'state': 'normal', 'rot1': 0, 'rot0': 0, 'rot3': 0, 'rot2': 0, 'depth': -1.971, 'yaw': 4.87, 'datetime': '2018-12-18 17:44:54.944261', 'mgs': 0, 'flw2': 0.0, 'flw1': 0.18, 'flw0': 0.17, 'time': 4.17, 'compass': -114.81, 'pitch': 0.31, 'roll': 2.47}
{'lipoC2': 0.0, 'temp': 0.0, 'lipoC3S3': 12.48, 'state': 'normal', 'rot1': 0, 'rot0': 1, 'rot3': 0, 'rot2': 0, 'depth': 1.157, 'yaw': 5.86, 'datetime': '2018-12-18 17:44:55.152809', 'mgs': 0, 'flw2': 2.84, 'flw1': 0.38, 'flw0': 0.02, 'time': 4.38, 'compass': -113.82, 'pitch': 0.67, 'roll': 2.56}
{'lipoC2': 0.08, 'temp': 0.0, 'lipoC3S3': 12.17, 'state': 'normal', 'rot1': 0, 'rot0': 3, 'rot3': 0, 'rot2': 0, 'depth': 1.385, 'yaw': 9.94, 'datetime': '2018-12-18 17:44:55.359221', 'mgs': 0, 'flw2': 2.81, 'flw1': 0.0, 'flw0': 0.18, 'time': 4.58, 'compass': -109.74, 'pitch': 2.39, 'roll': 3.1}
{'lipoC2': 0.0, 'temp': 0.0, 'lipoC3S3': 12.39, 'state': 'normal', 'rot1': 0, 'rot0': 6, 'rot3': 0, 'rot2': 0, 'depth': 0.623, 'yaw': 16.44, 'datetime': '2018-12-18 17:44:55.567884', 'mgs': 0, 'flw2': 3.05, 'flw1': 0.0, 'flw0': 0.09, 'time': 4.79, 'compass': -103.24, 'pitch': 3.52, 'roll': 3.66}
{'lipoC2': 0.0, 'temp': 0.0, 'lipoC3S3': 12.41, 'state': 'normal', 'rot1': 0, 'rot0': 8, 'rot3': 0, 'rot2': 0, 'depth': 0.699, 'yaw': 25.05, 'datetime': '2018-12-18 17:44:55.775022', 'mgs': 0, 'flw2': 2.71, 'flw1': 0.41, 'flw0': 0.0, 'time': 5.0, 'compass': -94.63, 'pitch': 3.54, 'roll': 4.01}
{'lipoC2': 0.14, 'temp': 0.0, 'lipoC3S3': 12.26, 'state': 'normal', 'rot1': 0, 'rot0': 11, 'rot3': 0, 'rot2': 0, 'depth': -0.293, 'yaw': 34.75, 'datetime': '2018-12-18 17:44:55.985128', 'mgs': 0, 'flw2': 2.82, 'flw1': 0.0, 'flw0': 0.2, 'time': 5.21, 'compass': -84.94, 'pitch': 3.45, 'roll': 4.1}
{'lipoC2': 0.0, 'temp': 0.0, 'lipoC3S3': 12.22, 'state': 'normal', 'rot1': 0, 'rot0': 13, 'rot3': 0, 'rot2': 0, 'depth': -0.751, 'yaw': 44.52, 'datetime': '2018-12-18 17:44:56.193850', 'mgs': 0, 'flw2': 2.92, 'flw1': 0.35, 'flw0': 0.0, 'time': 5.42, 'compass': -75.16, 'pitch': 4.01, 'roll': 3.88}
{'lipoC2': 0.08, 'temp': 0.0, 'lipoC3S3': 12.42, 'state': 'normal', 'rot1': 0, 'rot0': 16, 'rot3': 0, 'rot2': 0, 'depth': -1.59, 'yaw': 55.21, 'datetime': '2018-12-18 17:44:56.402343', 'mgs': 0, 'flw2': 2.7, 'flw1': 0.41, 'flw0': 0.0, 'time': 5.62, 'compass': -64.47, 'pitch': 4.84, 'roll': 3.56}
{'lipoC2': 0.0, 'temp': 0.0, 'lipoC3S3': 12.52, 'state': 'normal', 'rot1': 0, 'rot0': 18, 'rot3': 0, 'rot2': 0, 'depth': 1.385, 'yaw': 66.28, 'datetime': '2018-12-18 17:44:56.611563', 'mgs': 0, 'flw2': 2.45, 'flw1': 0.26, 'flw0': 0.13, 'time': 5.83, 'compass': -53.41, 'pitch': 5.18, 'roll': 3.37}
{'lipoC2': 0.15, 'temp': 0.0, 'lipoC3S3': 12.3, 'state': 'normal', 'rot1': 0, 'rot0': 20, 'rot3': 0, 'rot2': 0, 'depth': -0.446, 'yaw': 77.2, 'datetime': '2018-12-18 17:44:56.819459', 'mgs': 0, 'flw2': 2.97, 'flw1': 0.35, 'flw0': 0.0, 'time': 6.04, 'compass': -42.48, 'pitch': 5.08, 'roll': 3.45}
{'lipoC2': 0.16, 'temp': 0.0, 'lipoC3S3': 12.23, 'state': 'normal', 'rot1': 0, 'rot0': 23, 'rot3': 0, 'rot2': 0, 'depth': 0.851, 'yaw': 89.15, 'datetime': '2018-12-18 17:44:57.028190', 'mgs': 0, 'flw2': 2.73, 'flw1': 0.0, 'flw0': 3.14, 'time': 6.25, 'compass': -30.54, 'pitch': 5.16, 'roll': 3.73}
{'lipoC2': 0.1, 'temp': 0.0, 'lipoC3S3': 12.18, 'state': 'normal', 'rot1': 0, 'rot0': 26, 'rot3': 0, 'rot2': 0, 'depth': 0.47, 'yaw': 100.96, 'datetime': '2018-12-18 17:44:57.235296', 'mgs': 0, 'flw2': 2.67, 'flw1': 0.0, 'flw0': 0.21, 'time': 6.46, 'compass': -18.72, 'pitch': 5.74, 'roll': 3.91}
{'lipoC2': 0.0, 'temp': 0.0, 'lipoC3S3': 12.43, 'state': 'normal', 'rot1': 1, 'rot0': 28, 'rot3': 0, 'rot2': 0, 'depth': 0.699, 'yaw': 113.2, 'datetime': '2018-12-18 17:44:57.444671', 'mgs': 0, 'flw2': 2.83, 'flw1': 0.41, 'flw0': 0.93, 'time': 6.67, 'compass': -6.48, 'pitch': 5.84, 'roll': 4.06}
{'lipoC2': 0.13, 'temp': 0.0, 'lipoC3S3': 12.37, 'state': 'normal', 'rot1': 2, 'rot0': 31, 'rot3': 0, 'rot2': 0, 'depth': 1.843, 'yaw': 124.59, 'datetime': '2018-12-18 17:44:57.653761', 'mgs': 0, 'flw2': 2.94, 'flw1': 0.0, 'flw0': 0.83, 'time': 6.88, 'compass': 4.91, 'pitch': 5.94, 'roll': 4.04}
{'lipoC2': 0.09, 'temp': 0.0, 'lipoC3S3': 12.17, 'state': 'normal', 'rot1': 3, 'rot0': 35, 'rot3': 0, 'rot2': 0, 'depth': 0.394, 'yaw': 136.0, 'datetime': '2018-12-18 17:44:57.864217', 'mgs': 0, 'flw2': 2.51, 'flw1': 0.06, 'flw0': 0.88, 'time': 7.08, 'compass': 16.32, 'pitch': 6.38, 'roll': 3.88}
{'lipoC2': 0.11, 'temp': 0.0, 'lipoC3S3': 12.41, 'state': 'normal', 'rot1': 4, 'rot0': 38, 'rot3': 0, 'rot2': 0, 'depth': -1.666, 'yaw': 146.91, 'datetime': '2018-12-18 17:44:58.072067', 'mgs': 0, 'flw2': 2.87, 'flw1': 0.0, 'flw0': 0.68, 'time': 7.29, 'compass': 27.23, 'pitch': 6.52, 'roll': 3.65}
{'lipoC2': 0.0, 'temp': 0.0, 'lipoC3S3': 12.25, 'state': 'normal', 'rot1': 5, 'rot0': 40, 'rot3': 0, 'rot2': 0, 'depth': -0.293, 'yaw': 157.38, 'datetime': '2018-12-18 17:44:58.279855', 'mgs': 0, 'flw2': 3.0, 'flw1': 0.09, 'flw0': 0.34, 'time': 7.5, 'compass': 37.7, 'pitch': 6.29, 'roll': 3.29}
{'lipoC2': 0.0, 'temp': 0.0, 'lipoC3S3': 12.42, 'state': 'normal', 'rot1': 7, 'rot0': 43, 'rot3': 0, 'rot2': 0, 'depth': 0.546, 'yaw': 166.95, 'datetime': '2018-12-18 17:44:58.486869', 'mgs': 0, 'flw2': 2.71, 'flw1': 0.44, 'flw0': 0.7, 'time': 7.71, 'compass': 47.27, 'pitch': 6.0, 'roll': 3.01}
{'lipoC2': 0.09, 'temp': 0.0, 'lipoC3S3': 12.17, 'state': 'normal', 'rot1': 8, 'rot0': 45, 'rot3': 0, 'rot2': 0, 'depth': 1.309, 'yaw': 176.77, 'datetime': '2018-12-18 17:44:58.696322', 'mgs': 0, 'flw2': 2.83, 'flw1': 0.0, 'flw0': 0.87, 'time': 7.91, 'compass': 57.09, 'pitch': 5.85, 'roll': 2.9}
{'lipoC2': 0.11, 'temp': 0.0, 'lipoC3S3': 12.39, 'state': 'normal', 'rot1': 9, 'rot0': 47, 'rot3': 0, 'rot2': 0, 'depth': -1.743, 'yaw': -173.49, 'datetime': '2018-12-18 17:44:58.905166', 'mgs': 0, 'flw2': 2.88, 'flw1': 0.0, 'flw0': 0.76, 'time': 8.12, 'compass': 66.83, 'pitch': 5.74, 'roll': 2.92}
{'lipoC2': 0.14, 'temp': 0.0, 'lipoC3S3': 12.23, 'state': 'normal', 'rot1': 11, 'rot0': 48, 'rot3': 0, 'rot2': 0, 'depth': 0.851, 'yaw': -166.07, 'datetime': '2018-12-18 17:44:59.116720', 'mgs': 0, 'flw2': 0.15, 'flw1': 0.18, 'flw0': 2.82, 'time': 8.33, 'compass': 74.25, 'pitch': 5.11, 'roll': 2.75}
{'lipoC2': 0.1, 'temp': 0.0, 'lipoC3S3': 12.17, 'state': 'normal', 'rot1': 14, 'rot0': 48, 'rot3': 0, 'rot2': 0, 'depth': 1.004, 'yaw': -162.84, 'datetime': '2018-12-18 17:44:59.326536', 'mgs': 0, 'flw2': 0.0, 'flw1': 0.0, 'flw0': 3.09, 'time': 8.54, 'compass': 77.47, 'pitch': 3.57, 'roll': 2.13}
{'lipoC2': 0.0, 'temp': 0.0, 'lipoC3S3': 12.38, 'state': 'normal', 'rot1': 16, 'rot0': 48, 'rot3': 0, 'rot2': 0, 'depth': 0.47, 'yaw': -162.91, 'datetime': '2018-12-18 17:44:59.534239', 'mgs': 0, 'flw2': 0.09, 'flw1': 0.0, 'flw0': 2.88, 'time': 8.75, 'compass': 77.4, 'pitch': 2.35, 'roll': 1.22}
{'lipoC2': 0.0, 'temp': 0.0, 'lipoC3S3': 12.46, 'state': 'normal', 'rot1': 19, 'rot0': 48, 'rot3': 0, 'rot2': 0, 'depth': 1.157, 'yaw': -165.03, 'datetime': '2018-12-18 17:44:59.743585', 'mgs': 0, 'flw2': 0.0, 'flw1': 0.32, 'flw0': 3.0, 'time': 8.96, 'compass': 75.29, 'pitch': 1.99, 'roll': 0.34}
{'lipoC2': 0.0, 'temp': 0.0, 'lipoC3S3': 12.54, 'state': 'normal', 'rot1': 21, 'rot0': 48, 'rot3': 0, 'rot2': 0, 'depth': 1.691, 'yaw': -168.72, 'datetime': '2018-12-18 17:44:59.952573', 'mgs': 0, 'flw2': 3.56, 'flw1': 0.0, 'flw0': 2.55, 'time': 9.17, 'compass': 71.6, 'pitch': 2.16, 'roll': -0.21}
{'lipoC2': 0.11, 'temp': 0.0, 'lipoC3S3': 12.41, 'state': 'normal', 'rot1': 23, 'rot0': 51, 'rot3': 0, 'rot2': 0, 'depth': -1.895, 'yaw': -171.72, 'datetime': '2018-12-18 17:45:00.162979', 'mgs': 0, 'flw2': 2.87, 'flw1': 0.44, 'flw0': 3.04, 'time': 9.38, 'compass': 68.6, 'pitch': 3.24, 'roll': -0.11}
{'lipoC2': 0.01, 'temp': 0.0, 'lipoC3S3': 12.47, 'state': 'normal', 'rot1': 25, 'rot0': 53, 'rot3': 0, 'rot2': 0, 'depth': 1.385, 'yaw': -173.21, 'datetime': '2018-12-18 17:45:00.373718', 'mgs': 0, 'flw2': 2.58, 'flw1': 0.38, 'flw0': 3.0, 'time': 9.59, 'compass': 67.11, 'pitch': 4.71, 'roll': 0.48}
{'lipoC2': 0.09, 'temp': 0.0, 'lipoC3S3': 12.16, 'state': 'normal', 'rot1': 28, 'rot0': 56, 'rot3': 0, 'rot2': 0, 'depth': 1.08, 'yaw': -173.89, 'datetime': '2018-12-18 17:45:00.584798', 'mgs': 0, 'flw2': 3.08, 'flw1': 0.03, 'flw0': 2.56, 'time': 9.8, 'compass': 66.43, 'pitch': 5.52, 'roll': 1.02}
{'lipoC2': 0.0, 'temp': 0.0, 'lipoC3S3': 12.56, 'state': 'normal', 'rot1': 30, 'rot0': 58, 'rot3': 0, 'rot2': 0, 'depth': 1.462, 'yaw': -174.39, 'datetime': '2018-12-18 17:45:00.793973', 'mgs': 0, 'flw2': 2.88, 'flw1': 0.21, 'flw0': 2.75, 'time': 10.01, 'compass': 65.93, 'pitch': 5.68, 'roll': 1.22}
{'lipoC2': 0.0, 'temp': 0.0, 'lipoC3S3': 12.58, 'state': 'normal', 'rot1': 32, 'rot0': 61, 'rot3': 0, 'rot2': 0, 'depth': 1.691, 'yaw': -174.67, 'datetime': '2018-12-18 17:45:01.001194', 'mgs': 0, 'flw2': 2.65, 'flw1': 0.0, 'flw0': 3.09, 'time': 10.22, 'compass': 65.65, 'pitch': 5.74, 'roll': 1.24}
{'lipoC2': 0.13, 'temp': 0.0, 'lipoC3S3': 12.37, 'state': 'normal', 'rot1': 35, 'rot0': 63, 'rot3': 0, 'rot2': 0, 'depth': -1.208, 'yaw': -174.94, 'datetime': '2018-12-18 17:45:01.209912', 'mgs': 0, 'flw2': 2.89, 'flw1': 0.0, 'flw0': 3.08, 'time': 10.42, 'compass': 65.38, 'pitch': 6.19, 'roll': 1.17}
{'lipoC2': 0.0, 'temp': 0.0, 'lipoC3S3': 12.58, 'state': 'normal', 'rot1': 37, 'rot0': 66, 'rot3': 0, 'rot2': 0, 'depth': 1.691, 'yaw': -175.33, 'datetime': '2018-12-18 17:45:01.415820', 'mgs': 0, 'flw2': 2.71, 'flw1': 0.0, 'flw0': 3.15, 'time': 10.63, 'compass': 64.98, 'pitch': 6.88, 'roll': 1.22}
{'lipoC2': 0.0, 'temp': 0.0, 'lipoC3S3': 12.6, 'state': 'normal', 'rot1': 40, 'rot0': 68, 'rot3': 0, 'rot2': 0, 'depth': 1.996, 'yaw': -175.73, 'datetime': '2018-12-18 17:45:01.625999', 'mgs': 0, 'flw2': 2.86, 'flw1': 0.0, 'flw0': 3.06, 'time': 10.84, 'compass': 64.59, 'pitch': 7.12, 'roll': 1.41}
{'lipoC2': 0.09, 'temp': 0.0, 'lipoC3S3': 12.41, 'state': 'normal', 'rot1': 42, 'rot0': 70, 'rot3': 0, 'rot2': 0, 'depth': 1.767, 'yaw': -175.96, 'datetime': '2018-12-18 17:45:01.837833', 'mgs': 0, 'flw2': 2.73, 'flw1': 0.53, 'flw0': 2.98, 'time': 11.05, 'compass': 64.36, 'pitch': 6.88, 'roll': 1.74}
{'lipoC2': 0.0, 'temp': 0.0, 'lipoC3S3': 12.52, 'state': 'normal', 'rot1': 45, 'rot0': 73, 'rot3': 0, 'rot2': 0, 'depth': 1.691, 'yaw': -175.95, 'datetime': '2018-12-18 17:45:02.048475', 'mgs': 0, 'flw2': 2.5, 'flw1': 0.0, 'flw0': 2.81, 'time': 11.26, 'compass': 64.37, 'pitch': 6.5, 'roll': 1.86}
{'lipoC2': 0.0, 'temp': 0.0, 'lipoC3S3': 12.55, 'state': 'normal', 'rot1': 47, 'rot0': 75, 'rot3': 0, 'rot2': 0, 'depth': 1.767, 'yaw': -175.96, 'datetime': '2018-12-18 17:45:02.258443', 'mgs': 0, 'flw2': 2.49, 'flw1': 0.23, 'flw0': 3.21, 'time': 11.47, 'compass': 64.36, 'pitch': 6.42, 'roll': 1.74}
{'lipoC2': 0.01, 'temp': 0.0, 'lipoC3S3': 12.29, 'state': 'normal', 'rot1': 50, 'rot0': 78, 'rot3': 0, 'rot2': 0, 'depth': 1.538, 'yaw': -175.93, 'datetime': '2018-12-18 17:45:02.466166', 'mgs': 0, 'flw2': 2.54, 'flw1': 0.32, 'flw0': 3.17, 'time': 11.68, 'compass': 64.38, 'pitch': 6.42, 'roll': 1.39}
{'lipoC2': 0.09, 'temp': 0.0, 'lipoC3S3': 12.16, 'state': 'normal', 'rot1': 52, 'rot0': 80, 'rot3': 0, 'rot2': 0, 'depth': 0.47, 'yaw': -175.64, 'datetime': '2018-12-18 17:45:02.677163', 'mgs': 0, 'flw2': 2.59, 'flw1': 0.18, 'flw0': 3.25, 'time': 11.89, 'compass': 64.67, 'pitch': 6.4, 'roll': 1.13}
{'lipoC2': 0.0, 'temp': 0.0, 'lipoC3S3': 12.33, 'state': 'normal', 'rot1': 54, 'rot0': 83, 'rot3': 0, 'rot2': 0, 'depth': 1.004, 'yaw': -175.29, 'datetime': '2018-12-18 17:45:02.886821', 'mgs': 0, 'flw2': 2.8, 'flw1': 0.29, 'flw0': 2.83, 'time': 12.1, 'compass': 65.03, 'pitch': 6.35, 'roll': 1.07}
{'lipoC2': 0.0, 'temp': 0.0, 'lipoC3S3': 12.46, 'state': 'normal', 'rot1': 57, 'rot0': 85, 'rot3': 0, 'rot2': 0, 'depth': 1.157, 'yaw': -174.96, 'datetime': '2018-12-18 17:45:03.098381', 'mgs': 0, 'flw2': 2.05, 'flw1': 0.29, 'flw0': 3.13, 'time': 12.31, 'compass': 65.36, 'pitch': 6.32, 'roll': 1.07}
{'lipoC2': 0.11, 'temp': 0.0, 'lipoC3S3': 12.16, 'state': 'normal', 'rot1': 59, 'rot0': 87, 'rot3': 0, 'rot2': 0, 'depth': 0.699, 'yaw': -174.98, 'datetime': '2018-12-18 17:45:03.303193', 'mgs': 0, 'flw2': 2.19, 'flw1': 0.0, 'flw0': 3.13, 'time': 12.52, 'compass': 65.34, 'pitch': 6.28, 'roll': 1.14}
{'lipoC2': 0.0, 'temp': 0.0, 'lipoC3S3': 12.51, 'state': 'normal', 'rot1': 61, 'rot0': 90, 'rot3': 0, 'rot2': 0, 'depth': 1.462, 'yaw': -175.34, 'datetime': '2018-12-18 17:45:03.512137', 'mgs': 0, 'flw2': 2.05, 'flw1': 0.29, 'flw0': 3.16, 'time': 12.72, 'compass': 64.98, 'pitch': 6.54, 'roll': 1.22}
{'lipoC2': 0.0, 'temp': 0.0, 'lipoC3S3': 12.56, 'state': 'normal', 'rot1': 64, 'rot0': 92, 'rot3': 0, 'rot2': 0, 'depth': 1.767, 'yaw': -175.99, 'datetime': '2018-12-18 17:45:03.719949', 'mgs': 0, 'flw2': 2.26, 'flw1': 0.0, 'flw0': 3.15, 'time': 12.93, 'compass': 64.33, 'pitch': 6.78, 'roll': 1.3}
{'lipoC2': 0.0, 'temp': 0.0, 'lipoC3S3': 12.47, 'state': 'normal', 'rot1': 66, 'rot0': 94, 'rot3': 0, 'rot2': 0, 'depth': -1.819, 'yaw': -177.28, 'datetime': '2018-12-18 17:45:03.931365', 'mgs': 0, 'flw2': 0.5, 'flw1': 0.32, 'flw0': 3.13, 'time': 13.14, 'compass': 63.04, 'pitch': 6.6, 'roll': 1.31}
{'lipoC2': 0.12, 'temp': 0.0, 'lipoC3S3': 12.38, 'state': 'normal', 'rot1': 68, 'rot0': 95, 'rot3': 0, 'rot2': 0, 'depth': -1.666, 'yaw': 180.0, 'datetime': '2018-12-18 17:45:04.141449', 'mgs': 0, 'flw2': 0.9, 'flw1': 0.0, 'flw0': 2.99, 'time': 13.35, 'compass': 60.32, 'pitch': 5.99, 'roll': 1.2}
{'lipoC2': 0.0, 'temp': 0.0, 'lipoC3S3': 12.56, 'state': 'normal', 'rot1': 71, 'rot0': 97, 'rot3': 0, 'rot2': 0, 'depth': 1.691, 'yaw': 176.41, 'datetime': '2018-12-18 17:45:04.348468', 'mgs': 0, 'flw2': 0.79, 'flw1': 0.0, 'flw0': 3.11, 'time': 13.56, 'compass': 56.73, 'pitch': 5.96, 'roll': 1.17}
{'lipoC2': 0.0, 'temp': 0.0, 'lipoC3S3': 12.41, 'state': 'normal', 'rot1': 73, 'rot0': 99, 'rot3': 0, 'rot2': 0, 'depth': 0.546, 'yaw': 172.26, 'datetime': '2018-12-18 17:45:04.557416', 'mgs': 0, 'flw2': 0.99, 'flw1': 0.0, 'flw0': 3.0, 'time': 13.77, 'compass': 52.58, 'pitch': 6.3, 'roll': 1.52}
{'lipoC2': 0.14, 'temp': 0.0, 'lipoC3S3': 12.34, 'state': 'normal', 'rot1': 76, 'rot0': 100, 'rot3': 0, 'rot2': 0, 'depth': 1.309, 'yaw': 167.54, 'datetime': '2018-12-18 17:45:04.766474', 'mgs': 0, 'flw2': 0.92, 'flw1': 0.0, 'flw0': 3.15, 'time': 13.98, 'compass': 47.86, 'pitch': 6.6, 'roll': 1.85}
{'lipoC2': 0.0, 'temp': 0.0, 'lipoC3S3': 12.56, 'state': 'normal', 'rot1': 78, 'rot0': 101, 'rot3': 0, 'rot2': 0, 'depth': 1.92, 'yaw': 162.47, 'datetime': '2018-12-18 17:45:04.976109', 'mgs': 0, 'flw2': 1.03, 'flw1': 0.06, 'flw0': 2.78, 'time': 14.19, 'compass': 42.79, 'pitch': 6.62, 'roll': 2.09}
{'lipoC2': 0.0, 'temp': 0.0, 'lipoC3S3': 12.35, 'state': 'normal', 'rot1': 81, 'rot0': 103, 'rot3': 0, 'rot2': 0, 'depth': 0.546, 'yaw': 156.83, 'datetime': '2018-12-18 17:45:05.183864', 'mgs': 0, 'flw2': 0.98, 'flw1': 0.29, 'flw0': 2.8, 'time': 14.39, 'compass': 37.15, 'pitch': 6.4, 'roll': 2.16}
{'lipoC2': 0.01, 'temp': 0.0, 'lipoC3S3': 12.26, 'state': 'normal', 'rot1': 83, 'rot0': 105, 'rot3': 0, 'rot2': 0, 'depth': 1.614, 'yaw': 151.02, 'datetime': '2018-12-18 17:45:05.394178', 'mgs': 0, 'flw2': 1.05, 'flw1': 0.0, 'flw0': 3.26, 'time': 14.6, 'compass': 31.34, 'pitch': 6.41, 'roll': 2.07}
{'lipoC2': 0.14, 'temp': 0.0, 'lipoC3S3': 12.35, 'state': 'normal', 'rot1': 86, 'rot0': 106, 'rot3': 0, 'rot2': 0, 'depth': -1.285, 'yaw': 145.13, 'datetime': '2018-12-18 17:45:05.602754', 'mgs': 0, 'flw2': 0.93, 'flw1': 0.35, 'flw0': 2.77, 'time': 14.81, 'compass': 25.44, 'pitch': 6.51, 'roll': 2.01}
{'lipoC2': 0.11, 'temp': 0.0, 'lipoC3S3': 12.54, 'state': 'normal', 'rot1': 89, 'rot0': 108, 'rot3': 0, 'rot2': 0, 'depth': -1.819, 'yaw': 139.65, 'datetime': '2018-12-18 17:45:05.814084', 'mgs': 0, 'flw2': 0.94, 'flw1': 0.32, 'flw0': 2.89, 'time': 15.02, 'compass': 19.97, 'pitch': 6.36, 'roll': 2.03}
{'lipoC2': 0.03, 'temp': 0.0, 'lipoC3S3': 12.23, 'state': 'normal', 'rot1': 91, 'rot0': 111, 'rot3': 0, 'rot2': 0, 'depth': 1.538, 'yaw': 133.93, 'datetime': '2018-12-18 17:45:06.024462', 'mgs': 0, 'flw2': 0.54, 'flw1': 0.26, 'flw0': 3.09, 'time': 15.23, 'compass': 14.25, 'pitch': 6.16, 'roll': 2.0}
{'lipoC2': 0.08, 'temp': 0.0, 'lipoC3S3': 12.42, 'state': 'normal', 'rot1': 94, 'rot0': 113, 'rot3': 0, 'rot2': 0, 'depth': 1.843, 'yaw': 128.02, 'datetime': '2018-12-18 17:45:06.232433', 'mgs': 0, 'flw2': 1.01, 'flw1': 0.0, 'flw0': 2.8, 'time': 15.44, 'compass': 8.34, 'pitch': 5.96, 'roll': 2.02}
{'lipoC2': 0.0, 'temp': 0.0, 'lipoC3S3': 12.41, 'state': 'normal', 'rot1': 95, 'rot0': 113, 'rot3': 0, 'rot2': 0, 'depth': -0.217, 'yaw': 122.5, 'datetime': '2018-12-18 17:45:06.440752', 'mgs': 0, 'flw2': 0.0, 'flw1': 0.47, 'flw0': 0.0, 'time': 15.65, 'compass': 2.81, 'pitch': 5.13, 'roll': 2.47}
{'lipoC2': 0.14, 'temp': 0.0, 'lipoC3S3': 12.34, 'state': 'normal', 'rot1': 97, 'rot0': 119, 'rot3': 0, 'rot2': 0, 'depth': -0.903, 'yaw': 118.32, 'datetime': '2018-12-18 17:45:06.649495', 'mgs': 0, 'flw2': 2.94, 'flw1': 0.38, 'flw0': 2.72, 'time': 15.86, 'compass': -1.36, 'pitch': 4.27, 'roll': 3.45}
{'lipoC2': 0.13, 'temp': 0.0, 'lipoC3S3': 12.21, 'state': 'normal', 'rot1': 99, 'rot0': 125, 'rot3': 0, 'rot2': 0, 'depth': 0.851, 'yaw': 114.8, 'datetime': '2018-12-18 17:45:06.860068', 'mgs': 0, 'flw2': 2.84, 'flw1': 0.12, 'flw0': 2.62, 'time': 16.07, 'compass': -4.89, 'pitch': 5.93, 'roll': 4.08}
{'lipoC2': 0.02, 'temp': 0.0, 'lipoC3S3': 12.47, 'state': 'normal', 'rot1': 102, 'rot0': 127, 'rot3': 0, 'rot2': 0, 'depth': 1.92, 'yaw': 111.84, 'datetime': '2018-12-18 17:45:07.069175', 'mgs': 0, 'flw2': 2.98, 'flw1': 0.0, 'flw0': 2.66, 'time': 16.28, 'compass': -7.84, 'pitch': 7.08, 'roll': 3.98}
{'lipoC2': 0.0, 'temp': 0.0, 'lipoC3S3': 12.58, 'state': 'normal', 'rot1': 103, 'rot0': 130, 'rot3': 0, 'rot2': 0, 'depth': 1.691, 'yaw': 110.07, 'datetime': '2018-12-18 17:45:07.278176', 'mgs': 0, 'flw2': 2.81, 'flw1': 0.32, 'flw0': 0.0, 'time': 16.49, 'compass': -9.61, 'pitch': 6.27, 'roll': 3.66}
{'lipoC2': 0.14, 'temp': 0.0, 'lipoC3S3': 12.29, 'state': 'normal', 'rot1': 103, 'rot0': 132, 'rot3': 0, 'rot2': 0, 'depth': -0.598, 'yaw': 111.57, 'datetime': '2018-12-18 17:45:07.489012', 'mgs': 0, 'flw2': 2.97, 'flw1': 0.35, 'flw0': 0.0, 'time': 16.69, 'compass': -8.11, 'pitch': 3.84, 'roll': 3.84}
{'lipoC2': 0.14, 'temp': 0.0, 'lipoC3S3': 12.35, 'state': 'normal', 'rot1': 103, 'rot0': 140, 'rot3': 0, 'rot2': 0, 'depth': -1.132, 'yaw': 115.39, 'datetime': '2018-12-18 17:45:07.697363', 'mgs': 0, 'flw2': 2.76, 'flw1': 0.41, 'flw0': 0.0, 'time': 16.9, 'compass': -4.29, 'pitch': 2.76, 'roll': 4.42}
{'lipoC2': 0.0, 'temp': 0.0, 'lipoC3S3': 12.56, 'state': 'normal', 'rot1': 103, 'rot0': 156, 'rot3': 0, 'rot2': 0, 'depth': -1.437, 'yaw': 120.3, 'datetime': '2018-12-18 17:45:07.907233', 'mgs': 0, 'flw2': 2.84, 'flw1': 0.21, 'flw0': 0.0, 'time': 17.11, 'compass': 0.61, 'pitch': 3.26, 'roll': 4.86}
{'lipoC2': 0.0, 'temp': 0.0, 'lipoC3S3': 12.41, 'state': 'normal', 'rot1': 104, 'rot0': 166, 'rot3': 0, 'rot2': 0, 'depth': -0.14, 'yaw': 125.95, 'datetime': '2018-12-18 17:45:08.116417', 'mgs': 0, 'flw2': 2.94, 'flw1': 0.0, 'flw0': 0.88, 'time': 17.32, 'compass': 6.27, 'pitch': 4.3, 'roll': 5.08}
{'lipoC2': 0.0, 'temp': 0.0, 'lipoC3S3': 12.5, 'state': 'normal', 'rot1': 105, 'rot0': 174, 'rot3': 0, 'rot2': 0, 'depth': 1.309, 'yaw': 131.19, 'datetime': '2018-12-18 17:45:08.325734', 'mgs': 0, 'flw2': 2.95, 'flw1': 0.0, 'flw0': 2.91, 'time': 17.53, 'compass': 11.51, 'pitch': 5.39, 'roll': 5.36}
{'lipoC2': 0.12, 'temp': 0.0, 'lipoC3S3': 12.14, 'state': 'normal', 'rot1': 108, 'rot0': 176, 'rot3': 0, 'rot2': 0, 'depth': 0.623, 'yaw': 134.5, 'datetime': '2018-12-18 17:45:08.534261', 'mgs': 0, 'flw2': 2.66, 'flw1': 0.0, 'flw0': 3.15, 'time': 17.74, 'compass': 14.82, 'pitch': 6.8, 'roll': 5.72}
{'lipoC2': 0.0, 'temp': 0.0, 'lipoC3S3': 12.23, 'state': 'normal', 'rot1': 110, 'rot0': 179, 'rot3': 0, 'rot2': 0, 'depth': -0.827, 'yaw': 136.09, 'datetime': '2018-12-18 17:45:08.745442', 'mgs': 0, 'flw2': 2.84, 'flw1': 0.26, 'flw0': 2.8, 'time': 17.95, 'compass': 16.41, 'pitch': 7.93, 'roll': 5.59}
{'lipoC2': 0.05, 'temp': 0.0, 'lipoC3S3': 12.19, 'state': 'normal', 'rot1': 112, 'rot0': 189, 'rot3': 0, 'rot2': 0, 'depth': 0.47, 'yaw': 136.91, 'datetime': '2018-12-18 17:45:08.955100', 'mgs': 0, 'flw2': 2.59, 'flw1': 0.29, 'flw0': 3.02, 'time': 18.16, 'compass': 17.23, 'pitch': 8.45, 'roll': 4.92}
{'lipoC2': 0.0, 'temp': 0.0, 'lipoC3S3': 12.34, 'state': 'normal', 'rot1': 115, 'rot0': 191, 'rot3': 0, 'rot2': 0, 'depth': 0.775, 'yaw': 137.41, 'datetime': '2018-12-18 17:45:09.163760', 'mgs': 0, 'flw2': 2.99, 'flw1': 0.29, 'flw0': 2.7, 'time': 18.37, 'compass': 17.73, 'pitch': 8.6, 'roll': 4.49}
{'lipoC2': 0.0, 'temp': 0.0, 'lipoC3S3': 12.58, 'state': 'normal', 'rot1': 115, 'rot0': 194, 'rot3': 0, 'rot2': 0, 'depth': 1.691, 'yaw': 138.56, 'datetime': '2018-12-18 17:45:09.375103', 'mgs': 0, 'flw2': 2.89, 'flw1': 0.21, 'flw0': 0.0, 'time': 18.58, 'compass': 18.88, 'pitch': 8.34, 'roll': 4.62}
{'lipoC2': 0.0, 'temp': 0.0, 'lipoC3S3': 12.43, 'state': 'normal', 'rot1': 115, 'rot0': 196, 'rot3': 0, 'rot2': 0, 'depth': 1.004, 'yaw': 141.73, 'datetime': '2018-12-18 17:45:09.584820', 'mgs': 0, 'flw2': 2.59, 'flw1': 0.38, 'flw0': 0.0, 'time': 18.78, 'compass': 22.05, 'pitch': 7.46, 'roll': 5.17}
{'lipoC2': 0.09, 'temp': 0.0, 'lipoC3S3': 12.17, 'state': 'normal', 'rot1': 115, 'rot0': 199, 'rot3': 0, 'rot2': 0, 'depth': 1.08, 'yaw': 146.45, 'datetime': '2018-12-18 17:45:09.795307', 'mgs': 0, 'flw2': 2.49, 'flw1': 0.15, 'flw0': 0.39, 'time': 19.0, 'compass': 26.77, 'pitch': 7.34, 'roll': 5.61}
{'lipoC2': 0.15, 'temp': 0.0, 'lipoC3S3': 12.3, 'state': 'normal', 'rot1': 117, 'rot0': 201, 'rot3': 0, 'rot2': 0, 'depth': -0.598, 'yaw': 151.53, 'datetime': '2018-12-18 17:45:10.004797', 'mgs': 0, 'flw2': 2.8, 'flw1': 0.0, 'flw0': 3.2, 'time': 19.2, 'compass': 31.85, 'pitch': 8.24, 'roll': 5.65}
{'lipoC2': 0.09, 'temp': 0.0, 'lipoC3S3': 12.17, 'state': 'normal', 'rot1': 119, 'rot0': 204, 'rot3': 0, 'rot2': 0, 'depth': 1.08, 'yaw': 154.89, 'datetime': '2018-12-18 17:45:10.214790', 'mgs': 0, 'flw2': 2.42, 'flw1': 0.12, 'flw0': 3.05, 'time': 19.41, 'compass': 35.21, 'pitch': 9.86, 'roll': 5.3}
{'lipoC2': 0.0, 'temp': 0.0, 'lipoC3S3': 12.23, 'state': 'normal', 'rot1': 122, 'rot0': 207, 'rot3': 0, 'rot2': 0, 'depth': -0.446, 'yaw': 156.74, 'datetime': '2018-12-18 17:45:10.423583', 'mgs': 0, 'flw2': 2.86, 'flw1': 0.0, 'flw0': 2.98, 'time': 19.62, 'compass': 37.06, 'pitch': 10.37, 'roll': 5.13}
{'lipoC2': 0.08, 'temp': 0.0, 'lipoC3S3': 12.18, 'state': 'normal', 'rot1': 124, 'rot0': 209, 'rot3': 0, 'rot2': 0, 'depth': 1.614, 'yaw': 157.85, 'datetime': '2018-12-18 17:45:10.631546', 'mgs': 0, 'flw2': 2.56, 'flw1': 0.18, 'flw0': 3.05, 'time': 19.83, 'compass': 38.17, 'pitch': 9.74, 'roll': 5.2}
{'lipoC2': 0.0, 'temp': 0.0, 'lipoC3S3': 12.39, 'state': 'normal', 'rot1': 128, 'rot0': 212, 'rot3': 0, 'rot2': 0, 'depth': 0.47, 'yaw': 158.54, 'datetime': '2018-12-18 17:45:10.842004', 'mgs': 0, 'flw2': 2.8, 'flw1': 0.0, 'flw0': 2.98, 'time': 20.04, 'compass': 38.85, 'pitch': 8.93, 'roll': 5.32}
{'lipoC2': 0.1, 'temp': 0.0, 'lipoC3S3': 12.52, 'state': 'normal', 'rot1': 130, 'rot0': 214, 'rot3': 0, 'rot2': 0, 'depth': -2.048, 'yaw': 159.04, 'datetime': '2018-12-18 17:45:11.051354', 'mgs': 0, 'flw2': 2.87, 'flw1': 0.38, 'flw0': 0.33, 'time': 20.25, 'compass': 39.36, 'pitch': 8.77, 'roll': 5.61}
{'lipoC2': 0.06, 'temp': 0.0, 'lipoC3S3': 12.18, 'state': 'normal', 'rot1': 130, 'rot0': 216, 'rot3': 0, 'rot2': 0, 'depth': 1.233, 'yaw': 161.09, 'datetime': '2018-12-18 17:45:11.260097', 'mgs': 0, 'flw2': 2.55, 'flw1': 0.23, 'flw0': 0.16, 'time': 20.46, 'compass': 41.4, 'pitch': 8.47, 'roll': 6.06}
{'lipoC2': 0.0, 'temp': 0.0, 'lipoC3S3': 12.51, 'state': 'normal', 'rot1': 130, 'rot0': 219, 'rot3': 0, 'rot2': 0, 'depth': 1.309, 'yaw': 165.2, 'datetime': '2018-12-18 17:45:11.464015', 'mgs': 0, 'flw2': 2.49, 'flw1': 0.09, 'flw0': 0.17, 'time': 20.67, 'compass': 45.52, 'pitch': 8.01, 'roll': 6.52}
{'lipoC2': 0.0, 'temp': 0.0, 'lipoC3S3': 12.59, 'state': 'normal', 'rot1': 130, 'rot0': 222, 'rot3': 0, 'rot2': 0, 'depth': 1.614, 'yaw': 170.72, 'datetime': '2018-12-18 17:45:11.673132', 'mgs': 0, 'flw2': 2.93, 'flw1': 0.09, 'flw0': 0.21, 'time': 20.88, 'compass': 51.04, 'pitch': 8.38, 'roll': 6.65}
{'lipoC2': 0.12, 'temp': 0.0, 'lipoC3S3': 12.38, 'state': 'normal', 'rot1': 130, 'rot0': 224, 'rot3': 0, 'rot2': 0, 'depth': -1.514, 'yaw': 176.92, 'datetime': '2018-12-18 17:45:11.882726', 'mgs': 0, 'flw2': 2.88, 'flw1': 0.0, 'flw0': 0.12, 'time': 21.09, 'compass': 57.24, 'pitch': 9.09, 'roll': 6.2}
{'lipoC2': 0.09, 'temp': 0.0, 'lipoC3S3': 12.54, 'state': 'normal', 'rot1': 132, 'rot0': 226, 'rot3': 0, 'rot2': 0, 'depth': 0.394, 'yaw': -176.14, 'datetime': '2018-12-18 17:45:12.092438', 'mgs': 0, 'flw2': 2.65, 'flw1': 0.0, 'flw0': 3.0, 'time': 21.3, 'compass': 64.18, 'pitch': 9.84, 'roll': 5.4}
{'lipoC2': 0.0, 'temp': 0.0, 'lipoC3S3': 12.58, 'state': 'normal', 'rot1': 134, 'rot0': 229, 'rot3': 0, 'rot2': 0, 'depth': 1.767, 'yaw': -171.17, 'datetime': '2018-12-18 17:45:12.302788', 'mgs': 0, 'flw2': 2.71, 'flw1': 0.0, 'flw0': 3.05, 'time': 21.51, 'compass': 69.15, 'pitch': 10.83, 'roll': 4.71}
{'lipoC2': 0.11, 'temp': 0.0, 'lipoC3S3': 12.39, 'state': 'normal', 'rot1': 137, 'rot0': 231, 'rot3': 0, 'rot2': 0, 'depth': -1.59, 'yaw': -167.71, 'datetime': '2018-12-18 17:45:12.513556', 'mgs': 0, 'flw2': 2.86, 'flw1': 0.44, 'flw0': 2.77, 'time': 21.71, 'compass': 72.61, 'pitch': 11.27, 'roll': 4.36}
{'lipoC2': 0.14, 'temp': 0.0, 'lipoC3S3': 12.34, 'state': 'normal', 'rot1': 139, 'rot0': 234, 'rot3': 0, 'rot2': 0, 'depth': -1.056, 'yaw': -165.06, 'datetime': '2018-12-18 17:45:12.722489', 'mgs': 0, 'flw2': 2.88, 'flw1': 0.0, 'flw0': 3.03, 'time': 21.92, 'compass': 75.26, 'pitch': 11.15, 'roll': 4.13}
{'lipoC2': 0.0, 'temp': 0.0, 'lipoC3S3': 12.39, 'state': 'normal', 'rot1': 142, 'rot0': 237, 'rot3': 0, 'rot2': 0, 'depth': 0.47, 'yaw': -162.97, 'datetime': '2018-12-18 17:45:12.933957', 'mgs': 0, 'flw2': 2.71, 'flw1': 0.5, 'flw0': 2.88, 'time': 22.13, 'compass': 77.35, 'pitch': 10.99, 'roll': 3.75}
{'lipoC2': 0.02, 'temp': 0.0, 'lipoC3S3': 12.22, 'state': 'normal', 'rot1': 144, 'rot0': 239, 'rot3': 0, 'rot2': 0, 'depth': 1.385, 'yaw': -161.35, 'datetime': '2018-12-18 17:45:13.144376', 'mgs': 0, 'flw2': 2.84, 'flw1': 0.0, 'flw0': 2.62, 'time': 22.34, 'compass': 78.97, 'pitch': 10.97, 'roll': 3.35}
{'lipoC2': 0.05, 'temp': 0.0, 'lipoC3S3': 12.45, 'state': 'normal', 'rot1': 147, 'rot0': 241, 'rot3': 0, 'rot2': 0, 'depth': -1.514, 'yaw': -159.93, 'datetime': '2018-12-18 17:45:13.356215', 'mgs': 0, 'flw2': 2.82, 'flw1': 0.0, 'flw0': 2.93, 'time': 22.55, 'compass': 80.39, 'pitch': 11.05, 'roll': 3.06}
{'lipoC2': 0.0, 'temp': 0.0, 'lipoC3S3': 12.39, 'state': 'normal', 'rot1': 149, 'rot0': 244, 'rot3': 0, 'rot2': 0, 'depth': 0.317, 'yaw': -158.54, 'datetime': '2018-12-18 17:45:13.565946', 'mgs': 0, 'flw2': 2.81, 'flw1': 0.0, 'flw0': 2.94, 'time': 22.76, 'compass': 81.78, 'pitch': 11.01, 'roll': 2.79}
{'lipoC2': 0.05, 'temp': 0.0, 'lipoC3S3': 12.45, 'state': 'normal', 'rot1': 151, 'rot0': 246, 'rot3': 0, 'rot2': 0, 'depth': -1.666, 'yaw': -157.23, 'datetime': '2018-12-18 17:45:13.773169', 'mgs': 0, 'flw2': 2.51, 'flw1': 0.44, 'flw0': 2.99, 'time': 22.97, 'compass': 83.09, 'pitch': 10.97, 'roll': 2.65}
{'lipoC2': 0.0, 'temp': 0.0, 'lipoC3S3': 12.56, 'state': 'normal', 'rot1': 154, 'rot0': 249, 'rot3': 0, 'rot2': 0, 'depth': -0.064, 'yaw': -156.08, 'datetime': '2018-12-18 17:45:13.982710', 'mgs': 0, 'flw2': 2.91, 'flw1': 0.0, 'flw0': 3.03, 'time': 23.18, 'compass': 84.24, 'pitch': 10.94, 'roll': 2.56}
{'lipoC2': 0.01, 'temp': 0.0, 'lipoC3S3': 12.27, 'state': 'normal', 'rot1': 156, 'rot0': 251, 'rot3': 0, 'rot2': 0, 'depth': 1.385, 'yaw': -155.08, 'datetime': '2018-12-18 17:45:14.191581', 'mgs': 0, 'flw2': 2.92, 'flw1': 0.03, 'flw0': 2.66, 'time': 23.39, 'compass': 85.24, 'pitch': 10.85, 'roll': 2.38}
{'lipoC2': 0.0, 'temp': 0.0, 'lipoC3S3': 12.37, 'state': 'normal', 'rot1': 159, 'rot0': 253, 'rot3': 0, 'rot2': 0, 'depth': 0.623, 'yaw': -154.33, 'datetime': '2018-12-18 17:45:14.400342', 'mgs': 0, 'flw2': 2.91, 'flw1': 0.32, 'flw0': 2.87, 'time': 23.6, 'compass': 85.99, 'pitch': 10.64, 'roll': 2.23}
{'lipoC2': 0.14, 'temp': 0.0, 'lipoC3S3': 12.37, 'state': 'normal', 'rot1': 162, 'rot0': 256, 'rot3': 0, 'rot2': 0, 'depth': -1.208, 'yaw': -153.46, 'datetime': '2018-12-18 17:45:14.611238', 'mgs': 0, 'flw2': 2.97, 'flw1': 0.0, 'flw0': 2.98, 'time': 23.81, 'compass': 86.86, 'pitch': 10.66, 'roll': 2.07}
{'lipoC2': 0.09, 'temp': 0.0, 'lipoC3S3': 12.41, 'state': 'normal', 'rot1': 165, 'rot0': 258, 'rot3': 0, 'rot2': 0, 'depth': -1.514, 'yaw': -152.49, 'datetime': '2018-12-18 17:45:14.820976', 'mgs': 0, 'flw2': 3.04, 'flw1': 0.0, 'flw0': 2.83, 'time': 24.02, 'compass': 87.83, 'pitch': 11.02, 'roll': 1.89}
{'lipoC2': 0.11, 'temp': 0.0, 'lipoC3S3': 12.39, 'state': 'normal', 'rot1': 167, 'rot0': 261, 'rot3': 0, 'rot2': 0, 'depth': 1.538, 'yaw': -151.21, 'datetime': '2018-12-18 17:45:15.031521', 'mgs': 0, 'flw2': 2.92, 'flw1': 0.0, 'flw0': 2.87, 'time': 24.23, 'compass': 89.11, 'pitch': 11.18, 'roll': 1.9}
{'lipoC2': 0.03, 'temp': 0.0, 'lipoC3S3': 12.46, 'state': 'normal', 'rot1': 170, 'rot0': 263, 'rot3': 0, 'rot2': 0, 'depth': -1.132, 'yaw': -149.77, 'datetime': '2018-12-18 17:45:15.241939', 'mgs': 0, 'flw2': 2.71, 'flw1': 0.44, 'flw0': 2.93, 'time': 24.44, 'compass': 90.55, 'pitch': 11.23, 'roll': 1.85}
{'lipoC2': 0.13, 'temp': 0.0, 'lipoC3S3': 12.35, 'state': 'normal', 'rot1': 172, 'rot0': 265, 'rot3': 0, 'rot2': 0, 'depth': -1.437, 'yaw': -148.31, 'datetime': '2018-12-18 17:45:15.451405', 'mgs': 0, 'flw2': 2.81, 'flw1': 0.41, 'flw0': 2.88, 'time': 24.65, 'compass': 92.01, 'pitch': 11.27, 'roll': 1.76}
{'lipoC2': 0.0, 'temp': 0.0, 'lipoC3S3': 12.5, 'state': 'normal', 'rot1': 174, 'rot0': 268, 'rot3': 0, 'rot2': 0, 'depth': 1.462, 'yaw': -146.85, 'datetime': '2018-12-18 17:45:15.660256', 'mgs': 0, 'flw2': 2.43, 'flw1': 0.21, 'flw0': 3.08, 'time': 24.86, 'compass': 93.47, 'pitch': 11.37, 'roll': 1.68}
{'lipoC2': 0.04, 'temp': 0.0, 'lipoC3S3': 12.19, 'state': 'normal', 'rot1': 177, 'rot0': 270, 'rot3': 0, 'rot2': 0, 'depth': 0.317, 'yaw': -145.19, 'datetime': '2018-12-18 17:45:15.870652', 'mgs': 0, 'flw2': 2.5, 'flw1': 0.26, 'flw0': 3.17, 'time': 25.07, 'compass': 95.13, 'pitch': 11.55, 'roll': 1.41}
{'lipoC2': 0.05, 'temp': 0.0, 'lipoC3S3': 12.51, 'state': 'normal', 'rot1': 180, 'rot0': 273, 'rot3': 0, 'rot2': 0, 'depth': 0.47, 'yaw': -143.55, 'datetime': '2018-12-18 17:45:16.080440', 'mgs': 0, 'flw2': 0.0, 'flw1': 0.23, 'flw0': 3.11, 'time': 25.28, 'compass': 96.77, 'pitch': 11.45, 'roll': 1.07}
{'lipoC2': 0.01, 'temp': 0.0, 'lipoC3S3': 12.26, 'state': 'normal', 'rot1': 182, 'rot0': 273, 'rot3': 0, 'rot2': 0, 'depth': 1.462, 'yaw': -143.72, 'datetime': '2018-12-18 17:45:16.290807', 'mgs': 0, 'flw2': 0.17, 'flw1': 0.0, 'flw0': 2.64, 'time': 25.49, 'compass': 96.59, 'pitch': 10.14, 'roll': 0.74}
{'lipoC2': 0.12, 'temp': 0.0, 'lipoC3S3': 12.18, 'state': 'normal', 'rot1': 184, 'rot0': 273, 'rot3': 0, 'rot2': 0, 'depth': 0.699, 'yaw': -145.91, 'datetime': '2018-12-18 17:45:16.499649', 'mgs': 0, 'flw2': 0.0, 'flw1': 0.0, 'flw0': 3.13, 'time': 25.7, 'compass': 94.41, 'pitch': 8.93, 'roll': 0.5}
{'lipoC2': 0.01, 'temp': 0.0, 'lipoC3S3': 12.26, 'state': 'normal', 'rot1': 187, 'rot0': 273, 'rot3': 0, 'rot2': 0, 'depth': 1.385, 'yaw': -149.34, 'datetime': '2018-12-18 17:45:16.709030', 'mgs': 0, 'flw2': 0.17, 'flw1': 0.0, 'flw0': 2.62, 'time': 25.9, 'compass': 90.98, 'pitch': 8.83, 'roll': 0.44}
{'lipoC2': 0.15, 'temp': 0.0, 'lipoC3S3': 12.33, 'state': 'normal', 'rot1': 189, 'rot0': 273, 'rot3': 0, 'rot2': 0, 'depth': -1.361, 'yaw': -153.53, 'datetime': '2018-12-18 17:45:16.917666', 'mgs': 0, 'flw2': 0.15, 'flw1': 0.18, 'flw0': 2.91, 'time': 26.11, 'compass': 86.79, 'pitch': 9.41, 'roll': 0.66}
{'lipoC2': 0.0, 'temp': 0.0, 'lipoC3S3': 12.56, 'state': 'normal', 'rot1': 191, 'rot0': 273, 'rot3': 0, 'rot2': 0, 'depth': 1.691, 'yaw': -158.86, 'datetime': '2018-12-18 17:45:17.128977', 'mgs': 0, 'flw2': 0.15, 'flw1': 0.12, 'flw0': 2.65, 'time': 26.32, 'compass': 81.46, 'pitch': 9.98, 'roll': 1.25}
{'lipoC2': 0.01, 'temp': 0.0, 'lipoC3S3': 12.47, 'state': 'normal', 'rot1': 194, 'rot0': 273, 'rot3': 0, 'rot2': 0, 'depth': -1.132, 'yaw': -164.8, 'datetime': '2018-12-18 17:45:17.339544', 'mgs': 0, 'flw2': 0.0, 'flw1': 0.21, 'flw0': 2.94, 'time': 26.53, 'compass': 75.52, 'pitch': 10.19, 'roll': 2.18}
{'lipoC2': 0.04, 'temp': 0.0, 'lipoC3S3': 12.19, 'state': 'normal', 'rot1': 196, 'rot0': 275, 'rot3': 0, 'rot2': 0, 'depth': 0.394, 'yaw': -170.67, 'datetime': '2018-12-18 17:45:17.548152', 'mgs': 0, 'flw2': 2.55, 'flw1': 0.12, 'flw0': 3.19, 'time': 26.74, 'compass': 69.65, 'pitch': 10.51, 'roll': 3.28}
{'lipoC2': 0.0, 'temp': 0.0, 'lipoC3S3': 12.58, 'state': 'normal', 'rot1': 199, 'rot0': 277, 'rot3': 0, 'rot2': 0, 'depth': 0.012, 'yaw': -174.6, 'datetime': '2018-12-18 17:45:17.757279', 'mgs': 0, 'flw2': 2.81, 'flw1': 0.0, 'flw0': 3.21, 'time': 26.95, 'compass': 65.72, 'pitch': 11.9, 'roll': 4.1}
{'lipoC2': 0.13, 'temp': 0.0, 'lipoC3S3': 12.38, 'state': 'normal', 'rot1': 200, 'rot0': 279, 'rot3': 0, 'rot2': 0, 'depth': -1.514, 'yaw': -177.17, 'datetime': '2018-12-18 17:45:17.966754', 'mgs': 0, 'flw2': 0.11, 'flw1': 0.0, 'flw0': 0.15, 'time': 27.16, 'compass': 63.15, 'pitch': 12.69, 'roll': 4.32}
{'lipoC2': 0.14, 'temp': 0.0, 'lipoC3S3': 12.3, 'state': 'normal', 'rot1': 201, 'rot0': 279, 'rot3': 0, 'rot2': 0, 'depth': 1.309, 'yaw': -178.73, 'datetime': '2018-12-18 17:45:18.175198', 'mgs': 0, 'flw2': 0.0, 'flw1': 0.44, 'flw0': 0.0, 'time': 27.37, 'compass': 61.59, 'pitch': 10.54, 'roll': 4.31}
{'lipoC2': 0.0, 'temp': 0.0, 'lipoC3S3': 12.42, 'state': 'normal', 'rot1': 201, 'rot0': 279, 'rot3': 0, 'rot2': 0, 'depth': 0.546, 'yaw': 179.87, 'datetime': '2018-12-18 17:45:18.384369', 'mgs': 0, 'flw2': 0.18, 'flw1': 0.0, 'flw0': 0.0, 'time': 27.58, 'compass': 60.19, 'pitch': 7.63, 'roll': 4.35}
{'lipoC2': 0.05, 'temp': 0.0, 'lipoC3S3': 12.18, 'state': 'normal', 'rot1': 201, 'rot0': 279, 'rot3': 0, 'rot2': 0, 'depth': 0.317, 'yaw': 178.6, 'datetime': '2018-12-18 17:45:18.593621', 'mgs': 0, 'flw2': 0.0, 'flw1': 0.12, 'flw0': 0.18, 'time': 27.79, 'compass': 58.92, 'pitch': 7.15, 'roll': 4.36}
{'lipoC2': 0.0, 'temp': 0.0, 'lipoC3S3': 12.58, 'state': 'normal', 'rot1': 201, 'rot0': 279, 'rot3': 0, 'rot2': 0, 'depth': 1.462, 'yaw': 177.41, 'datetime': '2018-12-18 17:45:18.804148', 'mgs': 0, 'flw2': 0.12, 'flw1': 0.35, 'flw0': 0.0, 'time': 28.0, 'compass': 57.73, 'pitch': 8.06, 'roll': 4.45}
{'lipoC2': 0.12, 'temp': 0.0, 'lipoC3S3': 12.38, 'state': 'normal', 'rot1': 201, 'rot0': 279, 'rot3': 0, 'rot2': 0, 'depth': -1.514, 'yaw': 176.38, 'datetime': '2018-12-18 17:45:19.013695', 'mgs': 0, 'flw2': 0.11, 'flw1': 0.0, 'flw0': 0.1, 'time': 28.21, 'compass': 56.7, 'pitch': 8.32, 'roll': 4.75}
{'lipoC2': 0.0, 'temp': 0.0, 'lipoC3S3': 12.56, 'state': 'normal', 'rot1': 201, 'rot0': 279, 'rot3': 0, 'rot2': 0, 'depth': 1.691, 'yaw': 175.48, 'datetime': '2018-12-18 17:45:19.223035', 'mgs': 0, 'flw2': 0.0, 'flw1': 0.0, 'flw0': 0.17, 'time': 28.41, 'compass': 55.8, 'pitch': 7.77, 'roll': 5.31}
{'lipoC2': 0.11, 'temp': 0.0, 'lipoC3S3': 12.56, 'state': 'normal', 'rot1': 201, 'rot0': 279, 'rot3': 0, 'rot2': 0, 'depth': 0.317, 'yaw': 174.61, 'datetime': '2018-12-18 17:45:19.431051', 'mgs': 0, 'flw2': 0.12, 'flw1': 0.23, 'flw0': 0.0, 'time': 28.62, 'compass': 54.93, 'pitch': 7.38, 'roll': 5.79}
{'lipoC2': 0.15, 'temp': 0.0, 'lipoC3S3': 12.16, 'state': 'normal', 'rot1': 201, 'rot0': 279, 'rot3': 0, 'rot2': 0, 'depth': 0.546, 'yaw': 173.75, 'datetime': '2018-12-18 17:45:19.640625', 'mgs': 0, 'flw2': 0.17, 'flw1': 0.12, 'flw0': 0.0, 'time': 28.83, 'compass': 54.07, 'pitch': 7.7, 'roll': 5.96}
{'lipoC2': 0.0, 'temp': 0.0, 'lipoC3S3': 12.23, 'state': 'normal', 'rot1': 201, 'rot0': 279, 'rot3': 0, 'rot2': 0, 'depth': -0.446, 'yaw': 172.93, 'datetime': '2018-12-18 17:45:19.849788', 'mgs': 0, 'flw2': 0.0, 'flw1': 0.0, 'flw0': 0.17, 'time': 29.04, 'compass': 53.25, 'pitch': 8.24, 'roll': 6.07}
{'lipoC2': 0.0, 'temp': 0.0, 'lipoC3S3': 12.39, 'state': 'normal', 'rot1': 201, 'rot0': 279, 'rot3': 0, 'rot2': 0, 'depth': -0.369, 'yaw': 172.21, 'datetime': '2018-12-18 17:45:20.060200', 'mgs': 0, 'flw2': 0.06, 'flw1': 0.0, 'flw0': 0.11, 'time': 29.25, 'compass': 52.53, 'pitch': 8.34, 'roll': 6.12}
{'lipoC2': 0.13, 'temp': 0.0, 'lipoC3S3': 12.35, 'state': 'normal', 'rot1': 201, 'rot0': 279, 'rot3': 0, 'rot2': 0, 'depth': 1.691, 'yaw': 171.58, 'datetime': '2018-12-18 17:45:20.270708', 'mgs': 0, 'flw2': 0.09, 'flw1': 0.44, 'flw0': 0.0, 'time': 29.46, 'compass': 51.9, 'pitch': 8.01, 'roll': 6.12}
{'lipoC2': 0.0, 'temp': 0.0, 'lipoC3S3': 12.48, 'state': 'normal', 'rot1': 201, 'rot0': 279, 'rot3': 0, 'rot2': 0, 'depth': 1.233, 'yaw': 171.17, 'datetime': '2018-12-18 17:45:20.478624', 'mgs': 0, 'flw2': 0.21, 'flw1': 0.0, 'flw0': 0.0, 'time': 29.67, 'compass': 51.49, 'pitch': 7.76, 'roll': 6.31}
{'lipoC2': 0.11, 'temp': 0.0, 'lipoC3S3': 12.16, 'state': 'normal', 'rot1': 201, 'rot0': 279, 'rot3': 0, 'rot2': 0, 'depth': 0.546, 'yaw': 170.96, 'datetime': '2018-12-18 17:45:20.688131', 'mgs': 0, 'flw2': 0.0, 'flw1': 0.06, 'flw0': 0.21, 'time': 29.88, 'compass': 51.28, 'pitch': 7.96, 'roll': 6.71}
{'lipoC2': 0.0, 'temp': 0.0, 'lipoC3S3': 12.54, 'state': 'normal', 'rot1': 201, 'rot0': 280, 'rot3': 0, 'rot2': 0, 'depth': 1.538, 'yaw': 170.92, 'datetime': '2018-12-18 17:45:20.896517', 'mgs': 0, 'flw2': 3.32, 'flw1': 0.0, 'flw0': 3.41, 'time': 30.09, 'compass': 51.24, 'pitch': 8.23, 'roll': 7.01}
{'lipoC2': 0.0, 'temp': 0.0, 'lipoC3S3': 12.47, 'state': 'normal', 'rot1': 203, 'rot0': 282, 'rot3': 0, 'rot2': 0, 'depth': 1.08, 'yaw': 173.97, 'datetime': '2018-12-18 17:45:21.107319', 'mgs': 0, 'flw2': 2.49, 'flw1': 0.21, 'flw0': 3.1, 'time': 30.3, 'compass': 54.29, 'pitch': 8.96, 'roll': 7.26}
{'lipoC2': 0.0, 'temp': 0.0, 'lipoC3S3': 12.27, 'state': 'normal', 'rot1': 206, 'rot0': 285, 'rot3': 0, 'rot2': 0, 'depth': 1.233, 'yaw': -178.44, 'datetime': '2018-12-18 17:45:21.316783', 'mgs': 0, 'flw2': 2.84, 'flw1': 0.15, 'flw0': 2.7, 'time': 30.5, 'compass': 61.88, 'pitch': 10.24, 'roll': 7.01}
{'lipoC2': 0.0, 'temp': 0.0, 'lipoC3S3': 12.42, 'state': 'normal', 'rot1': 209, 'rot0': 287, 'rot3': 0, 'rot2': 0, 'depth': 0.775, 'yaw': -167.67, 'datetime': '2018-12-18 17:45:21.526956', 'mgs': 0, 'flw2': 3.03, 'flw1': 0.0, 'flw0': 2.92, 'time': 30.72, 'compass': 72.65, 'pitch': 11.17, 'roll': 5.91}
{'lipoC2': 0.0, 'temp': 0.0, 'lipoC3S3': 12.26, 'state': 'normal', 'rot1': 211, 'rot0': 289, 'rot3': 0, 'rot2': 0, 'depth': 1.233, 'yaw': -154.72, 'datetime': '2018-12-18 17:45:21.736226', 'mgs': 0, 'flw2': 0.13, 'flw1': 0.38, 'flw0': 2.77, 'time': 30.92, 'compass': 85.6, 'pitch': 11.65, 'roll': 4.3}
{'lipoC2': 0.0, 'temp': 0.0, 'lipoC3S3': 12.19, 'state': 'normal', 'rot1': 214, 'rot0': 289, 'rot3': 0, 'rot2': 0, 'depth': -1.056, 'yaw': -142.12, 'datetime': '2018-12-18 17:45:21.947815', 'mgs': 0, 'flw2': 0.15, 'flw1': 0.0, 'flw0': 2.72, 'time': 31.13, 'compass': 98.2, 'pitch': 10.53, 'roll': 2.51}
{'lipoC2': 0.0, 'temp': 0.0, 'lipoC3S3': 12.58, 'state': 'normal', 'rot1': 216, 'rot0': 289, 'rot3': 0, 'rot2': 0, 'depth': 1.462, 'yaw': -131.13, 'datetime': '2018-12-18 17:45:22.155899', 'mgs': 0, 'flw2': 0.0, 'flw1': 0.06, 'flw0': 3.32, 'time': 31.34, 'compass': 109.19, 'pitch': 8.86, 'roll': 0.36}
{'lipoC2': 0.0, 'temp': 0.0, 'lipoC3S3': 12.21, 'state': 'normal', 'rot1': 219, 'rot0': 289, 'rot3': 0, 'rot2': 0, 'depth': 1.233, 'yaw': -120.14, 'datetime': '2018-12-18 17:45:22.366428', 'mgs': 0, 'flw2': 0.15, 'flw1': 0.0, 'flw0': 3.23, 'time': 31.55, 'compass': 120.18, 'pitch': 7.84, 'roll': -2.04}
{'lipoC2': 0.09, 'temp': 0.0, 'lipoC3S3': 12.17, 'state': 'normal', 'rot1': 221, 'rot0': 289, 'rot3': 0, 'rot2': 0, 'depth': 0.394, 'yaw': -109.39, 'datetime': '2018-12-18 17:45:22.574802', 'mgs': 0, 'flw2': 0.0, 'flw1': 0.06, 'flw0': 3.19, 'time': 31.76, 'compass': 130.93, 'pitch': 7.23, 'roll': -4.09}
{'lipoC2': 0.08, 'temp': 0.0, 'lipoC3S3': 12.17, 'state': 'normal', 'rot1': 224, 'rot0': 289, 'rot3': 0, 'rot2': 0, 'depth': 0.317, 'yaw': -98.85, 'datetime': '2018-12-18 17:45:22.783845', 'mgs': 0, 'flw2': 0.15, 'flw1': 0.15, 'flw0': 3.14, 'time': 31.97, 'compass': 141.47, 'pitch': 6.29, 'roll': -5.74}
{'lipoC2': 0.08, 'temp': 0.0, 'lipoC3S3': 12.18, 'state': 'normal', 'rot1': 226, 'rot0': 291, 'rot3': 0, 'rot2': 0, 'depth': 0.317, 'yaw': -88.98, 'datetime': '2018-12-18 17:45:22.994427', 'mgs': 0, 'flw2': 2.21, 'flw1': 0.18, 'flw0': 3.26, 'time': 32.18, 'compass': 151.34, 'pitch': 4.41, 'roll': -7.05}
{'lipoC2': 0.0, 'temp': 0.0, 'lipoC3S3': 12.22, 'state': 'normal', 'rot1': 229, 'rot0': 294, 'rot3': 0, 'rot2': 0, 'depth': -0.827, 'yaw': -80.83, 'datetime': '2018-12-18 17:45:23.203261', 'mgs': 0, 'flw2': 2.77, 'flw1': 0.23, 'flw0': 2.86, 'time': 32.39, 'compass': 159.48, 'pitch': 2.45, 'roll': -7.92}
{'lipoC2': 0.0, 'temp': 0.0, 'lipoC3S3': 12.55, 'state': 'normal', 'rot1': 231, 'rot0': 297, 'rot3': 0, 'rot2': 0, 'depth': 1.462, 'yaw': -73.17, 'datetime': '2018-12-18 17:45:23.412378', 'mgs': 0, 'flw2': 2.38, 'flw1': 0.23, 'flw0': 1.44, 'time': 32.6, 'compass': 167.15, 'pitch': 1.4, 'roll': -8.5}
{'lipoC2': 0.0, 'temp': 0.0, 'lipoC3S3': 12.41, 'state': 'normal', 'rot1': 231, 'rot0': 299, 'rot3': 0, 'rot2': 0, 'depth': 0.317, 'yaw': -67.46, 'datetime': '2018-12-18 17:45:23.620186', 'mgs': 0, 'flw2': 2.67, 'flw1': 0.41, 'flw0': 0.0, 'time': 32.81, 'compass': 172.86, 'pitch': 1.66, 'roll': -9.38}
{'lipoC2': 0.0, 'temp': 0.0, 'lipoC3S3': 12.55, 'state': 'normal', 'rot1': 231, 'rot0': 302, 'rot3': 0, 'rot2': 0, 'depth': 1.538, 'yaw': -63.83, 'datetime': '2018-12-18 17:45:23.830879', 'mgs': 0, 'flw2': 2.56, 'flw1': 0.09, 'flw0': 0.18, 'time': 33.02, 'compass': 176.49, 'pitch': 2.05, 'roll': -10.36}
{'lipoC2': 0.0, 'temp': 0.0, 'lipoC3S3': 12.59, 'state': 'normal', 'rot1': 231, 'rot0': 304, 'rot3': 0, 'rot2': 0, 'depth': 1.538, 'yaw': -61.89, 'datetime': '2018-12-18 17:45:24.041409', 'mgs': 0, 'flw2': 2.69, 'flw1': 0.0, 'flw0': 0.21, 'time': 33.23, 'compass': 178.43, 'pitch': 1.42, 'roll': -10.34}
{'lipoC2': 0.1, 'temp': 0.0, 'lipoC3S3': 12.41, 'state': 'normal', 'rot1': 231, 'rot0': 307, 'rot3': 0, 'rot2': 0, 'depth': -1.895, 'yaw': -61.29, 'datetime': '2018-12-18 17:45:24.251214', 'mgs': 0, 'flw2': 2.83, 'flw1': 0.0, 'flw0': 0.01, 'time': 33.44, 'compass': 179.03, 'pitch': 0.75, 'roll': -9.4}
{'lipoC2': 0.03, 'temp': 0.0, 'lipoC3S3': 12.45, 'state': 'normal', 'rot1': 231, 'rot0': 309, 'rot3': 0, 'rot2': 0, 'depth': -1.132, 'yaw': -61.78, 'datetime': '2018-12-18 17:45:24.460661', 'mgs': 0, 'flw2': 2.76, 'flw1': 0.44, 'flw0': 0.02, 'time': 33.64, 'compass': 178.53, 'pitch': 0.77, 'roll': -8.31}
{'lipoC2': 0.0, 'temp': 0.0, 'lipoC3S3': 12.58, 'state': 'normal', 'rot1': 231, 'rot0': 312, 'rot3': 0, 'rot2': 0, 'depth': -0.14, 'yaw': -63.32, 'datetime': '2018-12-18 17:45:24.668776', 'mgs': 0, 'flw2': 2.67, 'flw1': 0.0, 'flw0': 0.2, 'time': 33.85, 'compass': 177.0, 'pitch': 1.29, 'roll': -7.59}
{'lipoC2': 0.0, 'temp': 0.0, 'lipoC3S3': 12.47, 'state': 'normal', 'rot1': 231, 'rot0': 314, 'rot3': 0, 'rot2': 0, 'depth': 1.462, 'yaw': -65.83, 'datetime': '2018-12-18 17:45:24.878041', 'mgs': 0, 'flw2': 3.02, 'flw1': 0.0, 'flw0': 0.0, 'time': 34.06, 'compass': 174.49, 'pitch': 1.91, 'roll': -7.38}
{'lipoC2': 0.14, 'temp': 0.0, 'lipoC3S3': 12.23, 'state': 'normal', 'rot1': 231, 'rot0': 316, 'rot3': 0, 'rot2': 0, 'depth': 1.004, 'yaw': -68.83, 'datetime': '2018-12-18 17:45:25.088611', 'mgs': 0, 'flw2': 0.13, 'flw1': 0.29, 'flw0': 0.0, 'time': 34.27, 'compass': 171.49, 'pitch': 2.48, 'roll': -7.23}
{'lipoC2': 0.1, 'temp': 0.0, 'lipoC3S3': 12.18, 'state': 'normal', 'rot1': 231, 'rot0': 316, 'rot3': 0, 'rot2': 0, 'depth': 0.317, 'yaw': -70.8, 'datetime': '2018-12-18 17:45:25.299164', 'mgs': 0, 'flw2': 0.0, 'flw1': 0.15, 'flw0': 0.2, 'time': 34.48, 'compass': 169.52, 'pitch': 3.45, 'roll': -6.81}
{'lipoC2': 0.04, 'temp': 0.0, 'lipoC3S3': 12.19, 'state': 'normal', 'rot1': 231, 'rot0': 316, 'rot3': 0, 'rot2': 0, 'depth': 1.233, 'yaw': -72.07, 'datetime': '2018-12-18 17:45:25.512583', 'mgs': 0, 'flw2': 0.0, 'flw1': 0.23, 'flw0': 0.2, 'time': 34.69, 'compass': 168.25, 'pitch': 4.14, 'roll': -6.3}
{'lipoC2': 0.12, 'temp': 0.0, 'lipoC3S3': 12.38, 'state': 'normal', 'rot1': 231, 'rot0': 317, 'rot3': 0, 'rot2': 0, 'depth': -1.895, 'yaw': -73.02, 'datetime': '2018-12-18 17:45:25.720967', 'mgs': 0, 'flw2': 3.47, 'flw1': 0.32, 'flw0': 3.56, 'time': 34.9, 'compass': 167.29, 'pitch': 4.53, 'roll': -6.08}
{'lipoC2': 0.11, 'temp': 0.0, 'lipoC3S3': 12.41, 'state': 'normal', 'rot1': 233, 'rot0': 319, 'rot3': 0, 'rot2': 0, 'depth': -1.819, 'yaw': -70.53, 'datetime': '2018-12-18 17:45:25.929823', 'mgs': 0, 'flw2': 2.7, 'flw1': 0.38, 'flw0': 3.05, 'time': 35.11, 'compass': 169.78, 'pitch': 4.76, 'roll': -5.68}
{'lipoC2': 0.12, 'temp': 0.0, 'lipoC3S3': 12.16, 'state': 'normal', 'rot1': 236, 'rot0': 322, 'rot3': 0, 'rot2': 0, 'depth': 0.775, 'yaw': -63.44, 'datetime': '2018-12-18 17:45:26.139177', 'mgs': 0, 'flw2': 3.04, 'flw1': 0.03, 'flw0': 2.64, 'time': 35.32, 'compass': 176.88, 'pitch': 4.7, 'roll': -5.01}
{'lipoC2': 0.03, 'temp': 0.0, 'lipoC3S3': 12.47, 'state': 'normal', 'rot1': 236, 'rot0': 323, 'rot3': 0, 'rot2': 0, 'depth': -1.361, 'yaw': -54.82, 'datetime': '2018-12-18 17:45:26.346451', 'mgs': 0, 'flw2': 0.0, 'flw1': 0.26, 'flw0': 0.15, 'time': 35.53, 'compass': -174.5, 'pitch': 4.2, 'roll': -4.91}
{'lipoC2': 0.16, 'temp': 0.0, 'lipoC3S3': 12.31, 'state': 'normal', 'rot1': 236, 'rot0': 323, 'rot3': 0, 'rot2': 0, 'depth': -1.437, 'yaw': -47.59, 'datetime': '2018-12-18 17:45:26.556297', 'mgs': 0, 'flw2': 2.56, 'flw1': 0.0, 'flw0': 0.15, 'time': 35.74, 'compass': -167.27, 'pitch': 2.36, 'roll': -6.07}
{'lipoC2': 0.0, 'temp': 0.0, 'lipoC3S3': 12.37, 'state': 'normal', 'rot1': 236, 'rot0': 325, 'rot3': 0, 'rot2': 0, 'depth': 0.851, 'yaw': -40.45, 'datetime': '2018-12-18 17:45:26.767088', 'mgs': 0, 'flw2': 1.23, 'flw1': 0.0, 'flw0': 0.1, 'time': 35.95, 'compass': -160.13, 'pitch': 0.74, 'roll': -7.35}
{'lipoC2': 0.0, 'temp': 0.0, 'lipoC3S3': 12.5, 'state': 'normal', 'rot1': 236, 'rot0': 326, 'rot3': 0, 'rot2': 0, 'depth': 1.385, 'yaw': -32.79, 'datetime': '2018-12-18 17:45:26.978857', 'mgs': 0, 'flw2': 0.17, 'flw1': 0.0, 'flw0': 0.0, 'time': 36.16, 'compass': -152.47, 'pitch': -0.02, 'roll': -7.87}
{'lipoC2': 0.0, 'temp': 0.0, 'lipoC3S3': 12.5, 'state': 'normal', 'rot1': 237, 'rot0': 326, 'rot3': 0, 'rot2': 0, 'depth': 1.462, 'yaw': -26.18, 'datetime': '2018-12-18 17:45:27.186609', 'mgs': 0, 'flw2': 0.0, 'flw1': 0.21, 'flw0': 3.72, 'time': 36.37, 'compass': -145.86, 'pitch': -1.69, 'roll': -7.68}
{'lipoC2': 0.12, 'temp': 0.0, 'lipoC3S3': 12.17, 'state': 'normal', 'rot1': 238, 'rot0': 326, 'rot3': 0, 'rot2': 0, 'depth': 0.47, 'yaw': -19.79, 'datetime': '2018-12-18 17:45:27.398195', 'mgs': 0, 'flw2': 0.0, 'flw1': 0.0, 'flw0': 0.21, 'time': 36.57, 'compass': -139.47, 'pitch': -4.04, 'roll': -6.49}
{'lipoC2': 0.0, 'temp': 0.0, 'lipoC3S3': 12.58, 'state': 'normal', 'rot1': 238, 'rot0': 326, 'rot3': 0, 'rot2': 0, 'depth': 1.385, 'yaw': -13.78, 'datetime': '2018-12-18 17:45:27.603198', 'mgs': 0, 'flw2': 0.0, 'flw1': 0.0, 'flw0': 0.2, 'time': 36.78, 'compass': -133.47, 'pitch': -5.12, 'roll': -5.31}
{'lipoC2': 0.03, 'temp': 0.0, 'lipoC3S3': 12.45, 'state': 'normal', 'rot1': 238, 'rot0': 326, 'rot3': 0, 'rot2': 0, 'depth': -1.437, 'yaw': -8.38, 'datetime': '2018-12-18 17:45:27.820018', 'mgs': 0, 'flw2': 3.05, 'flw1': 0.41, 'flw0': 0.01, 'time': 36.99, 'compass': -128.06, 'pitch': -5.0, 'roll': -4.71}
{'lipoC2': 0.0, 'temp': 0.0, 'lipoC3S3': 12.56, 'state': 'normal', 'rot1': 238, 'rot0': 329, 'rot3': 0, 'rot2': 0, 'depth': 1.538, 'yaw': -1.62, 'datetime': '2018-12-18 17:45:28.026074', 'mgs': 0, 'flw2': 3.08, 'flw1': 0.0, 'flw0': 0.0, 'time': 37.2, 'compass': -121.3, 'pitch': -4.23, 'roll': -3.89}
{'lipoC2': 0.04, 'temp': 0.0, 'lipoC3S3': 12.21, 'state': 'normal', 'rot1': 238, 'rot0': 330, 'rot3': 0, 'rot2': 0, 'depth': 1.462, 'yaw': 4.2, 'datetime': '2018-12-18 17:45:28.241601', 'mgs': 0, 'flw2': 3.16, 'flw1': 0.0, 'flw0': 0.0, 'time': 37.41, 'compass': -115.48, 'pitch': -2.6, 'roll': 0.36}
{'lipoC2': 0.0, 'temp': 0.0, 'lipoC3S3': 12.25, 'state': 'normal', 'rot1': 238, 'rot0': 332, 'rot3': 0, 'rot2': 0, 'depth': -0.293, 'yaw': 9.87, 'datetime': '2018-12-18 17:45:28.446687', 'mgs': 0, 'flw2': 0.13, 'flw1': 0.29, 'flw0': 0.0, 'time': 37.62, 'compass': -109.82, 'pitch': -2.65, 'roll': 4.09}
{'lipoC2': 0.0, 'temp': 0.0, 'lipoC3S3': 12.56, 'state': 'normal', 'rot1': 238, 'rot0': 332, 'rot3': 0, 'rot2': 0, 'depth': 1.462, 'yaw': 15.27, 'datetime': '2018-12-18 17:45:28.655686', 'mgs': 0, 'flw2': 0.0, 'flw1': 0.06, 'flw0': 0.0, 'time': 37.83, 'compass': -104.42, 'pitch': -5.28, 'roll': 3.67}
{'lipoC2': 0.13, 'temp': 0.0, 'lipoC3S3': 12.22, 'state': 'normal', 'rot1': 238, 'rot0': 332, 'rot3': 0, 'rot2': 0, 'depth': 0.775, 'yaw': 20.45, 'datetime': '2018-12-18 17:45:28.867340', 'mgs': 0, 'flw2': 0.22, 'flw1': 0.41, 'flw0': 0.0, 'time': 38.04, 'compass': -99.23, 'pitch': -7.74, 'roll': 1.18}
{'lipoC2': 0.15, 'temp': 0.0, 'lipoC3S3': 12.25, 'state': 'normal', 'rot1': 238, 'rot0': 333, 'rot3': 0, 'rot2': 0, 'depth': -0.446, 'yaw': 25.7, 'datetime': '2018-12-18 17:45:29.075672', 'mgs': 0, 'flw2': 2.91, 'flw1': 0.29, 'flw0': 0.0, 'time': 38.25, 'compass': -93.98, 'pitch': -7.65, 'roll': -0.8}
{'lipoC2': 0.11, 'temp': 0.0, 'lipoC3S3': 12.17, 'state': 'normal', 'rot1': 238, 'rot0': 336, 'rot3': 0, 'rot2': 0, 'depth': 0.699, 'yaw': 32.75, 'datetime': '2018-12-18 17:45:29.284300', 'mgs': 0, 'flw2': 2.89, 'flw1': 0.03, 'flw0': 0.0, 'time': 38.46, 'compass': -86.93, 'pitch': -5.48, 'roll': -0.68}
{'lipoC2': 0.01, 'temp': 0.0, 'lipoC3S3': 12.3, 'state': 'normal', 'rot1': 238, 'rot0': 338, 'rot3': 0, 'rot2': 0, 'depth': 1.462, 'yaw': 41.73, 'datetime': '2018-12-18 17:45:29.495320', 'mgs': 0, 'flw2': 3.02, 'flw1': 0.0, 'flw0': 0.0, 'time': 38.67, 'compass': -77.95, 'pitch': -4.21, 'roll': 1.32}
{'lipoC2': 0.08, 'temp': 0.0, 'lipoC3S3': 12.41, 'state': 'normal', 'rot1': 238, 'rot0': 339, 'rot3': 0, 'rot2': 0, 'depth': -2.048, 'yaw': 50.72, 'datetime': '2018-12-18 17:45:29.703693', 'mgs': 0, 'flw2': 0.1, 'flw1': 0.0, 'flw0': 0.09, 'time': 38.88, 'compass': -68.96, 'pitch': -5.07, 'roll': 3.88}
{'lipoC2': 0.12, 'temp': 0.0, 'lipoC3S3': 12.18, 'state': 'normal', 'rot1': 238, 'rot0': 339, 'rot3': 0, 'rot2': 0, 'depth': 0.623, 'yaw': 58.47, 'datetime': '2018-12-18 17:45:29.913877', 'mgs': 0, 'flw2': 0.0, 'flw1': 0.0, 'flw0': 0.21, 'time': 39.08, 'compass': -61.21, 'pitch': -6.84, 'roll': 5.8}
{'lipoC2': 0.05, 'temp': 0.0, 'lipoC3S3': 12.43, 'state': 'normal', 'rot1': 238, 'rot0': 340, 'rot3': 0, 'rot2': 0, 'depth': -1.59, 'yaw': 65.26, 'datetime': '2018-12-18 17:45:30.121581', 'mgs': 0, 'flw2': 2.72, 'flw1': 0.35, 'flw0': 0.0, 'time': 39.29, 'compass': -54.42, 'pitch': -6.73, 'roll': 6.81}
{'lipoC2': 0.14, 'temp': 0.0, 'lipoC3S3': 12.29, 'state': 'normal', 'rot1': 239, 'rot0': 342, 'rot3': 0, 'rot2': 0, 'depth': -0.751, 'yaw': 73.36, 'datetime': '2018-12-18 17:45:30.334923', 'mgs': 0, 'flw2': 0.13, 'flw1': 0.18, 'flw0': 3.36, 'time': 39.5, 'compass': -46.32, 'pitch': -3.82, 'roll': 7.68}
{'lipoC2': 0.09, 'temp': 0.0, 'lipoC3S3': 12.17, 'state': 'normal', 'rot1': 242, 'rot0': 342, 'rot3': 0, 'rot2': 0, 'depth': 0.317, 'yaw': 78.82, 'datetime': '2018-12-18 17:45:30.543880', 'mgs': 0, 'flw2': 0.0, 'flw1': 0.0, 'flw0': 3.2, 'time': 39.71, 'compass': -40.86, 'pitch': -2.02, 'roll': 7.55}
{'lipoC2': 0.0, 'temp': 0.0, 'lipoC3S3': 12.54, 'state': 'normal', 'rot1': 243, 'rot0': 343, 'rot3': 0, 'rot2': 0, 'depth': 1.996, 'yaw': 80.29, 'datetime': '2018-12-18 17:45:30.745526', 'mgs': 0, 'flw2': 0.48, 'flw1': 0.0, 'flw0': 0.0, 'time': 39.92, 'compass': -39.39, 'pitch': -3.09, 'roll': 6.76}
{'lipoC2': 0.0, 'temp': 0.0, 'lipoC3S3': 12.21, 'state': 'normal', 'rot1': 243, 'rot0': 344, 'rot3': 0, 'rot2': 0, 'depth': -0.827, 'yaw': 81.45, 'datetime': '2018-12-18 17:45:30.954169', 'mgs': 0, 'flw2': 0.15, 'flw1': 0.0, 'flw0': 0.2, 'time': 40.13, 'compass': -38.23, 'pitch': -5.38, 'roll': 6.61}
{'lipoC2': 0.06, 'temp': 0.0, 'lipoC3S3': 12.43, 'state': 'normal', 'rot1': 243, 'rot0': 344, 'rot3': 0, 'rot2': 0, 'depth': -1.666, 'yaw': 82.95, 'datetime': '2018-12-18 17:45:31.162275', 'mgs': 0, 'flw2': 0.0, 'flw1': 0.35, 'flw0': 0.0, 'time': 40.34, 'compass': -36.73, 'pitch': -6.09, 'roll': 6.93}
{'lipoC2': 0.0, 'temp': 0.0, 'lipoC3S3': 12.64, 'state': 'normal', 'rot1': 243, 'rot0': 344, 'rot3': 0, 'rot2': 0, 'depth': 1.385, 'yaw': 84.51, 'datetime': '2018-12-18 17:45:31.371570', 'mgs': 0, 'flw2': 0.0, 'flw1': 0.38, 'flw0': 0.15, 'time': 40.55, 'compass': -35.17, 'pitch': -4.91, 'roll': 7.22}
{'lipoC2': 0.06, 'temp': 0.0, 'lipoC3S3': 12.16, 'state': 'normal', 'rot1': 243, 'rot0': 344, 'rot3': 0, 'rot2': 0, 'depth': 0.165, 'yaw': 86.06, 'datetime': '2018-12-18 17:45:31.591898', 'mgs': 0, 'flw2': 0.0, 'flw1': 0.21, 'flw0': 0.2, 'time': 40.76, 'compass': -33.62, 'pitch': -3.88, 'roll': 7.39}
{'lipoC2': 0.1, 'temp': 0.0, 'lipoC3S3': 12.51, 'state': 'normal', 'rot1': 243, 'rot0': 344, 'rot3': 0, 'rot2': 0, 'depth': -2.124, 'yaw': 87.43, 'datetime': '2018-12-18 17:45:31.802425', 'mgs': 0, 'flw2': 0.13, 'flw1': 0.0, 'flw0': 0.26, 'time': 40.97, 'compass': -32.26, 'pitch': -3.91, 'roll': 7.58}
{'lipoC2': 0.01, 'temp': 0.0, 'lipoC3S3': 12.26, 'state': 'normal', 'rot1': 245, 'rot0': 344, 'rot3': 0, 'rot2': 0, 'depth': 1.385, 'yaw': 88.09, 'datetime': '2018-12-18 17:45:32.009544', 'mgs': 0, 'flw2': 0.2, 'flw1': 0.0, 'flw0': 1.06, 'time': 41.18, 'compass': -31.59, 'pitch': -3.94, 'roll': 7.49}
{'lipoC2': 0.15, 'temp': 0.0, 'lipoC3S3': 12.3, 'state': 'normal', 'rot1': 245, 'rot0': 344, 'rot3': 0, 'rot2': 0, 'depth': -0.751, 'yaw': 86.9, 'datetime': '2018-12-18 17:45:32.219776', 'mgs': 0, 'flw2': 0.04, 'flw1': 0.38, 'flw0': 0.0, 'time': 41.38, 'compass': -32.78, 'pitch': -3.21, 'roll': 7.19}
{'lipoC2': 0.0, 'temp': 0.0, 'lipoC3S3': 12.42, 'state': 'normal', 'rot1': 245, 'rot0': 344, 'rot3': 0, 'rot2': 0, 'depth': 0.699, 'yaw': 85.99, 'datetime': '2018-12-18 17:45:32.425976', 'mgs': 0, 'flw2': 0.11, 'flw1': 0.0, 'flw0': 0.06, 'time': 41.59, 'compass': -33.69, 'pitch': -3.48, 'roll': 7.38}
{'lipoC2': 0.09, 'temp': 0.0, 'lipoC3S3': 12.56, 'state': 'normal', 'rot1': 245, 'rot0': 344, 'rot3': 0, 'rot2': 0, 'depth': 0.317, 'yaw': 85.33, 'datetime': '2018-12-18 17:45:32.635472', 'mgs': 0, 'flw2': 0.0, 'flw1': 0.0, 'flw0': 0.2, 'time': 41.8, 'compass': -34.35, 'pitch': -4.02, 'roll': 7.78}
{'lipoC2': 0.04, 'temp': 0.0, 'lipoC3S3': 12.21, 'state': 'normal', 'rot1': 245, 'rot0': 344, 'rot3': 0, 'rot2': 0, 'depth': 1.157, 'yaw': 84.84, 'datetime': '2018-12-18 17:45:32.845673', 'mgs': 0, 'flw2': 0.0, 'flw1': 0.0, 'flw0': 0.18, 'time': 42.01, 'compass': -34.84, 'pitch': -3.98, 'roll': 8.05}
{'lipoC2': 0.0, 'temp': 0.0, 'lipoC3S3': 12.58, 'state': 'normal', 'rot1': 245, 'rot0': 344, 'rot3': 0, 'rot2': 0, 'depth': 1.538, 'yaw': 84.51, 'datetime': '2018-12-18 17:45:33.056347', 'mgs': 0, 'flw2': 0.06, 'flw1': 0.38, 'flw0': 0.0, 'time': 42.22, 'compass': -35.17, 'pitch': -3.63, 'roll': 8.13}
{'lipoC2': 0.0, 'temp': 0.0, 'lipoC3S3': 12.5, 'state': 'normal', 'rot1': 245, 'rot0': 344, 'rot3': 0, 'rot2': 0, 'depth': 1.08, 'yaw': 84.3, 'datetime': '2018-12-18 17:45:33.264608', 'mgs': 0, 'flw2': 0.0, 'flw1': 0.15, 'flw0': 0.18, 'time': 42.43, 'compass': -35.38, 'pitch': -3.7, 'roll': 8.12}
{'lipoC2': 0.1, 'temp': 0.0, 'lipoC3S3': 12.51, 'state': 'normal', 'rot1': 245, 'rot0': 344, 'rot3': 0, 'rot2': 0, 'depth': -1.895, 'yaw': 84.29, 'datetime': '2018-12-18 17:45:33.474599', 'mgs': 0, 'flw2': 0.0, 'flw1': 0.41, 'flw0': 0.01, 'time': 42.64, 'compass': -35.39, 'pitch': -3.99, 'roll': 7.95}
