{'lipoC2': 0.09, 'temp': 0.0, 'lipoC3S3': 12.54, 'state': 'normal', 'rot1': 0, 'rot0': 0, 'rot3': 0, 'rot2': 0, 'depth': -2.2, 'yaw': 0.0, 'datetime': '2018-12-18 17:04:36.849365', 'mgs': 0, 'flw2': 0.2, 'flw1': 0.0, 'flw0': 0.0, 'time': 1.25, 'compass': 150.27, 'pitch': 3.62, 'roll': 2.71}
{'lipoC2': 0.0, 'temp': 0.0, 'lipoC3S3': 12.35, 'state': 'normal', 'rot1': 0, 'rot0': 0, 'rot3': 0, 'rot2': 0, 'depth': -0.522, 'yaw': 0.06, 'datetime': '2018-12-18 17:04:37.056527', 'mgs': 0, 'flw2': 0.12, 'flw1': 0.32, 'flw0': 0.0, 'time': 1.46, 'compass': 150.33, 'pitch': 3.14, 'roll': 2.95}
{'lipoC2': 0.1, 'temp': 0.0, 'lipoC3S3': 12.52, 'state': 'normal', 'rot1': 0, 'rot0': 0, 'rot3': 0, 'rot2': 0, 'depth': -2.124, 'yaw': 0.15, 'datetime': '2018-12-18 17:04:37.265746', 'mgs': 0, 'flw2': 0.0, 'flw1': 0.44, 'flw0': 0.04, 'time': 1.67, 'compass': 150.42, 'pitch': 2.9, 'roll': 3.15}
{'lipoC2': 0.14, 'temp': 0.0, 'lipoC3S3': 12.43, 'state': 'normal', 'rot1': 0, 'rot0': 0, 'rot3': 0, 'rot2': 0, 'depth': -0.903, 'yaw': 0.21, 'datetime': '2018-12-18 17:04:37.473311', 'mgs': 0, 'flw2': 0.0, 'flw1': 0.41, 'flw0': 0.0, 'time': 1.88, 'compass': 150.48, 'pitch': 3.22, 'roll': 3.16}
{'lipoC2': 0.14, 'temp': 0.0, 'lipoC3S3': 12.38, 'state': 'normal', 'rot1': 0, 'rot0': 0, 'rot3': 0, 'rot2': 0, 'depth': -0.446, 'yaw': 0.25, 'datetime': '2018-12-18 17:04:37.682198', 'mgs': 0, 'flw2': 0.1, 'flw1': 0.35, 'flw0': 0.0, 'time': 2.09, 'compass': 150.52, 'pitch': 3.51, 'roll': 3.16}
{'lipoC2': 0.03, 'temp': 0.0, 'lipoC3S3': 12.33, 'state': 'normal', 'rot1': 0, 'rot0': 0, 'rot3': 0, 'rot2': 0, 'depth': 1.233, 'yaw': 0.34, 'datetime': '2018-12-18 17:04:37.889922', 'mgs': 0, 'flw2': 0.76, 'flw1': 0.0, 'flw0': 0.0, 'time': 2.3, 'compass': 150.61, 'pitch': 3.36, 'roll': 3.17}
{'lipoC2': 0.13, 'temp': 0.0, 'lipoC3S3': 12.34, 'state': 'normal', 'rot1': 0, 'rot0': 2, 'rot3': 0, 'rot2': 0, 'depth': 0.851, 'yaw': 1.19, 'datetime': '2018-12-18 17:04:38.099651', 'mgs': 0, 'flw2': 1.39, 'flw1': 0.0, 'flw0': 0.16, 'time': 2.5, 'compass': 151.46, 'pitch': 3.49, 'roll': 3.32}
{'lipoC2': 0.0, 'temp': 0.0, 'lipoC3S3': 12.37, 'state': 'normal', 'rot1': 0, 'rot0': 3, 'rot3': 0, 'rot2': 0, 'depth': 1.233, 'yaw': 3.75, 'datetime': '2018-12-18 17:04:38.307072', 'mgs': 0, 'flw2': 1.56, 'flw1': 0.0, 'flw0': 0.16, 'time': 2.71, 'compass': 154.02, 'pitch': 4.55, 'roll': 3.53}
{'lipoC2': 0.0, 'temp': 0.0, 'lipoC3S3': 12.35, 'state': 'normal', 'rot1': 0, 'rot0': 5, 'rot3': 0, 'rot2': 0, 'depth': -0.522, 'yaw': 7.8, 'datetime': '2018-12-18 17:04:38.514952', 'mgs': 0, 'flw2': 1.93, 'flw1': 0.38, 'flw0': 0.0, 'time': 2.92, 'compass': 158.07, 'pitch': 5.4, 'roll': 3.62}
{'lipoC2': 0.14, 'temp': 0.0, 'lipoC3S3': 12.42, 'state': 'normal', 'rot1': 0, 'rot0': 7, 'rot3': 0, 'rot2': 0, 'depth': -0.827, 'yaw': 13.53, 'datetime': '2018-12-18 17:04:38.721699', 'mgs': 0, 'flw2': 2.05, 'flw1': 0.0, 'flw0': 0.13, 'time': 3.13, 'compass': 163.8, 'pitch': 5.52, 'roll': 3.4}
{'lipoC2': 0.13, 'temp': 0.0, 'lipoC3S3': 12.29, 'state': 'normal', 'rot1': 0, 'rot0': 9, 'rot3': 0, 'rot2': 0, 'depth': 0.623, 'yaw': 20.48, 'datetime': '2018-12-18 17:04:38.930193', 'mgs': 0, 'flw2': 2.42, 'flw1': 0.15, 'flw0': 0.0, 'time': 3.33, 'compass': 170.75, 'pitch': 5.43, 'roll': 2.96}
{'lipoC2': 0.0, 'temp': 0.0, 'lipoC3S3': 12.34, 'state': 'normal', 'rot1': 0, 'rot0': 12, 'rot3': 0, 'rot2': 0, 'depth': -0.827, 'yaw': 28.15, 'datetime': '2018-12-18 17:04:39.139248', 'mgs': 0, 'flw2': 2.84, 'flw1': 0.0, 'flw0': 0.2, 'time': 3.54, 'compass': 178.43, 'pitch': 5.84, 'roll': 2.64}
{'lipoC2': 0.0, 'temp': 0.0, 'lipoC3S3': 12.68, 'state': 'normal', 'rot1': 0, 'rot0': 14, 'rot3': 0, 'rot2': 0, 'depth': 1.614, 'yaw': 37.33, 'datetime': '2018-12-18 17:04:39.349396', 'mgs': 0, 'flw2': 2.92, 'flw1': 0.18, 'flw0': 0.0, 'time': 3.75, 'compass': -172.4, 'pitch': 6.7, 'roll': 2.36}
{'lipoC2': 0.14, 'temp': 0.0, 'lipoC3S3': 12.39, 'state': 'normal', 'rot1': 0, 'rot0': 17, 'rot3': 0, 'rot2': 0, 'depth': -0.446, 'yaw': 47.29, 'datetime': '2018-12-18 17:04:39.556696', 'mgs': 0, 'flw2': 2.94, 'flw1': 0.0, 'flw0': 0.13, 'time': 3.96, 'compass': -162.43, 'pitch': 7.0, 'roll': 1.94}
{'lipoC2': 0.0, 'temp': 0.0, 'lipoC3S3': 12.54, 'state': 'normal', 'rot1': 0, 'rot0': 19, 'rot3': 0, 'rot2': 0, 'depth': -0.14, 'yaw': 57.81, 'datetime': '2018-12-18 17:04:39.766485', 'mgs': 0, 'flw2': 3.02, 'flw1': 0.0, 'flw0': 0.04, 'time': 4.17, 'compass': -151.92, 'pitch': 6.38, 'roll': 1.56}
{'lipoC2': 0.0, 'temp': 0.0, 'lipoC3S3': 12.68, 'state': 'normal', 'rot1': 0, 'rot0': 22, 'rot3': 0, 'rot2': 0, 'depth': 1.767, 'yaw': 68.29, 'datetime': '2018-12-18 17:04:39.974988', 'mgs': 0, 'flw2': 3.06, 'flw1': 0.18, 'flw0': 0.0, 'time': 4.38, 'compass': -141.44, 'pitch': 5.69, 'roll': 1.42}
{'lipoC2': 0.0, 'temp': 0.0, 'lipoC3S3': 12.52, 'state': 'normal', 'rot1': 0, 'rot0': 24, 'rot3': 0, 'rot2': 0, 'depth': 0.012, 'yaw': 79.86, 'datetime': '2018-12-18 17:04:40.183703', 'mgs': 0, 'flw2': 2.66, 'flw1': 0.41, 'flw0': 0.01, 'time': 4.58, 'compass': -129.87, 'pitch': 5.77, 'roll': 1.29}
{'lipoC2': 0.11, 'temp': 0.0, 'lipoC3S3': 12.52, 'state': 'normal', 'rot1': 0, 'rot0': 26, 'rot3': 0, 'rot2': 0, 'depth': -1.895, 'yaw': 92.04, 'datetime': '2018-12-18 17:04:40.393953', 'mgs': 0, 'flw2': 2.58, 'flw1': 0.38, 'flw0': 0.0, 'time': 4.79, 'compass': -117.68, 'pitch': 6.09, 'roll': 1.03}
{'lipoC2': 0.08, 'temp': 0.0, 'lipoC3S3': 12.54, 'state': 'normal', 'rot1': 0, 'rot0': 29, 'rot3': 0, 'rot2': 0, 'depth': -2.124, 'yaw': 104.43, 'datetime': '2018-12-18 17:04:40.601551', 'mgs': 0, 'flw2': 2.94, 'flw1': 0.0, 'flw0': 3.42, 'time': 5.0, 'compass': -105.3, 'pitch': 5.8, 'roll': 0.86}
{'lipoC2': 0.13, 'temp': 0.0, 'lipoC3S3': 12.7, 'state': 'normal', 'rot1': 3, 'rot0': 31, 'rot3': 0, 'rot2': 0, 'depth': 0.851, 'yaw': 114.07, 'datetime': '2018-12-18 17:04:40.811802', 'mgs': 0, 'flw2': 2.97, 'flw1': 0.21, 'flw0': 2.69, 'time': 5.21, 'compass': -95.65, 'pitch': 6.21, 'roll': 0.7}
{'lipoC2': 0.0, 'temp': 0.0, 'lipoC3S3': 12.64, 'state': 'normal', 'rot1': 5, 'rot0': 34, 'rot3': 0, 'rot2': 0, 'depth': 1.385, 'yaw': 121.46, 'datetime': '2018-12-18 17:04:41.021023', 'mgs': 0, 'flw2': 2.44, 'flw1': 0.26, 'flw0': 3.17, 'time': 5.42, 'compass': -88.26, 'pitch': 7.02, 'roll': 0.67}
{'lipoC2': 0.04, 'temp': 0.0, 'lipoC3S3': 12.31, 'state': 'normal', 'rot1': 8, 'rot0': 36, 'rot3': 0, 'rot2': 0, 'depth': 0.47, 'yaw': 127.05, 'datetime': '2018-12-18 17:04:41.229106', 'mgs': 0, 'flw2': 2.7, 'flw1': 0.12, 'flw0': 3.1, 'time': 5.63, 'compass': -82.68, 'pitch': 6.99, 'roll': 0.83}
{'lipoC2': 0.0, 'temp': 0.0, 'lipoC3S3': 12.37, 'state': 'normal', 'rot1': 10, 'rot0': 39, 'rot3': 0, 'rot2': 0, 'depth': -0.903, 'yaw': 131.31, 'datetime': '2018-12-18 17:04:41.436564', 'mgs': 0, 'flw2': 2.94, 'flw1': 0.0, 'flw0': 3.21, 'time': 5.84, 'compass': -78.41, 'pitch': 6.03, 'roll': 1.03}
{'lipoC2': 0.03, 'temp': 0.0, 'lipoC3S3': 12.35, 'state': 'normal', 'rot1': 13, 'rot0': 41, 'rot3': 0, 'rot2': 0, 'depth': -0.064, 'yaw': 134.46, 'datetime': '2018-12-18 17:04:41.646110', 'mgs': 0, 'flw2': 3.0, 'flw1': 0.0, 'flw0': 2.77, 'time': 6.04, 'compass': -75.26, 'pitch': 4.99, 'roll': 1.07}
{'lipoC2': 0.09, 'temp': 0.0, 'lipoC3S3': 12.27, 'state': 'normal', 'rot1': 15, 'rot0': 43, 'rot3': 0, 'rot2': 0, 'depth': 0.47, 'yaw': 137.27, 'datetime': '2018-12-18 17:04:41.854222', 'mgs': 0, 'flw2': 2.99, 'flw1': 0.03, 'flw0': 2.66, 'time': 6.25, 'compass': -72.46, 'pitch': 4.28, 'roll': 1.08}
{'lipoC2': 0.09, 'temp': 0.0, 'lipoC3S3': 12.27, 'state': 'normal', 'rot1': 17, 'rot0': 46, 'rot3': 0, 'rot2': 0, 'depth': 0.317, 'yaw': 139.71, 'datetime': '2018-12-18 17:04:42.063797', 'mgs': 0, 'flw2': 2.94, 'flw1': 0.29, 'flw0': 2.91, 'time': 6.46, 'compass': -70.01, 'pitch': 4.13, 'roll': 1.08}
{'lipoC2': 0.0, 'temp': 0.0, 'lipoC3S3': 12.63, 'state': 'normal', 'rot1': 20, 'rot0': 49, 'rot3': 0, 'rot2': 0, 'depth': 1.462, 'yaw': 141.96, 'datetime': '2018-12-18 17:04:42.272914', 'mgs': 0, 'flw2': 2.49, 'flw1': 0.35, 'flw0': 3.15, 'time': 6.67, 'compass': -67.76, 'pitch': 4.33, 'roll': 0.95}
{'lipoC2': 0.08, 'temp': 0.0, 'lipoC3S3': 12.27, 'state': 'normal', 'rot1': 22, 'rot0': 51, 'rot3': 0, 'rot2': 0, 'depth': 0.317, 'yaw': 143.89, 'datetime': '2018-12-18 17:04:42.483423', 'mgs': 0, 'flw2': 2.75, 'flw1': 0.0, 'flw0': 3.28, 'time': 6.88, 'compass': -65.84, 'pitch': 4.29, 'roll': 0.82}
{'lipoC2': 0.0, 'temp': 0.0, 'lipoC3S3': 12.31, 'state': 'normal', 'rot1': 24, 'rot0': 54, 'rot3': 0, 'rot2': 0, 'depth': -1.056, 'yaw': 145.6, 'datetime': '2018-12-18 17:04:42.692220', 'mgs': 0, 'flw2': 2.93, 'flw1': 0.0, 'flw0': 3.19, 'time': 7.09, 'compass': -64.13, 'pitch': 3.98, 'roll': 0.72}
{'lipoC2': 0.0, 'temp': 0.0, 'lipoC3S3': 12.68, 'state': 'normal', 'rot1': 27, 'rot0': 56, 'rot3': 0, 'rot2': 0, 'depth': 1.996, 'yaw': 147.34, 'datetime': '2018-12-18 17:04:42.900079', 'mgs': 0, 'flw2': 2.67, 'flw1': 0.09, 'flw0': 3.11, 'time': 7.3, 'compass': -62.38, 'pitch': 3.76, 'roll': 0.53}
{'lipoC2': 0.0, 'temp': 0.0, 'lipoC3S3': 12.7, 'state': 'normal', 'rot1': 30, 'rot0': 58, 'rot3': 0, 'rot2': 0, 'depth': 1.767, 'yaw': 148.96, 'datetime': '2018-12-18 17:04:43.113328', 'mgs': 0, 'flw2': 3.0, 'flw1': 0.0, 'flw0': 2.67, 'time': 7.51, 'compass': -60.77, 'pitch': 3.58, 'roll': 0.39}
{'lipoC2': 0.18, 'temp': 0.0, 'lipoC3S3': 12.27, 'state': 'normal', 'rot1': 34, 'rot0': 62, 'rot3': 0, 'rot2': 0, 'depth': 1.08, 'yaw': 151.49, 'datetime': '2018-12-18 17:04:43.416497', 'mgs': 0, 'flw2': 3.14, 'flw1': 0.26, 'flw0': 2.72, 'time': 7.82, 'compass': -58.24, 'pitch': 3.17, 'roll': 0.3}
{'lipoC2': 0.0, 'temp': 0.0, 'lipoC3S3': 12.52, 'state': 'normal', 'rot1': 36, 'rot0': 65, 'rot3': 0, 'rot2': 0, 'depth': 0.165, 'yaw': 153.29, 'datetime': '2018-12-18 17:04:43.626435', 'mgs': 0, 'flw2': 2.66, 'flw1': 0.41, 'flw0': 3.15, 'time': 8.03, 'compass': -56.43, 'pitch': 3.17, 'roll': 0.48}
{'lipoC2': 0.0, 'temp': 0.0, 'lipoC3S3': 12.43, 'state': 'normal', 'rot1': 40, 'rot0': 67, 'rot3': 0, 'rot2': 0, 'depth': 0.928, 'yaw': 155.08, 'datetime': '2018-12-18 17:04:43.835080', 'mgs': 0, 'flw2': 3.08, 'flw1': 0.03, 'flw0': 2.73, 'time': 8.24, 'compass': -54.64, 'pitch': 3.3, 'roll': 0.58}
{'lipoC2': 0.0, 'temp': 0.0, 'lipoC3S3': 12.54, 'state': 'normal', 'rot1': 43, 'rot0': 70, 'rot3': 0, 'rot2': 0, 'depth': 0.089, 'yaw': 156.69, 'datetime': '2018-12-18 17:04:44.055666', 'mgs': 0, 'flw2': 2.14, 'flw1': 0.0, 'flw0': 2.88, 'time': 8.44, 'compass': -53.04, 'pitch': 3.42, 'roll': 0.54}
{'lipoC2': 0.01, 'temp': 0.0, 'lipoC3S3': 12.39, 'state': 'normal', 'rot1': 46, 'rot0': 71, 'rot3': 0, 'rot2': 0, 'depth': 1.462, 'yaw': 157.32, 'datetime': '2018-12-18 17:04:44.263742', 'mgs': 0, 'flw2': 0.32, 'flw1': 0.29, 'flw0': 3.21, 'time': 8.65, 'compass': -52.41, 'pitch': 2.95, 'roll': 0.49}
{'lipoC2': 0.01, 'temp': 0.0, 'lipoC3S3': 12.38, 'state': 'normal', 'rot1': 48, 'rot0': 72, 'rot3': 0, 'rot2': 0, 'depth': 1.462, 'yaw': 156.15, 'datetime': '2018-12-18 17:04:44.469219', 'mgs': 0, 'flw2': 0.18, 'flw1': 0.0, 'flw0': 2.83, 'time': 8.86, 'compass': -53.57, 'pitch': 1.86, 'roll': 0.16}
{'lipoC2': 0.01, 'temp': 0.0, 'lipoC3S3': 12.6, 'state': 'normal', 'rot1': 51, 'rot0': 72, 'rot3': 0, 'rot2': 0, 'depth': -1.514, 'yaw': 153.47, 'datetime': '2018-12-18 17:04:44.677857', 'mgs': 0, 'flw2': 0.0, 'flw1': 0.35, 'flw0': 3.2, 'time': 9.07, 'compass': -56.26, 'pitch': 1.28, 'roll': -0.43}
{'lipoC2': 0.0, 'temp': 0.0, 'lipoC3S3': 12.38, 'state': 'normal', 'rot1': 53, 'rot0': 72, 'rot3': 0, 'rot2': 0, 'depth': 1.233, 'yaw': 149.36, 'datetime': '2018-12-18 17:04:44.887103', 'mgs': 0, 'flw2': 0.13, 'flw1': 0.23, 'flw0': 2.78, 'time': 9.28, 'compass': -60.36, 'pitch': 1.67, 'roll': -0.95}
{'lipoC2': 0.16, 'temp': 0.0, 'lipoC3S3': 12.37, 'state': 'normal', 'rot1': 56, 'rot0': 72, 'rot3': 0, 'rot2': 0, 'depth': -0.446, 'yaw': 144.2, 'datetime': '2018-12-18 17:04:45.095913', 'mgs': 0, 'flw2': 0.02, 'flw1': 0.0, 'flw0': 3.26, 'time': 9.49, 'compass': -65.52, 'pitch': 2.24, 'roll': -1.2}
{'lipoC2': 0.04, 'temp': 0.0, 'lipoC3S3': 12.31, 'state': 'normal', 'rot1': 58, 'rot0': 72, 'rot3': 0, 'rot2': 0, 'depth': 0.012, 'yaw': 138.02, 'datetime': '2018-12-18 17:04:45.307807', 'mgs': 0, 'flw2': 0.0, 'flw1': 0.12, 'flw0': 3.22, 'time': 9.7, 'compass': -71.7, 'pitch': 2.82, 'roll': -1.28}
{'lipoC2': 0.0, 'temp': 0.0, 'lipoC3S3': 12.7, 'state': 'normal', 'rot1': 61, 'rot0': 73, 'rot3': 0, 'rot2': 0, 'depth': 1.691, 'yaw': 131.73, 'datetime': '2018-12-18 17:04:45.517361', 'mgs': 0, 'flw2': 1.82, 'flw1': 0.03, 'flw0': 3.25, 'time': 9.91, 'compass': -77.99, 'pitch': 3.61, 'roll': -1.21}
{'lipoC2': 0.14, 'temp': 0.0, 'lipoC3S3': 12.37, 'state': 'normal', 'rot1': 63, 'rot0': 75, 'rot3': 0, 'rot2': 0, 'depth': 1.233, 'yaw': 126.48, 'datetime': '2018-12-18 17:04:45.722848', 'mgs': 0, 'flw2': 2.78, 'flw1': 0.0, 'flw0': 3.28, 'time': 10.11, 'compass': -83.25, 'pitch': 4.9, 'roll': -1.13}
{'lipoC2': 0.05, 'temp': 0.0, 'lipoC3S3': 12.3, 'state': 'normal', 'rot1': 66, 'rot0': 78, 'rot3': 0, 'rot2': 0, 'depth': 1.309, 'yaw': 122.8, 'datetime': '2018-12-18 17:04:45.931914', 'mgs': 0, 'flw2': 2.38, 'flw1': 0.09, 'flw0': 3.28, 'time': 10.32, 'compass': -86.93, 'pitch': 5.69, 'roll': -1.15}
{'lipoC2': 0.04, 'temp': 0.0, 'lipoC3S3': 12.31, 'state': 'normal', 'rot1': 68, 'rot0': 80, 'rot3': 0, 'rot2': 0, 'depth': 0.317, 'yaw': 120.18, 'datetime': '2018-12-18 17:04:46.141999', 'mgs': 0, 'flw2': 2.28, 'flw1': 0.21, 'flw0': 3.21, 'time': 10.53, 'compass': -89.55, 'pitch': 5.52, 'roll': -1.32}
{'lipoC2': 0.1, 'temp': 0.0, 'lipoC3S3': 12.27, 'state': 'normal', 'rot1': 70, 'rot0': 82, 'rot3': 0, 'rot2': 0, 'depth': 1.004, 'yaw': 118.28, 'datetime': '2018-12-18 17:04:46.351111', 'mgs': 0, 'flw2': 2.87, 'flw1': 0.12, 'flw0': 2.65, 'time': 10.74, 'compass': -91.45, 'pitch': 5.3, 'roll': -1.7}
{'lipoC2': 0.0, 'temp': 0.0, 'lipoC3S3': 12.6, 'state': 'normal', 'rot1': 73, 'rot0': 85, 'rot3': 0, 'rot2': 0, 'depth': -1.208, 'yaw': 116.84, 'datetime': '2018-12-18 17:04:46.560840', 'mgs': 0, 'flw2': 2.55, 'flw1': 0.35, 'flw0': 3.06, 'time': 10.95, 'compass': -92.89, 'pitch': 5.48, 'roll': -2.12}
{'lipoC2': 0.1, 'temp': 0.0, 'lipoC3S3': 12.51, 'state': 'normal', 'rot1': 75, 'rot0': 87, 'rot3': 0, 'rot2': 0, 'depth': -1.743, 'yaw': 115.42, 'datetime': '2018-12-18 17:04:46.768616', 'mgs': 0, 'flw2': 1.88, 'flw1': 0.0, 'flw0': 2.98, 'time': 11.16, 'compass': -94.31, 'pitch': 5.67, 'roll': -2.34}
{'lipoC2': 0.0, 'temp': 0.0, 'lipoC3S3': 12.52, 'state': 'normal', 'rot1': 78, 'rot0': 89, 'rot3': 0, 'rot2': 0, 'depth': -0.14, 'yaw': 113.62, 'datetime': '2018-12-18 17:04:46.978154', 'mgs': 0, 'flw2': 1.92, 'flw1': 0.0, 'flw0': 3.03, 'time': 11.37, 'compass': -96.11, 'pitch': 5.31, 'roll': -2.3}
{'lipoC2': 0.02, 'temp': 0.0, 'lipoC3S3': 12.35, 'state': 'normal', 'rot1': 80, 'rot0': 91, 'rot3': 0, 'rot2': 0, 'depth': 1.691, 'yaw': 111.52, 'datetime': '2018-12-18 17:04:47.187335', 'mgs': 0, 'flw2': 1.95, 'flw1': 0.0, 'flw0': 2.81, 'time': 11.58, 'compass': -98.21, 'pitch': 4.81, 'roll': -2.06}
{'lipoC2': 0.04, 'temp': 0.0, 'lipoC3S3': 12.33, 'state': 'normal', 'rot1': 83, 'rot0': 93, 'rot3': 0, 'rot2': 0, 'depth': 1.462, 'yaw': 109.15, 'datetime': '2018-12-18 17:04:47.396349', 'mgs': 0, 'flw2': 1.95, 'flw1': 0.0, 'flw0': 3.0, 'time': 11.79, 'compass': -100.58, 'pitch': 4.74, 'roll': -1.79}
{'lipoC2': 0.0, 'temp': 0.0, 'lipoC3S3': 12.71, 'state': 'normal', 'rot1': 85, 'rot0': 95, 'rot3': 0, 'rot2': 0, 'depth': 1.767, 'yaw': 106.62, 'datetime': '2018-12-18 17:04:47.607749', 'mgs': 0, 'flw2': 1.9, 'flw1': 0.03, 'flw0': 2.72, 'time': 11.99, 'compass': -103.11, 'pitch': 4.91, 'roll': -1.69}
{'lipoC2': 0.01, 'temp': 0.0, 'lipoC3S3': 12.58, 'state': 'normal', 'rot1': 88, 'rot0': 97, 'rot3': 0, 'rot2': 0, 'depth': 0.012, 'yaw': 103.98, 'datetime': '2018-12-18 17:04:47.816102', 'mgs': 0, 'flw2': 1.82, 'flw1': 0.0, 'flw0': 2.94, 'time': 12.2, 'compass': -105.75, 'pitch': 4.81, 'roll': -1.72}
{'lipoC2': 0.12, 'temp': 0.0, 'lipoC3S3': 12.27, 'state': 'normal', 'rot1': 91, 'rot0': 99, 'rot3': 0, 'rot2': 0, 'depth': 1.004, 'yaw': 101.04, 'datetime': '2018-12-18 17:04:48.026670', 'mgs': 0, 'flw2': 1.92, 'flw1': 0.09, 'flw0': 2.64, 'time': 12.41, 'compass': -108.68, 'pitch': 4.52, 'roll': -1.62}
{'lipoC2': 0.03, 'temp': 0.0, 'lipoC3S3': 12.33, 'state': 'normal', 'rot1': 93, 'rot0': 101, 'rot3': 0, 'rot2': 0, 'depth': 1.385, 'yaw': 98.23, 'datetime': '2018-12-18 17:04:48.234955', 'mgs': 0, 'flw2': 1.38, 'flw1': 0.0, 'flw0': 2.8, 'time': 12.62, 'compass': -111.5, 'pitch': 4.26, 'roll': -1.4}
{'lipoC2': 0.02, 'temp': 0.0, 'lipoC3S3': 12.35, 'state': 'normal', 'rot1': 95, 'rot0': 103, 'rot3': 0, 'rot2': 0, 'depth': 1.538, 'yaw': 95.27, 'datetime': '2018-12-18 17:04:48.451691', 'mgs': 0, 'flw2': 1.78, 'flw1': 0.0, 'flw0': 2.91, 'time': 12.83, 'compass': -114.46, 'pitch': 4.2, 'roll': -1.2}
{'lipoC2': 0.09, 'temp': 0.0, 'lipoC3S3': 12.27, 'state': 'normal', 'rot1': 99, 'rot0': 106, 'rot3': 0, 'rot2': 0, 'depth': 0.47, 'yaw': 90.41, 'datetime': '2018-12-18 17:04:48.750086', 'mgs': 0, 'flw2': 1.12, 'flw1': 0.15, 'flw0': 3.16, 'time': 13.14, 'compass': -119.32, 'pitch': 4.24, 'roll': -1.25}
{'lipoC2': 0.12, 'temp': 0.0, 'lipoC3S3': 12.26, 'state': 'normal', 'rot1': 102, 'rot0': 108, 'rot3': 0, 'rot2': 0, 'depth': 1.08, 'yaw': 86.74, 'datetime': '2018-12-18 17:04:48.959011', 'mgs': 0, 'flw2': 1.18, 'flw1': 0.09, 'flw0': 3.3, 'time': 13.35, 'compass': -122.99, 'pitch': 4.13, 'roll': -1.35}
{'lipoC2': 0.15, 'temp': 0.0, 'lipoC3S3': 12.27, 'state': 'normal', 'rot1': 105, 'rot0': 110, 'rot3': 0, 'rot2': 0, 'depth': 0.699, 'yaw': 82.81, 'datetime': '2018-12-18 17:04:49.171240', 'mgs': 0, 'flw2': 1.55, 'flw1': 0.0, 'flw0': 3.26, 'time': 13.56, 'compass': -126.92, 'pitch': 4.21, 'roll': -1.31}
{'lipoC2': 0.11, 'temp': 0.0, 'lipoC3S3': 12.27, 'state': 'normal', 'rot1': 108, 'rot0': 112, 'rot3': 0, 'rot2': 0, 'depth': 0.623, 'yaw': 78.7, 'datetime': '2018-12-18 17:04:49.383909', 'mgs': 0, 'flw2': 1.55, 'flw1': 0.0, 'flw0': 3.17, 'time': 13.77, 'compass': -131.03, 'pitch': 4.3, 'roll': -1.13}
{'lipoC2': 0.0, 'temp': 0.0, 'lipoC3S3': 12.67, 'state': 'normal', 'rot1': 110, 'rot0': 114, 'rot3': 0, 'rot2': 0, 'depth': 2.072, 'yaw': 74.55, 'datetime': '2018-12-18 17:04:49.593503', 'mgs': 0, 'flw2': 3.14, 'flw1': 0.09, 'flw0': 2.61, 'time': 13.98, 'compass': -135.18, 'pitch': 4.52, 'roll': -0.8}
{'lipoC2': 0.03, 'temp': 0.0, 'lipoC3S3': 12.58, 'state': 'normal', 'rot1': 112, 'rot0': 117, 'rot3': 0, 'rot2': 0, 'depth': -1.514, 'yaw': 71.59, 'datetime': '2018-12-18 17:04:49.803432', 'mgs': 0, 'flw2': 2.95, 'flw1': 0.0, 'flw0': 2.78, 'time': 14.19, 'compass': -138.13, 'pitch': 5.3, 'roll': -0.53}
{'lipoC2': 0.0, 'temp': 0.0, 'lipoC3S3': 12.68, 'state': 'normal', 'rot1': 115, 'rot0': 119, 'rot3': 0, 'rot2': 0, 'depth': 1.538, 'yaw': 69.3, 'datetime': '2018-12-18 17:04:50.012594', 'mgs': 0, 'flw2': 2.92, 'flw1': 0.18, 'flw0': 2.75, 'time': 14.4, 'compass': -140.42, 'pitch': 5.69, 'roll': -0.27}
{'lipoC2': 0.1, 'temp': 0.0, 'lipoC3S3': 12.52, 'state': 'normal', 'rot1': 117, 'rot0': 122, 'rot3': 0, 'rot2': 0, 'depth': -1.895, 'yaw': 67.33, 'datetime': '2018-12-18 17:04:50.225757', 'mgs': 0, 'flw2': 2.86, 'flw1': 0.53, 'flw0': 3.02, 'time': 14.61, 'compass': -142.4, 'pitch': 5.46, 'roll': -0.15}
{'lipoC2': 0.0, 'temp': 0.0, 'lipoC3S3': 12.66, 'state': 'normal', 'rot1': 120, 'rot0': 124, 'rot3': 0, 'rot2': 0, 'depth': 1.538, 'yaw': 65.44, 'datetime': '2018-12-18 17:04:50.434698', 'mgs': 0, 'flw2': 2.47, 'flw1': 0.29, 'flw0': 3.17, 'time': 14.82, 'compass': -144.28, 'pitch': 5.1, 'roll': -0.07}
{'lipoC2': 0.11, 'temp': 0.0, 'lipoC3S3': 12.27, 'state': 'normal', 'rot1': 122, 'rot0': 126, 'rot3': 0, 'rot2': 0, 'depth': 1.157, 'yaw': 63.65, 'datetime': '2018-12-18 17:04:50.642460', 'mgs': 0, 'flw2': 3.03, 'flw1': 0.23, 'flw0': 2.7, 'time': 15.03, 'compass': -146.08, 'pitch': 4.94, 'roll': 0.08}
{'lipoC2': 0.09, 'temp': 0.0, 'lipoC3S3': 12.52, 'state': 'normal', 'rot1': 124, 'rot0': 129, 'rot3': 0, 'rot2': 0, 'depth': -2.048, 'yaw': 61.81, 'datetime': '2018-12-18 17:04:50.851891', 'mgs': 0, 'flw2': 2.78, 'flw1': 0.5, 'flw0': 3.08, 'time': 15.24, 'compass': -147.92, 'pitch': 4.7, 'roll': 0.24}
{'lipoC2': 0.02, 'temp': 0.0, 'lipoC3S3': 12.38, 'state': 'normal', 'rot1': 127, 'rot0': 131, 'rot3': 0, 'rot2': 0, 'depth': 0.317, 'yaw': 59.94, 'datetime': '2018-12-18 17:04:51.061643', 'mgs': 0, 'flw2': 2.87, 'flw1': 0.56, 'flw0': 3.11, 'time': 15.45, 'compass': -149.78, 'pitch': 4.61, 'roll': 0.26}
{'lipoC2': 0.11, 'temp': 0.0, 'lipoC3S3': 12.5, 'state': 'normal', 'rot1': 129, 'rot0': 134, 'rot3': 0, 'rot2': 0, 'depth': -1.743, 'yaw': 58.03, 'datetime': '2018-12-18 17:04:51.272182', 'mgs': 0, 'flw2': 2.99, 'flw1': 0.0, 'flw0': 3.2, 'time': 15.66, 'compass': -151.69, 'pitch': 4.8, 'roll': 0.28}
{'lipoC2': 0.0, 'temp': 0.0, 'lipoC3S3': 12.59, 'state': 'normal', 'rot1': 132, 'rot0': 136, 'rot3': 0, 'rot2': 0, 'depth': 1.691, 'yaw': 56.11, 'datetime': '2018-12-18 17:04:51.480786', 'mgs': 0, 'flw2': 3.0, 'flw1': 0.5, 'flw0': 3.0, 'time': 15.87, 'compass': -153.61, 'pitch': 4.82, 'roll': 0.49}
{'lipoC2': 0.0, 'temp': 0.0, 'lipoC3S3': 12.58, 'state': 'normal', 'rot1': 134, 'rot0': 139, 'rot3': 0, 'rot2': 0, 'depth': 1.08, 'yaw': 54.25, 'datetime': '2018-12-18 17:04:51.690050', 'mgs': 0, 'flw2': 2.99, 'flw1': 0.0, 'flw0': 2.87, 'time': 16.08, 'compass': -155.48, 'pitch': 4.74, 'roll': 0.78}
{'lipoC2': 0.0, 'temp': 0.0, 'lipoC3S3': 12.68, 'state': 'normal', 'rot1': 136, 'rot0': 141, 'rot3': 0, 'rot2': 0, 'depth': 1.767, 'yaw': 52.27, 'datetime': '2018-12-18 17:04:51.902049', 'mgs': 0, 'flw2': 2.92, 'flw1': 0.15, 'flw0': 0.0, 'time': 16.29, 'compass': -157.46, 'pitch': 4.63, 'roll': 0.95}
{'lipoC2': 0.0, 'temp': 0.0, 'lipoC3S3': 12.31, 'state': 'normal', 'rot1': 136, 'rot0': 144, 'rot3': 0, 'rot2': 0, 'depth': -0.293, 'yaw': 51.88, 'datetime': '2018-12-18 17:04:52.111586', 'mgs': 0, 'flw2': 2.78, 'flw1': 0.0, 'flw0': 0.2, 'time': 16.49, 'compass': -157.85, 'pitch': 3.32, 'roll': 1.32}
{'lipoC2': 0.05, 'temp': 0.0, 'lipoC3S3': 12.55, 'state': 'normal', 'rot1': 136, 'rot0': 146, 'rot3': 0, 'rot2': 0, 'depth': -1.819, 'yaw': 53.48, 'datetime': '2018-12-18 17:04:52.318643', 'mgs': 0, 'flw2': 2.72, 'flw1': 0.41, 'flw0': 0.01, 'time': 16.7, 'compass': -156.25, 'pitch': 2.11, 'roll': 2.11}
{'lipoC2': 0.0, 'temp': 0.0, 'lipoC3S3': 12.33, 'state': 'normal', 'rot1': 136, 'rot0': 149, 'rot3': 0, 'rot2': 0, 'depth': 1.233, 'yaw': 56.43, 'datetime': '2018-12-18 17:04:52.529771', 'mgs': 0, 'flw2': 2.89, 'flw1': 0.23, 'flw0': 0.0, 'time': 16.91, 'compass': -153.29, 'pitch': 2.01, 'roll': 2.87}
{'lipoC2': 0.0, 'temp': 0.0, 'lipoC3S3': 12.47, 'state': 'normal', 'rot1': 136, 'rot0': 152, 'rot3': 0, 'rot2': 0, 'depth': 0.546, 'yaw': 60.33, 'datetime': '2018-12-18 17:04:52.741049', 'mgs': 0, 'flw2': 2.94, 'flw1': 0.0, 'flw0': 0.12, 'time': 17.12, 'compass': -149.4, 'pitch': 2.79, 'roll': 3.15}
{'lipoC2': 0.0, 'temp': 0.0, 'lipoC3S3': 12.54, 'state': 'normal', 'rot1': 136, 'rot0': 154, 'rot3': 0, 'rot2': 0, 'depth': -0.369, 'yaw': 65.16, 'datetime': '2018-12-18 17:04:52.950101', 'mgs': 0, 'flw2': 3.0, 'flw1': 0.0, 'flw0': 0.0, 'time': 17.33, 'compass': -144.56, 'pitch': 3.38, 'roll': 3.2}
{'lipoC2': 0.0, 'temp': 0.0, 'lipoC3S3': 12.51, 'state': 'normal', 'rot1': 136, 'rot0': 157, 'rot3': 0, 'rot2': 0, 'depth': 0.47, 'yaw': 70.87, 'datetime': '2018-12-18 17:04:53.162629', 'mgs': 0, 'flw2': 2.87, 'flw1': 0.0, 'flw0': 0.11, 'time': 17.54, 'compass': -138.86, 'pitch': 3.5, 'roll': 3.26}
{'lipoC2': 0.03, 'temp': 0.0, 'lipoC3S3': 12.37, 'state': 'normal', 'rot1': 136, 'rot0': 159, 'rot3': 0, 'rot2': 0, 'depth': 0.241, 'yaw': 77.01, 'datetime': '2018-12-18 17:04:53.371092', 'mgs': 0, 'flw2': 2.67, 'flw1': 0.47, 'flw0': 0.05, 'time': 17.75, 'compass': -132.72, 'pitch': 3.79, 'roll': 3.07}
{'lipoC2': 0.0, 'temp': 0.0, 'lipoC3S3': 12.55, 'state': 'normal', 'rot1': 136, 'rot0': 162, 'rot3': 0, 'rot2': 0, 'depth': 1.157, 'yaw': 83.4, 'datetime': '2018-12-18 17:04:53.577567', 'mgs': 0, 'flw2': 2.75, 'flw1': 0.44, 'flw0': 0.0, 'time': 17.96, 'compass': -126.33, 'pitch': 4.44, 'roll': 2.93}
{'lipoC2': 0.0, 'temp': 0.0, 'lipoC3S3': 12.51, 'state': 'normal', 'rot1': 136, 'rot0': 164, 'rot3': 0, 'rot2': 0, 'depth': -0.14, 'yaw': 91.0, 'datetime': '2018-12-18 17:04:53.787246', 'mgs': 0, 'flw2': 2.86, 'flw1': 0.0, 'flw0': 0.13, 'time': 18.17, 'compass': -118.72, 'pitch': 5.08, 'roll': 3.16}
{'lipoC2': 0.01, 'temp': 0.0, 'lipoC3S3': 12.41, 'state': 'normal', 'rot1': 136, 'rot0': 167, 'rot3': 0, 'rot2': 0, 'depth': 1.462, 'yaw': 99.26, 'datetime': '2018-12-18 17:04:53.999070', 'mgs': 0, 'flw2': 2.78, 'flw1': 0.0, 'flw0': 0.07, 'time': 18.38, 'compass': -110.46, 'pitch': 5.42, 'roll': 3.66}
{'lipoC2': 0.03, 'temp': 0.0, 'lipoC3S3': 12.37, 'state': 'normal', 'rot1': 136, 'rot0': 169, 'rot3': 0, 'rot2': 0, 'depth': 1.385, 'yaw': 107.86, 'datetime': '2018-12-18 17:04:54.208079', 'mgs': 0, 'flw2': 2.6, 'flw1': 0.38, 'flw0': 0.09, 'time': 18.59, 'compass': -101.87, 'pitch': 5.57, 'roll': 4.23}
{'lipoC2': 0.11, 'temp': 0.0, 'lipoC3S3': 12.27, 'state': 'normal', 'rot1': 136, 'rot0': 172, 'rot3': 0, 'rot2': 0, 'depth': 0.623, 'yaw': 116.83, 'datetime': '2018-12-18 17:04:54.417160', 'mgs': 0, 'flw2': 2.61, 'flw1': 0.06, 'flw0': 0.21, 'time': 18.8, 'compass': -92.89, 'pitch': 6.0, 'roll': 4.77}
{'lipoC2': 0.08, 'temp': 0.0, 'lipoC3S3': 12.27, 'state': 'normal', 'rot1': 136, 'rot0': 174, 'rot3': 0, 'rot2': 0, 'depth': 1.157, 'yaw': 125.67, 'datetime': '2018-12-18 17:04:54.626851', 'mgs': 0, 'flw2': 2.39, 'flw1': 0.29, 'flw0': 0.16, 'time': 19.01, 'compass': -84.06, 'pitch': 6.72, 'roll': 5.03}
{'lipoC2': 0.03, 'temp': 0.0, 'lipoC3S3': 12.56, 'state': 'normal', 'rot1': 136, 'rot0': 177, 'rot3': 0, 'rot2': 0, 'depth': -1.361, 'yaw': 135.38, 'datetime': '2018-12-18 17:04:54.833589', 'mgs': 0, 'flw2': 2.86, 'flw1': 0.0, 'flw0': 0.0, 'time': 19.22, 'compass': -74.34, 'pitch': 7.25, 'roll': 4.98}
{'lipoC2': 0.08, 'temp': 0.0, 'lipoC3S3': 12.52, 'state': 'normal', 'rot1': 136, 'rot0': 179, 'rot3': 0, 'rot2': 0, 'depth': -1.819, 'yaw': 145.93, 'datetime': '2018-12-18 17:04:55.046219', 'mgs': 0, 'flw2': 2.83, 'flw1': 0.44, 'flw0': 0.01, 'time': 19.42, 'compass': -63.8, 'pitch': 7.86, 'roll': 4.98}
{'lipoC2': 0.12, 'temp': 0.0, 'lipoC3S3': 12.5, 'state': 'normal', 'rot1': 136, 'rot0': 182, 'rot3': 0, 'rot2': 0, 'depth': -1.59, 'yaw': 157.29, 'datetime': '2018-12-18 17:04:55.256229', 'mgs': 0, 'flw2': 0.12, 'flw1': 0.0, 'flw0': 0.12, 'time': 19.63, 'compass': -52.44, 'pitch': 8.39, 'roll': 5.1}
{'lipoC2': 0.11, 'temp': 0.0, 'lipoC3S3': 12.64, 'state': 'normal', 'rot1': 136, 'rot0': 182, 'rot3': 0, 'rot2': 0, 'depth': -1.819, 'yaw': 167.52, 'datetime': '2018-12-18 17:04:55.467916', 'mgs': 0, 'flw2': 0.01, 'flw1': 0.0, 'flw0': 0.16, 'time': 19.84, 'compass': -42.21, 'pitch': 7.14, 'roll': 4.61}
{'lipoC2': 0.11, 'temp': 0.0, 'lipoC3S3': 12.5, 'state': 'normal', 'rot1': 136, 'rot0': 182, 'rot3': 0, 'rot2': 0, 'depth': -1.971, 'yaw': 175.72, 'datetime': '2018-12-18 17:04:55.678682', 'mgs': 0, 'flw2': 0.09, 'flw1': 0.0, 'flw0': 0.11, 'time': 20.05, 'compass': -34.01, 'pitch': 5.31, 'roll': 3.53}
{'lipoC2': 0.14, 'temp': 0.0, 'lipoC3S3': 12.42, 'state': 'normal', 'rot1': 136, 'rot0': 182, 'rot3': 0, 'rot2': 0, 'depth': -1.361, 'yaw': -176.61, 'datetime': '2018-12-18 17:04:55.881998', 'mgs': 0, 'flw2': 0.13, 'flw1': 0.35, 'flw0': 0.0, 'time': 20.26, 'compass': -26.33, 'pitch': 4.69, 'roll': 2.64}
{'lipoC2': 0.12, 'temp': 0.0, 'lipoC3S3': 12.29, 'state': 'normal', 'rot1': 136, 'rot0': 182, 'rot3': 0, 'rot2': 0, 'depth': 0.623, 'yaw': -169.61, 'datetime': '2018-12-18 17:04:56.093219', 'mgs': 0, 'flw2': 0.0, 'flw1': 0.0, 'flw0': 0.2, 'time': 20.47, 'compass': -19.33, 'pitch': 4.73, 'roll': 2.2}
{'lipoC2': 0.01, 'temp': 0.0, 'lipoC3S3': 12.41, 'state': 'normal', 'rot1': 136, 'rot0': 182, 'rot3': 0, 'rot2': 0, 'depth': 1.538, 'yaw': -163.15, 'datetime': '2018-12-18 17:04:56.303773', 'mgs': 0, 'flw2': 0.2, 'flw1': 0.0, 'flw0': 0.0, 'time': 20.68, 'compass': -12.88, 'pitch': 4.01, 'roll': 1.99}
{'lipoC2': 0.0, 'temp': 0.0, 'lipoC3S3': 12.51, 'state': 'normal', 'rot1': 136, 'rot0': 182, 'rot3': 0, 'rot2': 0, 'depth': 0.241, 'yaw': -157.17, 'datetime': '2018-12-18 17:04:56.513013', 'mgs': 0, 'flw2': 0.0, 'flw1': 0.47, 'flw0': 0.01, 'time': 20.89, 'compass': -6.9, 'pitch': 2.68, 'roll': 1.7}
{'lipoC2': 0.13, 'temp': 0.0, 'lipoC3S3': 12.26, 'state': 'normal', 'rot1': 136, 'rot0': 182, 'rot3': 0, 'rot2': 0, 'depth': 0.623, 'yaw': -151.77, 'datetime': '2018-12-18 17:04:56.721820', 'mgs': 0, 'flw2': 0.2, 'flw1': 0.06, 'flw0': 0.0, 'time': 21.1, 'compass': -1.5, 'pitch': 1.91, 'roll': 1.19}
{'lipoC2': 0.01, 'temp': 0.0, 'lipoC3S3': 12.38, 'state': 'normal', 'rot1': 136, 'rot0': 182, 'rot3': 0, 'rot2': 0, 'depth': 1.385, 'yaw': -146.35, 'datetime': '2018-12-18 17:04:56.931181', 'mgs': 0, 'flw2': 0.2, 'flw1': 0.0, 'flw0': 0.0, 'time': 21.31, 'compass': 3.92, 'pitch': 1.68, 'roll': 0.52}
{'lipoC2': 0.05, 'temp': 0.0, 'lipoC3S3': 12.56, 'state': 'normal', 'rot1': 136, 'rot0': 182, 'rot3': 0, 'rot2': 0, 'depth': -1.743, 'yaw': -141.2, 'datetime': '2018-12-18 17:04:57.144937', 'mgs': 0, 'flw2': 1.89, 'flw1': 0.0, 'flw0': 0.0, 'time': 21.52, 'compass': 9.07, 'pitch': 1.25, 'roll': 0.06}
{'lipoC2': 0.1, 'temp': 0.0, 'lipoC3S3': 12.26, 'state': 'normal', 'rot1': 136, 'rot0': 184, 'rot3': 0, 'rot2': 0, 'depth': 0.47, 'yaw': -137.34, 'datetime': '2018-12-18 17:04:57.352573', 'mgs': 0, 'flw2': 0.29, 'flw1': 0.32, 'flw0': 0.0, 'time': 21.73, 'compass': 12.93, 'pitch': 0.2, 'roll': -0.11}
{'lipoC2': 0.0, 'temp': 0.0, 'lipoC3S3': 12.66, 'state': 'normal', 'rot1': 136, 'rot0': 184, 'rot3': 0, 'rot2': 0, 'depth': 1.691, 'yaw': -134.22, 'datetime': '2018-12-18 17:04:57.561460', 'mgs': 0, 'flw2': 0.16, 'flw1': 0.0, 'flw0': 0.0, 'time': 21.93, 'compass': 16.05, 'pitch': -0.07, 'roll': 0.09}
{'lipoC2': 0.1, 'temp': 0.0, 'lipoC3S3': 12.52, 'state': 'normal', 'rot1': 136, 'rot0': 185, 'rot3': 0, 'rot2': 0, 'depth': -2.124, 'yaw': -131.1, 'datetime': '2018-12-18 17:04:57.768045', 'mgs': 0, 'flw2': 3.21, 'flw1': 0.47, 'flw0': 0.0, 'time': 22.15, 'compass': 19.17, 'pitch': 0.68, 'roll': 0.45}
{'lipoC2': 0.1, 'temp': 0.0, 'lipoC3S3': 12.27, 'state': 'normal', 'rot1': 136, 'rot0': 186, 'rot3': 0, 'rot2': 0, 'depth': 0.47, 'yaw': -128.86, 'datetime': '2018-12-18 17:04:57.980020', 'mgs': 0, 'flw2': 0.15, 'flw1': 0.0, 'flw0': 0.21, 'time': 22.35, 'compass': 21.42, 'pitch': 0.64, 'roll': 0.46}
{'lipoC2': 0.09, 'temp': 0.0, 'lipoC3S3': 12.27, 'state': 'normal', 'rot1': 136, 'rot0': 186, 'rot3': 0, 'rot2': 0, 'depth': 0.394, 'yaw': -126.6, 'datetime': '2018-12-18 17:04:58.188634', 'mgs': 0, 'flw2': 0.0, 'flw1': 0.03, 'flw0': 0.21, 'time': 22.56, 'compass': 23.68, 'pitch': 0.57, 'roll': 0.49}
{'lipoC2': 0.03, 'temp': 0.0, 'lipoC3S3': 12.34, 'state': 'normal', 'rot1': 136, 'rot0': 186, 'rot3': 0, 'rot2': 0, 'depth': 0.012, 'yaw': -124.39, 'datetime': '2018-12-18 17:04:58.397213', 'mgs': 0, 'flw2': 0.18, 'flw1': 0.0, 'flw0': 0.0, 'time': 22.77, 'compass': 25.89, 'pitch': 0.76, 'roll': 0.67}
{'lipoC2': 0.13, 'temp': 0.0, 'lipoC3S3': 12.29, 'state': 'normal', 'rot1': 136, 'rot0': 186, 'rot3': 0, 'rot2': 0, 'depth': 0.851, 'yaw': -122.76, 'datetime': '2018-12-18 17:04:58.606349', 'mgs': 0, 'flw2': 0.12, 'flw1': 0.32, 'flw0': 0.0, 'time': 22.98, 'compass': 27.51, 'pitch': -1.16, 'roll': 0.62}
{'lipoC2': 0.01, 'temp': 0.0, 'lipoC3S3': 12.59, 'state': 'normal', 'rot1': 136, 'rot0': 186, 'rot3': 0, 'rot2': 0, 'depth': -1.743, 'yaw': -121.51, 'datetime': '2018-12-18 17:04:58.819066', 'mgs': 0, 'flw2': 0.0, 'flw1': 0.38, 'flw0': 0.06, 'time': 23.19, 'compass': 28.77, 'pitch': -2.44, 'roll': 0.33}
{'lipoC2': 0.0, 'temp': 0.0, 'lipoC3S3': 12.67, 'state': 'normal', 'rot1': 136, 'rot0': 186, 'rot3': 0, 'rot2': 0, 'depth': 1.538, 'yaw': -120.49, 'datetime': '2018-12-18 17:04:59.031031', 'mgs': 0, 'flw2': 0.18, 'flw1': 0.06, 'flw0': 0.0, 'time': 23.4, 'compass': 29.79, 'pitch': -3.02, 'roll': 0.14}
{'lipoC2': 0.0, 'temp': 0.0, 'lipoC3S3': 12.68, 'state': 'normal', 'rot1': 136, 'rot0': 186, 'rot3': 0, 'rot2': 0, 'depth': 1.538, 'yaw': -119.69, 'datetime': '2018-12-18 17:04:59.240854', 'mgs': 0, 'flw2': 0.12, 'flw1': 0.26, 'flw0': 0.0, 'time': 23.61, 'compass': 30.58, 'pitch': -2.91, 'roll': 0.24}
{'lipoC2': 0.0, 'temp': 0.0, 'lipoC3S3': 12.67, 'state': 'normal', 'rot1': 136, 'rot0': 186, 'rot3': 0, 'rot2': 0, 'depth': 1.462, 'yaw': -119.08, 'datetime': '2018-12-18 17:04:59.448321', 'mgs': 0, 'flw2': 0.17, 'flw1': 0.09, 'flw0': 0.0, 'time': 23.82, 'compass': 31.2, 'pitch': -2.75, 'roll': 0.58}
