{'lipoC2': 0.16, 'temp': 0.0, 'lipoC3S3': 11.89, 'state': 'normal', 'rot1': 0, 'rot0': 0, 'rot3': 0, 'rot2': 0, 'depth': -1.056, 'yaw': 0.01, 'datetime': '2018-12-18 20:16:44.830400', 'mgs': 0, 'flw2': 0.0, 'flw1': 0.0, 'flw0': 0.18, 'time': 1.26, 'compass': 3.34, 'pitch': 0.94, 'roll': -0.1}
{'lipoC2': 0.0, 'temp': 0.0, 'lipoC3S3': 11.9, 'state': 'normal', 'rot1': 0, 'rot0': 0, 'rot3': 0, 'rot2': 0, 'depth': 0.928, 'yaw': 1.35, 'datetime': '2018-12-18 20:16:45.039253', 'mgs': 0, 'flw2': 0.0, 'flw1': 0.0, 'flw0': 0.16, 'time': 1.46, 'compass': 4.68, 'pitch': 1.15, 'roll': -0.35}
{'lipoC2': 0.09, 'temp': 0.0, 'lipoC3S3': 11.97, 'state': 'normal', 'rot1': 0, 'rot0': 0, 'rot3': 0, 'rot2': 0, 'depth': -1.743, 'yaw': 2.08, 'datetime': '2018-12-18 20:16:45.246227', 'mgs': 0, 'flw2': 0.0, 'flw1': 0.41, 'flw0': 0.0, 'time': 1.67, 'compass': 5.41, 'pitch': 1.09, 'roll': -0.26}
{'lipoC2': 0.0, 'temp': 0.0, 'lipoC3S3': 12.14, 'state': 'normal', 'rot1': 0, 'rot0': 0, 'rot3': 0, 'rot2': 0, 'depth': 0.241, 'yaw': 2.44, 'datetime': '2018-12-18 20:16:45.454452', 'mgs': 0, 'flw2': 0.0, 'flw1': 0.0, 'flw0': 0.2, 'time': 1.88, 'compass': 5.77, 'pitch': 0.87, 'roll': 0.08}
{'lipoC2': 0.1, 'temp': 0.0, 'lipoC3S3': 11.96, 'state': 'normal', 'rot1': 0, 'rot0': 0, 'rot3': 0, 'rot2': 0, 'depth': 1.92, 'yaw': 2.77, 'datetime': '2018-12-18 20:16:45.673905', 'mgs': 0, 'flw2': 0.0, 'flw1': 0.47, 'flw0': 0.0, 'time': 2.09, 'compass': 6.1, 'pitch': 0.79, 'roll': 0.4}
{'lipoC2': 0.06, 'temp': 0.0, 'lipoC3S3': 11.72, 'state': 'normal', 'rot1': 0, 'rot0': 0, 'rot3': 0, 'rot2': 0, 'depth': 0.317, 'yaw': 3.24, 'datetime': '2018-12-18 20:16:45.973007', 'mgs': 0, 'flw2': 0.0, 'flw1': 0.12, 'flw0': 0.21, 'time': 2.4, 'compass': 6.57, 'pitch': 0.72, 'roll': 0.41}
{'lipoC2': 0.02, 'temp': 0.0, 'lipoC3S3': 11.77, 'state': 'normal', 'rot1': 0, 'rot0': 0, 'rot3': 0, 'rot2': 0, 'depth': 1.462, 'yaw': 3.54, 'datetime': '2018-12-18 20:16:46.182265', 'mgs': 0, 'flw2': 0.0, 'flw1': 0.18, 'flw0': 0.16, 'time': 2.61, 'compass': 6.87, 'pitch': 0.42, 'roll': 0.09}
{'lipoC2': 0.06, 'temp': 0.0, 'lipoC3S3': 11.75, 'state': 'normal', 'rot1': 0, 'rot0': 0, 'rot3': 0, 'rot2': 0, 'depth': 0.317, 'yaw': 3.91, 'datetime': '2018-12-18 20:16:46.389338', 'mgs': 0, 'flw2': 0.13, 'flw1': 0.0, 'flw0': 0.0, 'time': 2.81, 'compass': 7.24, 'pitch': 0.43, 'roll': -0.36}
{'lipoC2': 0.12, 'temp': 0.0, 'lipoC3S3': 11.94, 'state': 'normal', 'rot1': 0, 'rot0': 0, 'rot3': 0, 'rot2': 0, 'depth': -1.895, 'yaw': 4.54, 'datetime': '2018-12-18 20:16:46.598949', 'mgs': 0, 'flw2': 0.01, 'flw1': 0.0, 'flw0': 0.13, 'time': 3.02, 'compass': 7.87, 'pitch': 0.89, 'roll': -0.55}
{'lipoC2': 0.09, 'temp': 0.0, 'lipoC3S3': 11.73, 'state': 'normal', 'rot1': 0, 'rot0': 0, 'rot3': 0, 'rot2': 0, 'depth': 0.394, 'yaw': 4.87, 'datetime': '2018-12-18 20:16:46.805737', 'mgs': 0, 'flw2': 0.13, 'flw1': 0.0, 'flw0': 0.0, 'time': 3.23, 'compass': 8.2, 'pitch': 1.1, 'roll': -0.51}
{'lipoC2': 0.15, 'temp': 0.0, 'lipoC3S3': 11.81, 'state': 'normal', 'rot1': 0, 'rot0': 0, 'rot3': 0, 'rot2': 0, 'depth': 0.928, 'yaw': 5.88, 'datetime': '2018-12-18 20:16:47.013711', 'mgs': 0, 'flw2': 0.12, 'flw1': 0.26, 'flw0': 0.0, 'time': 3.43, 'compass': 9.21, 'pitch': 0.91, 'roll': -0.28}
{'lipoC2': 0.01, 'temp': 0.0, 'lipoC3S3': 11.8, 'state': 'normal', 'rot1': 0, 'rot0': 0, 'rot3': 0, 'rot2': 0, 'depth': 1.538, 'yaw': 6.62, 'datetime': '2018-12-18 20:16:47.220823', 'mgs': 0, 'flw2': 0.17, 'flw1': 0.0, 'flw0': 0.0, 'time': 3.64, 'compass': 9.94, 'pitch': 0.7, 'roll': -0.01}
{'lipoC2': 0.06, 'temp': 0.0, 'lipoC3S3': 11.76, 'state': 'normal', 'rot1': 0, 'rot0': 0, 'rot3': 0, 'rot2': 0, 'depth': 0.317, 'yaw': 7.23, 'datetime': '2018-12-18 20:16:47.428999', 'mgs': 0, 'flw2': 0.0, 'flw1': 0.03, 'flw0': 0.0, 'time': 3.85, 'compass': 10.56, 'pitch': 0.7, 'roll': 0.1}
{'lipoC2': 0.13, 'temp': 0.0, 'lipoC3S3': 11.93, 'state': 'normal', 'rot1': 0, 'rot0': 0, 'rot3': 0, 'rot2': 0, 'depth': 1.843, 'yaw': 7.8, 'datetime': '2018-12-18 20:16:47.636171', 'mgs': 0, 'flw2': 0.04, 'flw1': 0.0, 'flw0': 0.13, 'time': 4.06, 'compass': 11.13, 'pitch': 0.7, 'roll': 0.09}
{'lipoC2': 0.0, 'temp': 0.0, 'lipoC3S3': 12.16, 'state': 'normal', 'rot1': 0, 'rot0': 0, 'rot3': 0, 'rot2': 0, 'depth': -0.14, 'yaw': 8.11, 'datetime': '2018-12-18 20:16:47.845277', 'mgs': 0, 'flw2': 0.16, 'flw1': 0.18, 'flw0': 0.0, 'time': 4.26, 'compass': 11.44, 'pitch': 0.61, 'roll': 0.09}
{'lipoC2': 0.13, 'temp': 0.0, 'lipoC3S3': 11.77, 'state': 'normal', 'rot1': 0, 'rot0': 0, 'rot3': 0, 'rot2': 0, 'depth': 0.775, 'yaw': 8.46, 'datetime': '2018-12-18 20:16:48.053499', 'mgs': 0, 'flw2': 0.0, 'flw1': 0.0, 'flw0': 0.2, 'time': 4.47, 'compass': 11.79, 'pitch': 0.66, 'roll': 0.07}
{'lipoC2': 0.06, 'temp': 0.0, 'lipoC3S3': 11.98, 'state': 'normal', 'rot1': 0, 'rot0': 0, 'rot3': 0, 'rot2': 0, 'depth': -1.514, 'yaw': 8.82, 'datetime': '2018-12-18 20:16:48.261799', 'mgs': 0, 'flw2': 0.2, 'flw1': 0.0, 'flw0': 0.0, 'time': 4.68, 'compass': 12.14, 'pitch': 0.94, 'roll': 0.07}
{'lipoC2': 0.15, 'temp': 0.0, 'lipoC3S3': 11.92, 'state': 'normal', 'rot1': 0, 'rot0': 0, 'rot3': 0, 'rot2': 0, 'depth': 1.233, 'yaw': 9.17, 'datetime': '2018-12-18 20:16:48.468846', 'mgs': 0, 'flw2': 0.1, 'flw1': 0.0, 'flw0': 0.1, 'time': 4.89, 'compass': 12.5, 'pitch': 1.11, 'roll': 0.06}
{'lipoC2': 0.14, 'temp': 0.0, 'lipoC3S3': 11.93, 'state': 'normal', 'rot1': 0, 'rot0': 0, 'rot3': 0, 'rot2': 0, 'depth': -1.132, 'yaw': 9.51, 'datetime': '2018-12-18 20:16:48.676848', 'mgs': 0, 'flw2': 0.12, 'flw1': 0.0, 'flw0': 0.09, 'time': 5.1, 'compass': 12.83, 'pitch': 0.99, 'roll': 0.06}
{'lipoC2': 0.11, 'temp': 0.0, 'lipoC3S3': 11.76, 'state': 'normal', 'rot1': 0, 'rot0': 0, 'rot3': 0, 'rot2': 0, 'depth': 1.004, 'yaw': 9.9, 'datetime': '2018-12-18 20:16:48.884037', 'mgs': 0, 'flw2': 0.15, 'flw1': 0.15, 'flw0': 0.0, 'time': 5.3, 'compass': 13.23, 'pitch': 0.81, 'roll': 0.05}
{'lipoC2': 0.1, 'temp': 0.0, 'lipoC3S3': 11.76, 'state': 'normal', 'rot1': 0, 'rot0': 0, 'rot3': 0, 'rot2': 0, 'depth': 1.08, 'yaw': 10.26, 'datetime': '2018-12-18 20:16:49.092925', 'mgs': 0, 'flw2': 0.1, 'flw1': 0.29, 'flw0': 0.0, 'time': 5.51, 'compass': 13.59, 'pitch': 0.98, 'roll': 0.05}
{'lipoC2': 0.09, 'temp': 0.0, 'lipoC3S3': 11.97, 'state': 'normal', 'rot1': 0, 'rot0': 0, 'rot3': 0, 'rot2': 0, 'depth': 1.92, 'yaw': 10.6, 'datetime': '2018-12-18 20:16:49.301649', 'mgs': 0, 'flw2': 0.22, 'flw1': 0.0, 'flw0': 0.0, 'time': 5.72, 'compass': 13.93, 'pitch': 1.17, 'roll': 0.04}
{'lipoC2': 0.12, 'temp': 0.0, 'lipoC3S3': 11.96, 'state': 'normal', 'rot1': 0, 'rot0': 0, 'rot3': 0, 'rot2': 0, 'depth': -1.666, 'yaw': 11.0, 'datetime': '2018-12-18 20:16:49.509190', 'mgs': 0, 'flw2': 0.0, 'flw1': 0.44, 'flw0': 0.0, 'time': 5.93, 'compass': 14.33, 'pitch': 1.04, 'roll': 0.05}
{'lipoC2': 0.0, 'temp': 0.0, 'lipoC3S3': 12.02, 'state': 'normal', 'rot1': 0, 'rot0': 0, 'rot3': 0, 'rot2': 0, 'depth': 1.08, 'yaw': 11.38, 'datetime': '2018-12-18 20:16:49.718165', 'mgs': 0, 'flw2': 0.0, 'flw1': 0.18, 'flw0': 0.16, 'time': 6.14, 'compass': 14.71, 'pitch': 0.89, 'roll': 0.08}
{'lipoC2': 0.13, 'temp': 0.0, 'lipoC3S3': 11.77, 'state': 'normal', 'rot1': 0, 'rot0': 0, 'rot3': 0, 'rot2': 0, 'depth': 0.546, 'yaw': 11.72, 'datetime': '2018-12-18 20:16:49.925352', 'mgs': 0, 'flw2': 0.0, 'flw1': 0.0, 'flw0': 0.21, 'time': 6.34, 'compass': 15.05, 'pitch': 0.89, 'roll': -0.03}
{'lipoC2': 0.0, 'temp': 0.0, 'lipoC3S3': 12.16, 'state': 'normal', 'rot1': 0, 'rot0': 0, 'rot3': 0, 'rot2': 0, 'depth': -0.598, 'yaw': 12.06, 'datetime': '2018-12-18 20:16:50.132727', 'mgs': 0, 'flw2': 0.0, 'flw1': 0.0, 'flw0': 0.21, 'time': 6.55, 'compass': 15.39, 'pitch': 0.89, 'roll': -0.31}
{'lipoC2': 0.05, 'temp': 0.0, 'lipoC3S3': 11.76, 'state': 'normal', 'rot1': 0, 'rot0': 0, 'rot3': 0, 'rot2': 0, 'depth': 0.317, 'yaw': 12.45, 'datetime': '2018-12-18 20:16:50.340514', 'mgs': 0, 'flw2': 0.17, 'flw1': 0.0, 'flw0': 0.0, 'time': 6.76, 'compass': 15.78, 'pitch': 0.89, 'roll': -0.38}
{'lipoC2': 0.0, 'temp': 0.0, 'lipoC3S3': 11.81, 'state': 'normal', 'rot1': 0, 'rot0': 0, 'rot3': 0, 'rot2': 0, 'depth': -0.446, 'yaw': 12.86, 'datetime': '2018-12-18 20:16:50.547369', 'mgs': 0, 'flw2': 0.02, 'flw1': 0.38, 'flw0': 0.0, 'time': 6.96, 'compass': 16.19, 'pitch': 0.98, 'roll': -0.23}
{'lipoC2': 0.11, 'temp': 0.0, 'lipoC3S3': 11.96, 'state': 'normal', 'rot1': 0, 'rot0': 0, 'rot3': 0, 'rot2': 0, 'depth': 1.843, 'yaw': 13.27, 'datetime': '2018-12-18 20:16:50.755785', 'mgs': 0, 'flw2': 0.0, 'flw1': 0.41, 'flw0': 0.0, 'time': 7.17, 'compass': 16.6, 'pitch': 1.06, 'roll': 0.02}
{'lipoC2': 0.11, 'temp': 0.0, 'lipoC3S3': 11.76, 'state': 'normal', 'rot1': 0, 'rot0': 0, 'rot3': 0, 'rot2': 0, 'depth': 0.775, 'yaw': 13.65, 'datetime': '2018-12-18 20:16:50.964145', 'mgs': 0, 'flw2': 0.13, 'flw1': 0.15, 'flw0': 0.0, 'time': 7.38, 'compass': 16.98, 'pitch': 0.95, 'roll': 0.14}
{'lipoC2': 0.08, 'temp': 0.0, 'lipoC3S3': 11.97, 'state': 'normal', 'rot1': 0, 'rot0': 0, 'rot3': 0, 'rot2': 0, 'depth': 1.92, 'yaw': 13.99, 'datetime': '2018-12-18 20:16:51.181942', 'mgs': 0, 'flw2': 0.1, 'flw1': 0.0, 'flw0': 0.06, 'time': 7.59, 'compass': 17.32, 'pitch': 0.79, 'roll': 0.08}
{'lipoC2': 0.11, 'temp': 0.0, 'lipoC3S3': 11.94, 'state': 'normal', 'rot1': 0, 'rot0': 0, 'rot3': 0, 'rot2': 0, 'depth': 1.843, 'yaw': 14.57, 'datetime': '2018-12-18 20:16:51.484717', 'mgs': 0, 'flw2': 0.07, 'flw1': 0.0, 'flw0': 0.1, 'time': 7.9, 'compass': 17.9, 'pitch': 0.82, 'roll': -0.33}
{'lipoC2': 0.04, 'temp': 0.0, 'lipoC3S3': 12.0, 'state': 'normal', 'rot1': 0, 'rot0': 0, 'rot3': 0, 'rot2': 0, 'depth': -1.285, 'yaw': 14.95, 'datetime': '2018-12-18 20:16:51.691345', 'mgs': 0, 'flw2': 0.2, 'flw1': 0.0, 'flw0': 0.0, 'time': 8.11, 'compass': 18.28, 'pitch': 1.06, 'roll': -0.62}
{'lipoC2': 0.11, 'temp': 0.0, 'lipoC3S3': 11.94, 'state': 'normal', 'rot1': 0, 'rot0': 0, 'rot3': 0, 'rot2': 0, 'depth': -1.59, 'yaw': 15.32, 'datetime': '2018-12-18 20:16:51.899601', 'mgs': 0, 'flw2': 0.0, 'flw1': 0.47, 'flw0': 0.0, 'time': 8.31, 'compass': 18.65, 'pitch': 1.03, 'roll': -0.7}
{'lipoC2': 0.0, 'temp': 0.0, 'lipoC3S3': 11.94, 'state': 'normal', 'rot1': 0, 'rot0': 0, 'rot3': 0, 'rot2': 0, 'depth': 0.241, 'yaw': 15.7, 'datetime': '2018-12-18 20:16:52.106779', 'mgs': 0, 'flw2': 0.15, 'flw1': 0.0, 'flw0': 0.05, 'time': 8.52, 'compass': 19.03, 'pitch': 0.62, 'roll': -0.45}
{'lipoC2': 0.09, 'temp': 0.0, 'lipoC3S3': 11.94, 'state': 'normal', 'rot1': 0, 'rot0': 0, 'rot3': 0, 'rot2': 0, 'depth': -1.819, 'yaw': 16.1, 'datetime': '2018-12-18 20:16:52.315085', 'mgs': 0, 'flw2': 0.11, 'flw1': 0.0, 'flw0': 0.05, 'time': 8.73, 'compass': 19.42, 'pitch': 0.43, 'roll': -0.05}
{'lipoC2': 0.0, 'temp': 0.0, 'lipoC3S3': 11.94, 'state': 'normal', 'rot1': 0, 'rot0': 0, 'rot3': 0, 'rot2': 0, 'depth': 0.317, 'yaw': 16.49, 'datetime': '2018-12-18 20:16:52.524146', 'mgs': 0, 'flw2': 0.06, 'flw1': 0.0, 'flw0': 0.11, 'time': 8.94, 'compass': 19.82, 'pitch': 0.81, 'roll': 0.13}
{'lipoC2': 0.0, 'temp': 0.0, 'lipoC3S3': 12.16, 'state': 'normal', 'rot1': 0, 'rot0': 0, 'rot3': 0, 'rot2': 0, 'depth': 1.767, 'yaw': 16.85, 'datetime': '2018-12-18 20:16:52.733482', 'mgs': 0, 'flw2': 0.0, 'flw1': 0.0, 'flw0': 0.21, 'time': 9.15, 'compass': 20.18, 'pitch': 1.16, 'roll': 0.08}
{'lipoC2': 0.12, 'temp': 0.0, 'lipoC3S3': 11.96, 'state': 'normal', 'rot1': 0, 'rot0': 0, 'rot3': 0, 'rot2': 0, 'depth': 1.843, 'yaw': 17.22, 'datetime': '2018-12-18 20:16:52.942310', 'mgs': 0, 'flw2': 0.0, 'flw1': 0.47, 'flw0': 0.0, 'time': 9.35, 'compass': 20.55, 'pitch': 0.88, 'roll': -0.15}
{'lipoC2': 0.15, 'temp': 0.0, 'lipoC3S3': 11.88, 'state': 'normal', 'rot1': 0, 'rot0': 0, 'rot3': 0, 'rot2': 0, 'depth': -0.293, 'yaw': 17.58, 'datetime': '2018-12-18 20:16:53.147933', 'mgs': 0, 'flw2': 0.01, 'flw1': 0.0, 'flw0': 0.16, 'time': 9.56, 'compass': 20.91, 'pitch': 0.4, 'roll': -0.44}
{'lipoC2': 0.0, 'temp': 0.0, 'lipoC3S3': 12.16, 'state': 'normal', 'rot1': 0, 'rot0': 0, 'rot3': 0, 'rot2': 0, 'depth': -0.217, 'yaw': 17.94, 'datetime': '2018-12-18 20:16:53.354735', 'mgs': 0, 'flw2': 0.0, 'flw1': 0.0, 'flw0': 0.21, 'time': 9.77, 'compass': 21.27, 'pitch': 0.41, 'roll': -0.54}
{'lipoC2': 0.1, 'temp': 0.0, 'lipoC3S3': 11.75, 'state': 'normal', 'rot1': 0, 'rot0': 0, 'rot3': 0, 'rot2': 0, 'depth': 0.47, 'yaw': 18.33, 'datetime': '2018-12-18 20:16:53.566269', 'mgs': 0, 'flw2': 0.0, 'flw1': 0.0, 'flw0': 0.21, 'time': 9.97, 'compass': 21.65, 'pitch': 0.97, 'roll': -0.43}
{'lipoC2': 0.03, 'temp': 0.0, 'lipoC3S3': 12.09, 'state': 'normal', 'rot1': 0, 'rot0': 0, 'rot3': 0, 'rot2': 0, 'depth': 0.241, 'yaw': 18.72, 'datetime': '2018-12-18 20:16:53.774553', 'mgs': 0, 'flw2': 0.0, 'flw1': 0.12, 'flw0': 0.18, 'time': 10.18, 'compass': 22.05, 'pitch': 1.44, 'roll': -0.37}
{'lipoC2': 0.0, 'temp': 0.0, 'lipoC3S3': 11.93, 'state': 'normal', 'rot1': 0, 'rot0': 0, 'rot3': 0, 'rot2': 0, 'depth': 0.851, 'yaw': 19.09, 'datetime': '2018-12-18 20:16:53.983224', 'mgs': 0, 'flw2': 0.06, 'flw1': 0.0, 'flw0': 0.11, 'time': 10.39, 'compass': 22.42, 'pitch': 1.24, 'roll': -0.37}
{'lipoC2': 0.0, 'temp': 0.0, 'lipoC3S3': 11.93, 'state': 'normal', 'rot1': 0, 'rot0': 0, 'rot3': 0, 'rot2': 0, 'depth': 0.928, 'yaw': 19.47, 'datetime': '2018-12-18 20:16:54.189993', 'mgs': 0, 'flw2': 0.11, 'flw1': 0.0, 'flw0': 0.1, 'time': 10.6, 'compass': 22.79, 'pitch': 0.74, 'roll': -0.37}
{'lipoC2': 0.0, 'temp': 0.0, 'lipoC3S3': 12.16, 'state': 'normal', 'rot1': 0, 'rot0': 0, 'rot3': 0, 'rot2': 0, 'depth': -0.369, 'yaw': 19.84, 'datetime': '2018-12-18 20:16:54.397203', 'mgs': 0, 'flw2': 0.0, 'flw1': 0.0, 'flw0': 0.23, 'time': 10.81, 'compass': 23.17, 'pitch': 0.56, 'roll': -0.37}
{'lipoC2': 0.0, 'temp': 0.0, 'lipoC3S3': 12.13, 'state': 'normal', 'rot1': 0, 'rot0': 0, 'rot3': 0, 'rot2': 0, 'depth': 1.767, 'yaw': 20.19, 'datetime': '2018-12-18 20:16:54.602429', 'mgs': 0, 'flw2': 0.12, 'flw1': 0.18, 'flw0': 0.0, 'time': 11.01, 'compass': 23.52, 'pitch': 0.72, 'roll': -0.39}
{'lipoC2': 0.09, 'temp': 0.0, 'lipoC3S3': 12.13, 'state': 'normal', 'rot1': 0, 'rot0': 0, 'rot3': 0, 'rot2': 0, 'depth': 0.394, 'yaw': 20.56, 'datetime': '2018-12-18 20:16:54.810781', 'mgs': 0, 'flw2': 0.15, 'flw1': 0.09, 'flw0': 0.0, 'time': 11.22, 'compass': 23.89, 'pitch': 1.07, 'roll': -0.39}
{'lipoC2': 0.0, 'temp': 0.0, 'lipoC3S3': 12.05, 'state': 'normal', 'rot1': 0, 'rot0': 0, 'rot3': 0, 'rot2': 0, 'depth': 1.309, 'yaw': 20.94, 'datetime': '2018-12-18 20:16:55.022033', 'mgs': 0, 'flw2': 0.0, 'flw1': 0.32, 'flw0': 0.06, 'time': 11.43, 'compass': 24.27, 'pitch': 1.15, 'roll': -0.4}
{'lipoC2': 0.14, 'temp': 0.0, 'lipoC3S3': 11.94, 'state': 'normal', 'rot1': 0, 'rot0': 0, 'rot3': 0, 'rot2': 0, 'depth': -1.514, 'yaw': 21.29, 'datetime': '2018-12-18 20:16:55.230495', 'mgs': 0, 'flw2': 0.15, 'flw1': 0.0, 'flw0': 0.04, 'time': 11.64, 'compass': 24.62, 'pitch': 0.98, 'roll': -0.41}
{'lipoC2': 0.12, 'temp': 0.0, 'lipoC3S3': 11.94, 'state': 'normal', 'rot1': 0, 'rot0': 0, 'rot3': 0, 'rot2': 0, 'depth': -1.437, 'yaw': 21.66, 'datetime': '2018-12-18 20:16:55.438006', 'mgs': 0, 'flw2': 0.11, 'flw1': 0.0, 'flw0': 0.07, 'time': 11.84, 'compass': 24.99, 'pitch': 0.9, 'roll': -0.41}
{'lipoC2': 0.0, 'temp': 0.0, 'lipoC3S3': 11.79, 'state': 'normal', 'rot1': 0, 'rot0': 0, 'rot3': 0, 'rot2': 0, 'depth': -0.522, 'yaw': 22.03, 'datetime': '2018-12-18 20:16:55.645443', 'mgs': 0, 'flw2': 0.0, 'flw1': 0.0, 'flw0': 0.21, 'time': 12.05, 'compass': 25.36, 'pitch': 1.1, 'roll': -0.42}
{'lipoC2': 0.09, 'temp': 0.0, 'lipoC3S3': 11.73, 'state': 'normal', 'rot1': 0, 'rot0': 0, 'rot3': 0, 'rot2': 0, 'depth': 0.394, 'yaw': 22.36, 'datetime': '2018-12-18 20:16:55.856042', 'mgs': 0, 'flw2': 0.18, 'flw1': 0.03, 'flw0': 0.0, 'time': 12.26, 'compass': 25.69, 'pitch': 1.2, 'roll': -0.39}
{'lipoC2': 0.0, 'temp': 0.0, 'lipoC3S3': 12.01, 'state': 'normal', 'rot1': 0, 'rot0': 0, 'rot3': 0, 'rot2': 0, 'depth': -1.208, 'yaw': 22.72, 'datetime': '2018-12-18 20:16:56.059288', 'mgs': 0, 'flw2': 0.0, 'flw1': 0.38, 'flw0': 0.02, 'time': 12.47, 'compass': 26.04, 'pitch': 1.03, 'roll': -0.32}
{'lipoC2': 0.0, 'temp': 0.0, 'lipoC3S3': 12.09, 'state': 'normal', 'rot1': 0, 'rot0': 0, 'rot3': 0, 'rot2': 0, 'depth': 1.462, 'yaw': 23.07, 'datetime': '2018-12-18 20:16:56.269806', 'mgs': 0, 'flw2': 0.18, 'flw1': 0.03, 'flw0': 0.0, 'time': 12.67, 'compass': 26.4, 'pitch': 0.87, 'roll': -0.32}
{'lipoC2': 0.14, 'temp': 0.0, 'lipoC3S3': 11.92, 'state': 'normal', 'rot1': 0, 'rot0': 0, 'rot3': 0, 'rot2': 0, 'depth': -1.208, 'yaw': 23.42, 'datetime': '2018-12-18 20:16:56.474703', 'mgs': 0, 'flw2': 0.0, 'flw1': 0.44, 'flw0': 0.0, 'time': 12.88, 'compass': 26.75, 'pitch': 1.06, 'roll': -0.46}
{'lipoC2': 0.0, 'temp': 0.0, 'lipoC3S3': 12.13, 'state': 'normal', 'rot1': 0, 'rot0': 0, 'rot3': 0, 'rot2': 0, 'depth': -1.514, 'yaw': 23.77, 'datetime': '2018-12-18 20:16:56.680758', 'mgs': 0, 'flw2': 0.16, 'flw1': 0.12, 'flw0': 0.0, 'time': 13.09, 'compass': 27.1, 'pitch': 1.3, 'roll': -0.51}
{'lipoC2': 0.09, 'temp': 0.0, 'lipoC3S3': 11.75, 'state': 'normal', 'rot1': 0, 'rot0': 0, 'rot3': 0, 'rot2': 0, 'depth': 0.394, 'yaw': 24.11, 'datetime': '2018-12-18 20:16:56.891488', 'mgs': 0, 'flw2': 0.0, 'flw1': 0.0, 'flw0': 0.21, 'time': 13.3, 'compass': 27.44, 'pitch': 1.1, 'roll': -0.46}
{'lipoC2': 0.0, 'temp': 0.0, 'lipoC3S3': 12.1, 'state': 'normal', 'rot1': 0, 'rot0': 0, 'rot3': 0, 'rot2': 0, 'depth': 1.767, 'yaw': 24.45, 'datetime': '2018-12-18 20:16:57.101054', 'mgs': 0, 'flw2': 0.15, 'flw1': 0.0, 'flw0': 0.0, 'time': 13.5, 'compass': 27.78, 'pitch': 0.62, 'roll': -0.3}
{'lipoC2': 0.05, 'temp': 0.0, 'lipoC3S3': 12.0, 'state': 'normal', 'rot1': 0, 'rot0': 0, 'rot3': 0, 'rot2': 0, 'depth': -1.285, 'yaw': 24.8, 'datetime': '2018-12-18 20:16:57.306988', 'mgs': 0, 'flw2': 0.12, 'flw1': 0.0, 'flw0': 0.02, 'time': 13.71, 'compass': 28.12, 'pitch': 0.47, 'roll': -0.26}
{'lipoC2': 0.08, 'temp': 0.0, 'lipoC3S3': 11.76, 'state': 'normal', 'rot1': 0, 'rot0': 0, 'rot3': 0, 'rot2': 0, 'depth': 0.394, 'yaw': 25.14, 'datetime': '2018-12-18 20:16:57.517441', 'mgs': 0, 'flw2': 0.16, 'flw1': 0.0, 'flw0': 0.0, 'time': 13.92, 'compass': 28.47, 'pitch': 0.8, 'roll': -0.35}
{'lipoC2': 0.0, 'temp': 0.0, 'lipoC3S3': 12.12, 'state': 'normal', 'rot1': 0, 'rot0': 0, 'rot3': 0, 'rot2': 0, 'depth': 1.767, 'yaw': 25.47, 'datetime': '2018-12-18 20:16:57.721837', 'mgs': 0, 'flw2': 0.17, 'flw1': 0.0, 'flw0': 0.0, 'time': 14.13, 'compass': 28.8, 'pitch': 1.01, 'roll': -0.36}
{'lipoC2': 0.0, 'temp': 0.0, 'lipoC3S3': 11.92, 'state': 'normal', 'rot1': 0, 'rot0': 0, 'rot3': 0, 'rot2': 0, 'depth': 0.928, 'yaw': 25.81, 'datetime': '2018-12-18 20:16:57.930675', 'mgs': 0, 'flw2': 0.01, 'flw1': 0.0, 'flw0': 0.13, 'time': 14.33, 'compass': 29.13, 'pitch': 0.74, 'roll': -0.37}
{'lipoC2': 0.11, 'temp': 0.0, 'lipoC3S3': 11.96, 'state': 'normal', 'rot1': 0, 'rot0': 0, 'rot3': 0, 'rot2': 0, 'depth': 1.843, 'yaw': 26.15, 'datetime': '2018-12-18 20:16:58.138321', 'mgs': 0, 'flw2': 0.0, 'flw1': 0.5, 'flw0': 0.0, 'time': 14.54, 'compass': 29.48, 'pitch': 0.35, 'roll': -0.52}
{'lipoC2': 0.0, 'temp': 0.0, 'lipoC3S3': 11.96, 'state': 'normal', 'rot1': 0, 'rot0': 0, 'rot3': 0, 'rot2': 0, 'depth': 0.089, 'yaw': 26.5, 'datetime': '2018-12-18 20:16:58.345316', 'mgs': 0, 'flw2': 0.0, 'flw1': 0.41, 'flw0': 0.0, 'time': 14.75, 'compass': 29.83, 'pitch': 0.44, 'roll': -0.46}
{'lipoC2': 0.02, 'temp': 0.0, 'lipoC3S3': 11.81, 'state': 'normal', 'rot1': 0, 'rot0': 0, 'rot3': 0, 'rot2': 0, 'depth': 0.241, 'yaw': 26.86, 'datetime': '2018-12-18 20:16:58.555022', 'mgs': 0, 'flw2': 0.21, 'flw1': 0.0, 'flw0': 0.0, 'time': 14.95, 'compass': 30.19, 'pitch': 0.91, 'roll': -0.31}
{'lipoC2': 0.0, 'temp': 0.0, 'lipoC3S3': 11.96, 'state': 'normal', 'rot1': 0, 'rot0': 0, 'rot3': 0, 'rot2': 0, 'depth': 0.546, 'yaw': 27.23, 'datetime': '2018-12-18 20:16:58.762098', 'mgs': 0, 'flw2': 0.0, 'flw1': 0.5, 'flw0': 0.0, 'time': 15.16, 'compass': 30.56, 'pitch': 1.21, 'roll': -0.32}
{'lipoC2': 0.08, 'temp': 0.0, 'lipoC3S3': 11.97, 'state': 'normal', 'rot1': 0, 'rot0': 0, 'rot3': 0, 'rot2': 0, 'depth': -1.514, 'yaw': 27.59, 'datetime': '2018-12-18 20:16:58.972599', 'mgs': 0, 'flw2': 0.07, 'flw1': 0.0, 'flw0': 0.07, 'time': 15.37, 'compass': 30.91, 'pitch': 1.06, 'roll': -0.32}
{'lipoC2': 0.15, 'temp': 0.0, 'lipoC3S3': 11.88, 'state': 'normal', 'rot1': 0, 'rot0': 0, 'rot3': 0, 'rot2': 0, 'depth': 1.843, 'yaw': 27.94, 'datetime': '2018-12-18 20:16:59.180859', 'mgs': 0, 'flw2': 0.0, 'flw1': 0.0, 'flw0': 0.22, 'time': 15.58, 'compass': 31.27, 'pitch': 0.71, 'roll': -0.32}
{'lipoC2': 0.09, 'temp': 0.0, 'lipoC3S3': 11.96, 'state': 'normal', 'rot1': 0, 'rot0': 0, 'rot3': 0, 'rot2': 0, 'depth': -1.895, 'yaw': 28.32, 'datetime': '2018-12-18 20:16:59.389883', 'mgs': 0, 'flw2': 0.06, 'flw1': 0.62, 'flw0': 0.0, 'time': 15.79, 'compass': 31.65, 'pitch': 0.61, 'roll': -0.32}
{'lipoC2': 0.0, 'temp': 0.0, 'lipoC3S3': 11.97, 'state': 'normal', 'rot1': 4, 'rot0': 3, 'rot3': 0, 'rot2': 0, 'depth': 2.225, 'yaw': 31.57, 'datetime': '2018-12-18 20:16:59.692209', 'mgs': 0, 'flw2': 1.4, 'flw1': 0.0, 'flw0': 1.61, 'time': 16.1, 'compass': 34.9, 'pitch': 1.3, 'roll': 0.18}
{'lipoC2': 0.0, 'temp': 0.0, 'lipoC3S3': 11.93, 'state': 'normal', 'rot1': 6, 'rot0': 5, 'rot3': 0, 'rot2': 0, 'depth': 2.377, 'yaw': 36.86, 'datetime': '2018-12-18 20:16:59.901259', 'mgs': 0, 'flw2': 1.45, 'flw1': 0.21, 'flw0': 1.65, 'time': 16.31, 'compass': 40.19, 'pitch': 2.01, 'roll': 0.83}
{'lipoC2': 0.18, 'temp': 0.0, 'lipoC3S3': 11.81, 'state': 'normal', 'rot1': 8, 'rot0': 7, 'rot3': 0, 'rot2': 0, 'depth': -2.124, 'yaw': 44.25, 'datetime': '2018-12-18 20:17:00.108863', 'mgs': 0, 'flw2': 1.34, 'flw1': 0.0, 'flw0': 0.82, 'time': 16.51, 'compass': 47.58, 'pitch': 2.1, 'roll': 1.29}
{'lipoC2': 0.0, 'temp': 0.0, 'lipoC3S3': 12.19, 'state': 'normal', 'rot1': 11, 'rot0': 9, 'rot3': 0, 'rot2': 0, 'depth': 0.241, 'yaw': 53.19, 'datetime': '2018-12-18 20:17:00.318183', 'mgs': 0, 'flw2': 1.42, 'flw1': 0.12, 'flw0': 0.9, 'time': 16.72, 'compass': 56.52, 'pitch': 1.19, 'roll': 1.37}
{'lipoC2': 0.2, 'temp': 0.0, 'lipoC3S3': 11.71, 'state': 'normal', 'rot1': 14, 'rot0': 12, 'rot3': 0, 'rot2': 0, 'depth': -0.293, 'yaw': 61.8, 'datetime': '2018-12-18 20:17:00.526568', 'mgs': 0, 'flw2': 1.18, 'flw1': 0.64, 'flw0': 1.16, 'time': 16.93, 'compass': 65.13, 'pitch': 0.22, 'roll': 1.19}
{'lipoC2': 0.0, 'temp': 0.0, 'lipoC3S3': 12.18, 'state': 'normal', 'rot1': 16, 'rot0': 14, 'rot3': 0, 'rot2': 0, 'depth': -0.14, 'yaw': 71.38, 'datetime': '2018-12-18 20:17:00.736071', 'mgs': 0, 'flw2': 1.45, 'flw1': 0.35, 'flw0': 1.09, 'time': 17.14, 'compass': 74.71, 'pitch': 0.12, 'roll': 0.82}
{'lipoC2': 0.25, 'temp': 0.0, 'lipoC3S3': 11.73, 'state': 'normal', 'rot1': 18, 'rot0': 16, 'rot3': 0, 'rot2': 0, 'depth': -2.429, 'yaw': 81.1, 'datetime': '2018-12-18 20:17:00.945056', 'mgs': 0, 'flw2': 1.1, 'flw1': 0.0, 'flw0': 0.94, 'time': 17.35, 'compass': 84.43, 'pitch': 0.69, 'roll': 0.41}
{'lipoC2': 0.0, 'temp': 0.0, 'lipoC3S3': 12.05, 'state': 'normal', 'rot1': 21, 'rot0': 18, 'rot3': 0, 'rot2': 0, 'depth': 2.606, 'yaw': 91.11, 'datetime': '2018-12-18 20:17:01.153677', 'mgs': 0, 'flw2': 1.22, 'flw1': 0.64, 'flw0': 0.96, 'time': 17.56, 'compass': 94.44, 'pitch': 0.75, 'roll': 0.24}
{'lipoC2': 0.0, 'temp': 0.0, 'lipoC3S3': 11.84, 'state': 'normal', 'rot1': 24, 'rot0': 20, 'rot3': 0, 'rot2': 0, 'depth': -0.064, 'yaw': 101.85, 'datetime': '2018-12-18 20:17:01.363481', 'mgs': 0, 'flw2': 1.37, 'flw1': 0.0, 'flw0': 0.66, 'time': 17.76, 'compass': 105.18, 'pitch': 0.19, 'roll': 0.66}
{'lipoC2': 0.18, 'temp': 0.0, 'lipoC3S3': 11.71, 'state': 'normal', 'rot1': 26, 'rot0': 22, 'rot3': 0, 'rot2': 0, 'depth': 0.851, 'yaw': 111.51, 'datetime': '2018-12-18 20:17:01.572151', 'mgs': 0, 'flw2': 1.07, 'flw1': 0.0, 'flw0': 0.96, 'time': 17.98, 'compass': 114.84, 'pitch': -0.36, 'roll': 1.2}
{'lipoC2': 0.16, 'temp': 0.0, 'lipoC3S3': 11.79, 'state': 'normal', 'rot1': 28, 'rot0': 24, 'rot3': 0, 'rot2': 0, 'depth': 0.928, 'yaw': 121.55, 'datetime': '2018-12-18 20:17:01.784380', 'mgs': 0, 'flw2': 1.1, 'flw1': 0.0, 'flw0': 0.63, 'time': 18.18, 'compass': 124.88, 'pitch': -0.62, 'roll': 1.6}
{'lipoC2': 0.0, 'temp': 0.0, 'lipoC3S3': 12.16, 'state': 'normal', 'rot1': 31, 'rot0': 26, 'rot3': 0, 'rot2': 0, 'depth': 1.462, 'yaw': 131.92, 'datetime': '2018-12-18 20:17:01.989674', 'mgs': 0, 'flw2': 0.73, 'flw1': 0.0, 'flw0': 1.16, 'time': 18.39, 'compass': 135.25, 'pitch': -0.33, 'roll': 1.69}
{'lipoC2': 0.18, 'temp': 0.0, 'lipoC3S3': 11.87, 'state': 'normal', 'rot1': 33, 'rot0': 27, 'rot3': 0, 'rot2': 0, 'depth': -1.666, 'yaw': 142.39, 'datetime': '2018-12-18 20:17:02.199834', 'mgs': 0, 'flw2': 0.76, 'flw1': 0.0, 'flw0': 0.89, 'time': 18.6, 'compass': 145.72, 'pitch': -0.24, 'roll': 1.62}
{'lipoC2': 0.0, 'temp': 0.0, 'lipoC3S3': 12.18, 'state': 'normal', 'rot1': 35, 'rot0': 29, 'rot3': 0, 'rot2': 0, 'depth': 2.225, 'yaw': 152.17, 'datetime': '2018-12-18 20:17:02.407051', 'mgs': 0, 'flw2': 0.6, 'flw1': 0.0, 'flw0': 0.05, 'time': 18.81, 'compass': 155.5, 'pitch': -0.58, 'roll': 1.54}
{'lipoC2': 0.17, 'temp': 0.0, 'lipoC3S3': 11.88, 'state': 'normal', 'rot1': 37, 'rot0': 30, 'rot3': 0, 'rot2': 0, 'depth': -0.827, 'yaw': 161.32, 'datetime': '2018-12-18 20:17:02.616334', 'mgs': 0, 'flw2': 0.78, 'flw1': 4.1, 'flw0': 3.32, 'time': 19.02, 'compass': 164.65, 'pitch': -0.87, 'roll': 1.39}
{'lipoC2': 0.0, 'temp': 0.0, 'lipoC3S3': 11.88, 'state': 'normal', 'rot1': 39, 'rot0': 31, 'rot3': 1, 'rot2': 1, 'depth': 0.928, 'yaw': 167.19, 'datetime': '2018-12-18 20:17:02.824434', 'mgs': 0, 'flw2': 0.72, 'flw1': 0.0, 'flw0': 3.09, 'time': 19.22, 'compass': 170.52, 'pitch': 1.17, 'roll': 0.23}
{'lipoC2': 0.14, 'temp': 0.0, 'lipoC3S3': 11.94, 'state': 'normal', 'rot1': 42, 'rot0': 33, 'rot3': 1, 'rot2': 1, 'depth': -1.514, 'yaw': 169.74, 'datetime': '2018-12-18 20:17:03.042569', 'mgs': 0, 'flw2': 0.92, 'flw1': 0.0, 'flw0': 2.89, 'time': 19.43, 'compass': 173.07, 'pitch': 3.04, 'roll': -0.92}
{'lipoC2': 0.06, 'temp': 0.0, 'lipoC3S3': 12.0, 'state': 'normal', 'rot1': 44, 'rot0': 34, 'rot3': 1, 'rot2': 1, 'depth': -1.514, 'yaw': 169.61, 'datetime': '2018-12-18 20:17:03.252248', 'mgs': 0, 'flw2': 0.56, 'flw1': 0.44, 'flw0': 2.86, 'time': 19.64, 'compass': 172.94, 'pitch': 2.55, 'roll': -1.17}
{'lipoC2': 0.13, 'temp': 0.0, 'lipoC3S3': 11.79, 'state': 'normal', 'rot1': 46, 'rot0': 35, 'rot3': 1, 'rot2': 1, 'depth': 0.699, 'yaw': 168.18, 'datetime': '2018-12-18 20:17:03.459656', 'mgs': 0, 'flw2': 0.77, 'flw1': 0.0, 'flw0': 2.97, 'time': 19.85, 'compass': 171.51, 'pitch': 1.62, 'roll': -0.71}
{'lipoC2': 0.0, 'temp': 0.0, 'lipoC3S3': 12.14, 'state': 'normal', 'rot1': 49, 'rot0': 37, 'rot3': 1, 'rot2': 1, 'depth': 1.538, 'yaw': 165.9, 'datetime': '2018-12-18 20:17:03.668792', 'mgs': 0, 'flw2': 0.77, 'flw1': 0.0, 'flw0': 2.92, 'time': 20.06, 'compass': 169.23, 'pitch': 2.08, 'roll': 0.09}
{'lipoC2': 0.0, 'temp': 0.0, 'lipoC3S3': 12.16, 'state': 'normal', 'rot1': 51, 'rot0': 38, 'rot3': 1, 'rot2': 1, 'depth': -0.217, 'yaw': 163.13, 'datetime': '2018-12-18 20:17:03.877163', 'mgs': 0, 'flw2': 0.9, 'flw1': 0.06, 'flw0': 2.54, 'time': 20.27, 'compass': 166.46, 'pitch': 3.2, 'roll': 0.69}
{'lipoC2': 0.11, 'temp': 0.0, 'lipoC3S3': 12.14, 'state': 'normal', 'rot1': 53, 'rot0': 39, 'rot3': 1, 'rot2': 1, 'depth': 0.394, 'yaw': 159.76, 'datetime': '2018-12-18 20:17:04.084464', 'mgs': 0, 'flw2': 0.89, 'flw1': 0.06, 'flw0': 2.58, 'time': 20.48, 'compass': 163.08, 'pitch': 3.44, 'roll': 0.56}
{'lipoC2': 0.12, 'temp': 0.0, 'lipoC3S3': 11.96, 'state': 'normal', 'rot1': 56, 'rot0': 41, 'rot3': 1, 'rot2': 1, 'depth': -1.666, 'yaw': 156.02, 'datetime': '2018-12-18 20:17:04.294529', 'mgs': 0, 'flw2': 0.84, 'flw1': 0.0, 'flw0': 2.84, 'time': 20.68, 'compass': 159.35, 'pitch': 3.13, 'roll': -0.07}
{'lipoC2': 0.0, 'temp': 0.0, 'lipoC3S3': 12.08, 'state': 'normal', 'rot1': 58, 'rot0': 42, 'rot3': 1, 'rot2': 1, 'depth': 1.385, 'yaw': 151.7, 'datetime': '2018-12-18 20:17:04.509678', 'mgs': 0, 'flw2': 0.93, 'flw1': 0.0, 'flw0': 2.43, 'time': 20.9, 'compass': 155.03, 'pitch': 3.08, 'roll': -0.66}
{'lipoC2': 0.12, 'temp': 0.0, 'lipoC3S3': 11.77, 'state': 'normal', 'rot1': 60, 'rot0': 43, 'rot3': 1, 'rot2': 1, 'depth': 0.47, 'yaw': 147.19, 'datetime': '2018-12-18 20:17:04.712702', 'mgs': 0, 'flw2': 0.73, 'flw1': 0.0, 'flw0': 2.93, 'time': 21.1, 'compass': 150.52, 'pitch': 3.66, 'roll': -1.05}
{'lipoC2': 0.03, 'temp': 0.0, 'lipoC3S3': 11.76, 'state': 'normal', 'rot1': 63, 'rot0': 45, 'rot3': 1, 'rot2': 1, 'depth': 0.241, 'yaw': 142.27, 'datetime': '2018-12-18 20:17:04.919464', 'mgs': 0, 'flw2': 0.4, 'flw1': 0.23, 'flw0': 3.03, 'time': 21.31, 'compass': 145.6, 'pitch': 4.35, 'roll': -1.28}
{'lipoC2': 0.0, 'temp': 0.0, 'lipoC3S3': 12.02, 'state': 'normal', 'rot1': 65, 'rot0': 46, 'rot3': 1, 'rot2': 1, 'depth': 1.157, 'yaw': 137.05, 'datetime': '2018-12-18 20:17:05.127147', 'mgs': 0, 'flw2': 0.43, 'flw1': 0.09, 'flw0': 3.08, 'time': 21.52, 'compass': 140.37, 'pitch': 4.43, 'roll': -1.46}
{'lipoC2': 0.16, 'temp': 0.0, 'lipoC3S3': 11.85, 'state': 'normal', 'rot1': 68, 'rot0': 47, 'rot3': 1, 'rot2': 1, 'depth': -0.446, 'yaw': 131.18, 'datetime': '2018-12-18 20:17:05.334241', 'mgs': 0, 'flw2': 0.87, 'flw1': 0.26, 'flw0': 2.72, 'time': 21.73, 'compass': 134.51, 'pitch': 4.1, 'roll': -1.6}
{'lipoC2': 0.0, 'temp': 0.0, 'lipoC3S3': 12.14, 'state': 'normal', 'rot1': 70, 'rot0': 48, 'rot3': 1, 'rot2': 1, 'depth': 1.996, 'yaw': 125.12, 'datetime': '2018-12-18 20:17:05.542984', 'mgs': 0, 'flw2': 0.07, 'flw1': 0.38, 'flw0': 0.0, 'time': 21.94, 'compass': 128.45, 'pitch': 3.89, 'roll': -1.63}
{'lipoC2': 0.0, 'temp': 0.0, 'lipoC3S3': 12.17, 'state': 'normal', 'rot1': 70, 'rot0': 48, 'rot3': 1, 'rot2': 1, 'depth': 1.92, 'yaw': 119.92, 'datetime': '2018-12-18 20:17:05.754550', 'mgs': 0, 'flw2': 0.01, 'flw1': 0.0, 'flw0': 0.2, 'time': 22.15, 'compass': 123.25, 'pitch': 2.5, 'roll': -1.15}
{'lipoC2': 0.01, 'temp': 0.0, 'lipoC3S3': 12.02, 'state': 'normal', 'rot1': 70, 'rot0': 49, 'rot3': 1, 'rot2': 1, 'depth': -1.132, 'yaw': 115.55, 'datetime': '2018-12-18 20:17:05.959279', 'mgs': 0, 'flw2': 2.94, 'flw1': 4.37, 'flw0': 1.1, 'time': 22.35, 'compass': 118.88, 'pitch': 1.26, 'roll': -0.47}
{'lipoC2': 0.0, 'temp': 0.0, 'lipoC3S3': 12.18, 'state': 'normal', 'rot1': 72, 'rot0': 51, 'rot3': 2, 'rot2': 1, 'depth': 1.92, 'yaw': 113.0, 'datetime': '2018-12-18 20:17:06.167121', 'mgs': 0, 'flw2': 2.71, 'flw1': 0.0, 'flw0': 0.98, 'time': 22.56, 'compass': 116.33, 'pitch': 3.09, 'roll': -0.39}
{'lipoC2': 0.0, 'temp': 0.0, 'lipoC3S3': 12.09, 'state': 'normal', 'rot1': 74, 'rot0': 54, 'rot3': 2, 'rot2': 1, 'depth': 1.767, 'yaw': 112.45, 'datetime': '2018-12-18 20:17:06.376339', 'mgs': 0, 'flw2': 2.98, 'flw1': 0.0, 'flw0': 0.44, 'time': 22.77, 'compass': 115.78, 'pitch': 5.11, 'roll': -0.54}
{'lipoC2': 0.0, 'temp': 0.0, 'lipoC3S3': 11.92, 'state': 'normal', 'rot1': 76, 'rot0': 56, 'rot3': 2, 'rot2': 1, 'depth': 1.233, 'yaw': 113.57, 'datetime': '2018-12-18 20:17:06.587572', 'mgs': 0, 'flw2': 2.81, 'flw1': 0.0, 'flw0': 0.82, 'time': 22.98, 'compass': 116.9, 'pitch': 4.51, 'roll': -0.61}
{'lipoC2': 0.13, 'temp': 0.0, 'lipoC3S3': 11.94, 'state': 'normal', 'rot1': 77, 'rot0': 59, 'rot3': 2, 'rot2': 1, 'depth': -1.437, 'yaw': 115.87, 'datetime': '2018-12-18 20:17:06.799572', 'mgs': 0, 'flw2': 2.87, 'flw1': 0.0, 'flw0': 0.81, 'time': 23.19, 'compass': 119.2, 'pitch': 2.97, 'roll': -0.44}
{'lipoC2': 0.03, 'temp': 0.0, 'lipoC3S3': 11.76, 'state': 'normal', 'rot1': 78, 'rot0': 61, 'rot3': 2, 'rot2': 1, 'depth': 0.317, 'yaw': 118.88, 'datetime': '2018-12-18 20:17:07.007168', 'mgs': 0, 'flw2': 2.77, 'flw1': 0.0, 'flw0': 0.46, 'time': 23.4, 'compass': 122.21, 'pitch': 2.91, 'roll': -0.23}
{'lipoC2': 0.03, 'temp': 0.0, 'lipoC3S3': 11.76, 'state': 'normal', 'rot1': 80, 'rot0': 63, 'rot3': 2, 'rot2': 1, 'depth': 1.385, 'yaw': 122.64, 'datetime': '2018-12-18 20:17:07.219184', 'mgs': 0, 'flw2': 2.82, 'flw1': 0.0, 'flw0': 0.43, 'time': 23.61, 'compass': 125.97, 'pitch': 3.95, 'roll': -0.17}
{'lipoC2': 0.0, 'temp': 0.0, 'lipoC3S3': 12.14, 'state': 'normal', 'rot1': 81, 'rot0': 66, 'rot3': 2, 'rot2': 1, 'depth': 0.012, 'yaw': 126.84, 'datetime': '2018-12-18 20:17:07.426111', 'mgs': 0, 'flw2': 2.66, 'flw1': 0.0, 'flw0': 0.99, 'time': 23.81, 'compass': 130.17, 'pitch': 4.17, 'roll': 0.13}
{'lipoC2': 0.0, 'temp': 0.0, 'lipoC3S3': 11.83, 'state': 'normal', 'rot1': 83, 'rot0': 67, 'rot3': 2, 'rot2': 1, 'depth': -0.522, 'yaw': 130.38, 'datetime': '2018-12-18 20:17:07.635231', 'mgs': 0, 'flw2': 0.87, 'flw1': 0.21, 'flw0': 2.87, 'time': 24.02, 'compass': 133.71, 'pitch': 3.67, 'roll': 0.56}
{'lipoC2': 0.0, 'temp': 0.0, 'lipoC3S3': 12.14, 'state': 'normal', 'rot1': 86, 'rot0': 69, 'rot3': 2, 'rot2': 1, 'depth': -1.514, 'yaw': 130.8, 'datetime': '2018-12-18 20:17:07.844224', 'mgs': 0, 'flw2': 0.92, 'flw1': 0.0, 'flw0': 2.64, 'time': 24.23, 'compass': 134.13, 'pitch': 3.29, 'roll': 0.34}
{'lipoC2': 0.03, 'temp': 0.0, 'lipoC3S3': 12.02, 'state': 'normal', 'rot1': 88, 'rot0': 70, 'rot3': 2, 'rot2': 1, 'depth': -1.208, 'yaw': 129.22, 'datetime': '2018-12-18 20:17:08.054137', 'mgs': 0, 'flw2': 0.98, 'flw1': 0.0, 'flw0': 2.59, 'time': 24.44, 'compass': 132.55, 'pitch': 3.26, 'roll': -0.5}
{'lipoC2': 0.0, 'temp': 0.0, 'lipoC3S3': 12.16, 'state': 'normal', 'rot1': 90, 'rot0': 72, 'rot3': 2, 'rot2': 1, 'depth': -0.217, 'yaw': 126.34, 'datetime': '2018-12-18 20:17:08.262102', 'mgs': 0, 'flw2': 0.71, 'flw1': 0.0, 'flw0': 2.99, 'time': 24.65, 'compass': 129.67, 'pitch': 3.29, 'roll': -1.34}
{'lipoC2': 0.16, 'temp': 0.0, 'lipoC3S3': 11.88, 'state': 'normal', 'rot1': 93, 'rot0': 73, 'rot3': 2, 'rot2': 1, 'depth': -0.98, 'yaw': 122.71, 'datetime': '2018-12-18 20:17:08.468618', 'mgs': 0, 'flw2': 3.02, 'flw1': 0.0, 'flw0': 3.04, 'time': 24.86, 'compass': 126.04, 'pitch': 3.07, 'roll': -1.77}
{'lipoC2': 0.0, 'temp': 0.0, 'lipoC3S3': 12.16, 'state': 'normal', 'rot1': 95, 'rot0': 75, 'rot3': 2, 'rot2': 1, 'depth': 2.072, 'yaw': 119.9, 'datetime': '2018-12-18 20:17:08.677783', 'mgs': 0, 'flw2': 2.38, 'flw1': 0.29, 'flw0': 2.97, 'time': 25.07, 'compass': 123.23, 'pitch': 3.66, 'roll': -1.65}
{'lipoC2': 0.14, 'temp': 0.0, 'lipoC3S3': 11.94, 'state': 'normal', 'rot1': 97, 'rot0': 78, 'rot3': 2, 'rot2': 1, 'depth': 1.691, 'yaw': 118.7, 'datetime': '2018-12-18 20:17:08.887178', 'mgs': 0, 'flw2': 2.78, 'flw1': 0.38, 'flw0': 0.7, 'time': 25.27, 'compass': 122.02, 'pitch': 4.18, 'roll': -1.14}
{'lipoC2': 0.12, 'temp': 0.0, 'lipoC3S3': 11.76, 'state': 'normal', 'rot1': 98, 'rot0': 80, 'rot3': 2, 'rot2': 1, 'depth': 1.004, 'yaw': 119.22, 'datetime': '2018-12-18 20:17:09.096680', 'mgs': 0, 'flw2': 2.82, 'flw1': 0.0, 'flw0': 0.43, 'time': 25.48, 'compass': 122.55, 'pitch': 3.56, 'roll': -0.24}
{'lipoC2': 0.0, 'temp': 0.0, 'lipoC3S3': 11.94, 'state': 'normal', 'rot1': 99, 'rot0': 81, 'rot3': 2, 'rot2': 1, 'depth': 0.851, 'yaw': 120.31, 'datetime': '2018-12-18 20:17:09.303803', 'mgs': 0, 'flw2': 0.0, 'flw1': 0.47, 'flw0': 0.0, 'time': 25.69, 'compass': 123.64, 'pitch': 2.34, 'roll': 0.4}
{'lipoC2': 0.0, 'temp': 0.0, 'lipoC3S3': 12.18, 'state': 'normal', 'rot1': 99, 'rot0': 82, 'rot3': 2, 'rot2': 1, 'depth': -0.98, 'yaw': 120.86, 'datetime': '2018-12-18 20:17:09.509098', 'mgs': 0, 'flw2': 0.01, 'flw1': 0.15, 'flw0': 0.6, 'time': 25.9, 'compass': 124.19, 'pitch': 0.87, 'roll': 0.58}
{'lipoC2': 0.0, 'temp': 0.0, 'lipoC3S3': 11.94, 'state': 'normal', 'rot1': 100, 'rot0': 83, 'rot3': 2, 'rot2': 1, 'depth': 0.241, 'yaw': 121.68, 'datetime': '2018-12-18 20:17:09.718761', 'mgs': 0, 'flw2': 0.42, 'flw1': 0.5, 'flw0': 0.32, 'time': 26.11, 'compass': 125.01, 'pitch': 0.49, 'roll': 0.56}
{'lipoC2': 0.15, 'temp': 0.0, 'lipoC3S3': 11.92, 'state': 'normal', 'rot1': 101, 'rot0': 84, 'rot3': 2, 'rot2': 1, 'depth': -1.437, 'yaw': 122.76, 'datetime': '2018-12-18 20:17:09.929772', 'mgs': 0, 'flw2': 0.48, 'flw1': 0.21, 'flw0': 0.12, 'time': 26.32, 'compass': 126.09, 'pitch': 1.02, 'roll': 0.53}
{'lipoC2': 0.0, 'temp': 0.0, 'lipoC3S3': 11.96, 'state': 'normal', 'rot1': 102, 'rot0': 85, 'rot3': 2, 'rot2': 1, 'depth': 0.317, 'yaw': 124.01, 'datetime': '2018-12-18 20:17:10.139370', 'mgs': 0, 'flw2': 0.0, 'flw1': 0.44, 'flw0': 0.0, 'time': 26.53, 'compass': 127.34, 'pitch': 1.4, 'roll': 0.44}
{'lipoC2': 0.0, 'temp': 0.0, 'lipoC3S3': 12.16, 'state': 'normal', 'rot1': 102, 'rot0': 85, 'rot3': 2, 'rot2': 1, 'depth': 1.538, 'yaw': 124.86, 'datetime': '2018-12-18 20:17:10.350733', 'mgs': 0, 'flw2': 0.0, 'flw1': 0.0, 'flw0': 0.22, 'time': 26.73, 'compass': 128.19, 'pitch': 1.04, 'roll': 0.09}
{'lipoC2': 0.02, 'temp': 0.0, 'lipoC3S3': 11.79, 'state': 'normal', 'rot1': 104, 'rot0': 86, 'rot3': 2, 'rot2': 1, 'depth': 1.462, 'yaw': 125.26, 'datetime': '2018-12-18 20:17:10.556723', 'mgs': 0, 'flw2': 2.87, 'flw1': 0.0, 'flw0': 2.69, 'time': 26.94, 'compass': 128.59, 'pitch': 1.27, 'roll': -0.32}
{'lipoC2': 0.04, 'temp': 0.0, 'lipoC3S3': 12.02, 'state': 'normal', 'rot1': 106, 'rot0': 89, 'rot3': 2, 'rot2': 1, 'depth': -1.59, 'yaw': 125.17, 'datetime': '2018-12-18 20:17:10.768823', 'mgs': 0, 'flw2': 2.44, 'flw1': 0.47, 'flw0': 2.88, 'time': 27.15, 'compass': 128.49, 'pitch': 3.73, 'roll': -0.66}
{'lipoC2': 0.18, 'temp': 0.0, 'lipoC3S3': 11.81, 'state': 'normal', 'rot1': 109, 'rot0': 91, 'rot3': 2, 'rot2': 1, 'depth': 0.928, 'yaw': 124.83, 'datetime': '2018-12-18 20:17:10.976685', 'mgs': 0, 'flw2': 2.67, 'flw1': 0.0, 'flw0': 3.0, 'time': 27.36, 'compass': 128.16, 'pitch': 5.12, 'roll': -0.7}
{'lipoC2': 0.12, 'temp': 0.0, 'lipoC3S3': 11.94, 'state': 'normal', 'rot1': 111, 'rot0': 94, 'rot3': 2, 'rot2': 1, 'depth': -1.819, 'yaw': 124.52, 'datetime': '2018-12-18 20:17:11.185451', 'mgs': 0, 'flw2': 2.84, 'flw1': 0.0, 'flw0': 2.84, 'time': 27.57, 'compass': 127.85, 'pitch': 4.68, 'roll': -0.64}
{'lipoC2': 0.05, 'temp': 0.0, 'lipoC3S3': 12.1, 'state': 'normal', 'rot1': 114, 'rot0': 96, 'rot3': 2, 'rot2': 1, 'depth': 1.462, 'yaw': 124.24, 'datetime': '2018-12-18 20:17:11.398099', 'mgs': 0, 'flw2': 3.0, 'flw1': 0.0, 'flw0': 2.65, 'time': 27.78, 'compass': 127.57, 'pitch': 4.2, 'roll': -0.59}
{'lipoC2': 0.0, 'temp': 0.0, 'lipoC3S3': 11.93, 'state': 'normal', 'rot1': 116, 'rot0': 98, 'rot3': 2, 'rot2': 1, 'depth': 0.241, 'yaw': 123.82, 'datetime': '2018-12-18 20:17:11.607323', 'mgs': 0, 'flw2': 2.73, 'flw1': 0.0, 'flw0': 2.99, 'time': 27.99, 'compass': 127.15, 'pitch': 4.55, 'roll': -0.57}
{'lipoC2': 0.0, 'temp': 0.0, 'lipoC3S3': 11.89, 'state': 'normal', 'rot1': 119, 'rot0': 100, 'rot3': 2, 'rot2': 1, 'depth': 1.157, 'yaw': 123.3, 'datetime': '2018-12-18 20:17:11.815684', 'mgs': 0, 'flw2': 2.71, 'flw1': 0.0, 'flw0': 2.93, 'time': 28.19, 'compass': 126.63, 'pitch': 5.0, 'roll': -0.47}
{'lipoC2': 0.0, 'temp': 0.0, 'lipoC3S3': 12.17, 'state': 'normal', 'rot1': 121, 'rot0': 103, 'rot3': 2, 'rot2': 1, 'depth': 1.996, 'yaw': 122.7, 'datetime': '2018-12-18 20:17:12.028241', 'mgs': 0, 'flw2': 2.65, 'flw1': 0.0, 'flw0': 2.92, 'time': 28.4, 'compass': 126.03, 'pitch': 5.28, 'roll': -0.41}
{'lipoC2': 0.0, 'temp': 0.0, 'lipoC3S3': 11.97, 'state': 'normal', 'rot1': 123, 'rot0': 105, 'rot3': 2, 'rot2': 1, 'depth': -0.064, 'yaw': 121.99, 'datetime': '2018-12-18 20:17:12.246247', 'mgs': 0, 'flw2': 3.02, 'flw1': 0.0, 'flw0': 2.67, 'time': 28.61, 'compass': 125.32, 'pitch': 5.21, 'roll': -0.31}
{'lipoC2': 0.12, 'temp': 0.0, 'lipoC3S3': 11.96, 'state': 'normal', 'rot1': 126, 'rot0': 109, 'rot3': 2, 'rot2': 1, 'depth': 1.92, 'yaw': 122.16, 'datetime': '2018-12-18 20:17:12.544335', 'mgs': 0, 'flw2': 2.59, 'flw1': 0.5, 'flw0': 0.7, 'time': 28.93, 'compass': 125.49, 'pitch': 3.74, 'roll': -0.1}
{'lipoC2': 0.09, 'temp': 0.0, 'lipoC3S3': 11.75, 'state': 'normal', 'rot1': 128, 'rot0': 112, 'rot3': 2, 'rot2': 1, 'depth': 0.241, 'yaw': 124.22, 'datetime': '2018-12-18 20:17:12.752610', 'mgs': 0, 'flw2': 2.95, 'flw1': 0.0, 'flw0': 0.71, 'time': 29.14, 'compass': 127.55, 'pitch': 2.65, 'roll': 0.18}
{'lipoC2': 0.0, 'temp': 0.0, 'lipoC3S3': 12.19, 'state': 'normal', 'rot1': 129, 'rot0': 114, 'rot3': 2, 'rot2': 1, 'depth': -0.369, 'yaw': 127.08, 'datetime': '2018-12-18 20:17:12.962295', 'mgs': 0, 'flw2': 2.86, 'flw1': 0.0, 'flw0': 2.62, 'time': 29.35, 'compass': 130.41, 'pitch': 2.5, 'roll': 0.32}
{'lipoC2': 0.1, 'temp': 0.0, 'lipoC3S3': 11.73, 'state': 'normal', 'rot1': 131, 'rot0': 117, 'rot3': 2, 'rot2': 1, 'depth': 1.08, 'yaw': 129.02, 'datetime': '2018-12-18 20:17:13.178964', 'mgs': 0, 'flw2': 2.89, 'flw1': 0.0, 'flw0': 2.51, 'time': 29.55, 'compass': 132.35, 'pitch': 3.32, 'roll': 0.19}
{'lipoC2': 0.01, 'temp': 0.0, 'lipoC3S3': 11.79, 'state': 'normal', 'rot1': 134, 'rot0': 118, 'rot3': 2, 'rot2': 1, 'depth': 0.012, 'yaw': 129.37, 'datetime': '2018-12-18 20:17:13.384124', 'mgs': 0, 'flw2': 0.16, 'flw1': 0.0, 'flw0': 0.0, 'time': 29.76, 'compass': 132.7, 'pitch': 3.88, 'roll': -0.13}
{'lipoC2': 0.0, 'temp': 0.0, 'lipoC3S3': 11.81, 'state': 'normal', 'rot1': 134, 'rot0': 118, 'rot3': 2, 'rot2': 1, 'depth': -0.522, 'yaw': 129.29, 'datetime': '2018-12-18 20:17:13.596436', 'mgs': 0, 'flw2': 0.0, 'flw1': 0.0, 'flw0': 0.2, 'time': 29.97, 'compass': 132.62, 'pitch': 1.65, 'roll': -0.37}
{'lipoC2': 0.0, 'temp': 0.0, 'lipoC3S3': 11.94, 'state': 'normal', 'rot1': 134, 'rot0': 119, 'rot3': 2, 'rot2': 1, 'depth': 0.317, 'yaw': 129.34, 'datetime': '2018-12-18 20:17:13.807284', 'mgs': 0, 'flw2': 3.09, 'flw1': 0.59, 'flw0': 3.08, 'time': 30.18, 'compass': 132.67, 'pitch': -0.45, 'roll': -0.48}
{'lipoC2': 0.18, 'temp': 0.0, 'lipoC3S3': 11.8, 'state': 'normal', 'rot1': 136, 'rot0': 121, 'rot3': 2, 'rot2': 1, 'depth': 0.546, 'yaw': 129.44, 'datetime': '2018-12-18 20:17:14.014038', 'mgs': 0, 'flw2': 2.91, 'flw1': 0.0, 'flw0': 2.92, 'time': 30.39, 'compass': 132.77, 'pitch': 1.52, 'roll': -0.42}
{'lipoC2': 0.0, 'temp': 0.0, 'lipoC3S3': 11.97, 'state': 'normal', 'rot1': 139, 'rot0': 124, 'rot3': 2, 'rot2': 1, 'depth': 0.775, 'yaw': 129.68, 'datetime': '2018-12-18 20:17:14.226097', 'mgs': 0, 'flw2': 2.98, 'flw1': 0.0, 'flw0': 2.78, 'time': 30.6, 'compass': 133.01, 'pitch': 4.15, 'roll': -0.21}
{'lipoC2': 0.0, 'temp': 0.0, 'lipoC3S3': 12.17, 'state': 'normal', 'rot1': 141, 'rot0': 126, 'rot3': 2, 'rot2': 1, 'depth': 1.92, 'yaw': 129.69, 'datetime': '2018-12-18 20:17:14.436211', 'mgs': 0, 'flw2': 2.59, 'flw1': 0.0, 'flw0': 3.03, 'time': 30.81, 'compass': 133.02, 'pitch': 4.38, 'roll': -0.2}
{'lipoC2': 0.11, 'temp': 0.0, 'lipoC3S3': 11.73, 'state': 'normal', 'rot1': 144, 'rot0': 128, 'rot3': 2, 'rot2': 1, 'depth': 1.08, 'yaw': 129.92, 'datetime': '2018-12-18 20:17:14.643803', 'mgs': 0, 'flw2': 2.93, 'flw1': 0.0, 'flw0': 2.53, 'time': 31.02, 'compass': 133.25, 'pitch': 3.72, 'roll': -0.15}
{'lipoC2': 0.15, 'temp': 0.0, 'lipoC3S3': 11.93, 'state': 'normal', 'rot1': 146, 'rot0': 130, 'rot3': 2, 'rot2': 1, 'depth': -1.59, 'yaw': 130.01, 'datetime': '2018-12-18 20:17:14.853429', 'mgs': 0, 'flw2': 2.73, 'flw1': 0.0, 'flw0': 2.95, 'time': 31.23, 'compass': 133.34, 'pitch': 3.95, 'roll': 0.31}
{'lipoC2': 0.0, 'temp': 0.0, 'lipoC3S3': 11.96, 'state': 'normal', 'rot1': 148, 'rot0': 133, 'rot3': 2, 'rot2': 1, 'depth': 0.317, 'yaw': 129.94, 'datetime': '2018-12-18 20:17:15.063299', 'mgs': 0, 'flw2': 2.66, 'flw1': 0.56, 'flw0': 2.82, 'time': 31.43, 'compass': 133.27, 'pitch': 4.8, 'roll': 0.69}
{'lipoC2': 0.0, 'temp': 0.0, 'lipoC3S3': 12.14, 'state': 'normal', 'rot1': 151, 'rot0': 135, 'rot3': 2, 'rot2': 1, 'depth': 2.148, 'yaw': 129.71, 'datetime': '2018-12-18 20:17:15.272442', 'mgs': 0, 'flw2': 2.83, 'flw1': 0.0, 'flw0': 2.43, 'time': 31.65, 'compass': 133.04, 'pitch': 5.6, 'roll': 0.73}
{'lipoC2': 0.0, 'temp': 0.0, 'lipoC3S3': 12.17, 'state': 'normal', 'rot1': 153, 'rot0': 137, 'rot3': 2, 'rot2': 1, 'depth': -0.14, 'yaw': 128.75, 'datetime': '2018-12-18 20:17:15.481516', 'mgs': 0, 'flw2': 2.55, 'flw1': 0.09, 'flw0': 2.54, 'time': 31.85, 'compass': 132.08, 'pitch': 6.01, 'roll': 0.77}
{'lipoC2': 0.0, 'temp': 0.0, 'lipoC3S3': 11.92, 'state': 'normal', 'rot1': 156, 'rot0': 140, 'rot3': 2, 'rot2': 1, 'depth': 0.928, 'yaw': 127.49, 'datetime': '2018-12-18 20:17:15.690173', 'mgs': 0, 'flw2': 2.87, 'flw1': 0.26, 'flw0': 2.81, 'time': 32.06, 'compass': 130.82, 'pitch': 6.0, 'roll': 0.72}
{'lipoC2': 0.02, 'temp': 0.0, 'lipoC3S3': 12.01, 'state': 'normal', 'rot1': 158, 'rot0': 142, 'rot3': 2, 'rot2': 1, 'depth': -1.132, 'yaw': 126.67, 'datetime': '2018-12-18 20:17:15.893467', 'mgs': 0, 'flw2': 2.5, 'flw1': 0.44, 'flw0': 2.91, 'time': 32.27, 'compass': 130.0, 'pitch': 5.68, 'roll': 0.46}
{'lipoC2': 0.06, 'temp': 0.0, 'lipoC3S3': 11.98, 'state': 'normal', 'rot1': 161, 'rot0': 145, 'rot3': 2, 'rot2': 1, 'depth': -1.514, 'yaw': 126.31, 'datetime': '2018-12-18 20:17:16.109990', 'mgs': 0, 'flw2': 2.97, 'flw1': 0.0, 'flw0': 2.88, 'time': 32.48, 'compass': 129.64, 'pitch': 5.23, 'roll': 0.14}
{'lipoC2': 0.05, 'temp': 0.0, 'lipoC3S3': 11.76, 'state': 'normal', 'rot1': 163, 'rot0': 147, 'rot3': 2, 'rot2': 1, 'depth': 0.47, 'yaw': 126.1, 'datetime': '2018-12-18 20:17:16.316232', 'mgs': 0, 'flw2': 2.99, 'flw1': 0.0, 'flw0': 0.39, 'time': 32.69, 'compass': 129.43, 'pitch': 5.11, 'roll': -0.18}
{'lipoC2': 0.04, 'temp': 0.0, 'lipoC3S3': 11.75, 'state': 'normal', 'rot1': 164, 'rot0': 149, 'rot3': 2, 'rot2': 1, 'depth': 0.317, 'yaw': 127.2, 'datetime': '2018-12-18 20:17:16.523704', 'mgs': 0, 'flw2': 2.87, 'flw1': 0.0, 'flw0': 0.4, 'time': 32.9, 'compass': 130.53, 'pitch': 4.29, 'roll': -0.19}
{'lipoC2': 0.0, 'temp': 0.0, 'lipoC3S3': 12.17, 'state': 'normal', 'rot1': 166, 'rot0': 151, 'rot3': 2, 'rot2': 1, 'depth': 1.996, 'yaw': 129.27, 'datetime': '2018-12-18 20:17:16.733708', 'mgs': 0, 'flw2': 0.18, 'flw1': 0.12, 'flw0': 0.0, 'time': 33.11, 'compass': 132.6, 'pitch': 3.53, 'roll': 0.01}
{'lipoC2': 0.18, 'temp': 0.0, 'lipoC3S3': 11.84, 'state': 'normal', 'rot1': 166, 'rot0': 151, 'rot3': 2, 'rot2': 1, 'depth': -1.056, 'yaw': 131.04, 'datetime': '2018-12-18 20:17:16.943524', 'mgs': 0, 'flw2': 0.1, 'flw1': 0.41, 'flw0': 0.0, 'time': 33.32, 'compass': 134.37, 'pitch': 1.97, 'roll': 0.15}
{'lipoC2': 0.15, 'temp': 0.0, 'lipoC3S3': 11.93, 'state': 'normal', 'rot1': 166, 'rot0': 151, 'rot3': 2, 'rot2': 1, 'depth': -1.514, 'yaw': 132.53, 'datetime': '2018-12-18 20:17:17.147307', 'mgs': 0, 'flw2': 2.48, 'flw1': 0.44, 'flw0': 2.95, 'time': 33.53, 'compass': 135.86, 'pitch': 0.76, 'roll': 0.13}
{'lipoC2': 0.12, 'temp': 0.0, 'lipoC3S3': 11.94, 'state': 'normal', 'rot1': 168, 'rot0': 153, 'rot3': 2, 'rot2': 1, 'depth': -1.895, 'yaw': 133.79, 'datetime': '2018-12-18 20:17:17.356892', 'mgs': 0, 'flw2': 2.8, 'flw1': 0.47, 'flw0': 2.73, 'time': 33.73, 'compass': 137.12, 'pitch': 1.9, 'roll': -0.1}
{'lipoC2': 0.0, 'temp': 0.0, 'lipoC3S3': 12.06, 'state': 'normal', 'rot1': 171, 'rot0': 155, 'rot3': 2, 'rot2': 1, 'depth': 1.538, 'yaw': 134.3, 'datetime': '2018-12-18 20:17:17.566864', 'mgs': 0, 'flw2': 0.43, 'flw1': 0.35, 'flw0': 2.89, 'time': 33.94, 'compass': 137.63, 'pitch': 4.02, 'roll': -0.38}
{'lipoC2': 0.02, 'temp': 0.0, 'lipoC3S3': 11.98, 'state': 'normal', 'rot1': 174, 'rot0': 157, 'rot3': 2, 'rot2': 1, 'depth': -1.132, 'yaw': 133.1, 'datetime': '2018-12-18 20:17:17.777768', 'mgs': 0, 'flw2': 0.92, 'flw1': 0.0, 'flw0': 2.82, 'time': 34.15, 'compass': 136.43, 'pitch': 3.83, 'roll': -0.52}
{'lipoC2': 0.0, 'temp': 0.0, 'lipoC3S3': 11.94, 'state': 'normal', 'rot1': 176, 'rot0': 158, 'rot3': 2, 'rot2': 1, 'depth': -0.14, 'yaw': 130.63, 'datetime': '2018-12-18 20:17:17.990195', 'mgs': 0, 'flw2': 0.82, 'flw1': 0.0, 'flw0': 2.89, 'time': 34.36, 'compass': 133.96, 'pitch': 3.0, 'roll': -0.63}
{'lipoC2': 0.0, 'temp': 0.0, 'lipoC3S3': 11.81, 'state': 'normal', 'rot1': 178, 'rot0': 160, 'rot3': 2, 'rot2': 1, 'depth': -0.674, 'yaw': 127.92, 'datetime': '2018-12-18 20:17:18.198922', 'mgs': 0, 'flw2': 2.95, 'flw1': 0.0, 'flw0': 3.03, 'time': 34.57, 'compass': 131.25, 'pitch': 3.18, 'roll': -0.88}
{'lipoC2': 0.01, 'temp': 0.0, 'lipoC3S3': 11.8, 'state': 'normal', 'rot1': 181, 'rot0': 162, 'rot3': 2, 'rot2': 1, 'depth': 0.165, 'yaw': 126.59, 'datetime': '2018-12-18 20:17:18.405961', 'mgs': 0, 'flw2': 3.06, 'flw1': 0.0, 'flw0': 2.51, 'time': 34.78, 'compass': 129.92, 'pitch': 4.37, 'roll': -0.96}
{'lipoC2': 0.03, 'temp': 0.0, 'lipoC3S3': 11.77, 'state': 'normal', 'rot1': 183, 'rot0': 164, 'rot3': 2, 'rot2': 1, 'depth': 1.691, 'yaw': 125.06, 'datetime': '2018-12-18 20:17:18.618863', 'mgs': 0, 'flw2': 2.5, 'flw1': 0.23, 'flw0': 2.8, 'time': 34.99, 'compass': 128.39, 'pitch': 5.12, 'roll': -0.61}
{'lipoC2': 0.0, 'temp': 0.0, 'lipoC3S3': 12.06, 'state': 'normal', 'rot1': 185, 'rot0': 167, 'rot3': 2, 'rot2': 1, 'depth': 1.538, 'yaw': 125.1, 'datetime': '2018-12-18 20:17:18.827155', 'mgs': 0, 'flw2': 2.36, 'flw1': 0.35, 'flw0': 0.83, 'time': 35.2, 'compass': 128.43, 'pitch': 4.88, 'roll': 0.18}
{'lipoC2': 0.11, 'temp': 0.0, 'lipoC3S3': 11.96, 'state': 'normal', 'rot1': 186, 'rot0': 169, 'rot3': 2, 'rot2': 1, 'depth': -1.437, 'yaw': 126.31, 'datetime': '2018-12-18 20:17:19.038745', 'mgs': 0, 'flw2': 2.81, 'flw1': 0.47, 'flw0': 0.68, 'time': 35.41, 'compass': 129.64, 'pitch': 4.03, 'roll': 1.07}
{'lipoC2': 0.02, 'temp': 0.0, 'lipoC3S3': 11.75, 'state': 'normal', 'rot1': 187, 'rot0': 171, 'rot3': 2, 'rot2': 1, 'depth': 0.241, 'yaw': 128.99, 'datetime': '2018-12-18 20:17:19.245208', 'mgs': 0, 'flw2': 2.86, 'flw1': 0.0, 'flw0': 0.49, 'time': 35.62, 'compass': 132.31, 'pitch': 3.73, 'roll': 1.44}
{'lipoC2': 0.16, 'temp': 0.0, 'lipoC3S3': 11.92, 'state': 'normal', 'rot1': 189, 'rot0': 174, 'rot3': 2, 'rot2': 1, 'depth': 1.843, 'yaw': 131.95, 'datetime': '2018-12-18 20:17:19.452839', 'mgs': 0, 'flw2': 2.7, 'flw1': 0.35, 'flw0': 2.76, 'time': 35.82, 'compass': 135.28, 'pitch': 3.99, 'roll': 1.19}
{'lipoC2': 0.0, 'temp': 0.0, 'lipoC3S3': 11.97, 'state': 'normal', 'rot1': 192, 'rot0': 176, 'rot3': 3, 'rot2': 3, 'depth': 0.775, 'yaw': 133.92, 'datetime': '2018-12-18 20:17:19.664799', 'mgs': 0, 'flw2': 2.82, 'flw1': 2.29, 'flw0': 2.77, 'time': 36.03, 'compass': 137.25, 'pitch': 4.85, 'roll': 0.71}
{'lipoC2': 0.0, 'temp': 0.0, 'lipoC3S3': 12.05, 'state': 'normal', 'rot1': 195, 'rot0': 178, 'rot3': 3, 'rot2': 4, 'depth': 1.462, 'yaw': 135.4, 'datetime': '2018-12-18 20:17:19.873389', 'mgs': 0, 'flw2': 2.58, 'flw1': 0.38, 'flw0': 2.89, 'time': 36.24, 'compass': 138.73, 'pitch': 5.39, 'roll': 0.15}
{'lipoC2': 0.06, 'temp': 0.0, 'lipoC3S3': 12.0, 'state': 'normal', 'rot1': 197, 'rot0': 180, 'rot3': 3, 'rot2': 4, 'depth': -1.59, 'yaw': 136.18, 'datetime': '2018-12-18 20:17:20.083702', 'mgs': 0, 'flw2': 0.92, 'flw1': 0.0, 'flw0': 2.78, 'time': 36.45, 'compass': 139.51, 'pitch': 4.74, 'roll': -0.26}
{'lipoC2': 0.03, 'temp': 0.0, 'lipoC3S3': 11.76, 'state': 'normal', 'rot1': 199, 'rot0': 181, 'rot3': 3, 'rot2': 4, 'depth': 1.538, 'yaw': 135.14, 'datetime': '2018-12-18 20:17:20.294497', 'mgs': 0, 'flw2': 0.94, 'flw1': 0.0, 'flw0': 2.6, 'time': 36.66, 'compass': 138.47, 'pitch': 2.94, 'roll': -0.64}
{'lipoC2': 0.13, 'temp': 0.0, 'lipoC3S3': 11.76, 'state': 'normal', 'rot1': 200, 'rot0': 182, 'rot3': 3, 'rot2': 4, 'depth': 1.004, 'yaw': 133.45, 'datetime': '2018-12-18 20:17:20.501641', 'mgs': 0, 'flw2': 0.07, 'flw1': 0.41, 'flw0': 0.0, 'time': 36.87, 'compass': 136.78, 'pitch': 1.57, 'roll': -0.86}
{'lipoC2': 0.0, 'temp': 0.0, 'lipoC3S3': 11.94, 'state': 'normal', 'rot1': 200, 'rot0': 182, 'rot3': 3, 'rot2': 4, 'depth': 0.623, 'yaw': 132.43, 'datetime': '2018-12-18 20:17:20.714627', 'mgs': 0, 'flw2': 0.21, 'flw1': 0.0, 'flw0': 0.0, 'time': 37.08, 'compass': 135.76, 'pitch': 0.49, 'roll': -0.46}
{'lipoC2': 0.11, 'temp': 0.0, 'lipoC3S3': 11.94, 'state': 'normal', 'rot1': 201, 'rot0': 183, 'rot3': 3, 'rot2': 4, 'depth': -1.971, 'yaw': 131.52, 'datetime': '2018-12-18 20:17:21.021487', 'mgs': 0, 'flw2': 2.84, 'flw1': 0.38, 'flw0': 3.03, 'time': 37.39, 'compass': 134.85, 'pitch': 0.89, 'roll': 0.51}
{'lipoC2': 0.05, 'temp': 0.0, 'lipoC3S3': 12.0, 'state': 'normal', 'rot1': 204, 'rot0': 185, 'rot3': 3, 'rot2': 4, 'depth': -1.59, 'yaw': 130.95, 'datetime': '2018-12-18 20:17:21.231193', 'mgs': 0, 'flw2': 2.97, 'flw1': 0.0, 'flw0': 2.73, 'time': 37.6, 'compass': 134.28, 'pitch': 3.53, 'roll': 0.62}
{'lipoC2': 0.08, 'temp': 0.0, 'lipoC3S3': 11.72, 'state': 'normal', 'rot1': 207, 'rot0': 188, 'rot3': 3, 'rot2': 4, 'depth': 0.241, 'yaw': 130.45, 'datetime': '2018-12-18 20:17:21.439759', 'mgs': 0, 'flw2': 2.5, 'flw1': 0.12, 'flw0': 3.02, 'time': 37.81, 'compass': 133.78, 'pitch': 5.13, 'roll': 0.66}
{'lipoC2': 0.0, 'temp': 0.0, 'lipoC3S3': 12.16, 'state': 'normal', 'rot1': 210, 'rot0': 191, 'rot3': 4, 'rot2': 4, 'depth': 0.317, 'yaw': 130.28, 'datetime': '2018-12-18 20:17:21.655932', 'mgs': 0, 'flw2': 2.88, 'flw1': 4.37, 'flw0': 2.75, 'time': 38.02, 'compass': 133.61, 'pitch': 4.94, 'roll': 0.65}
{'lipoC2': 0.0, 'temp': 0.0, 'lipoC3S3': 12.06, 'state': 'normal', 'rot1': 212, 'rot0': 193, 'rot3': 4, 'rot2': 5, 'depth': 1.309, 'yaw': 130.01, 'datetime': '2018-12-18 20:17:21.863185', 'mgs': 0, 'flw2': 2.88, 'flw1': 2.87, 'flw0': 2.61, 'time': 38.23, 'compass': 133.34, 'pitch': 4.85, 'roll': -0.0}
{'lipoC2': 0.14, 'temp': 0.0, 'lipoC3S3': 11.94, 'state': 'normal', 'rot1': 214, 'rot0': 195, 'rot3': 5, 'rot2': 5, 'depth': -1.514, 'yaw': 129.99, 'datetime': '2018-12-18 20:17:22.071978', 'mgs': 0, 'flw2': 2.89, 'flw1': 0.0, 'flw0': 2.82, 'time': 38.44, 'compass': 133.31, 'pitch': 5.21, 'roll': -0.79}
{'lipoC2': 0.0, 'temp': 0.0, 'lipoC3S3': 12.02, 'state': 'normal', 'rot1': 217, 'rot0': 198, 'rot3': 5, 'rot2': 5, 'depth': 1.538, 'yaw': 130.57, 'datetime': '2018-12-18 20:17:22.279027', 'mgs': 0, 'flw2': 2.42, 'flw1': 0.38, 'flw0': 2.78, 'time': 38.65, 'compass': 133.9, 'pitch': 5.23, 'roll': -1.07}
{'lipoC2': 0.0, 'temp': 0.0, 'lipoC3S3': 11.98, 'state': 'normal', 'rot1': 219, 'rot0': 200, 'rot3': 5, 'rot2': 5, 'depth': 1.004, 'yaw': 131.03, 'datetime': '2018-12-18 20:17:22.486792', 'mgs': 0, 'flw2': 2.6, 'flw1': 0.5, 'flw0': 2.76, 'time': 38.85, 'compass': 134.36, 'pitch': 4.93, 'roll': -0.73}
{'lipoC2': 0.0, 'temp': 0.0, 'lipoC3S3': 11.81, 'state': 'normal', 'rot1': 221, 'rot0': 202, 'rot3': 5, 'rot2': 5, 'depth': -0.674, 'yaw': 131.67, 'datetime': '2018-12-18 20:17:22.696313', 'mgs': 0, 'flw2': 2.65, 'flw1': 0.0, 'flw0': 2.98, 'time': 39.06, 'compass': 135.0, 'pitch': 4.97, 'roll': -0.14}
{'lipoC2': 0.0, 'temp': 0.0, 'lipoC3S3': 12.0, 'state': 'normal', 'rot1': 224, 'rot0': 205, 'rot3': 5, 'rot2': 5, 'depth': 0.699, 'yaw': 132.32, 'datetime': '2018-12-18 20:17:22.910415', 'mgs': 0, 'flw2': 2.92, 'flw1': 0.0, 'flw0': 2.77, 'time': 39.27, 'compass': 135.65, 'pitch': 5.27, 'roll': 0.35}
{'lipoC2': 0.0, 'temp': 0.0, 'lipoC3S3': 11.8, 'state': 'normal', 'rot1': 226, 'rot0': 207, 'rot3': 5, 'rot2': 5, 'depth': -0.98, 'yaw': 132.94, 'datetime': '2018-12-18 20:17:23.120077', 'mgs': 0, 'flw2': 2.71, 'flw1': 0.44, 'flw0': 2.75, 'time': 39.48, 'compass': 136.27, 'pitch': 5.2, 'roll': 0.68}
{'lipoC2': 0.13, 'temp': 0.0, 'lipoC3S3': 11.94, 'state': 'normal', 'rot1': 228, 'rot0': 209, 'rot3': 5, 'rot2': 5, 'depth': 1.92, 'yaw': 133.55, 'datetime': '2018-12-18 20:17:23.326798', 'mgs': 0, 'flw2': 2.78, 'flw1': 0.0, 'flw0': 2.87, 'time': 39.69, 'compass': 136.88, 'pitch': 4.87, 'roll': 0.76}
{'lipoC2': 0.0, 'temp': 0.0, 'lipoC3S3': 12.16, 'state': 'normal', 'rot1': 231, 'rot0': 211, 'rot3': 5, 'rot2': 5, 'depth': -0.369, 'yaw': 133.72, 'datetime': '2018-12-18 20:17:23.535237', 'mgs': 0, 'flw2': 2.69, 'flw1': 0.0, 'flw0': 3.05, 'time': 39.9, 'compass': 137.04, 'pitch': 4.84, 'roll': 0.54}
{'lipoC2': 0.09, 'temp': 0.0, 'lipoC3S3': 11.73, 'state': 'normal', 'rot1': 233, 'rot0': 214, 'rot3': 5, 'rot2': 5, 'depth': 0.394, 'yaw': 134.04, 'datetime': '2018-12-18 20:17:23.744142', 'mgs': 0, 'flw2': 0.15, 'flw1': 0.26, 'flw0': 0.0, 'time': 40.11, 'compass': 137.37, 'pitch': 4.5, 'roll': 0.18}
{'lipoC2': 0.11, 'temp': 0.0, 'lipoC3S3': 11.97, 'state': 'normal', 'rot1': 233, 'rot0': 214, 'rot3': 5, 'rot2': 5, 'depth': 1.92, 'yaw': 134.63, 'datetime': '2018-12-18 20:17:23.954310', 'mgs': 0, 'flw2': 0.0, 'flw1': 0.32, 'flw0': 0.0, 'time': 40.32, 'compass': 137.95, 'pitch': 2.19, 'roll': 0.0}
{'lipoC2': 0.0, 'temp': 0.0, 'lipoC3S3': 12.22, 'state': 'normal', 'rot1': 233, 'rot0': 214, 'rot3': 5, 'rot2': 5, 'depth': 1.767, 'yaw': 135.42, 'datetime': '2018-12-18 20:17:24.162935', 'mgs': 0, 'flw2': 0.68, 'flw1': 0.0, 'flw0': 0.01, 'time': 40.53, 'compass': 138.75, 'pitch': 0.28, 'roll': -0.04}
{'lipoC2': 0.2, 'temp': 0.0, 'lipoC3S3': 11.76, 'state': 'normal', 'rot1': 235, 'rot0': 215, 'rot3': 5, 'rot2': 5, 'depth': -0.522, 'yaw': 135.95, 'datetime': '2018-12-18 20:17:24.372437', 'mgs': 0, 'flw2': 0.55, 'flw1': 0.15, 'flw0': 0.0, 'time': 40.74, 'compass': 139.28, 'pitch': 0.24, 'roll': -0.27}
{'lipoC2': 0.03, 'temp': 0.0, 'lipoC3S3': 11.73, 'state': 'normal', 'rot1': 236, 'rot0': 216, 'rot3': 5, 'rot2': 5, 'depth': 0.089, 'yaw': 135.15, 'datetime': '2018-12-18 20:17:24.580820', 'mgs': 0, 'flw2': 0.49, 'flw1': 0.21, 'flw0': 0.0, 'time': 40.95, 'compass': 138.48, 'pitch': 0.84, 'roll': -0.44}
{'lipoC2': 0.0, 'temp': 0.0, 'lipoC3S3': 11.85, 'state': 'normal', 'rot1': 237, 'rot0': 217, 'rot3': 5, 'rot2': 5, 'depth': -0.598, 'yaw': 133.81, 'datetime': '2018-12-18 20:17:24.790209', 'mgs': 0, 'flw2': 0.43, 'flw1': 0.38, 'flw0': 0.23, 'time': 41.15, 'compass': 137.14, 'pitch': 1.18, 'roll': -0.38}
{'lipoC2': 0.08, 'temp': 0.0, 'lipoC3S3': 12.0, 'state': 'normal', 'rot1': 238, 'rot0': 218, 'rot3': 5, 'rot2': 5, 'depth': -1.895, 'yaw': 133.24, 'datetime': '2018-12-18 20:17:25.007942', 'mgs': 0, 'flw2': 0.0, 'flw1': 0.23, 'flw0': 0.15, 'time': 41.36, 'compass': 136.57, 'pitch': 1.22, 'roll': -0.34}
{'lipoC2': 0.09, 'temp': 0.0, 'lipoC3S3': 11.73, 'state': 'normal', 'rot1': 238, 'rot0': 218, 'rot3': 5, 'rot2': 5, 'depth': 0.241, 'yaw': 132.36, 'datetime': '2018-12-18 20:17:25.212030', 'mgs': 0, 'flw2': 0.15, 'flw1': 0.23, 'flw0': 0.0, 'time': 41.57, 'compass': 135.69, 'pitch': 1.22, 'roll': -0.31}
{'lipoC2': 0.0, 'temp': 0.0, 'lipoC3S3': 12.16, 'state': 'normal', 'rot1': 240, 'rot0': 219, 'rot3': 5, 'rot2': 5, 'depth': 2.072, 'yaw': 131.38, 'datetime': '2018-12-18 20:17:25.421925', 'mgs': 0, 'flw2': 0.71, 'flw1': 0.0, 'flw0': 3.17, 'time': 41.78, 'compass': 134.71, 'pitch': 1.66, 'roll': -0.32}
{'lipoC2': 0.0, 'temp': 0.0, 'lipoC3S3': 12.17, 'state': 'normal', 'rot1': 242, 'rot0': 220, 'rot3': 5, 'rot2': 6, 'depth': -0.751, 'yaw': 128.48, 'datetime': '2018-12-18 20:17:25.633464', 'mgs': 0, 'flw2': 0.7, 'flw1': 3.87, 'flw0': 2.89, 'time': 41.99, 'compass': 131.8, 'pitch': 3.83, 'roll': -0.83}
{'lipoC2': 0.02, 'temp': 0.0, 'lipoC3S3': 11.77, 'state': 'normal', 'rot1': 244, 'rot0': 221, 'rot3': 6, 'rot2': 7, 'depth': 1.614, 'yaw': 123.65, 'datetime': '2018-12-18 20:17:25.839989', 'mgs': 0, 'flw2': 0.68, 'flw1': 0.0, 'flw0': 3.14, 'time': 42.2, 'compass': 126.98, 'pitch': 5.21, 'roll': -1.63}
{'lipoC2': 0.05, 'temp': 0.0, 'lipoC3S3': 12.01, 'state': 'normal', 'rot1': 247, 'rot0': 223, 'rot3': 6, 'rot2': 7, 'depth': -1.514, 'yaw': 118.63, 'datetime': '2018-12-18 20:17:26.050194', 'mgs': 0, 'flw2': 2.51, 'flw1': 0.47, 'flw0': 2.8, 'time': 42.41, 'compass': 121.96, 'pitch': 4.88, 'roll': -2.07}
{'lipoC2': 0.01, 'temp': 0.0, 'lipoC3S3': 11.76, 'state': 'normal', 'rot1': 249, 'rot0': 225, 'rot3': 6, 'rot2': 7, 'depth': 1.767, 'yaw': 115.32, 'datetime': '2018-12-18 20:17:26.256659', 'mgs': 0, 'flw2': 2.45, 'flw1': 0.23, 'flw0': 0.81, 'time': 42.62, 'compass': 118.65, 'pitch': 4.57, 'roll': -1.94}
{'lipoC2': 0.0, 'temp': 0.0, 'lipoC3S3': 11.93, 'state': 'normal', 'rot1': 250, 'rot0': 227, 'rot3': 6, 'rot2': 7, 'depth': 1.309, 'yaw': 114.43, 'datetime': '2018-12-18 20:17:26.478678', 'mgs': 0, 'flw2': 2.87, 'flw1': 0.0, 'flw0': 0.81, 'time': 42.83, 'compass': 117.76, 'pitch': 4.12, 'roll': -1.41}
{'lipoC2': 0.08, 'temp': 0.0, 'lipoC3S3': 11.73, 'state': 'normal', 'rot1': 252, 'rot0': 231, 'rot3': 6, 'rot2': 7, 'depth': 0.47, 'yaw': 116.85, 'datetime': '2018-12-18 20:17:26.777948', 'mgs': 0, 'flw2': 3.04, 'flw1': 0.03, 'flw0': 0.37, 'time': 43.14, 'compass': 120.18, 'pitch': 3.88, 'roll': -0.68}
{'lipoC2': 0.15, 'temp': 0.0, 'lipoC3S3': 11.76, 'state': 'normal', 'rot1': 254, 'rot0': 233, 'rot3': 6, 'rot2': 7, 'depth': 1.004, 'yaw': 120.03, 'datetime': '2018-12-18 20:17:26.986217', 'mgs': 0, 'flw2': 2.94, 'flw1': 0.06, 'flw0': 0.5, 'time': 43.35, 'compass': 123.36, 'pitch': 4.04, 'roll': -0.28}
