{'lipoC2': 0.09, 'temp': 0.0, 'lipoC3S3': 12.5, 'state': 'normal', 'rot1': 0, 'rot0': 0, 'rot3': 0, 'rot2': 0, 'depth': -1.971, 'yaw': 0.0, 'datetime': '2018-12-18 17:15:31.161978', 'mgs': 0, 'flw2': 0.0, 'flw1': 0.44, 'flw0': 0.04, 'time': 1.26, 'compass': 136.59, 'pitch': -0.78, 'roll': 2.17}
{'lipoC2': 0.14, 'temp': 0.0, 'lipoC3S3': 12.26, 'state': 'normal', 'rot1': 0, 'rot0': 0, 'rot3': 0, 'rot2': 0, 'depth': 0.851, 'yaw': -0.16, 'datetime': '2018-12-18 17:15:31.370053', 'mgs': 0, 'flw2': 0.0, 'flw1': 0.0, 'flw0': 0.21, 'time': 1.46, 'compass': 136.42, 'pitch': -0.06, 'roll': 2.12}
{'lipoC2': 0.0, 'temp': 0.0, 'lipoC3S3': 12.51, 'state': 'normal', 'rot1': 0, 'rot0': 0, 'rot3': 0, 'rot2': 0, 'depth': 0.699, 'yaw': 0.33, 'datetime': '2018-12-18 17:15:31.576538', 'mgs': 0, 'flw2': 0.0, 'flw1': 0.41, 'flw0': 0.05, 'time': 1.67, 'compass': 136.92, 'pitch': 0.75, 'roll': 2.17}
{'lipoC2': 0.0, 'temp': 0.0, 'lipoC3S3': 12.58, 'state': 'normal', 'rot1': 0, 'rot0': 0, 'rot3': 0, 'rot2': 0, 'depth': 1.157, 'yaw': 0.75, 'datetime': '2018-12-18 17:15:31.785180', 'mgs': 0, 'flw2': 0.16, 'flw1': 0.0, 'flw0': 0.0, 'time': 1.88, 'compass': 137.33, 'pitch': 0.7, 'roll': 2.29}
{'lipoC2': 0.14, 'temp': 0.0, 'lipoC3S3': 12.22, 'state': 'normal', 'rot1': 0, 'rot0': 0, 'rot3': 0, 'rot2': 0, 'depth': 0.699, 'yaw': 0.78, 'datetime': '2018-12-18 17:15:31.986405', 'mgs': 0, 'flw2': 0.21, 'flw1': 0.32, 'flw0': 0.72, 'time': 2.09, 'compass': 137.36, 'pitch': -0.13, 'roll': 2.23}
{'lipoC2': 0.09, 'temp': 0.0, 'lipoC3S3': 12.47, 'state': 'normal', 'rot1': 1, 'rot0': 1, 'rot3': 0, 'rot2': 0, 'depth': -1.743, 'yaw': 0.26, 'datetime': '2018-12-18 17:15:32.194216', 'mgs': 0, 'flw2': 1.72, 'flw1': 0.0, 'flw0': 2.08, 'time': 2.29, 'compass': 136.85, 'pitch': -0.33, 'roll': 2.0}
{'lipoC2': 0.13, 'temp': 0.0, 'lipoC3S3': 12.47, 'state': 'normal', 'rot1': 4, 'rot0': 5, 'rot3': 0, 'rot2': 0, 'depth': -2.124, 'yaw': -3.19, 'datetime': '2018-12-18 17:15:32.402191', 'mgs': 0, 'flw2': 1.71, 'flw1': 0.0, 'flw0': 1.88, 'time': 2.5, 'compass': 133.39, 'pitch': 0.59, 'roll': 1.31}
{'lipoC2': 0.14, 'temp': 0.0, 'lipoC3S3': 12.45, 'state': 'normal', 'rot1': 6, 'rot0': 7, 'rot3': 0, 'rot2': 0, 'depth': -1.819, 'yaw': -9.67, 'datetime': '2018-12-18 17:15:32.611375', 'mgs': 0, 'flw2': 1.49, 'flw1': 0.0, 'flw0': 1.77, 'time': 2.71, 'compass': 126.91, 'pitch': 1.44, 'roll': 0.56}
{'lipoC2': 0.15, 'temp': 0.0, 'lipoC3S3': 12.31, 'state': 'normal', 'rot1': 8, 'rot0': 9, 'rot3': 0, 'rot2': 0, 'depth': 1.233, 'yaw': -17.24, 'datetime': '2018-12-18 17:15:32.830039', 'mgs': 0, 'flw2': 1.43, 'flw1': 0.0, 'flw0': 1.64, 'time': 2.92, 'compass': 119.35, 'pitch': 1.08, 'roll': 0.21}
{'lipoC2': 0.0, 'temp': 0.0, 'lipoC3S3': 12.67, 'state': 'normal', 'rot1': 10, 'rot0': 11, 'rot3': 0, 'rot2': 0, 'depth': 1.614, 'yaw': -26.12, 'datetime': '2018-12-18 17:15:33.040061', 'mgs': 0, 'flw2': 1.33, 'flw1': 0.03, 'flw0': 0.85, 'time': 3.13, 'compass': 110.47, 'pitch': 0.19, 'roll': 0.21}
{'lipoC2': 0.0, 'temp': 0.0, 'lipoC3S3': 12.33, 'state': 'normal', 'rot1': 12, 'rot0': 12, 'rot3': 0, 'rot2': 0, 'depth': -0.674, 'yaw': -35.76, 'datetime': '2018-12-18 17:15:33.245717', 'mgs': 0, 'flw2': 1.2, 'flw1': 0.21, 'flw0': 0.89, 'time': 3.33, 'compass': 100.82, 'pitch': -0.08, 'roll': 0.67}
{'lipoC2': 0.0, 'temp': 0.0, 'lipoC3S3': 12.67, 'state': 'normal', 'rot1': 13, 'rot0': 14, 'rot3': 0, 'rot2': 0, 'depth': -1.895, 'yaw': -45.0, 'datetime': '2018-12-18 17:15:33.451640', 'mgs': 0, 'flw2': 0.99, 'flw1': 0.18, 'flw0': 0.65, 'time': 3.54, 'compass': 91.58, 'pitch': 0.14, 'roll': 1.36}
{'lipoC2': 0.13, 'temp': 0.0, 'lipoC3S3': 12.25, 'state': 'normal', 'rot1': 15, 'rot0': 16, 'rot3': 0, 'rot2': 0, 'depth': 0.623, 'yaw': -54.81, 'datetime': '2018-12-18 17:15:33.659465', 'mgs': 0, 'flw2': 0.95, 'flw1': 0.03, 'flw0': 0.38, 'time': 3.75, 'compass': 81.77, 'pitch': 0.1, 'roll': 1.73}
{'lipoC2': 0.0, 'temp': 0.0, 'lipoC3S3': 12.48, 'state': 'normal', 'rot1': 16, 'rot0': 17, 'rot3': 0, 'rot2': 0, 'depth': 0.47, 'yaw': -64.08, 'datetime': '2018-12-18 17:15:33.868165', 'mgs': 0, 'flw2': 0.74, 'flw1': 0.0, 'flw0': 0.63, 'time': 3.96, 'compass': 72.51, 'pitch': -0.12, 'roll': 1.47}
{'lipoC2': 0.0, 'temp': 0.0, 'lipoC3S3': 12.62, 'state': 'normal', 'rot1': 18, 'rot0': 18, 'rot3': 0, 'rot2': 0, 'depth': -2.124, 'yaw': -72.93, 'datetime': '2018-12-18 17:15:34.080825', 'mgs': 0, 'flw2': 0.13, 'flw1': 0.26, 'flw0': 0.65, 'time': 4.17, 'compass': 63.65, 'pitch': -0.25, 'roll': 1.0}
{'lipoC2': 0.0, 'temp': 0.0, 'lipoC3S3': 12.38, 'state': 'normal', 'rot1': 19, 'rot0': 19, 'rot3': 0, 'rot2': 0, 'depth': 0.928, 'yaw': -81.33, 'datetime': '2018-12-18 17:15:34.290073', 'mgs': 0, 'flw2': 0.35, 'flw1': 0.0, 'flw0': 0.54, 'time': 4.38, 'compass': 55.25, 'pitch': -0.3, 'roll': 0.77}
{'lipoC2': 0.12, 'temp': 0.0, 'lipoC3S3': 12.25, 'state': 'normal', 'rot1': 20, 'rot0': 20, 'rot3': 0, 'rot2': 0, 'depth': 0.775, 'yaw': -88.85, 'datetime': '2018-12-18 17:15:34.496466', 'mgs': 0, 'flw2': 0.51, 'flw1': 0.18, 'flw0': 0.0, 'time': 4.58, 'compass': 47.73, 'pitch': -0.33, 'roll': 0.93}
{'lipoC2': 0.06, 'temp': 0.0, 'lipoC3S3': 12.52, 'state': 'normal', 'rot1': 21, 'rot0': 21, 'rot3': 0, 'rot2': 0, 'depth': -1.895, 'yaw': -96.33, 'datetime': '2018-12-18 17:15:34.704283', 'mgs': 0, 'flw2': 0.18, 'flw1': 0.44, 'flw0': 0.39, 'time': 4.79, 'compass': 40.25, 'pitch': -0.37, 'roll': 1.22}
{'lipoC2': 0.12, 'temp': 0.0, 'lipoC3S3': 12.47, 'state': 'normal', 'rot1': 22, 'rot0': 22, 'rot3': 0, 'rot2': 0, 'depth': 1.538, 'yaw': -103.72, 'datetime': '2018-12-18 17:15:34.913309', 'mgs': 0, 'flw2': 0.46, 'flw1': 0.0, 'flw0': 0.46, 'time': 5.0, 'compass': 32.87, 'pitch': -0.1, 'roll': 1.25}
{'lipoC2': 0.0, 'temp': 0.0, 'lipoC3S3': 12.5, 'state': 'normal', 'rot1': 23, 'rot0': 23, 'rot3': 0, 'rot2': 0, 'depth': -0.369, 'yaw': -110.79, 'datetime': '2018-12-18 17:15:35.123572', 'mgs': 0, 'flw2': 0.51, 'flw1': 0.0, 'flw0': 0.4, 'time': 5.21, 'compass': 25.8, 'pitch': 0.07, 'roll': 1.13}
{'lipoC2': 0.05, 'temp': 0.0, 'lipoC3S3': 12.27, 'state': 'normal', 'rot1': 24, 'rot0': 24, 'rot3': 0, 'rot2': 0, 'depth': 0.317, 'yaw': -118.05, 'datetime': '2018-12-18 17:15:35.333065', 'mgs': 0, 'flw2': 0.02, 'flw1': 0.12, 'flw0': 0.56, 'time': 5.42, 'compass': 18.53, 'pitch': -0.16, 'roll': 1.0}
{'lipoC2': 0.14, 'temp': 0.0, 'lipoC3S3': 12.25, 'state': 'normal', 'rot1': 25, 'rot0': 26, 'rot3': 0, 'rot2': 0, 'depth': 0.775, 'yaw': -125.27, 'datetime': '2018-12-18 17:15:35.541398', 'mgs': 0, 'flw2': 0.5, 'flw1': 0.0, 'flw0': 0.01, 'time': 5.63, 'compass': 11.32, 'pitch': -0.34, 'roll': 0.82}
{'lipoC2': 0.1, 'temp': 0.0, 'lipoC3S3': 12.5, 'state': 'normal', 'rot1': 26, 'rot0': 28, 'rot3': 0, 'rot2': 0, 'depth': -2.124, 'yaw': -132.46, 'datetime': '2018-12-18 17:15:35.751198', 'mgs': 0, 'flw2': 0.51, 'flw1': 0.0, 'flw0': 0.42, 'time': 5.84, 'compass': 4.13, 'pitch': -0.13, 'roll': 0.75}
{'lipoC2': 0.06, 'temp': 0.0, 'lipoC3S3': 12.25, 'state': 'normal', 'rot1': 27, 'rot0': 28, 'rot3': 0, 'rot2': 0, 'depth': 1.309, 'yaw': -138.63, 'datetime': '2018-12-18 17:15:35.960964', 'mgs': 0, 'flw2': 0.17, 'flw1': 0.0, 'flw0': 0.0, 'time': 6.04, 'compass': -2.04, 'pitch': 0.19, 'roll': 0.89}
{'lipoC2': 0.17, 'temp': 0.0, 'lipoC3S3': 12.31, 'state': 'normal', 'rot1': 27, 'rot0': 28, 'rot3': 0, 'rot2': 0, 'depth': 1.233, 'yaw': -144.53, 'datetime': '2018-12-18 17:15:36.171144', 'mgs': 0, 'flw2': 0.0, 'flw1': 0.0, 'flw0': 0.22, 'time': 6.25, 'compass': -7.95, 'pitch': -0.1, 'roll': 1.46}
{'lipoC2': 0.0, 'temp': 0.0, 'lipoC3S3': 12.66, 'state': 'normal', 'rot1': 27, 'rot0': 28, 'rot3': 0, 'rot2': 0, 'depth': 1.614, 'yaw': -149.67, 'datetime': '2018-12-18 17:15:36.379993', 'mgs': 0, 'flw2': 0.0, 'flw1': 0.21, 'flw0': 0.18, 'time': 6.46, 'compass': -13.08, 'pitch': -0.76, 'roll': 1.95}
{'lipoC2': 0.0, 'temp': 0.0, 'lipoC3S3': 12.37, 'state': 'normal', 'rot1': 27, 'rot0': 28, 'rot3': 0, 'rot2': 0, 'depth': -0.446, 'yaw': -154.46, 'datetime': '2018-12-18 17:15:36.584290', 'mgs': 0, 'flw2': 0.42, 'flw1': 0.44, 'flw0': 0.39, 'time': 6.67, 'compass': -17.88, 'pitch': -0.58, 'roll': 1.97}
{'lipoC2': 0.1, 'temp': 0.0, 'lipoC3S3': 12.6, 'state': 'normal', 'rot1': 28, 'rot0': 29, 'rot3': 0, 'rot2': 0, 'depth': -2.124, 'yaw': -157.9, 'datetime': '2018-12-18 17:15:36.796842', 'mgs': 0, 'flw2': 0.5, 'flw1': 0.0, 'flw0': 0.44, 'time': 6.88, 'compass': -21.31, 'pitch': 0.35, 'roll': 1.7}
{'lipoC2': 0.0, 'temp': 0.0, 'lipoC3S3': 12.59, 'state': 'normal', 'rot1': 29, 'rot0': 30, 'rot3': 0, 'rot2': 0, 'depth': -2.2, 'yaw': -160.69, 'datetime': '2018-12-18 17:15:37.006167', 'mgs': 0, 'flw2': 0.01, 'flw1': 0.35, 'flw0': 0.49, 'time': 7.09, 'compass': -24.1, 'pitch': 0.94, 'roll': 1.29}
{'lipoC2': 0.0, 'temp': 0.0, 'lipoC3S3': 12.6, 'state': 'normal', 'rot1': 31, 'rot0': 31, 'rot3': 0, 'rot2': 0, 'depth': -1.971, 'yaw': -162.78, 'datetime': '2018-12-18 17:15:37.215042', 'mgs': 0, 'flw2': 0.05, 'flw1': 0.29, 'flw0': 0.51, 'time': 7.3, 'compass': -26.19, 'pitch': 0.36, 'roll': 1.1}
{'lipoC2': 0.0, 'temp': 0.0, 'lipoC3S3': 12.66, 'state': 'normal', 'rot1': 32, 'rot0': 32, 'rot3': 0, 'rot2': 0, 'depth': 1.614, 'yaw': -164.12, 'datetime': '2018-12-18 17:15:37.421694', 'mgs': 0, 'flw2': 0.54, 'flw1': 0.06, 'flw0': 0.01, 'time': 7.5, 'compass': -27.53, 'pitch': -0.45, 'roll': 1.15}
{'lipoC2': 0.11, 'temp': 0.0, 'lipoC3S3': 12.22, 'state': 'normal', 'rot1': 33, 'rot0': 34, 'rot3': 0, 'rot2': 0, 'depth': 1.08, 'yaw': -164.76, 'datetime': '2018-12-18 17:15:37.632863', 'mgs': 0, 'flw2': 0.33, 'flw1': 0.0, 'flw0': 0.61, 'time': 7.71, 'compass': -28.17, 'pitch': -0.29, 'roll': 1.37}
{'lipoC2': 0.04, 'temp': 0.0, 'lipoC3S3': 12.27, 'state': 'normal', 'rot1': 34, 'rot0': 35, 'rot3': 0, 'rot2': 0, 'depth': 0.089, 'yaw': -164.84, 'datetime': '2018-12-18 17:15:37.838000', 'mgs': 0, 'flw2': 0.0, 'flw1': 0.21, 'flw0': 0.59, 'time': 7.92, 'compass': -28.26, 'pitch': 0.55, 'roll': 1.68}
