{'lipoC2': 0.0, 'temp': 0.0, 'lipoC3S3': 12.1, 'state': 'normal', 'rot1': 0, 'rot0': 0, 'rot3': 0, 'rot2': 0, 'depth': 1.691, 'yaw': 0.0, 'datetime': '2018-12-18 20:39:53.425408', 'mgs': 0, 'flw2': 0.0, 'flw1': 0.0, 'flw0': 0.2, 'time': 1.26, 'compass': -17.0, 'pitch': 0.67, 'roll': 0.98}
{'lipoC2': 0.0, 'temp': 0.0, 'lipoC3S3': 12.05, 'state': 'normal', 'rot1': 0, 'rot0': 0, 'rot3': 0, 'rot2': 0, 'depth': 1.538, 'yaw': 0.0, 'datetime': '2018-12-18 20:39:53.634223', 'mgs': 0, 'flw2': 0.0, 'flw1': 0.26, 'flw0': 0.13, 'time': 1.47, 'compass': -17.0, 'pitch': 0.7, 'roll': 0.98}
{'lipoC2': 0.0, 'temp': 0.0, 'lipoC3S3': 11.92, 'state': 'normal', 'rot1': 0, 'rot0': 0, 'rot3': 0, 'rot2': 0, 'depth': -0.522, 'yaw': -0.0, 'datetime': '2018-12-18 20:39:53.842328', 'mgs': 0, 'flw2': 0.21, 'flw1': 0.0, 'flw0': 0.0, 'time': 1.67, 'compass': -17.01, 'pitch': 0.57, 'roll': 0.98}
{'lipoC2': 0.0, 'temp': 0.0, 'lipoC3S3': 11.9, 'state': 'normal', 'rot1': 0, 'rot0': 0, 'rot3': 0, 'rot2': 0, 'depth': 0.623, 'yaw': 0.01, 'datetime': '2018-12-18 20:39:54.051321', 'mgs': 0, 'flw2': 0.0, 'flw1': 0.41, 'flw0': 0.0, 'time': 1.88, 'compass': -17.0, 'pitch': 0.49, 'roll': 1.09}
{'lipoC2': 0.11, 'temp': 0.0, 'lipoC3S3': 12.12, 'state': 'normal', 'rot1': 0, 'rot0': 0, 'rot3': 0, 'rot2': 0, 'depth': 0.317, 'yaw': 0.01, 'datetime': '2018-12-18 20:39:54.259318', 'mgs': 0, 'flw2': 0.0, 'flw1': 0.41, 'flw0': 0.0, 'time': 2.09, 'compass': -16.99, 'pitch': 0.49, 'roll': 1.3}
{'lipoC2': 0.1, 'temp': 0.0, 'lipoC3S3': 11.71, 'state': 'normal', 'rot1': 0, 'rot0': 0, 'rot3': 0, 'rot2': 0, 'depth': 1.004, 'yaw': 0.03, 'datetime': '2018-12-18 20:39:54.468926', 'mgs': 0, 'flw2': 0.11, 'flw1': 0.26, 'flw0': 0.0, 'time': 2.3, 'compass': -16.98, 'pitch': 0.49, 'roll': 1.38}
{'lipoC2': 0.16, 'temp': 0.0, 'lipoC3S3': 11.83, 'state': 'normal', 'rot1': 0, 'rot0': 0, 'rot3': 0, 'rot2': 0, 'depth': -0.598, 'yaw': 0.04, 'datetime': '2018-12-18 20:39:54.676940', 'mgs': 0, 'flw2': 0.02, 'flw1': 0.47, 'flw0': 0.0, 'time': 2.51, 'compass': -16.96, 'pitch': 0.49, 'roll': 1.38}
{'lipoC2': 0.0, 'temp': 0.0, 'lipoC3S3': 12.09, 'state': 'normal', 'rot1': 0, 'rot0': 0, 'rot3': 0, 'rot2': 0, 'depth': 1.691, 'yaw': 0.04, 'datetime': '2018-12-18 20:39:54.884893', 'mgs': 0, 'flw2': 0.15, 'flw1': 0.15, 'flw0': 0.0, 'time': 2.71, 'compass': -16.96, 'pitch': 0.45, 'roll': 1.38}
{'lipoC2': 0.15, 'temp': 0.0, 'lipoC3S3': 11.81, 'state': 'normal', 'rot1': 0, 'rot0': 0, 'rot3': 0, 'rot2': 0, 'depth': -0.598, 'yaw': 0.05, 'datetime': '2018-12-18 20:39:55.094527', 'mgs': 0, 'flw2': 0.01, 'flw1': 0.47, 'flw0': 0.0, 'time': 2.92, 'compass': -16.96, 'pitch': 0.44, 'roll': 1.38}
{'lipoC2': 0.0, 'temp': 0.0, 'lipoC3S3': 12.08, 'state': 'normal', 'rot1': 0, 'rot0': 0, 'rot3': 0, 'rot2': 0, 'depth': 1.767, 'yaw': 0.06, 'datetime': '2018-12-18 20:39:55.302211', 'mgs': 0, 'flw2': 0.13, 'flw1': 0.18, 'flw0': 0.0, 'time': 3.13, 'compass': -16.95, 'pitch': 0.64, 'roll': 1.38}
{'lipoC2': 0.11, 'temp': 0.0, 'lipoC3S3': 11.9, 'state': 'normal', 'rot1': 0, 'rot0': 0, 'rot3': 0, 'rot2': 0, 'depth': -1.743, 'yaw': 0.1, 'datetime': '2018-12-18 20:39:55.510841', 'mgs': 0, 'flw2': 0.15, 'flw1': 0.0, 'flw0': 0.02, 'time': 3.34, 'compass': -16.9, 'pitch': 0.82, 'roll': 1.38}
{'lipoC2': 0.08, 'temp': 0.0, 'lipoC3S3': 11.69, 'state': 'normal', 'rot1': 0, 'rot0': 0, 'rot3': 0, 'rot2': 0, 'depth': 1.004, 'yaw': 0.13, 'datetime': '2018-12-18 20:39:55.718491', 'mgs': 0, 'flw2': 0.15, 'flw1': 0.12, 'flw0': 0.0, 'time': 3.55, 'compass': -16.88, 'pitch': 0.67, 'roll': 1.39}
{'lipoC2': 0.0, 'temp': 0.0, 'lipoC3S3': 12.0, 'state': 'normal', 'rot1': 0, 'rot0': 0, 'rot3': 0, 'rot2': 0, 'depth': 1.004, 'yaw': 0.15, 'datetime': '2018-12-18 20:39:55.928832', 'mgs': 0, 'flw2': 0.16, 'flw1': 0.03, 'flw0': 0.0, 'time': 3.76, 'compass': -16.86, 'pitch': 0.27, 'roll': 1.39}
{'lipoC2': 0.09, 'temp': 0.0, 'lipoC3S3': 11.92, 'state': 'normal', 'rot1': 0, 'rot0': 0, 'rot3': 0, 'rot2': 0, 'depth': -1.819, 'yaw': 0.17, 'datetime': '2018-12-18 20:39:56.136651', 'mgs': 0, 'flw2': 0.21, 'flw1': 0.0, 'flw0': 0.0, 'time': 3.96, 'compass': -16.84, 'pitch': 0.11, 'roll': 1.39}
{'lipoC2': 0.0, 'temp': 0.0, 'lipoC3S3': 12.0, 'state': 'normal', 'rot1': 0, 'rot0': 0, 'rot3': 0, 'rot2': 0, 'depth': 1.08, 'yaw': 0.23, 'datetime': '2018-12-18 20:39:56.343828', 'mgs': 0, 'flw2': 0.17, 'flw1': 0.0, 'flw0': 0.0, 'time': 4.17, 'compass': -16.78, 'pitch': 0.48, 'roll': 1.39}
{'lipoC2': 0.13, 'temp': 0.0, 'lipoC3S3': 11.9, 'state': 'normal', 'rot1': 0, 'rot0': 0, 'rot3': 0, 'rot2': 0, 'depth': -1.666, 'yaw': 0.3, 'datetime': '2018-12-18 20:39:56.550629', 'mgs': 0, 'flw2': 0.06, 'flw1': 0.0, 'flw0': 0.11, 'time': 4.38, 'compass': -16.7, 'pitch': 0.87, 'roll': 1.39}
{'lipoC2': 0.1, 'temp': 0.0, 'lipoC3S3': 11.71, 'state': 'normal', 'rot1': 0, 'rot0': 0, 'rot3': 0, 'rot2': 0, 'depth': 1.004, 'yaw': 0.36, 'datetime': '2018-12-18 20:39:56.759142', 'mgs': 0, 'flw2': 0.12, 'flw1': 0.18, 'flw0': 0.0, 'time': 4.59, 'compass': -16.64, 'pitch': 0.91, 'roll': 1.38}
{'lipoC2': 0.15, 'temp': 0.0, 'lipoC3S3': 11.71, 'state': 'normal', 'rot1': 0, 'rot0': 0, 'rot3': 0, 'rot2': 0, 'depth': 0.47, 'yaw': 0.41, 'datetime': '2018-12-18 20:39:56.968123', 'mgs': 0, 'flw2': 0.12, 'flw1': 0.26, 'flw0': 0.0, 'time': 4.79, 'compass': -16.6, 'pitch': 0.71, 'roll': 1.39}
{'lipoC2': 0.0, 'temp': 0.0, 'lipoC3S3': 12.04, 'state': 'normal', 'rot1': 0, 'rot0': 0, 'rot3': 0, 'rot2': 0, 'depth': 1.309, 'yaw': 0.48, 'datetime': '2018-12-18 20:39:57.177110', 'mgs': 0, 'flw2': 0.0, 'flw1': 0.23, 'flw0': 0.13, 'time': 5.0, 'compass': -16.52, 'pitch': 0.51, 'roll': 1.39}
{'lipoC2': 0.0, 'temp': 0.0, 'lipoC3S3': 11.97, 'state': 'normal', 'rot1': 0, 'rot0': 0, 'rot3': 0, 'rot2': 0, 'depth': 0.699, 'yaw': 0.53, 'datetime': '2018-12-18 20:39:57.386166', 'mgs': 0, 'flw2': 0.0, 'flw1': 0.0, 'flw0': 0.0, 'time': 5.21, 'compass': -16.47, 'pitch': 0.49, 'roll': 1.38}
{'lipoC2': 0.02, 'temp': 0.0, 'lipoC3S3': 11.98, 'state': 'normal', 'rot1': 0, 'rot0': 0, 'rot3': 0, 'rot2': 0, 'depth': 1.538, 'yaw': 0.64, 'datetime': '2018-12-18 20:39:57.593471', 'mgs': 0, 'flw2': 0.13, 'flw1': 0.0, 'flw0': 0.0, 'time': 5.42, 'compass': -16.37, 'pitch': 0.5, 'roll': 1.39}
{'lipoC2': 0.18, 'temp': 0.0, 'lipoC3S3': 11.8, 'state': 'normal', 'rot1': 0, 'rot0': 0, 'rot3': 0, 'rot2': 0, 'depth': -0.751, 'yaw': 0.69, 'datetime': '2018-12-18 20:39:57.802712', 'mgs': 0, 'flw2': 0.09, 'flw1': 0.38, 'flw0': 0.0, 'time': 5.63, 'compass': -16.31, 'pitch': 0.71, 'roll': 1.39}
{'lipoC2': 0.0, 'temp': 0.0, 'lipoC3S3': 12.12, 'state': 'normal', 'rot1': 0, 'rot0': 0, 'rot3': 0, 'rot2': 0, 'depth': 1.767, 'yaw': 0.76, 'datetime': '2018-12-18 20:39:58.010950', 'mgs': 0, 'flw2': 0.0, 'flw1': 0.0, 'flw0': 0.23, 'time': 5.83, 'compass': -16.24, 'pitch': 0.93, 'roll': 1.43}
{'lipoC2': 0.13, 'temp': 0.0, 'lipoC3S3': 11.89, 'state': 'normal', 'rot1': 1, 'rot0': 5, 'rot3': 0, 'rot2': 0, 'depth': 1.843, 'yaw': 0.54, 'datetime': '2018-12-18 20:39:58.212079', 'mgs': 0, 'flw2': 1.53, 'flw1': 0.0, 'flw0': 1.71, 'time': 6.04, 'compass': -16.46, 'pitch': 0.79, 'roll': 1.48}
{'lipoC2': 0.0, 'temp': 0.0, 'lipoC3S3': 12.12, 'state': 'normal', 'rot1': 4, 'rot0': 28, 'rot3': 0, 'rot2': 0, 'depth': 1.996, 'yaw': -2.54, 'datetime': '2018-12-18 20:39:58.421470', 'mgs': 0, 'flw2': 1.34, 'flw1': 0.0, 'flw0': 1.7, 'time': 6.25, 'compass': -19.55, 'pitch': 0.68, 'roll': 0.95}
{'lipoC2': 0.13, 'temp': 0.0, 'lipoC3S3': 11.69, 'state': 'normal', 'rot1': 6, 'rot0': 28, 'rot3': 0, 'rot2': 0, 'depth': 0.394, 'yaw': -8.05, 'datetime': '2018-12-18 20:39:58.630645', 'mgs': 0, 'flw2': 1.32, 'flw1': 0.0, 'flw0': 1.78, 'time': 6.46, 'compass': -25.05, 'pitch': 0.94, 'roll': 0.26}
{'lipoC2': 0.14, 'temp': 0.0, 'lipoC3S3': 11.69, 'state': 'normal', 'rot1': 9, 'rot0': 40, 'rot3': 0, 'rot2': 0, 'depth': 0.241, 'yaw': -15.76, 'datetime': '2018-12-18 20:39:58.839448', 'mgs': 0, 'flw2': 1.39, 'flw1': 0.0, 'flw0': 1.86, 'time': 6.67, 'compass': -32.76, 'pitch': 1.25, 'roll': -0.08}
{'lipoC2': 0.0, 'temp': 0.0, 'lipoC3S3': 12.02, 'state': 'normal', 'rot1': 12, 'rot0': 56, 'rot3': 0, 'rot2': 0, 'depth': -2.124, 'yaw': -24.82, 'datetime': '2018-12-18 20:39:59.047559', 'mgs': 0, 'flw2': 0.72, 'flw1': 0.32, 'flw0': 1.27, 'time': 6.88, 'compass': -41.83, 'pitch': 1.18, 'roll': 0.1}
{'lipoC2': 0.0, 'temp': 0.0, 'lipoC3S3': 11.92, 'state': 'normal', 'rot1': 14, 'rot0': 62, 'rot3': 0, 'rot2': 0, 'depth': 0.012, 'yaw': -34.27, 'datetime': '2018-12-18 20:39:59.256698', 'mgs': 0, 'flw2': 1.23, 'flw1': 0.0, 'flw0': 0.95, 'time': 7.09, 'compass': -51.27, 'pitch': 0.78, 'roll': 0.61}
{'lipoC2': 0.09, 'temp': 0.0, 'lipoC3S3': 11.68, 'state': 'normal', 'rot1': 16, 'rot0': 64, 'rot3': 0, 'rot2': 0, 'depth': 1.004, 'yaw': -43.17, 'datetime': '2018-12-18 20:39:59.464727', 'mgs': 0, 'flw2': 0.68, 'flw1': 0.0, 'flw0': 1.11, 'time': 7.29, 'compass': -60.17, 'pitch': 0.4, 'roll': 1.36}
{'lipoC2': 0.13, 'temp': 0.0, 'lipoC3S3': 11.9, 'state': 'normal', 'rot1': 17, 'rot0': 65, 'rot3': 0, 'rot2': 0, 'depth': -1.743, 'yaw': -52.26, 'datetime': '2018-12-18 20:39:59.684691', 'mgs': 0, 'flw2': 0.73, 'flw1': 0.44, 'flw0': 0.73, 'time': 7.5, 'compass': -69.26, 'pitch': 0.11, 'roll': 1.93}
{'lipoC2': 0.0, 'temp': 0.0, 'lipoC3S3': 12.12, 'state': 'normal', 'rot1': 18, 'rot0': 66, 'rot3': 0, 'rot2': 0, 'depth': 1.614, 'yaw': -60.96, 'datetime': '2018-12-18 20:39:59.887016', 'mgs': 0, 'flw2': 0.65, 'flw1': 0.23, 'flw0': 0.43, 'time': 7.71, 'compass': -77.96, 'pitch': -0.11, 'roll': 1.99}
{'lipoC2': 0.0, 'temp': 0.0, 'lipoC3S3': 12.0, 'state': 'normal', 'rot1': 20, 'rot0': 67, 'rot3': 0, 'rot2': 0, 'depth': 1.309, 'yaw': -69.1, 'datetime': '2018-12-18 20:40:00.094690', 'mgs': 0, 'flw2': 0.13, 'flw1': 0.21, 'flw0': 0.65, 'time': 7.92, 'compass': -86.1, 'pitch': -0.03, 'roll': 1.83}
{'lipoC2': 0.11, 'temp': 0.0, 'lipoC3S3': 11.9, 'state': 'normal', 'rot1': 21, 'rot0': 68, 'rot3': 0, 'rot2': 0, 'depth': -1.971, 'yaw': -76.31, 'datetime': '2018-12-18 20:40:00.305100', 'mgs': 0, 'flw2': 0.31, 'flw1': 0.47, 'flw0': 0.32, 'time': 8.13, 'compass': -93.31, 'pitch': 0.32, 'roll': 1.84}
{'lipoC2': 0.0, 'temp': 0.0, 'lipoC3S3': 11.93, 'state': 'normal', 'rot1': 22, 'rot0': 69, 'rot3': 0, 'rot2': 0, 'depth': 0.546, 'yaw': -83.35, 'datetime': '2018-12-18 20:40:00.514615', 'mgs': 0, 'flw2': 0.29, 'flw1': 0.5, 'flw0': 0.31, 'time': 8.34, 'compass': -100.36, 'pitch': 0.29, 'roll': 1.96}
{'lipoC2': 0.14, 'temp': 0.0, 'lipoC3S3': 11.89, 'state': 'normal', 'rot1': 23, 'rot0': 70, 'rot3': 0, 'rot2': 0, 'depth': -1.59, 'yaw': -90.11, 'datetime': '2018-12-18 20:40:00.723149', 'mgs': 0, 'flw2': 0.39, 'flw1': 0.0, 'flw0': 0.46, 'time': 8.55, 'compass': -107.12, 'pitch': -0.27, 'roll': 1.92}
{'lipoC2': 0.15, 'temp': 0.0, 'lipoC3S3': 11.88, 'state': 'normal', 'rot1': 24, 'rot0': 71, 'rot3': 0, 'rot2': 0, 'depth': -1.514, 'yaw': -96.76, 'datetime': '2018-12-18 20:40:00.929815', 'mgs': 0, 'flw2': 0.42, 'flw1': 0.41, 'flw0': 0.31, 'time': 8.75, 'compass': -113.76, 'pitch': -0.63, 'roll': 1.63}
{'lipoC2': 0.13, 'temp': 0.0, 'lipoC3S3': 11.89, 'state': 'normal', 'rot1': 25, 'rot0': 72, 'rot3': 0, 'rot2': 0, 'depth': 1.843, 'yaw': -103.09, 'datetime': '2018-12-18 20:40:01.139480', 'mgs': 0, 'flw2': 0.43, 'flw1': 0.0, 'flw0': 0.45, 'time': 8.96, 'compass': -120.09, 'pitch': -0.31, 'roll': 1.49}
{'lipoC2': 0.12, 'temp': 0.0, 'lipoC3S3': 11.69, 'state': 'normal', 'rot1': 26, 'rot0': 74, 'rot3': 0, 'rot2': 0, 'depth': 0.699, 'yaw': -109.75, 'datetime': '2018-12-18 20:40:01.349197', 'mgs': 0, 'flw2': 0.0, 'flw1': 0.09, 'flw0': 0.56, 'time': 9.17, 'compass': -126.76, 'pitch': 0.1, 'roll': 1.47}
{'lipoC2': 0.17, 'temp': 0.0, 'lipoC3S3': 11.65, 'state': 'normal', 'rot1': 27, 'rot0': 75, 'rot3': 0, 'rot2': 0, 'depth': 0.851, 'yaw': -116.39, 'datetime': '2018-12-18 20:40:01.557656', 'mgs': 0, 'flw2': 0.59, 'flw1': 0.0, 'flw0': 0.11, 'time': 9.38, 'compass': -133.39, 'pitch': -0.03, 'roll': 1.49}
{'lipoC2': 0.12, 'temp': 0.0, 'lipoC3S3': 11.9, 'state': 'normal', 'rot1': 28, 'rot0': 76, 'rot3': 0, 'rot2': 0, 'depth': 1.843, 'yaw': -122.94, 'datetime': '2018-12-18 20:40:01.769325', 'mgs': 0, 'flw2': 0.48, 'flw1': 0.0, 'flw0': 0.42, 'time': 9.59, 'compass': -139.94, 'pitch': -0.52, 'roll': 1.53}
{'lipoC2': 0.0, 'temp': 0.0, 'lipoC3S3': 11.72, 'state': 'normal', 'rot1': 29, 'rot0': 77, 'rot3': 0, 'rot2': 0, 'depth': -1.056, 'yaw': -129.41, 'datetime': '2018-12-18 20:40:01.975367', 'mgs': 0, 'flw2': 0.29, 'flw1': 0.0, 'flw0': 0.57, 'time': 9.8, 'compass': -146.42, 'pitch': -0.78, 'roll': 1.7}
{'lipoC2': 0.0, 'temp': 0.0, 'lipoC3S3': 11.89, 'state': 'normal', 'rot1': 29, 'rot0': 77, 'rot3': 0, 'rot2': 0, 'depth': -0.217, 'yaw': -135.3, 'datetime': '2018-12-18 20:40:02.184829', 'mgs': 0, 'flw2': 0.0, 'flw1': 0.0, 'flw0': 0.15, 'time': 10.01, 'compass': -152.3, 'pitch': -0.69, 'roll': 1.75}
{'lipoC2': 0.0, 'temp': 0.0, 'lipoC3S3': 12.14, 'state': 'normal', 'rot1': 30, 'rot0': 77, 'rot3': 0, 'rot2': 0, 'depth': -0.674, 'yaw': -140.75, 'datetime': '2018-12-18 20:40:02.394793', 'mgs': 0, 'flw2': 3.41, 'flw1': 0.0, 'flw0': 0.73, 'time': 10.22, 'compass': -157.76, 'pitch': -0.47, 'roll': 1.7}
{'lipoC2': 0.2, 'temp': 0.0, 'lipoC3S3': 11.71, 'state': 'normal', 'rot1': 31, 'rot0': 80, 'rot3': 0, 'rot2': 0, 'depth': -0.98, 'yaw': -144.34, 'datetime': '2018-12-18 20:40:02.605469', 'mgs': 0, 'flw2': 2.98, 'flw1': 0.0, 'flw0': 0.38, 'time': 10.43, 'compass': -161.34, 'pitch': 0.99, 'roll': 1.73}
{'lipoC2': 0.0, 'temp': 0.0, 'lipoC3S3': 12.01, 'state': 'normal', 'rot1': 33, 'rot0': 83, 'rot3': 0, 'rot2': 0, 'depth': 1.462, 'yaw': -145.58, 'datetime': '2018-12-18 20:40:02.815092', 'mgs': 0, 'flw2': 2.65, 'flw1': 0.44, 'flw0': 0.73, 'time': 10.64, 'compass': -162.59, 'pitch': 2.39, 'roll': 2.0}
{'lipoC2': 0.0, 'temp': 0.0, 'lipoC3S3': 12.16, 'state': 'normal', 'rot1': 35, 'rot0': 85, 'rot3': 0, 'rot2': 0, 'depth': -0.217, 'yaw': -144.99, 'datetime': '2018-12-18 20:40:03.023886', 'mgs': 0, 'flw2': 2.87, 'flw1': 0.03, 'flw0': 0.43, 'time': 10.85, 'compass': -161.99, 'pitch': 2.39, 'roll': 2.22}
{'lipoC2': 0.05, 'temp': 0.0, 'lipoC3S3': 11.71, 'state': 'normal', 'rot1': 36, 'rot0': 88, 'rot3': 0, 'rot2': 0, 'depth': 1.309, 'yaw': -143.15, 'datetime': '2018-12-18 20:40:03.233335', 'mgs': 0, 'flw2': 2.92, 'flw1': 0.0, 'flw0': 0.78, 'time': 11.06, 'compass': -160.15, 'pitch': 1.97, 'roll': 2.18}
{'lipoC2': 0.1, 'temp': 0.0, 'lipoC3S3': 11.69, 'state': 'normal', 'rot1': 38, 'rot0': 90, 'rot3': 0, 'rot2': 0, 'depth': 0.394, 'yaw': -140.25, 'datetime': '2018-12-18 20:40:03.441619', 'mgs': 0, 'flw2': 2.51, 'flw1': 0.12, 'flw0': 1.0, 'time': 11.26, 'compass': -157.26, 'pitch': 1.98, 'roll': 2.09}
{'lipoC2': 0.03, 'temp': 0.0, 'lipoC3S3': 11.72, 'state': 'normal', 'rot1': 39, 'rot0': 92, 'rot3': 0, 'rot2': 0, 'depth': 1.385, 'yaw': -136.76, 'datetime': '2018-12-18 20:40:03.653051', 'mgs': 0, 'flw2': 2.72, 'flw1': 0.0, 'flw0': 1.01, 'time': 11.47, 'compass': -153.76, 'pitch': 2.2, 'roll': 2.14}
{'lipoC2': 0.03, 'temp': 0.0, 'lipoC3S3': 11.71, 'state': 'normal', 'rot1': 41, 'rot0': 95, 'rot3': 0, 'rot2': 0, 'depth': 0.089, 'yaw': -132.86, 'datetime': '2018-12-18 20:40:03.862014', 'mgs': 0, 'flw2': 2.27, 'flw1': 0.21, 'flw0': 0.94, 'time': 11.68, 'compass': -149.87, 'pitch': 2.35, 'roll': 2.45}
{'lipoC2': 0.0, 'temp': 0.0, 'lipoC3S3': 12.04, 'state': 'normal', 'rot1': 43, 'rot0': 97, 'rot3': 0, 'rot2': 0, 'depth': 1.385, 'yaw': -129.2, 'datetime': '2018-12-18 20:40:04.072659', 'mgs': 0, 'flw2': 2.45, 'flw1': 0.38, 'flw0': 3.04, 'time': 11.89, 'compass': -146.2, 'pitch': 2.39, 'roll': 2.78}
{'lipoC2': 0.03, 'temp': 0.0, 'lipoC3S3': 11.8, 'state': 'normal', 'rot1': 45, 'rot0': 99, 'rot3': 0, 'rot2': 0, 'depth': 0.317, 'yaw': -127.16, 'datetime': '2018-12-18 20:40:04.283503', 'mgs': 0, 'flw2': 2.92, 'flw1': 0.0, 'flw0': 2.66, 'time': 12.1, 'compass': -144.17, 'pitch': 3.06, 'roll': 2.98}
{'lipoC2': 0.14, 'temp': 0.0, 'lipoC3S3': 11.73, 'state': 'normal', 'rot1': 48, 'rot0': 102, 'rot3': 0, 'rot2': 0, 'depth': 0.546, 'yaw': -126.15, 'datetime': '2018-12-18 20:40:04.491651', 'mgs': 0, 'flw2': 2.93, 'flw1': 0.03, 'flw0': 2.64, 'time': 12.31, 'compass': -143.16, 'pitch': 3.49, 'roll': 3.03}
{'lipoC2': 0.09, 'temp': 0.0, 'lipoC3S3': 11.69, 'state': 'normal', 'rot1': 50, 'rot0': 104, 'rot3': 0, 'rot2': 0, 'depth': 0.241, 'yaw': -126.04, 'datetime': '2018-12-18 20:40:04.701174', 'mgs': 0, 'flw2': 0.85, 'flw1': 0.0, 'flw0': 2.56, 'time': 12.52, 'compass': -143.04, 'pitch': 3.28, 'roll': 2.74}
{'lipoC2': 0.13, 'temp': 0.0, 'lipoC3S3': 11.71, 'state': 'normal', 'rot1': 53, 'rot0': 105, 'rot3': 0, 'rot2': 0, 'depth': 0.47, 'yaw': -127.57, 'datetime': '2018-12-18 20:40:04.910349', 'mgs': 0, 'flw2': 0.9, 'flw1': 0.0, 'flw0': 2.64, 'time': 12.73, 'compass': -144.58, 'pitch': 2.43, 'roll': 2.18}
{'lipoC2': 0.0, 'temp': 0.0, 'lipoC3S3': 11.93, 'state': 'normal', 'rot1': 56, 'rot0': 106, 'rot3': 0, 'rot2': 0, 'depth': 0.699, 'yaw': -129.98, 'datetime': '2018-12-18 20:40:05.120007', 'mgs': 0, 'flw2': 0.62, 'flw1': 0.5, 'flw0': 2.81, 'time': 12.94, 'compass': -146.98, 'pitch': 2.1, 'roll': 1.97}
{'lipoC2': 0.02, 'temp': 0.0, 'lipoC3S3': 11.72, 'state': 'normal', 'rot1': 58, 'rot0': 108, 'rot3': 0, 'rot2': 0, 'depth': 1.233, 'yaw': -132.66, 'datetime': '2018-12-18 20:40:05.330919', 'mgs': 0, 'flw2': 2.47, 'flw1': 0.29, 'flw0': 2.93, 'time': 13.15, 'compass': -149.67, 'pitch': 2.58, 'roll': 1.96}
{'lipoC2': 0.0, 'temp': 0.0, 'lipoC3S3': 12.1, 'state': 'normal', 'rot1': 61, 'rot0': 111, 'rot3': 0, 'rot2': 0, 'depth': 0.012, 'yaw': -134.3, 'datetime': '2018-12-18 20:40:05.546075', 'mgs': 0, 'flw2': 2.86, 'flw1': 0.26, 'flw0': 2.62, 'time': 13.36, 'compass': -151.3, 'pitch': 3.47, 'roll': 2.04}
{'lipoC2': 0.0, 'temp': 0.0, 'lipoC3S3': 12.18, 'state': 'normal', 'rot1': 62, 'rot0': 111, 'rot3': 0, 'rot2': 0, 'depth': 1.538, 'yaw': -135.45, 'datetime': '2018-12-18 20:40:05.754258', 'mgs': 0, 'flw2': 0.0, 'flw1': 0.0, 'flw0': 0.24, 'time': 13.56, 'compass': -152.46, 'pitch': 3.06, 'roll': 2.18}
{'lipoC2': 0.09, 'temp': 0.0, 'lipoC3S3': 11.67, 'state': 'normal', 'rot1': 62, 'rot0': 112, 'rot3': 0, 'rot2': 0, 'depth': 0.241, 'yaw': -136.34, 'datetime': '2018-12-18 20:40:05.957488', 'mgs': 0, 'flw2': 0.57, 'flw1': 0.0, 'flw0': 0.04, 'time': 13.77, 'compass': -153.34, 'pitch': 0.5, 'roll': 2.61}
{'lipoC2': 0.16, 'temp': 0.0, 'lipoC3S3': 11.85, 'state': 'normal', 'rot1': 63, 'rot0': 113, 'rot3': 0, 'rot2': 0, 'depth': -1.208, 'yaw': -136.46, 'datetime': '2018-12-18 20:40:06.165837', 'mgs': 0, 'flw2': 0.51, 'flw1': 0.26, 'flw0': 0.18, 'time': 13.98, 'compass': -153.46, 'pitch': -0.57, 'roll': 3.05}
{'lipoC2': 0.0, 'temp': 0.0, 'lipoC3S3': 11.92, 'state': 'normal', 'rot1': 64, 'rot0': 114, 'rot3': 0, 'rot2': 0, 'depth': -0.369, 'yaw': -135.93, 'datetime': '2018-12-18 20:40:06.375895', 'mgs': 0, 'flw2': 0.5, 'flw1': 0.0, 'flw0': 0.38, 'time': 14.19, 'compass': -152.93, 'pitch': 0.15, 'roll': 3.12}
{'lipoC2': 0.08, 'temp': 0.0, 'lipoC3S3': 11.69, 'state': 'normal', 'rot1': 65, 'rot0': 115, 'rot3': 0, 'rot2': 0, 'depth': 0.089, 'yaw': -134.94, 'datetime': '2018-12-18 20:40:06.592787', 'mgs': 0, 'flw2': 0.04, 'flw1': 0.09, 'flw0': 0.6, 'time': 14.4, 'compass': -151.95, 'pitch': 0.82, 'roll': 3.04}
{'lipoC2': 0.0, 'temp': 0.0, 'lipoC3S3': 11.89, 'state': 'normal', 'rot1': 66, 'rot0': 116, 'rot3': 0, 'rot2': 0, 'depth': 0.012, 'yaw': -133.54, 'datetime': '2018-12-18 20:40:06.802604', 'mgs': 0, 'flw2': 0.0, 'flw1': 0.53, 'flw0': 0.0, 'time': 14.61, 'compass': -150.55, 'pitch': 0.56, 'roll': 3.01}
{'lipoC2': 0.12, 'temp': 0.0, 'lipoC3S3': 11.89, 'state': 'normal', 'rot1': 66, 'rot0': 116, 'rot3': 0, 'rot2': 0, 'depth': -2.048, 'yaw': -132.38, 'datetime': '2018-12-18 20:40:07.012100', 'mgs': 0, 'flw2': 0.09, 'flw1': 0.0, 'flw0': 0.1, 'time': 14.82, 'compass': -149.39, 'pitch': 0.05, 'roll': 2.74}
{'lipoC2': 0.1, 'temp': 0.0, 'lipoC3S3': 11.71, 'state': 'normal', 'rot1': 67, 'rot0': 117, 'rot3': 0, 'rot2': 0, 'depth': 1.004, 'yaw': -131.13, 'datetime': '2018-12-18 20:40:07.221563', 'mgs': 0, 'flw2': 2.4, 'flw1': 0.09, 'flw0': 0.42, 'time': 15.03, 'compass': -148.13, 'pitch': 0.65, 'roll': 2.44}
{'lipoC2': 0.0, 'temp': 0.0, 'lipoC3S3': 11.88, 'state': 'normal', 'rot1': 69, 'rot0': 120, 'rot3': 0, 'rot2': 0, 'depth': 0.851, 'yaw': -128.36, 'datetime': '2018-12-18 20:40:07.428850', 'mgs': 0, 'flw2': 2.82, 'flw1': 0.0, 'flw0': 3.03, 'time': 15.24, 'compass': -145.37, 'pitch': 2.74, 'roll': 2.5}
{'lipoC2': 0.0, 'temp': 0.0, 'lipoC3S3': 11.89, 'state': 'normal', 'rot1': 71, 'rot0': 122, 'rot3': 0, 'rot2': 0, 'depth': 0.623, 'yaw': -126.24, 'datetime': '2018-12-18 20:40:07.639347', 'mgs': 0, 'flw2': 2.77, 'flw1': 0.0, 'flw0': 2.99, 'time': 15.45, 'compass': -143.24, 'pitch': 3.9, 'roll': 2.64}
{'lipoC2': 0.09, 'temp': 0.0, 'lipoC3S3': 11.88, 'state': 'normal', 'rot1': 73, 'rot0': 124, 'rot3': 0, 'rot2': 0, 'depth': -1.743, 'yaw': -125.6, 'datetime': '2018-12-18 20:40:07.849879', 'mgs': 0, 'flw2': 0.9, 'flw1': 0.35, 'flw0': 2.72, 'time': 15.66, 'compass': -142.61, 'pitch': 3.68, 'roll': 2.7}
{'lipoC2': 0.15, 'temp': 0.0, 'lipoC3S3': 11.72, 'state': 'normal', 'rot1': 76, 'rot0': 126, 'rot3': 0, 'rot2': 0, 'depth': 0.775, 'yaw': -127.29, 'datetime': '2018-12-18 20:40:08.060436', 'mgs': 0, 'flw2': 0.74, 'flw1': 0.0, 'flw0': 2.94, 'time': 15.87, 'compass': -144.29, 'pitch': 2.39, 'roll': 2.53}
{'lipoC2': 0.13, 'temp': 0.0, 'lipoC3S3': 11.71, 'state': 'normal', 'rot1': 79, 'rot0': 127, 'rot3': 0, 'rot2': 0, 'depth': 0.317, 'yaw': -130.41, 'datetime': '2018-12-18 20:40:08.269601', 'mgs': 0, 'flw2': 0.85, 'flw1': 0.21, 'flw0': 2.67, 'time': 16.08, 'compass': -147.41, 'pitch': 2.14, 'roll': 2.16}
{'lipoC2': 0.11, 'temp': 0.0, 'lipoC3S3': 11.69, 'state': 'normal', 'rot1': 81, 'rot0': 129, 'rot3': 0, 'rot2': 0, 'depth': 0.394, 'yaw': -133.98, 'datetime': '2018-12-18 20:40:08.477966', 'mgs': 0, 'flw2': 2.78, 'flw1': 0.0, 'flw0': 3.06, 'time': 16.28, 'compass': -150.99, 'pitch': 3.3, 'roll': 1.93}
{'lipoC2': 0.17, 'temp': 0.0, 'lipoC3S3': 11.84, 'state': 'normal', 'rot1': 83, 'rot0': 132, 'rot3': 0, 'rot2': 0, 'depth': -0.293, 'yaw': -136.29, 'datetime': '2018-12-18 20:40:08.687344', 'mgs': 0, 'flw2': 2.72, 'flw1': 0.0, 'flw0': 0.82, 'time': 16.49, 'compass': -153.3, 'pitch': 4.64, 'roll': 2.04}
{'lipoC2': 0.0, 'temp': 0.0, 'lipoC3S3': 12.09, 'state': 'normal', 'rot1': 84, 'rot0': 134, 'rot3': 0, 'rot2': 0, 'depth': 1.767, 'yaw': -136.6, 'datetime': '2018-12-18 20:40:08.897721', 'mgs': 0, 'flw2': 2.83, 'flw1': 0.32, 'flw0': 0.65, 'time': 16.7, 'compass': -153.61, 'pitch': 4.07, 'roll': 2.54}
{'lipoC2': 0.0, 'temp': 0.0, 'lipoC3S3': 12.1, 'state': 'normal', 'rot1': 86, 'rot0': 137, 'rot3': 0, 'rot2': 0, 'depth': 1.767, 'yaw': -135.41, 'datetime': '2018-12-18 20:40:09.108660', 'mgs': 0, 'flw2': 2.7, 'flw1': 0.35, 'flw0': 0.61, 'time': 16.91, 'compass': -152.41, 'pitch': 2.54, 'roll': 3.15}
{'lipoC2': 0.16, 'temp': 0.0, 'lipoC3S3': 11.81, 'state': 'normal', 'rot1': 87, 'rot0': 139, 'rot3': 0, 'rot2': 0, 'depth': 1.233, 'yaw': -133.19, 'datetime': '2018-12-18 20:40:09.317334', 'mgs': 0, 'flw2': 2.77, 'flw1': 0.29, 'flw0': 0.61, 'time': 17.12, 'compass': -150.19, 'pitch': 2.31, 'roll': 3.51}
{'lipoC2': 0.14, 'temp': 0.0, 'lipoC3S3': 11.89, 'state': 'normal', 'rot1': 89, 'rot0': 141, 'rot3': 0, 'rot2': 0, 'depth': -1.361, 'yaw': -130.1, 'datetime': '2018-12-18 20:40:09.526630', 'mgs': 0, 'flw2': 2.83, 'flw1': 0.0, 'flw0': 0.84, 'time': 17.33, 'compass': -147.11, 'pitch': 2.85, 'roll': 3.66}
{'lipoC2': 0.0, 'temp': 0.0, 'lipoC3S3': 11.71, 'state': 'normal', 'rot1': 91, 'rot0': 144, 'rot3': 0, 'rot2': 0, 'depth': -0.98, 'yaw': -126.97, 'datetime': '2018-12-18 20:40:09.735090', 'mgs': 0, 'flw2': 2.91, 'flw1': 0.03, 'flw0': 2.67, 'time': 17.54, 'compass': -143.98, 'pitch': 3.01, 'roll': 3.63}
{'lipoC2': 0.09, 'temp': 0.0, 'lipoC3S3': 12.01, 'state': 'normal', 'rot1': 93, 'rot0': 146, 'rot3': 0, 'rot2': 0, 'depth': -1.59, 'yaw': -125.28, 'datetime': '2018-12-18 20:40:09.941231', 'mgs': 0, 'flw2': 0.73, 'flw1': 0.0, 'flw0': 2.83, 'time': 17.75, 'compass': -142.28, 'pitch': 3.1, 'roll': 3.53}
{'lipoC2': 0.0, 'temp': 0.0, 'lipoC3S3': 12.1, 'state': 'normal', 'rot1': 95, 'rot0': 147, 'rot3': 0, 'rot2': 0, 'depth': -0.14, 'yaw': -125.47, 'datetime': '2018-12-18 20:40:10.151500', 'mgs': 0, 'flw2': 0.84, 'flw1': 0.23, 'flw0': 2.7, 'time': 17.96, 'compass': -142.48, 'pitch': 2.37, 'roll': 3.15}
{'lipoC2': 0.03, 'temp': 0.0, 'lipoC3S3': 11.71, 'state': 'normal', 'rot1': 97, 'rot0': 148, 'rot3': 0, 'rot2': 0, 'depth': 0.089, 'yaw': -127.48, 'datetime': '2018-12-18 20:40:10.361502', 'mgs': 0, 'flw2': 0.0, 'flw1': 0.0, 'flw0': 0.23, 'time': 18.17, 'compass': -144.49, 'pitch': 1.84, 'roll': 2.34}
{'lipoC2': 0.0, 'temp': 0.0, 'lipoC3S3': 12.1, 'state': 'normal', 'rot1': 97, 'rot0': 148, 'rot3': 0, 'rot2': 0, 'depth': 1.538, 'yaw': -129.38, 'datetime': '2018-12-18 20:40:10.570899', 'mgs': 0, 'flw2': 0.02, 'flw1': 0.0, 'flw0': 0.17, 'time': 18.38, 'compass': -146.38, 'pitch': 0.71, 'roll': 1.85}
{'lipoC2': 0.0, 'temp': 0.0, 'lipoC3S3': 11.83, 'state': 'normal', 'rot1': 97, 'rot0': 148, 'rot3': 0, 'rot2': 0, 'depth': -0.293, 'yaw': -130.58, 'datetime': '2018-12-18 20:40:10.781585', 'mgs': 0, 'flw2': 0.0, 'flw1': 0.47, 'flw0': 0.0, 'time': 18.59, 'compass': -147.59, 'pitch': -0.36, 'roll': 2.06}
{'lipoC2': 0.16, 'temp': 0.0, 'lipoC3S3': 11.85, 'state': 'normal', 'rot1': 98, 'rot0': 148, 'rot3': 0, 'rot2': 0, 'depth': 1.843, 'yaw': -131.42, 'datetime': '2018-12-18 20:40:10.986539', 'mgs': 0, 'flw2': 3.28, 'flw1': 0.12, 'flw0': 2.95, 'time': 18.8, 'compass': -148.43, 'pitch': -0.17, 'roll': 2.67}
{'lipoC2': 0.0, 'temp': 0.0, 'lipoC3S3': 12.12, 'state': 'normal', 'rot1': 100, 'rot0': 151, 'rot3': 0, 'rot2': 0, 'depth': 1.996, 'yaw': -131.68, 'datetime': '2018-12-18 20:40:11.196193', 'mgs': 0, 'flw2': 2.86, 'flw1': 0.0, 'flw0': 0.38, 'time': 19.01, 'compass': -148.69, 'pitch': 1.92, 'roll': 3.1}
{'lipoC2': 0.0, 'temp': 0.0, 'lipoC3S3': 12.04, 'state': 'normal', 'rot1': 101, 'rot0': 153, 'rot3': 1, 'rot2': 1, 'depth': 1.462, 'yaw': -130.13, 'datetime': '2018-12-18 20:40:11.407269', 'mgs': 0, 'flw2': 2.37, 'flw1': 3.52, 'flw0': 0.87, 'time': 19.22, 'compass': -147.13, 'pitch': 3.56, 'roll': 3.11}
{'lipoC2': 0.0, 'temp': 0.0, 'lipoC3S3': 12.06, 'state': 'normal', 'rot1': 103, 'rot0': 156, 'rot3': 2, 'rot2': 2, 'depth': 1.538, 'yaw': -127.32, 'datetime': '2018-12-18 20:40:11.619382', 'mgs': 0, 'flw2': 2.45, 'flw1': 0.06, 'flw0': 0.93, 'time': 19.43, 'compass': -144.32, 'pitch': 3.59, 'roll': 2.8}
{'lipoC2': 0.06, 'temp': 0.0, 'lipoC3S3': 11.69, 'state': 'normal', 'rot1': 105, 'rot0': 158, 'rot3': 2, 'rot2': 2, 'depth': 0.165, 'yaw': -123.98, 'datetime': '2018-12-18 20:40:11.830795', 'mgs': 0, 'flw2': 2.4, 'flw1': 0.15, 'flw0': 3.08, 'time': 19.64, 'compass': -140.99, 'pitch': 3.13, 'roll': 2.8}
{'lipoC2': 0.0, 'temp': 0.0, 'lipoC3S3': 12.08, 'state': 'normal', 'rot1': 108, 'rot0': 161, 'rot3': 2, 'rot2': 2, 'depth': 2.072, 'yaw': -121.84, 'datetime': '2018-12-18 20:40:12.039254', 'mgs': 0, 'flw2': 0.74, 'flw1': 0.0, 'flw0': 2.6, 'time': 19.85, 'compass': -138.84, 'pitch': 3.51, 'roll': 2.98}
{'lipoC2': 0.1, 'temp': 0.0, 'lipoC3S3': 11.92, 'state': 'normal', 'rot1': 110, 'rot0': 162, 'rot3': 2, 'rot2': 2, 'depth': 1.843, 'yaw': -121.93, 'datetime': '2018-12-18 20:40:12.249880', 'mgs': 0, 'flw2': 0.93, 'flw1': 0.0, 'flw0': 2.7, 'time': 20.06, 'compass': -138.93, 'pitch': 3.55, 'roll': 3.03}
{'lipoC2': 0.12, 'temp': 0.0, 'lipoC3S3': 11.71, 'state': 'normal', 'rot1': 112, 'rot0': 163, 'rot3': 2, 'rot2': 2, 'depth': 1.004, 'yaw': -124.13, 'datetime': '2018-12-18 20:40:12.458259', 'mgs': 0, 'flw2': 0.87, 'flw1': 0.0, 'flw0': 2.49, 'time': 20.26, 'compass': -141.13, 'pitch': 3.33, 'roll': 3.09}
{'lipoC2': 0.1, 'temp': 0.0, 'lipoC3S3': 11.69, 'state': 'normal', 'rot1': 115, 'rot0': 164, 'rot3': 2, 'rot2': 2, 'depth': 0.165, 'yaw': -127.35, 'datetime': '2018-12-18 20:40:12.668836', 'mgs': 0, 'flw2': 0.66, 'flw1': 0.0, 'flw0': 3.03, 'time': 20.47, 'compass': -144.35, 'pitch': 3.16, 'roll': 2.97}
{'lipoC2': 0.0, 'temp': 0.0, 'lipoC3S3': 12.04, 'state': 'normal', 'rot1': 117, 'rot0': 166, 'rot3': 2, 'rot2': 2, 'depth': 1.462, 'yaw': -131.64, 'datetime': '2018-12-18 20:40:12.878814', 'mgs': 0, 'flw2': 0.92, 'flw1': 0.23, 'flw0': 3.0, 'time': 20.68, 'compass': -148.65, 'pitch': 2.95, 'roll': 2.58}
{'lipoC2': 0.0, 'temp': 0.0, 'lipoC3S3': 11.8, 'state': 'normal', 'rot1': 119, 'rot0': 168, 'rot3': 2, 'rot2': 2, 'depth': -0.293, 'yaw': -135.5, 'datetime': '2018-12-18 20:40:13.089539', 'mgs': 0, 'flw2': 2.69, 'flw1': 0.0, 'flw0': 0.93, 'time': 20.89, 'compass': -152.5, 'pitch': 2.72, 'roll': 2.45}
{'lipoC2': 0.1, 'temp': 0.0, 'lipoC3S3': 11.9, 'state': 'normal', 'rot1': 121, 'rot0': 170, 'rot3': 2, 'rot2': 2, 'depth': 1.843, 'yaw': -136.41, 'datetime': '2018-12-18 20:40:13.299457', 'mgs': 0, 'flw2': 2.6, 'flw1': 0.47, 'flw0': 0.74, 'time': 21.1, 'compass': -153.42, 'pitch': 2.67, 'roll': 3.1}
{'lipoC2': 0.0, 'temp': 0.0, 'lipoC3S3': 12.12, 'state': 'normal', 'rot1': 122, 'rot0': 173, 'rot3': 2, 'rot2': 2, 'depth': 1.767, 'yaw': -135.6, 'datetime': '2018-12-18 20:40:13.508239', 'mgs': 0, 'flw2': 2.87, 'flw1': 0.09, 'flw0': 0.49, 'time': 21.31, 'compass': -152.6, 'pitch': 2.71, 'roll': 3.69}
{'lipoC2': 0.0, 'temp': 0.0, 'lipoC3S3': 12.01, 'state': 'normal', 'rot1': 123, 'rot0': 175, 'rot3': 2, 'rot2': 2, 'depth': 1.385, 'yaw': -133.69, 'datetime': '2018-12-18 20:40:13.717427', 'mgs': 0, 'flw2': 2.48, 'flw1': 0.32, 'flw0': 0.84, 'time': 21.52, 'compass': -150.7, 'pitch': 2.84, 'roll': 3.91}
{'lipoC2': 0.0, 'temp': 0.0, 'lipoC3S3': 12.1, 'state': 'normal', 'rot1': 125, 'rot0': 178, 'rot3': 2, 'rot2': 2, 'depth': 2.148, 'yaw': -130.98, 'datetime': '2018-12-18 20:40:13.926105', 'mgs': 0, 'flw2': 2.95, 'flw1': 0.0, 'flw0': 0.39, 'time': 21.73, 'compass': -147.98, 'pitch': 3.03, 'roll': 3.98}
{'lipoC2': 0.11, 'temp': 0.0, 'lipoC3S3': 11.9, 'state': 'normal', 'rot1': 127, 'rot0': 181, 'rot3': 2, 'rot2': 2, 'depth': -1.437, 'yaw': -127.69, 'datetime': '2018-12-18 20:40:14.135999', 'mgs': 0, 'flw2': 2.72, 'flw1': 5.01, 'flw0': 0.74, 'time': 21.94, 'compass': -144.69, 'pitch': 3.25, 'roll': 4.11}
{'lipoC2': 0.19, 'temp': 0.0, 'lipoC3S3': 11.77, 'state': 'normal', 'rot1': 129, 'rot0': 184, 'rot3': 3, 'rot2': 3, 'depth': -0.98, 'yaw': -124.23, 'datetime': '2018-12-18 20:40:14.348595', 'mgs': 0, 'flw2': 0.13, 'flw1': 0.32, 'flw0': 0.0, 'time': 22.15, 'compass': -141.24, 'pitch': 3.74, 'roll': 3.73}
{'lipoC2': 0.0, 'temp': 0.0, 'lipoC3S3': 11.83, 'state': 'normal', 'rot1': 129, 'rot0': 184, 'rot3': 3, 'rot2': 3, 'depth': 0.089, 'yaw': -121.77, 'datetime': '2018-12-18 20:40:14.556838', 'mgs': 0, 'flw2': 0.24, 'flw1': 0.21, 'flw0': 0.0, 'time': 22.36, 'compass': -138.77, 'pitch': 2.1, 'roll': 3.04}
{'lipoC2': 0.01, 'temp': 0.0, 'lipoC3S3': 11.76, 'state': 'normal', 'rot1': 129, 'rot0': 184, 'rot3': 3, 'rot2': 3, 'depth': -0.064, 'yaw': -119.56, 'datetime': '2018-12-18 20:40:14.766517', 'mgs': 0, 'flw2': 0.07, 'flw1': 0.0, 'flw0': 0.05, 'time': 22.57, 'compass': -136.56, 'pitch': -0.15, 'roll': 2.57}
{'lipoC2': 0.0, 'temp': 0.0, 'lipoC3S3': 11.88, 'state': 'normal', 'rot1': 129, 'rot0': 184, 'rot3': 3, 'rot2': 3, 'depth': 0.699, 'yaw': -117.5, 'datetime': '2018-12-18 20:40:14.974792', 'mgs': 0, 'flw2': 0.13, 'flw1': 0.0, 'flw0': 0.1, 'time': 22.78, 'compass': -134.51, 'pitch': -0.21, 'roll': 2.49}
{'lipoC2': 0.0, 'temp': 0.0, 'lipoC3S3': 12.06, 'state': 'normal', 'rot1': 129, 'rot0': 184, 'rot3': 3, 'rot2': 3, 'depth': 1.538, 'yaw': -115.66, 'datetime': '2018-12-18 20:40:15.184442', 'mgs': 0, 'flw2': 0.0, 'flw1': 0.35, 'flw0': 0.15, 'time': 22.99, 'compass': -132.66, 'pitch': 0.95, 'roll': 2.68}
{'lipoC2': 0.03, 'temp': 0.0, 'lipoC3S3': 11.94, 'state': 'normal', 'rot1': 129, 'rot0': 184, 'rot3': 3, 'rot2': 3, 'depth': -1.361, 'yaw': -113.88, 'datetime': '2018-12-18 20:40:15.397173', 'mgs': 0, 'flw2': 0.0, 'flw1': 0.35, 'flw0': 0.0, 'time': 23.2, 'compass': -130.89, 'pitch': 1.47, 'roll': 3.06}
{'lipoC2': 0.0, 'temp': 0.0, 'lipoC3S3': 11.81, 'state': 'normal', 'rot1': 129, 'rot0': 184, 'rot3': 3, 'rot2': 3, 'depth': 1.08, 'yaw': -112.28, 'datetime': '2018-12-18 20:40:15.606959', 'mgs': 0, 'flw2': 0.1, 'flw1': 0.44, 'flw0': 0.0, 'time': 23.41, 'compass': -129.28, 'pitch': 1.25, 'roll': 3.5}
{'lipoC2': 0.09, 'temp': 0.0, 'lipoC3S3': 11.93, 'state': 'normal', 'rot1': 129, 'rot0': 184, 'rot3': 3, 'rot2': 3, 'depth': -1.971, 'yaw': -110.83, 'datetime': '2018-12-18 20:40:15.816703', 'mgs': 0, 'flw2': 0.21, 'flw1': 0.0, 'flw0': 0.0, 'time': 23.62, 'compass': -127.83, 'pitch': 1.15, 'roll': 3.73}
{'lipoC2': 0.03, 'temp': 0.0, 'lipoC3S3': 11.98, 'state': 'normal', 'rot1': 129, 'rot0': 184, 'rot3': 3, 'rot2': 3, 'depth': -1.59, 'yaw': -109.57, 'datetime': '2018-12-18 20:40:16.025366', 'mgs': 0, 'flw2': 0.17, 'flw1': 0.0, 'flw0': 0.0, 'time': 23.83, 'compass': -126.58, 'pitch': 1.5, 'roll': 3.7}
{'lipoC2': 0.0, 'temp': 0.0, 'lipoC3S3': 11.89, 'state': 'normal', 'rot1': 129, 'rot0': 184, 'rot3': 3, 'rot2': 3, 'depth': -0.064, 'yaw': -108.4, 'datetime': '2018-12-18 20:40:16.235036', 'mgs': 0, 'flw2': 0.12, 'flw1': 0.0, 'flw0': 0.07, 'time': 24.03, 'compass': -125.4, 'pitch': 1.98, 'roll': 3.57}
{'lipoC2': 0.05, 'temp': 0.0, 'lipoC3S3': 11.71, 'state': 'normal', 'rot1': 129, 'rot0': 184, 'rot3': 3, 'rot2': 3, 'depth': 0.241, 'yaw': -107.4, 'datetime': '2018-12-18 20:40:16.444701', 'mgs': 0, 'flw2': 0.17, 'flw1': 0.03, 'flw0': 0.0, 'time': 24.24, 'compass': -124.41, 'pitch': 2.19, 'roll': 3.34}
{'lipoC2': 0.16, 'temp': 0.0, 'lipoC3S3': 11.87, 'state': 'normal', 'rot1': 129, 'rot0': 184, 'rot3': 3, 'rot2': 3, 'depth': -0.903, 'yaw': -106.41, 'datetime': '2018-12-18 20:40:16.655335', 'mgs': 0, 'flw2': 0.0, 'flw1': 0.41, 'flw0': 0.0, 'time': 24.45, 'compass': -123.41, 'pitch': 2.05, 'roll': 3.29}
{'lipoC2': 0.14, 'temp': 0.0, 'lipoC3S3': 11.75, 'state': 'normal', 'rot1': 129, 'rot0': 184, 'rot3': 3, 'rot2': 3, 'depth': 0.546, 'yaw': -105.54, 'datetime': '2018-12-18 20:40:16.865481', 'mgs': 0, 'flw2': 0.0, 'flw1': 0.44, 'flw0': 0.0, 'time': 24.67, 'compass': -122.54, 'pitch': 1.79, 'roll': 3.38}
{'lipoC2': 0.02, 'temp': 0.0, 'lipoC3S3': 11.98, 'state': 'normal', 'rot1': 129, 'rot0': 184, 'rot3': 3, 'rot2': 3, 'depth': -1.361, 'yaw': -104.83, 'datetime': '2018-12-18 20:40:17.080644', 'mgs': 0, 'flw2': 0.0, 'flw1': 0.41, 'flw0': 0.12, 'time': 24.87, 'compass': -121.84, 'pitch': 1.79, 'roll': 3.35}
{'lipoC2': 0.0, 'temp': 0.0, 'lipoC3S3': 12.1, 'state': 'normal', 'rot1': 130, 'rot0': 185, 'rot3': 3, 'rot2': 3, 'depth': -1.819, 'yaw': -103.69, 'datetime': '2018-12-18 20:40:17.282306', 'mgs': 0, 'flw2': 0.39, 'flw1': 0.47, 'flw0': 0.62, 'time': 25.08, 'compass': -120.69, 'pitch': 1.98, 'roll': 3.49}
{'lipoC2': 0.14, 'temp': 0.0, 'lipoC3S3': 11.87, 'state': 'normal', 'rot1': 132, 'rot0': 186, 'rot3': 3, 'rot2': 3, 'depth': -2.2, 'yaw': -101.46, 'datetime': '2018-12-18 20:40:17.490919', 'mgs': 0, 'flw2': 0.48, 'flw1': 0.0, 'flw0': 0.68, 'time': 25.29, 'compass': -118.47, 'pitch': 2.33, 'roll': 3.87}
{'lipoC2': 0.13, 'temp': 0.0, 'lipoC3S3': 11.89, 'state': 'normal', 'rot1': 134, 'rot0': 187, 'rot3': 3, 'rot2': 3, 'depth': -1.666, 'yaw': -98.76, 'datetime': '2018-12-18 20:40:17.703083', 'mgs': 0, 'flw2': 0.1, 'flw1': 0.0, 'flw0': 0.4, 'time': 25.5, 'compass': -115.76, 'pitch': 2.53, 'roll': 4.11}
{'lipoC2': 0.04, 'temp': 0.0, 'lipoC3S3': 11.69, 'state': 'normal', 'rot1': 135, 'rot0': 188, 'rot3': 3, 'rot2': 3, 'depth': 1.385, 'yaw': -95.71, 'datetime': '2018-12-18 20:40:17.911916', 'mgs': 0, 'flw2': 0.28, 'flw1': 0.0, 'flw0': 0.59, 'time': 25.71, 'compass': -112.71, 'pitch': 2.5, 'roll': 4.03}
{'lipoC2': 0.0, 'temp': 0.0, 'lipoC3S3': 12.02, 'state': 'normal', 'rot1': 136, 'rot0': 189, 'rot3': 3, 'rot2': 3, 'depth': 1.462, 'yaw': -92.51, 'datetime': '2018-12-18 20:40:18.121732', 'mgs': 0, 'flw2': 0.0, 'flw1': 0.23, 'flw0': 0.57, 'time': 25.92, 'compass': -109.51, 'pitch': 2.43, 'roll': 3.7}
{'lipoC2': 0.02, 'temp': 0.0, 'lipoC3S3': 12.02, 'state': 'normal', 'rot1': 137, 'rot0': 189, 'rot3': 3, 'rot2': 3, 'depth': -0.217, 'yaw': -89.17, 'datetime': '2018-12-18 20:40:18.331261', 'mgs': 0, 'flw2': 0.04, 'flw1': 0.12, 'flw0': 0.6, 'time': 26.13, 'compass': -106.18, 'pitch': 2.62, 'roll': 3.15}
{'lipoC2': 0.17, 'temp': 0.0, 'lipoC3S3': 11.76, 'state': 'normal', 'rot1': 138, 'rot0': 190, 'rot3': 3, 'rot2': 3, 'depth': 0.928, 'yaw': -85.7, 'datetime': '2018-12-18 20:40:18.542267', 'mgs': 0, 'flw2': 0.49, 'flw1': 0.23, 'flw0': 0.15, 'time': 26.34, 'compass': -102.7, 'pitch': 3.08, 'roll': 2.74}
{'lipoC2': 0.03, 'temp': 0.0, 'lipoC3S3': 11.72, 'state': 'normal', 'rot1': 139, 'rot0': 191, 'rot3': 3, 'rot2': 3, 'depth': 1.385, 'yaw': -82.07, 'datetime': '2018-12-18 20:40:18.751876', 'mgs': 0, 'flw2': 0.32, 'flw1': 0.0, 'flw0': 0.59, 'time': 26.55, 'compass': -99.07, 'pitch': 3.23, 'roll': 2.76}
{'lipoC2': 0.04, 'temp': 0.0, 'lipoC3S3': 11.71, 'state': 'normal', 'rot1': 140, 'rot0': 192, 'rot3': 3, 'rot2': 3, 'depth': 0.089, 'yaw': -78.44, 'datetime': '2018-12-18 20:40:18.965038', 'mgs': 0, 'flw2': 0.56, 'flw1': 0.0, 'flw0': 0.05, 'time': 26.76, 'compass': -95.45, 'pitch': 3.07, 'roll': 3.06}
{'lipoC2': 0.0, 'temp': 0.0, 'lipoC3S3': 12.04, 'state': 'normal', 'rot1': 141, 'rot0': 193, 'rot3': 3, 'rot2': 3, 'depth': 1.309, 'yaw': -74.54, 'datetime': '2018-12-18 20:40:19.172941', 'mgs': 0, 'flw2': 0.02, 'flw1': 0.18, 'flw0': 0.52, 'time': 26.97, 'compass': -91.54, 'pitch': 2.99, 'roll': 3.37}
{'lipoC2': 0.06, 'temp': 0.0, 'lipoC3S3': 11.93, 'state': 'normal', 'rot1': 142, 'rot0': 194, 'rot3': 3, 'rot2': 3, 'depth': -1.819, 'yaw': -70.54, 'datetime': '2018-12-18 20:40:19.386215', 'mgs': 0, 'flw2': 0.56, 'flw1': 0.0, 'flw0': 0.22, 'time': 27.18, 'compass': -87.55, 'pitch': 3.2, 'roll': 3.43}
{'lipoC2': 0.18, 'temp': 0.0, 'lipoC3S3': 11.83, 'state': 'normal', 'rot1': 143, 'rot0': 195, 'rot3': 3, 'rot2': 3, 'depth': -2.505, 'yaw': -66.44, 'datetime': '2018-12-18 20:40:19.594890', 'mgs': 0, 'flw2': 0.61, 'flw1': 0.15, 'flw0': 0.0, 'time': 27.39, 'compass': -83.44, 'pitch': 3.43, 'roll': 3.12}
{'lipoC2': 0.04, 'temp': 0.0, 'lipoC3S3': 11.97, 'state': 'normal', 'rot1': 145, 'rot0': 196, 'rot3': 3, 'rot2': 3, 'depth': 1.843, 'yaw': -62.19, 'datetime': '2018-12-18 20:40:19.805130', 'mgs': 0, 'flw2': 0.51, 'flw1': 0.0, 'flw0': 0.05, 'time': 27.59, 'compass': -79.19, 'pitch': 3.53, 'roll': 2.56}
{'lipoC2': 0.15, 'temp': 0.0, 'lipoC3S3': 11.89, 'state': 'normal', 'rot1': 146, 'rot0': 197, 'rot3': 3, 'rot2': 3, 'depth': -1.208, 'yaw': -58.03, 'datetime': '2018-12-18 20:40:20.015062', 'mgs': 0, 'flw2': 0.34, 'flw1': 0.5, 'flw0': 0.32, 'time': 27.8, 'compass': -75.04, 'pitch': 3.37, 'roll': 2.14}
{'lipoC2': 0.0, 'temp': 0.0, 'lipoC3S3': 12.09, 'state': 'normal', 'rot1': 147, 'rot0': 198, 'rot3': 3, 'rot2': 3, 'depth': 1.538, 'yaw': -53.55, 'datetime': '2018-12-18 20:40:20.223317', 'mgs': 0, 'flw2': 0.31, 'flw1': 0.0, 'flw0': 0.6, 'time': 28.01, 'compass': -70.56, 'pitch': 3.38, 'roll': 1.92}
{'lipoC2': 0.16, 'temp': 0.0, 'lipoC3S3': 11.85, 'state': 'normal', 'rot1': 148, 'rot0': 199, 'rot3': 3, 'rot2': 3, 'depth': -0.751, 'yaw': -48.87, 'datetime': '2018-12-18 20:40:20.434599', 'mgs': 0, 'flw2': 0.34, 'flw1': 0.0, 'flw0': 0.57, 'time': 28.22, 'compass': -65.87, 'pitch': 3.54, 'roll': 1.75}
{'lipoC2': 0.11, 'temp': 0.0, 'lipoC3S3': 11.92, 'state': 'normal', 'rot1': 149, 'rot0': 200, 'rot3': 3, 'rot2': 3, 'depth': -1.819, 'yaw': -43.94, 'datetime': '2018-12-18 20:40:20.643056', 'mgs': 0, 'flw2': 0.59, 'flw1': 0.0, 'flw0': 0.23, 'time': 28.43, 'compass': -60.95, 'pitch': 3.63, 'roll': 1.61}
{'lipoC2': 0.0, 'temp': 0.0, 'lipoC3S3': 12.06, 'state': 'normal', 'rot1': 149, 'rot0': 201, 'rot3': 3, 'rot2': 3, 'depth': 1.385, 'yaw': -38.78, 'datetime': '2018-12-18 20:40:20.852373', 'mgs': 0, 'flw2': 0.32, 'flw1': 0.0, 'flw0': 0.6, 'time': 28.64, 'compass': -55.78, 'pitch': 3.54, 'roll': 1.59}
{'lipoC2': 0.11, 'temp': 0.0, 'lipoC3S3': 11.92, 'state': 'normal', 'rot1': 150, 'rot0': 201, 'rot3': 3, 'rot2': 3, 'depth': -2.124, 'yaw': -33.65, 'datetime': '2018-12-18 20:40:21.061249', 'mgs': 0, 'flw2': 0.21, 'flw1': 0.0, 'flw0': 0.0, 'time': 28.85, 'compass': -50.65, 'pitch': 3.61, 'roll': 1.51}
{'lipoC2': 0.01, 'temp': 0.0, 'lipoC3S3': 11.72, 'state': 'normal', 'rot1': 150, 'rot0': 201, 'rot3': 3, 'rot2': 3, 'depth': -0.14, 'yaw': -29.25, 'datetime': '2018-12-18 20:40:21.270830', 'mgs': 0, 'flw2': 0.63, 'flw1': 0.06, 'flw0': 3.6, 'time': 29.06, 'compass': -46.26, 'pitch': 3.72, 'roll': 1.24}
{'lipoC2': 0.12, 'temp': 0.0, 'lipoC3S3': 11.92, 'state': 'normal', 'rot1': 153, 'rot0': 203, 'rot3': 3, 'rot2': 3, 'depth': -1.666, 'yaw': -26.44, 'datetime': '2018-12-18 20:40:21.479990', 'mgs': 0, 'flw2': 0.95, 'flw1': 0.0, 'flw0': 2.77, 'time': 29.27, 'compass': -43.44, 'pitch': 4.9, 'roll': 0.77}
{'lipoC2': 0.0, 'temp': 0.0, 'lipoC3S3': 12.12, 'state': 'normal', 'rot1': 155, 'rot0': 204, 'rot3': 3, 'rot2': 3, 'depth': 1.92, 'yaw': -25.92, 'datetime': '2018-12-18 20:40:21.689863', 'mgs': 0, 'flw2': 0.87, 'flw1': 0.26, 'flw0': 2.54, 'time': 29.48, 'compass': -42.92, 'pitch': 6.14, 'roll': 0.43}
{'lipoC2': 0.0, 'temp': 0.0, 'lipoC3S3': 11.76, 'state': 'normal', 'rot1': 157, 'rot0': 205, 'rot3': 3, 'rot2': 3, 'depth': -1.132, 'yaw': -27.18, 'datetime': '2018-12-18 20:40:21.900746', 'mgs': 0, 'flw2': 0.82, 'flw1': 3.49, 'flw0': 2.62, 'time': 29.68, 'compass': -44.18, 'pitch': 6.24, 'roll': 0.37}
{'lipoC2': 0.05, 'temp': 0.0, 'lipoC3S3': 11.69, 'state': 'normal', 'rot1': 159, 'rot0': 206, 'rot3': 4, 'rot2': 4, 'depth': 0.089, 'yaw': -30.03, 'datetime': '2018-12-18 20:40:22.106089', 'mgs': 0, 'flw2': 0.68, 'flw1': 0.0, 'flw0': 3.03, 'time': 29.9, 'compass': -47.03, 'pitch': 6.04, 'roll': 0.24}
{'lipoC2': 0.1, 'temp': 0.0, 'lipoC3S3': 11.71, 'state': 'normal', 'rot1': 162, 'rot0': 208, 'rot3': 4, 'rot2': 4, 'depth': 0.241, 'yaw': -33.68, 'datetime': '2018-12-18 20:40:22.316803', 'mgs': 0, 'flw2': 0.71, 'flw1': 0.0, 'flw0': 2.91, 'time': 30.1, 'compass': -50.68, 'pitch': 5.46, 'roll': 0.12}
{'lipoC2': 0.16, 'temp': 0.0, 'lipoC3S3': 11.85, 'state': 'normal', 'rot1': 164, 'rot0': 209, 'rot3': 4, 'rot2': 4, 'depth': 1.614, 'yaw': -38.19, 'datetime': '2018-12-18 20:40:22.521696', 'mgs': 0, 'flw2': 3.0, 'flw1': 0.47, 'flw0': 2.62, 'time': 30.31, 'compass': -55.19, 'pitch': 4.69, 'roll': 0.2}
{'lipoC2': 0.09, 'temp': 0.0, 'lipoC3S3': 11.69, 'state': 'normal', 'rot1': 166, 'rot0': 212, 'rot3': 4, 'rot2': 4, 'depth': 1.157, 'yaw': -41.79, 'datetime': '2018-12-18 20:40:22.731198', 'mgs': 0, 'flw2': 2.95, 'flw1': 0.0, 'flw0': 2.49, 'time': 30.52, 'compass': -58.8, 'pitch': 5.28, 'roll': 0.68}
{'lipoC2': 0.16, 'temp': 0.0, 'lipoC3S3': 11.87, 'state': 'normal', 'rot1': 168, 'rot0': 214, 'rot3': 4, 'rot2': 4, 'depth': 1.233, 'yaw': -43.69, 'datetime': '2018-12-18 20:40:22.943017', 'mgs': 0, 'flw2': 3.03, 'flw1': 0.0, 'flw0': 0.77, 'time': 30.73, 'compass': -60.7, 'pitch': 6.16, 'roll': 1.38}
{'lipoC2': 0.1, 'temp': 0.0, 'lipoC3S3': 11.92, 'state': 'normal', 'rot1': 169, 'rot0': 216, 'rot3': 4, 'rot2': 4, 'depth': 1.843, 'yaw': -43.35, 'datetime': '2018-12-18 20:40:23.156104', 'mgs': 0, 'flw2': 2.91, 'flw1': 0.0, 'flw0': 0.59, 'time': 30.94, 'compass': -60.36, 'pitch': 5.96, 'roll': 2.08}
{'lipoC2': 0.01, 'temp': 0.0, 'lipoC3S3': 11.72, 'state': 'normal', 'rot1': 170, 'rot0': 219, 'rot3': 4, 'rot2': 4, 'depth': -0.14, 'yaw': -41.7, 'datetime': '2018-12-18 20:40:23.362888', 'mgs': 0, 'flw2': 2.7, 'flw1': 0.0, 'flw0': 0.96, 'time': 31.15, 'compass': -58.71, 'pitch': 5.35, 'roll': 2.46}
{'lipoC2': 0.0, 'temp': 0.0, 'lipoC3S3': 11.81, 'state': 'normal', 'rot1': 172, 'rot0': 221, 'rot3': 4, 'rot2': 4, 'depth': -0.751, 'yaw': -39.34, 'datetime': '2018-12-18 20:40:23.574245', 'mgs': 0, 'flw2': 2.78, 'flw1': 0.44, 'flw0': 0.67, 'time': 31.36, 'compass': -56.34, 'pitch': 5.1, 'roll': 2.36}
{'lipoC2': 0.15, 'temp': 0.0, 'lipoC3S3': 11.75, 'state': 'normal', 'rot1': 173, 'rot0': 223, 'rot3': 4, 'rot2': 4, 'depth': 0.546, 'yaw': -36.32, 'datetime': '2018-12-18 20:40:23.780053', 'mgs': 0, 'flw2': 2.83, 'flw1': 0.0, 'flw0': 0.98, 'time': 31.57, 'compass': -53.32, 'pitch': 5.21, 'roll': 2.12}
{'lipoC2': 0.0, 'temp': 0.0, 'lipoC3S3': 11.87, 'state': 'normal', 'rot1': 174, 'rot0': 226, 'rot3': 4, 'rot2': 4, 'depth': 1.004, 'yaw': -32.79, 'datetime': '2018-12-18 20:40:23.992276', 'mgs': 0, 'flw2': 2.28, 'flw1': 0.23, 'flw0': 0.87, 'time': 31.78, 'compass': -49.79, 'pitch': 5.34, 'roll': 2.2}
{'lipoC2': 0.0, 'temp': 0.0, 'lipoC3S3': 11.77, 'state': 'normal', 'rot1': 176, 'rot0': 227, 'rot3': 4, 'rot2': 4, 'depth': -0.903, 'yaw': -29.8, 'datetime': '2018-12-18 20:40:24.203439', 'mgs': 0, 'flw2': 0.82, 'flw1': 0.0, 'flw0': 2.95, 'time': 31.99, 'compass': -46.81, 'pitch': 5.36, 'roll': 2.25}
{'lipoC2': 0.02, 'temp': 0.0, 'lipoC3S3': 11.72, 'state': 'normal', 'rot1': 179, 'rot0': 228, 'rot3': 4, 'rot2': 4, 'depth': 0.012, 'yaw': -29.83, 'datetime': '2018-12-18 20:40:24.411245', 'mgs': 0, 'flw2': 0.72, 'flw1': 0.0, 'flw0': 2.97, 'time': 32.2, 'compass': -46.83, 'pitch': 5.21, 'roll': 1.95}
{'lipoC2': 0.0, 'temp': 0.0, 'lipoC3S3': 11.79, 'state': 'normal', 'rot1': 181, 'rot0': 230, 'rot3': 4, 'rot2': 4, 'depth': -0.98, 'yaw': -31.53, 'datetime': '2018-12-18 20:40:24.620269', 'mgs': 0, 'flw2': 0.78, 'flw1': 0.35, 'flw0': 2.78, 'time': 32.41, 'compass': -48.53, 'pitch': 4.8, 'roll': 1.52}
{'lipoC2': 0.13, 'temp': 0.0, 'lipoC3S3': 11.71, 'state': 'normal', 'rot1': 183, 'rot0': 231, 'rot3': 4, 'rot2': 4, 'depth': 1.004, 'yaw': -34.32, 'datetime': '2018-12-18 20:40:24.832219', 'mgs': 0, 'flw2': 0.09, 'flw1': 0.41, 'flw0': 0.0, 'time': 32.62, 'compass': -51.32, 'pitch': 4.24, 'roll': 1.27}
{'lipoC2': 0.0, 'temp': 0.0, 'lipoC3S3': 12.1, 'state': 'normal', 'rot1': 183, 'rot0': 231, 'rot3': 4, 'rot2': 4, 'depth': 1.691, 'yaw': -36.7, 'datetime': '2018-12-18 20:40:25.038046', 'mgs': 0, 'flw2': 0.0, 'flw1': 0.0, 'flw0': 0.21, 'time': 32.82, 'compass': -53.7, 'pitch': 2.86, 'roll': 1.53}
{'lipoC2': 0.14, 'temp': 0.0, 'lipoC3S3': 11.89, 'state': 'normal', 'rot1': 183, 'rot0': 231, 'rot3': 4, 'rot2': 4, 'depth': 1.843, 'yaw': -38.2, 'datetime': '2018-12-18 20:40:25.243851', 'mgs': 0, 'flw2': 0.49, 'flw1': 0.0, 'flw0': 0.48, 'time': 33.03, 'compass': -55.2, 'pitch': 1.85, 'roll': 2.16}
{'lipoC2': 0.05, 'temp': 0.0, 'lipoC3S3': 11.71, 'state': 'normal', 'rot1': 185, 'rot0': 232, 'rot3': 4, 'rot2': 4, 'depth': 1.233, 'yaw': -38.47, 'datetime': '2018-12-18 20:40:25.453841', 'mgs': 0, 'flw2': 0.0, 'flw1': 0.18, 'flw0': 0.55, 'time': 33.24, 'compass': -55.47, 'pitch': 2.17, 'roll': 2.71}
{'lipoC2': 0.0, 'temp': 0.0, 'lipoC3S3': 12.09, 'state': 'normal', 'rot1': 186, 'rot0': 233, 'rot3': 4, 'rot2': 4, 'depth': 2.148, 'yaw': -37.91, 'datetime': '2018-12-18 20:40:25.664828', 'mgs': 0, 'flw2': 0.55, 'flw1': 0.03, 'flw0': 0.02, 'time': 33.45, 'compass': -54.91, 'pitch': 2.99, 'roll': 2.91}
{'lipoC2': 0.0, 'temp': 0.0, 'lipoC3S3': 12.1, 'state': 'normal', 'rot1': 187, 'rot0': 234, 'rot3': 4, 'rot2': 4, 'depth': -1.819, 'yaw': -36.79, 'datetime': '2018-12-18 20:40:25.879049', 'mgs': 0, 'flw2': 0.26, 'flw1': 0.0, 'flw0': 0.57, 'time': 33.66, 'compass': -53.8, 'pitch': 3.29, 'roll': 2.67}
{'lipoC2': 0.03, 'temp': 0.0, 'lipoC3S3': 11.71, 'state': 'normal', 'rot1': 188, 'rot0': 235, 'rot3': 4, 'rot2': 4, 'depth': 1.385, 'yaw': -35.21, 'datetime': '2018-12-18 20:40:26.088939', 'mgs': 0, 'flw2': 0.31, 'flw1': 0.0, 'flw0': 0.57, 'time': 33.87, 'compass': -52.21, 'pitch': 3.0, 'roll': 2.33}
{'lipoC2': 0.0, 'temp': 0.0, 'lipoC3S3': 11.92, 'state': 'normal', 'rot1': 189, 'rot0': 236, 'rot3': 4, 'rot2': 4, 'depth': 0.241, 'yaw': -33.17, 'datetime': '2018-12-18 20:40:26.296433', 'mgs': 0, 'flw2': 0.61, 'flw1': 0.0, 'flw0': 0.23, 'time': 34.08, 'compass': -50.17, 'pitch': 2.84, 'roll': 2.19}
{'lipoC2': 0.0, 'temp': 0.0, 'lipoC3S3': 11.73, 'state': 'normal', 'rot1': 189, 'rot0': 236, 'rot3': 4, 'rot2': 4, 'depth': 1.614, 'yaw': -31.02, 'datetime': '2018-12-18 20:40:26.502303', 'mgs': 0, 'flw2': 0.07, 'flw1': 0.38, 'flw0': 0.0, 'time': 34.29, 'compass': -48.02, 'pitch': 3.07, 'roll': 2.09}
{'lipoC2': 0.0, 'temp': 0.0, 'lipoC3S3': 12.1, 'state': 'normal', 'rot1': 189, 'rot0': 236, 'rot3': 4, 'rot2': 4, 'depth': -0.14, 'yaw': -29.12, 'datetime': '2018-12-18 20:40:26.715385', 'mgs': 0, 'flw2': 0.0, 'flw1': 0.0, 'flw0': 0.2, 'time': 34.5, 'compass': -46.12, 'pitch': 3.4, 'roll': 1.98}
{'lipoC2': 0.16, 'temp': 0.0, 'lipoC3S3': 11.88, 'state': 'normal', 'rot1': 189, 'rot0': 236, 'rot3': 4, 'rot2': 4, 'depth': -1.59, 'yaw': -27.45, 'datetime': '2018-12-18 20:40:26.925721', 'mgs': 0, 'flw2': 0.0, 'flw1': 0.56, 'flw0': 0.0, 'time': 34.71, 'compass': -44.45, 'pitch': 3.43, 'roll': 1.88}
{'lipoC2': 0.0, 'temp': 0.0, 'lipoC3S3': 12.09, 'state': 'normal', 'rot1': 191, 'rot0': 238, 'rot3': 4, 'rot2': 4, 'depth': 1.691, 'yaw': -25.98, 'datetime': '2018-12-18 20:40:27.133865', 'mgs': 0, 'flw2': 2.82, 'flw1': 0.0, 'flw0': 3.06, 'time': 34.92, 'compass': -42.99, 'pitch': 3.82, 'roll': 1.79}
{'lipoC2': 0.0, 'temp': 0.0, 'lipoC3S3': 12.1, 'state': 'normal', 'rot1': 193, 'rot0': 240, 'rot3': 4, 'rot2': 4, 'depth': 1.462, 'yaw': -24.77, 'datetime': '2018-12-18 20:40:27.343587', 'mgs': 0, 'flw2': 2.75, 'flw1': 0.0, 'flw0': 2.95, 'time': 35.13, 'compass': -41.77, 'pitch': 6.34, 'roll': 1.69}
{'lipoC2': 0.05, 'temp': 0.0, 'lipoC3S3': 11.96, 'state': 'normal', 'rot1': 196, 'rot0': 242, 'rot3': 4, 'rot2': 4, 'depth': -2.887, 'yaw': -23.75, 'datetime': '2018-12-18 20:40:27.551832', 'mgs': 0, 'flw2': 2.56, 'flw1': 0.35, 'flw0': 2.86, 'time': 35.33, 'compass': -40.75, 'pitch': 7.63, 'roll': 1.77}
{'lipoC2': 0.13, 'temp': 0.0, 'lipoC3S3': 11.68, 'state': 'normal', 'rot1': 198, 'rot0': 245, 'rot3': 4, 'rot2': 4, 'depth': 0.775, 'yaw': -22.99, 'datetime': '2018-12-18 20:40:27.759779', 'mgs': 0, 'flw2': 2.82, 'flw1': 0.0, 'flw0': 2.47, 'time': 35.54, 'compass': -39.99, 'pitch': 7.18, 'roll': 2.03}
{'lipoC2': 0.09, 'temp': 0.0, 'lipoC3S3': 11.93, 'state': 'normal', 'rot1': 201, 'rot0': 247, 'rot3': 4, 'rot2': 4, 'depth': 1.92, 'yaw': -22.36, 'datetime': '2018-12-18 20:40:27.972177', 'mgs': 0, 'flw2': 0.35, 'flw1': 0.41, 'flw0': 2.91, 'time': 35.75, 'compass': -39.37, 'pitch': 6.67, 'roll': 2.16}
{'lipoC2': 0.13, 'temp': 0.0, 'lipoC3S3': 11.71, 'state': 'normal', 'rot1': 203, 'rot0': 248, 'rot3': 4, 'rot2': 4, 'depth': 0.47, 'yaw': -23.07, 'datetime': '2018-12-18 20:40:28.181270', 'mgs': 0, 'flw2': 0.93, 'flw1': 0.03, 'flw0': 2.45, 'time': 35.96, 'compass': -40.07, 'pitch': 6.12, 'roll': 1.88}
{'lipoC2': 0.06, 'temp': 0.0, 'lipoC3S3': 11.94, 'state': 'normal', 'rot1': 205, 'rot0': 250, 'rot3': 4, 'rot2': 4, 'depth': -1.743, 'yaw': -25.15, 'datetime': '2018-12-18 20:40:28.392314', 'mgs': 0, 'flw2': 0.94, 'flw1': 0.0, 'flw0': 2.65, 'time': 36.17, 'compass': -42.15, 'pitch': 5.74, 'roll': 1.31}
{'lipoC2': 0.0, 'temp': 0.0, 'lipoC3S3': 12.05, 'state': 'normal', 'rot1': 208, 'rot0': 251, 'rot3': 4, 'rot2': 4, 'depth': 1.538, 'yaw': -27.99, 'datetime': '2018-12-18 20:40:28.603044', 'mgs': 0, 'flw2': 2.72, 'flw1': 0.41, 'flw0': 2.97, 'time': 36.38, 'compass': -45.0, 'pitch': 5.72, 'roll': 1.05}
{'lipoC2': 0.18, 'temp': 0.0, 'lipoC3S3': 11.83, 'state': 'normal', 'rot1': 210, 'rot0': 253, 'rot3': 4, 'rot2': 4, 'depth': -1.132, 'yaw': -29.9, 'datetime': '2018-12-18 20:40:28.810962', 'mgs': 0, 'flw2': 2.88, 'flw1': 0.23, 'flw0': 2.54, 'time': 36.59, 'compass': -46.91, 'pitch': 6.19, 'roll': 1.39}
{'lipoC2': 0.0, 'temp': 0.0, 'lipoC3S3': 11.96, 'state': 'normal', 'rot1': 213, 'rot0': 256, 'rot3': 4, 'rot2': 4, 'depth': 0.546, 'yaw': -30.97, 'datetime': '2018-12-18 20:40:29.020937', 'mgs': 0, 'flw2': 2.48, 'flw1': 0.38, 'flw0': 2.91, 'time': 36.8, 'compass': -47.97, 'pitch': 6.72, 'roll': 1.85}
{'lipoC2': 0.0, 'temp': 0.0, 'lipoC3S3': 12.12, 'state': 'normal', 'rot1': 215, 'rot0': 258, 'rot3': 4, 'rot2': 4, 'depth': -1.132, 'yaw': -31.69, 'datetime': '2018-12-18 20:40:29.226847', 'mgs': 0, 'flw2': 2.86, 'flw1': 0.18, 'flw0': 0.42, 'time': 37.01, 'compass': -48.69, 'pitch': 6.42, 'roll': 2.02}
{'lipoC2': 0.12, 'temp': 0.0, 'lipoC3S3': 11.9, 'state': 'normal', 'rot1': 216, 'rot0': 260, 'rot3': 4, 'rot2': 4, 'depth': 1.843, 'yaw': -31.04, 'datetime': '2018-12-18 20:40:29.435704', 'mgs': 0, 'flw2': 2.87, 'flw1': 0.0, 'flw0': 0.81, 'time': 37.22, 'compass': -48.05, 'pitch': 5.11, 'roll': 2.2}
{'lipoC2': 0.05, 'temp': 0.0, 'lipoC3S3': 11.96, 'state': 'normal', 'rot1': 217, 'rot0': 263, 'rot3': 4, 'rot2': 4, 'depth': -1.59, 'yaw': -28.97, 'datetime': '2018-12-18 20:40:29.646303', 'mgs': 0, 'flw2': 2.43, 'flw1': 0.38, 'flw0': 0.78, 'time': 37.43, 'compass': -45.97, 'pitch': 4.21, 'roll': 2.47}
{'lipoC2': 0.12, 'temp': 0.0, 'lipoC3S3': 11.89, 'state': 'normal', 'rot1': 219, 'rot0': 265, 'rot3': 4, 'rot2': 4, 'depth': 1.92, 'yaw': -25.94, 'datetime': '2018-12-18 20:40:29.855788', 'mgs': 0, 'flw2': 2.73, 'flw1': 0.41, 'flw0': 3.04, 'time': 37.64, 'compass': -42.94, 'pitch': 4.54, 'roll': 2.74}
{'lipoC2': 0.0, 'temp': 0.0, 'lipoC3S3': 11.72, 'state': 'normal', 'rot1': 220, 'rot0': 266, 'rot3': 4, 'rot2': 4, 'depth': 1.385, 'yaw': -23.77, 'datetime': '2018-12-18 20:40:30.065123', 'mgs': 0, 'flw2': 0.0, 'flw1': 0.0, 'flw0': 0.26, 'time': 37.84, 'compass': -40.78, 'pitch': 5.05, 'roll': 2.59}
{'lipoC2': 0.05, 'temp': 0.0, 'lipoC3S3': 11.96, 'state': 'normal', 'rot1': 220, 'rot0': 266, 'rot3': 4, 'rot2': 4, 'depth': -1.59, 'yaw': -21.93, 'datetime': '2018-12-18 20:40:30.272284', 'mgs': 0, 'flw2': 0.12, 'flw1': 0.47, 'flw0': 0.4, 'time': 38.05, 'compass': -38.93, 'pitch': 3.7, 'roll': 2.09}
{'lipoC2': 0.0, 'temp': 0.0, 'lipoC3S3': 12.02, 'state': 'normal', 'rot1': 222, 'rot0': 267, 'rot3': 4, 'rot2': 4, 'depth': 1.462, 'yaw': -19.63, 'datetime': '2018-12-18 20:40:30.481868', 'mgs': 0, 'flw2': 0.59, 'flw1': 0.0, 'flw0': 0.1, 'time': 38.26, 'compass': -36.63, 'pitch': 2.74, 'roll': 1.84}
{'lipoC2': 0.0, 'temp': 0.0, 'lipoC3S3': 12.13, 'state': 'normal', 'rot1': 222, 'rot0': 268, 'rot3': 4, 'rot2': 4, 'depth': -0.446, 'yaw': -17.32, 'datetime': '2018-12-18 20:40:30.690518', 'mgs': 0, 'flw2': 0.11, 'flw1': 0.38, 'flw0': 0.0, 'time': 38.47, 'compass': -34.32, 'pitch': 3.05, 'roll': 1.73}
{'lipoC2': 0.0, 'temp': 0.0, 'lipoC3S3': 12.09, 'state': 'normal', 'rot1': 222, 'rot0': 268, 'rot3': 4, 'rot2': 4, 'depth': 1.538, 'yaw': -15.44, 'datetime': '2018-12-18 20:40:30.907424', 'mgs': 0, 'flw2': 3.05, 'flw1': 0.47, 'flw0': 0.87, 'time': 38.68, 'compass': -32.44, 'pitch': 3.47, 'roll': 1.4}
{'lipoC2': 0.1, 'temp': 0.0, 'lipoC3S3': 11.92, 'state': 'normal', 'rot1': 223, 'rot0': 270, 'rot3': 4, 'rot2': 4, 'depth': 1.843, 'yaw': -12.82, 'datetime': '2018-12-18 20:40:31.115726', 'mgs': 0, 'flw2': 2.95, 'flw1': 0.0, 'flw0': 0.66, 'time': 38.89, 'compass': -29.82, 'pitch': 4.59, 'roll': 1.21}
{'lipoC2': 0.11, 'temp': 0.0, 'lipoC3S3': 11.68, 'state': 'normal', 'rot1': 225, 'rot0': 272, 'rot3': 4, 'rot2': 4, 'depth': 0.165, 'yaw': -8.95, 'datetime': '2018-12-18 20:40:31.326745', 'mgs': 0, 'flw2': 2.78, 'flw1': 0.0, 'flw0': 3.06, 'time': 39.1, 'compass': -25.95, 'pitch': 6.1, 'roll': 1.44}
{'lipoC2': 0.01, 'temp': 0.0, 'lipoC3S3': 11.89, 'state': 'normal', 'rot1': 228, 'rot0': 277, 'rot3': 4, 'rot2': 4, 'depth': -1.056, 'yaw': -6.04, 'datetime': '2018-12-18 20:40:31.533327', 'mgs': 0, 'flw2': 0.34, 'flw1': 0.38, 'flw0': 2.83, 'time': 39.31, 'compass': -23.04, 'pitch': 6.83, 'roll': 1.87}
{'lipoC2': 0.01, 'temp': 0.0, 'lipoC3S3': 11.85, 'state': 'normal', 'rot1': 230, 'rot0': 280, 'rot3': 4, 'rot2': 4, 'depth': -1.437, 'yaw': -5.41, 'datetime': '2018-12-18 20:40:31.742020', 'mgs': 0, 'flw2': 0.96, 'flw1': 0.0, 'flw0': 2.72, 'time': 39.52, 'compass': -22.42, 'pitch': 5.97, 'roll': 2.08}
{'lipoC2': 0.06, 'temp': 0.0, 'lipoC3S3': 11.96, 'state': 'normal', 'rot1': 233, 'rot0': 281, 'rot3': 4, 'rot2': 4, 'depth': 1.843, 'yaw': -6.85, 'datetime': '2018-12-18 20:40:31.953655', 'mgs': 0, 'flw2': 0.92, 'flw1': 0.0, 'flw0': 2.76, 'time': 39.73, 'compass': -23.85, 'pitch': 5.02, 'roll': 1.99}
{'lipoC2': 0.0, 'temp': 0.0, 'lipoC3S3': 11.92, 'state': 'normal', 'rot1': 235, 'rot0': 283, 'rot3': 5, 'rot2': 5, 'depth': 0.47, 'yaw': -9.74, 'datetime': '2018-12-18 20:40:32.161966', 'mgs': 0, 'flw2': 0.93, 'flw1': 3.02, 'flw0': 2.75, 'time': 39.94, 'compass': -26.75, 'pitch': 5.13, 'roll': 1.57}
{'lipoC2': 0.04, 'temp': 0.0, 'lipoC3S3': 11.71, 'state': 'normal', 'rot1': 237, 'rot0': 284, 'rot3': 6, 'rot2': 6, 'depth': 1.462, 'yaw': -13.67, 'datetime': '2018-12-18 20:40:32.372947', 'mgs': 0, 'flw2': 0.92, 'flw1': 0.0, 'flw0': 2.39, 'time': 40.15, 'compass': -30.68, 'pitch': 5.99, 'roll': 0.89}
{'lipoC2': 0.04, 'temp': 0.0, 'lipoC3S3': 12.05, 'state': 'normal', 'rot1': 240, 'rot0': 286, 'rot3': 6, 'rot2': 6, 'depth': 1.691, 'yaw': -17.5, 'datetime': '2018-12-18 20:40:32.581381', 'mgs': 0, 'flw2': 2.54, 'flw1': 0.26, 'flw0': 2.8, 'time': 40.35, 'compass': -34.51, 'pitch': 6.23, 'roll': 0.75}
{'lipoC2': 0.02, 'temp': 0.0, 'lipoC3S3': 11.71, 'state': 'normal', 'rot1': 242, 'rot0': 288, 'rot3': 6, 'rot2': 6, 'depth': 1.462, 'yaw': -19.67, 'datetime': '2018-12-18 20:40:32.790464', 'mgs': 0, 'flw2': 2.89, 'flw1': 0.03, 'flw0': 0.38, 'time': 40.56, 'compass': -36.67, 'pitch': 6.25, 'roll': 1.17}
{'lipoC2': 0.15, 'temp': 0.0, 'lipoC3S3': 11.85, 'state': 'normal', 'rot1': 243, 'rot0': 291, 'rot3': 6, 'rot2': 6, 'depth': -0.903, 'yaw': -19.89, 'datetime': '2018-12-18 20:40:32.998720', 'mgs': 0, 'flw2': 2.72, 'flw1': 0.35, 'flw0': 0.61, 'time': 40.77, 'compass': -36.89, 'pitch': 5.62, 'roll': 1.96}
{'lipoC2': 0.0, 'temp': 0.0, 'lipoC3S3': 12.12, 'state': 'normal', 'rot1': 245, 'rot0': 293, 'rot3': 6, 'rot2': 6, 'depth': 1.767, 'yaw': -18.64, 'datetime': '2018-12-18 20:40:33.208229', 'mgs': 0, 'flw2': 2.8, 'flw1': 0.21, 'flw0': 0.57, 'time': 40.98, 'compass': -35.64, 'pitch': 5.09, 'roll': 2.68}
{'lipoC2': 0.0, 'temp': 0.0, 'lipoC3S3': 12.09, 'state': 'normal', 'rot1': 247, 'rot0': 296, 'rot3': 6, 'rot2': 6, 'depth': 1.691, 'yaw': -16.33, 'datetime': '2018-12-18 20:40:33.416989', 'mgs': 0, 'flw2': 2.87, 'flw1': 0.41, 'flw0': 0.67, 'time': 41.19, 'compass': -33.34, 'pitch': 5.23, 'roll': 2.98}
{'lipoC2': 0.05, 'temp': 0.0, 'lipoC3S3': 12.05, 'state': 'normal', 'rot1': 248, 'rot0': 299, 'rot3': 6, 'rot2': 6, 'depth': 0.165, 'yaw': -13.22, 'datetime': '2018-12-18 20:40:33.626409', 'mgs': 0, 'flw2': 2.55, 'flw1': 0.18, 'flw0': 0.95, 'time': 41.4, 'compass': -30.22, 'pitch': 5.45, 'roll': 3.05}
{'lipoC2': 0.16, 'temp': 0.0, 'lipoC3S3': 11.87, 'state': 'normal', 'rot1': 250, 'rot0': 301, 'rot3': 6, 'rot2': 6, 'depth': -1.285, 'yaw': -9.96, 'datetime': '2018-12-18 20:40:33.835849', 'mgs': 0, 'flw2': 2.7, 'flw1': 0.5, 'flw0': 2.8, 'time': 41.61, 'compass': -26.97, 'pitch': 5.93, 'roll': 2.83}
{'lipoC2': 0.08, 'temp': 0.0, 'lipoC3S3': 11.94, 'state': 'normal', 'rot1': 252, 'rot0': 304, 'rot3': 6, 'rot2': 6, 'depth': -1.743, 'yaw': -7.9, 'datetime': '2018-12-18 20:40:34.044983', 'mgs': 0, 'flw2': 0.46, 'flw1': 0.47, 'flw0': 2.94, 'time': 41.82, 'compass': -24.9, 'pitch': 6.99, 'roll': 2.22}
{'lipoC2': 0.0, 'temp': 0.0, 'lipoC3S3': 11.88, 'state': 'normal', 'rot1': 254, 'rot0': 304, 'rot3': 6, 'rot2': 6, 'depth': 0.851, 'yaw': -7.18, 'datetime': '2018-12-18 20:40:34.253028', 'mgs': 0, 'flw2': 0.0, 'flw1': 0.47, 'flw0': 0.0, 'time': 42.03, 'compass': -24.19, 'pitch': 6.21, 'roll': 1.65}
{'lipoC2': 0.11, 'temp': 0.0, 'lipoC3S3': 11.9, 'state': 'normal', 'rot1': 254, 'rot0': 304, 'rot3': 6, 'rot2': 6, 'depth': -1.971, 'yaw': -6.31, 'datetime': '2018-12-18 20:40:34.459987', 'mgs': 0, 'flw2': 0.45, 'flw1': 0.5, 'flw0': 0.35, 'time': 42.24, 'compass': -23.32, 'pitch': 3.74, 'roll': 1.37}
{'lipoC2': 0.17, 'temp': 0.0, 'lipoC3S3': 11.88, 'state': 'normal', 'rot1': 255, 'rot0': 305, 'rot3': 6, 'rot2': 6, 'depth': -1.819, 'yaw': -4.63, 'datetime': '2018-12-18 20:40:34.671932', 'mgs': 0, 'flw2': 0.43, 'flw1': 0.0, 'flw0': 0.49, 'time': 42.44, 'compass': -21.63, 'pitch': 2.97, 'roll': 1.28}
