{'lipoC2': 8.01, 'temp': 0.0, 'lipoC3S3': 12.04, 'state': 'normal', 'rot1': 0, 'rot0': 0, 'rot3': 0, 'rot2': 0, 'depth': 2.759, 'yaw': -0.33, 'datetime': '2018-12-12 10:53:00.738676', 'mgs': 0, 'flw2': 0.26, 'flw1': 0.0, 'flw0': 0.0, 'time': 1.57, 'compass': -12.59, 'pitch': -3.23, 'roll': -0.22}
{'lipoC2': 7.99, 'temp': 0.0, 'lipoC3S3': 12.25, 'state': 'normal', 'rot1': 0, 'rot0': 0, 'rot3': 0, 'rot2': 0, 'depth': 2.377, 'yaw': -0.56, 'datetime': '2018-12-12 10:53:00.944064', 'mgs': 0, 'flw2': 0.0, 'flw1': 0.29, 'flw0': 0.0, 'time': 1.78, 'compass': -12.82, 'pitch': -2.74, 'roll': 0.06}
{'lipoC2': 7.96, 'temp': 0.0, 'lipoC3S3': 12.17, 'state': 'normal', 'rot1': 0, 'rot0': 0, 'rot3': 0, 'rot2': 0, 'depth': 0.165, 'yaw': -0.77, 'datetime': '2018-12-12 10:53:01.153304', 'mgs': 0, 'flw2': 0.0, 'flw1': 0.26, 'flw0': 0.0, 'time': 1.99, 'compass': -13.03, 'pitch': -3.02, 'roll': 0.44}
{'lipoC2': 8.0, 'temp': 0.0, 'lipoC3S3': 12.3, 'state': 'normal', 'rot1': 0, 'rot0': 0, 'rot3': 0, 'rot2': 0, 'depth': 2.225, 'yaw': -1.04, 'datetime': '2018-12-12 10:53:01.366988', 'mgs': 0, 'flw2': 0.0, 'flw1': 0.23, 'flw0': 0.0, 'time': 2.19, 'compass': -13.3, 'pitch': -3.89, 'roll': 0.66}
{'lipoC2': 8.01, 'temp': 0.0, 'lipoC3S3': 12.06, 'state': 'normal', 'rot1': 0, 'rot0': 0, 'rot3': 0, 'rot2': 0, 'depth': 0.241, 'yaw': -1.34, 'datetime': '2018-12-12 10:53:01.577920', 'mgs': 0, 'flw2': 0.26, 'flw1': 0.0, 'flw0': 0.27, 'time': 2.4, 'compass': -13.6, 'pitch': -4.44, 'roll': 0.57}
{'lipoC2': 8.0, 'temp': 0.0, 'lipoC3S3': 12.1, 'state': 'normal', 'rot1': 0, 'rot0': 0, 'rot3': 0, 'rot2': 0, 'depth': 0.241, 'yaw': -1.65, 'datetime': '2018-12-12 10:53:01.784310', 'mgs': 0, 'flw2': 0.0, 'flw1': 0.62, 'flw0': 0.0, 'time': 2.61, 'compass': -13.91, 'pitch': -4.44, 'roll': 0.37}
{'lipoC2': 7.95, 'temp': 0.0, 'lipoC3S3': 12.39, 'state': 'normal', 'rot1': 0, 'rot0': 0, 'rot3': 0, 'rot2': 0, 'depth': -0.293, 'yaw': -1.99, 'datetime': '2018-12-12 10:53:01.993998', 'mgs': 0, 'flw2': 0.0, 'flw1': 0.44, 'flw0': 0.0, 'time': 2.82, 'compass': -14.25, 'pitch': -4.34, 'roll': 0.46}
{'lipoC2': 8.27, 'temp': 0.0, 'lipoC3S3': 12.12, 'state': 'normal', 'rot1': 0, 'rot0': 0, 'rot3': 0, 'rot2': 0, 'depth': 0.851, 'yaw': -2.42, 'datetime': '2018-12-12 10:53:02.200996', 'mgs': 0, 'flw2': 0.28, 'flw1': 0.0, 'flw0': 0.0, 'time': 3.02, 'compass': -14.68, 'pitch': -4.49, 'roll': 0.54}
{'lipoC2': 8.07, 'temp': 0.0, 'lipoC3S3': 12.01, 'state': 'normal', 'rot1': 0, 'rot0': 0, 'rot3': 0, 'rot2': 0, 'depth': 2.606, 'yaw': -2.9, 'datetime': '2018-12-12 10:53:02.408376', 'mgs': 0, 'flw2': 0.0, 'flw1': 0.09, 'flw0': 0.0, 'time': 3.23, 'compass': -15.15, 'pitch': -4.99, 'roll': 0.51}
{'lipoC2': 8.01, 'temp': 0.0, 'lipoC3S3': 12.29, 'state': 'normal', 'rot1': 0, 'rot0': 0, 'rot3': 0, 'rot2': 0, 'depth': -0.064, 'yaw': -3.31, 'datetime': '2018-12-12 10:53:02.615362', 'mgs': 0, 'flw2': 0.21, 'flw1': 0.0, 'flw0': 0.0, 'time': 3.44, 'compass': -15.56, 'pitch': -5.26, 'roll': 0.63}
{'lipoC2': 7.99, 'temp': 0.0, 'lipoC3S3': 12.3, 'state': 'normal', 'rot1': 0, 'rot0': 0, 'rot3': 0, 'rot2': 0, 'depth': 1.843, 'yaw': -3.73, 'datetime': '2018-12-12 10:53:02.823157', 'mgs': 0, 'flw2': 0.0, 'flw1': 0.0, 'flw0': 0.31, 'time': 3.65, 'compass': -15.99, 'pitch': -5.09, 'roll': 0.8}
{'lipoC2': 8.27, 'temp': 0.0, 'lipoC3S3': 12.13, 'state': 'normal', 'rot1': 0, 'rot0': 0, 'rot3': 0, 'rot2': 0, 'depth': -0.827, 'yaw': -4.16, 'datetime': '2018-12-12 10:53:03.034941', 'mgs': 0, 'flw2': 0.0, 'flw1': 0.73, 'flw0': 0.0, 'time': 3.85, 'compass': -16.41, 'pitch': -4.92, 'roll': 0.76}
{'lipoC2': 7.96, 'temp': 0.0, 'lipoC3S3': 12.31, 'state': 'normal', 'rot1': 0, 'rot0': 0, 'rot3': 0, 'rot2': 0, 'depth': 0.928, 'yaw': -4.58, 'datetime': '2018-12-12 10:53:03.242572', 'mgs': 0, 'flw2': 0.0, 'flw1': 0.29, 'flw0': 0.0, 'time': 4.06, 'compass': -16.83, 'pitch': -4.97, 'roll': 0.79}
{'lipoC2': 8.2, 'temp': 0.0, 'lipoC3S3': 12.1, 'state': 'normal', 'rot1': 0, 'rot0': 0, 'rot3': 0, 'rot2': 0, 'depth': 0.012, 'yaw': -4.98, 'datetime': '2018-12-12 10:53:03.450462', 'mgs': 0, 'flw2': 0.2, 'flw1': 0.0, 'flw0': 0.0, 'time': 4.27, 'compass': -17.24, 'pitch': -4.83, 'roll': 1.02}
{'lipoC2': 8.16, 'temp': 0.0, 'lipoC3S3': 12.14, 'state': 'normal', 'rot1': 0, 'rot0': 0, 'rot3': 0, 'rot2': 0, 'depth': -0.598, 'yaw': -5.38, 'datetime': '2018-12-12 10:53:03.656601', 'mgs': 0, 'flw2': 0.0, 'flw1': 0.59, 'flw0': 0.0, 'time': 4.48, 'compass': -17.64, 'pitch': -4.69, 'roll': 1.44}
{'lipoC2': 8.26, 'temp': 0.0, 'lipoC3S3': 12.13, 'state': 'normal', 'rot1': 0, 'rot0': 0, 'rot3': 0, 'rot2': 0, 'depth': -0.827, 'yaw': -5.78, 'datetime': '2018-12-12 10:53:03.865845', 'mgs': 0, 'flw2': 0.0, 'flw1': 0.64, 'flw0': 0.0, 'time': 4.69, 'compass': -18.03, 'pitch': -4.72, 'roll': 1.6}
{'lipoC2': 8.21, 'temp': 0.0, 'lipoC3S3': 12.1, 'state': 'normal', 'rot1': 0, 'rot0': 0, 'rot3': 0, 'rot2': 0, 'depth': 1.157, 'yaw': -6.15, 'datetime': '2018-12-12 10:53:04.074678', 'mgs': 0, 'flw2': 0.0, 'flw1': 0.21, 'flw0': 0.0, 'time': 4.89, 'compass': -18.41, 'pitch': -4.84, 'roll': 1.33}
{'lipoC2': 8.12, 'temp': 0.0, 'lipoC3S3': 12.02, 'state': 'normal', 'rot1': 0, 'rot0': 0, 'rot3': 0, 'rot2': 0, 'depth': 2.225, 'yaw': -6.51, 'datetime': '2018-12-12 10:53:04.281035', 'mgs': 0, 'flw2': 0.09, 'flw1': 0.0, 'flw0': 0.0, 'time': 5.1, 'compass': -18.77, 'pitch': -4.7, 'roll': 1.09}
{'lipoC2': 8.06, 'temp': 0.0, 'lipoC3S3': 12.46, 'state': 'normal', 'rot1': 0, 'rot0': 0, 'rot3': 0, 'rot2': 0, 'depth': 2.682, 'yaw': -6.81, 'datetime': '2018-12-12 10:53:04.491419', 'mgs': 0, 'flw2': 0.0, 'flw1': 0.7, 'flw0': 0.18, 'time': 5.31, 'compass': -19.06, 'pitch': -4.54, 'roll': 1.04}
{'lipoC2': 8.19, 'temp': 0.0, 'lipoC3S3': 12.14, 'state': 'normal', 'rot1': 0, 'rot0': 0, 'rot3': 0, 'rot2': 0, 'depth': -0.751, 'yaw': -7.03, 'datetime': '2018-12-12 10:53:04.699714', 'mgs': 0, 'flw2': 0.29, 'flw1': 0.0, 'flw0': 0.11, 'time': 5.52, 'compass': -19.29, 'pitch': -4.76, 'roll': 1.11}
{'lipoC2': 8.27, 'temp': 0.0, 'lipoC3S3': 12.13, 'state': 'normal', 'rot1': 0, 'rot0': 0, 'rot3': 0, 'rot2': 0, 'depth': -0.903, 'yaw': -7.15, 'datetime': '2018-12-12 10:53:04.906439', 'mgs': 0, 'flw2': 0.0, 'flw1': 0.64, 'flw0': 0.0, 'time': 5.72, 'compass': -19.4, 'pitch': -5.18, 'roll': 1.34}
{'lipoC2': 8.05, 'temp': 0.0, 'lipoC3S3': 11.98, 'state': 'normal', 'rot1': 0, 'rot0': 0, 'rot3': 0, 'rot2': 0, 'depth': -0.217, 'yaw': -7.15, 'datetime': '2018-12-12 10:53:05.115309', 'mgs': 0, 'flw2': 0.1, 'flw1': 0.0, 'flw0': 0.34, 'time': 5.93, 'compass': -19.41, 'pitch': -5.12, 'roll': 1.42}
{'lipoC2': 8.19, 'temp': 0.0, 'lipoC3S3': 12.08, 'state': 'normal', 'rot1': 0, 'rot0': 0, 'rot3': 0, 'rot2': 0, 'depth': 1.08, 'yaw': -7.12, 'datetime': '2018-12-12 10:53:05.322923', 'mgs': 0, 'flw2': 0.0, 'flw1': 0.0, 'flw0': 0.0, 'time': 6.14, 'compass': -19.37, 'pitch': -4.77, 'roll': 1.09}
{'lipoC2': 7.97, 'temp': 0.0, 'lipoC3S3': 12.47, 'state': 'normal', 'rot1': 0, 'rot0': 0, 'rot3': 0, 'rot2': 0, 'depth': 0.012, 'yaw': -7.1, 'datetime': '2018-12-12 10:53:05.533868', 'mgs': 0, 'flw2': 0.0, 'flw1': 0.0, 'flw0': 0.26, 'time': 6.35, 'compass': -19.36, 'pitch': -4.9, 'roll': 1.03}
{'lipoC2': 8.16, 'temp': 0.0, 'lipoC3S3': 12.14, 'state': 'normal', 'rot1': 0, 'rot0': 0, 'rot3': 0, 'rot2': 0, 'depth': -0.598, 'yaw': -7.12, 'datetime': '2018-12-12 10:53:05.736386', 'mgs': 0, 'flw2': 0.29, 'flw1': 0.0, 'flw0': 0.13, 'time': 6.55, 'compass': -19.38, 'pitch': -5.3, 'roll': 1.33}
{'lipoC2': 8.28, 'temp': 0.0, 'lipoC3S3': 12.14, 'state': 'normal', 'rot1': 0, 'rot0': 0, 'rot3': 0, 'rot2': 0, 'depth': -0.674, 'yaw': -7.12, 'datetime': '2018-12-12 10:53:05.944391', 'mgs': 0, 'flw2': 0.29, 'flw1': 0.0, 'flw0': 0.12, 'time': 6.76, 'compass': -19.37, 'pitch': -5.26, 'roll': 1.31}
{'lipoC2': 8.21, 'temp': 0.0, 'lipoC3S3': 12.1, 'state': 'normal', 'rot1': 0, 'rot0': 0, 'rot3': 0, 'rot2': 0, 'depth': -0.14, 'yaw': -7.09, 'datetime': '2018-12-12 10:53:06.156288', 'mgs': 0, 'flw2': 0.0, 'flw1': 0.0, 'flw0': 0.0, 'time': 6.97, 'compass': -19.35, 'pitch': -5.28, 'roll': 1.15}
{'lipoC2': 8.24, 'temp': 0.0, 'lipoC3S3': 12.12, 'state': 'normal', 'rot1': 0, 'rot0': 0, 'rot3': 0, 'rot2': 0, 'depth': -0.827, 'yaw': -7.1, 'datetime': '2018-12-12 10:53:06.364885', 'mgs': 0, 'flw2': 0.2, 'flw1': 0.0, 'flw0': 0.0, 'time': 7.18, 'compass': -19.35, 'pitch': -5.15, 'roll': 1.26}
{'lipoC2': 8.16, 'temp': 0.0, 'lipoC3S3': 12.08, 'state': 'normal', 'rot1': 0, 'rot0': 0, 'rot3': 0, 'rot2': 0, 'depth': 1.691, 'yaw': -7.16, 'datetime': '2018-12-12 10:53:06.572048', 'mgs': 0, 'flw2': 0.0, 'flw1': 0.18, 'flw0': 0.0, 'time': 7.39, 'compass': -19.41, 'pitch': -4.82, 'roll': 1.29}
{'lipoC2': 8.29, 'temp': 0.0, 'lipoC3S3': 12.16, 'state': 'normal', 'rot1': 0, 'rot0': 0, 'rot3': 0, 'rot2': 0, 'depth': -0.98, 'yaw': -7.32, 'datetime': '2018-12-12 10:53:06.780942', 'mgs': 0, 'flw2': 0.0, 'flw1': 0.41, 'flw0': 0.0, 'time': 7.59, 'compass': -19.58, 'pitch': -4.73, 'roll': 1.1}
{'lipoC2': 8.02, 'temp': 0.0, 'lipoC3S3': 12.16, 'state': 'normal', 'rot1': 0, 'rot0': 0, 'rot3': 0, 'rot2': 0, 'depth': 1.08, 'yaw': -7.54, 'datetime': '2018-12-12 10:53:06.999193', 'mgs': 0, 'flw2': 0.29, 'flw1': 0.0, 'flw0': 0.0, 'time': 7.8, 'compass': -19.79, 'pitch': -4.73, 'roll': 1.06}
{'lipoC2': 8.27, 'temp': 0.0, 'lipoC3S3': 12.13, 'state': 'normal', 'rot1': 0, 'rot0': 0, 'rot3': 0, 'rot2': 0, 'depth': -0.827, 'yaw': -7.91, 'datetime': '2018-12-12 10:53:07.303343', 'mgs': 0, 'flw2': 0.17, 'flw1': 0.0, 'flw0': 0.0, 'time': 8.11, 'compass': -20.17, 'pitch': -4.7, 'roll': 1.01}
{'lipoC2': 8.01, 'temp': 0.0, 'lipoC3S3': 12.21, 'state': 'normal', 'rot1': 0, 'rot0': 0, 'rot3': 0, 'rot2': 0, 'depth': -0.217, 'yaw': -8.15, 'datetime': '2018-12-12 10:53:07.511980', 'mgs': 0, 'flw2': 0.0, 'flw1': 0.67, 'flw0': 0.0, 'time': 8.32, 'compass': -20.41, 'pitch': -4.76, 'roll': 1.03}
{'lipoC2': 8.11, 'temp': 0.0, 'lipoC3S3': 12.01, 'state': 'normal', 'rot1': 0, 'rot0': 0, 'rot3': 0, 'rot2': 0, 'depth': 2.072, 'yaw': -8.43, 'datetime': '2018-12-12 10:53:07.719670', 'mgs': 0, 'flw2': 0.0, 'flw1': 0.26, 'flw0': 0.0, 'time': 8.53, 'compass': -20.68, 'pitch': -4.88, 'roll': 1.23}
{'lipoC2': 8.15, 'temp': 0.0, 'lipoC3S3': 12.06, 'state': 'normal', 'rot1': 0, 'rot0': 0, 'rot3': 0, 'rot2': 0, 'depth': -0.217, 'yaw': -8.73, 'datetime': '2018-12-12 10:53:07.925440', 'mgs': 0, 'flw2': 0.0, 'flw1': 0.0, 'flw0': 0.05, 'time': 8.74, 'compass': -20.99, 'pitch': -4.89, 'roll': 1.4}
{'lipoC2': 8.24, 'temp': 0.0, 'lipoC3S3': 12.1, 'state': 'normal', 'rot1': 0, 'rot0': 0, 'rot3': 0, 'rot2': 0, 'depth': 0.317, 'yaw': -9.05, 'datetime': '2018-12-12 10:53:08.136411', 'mgs': 0, 'flw2': 0.17, 'flw1': 0.0, 'flw0': 0.0, 'time': 8.95, 'compass': -21.3, 'pitch': -4.99, 'roll': 1.38}
{'lipoC2': 7.99, 'temp': 0.0, 'lipoC3S3': 12.52, 'state': 'normal', 'rot1': 0, 'rot0': 0, 'rot3': 0, 'rot2': 0, 'depth': -0.293, 'yaw': -9.39, 'datetime': '2018-12-12 10:53:08.345030', 'mgs': 0, 'flw2': 0.0, 'flw1': 0.0, 'flw0': 0.13, 'time': 9.15, 'compass': -21.65, 'pitch': -5.11, 'roll': 1.37}
{'lipoC2': 8.01, 'temp': 0.0, 'lipoC3S3': 12.17, 'state': 'normal', 'rot1': 0, 'rot0': 0, 'rot3': 0, 'rot2': 0, 'depth': 0.012, 'yaw': -9.76, 'datetime': '2018-12-12 10:53:08.551239', 'mgs': 0, 'flw2': 0.0, 'flw1': 0.64, 'flw0': 0.0, 'time': 9.36, 'compass': -22.02, 'pitch': -5.06, 'roll': 1.48}
{'lipoC2': 8.28, 'temp': 0.0, 'lipoC3S3': 12.16, 'state': 'normal', 'rot1': 0, 'rot0': 0, 'rot3': 0, 'rot2': 0, 'depth': -0.522, 'yaw': -10.22, 'datetime': '2018-12-12 10:53:08.759510', 'mgs': 0, 'flw2': 0.29, 'flw1': 0.0, 'flw0': 0.0, 'time': 9.57, 'compass': -22.48, 'pitch': -4.99, 'roll': 1.61}
{'lipoC2': 8.27, 'temp': 0.0, 'lipoC3S3': 12.5, 'state': 'normal', 'rot1': 0, 'rot0': 0, 'rot3': 0, 'rot2': 0, 'depth': -0.903, 'yaw': -10.67, 'datetime': '2018-12-12 10:53:08.962728', 'mgs': 0, 'flw2': 0.32, 'flw1': 0.0, 'flw0': 0.0, 'time': 9.78, 'compass': -22.93, 'pitch': -5.32, 'roll': 1.57}
{'lipoC2': 8.05, 'temp': 0.0, 'lipoC3S3': 12.0, 'state': 'normal', 'rot1': 0, 'rot0': 0, 'rot3': 0, 'rot2': 0, 'depth': -0.064, 'yaw': -11.13, 'datetime': '2018-12-12 10:53:09.175022', 'mgs': 0, 'flw2': 0.05, 'flw1': 0.0, 'flw0': 0.31, 'time': 9.98, 'compass': -23.38, 'pitch': -5.52, 'roll': 1.49}
{'lipoC2': 8.05, 'temp': 0.0, 'lipoC3S3': 12.01, 'state': 'normal', 'rot1': 0, 'rot0': 0, 'rot3': 0, 'rot2': 0, 'depth': 2.682, 'yaw': -11.66, 'datetime': '2018-12-12 10:53:09.382940', 'mgs': 0, 'flw2': 0.0, 'flw1': 0.03, 'flw0': 0.0, 'time': 10.19, 'compass': -23.92, 'pitch': -5.38, 'roll': 1.31}
{'lipoC2': 8.2, 'temp': 0.0, 'lipoC3S3': 12.1, 'state': 'normal', 'rot1': 0, 'rot0': 0, 'rot3': 0, 'rot2': 0, 'depth': -0.14, 'yaw': -12.21, 'datetime': '2018-12-12 10:53:09.591658', 'mgs': 0, 'flw2': 0.27, 'flw1': 0.0, 'flw0': 0.0, 'time': 10.4, 'compass': -24.46, 'pitch': -5.27, 'roll': 1.27}
{'lipoC2': 8.08, 'temp': 0.0, 'lipoC3S3': 12.01, 'state': 'normal', 'rot1': 0, 'rot0': 0, 'rot3': 0, 'rot2': 0, 'depth': 2.606, 'yaw': -12.72, 'datetime': '2018-12-12 10:53:09.797674', 'mgs': 0, 'flw2': 0.0, 'flw1': 0.0, 'flw0': 0.0, 'time': 10.61, 'compass': -24.98, 'pitch': -4.99, 'roll': 1.25}
{'lipoC2': 8.24, 'temp': 0.0, 'lipoC3S3': 12.12, 'state': 'normal', 'rot1': 0, 'rot0': 0, 'rot3': 0, 'rot2': 0, 'depth': -0.827, 'yaw': -13.32, 'datetime': '2018-12-12 10:53:10.005401', 'mgs': 0, 'flw2': 0.0, 'flw1': 0.5, 'flw0': 0.0, 'time': 10.81, 'compass': -25.57, 'pitch': -4.87, 'roll': 1.28}
{'lipoC2': 8.15, 'temp': 0.0, 'lipoC3S3': 12.33, 'state': 'normal', 'rot1': 0, 'rot0': 0, 'rot3': 0, 'rot2': 0, 'depth': 1.767, 'yaw': -13.9, 'datetime': '2018-12-12 10:53:10.211894', 'mgs': 0, 'flw2': 0.1, 'flw1': 0.0, 'flw0': 0.31, 'time': 11.02, 'compass': -26.15, 'pitch': -5.22, 'roll': 1.27}
{'lipoC2': 8.04, 'temp': 0.0, 'lipoC3S3': 12.43, 'state': 'normal', 'rot1': 0, 'rot0': 0, 'rot3': 0, 'rot2': 0, 'depth': 0.775, 'yaw': -14.47, 'datetime': '2018-12-12 10:53:10.421384', 'mgs': 0, 'flw2': 0.0, 'flw1': 0.15, 'flw0': 0.0, 'time': 11.23, 'compass': -26.72, 'pitch': -5.2, 'roll': 1.3}
{'lipoC2': 8.0, 'temp': 0.0, 'lipoC3S3': 12.51, 'state': 'normal', 'rot1': 0, 'rot0': 0, 'rot3': 0, 'rot2': 0, 'depth': -0.98, 'yaw': -15.12, 'datetime': '2018-12-12 10:53:10.626172', 'mgs': 0, 'flw2': 0.29, 'flw1': 0.0, 'flw0': 0.0, 'time': 11.44, 'compass': -27.38, 'pitch': -4.66, 'roll': 1.51}
{'lipoC2': 8.29, 'temp': 0.0, 'lipoC3S3': 12.16, 'state': 'normal', 'rot1': 0, 'rot0': 0, 'rot3': 0, 'rot2': 0, 'depth': 1.538, 'yaw': -15.79, 'datetime': '2018-12-12 10:53:10.834795', 'mgs': 0, 'flw2': 0.31, 'flw1': 0.0, 'flw0': 0.0, 'time': 11.65, 'compass': -28.04, 'pitch': -4.71, 'roll': 1.75}
{'lipoC2': 8.24, 'temp': 0.0, 'lipoC3S3': 12.14, 'state': 'normal', 'rot1': 0, 'rot0': 0, 'rot3': 0, 'rot2': 0, 'depth': 0.394, 'yaw': -16.44, 'datetime': '2018-12-12 10:53:11.043411', 'mgs': 0, 'flw2': 0.26, 'flw1': 0.0, 'flw0': 0.0, 'time': 11.85, 'compass': -28.69, 'pitch': -5.22, 'roll': 1.77}
{'lipoC2': 8.01, 'temp': 0.0, 'lipoC3S3': 12.13, 'state': 'normal', 'rot1': 0, 'rot0': 0, 'rot3': 0, 'rot2': 0, 'depth': 2.759, 'yaw': -17.05, 'datetime': '2018-12-12 10:53:11.252315', 'mgs': 0, 'flw2': 0.0, 'flw1': 0.67, 'flw0': 0.0, 'time': 12.06, 'compass': -29.31, 'pitch': -5.26, 'roll': 1.74}
{'lipoC2': 7.96, 'temp': 0.0, 'lipoC3S3': 12.47, 'state': 'normal', 'rot1': 0, 'rot0': 0, 'rot3': 0, 'rot2': 0, 'depth': -0.217, 'yaw': -17.68, 'datetime': '2018-12-12 10:53:11.461062', 'mgs': 0, 'flw2': 0.26, 'flw1': 0.0, 'flw0': 0.0, 'time': 12.27, 'compass': -29.94, 'pitch': -4.98, 'roll': 1.77}
{'lipoC2': 8.2, 'temp': 0.0, 'lipoC3S3': 12.1, 'state': 'normal', 'rot1': 0, 'rot0': 0, 'rot3': 0, 'rot2': 0, 'depth': -0.14, 'yaw': -18.32, 'datetime': '2018-12-12 10:53:11.668729', 'mgs': 0, 'flw2': 0.0, 'flw1': 0.21, 'flw0': 0.0, 'time': 12.48, 'compass': -30.57, 'pitch': -4.97, 'roll': 1.66}
{'lipoC2': 8.1, 'temp': 0.0, 'lipoC3S3': 11.89, 'state': 'normal', 'rot1': 0, 'rot0': 1, 'rot3': 0, 'rot2': 0, 'depth': -0.14, 'yaw': -18.51, 'datetime': '2018-12-12 10:53:11.872322', 'mgs': 0, 'flw2': 6.04, 'flw1': 0.21, 'flw0': 0.0, 'time': 12.68, 'compass': -30.76, 'pitch': -5.0, 'roll': 1.53}
{'lipoC2': 8.19, 'temp': 0.0, 'lipoC3S3': 12.06, 'state': 'normal', 'rot1': 0, 'rot0': 4, 'rot3': 0, 'rot2': 0, 'depth': 1.385, 'yaw': -14.52, 'datetime': '2018-12-12 10:53:12.077672', 'mgs': 0, 'flw2': 3.27, 'flw1': 0.0, 'flw0': 0.29, 'time': 12.89, 'compass': -26.78, 'pitch': -2.72, 'roll': 2.33}
{'lipoC2': 8.29, 'temp': 0.0, 'lipoC3S3': 12.05, 'state': 'normal', 'rot1': 0, 'rot0': 7, 'rot3': 0, 'rot2': 0, 'depth': -0.827, 'yaw': -7.66, 'datetime': '2018-12-12 10:53:12.287237', 'mgs': 0, 'flw2': 3.25, 'flw1': 0.0, 'flw0': 0.0, 'time': 13.1, 'compass': -19.92, 'pitch': 0.14, 'roll': 3.31}
{'lipoC2': 7.96, 'temp': 0.0, 'lipoC3S3': 12.38, 'state': 'normal', 'rot1': 0, 'rot0': 10, 'rot3': 0, 'rot2': 0, 'depth': 0.394, 'yaw': 0.29, 'datetime': '2018-12-12 10:53:12.496900', 'mgs': 0, 'flw2': 2.26, 'flw1': 0.0, 'flw0': 0.0, 'time': 13.31, 'compass': -11.96, 'pitch': 2.35, 'roll': 3.8}
{'lipoC2': 7.96, 'temp': 0.0, 'lipoC3S3': 12.47, 'state': 'normal', 'rot1': 0, 'rot0': 11, 'rot3': 0, 'rot2': 0, 'depth': 0.394, 'yaw': 9.01, 'datetime': '2018-12-12 10:53:12.704122', 'mgs': 0, 'flw2': 0.27, 'flw1': 0.0, 'flw0': 0.0, 'time': 13.52, 'compass': -3.24, 'pitch': 3.43, 'roll': 3.92}
{'lipoC2': 8.0, 'temp': 0.0, 'lipoC3S3': 12.06, 'state': 'normal', 'rot1': 0, 'rot0': 11, 'rot3': 0, 'rot2': 0, 'depth': 2.53, 'yaw': 16.13, 'datetime': '2018-12-12 10:53:12.912939', 'mgs': 0, 'flw2': 0.0, 'flw1': 0.67, 'flw0': 0.0, 'time': 13.72, 'compass': 3.88, 'pitch': 2.91, 'roll': 3.78}
{'lipoC2': 8.0, 'temp': 0.0, 'lipoC3S3': 12.09, 'state': 'normal', 'rot1': 0, 'rot0': 11, 'rot3': 0, 'rot2': 0, 'depth': 2.225, 'yaw': 22.08, 'datetime': '2018-12-12 10:53:13.120558', 'mgs': 0, 'flw2': 0.0, 'flw1': 0.73, 'flw0': 0.0, 'time': 13.93, 'compass': 9.82, 'pitch': 1.56, 'roll': 3.42}
{'lipoC2': 8.02, 'temp': 0.0, 'lipoC3S3': 12.38, 'state': 'normal', 'rot1': 0, 'rot0': 11, 'rot3': 0, 'rot2': 0, 'depth': -0.369, 'yaw': 26.94, 'datetime': '2018-12-12 10:53:13.328988', 'mgs': 0, 'flw2': 0.0, 'flw1': 0.38, 'flw0': 0.0, 'time': 14.14, 'compass': 14.68, 'pitch': -0.62, 'roll': 2.97}
{'lipoC2': 8.12, 'temp': 0.0, 'lipoC3S3': 12.01, 'state': 'normal', 'rot1': 0, 'rot0': 11, 'rot3': 0, 'rot2': 0, 'depth': 2.072, 'yaw': 31.36, 'datetime': '2018-12-12 10:53:13.542266', 'mgs': 0, 'flw2': 0.06, 'flw1': 0.0, 'flw0': 0.28, 'time': 14.35, 'compass': 19.11, 'pitch': -3.4, 'roll': 2.83}
{'lipoC2': 7.99, 'temp': 0.0, 'lipoC3S3': 12.27, 'state': 'normal', 'rot1': 0, 'rot0': 11, 'rot3': 0, 'rot2': 0, 'depth': 1.843, 'yaw': 35.25, 'datetime': '2018-12-12 10:53:13.750235', 'mgs': 0, 'flw2': 0.0, 'flw1': 0.15, 'flw0': 0.0, 'time': 14.56, 'compass': 23.0, 'pitch': -5.8, 'roll': 2.65}
{'lipoC2': 7.95, 'temp': 0.0, 'lipoC3S3': 12.37, 'state': 'normal', 'rot1': 0, 'rot0': 11, 'rot3': 0, 'rot2': 0, 'depth': 0.241, 'yaw': 38.6, 'datetime': '2018-12-12 10:53:13.959068', 'mgs': 0, 'flw2': 0.0, 'flw1': 0.0, 'flw0': 0.0, 'time': 14.77, 'compass': 26.34, 'pitch': -7.58, 'roll': 2.5}
{'lipoC2': 8.15, 'temp': 0.0, 'lipoC3S3': 12.14, 'state': 'normal', 'rot1': 0, 'rot0': 11, 'rot3': 0, 'rot2': 0, 'depth': -0.522, 'yaw': 41.84, 'datetime': '2018-12-12 10:53:14.167376', 'mgs': 0, 'flw2': 0.0, 'flw1': 0.7, 'flw0': 0.0, 'time': 14.97, 'compass': 29.58, 'pitch': -8.41, 'roll': 2.34}
{'lipoC2': 8.28, 'temp': 0.0, 'lipoC3S3': 12.16, 'state': 'normal', 'rot1': 0, 'rot0': 11, 'rot3': 0, 'rot2': 0, 'depth': -0.98, 'yaw': 44.8, 'datetime': '2018-12-12 10:53:14.376049', 'mgs': 0, 'flw2': 0.06, 'flw1': 0.0, 'flw0': 0.0, 'time': 15.18, 'compass': 32.54, 'pitch': -8.17, 'roll': 2.43}
{'lipoC2': 8.07, 'temp': 0.0, 'lipoC3S3': 12.19, 'state': 'normal', 'rot1': 0, 'rot0': 11, 'rot3': 0, 'rot2': 0, 'depth': 2.53, 'yaw': 47.55, 'datetime': '2018-12-12 10:53:14.584364', 'mgs': 0, 'flw2': 0.0, 'flw1': 0.23, 'flw0': 0.0, 'time': 15.39, 'compass': 35.3, 'pitch': -7.0, 'roll': 2.67}
{'lipoC2': 8.14, 'temp': 0.0, 'lipoC3S3': 12.04, 'state': 'normal', 'rot1': 0, 'rot0': 11, 'rot3': 0, 'rot2': 0, 'depth': 1.767, 'yaw': 50.05, 'datetime': '2018-12-12 10:53:14.790923', 'mgs': 0, 'flw2': 0.04, 'flw1': 0.0, 'flw0': 0.0, 'time': 15.6, 'compass': 37.8, 'pitch': -5.53, 'roll': 2.74}
{'lipoC2': 8.1, 'temp': 0.0, 'lipoC3S3': 11.98, 'state': 'normal', 'rot1': 0, 'rot0': 11, 'rot3': 0, 'rot2': 0, 'depth': -0.369, 'yaw': 52.54, 'datetime': '2018-12-12 10:53:14.999318', 'mgs': 0, 'flw2': 0.0, 'flw1': 0.73, 'flw0': 0.0, 'time': 15.8, 'compass': 40.28, 'pitch': -4.25, 'roll': 2.75}
{'lipoC2': 8.21, 'temp': 0.0, 'lipoC3S3': 12.13, 'state': 'normal', 'rot1': 0, 'rot0': 11, 'rot3': 0, 'rot2': 0, 'depth': -0.751, 'yaw': 54.86, 'datetime': '2018-12-12 10:53:15.208544', 'mgs': 0, 'flw2': 0.0, 'flw1': 0.64, 'flw0': 0.0, 'time': 16.01, 'compass': 42.61, 'pitch': -3.42, 'roll': 2.79}
{'lipoC2': 8.0, 'temp': 0.0, 'lipoC3S3': 12.21, 'state': 'normal', 'rot1': 0, 'rot0': 11, 'rot3': 0, 'rot2': 0, 'depth': 2.148, 'yaw': 56.99, 'datetime': '2018-12-12 10:53:15.418021', 'mgs': 0, 'flw2': 0.0, 'flw1': 0.44, 'flw0': 0.0, 'time': 16.22, 'compass': 44.74, 'pitch': -2.8, 'roll': 2.67}
{'lipoC2': 8.25, 'temp': 0.0, 'lipoC3S3': 12.1, 'state': 'normal', 'rot1': 0, 'rot0': 11, 'rot3': 0, 'rot2': 0, 'depth': 0.928, 'yaw': 58.85, 'datetime': '2018-12-12 10:53:15.625754', 'mgs': 0, 'flw2': 0.0, 'flw1': 0.06, 'flw0': 0.0, 'time': 16.43, 'compass': 46.6, 'pitch': -2.32, 'roll': 2.26}
{'lipoC2': 8.0, 'temp': 0.0, 'lipoC3S3': 12.05, 'state': 'normal', 'rot1': 0, 'rot0': 11, 'rot3': 0, 'rot2': 0, 'depth': 0.165, 'yaw': 60.55, 'datetime': '2018-12-12 10:53:15.833610', 'mgs': 0, 'flw2': 0.0, 'flw1': 0.59, 'flw0': 0.0, 'time': 16.64, 'compass': 48.29, 'pitch': -2.33, 'roll': 1.9}
{'lipoC2': 8.15, 'temp': 0.0, 'lipoC3S3': 12.13, 'state': 'normal', 'rot1': 0, 'rot0': 11, 'rot3': 0, 'rot2': 0, 'depth': 2.835, 'yaw': 62.08, 'datetime': '2018-12-12 10:53:16.042497', 'mgs': 0, 'flw2': 0.0, 'flw1': 0.7, 'flw0': 0.0, 'time': 16.84, 'compass': 49.83, 'pitch': -3.11, 'roll': 1.93}
{'lipoC2': 8.1, 'temp': 0.0, 'lipoC3S3': 11.98, 'state': 'normal', 'rot1': 4, 'rot0': 11, 'rot3': 0, 'rot2': 0, 'depth': 3.369, 'yaw': 63.26, 'datetime': '2018-12-12 10:53:16.251039', 'mgs': 0, 'flw2': 0.0, 'flw1': 0.79, 'flw0': 12.49, 'time': 17.05, 'compass': 51.01, 'pitch': -4.05, 'roll': 1.94}
{'lipoC2': 7.95, 'temp': 0.0, 'lipoC3S3': 12.23, 'state': 'normal', 'rot1': 13, 'rot0': 11, 'rot3': 0, 'rot2': 0, 'depth': 0.47, 'yaw': 58.1, 'datetime': '2018-12-12 10:53:16.459898', 'mgs': 0, 'flw2': 0.0, 'flw1': 0.0, 'flw0': 12.49, 'time': 17.26, 'compass': 45.85, 'pitch': -1.4, 'roll': 0.31}
{'lipoC2': 8.0, 'temp': 0.0, 'lipoC3S3': 12.16, 'state': 'normal', 'rot1': 18, 'rot0': 11, 'rot3': 0, 'rot2': 0, 'depth': 1.691, 'yaw': 46.61, 'datetime': '2018-12-12 10:53:16.668202', 'mgs': 0, 'flw2': 0.0, 'flw1': 0.67, 'flw0': 0.0, 'time': 17.47, 'compass': 34.36, 'pitch': 2.55, 'roll': -1.19}
{'lipoC2': 7.97, 'temp': 0.0, 'lipoC3S3': 12.48, 'state': 'normal', 'rot1': 18, 'rot0': 11, 'rot3': 0, 'rot2': 0, 'depth': -0.064, 'yaw': 37.31, 'datetime': '2018-12-12 10:53:16.878151', 'mgs': 0, 'flw2': 0.29, 'flw1': 0.0, 'flw0': 0.0, 'time': 17.68, 'compass': 25.06, 'pitch': 2.99, 'roll': -1.13}
{'lipoC2': 8.02, 'temp': 0.0, 'lipoC3S3': 12.43, 'state': 'normal', 'rot1': 18, 'rot0': 11, 'rot3': 0, 'rot2': 0, 'depth': -0.751, 'yaw': 30.29, 'datetime': '2018-12-12 10:53:17.086040', 'mgs': 0, 'flw2': 0.0, 'flw1': 0.26, 'flw0': 0.0, 'time': 17.89, 'compass': 18.03, 'pitch': 2.19, 'roll': -0.43}
{'lipoC2': 7.96, 'temp': 0.0, 'lipoC3S3': 12.46, 'state': 'normal', 'rot1': 18, 'rot0': 11, 'rot3': 0, 'rot2': 0, 'depth': 0.089, 'yaw': 24.2, 'datetime': '2018-12-12 10:53:17.295491', 'mgs': 0, 'flw2': 0.29, 'flw1': 0.0, 'flw0': 0.0, 'time': 18.09, 'compass': 11.94, 'pitch': 0.91, 'roll': 0.52}
{'lipoC2': 8.01, 'temp': 0.0, 'lipoC3S3': 11.9, 'state': 'normal', 'rot1': 18, 'rot0': 12, 'rot3': 0, 'rot2': 0, 'depth': 0.241, 'yaw': 18.95, 'datetime': '2018-12-12 10:53:17.502715', 'mgs': 0, 'flw2': 3.58, 'flw1': 0.0, 'flw0': 1.87, 'time': 18.3, 'compass': 6.69, 'pitch': -1.27, 'roll': 1.15}
{'lipoC2': 8.07, 'temp': 0.0, 'lipoC3S3': 11.89, 'state': 'normal', 'rot1': 21, 'rot0': 15, 'rot3': 0, 'rot2': 0, 'depth': -0.217, 'yaw': 15.33, 'datetime': '2018-12-12 10:53:17.711044', 'mgs': 0, 'flw2': 4.38, 'flw1': 0.0, 'flw0': 2.98, 'time': 18.51, 'compass': 3.08, 'pitch': -1.84, 'roll': 1.43}
{'lipoC2': 8.01, 'temp': 0.0, 'lipoC3S3': 11.85, 'state': 'normal', 'rot1': 23, 'rot0': 17, 'rot3': 0, 'rot2': 0, 'depth': 2.759, 'yaw': 13.43, 'datetime': '2018-12-12 10:53:17.921056', 'mgs': 0, 'flw2': 4.2, 'flw1': 0.0, 'flw0': 2.59, 'time': 18.72, 'compass': 1.18, 'pitch': -0.41, 'roll': 1.57}
{'lipoC2': 8.02, 'temp': 0.0, 'lipoC3S3': 12.33, 'state': 'normal', 'rot1': 27, 'rot0': 20, 'rot3': 0, 'rot2': 0, 'depth': 0.394, 'yaw': 12.5, 'datetime': '2018-12-12 10:53:18.130901', 'mgs': 0, 'flw2': 4.47, 'flw1': 0.5, 'flw0': 2.58, 'time': 18.93, 'compass': 0.25, 'pitch': 1.83, 'roll': 1.45}
{'lipoC2': 8.0, 'temp': 0.0, 'lipoC3S3': 12.43, 'state': 'normal', 'rot1': 30, 'rot0': 23, 'rot3': 0, 'rot2': 0, 'depth': -0.14, 'yaw': 12.29, 'datetime': '2018-12-12 10:53:18.340538', 'mgs': 0, 'flw2': 4.48, 'flw1': 0.0, 'flw0': 3.1, 'time': 19.14, 'compass': 0.03, 'pitch': 4.09, 'roll': 1.14}
{'lipoC2': 8.02, 'temp': 0.0, 'lipoC3S3': 11.92, 'state': 'normal', 'rot1': 32, 'rot0': 26, 'rot3': 0, 'rot2': 0, 'depth': 2.682, 'yaw': 12.62, 'datetime': '2018-12-12 10:53:18.548405', 'mgs': 0, 'flw2': 4.2, 'flw1': 0.64, 'flw0': 2.67, 'time': 19.35, 'compass': 0.36, 'pitch': 5.64, 'roll': 0.82}
{'lipoC2': 8.0, 'temp': 0.0, 'lipoC3S3': 11.98, 'state': 'normal', 'rot1': 36, 'rot0': 29, 'rot3': 0, 'rot2': 0, 'depth': 0.012, 'yaw': 13.31, 'datetime': '2018-12-12 10:53:18.756679', 'mgs': 0, 'flw2': 4.57, 'flw1': 0.0, 'flw0': 3.1, 'time': 19.56, 'compass': 1.06, 'pitch': 6.4, 'roll': 0.72}
{'lipoC2': 8.28, 'temp': 0.0, 'lipoC3S3': 12.01, 'state': 'normal', 'rot1': 38, 'rot0': 32, 'rot3': 0, 'rot2': 0, 'depth': -0.598, 'yaw': 14.13, 'datetime': '2018-12-12 10:53:18.966356', 'mgs': 0, 'flw2': 4.24, 'flw1': 0.15, 'flw0': 2.76, 'time': 19.76, 'compass': 1.88, 'pitch': 6.33, 'roll': 0.65}
{'lipoC2': 8.11, 'temp': 0.0, 'lipoC3S3': 12.09, 'state': 'normal', 'rot1': 41, 'rot0': 35, 'rot3': 0, 'rot2': 0, 'depth': 0.775, 'yaw': 15.03, 'datetime': '2018-12-12 10:53:19.176547', 'mgs': 0, 'flw2': 4.46, 'flw1': 0.0, 'flw0': 2.93, 'time': 19.97, 'compass': 2.77, 'pitch': 5.97, 'roll': 0.68}
{'lipoC2': 8.04, 'temp': 0.0, 'lipoC3S3': 11.92, 'state': 'normal', 'rot1': 43, 'rot0': 38, 'rot3': 0, 'rot2': 0, 'depth': 2.682, 'yaw': 16.1, 'datetime': '2018-12-12 10:53:19.385948', 'mgs': 0, 'flw2': 4.28, 'flw1': 0.0, 'flw0': 3.0, 'time': 20.18, 'compass': 3.85, 'pitch': 5.18, 'roll': 1.02}
{'lipoC2': 8.26, 'temp': 0.0, 'lipoC3S3': 12.08, 'state': 'normal', 'rot1': 46, 'rot0': 41, 'rot3': 0, 'rot2': 0, 'depth': 0.394, 'yaw': 17.57, 'datetime': '2018-12-12 10:53:19.594040', 'mgs': 0, 'flw2': 4.52, 'flw1': 0.0, 'flw0': 2.67, 'time': 20.39, 'compass': 5.32, 'pitch': 3.65, 'roll': 1.41}
{'lipoC2': 8.04, 'temp': 0.0, 'lipoC3S3': 11.89, 'state': 'normal', 'rot1': 49, 'rot0': 45, 'rot3': 0, 'rot2': 0, 'depth': 2.606, 'yaw': 19.46, 'datetime': '2018-12-12 10:53:19.803051', 'mgs': 0, 'flw2': 4.86, 'flw1': 0.0, 'flw0': 5.94, 'time': 20.6, 'compass': 7.2, 'pitch': 2.44, 'roll': 2.09}
{'lipoC2': 7.96, 'temp': 0.0, 'lipoC3S3': 12.21, 'state': 'normal', 'rot1': 53, 'rot0': 48, 'rot3': 0, 'rot2': 0, 'depth': 0.089, 'yaw': 20.55, 'datetime': '2018-12-12 10:53:20.011278', 'mgs': 0, 'flw2': 4.19, 'flw1': 0.67, 'flw0': 5.03, 'time': 20.81, 'compass': 8.29, 'pitch': 2.68, 'roll': 2.74}
{'lipoC2': 8.23, 'temp': 0.0, 'lipoC3S3': 12.25, 'state': 'normal', 'rot1': 56, 'rot0': 51, 'rot3': 0, 'rot2': 0, 'depth': 0.165, 'yaw': 20.5, 'datetime': '2018-12-12 10:53:20.220919', 'mgs': 0, 'flw2': 1.14, 'flw1': 0.0, 'flw0': 6.4, 'time': 21.02, 'compass': 8.24, 'pitch': 3.47, 'roll': 3.16}
{'lipoC2': 8.01, 'temp': 0.0, 'lipoC3S3': 12.0, 'state': 'normal', 'rot1': 60, 'rot0': 52, 'rot3': 0, 'rot2': 0, 'depth': 1.309, 'yaw': 17.99, 'datetime': '2018-12-12 10:53:20.428307', 'mgs': 0, 'flw2': 1.33, 'flw1': 0.0, 'flw0': 6.46, 'time': 21.22, 'compass': 5.73, 'pitch': 3.5, 'roll': 3.1}
{'lipoC2': 8.22, 'temp': 0.0, 'lipoC3S3': 12.04, 'state': 'normal', 'rot1': 64, 'rot0': 54, 'rot3': 0, 'rot2': 0, 'depth': -0.293, 'yaw': 13.19, 'datetime': '2018-12-12 10:53:20.638594', 'mgs': 0, 'flw2': 1.75, 'flw1': 0.0, 'flw0': 5.99, 'time': 21.43, 'compass': 0.94, 'pitch': 3.53, 'roll': 2.69}
{'lipoC2': 8.23, 'temp': 0.0, 'lipoC3S3': 11.96, 'state': 'normal', 'rot1': 67, 'rot0': 56, 'rot3': 0, 'rot2': 0, 'depth': -0.827, 'yaw': 7.74, 'datetime': '2018-12-12 10:53:20.847264', 'mgs': 0, 'flw2': 5.94, 'flw1': 0.0, 'flw0': 5.46, 'time': 21.64, 'compass': -4.51, 'pitch': 3.42, 'roll': 2.01}
{'lipoC2': 8.28, 'temp': 0.0, 'lipoC3S3': 11.84, 'state': 'normal', 'rot1': 71, 'rot0': 60, 'rot3': 0, 'rot2': 0, 'depth': -0.827, 'yaw': 4.45, 'datetime': '2018-12-12 10:53:21.056653', 'mgs': 0, 'flw2': 6.56, 'flw1': 0.0, 'flw0': 4.97, 'time': 21.85, 'compass': -7.8, 'pitch': 4.43, 'roll': 1.64}
{'lipoC2': 7.98, 'temp': 0.0, 'lipoC3S3': 12.26, 'state': 'normal', 'rot1': 75, 'rot0': 64, 'rot3': 0, 'rot2': 0, 'depth': -0.369, 'yaw': 2.98, 'datetime': '2018-12-12 10:53:21.264852', 'mgs': 0, 'flw2': 6.62, 'flw1': 0.18, 'flw0': 5.08, 'time': 22.06, 'compass': -9.28, 'pitch': 6.22, 'roll': 1.01}
{'lipoC2': 7.99, 'temp': 0.0, 'lipoC3S3': 12.17, 'state': 'normal', 'rot1': 79, 'rot0': 67, 'rot3': 0, 'rot2': 0, 'depth': 1.767, 'yaw': 2.35, 'datetime': '2018-12-12 10:53:21.474387', 'mgs': 0, 'flw2': 6.96, 'flw1': 0.59, 'flw0': 5.24, 'time': 22.27, 'compass': -9.9, 'pitch': 7.43, 'roll': 0.07}
{'lipoC2': 8.01, 'temp': 0.0, 'lipoC3S3': 12.01, 'state': 'normal', 'rot1': 82, 'rot0': 70, 'rot3': 0, 'rot2': 0, 'depth': 2.148, 'yaw': 2.38, 'datetime': '2018-12-12 10:53:21.685655', 'mgs': 0, 'flw2': 6.41, 'flw1': 0.06, 'flw0': 4.91, 'time': 22.48, 'compass': -9.87, 'pitch': 7.84, 'roll': -0.56}
{'lipoC2': 8.27, 'temp': 0.0, 'lipoC3S3': 11.77, 'state': 'normal', 'rot1': 86, 'rot0': 74, 'rot3': 0, 'rot2': 0, 'depth': -0.598, 'yaw': 2.95, 'datetime': '2018-12-12 10:53:21.893791', 'mgs': 0, 'flw2': 6.6, 'flw1': 0.38, 'flw0': 5.18, 'time': 22.69, 'compass': -9.31, 'pitch': 7.77, 'roll': -0.64}
{'lipoC2': 8.16, 'temp': 0.0, 'lipoC3S3': 11.9, 'state': 'normal', 'rot1': 89, 'rot0': 78, 'rot3': 0, 'rot2': 0, 'depth': -0.446, 'yaw': 3.65, 'datetime': '2018-12-12 10:53:22.104912', 'mgs': 0, 'flw2': 5.52, 'flw1': 0.0, 'flw0': 5.4, 'time': 22.9, 'compass': -8.6, 'pitch': 7.3, 'roll': -0.69}
{'lipoC2': 8.24, 'temp': 0.0, 'lipoC3S3': 11.84, 'state': 'normal', 'rot1': 93, 'rot0': 81, 'rot3': 0, 'rot2': 0, 'depth': 0.47, 'yaw': 3.93, 'datetime': '2018-12-12 10:53:22.313679', 'mgs': 0, 'flw2': 4.55, 'flw1': 0.0, 'flw0': 5.15, 'time': 23.1, 'compass': -8.33, 'pitch': 6.11, 'roll': -0.52}
{'lipoC2': 7.96, 'temp': 0.0, 'lipoC3S3': 12.22, 'state': 'normal', 'rot1': 96, 'rot0': 84, 'rot3': 0, 'rot2': 0, 'depth': -0.064, 'yaw': 3.55, 'datetime': '2018-12-12 10:53:22.522469', 'mgs': 0, 'flw2': 4.02, 'flw1': 0.0, 'flw0': 5.29, 'time': 23.31, 'compass': -8.7, 'pitch': 4.74, 'roll': -0.02}
{'lipoC2': 8.27, 'temp': 0.0, 'lipoC3S3': 12.33, 'state': 'normal', 'rot1': 100, 'rot0': 87, 'rot3': 0, 'rot2': 0, 'depth': -0.674, 'yaw': 2.48, 'datetime': '2018-12-12 10:53:22.730640', 'mgs': 0, 'flw2': 3.39, 'flw1': 0.0, 'flw0': 4.46, 'time': 23.52, 'compass': -9.78, 'pitch': 3.26, 'roll': 0.5}
{'lipoC2': 8.28, 'temp': 0.0, 'lipoC3S3': 11.84, 'state': 'normal', 'rot1': 103, 'rot0': 89, 'rot3': 0, 'rot2': 0, 'depth': -0.903, 'yaw': 0.49, 'datetime': '2018-12-12 10:53:22.940635', 'mgs': 0, 'flw2': 3.63, 'flw1': 0.0, 'flw0': 4.55, 'time': 23.73, 'compass': -11.77, 'pitch': 2.18, 'roll': 0.6}
{'lipoC2': 8.26, 'temp': 0.0, 'lipoC3S3': 12.05, 'state': 'normal', 'rot1': 107, 'rot0': 92, 'rot3': 0, 'rot2': 0, 'depth': 0.851, 'yaw': -2.05, 'datetime': '2018-12-12 10:53:23.152664', 'mgs': 0, 'flw2': 3.42, 'flw1': 0.21, 'flw0': 3.16, 'time': 23.94, 'compass': -14.31, 'pitch': 1.62, 'roll': 0.54}
{'lipoC2': 7.98, 'temp': 0.0, 'lipoC3S3': 12.23, 'state': 'normal', 'rot1': 109, 'rot0': 95, 'rot3': 0, 'rot2': 0, 'depth': 1.004, 'yaw': -4.27, 'datetime': '2018-12-12 10:53:23.365190', 'mgs': 0, 'flw2': 3.97, 'flw1': 0.0, 'flw0': 2.61, 'time': 24.15, 'compass': -16.53, 'pitch': 1.58, 'roll': 0.56}
{'lipoC2': 8.17, 'temp': 0.0, 'lipoC3S3': 11.97, 'state': 'normal', 'rot1': 112, 'rot0': 98, 'rot3': 0, 'rot2': 0, 'depth': 1.538, 'yaw': -5.65, 'datetime': '2018-12-12 10:53:23.571126', 'mgs': 0, 'flw2': 3.42, 'flw1': 0.0, 'flw0': 2.65, 'time': 24.36, 'compass': -17.91, 'pitch': 1.14, 'roll': 0.58}
{'lipoC2': 8.07, 'temp': 0.0, 'lipoC3S3': 11.81, 'state': 'normal', 'rot1': 115, 'rot0': 101, 'rot3': 0, 'rot2': 0, 'depth': 2.759, 'yaw': -6.46, 'datetime': '2018-12-12 10:53:23.782606', 'mgs': 0, 'flw2': 3.37, 'flw1': 0.53, 'flw0': 2.42, 'time': 24.57, 'compass': -18.72, 'pitch': 0.98, 'roll': 0.54}
{'lipoC2': 8.0, 'temp': 0.0, 'lipoC3S3': 11.94, 'state': 'normal', 'rot1': 117, 'rot0': 103, 'rot3': 0, 'rot2': 0, 'depth': 0.623, 'yaw': -6.91, 'datetime': '2018-12-12 10:53:23.990934', 'mgs': 0, 'flw2': 3.89, 'flw1': 0.0, 'flw0': 2.89, 'time': 24.77, 'compass': -19.16, 'pitch': 1.26, 'roll': 0.53}
{'lipoC2': 7.98, 'temp': 0.0, 'lipoC3S3': 12.35, 'state': 'normal', 'rot1': 120, 'rot0': 106, 'rot3': 0, 'rot2': 0, 'depth': -0.217, 'yaw': -7.16, 'datetime': '2018-12-12 10:53:24.200171', 'mgs': 0, 'flw2': 3.36, 'flw1': 0.0, 'flw0': 2.5, 'time': 24.98, 'compass': -19.42, 'pitch': 1.75, 'roll': 0.51}
{'lipoC2': 8.02, 'temp': 0.0, 'lipoC3S3': 11.9, 'state': 'normal', 'rot1': 122, 'rot0': 109, 'rot3': 0, 'rot2': 0, 'depth': 3.293, 'yaw': -7.21, 'datetime': '2018-12-12 10:53:24.409255', 'mgs': 0, 'flw2': 3.48, 'flw1': 0.0, 'flw0': 2.67, 'time': 25.19, 'compass': -19.47, 'pitch': 2.37, 'roll': 0.49}
{'lipoC2': 8.04, 'temp': 0.0, 'lipoC3S3': 12.33, 'state': 'normal', 'rot1': 125, 'rot0': 112, 'rot3': 0, 'rot2': 0, 'depth': -0.064, 'yaw': -7.08, 'datetime': '2018-12-12 10:53:24.619365', 'mgs': 0, 'flw2': 3.14, 'flw1': 0.0, 'flw0': 2.34, 'time': 25.4, 'compass': -19.34, 'pitch': 3.17, 'roll': 0.53}
{'lipoC2': 8.28, 'temp': 0.0, 'lipoC3S3': 12.01, 'state': 'normal', 'rot1': 127, 'rot0': 114, 'rot3': 0, 'rot2': 0, 'depth': -0.293, 'yaw': -6.87, 'datetime': '2018-12-12 10:53:24.827770', 'mgs': 0, 'flw2': 3.27, 'flw1': 0.0, 'flw0': 2.2, 'time': 25.61, 'compass': -19.13, 'pitch': 4.0, 'roll': 0.78}
{'lipoC2': 8.07, 'temp': 0.0, 'lipoC3S3': 12.09, 'state': 'normal', 'rot1': 129, 'rot0': 117, 'rot3': 0, 'rot2': 0, 'depth': 0.546, 'yaw': -6.52, 'datetime': '2018-12-12 10:53:25.034080', 'mgs': 0, 'flw2': 2.91, 'flw1': 0.62, 'flw0': 2.28, 'time': 25.82, 'compass': -18.77, 'pitch': 4.27, 'roll': 0.92}
{'lipoC2': 8.04, 'temp': 0.0, 'lipoC3S3': 12.25, 'state': 'normal', 'rot1': 132, 'rot0': 119, 'rot3': 0, 'rot2': 0, 'depth': 1.767, 'yaw': -6.31, 'datetime': '2018-12-12 10:53:25.242458', 'mgs': 0, 'flw2': 3.05, 'flw1': 0.0, 'flw0': 1.78, 'time': 26.03, 'compass': -18.56, 'pitch': 4.24, 'roll': 0.87}
{'lipoC2': 8.02, 'temp': 0.0, 'lipoC3S3': 12.34, 'state': 'normal', 'rot1': 134, 'rot0': 122, 'rot3': 0, 'rot2': 0, 'depth': 1.385, 'yaw': -6.04, 'datetime': '2018-12-12 10:53:25.454403', 'mgs': 0, 'flw2': 3.38, 'flw1': 0.0, 'flw0': 2.1, 'time': 26.24, 'compass': -18.29, 'pitch': 4.33, 'roll': 0.89}
{'lipoC2': 8.04, 'temp': 0.0, 'lipoC3S3': 12.05, 'state': 'normal', 'rot1': 136, 'rot0': 125, 'rot3': 0, 'rot2': 0, 'depth': 3.369, 'yaw': -5.54, 'datetime': '2018-12-12 10:53:25.660703', 'mgs': 0, 'flw2': 3.52, 'flw1': 0.0, 'flw0': 2.19, 'time': 26.45, 'compass': -17.79, 'pitch': 4.41, 'roll': 1.17}
{'lipoC2': 7.99, 'temp': 0.0, 'lipoC3S3': 12.17, 'state': 'normal', 'rot1': 138, 'rot0': 127, 'rot3': 0, 'rot2': 0, 'depth': 1.462, 'yaw': -4.55, 'datetime': '2018-12-12 10:53:25.871521', 'mgs': 0, 'flw2': 3.17, 'flw1': 0.67, 'flw0': 1.12, 'time': 26.66, 'compass': -16.81, 'pitch': 3.95, 'roll': 1.71}
{'lipoC2': 8.02, 'temp': 0.0, 'lipoC3S3': 12.21, 'state': 'normal', 'rot1': 140, 'rot0': 130, 'rot3': 0, 'rot2': 0, 'depth': 1.309, 'yaw': -2.63, 'datetime': '2018-12-12 10:53:26.077866', 'mgs': 0, 'flw2': 3.33, 'flw1': 0.0, 'flw0': 1.12, 'time': 26.87, 'compass': -14.89, 'pitch': 2.93, 'roll': 2.34}
{'lipoC2': 8.22, 'temp': 0.0, 'lipoC3S3': 12.04, 'state': 'normal', 'rot1': 142, 'rot0': 133, 'rot3': 0, 'rot2': 0, 'depth': 0.623, 'yaw': 0.02, 'datetime': '2018-12-12 10:53:26.294377', 'mgs': 0, 'flw2': 3.03, 'flw1': 0.0, 'flw0': 1.11, 'time': 27.08, 'compass': -12.24, 'pitch': 1.81, 'roll': 2.98}
{'lipoC2': 7.99, 'temp': 0.0, 'lipoC3S3': 12.17, 'state': 'normal', 'rot1': 144, 'rot0': 135, 'rot3': 0, 'rot2': 0, 'depth': 2.377, 'yaw': 3.12, 'datetime': '2018-12-12 10:53:26.508303', 'mgs': 0, 'flw2': 2.87, 'flw1': 0.0, 'flw0': 0.48, 'time': 27.28, 'compass': -9.14, 'pitch': 1.09, 'roll': 3.5}
{'lipoC2': 8.08, 'temp': 0.0, 'lipoC3S3': 11.89, 'state': 'normal', 'rot1': 147, 'rot0': 141, 'rot3': 0, 'rot2': 0, 'depth': 2.454, 'yaw': 9.31, 'datetime': '2018-12-12 10:53:26.807887', 'mgs': 0, 'flw2': 3.39, 'flw1': 0.0, 'flw0': 0.87, 'time': 27.6, 'compass': -2.95, 'pitch': 0.03, 'roll': 4.68}
{'lipoC2': 8.06, 'temp': 0.0, 'lipoC3S3': 12.35, 'state': 'normal', 'rot1': 149, 'rot0': 144, 'rot3': 0, 'rot2': 0, 'depth': 0.089, 'yaw': 14.59, 'datetime': '2018-12-12 10:53:27.017901', 'mgs': 0, 'flw2': 3.38, 'flw1': 0.0, 'flw0': 0.83, 'time': 27.81, 'compass': 2.33, 'pitch': -0.19, 'roll': 5.64}
{'lipoC2': 8.02, 'temp': 0.0, 'lipoC3S3': 12.09, 'state': 'normal', 'rot1': 151, 'rot0': 147, 'rot3': 0, 'rot2': 0, 'depth': 2.835, 'yaw': 20.77, 'datetime': '2018-12-12 10:53:27.226684', 'mgs': 0, 'flw2': 3.64, 'flw1': 0.0, 'flw0': 0.82, 'time': 28.02, 'compass': 8.51, 'pitch': 0.38, 'roll': 6.37}
{'lipoC2': 7.99, 'temp': 0.0, 'lipoC3S3': 12.05, 'state': 'normal', 'rot1': 153, 'rot0': 150, 'rot3': 0, 'rot2': 0, 'depth': 0.317, 'yaw': 27.21, 'datetime': '2018-12-12 10:53:27.441360', 'mgs': 0, 'flw2': 2.38, 'flw1': 0.53, 'flw0': 0.0, 'time': 28.23, 'compass': 14.95, 'pitch': 1.47, 'roll': 6.74}
{'lipoC2': 8.12, 'temp': 0.0, 'lipoC3S3': 11.94, 'state': 'normal', 'rot1': 154, 'rot0': 152, 'rot3': 0, 'rot2': 0, 'depth': 0.012, 'yaw': 34.12, 'datetime': '2018-12-12 10:53:27.654244', 'mgs': 0, 'flw2': 1.76, 'flw1': 0.0, 'flw0': 0.5, 'time': 28.43, 'compass': 21.86, 'pitch': 2.38, 'roll': 6.76}
{'lipoC2': 8.2, 'temp': 0.0, 'lipoC3S3': 12.08, 'state': 'normal', 'rot1': 155, 'rot0': 154, 'rot3': 0, 'rot2': 0, 'depth': 1.691, 'yaw': 40.42, 'datetime': '2018-12-12 10:53:27.863029', 'mgs': 0, 'flw2': 0.24, 'flw1': 0.41, 'flw0': 0.0, 'time': 28.64, 'compass': 28.16, 'pitch': 1.89, 'roll': 6.62}
{'lipoC2': 8.17, 'temp': 0.0, 'lipoC3S3': 12.02, 'state': 'normal', 'rot1': 156, 'rot0': 155, 'rot3': 0, 'rot2': 0, 'depth': 1.996, 'yaw': 45.54, 'datetime': '2018-12-12 10:53:28.072922', 'mgs': 0, 'flw2': 0.0, 'flw1': 0.0, 'flw0': 2.5, 'time': 28.85, 'compass': 33.28, 'pitch': 0.74, 'roll': 6.0}
{'lipoC2': 7.99, 'temp': 0.0, 'lipoC3S3': 12.08, 'state': 'normal', 'rot1': 159, 'rot0': 155, 'rot3': 0, 'rot2': 0, 'depth': 0.47, 'yaw': 47.82, 'datetime': '2018-12-12 10:53:28.280008', 'mgs': 0, 'flw2': 0.29, 'flw1': 0.0, 'flw0': 0.38, 'time': 29.06, 'compass': 35.57, 'pitch': -0.35, 'roll': 4.8}
{'lipoC2': 8.02, 'temp': 0.0, 'lipoC3S3': 12.31, 'state': 'normal', 'rot1': 159, 'rot0': 155, 'rot3': 0, 'rot2': 0, 'depth': 0.012, 'yaw': 49.41, 'datetime': '2018-12-12 10:53:28.489955', 'mgs': 0, 'flw2': 0.0, 'flw1': 0.0, 'flw0': 0.0, 'time': 29.27, 'compass': 37.16, 'pitch': -2.46, 'roll': 3.74}
{'lipoC2': 8.0, 'temp': 0.0, 'lipoC3S3': 11.98, 'state': 'normal', 'rot1': 160, 'rot0': 155, 'rot3': 0, 'rot2': 0, 'depth': 2.988, 'yaw': 50.78, 'datetime': '2018-12-12 10:53:28.698741', 'mgs': 0, 'flw2': 0.0, 'flw1': 0.7, 'flw0': 0.0, 'time': 29.48, 'compass': 38.52, 'pitch': -4.82, 'roll': 2.85}
{'lipoC2': 8.0, 'temp': 0.0, 'lipoC3S3': 12.1, 'state': 'normal', 'rot1': 161, 'rot0': 155, 'rot3': 0, 'rot2': 0, 'depth': 2.53, 'yaw': 51.76, 'datetime': '2018-12-12 10:53:28.906913', 'mgs': 0, 'flw2': 0.31, 'flw1': 0.0, 'flw0': 1.03, 'time': 29.69, 'compass': 39.5, 'pitch': -6.58, 'roll': 2.01}
{'lipoC2': 7.97, 'temp': 0.0, 'lipoC3S3': 12.37, 'state': 'normal', 'rot1': 161, 'rot0': 155, 'rot3': 0, 'rot2': 0, 'depth': 3.674, 'yaw': 52.29, 'datetime': '2018-12-12 10:53:29.116095', 'mgs': 0, 'flw2': 0.0, 'flw1': 0.0, 'flw0': 0.0, 'time': 29.9, 'compass': 40.04, 'pitch': -7.42, 'roll': 1.55}
{'lipoC2': 7.96, 'temp': 0.0, 'lipoC3S3': 12.38, 'state': 'normal', 'rot1': 161, 'rot0': 155, 'rot3': 0, 'rot2': 0, 'depth': 0.546, 'yaw': 52.94, 'datetime': '2018-12-12 10:53:29.328863', 'mgs': 0, 'flw2': 0.0, 'flw1': 0.0, 'flw0': 0.32, 'time': 30.11, 'compass': 40.69, 'pitch': -8.12, 'roll': 1.78}
{'lipoC2': 8.2, 'temp': 0.0, 'lipoC3S3': 12.01, 'state': 'normal', 'rot1': 162, 'rot0': 155, 'rot3': 0, 'rot2': 0, 'depth': 3.369, 'yaw': 53.75, 'datetime': '2018-12-12 10:53:29.535406', 'mgs': 0, 'flw2': 0.82, 'flw1': 0.0, 'flw0': 0.24, 'time': 30.32, 'compass': 41.5, 'pitch': -8.53, 'roll': 2.41}
{'lipoC2': 8.09, 'temp': 0.0, 'lipoC3S3': 11.93, 'state': 'normal', 'rot1': 163, 'rot0': 156, 'rot3': 0, 'rot2': 0, 'depth': 3.064, 'yaw': 55.02, 'datetime': '2018-12-12 10:53:29.749913', 'mgs': 0, 'flw2': 0.6, 'flw1': 0.0, 'flw0': 2.06, 'time': 30.53, 'compass': 42.76, 'pitch': -7.87, 'roll': 3.25}
{'lipoC2': 8.0, 'temp': 0.0, 'lipoC3S3': 11.89, 'state': 'normal', 'rot1': 166, 'rot0': 157, 'rot3': 0, 'rot2': 0, 'depth': 3.293, 'yaw': 55.64, 'datetime': '2018-12-12 10:53:29.956295', 'mgs': 0, 'flw2': 0.79, 'flw1': 0.0, 'flw0': 2.27, 'time': 30.74, 'compass': 43.38, 'pitch': -6.01, 'roll': 3.77}
{'lipoC2': 8.1, 'temp': 0.0, 'lipoC3S3': 12.1, 'state': 'normal', 'rot1': 168, 'rot0': 159, 'rot3': 0, 'rot2': 0, 'depth': 4.056, 'yaw': 55.0, 'datetime': '2018-12-12 10:53:30.159395', 'mgs': 0, 'flw2': 0.98, 'flw1': 0.0, 'flw0': 2.05, 'time': 30.94, 'compass': 42.75, 'pitch': -3.83, 'roll': 3.96}
{'lipoC2': 8.28, 'temp': 0.0, 'lipoC3S3': 12.42, 'state': 'normal', 'rot1': 171, 'rot0': 160, 'rot3': 0, 'rot2': 0, 'depth': 0.699, 'yaw': 53.32, 'datetime': '2018-12-12 10:53:30.367632', 'mgs': 0, 'flw2': 0.1, 'flw1': 0.0, 'flw0': 2.98, 'time': 31.15, 'compass': 41.06, 'pitch': -2.02, 'roll': 3.83}
{'lipoC2': 8.01, 'temp': 0.0, 'lipoC3S3': 12.17, 'state': 'normal', 'rot1': 173, 'rot0': 161, 'rot3': 0, 'rot2': 0, 'depth': 1.08, 'yaw': 50.18, 'datetime': '2018-12-12 10:53:30.576844', 'mgs': 0, 'flw2': 0.43, 'flw1': 0.0, 'flw0': 3.08, 'time': 31.36, 'compass': 37.93, 'pitch': -0.52, 'roll': 3.33}
{'lipoC2': 8.0, 'temp': 0.0, 'lipoC3S3': 11.97, 'state': 'normal', 'rot1': 176, 'rot0': 162, 'rot3': 0, 'rot2': 0, 'depth': 3.827, 'yaw': 45.36, 'datetime': '2018-12-12 10:53:30.785857', 'mgs': 0, 'flw2': 0.63, 'flw1': 0.0, 'flw0': 3.1, 'time': 31.57, 'compass': 33.1, 'pitch': 0.67, 'roll': 2.44}
{'lipoC2': 7.94, 'temp': 0.0, 'lipoC3S3': 11.93, 'state': 'normal', 'rot1': 179, 'rot0': 163, 'rot3': 0, 'rot2': 0, 'depth': 1.004, 'yaw': 40.04, 'datetime': '2018-12-12 10:53:30.996426', 'mgs': 0, 'flw2': 1.42, 'flw1': 0.0, 'flw0': 3.09, 'time': 31.78, 'compass': 27.79, 'pitch': 1.43, 'roll': 1.46}
{'lipoC2': 7.96, 'temp': 0.0, 'lipoC3S3': 12.35, 'state': 'normal', 'rot1': 181, 'rot0': 164, 'rot3': 0, 'rot2': 0, 'depth': 0.928, 'yaw': 34.87, 'datetime': '2018-12-12 10:53:31.205933', 'mgs': 0, 'flw2': 1.5, 'flw1': 0.0, 'flw0': 3.2, 'time': 31.99, 'compass': 22.62, 'pitch': 2.18, 'roll': 0.5}
{'lipoC2': 7.99, 'temp': 0.0, 'lipoC3S3': 12.41, 'state': 'normal', 'rot1': 184, 'rot0': 166, 'rot3': 0, 'rot2': 0, 'depth': 1.385, 'yaw': 30.2, 'datetime': '2018-12-12 10:53:31.414717', 'mgs': 0, 'flw2': 1.76, 'flw1': 0.0, 'flw0': 2.8, 'time': 32.2, 'compass': 17.95, 'pitch': 2.96, 'roll': -0.4}
{'lipoC2': 8.0, 'temp': 0.0, 'lipoC3S3': 12.02, 'state': 'normal', 'rot1': 187, 'rot0': 169, 'rot3': 0, 'rot2': 0, 'depth': 2.988, 'yaw': 26.08, 'datetime': '2018-12-12 10:53:31.623848', 'mgs': 0, 'flw2': 1.6, 'flw1': 0.0, 'flw0': 3.15, 'time': 32.41, 'compass': 13.83, 'pitch': 3.62, 'roll': -1.09}
{'lipoC2': 8.05, 'temp': 0.0, 'lipoC3S3': 11.9, 'state': 'normal', 'rot1': 191, 'rot0': 171, 'rot3': 0, 'rot2': 0, 'depth': 3.827, 'yaw': 22.19, 'datetime': '2018-12-12 10:53:31.832077', 'mgs': 0, 'flw2': 1.64, 'flw1': 0.18, 'flw0': 2.67, 'time': 32.62, 'compass': 9.93, 'pitch': 4.16, 'roll': -1.22}
{'lipoC2': 8.02, 'temp': 0.0, 'lipoC3S3': 12.39, 'state': 'normal', 'rot1': 193, 'rot0': 173, 'rot3': 0, 'rot2': 0, 'depth': 1.004, 'yaw': 18.37, 'datetime': '2018-12-12 10:53:32.042365', 'mgs': 0, 'flw2': 1.62, 'flw1': 0.0, 'flw0': 2.99, 'time': 32.82, 'compass': 6.12, 'pitch': 4.66, 'roll': -0.97}
{'lipoC2': 8.02, 'temp': 0.0, 'lipoC3S3': 12.37, 'state': 'normal', 'rot1': 196, 'rot0': 175, 'rot3': 0, 'rot2': 0, 'depth': 0.012, 'yaw': 14.42, 'datetime': '2018-12-12 10:53:32.252022', 'mgs': 0, 'flw2': 2.01, 'flw1': 0.0, 'flw0': 2.93, 'time': 33.03, 'compass': 2.16, 'pitch': 4.93, 'roll': -0.69}
{'lipoC2': 7.96, 'temp': 0.0, 'lipoC3S3': 11.81, 'state': 'normal', 'rot1': 199, 'rot0': 177, 'rot3': 0, 'rot2': 0, 'depth': 0.47, 'yaw': 10.63, 'datetime': '2018-12-12 10:53:32.462680', 'mgs': 0, 'flw2': 1.88, 'flw1': 0.21, 'flw0': 2.75, 'time': 33.24, 'compass': -1.63, 'pitch': 4.91, 'roll': -0.74}
{'lipoC2': 8.15, 'temp': 0.0, 'lipoC3S3': 11.96, 'state': 'normal', 'rot1': 201, 'rot0': 179, 'rot3': 0, 'rot2': 0, 'depth': 2.301, 'yaw': 7.23, 'datetime': '2018-12-12 10:53:32.671061', 'mgs': 0, 'flw2': 3.15, 'flw1': 0.0, 'flw0': 0.0, 'time': 33.45, 'compass': -5.02, 'pitch': 4.49, 'roll': -0.81}
{'lipoC2': 8.08, 'temp': 0.0, 'lipoC3S3': 12.14, 'state': 'normal', 'rot1': 201, 'rot0': 180, 'rot3': 0, 'rot2': 0, 'depth': 2.988, 'yaw': 6.22, 'datetime': '2018-12-12 10:53:32.880136', 'mgs': 0, 'flw2': 0.33, 'flw1': 0.0, 'flw0': 0.23, 'time': 33.66, 'compass': -6.04, 'pitch': 2.57, 'roll': -0.5}
{'lipoC2': 8.29, 'temp': 0.0, 'lipoC3S3': 12.12, 'state': 'normal', 'rot1': 201, 'rot0': 180, 'rot3': 0, 'rot2': 0, 'depth': -0.598, 'yaw': 5.33, 'datetime': '2018-12-12 10:53:33.087797', 'mgs': 0, 'flw2': 0.0, 'flw1': 0.64, 'flw0': 0.0, 'time': 33.87, 'compass': -6.92, 'pitch': -0.67, 'roll': -0.17}
{'lipoC2': 8.26, 'temp': 0.0, 'lipoC3S3': 12.09, 'state': 'normal', 'rot1': 201, 'rot0': 180, 'rot3': 0, 'rot2': 0, 'depth': -0.751, 'yaw': 4.3, 'datetime': '2018-12-12 10:53:33.298171', 'mgs': 0, 'flw2': 0.0, 'flw1': 0.7, 'flw0': 0.0, 'time': 34.08, 'compass': -7.96, 'pitch': -4.26, 'roll': 0.21}
{'lipoC2': 8.29, 'temp': 0.0, 'lipoC3S3': 12.09, 'state': 'normal', 'rot1': 201, 'rot0': 180, 'rot3': 1, 'rot2': 0, 'depth': 1.92, 'yaw': 3.12, 'datetime': '2018-12-12 10:53:33.508619', 'mgs': 0, 'flw2': 0.0, 'flw1': 1.05, 'flw0': 0.0, 'time': 34.29, 'compass': -9.14, 'pitch': -7.7, 'roll': 0.61}
{'lipoC2': 8.27, 'temp': 0.0, 'lipoC3S3': 12.08, 'state': 'normal', 'rot1': 201, 'rot0': 180, 'rot3': 1, 'rot2': 0, 'depth': -0.98, 'yaw': 1.88, 'datetime': '2018-12-12 10:53:33.716876', 'mgs': 0, 'flw2': 0.0, 'flw1': 1.85, 'flw0': 0.0, 'time': 34.5, 'compass': -10.37, 'pitch': -10.37, 'roll': 0.75}
{'lipoC2': 8.29, 'temp': 0.0, 'lipoC3S3': 12.04, 'state': 'normal', 'rot1': 201, 'rot0': 180, 'rot3': 2, 'rot2': 1, 'depth': -0.903, 'yaw': 0.63, 'datetime': '2018-12-12 10:53:33.926550', 'mgs': 0, 'flw2': 0.0, 'flw1': 2.34, 'flw0': 0.0, 'time': 34.71, 'compass': -11.63, 'pitch': -11.54, 'roll': 0.64}
{'lipoC2': 7.95, 'temp': 0.0, 'lipoC3S3': 12.35, 'state': 'normal', 'rot1': 201, 'rot0': 180, 'rot3': 2, 'rot2': 2, 'depth': -0.293, 'yaw': -0.69, 'datetime': '2018-12-12 10:53:34.134958', 'mgs': 0, 'flw2': 0.26, 'flw1': 2.84, 'flw0': 0.31, 'time': 34.91, 'compass': -12.95, 'pitch': -11.02, 'roll': 0.57}
{'lipoC2': 8.01, 'temp': 0.0, 'lipoC3S3': 11.87, 'state': 'normal', 'rot1': 201, 'rot0': 181, 'rot3': 3, 'rot2': 3, 'depth': 2.682, 'yaw': -1.77, 'datetime': '2018-12-12 10:53:34.345340', 'mgs': 0, 'flw2': 4.49, 'flw1': 2.49, 'flw0': 0.29, 'time': 35.12, 'compass': -14.03, 'pitch': -9.03, 'roll': 0.58}
{'lipoC2': 8.04, 'temp': 0.0, 'lipoC3S3': 11.9, 'state': 'normal', 'rot1': 201, 'rot0': 184, 'rot3': 4, 'rot2': 4, 'depth': -0.14, 'yaw': -0.22, 'datetime': '2018-12-12 10:53:34.566152', 'mgs': 0, 'flw2': 4.99, 'flw1': 2.64, 'flw0': 0.4, 'time': 35.33, 'compass': -12.47, 'pitch': -4.63, 'roll': 1.24}
{'lipoC2': 7.96, 'temp': 0.0, 'lipoC3S3': 12.27, 'state': 'normal', 'rot1': 203, 'rot0': 187, 'rot3': 4, 'rot2': 5, 'depth': 0.317, 'yaw': 3.95, 'datetime': '2018-12-12 10:53:34.769448', 'mgs': 0, 'flw2': 4.68, 'flw1': 3.52, 'flw0': 4.41, 'time': 35.54, 'compass': -8.31, 'pitch': 0.44, 'roll': 1.82}
{'lipoC2': 8.2, 'temp': 0.0, 'lipoC3S3': 11.89, 'state': 'normal', 'rot1': 206, 'rot0': 191, 'rot3': 5, 'rot2': 6, 'depth': 1.996, 'yaw': 6.6, 'datetime': '2018-12-12 10:53:34.981425', 'mgs': 0, 'flw2': 4.81, 'flw1': 3.43, 'flw0': 4.22, 'time': 35.75, 'compass': -5.66, 'pitch': 5.79, 'roll': 1.72}
{'lipoC2': 8.0, 'temp': 0.0, 'lipoC3S3': 11.92, 'state': 'normal', 'rot1': 210, 'rot0': 193, 'rot3': 6, 'rot2': 7, 'depth': 2.225, 'yaw': 8.06, 'datetime': '2018-12-12 10:53:35.185551', 'mgs': 0, 'flw2': 4.52, 'flw1': 2.96, 'flw0': 4.3, 'time': 35.96, 'compass': -4.19, 'pitch': 9.63, 'roll': 1.73}
{'lipoC2': 7.97, 'temp': 0.0, 'lipoC3S3': 12.1, 'state': 'normal', 'rot1': 213, 'rot0': 197, 'rot3': 7, 'rot2': 8, 'depth': 1.691, 'yaw': 8.57, 'datetime': '2018-12-12 10:53:35.393880', 'mgs': 0, 'flw2': 5.09, 'flw1': 2.43, 'flw0': 4.66, 'time': 36.17, 'compass': -3.69, 'pitch': 10.53, 'roll': 1.77}
{'lipoC2': 8.04, 'temp': 0.0, 'lipoC3S3': 11.8, 'state': 'normal', 'rot1': 215, 'rot0': 200, 'rot3': 7, 'rot2': 9, 'depth': 0.623, 'yaw': 8.55, 'datetime': '2018-12-12 10:53:35.605211', 'mgs': 0, 'flw2': 4.8, 'flw1': 2.87, 'flw0': 4.17, 'time': 36.38, 'compass': -3.7, 'pitch': 8.43, 'roll': 1.65}
{'lipoC2': 8.0, 'temp': 0.0, 'lipoC3S3': 12.01, 'state': 'normal', 'rot1': 218, 'rot0': 203, 'rot3': 8, 'rot2': 10, 'depth': 0.47, 'yaw': 8.49, 'datetime': '2018-12-12 10:53:35.813652', 'mgs': 0, 'flw2': 4.85, 'flw1': 2.52, 'flw0': 3.16, 'time': 36.59, 'compass': -3.76, 'pitch': 6.05, 'roll': 1.85}
{'lipoC2': 7.96, 'temp': 0.0, 'lipoC3S3': 12.08, 'state': 'normal', 'rot1': 222, 'rot0': 205, 'rot3': 9, 'rot2': 12, 'depth': -0.293, 'yaw': 8.95, 'datetime': '2018-12-12 10:53:36.023853', 'mgs': 0, 'flw2': 4.77, 'flw1': 2.29, 'flw0': 3.13, 'time': 36.8, 'compass': -3.3, 'pitch': 4.65, 'roll': 2.52}
{'lipoC2': 8.15, 'temp': 0.0, 'lipoC3S3': 11.87, 'state': 'normal', 'rot1': 225, 'rot0': 208, 'rot3': 10, 'rot2': 13, 'depth': -0.14, 'yaw': 9.78, 'datetime': '2018-12-12 10:53:36.234025', 'mgs': 0, 'flw2': 4.87, 'flw1': 2.4, 'flw0': 3.2, 'time': 37.01, 'compass': -2.48, 'pitch': 4.21, 'roll': 2.68}
{'lipoC2': 7.96, 'temp': 0.0, 'lipoC3S3': 12.29, 'state': 'normal', 'rot1': 228, 'rot0': 212, 'rot3': 11, 'rot2': 14, 'depth': -0.446, 'yaw': 10.55, 'datetime': '2018-12-12 10:53:36.447406', 'mgs': 0, 'flw2': 4.54, 'flw1': 2.72, 'flw0': 3.27, 'time': 37.22, 'compass': -1.71, 'pitch': 4.18, 'roll': 2.53}
{'lipoC2': 7.98, 'temp': 0.0, 'lipoC3S3': 12.34, 'state': 'normal', 'rot1': 231, 'rot0': 215, 'rot3': 11, 'rot2': 15, 'depth': 0.47, 'yaw': 11.65, 'datetime': '2018-12-12 10:53:36.655570', 'mgs': 0, 'flw2': 4.8, 'flw1': 3.02, 'flw0': 3.15, 'time': 37.43, 'compass': -0.6, 'pitch': 4.62, 'roll': 2.89}
{'lipoC2': 7.98, 'temp': 0.0, 'lipoC3S3': 12.09, 'state': 'normal', 'rot1': 233, 'rot0': 219, 'rot3': 12, 'rot2': 16, 'depth': 2.225, 'yaw': 13.19, 'datetime': '2018-12-12 10:53:36.864753', 'mgs': 0, 'flw2': 6.57, 'flw1': 2.46, 'flw0': 3.22, 'time': 37.64, 'compass': 0.94, 'pitch': 4.92, 'roll': 3.7}
{'lipoC2': 8.01, 'temp': 0.0, 'lipoC3S3': 11.85, 'state': 'normal', 'rot1': 236, 'rot0': 222, 'rot3': 13, 'rot2': 17, 'depth': 3.217, 'yaw': 15.38, 'datetime': '2018-12-12 10:53:37.075134', 'mgs': 0, 'flw2': 6.25, 'flw1': 3.28, 'flw0': 3.19, 'time': 37.85, 'compass': 3.12, 'pitch': 5.12, 'roll': 4.32}
{'lipoC2': 8.0, 'temp': 0.0, 'lipoC3S3': 11.89, 'state': 'normal', 'rot1': 239, 'rot0': 226, 'rot3': 14, 'rot2': 18, 'depth': 3.293, 'yaw': 18.0, 'datetime': '2018-12-12 10:53:37.284903', 'mgs': 0, 'flw2': 6.7, 'flw1': 2.64, 'flw0': 3.61, 'time': 38.06, 'compass': 5.74, 'pitch': 5.33, 'roll': 4.51}
{'lipoC2': 8.01, 'temp': 0.0, 'lipoC3S3': 11.76, 'state': 'normal', 'rot1': 242, 'rot0': 229, 'rot3': 14, 'rot2': 19, 'depth': 2.377, 'yaw': 20.65, 'datetime': '2018-12-12 10:53:37.498190', 'mgs': 0, 'flw2': 6.32, 'flw1': 2.34, 'flw0': 4.68, 'time': 38.27, 'compass': 8.39, 'pitch': 5.86, 'roll': 4.28}
{'lipoC2': 8.19, 'temp': 0.0, 'lipoC3S3': 11.85, 'state': 'normal', 'rot1': 245, 'rot0': 233, 'rot3': 15, 'rot2': 20, 'depth': 1.157, 'yaw': 22.85, 'datetime': '2018-12-12 10:53:37.705688', 'mgs': 0, 'flw2': 6.19, 'flw1': 3.49, 'flw0': 4.99, 'time': 38.48, 'compass': 10.59, 'pitch': 6.66, 'roll': 4.08}
{'lipoC2': 7.99, 'temp': 0.0, 'lipoC3S3': 12.06, 'state': 'normal', 'rot1': 249, 'rot0': 236, 'rot3': 16, 'rot2': 21, 'depth': 1.08, 'yaw': 24.68, 'datetime': '2018-12-12 10:53:37.914828', 'mgs': 0, 'flw2': 6.62, 'flw1': 2.49, 'flw0': 5.16, 'time': 38.69, 'compass': 12.42, 'pitch': 7.47, 'roll': 4.39}
{'lipoC2': 8.04, 'temp': 0.0, 'lipoC3S3': 11.8, 'state': 'normal', 'rot1': 252, 'rot0': 240, 'rot3': 17, 'rot2': 22, 'depth': 3.293, 'yaw': 26.36, 'datetime': '2018-12-12 10:53:38.125936', 'mgs': 0, 'flw2': 6.18, 'flw1': 3.34, 'flw0': 5.02, 'time': 38.9, 'compass': 14.11, 'pitch': 7.83, 'roll': 5.0}
{'lipoC2': 8.16, 'temp': 0.0, 'lipoC3S3': 11.72, 'state': 'normal', 'rot1': 255, 'rot0': 244, 'rot3': 17, 'rot2': 24, 'depth': 0.317, 'yaw': 27.74, 'datetime': '2018-12-12 10:53:38.337197', 'mgs': 0, 'flw2': 6.67, 'flw1': 2.49, 'flw0': 4.99, 'time': 39.11, 'compass': 15.49, 'pitch': 7.73, 'roll': 5.57}
{'lipoC2': 8.04, 'temp': 0.0, 'lipoC3S3': 11.75, 'state': 'normal', 'rot1': 259, 'rot0': 248, 'rot3': 18, 'rot2': 25, 'depth': 2.682, 'yaw': 28.97, 'datetime': '2018-12-12 10:53:38.549182', 'mgs': 0, 'flw2': 6.36, 'flw1': 2.31, 'flw0': 5.19, 'time': 39.32, 'compass': 16.72, 'pitch': 7.1, 'roll': 5.86}
{'lipoC2': 8.01, 'temp': 0.0, 'lipoC3S3': 12.26, 'state': 'normal', 'rot1': 263, 'rot0': 251, 'rot3': 19, 'rot2': 26, 'depth': 1.157, 'yaw': 30.1, 'datetime': '2018-12-12 10:53:38.758840', 'mgs': 0, 'flw2': 6.42, 'flw1': 2.64, 'flw0': 4.93, 'time': 39.53, 'compass': 17.85, 'pitch': 6.55, 'roll': 5.97}
{'lipoC2': 8.02, 'temp': 0.0, 'lipoC3S3': 11.94, 'state': 'normal', 'rot1': 266, 'rot0': 255, 'rot3': 20, 'rot2': 27, 'depth': 0.546, 'yaw': 31.32, 'datetime': '2018-12-12 10:53:38.968066', 'mgs': 0, 'flw2': 6.02, 'flw1': 2.46, 'flw0': 4.7, 'time': 39.74, 'compass': 19.06, 'pitch': 6.53, 'roll': 6.2}
{'lipoC2': 8.24, 'temp': 0.0, 'lipoC3S3': 11.93, 'state': 'normal', 'rot1': 270, 'rot0': 258, 'rot3': 20, 'rot2': 28, 'depth': 0.623, 'yaw': 32.59, 'datetime': '2018-12-12 10:53:39.177092', 'mgs': 0, 'flw2': 6.67, 'flw1': 2.75, 'flw0': 5.46, 'time': 39.95, 'compass': 20.34, 'pitch': 6.7, 'roll': 6.33}
{'lipoC2': 8.08, 'temp': 0.0, 'lipoC3S3': 11.96, 'state': 'normal', 'rot1': 274, 'rot0': 262, 'rot3': 21, 'rot2': 29, 'depth': -0.293, 'yaw': 33.88, 'datetime': '2018-12-12 10:53:39.387474', 'mgs': 0, 'flw2': 6.35, 'flw1': 2.96, 'flw0': 4.97, 'time': 40.16, 'compass': 21.62, 'pitch': 6.69, 'roll': 6.69}
{'lipoC2': 7.99, 'temp': 0.0, 'lipoC3S3': 11.85, 'state': 'normal', 'rot1': 277, 'rot0': 265, 'rot3': 22, 'rot2': 30, 'depth': 2.835, 'yaw': 35.03, 'datetime': '2018-12-12 10:53:39.597706', 'mgs': 0, 'flw2': 6.35, 'flw1': 2.52, 'flw0': 4.66, 'time': 40.37, 'compass': 22.77, 'pitch': 6.85, 'roll': 7.04}
{'lipoC2': 8.28, 'temp': 0.0, 'lipoC3S3': 11.83, 'state': 'normal', 'rot1': 282, 'rot0': 269, 'rot3': 23, 'rot2': 31, 'depth': 1.538, 'yaw': 36.24, 'datetime': '2018-12-12 10:53:39.807907', 'mgs': 0, 'flw2': 6.05, 'flw1': 2.84, 'flw0': 4.94, 'time': 40.58, 'compass': 23.98, 'pitch': 6.74, 'roll': 6.94}
{'lipoC2': 7.96, 'temp': 0.0, 'lipoC3S3': 12.1, 'state': 'normal', 'rot1': 285, 'rot0': 272, 'rot3': 24, 'rot2': 32, 'depth': 1.004, 'yaw': 37.52, 'datetime': '2018-12-12 10:53:40.017342', 'mgs': 0, 'flw2': 2.23, 'flw1': 2.81, 'flw0': 7.28, 'time': 40.79, 'compass': 25.27, 'pitch': 6.88, 'roll': 6.68}
{'lipoC2': 8.22, 'temp': 0.0, 'lipoC3S3': 11.79, 'state': 'normal', 'rot1': 291, 'rot0': 274, 'rot3': 24, 'rot2': 33, 'depth': 2.377, 'yaw': 36.82, 'datetime': '2018-12-12 10:53:40.228101', 'mgs': 0, 'flw2': 1.89, 'flw1': 2.52, 'flw0': 7.19, 'time': 41.0, 'compass': 24.56, 'pitch': 7.16, 'roll': 6.58}
{'lipoC2': 8.01, 'temp': 0.0, 'lipoC3S3': 12.04, 'state': 'normal', 'rot1': 296, 'rot0': 276, 'rot3': 25, 'rot2': 34, 'depth': 0.089, 'yaw': 32.97, 'datetime': '2018-12-12 10:53:40.438364', 'mgs': 0, 'flw2': 0.76, 'flw1': 2.46, 'flw0': 7.2, 'time': 41.21, 'compass': 20.72, 'pitch': 6.22, 'roll': 6.57}
{'lipoC2': 7.96, 'temp': 0.0, 'lipoC3S3': 12.13, 'state': 'normal', 'rot1': 300, 'rot0': 278, 'rot3': 26, 'rot2': 35, 'depth': 0.47, 'yaw': 26.68, 'datetime': '2018-12-12 10:53:40.649052', 'mgs': 0, 'flw2': 2.01, 'flw1': 3.63, 'flw0': 7.48, 'time': 41.42, 'compass': 14.42, 'pitch': 3.92, 'roll': 5.92}
{'lipoC2': 7.96, 'temp': 0.0, 'lipoC3S3': 12.22, 'state': 'normal', 'rot1': 306, 'rot0': 280, 'rot3': 27, 'rot2': 36, 'depth': 1.233, 'yaw': 19.53, 'datetime': '2018-12-12 10:53:40.859535', 'mgs': 0, 'flw2': 3.72, 'flw1': 3.63, 'flw0': 7.4, 'time': 41.63, 'compass': 7.27, 'pitch': 2.69, 'roll': 4.7}
{'lipoC2': 8.25, 'temp': 0.0, 'lipoC3S3': 11.71, 'state': 'normal', 'rot1': 310, 'rot0': 283, 'rot3': 27, 'rot2': 38, 'depth': 0.47, 'yaw': 13.64, 'datetime': '2018-12-12 10:53:41.068698', 'mgs': 0, 'flw2': 3.63, 'flw1': 3.4, 'flw0': 7.3, 'time': 41.84, 'compass': 1.39, 'pitch': 3.25, 'roll': 3.31}
{'lipoC2': 7.96, 'temp': 0.0, 'lipoC3S3': 12.17, 'state': 'normal', 'rot1': 315, 'rot0': 285, 'rot3': 28, 'rot2': 39, 'depth': 0.623, 'yaw': 8.88, 'datetime': '2018-12-12 10:53:41.279717', 'mgs': 0, 'flw2': 3.91, 'flw1': 3.6, 'flw0': 7.48, 'time': 42.05, 'compass': -3.38, 'pitch': 4.52, 'roll': 2.27}
{'lipoC2': 7.99, 'temp': 0.0, 'lipoC3S3': 12.27, 'state': 'normal', 'rot1': 319, 'rot0': 288, 'rot3': 29, 'rot2': 40, 'depth': 1.004, 'yaw': 5.08, 'datetime': '2018-12-12 10:53:41.488284', 'mgs': 0, 'flw2': 4.64, 'flw1': 3.37, 'flw0': 5.9, 'time': 42.26, 'compass': -7.17, 'pitch': 6.39, 'roll': 1.46}
{'lipoC2': 8.04, 'temp': 0.0, 'lipoC3S3': 12.06, 'state': 'normal', 'rot1': 323, 'rot0': 292, 'rot3': 30, 'rot2': 41, 'depth': 2.301, 'yaw': 2.43, 'datetime': '2018-12-12 10:53:41.702697', 'mgs': 0, 'flw2': 4.8, 'flw1': 2.46, 'flw0': 6.16, 'time': 42.47, 'compass': -9.82, 'pitch': 7.95, 'roll': 1.08}
{'lipoC2': 8.06, 'temp': 0.0, 'lipoC3S3': 11.61, 'state': 'normal', 'rot1': 327, 'rot0': 295, 'rot3': 30, 'rot2': 42, 'depth': -0.14, 'yaw': 0.02, 'datetime': '2018-12-12 10:53:41.914356', 'mgs': 0, 'flw2': 4.35, 'flw1': 3.11, 'flw0': 6.05, 'time': 42.68, 'compass': -12.24, 'pitch': 8.76, 'roll': 0.61}
{'lipoC2': 8.07, 'temp': 0.0, 'lipoC3S3': 11.98, 'state': 'normal', 'rot1': 331, 'rot0': 298, 'rot3': 31, 'rot2': 43, 'depth': 2.53, 'yaw': -2.47, 'datetime': '2018-12-12 10:53:42.122382', 'mgs': 0, 'flw2': 4.75, 'flw1': 2.29, 'flw0': 6.62, 'time': 42.89, 'compass': -14.73, 'pitch': 9.0, 'roll': -0.21}
{'lipoC2': 8.21, 'temp': 0.0, 'lipoC3S3': 11.87, 'state': 'normal', 'rot1': 336, 'rot0': 302, 'rot3': 32, 'rot2': 44, 'depth': 2.225, 'yaw': -4.62, 'datetime': '2018-12-12 10:53:42.333525', 'mgs': 0, 'flw2': 4.76, 'flw1': 2.55, 'flw0': 6.03, 'time': 43.1, 'compass': -16.87, 'pitch': 8.59, 'roll': -0.96}
{'lipoC2': 8.04, 'temp': 0.0, 'lipoC3S3': 11.58, 'state': 'normal', 'rot1': 340, 'rot0': 305, 'rot3': 33, 'rot2': 45, 'depth': 2.759, 'yaw': -6.48, 'datetime': '2018-12-12 10:53:42.541505', 'mgs': 0, 'flw2': 4.7, 'flw1': 2.17, 'flw0': 6.27, 'time': 43.31, 'compass': -18.74, 'pitch': 7.73, 'roll': -1.36}
