{'lipoC2': 0.12, 'temp': 0.0, 'lipoC3S3': 11.76, 'state': 'normal', 'rot1': 0, 'rot0': 0, 'rot3': 0, 'rot2': 0, 'depth': 0.394, 'yaw': 0.0, 'datetime': '2018-12-18 20:08:29.022450', 'mgs': 0, 'flw2': 0.2, 'flw1': 0.06, 'flw0': 0.0, 'time': 1.26, 'compass': -20.96, 'pitch': 0.9, 'roll': -1.12}
{'lipoC2': 0.11, 'temp': 0.0, 'lipoC3S3': 11.76, 'state': 'normal', 'rot1': 0, 'rot0': 0, 'rot3': 0, 'rot2': 0, 'depth': 0.699, 'yaw': -0.01, 'datetime': '2018-12-18 20:08:29.229960', 'mgs': 0, 'flw2': 0.17, 'flw1': 0.0, 'flw0': 0.0, 'time': 1.46, 'compass': -20.97, 'pitch': 0.85, 'roll': -1.15}
{'lipoC2': 0.01, 'temp': 0.0, 'lipoC3S3': 12.05, 'state': 'normal', 'rot1': 0, 'rot0': 0, 'rot3': 0, 'rot2': 0, 'depth': 0.089, 'yaw': -0.0, 'datetime': '2018-12-18 20:08:29.438883', 'mgs': 0, 'flw2': 0.0, 'flw1': 0.41, 'flw0': 0.02, 'time': 1.67, 'compass': -20.97, 'pitch': 0.51, 'roll': -1.15}
{'lipoC2': 0.0, 'temp': 0.0, 'lipoC3S3': 11.81, 'state': 'normal', 'rot1': 0, 'rot0': 0, 'rot3': 0, 'rot2': 0, 'depth': -0.827, 'yaw': -0.0, 'datetime': '2018-12-18 20:08:29.646120', 'mgs': 0, 'flw2': 0.12, 'flw1': 0.23, 'flw0': 0.0, 'time': 1.88, 'compass': -20.97, 'pitch': 0.5, 'roll': -1.15}
{'lipoC2': 0.14, 'temp': 0.0, 'lipoC3S3': 11.96, 'state': 'normal', 'rot1': 0, 'rot0': 0, 'rot3': 0, 'rot2': 0, 'depth': -1.514, 'yaw': -0.01, 'datetime': '2018-12-18 20:08:29.854467', 'mgs': 0, 'flw2': 0.0, 'flw1': 0.47, 'flw0': 0.0, 'time': 2.09, 'compass': -20.97, 'pitch': 0.85, 'roll': -1.15}
{'lipoC2': 0.05, 'temp': 0.0, 'lipoC3S3': 11.77, 'state': 'normal', 'rot1': 0, 'rot0': 0, 'rot3': 0, 'rot2': 0, 'depth': 0.165, 'yaw': -0.0, 'datetime': '2018-12-18 20:08:30.063896', 'mgs': 0, 'flw2': 0.13, 'flw1': 0.0, 'flw0': 0.0, 'time': 2.3, 'compass': -20.97, 'pitch': 1.09, 'roll': -1.26}
{'lipoC2': 0.0, 'temp': 0.0, 'lipoC3S3': 11.92, 'state': 'normal', 'rot1': 0, 'rot0': 0, 'rot3': 0, 'rot2': 0, 'depth': 0.623, 'yaw': -0.0, 'datetime': '2018-12-18 20:08:30.272701', 'mgs': 0, 'flw2': 0.0, 'flw1': 0.0, 'flw0': 0.16, 'time': 2.5, 'compass': -20.97, 'pitch': 1.07, 'roll': -1.32}
{'lipoC2': 0.0, 'temp': 0.0, 'lipoC3S3': 12.02, 'state': 'normal', 'rot1': 0, 'rot0': 0, 'rot3': 0, 'rot2': 0, 'depth': -1.437, 'yaw': -0.01, 'datetime': '2018-12-18 20:08:30.480656', 'mgs': 0, 'flw2': 0.0, 'flw1': 0.41, 'flw0': 0.02, 'time': 2.71, 'compass': -20.97, 'pitch': 0.97, 'roll': -1.45}
{'lipoC2': 0.0, 'temp': 0.0, 'lipoC3S3': 12.08, 'state': 'normal', 'rot1': 0, 'rot0': 0, 'rot3': 0, 'rot2': 0, 'depth': 1.157, 'yaw': -0.02, 'datetime': '2018-12-18 20:08:30.689135', 'mgs': 0, 'flw2': 0.0, 'flw1': 0.0, 'flw0': 0.0, 'time': 2.92, 'compass': -20.98, 'pitch': 1.09, 'roll': -1.69}
{'lipoC2': 0.06, 'temp': 0.0, 'lipoC3S3': 12.02, 'state': 'normal', 'rot1': 0, 'rot0': 0, 'rot3': 0, 'rot2': 0, 'depth': -1.59, 'yaw': -0.06, 'datetime': '2018-12-18 20:08:30.899637', 'mgs': 0, 'flw2': 0.0, 'flw1': 0.32, 'flw0': 3.19, 'time': 3.13, 'compass': -21.02, 'pitch': 1.2, 'roll': -1.86}
{'lipoC2': 0.12, 'temp': 0.0, 'lipoC3S3': 11.77, 'state': 'normal', 'rot1': 3, 'rot0': 0, 'rot3': 0, 'rot2': 0, 'depth': 0.47, 'yaw': -2.55, 'datetime': '2018-12-18 20:08:31.107597', 'mgs': 0, 'flw2': 0.0, 'flw1': 0.0, 'flw0': 3.03, 'time': 3.33, 'compass': -23.51, 'pitch': 2.32, 'roll': -2.35}
{'lipoC2': 0.0, 'temp': 0.0, 'lipoC3S3': 12.18, 'state': 'normal', 'rot1': 4, 'rot0': 0, 'rot3': 0, 'rot2': 0, 'depth': -0.369, 'yaw': -7.44, 'datetime': '2018-12-18 20:08:31.312259', 'mgs': 0, 'flw2': 0.0, 'flw1': 0.0, 'flw0': 0.21, 'time': 3.54, 'compass': -28.4, 'pitch': 3.44, 'roll': -2.77}
{'lipoC2': 0.02, 'temp': 0.0, 'lipoC3S3': 12.04, 'state': 'normal', 'rot1': 4, 'rot0': 0, 'rot3': 0, 'rot2': 0, 'depth': -1.208, 'yaw': -12.24, 'datetime': '2018-12-18 20:08:31.521637', 'mgs': 0, 'flw2': 0.0, 'flw1': 0.41, 'flw0': 0.02, 'time': 3.75, 'compass': -33.21, 'pitch': 2.53, 'roll': -2.39}
{'lipoC2': 0.11, 'temp': 0.0, 'lipoC3S3': 11.77, 'state': 'normal', 'rot1': 6, 'rot0': 0, 'rot3': 0, 'rot2': 0, 'depth': 0.47, 'yaw': -17.29, 'datetime': '2018-12-18 20:08:31.728858', 'mgs': 0, 'flw2': 0.0, 'flw1': 0.15, 'flw0': 3.05, 'time': 3.96, 'compass': -38.25, 'pitch': 2.0, 'roll': -1.83}
{'lipoC2': 0.13, 'temp': 0.0, 'lipoC3S3': 11.96, 'state': 'normal', 'rot1': 8, 'rot0': 0, 'rot3': 0, 'rot2': 0, 'depth': -1.59, 'yaw': -24.73, 'datetime': '2018-12-18 20:08:31.939009', 'mgs': 0, 'flw2': 0.11, 'flw1': 0.35, 'flw0': 2.91, 'time': 4.17, 'compass': -45.69, 'pitch': 3.99, 'roll': -1.84}
{'lipoC2': 0.0, 'temp': 0.0, 'lipoC3S3': 11.89, 'state': 'normal', 'rot1': 11, 'rot0': 0, 'rot3': 0, 'rot2': 0, 'depth': 0.928, 'yaw': -33.33, 'datetime': '2018-12-18 20:08:32.146184', 'mgs': 0, 'flw2': 0.0, 'flw1': 0.0, 'flw0': 3.06, 'time': 4.37, 'compass': -54.29, 'pitch': 5.53, 'roll': -1.98}
{'lipoC2': 0.1, 'temp': 0.0, 'lipoC3S3': 11.98, 'state': 'normal', 'rot1': 13, 'rot0': 0, 'rot3': 0, 'rot2': 0, 'depth': -1.895, 'yaw': -43.29, 'datetime': '2018-12-18 20:08:32.354486', 'mgs': 0, 'flw2': 0.0, 'flw1': 0.44, 'flw0': 2.94, 'time': 4.58, 'compass': -64.25, 'pitch': 5.47, 'roll': -1.97}
{'lipoC2': 0.05, 'temp': 0.0, 'lipoC3S3': 12.02, 'state': 'normal', 'rot1': 15, 'rot0': 1, 'rot3': 0, 'rot2': 0, 'depth': -1.743, 'yaw': -53.27, 'datetime': '2018-12-18 20:08:32.561711', 'mgs': 0, 'flw2': 2.53, 'flw1': 0.32, 'flw0': 2.93, 'time': 4.79, 'compass': -74.23, 'pitch': 5.59, 'roll': -1.7}
{'lipoC2': 0.1, 'temp': 0.0, 'lipoC3S3': 11.98, 'state': 'normal', 'rot1': 17, 'rot0': 3, 'rot3': 0, 'rot2': 0, 'depth': -1.819, 'yaw': -60.45, 'datetime': '2018-12-18 20:08:32.771737', 'mgs': 0, 'flw2': 2.6, 'flw1': 0.5, 'flw0': 2.84, 'time': 5.0, 'compass': -81.42, 'pitch': 7.23, 'roll': -1.17}
{'lipoC2': 0.03, 'temp': 0.0, 'lipoC3S3': 11.79, 'state': 'normal', 'rot1': 20, 'rot0': 6, 'rot3': 0, 'rot2': 0, 'depth': 1.309, 'yaw': -66.06, 'datetime': '2018-12-18 20:08:32.980474', 'mgs': 0, 'flw2': 2.4, 'flw1': 0.32, 'flw0': 2.99, 'time': 5.21, 'compass': -87.03, 'pitch': 8.57, 'roll': -0.66}
{'lipoC2': 0.0, 'temp': 0.0, 'lipoC3S3': 11.89, 'state': 'normal', 'rot1': 23, 'rot0': 8, 'rot3': 0, 'rot2': 0, 'depth': -0.446, 'yaw': -70.33, 'datetime': '2018-12-18 20:08:33.189423', 'mgs': 0, 'flw2': 2.88, 'flw1': 0.0, 'flw0': 3.03, 'time': 5.42, 'compass': -91.29, 'pitch': 8.88, 'roll': -0.37}
{'lipoC2': 0.0, 'temp': 0.0, 'lipoC3S3': 11.85, 'state': 'normal', 'rot1': 25, 'rot0': 11, 'rot3': 0, 'rot2': 0, 'depth': -0.293, 'yaw': -73.71, 'datetime': '2018-12-18 20:08:33.399612', 'mgs': 0, 'flw2': 2.92, 'flw1': 0.0, 'flw0': 2.94, 'time': 5.63, 'compass': -94.68, 'pitch': 8.56, 'roll': -0.24}
{'lipoC2': 0.0, 'temp': 0.0, 'lipoC3S3': 12.17, 'state': 'normal', 'rot1': 27, 'rot0': 13, 'rot3': 0, 'rot2': 0, 'depth': 2.148, 'yaw': -76.39, 'datetime': '2018-12-18 20:08:33.607414', 'mgs': 0, 'flw2': 2.95, 'flw1': 0.0, 'flw0': 2.55, 'time': 5.83, 'compass': -97.35, 'pitch': 8.22, 'roll': -0.26}
{'lipoC2': 0.0, 'temp': 0.0, 'lipoC3S3': 12.18, 'state': 'normal', 'rot1': 30, 'rot0': 16, 'rot3': 0, 'rot2': 0, 'depth': 1.767, 'yaw': -78.84, 'datetime': '2018-12-18 20:08:33.816156', 'mgs': 0, 'flw2': 2.73, 'flw1': 0.0, 'flw0': 3.02, 'time': 6.04, 'compass': -99.8, 'pitch': 8.14, 'roll': -0.33}
{'lipoC2': 0.17, 'temp': 0.0, 'lipoC3S3': 11.88, 'state': 'normal', 'rot1': 32, 'rot0': 18, 'rot3': 0, 'rot2': 0, 'depth': -0.827, 'yaw': -81.09, 'datetime': '2018-12-18 20:08:34.024547', 'mgs': 0, 'flw2': 2.78, 'flw1': 0.0, 'flw0': 2.97, 'time': 6.25, 'compass': -102.05, 'pitch': 8.15, 'roll': -0.22}
{'lipoC2': 0.0, 'temp': 0.0, 'lipoC3S3': 12.18, 'state': 'normal', 'rot1': 34, 'rot0': 21, 'rot3': 0, 'rot2': 0, 'depth': 1.691, 'yaw': -83.14, 'datetime': '2018-12-18 20:08:34.234657', 'mgs': 0, 'flw2': 2.91, 'flw1': 0.21, 'flw0': 2.75, 'time': 6.46, 'compass': -104.11, 'pitch': 8.16, 'roll': 0.08}
{'lipoC2': 0.0, 'temp': 0.0, 'lipoC3S3': 11.98, 'state': 'normal', 'rot1': 36, 'rot0': 23, 'rot3': 0, 'rot2': 0, 'depth': 0.012, 'yaw': -84.88, 'datetime': '2018-12-18 20:08:34.445025', 'mgs': 0, 'flw2': 2.87, 'flw1': 0.0, 'flw0': 2.84, 'time': 6.67, 'compass': -105.84, 'pitch': 8.14, 'roll': 0.32}
{'lipoC2': 0.0, 'temp': 0.0, 'lipoC3S3': 11.84, 'state': 'normal', 'rot1': 39, 'rot0': 26, 'rot3': 0, 'rot2': 0, 'depth': -0.446, 'yaw': -86.37, 'datetime': '2018-12-18 20:08:34.654083', 'mgs': 0, 'flw2': 3.08, 'flw1': 0.15, 'flw0': 0.26, 'time': 6.88, 'compass': -107.34, 'pitch': 8.12, 'roll': 0.54}
{'lipoC2': 0.0, 'temp': 0.0, 'lipoC3S3': 12.09, 'state': 'normal', 'rot1': 39, 'rot0': 28, 'rot3': 0, 'rot2': 0, 'depth': 1.462, 'yaw': -86.57, 'datetime': '2018-12-18 20:08:34.863253', 'mgs': 0, 'flw2': 3.0, 'flw1': 0.0, 'flw0': 0.0, 'time': 7.09, 'compass': -107.53, 'pitch': 7.37, 'roll': 0.83}
{'lipoC2': 0.0, 'temp': 0.0, 'lipoC3S3': 12.18, 'state': 'normal', 'rot1': 39, 'rot0': 30, 'rot3': 0, 'rot2': 0, 'depth': -0.369, 'yaw': -84.32, 'datetime': '2018-12-18 20:08:35.071516', 'mgs': 0, 'flw2': 2.31, 'flw1': 0.0, 'flw0': 0.18, 'time': 7.3, 'compass': -105.29, 'pitch': 6.39, 'roll': 1.25}
{'lipoC2': 0.0, 'temp': 0.0, 'lipoC3S3': 12.02, 'state': 'normal', 'rot1': 39, 'rot0': 31, 'rot3': 0, 'rot2': 0, 'depth': 0.775, 'yaw': -81.44, 'datetime': '2018-12-18 20:08:35.280425', 'mgs': 0, 'flw2': 0.0, 'flw1': 0.29, 'flw0': 0.11, 'time': 7.5, 'compass': -102.4, 'pitch': 5.67, 'roll': 1.35}
{'lipoC2': 0.1, 'temp': 0.0, 'lipoC3S3': 11.77, 'state': 'normal', 'rot1': 39, 'rot0': 31, 'rot3': 0, 'rot2': 0, 'depth': 0.394, 'yaw': -79.76, 'datetime': '2018-12-18 20:08:35.489376', 'mgs': 0, 'flw2': 0.0, 'flw1': 0.0, 'flw0': 0.2, 'time': 7.71, 'compass': -100.72, 'pitch': 5.03, 'roll': 0.92}
{'lipoC2': 0.04, 'temp': 0.0, 'lipoC3S3': 11.79, 'state': 'normal', 'rot1': 39, 'rot0': 31, 'rot3': 0, 'rot2': 0, 'depth': 1.157, 'yaw': -78.57, 'datetime': '2018-12-18 20:08:35.699367', 'mgs': 0, 'flw2': 0.17, 'flw1': 0.0, 'flw0': 0.0, 'time': 7.92, 'compass': -99.54, 'pitch': 5.19, 'roll': 0.16}
{'lipoC2': 0.08, 'temp': 0.0, 'lipoC3S3': 12.0, 'state': 'normal', 'rot1': 39, 'rot0': 31, 'rot3': 0, 'rot2': 0, 'depth': -1.971, 'yaw': -77.77, 'datetime': '2018-12-18 20:08:35.908915', 'mgs': 0, 'flw2': 0.22, 'flw1': 0.0, 'flw0': 0.0, 'time': 8.13, 'compass': -98.73, 'pitch': 5.73, 'roll': -0.55}
{'lipoC2': 0.12, 'temp': 0.0, 'lipoC3S3': 11.77, 'state': 'normal', 'rot1': 39, 'rot0': 31, 'rot3': 0, 'rot2': 0, 'depth': 0.699, 'yaw': -77.2, 'datetime': '2018-12-18 20:08:36.117927', 'mgs': 0, 'flw2': 0.0, 'flw1': 0.0, 'flw0': 0.23, 'time': 8.34, 'compass': -98.17, 'pitch': 5.71, 'roll': -0.89}
{'lipoC2': 0.09, 'temp': 0.0, 'lipoC3S3': 11.77, 'state': 'normal', 'rot1': 39, 'rot0': 31, 'rot3': 0, 'rot2': 0, 'depth': 0.165, 'yaw': -76.84, 'datetime': '2018-12-18 20:08:36.326322', 'mgs': 0, 'flw2': 0.0, 'flw1': 0.0, 'flw0': 0.2, 'time': 8.55, 'compass': -97.8, 'pitch': 5.22, 'roll': -0.86}
{'lipoC2': 0.0, 'temp': 0.0, 'lipoC3S3': 11.96, 'state': 'normal', 'rot1': 39, 'rot0': 31, 'rot3': 0, 'rot2': 0, 'depth': 0.623, 'yaw': -76.67, 'datetime': '2018-12-18 20:08:36.535011', 'mgs': 0, 'flw2': 0.0, 'flw1': 0.47, 'flw0': 0.0, 'time': 8.76, 'compass': -97.63, 'pitch': 4.89, 'roll': -0.78}
{'lipoC2': 0.0, 'temp': 0.0, 'lipoC3S3': 12.02, 'state': 'normal', 'rot1': 39, 'rot0': 31, 'rot3': 0, 'rot2': 0, 'depth': 0.546, 'yaw': -76.68, 'datetime': '2018-12-18 20:08:36.747871', 'mgs': 0, 'flw2': 0.0, 'flw1': 0.38, 'flw0': 0.02, 'time': 8.97, 'compass': -97.64, 'pitch': 5.13, 'roll': -0.87}
{'lipoC2': 0.0, 'temp': 0.0, 'lipoC3S3': 12.08, 'state': 'normal', 'rot1': 39, 'rot0': 31, 'rot3': 0, 'rot2': 0, 'depth': 1.004, 'yaw': -76.82, 'datetime': '2018-12-18 20:08:36.952596', 'mgs': 0, 'flw2': 0.17, 'flw1': 0.0, 'flw0': 0.0, 'time': 9.18, 'compass': -97.78, 'pitch': 5.59, 'roll': -1.15}
{'lipoC2': 0.11, 'temp': 0.0, 'lipoC3S3': 11.79, 'state': 'normal', 'rot1': 39, 'rot0': 31, 'rot3': 0, 'rot2': 0, 'depth': 0.699, 'yaw': -77.14, 'datetime': '2018-12-18 20:08:37.165179', 'mgs': 0, 'flw2': 0.12, 'flw1': 0.26, 'flw0': 0.0, 'time': 9.38, 'compass': -98.11, 'pitch': 5.7, 'roll': -1.49}
{'lipoC2': 0.0, 'temp': 0.0, 'lipoC3S3': 11.85, 'state': 'normal', 'rot1': 39, 'rot0': 31, 'rot3': 0, 'rot2': 0, 'depth': 1.233, 'yaw': -77.55, 'datetime': '2018-12-18 20:08:37.375296', 'mgs': 0, 'flw2': 0.06, 'flw1': 0.35, 'flw0': 0.0, 'time': 9.59, 'compass': -98.52, 'pitch': 5.48, 'roll': -1.76}
{'lipoC2': 0.14, 'temp': 0.0, 'lipoC3S3': 11.96, 'state': 'normal', 'rot1': 39, 'rot0': 31, 'rot3': 0, 'rot2': 0, 'depth': -1.514, 'yaw': -78.06, 'datetime': '2018-12-18 20:08:37.581616', 'mgs': 0, 'flw2': 0.07, 'flw1': 0.41, 'flw0': 0.0, 'time': 9.8, 'compass': -99.02, 'pitch': 5.45, 'roll': -1.78}
{'lipoC2': 0.06, 'temp': 0.0, 'lipoC3S3': 12.02, 'state': 'normal', 'rot1': 39, 'rot0': 31, 'rot3': 0, 'rot2': 0, 'depth': -1.819, 'yaw': -78.69, 'datetime': '2018-12-18 20:08:37.789594', 'mgs': 0, 'flw2': 0.0, 'flw1': 0.41, 'flw0': 0.02, 'time': 10.01, 'compass': -99.65, 'pitch': 5.84, 'roll': -1.73}
{'lipoC2': 0.13, 'temp': 0.0, 'lipoC3S3': 11.77, 'state': 'normal', 'rot1': 39, 'rot0': 31, 'rot3': 0, 'rot2': 0, 'depth': 0.47, 'yaw': -79.41, 'datetime': '2018-12-18 20:08:37.997402', 'mgs': 0, 'flw2': 0.0, 'flw1': 0.0, 'flw0': 0.21, 'time': 10.22, 'compass': -100.37, 'pitch': 6.24, 'roll': -1.65}
{'lipoC2': 0.0, 'temp': 0.0, 'lipoC3S3': 11.98, 'state': 'normal', 'rot1': 39, 'rot0': 31, 'rot3': 0, 'rot2': 0, 'depth': 0.241, 'yaw': -80.16, 'datetime': '2018-12-18 20:08:38.207513', 'mgs': 0, 'flw2': 0.06, 'flw1': 0.0, 'flw0': 0.1, 'time': 10.43, 'compass': -101.13, 'pitch': 6.26, 'roll': -1.56}
{'lipoC2': 0.0, 'temp': 0.0, 'lipoC3S3': 12.17, 'state': 'normal', 'rot1': 39, 'rot0': 31, 'rot3': 0, 'rot2': 0, 'depth': 1.614, 'yaw': -81.04, 'datetime': '2018-12-18 20:08:38.417468', 'mgs': 0, 'flw2': 0.0, 'flw1': 0.12, 'flw0': 0.2, 'time': 10.64, 'compass': -102.0, 'pitch': 6.13, 'roll': -1.57}
{'lipoC2': 0.06, 'temp': 0.0, 'lipoC3S3': 11.77, 'state': 'normal', 'rot1': 39, 'rot0': 31, 'rot3': 0, 'rot2': 0, 'depth': 0.165, 'yaw': -81.99, 'datetime': '2018-12-18 20:08:38.626875', 'mgs': 0, 'flw2': 0.16, 'flw1': 0.0, 'flw0': 0.0, 'time': 10.85, 'compass': -102.96, 'pitch': 6.18, 'roll': -1.73}
{'lipoC2': 0.0, 'temp': 0.0, 'lipoC3S3': 12.16, 'state': 'normal', 'rot1': 39, 'rot0': 31, 'rot3': 0, 'rot2': 0, 'depth': 1.538, 'yaw': -82.97, 'datetime': '2018-12-18 20:08:38.836341', 'mgs': 0, 'flw2': 0.0, 'flw1': 0.15, 'flw0': 0.17, 'time': 11.05, 'compass': -103.93, 'pitch': 6.39, 'roll': -1.84}
{'lipoC2': 0.0, 'temp': 0.0, 'lipoC3S3': 11.8, 'state': 'normal', 'rot1': 39, 'rot0': 31, 'rot3': 0, 'rot2': 0, 'depth': -0.903, 'yaw': -83.96, 'datetime': '2018-12-18 20:08:39.046275', 'mgs': 0, 'flw2': 0.0, 'flw1': 0.0, 'flw0': 0.22, 'time': 11.26, 'compass': -104.92, 'pitch': 6.54, 'roll': -1.77}
{'lipoC2': 0.0, 'temp': 0.0, 'lipoC3S3': 12.17, 'state': 'normal', 'rot1': 39, 'rot0': 31, 'rot3': 0, 'rot2': 0, 'depth': 1.614, 'yaw': -84.92, 'datetime': '2018-12-18 20:08:39.253711', 'mgs': 0, 'flw2': 0.13, 'flw1': 0.26, 'flw0': 0.0, 'time': 11.47, 'compass': -105.89, 'pitch': 6.57, 'roll': -1.65}
{'lipoC2': 0.0, 'temp': 0.0, 'lipoC3S3': 12.16, 'state': 'normal', 'rot1': 39, 'rot0': 31, 'rot3': 0, 'rot2': 0, 'depth': -0.064, 'yaw': -85.92, 'datetime': '2018-12-18 20:08:39.466465', 'mgs': 0, 'flw2': 0.0, 'flw1': 0.0, 'flw0': 0.21, 'time': 11.68, 'compass': -106.88, 'pitch': 6.54, 'roll': -1.62}
{'lipoC2': 0.0, 'temp': 0.0, 'lipoC3S3': 12.16, 'state': 'normal', 'rot1': 39, 'rot0': 31, 'rot3': 0, 'rot2': 0, 'depth': 1.691, 'yaw': -86.9, 'datetime': '2018-12-18 20:08:39.675275', 'mgs': 0, 'flw2': 0.0, 'flw1': 0.06, 'flw0': 0.21, 'time': 11.89, 'compass': -107.87, 'pitch': 6.61, 'roll': -1.56}
{'lipoC2': 0.0, 'temp': 0.0, 'lipoC3S3': 12.1, 'state': 'normal', 'rot1': 39, 'rot0': 31, 'rot3': 0, 'rot2': 0, 'depth': 1.538, 'yaw': -87.88, 'datetime': '2018-12-18 20:08:39.887816', 'mgs': 0, 'flw2': 0.0, 'flw1': 0.35, 'flw0': 0.07, 'time': 12.1, 'compass': -108.84, 'pitch': 6.78, 'roll': -1.45}
{'lipoC2': 0.01, 'temp': 0.0, 'lipoC3S3': 12.08, 'state': 'normal', 'rot1': 39, 'rot0': 31, 'rot3': 0, 'rot2': 0, 'depth': 1.385, 'yaw': -88.83, 'datetime': '2018-12-18 20:08:40.096772', 'mgs': 0, 'flw2': 0.17, 'flw1': 0.0, 'flw0': 0.0, 'time': 12.31, 'compass': -109.8, 'pitch': 6.82, 'roll': -1.48}
{'lipoC2': 0.17, 'temp': 0.0, 'lipoC3S3': 11.87, 'state': 'normal', 'rot1': 39, 'rot0': 31, 'rot3': 0, 'rot2': 0, 'depth': -0.827, 'yaw': -89.71, 'datetime': '2018-12-18 20:08:40.305138', 'mgs': 0, 'flw2': 0.18, 'flw1': 0.12, 'flw0': 0.18, 'time': 12.52, 'compass': -110.68, 'pitch': 6.84, 'roll': -1.52}
{'lipoC2': 0.04, 'temp': 0.0, 'lipoC3S3': 12.04, 'state': 'normal', 'rot1': 39, 'rot0': 31, 'rot3': 0, 'rot2': 0, 'depth': -1.59, 'yaw': -90.58, 'datetime': '2018-12-18 20:08:40.513977', 'mgs': 0, 'flw2': 0.0, 'flw1': 0.44, 'flw0': 0.02, 'time': 12.72, 'compass': -111.54, 'pitch': 7.03, 'roll': -1.56}
{'lipoC2': 0.0, 'temp': 0.0, 'lipoC3S3': 12.17, 'state': 'normal', 'rot1': 39, 'rot0': 31, 'rot3': 0, 'rot2': 0, 'depth': 1.614, 'yaw': -91.42, 'datetime': '2018-12-18 20:08:40.721318', 'mgs': 0, 'flw2': 0.01, 'flw1': 0.0, 'flw0': 0.16, 'time': 12.93, 'compass': -112.38, 'pitch': 7.25, 'roll': -1.59}
{'lipoC2': 0.02, 'temp': 0.0, 'lipoC3S3': 11.8, 'state': 'normal', 'rot1': 39, 'rot0': 31, 'rot3': 0, 'rot2': 0, 'depth': 1.385, 'yaw': -92.19, 'datetime': '2018-12-18 20:08:40.929414', 'mgs': 0, 'flw2': 0.2, 'flw1': 0.0, 'flw0': 0.0, 'time': 13.14, 'compass': -113.15, 'pitch': 7.29, 'roll': -1.51}
{'lipoC2': 0.17, 'temp': 0.0, 'lipoC3S3': 11.8, 'state': 'normal', 'rot1': 39, 'rot0': 31, 'rot3': 0, 'rot2': 0, 'depth': 0.775, 'yaw': -92.86, 'datetime': '2018-12-18 20:08:41.138907', 'mgs': 0, 'flw2': 0.0, 'flw1': 0.0, 'flw0': 0.23, 'time': 13.35, 'compass': -113.82, 'pitch': 7.31, 'roll': -1.43}
{'lipoC2': 0.09, 'temp': 0.0, 'lipoC3S3': 11.98, 'state': 'normal', 'rot1': 39, 'rot0': 31, 'rot3': 0, 'rot2': 0, 'depth': -1.971, 'yaw': -93.54, 'datetime': '2018-12-18 20:08:41.350094', 'mgs': 0, 'flw2': 0.0, 'flw1': 0.41, 'flw0': 0.0, 'time': 13.56, 'compass': -114.5, 'pitch': 7.32, 'roll': -1.34}
{'lipoC2': 0.15, 'temp': 0.0, 'lipoC3S3': 11.9, 'state': 'normal', 'rot1': 39, 'rot0': 31, 'rot3': 0, 'rot2': 0, 'depth': -0.827, 'yaw': -94.2, 'datetime': '2018-12-18 20:08:41.558167', 'mgs': 0, 'flw2': 0.0, 'flw1': 0.47, 'flw0': 0.0, 'time': 13.77, 'compass': -115.16, 'pitch': 7.36, 'roll': -1.25}
{'lipoC2': 0.05, 'temp': 0.0, 'lipoC3S3': 11.77, 'state': 'normal', 'rot1': 39, 'rot0': 31, 'rot3': 0, 'rot2': 0, 'depth': 0.165, 'yaw': -94.81, 'datetime': '2018-12-18 20:08:41.768036', 'mgs': 0, 'flw2': 0.16, 'flw1': 0.12, 'flw0': 0.0, 'time': 13.98, 'compass': -115.78, 'pitch': 7.5, 'roll': -1.17}
{'lipoC2': 0.16, 'temp': 0.0, 'lipoC3S3': 11.92, 'state': 'normal', 'rot1': 39, 'rot0': 31, 'rot3': 0, 'rot2': 0, 'depth': -0.827, 'yaw': -95.38, 'datetime': '2018-12-18 20:08:41.974740', 'mgs': 0, 'flw2': 0.05, 'flw1': 0.0, 'flw0': 0.13, 'time': 14.19, 'compass': -116.34, 'pitch': 7.52, 'roll': -1.15}
{'lipoC2': 0.0, 'temp': 0.0, 'lipoC3S3': 11.93, 'state': 'normal', 'rot1': 39, 'rot0': 31, 'rot3': 0, 'rot2': 0, 'depth': 0.851, 'yaw': -95.98, 'datetime': '2018-12-18 20:08:42.185553', 'mgs': 0, 'flw2': 0.04, 'flw1': 0.0, 'flw0': 0.13, 'time': 14.39, 'compass': -116.95, 'pitch': 7.6, 'roll': -1.26}
{'lipoC2': 0.0, 'temp': 0.0, 'lipoC3S3': 11.81, 'state': 'normal', 'rot1': 39, 'rot0': 31, 'rot3': 0, 'rot2': 0, 'depth': -0.598, 'yaw': -96.56, 'datetime': '2018-12-18 20:08:42.392372', 'mgs': 0, 'flw2': 0.1, 'flw1': 0.32, 'flw0': 0.0, 'time': 14.6, 'compass': -117.53, 'pitch': 7.78, 'roll': -1.32}
{'lipoC2': 0.0, 'temp': 0.0, 'lipoC3S3': 11.83, 'state': 'normal', 'rot1': 39, 'rot0': 31, 'rot3': 0, 'rot2': 0, 'depth': -0.827, 'yaw': -97.13, 'datetime': '2018-12-18 20:08:42.602531', 'mgs': 0, 'flw2': 0.01, 'flw1': 0.0, 'flw0': 0.16, 'time': 14.81, 'compass': -118.09, 'pitch': 7.76, 'roll': -1.25}
{'lipoC2': 0.06, 'temp': 0.0, 'lipoC3S3': 12.01, 'state': 'normal', 'rot1': 39, 'rot0': 31, 'rot3': 0, 'rot2': 0, 'depth': -1.666, 'yaw': -97.66, 'datetime': '2018-12-18 20:08:42.810057', 'mgs': 0, 'flw2': 0.0, 'flw1': 0.35, 'flw0': 0.0, 'time': 15.02, 'compass': -118.62, 'pitch': 7.71, 'roll': -1.18}
{'lipoC2': 0.01, 'temp': 0.0, 'lipoC3S3': 11.84, 'state': 'normal', 'rot1': 39, 'rot0': 31, 'rot3': 0, 'rot2': 0, 'depth': 1.309, 'yaw': -98.16, 'datetime': '2018-12-18 20:08:43.018291', 'mgs': 0, 'flw2': 0.23, 'flw1': 0.0, 'flw0': 0.0, 'time': 15.23, 'compass': -119.12, 'pitch': 7.87, 'roll': -1.11}
{'lipoC2': 0.0, 'temp': 0.0, 'lipoC3S3': 12.17, 'state': 'normal', 'rot1': 39, 'rot0': 31, 'rot3': 0, 'rot2': 0, 'depth': 1.767, 'yaw': -98.67, 'datetime': '2018-12-18 20:08:43.227215', 'mgs': 0, 'flw2': 0.12, 'flw1': 0.29, 'flw0': 0.0, 'time': 15.44, 'compass': -119.63, 'pitch': 8.12, 'roll': -1.04}
{'lipoC2': 0.15, 'temp': 0.0, 'lipoC3S3': 11.94, 'state': 'normal', 'rot1': 39, 'rot0': 31, 'rot3': 0, 'rot2': 0, 'depth': -1.285, 'yaw': -99.19, 'datetime': '2018-12-18 20:08:43.435340', 'mgs': 0, 'flw2': 0.0, 'flw1': 0.47, 'flw0': 0.0, 'time': 15.65, 'compass': -120.15, 'pitch': 8.09, 'roll': -1.0}
{'lipoC2': 0.08, 'temp': 0.0, 'lipoC3S3': 11.77, 'state': 'normal', 'rot1': 39, 'rot0': 31, 'rot3': 0, 'rot2': 0, 'depth': 1.004, 'yaw': -99.73, 'datetime': '2018-12-18 20:08:43.645650', 'mgs': 0, 'flw2': 0.22, 'flw1': 0.0, 'flw0': 0.2, 'time': 15.86, 'compass': -120.69, 'pitch': 7.83, 'roll': -1.04}
{'lipoC2': 0.04, 'temp': 0.0, 'lipoC3S3': 11.77, 'state': 'normal', 'rot1': 39, 'rot0': 31, 'rot3': 0, 'rot2': 0, 'depth': 0.089, 'yaw': -100.25, 'datetime': '2018-12-18 20:08:43.856090', 'mgs': 0, 'flw2': 0.0, 'flw1': 0.21, 'flw0': 0.18, 'time': 16.07, 'compass': -121.21, 'pitch': 7.86, 'roll': -1.1}
{'lipoC2': 0.12, 'temp': 0.0, 'lipoC3S3': 11.77, 'state': 'normal', 'rot1': 39, 'rot0': 31, 'rot3': 0, 'rot2': 0, 'depth': 0.546, 'yaw': -100.72, 'datetime': '2018-12-18 20:08:44.071431', 'mgs': 0, 'flw2': 0.0, 'flw1': 0.12, 'flw0': 0.0, 'time': 16.28, 'compass': -121.68, 'pitch': 8.23, 'roll': -1.05}
{'lipoC2': 0.17, 'temp': 0.0, 'lipoC3S3': 11.87, 'state': 'normal', 'rot1': 39, 'rot0': 31, 'rot3': 0, 'rot2': 0, 'depth': -0.98, 'yaw': -101.23, 'datetime': '2018-12-18 20:08:44.283462', 'mgs': 0, 'flw2': 0.13, 'flw1': 0.32, 'flw0': 0.0, 'time': 16.48, 'compass': -122.19, 'pitch': 8.38, 'roll': -1.02}
{'lipoC2': 0.1, 'temp': 0.0, 'lipoC3S3': 11.77, 'state': 'normal', 'rot1': 39, 'rot0': 31, 'rot3': 0, 'rot2': 0, 'depth': 0.241, 'yaw': -101.71, 'datetime': '2018-12-18 20:08:44.488966', 'mgs': 0, 'flw2': 0.18, 'flw1': 0.06, 'flw0': 0.0, 'time': 16.69, 'compass': -122.68, 'pitch': 8.24, 'roll': -0.95}
{'lipoC2': 0.16, 'temp': 0.0, 'lipoC3S3': 11.88, 'state': 'normal', 'rot1': 39, 'rot0': 31, 'rot3': 0, 'rot2': 0, 'depth': -0.522, 'yaw': -102.2, 'datetime': '2018-12-18 20:08:44.701066', 'mgs': 0, 'flw2': 0.04, 'flw1': 0.41, 'flw0': 0.0, 'time': 16.9, 'compass': -123.17, 'pitch': 8.18, 'roll': -0.93}
{'lipoC2': 0.15, 'temp': 0.0, 'lipoC3S3': 11.94, 'state': 'normal', 'rot1': 39, 'rot0': 31, 'rot3': 0, 'rot2': 0, 'depth': -1.514, 'yaw': -102.71, 'datetime': '2018-12-18 20:08:44.910792', 'mgs': 0, 'flw2': 0.0, 'flw1': 0.44, 'flw0': 0.0, 'time': 17.11, 'compass': -123.67, 'pitch': 8.31, 'roll': -1.08}
{'lipoC2': 0.04, 'temp': 0.0, 'lipoC3S3': 12.04, 'state': 'normal', 'rot1': 39, 'rot0': 31, 'rot3': 0, 'rot2': 0, 'depth': -1.666, 'yaw': -103.16, 'datetime': '2018-12-18 20:08:45.119329', 'mgs': 0, 'flw2': 0.0, 'flw1': 0.35, 'flw0': 0.05, 'time': 17.32, 'compass': -124.13, 'pitch': 8.5, 'roll': -1.1}
{'lipoC2': 0.0, 'temp': 0.0, 'lipoC3S3': 11.98, 'state': 'normal', 'rot1': 39, 'rot0': 31, 'rot3': 0, 'rot2': 0, 'depth': 0.089, 'yaw': -103.6, 'datetime': '2018-12-18 20:08:45.329414', 'mgs': 0, 'flw2': 0.0, 'flw1': 0.0, 'flw0': 0.05, 'time': 17.53, 'compass': -124.56, 'pitch': 8.64, 'roll': -1.03}
{'lipoC2': 0.0, 'temp': 0.0, 'lipoC3S3': 12.17, 'state': 'normal', 'rot1': 39, 'rot0': 31, 'rot3': 0, 'rot2': 0, 'depth': 1.691, 'yaw': -104.01, 'datetime': '2018-12-18 20:08:45.539208', 'mgs': 0, 'flw2': 0.17, 'flw1': 0.12, 'flw0': 0.0, 'time': 17.74, 'compass': -124.97, 'pitch': 8.65, 'roll': -0.97}
{'lipoC2': 0.13, 'temp': 0.0, 'lipoC3S3': 11.96, 'state': 'normal', 'rot1': 39, 'rot0': 31, 'rot3': 0, 'rot2': 0, 'depth': -1.59, 'yaw': -104.41, 'datetime': '2018-12-18 20:08:45.747599', 'mgs': 0, 'flw2': 0.0, 'flw1': 0.47, 'flw0': 0.0, 'time': 17.95, 'compass': -125.37, 'pitch': 8.63, 'roll': -1.08}
{'lipoC2': 0.0, 'temp': 0.0, 'lipoC3S3': 12.0, 'state': 'normal', 'rot1': 39, 'rot0': 31, 'rot3': 0, 'rot2': 0, 'depth': -1.132, 'yaw': -104.8, 'datetime': '2018-12-18 20:08:45.960442', 'mgs': 0, 'flw2': 0.12, 'flw1': 0.0, 'flw0': 0.04, 'time': 18.16, 'compass': -125.76, 'pitch': 8.72, 'roll': -1.2}
{'lipoC2': 0.06, 'temp': 0.0, 'lipoC3S3': 12.08, 'state': 'normal', 'rot1': 39, 'rot0': 31, 'rot3': 0, 'rot2': 0, 'depth': -1.743, 'yaw': -105.11, 'datetime': '2018-12-18 20:08:46.162020', 'mgs': 0, 'flw2': 0.0, 'flw1': 0.38, 'flw0': 0.0, 'time': 18.37, 'compass': -126.07, 'pitch': 8.93, 'roll': -1.15}
{'lipoC2': 0.0, 'temp': 0.0, 'lipoC3S3': 12.17, 'state': 'normal', 'rot1': 39, 'rot0': 31, 'rot3': 0, 'rot2': 0, 'depth': 1.767, 'yaw': -105.41, 'datetime': '2018-12-18 20:08:46.372427', 'mgs': 0, 'flw2': 0.0, 'flw1': 0.12, 'flw0': 0.18, 'time': 18.58, 'compass': -126.37, 'pitch': 8.99, 'roll': -1.13}
{'lipoC2': 0.16, 'temp': 0.0, 'lipoC3S3': 11.84, 'state': 'normal', 'rot1': 39, 'rot0': 31, 'rot3': 0, 'rot2': 0, 'depth': 0.928, 'yaw': -105.68, 'datetime': '2018-12-18 20:08:46.579808', 'mgs': 0, 'flw2': 0.0, 'flw1': 0.0, 'flw0': 0.18, 'time': 18.78, 'compass': -126.64, 'pitch': 8.88, 'roll': -1.11}
{'lipoC2': 0.0, 'temp': 0.0, 'lipoC3S3': 11.88, 'state': 'normal', 'rot1': 39, 'rot0': 31, 'rot3': 0, 'rot2': 0, 'depth': 0.851, 'yaw': -105.93, 'datetime': '2018-12-18 20:08:46.787422', 'mgs': 0, 'flw2': 0.0, 'flw1': 0.0, 'flw0': 0.21, 'time': 18.99, 'compass': -126.89, 'pitch': 8.84, 'roll': -1.18}
{'lipoC2': 0.05, 'temp': 0.0, 'lipoC3S3': 12.02, 'state': 'normal', 'rot1': 39, 'rot0': 31, 'rot3': 0, 'rot2': 0, 'depth': -1.59, 'yaw': -106.17, 'datetime': '2018-12-18 20:08:46.999286', 'mgs': 0, 'flw2': 0.21, 'flw1': 0.0, 'flw0': 0.0, 'time': 19.2, 'compass': -127.13, 'pitch': 9.01, 'roll': -1.33}
{'lipoC2': 0.11, 'temp': 0.0, 'lipoC3S3': 11.97, 'state': 'normal', 'rot1': 39, 'rot0': 31, 'rot3': 0, 'rot2': 0, 'depth': -1.895, 'yaw': -106.36, 'datetime': '2018-12-18 20:08:47.210210', 'mgs': 0, 'flw2': 0.09, 'flw1': 0.35, 'flw0': 0.1, 'time': 19.41, 'compass': -127.32, 'pitch': 9.13, 'roll': -1.31}
{'lipoC2': 0.16, 'temp': 0.0, 'lipoC3S3': 11.92, 'state': 'normal', 'rot1': 39, 'rot0': 31, 'rot3': 0, 'rot2': 0, 'depth': 1.233, 'yaw': -106.5, 'datetime': '2018-12-18 20:08:47.427658', 'mgs': 0, 'flw2': 0.02, 'flw1': 0.0, 'flw0': 0.13, 'time': 19.62, 'compass': -127.47, 'pitch': 9.14, 'roll': -1.32}
{'lipoC2': 0.12, 'temp': 0.0, 'lipoC3S3': 11.76, 'state': 'normal', 'rot1': 39, 'rot0': 31, 'rot3': 0, 'rot2': 0, 'depth': 0.317, 'yaw': -106.57, 'datetime': '2018-12-18 20:08:47.633590', 'mgs': 0, 'flw2': 0.2, 'flw1': 0.06, 'flw0': 0.0, 'time': 19.83, 'compass': -127.53, 'pitch': 9.13, 'roll': -1.47}
{'lipoC2': 0.01, 'temp': 0.0, 'lipoC3S3': 11.81, 'state': 'normal', 'rot1': 39, 'rot0': 31, 'rot3': 0, 'rot2': 0, 'depth': 1.309, 'yaw': -106.58, 'datetime': '2018-12-18 20:08:47.846578', 'mgs': 0, 'flw2': 0.2, 'flw1': 0.0, 'flw0': 0.0, 'time': 20.04, 'compass': -127.54, 'pitch': 9.13, 'roll': -1.54}
{'lipoC2': 0.0, 'temp': 0.0, 'lipoC3S3': 11.97, 'state': 'normal', 'rot1': 39, 'rot0': 31, 'rot3': 0, 'rot2': 0, 'depth': -0.369, 'yaw': -106.58, 'datetime': '2018-12-18 20:08:48.055780', 'mgs': 0, 'flw2': 0.09, 'flw1': 0.0, 'flw0': 0.09, 'time': 20.25, 'compass': -127.54, 'pitch': 9.13, 'roll': -1.54}
{'lipoC2': 0.0, 'temp': 0.0, 'lipoC3S3': 12.19, 'state': 'normal', 'rot1': 39, 'rot0': 31, 'rot3': 0, 'rot2': 0, 'depth': -0.369, 'yaw': -106.58, 'datetime': '2018-12-18 20:08:48.265451', 'mgs': 0, 'flw2': 0.0, 'flw1': 0.06, 'flw0': 0.2, 'time': 20.46, 'compass': -127.54, 'pitch': 9.13, 'roll': -1.54}
{'lipoC2': 0.0, 'temp': 0.0, 'lipoC3S3': 12.17, 'state': 'normal', 'rot1': 39, 'rot0': 31, 'rot3': 0, 'rot2': 0, 'depth': 1.538, 'yaw': -106.6, 'datetime': '2018-12-18 20:08:48.474969', 'mgs': 0, 'flw2': 0.13, 'flw1': 0.26, 'flw0': 0.0, 'time': 20.67, 'compass': -127.56, 'pitch': 9.14, 'roll': -1.68}
{'lipoC2': 0.0, 'temp': 0.0, 'lipoC3S3': 12.16, 'state': 'normal', 'rot1': 39, 'rot0': 31, 'rot3': 0, 'rot2': 0, 'depth': 1.614, 'yaw': -106.63, 'datetime': '2018-12-18 20:08:48.680668', 'mgs': 0, 'flw2': 0.0, 'flw1': 0.21, 'flw0': 0.16, 'time': 20.88, 'compass': -127.6, 'pitch': 9.14, 'roll': -1.89}
{'lipoC2': 0.0, 'temp': 0.0, 'lipoC3S3': 11.81, 'state': 'normal', 'rot1': 39, 'rot0': 31, 'rot3': 0, 'rot2': 0, 'depth': -0.903, 'yaw': -106.67, 'datetime': '2018-12-18 20:08:48.894017', 'mgs': 0, 'flw2': 0.0, 'flw1': 0.0, 'flw0': 0.21, 'time': 21.09, 'compass': -127.63, 'pitch': 9.14, 'roll': -2.07}
{'lipoC2': 0.15, 'temp': 0.0, 'lipoC3S3': 11.94, 'state': 'normal', 'rot1': 39, 'rot0': 31, 'rot3': 0, 'rot2': 0, 'depth': -1.437, 'yaw': -106.64, 'datetime': '2018-12-18 20:08:49.102361', 'mgs': 0, 'flw2': 0.01, 'flw1': 0.44, 'flw0': 0.0, 'time': 21.3, 'compass': -127.6, 'pitch': 9.14, 'roll': -2.09}
{'lipoC2': 0.06, 'temp': 0.0, 'lipoC3S3': 11.77, 'state': 'normal', 'rot1': 39, 'rot0': 31, 'rot3': 0, 'rot2': 0, 'depth': 0.089, 'yaw': -106.5, 'datetime': '2018-12-18 20:08:49.311079', 'mgs': 0, 'flw2': 0.0, 'flw1': 0.0, 'flw0': 0.22, 'time': 21.51, 'compass': -127.46, 'pitch': 9.13, 'roll': -2.11}
{'lipoC2': 0.0, 'temp': 0.0, 'lipoC3S3': 12.13, 'state': 'normal', 'rot1': 39, 'rot0': 31, 'rot3': 0, 'rot2': 0, 'depth': 1.462, 'yaw': -106.34, 'datetime': '2018-12-18 20:08:49.521236', 'mgs': 0, 'flw2': 0.15, 'flw1': 0.0, 'flw0': 0.0, 'time': 21.72, 'compass': -127.3, 'pitch': 9.13, 'roll': -2.13}
{'lipoC2': 0.0, 'temp': 0.0, 'lipoC3S3': 12.13, 'state': 'normal', 'rot1': 39, 'rot0': 31, 'rot3': 0, 'rot2': 0, 'depth': 1.614, 'yaw': -106.15, 'datetime': '2018-12-18 20:08:49.729940', 'mgs': 0, 'flw2': 0.13, 'flw1': 0.0, 'flw0': 0.0, 'time': 21.92, 'compass': -127.11, 'pitch': 9.12, 'roll': -2.18}
{'lipoC2': 0.0, 'temp': 0.0, 'lipoC3S3': 12.08, 'state': 'normal', 'rot1': 39, 'rot0': 31, 'rot3': 0, 'rot2': 0, 'depth': -1.895, 'yaw': -105.97, 'datetime': '2018-12-18 20:08:49.942044', 'mgs': 0, 'flw2': 0.18, 'flw1': 0.0, 'flw0': 0.0, 'time': 22.14, 'compass': -126.94, 'pitch': 9.11, 'roll': -2.28}
{'lipoC2': 0.04, 'temp': 0.0, 'lipoC3S3': 11.79, 'state': 'normal', 'rot1': 39, 'rot0': 31, 'rot3': 0, 'rot2': 0, 'depth': 0.089, 'yaw': -105.76, 'datetime': '2018-12-18 20:08:50.151357', 'mgs': 0, 'flw2': 0.13, 'flw1': 0.0, 'flw0': 0.0, 'time': 22.34, 'compass': -126.72, 'pitch': 8.99, 'roll': -2.34}
{'lipoC2': 0.0, 'temp': 0.0, 'lipoC3S3': 12.16, 'state': 'normal', 'rot1': 39, 'rot0': 31, 'rot3': 0, 'rot2': 0, 'depth': 1.385, 'yaw': -105.52, 'datetime': '2018-12-18 20:08:50.363539', 'mgs': 0, 'flw2': 0.0, 'flw1': 0.0, 'flw0': 0.21, 'time': 22.55, 'compass': -126.48, 'pitch': 8.89, 'roll': -2.54}
{'lipoC2': 0.11, 'temp': 0.0, 'lipoC3S3': 11.73, 'state': 'normal', 'rot1': 39, 'rot0': 31, 'rot3': 0, 'rot2': 0, 'depth': 0.317, 'yaw': -105.28, 'datetime': '2018-12-18 20:08:50.571451', 'mgs': 0, 'flw2': 0.17, 'flw1': 0.09, 'flw0': 0.0, 'time': 22.76, 'compass': -126.24, 'pitch': 9.02, 'roll': -2.7}
{'lipoC2': 0.02, 'temp': 0.0, 'lipoC3S3': 11.8, 'state': 'normal', 'rot1': 39, 'rot0': 31, 'rot3': 0, 'rot2': 0, 'depth': 1.385, 'yaw': -105.0, 'datetime': '2018-12-18 20:08:50.779625', 'mgs': 0, 'flw2': 0.16, 'flw1': 0.0, 'flw0': 0.0, 'time': 22.97, 'compass': -125.96, 'pitch': 9.28, 'roll': -2.81}
{'lipoC2': 0.0, 'temp': 0.0, 'lipoC3S3': 12.18, 'state': 'normal', 'rot1': 39, 'rot0': 31, 'rot3': 0, 'rot2': 0, 'depth': 1.462, 'yaw': -104.71, 'datetime': '2018-12-18 20:08:50.990247', 'mgs': 0, 'flw2': 0.0, 'flw1': 0.0, 'flw0': 0.18, 'time': 23.18, 'compass': -125.67, 'pitch': 9.29, 'roll': -3.01}
{'lipoC2': 0.0, 'temp': 0.0, 'lipoC3S3': 11.97, 'state': 'normal', 'rot1': 39, 'rot0': 31, 'rot3': 0, 'rot2': 0, 'depth': 0.012, 'yaw': -104.39, 'datetime': '2018-12-18 20:08:51.201029', 'mgs': 0, 'flw2': 0.06, 'flw1': 0.0, 'flw0': 0.1, 'time': 23.39, 'compass': -125.35, 'pitch': 9.2, 'roll': -3.06}
{'lipoC2': 0.02, 'temp': 0.0, 'lipoC3S3': 11.8, 'state': 'normal', 'rot1': 39, 'rot0': 31, 'rot3': 0, 'rot2': 0, 'depth': 0.089, 'yaw': -104.04, 'datetime': '2018-12-18 20:08:51.402593', 'mgs': 0, 'flw2': 0.17, 'flw1': 0.0, 'flw0': 0.0, 'time': 23.6, 'compass': -125.01, 'pitch': 9.18, 'roll': -3.12}
{'lipoC2': 0.04, 'temp': 0.0, 'lipoC3S3': 12.02, 'state': 'normal', 'rot1': 39, 'rot0': 31, 'rot3': 0, 'rot2': 0, 'depth': -1.514, 'yaw': -103.67, 'datetime': '2018-12-18 20:08:51.609622', 'mgs': 0, 'flw2': 0.21, 'flw1': 0.0, 'flw0': 0.0, 'time': 23.81, 'compass': -124.64, 'pitch': 9.15, 'roll': -3.19}
{'lipoC2': 0.05, 'temp': 0.0, 'lipoC3S3': 11.77, 'state': 'normal', 'rot1': 39, 'rot0': 31, 'rot3': 0, 'rot2': 0, 'depth': 0.165, 'yaw': -103.31, 'datetime': '2018-12-18 20:08:51.818458', 'mgs': 0, 'flw2': 0.13, 'flw1': 0.0, 'flw0': 0.0, 'time': 24.02, 'compass': -124.27, 'pitch': 9.13, 'roll': -3.37}
{'lipoC2': 0.0, 'temp': 0.0, 'lipoC3S3': 12.17, 'state': 'normal', 'rot1': 39, 'rot0': 31, 'rot3': 0, 'rot2': 0, 'depth': 1.462, 'yaw': -102.93, 'datetime': '2018-12-18 20:08:52.027581', 'mgs': 0, 'flw2': 0.0, 'flw1': 0.0, 'flw0': 0.18, 'time': 24.23, 'compass': -123.89, 'pitch': 9.11, 'roll': -3.55}
{'lipoC2': 0.01, 'temp': 0.0, 'lipoC3S3': 12.05, 'state': 'normal', 'rot1': 39, 'rot0': 31, 'rot3': 0, 'rot2': 0, 'depth': 0.089, 'yaw': -102.51, 'datetime': '2018-12-18 20:08:52.237623', 'mgs': 0, 'flw2': 0.0, 'flw1': 0.38, 'flw0': 0.0, 'time': 24.43, 'compass': -123.48, 'pitch': 9.14, 'roll': -3.64}
{'lipoC2': 0.17, 'temp': 0.0, 'lipoC3S3': 11.84, 'state': 'normal', 'rot1': 39, 'rot0': 31, 'rot3': 0, 'rot2': 0, 'depth': 1.08, 'yaw': -102.07, 'datetime': '2018-12-18 20:08:52.445588', 'mgs': 0, 'flw2': 0.0, 'flw1': 0.0, 'flw0': 0.21, 'time': 24.64, 'compass': -123.03, 'pitch': 9.17, 'roll': -3.71}
{'lipoC2': 0.11, 'temp': 0.0, 'lipoC3S3': 11.77, 'state': 'normal', 'rot1': 39, 'rot0': 31, 'rot3': 0, 'rot2': 0, 'depth': 0.47, 'yaw': -101.62, 'datetime': '2018-12-18 20:08:52.654182', 'mgs': 0, 'flw2': 0.0, 'flw1': 0.0, 'flw0': 0.24, 'time': 24.85, 'compass': -122.58, 'pitch': 9.14, 'roll': -3.85}
{'lipoC2': 0.0, 'temp': 0.0, 'lipoC3S3': 12.17, 'state': 'normal', 'rot1': 39, 'rot0': 31, 'rot3': 0, 'rot2': 0, 'depth': 1.691, 'yaw': -101.18, 'datetime': '2018-12-18 20:08:52.866977', 'mgs': 0, 'flw2': 0.0, 'flw1': 0.0, 'flw0': 0.22, 'time': 25.06, 'compass': -122.14, 'pitch': 9.1, 'roll': -4.07}
{'lipoC2': 0.16, 'temp': 0.0, 'lipoC3S3': 11.88, 'state': 'normal', 'rot1': 39, 'rot0': 31, 'rot3': 0, 'rot2': 0, 'depth': -1.208, 'yaw': -100.7, 'datetime': '2018-12-18 20:08:53.076077', 'mgs': 0, 'flw2': 0.15, 'flw1': 0.26, 'flw0': 0.0, 'time': 25.27, 'compass': -121.67, 'pitch': 9.07, 'roll': -4.28}
{'lipoC2': 0.0, 'temp': 0.0, 'lipoC3S3': 12.04, 'state': 'normal', 'rot1': 39, 'rot0': 31, 'rot3': 0, 'rot2': 0, 'depth': 1.08, 'yaw': -100.23, 'datetime': '2018-12-18 20:08:53.285410', 'mgs': 0, 'flw2': 0.04, 'flw1': 0.41, 'flw0': 0.0, 'time': 25.48, 'compass': -121.2, 'pitch': 9.04, 'roll': -4.46}
{'lipoC2': 0.0, 'temp': 0.0, 'lipoC3S3': 12.08, 'state': 'normal', 'rot1': 39, 'rot0': 31, 'rot3': 0, 'rot2': 0, 'depth': 1.309, 'yaw': -99.74, 'datetime': '2018-12-18 20:08:53.491181', 'mgs': 0, 'flw2': 0.18, 'flw1': 0.0, 'flw0': 0.0, 'time': 25.69, 'compass': -120.7, 'pitch': 9.01, 'roll': -4.54}
{'lipoC2': 0.15, 'temp': 0.0, 'lipoC3S3': 11.92, 'state': 'normal', 'rot1': 39, 'rot0': 31, 'rot3': 0, 'rot2': 0, 'depth': -1.437, 'yaw': -99.2, 'datetime': '2018-12-18 20:08:53.701811', 'mgs': 0, 'flw2': 0.0, 'flw1': 0.0, 'flw0': 0.17, 'time': 25.9, 'compass': -120.16, 'pitch': 8.96, 'roll': -4.62}
{'lipoC2': 0.08, 'temp': 0.0, 'lipoC3S3': 12.0, 'state': 'normal', 'rot1': 39, 'rot0': 31, 'rot3': 0, 'rot2': 0, 'depth': -1.743, 'yaw': -98.66, 'datetime': '2018-12-18 20:08:53.912220', 'mgs': 0, 'flw2': 0.13, 'flw1': 0.0, 'flw0': 0.04, 'time': 26.1, 'compass': -119.63, 'pitch': 8.92, 'roll': -4.72}
{'lipoC2': 0.1, 'temp': 0.0, 'lipoC3S3': 11.75, 'state': 'normal', 'rot1': 39, 'rot0': 31, 'rot3': 0, 'rot2': 0, 'depth': 0.775, 'yaw': -98.17, 'datetime': '2018-12-18 20:08:54.121967', 'mgs': 0, 'flw2': 0.22, 'flw1': 0.0, 'flw0': 0.0, 'time': 26.32, 'compass': -119.13, 'pitch': 8.88, 'roll': -4.95}
{'lipoC2': 0.06, 'temp': 0.0, 'lipoC3S3': 11.77, 'state': 'normal', 'rot1': 39, 'rot0': 31, 'rot3': 0, 'rot2': 0, 'depth': 0.165, 'yaw': -97.65, 'datetime': '2018-12-18 20:08:54.333303', 'mgs': 0, 'flw2': 0.21, 'flw1': 0.0, 'flw0': 0.0, 'time': 26.52, 'compass': -118.61, 'pitch': 8.97, 'roll': -5.24}
{'lipoC2': 0.0, 'temp': 0.0, 'lipoC3S3': 11.89, 'state': 'normal', 'rot1': 39, 'rot0': 31, 'rot3': 0, 'rot2': 0, 'depth': 0.928, 'yaw': -97.07, 'datetime': '2018-12-18 20:08:54.538435', 'mgs': 0, 'flw2': 0.16, 'flw1': 0.21, 'flw0': 0.0, 'time': 26.73, 'compass': -118.03, 'pitch': 9.0, 'roll': -5.41}
{'lipoC2': 0.0, 'temp': 0.0, 'lipoC3S3': 12.17, 'state': 'normal', 'rot1': 39, 'rot0': 31, 'rot3': 0, 'rot2': 0, 'depth': -0.064, 'yaw': -96.5, 'datetime': '2018-12-18 20:08:54.747847', 'mgs': 0, 'flw2': 0.0, 'flw1': 0.0, 'flw0': 0.18, 'time': 26.94, 'compass': -117.46, 'pitch': 8.87, 'roll': -5.52}
{'lipoC2': 0.0, 'temp': 0.0, 'lipoC3S3': 12.17, 'state': 'normal', 'rot1': 39, 'rot0': 31, 'rot3': 0, 'rot2': 0, 'depth': 1.614, 'yaw': -95.9, 'datetime': '2018-12-18 20:08:54.955879', 'mgs': 0, 'flw2': 0.18, 'flw1': 0.09, 'flw0': 0.0, 'time': 27.15, 'compass': -116.87, 'pitch': 8.69, 'roll': -5.63}
{'lipoC2': 0.0, 'temp': 0.0, 'lipoC3S3': 12.1, 'state': 'normal', 'rot1': 39, 'rot0': 31, 'rot3': 0, 'rot2': 0, 'depth': 1.462, 'yaw': -95.33, 'datetime': '2018-12-18 20:08:55.167370', 'mgs': 0, 'flw2': 0.0, 'flw1': 0.35, 'flw0': 0.06, 'time': 27.36, 'compass': -116.29, 'pitch': 8.64, 'roll': -5.71}
{'lipoC2': 0.0, 'temp': 0.0, 'lipoC3S3': 12.17, 'state': 'normal', 'rot1': 39, 'rot0': 31, 'rot3': 0, 'rot2': 0, 'depth': -0.369, 'yaw': -94.73, 'datetime': '2018-12-18 20:08:55.378346', 'mgs': 0, 'flw2': 0.15, 'flw1': 0.23, 'flw0': 0.0, 'time': 27.57, 'compass': -115.69, 'pitch': 8.57, 'roll': -5.85}
{'lipoC2': 0.0, 'temp': 0.0, 'lipoC3S3': 11.96, 'state': 'normal', 'rot1': 39, 'rot0': 31, 'rot3': 0, 'rot2': 0, 'depth': 0.012, 'yaw': -94.12, 'datetime': '2018-12-18 20:08:55.586311', 'mgs': 0, 'flw2': 0.06, 'flw1': 0.47, 'flw0': 0.0, 'time': 27.78, 'compass': -115.08, 'pitch': 8.51, 'roll': -6.11}
{'lipoC2': 0.0, 'temp': 0.0, 'lipoC3S3': 11.8, 'state': 'normal', 'rot1': 39, 'rot0': 31, 'rot3': 0, 'rot2': 0, 'depth': -0.751, 'yaw': -93.53, 'datetime': '2018-12-18 20:08:55.794275', 'mgs': 0, 'flw2': 0.0, 'flw1': 0.09, 'flw0': 0.0, 'time': 27.99, 'compass': -114.49, 'pitch': 8.54, 'roll': -6.36}
{'lipoC2': 0.0, 'temp': 0.0, 'lipoC3S3': 12.18, 'state': 'normal', 'rot1': 39, 'rot0': 31, 'rot3': 0, 'rot2': 0, 'depth': 1.691, 'yaw': -92.94, 'datetime': '2018-12-18 20:08:56.004900', 'mgs': 0, 'flw2': 0.15, 'flw1': 0.18, 'flw0': 0.0, 'time': 28.19, 'compass': -113.91, 'pitch': 8.64, 'roll': -6.6}
{'lipoC2': 0.0, 'temp': 0.0, 'lipoC3S3': 11.98, 'state': 'normal', 'rot1': 39, 'rot0': 31, 'rot3': 0, 'rot2': 0, 'depth': 0.165, 'yaw': -92.32, 'datetime': '2018-12-18 20:08:56.211764', 'mgs': 0, 'flw2': 0.11, 'flw1': 0.0, 'flw0': 0.07, 'time': 28.4, 'compass': -113.28, 'pitch': 8.58, 'roll': -6.73}
{'lipoC2': 0.11, 'temp': 0.0, 'lipoC3S3': 11.77, 'state': 'normal', 'rot1': 39, 'rot0': 31, 'rot3': 0, 'rot2': 0, 'depth': 0.394, 'yaw': -91.67, 'datetime': '2018-12-18 20:08:56.425166', 'mgs': 0, 'flw2': 0.0, 'flw1': 0.06, 'flw0': 0.21, 'time': 28.61, 'compass': -112.64, 'pitch': 8.41, 'roll': -6.83}
{'lipoC2': 0.0, 'temp': 0.0, 'lipoC3S3': 11.98, 'state': 'normal', 'rot1': 39, 'rot0': 31, 'rot3': 0, 'rot2': 0, 'depth': -0.369, 'yaw': -91.03, 'datetime': '2018-12-18 20:08:56.635158', 'mgs': 0, 'flw2': 0.12, 'flw1': 0.0, 'flw0': 0.02, 'time': 28.82, 'compass': -111.99, 'pitch': 8.15, 'roll': -6.93}
{'lipoC2': 0.0, 'temp': 0.0, 'lipoC3S3': 11.87, 'state': 'normal', 'rot1': 39, 'rot0': 31, 'rot3': 0, 'rot2': 0, 'depth': -0.446, 'yaw': -90.39, 'datetime': '2018-12-18 20:08:56.850049', 'mgs': 0, 'flw2': 0.11, 'flw1': 0.32, 'flw0': 0.0, 'time': 29.03, 'compass': -111.35, 'pitch': 8.11, 'roll': -7.06}
{'lipoC2': 0.1, 'temp': 0.0, 'lipoC3S3': 11.76, 'state': 'normal', 'rot1': 39, 'rot0': 31, 'rot3': 0, 'rot2': 0, 'depth': 0.241, 'yaw': -89.79, 'datetime': '2018-12-18 20:08:57.059676', 'mgs': 0, 'flw2': 0.16, 'flw1': 0.0, 'flw0': 0.0, 'time': 29.24, 'compass': -110.75, 'pitch': 8.33, 'roll': -7.35}
{'lipoC2': 0.0, 'temp': 0.0, 'lipoC3S3': 12.12, 'state': 'normal', 'rot1': 39, 'rot0': 31, 'rot3': 0, 'rot2': 0, 'depth': -1.895, 'yaw': -89.18, 'datetime': '2018-12-18 20:08:57.264414', 'mgs': 0, 'flw2': 0.17, 'flw1': 0.0, 'flw0': 0.0, 'time': 29.45, 'compass': -110.14, 'pitch': 8.45, 'roll': -7.66}
{'lipoC2': 0.17, 'temp': 0.0, 'lipoC3S3': 11.85, 'state': 'normal', 'rot1': 39, 'rot0': 31, 'rot3': 0, 'rot2': 0, 'depth': -0.293, 'yaw': -88.52, 'datetime': '2018-12-18 20:08:57.472175', 'mgs': 0, 'flw2': 0.11, 'flw1': 0.32, 'flw0': 0.0, 'time': 29.66, 'compass': -109.48, 'pitch': 8.13, 'roll': -7.82}
{'lipoC2': 0.0, 'temp': 0.0, 'lipoC3S3': 12.17, 'state': 'normal', 'rot1': 39, 'rot0': 31, 'rot3': 0, 'rot2': 0, 'depth': 1.538, 'yaw': -87.86, 'datetime': '2018-12-18 20:08:57.679614', 'mgs': 0, 'flw2': 0.0, 'flw1': 0.0, 'flw0': 0.21, 'time': 29.86, 'compass': -108.82, 'pitch': 7.77, 'roll': -7.91}
{'lipoC2': 0.04, 'temp': 0.0, 'lipoC3S3': 11.79, 'state': 'normal', 'rot1': 39, 'rot0': 31, 'rot3': 0, 'rot2': 0, 'depth': 0.089, 'yaw': -87.18, 'datetime': '2018-12-18 20:08:57.892293', 'mgs': 0, 'flw2': 0.0, 'flw1': 0.12, 'flw0': 0.0, 'time': 30.07, 'compass': -108.15, 'pitch': 7.79, 'roll': -8.01}
{'lipoC2': 0.02, 'temp': 0.0, 'lipoC3S3': 12.02, 'state': 'normal', 'rot1': 39, 'rot0': 31, 'rot3': 0, 'rot2': 0, 'depth': -1.208, 'yaw': -86.51, 'datetime': '2018-12-18 20:08:58.105015', 'mgs': 0, 'flw2': 0.0, 'flw1': 0.38, 'flw0': 0.0, 'time': 30.28, 'compass': -107.48, 'pitch': 7.99, 'roll': -8.1}
{'lipoC2': 0.0, 'temp': 0.0, 'lipoC3S3': 12.12, 'state': 'normal', 'rot1': 39, 'rot0': 31, 'rot3': 0, 'rot2': 0, 'depth': 1.462, 'yaw': -85.84, 'datetime': '2018-12-18 20:08:58.312950', 'mgs': 0, 'flw2': 0.18, 'flw1': 0.03, 'flw0': 0.0, 'time': 30.49, 'compass': -106.81, 'pitch': 8.01, 'roll': -8.31}
{'lipoC2': 0.04, 'temp': 0.0, 'lipoC3S3': 11.76, 'state': 'normal', 'rot1': 39, 'rot0': 31, 'rot3': 0, 'rot2': 0, 'depth': 0.165, 'yaw': -85.16, 'datetime': '2018-12-18 20:08:58.520075', 'mgs': 0, 'flw2': 0.16, 'flw1': 0.0, 'flw0': 0.0, 'time': 30.7, 'compass': -106.12, 'pitch': 7.71, 'roll': -8.43}
{'lipoC2': 0.0, 'temp': 0.0, 'lipoC3S3': 11.97, 'state': 'normal', 'rot1': 39, 'rot0': 31, 'rot3': 0, 'rot2': 0, 'depth': -0.064, 'yaw': -84.47, 'datetime': '2018-12-18 20:08:58.726606', 'mgs': 0, 'flw2': 0.07, 'flw1': 0.0, 'flw0': 0.11, 'time': 30.91, 'compass': -105.43, 'pitch': 7.49, 'roll': -8.63}
{'lipoC2': 0.0, 'temp': 0.0, 'lipoC3S3': 12.04, 'state': 'normal', 'rot1': 39, 'rot0': 31, 'rot3': 0, 'rot2': 0, 'depth': 1.004, 'yaw': -83.81, 'datetime': '2018-12-18 20:08:58.938275', 'mgs': 0, 'flw2': 0.0, 'flw1': 0.41, 'flw0': 0.02, 'time': 31.12, 'compass': -104.77, 'pitch': 7.59, 'roll': -8.79}
{'lipoC2': 0.12, 'temp': 0.0, 'lipoC3S3': 11.97, 'state': 'normal', 'rot1': 39, 'rot0': 31, 'rot3': 0, 'rot2': 0, 'depth': -2.048, 'yaw': -83.09, 'datetime': '2018-12-18 20:08:59.146764', 'mgs': 0, 'flw2': 0.06, 'flw1': 0.0, 'flw0': 0.11, 'time': 31.33, 'compass': -104.05, 'pitch': 7.83, 'roll': -8.89}
{'lipoC2': 0.0, 'temp': 0.0, 'lipoC3S3': 12.17, 'state': 'normal', 'rot1': 39, 'rot0': 31, 'rot3': 0, 'rot2': 0, 'depth': 1.614, 'yaw': -82.36, 'datetime': '2018-12-18 20:08:59.354047', 'mgs': 0, 'flw2': 0.15, 'flw1': 0.21, 'flw0': 0.0, 'time': 31.54, 'compass': -103.32, 'pitch': 7.67, 'roll': -8.99}
{'lipoC2': 0.11, 'temp': 0.0, 'lipoC3S3': 11.97, 'state': 'normal', 'rot1': 39, 'rot0': 31, 'rot3': 0, 'rot2': 0, 'depth': -1.895, 'yaw': -81.64, 'datetime': '2018-12-18 20:08:59.563618', 'mgs': 0, 'flw2': 0.05, 'flw1': 0.41, 'flw0': 0.0, 'time': 31.75, 'compass': -102.6, 'pitch': 7.14, 'roll': -9.16}
{'lipoC2': 0.0, 'temp': 0.0, 'lipoC3S3': 12.17, 'state': 'normal', 'rot1': 39, 'rot0': 31, 'rot3': 0, 'rot2': 0, 'depth': 1.462, 'yaw': -80.91, 'datetime': '2018-12-18 20:08:59.775738', 'mgs': 0, 'flw2': 0.12, 'flw1': 0.32, 'flw0': 0.0, 'time': 31.95, 'compass': -101.88, 'pitch': 6.91, 'roll': -9.26}
{'lipoC2': 0.13, 'temp': 0.0, 'lipoC3S3': 11.77, 'state': 'normal', 'rot1': 39, 'rot0': 31, 'rot3': 0, 'rot2': 0, 'depth': 0.47, 'yaw': -80.22, 'datetime': '2018-12-18 20:08:59.984901', 'mgs': 0, 'flw2': 0.0, 'flw1': 0.0, 'flw0': 0.24, 'time': 32.16, 'compass': -101.19, 'pitch': 7.15, 'roll': -9.38}
{'lipoC2': 0.0, 'temp': 0.0, 'lipoC3S3': 11.81, 'state': 'normal', 'rot1': 39, 'rot0': 31, 'rot3': 0, 'rot2': 0, 'depth': -0.903, 'yaw': -79.48, 'datetime': '2018-12-18 20:09:00.192779', 'mgs': 0, 'flw2': 0.16, 'flw1': 0.18, 'flw0': 0.0, 'time': 32.37, 'compass': -100.44, 'pitch': 7.25, 'roll': -9.51}
{'lipoC2': 0.15, 'temp': 0.0, 'lipoC3S3': 11.83, 'state': 'normal', 'rot1': 39, 'rot0': 31, 'rot3': 0, 'rot2': 0, 'depth': 0.851, 'yaw': -78.73, 'datetime': '2018-12-18 20:09:00.402041', 'mgs': 0, 'flw2': 0.16, 'flw1': 0.18, 'flw0': 0.0, 'time': 32.58, 'compass': -99.69, 'pitch': 7.01, 'roll': -9.61}
{'lipoC2': 0.0, 'temp': 0.0, 'lipoC3S3': 12.06, 'state': 'normal', 'rot1': 39, 'rot0': 31, 'rot3': 0, 'rot2': 0, 'depth': 1.08, 'yaw': -77.99, 'datetime': '2018-12-18 20:09:00.610263', 'mgs': 0, 'flw2': 0.0, 'flw1': 0.26, 'flw0': 0.13, 'time': 32.79, 'compass': -98.95, 'pitch': 6.77, 'roll': -9.69}
{'lipoC2': 0.0, 'temp': 0.0, 'lipoC3S3': 11.96, 'state': 'normal', 'rot1': 39, 'rot0': 31, 'rot3': 0, 'rot2': 0, 'depth': 0.394, 'yaw': -77.22, 'datetime': '2018-12-18 20:09:00.820641', 'mgs': 0, 'flw2': 0.05, 'flw1': 0.44, 'flw0': 0.0, 'time': 33.0, 'compass': -98.18, 'pitch': 6.75, 'roll': -9.78}
{'lipoC2': 0.11, 'temp': 0.0, 'lipoC3S3': 11.98, 'state': 'normal', 'rot1': 39, 'rot0': 31, 'rot3': 0, 'rot2': 0, 'depth': -2.048, 'yaw': -76.51, 'datetime': '2018-12-18 20:09:01.035201', 'mgs': 0, 'flw2': 0.0, 'flw1': 0.47, 'flw0': 0.0, 'time': 33.21, 'compass': -97.48, 'pitch': 6.83, 'roll': -9.94}
{'lipoC2': 0.0, 'temp': 0.0, 'lipoC3S3': 12.14, 'state': 'normal', 'rot1': 39, 'rot0': 31, 'rot3': 0, 'rot2': 0, 'depth': 1.691, 'yaw': -75.78, 'datetime': '2018-12-18 20:09:01.240424', 'mgs': 0, 'flw2': 0.13, 'flw1': 0.0, 'flw0': 0.0, 'time': 33.42, 'compass': -96.75, 'pitch': 6.73, 'roll': -10.23}
{'lipoC2': 0.0, 'temp': 0.0, 'lipoC3S3': 11.98, 'state': 'normal', 'rot1': 39, 'rot0': 31, 'rot3': 0, 'rot2': 0, 'depth': -0.369, 'yaw': -75.01, 'datetime': '2018-12-18 20:09:01.445072', 'mgs': 0, 'flw2': 0.0, 'flw1': 0.0, 'flw0': 0.05, 'time': 33.63, 'compass': -95.97, 'pitch': 6.41, 'roll': -10.42}
{'lipoC2': 0.0, 'temp': 0.0, 'lipoC3S3': 12.14, 'state': 'normal', 'rot1': 39, 'rot0': 31, 'rot3': 0, 'rot2': 0, 'depth': 1.538, 'yaw': -74.28, 'datetime': '2018-12-18 20:09:01.655438', 'mgs': 0, 'flw2': 0.16, 'flw1': 0.15, 'flw0': 0.0, 'time': 33.83, 'compass': -95.24, 'pitch': 6.24, 'roll': -10.5}
{'lipoC2': 0.0, 'temp': 0.0, 'lipoC3S3': 11.85, 'state': 'normal', 'rot1': 39, 'rot0': 31, 'rot3': 0, 'rot2': 0, 'depth': 1.233, 'yaw': -73.49, 'datetime': '2018-12-18 20:09:01.858772', 'mgs': 0, 'flw2': 0.0, 'flw1': 0.0, 'flw0': 0.18, 'time': 34.04, 'compass': -94.46, 'pitch': 6.18, 'roll': -10.58}
{'lipoC2': 0.15, 'temp': 0.0, 'lipoC3S3': 11.79, 'state': 'normal', 'rot1': 39, 'rot0': 31, 'rot3': 0, 'rot2': 0, 'depth': 0.394, 'yaw': -72.7, 'datetime': '2018-12-18 20:09:02.068749', 'mgs': 0, 'flw2': 0.11, 'flw1': 0.32, 'flw0': 0.0, 'time': 34.25, 'compass': -93.66, 'pitch': 6.2, 'roll': -10.66}
{'lipoC2': 0.0, 'temp': 0.0, 'lipoC3S3': 11.81, 'state': 'normal', 'rot1': 39, 'rot0': 31, 'rot3': 0, 'rot2': 0, 'depth': -1.132, 'yaw': -71.93, 'datetime': '2018-12-18 20:09:02.277739', 'mgs': 0, 'flw2': 0.0, 'flw1': 0.41, 'flw0': 0.0, 'time': 34.46, 'compass': -92.89, 'pitch': 6.06, 'roll': -10.75}
{'lipoC2': 0.0, 'temp': 0.0, 'lipoC3S3': 12.17, 'state': 'normal', 'rot1': 39, 'rot0': 31, 'rot3': 0, 'rot2': 0, 'depth': 1.691, 'yaw': -71.14, 'datetime': '2018-12-18 20:09:02.487339', 'mgs': 0, 'flw2': 0.05, 'flw1': 0.38, 'flw0': 0.0, 'time': 34.67, 'compass': -92.1, 'pitch': 5.78, 'roll': -10.89}
{'lipoC2': 0.08, 'temp': 0.0, 'lipoC3S3': 12.01, 'state': 'normal', 'rot1': 39, 'rot0': 31, 'rot3': 0, 'rot2': 0, 'depth': -1.819, 'yaw': -70.41, 'datetime': '2018-12-18 20:09:02.696022', 'mgs': 0, 'flw2': 0.0, 'flw1': 0.44, 'flw0': 0.01, 'time': 34.88, 'compass': -91.37, 'pitch': 5.64, 'roll': -11.15}
{'lipoC2': 0.01, 'temp': 0.0, 'lipoC3S3': 11.81, 'state': 'normal', 'rot1': 39, 'rot0': 31, 'rot3': 0, 'rot2': 0, 'depth': 0.012, 'yaw': -69.63, 'datetime': '2018-12-18 20:09:02.903802', 'mgs': 0, 'flw2': 0.2, 'flw1': 0.06, 'flw0': 0.0, 'time': 35.08, 'compass': -90.6, 'pitch': 5.62, 'roll': -11.39}
{'lipoC2': 0.0, 'temp': 0.0, 'lipoC3S3': 12.16, 'state': 'normal', 'rot1': 39, 'rot0': 31, 'rot3': 0, 'rot2': 0, 'depth': 1.691, 'yaw': -68.85, 'datetime': '2018-12-18 20:09:03.111689', 'mgs': 0, 'flw2': 0.0, 'flw1': 0.0, 'flw0': 0.2, 'time': 35.29, 'compass': -89.81, 'pitch': 5.47, 'roll': -11.46}
{'lipoC2': 0.09, 'temp': 0.0, 'lipoC3S3': 11.76, 'state': 'normal', 'rot1': 39, 'rot0': 31, 'rot3': 0, 'rot2': 0, 'depth': 0.241, 'yaw': -68.06, 'datetime': '2018-12-18 20:09:03.321988', 'mgs': 0, 'flw2': 0.15, 'flw1': 0.0, 'flw0': 0.0, 'time': 35.5, 'compass': -89.02, 'pitch': 5.27, 'roll': -11.54}
{'lipoC2': 0.0, 'temp': 0.0, 'lipoC3S3': 11.98, 'state': 'normal', 'rot1': 39, 'rot0': 31, 'rot3': 0, 'rot2': 0, 'depth': -0.369, 'yaw': -67.27, 'datetime': '2018-12-18 20:09:03.531060', 'mgs': 0, 'flw2': 0.15, 'flw1': 0.0, 'flw0': 0.02, 'time': 35.71, 'compass': -88.23, 'pitch': 5.17, 'roll': -11.62}
{'lipoC2': 0.14, 'temp': 0.0, 'lipoC3S3': 11.93, 'state': 'normal', 'rot1': 39, 'rot0': 31, 'rot3': 0, 'rot2': 0, 'depth': -1.285, 'yaw': -66.52, 'datetime': '2018-12-18 20:09:03.741571', 'mgs': 0, 'flw2': 0.09, 'flw1': 0.0, 'flw0': 0.11, 'time': 35.92, 'compass': -87.49, 'pitch': 5.25, 'roll': -11.78}
{'lipoC2': 0.0, 'temp': 0.0, 'lipoC3S3': 12.13, 'state': 'normal', 'rot1': 39, 'rot0': 31, 'rot3': 0, 'rot2': 0, 'depth': 1.462, 'yaw': -65.73, 'datetime': '2018-12-18 20:09:03.949103', 'mgs': 0, 'flw2': 0.0, 'flw1': 0.18, 'flw0': 0.17, 'time': 36.13, 'compass': -86.7, 'pitch': 5.18, 'roll': -12.0}
{'lipoC2': 0.0, 'temp': 0.0, 'lipoC3S3': 11.98, 'state': 'normal', 'rot1': 39, 'rot0': 31, 'rot3': 0, 'rot2': 0, 'depth': 0.165, 'yaw': -64.95, 'datetime': '2018-12-18 20:09:04.158140', 'mgs': 0, 'flw2': 0.21, 'flw1': 0.0, 'flw0': 0.0, 'time': 36.34, 'compass': -85.91, 'pitch': 4.86, 'roll': -12.08}
{'lipoC2': 0.0, 'temp': 0.0, 'lipoC3S3': 12.1, 'state': 'normal', 'rot1': 39, 'rot0': 31, 'rot3': 0, 'rot2': 0, 'depth': 1.309, 'yaw': -64.22, 'datetime': '2018-12-18 20:09:04.372903', 'mgs': 0, 'flw2': 0.0, 'flw1': 0.29, 'flw0': 0.1, 'time': 36.55, 'compass': -85.18, 'pitch': 4.44, 'roll': -12.13}
{'lipoC2': 0.03, 'temp': 0.0, 'lipoC3S3': 11.79, 'state': 'normal', 'rot1': 39, 'rot0': 31, 'rot3': 0, 'rot2': 0, 'depth': 1.309, 'yaw': -63.41, 'datetime': '2018-12-18 20:09:04.584544', 'mgs': 0, 'flw2': 0.16, 'flw1': 0.0, 'flw0': 0.0, 'time': 36.76, 'compass': -84.38, 'pitch': 4.3, 'roll': -12.24}
{'lipoC2': 0.03, 'temp': 0.0, 'lipoC3S3': 11.8, 'state': 'normal', 'rot1': 39, 'rot0': 31, 'rot3': 0, 'rot2': 0, 'depth': 1.157, 'yaw': -62.66, 'datetime': '2018-12-18 20:09:04.792667', 'mgs': 0, 'flw2': 0.16, 'flw1': 0.0, 'flw0': 0.0, 'time': 36.97, 'compass': -83.62, 'pitch': 4.49, 'roll': -12.51}
{'lipoC2': 0.16, 'temp': 0.0, 'lipoC3S3': 11.87, 'state': 'normal', 'rot1': 39, 'rot0': 31, 'rot3': 0, 'rot2': 0, 'depth': -0.751, 'yaw': -61.9, 'datetime': '2018-12-18 20:09:04.999361', 'mgs': 0, 'flw2': 0.0, 'flw1': 0.0, 'flw0': 0.17, 'time': 37.17, 'compass': -82.86, 'pitch': 4.45, 'roll': -12.77}
{'lipoC2': 0.0, 'temp': 0.0, 'lipoC3S3': 12.18, 'state': 'normal', 'rot1': 39, 'rot0': 31, 'rot3': 0, 'rot2': 0, 'depth': 1.691, 'yaw': -61.15, 'datetime': '2018-12-18 20:09:05.211973', 'mgs': 0, 'flw2': 0.18, 'flw1': 0.12, 'flw0': 0.0, 'time': 37.38, 'compass': -82.11, 'pitch': 4.04, 'roll': -12.96}
{'lipoC2': 0.09, 'temp': 0.0, 'lipoC3S3': 12.0, 'state': 'normal', 'rot1': 39, 'rot0': 31, 'rot3': 0, 'rot2': 0, 'depth': -1.819, 'yaw': -60.41, 'datetime': '2018-12-18 20:09:05.417474', 'mgs': 0, 'flw2': 0.2, 'flw1': 0.0, 'flw0': 0.0, 'time': 37.59, 'compass': -81.37, 'pitch': 3.69, 'roll': -13.01}
{'lipoC2': 0.01, 'temp': 0.0, 'lipoC3S3': 11.81, 'state': 'normal', 'rot1': 39, 'rot0': 31, 'rot3': 0, 'rot2': 0, 'depth': -0.064, 'yaw': -59.62, 'datetime': '2018-12-18 20:09:05.624762', 'mgs': 0, 'flw2': 0.2, 'flw1': 0.03, 'flw0': 0.0, 'time': 37.8, 'compass': -80.59, 'pitch': 3.66, 'roll': -13.06}
{'lipoC2': 0.0, 'temp': 0.0, 'lipoC3S3': 12.0, 'state': 'normal', 'rot1': 39, 'rot0': 31, 'rot3': 0, 'rot2': 0, 'depth': 0.546, 'yaw': -58.86, 'datetime': '2018-12-18 20:09:05.836523', 'mgs': 0, 'flw2': 0.21, 'flw1': 0.0, 'flw0': 0.0, 'time': 38.01, 'compass': -79.82, 'pitch': 3.85, 'roll': -13.11}
{'lipoC2': 0.13, 'temp': 0.0, 'lipoC3S3': 11.96, 'state': 'normal', 'rot1': 39, 'rot0': 31, 'rot3': 0, 'rot2': 0, 'depth': -1.437, 'yaw': -58.09, 'datetime': '2018-12-18 20:09:06.053780', 'mgs': 0, 'flw2': 0.0, 'flw1': 0.44, 'flw0': 0.0, 'time': 38.22, 'compass': -79.05, 'pitch': 3.77, 'roll': -13.16}
{'lipoC2': 0.18, 'temp': 0.0, 'lipoC3S3': 11.85, 'state': 'normal', 'rot1': 39, 'rot0': 31, 'rot3': 0, 'rot2': 0, 'depth': 0.851, 'yaw': -56.98, 'datetime': '2018-12-18 20:09:06.350872', 'mgs': 0, 'flw2': 0.1, 'flw1': 0.38, 'flw0': 0.0, 'time': 38.53, 'compass': -77.95, 'pitch': 3.14, 'roll': -13.39}
{'lipoC2': 0.0, 'temp': 0.0, 'lipoC3S3': 11.8, 'state': 'normal', 'rot1': 39, 'rot0': 31, 'rot3': 0, 'rot2': 0, 'depth': -0.98, 'yaw': -56.24, 'datetime': '2018-12-18 20:09:06.560200', 'mgs': 0, 'flw2': 0.0, 'flw1': 0.0, 'flw0': 0.22, 'time': 38.74, 'compass': -77.2, 'pitch': 2.87, 'roll': -13.65}
{'lipoC2': 0.12, 'temp': 0.0, 'lipoC3S3': 11.76, 'state': 'normal', 'rot1': 39, 'rot0': 31, 'rot3': 0, 'rot2': 0, 'depth': 0.546, 'yaw': -55.52, 'datetime': '2018-12-18 20:09:06.768332', 'mgs': 0, 'flw2': 0.18, 'flw1': 0.12, 'flw0': 0.0, 'time': 38.95, 'compass': -76.49, 'pitch': 2.99, 'roll': -13.85}
{'lipoC2': 0.19, 'temp': 0.0, 'lipoC3S3': 11.79, 'state': 'normal', 'rot1': 39, 'rot0': 31, 'rot3': 0, 'rot2': 0, 'depth': -1.437, 'yaw': -54.77, 'datetime': '2018-12-18 20:09:06.977909', 'mgs': 0, 'flw2': 0.22, 'flw1': 0.0, 'flw0': 0.0, 'time': 39.15, 'compass': -75.74, 'pitch': 3.12, 'roll': -13.91}
{'lipoC2': 0.05, 'temp': 0.0, 'lipoC3S3': 12.02, 'state': 'normal', 'rot1': 39, 'rot0': 31, 'rot3': 0, 'rot2': 0, 'depth': -0.064, 'yaw': -54.04, 'datetime': '2018-12-18 20:09:07.185832', 'mgs': 0, 'flw2': 0.11, 'flw1': 0.62, 'flw0': 0.0, 'time': 39.36, 'compass': -75.01, 'pitch': 2.89, 'roll': -13.95}
{'lipoC2': 0.12, 'temp': 0.0, 'lipoC3S3': 11.96, 'state': 'normal', 'rot1': 39, 'rot0': 31, 'rot3': 0, 'rot2': 0, 'depth': -2.048, 'yaw': -53.29, 'datetime': '2018-12-18 20:09:07.395464', 'mgs': 0, 'flw2': 0.0, 'flw1': 0.5, 'flw0': 0.0, 'time': 39.57, 'compass': -74.26, 'pitch': 2.48, 'roll': -13.99}
{'lipoC2': 0.0, 'temp': 0.0, 'lipoC3S3': 11.83, 'state': 'normal', 'rot1': 39, 'rot0': 31, 'rot3': 0, 'rot2': 0, 'depth': -0.293, 'yaw': -52.56, 'datetime': '2018-12-18 20:09:07.607236', 'mgs': 0, 'flw2': 0.21, 'flw1': 0.12, 'flw0': 0.0, 'time': 39.78, 'compass': -73.52, 'pitch': 2.27, 'roll': -14.03}
{'lipoC2': 0.1, 'temp': 0.0, 'lipoC3S3': 11.76, 'state': 'normal', 'rot1': 39, 'rot0': 31, 'rot3': 0, 'rot2': 0, 'depth': 0.089, 'yaw': -51.88, 'datetime': '2018-12-18 20:09:07.824589', 'mgs': 0, 'flw2': 0.17, 'flw1': 0.12, 'flw0': 0.0, 'time': 39.99, 'compass': -72.85, 'pitch': 2.27, 'roll': -14.19}
{'lipoC2': 0.0, 'temp': 0.0, 'lipoC3S3': 11.81, 'state': 'normal', 'rot1': 39, 'rot0': 31, 'rot3': 0, 'rot2': 0, 'depth': -0.674, 'yaw': -51.18, 'datetime': '2018-12-18 20:09:08.038084', 'mgs': 0, 'flw2': 0.12, 'flw1': 0.32, 'flw0': 0.0, 'time': 40.2, 'compass': -72.14, 'pitch': 2.2, 'roll': -14.37}
{'lipoC2': 0.0, 'temp': 0.0, 'lipoC3S3': 12.1, 'state': 'normal', 'rot1': 39, 'rot0': 31, 'rot3': 0, 'rot2': 0, 'depth': 1.462, 'yaw': -50.48, 'datetime': '2018-12-18 20:09:08.242688', 'mgs': 0, 'flw2': 0.0, 'flw1': 0.0, 'flw0': 0.0, 'time': 40.41, 'compass': -71.45, 'pitch': 2.01, 'roll': -14.56}
{'lipoC2': 0.0, 'temp': 0.0, 'lipoC3S3': 12.14, 'state': 'normal', 'rot1': 39, 'rot0': 31, 'rot3': 0, 'rot2': 0, 'depth': 1.538, 'yaw': -49.8, 'datetime': '2018-12-18 20:09:08.447056', 'mgs': 0, 'flw2': 0.15, 'flw1': 0.15, 'flw0': 0.0, 'time': 40.62, 'compass': -70.76, 'pitch': 1.74, 'roll': -14.77}
{'lipoC2': 0.0, 'temp': 0.0, 'lipoC3S3': 11.8, 'state': 'normal', 'rot1': 39, 'rot0': 31, 'rot3': 0, 'rot2': 0, 'depth': -1.208, 'yaw': -49.12, 'datetime': '2018-12-18 20:09:08.657930', 'mgs': 0, 'flw2': 0.12, 'flw1': 0.23, 'flw0': 0.0, 'time': 40.83, 'compass': -70.08, 'pitch': 1.56, 'roll': -14.79}
{'lipoC2': 0.0, 'temp': 0.0, 'lipoC3S3': 11.87, 'state': 'normal', 'rot1': 39, 'rot0': 31, 'rot3': 0, 'rot2': 0, 'depth': 1.233, 'yaw': -48.41, 'datetime': '2018-12-18 20:09:08.873648', 'mgs': 0, 'flw2': 0.06, 'flw1': 0.0, 'flw0': 0.13, 'time': 41.03, 'compass': -69.38, 'pitch': 1.39, 'roll': -14.81}
{'lipoC2': 0.15, 'temp': 0.0, 'lipoC3S3': 11.89, 'state': 'normal', 'rot1': 39, 'rot0': 31, 'rot3': 0, 'rot2': 0, 'depth': 0.928, 'yaw': -47.74, 'datetime': '2018-12-18 20:09:09.079563', 'mgs': 0, 'flw2': 0.07, 'flw1': 0.0, 'flw0': 0.13, 'time': 41.24, 'compass': -68.7, 'pitch': 1.22, 'roll': -14.83}
{'lipoC2': 0.0, 'temp': 0.0, 'lipoC3S3': 12.16, 'state': 'normal', 'rot1': 39, 'rot0': 31, 'rot3': 0, 'rot2': 0, 'depth': 1.691, 'yaw': -47.06, 'datetime': '2018-12-18 20:09:09.289085', 'mgs': 0, 'flw2': 0.0, 'flw1': 0.09, 'flw0': 0.18, 'time': 41.45, 'compass': -68.02, 'pitch': 1.04, 'roll': -14.85}
{'lipoC2': 0.0, 'temp': 0.0, 'lipoC3S3': 11.96, 'state': 'normal', 'rot1': 39, 'rot0': 31, 'rot3': 0, 'rot2': 0, 'depth': 0.623, 'yaw': -46.4, 'datetime': '2018-12-18 20:09:09.497797', 'mgs': 0, 'flw2': 0.0, 'flw1': 0.44, 'flw0': 0.0, 'time': 41.66, 'compass': -67.37, 'pitch': 0.88, 'roll': -14.99}
{'lipoC2': 0.05, 'temp': 0.0, 'lipoC3S3': 12.01, 'state': 'normal', 'rot1': 39, 'rot0': 31, 'rot3': 0, 'rot2': 0, 'depth': -1.437, 'yaw': -45.76, 'datetime': '2018-12-18 20:09:09.703330', 'mgs': 0, 'flw2': 0.0, 'flw1': 0.38, 'flw0': 0.0, 'time': 41.87, 'compass': -66.72, 'pitch': 0.71, 'roll': -15.19}
{'lipoC2': 0.0, 'temp': 0.0, 'lipoC3S3': 12.02, 'state': 'normal', 'rot1': 39, 'rot0': 31, 'rot3': 0, 'rot2': 0, 'depth': 0.699, 'yaw': -45.09, 'datetime': '2018-12-18 20:09:09.913857', 'mgs': 0, 'flw2': 0.21, 'flw1': 0.0, 'flw0': 0.0, 'time': 42.08, 'compass': -66.05, 'pitch': 0.54, 'roll': -15.35}
{'lipoC2': 0.0, 'temp': 0.0, 'lipoC3S3': 12.16, 'state': 'normal', 'rot1': 39, 'rot0': 31, 'rot3': 0, 'rot2': 0, 'depth': 1.691, 'yaw': -44.43, 'datetime': '2018-12-18 20:09:10.125314', 'mgs': 0, 'flw2': 0.0, 'flw1': 0.09, 'flw0': 0.18, 'time': 42.29, 'compass': -65.39, 'pitch': 0.35, 'roll': -15.35}
{'lipoC2': 0.0, 'temp': 0.0, 'lipoC3S3': 12.18, 'state': 'normal', 'rot1': 39, 'rot0': 31, 'rot3': 0, 'rot2': 0, 'depth': 1.614, 'yaw': -43.77, 'datetime': '2018-12-18 20:09:10.331907', 'mgs': 0, 'flw2': 0.0, 'flw1': 0.0, 'flw0': 0.22, 'time': 42.5, 'compass': -64.73, 'pitch': 0.21, 'roll': -15.36}
{'lipoC2': 0.08, 'temp': 0.0, 'lipoC3S3': 12.0, 'state': 'normal', 'rot1': 39, 'rot0': 31, 'rot3': 0, 'rot2': 0, 'depth': -1.895, 'yaw': -43.16, 'datetime': '2018-12-18 20:09:10.541807', 'mgs': 0, 'flw2': 0.2, 'flw1': 0.0, 'flw0': 0.0, 'time': 42.71, 'compass': -64.12, 'pitch': 0.05, 'roll': -15.37}
