{'lipoC2': 8.37, 'temp': 0.0, 'lipoC3S3': 12.25, 'state': 'normal', 'rot1': 0, 'rot0': 0, 'rot3': 0, 'rot2': 0, 'depth': 0.012, 'yaw': -0.23, 'datetime': '2018-12-12 10:34:59.862854', 'mgs': 0, 'flw2': 0.18, 'flw1': 0.0, 'flw0': 0.0, 'time': 1.57, 'compass': -141.64, 'pitch': -0.57, 'roll': 3.42}
{'lipoC2': 8.06, 'temp': 0.0, 'lipoC3S3': 12.17, 'state': 'normal', 'rot1': 0, 'rot0': 0, 'rot3': 0, 'rot2': 0, 'depth': 1.462, 'yaw': -0.37, 'datetime': '2018-12-12 10:35:00.068297', 'mgs': 0, 'flw2': 0.0, 'flw1': 0.03, 'flw0': 0.0, 'time': 1.78, 'compass': -141.77, 'pitch': -0.61, 'roll': 3.77}
{'lipoC2': 8.37, 'temp': 0.0, 'lipoC3S3': 12.59, 'state': 'normal', 'rot1': 0, 'rot0': 0, 'rot3': 0, 'rot2': 0, 'depth': 0.012, 'yaw': -0.54, 'datetime': '2018-12-12 10:35:00.280839', 'mgs': 0, 'flw2': 0.0, 'flw1': 0.0, 'flw0': 0.01, 'time': 1.99, 'compass': -141.95, 'pitch': -0.58, 'roll': 4.11}
{'lipoC2': 8.11, 'temp': 0.0, 'lipoC3S3': 12.09, 'state': 'normal', 'rot1': 0, 'rot0': 0, 'rot3': 0, 'rot2': 0, 'depth': 2.072, 'yaw': -0.77, 'datetime': '2018-12-12 10:35:00.492091', 'mgs': 0, 'flw2': 0.0, 'flw1': 0.21, 'flw0': 0.0, 'time': 2.19, 'compass': -142.18, 'pitch': -0.59, 'roll': 4.19}
{'lipoC2': 8.33, 'temp': 0.0, 'lipoC3S3': 12.25, 'state': 'normal', 'rot1': 0, 'rot0': 0, 'rot3': 0, 'rot2': 0, 'depth': 1.462, 'yaw': -1.01, 'datetime': '2018-12-12 10:35:00.699339', 'mgs': 0, 'flw2': 0.27, 'flw1': 0.0, 'flw0': 0.09, 'time': 2.4, 'compass': -142.42, 'pitch': -0.77, 'roll': 4.11}
{'lipoC2': 8.19, 'temp': 0.0, 'lipoC3S3': 12.33, 'state': 'normal', 'rot1': 0, 'rot0': 0, 'rot3': 0, 'rot2': 0, 'depth': -0.827, 'yaw': -1.23, 'datetime': '2018-12-12 10:35:00.908583', 'mgs': 0, 'flw2': 0.0, 'flw1': 0.0, 'flw0': 0.31, 'time': 2.61, 'compass': -142.64, 'pitch': -0.86, 'roll': 4.11}
{'lipoC2': 8.17, 'temp': 0.0, 'lipoC3S3': 12.13, 'state': 'normal', 'rot1': 0, 'rot0': 0, 'rot3': 0, 'rot2': 0, 'depth': 2.53, 'yaw': -1.45, 'datetime': '2018-12-12 10:35:01.116554', 'mgs': 0, 'flw2': 0.0, 'flw1': 0.53, 'flw0': 0.0, 'time': 2.82, 'compass': -142.86, 'pitch': -0.86, 'roll': 4.1}
{'lipoC2': 8.13, 'temp': 0.0, 'lipoC3S3': 12.09, 'state': 'normal', 'rot1': 0, 'rot0': 0, 'rot3': 0, 'rot2': 0, 'depth': 2.454, 'yaw': -1.71, 'datetime': '2018-12-12 10:35:01.324234', 'mgs': 0, 'flw2': 0.0, 'flw1': 0.26, 'flw0': 0.0, 'time': 3.02, 'compass': -143.12, 'pitch': -0.87, 'roll': 3.73}
{'lipoC2': 8.1, 'temp': 0.0, 'lipoC3S3': 12.45, 'state': 'normal', 'rot1': 0, 'rot0': 0, 'rot3': 0, 'rot2': 0, 'depth': -0.293, 'yaw': -2.0, 'datetime': '2018-12-12 10:35:01.532079', 'mgs': 0, 'flw2': 0.28, 'flw1': 0.0, 'flw0': 0.0, 'time': 3.23, 'compass': -143.41, 'pitch': -0.92, 'roll': 3.18}
{'lipoC2': 8.21, 'temp': 0.0, 'lipoC3S3': 12.16, 'state': 'normal', 'rot1': 0, 'rot0': 0, 'rot3': 0, 'rot2': 0, 'depth': 2.454, 'yaw': -2.27, 'datetime': '2018-12-12 10:35:01.740920', 'mgs': 0, 'flw2': 0.31, 'flw1': 0.0, 'flw0': 0.0, 'time': 3.44, 'compass': -143.67, 'pitch': -0.82, 'roll': 2.92}
{'lipoC2': 8.24, 'temp': 0.0, 'lipoC3S3': 12.17, 'state': 'normal', 'rot1': 0, 'rot0': 0, 'rot3': 0, 'rot2': 0, 'depth': 2.225, 'yaw': -2.54, 'datetime': '2018-12-12 10:35:01.949731', 'mgs': 0, 'flw2': 0.0, 'flw1': 0.7, 'flw0': 0.0, 'time': 3.65, 'compass': -143.95, 'pitch': -0.55, 'roll': 2.92}
{'lipoC2': 8.17, 'temp': 0.0, 'lipoC3S3': 12.14, 'state': 'normal', 'rot1': 0, 'rot0': 0, 'rot3': 0, 'rot2': 0, 'depth': 2.606, 'yaw': -2.8, 'datetime': '2018-12-12 10:35:02.157790', 'mgs': 0, 'flw2': 0.0, 'flw1': 0.64, 'flw0': 0.0, 'time': 3.86, 'compass': -144.21, 'pitch': -0.6, 'roll': 2.86}
{'lipoC2': 8.39, 'temp': 0.0, 'lipoC3S3': 12.6, 'state': 'normal', 'rot1': 0, 'rot0': 0, 'rot3': 0, 'rot2': 0, 'depth': 0.394, 'yaw': -3.06, 'datetime': '2018-12-12 10:35:02.366275', 'mgs': 0, 'flw2': 0.0, 'flw1': 0.64, 'flw0': 0.0, 'time': 4.07, 'compass': -144.46, 'pitch': -0.82, 'roll': 2.69}
{'lipoC2': 8.29, 'temp': 0.0, 'lipoC3S3': 12.26, 'state': 'normal', 'rot1': 0, 'rot0': 0, 'rot3': 0, 'rot2': 0, 'depth': -1.056, 'yaw': -3.28, 'datetime': '2018-12-12 10:35:02.574997', 'mgs': 0, 'flw2': 0.0, 'flw1': 0.0, 'flw0': 0.01, 'time': 4.27, 'compass': -144.68, 'pitch': -0.84, 'roll': 2.83}
{'lipoC2': 8.17, 'temp': 0.0, 'lipoC3S3': 12.13, 'state': 'normal', 'rot1': 0, 'rot0': 0, 'rot3': 0, 'rot2': 0, 'depth': 2.606, 'yaw': -3.48, 'datetime': '2018-12-12 10:35:02.782615', 'mgs': 0, 'flw2': 0.0, 'flw1': 0.64, 'flw0': 0.0, 'time': 4.48, 'compass': -144.89, 'pitch': -0.85, 'roll': 3.34}
{'lipoC2': 8.3, 'temp': 0.0, 'lipoC3S3': 12.26, 'state': 'normal', 'rot1': 0, 'rot0': 0, 'rot3': 0, 'rot2': 0, 'depth': 1.843, 'yaw': -3.72, 'datetime': '2018-12-12 10:35:02.990023', 'mgs': 0, 'flw2': 0.0, 'flw1': 0.0, 'flw0': 0.28, 'time': 4.69, 'compass': -145.12, 'pitch': -0.9, 'roll': 3.74}
{'lipoC2': 8.25, 'temp': 0.0, 'lipoC3S3': 12.19, 'state': 'normal', 'rot1': 0, 'rot0': 0, 'rot3': 0, 'rot2': 0, 'depth': 2.225, 'yaw': -3.99, 'datetime': '2018-12-12 10:35:03.198464', 'mgs': 0, 'flw2': 0.0, 'flw1': 0.67, 'flw0': 0.0, 'time': 4.9, 'compass': -145.4, 'pitch': -0.95, 'roll': 3.77}
{'lipoC2': 8.23, 'temp': 0.0, 'lipoC3S3': 12.31, 'state': 'normal', 'rot1': 0, 'rot0': 0, 'rot3': 0, 'rot2': 0, 'depth': -1.056, 'yaw': -4.26, 'datetime': '2018-12-12 10:35:03.408023', 'mgs': 0, 'flw2': 0.29, 'flw1': 0.0, 'flw0': 0.0, 'time': 5.11, 'compass': -145.66, 'pitch': -0.82, 'roll': 3.76}
{'lipoC2': 8.13, 'temp': 0.0, 'lipoC3S3': 12.45, 'state': 'normal', 'rot1': 0, 'rot0': 0, 'rot3': 0, 'rot2': 0, 'depth': 2.53, 'yaw': -4.49, 'datetime': '2018-12-12 10:35:03.615591', 'mgs': 0, 'flw2': 0.0, 'flw1': 0.29, 'flw0': 0.0, 'time': 5.31, 'compass': -145.9, 'pitch': -0.76, 'roll': 3.77}
{'lipoC2': 8.16, 'temp': 0.0, 'lipoC3S3': 12.16, 'state': 'normal', 'rot1': 0, 'rot0': 0, 'rot3': 0, 'rot2': 0, 'depth': 2.53, 'yaw': -4.71, 'datetime': '2018-12-12 10:35:03.825127', 'mgs': 0, 'flw2': 0.12, 'flw1': 0.0, 'flw0': 0.0, 'time': 5.52, 'compass': -146.12, 'pitch': -1.0, 'roll': 3.76}
{'lipoC2': 8.24, 'temp': 0.0, 'lipoC3S3': 12.33, 'state': 'normal', 'rot1': 0, 'rot0': 0, 'rot3': 0, 'rot2': 0, 'depth': -1.056, 'yaw': -4.92, 'datetime': '2018-12-12 10:35:04.033039', 'mgs': 0, 'flw2': 0.0, 'flw1': 0.0, 'flw0': 0.21, 'time': 5.73, 'compass': -146.32, 'pitch': -1.35, 'roll': 3.62}
{'lipoC2': 8.23, 'temp': 0.0, 'lipoC3S3': 12.33, 'state': 'normal', 'rot1': 0, 'rot0': 0, 'rot3': 0, 'rot2': 0, 'depth': -0.98, 'yaw': -5.16, 'datetime': '2018-12-12 10:35:04.241342', 'mgs': 0, 'flw2': 0.0, 'flw1': 0.0, 'flw0': 0.17, 'time': 5.94, 'compass': -146.57, 'pitch': -1.29, 'roll': 3.29}
{'lipoC2': 8.38, 'temp': 0.0, 'lipoC3S3': 12.23, 'state': 'normal', 'rot1': 0, 'rot0': 0, 'rot3': 0, 'rot2': 0, 'depth': -0.598, 'yaw': -5.41, 'datetime': '2018-12-12 10:35:04.448683', 'mgs': 0, 'flw2': 0.0, 'flw1': 0.0, 'flw0': 0.28, 'time': 6.14, 'compass': -146.82, 'pitch': -0.85, 'roll': 3.16}
{'lipoC2': 8.12, 'temp': 0.0, 'lipoC3S3': 12.1, 'state': 'normal', 'rot1': 0, 'rot0': 0, 'rot3': 0, 'rot2': 0, 'depth': -0.064, 'yaw': -5.61, 'datetime': '2018-12-12 10:35:04.658160', 'mgs': 0, 'flw2': 0.0, 'flw1': 0.62, 'flw0': 0.0, 'time': 6.35, 'compass': -147.02, 'pitch': -0.65, 'roll': 3.16}
{'lipoC2': 8.33, 'temp': 0.0, 'lipoC3S3': 12.25, 'state': 'normal', 'rot1': 0, 'rot0': 0, 'rot3': 0, 'rot2': 0, 'depth': 1.538, 'yaw': -5.8, 'datetime': '2018-12-12 10:35:04.868489', 'mgs': 0, 'flw2': 0.0, 'flw1': 0.03, 'flw0': 0.0, 'time': 6.56, 'compass': -147.21, 'pitch': -0.84, 'roll': 3.16}
{'lipoC2': 8.39, 'temp': 0.0, 'lipoC3S3': 12.23, 'state': 'normal', 'rot1': 0, 'rot0': 0, 'rot3': 0, 'rot2': 0, 'depth': 0.241, 'yaw': -6.01, 'datetime': '2018-12-12 10:35:05.076716', 'mgs': 0, 'flw2': 0.05, 'flw1': 0.0, 'flw0': 0.24, 'time': 6.77, 'compass': -147.41, 'pitch': -1.19, 'roll': 3.15}
{'lipoC2': 8.14, 'temp': 0.0, 'lipoC3S3': 12.09, 'state': 'normal', 'rot1': 0, 'rot0': 0, 'rot3': 0, 'rot2': 0, 'depth': -0.064, 'yaw': -6.21, 'datetime': '2018-12-12 10:35:05.284980', 'mgs': 0, 'flw2': 0.29, 'flw1': 0.0, 'flw0': 0.0, 'time': 6.98, 'compass': -147.62, 'pitch': -1.29, 'roll': 3.32}
{'lipoC2': 8.15, 'temp': 0.0, 'lipoC3S3': 12.38, 'state': 'normal', 'rot1': 0, 'rot0': 0, 'rot3': 0, 'rot2': 0, 'depth': -0.827, 'yaw': -6.46, 'datetime': '2018-12-12 10:35:05.492038', 'mgs': 0, 'flw2': 0.26, 'flw1': 0.0, 'flw0': 0.0, 'time': 7.19, 'compass': -147.87, 'pitch': -1.22, 'roll': 3.47}
{'lipoC2': 8.21, 'temp': 0.0, 'lipoC3S3': 12.16, 'state': 'normal', 'rot1': 0, 'rot0': 0, 'rot3': 0, 'rot2': 0, 'depth': 2.454, 'yaw': -6.69, 'datetime': '2018-12-12 10:35:05.701648', 'mgs': 0, 'flw2': 0.26, 'flw1': 0.0, 'flw0': 0.0, 'time': 7.39, 'compass': -148.1, 'pitch': -1.13, 'roll': 3.47}
{'lipoC2': 8.12, 'temp': 0.0, 'lipoC3S3': 12.39, 'state': 'normal', 'rot1': 0, 'rot0': 0, 'rot3': 0, 'rot2': 0, 'depth': -0.293, 'yaw': -6.87, 'datetime': '2018-12-12 10:35:05.910291', 'mgs': 0, 'flw2': 0.0, 'flw1': 0.0, 'flw0': 0.32, 'time': 7.6, 'compass': -148.28, 'pitch': -1.19, 'roll': 3.5}
{'lipoC2': 8.13, 'temp': 0.0, 'lipoC3S3': 12.39, 'state': 'normal', 'rot1': 0, 'rot0': 0, 'rot3': 0, 'rot2': 0, 'depth': -0.522, 'yaw': -7.06, 'datetime': '2018-12-12 10:35:06.127788', 'mgs': 0, 'flw2': 0.0, 'flw1': 0.53, 'flw0': 0.0, 'time': 7.81, 'compass': -148.46, 'pitch': -1.38, 'roll': 3.63}
{'lipoC2': 8.35, 'temp': 0.0, 'lipoC3S3': 12.22, 'state': 'normal', 'rot1': 0, 'rot0': 0, 'rot3': 0, 'rot2': 0, 'depth': -1.208, 'yaw': -7.34, 'datetime': '2018-12-12 10:35:06.432539', 'mgs': 0, 'flw2': 0.0, 'flw1': 0.0, 'flw0': 0.31, 'time': 8.13, 'compass': -148.75, 'pitch': -0.88, 'roll': 3.46}
{'lipoC2': 8.4, 'temp': 0.0, 'lipoC3S3': 12.23, 'state': 'normal', 'rot1': 0, 'rot0': 0, 'rot3': 0, 'rot2': 0, 'depth': 0.394, 'yaw': -7.51, 'datetime': '2018-12-12 10:35:06.640885', 'mgs': 0, 'flw2': 0.32, 'flw1': 0.0, 'flw0': 0.09, 'time': 8.33, 'compass': -148.92, 'pitch': -0.5, 'roll': 3.24}
{'lipoC2': 8.12, 'temp': 0.0, 'lipoC3S3': 12.09, 'state': 'normal', 'rot1': 0, 'rot0': 0, 'rot3': 0, 'rot2': 0, 'depth': 2.454, 'yaw': -7.64, 'datetime': '2018-12-12 10:35:06.848876', 'mgs': 0, 'flw2': 0.0, 'flw1': 0.53, 'flw0': 0.0, 'time': 8.54, 'compass': -149.05, 'pitch': -0.77, 'roll': 3.07}
{'lipoC2': 8.09, 'temp': 0.0, 'lipoC3S3': 12.13, 'state': 'normal', 'rot1': 0, 'rot0': 0, 'rot3': 0, 'rot2': 0, 'depth': 1.08, 'yaw': -7.79, 'datetime': '2018-12-12 10:35:07.057627', 'mgs': 0, 'flw2': 0.15, 'flw1': 0.0, 'flw0': 0.0, 'time': 8.75, 'compass': -149.2, 'pitch': -0.92, 'roll': 2.92}
{'lipoC2': 8.1, 'temp': 0.0, 'lipoC3S3': 12.09, 'state': 'normal', 'rot1': 0, 'rot0': 0, 'rot3': 0, 'rot2': 0, 'depth': 1.538, 'yaw': -7.96, 'datetime': '2018-12-12 10:35:07.266576', 'mgs': 0, 'flw2': 0.0, 'flw1': 0.0, 'flw0': 0.12, 'time': 8.96, 'compass': -149.37, 'pitch': -0.69, 'roll': 2.92}
{'lipoC2': 8.4, 'temp': 0.0, 'lipoC3S3': 12.23, 'state': 'normal', 'rot1': 0, 'rot0': 0, 'rot3': 0, 'rot2': 0, 'depth': 0.241, 'yaw': -8.11, 'datetime': '2018-12-12 10:35:07.475359', 'mgs': 0, 'flw2': 0.31, 'flw1': 0.0, 'flw0': 0.09, 'time': 9.17, 'compass': -149.52, 'pitch': -0.98, 'roll': 2.92}
{'lipoC2': 8.35, 'temp': 0.0, 'lipoC3S3': 12.25, 'state': 'normal', 'rot1': 0, 'rot0': 0, 'rot3': 0, 'rot2': 0, 'depth': -0.217, 'yaw': -8.17, 'datetime': '2018-12-12 10:35:07.683867', 'mgs': 0, 'flw2': 0.0, 'flw1': 0.5, 'flw0': 0.0, 'time': 9.38, 'compass': -149.58, 'pitch': -1.65, 'roll': 3.09}
{'lipoC2': 8.21, 'temp': 0.0, 'lipoC3S3': 12.17, 'state': 'normal', 'rot1': 0, 'rot0': 0, 'rot3': 0, 'rot2': 0, 'depth': -0.217, 'yaw': -8.18, 'datetime': '2018-12-12 10:35:07.894637', 'mgs': 0, 'flw2': 0.0, 'flw1': 0.67, 'flw0': 0.0, 'time': 9.58, 'compass': -149.59, 'pitch': -1.7, 'roll': 3.3}
{'lipoC2': 8.11, 'temp': 0.0, 'lipoC3S3': 12.09, 'state': 'normal', 'rot1': 0, 'rot0': 0, 'rot3': 0, 'rot2': 0, 'depth': -0.217, 'yaw': -8.25, 'datetime': '2018-12-12 10:35:08.101514', 'mgs': 0, 'flw2': 0.0, 'flw1': 0.59, 'flw0': 0.0, 'time': 9.79, 'compass': -149.66, 'pitch': -1.2, 'roll': 3.58}
{'lipoC2': 8.26, 'temp': 0.0, 'lipoC3S3': 12.22, 'state': 'normal', 'rot1': 0, 'rot0': 0, 'rot3': 0, 'rot2': 0, 'depth': 2.225, 'yaw': -8.4, 'datetime': '2018-12-12 10:35:08.309712', 'mgs': 0, 'flw2': 0.0, 'flw1': 0.53, 'flw0': 0.0, 'time': 10.0, 'compass': -149.81, 'pitch': -0.96, 'roll': 3.68}
{'lipoC2': 8.38, 'temp': 0.0, 'lipoC3S3': 12.22, 'state': 'normal', 'rot1': 0, 'rot0': 0, 'rot3': 0, 'rot2': 0, 'depth': -0.293, 'yaw': -8.41, 'datetime': '2018-12-12 10:35:08.518371', 'mgs': 0, 'flw2': 0.0, 'flw1': 0.0, 'flw0': 0.32, 'time': 10.21, 'compass': -149.82, 'pitch': -1.17, 'roll': 3.68}
{'lipoC2': 8.37, 'temp': 0.0, 'lipoC3S3': 12.22, 'state': 'normal', 'rot1': 0, 'rot0': 0, 'rot3': 0, 'rot2': 0, 'depth': -0.751, 'yaw': -8.42, 'datetime': '2018-12-12 10:35:08.728536', 'mgs': 0, 'flw2': 0.29, 'flw1': 0.0, 'flw0': 0.0, 'time': 10.42, 'compass': -149.82, 'pitch': -1.22, 'roll': 3.68}
{'lipoC2': 8.08, 'temp': 0.0, 'lipoC3S3': 12.58, 'state': 'normal', 'rot1': 0, 'rot0': 0, 'rot3': 0, 'rot2': 0, 'depth': -0.369, 'yaw': -8.44, 'datetime': '2018-12-12 10:35:08.937284', 'mgs': 0, 'flw2': 0.2, 'flw1': 0.0, 'flw0': 0.0, 'time': 10.63, 'compass': -149.85, 'pitch': -1.03, 'roll': 3.61}
{'lipoC2': 8.12, 'temp': 0.0, 'lipoC3S3': 12.1, 'state': 'normal', 'rot1': 0, 'rot0': 0, 'rot3': 0, 'rot2': 0, 'depth': -0.217, 'yaw': -8.57, 'datetime': '2018-12-12 10:35:09.145185', 'mgs': 0, 'flw2': 0.28, 'flw1': 0.0, 'flw0': 0.0, 'time': 10.83, 'compass': -149.98, 'pitch': -0.97, 'roll': 3.21}
{'lipoC2': 8.29, 'temp': 0.0, 'lipoC3S3': 12.25, 'state': 'normal', 'rot1': 0, 'rot0': 0, 'rot3': 0, 'rot2': 0, 'depth': -1.056, 'yaw': -8.57, 'datetime': '2018-12-12 10:35:09.353981', 'mgs': 0, 'flw2': 0.04, 'flw1': 0.0, 'flw0': 0.31, 'time': 11.04, 'compass': -149.98, 'pitch': -0.94, 'roll': 2.85}
{'lipoC2': 8.1, 'temp': 0.0, 'lipoC3S3': 12.48, 'state': 'normal', 'rot1': 0, 'rot0': 0, 'rot3': 0, 'rot2': 0, 'depth': 2.377, 'yaw': -8.57, 'datetime': '2018-12-12 10:35:09.562975', 'mgs': 0, 'flw2': 0.16, 'flw1': 0.0, 'flw0': 0.0, 'time': 11.25, 'compass': -149.97, 'pitch': -0.75, 'roll': 2.71}
{'lipoC2': 8.31, 'temp': 0.0, 'lipoC3S3': 12.26, 'state': 'normal', 'rot1': 0, 'rot0': 0, 'rot3': 0, 'rot2': 0, 'depth': -1.056, 'yaw': -8.57, 'datetime': '2018-12-12 10:35:09.771038', 'mgs': 0, 'flw2': 0.0, 'flw1': 0.0, 'flw0': 0.26, 'time': 11.46, 'compass': -149.98, 'pitch': -0.82, 'roll': 2.68}
{'lipoC2': 8.22, 'temp': 0.0, 'lipoC3S3': 12.18, 'state': 'normal', 'rot1': 0, 'rot0': 0, 'rot3': 0, 'rot2': 0, 'depth': 2.301, 'yaw': -8.56, 'datetime': '2018-12-12 10:35:09.979021', 'mgs': 0, 'flw2': 0.0, 'flw1': 0.0, 'flw0': 0.0, 'time': 11.67, 'compass': -149.97, 'pitch': -1.32, 'roll': 2.68}
{'lipoC2': 8.38, 'temp': 0.0, 'lipoC3S3': 12.22, 'state': 'normal', 'rot1': 0, 'rot0': 0, 'rot3': 0, 'rot2': 0, 'depth': -0.674, 'yaw': -8.57, 'datetime': '2018-12-12 10:35:10.187648', 'mgs': 0, 'flw2': 0.0, 'flw1': 0.0, 'flw0': 0.28, 'time': 11.88, 'compass': -149.98, 'pitch': -1.5, 'roll': 2.68}
{'lipoC2': 8.12, 'temp': 0.0, 'lipoC3S3': 12.09, 'state': 'normal', 'rot1': 0, 'rot0': 0, 'rot3': 0, 'rot2': 0, 'depth': -0.064, 'yaw': -8.57, 'datetime': '2018-12-12 10:35:10.397732', 'mgs': 0, 'flw2': 0.0, 'flw1': 0.35, 'flw0': 0.0, 'time': 12.08, 'compass': -149.98, 'pitch': -1.13, 'roll': 2.74}
{'lipoC2': 8.17, 'temp': 0.0, 'lipoC3S3': 12.13, 'state': 'normal', 'rot1': 0, 'rot0': 0, 'rot3': 0, 'rot2': 0, 'depth': -0.217, 'yaw': -8.57, 'datetime': '2018-12-12 10:35:10.606519', 'mgs': 0, 'flw2': 0.0, 'flw1': 0.56, 'flw0': 0.0, 'time': 12.29, 'compass': -149.98, 'pitch': -0.94, 'roll': 3.0}
{'lipoC2': 8.08, 'temp': 0.0, 'lipoC3S3': 12.52, 'state': 'normal', 'rot1': 0, 'rot0': 0, 'rot3': 0, 'rot2': 0, 'depth': 2.301, 'yaw': -8.58, 'datetime': '2018-12-12 10:35:10.814499', 'mgs': 0, 'flw2': 0.0, 'flw1': 0.7, 'flw0': 0.0, 'time': 12.5, 'compass': -149.99, 'pitch': -1.34, 'roll': 3.2}
{'lipoC2': 8.2, 'temp': 0.0, 'lipoC3S3': 12.16, 'state': 'normal', 'rot1': 0, 'rot0': 0, 'rot3': 0, 'rot2': 0, 'depth': 2.53, 'yaw': -8.58, 'datetime': '2018-12-12 10:35:11.021701', 'mgs': 0, 'flw2': 0.15, 'flw1': 0.0, 'flw0': 0.0, 'time': 12.71, 'compass': -149.98, 'pitch': -1.62, 'roll': 3.19}
{'lipoC2': 8.28, 'temp': 0.0, 'lipoC3S3': 12.29, 'state': 'normal', 'rot1': 0, 'rot0': 0, 'rot3': 0, 'rot2': 0, 'depth': -1.132, 'yaw': -8.57, 'datetime': '2018-12-12 10:35:11.230074', 'mgs': 0, 'flw2': 0.24, 'flw1': 0.0, 'flw0': 0.0, 'time': 12.91, 'compass': -149.98, 'pitch': -1.08, 'roll': 3.19}
{'lipoC2': 8.15, 'temp': 0.0, 'lipoC3S3': 12.14, 'state': 'normal', 'rot1': 0, 'rot0': 0, 'rot3': 0, 'rot2': 0, 'depth': -0.827, 'yaw': -8.57, 'datetime': '2018-12-12 10:35:11.437905', 'mgs': 0, 'flw2': 0.28, 'flw1': 0.0, 'flw0': 0.0, 'time': 13.12, 'compass': -149.98, 'pitch': -0.5, 'roll': 3.2}
{'lipoC2': 8.2, 'temp': 0.0, 'lipoC3S3': 12.34, 'state': 'normal', 'rot1': 0, 'rot0': 0, 'rot3': 0, 'rot2': 0, 'depth': -0.903, 'yaw': -8.58, 'datetime': '2018-12-12 10:35:11.647410', 'mgs': 0, 'flw2': 0.0, 'flw1': 0.0, 'flw0': 0.26, 'time': 13.33, 'compass': -149.98, 'pitch': -0.61, 'roll': 3.12}
{'lipoC2': 8.12, 'temp': 0.0, 'lipoC3S3': 12.43, 'state': 'normal', 'rot1': 0, 'rot0': 0, 'rot3': 0, 'rot2': 0, 'depth': -0.293, 'yaw': -8.57, 'datetime': '2018-12-12 10:35:11.856893', 'mgs': 0, 'flw2': 0.0, 'flw1': 0.26, 'flw0': 0.0, 'time': 13.54, 'compass': -149.98, 'pitch': -0.68, 'roll': 2.91}
{'lipoC2': 8.19, 'temp': 0.0, 'lipoC3S3': 12.46, 'state': 'normal', 'rot1': 0, 'rot0': 0, 'rot3': 0, 'rot2': 0, 'depth': 2.53, 'yaw': -8.57, 'datetime': '2018-12-12 10:35:12.065134', 'mgs': 0, 'flw2': 0.0, 'flw1': 0.0, 'flw0': 0.0, 'time': 13.75, 'compass': -149.98, 'pitch': -0.56, 'roll': 2.82}
{'lipoC2': 8.15, 'temp': 0.0, 'lipoC3S3': 12.14, 'state': 'normal', 'rot1': 0, 'rot0': 0, 'rot3': 0, 'rot2': 0, 'depth': 2.53, 'yaw': -8.57, 'datetime': '2018-12-12 10:35:12.273525', 'mgs': 0, 'flw2': 0.0, 'flw1': 0.67, 'flw0': 0.0, 'time': 13.96, 'compass': -149.98, 'pitch': -0.87, 'roll': 2.82}
{'lipoC2': 8.36, 'temp': 0.0, 'lipoC3S3': 12.45, 'state': 'normal', 'rot1': 0, 'rot0': 0, 'rot3': 0, 'rot2': 0, 'depth': -0.674, 'yaw': -8.57, 'datetime': '2018-12-12 10:35:12.480286', 'mgs': 0, 'flw2': 0.11, 'flw1': 0.0, 'flw0': 0.0, 'time': 14.16, 'compass': -149.98, 'pitch': -1.18, 'roll': 2.81}
{'lipoC2': 8.11, 'temp': 0.0, 'lipoC3S3': 12.46, 'state': 'normal', 'rot1': 0, 'rot0': 0, 'rot3': 0, 'rot2': 0, 'depth': -0.598, 'yaw': -8.57, 'datetime': '2018-12-12 10:35:12.690514', 'mgs': 0, 'flw2': 0.0, 'flw1': 0.0, 'flw0': 0.0, 'time': 14.37, 'compass': -149.98, 'pitch': -1.19, 'roll': 2.82}
{'lipoC2': 8.19, 'temp': 0.0, 'lipoC3S3': 12.16, 'state': 'normal', 'rot1': 0, 'rot0': 0, 'rot3': 0, 'rot2': 0, 'depth': 2.53, 'yaw': -8.58, 'datetime': '2018-12-12 10:35:12.899808', 'mgs': 0, 'flw2': 0.0, 'flw1': 0.0, 'flw0': 0.0, 'time': 14.58, 'compass': -149.99, 'pitch': -1.51, 'roll': 2.97}
{'lipoC2': 8.39, 'temp': 0.0, 'lipoC3S3': 12.23, 'state': 'normal', 'rot1': 0, 'rot0': 0, 'rot3': 0, 'rot2': 0, 'depth': 0.241, 'yaw': -8.59, 'datetime': '2018-12-12 10:35:13.107085', 'mgs': 0, 'flw2': 0.11, 'flw1': 0.0, 'flw0': 0.26, 'time': 14.79, 'compass': -149.99, 'pitch': -1.75, 'roll': 3.18}
{'lipoC2': 8.11, 'temp': 0.0, 'lipoC3S3': 12.09, 'state': 'normal', 'rot1': 0, 'rot0': 0, 'rot3': 0, 'rot2': 0, 'depth': 1.691, 'yaw': -8.59, 'datetime': '2018-12-12 10:35:13.316627', 'mgs': 0, 'flw2': 0.0, 'flw1': 0.53, 'flw0': 0.0, 'time': 15.0, 'compass': -149.99, 'pitch': -1.28, 'roll': 3.37}
{'lipoC2': 8.08, 'temp': 0.0, 'lipoC3S3': 12.08, 'state': 'normal', 'rot1': 0, 'rot0': 0, 'rot3': 0, 'rot2': 0, 'depth': -0.446, 'yaw': -8.59, 'datetime': '2018-12-12 10:35:13.525600', 'mgs': 0, 'flw2': 0.0, 'flw1': 0.47, 'flw0': 0.0, 'time': 15.21, 'compass': -150.0, 'pitch': -0.78, 'roll': 3.57}
{'lipoC2': 8.27, 'temp': 0.0, 'lipoC3S3': 12.31, 'state': 'normal', 'rot1': 0, 'rot0': 0, 'rot3': 0, 'rot2': 0, 'depth': 1.996, 'yaw': -8.59, 'datetime': '2018-12-12 10:35:13.735178', 'mgs': 0, 'flw2': 0.28, 'flw1': 0.0, 'flw0': 0.0, 'time': 15.42, 'compass': -150.0, 'pitch': -0.86, 'roll': 3.58}
{'lipoC2': 8.39, 'temp': 0.0, 'lipoC3S3': 12.22, 'state': 'normal', 'rot1': 0, 'rot0': 0, 'rot3': 0, 'rot2': 0, 'depth': 0.928, 'yaw': -8.59, 'datetime': '2018-12-12 10:35:13.942547', 'mgs': 0, 'flw2': 0.0, 'flw1': 0.0, 'flw0': 0.29, 'time': 15.62, 'compass': -150.0, 'pitch': -1.06, 'roll': 3.28}
{'lipoC2': 8.38, 'temp': 0.0, 'lipoC3S3': 12.22, 'state': 'normal', 'rot1': 0, 'rot0': 0, 'rot3': 0, 'rot2': 0, 'depth': 0.165, 'yaw': -8.58, 'datetime': '2018-12-12 10:35:14.151429', 'mgs': 0, 'flw2': 0.0, 'flw1': 0.0, 'flw0': 0.29, 'time': 15.83, 'compass': -149.99, 'pitch': -1.07, 'roll': 2.99}
{'lipoC2': 8.08, 'temp': 0.0, 'lipoC3S3': 12.6, 'state': 'normal', 'rot1': 0, 'rot0': 0, 'rot3': 0, 'rot2': 0, 'depth': -0.446, 'yaw': -8.58, 'datetime': '2018-12-12 10:35:14.361011', 'mgs': 0, 'flw2': 0.0, 'flw1': 0.7, 'flw0': 0.0, 'time': 16.04, 'compass': -149.99, 'pitch': -1.03, 'roll': 2.99}
{'lipoC2': 8.17, 'temp': 0.0, 'lipoC3S3': 12.39, 'state': 'normal', 'rot1': 0, 'rot0': 0, 'rot3': 0, 'rot2': 0, 'depth': -0.827, 'yaw': -8.58, 'datetime': '2018-12-12 10:35:14.565760', 'mgs': 0, 'flw2': 0.21, 'flw1': 0.0, 'flw0': 0.0, 'time': 16.25, 'compass': -149.99, 'pitch': -0.94, 'roll': 2.93}
{'lipoC2': 8.38, 'temp': 0.0, 'lipoC3S3': 12.22, 'state': 'normal', 'rot1': 0, 'rot0': 0, 'rot3': 0, 'rot2': 0, 'depth': 0.623, 'yaw': -8.57, 'datetime': '2018-12-12 10:35:14.772925', 'mgs': 0, 'flw2': 0.13, 'flw1': 0.0, 'flw0': 0.0, 'time': 16.46, 'compass': -149.98, 'pitch': -1.08, 'roll': 2.59}
{'lipoC2': 8.11, 'temp': 0.0, 'lipoC3S3': 12.09, 'state': 'normal', 'rot1': 0, 'rot0': 0, 'rot3': 0, 'rot2': 0, 'depth': -0.064, 'yaw': -8.57, 'datetime': '2018-12-12 10:35:14.982738', 'mgs': 0, 'flw2': 0.0, 'flw1': 0.0, 'flw0': 0.01, 'time': 16.67, 'compass': -149.98, 'pitch': -1.34, 'roll': 2.39}
{'lipoC2': 8.11, 'temp': 0.0, 'lipoC3S3': 12.09, 'state': 'normal', 'rot1': 0, 'rot0': 0, 'rot3': 0, 'rot2': 0, 'depth': 0.012, 'yaw': -8.57, 'datetime': '2018-12-12 10:35:15.190653', 'mgs': 0, 'flw2': 0.0, 'flw1': 0.12, 'flw0': 0.0, 'time': 16.87, 'compass': -149.98, 'pitch': -1.32, 'roll': 2.51}
{'lipoC2': 8.36, 'temp': 0.0, 'lipoC3S3': 12.25, 'state': 'normal', 'rot1': 0, 'rot0': 0, 'rot3': 0, 'rot2': 0, 'depth': -0.14, 'yaw': -8.58, 'datetime': '2018-12-12 10:35:15.400401', 'mgs': 0, 'flw2': 0.0, 'flw1': 0.35, 'flw0': 0.0, 'time': 17.08, 'compass': -149.99, 'pitch': -1.28, 'roll': 2.65}
{'lipoC2': 8.07, 'temp': 0.0, 'lipoC3S3': 12.62, 'state': 'normal', 'rot1': 0, 'rot0': 0, 'rot3': 0, 'rot2': 0, 'depth': -0.293, 'yaw': -8.58, 'datetime': '2018-12-12 10:35:15.608110', 'mgs': 0, 'flw2': 0.29, 'flw1': 0.0, 'flw0': 0.11, 'time': 17.29, 'compass': -149.99, 'pitch': -1.28, 'roll': 2.65}
{'lipoC2': 8.34, 'temp': 0.0, 'lipoC3S3': 12.23, 'state': 'normal', 'rot1': 0, 'rot0': 0, 'rot3': 0, 'rot2': 0, 'depth': -1.056, 'yaw': -8.58, 'datetime': '2018-12-12 10:35:15.817840', 'mgs': 0, 'flw2': 0.0, 'flw1': 0.0, 'flw0': 0.31, 'time': 17.5, 'compass': -149.99, 'pitch': -1.28, 'roll': 2.83}
{'lipoC2': 8.08, 'temp': 0.0, 'lipoC3S3': 12.58, 'state': 'normal', 'rot1': 0, 'rot0': 0, 'rot3': 0, 'rot2': 0, 'depth': -0.446, 'yaw': -8.59, 'datetime': '2018-12-12 10:35:16.026234', 'mgs': 0, 'flw2': 0.0, 'flw1': 0.67, 'flw0': 0.0, 'time': 17.71, 'compass': -149.99, 'pitch': -1.28, 'roll': 3.14}
{'lipoC2': 8.1, 'temp': 0.0, 'lipoC3S3': 12.1, 'state': 'normal', 'rot1': 0, 'rot0': 0, 'rot3': 0, 'rot2': 0, 'depth': 1.462, 'yaw': -8.6, 'datetime': '2018-12-12 10:35:16.235805', 'mgs': 0, 'flw2': 0.27, 'flw1': 0.0, 'flw0': 0.0, 'time': 17.92, 'compass': -150.01, 'pitch': -1.28, 'roll': 3.38}
{'lipoC2': 8.31, 'temp': 0.0, 'lipoC3S3': 12.26, 'state': 'normal', 'rot1': 0, 'rot0': 0, 'rot3': 0, 'rot2': 0, 'depth': -1.132, 'yaw': -8.64, 'datetime': '2018-12-12 10:35:16.443080', 'mgs': 0, 'flw2': 0.0, 'flw1': 0.0, 'flw0': 0.28, 'time': 18.12, 'compass': -150.05, 'pitch': -1.13, 'roll': 3.62}
{'lipoC2': 8.4, 'temp': 0.0, 'lipoC3S3': 12.22, 'state': 'normal', 'rot1': 0, 'rot0': 0, 'rot3': 0, 'rot2': 0, 'depth': -0.903, 'yaw': -8.65, 'datetime': '2018-12-12 10:35:16.652665', 'mgs': 0, 'flw2': 0.32, 'flw1': 0.0, 'flw0': 0.13, 'time': 18.33, 'compass': -150.06, 'pitch': -0.95, 'roll': 3.69}
{'lipoC2': 8.36, 'temp': 0.0, 'lipoC3S3': 12.25, 'state': 'normal', 'rot1': 0, 'rot0': 0, 'rot3': 0, 'rot2': 0, 'depth': 0.546, 'yaw': -8.65, 'datetime': '2018-12-12 10:35:16.861069', 'mgs': 0, 'flw2': 0.31, 'flw1': 0.0, 'flw0': 0.06, 'time': 18.54, 'compass': -150.06, 'pitch': -0.95, 'roll': 3.53}
{'lipoC2': 8.39, 'temp': 0.0, 'lipoC3S3': 12.23, 'state': 'normal', 'rot1': 0, 'rot0': 0, 'rot3': 0, 'rot2': 0, 'depth': 0.089, 'yaw': -8.65, 'datetime': '2018-12-12 10:35:17.071152', 'mgs': 0, 'flw2': 0.01, 'flw1': 0.0, 'flw0': 0.27, 'time': 18.75, 'compass': -150.06, 'pitch': -0.9, 'roll': 3.31}
{'lipoC2': 8.13, 'temp': 0.0, 'lipoC3S3': 12.1, 'state': 'normal', 'rot1': 0, 'rot0': 0, 'rot3': 0, 'rot2': 0, 'depth': -0.064, 'yaw': -8.65, 'datetime': '2018-12-12 10:35:17.279678', 'mgs': 0, 'flw2': 0.0, 'flw1': 0.67, 'flw0': 0.0, 'time': 18.96, 'compass': -150.06, 'pitch': -0.81, 'roll': 3.11}
{'lipoC2': 8.1, 'temp': 0.0, 'lipoC3S3': 12.08, 'state': 'normal', 'rot1': 0, 'rot0': 0, 'rot3': 0, 'rot2': 0, 'depth': 1.614, 'yaw': -8.64, 'datetime': '2018-12-12 10:35:17.488058', 'mgs': 0, 'flw2': 0.0, 'flw1': 0.26, 'flw0': 0.0, 'time': 19.17, 'compass': -150.05, 'pitch': -1.02, 'roll': 2.86}
{'lipoC2': 8.3, 'temp': 0.0, 'lipoC3S3': 12.56, 'state': 'normal', 'rot1': 0, 'rot0': 0, 'rot3': 0, 'rot2': 0, 'depth': 1.767, 'yaw': -8.64, 'datetime': '2018-12-12 10:35:17.696316', 'mgs': 0, 'flw2': 0.23, 'flw1': 0.0, 'flw0': 0.1, 'time': 19.38, 'compass': -150.05, 'pitch': -1.34, 'roll': 2.63}
{'lipoC2': 8.23, 'temp': 0.0, 'lipoC3S3': 12.17, 'state': 'normal', 'rot1': 0, 'rot0': 0, 'rot3': 0, 'rot2': 0, 'depth': 2.301, 'yaw': -8.67, 'datetime': '2018-12-12 10:35:17.905844', 'mgs': 0, 'flw2': 0.0, 'flw1': 0.67, 'flw0': 0.0, 'time': 19.58, 'compass': -150.08, 'pitch': -1.43, 'roll': 2.53}
{'lipoC2': 8.3, 'temp': 0.0, 'lipoC3S3': 12.27, 'state': 'normal', 'rot1': 0, 'rot0': 0, 'rot3': 0, 'rot2': 0, 'depth': 1.843, 'yaw': -8.69, 'datetime': '2018-12-12 10:35:18.114052', 'mgs': 0, 'flw2': 0.31, 'flw1': 0.0, 'flw0': 0.0, 'time': 19.79, 'compass': -150.1, 'pitch': -1.43, 'roll': 2.53}
{'lipoC2': 8.23, 'temp': 0.0, 'lipoC3S3': 12.17, 'state': 'normal', 'rot1': 0, 'rot0': 0, 'rot3': 0, 'rot2': 0, 'depth': 2.301, 'yaw': -8.7, 'datetime': '2018-12-12 10:35:18.322275', 'mgs': 0, 'flw2': 0.0, 'flw1': 0.7, 'flw0': 0.0, 'time': 20.0, 'compass': -150.1, 'pitch': -1.44, 'roll': 2.57}
{'lipoC2': 8.26, 'temp': 0.0, 'lipoC3S3': 12.31, 'state': 'normal', 'rot1': 0, 'rot0': 0, 'rot3': 0, 'rot2': 0, 'depth': -1.132, 'yaw': -8.71, 'datetime': '2018-12-12 10:35:18.530327', 'mgs': 0, 'flw2': 0.0, 'flw1': 0.0, 'flw0': 0.29, 'time': 20.21, 'compass': -150.12, 'pitch': -1.44, 'roll': 2.81}
{'lipoC2': 8.13, 'temp': 0.0, 'lipoC3S3': 12.42, 'state': 'normal', 'rot1': 0, 'rot0': 0, 'rot3': 0, 'rot2': 0, 'depth': -0.674, 'yaw': -8.75, 'datetime': '2018-12-12 10:35:18.742640', 'mgs': 0, 'flw2': 0.21, 'flw1': 0.0, 'flw0': 0.0, 'time': 20.42, 'compass': -150.16, 'pitch': -1.44, 'roll': 3.01}
{'lipoC2': 8.16, 'temp': 0.0, 'lipoC3S3': 12.38, 'state': 'normal', 'rot1': 0, 'rot0': 0, 'rot3': 0, 'rot2': 0, 'depth': 2.454, 'yaw': -8.84, 'datetime': '2018-12-12 10:35:18.950263', 'mgs': 0, 'flw2': 0.28, 'flw1': 0.0, 'flw0': 0.0, 'time': 20.63, 'compass': -150.25, 'pitch': -1.2, 'roll': 3.08}
{'lipoC2': 8.24, 'temp': 0.0, 'lipoC3S3': 12.19, 'state': 'normal', 'rot1': 0, 'rot0': 0, 'rot3': 0, 'rot2': 0, 'depth': -0.369, 'yaw': -8.84, 'datetime': '2018-12-12 10:35:19.157217', 'mgs': 0, 'flw2': 0.0, 'flw1': 0.56, 'flw0': 0.0, 'time': 20.83, 'compass': -150.25, 'pitch': -0.87, 'roll': 3.22}
{'lipoC2': 8.23, 'temp': 0.0, 'lipoC3S3': 12.31, 'state': 'normal', 'rot1': 0, 'rot0': 0, 'rot3': 0, 'rot2': 0, 'depth': -1.056, 'yaw': -8.85, 'datetime': '2018-12-12 10:35:19.366617', 'mgs': 0, 'flw2': 0.31, 'flw1': 0.0, 'flw0': 0.0, 'time': 21.04, 'compass': -150.26, 'pitch': -0.94, 'roll': 3.31}
{'lipoC2': 8.22, 'temp': 0.0, 'lipoC3S3': 12.18, 'state': 'normal', 'rot1': 0, 'rot0': 0, 'rot3': 0, 'rot2': 0, 'depth': -0.369, 'yaw': -8.87, 'datetime': '2018-12-12 10:35:19.576025', 'mgs': 0, 'flw2': 0.12, 'flw1': 0.0, 'flw0': 0.0, 'time': 21.25, 'compass': -150.28, 'pitch': -1.13, 'roll': 3.17}
{'lipoC2': 8.1, 'temp': 0.0, 'lipoC3S3': 12.09, 'state': 'normal', 'rot1': 0, 'rot0': 0, 'rot3': 0, 'rot2': 0, 'depth': -0.369, 'yaw': -8.89, 'datetime': '2018-12-12 10:35:19.784459', 'mgs': 0, 'flw2': 0.0, 'flw1': 0.29, 'flw0': 0.0, 'time': 21.46, 'compass': -150.3, 'pitch': -1.06, 'roll': 2.95}
{'lipoC2': 8.1, 'temp': 0.0, 'lipoC3S3': 12.09, 'state': 'normal', 'rot1': 0, 'rot0': 0, 'rot3': 0, 'rot2': 0, 'depth': 1.614, 'yaw': -8.89, 'datetime': '2018-12-12 10:35:19.994112', 'mgs': 0, 'flw2': 0.0, 'flw1': 0.0, 'flw0': 0.06, 'time': 21.67, 'compass': -150.3, 'pitch': -0.99, 'roll': 2.93}
{'lipoC2': 8.01, 'temp': 0.0, 'lipoC3S3': 12.56, 'state': 'normal', 'rot1': 0, 'rot0': 0, 'rot3': 0, 'rot2': 0, 'depth': -0.064, 'yaw': -8.89, 'datetime': '2018-12-12 10:35:20.199295', 'mgs': 0, 'flw2': 0.18, 'flw1': 0.0, 'flw0': 0.0, 'time': 21.88, 'compass': -150.3, 'pitch': -0.99, 'roll': 2.87}
{'lipoC2': 8.16, 'temp': 0.0, 'lipoC3S3': 12.33, 'state': 'normal', 'rot1': 0, 'rot0': 0, 'rot3': 0, 'rot2': 0, 'depth': -0.446, 'yaw': -8.89, 'datetime': '2018-12-12 10:35:20.408633', 'mgs': 0, 'flw2': 0.0, 'flw1': 0.56, 'flw0': 0.0, 'time': 22.09, 'compass': -150.3, 'pitch': -0.99, 'roll': 2.64}
{'lipoC2': 8.08, 'temp': 0.0, 'lipoC3S3': 12.6, 'state': 'normal', 'rot1': 0, 'rot0': 0, 'rot3': 0, 'rot2': 0, 'depth': -0.369, 'yaw': -8.89, 'datetime': '2018-12-12 10:35:20.616924', 'mgs': 0, 'flw2': 0.0, 'flw1': 0.67, 'flw0': 0.0, 'time': 22.29, 'compass': -150.3, 'pitch': -1.02, 'roll': 2.62}
{'lipoC2': 8.13, 'temp': 0.0, 'lipoC3S3': 12.1, 'state': 'normal', 'rot1': 0, 'rot0': 0, 'rot3': 0, 'rot2': 0, 'depth': -0.064, 'yaw': -8.89, 'datetime': '2018-12-12 10:35:20.829260', 'mgs': 0, 'flw2': 0.0, 'flw1': 0.64, 'flw0': 0.0, 'time': 22.5, 'compass': -150.3, 'pitch': -1.02, 'roll': 2.62}
{'lipoC2': 8.07, 'temp': 0.0, 'lipoC3S3': 12.63, 'state': 'normal', 'rot1': 0, 'rot0': 0, 'rot3': 0, 'rot2': 0, 'depth': -0.369, 'yaw': -8.89, 'datetime': '2018-12-12 10:35:21.034449', 'mgs': 0, 'flw2': 0.0, 'flw1': 0.32, 'flw0': 0.0, 'time': 22.71, 'compass': -150.3, 'pitch': -1.03, 'roll': 2.62}
{'lipoC2': 8.3, 'temp': 0.0, 'lipoC3S3': 12.23, 'state': 'normal', 'rot1': 0, 'rot0': 0, 'rot3': 0, 'rot2': 0, 'depth': 1.691, 'yaw': -8.89, 'datetime': '2018-12-12 10:35:21.243740', 'mgs': 0, 'flw2': 0.0, 'flw1': 0.7, 'flw0': 0.0, 'time': 22.92, 'compass': -150.3, 'pitch': -1.33, 'roll': 2.67}
{'lipoC2': 8.19, 'temp': 0.0, 'lipoC3S3': 12.12, 'state': 'normal', 'rot1': 0, 'rot0': 0, 'rot3': 0, 'rot2': 0, 'depth': 2.53, 'yaw': -8.9, 'datetime': '2018-12-12 10:35:21.453119', 'mgs': 0, 'flw2': 0.0, 'flw1': 0.53, 'flw0': 0.0, 'time': 23.13, 'compass': -150.31, 'pitch': -1.61, 'roll': 2.97}
{'lipoC2': 8.27, 'temp': 0.0, 'lipoC3S3': 12.22, 'state': 'normal', 'rot1': 0, 'rot0': 0, 'rot3': 0, 'rot2': 0, 'depth': -0.369, 'yaw': -8.91, 'datetime': '2018-12-12 10:35:21.664138', 'mgs': 0, 'flw2': 0.0, 'flw1': 0.0, 'flw0': 0.02, 'time': 23.34, 'compass': -150.31, 'pitch': -1.46, 'roll': 3.13}
{'lipoC2': 8.11, 'temp': 0.0, 'lipoC3S3': 12.27, 'state': 'normal', 'rot1': 0, 'rot0': 0, 'rot3': 0, 'rot2': 0, 'depth': -0.14, 'yaw': -8.91, 'datetime': '2018-12-12 10:35:21.872560', 'mgs': 0, 'flw2': 0.32, 'flw1': 0.0, 'flw0': 0.0, 'time': 23.55, 'compass': -150.31, 'pitch': -0.97, 'roll': 3.12}
{'lipoC2': 8.1, 'temp': 0.0, 'lipoC3S3': 12.52, 'state': 'normal', 'rot1': 0, 'rot0': 0, 'rot3': 0, 'rot2': 0, 'depth': -0.522, 'yaw': -8.9, 'datetime': '2018-12-12 10:35:22.080973', 'mgs': 0, 'flw2': 0.0, 'flw1': 0.56, 'flw0': 0.0, 'time': 23.75, 'compass': -150.31, 'pitch': -0.82, 'roll': 3.15}
{'lipoC2': 8.23, 'temp': 0.0, 'lipoC3S3': 12.21, 'state': 'normal', 'rot1': 0, 'rot0': 0, 'rot3': 0, 'rot2': 0, 'depth': 2.377, 'yaw': -8.91, 'datetime': '2018-12-12 10:35:22.289635', 'mgs': 0, 'flw2': 0.27, 'flw1': 0.0, 'flw0': 0.02, 'time': 23.96, 'compass': -150.32, 'pitch': -1.09, 'roll': 3.34}
{'lipoC2': 8.38, 'temp': 0.0, 'lipoC3S3': 12.23, 'state': 'normal', 'rot1': 0, 'rot0': 0, 'rot3': 0, 'rot2': 0, 'depth': 0.47, 'yaw': -8.91, 'datetime': '2018-12-12 10:35:22.497737', 'mgs': 0, 'flw2': 0.09, 'flw1': 0.0, 'flw0': 0.0, 'time': 24.17, 'compass': -150.32, 'pitch': -1.18, 'roll': 3.32}
{'lipoC2': 8.22, 'temp': 0.0, 'lipoC3S3': 12.17, 'state': 'normal', 'rot1': 0, 'rot0': 0, 'rot3': 0, 'rot2': 0, 'depth': 2.301, 'yaw': -8.9, 'datetime': '2018-12-12 10:35:22.706561', 'mgs': 0, 'flw2': 0.0, 'flw1': 0.7, 'flw0': 0.0, 'time': 24.38, 'compass': -150.31, 'pitch': -1.19, 'roll': 3.17}
{'lipoC2': 8.39, 'temp': 0.0, 'lipoC3S3': 12.23, 'state': 'normal', 'rot1': 0, 'rot0': 0, 'rot3': 0, 'rot2': 0, 'depth': 0.623, 'yaw': -8.9, 'datetime': '2018-12-12 10:35:22.915802', 'mgs': 0, 'flw2': 0.0, 'flw1': 0.0, 'flw0': 0.31, 'time': 24.59, 'compass': -150.31, 'pitch': -1.09, 'roll': 3.16}
{'lipoC2': 8.11, 'temp': 0.0, 'lipoC3S3': 12.09, 'state': 'normal', 'rot1': 0, 'rot0': 0, 'rot3': 0, 'rot2': 0, 'depth': 2.225, 'yaw': -8.9, 'datetime': '2018-12-12 10:35:23.124566', 'mgs': 0, 'flw2': 0.0, 'flw1': 0.53, 'flw0': 0.0, 'time': 24.8, 'compass': -150.31, 'pitch': -1.05, 'roll': 3.01}
{'lipoC2': 8.1, 'temp': 0.0, 'lipoC3S3': 12.14, 'state': 'normal', 'rot1': 0, 'rot0': 0, 'rot3': 0, 'rot2': 0, 'depth': 1.08, 'yaw': -8.89, 'datetime': '2018-12-12 10:35:23.333235', 'mgs': 0, 'flw2': 0.27, 'flw1': 0.0, 'flw0': 0.0, 'time': 25.0, 'compass': -150.3, 'pitch': -1.05, 'roll': 2.72}
{'lipoC2': 8.11, 'temp': 0.0, 'lipoC3S3': 12.21, 'state': 'normal', 'rot1': 0, 'rot0': 0, 'rot3': 0, 'rot2': 0, 'depth': 0.775, 'yaw': -8.89, 'datetime': '2018-12-12 10:35:23.540096', 'mgs': 0, 'flw2': 0.18, 'flw1': 0.0, 'flw0': 0.0, 'time': 25.21, 'compass': -150.3, 'pitch': -1.05, 'roll': 2.67}
{'lipoC2': 8.38, 'temp': 0.0, 'lipoC3S3': 12.23, 'state': 'normal', 'rot1': 0, 'rot0': 0, 'rot3': 0, 'rot2': 0, 'depth': -0.751, 'yaw': -8.9, 'datetime': '2018-12-12 10:35:23.749532', 'mgs': 0, 'flw2': 0.0, 'flw1': 0.0, 'flw0': 0.29, 'time': 25.42, 'compass': -150.31, 'pitch': -1.06, 'roll': 2.84}
{'lipoC2': 8.26, 'temp': 0.0, 'lipoC3S3': 12.21, 'state': 'normal', 'rot1': 0, 'rot0': 0, 'rot3': 0, 'rot2': 0, 'depth': 2.072, 'yaw': -8.9, 'datetime': '2018-12-12 10:35:23.959511', 'mgs': 0, 'flw2': 0.06, 'flw1': 0.0, 'flw0': 0.0, 'time': 25.63, 'compass': -150.31, 'pitch': -1.06, 'roll': 2.84}
{'lipoC2': 8.19, 'temp': 0.0, 'lipoC3S3': 12.16, 'state': 'normal', 'rot1': 0, 'rot0': 0, 'rot3': 0, 'rot2': 0, 'depth': 2.53, 'yaw': -8.9, 'datetime': '2018-12-12 10:35:24.167899', 'mgs': 0, 'flw2': 0.22, 'flw1': 0.0, 'flw0': 0.0, 'time': 25.84, 'compass': -150.31, 'pitch': -1.06, 'roll': 2.9}
{'lipoC2': 8.06, 'temp': 0.0, 'lipoC3S3': 12.25, 'state': 'normal', 'rot1': 0, 'rot0': 0, 'rot3': 0, 'rot2': 0, 'depth': -0.293, 'yaw': -8.9, 'datetime': '2018-12-12 10:35:24.376953', 'mgs': 0, 'flw2': 0.28, 'flw1': 0.0, 'flw0': 0.11, 'time': 26.05, 'compass': -150.31, 'pitch': -1.05, 'roll': 3.12}
{'lipoC2': 8.12, 'temp': 0.0, 'lipoC3S3': 12.38, 'state': 'normal', 'rot1': 0, 'rot0': 0, 'rot3': 0, 'rot2': 0, 'depth': -0.293, 'yaw': -8.9, 'datetime': '2018-12-12 10:35:24.585440', 'mgs': 0, 'flw2': 0.0, 'flw1': 0.0, 'flw0': 0.29, 'time': 26.25, 'compass': -150.31, 'pitch': -0.81, 'roll': 3.16}
{'lipoC2': 8.09, 'temp': 0.0, 'lipoC3S3': 12.56, 'state': 'normal', 'rot1': 0, 'rot0': 0, 'rot3': 0, 'rot2': 0, 'depth': -0.446, 'yaw': -8.9, 'datetime': '2018-12-12 10:35:24.793988', 'mgs': 0, 'flw2': 0.16, 'flw1': 0.0, 'flw0': 0.22, 'time': 26.46, 'compass': -150.31, 'pitch': -0.65, 'roll': 3.16}
{'lipoC2': 8.05, 'temp': 0.0, 'lipoC3S3': 12.6, 'state': 'normal', 'rot1': 0, 'rot0': 0, 'rot3': 0, 'rot2': 0, 'depth': 0.851, 'yaw': -8.91, 'datetime': '2018-12-12 10:35:25.001251', 'mgs': 0, 'flw2': 0.09, 'flw1': 0.47, 'flw0': 0.0, 'time': 26.67, 'compass': -150.32, 'pitch': -0.97, 'roll': 3.16}
{'lipoC2': 8.38, 'temp': 0.0, 'lipoC3S3': 12.59, 'state': 'normal', 'rot1': 0, 'rot0': 0, 'rot3': 0, 'rot2': 0, 'depth': -0.293, 'yaw': -8.93, 'datetime': '2018-12-12 10:35:25.209983', 'mgs': 0, 'flw2': 0.0, 'flw1': 0.67, 'flw0': 0.0, 'time': 26.88, 'compass': -150.34, 'pitch': -1.34, 'roll': 2.96}
{'lipoC2': 8.14, 'temp': 0.0, 'lipoC3S3': 12.38, 'state': 'normal', 'rot1': 0, 'rot0': 0, 'rot3': 0, 'rot2': 0, 'depth': -0.674, 'yaw': -9.02, 'datetime': '2018-12-12 10:35:25.418600', 'mgs': 0, 'flw2': 0.28, 'flw1': 0.0, 'flw0': 0.0, 'time': 27.09, 'compass': -150.43, 'pitch': -1.23, 'roll': 2.68}
{'lipoC2': 8.39, 'temp': 0.0, 'lipoC3S3': 12.23, 'state': 'normal', 'rot1': 0, 'rot0': 0, 'rot3': 0, 'rot2': 0, 'depth': 0.394, 'yaw': -9.03, 'datetime': '2018-12-12 10:35:25.628655', 'mgs': 0, 'flw2': 0.2, 'flw1': 0.0, 'flw0': 0.17, 'time': 27.3, 'compass': -150.44, 'pitch': -1.09, 'roll': 2.66}
{'lipoC2': 8.38, 'temp': 0.0, 'lipoC3S3': 12.23, 'state': 'normal', 'rot1': 0, 'rot0': 0, 'rot3': 0, 'rot2': 0, 'depth': 0.317, 'yaw': -9.03, 'datetime': '2018-12-12 10:35:25.836736', 'mgs': 0, 'flw2': 0.24, 'flw1': 0.0, 'flw0': 0.18, 'time': 27.5, 'compass': -150.44, 'pitch': -1.21, 'roll': 2.66}
{'lipoC2': 8.12, 'temp': 0.0, 'lipoC3S3': 12.1, 'state': 'normal', 'rot1': 0, 'rot0': 0, 'rot3': 0, 'rot2': 0, 'depth': -0.064, 'yaw': -9.03, 'datetime': '2018-12-12 10:35:26.045284', 'mgs': 0, 'flw2': 0.0, 'flw1': 0.44, 'flw0': 0.0, 'time': 27.71, 'compass': -150.44, 'pitch': -1.37, 'roll': 2.66}
{'lipoC2': 8.08, 'temp': 0.0, 'lipoC3S3': 12.16, 'state': 'normal', 'rot1': 0, 'rot0': 0, 'rot3': 0, 'rot2': 0, 'depth': 1.385, 'yaw': -9.04, 'datetime': '2018-12-12 10:35:26.253626', 'mgs': 0, 'flw2': 0.0, 'flw1': 0.15, 'flw0': 0.0, 'time': 27.92, 'compass': -150.45, 'pitch': -1.37, 'roll': 2.81}
{'lipoC2': 8.1, 'temp': 0.0, 'lipoC3S3': 12.21, 'state': 'normal', 'rot1': 0, 'rot0': 0, 'rot3': 0, 'rot2': 0, 'depth': 0.775, 'yaw': -9.04, 'datetime': '2018-12-12 10:35:26.463221', 'mgs': 0, 'flw2': 0.0, 'flw1': 0.0, 'flw0': 0.0, 'time': 28.13, 'compass': -150.45, 'pitch': -1.36, 'roll': 2.85}
{'lipoC2': 8.11, 'temp': 0.0, 'lipoC3S3': 12.09, 'state': 'normal', 'rot1': 0, 'rot0': 0, 'rot3': 0, 'rot2': 0, 'depth': -0.14, 'yaw': -9.04, 'datetime': '2018-12-12 10:35:26.672690', 'mgs': 0, 'flw2': 0.0, 'flw1': 0.5, 'flw0': 0.0, 'time': 28.34, 'compass': -150.45, 'pitch': -1.49, 'roll': 2.84}
{'lipoC2': 8.09, 'temp': 0.0, 'lipoC3S3': 12.52, 'state': 'normal', 'rot1': 0, 'rot0': 0, 'rot3': 0, 'rot2': 0, 'depth': -0.293, 'yaw': -9.04, 'datetime': '2018-12-12 10:35:26.880439', 'mgs': 0, 'flw2': 0.0, 'flw1': 0.53, 'flw0': 0.0, 'time': 28.55, 'compass': -150.45, 'pitch': -1.57, 'roll': 2.95}
{'lipoC2': 8.28, 'temp': 0.0, 'lipoC3S3': 12.56, 'state': 'normal', 'rot1': 0, 'rot0': 0, 'rot3': 0, 'rot2': 0, 'depth': 1.996, 'yaw': -9.04, 'datetime': '2018-12-12 10:35:27.089778', 'mgs': 0, 'flw2': 0.0, 'flw1': 0.0, 'flw0': 0.0, 'time': 28.75, 'compass': -150.45, 'pitch': -1.31, 'roll': 3.03}
{'lipoC2': 8.09, 'temp': 0.0, 'lipoC3S3': 12.52, 'state': 'normal', 'rot1': 0, 'rot0': 0, 'rot3': 0, 'rot2': 0, 'depth': -0.522, 'yaw': -9.04, 'datetime': '2018-12-12 10:35:27.301915', 'mgs': 0, 'flw2': 0.0, 'flw1': 0.38, 'flw0': 0.0, 'time': 28.96, 'compass': -150.45, 'pitch': -1.08, 'roll': 2.78}
{'lipoC2': 8.1, 'temp': 0.0, 'lipoC3S3': 12.5, 'state': 'normal', 'rot1': 0, 'rot0': 0, 'rot3': 0, 'rot2': 0, 'depth': -0.446, 'yaw': -9.03, 'datetime': '2018-12-12 10:35:27.510570', 'mgs': 0, 'flw2': 0.0, 'flw1': 0.0, 'flw0': 0.29, 'time': 29.17, 'compass': -150.44, 'pitch': -1.06, 'roll': 2.56}
{'lipoC2': 8.27, 'temp': 0.0, 'lipoC3S3': 12.31, 'state': 'normal', 'rot1': 0, 'rot0': 0, 'rot3': 0, 'rot2': 0, 'depth': -1.132, 'yaw': -9.04, 'datetime': '2018-12-12 10:35:27.719735', 'mgs': 0, 'flw2': 0.29, 'flw1': 0.0, 'flw0': 0.0, 'time': 29.38, 'compass': -150.44, 'pitch': -0.96, 'roll': 2.56}
{'lipoC2': 8.11, 'temp': 0.0, 'lipoC3S3': 12.09, 'state': 'normal', 'rot1': 0, 'rot0': 0, 'rot3': 0, 'rot2': 0, 'depth': -0.217, 'yaw': -9.04, 'datetime': '2018-12-12 10:35:27.928094', 'mgs': 0, 'flw2': 0.0, 'flw1': 0.59, 'flw0': 0.0, 'time': 29.59, 'compass': -150.45, 'pitch': -1.01, 'roll': 2.56}
{'lipoC2': 8.09, 'temp': 0.0, 'lipoC3S3': 12.1, 'state': 'normal', 'rot1': 0, 'rot0': 0, 'rot3': 0, 'rot2': 0, 'depth': 1.309, 'yaw': -9.03, 'datetime': '2018-12-12 10:35:28.136643', 'mgs': 0, 'flw2': 0.01, 'flw1': 0.29, 'flw0': 0.0, 'time': 29.8, 'compass': -150.44, 'pitch': -1.27, 'roll': 2.56}
{'lipoC2': 8.33, 'temp': 0.0, 'lipoC3S3': 12.25, 'state': 'normal', 'rot1': 0, 'rot0': 0, 'rot3': 0, 'rot2': 0, 'depth': 1.538, 'yaw': -9.03, 'datetime': '2018-12-12 10:35:28.346383', 'mgs': 0, 'flw2': 0.1, 'flw1': 0.0, 'flw0': 0.0, 'time': 30.01, 'compass': -150.44, 'pitch': -1.29, 'roll': 2.56}
{'lipoC2': 8.11, 'temp': 0.0, 'lipoC3S3': 12.1, 'state': 'normal', 'rot1': 0, 'rot0': 0, 'rot3': 0, 'rot2': 0, 'depth': -0.217, 'yaw': -9.03, 'datetime': '2018-12-12 10:35:28.555263', 'mgs': 0, 'flw2': 0.0, 'flw1': 0.0, 'flw0': 0.06, 'time': 30.22, 'compass': -150.44, 'pitch': -1.29, 'roll': 2.56}
{'lipoC2': 8.38, 'temp': 0.0, 'lipoC3S3': 12.23, 'state': 'normal', 'rot1': 0, 'rot0': 0, 'rot3': 0, 'rot2': 0, 'depth': -0.446, 'yaw': -9.04, 'datetime': '2018-12-12 10:35:28.763185', 'mgs': 0, 'flw2': 0.15, 'flw1': 0.0, 'flw0': 0.0, 'time': 30.42, 'compass': -150.45, 'pitch': -1.59, 'roll': 2.7}
{'lipoC2': 8.14, 'temp': 0.0, 'lipoC3S3': 12.41, 'state': 'normal', 'rot1': 0, 'rot0': 0, 'rot3': 0, 'rot2': 0, 'depth': -0.751, 'yaw': -9.05, 'datetime': '2018-12-12 10:35:28.970599', 'mgs': 0, 'flw2': 0.24, 'flw1': 0.0, 'flw0': 0.0, 'time': 30.63, 'compass': -150.46, 'pitch': -1.74, 'roll': 2.99}
{'lipoC2': 8.27, 'temp': 0.0, 'lipoC3S3': 12.23, 'state': 'normal', 'rot1': 0, 'rot0': 0, 'rot3': 0, 'rot2': 0, 'depth': -0.369, 'yaw': -9.04, 'datetime': '2018-12-12 10:35:29.180134', 'mgs': 0, 'flw2': 0.06, 'flw1': 0.0, 'flw0': 0.0, 'time': 30.84, 'compass': -150.45, 'pitch': -1.73, 'roll': 3.03}
{'lipoC2': 8.38, 'temp': 0.0, 'lipoC3S3': 12.25, 'state': 'normal', 'rot1': 0, 'rot0': 0, 'rot3': 0, 'rot2': 0, 'depth': 0.089, 'yaw': -9.05, 'datetime': '2018-12-12 10:35:29.389851', 'mgs': 0, 'flw2': 0.13, 'flw1': 0.0, 'flw0': 0.2, 'time': 31.05, 'compass': -150.46, 'pitch': -1.73, 'roll': 2.98}
{'lipoC2': 8.09, 'temp': 0.0, 'lipoC3S3': 12.1, 'state': 'normal', 'rot1': 0, 'rot0': 0, 'rot3': 0, 'rot2': 0, 'depth': -0.293, 'yaw': -9.05, 'datetime': '2018-12-12 10:35:29.596502', 'mgs': 0, 'flw2': 0.0, 'flw1': 0.0, 'flw0': 0.34, 'time': 31.25, 'compass': -150.46, 'pitch': -1.73, 'roll': 2.98}
{'lipoC2': 8.37, 'temp': 0.0, 'lipoC3S3': 12.22, 'state': 'normal', 'rot1': 0, 'rot0': 0, 'rot3': 0, 'rot2': 0, 'depth': -1.056, 'yaw': -9.04, 'datetime': '2018-12-12 10:35:29.806034', 'mgs': 0, 'flw2': 0.13, 'flw1': 0.0, 'flw0': 0.0, 'time': 31.46, 'compass': -150.45, 'pitch': -1.88, 'roll': 2.79}
{'lipoC2': 8.11, 'temp': 0.0, 'lipoC3S3': 12.18, 'state': 'normal', 'rot1': 0, 'rot0': 0, 'rot3': 0, 'rot2': 0, 'depth': 0.546, 'yaw': -9.03, 'datetime': '2018-12-12 10:35:30.016002', 'mgs': 0, 'flw2': 0.17, 'flw1': 0.0, 'flw0': 0.23, 'time': 31.67, 'compass': -150.44, 'pitch': -1.91, 'roll': 2.54}
{'lipoC2': 8.36, 'temp': 0.0, 'lipoC3S3': 12.6, 'state': 'normal', 'rot1': 0, 'rot0': 0, 'rot3': 0, 'rot2': 0, 'depth': -0.217, 'yaw': -9.03, 'datetime': '2018-12-12 10:35:30.223760', 'mgs': 0, 'flw2': 0.0, 'flw1': 0.64, 'flw0': 0.0, 'time': 31.88, 'compass': -150.44, 'pitch': -1.71, 'roll': 2.51}
{'lipoC2': 8.06, 'temp': 0.0, 'lipoC3S3': 12.25, 'state': 'normal', 'rot1': 0, 'rot0': 0, 'rot3': 0, 'rot2': 0, 'depth': 0.089, 'yaw': -9.03, 'datetime': '2018-12-12 10:35:30.434485', 'mgs': 0, 'flw2': 0.22, 'flw1': 0.0, 'flw0': 0.15, 'time': 32.09, 'compass': -150.44, 'pitch': -1.32, 'roll': 2.51}
{'lipoC2': 8.39, 'temp': 0.0, 'lipoC3S3': 12.22, 'state': 'normal', 'rot1': 0, 'rot0': 0, 'rot3': 0, 'rot2': 0, 'depth': 0.623, 'yaw': -9.03, 'datetime': '2018-12-12 10:35:30.641633', 'mgs': 0, 'flw2': 0.02, 'flw1': 0.0, 'flw0': 0.28, 'time': 32.29, 'compass': -150.44, 'pitch': -1.0, 'roll': 2.52}
{'lipoC2': 8.08, 'temp': 0.0, 'lipoC3S3': 12.5, 'state': 'normal', 'rot1': 0, 'rot0': 0, 'rot3': 0, 'rot2': 0, 'depth': 2.301, 'yaw': -9.03, 'datetime': '2018-12-12 10:35:30.849485', 'mgs': 0, 'flw2': 0.0, 'flw1': 0.32, 'flw0': 0.0, 'time': 32.5, 'compass': -150.44, 'pitch': -1.14, 'roll': 2.74}
{'lipoC2': 8.1, 'temp': 0.0, 'lipoC3S3': 12.08, 'state': 'normal', 'rot1': 0, 'rot0': 0, 'rot3': 0, 'rot2': 0, 'depth': 1.996, 'yaw': -9.04, 'datetime': '2018-12-12 10:35:31.059814', 'mgs': 0, 'flw2': 0.0, 'flw1': 0.26, 'flw0': 0.0, 'time': 32.71, 'compass': -150.45, 'pitch': -1.52, 'roll': 2.95}
{'lipoC2': 8.13, 'temp': 0.0, 'lipoC3S3': 12.42, 'state': 'normal', 'rot1': 0, 'rot0': 0, 'rot3': 0, 'rot2': 0, 'depth': -0.598, 'yaw': -9.04, 'datetime': '2018-12-12 10:35:31.267151', 'mgs': 0, 'flw2': 0.22, 'flw1': 0.0, 'flw0': 0.0, 'time': 32.92, 'compass': -150.45, 'pitch': -1.52, 'roll': 2.96}
{'lipoC2': 8.4, 'temp': 0.0, 'lipoC3S3': 12.23, 'state': 'normal', 'rot1': 0, 'rot0': 0, 'rot3': 0, 'rot2': 0, 'depth': -0.674, 'yaw': -9.04, 'datetime': '2018-12-12 10:35:31.472923', 'mgs': 0, 'flw2': 0.32, 'flw1': 0.0, 'flw0': 0.04, 'time': 33.13, 'compass': -150.45, 'pitch': -1.44, 'roll': 2.96}
{'lipoC2': 8.1, 'temp': 0.0, 'lipoC3S3': 12.09, 'state': 'normal', 'rot1': 0, 'rot0': 0, 'rot3': 0, 'rot2': 0, 'depth': 2.225, 'yaw': -9.05, 'datetime': '2018-12-12 10:35:31.679102', 'mgs': 0, 'flw2': 0.0, 'flw1': 0.0, 'flw0': 0.15, 'time': 33.34, 'compass': -150.45, 'pitch': -1.72, 'roll': 3.12}
{'lipoC2': 8.37, 'temp': 0.0, 'lipoC3S3': 12.23, 'state': 'normal', 'rot1': 0, 'rot0': 0, 'rot3': 0, 'rot2': 0, 'depth': -0.674, 'yaw': -9.05, 'datetime': '2018-12-12 10:35:31.888557', 'mgs': 0, 'flw2': 0.0, 'flw1': 0.0, 'flw0': 0.31, 'time': 33.54, 'compass': -150.46, 'pitch': -1.76, 'roll': 3.18}
{'lipoC2': 8.33, 'temp': 0.0, 'lipoC3S3': 12.23, 'state': 'normal', 'rot1': 0, 'rot0': 0, 'rot3': 0, 'rot2': 0, 'depth': 1.233, 'yaw': -9.04, 'datetime': '2018-12-12 10:35:32.099469', 'mgs': 0, 'flw2': 0.01, 'flw1': 0.0, 'flw0': 0.0, 'time': 33.75, 'compass': -150.45, 'pitch': -1.28, 'roll': 2.94}
{'lipoC2': 8.1, 'temp': 0.0, 'lipoC3S3': 12.09, 'state': 'normal', 'rot1': 0, 'rot0': 0, 'rot3': 0, 'rot2': 0, 'depth': 1.996, 'yaw': -9.03, 'datetime': '2018-12-12 10:35:32.307554', 'mgs': 0, 'flw2': 0.0, 'flw1': 0.15, 'flw0': 0.0, 'time': 33.96, 'compass': -150.44, 'pitch': -1.05, 'roll': 2.57}
{'lipoC2': 8.09, 'temp': 0.0, 'lipoC3S3': 12.58, 'state': 'normal', 'rot1': 0, 'rot0': 0, 'rot3': 0, 'rot2': 0, 'depth': -0.522, 'yaw': -9.03, 'datetime': '2018-12-12 10:35:32.519992', 'mgs': 0, 'flw2': 0.23, 'flw1': 0.0, 'flw0': 0.21, 'time': 34.17, 'compass': -150.44, 'pitch': -1.52, 'roll': 2.51}
{'lipoC2': 8.1, 'temp': 0.0, 'lipoC3S3': 12.09, 'state': 'normal', 'rot1': 0, 'rot0': 0, 'rot3': 0, 'rot2': 0, 'depth': -0.14, 'yaw': -9.03, 'datetime': '2018-12-12 10:35:32.727154', 'mgs': 0, 'flw2': 0.0, 'flw1': 0.0, 'flw0': 0.18, 'time': 34.38, 'compass': -150.44, 'pitch': -1.85, 'roll': 2.49}
{'lipoC2': 8.33, 'temp': 0.0, 'lipoC3S3': 12.25, 'state': 'normal', 'rot1': 0, 'rot0': 0, 'rot3': 0, 'rot2': 0, 'depth': -0.369, 'yaw': -9.05, 'datetime': '2018-12-12 10:35:32.933393', 'mgs': 0, 'flw2': 0.29, 'flw1': 0.0, 'flw0': 0.01, 'time': 34.59, 'compass': -150.46, 'pitch': -1.67, 'roll': 2.18}
{'lipoC2': 8.3, 'temp': 0.0, 'lipoC3S3': 12.23, 'state': 'normal', 'rot1': 0, 'rot0': 0, 'rot3': 0, 'rot2': 0, 'depth': 1.614, 'yaw': -9.07, 'datetime': '2018-12-12 10:35:33.142612', 'mgs': 0, 'flw2': 0.01, 'flw1': 0.0, 'flw0': 0.0, 'time': 34.79, 'compass': -150.48, 'pitch': -1.66, 'roll': 2.12}
{'lipoC2': 8.12, 'temp': 0.0, 'lipoC3S3': 12.42, 'state': 'normal', 'rot1': 0, 'rot0': 0, 'rot3': 0, 'rot2': 0, 'depth': -0.293, 'yaw': -9.08, 'datetime': '2018-12-12 10:35:33.347172', 'mgs': 0, 'flw2': 0.0, 'flw1': 0.0, 'flw0': 0.32, 'time': 35.0, 'compass': -150.48, 'pitch': -1.99, 'roll': 2.48}
{'lipoC2': 8.05, 'temp': 0.0, 'lipoC3S3': 12.6, 'state': 'normal', 'rot1': 0, 'rot0': 0, 'rot3': 0, 'rot2': 0, 'depth': -0.446, 'yaw': -9.11, 'datetime': '2018-12-12 10:35:33.556744', 'mgs': 0, 'flw2': 0.0, 'flw1': 0.0, 'flw0': 0.16, 'time': 35.21, 'compass': -150.52, 'pitch': -2.1, 'roll': 2.68}
{'lipoC2': 8.17, 'temp': 0.0, 'lipoC3S3': 12.12, 'state': 'normal', 'rot1': 0, 'rot0': 0, 'rot3': 0, 'rot2': 0, 'depth': -0.369, 'yaw': -9.14, 'datetime': '2018-12-12 10:35:33.767376', 'mgs': 0, 'flw2': 0.0, 'flw1': 0.5, 'flw0': 0.0, 'time': 35.42, 'compass': -150.55, 'pitch': -2.1, 'roll': 2.69}
{'lipoC2': 8.31, 'temp': 0.0, 'lipoC3S3': 12.25, 'state': 'normal', 'rot1': 0, 'rot0': 0, 'rot3': 0, 'rot2': 0, 'depth': 1.462, 'yaw': -9.15, 'datetime': '2018-12-12 10:35:33.976029', 'mgs': 0, 'flw2': 0.28, 'flw1': 0.0, 'flw0': 0.05, 'time': 35.63, 'compass': -150.56, 'pitch': -2.1, 'roll': 2.93}
{'lipoC2': 8.38, 'temp': 0.0, 'lipoC3S3': 12.23, 'state': 'normal', 'rot1': 0, 'rot0': 0, 'rot3': 0, 'rot2': 0, 'depth': -0.827, 'yaw': -9.16, 'datetime': '2018-12-12 10:35:34.185700', 'mgs': 0, 'flw2': 0.0, 'flw1': 0.0, 'flw0': 0.29, 'time': 35.84, 'compass': -150.57, 'pitch': -1.88, 'roll': 3.17}
{'lipoC2': 8.22, 'temp': 0.0, 'lipoC3S3': 12.34, 'state': 'normal', 'rot1': 0, 'rot0': 0, 'rot3': 0, 'rot2': 0, 'depth': -1.056, 'yaw': -9.16, 'datetime': '2018-12-12 10:35:34.496131', 'mgs': 0, 'flw2': 0.0, 'flw1': 0.0, 'flw0': 0.24, 'time': 36.15, 'compass': -150.57, 'pitch': -1.38, 'roll': 3.02}
{'lipoC2': 8.09, 'temp': 0.0, 'lipoC3S3': 12.22, 'state': 'normal', 'rot1': 0, 'rot0': 0, 'rot3': 0, 'rot2': 0, 'depth': 1.691, 'yaw': -9.16, 'datetime': '2018-12-12 10:35:34.705285', 'mgs': 0, 'flw2': 0.0, 'flw1': 0.09, 'flw0': 0.0, 'time': 36.36, 'compass': -150.57, 'pitch': -1.36, 'roll': 3.02}
{'lipoC2': 8.2, 'temp': 0.0, 'lipoC3S3': 12.13, 'state': 'normal', 'rot1': 0, 'rot0': 0, 'rot3': 0, 'rot2': 0, 'depth': 2.454, 'yaw': -9.16, 'datetime': '2018-12-12 10:35:34.913326', 'mgs': 0, 'flw2': 0.0, 'flw1': 0.56, 'flw0': 0.0, 'time': 36.56, 'compass': -150.57, 'pitch': -1.38, 'roll': 2.92}
{'lipoC2': 8.05, 'temp': 0.0, 'lipoC3S3': 12.59, 'state': 'normal', 'rot1': 0, 'rot0': 0, 'rot3': 0, 'rot2': 0, 'depth': 0.851, 'yaw': -9.17, 'datetime': '2018-12-12 10:35:35.124551', 'mgs': 0, 'flw2': 0.0, 'flw1': 0.47, 'flw0': 0.0, 'time': 36.77, 'compass': -150.58, 'pitch': -1.28, 'roll': 2.56}
{'lipoC2': 8.11, 'temp': 0.0, 'lipoC3S3': 12.09, 'state': 'normal', 'rot1': 0, 'rot0': 0, 'rot3': 0, 'rot2': 0, 'depth': 2.148, 'yaw': -9.17, 'datetime': '2018-12-12 10:35:35.333765', 'mgs': 0, 'flw2': 0.0, 'flw1': 0.23, 'flw0': 0.0, 'time': 36.98, 'compass': -150.58, 'pitch': -1.16, 'roll': 2.3}
{'lipoC2': 8.36, 'temp': 0.0, 'lipoC3S3': 12.23, 'state': 'normal', 'rot1': 0, 'rot0': 0, 'rot3': 0, 'rot2': 0, 'depth': 1.08, 'yaw': -9.17, 'datetime': '2018-12-12 10:35:35.539071', 'mgs': 0, 'flw2': 0.13, 'flw1': 0.0, 'flw0': 0.2, 'time': 37.19, 'compass': -150.58, 'pitch': -1.26, 'roll': 2.23}
{'lipoC2': 8.14, 'temp': 0.0, 'lipoC3S3': 12.13, 'state': 'normal', 'rot1': 0, 'rot0': 0, 'rot3': 0, 'rot2': 0, 'depth': -0.064, 'yaw': -9.17, 'datetime': '2018-12-12 10:35:35.746798', 'mgs': 0, 'flw2': 0.0, 'flw1': 0.7, 'flw0': 0.0, 'time': 37.4, 'compass': -150.58, 'pitch': -1.47, 'roll': 2.23}
{'lipoC2': 8.13, 'temp': 0.0, 'lipoC3S3': 12.31, 'state': 'normal', 'rot1': 0, 'rot0': 0, 'rot3': 0, 'rot2': 0, 'depth': -0.217, 'yaw': -9.17, 'datetime': '2018-12-12 10:35:35.955487', 'mgs': 0, 'flw2': 0.31, 'flw1': 0.0, 'flw0': 0.0, 'time': 37.61, 'compass': -150.58, 'pitch': -1.42, 'roll': 2.23}
{'lipoC2': 8.2, 'temp': 0.0, 'lipoC3S3': 12.16, 'state': 'normal', 'rot1': 0, 'rot0': 0, 'rot3': 0, 'rot2': 0, 'depth': -0.369, 'yaw': -9.17, 'datetime': '2018-12-12 10:35:36.162536', 'mgs': 0, 'flw2': 0.27, 'flw1': 0.0, 'flw0': 0.0, 'time': 37.81, 'compass': -150.58, 'pitch': -1.49, 'roll': 2.24}
{'lipoC2': 8.07, 'temp': 0.0, 'lipoC3S3': 12.58, 'state': 'normal', 'rot1': 0, 'rot0': 0, 'rot3': 0, 'rot2': 0, 'depth': -0.064, 'yaw': -9.17, 'datetime': '2018-12-12 10:35:36.370868', 'mgs': 0, 'flw2': 0.0, 'flw1': 0.0, 'flw0': 0.29, 'time': 38.02, 'compass': -150.58, 'pitch': -1.95, 'roll': 2.23}
{'lipoC2': 8.11, 'temp': 0.0, 'lipoC3S3': 12.45, 'state': 'normal', 'rot1': 0, 'rot0': 0, 'rot3': 0, 'rot2': 0, 'depth': -0.598, 'yaw': -9.18, 'datetime': '2018-12-12 10:35:36.579313', 'mgs': 0, 'flw2': 0.0, 'flw1': 0.0, 'flw0': 0.04, 'time': 38.23, 'compass': -150.58, 'pitch': -2.03, 'roll': 2.33}
{'lipoC2': 8.16, 'temp': 0.0, 'lipoC3S3': 12.14, 'state': 'normal', 'rot1': 0, 'rot0': 0, 'rot3': 0, 'rot2': 0, 'depth': 2.454, 'yaw': -9.18, 'datetime': '2018-12-12 10:35:36.789317', 'mgs': 0, 'flw2': 0.15, 'flw1': 0.0, 'flw0': 0.0, 'time': 38.44, 'compass': -150.59, 'pitch': -1.54, 'roll': 2.57}
{'lipoC2': 8.22, 'temp': 0.0, 'lipoC3S3': 12.34, 'state': 'normal', 'rot1': 0, 'rot0': 0, 'rot3': 0, 'rot2': 0, 'depth': -1.132, 'yaw': -9.19, 'datetime': '2018-12-12 10:35:36.997733', 'mgs': 0, 'flw2': 0.0, 'flw1': 0.0, 'flw0': 0.29, 'time': 38.65, 'compass': -150.59, 'pitch': -1.29, 'roll': 2.69}
{'lipoC2': 8.38, 'temp': 0.0, 'lipoC3S3': 12.22, 'state': 'normal', 'rot1': 0, 'rot0': 0, 'rot3': 0, 'rot2': 0, 'depth': -0.827, 'yaw': -9.18, 'datetime': '2018-12-12 10:35:37.206220', 'mgs': 0, 'flw2': 0.23, 'flw1': 0.0, 'flw0': 0.17, 'time': 38.85, 'compass': -150.59, 'pitch': -1.56, 'roll': 2.63}
{'lipoC2': 8.22, 'temp': 0.0, 'lipoC3S3': 12.17, 'state': 'normal', 'rot1': 0, 'rot0': 0, 'rot3': 0, 'rot2': 0, 'depth': 2.301, 'yaw': -9.17, 'datetime': '2018-12-12 10:35:37.413345', 'mgs': 0, 'flw2': 0.0, 'flw1': 0.64, 'flw0': 0.0, 'time': 39.06, 'compass': -150.58, 'pitch': -1.84, 'roll': 2.43}
{'lipoC2': 8.1, 'temp': 0.0, 'lipoC3S3': 12.16, 'state': 'normal', 'rot1': 0, 'rot0': 0, 'rot3': 0, 'rot2': 0, 'depth': 1.004, 'yaw': -9.18, 'datetime': '2018-12-12 10:35:37.623064', 'mgs': 0, 'flw2': 0.18, 'flw1': 0.0, 'flw0': 0.0, 'time': 39.27, 'compass': -150.58, 'pitch': -1.74, 'roll': 2.42}
{'lipoC2': 8.33, 'temp': 0.0, 'lipoC3S3': 12.26, 'state': 'normal', 'rot1': 0, 'rot0': 0, 'rot3': 0, 'rot2': 0, 'depth': -1.208, 'yaw': -9.18, 'datetime': '2018-12-12 10:35:37.831451', 'mgs': 0, 'flw2': 0.0, 'flw1': 0.0, 'flw0': 0.32, 'time': 39.48, 'compass': -150.59, 'pitch': -1.2, 'roll': 2.41}
{'lipoC2': 8.25, 'temp': 0.0, 'lipoC3S3': 12.19, 'state': 'normal', 'rot1': 0, 'rot0': 0, 'rot3': 0, 'rot2': 0, 'depth': 2.072, 'yaw': -9.18, 'datetime': '2018-12-12 10:35:38.039979', 'mgs': 0, 'flw2': 0.0, 'flw1': 0.64, 'flw0': 0.0, 'time': 39.69, 'compass': -150.58, 'pitch': -1.09, 'roll': 2.21}
{'lipoC2': 8.06, 'temp': 0.0, 'lipoC3S3': 12.25, 'state': 'normal', 'rot1': 0, 'rot0': 0, 'rot3': 0, 'rot2': 0, 'depth': -0.293, 'yaw': -9.17, 'datetime': '2018-12-12 10:35:38.249371', 'mgs': 0, 'flw2': 0.22, 'flw1': 0.0, 'flw0': 0.17, 'time': 39.9, 'compass': -150.57, 'pitch': -1.67, 'roll': 2.1}
{'lipoC2': 8.26, 'temp': 0.0, 'lipoC3S3': 12.21, 'state': 'normal', 'rot1': 0, 'rot0': 0, 'rot3': 0, 'rot2': 0, 'depth': -0.446, 'yaw': -9.17, 'datetime': '2018-12-12 10:35:38.458475', 'mgs': 0, 'flw2': 0.09, 'flw1': 0.0, 'flw0': 0.0, 'time': 40.11, 'compass': -150.58, 'pitch': -1.81, 'roll': 2.18}
{'lipoC2': 8.09, 'temp': 0.0, 'lipoC3S3': 12.56, 'state': 'normal', 'rot1': 0, 'rot0': 0, 'rot3': 0, 'rot2': 0, 'depth': -0.446, 'yaw': -9.18, 'datetime': '2018-12-12 10:35:38.666536', 'mgs': 0, 'flw2': 0.2, 'flw1': 0.0, 'flw0': 0.0, 'time': 40.31, 'compass': -150.59, 'pitch': -1.37, 'roll': 2.45}
{'lipoC2': 8.1, 'temp': 0.0, 'lipoC3S3': 12.19, 'state': 'normal', 'rot1': 0, 'rot0': 0, 'rot3': 0, 'rot2': 0, 'depth': 1.004, 'yaw': -9.19, 'datetime': '2018-12-12 10:35:38.873700', 'mgs': 0, 'flw2': 0.0, 'flw1': 0.0, 'flw0': 0.28, 'time': 40.52, 'compass': -150.59, 'pitch': -1.32, 'roll': 2.62}
{'lipoC2': 8.21, 'temp': 0.0, 'lipoC3S3': 12.33, 'state': 'normal', 'rot1': 0, 'rot0': 0, 'rot3': 0, 'rot2': 0, 'depth': -0.98, 'yaw': -9.19, 'datetime': '2018-12-12 10:35:39.082124', 'mgs': 0, 'flw2': 0.0, 'flw1': 0.0, 'flw0': 0.29, 'time': 40.73, 'compass': -150.6, 'pitch': -1.86, 'roll': 2.77}
{'lipoC2': 8.14, 'temp': 0.0, 'lipoC3S3': 12.12, 'state': 'normal', 'rot1': 0, 'rot0': 0, 'rot3': 0, 'rot2': 0, 'depth': 2.377, 'yaw': -9.19, 'datetime': '2018-12-12 10:35:39.290394', 'mgs': 0, 'flw2': 0.0, 'flw1': 0.64, 'flw0': 0.0, 'time': 40.94, 'compass': -150.6, 'pitch': -2.16, 'roll': 2.95}
{'lipoC2': 8.29, 'temp': 0.0, 'lipoC3S3': 12.23, 'state': 'normal', 'rot1': 0, 'rot0': 0, 'rot3': 0, 'rot2': 0, 'depth': 1.614, 'yaw': -9.2, 'datetime': '2018-12-12 10:35:39.499508', 'mgs': 0, 'flw2': 0.0, 'flw1': 0.67, 'flw0': 0.0, 'time': 41.15, 'compass': -150.61, 'pitch': -1.78, 'roll': 3.16}
{'lipoC2': 8.39, 'temp': 0.0, 'lipoC3S3': 12.22, 'state': 'normal', 'rot1': 0, 'rot0': 0, 'rot3': 0, 'rot2': 0, 'depth': -0.98, 'yaw': -9.2, 'datetime': '2018-12-12 10:35:39.707626', 'mgs': 0, 'flw2': 0.0, 'flw1': 0.0, 'flw0': 0.26, 'time': 41.35, 'compass': -150.61, 'pitch': -1.47, 'roll': 3.22}
{'lipoC2': 8.16, 'temp': 0.0, 'lipoC3S3': 12.13, 'state': 'normal', 'rot1': 0, 'rot0': 0, 'rot3': 0, 'rot2': 0, 'depth': -0.217, 'yaw': -9.2, 'datetime': '2018-12-12 10:35:39.917396', 'mgs': 0, 'flw2': 0.0, 'flw1': 0.59, 'flw0': 0.0, 'time': 41.56, 'compass': -150.61, 'pitch': -1.65, 'roll': 3.1}
{'lipoC2': 8.12, 'temp': 0.0, 'lipoC3S3': 12.39, 'state': 'normal', 'rot1': 0, 'rot0': 0, 'rot3': 0, 'rot2': 0, 'depth': -0.522, 'yaw': -9.19, 'datetime': '2018-12-12 10:35:40.124370', 'mgs': 0, 'flw2': 0.32, 'flw1': 0.0, 'flw0': 0.0, 'time': 41.77, 'compass': -150.6, 'pitch': -1.97, 'roll': 2.82}
{'lipoC2': 8.1, 'temp': 0.0, 'lipoC3S3': 12.3, 'state': 'normal', 'rot1': 0, 'rot0': 0, 'rot3': 0, 'rot2': 0, 'depth': -0.217, 'yaw': -9.18, 'datetime': '2018-12-12 10:35:40.333296', 'mgs': 0, 'flw2': 0.29, 'flw1': 0.0, 'flw0': 0.0, 'time': 41.98, 'compass': -150.59, 'pitch': -2.09, 'roll': 2.55}
{'lipoC2': 8.08, 'temp': 0.0, 'lipoC3S3': 12.6, 'state': 'normal', 'rot1': 0, 'rot0': 0, 'rot3': 0, 'rot2': 0, 'depth': -0.446, 'yaw': -9.17, 'datetime': '2018-12-12 10:35:40.542754', 'mgs': 0, 'flw2': 0.0, 'flw1': 0.67, 'flw0': 0.0, 'time': 42.19, 'compass': -150.58, 'pitch': -2.02, 'roll': 2.3}
{'lipoC2': 8.24, 'temp': 0.0, 'lipoC3S3': 12.17, 'state': 'normal', 'rot1': 0, 'rot0': 0, 'rot3': 0, 'rot2': 0, 'depth': 2.148, 'yaw': -9.17, 'datetime': '2018-12-12 10:35:40.751635', 'mgs': 0, 'flw2': 0.0, 'flw1': 0.56, 'flw0': 0.0, 'time': 42.4, 'compass': -150.58, 'pitch': -1.62, 'roll': 2.02}
{'lipoC2': 8.1, 'temp': 0.0, 'lipoC3S3': 12.54, 'state': 'normal', 'rot1': 0, 'rot0': 0, 'rot3': 0, 'rot2': 0, 'depth': -0.522, 'yaw': -9.16, 'datetime': '2018-12-12 10:35:40.960424', 'mgs': 0, 'flw2': 0.0, 'flw1': 0.73, 'flw0': 0.0, 'time': 42.6, 'compass': -150.57, 'pitch': -1.17, 'roll': 1.76}
{'lipoC2': 8.12, 'temp': 0.0, 'lipoC3S3': 12.1, 'state': 'normal', 'rot1': 0, 'rot0': 0, 'rot3': 0, 'rot2': 0, 'depth': -0.064, 'yaw': -9.16, 'datetime': '2018-12-12 10:35:41.169076', 'mgs': 0, 'flw2': 0.28, 'flw1': 0.0, 'flw0': 0.0, 'time': 42.81, 'compass': -150.56, 'pitch': -1.15, 'roll': 1.73}
{'lipoC2': 8.24, 'temp': 0.0, 'lipoC3S3': 12.3, 'state': 'normal', 'rot1': 0, 'rot0': 0, 'rot3': 0, 'rot2': 0, 'depth': -1.056, 'yaw': -9.17, 'datetime': '2018-12-12 10:35:41.377830', 'mgs': 0, 'flw2': 0.31, 'flw1': 0.0, 'flw0': 0.0, 'time': 43.02, 'compass': -150.58, 'pitch': -1.65, 'roll': 2.02}
{'lipoC2': 8.38, 'temp': 0.0, 'lipoC3S3': 12.23, 'state': 'normal', 'rot1': 0, 'rot0': 0, 'rot3': 0, 'rot2': 0, 'depth': 0.851, 'yaw': -9.18, 'datetime': '2018-12-12 10:35:41.585000', 'mgs': 0, 'flw2': 0.29, 'flw1': 0.0, 'flw0': 0.1, 'time': 43.23, 'compass': -150.59, 'pitch': -2.03, 'roll': 2.39}
