{'lipoC2': 7.43, 'temp': 30.44, 'lipoC3S3': 11.67, 'state': 'normal', 'rot1': 0, 'rot0': 0, 'rot3': 0, 'rot2': 0, 'depth': 1.691, 'yaw': -0.01, 'datetime': '2018-11-26 12:33:52.429436', 'mgs': 0, 'flw2': 0.0, 'flw1': 0.0, 'flw0': 0.0, 'time': 1.36, 'compass': 160.56, 'pitch': 1.11, 'roll': -5.09}
{'lipoC2': 7.42, 'temp': 30.5, 'lipoC3S3': 11.68, 'state': 'normal', 'rot1': 0, 'rot0': 0, 'rot3': 0, 'rot2': 0, 'depth': 1.614, 'yaw': 0.0, 'datetime': '2018-11-26 12:33:52.634552', 'mgs': 0, 'flw2': 0.0, 'flw1': 0.0, 'flw0': 0.0, 'time': 1.57, 'compass': 160.57, 'pitch': 0.82, 'roll': -4.97}
{'lipoC2': 7.42, 'temp': 30.5, 'lipoC3S3': 11.67, 'state': 'normal', 'rot1': 0, 'rot0': 0, 'rot3': 0, 'rot2': 0, 'depth': 1.614, 'yaw': -0.0, 'datetime': '2018-11-26 12:33:52.844451', 'mgs': 0, 'flw2': 0.0, 'flw1': 0.0, 'flw0': 0.0, 'time': 1.78, 'compass': 160.57, 'pitch': 0.6, 'roll': -4.99}
{'lipoC2': 7.43, 'temp': 30.44, 'lipoC3S3': 11.67, 'state': 'normal', 'rot1': 0, 'rot0': 0, 'rot3': 0, 'rot2': 0, 'depth': 1.691, 'yaw': -0.0, 'datetime': '2018-11-26 12:33:53.052668', 'mgs': 0, 'flw2': 0.0, 'flw1': 0.0, 'flw0': 0.0, 'time': 1.99, 'compass': 160.57, 'pitch': 0.42, 'roll': -4.96}
{'lipoC2': 7.43, 'temp': 30.44, 'lipoC3S3': 11.67, 'state': 'normal', 'rot1': 0, 'rot0': 0, 'rot3': 0, 'rot2': 0, 'depth': 1.614, 'yaw': 0.01, 'datetime': '2018-11-26 12:33:53.265925', 'mgs': 0, 'flw2': 0.0, 'flw1': 0.0, 'flw0': 0.0, 'time': 2.2, 'compass': 160.57, 'pitch': 0.3, 'roll': -4.9}
{'lipoC2': 7.43, 'temp': 30.44, 'lipoC3S3': 11.67, 'state': 'normal', 'rot1': 0, 'rot0': 0, 'rot3': 0, 'rot2': 0, 'depth': 1.691, 'yaw': 0.0, 'datetime': '2018-11-26 12:33:53.470273', 'mgs': 0, 'flw2': 0.0, 'flw1': 0.0, 'flw0': 0.0, 'time': 2.41, 'compass': 160.57, 'pitch': 0.23, 'roll': -4.86}
{'lipoC2': 7.43, 'temp': 30.5, 'lipoC3S3': 11.68, 'state': 'normal', 'rot1': 0, 'rot0': 0, 'rot3': 0, 'rot2': 0, 'depth': 1.614, 'yaw': 0.01, 'datetime': '2018-11-26 12:33:53.679555', 'mgs': 0, 'flw2': 0.0, 'flw1': 0.0, 'flw0': 0.0, 'time': 2.62, 'compass': 160.57, 'pitch': 0.16, 'roll': -4.83}
{'lipoC2': 7.43, 'temp': 30.44, 'lipoC3S3': 11.67, 'state': 'normal', 'rot1': 0, 'rot0': 0, 'rot3': 0, 'rot2': 0, 'depth': 1.691, 'yaw': 0.0, 'datetime': '2018-11-26 12:33:53.887093', 'mgs': 0, 'flw2': 0.0, 'flw1': 0.0, 'flw0': 0.0, 'time': 2.83, 'compass': 160.57, 'pitch': 0.12, 'roll': -4.8}
{'lipoC2': 7.43, 'temp': 30.44, 'lipoC3S3': 11.67, 'state': 'normal', 'rot1': 0, 'rot0': 0, 'rot3': 0, 'rot2': 0, 'depth': 1.614, 'yaw': 0.0, 'datetime': '2018-11-26 12:33:54.096509', 'mgs': 0, 'flw2': 0.0, 'flw1': 0.0, 'flw0': 0.0, 'time': 3.04, 'compass': 160.57, 'pitch': 0.07, 'roll': -4.81}
{'lipoC2': 7.43, 'temp': 30.5, 'lipoC3S3': 11.67, 'state': 'normal', 'rot1': 0, 'rot0': 0, 'rot3': 0, 'rot2': 0, 'depth': 1.691, 'yaw': 0.0, 'datetime': '2018-11-26 12:33:54.304640', 'mgs': 0, 'flw2': 0.0, 'flw1': 0.0, 'flw0': 0.0, 'time': 3.24, 'compass': 160.57, 'pitch': 0.06, 'roll': -4.81}
{'lipoC2': 7.43, 'temp': 30.44, 'lipoC3S3': 11.67, 'state': 'normal', 'rot1': 0, 'rot0': 0, 'rot3': 0, 'rot2': 0, 'depth': 1.691, 'yaw': 0.0, 'datetime': '2018-11-26 12:33:54.514153', 'mgs': 0, 'flw2': 0.0, 'flw1': 0.0, 'flw0': 0.0, 'time': 3.45, 'compass': 160.57, 'pitch': 0.06, 'roll': -4.81}
{'lipoC2': 7.43, 'temp': 30.5, 'lipoC3S3': 11.67, 'state': 'normal', 'rot1': 0, 'rot0': 0, 'rot3': 0, 'rot2': 0, 'depth': 1.691, 'yaw': 0.0, 'datetime': '2018-11-26 12:33:54.721716', 'mgs': 0, 'flw2': 0.0, 'flw1': 0.0, 'flw0': 0.0, 'time': 3.66, 'compass': 160.57, 'pitch': 0.04, 'roll': -4.8}
{'lipoC2': 7.43, 'temp': 30.5, 'lipoC3S3': 11.67, 'state': 'normal', 'rot1': 0, 'rot0': 0, 'rot3': 0, 'rot2': 0, 'depth': 1.767, 'yaw': 0.0, 'datetime': '2018-11-26 12:33:54.931436', 'mgs': 0, 'flw2': 0.0, 'flw1': 0.0, 'flw0': 0.0, 'time': 3.87, 'compass': 160.57, 'pitch': 0.04, 'roll': -4.8}
{'lipoC2': 7.43, 'temp': 30.5, 'lipoC3S3': 11.64, 'state': 'normal', 'rot1': 0, 'rot0': 0, 'rot3': 0, 'rot2': 0, 'depth': 1.462, 'yaw': 0.0, 'datetime': '2018-11-26 12:33:55.137424', 'mgs': 0, 'flw2': 3.21, 'flw1': 1.49, 'flw0': 3.36, 'time': 4.08, 'compass': 160.57, 'pitch': 0.04, 'roll': -4.8}
{'lipoC2': 7.43, 'temp': 30.5, 'lipoC3S3': 11.64, 'state': 'normal', 'rot1': 2, 'rot0': 2, 'rot3': 0, 'rot2': 0, 'depth': 2.759, 'yaw': -0.06, 'datetime': '2018-11-26 12:33:55.346519', 'mgs': 0, 'flw2': 2.73, 'flw1': 1.14, 'flw0': 2.72, 'time': 4.29, 'compass': 160.5, 'pitch': -0.05, 'roll': -3.51}
{'lipoC2': 7.43, 'temp': 30.5, 'lipoC3S3': 11.64, 'state': 'normal', 'rot1': 4, 'rot0': 5, 'rot3': 1, 'rot2': 1, 'depth': 2.454, 'yaw': -0.28, 'datetime': '2018-11-26 12:33:55.552120', 'mgs': 0, 'flw2': 2.77, 'flw1': 1.03, 'flw0': 2.77, 'time': 4.49, 'compass': 160.28, 'pitch': -0.18, 'roll': -0.13}
{'lipoC2': 7.43, 'temp': 30.44, 'lipoC3S3': 11.65, 'state': 'normal', 'rot1': 6, 'rot0': 7, 'rot3': 1, 'rot2': 1, 'depth': 1.843, 'yaw': -0.58, 'datetime': '2018-11-26 12:33:55.761198', 'mgs': 0, 'flw2': 2.73, 'flw1': 1.03, 'flw0': 2.89, 'time': 4.7, 'compass': 159.99, 'pitch': -0.24, 'roll': 3.35}
{'lipoC2': 7.43, 'temp': 30.44, 'lipoC3S3': 11.52, 'state': 'normal', 'rot1': 8, 'rot0': 9, 'rot3': 2, 'rot2': 2, 'depth': 1.767, 'yaw': -0.92, 'datetime': '2018-11-26 12:33:55.973644', 'mgs': 0, 'flw2': 2.56, 'flw1': 1.0, 'flw0': 2.78, 'time': 4.91, 'compass': 159.65, 'pitch': -0.26, 'roll': 6.36}
{'lipoC2': 7.43, 'temp': 30.44, 'lipoC3S3': 11.65, 'state': 'normal', 'rot1': 11, 'rot0': 12, 'rot3': 2, 'rot2': 2, 'depth': 1.614, 'yaw': -1.3, 'datetime': '2018-11-26 12:33:56.184434', 'mgs': 0, 'flw2': 2.66, 'flw1': 1.0, 'flw0': 2.83, 'time': 5.12, 'compass': 159.26, 'pitch': -0.24, 'roll': 8.46}
{'lipoC2': 7.43, 'temp': 30.44, 'lipoC3S3': 11.64, 'state': 'normal', 'rot1': 13, 'rot0': 14, 'rot3': 3, 'rot2': 3, 'depth': 1.614, 'yaw': -1.65, 'datetime': '2018-11-26 12:33:56.392582', 'mgs': 0, 'flw2': 2.73, 'flw1': 1.0, 'flw0': 2.91, 'time': 5.33, 'compass': 158.92, 'pitch': -0.21, 'roll': 9.18}
{'lipoC2': 7.43, 'temp': 30.44, 'lipoC3S3': 11.65, 'state': 'normal', 'rot1': 15, 'rot0': 16, 'rot3': 3, 'rot2': 3, 'depth': 1.462, 'yaw': -1.93, 'datetime': '2018-11-26 12:33:56.602005', 'mgs': 0, 'flw2': 2.71, 'flw1': 1.05, 'flw0': 2.94, 'time': 5.54, 'compass': 158.63, 'pitch': -0.16, 'roll': 8.69}
{'lipoC2': 7.44, 'temp': 30.5, 'lipoC3S3': 11.61, 'state': 'normal', 'rot1': 18, 'rot0': 18, 'rot3': 3, 'rot2': 4, 'depth': 1.843, 'yaw': -2.24, 'datetime': '2018-11-26 12:33:56.812079', 'mgs': 0, 'flw2': 2.8, 'flw1': 1.03, 'flw0': 2.76, 'time': 5.75, 'compass': 158.33, 'pitch': -0.18, 'roll': 7.3}
{'lipoC2': 7.44, 'temp': 30.5, 'lipoC3S3': 11.61, 'state': 'normal', 'rot1': 20, 'rot0': 21, 'rot3': 4, 'rot2': 4, 'depth': 1.767, 'yaw': -2.54, 'datetime': '2018-11-26 12:33:57.021331', 'mgs': 0, 'flw2': 2.78, 'flw1': 1.03, 'flw0': 2.73, 'time': 5.96, 'compass': 158.03, 'pitch': -0.26, 'roll': 5.14}
{'lipoC2': 7.43, 'temp': 30.5, 'lipoC3S3': 11.63, 'state': 'normal', 'rot1': 22, 'rot0': 23, 'rot3': 4, 'rot2': 5, 'depth': 1.08, 'yaw': -2.85, 'datetime': '2018-11-26 12:33:57.232332', 'mgs': 0, 'flw2': 4.44, 'flw1': 1.05, 'flw0': 4.74, 'time': 6.17, 'compass': 157.72, 'pitch': -0.26, 'roll': 3.32}
{'lipoC2': 7.43, 'temp': 30.5, 'lipoC3S3': 11.61, 'state': 'normal', 'rot1': 25, 'rot0': 26, 'rot3': 5, 'rot2': 5, 'depth': 2.606, 'yaw': -3.25, 'datetime': '2018-11-26 12:33:57.441285', 'mgs': 0, 'flw2': 4.59, 'flw1': 1.14, 'flw0': 4.72, 'time': 6.38, 'compass': 157.32, 'pitch': -0.25, 'roll': 3.12}
{'lipoC2': 7.43, 'temp': 30.44, 'lipoC3S3': 11.6, 'state': 'normal', 'rot1': 28, 'rot0': 29, 'rot3': 5, 'rot2': 6, 'depth': 1.92, 'yaw': -3.78, 'datetime': '2018-11-26 12:33:57.649968', 'mgs': 0, 'flw2': 4.46, 'flw1': 1.03, 'flw0': 4.55, 'time': 6.59, 'compass': 156.79, 'pitch': -0.22, 'roll': 3.7}
{'lipoC2': 7.44, 'temp': 30.5, 'lipoC3S3': 11.44, 'state': 'normal', 'rot1': 31, 'rot0': 31, 'rot3': 6, 'rot2': 6, 'depth': 1.157, 'yaw': -4.31, 'datetime': '2018-11-26 12:33:57.859356', 'mgs': 0, 'flw2': 4.3, 'flw1': 0.97, 'flw0': 4.76, 'time': 6.8, 'compass': 156.26, 'pitch': -0.19, 'roll': 4.08}
{'lipoC2': 7.44, 'temp': 30.5, 'lipoC3S3': 11.59, 'state': 'normal', 'rot1': 34, 'rot0': 34, 'rot3': 6, 'rot2': 7, 'depth': 2.072, 'yaw': -4.76, 'datetime': '2018-11-26 12:33:58.067663', 'mgs': 0, 'flw2': 4.46, 'flw1': 1.08, 'flw0': 4.61, 'time': 7.01, 'compass': 155.81, 'pitch': -0.37, 'roll': 4.56}
{'lipoC2': 7.43, 'temp': 30.44, 'lipoC3S3': 11.51, 'state': 'normal', 'rot1': 37, 'rot0': 37, 'rot3': 7, 'rot2': 7, 'depth': 1.309, 'yaw': -5.15, 'datetime': '2018-11-26 12:33:58.278127', 'mgs': 0, 'flw2': 4.17, 'flw1': 1.0, 'flw0': 4.71, 'time': 7.22, 'compass': 155.41, 'pitch': -0.62, 'roll': 5.2}
{'lipoC2': 7.43, 'temp': 30.44, 'lipoC3S3': 11.43, 'state': 'normal', 'rot1': 40, 'rot0': 40, 'rot3': 7, 'rot2': 8, 'depth': 1.385, 'yaw': -5.5, 'datetime': '2018-11-26 12:33:58.488951', 'mgs': 0, 'flw2': 4.32, 'flw1': 0.97, 'flw0': 4.71, 'time': 7.43, 'compass': 155.07, 'pitch': -0.82, 'roll': 5.94}
{'lipoC2': 7.43, 'temp': 30.44, 'lipoC3S3': 11.48, 'state': 'normal', 'rot1': 42, 'rot0': 43, 'rot3': 8, 'rot2': 8, 'depth': 1.309, 'yaw': -5.72, 'datetime': '2018-11-26 12:33:58.697281', 'mgs': 0, 'flw2': 4.22, 'flw1': 1.0, 'flw0': 4.8, 'time': 7.64, 'compass': 154.85, 'pitch': -1.05, 'roll': 6.52}
{'lipoC2': 7.43, 'temp': 30.5, 'lipoC3S3': 11.54, 'state': 'normal', 'rot1': 45, 'rot0': 46, 'rot3': 8, 'rot2': 9, 'depth': 1.385, 'yaw': -6.1, 'datetime': '2018-11-26 12:33:58.906936', 'mgs': 0, 'flw2': 4.19, 'flw1': 1.0, 'flw0': 4.94, 'time': 7.85, 'compass': 154.47, 'pitch': -1.1, 'roll': 6.87}
{'lipoC2': 7.43, 'temp': 30.44, 'lipoC3S3': 11.5, 'state': 'normal', 'rot1': 48, 'rot0': 49, 'rot3': 9, 'rot2': 9, 'depth': 1.385, 'yaw': -6.7, 'datetime': '2018-11-26 12:33:59.115886', 'mgs': 0, 'flw2': 4.22, 'flw1': 0.97, 'flw0': 4.64, 'time': 8.06, 'compass': 153.87, 'pitch': -0.88, 'roll': 6.9}
{'lipoC2': 7.43, 'temp': 30.5, 'lipoC3S3': 11.61, 'state': 'normal', 'rot1': 51, 'rot0': 52, 'rot3': 9, 'rot2': 10, 'depth': 1.385, 'yaw': -7.39, 'datetime': '2018-11-26 12:33:59.325937', 'mgs': 0, 'flw2': 5.9, 'flw1': 1.03, 'flw0': 6.64, 'time': 8.27, 'compass': 153.17, 'pitch': -0.76, 'roll': 6.94}
{'lipoC2': 7.44, 'temp': 30.5, 'lipoC3S3': 11.43, 'state': 'normal', 'rot1': 55, 'rot0': 55, 'rot3': 10, 'rot2': 10, 'depth': 1.385, 'yaw': -8.29, 'datetime': '2018-11-26 12:33:59.537135', 'mgs': 0, 'flw2': 6.05, 'flw1': 1.0, 'flw0': 6.48, 'time': 8.48, 'compass': 152.28, 'pitch': -0.62, 'roll': 7.46}
{'lipoC2': 7.43, 'temp': 30.5, 'lipoC3S3': 11.4, 'state': 'normal', 'rot1': 58, 'rot0': 58, 'rot3': 10, 'rot2': 11, 'depth': 1.767, 'yaw': -9.24, 'datetime': '2018-11-26 12:33:59.746649', 'mgs': 0, 'flw2': 5.98, 'flw1': 1.03, 'flw0': 6.31, 'time': 8.69, 'compass': 151.33, 'pitch': -0.52, 'roll': 7.84}
{'lipoC2': 7.43, 'temp': 30.5, 'lipoC3S3': 11.42, 'state': 'normal', 'rot1': 61, 'rot0': 61, 'rot3': 11, 'rot2': 11, 'depth': 1.767, 'yaw': -10.07, 'datetime': '2018-11-26 12:33:59.957000', 'mgs': 0, 'flw2': 5.91, 'flw1': 1.0, 'flw0': 6.16, 'time': 8.9, 'compass': 150.49, 'pitch': -0.66, 'roll': 7.85}
{'lipoC2': 7.43, 'temp': 30.44, 'lipoC3S3': 11.6, 'state': 'normal', 'rot1': 64, 'rot0': 65, 'rot3': 11, 'rot2': 12, 'depth': 1.462, 'yaw': -10.71, 'datetime': '2018-11-26 12:34:00.167999', 'mgs': 0, 'flw2': 6.05, 'flw1': 1.05, 'flw0': 6.37, 'time': 9.11, 'compass': 149.86, 'pitch': -0.89, 'roll': 8.01}
{'lipoC2': 7.43, 'temp': 30.5, 'lipoC3S3': 11.42, 'state': 'normal', 'rot1': 68, 'rot0': 68, 'rot3': 11, 'rot2': 12, 'depth': 1.309, 'yaw': -11.4, 'datetime': '2018-11-26 12:34:00.377749', 'mgs': 0, 'flw2': 5.98, 'flw1': 1.03, 'flw0': 6.12, 'time': 9.32, 'compass': 149.17, 'pitch': -0.86, 'roll': 8.02}
{'lipoC2': 7.43, 'temp': 30.5, 'lipoC3S3': 11.56, 'state': 'normal', 'rot1': 71, 'rot0': 71, 'rot3': 12, 'rot2': 13, 'depth': 1.462, 'yaw': -11.92, 'datetime': '2018-11-26 12:34:00.588960', 'mgs': 0, 'flw2': 6.09, 'flw1': 1.05, 'flw0': 6.77, 'time': 9.53, 'compass': 148.65, 'pitch': -0.99, 'roll': 8.01}
{'lipoC2': 7.42, 'temp': 30.44, 'lipoC3S3': 11.55, 'state': 'normal', 'rot1': 74, 'rot0': 75, 'rot3': 12, 'rot2': 13, 'depth': 1.309, 'yaw': -12.41, 'datetime': '2018-11-26 12:34:00.799682', 'mgs': 0, 'flw2': 6.01, 'flw1': 1.0, 'flw0': 6.59, 'time': 9.74, 'compass': 148.16, 'pitch': -1.03, 'roll': 8.03}
{'lipoC2': 7.43, 'temp': 30.5, 'lipoC3S3': 11.58, 'state': 'normal', 'rot1': 77, 'rot0': 78, 'rot3': 13, 'rot2': 14, 'depth': 1.385, 'yaw': -12.94, 'datetime': '2018-11-26 12:34:01.008997', 'mgs': 0, 'flw2': 6.1, 'flw1': 1.05, 'flw0': 6.73, 'time': 9.95, 'compass': 147.63, 'pitch': -1.05, 'roll': 8.04}
{'lipoC2': 7.43, 'temp': 30.5, 'lipoC3S3': 11.39, 'state': 'normal', 'rot1': 81, 'rot0': 82, 'rot3': 13, 'rot2': 14, 'depth': 1.843, 'yaw': -13.39, 'datetime': '2018-11-26 12:34:01.219810', 'mgs': 0, 'flw2': 7.43, 'flw1': 1.0, 'flw0': 7.85, 'time': 10.16, 'compass': 147.18, 'pitch': -1.08, 'roll': 8.05}
{'lipoC2': 7.43, 'temp': 30.5, 'lipoC3S3': 11.55, 'state': 'normal', 'rot1': 84, 'rot0': 85, 'rot3': 14, 'rot2': 15, 'depth': 2.988, 'yaw': -13.83, 'datetime': '2018-11-26 12:34:01.430664', 'mgs': 0, 'flw2': 7.84, 'flw1': 1.17, 'flw0': 7.87, 'time': 10.38, 'compass': 146.74, 'pitch': -1.09, 'roll': 8.54}
{'lipoC2': 7.43, 'temp': 30.5, 'lipoC3S3': 11.58, 'state': 'normal', 'rot1': 88, 'rot0': 89, 'rot3': 14, 'rot2': 15, 'depth': 3.14, 'yaw': -14.41, 'datetime': '2018-11-26 12:34:01.640007', 'mgs': 0, 'flw2': 7.51, 'flw1': 1.0, 'flw0': 8.18, 'time': 10.59, 'compass': 146.16, 'pitch': -1.04, 'roll': 9.1}
{'lipoC2': 7.43, 'temp': 30.44, 'lipoC3S3': 11.52, 'state': 'normal', 'rot1': 92, 'rot0': 93, 'rot3': 15, 'rot2': 16, 'depth': 1.538, 'yaw': -14.95, 'datetime': '2018-11-26 12:34:01.850749', 'mgs': 0, 'flw2': 7.86, 'flw1': 1.05, 'flw0': 8.39, 'time': 10.8, 'compass': 145.62, 'pitch': -1.13, 'roll': 9.38}
{'lipoC2': 7.43, 'temp': 30.44, 'lipoC3S3': 11.48, 'state': 'normal', 'rot1': 95, 'rot0': 96, 'rot3': 15, 'rot2': 16, 'depth': 1.385, 'yaw': -15.43, 'datetime': '2018-11-26 12:34:02.061468', 'mgs': 0, 'flw2': 7.8, 'flw1': 1.03, 'flw0': 8.13, 'time': 11.01, 'compass': 145.14, 'pitch': -1.08, 'roll': 9.07}
{'lipoC2': 7.43, 'temp': 30.5, 'lipoC3S3': 11.4, 'state': 'normal', 'rot1': 99, 'rot0': 100, 'rot3': 16, 'rot2': 17, 'depth': 1.385, 'yaw': -15.78, 'datetime': '2018-11-26 12:34:02.270952', 'mgs': 0, 'flw2': 7.4, 'flw1': 1.0, 'flw0': 8.26, 'time': 11.22, 'compass': 144.79, 'pitch': -1.03, 'roll': 8.71}
{'lipoC2': 7.43, 'temp': 30.31, 'lipoC3S3': 11.44, 'state': 'normal', 'rot1': 103, 'rot0': 103, 'rot3': 16, 'rot2': 17, 'depth': 1.385, 'yaw': -16.14, 'datetime': '2018-11-26 12:34:02.483770', 'mgs': 0, 'flw2': 7.41, 'flw1': 0.97, 'flw0': 7.91, 'time': 11.43, 'compass': 144.42, 'pitch': -1.22, 'roll': 8.89}
{'lipoC2': 7.43, 'temp': 30.38, 'lipoC3S3': 11.56, 'state': 'normal', 'rot1': 106, 'rot0': 107, 'rot3': 17, 'rot2': 17, 'depth': 1.462, 'yaw': -16.49, 'datetime': '2018-11-26 12:34:02.694580', 'mgs': 0, 'flw2': 7.74, 'flw1': 1.03, 'flw0': 8.12, 'time': 11.64, 'compass': 144.07, 'pitch': -1.45, 'roll': 9.08}
{'lipoC2': 7.43, 'temp': 30.38, 'lipoC3S3': 11.44, 'state': 'normal', 'rot1': 110, 'rot0': 110, 'rot3': 17, 'rot2': 18, 'depth': 1.462, 'yaw': -16.67, 'datetime': '2018-11-26 12:34:02.904297', 'mgs': 0, 'flw2': 7.46, 'flw1': 1.03, 'flw0': 8.03, 'time': 11.85, 'compass': 143.89, 'pitch': -1.45, 'roll': 9.1}
{'lipoC2': 7.44, 'temp': 30.56, 'lipoC3S3': 11.38, 'state': 'normal', 'rot1': 114, 'rot0': 115, 'rot3': 17, 'rot2': 18, 'depth': 2.225, 'yaw': -17.07, 'datetime': '2018-11-26 12:34:03.114879', 'mgs': 0, 'flw2': 7.47, 'flw1': 1.05, 'flw0': 7.74, 'time': 12.06, 'compass': 143.49, 'pitch': -1.46, 'roll': 9.11}
{'lipoC2': 7.43, 'temp': 30.5, 'lipoC3S3': 11.36, 'state': 'normal', 'rot1': 118, 'rot0': 119, 'rot3': 18, 'rot2': 19, 'depth': 2.225, 'yaw': -17.43, 'datetime': '2018-11-26 12:34:03.327622', 'mgs': 0, 'flw2': 8.9, 'flw1': 1.05, 'flw0': 9.39, 'time': 12.27, 'compass': 143.14, 'pitch': -1.44, 'roll': 9.22}
{'lipoC2': 7.43, 'temp': 30.44, 'lipoC3S3': 11.4, 'state': 'normal', 'rot1': 123, 'rot0': 122, 'rot3': 18, 'rot2': 19, 'depth': 1.538, 'yaw': -17.99, 'datetime': '2018-11-26 12:34:03.541444', 'mgs': 0, 'flw2': 8.85, 'flw1': 1.03, 'flw0': 9.66, 'time': 12.48, 'compass': 142.58, 'pitch': -1.4, 'roll': 9.93}
{'lipoC2': 7.43, 'temp': 30.63, 'lipoC3S3': 11.4, 'state': 'normal', 'rot1': 127, 'rot0': 127, 'rot3': 19, 'rot2': 20, 'depth': 1.385, 'yaw': -18.55, 'datetime': '2018-11-26 12:34:03.750304', 'mgs': 0, 'flw2': 8.86, 'flw1': 1.03, 'flw0': 9.4, 'time': 12.7, 'compass': 142.02, 'pitch': -1.41, 'roll': 10.45}
{'lipoC2': 7.43, 'temp': 30.56, 'lipoC3S3': 11.35, 'state': 'normal', 'rot1': 130, 'rot0': 130, 'rot3': 19, 'rot2': 20, 'depth': 3.064, 'yaw': -19.15, 'datetime': '2018-11-26 12:34:03.959720', 'mgs': 0, 'flw2': 9.84, 'flw1': 1.14, 'flw0': 9.35, 'time': 12.91, 'compass': 141.42, 'pitch': -1.4, 'roll': 10.59}
{'lipoC2': 7.44, 'temp': 30.38, 'lipoC3S3': 11.52, 'state': 'normal', 'rot1': 134, 'rot0': 134, 'rot3': 20, 'rot2': 21, 'depth': 3.217, 'yaw': -19.68, 'datetime': '2018-11-26 12:34:04.171141', 'mgs': 0, 'flw2': 9.75, 'flw1': 1.14, 'flw0': 9.48, 'time': 13.12, 'compass': 140.89, 'pitch': -1.32, 'roll': 10.44}
{'lipoC2': 7.43, 'temp': 30.5, 'lipoC3S3': 11.35, 'state': 'normal', 'rot1': 138, 'rot0': 138, 'rot3': 20, 'rot2': 21, 'depth': 1.462, 'yaw': -19.99, 'datetime': '2018-11-26 12:34:04.383622', 'mgs': 0, 'flw2': 9.34, 'flw1': 1.0, 'flw0': 9.5, 'time': 13.33, 'compass': 140.58, 'pitch': -1.2, 'roll': 10.26}
{'lipoC2': 7.43, 'temp': 30.5, 'lipoC3S3': 11.55, 'state': 'normal', 'rot1': 143, 'rot0': 142, 'rot3': 21, 'rot2': 22, 'depth': 3.293, 'yaw': -20.07, 'datetime': '2018-11-26 12:34:04.596523', 'mgs': 0, 'flw2': 9.68, 'flw1': 1.08, 'flw0': 9.46, 'time': 13.54, 'compass': 140.5, 'pitch': -1.01, 'roll': 10.26}
{'lipoC2': 7.42, 'temp': 30.44, 'lipoC3S3': 11.43, 'state': 'normal', 'rot1': 146, 'rot0': 146, 'rot3': 21, 'rot2': 22, 'depth': 1.462, 'yaw': -20.09, 'datetime': '2018-11-26 12:34:04.804713', 'mgs': 0, 'flw2': 9.08, 'flw1': 1.03, 'flw0': 9.77, 'time': 13.75, 'compass': 140.48, 'pitch': -1.14, 'roll': 10.27}
{'lipoC2': 7.43, 'temp': 30.44, 'lipoC3S3': 11.55, 'state': 'normal', 'rot1': 150, 'rot0': 150, 'rot3': 22, 'rot2': 23, 'depth': 2.148, 'yaw': -20.07, 'datetime': '2018-11-26 12:34:05.015999', 'mgs': 0, 'flw2': 9.11, 'flw1': 0.97, 'flw0': 9.66, 'time': 13.96, 'compass': 140.49, 'pitch': -1.17, 'roll': 10.06}
{'lipoC2': 7.44, 'temp': 30.56, 'lipoC3S3': 11.42, 'state': 'normal', 'rot1': 155, 'rot0': 154, 'rot3': 22, 'rot2': 23, 'depth': 3.14, 'yaw': -19.97, 'datetime': '2018-11-26 12:34:05.228835', 'mgs': 0, 'flw2': 11.15, 'flw1': 1.14, 'flw0': 11.33, 'time': 14.18, 'compass': 140.6, 'pitch': -0.94, 'roll': 9.7}
{'lipoC2': 7.44, 'temp': 30.44, 'lipoC3S3': 11.34, 'state': 'normal', 'rot1': 159, 'rot0': 159, 'rot3': 22, 'rot2': 24, 'depth': 1.462, 'yaw': -19.87, 'datetime': '2018-11-26 12:34:05.437141', 'mgs': 0, 'flw2': 11.01, 'flw1': 1.03, 'flw0': 11.6, 'time': 14.39, 'compass': 140.7, 'pitch': -0.83, 'roll': 10.02}
{'lipoC2': 7.43, 'temp': 30.44, 'lipoC3S3': 11.5, 'state': 'normal', 'rot1': 164, 'rot0': 164, 'rot3': 23, 'rot2': 24, 'depth': 2.911, 'yaw': -19.75, 'datetime': '2018-11-26 12:34:05.651075', 'mgs': 0, 'flw2': 11.28, 'flw1': 1.2, 'flw0': 11.67, 'time': 14.6, 'compass': 140.81, 'pitch': -0.89, 'roll': 10.83}
{'lipoC2': 7.43, 'temp': 30.5, 'lipoC3S3': 11.36, 'state': 'normal', 'rot1': 168, 'rot0': 168, 'rot3': 23, 'rot2': 25, 'depth': 1.462, 'yaw': -19.61, 'datetime': '2018-11-26 12:34:05.857795', 'mgs': 0, 'flw2': 10.94, 'flw1': 1.03, 'flw0': 11.58, 'time': 14.81, 'compass': 140.96, 'pitch': -0.86, 'roll': 11.36}
{'lipoC2': 7.43, 'temp': 30.5, 'lipoC3S3': 11.52, 'state': 'normal', 'rot1': 172, 'rot0': 172, 'rot3': 24, 'rot2': 25, 'depth': 2.835, 'yaw': -19.3, 'datetime': '2018-11-26 12:34:06.072152', 'mgs': 0, 'flw2': 11.04, 'flw1': 1.11, 'flw0': 11.46, 'time': 15.02, 'compass': 141.27, 'pitch': -0.67, 'roll': 11.76}
{'lipoC2': 7.43, 'temp': 30.5, 'lipoC3S3': 11.47, 'state': 'normal', 'rot1': 177, 'rot0': 176, 'rot3': 24, 'rot2': 25, 'depth': 3.064, 'yaw': -18.96, 'datetime': '2018-11-26 12:34:06.282385', 'mgs': 0, 'flw2': 11.45, 'flw1': 1.11, 'flw0': 11.51, 'time': 15.23, 'compass': 141.6, 'pitch': -0.66, 'roll': 12.05}
{'lipoC2': 7.44, 'temp': 30.56, 'lipoC3S3': 11.48, 'state': 'normal', 'rot1': 181, 'rot0': 180, 'rot3': 25, 'rot2': 26, 'depth': 3.217, 'yaw': -18.37, 'datetime': '2018-11-26 12:34:06.493680', 'mgs': 0, 'flw2': 11.34, 'flw1': 1.14, 'flw0': 11.32, 'time': 15.44, 'compass': 142.2, 'pitch': -0.75, 'roll': 12.02}
{'lipoC2': 7.43, 'temp': 30.5, 'lipoC3S3': 11.51, 'state': 'normal', 'rot1': 186, 'rot0': 185, 'rot3': 25, 'rot2': 26, 'depth': 2.53, 'yaw': -17.68, 'datetime': '2018-11-26 12:34:06.706370', 'mgs': 0, 'flw2': 11.27, 'flw1': 1.08, 'flw0': 11.39, 'time': 15.65, 'compass': 142.88, 'pitch': -0.7, 'roll': 11.78}
{'lipoC2': 7.44, 'temp': 30.56, 'lipoC3S3': 11.52, 'state': 'normal', 'rot1': 190, 'rot0': 189, 'rot3': 26, 'rot2': 27, 'depth': 2.148, 'yaw': -16.81, 'datetime': '2018-11-26 12:34:06.915474', 'mgs': 0, 'flw2': 11.39, 'flw1': 1.08, 'flw0': 11.32, 'time': 15.86, 'compass': 143.75, 'pitch': -0.52, 'roll': 11.44}
{'lipoC2': 7.43, 'temp': 30.5, 'lipoC3S3': 11.46, 'state': 'normal', 'rot1': 195, 'rot0': 193, 'rot3': 26, 'rot2': 27, 'depth': 3.217, 'yaw': -15.81, 'datetime': '2018-11-26 12:34:07.126107', 'mgs': 0, 'flw2': 11.02, 'flw1': 1.14, 'flw0': 11.45, 'time': 16.07, 'compass': 144.75, 'pitch': -0.62, 'roll': 11.28}
{'lipoC2': 7.44, 'temp': 30.5, 'lipoC3S3': 11.31, 'state': 'normal', 'rot1': 200, 'rot0': 198, 'rot3': 26, 'rot2': 28, 'depth': 1.462, 'yaw': -14.76, 'datetime': '2018-11-26 12:34:07.336519', 'mgs': 0, 'flw2': 12.49, 'flw1': 1.05, 'flw0': 12.49, 'time': 16.28, 'compass': 145.81, 'pitch': -0.75, 'roll': 11.21}
{'lipoC2': 7.44, 'temp': 30.56, 'lipoC3S3': 11.48, 'state': 'normal', 'rot1': 204, 'rot0': 203, 'rot3': 27, 'rot2': 28, 'depth': 3.674, 'yaw': -13.7, 'datetime': '2018-11-26 12:34:07.548088', 'mgs': 0, 'flw2': 12.49, 'flw1': 1.05, 'flw0': 12.49, 'time': 16.5, 'compass': 146.86, 'pitch': -0.71, 'roll': 11.69}
{'lipoC2': 7.43, 'temp': 30.56, 'lipoC3S3': 11.5, 'state': 'normal', 'rot1': 209, 'rot0': 207, 'rot3': 27, 'rot2': 29, 'depth': 3.14, 'yaw': -12.66, 'datetime': '2018-11-26 12:34:07.759557', 'mgs': 0, 'flw2': 12.49, 'flw1': 1.2, 'flw0': 12.49, 'time': 16.71, 'compass': 147.91, 'pitch': -0.61, 'roll': 12.55}
{'lipoC2': 7.43, 'temp': 30.5, 'lipoC3S3': 11.27, 'state': 'normal', 'rot1': 214, 'rot0': 213, 'rot3': 28, 'rot2': 29, 'depth': 1.614, 'yaw': -11.63, 'datetime': '2018-11-26 12:34:07.969361', 'mgs': 0, 'flw2': 12.49, 'flw1': 0.97, 'flw0': 12.49, 'time': 16.92, 'compass': 148.94, 'pitch': -0.3, 'roll': 12.91}
{'lipoC2': 7.44, 'temp': 30.5, 'lipoC3S3': 11.3, 'state': 'normal', 'rot1': 219, 'rot0': 218, 'rot3': 28, 'rot2': 30, 'depth': 3.369, 'yaw': -10.57, 'datetime': '2018-11-26 12:34:08.180390', 'mgs': 0, 'flw2': 12.49, 'flw1': 1.17, 'flw0': 12.49, 'time': 17.13, 'compass': 150.0, 'pitch': -0.2, 'roll': 12.71}
{'lipoC2': 7.44, 'temp': 30.5, 'lipoC3S3': 11.38, 'state': 'normal', 'rot1': 223, 'rot0': 223, 'rot3': 29, 'rot2': 30, 'depth': 1.538, 'yaw': -9.62, 'datetime': '2018-11-26 12:34:08.388664', 'mgs': 0, 'flw2': 12.49, 'flw1': 1.05, 'flw0': 12.49, 'time': 17.34, 'compass': 150.95, 'pitch': -0.16, 'roll': 12.34}
{'lipoC2': 7.43, 'temp': 30.5, 'lipoC3S3': 11.29, 'state': 'normal', 'rot1': 227, 'rot0': 228, 'rot3': 29, 'rot2': 30, 'depth': 2.759, 'yaw': -8.54, 'datetime': '2018-11-26 12:34:08.598164', 'mgs': 0, 'flw2': 12.49, 'flw1': 1.0, 'flw0': 12.49, 'time': 17.55, 'compass': 152.02, 'pitch': -0.19, 'roll': 12.18}
{'lipoC2': 7.43, 'temp': 30.5, 'lipoC3S3': 11.32, 'state': 'normal', 'rot1': 232, 'rot0': 234, 'rot3': 30, 'rot2': 31, 'depth': 1.08, 'yaw': -7.53, 'datetime': '2018-11-26 12:34:08.811129', 'mgs': 0, 'flw2': 12.49, 'flw1': 1.11, 'flw0': 12.49, 'time': 17.76, 'compass': 153.03, 'pitch': -0.08, 'roll': 11.97}
{'lipoC2': 7.42, 'temp': 30.5, 'lipoC3S3': 11.31, 'state': 'normal', 'rot1': 237, 'rot0': 239, 'rot3': 30, 'rot2': 31, 'depth': 3.217, 'yaw': -6.56, 'datetime': '2018-11-26 12:34:09.019706', 'mgs': 0, 'flw2': 12.49, 'flw1': 1.08, 'flw0': 12.49, 'time': 17.97, 'compass': 154.01, 'pitch': -0.03, 'roll': 11.67}
{'lipoC2': 7.43, 'temp': 30.5, 'lipoC3S3': 11.54, 'state': 'normal', 'rot1': 241, 'rot0': 244, 'rot3': 30, 'rot2': 32, 'depth': 1.462, 'yaw': -5.82, 'datetime': '2018-11-26 12:34:09.229844', 'mgs': 0, 'flw2': 7.65, 'flw1': 1.03, 'flw0': 10.12, 'time': 18.18, 'compass': 154.75, 'pitch': -0.08, 'roll': 11.56}
{'lipoC2': 7.43, 'temp': 30.5, 'lipoC3S3': 11.59, 'state': 'normal', 'rot1': 242, 'rot0': 245, 'rot3': 31, 'rot2': 32, 'depth': 1.462, 'yaw': -5.19, 'datetime': '2018-11-26 12:34:09.440092', 'mgs': 0, 'flw2': 0.0, 'flw1': 0.0, 'flw0': 0.0, 'time': 18.39, 'compass': 155.37, 'pitch': -0.18, 'roll': 8.34}
{'lipoC2': 7.43, 'temp': 30.5, 'lipoC3S3': 11.58, 'state': 'normal', 'rot1': 242, 'rot0': 245, 'rot3': 31, 'rot2': 32, 'depth': 1.385, 'yaw': -4.61, 'datetime': '2018-11-26 12:34:09.650244', 'mgs': 0, 'flw2': 0.0, 'flw1': 0.0, 'flw0': 0.0, 'time': 18.6, 'compass': 155.96, 'pitch': -0.19, 'roll': 2.49}
{'lipoC2': 7.43, 'temp': 30.5, 'lipoC3S3': 11.59, 'state': 'normal', 'rot1': 242, 'rot0': 245, 'rot3': 31, 'rot2': 32, 'depth': 1.385, 'yaw': -3.83, 'datetime': '2018-11-26 12:34:09.858835', 'mgs': 0, 'flw2': 0.0, 'flw1': 0.0, 'flw0': 0.0, 'time': 18.82, 'compass': 156.74, 'pitch': 0.03, 'roll': -1.64}
{'lipoC2': 7.43, 'temp': 30.5, 'lipoC3S3': 11.59, 'state': 'normal', 'rot1': 242, 'rot0': 245, 'rot3': 31, 'rot2': 32, 'depth': 1.385, 'yaw': -2.96, 'datetime': '2018-11-26 12:34:10.072110', 'mgs': 0, 'flw2': 0.0, 'flw1': 0.0, 'flw0': 0.0, 'time': 19.02, 'compass': 157.61, 'pitch': 0.28, 'roll': -5.63}
{'lipoC2': 7.43, 'temp': 30.44, 'lipoC3S3': 11.6, 'state': 'normal', 'rot1': 242, 'rot0': 245, 'rot3': 31, 'rot2': 32, 'depth': 1.462, 'yaw': -2.06, 'datetime': '2018-11-26 12:34:10.285837', 'mgs': 0, 'flw2': 0.0, 'flw1': 0.0, 'flw0': 0.0, 'time': 19.24, 'compass': 158.51, 'pitch': 0.46, 'roll': -10.24}
{'lipoC2': 7.43, 'temp': 30.5, 'lipoC3S3': 11.59, 'state': 'normal', 'rot1': 242, 'rot0': 245, 'rot3': 31, 'rot2': 32, 'depth': 1.462, 'yaw': -1.16, 'datetime': '2018-11-26 12:34:10.494360', 'mgs': 0, 'flw2': 0.0, 'flw1': 0.0, 'flw0': 0.0, 'time': 19.45, 'compass': 159.41, 'pitch': 0.65, 'roll': -14.44}
{'lipoC2': 7.43, 'temp': 30.5, 'lipoC3S3': 11.6, 'state': 'normal', 'rot1': 242, 'rot0': 245, 'rot3': 31, 'rot2': 32, 'depth': 1.538, 'yaw': -0.25, 'datetime': '2018-11-26 12:34:10.705992', 'mgs': 0, 'flw2': 0.0, 'flw1': 0.0, 'flw0': 0.0, 'time': 19.66, 'compass': 160.32, 'pitch': 0.91, 'roll': -17.4}
{'lipoC2': 7.43, 'temp': 30.5, 'lipoC3S3': 11.59, 'state': 'normal', 'rot1': 242, 'rot0': 245, 'rot3': 31, 'rot2': 32, 'depth': 1.614, 'yaw': 0.65, 'datetime': '2018-11-26 12:34:10.915421', 'mgs': 0, 'flw2': 0.0, 'flw1': 0.0, 'flw0': 0.0, 'time': 19.87, 'compass': 161.22, 'pitch': 1.11, 'roll': -19.35}
{'lipoC2': 7.43, 'temp': 30.5, 'lipoC3S3': 11.6, 'state': 'normal', 'rot1': 242, 'rot0': 245, 'rot3': 31, 'rot2': 32, 'depth': 1.767, 'yaw': 1.59, 'datetime': '2018-11-26 12:34:11.127145', 'mgs': 0, 'flw2': 0.0, 'flw1': 0.0, 'flw0': 0.0, 'time': 20.08, 'compass': 162.16, 'pitch': 1.26, 'roll': -20.28}
{'lipoC2': 7.43, 'temp': 30.5, 'lipoC3S3': 11.6, 'state': 'normal', 'rot1': 242, 'rot0': 245, 'rot3': 31, 'rot2': 32, 'depth': 1.92, 'yaw': 2.54, 'datetime': '2018-11-26 12:34:11.335973', 'mgs': 0, 'flw2': 0.0, 'flw1': 0.0, 'flw0': 0.0, 'time': 20.29, 'compass': 163.11, 'pitch': 1.48, 'roll': -19.72}
{'lipoC2': 7.43, 'temp': 30.5, 'lipoC3S3': 11.61, 'state': 'normal', 'rot1': 242, 'rot0': 245, 'rot3': 31, 'rot2': 32, 'depth': 1.996, 'yaw': 3.53, 'datetime': '2018-11-26 12:34:11.549430', 'mgs': 0, 'flw2': 0.0, 'flw1': 0.0, 'flw0': 0.0, 'time': 20.5, 'compass': 164.1, 'pitch': 1.59, 'roll': -17.78}
{'lipoC2': 7.42, 'temp': 30.63, 'lipoC3S3': 11.6, 'state': 'normal', 'rot1': 242, 'rot0': 245, 'rot3': 31, 'rot2': 32, 'depth': 2.148, 'yaw': 4.35, 'datetime': '2018-11-26 12:34:11.756936', 'mgs': 0, 'flw2': 0.0, 'flw1': 0.0, 'flw0': 0.0, 'time': 20.71, 'compass': 164.92, 'pitch': 1.38, 'roll': -15.15}
{'lipoC2': 7.43, 'temp': 30.38, 'lipoC3S3': 11.61, 'state': 'normal', 'rot1': 242, 'rot0': 245, 'rot3': 31, 'rot2': 32, 'depth': 2.377, 'yaw': 5.0, 'datetime': '2018-11-26 12:34:11.966862', 'mgs': 0, 'flw2': 0.0, 'flw1': 0.0, 'flw0': 0.0, 'time': 20.92, 'compass': 165.56, 'pitch': 0.91, 'roll': -12.56}
{'lipoC2': 7.43, 'temp': 30.75, 'lipoC3S3': 11.61, 'state': 'normal', 'rot1': 242, 'rot0': 245, 'rot3': 31, 'rot2': 32, 'depth': 2.53, 'yaw': 5.46, 'datetime': '2018-11-26 12:34:12.180667', 'mgs': 0, 'flw2': 0.0, 'flw1': 0.0, 'flw0': 0.0, 'time': 21.13, 'compass': 166.03, 'pitch': 0.56, 'roll': -10.58}
{'lipoC2': 7.43, 'temp': 30.5, 'lipoC3S3': 11.61, 'state': 'normal', 'rot1': 242, 'rot0': 245, 'rot3': 31, 'rot2': 32, 'depth': 2.682, 'yaw': 5.77, 'datetime': '2018-11-26 12:34:12.390310', 'mgs': 0, 'flw2': 0.0, 'flw1': 0.0, 'flw0': 0.0, 'time': 21.34, 'compass': 166.34, 'pitch': 0.12, 'roll': -9.23}
{'lipoC2': 7.43, 'temp': 30.5, 'lipoC3S3': 11.61, 'state': 'normal', 'rot1': 242, 'rot0': 245, 'rot3': 31, 'rot2': 32, 'depth': 2.835, 'yaw': 5.89, 'datetime': '2018-11-26 12:34:12.598659', 'mgs': 0, 'flw2': 0.0, 'flw1': 0.0, 'flw0': 0.0, 'time': 21.55, 'compass': 166.46, 'pitch': -0.27, 'roll': -8.47}
{'lipoC2': 7.42, 'temp': 30.56, 'lipoC3S3': 11.61, 'state': 'normal', 'rot1': 242, 'rot0': 245, 'rot3': 31, 'rot2': 32, 'depth': 2.988, 'yaw': 5.9, 'datetime': '2018-11-26 12:34:12.810902', 'mgs': 0, 'flw2': 0.0, 'flw1': 0.0, 'flw0': 0.0, 'time': 21.76, 'compass': 166.47, 'pitch': -0.38, 'roll': -8.4}
{'lipoC2': 7.43, 'temp': 30.56, 'lipoC3S3': 11.61, 'state': 'normal', 'rot1': 242, 'rot0': 245, 'rot3': 31, 'rot2': 32, 'depth': 3.14, 'yaw': 5.88, 'datetime': '2018-11-26 12:34:13.020900', 'mgs': 0, 'flw2': 0.0, 'flw1': 0.0, 'flw0': 0.0, 'time': 21.98, 'compass': 166.45, 'pitch': -0.22, 'roll': -8.8}
{'lipoC2': 7.43, 'temp': 30.5, 'lipoC3S3': 11.61, 'state': 'normal', 'rot1': 242, 'rot0': 245, 'rot3': 31, 'rot2': 32, 'depth': 3.14, 'yaw': 5.81, 'datetime': '2018-11-26 12:34:13.232284', 'mgs': 0, 'flw2': 0.0, 'flw1': 0.0, 'flw0': 0.0, 'time': 22.18, 'compass': 166.38, 'pitch': 0.15, 'roll': -9.58}
{'lipoC2': 7.43, 'temp': 30.5, 'lipoC3S3': 11.61, 'state': 'normal', 'rot1': 242, 'rot0': 245, 'rot3': 31, 'rot2': 32, 'depth': 3.217, 'yaw': 5.59, 'datetime': '2018-11-26 12:34:13.439167', 'mgs': 0, 'flw2': 0.0, 'flw1': 0.0, 'flw0': 0.0, 'time': 22.4, 'compass': 166.15, 'pitch': 0.53, 'roll': -10.7}
{'lipoC2': 7.43, 'temp': 30.63, 'lipoC3S3': 11.63, 'state': 'normal', 'rot1': 242, 'rot0': 245, 'rot3': 31, 'rot2': 32, 'depth': 3.369, 'yaw': 5.27, 'datetime': '2018-11-26 12:34:13.649419', 'mgs': 0, 'flw2': 0.0, 'flw1': 0.0, 'flw0': 0.0, 'time': 22.61, 'compass': 165.84, 'pitch': 0.69, 'roll': -11.78}
{'lipoC2': 7.42, 'temp': 30.38, 'lipoC3S3': 11.63, 'state': 'normal', 'rot1': 242, 'rot0': 245, 'rot3': 31, 'rot2': 32, 'depth': 3.445, 'yaw': 4.96, 'datetime': '2018-11-26 12:34:13.860555', 'mgs': 0, 'flw2': 0.0, 'flw1': 0.0, 'flw0': 0.0, 'time': 22.82, 'compass': 165.52, 'pitch': 0.56, 'roll': -12.67}
{'lipoC2': 7.43, 'temp': 30.5, 'lipoC3S3': 11.63, 'state': 'normal', 'rot1': 242, 'rot0': 245, 'rot3': 31, 'rot2': 32, 'depth': 3.522, 'yaw': 4.68, 'datetime': '2018-11-26 12:34:14.074115', 'mgs': 0, 'flw2': 0.0, 'flw1': 0.0, 'flw0': 0.0, 'time': 23.03, 'compass': 165.25, 'pitch': 0.29, 'roll': -13.33}
{'lipoC2': 7.42, 'temp': 30.5, 'lipoC3S3': 11.63, 'state': 'normal', 'rot1': 242, 'rot0': 245, 'rot3': 31, 'rot2': 32, 'depth': 3.674, 'yaw': 4.46, 'datetime': '2018-11-26 12:34:14.280551', 'mgs': 0, 'flw2': 0.0, 'flw1': 0.0, 'flw0': 0.0, 'time': 23.24, 'compass': 165.02, 'pitch': -0.13, 'roll': -13.83}
{'lipoC2': 7.43, 'temp': 30.5, 'lipoC3S3': 11.63, 'state': 'normal', 'rot1': 242, 'rot0': 245, 'rot3': 31, 'rot2': 32, 'depth': 3.751, 'yaw': 4.27, 'datetime': '2018-11-26 12:34:14.490162', 'mgs': 0, 'flw2': 0.0, 'flw1': 0.0, 'flw0': 0.0, 'time': 23.45, 'compass': 164.84, 'pitch': -0.52, 'roll': -14.09}
{'lipoC2': 7.43, 'temp': 30.31, 'lipoC3S3': 11.63, 'state': 'normal', 'rot1': 242, 'rot0': 245, 'rot3': 31, 'rot2': 32, 'depth': 3.827, 'yaw': 4.16, 'datetime': '2018-11-26 12:34:14.701211', 'mgs': 0, 'flw2': 0.0, 'flw1': 0.0, 'flw0': 0.0, 'time': 23.66, 'compass': 164.73, 'pitch': -0.77, 'roll': -14.09}
{'lipoC2': 7.43, 'temp': 30.5, 'lipoC3S3': 11.63, 'state': 'normal', 'rot1': 242, 'rot0': 245, 'rot3': 31, 'rot2': 32, 'depth': 3.751, 'yaw': 4.15, 'datetime': '2018-11-26 12:34:14.912450', 'mgs': 0, 'flw2': 0.0, 'flw1': 0.0, 'flw0': 0.0, 'time': 23.87, 'compass': 164.71, 'pitch': -0.88, 'roll': -14.0}
{'lipoC2': 7.43, 'temp': 30.5, 'lipoC3S3': 11.61, 'state': 'normal', 'rot1': 242, 'rot0': 245, 'rot3': 31, 'rot2': 32, 'depth': 3.827, 'yaw': 4.04, 'datetime': '2018-11-26 12:34:15.121759', 'mgs': 0, 'flw2': 0.0, 'flw1': 0.0, 'flw0': 0.0, 'time': 24.08, 'compass': 164.61, 'pitch': -1.04, 'roll': -13.66}
{'lipoC2': 7.43, 'temp': 30.44, 'lipoC3S3': 11.63, 'state': 'normal', 'rot1': 242, 'rot0': 245, 'rot3': 31, 'rot2': 32, 'depth': 3.903, 'yaw': 3.82, 'datetime': '2018-11-26 12:34:15.335204', 'mgs': 0, 'flw2': 0.0, 'flw1': 0.0, 'flw0': 0.0, 'time': 24.29, 'compass': 164.39, 'pitch': -1.1, 'roll': -13.24}
{'lipoC2': 7.43, 'temp': 30.5, 'lipoC3S3': 11.63, 'state': 'normal', 'rot1': 242, 'rot0': 245, 'rot3': 31, 'rot2': 32, 'depth': 3.903, 'yaw': 3.58, 'datetime': '2018-11-26 12:34:15.546492', 'mgs': 0, 'flw2': 0.0, 'flw1': 0.0, 'flw0': 0.0, 'time': 24.5, 'compass': 164.14, 'pitch': -1.02, 'roll': -12.77}
{'lipoC2': 7.43, 'temp': 30.5, 'lipoC3S3': 11.63, 'state': 'normal', 'rot1': 242, 'rot0': 245, 'rot3': 31, 'rot2': 32, 'depth': 3.903, 'yaw': 3.33, 'datetime': '2018-11-26 12:34:15.753428', 'mgs': 0, 'flw2': 0.0, 'flw1': 0.0, 'flw0': 0.0, 'time': 24.71, 'compass': 163.9, 'pitch': -0.84, 'roll': -12.34}
{'lipoC2': 7.43, 'temp': 30.5, 'lipoC3S3': 11.63, 'state': 'normal', 'rot1': 242, 'rot0': 245, 'rot3': 31, 'rot2': 32, 'depth': 3.903, 'yaw': 3.23, 'datetime': '2018-11-26 12:34:15.964154', 'mgs': 0, 'flw2': 0.0, 'flw1': 0.0, 'flw0': 0.0, 'time': 24.92, 'compass': 163.79, 'pitch': -0.62, 'roll': -12.02}
{'lipoC2': 7.43, 'temp': 30.44, 'lipoC3S3': 11.63, 'state': 'normal', 'rot1': 242, 'rot0': 245, 'rot3': 31, 'rot2': 32, 'depth': 3.903, 'yaw': 3.18, 'datetime': '2018-11-26 12:34:16.173533', 'mgs': 0, 'flw2': 0.0, 'flw1': 0.0, 'flw0': 0.0, 'time': 25.13, 'compass': 163.74, 'pitch': -0.42, 'roll': -11.97}
{'lipoC2': 7.43, 'temp': 30.5, 'lipoC3S3': 11.63, 'state': 'normal', 'rot1': 242, 'rot0': 245, 'rot3': 31, 'rot2': 32, 'depth': 3.827, 'yaw': 3.17, 'datetime': '2018-11-26 12:34:16.385112', 'mgs': 0, 'flw2': 0.0, 'flw1': 0.0, 'flw0': 0.0, 'time': 25.34, 'compass': 163.74, 'pitch': -0.38, 'roll': -11.97}
{'lipoC2': 7.43, 'temp': 30.44, 'lipoC3S3': 11.63, 'state': 'normal', 'rot1': 242, 'rot0': 245, 'rot3': 31, 'rot2': 32, 'depth': 3.827, 'yaw': 3.19, 'datetime': '2018-11-26 12:34:16.597008', 'mgs': 0, 'flw2': 0.0, 'flw1': 0.0, 'flw0': 0.0, 'time': 25.56, 'compass': 163.76, 'pitch': -0.47, 'roll': -11.94}
{'lipoC2': 7.43, 'temp': 30.38, 'lipoC3S3': 11.63, 'state': 'normal', 'rot1': 242, 'rot0': 245, 'rot3': 31, 'rot2': 32, 'depth': 3.827, 'yaw': 3.24, 'datetime': '2018-11-26 12:34:16.807395', 'mgs': 0, 'flw2': 0.0, 'flw1': 0.0, 'flw0': 0.0, 'time': 25.77, 'compass': 163.8, 'pitch': -0.74, 'roll': -11.58}
{'lipoC2': 7.43, 'temp': 30.5, 'lipoC3S3': 11.63, 'state': 'normal', 'rot1': 242, 'rot0': 245, 'rot3': 31, 'rot2': 32, 'depth': 3.751, 'yaw': 3.22, 'datetime': '2018-11-26 12:34:17.019228', 'mgs': 0, 'flw2': 0.0, 'flw1': 0.0, 'flw0': 0.0, 'time': 25.98, 'compass': 163.78, 'pitch': -1.09, 'roll': -11.02}
{'lipoC2': 7.43, 'temp': 30.56, 'lipoC3S3': 11.64, 'state': 'normal', 'rot1': 242, 'rot0': 245, 'rot3': 31, 'rot2': 32, 'depth': 3.674, 'yaw': 3.21, 'datetime': '2018-11-26 12:34:17.229686', 'mgs': 0, 'flw2': 0.0, 'flw1': 0.0, 'flw0': 0.0, 'time': 26.19, 'compass': 163.77, 'pitch': -1.39, 'roll': -10.34}
{'lipoC2': 7.43, 'temp': 30.56, 'lipoC3S3': 11.63, 'state': 'normal', 'rot1': 242, 'rot0': 245, 'rot3': 31, 'rot2': 32, 'depth': 3.598, 'yaw': 3.24, 'datetime': '2018-11-26 12:34:17.439330', 'mgs': 0, 'flw2': 0.0, 'flw1': 0.0, 'flw0': 0.0, 'time': 26.4, 'compass': 163.8, 'pitch': -1.56, 'roll': -9.56}
{'lipoC2': 7.42, 'temp': 30.44, 'lipoC3S3': 11.63, 'state': 'normal', 'rot1': 242, 'rot0': 245, 'rot3': 31, 'rot2': 32, 'depth': 3.522, 'yaw': 3.24, 'datetime': '2018-11-26 12:34:17.652348', 'mgs': 0, 'flw2': 0.0, 'flw1': 0.0, 'flw0': 0.0, 'time': 26.61, 'compass': 163.8, 'pitch': -1.56, 'roll': -8.85}
{'lipoC2': 7.43, 'temp': 30.5, 'lipoC3S3': 11.63, 'state': 'normal', 'rot1': 242, 'rot0': 245, 'rot3': 31, 'rot2': 32, 'depth': 3.445, 'yaw': 3.23, 'datetime': '2018-11-26 12:34:17.861444', 'mgs': 0, 'flw2': 0.0, 'flw1': 0.0, 'flw0': 0.0, 'time': 26.82, 'compass': 163.79, 'pitch': -1.55, 'roll': -8.31}
{'lipoC2': 7.43, 'temp': 30.44, 'lipoC3S3': 11.64, 'state': 'normal', 'rot1': 242, 'rot0': 245, 'rot3': 31, 'rot2': 32, 'depth': 3.369, 'yaw': 3.22, 'datetime': '2018-11-26 12:34:18.070969', 'mgs': 0, 'flw2': 0.0, 'flw1': 0.0, 'flw0': 0.0, 'time': 27.03, 'compass': 163.79, 'pitch': -1.52, 'roll': -8.06}
{'lipoC2': 7.43, 'temp': 30.5, 'lipoC3S3': 11.63, 'state': 'normal', 'rot1': 242, 'rot0': 245, 'rot3': 31, 'rot2': 32, 'depth': 3.293, 'yaw': 3.06, 'datetime': '2018-11-26 12:34:18.281453', 'mgs': 0, 'flw2': 0.0, 'flw1': 0.0, 'flw0': 0.0, 'time': 27.24, 'compass': 163.63, 'pitch': -1.52, 'roll': -8.02}
{'lipoC2': 7.43, 'temp': 30.44, 'lipoC3S3': 11.64, 'state': 'normal', 'rot1': 242, 'rot0': 245, 'rot3': 31, 'rot2': 32, 'depth': 3.14, 'yaw': 2.83, 'datetime': '2018-11-26 12:34:18.492184', 'mgs': 0, 'flw2': 0.0, 'flw1': 0.0, 'flw0': 0.0, 'time': 27.45, 'compass': 163.4, 'pitch': -1.51, 'roll': -8.23}
{'lipoC2': 7.43, 'temp': 30.44, 'lipoC3S3': 11.64, 'state': 'normal', 'rot1': 242, 'rot0': 245, 'rot3': 31, 'rot2': 32, 'depth': 2.988, 'yaw': 2.56, 'datetime': '2018-11-26 12:34:18.703378', 'mgs': 0, 'flw2': 0.0, 'flw1': 0.0, 'flw0': 0.0, 'time': 27.66, 'compass': 163.13, 'pitch': -1.52, 'roll': -8.62}
{'lipoC2': 7.43, 'temp': 30.5, 'lipoC3S3': 11.64, 'state': 'normal', 'rot1': 242, 'rot0': 245, 'rot3': 31, 'rot2': 32, 'depth': 2.835, 'yaw': 2.26, 'datetime': '2018-11-26 12:34:18.917465', 'mgs': 0, 'flw2': 0.0, 'flw1': 0.0, 'flw0': 0.0, 'time': 27.88, 'compass': 162.82, 'pitch': -1.55, 'roll': -9.15}
{'lipoC2': 7.43, 'temp': 30.5, 'lipoC3S3': 11.64, 'state': 'normal', 'rot1': 242, 'rot0': 245, 'rot3': 31, 'rot2': 32, 'depth': 2.682, 'yaw': 1.92, 'datetime': '2018-11-26 12:34:19.127688', 'mgs': 0, 'flw2': 0.0, 'flw1': 0.0, 'flw0': 0.0, 'time': 28.09, 'compass': 162.49, 'pitch': -1.59, 'roll': -9.72}
{'lipoC2': 7.43, 'temp': 30.44, 'lipoC3S3': 11.63, 'state': 'normal', 'rot1': 242, 'rot0': 245, 'rot3': 31, 'rot2': 32, 'depth': 2.606, 'yaw': 1.6, 'datetime': '2018-11-26 12:34:19.333265', 'mgs': 0, 'flw2': 0.0, 'flw1': 0.0, 'flw0': 0.0, 'time': 28.3, 'compass': 162.17, 'pitch': -1.63, 'roll': -10.07}
{'lipoC2': 7.43, 'temp': 30.56, 'lipoC3S3': 11.64, 'state': 'normal', 'rot1': 242, 'rot0': 245, 'rot3': 31, 'rot2': 32, 'depth': 2.454, 'yaw': 1.26, 'datetime': '2018-11-26 12:34:19.545253', 'mgs': 0, 'flw2': 0.0, 'flw1': 0.0, 'flw0': 0.0, 'time': 28.51, 'compass': 161.83, 'pitch': -1.63, 'roll': -10.06}
{'lipoC2': 7.42, 'temp': 30.56, 'lipoC3S3': 11.63, 'state': 'normal', 'rot1': 242, 'rot0': 245, 'rot3': 31, 'rot2': 32, 'depth': 2.301, 'yaw': 0.89, 'datetime': '2018-11-26 12:34:19.754047', 'mgs': 0, 'flw2': 0.0, 'flw1': 0.0, 'flw0': 0.0, 'time': 28.72, 'compass': 161.46, 'pitch': -1.66, 'roll': -9.91}
{'lipoC2': 7.43, 'temp': 30.5, 'lipoC3S3': 11.63, 'state': 'normal', 'rot1': 242, 'rot0': 245, 'rot3': 31, 'rot2': 32, 'depth': 2.148, 'yaw': 0.48, 'datetime': '2018-11-26 12:34:19.965073', 'mgs': 0, 'flw2': 0.0, 'flw1': 0.0, 'flw0': 0.0, 'time': 28.93, 'compass': 161.04, 'pitch': -1.69, 'roll': -9.78}
{'lipoC2': 7.43, 'temp': 30.44, 'lipoC3S3': 11.64, 'state': 'normal', 'rot1': 242, 'rot0': 245, 'rot3': 31, 'rot2': 32, 'depth': 2.148, 'yaw': 0.07, 'datetime': '2018-11-26 12:34:20.175497', 'mgs': 0, 'flw2': 0.0, 'flw1': 0.0, 'flw0': 0.0, 'time': 29.14, 'compass': 160.64, 'pitch': -1.71, 'roll': -9.65}
{'lipoC2': 7.43, 'temp': 30.5, 'lipoC3S3': 11.64, 'state': 'normal', 'rot1': 242, 'rot0': 245, 'rot3': 31, 'rot2': 32, 'depth': 2.072, 'yaw': -0.27, 'datetime': '2018-11-26 12:34:20.384791', 'mgs': 0, 'flw2': 0.0, 'flw1': 0.0, 'flw0': 0.0, 'time': 29.35, 'compass': 160.3, 'pitch': -1.73, 'roll': -9.47}
{'lipoC2': 7.43, 'temp': 30.5, 'lipoC3S3': 11.64, 'state': 'normal', 'rot1': 242, 'rot0': 245, 'rot3': 31, 'rot2': 32, 'depth': 1.92, 'yaw': -0.59, 'datetime': '2018-11-26 12:34:20.595460', 'mgs': 0, 'flw2': 0.0, 'flw1': 0.0, 'flw0': 0.0, 'time': 29.56, 'compass': 159.98, 'pitch': -1.75, 'roll': -9.02}
{'lipoC2': 7.43, 'temp': 30.5, 'lipoC3S3': 11.64, 'state': 'normal', 'rot1': 242, 'rot0': 245, 'rot3': 31, 'rot2': 32, 'depth': 1.843, 'yaw': -0.91, 'datetime': '2018-11-26 12:34:20.805316', 'mgs': 0, 'flw2': 0.0, 'flw1': 0.0, 'flw0': 0.0, 'time': 29.77, 'compass': 159.65, 'pitch': -1.77, 'roll': -8.37}
{'lipoC2': 7.43, 'temp': 30.5, 'lipoC3S3': 11.64, 'state': 'normal', 'rot1': 242, 'rot0': 245, 'rot3': 31, 'rot2': 32, 'depth': 1.767, 'yaw': -1.27, 'datetime': '2018-11-26 12:34:21.016323', 'mgs': 0, 'flw2': 0.0, 'flw1': 0.0, 'flw0': 0.0, 'time': 29.98, 'compass': 159.29, 'pitch': -1.78, 'roll': -7.75}
{'lipoC2': 7.43, 'temp': 30.5, 'lipoC3S3': 11.64, 'state': 'normal', 'rot1': 242, 'rot0': 245, 'rot3': 31, 'rot2': 32, 'depth': 1.691, 'yaw': -1.59, 'datetime': '2018-11-26 12:34:21.226775', 'mgs': 0, 'flw2': 0.0, 'flw1': 0.0, 'flw0': 0.0, 'time': 30.19, 'compass': 158.97, 'pitch': -1.79, 'roll': -7.29}
{'lipoC2': 7.43, 'temp': 30.5, 'lipoC3S3': 11.64, 'state': 'normal', 'rot1': 242, 'rot0': 245, 'rot3': 31, 'rot2': 32, 'depth': 1.767, 'yaw': -1.85, 'datetime': '2018-11-26 12:34:21.436082', 'mgs': 0, 'flw2': 0.0, 'flw1': 0.0, 'flw0': 0.0, 'time': 30.4, 'compass': 158.72, 'pitch': -1.79, 'roll': -6.75}
{'lipoC2': 7.42, 'temp': 30.5, 'lipoC3S3': 11.64, 'state': 'normal', 'rot1': 242, 'rot0': 245, 'rot3': 31, 'rot2': 32, 'depth': 1.538, 'yaw': -2.08, 'datetime': '2018-11-26 12:34:21.646768', 'mgs': 0, 'flw2': 0.0, 'flw1': 0.0, 'flw0': 0.0, 'time': 30.61, 'compass': 158.49, 'pitch': -1.7, 'roll': -6.25}
{'lipoC2': 7.43, 'temp': 30.5, 'lipoC3S3': 11.64, 'state': 'normal', 'rot1': 242, 'rot0': 245, 'rot3': 31, 'rot2': 32, 'depth': 1.614, 'yaw': -2.22, 'datetime': '2018-11-26 12:34:21.857292', 'mgs': 0, 'flw2': 0.0, 'flw1': 0.0, 'flw0': 0.0, 'time': 30.82, 'compass': 158.35, 'pitch': -1.65, 'roll': -6.06}
{'lipoC2': 7.42, 'temp': 30.44, 'lipoC3S3': 11.64, 'state': 'normal', 'rot1': 242, 'rot0': 245, 'rot3': 31, 'rot2': 32, 'depth': 1.538, 'yaw': -2.24, 'datetime': '2018-11-26 12:34:22.067071', 'mgs': 0, 'flw2': 0.0, 'flw1': 0.0, 'flw0': 0.0, 'time': 31.03, 'compass': 158.33, 'pitch': -1.59, 'roll': -5.89}
{'lipoC2': 7.43, 'temp': 30.44, 'lipoC3S3': 11.64, 'state': 'normal', 'rot1': 242, 'rot0': 245, 'rot3': 31, 'rot2': 32, 'depth': 1.538, 'yaw': -2.24, 'datetime': '2018-11-26 12:34:22.277918', 'mgs': 0, 'flw2': 0.0, 'flw1': 0.0, 'flw0': 0.0, 'time': 31.24, 'compass': 158.33, 'pitch': -1.52, 'roll': -5.81}
{'lipoC2': 7.43, 'temp': 30.44, 'lipoC3S3': 11.64, 'state': 'normal', 'rot1': 242, 'rot0': 245, 'rot3': 31, 'rot2': 32, 'depth': 1.538, 'yaw': -2.25, 'datetime': '2018-11-26 12:34:22.488347', 'mgs': 0, 'flw2': 0.0, 'flw1': 0.0, 'flw0': 0.0, 'time': 31.45, 'compass': 158.32, 'pitch': -1.46, 'roll': -5.92}
{'lipoC2': 7.42, 'temp': 30.5, 'lipoC3S3': 11.64, 'state': 'normal', 'rot1': 242, 'rot0': 245, 'rot3': 31, 'rot2': 32, 'depth': 1.538, 'yaw': -2.35, 'datetime': '2018-11-26 12:34:22.698042', 'mgs': 0, 'flw2': 0.0, 'flw1': 0.0, 'flw0': 0.0, 'time': 31.67, 'compass': 158.22, 'pitch': -1.39, 'roll': -6.08}
{'lipoC2': 7.42, 'temp': 30.25, 'lipoC3S3': 11.64, 'state': 'normal', 'rot1': 242, 'rot0': 245, 'rot3': 31, 'rot2': 32, 'depth': 1.614, 'yaw': -2.43, 'datetime': '2018-11-26 12:34:22.908623', 'mgs': 0, 'flw2': 0.0, 'flw1': 0.0, 'flw0': 0.0, 'time': 31.88, 'compass': 158.13, 'pitch': -1.36, 'roll': -6.16}
{'lipoC2': 7.42, 'temp': 30.5, 'lipoC3S3': 11.64, 'state': 'normal', 'rot1': 242, 'rot0': 245, 'rot3': 31, 'rot2': 32, 'depth': 1.614, 'yaw': -2.43, 'datetime': '2018-11-26 12:34:23.119192', 'mgs': 0, 'flw2': 0.0, 'flw1': 0.0, 'flw0': 0.0, 'time': 32.09, 'compass': 158.14, 'pitch': -1.38, 'roll': -6.08}
{'lipoC2': 7.43, 'temp': 30.44, 'lipoC3S3': 11.64, 'state': 'normal', 'rot1': 242, 'rot0': 245, 'rot3': 31, 'rot2': 32, 'depth': 1.691, 'yaw': -2.44, 'datetime': '2018-11-26 12:34:23.329183', 'mgs': 0, 'flw2': 0.0, 'flw1': 0.0, 'flw0': 0.0, 'time': 32.3, 'compass': 158.13, 'pitch': -1.35, 'roll': -6.14}
{'lipoC2': 7.43, 'temp': 30.5, 'lipoC3S3': 11.64, 'state': 'normal', 'rot1': 242, 'rot0': 245, 'rot3': 31, 'rot2': 32, 'depth': 1.691, 'yaw': -2.43, 'datetime': '2018-11-26 12:34:23.539872', 'mgs': 0, 'flw2': 0.0, 'flw1': 0.0, 'flw0': 0.0, 'time': 32.51, 'compass': 158.13, 'pitch': -1.33, 'roll': -6.35}
{'lipoC2': 7.43, 'temp': 30.5, 'lipoC3S3': 11.64, 'state': 'normal', 'rot1': 242, 'rot0': 245, 'rot3': 31, 'rot2': 32, 'depth': 1.767, 'yaw': -2.44, 'datetime': '2018-11-26 12:34:23.749362', 'mgs': 0, 'flw2': 0.0, 'flw1': 0.0, 'flw0': 0.0, 'time': 32.72, 'compass': 158.12, 'pitch': -1.33, 'roll': -6.53}
{'lipoC2': 7.43, 'temp': 30.5, 'lipoC3S3': 11.64, 'state': 'normal', 'rot1': 242, 'rot0': 245, 'rot3': 31, 'rot2': 32, 'depth': 1.843, 'yaw': -2.44, 'datetime': '2018-11-26 12:34:23.960408', 'mgs': 0, 'flw2': 0.0, 'flw1': 0.0, 'flw0': 0.0, 'time': 32.93, 'compass': 158.12, 'pitch': -1.32, 'roll': -6.72}
{'lipoC2': 7.43, 'temp': 30.44, 'lipoC3S3': 11.64, 'state': 'normal', 'rot1': 242, 'rot0': 245, 'rot3': 31, 'rot2': 32, 'depth': 1.843, 'yaw': -2.45, 'datetime': '2018-11-26 12:34:24.171144', 'mgs': 0, 'flw2': 0.0, 'flw1': 0.0, 'flw0': 0.0, 'time': 33.14, 'compass': 158.11, 'pitch': -1.26, 'roll': -6.9}
{'lipoC2': 7.42, 'temp': 30.5, 'lipoC3S3': 11.65, 'state': 'normal', 'rot1': 242, 'rot0': 245, 'rot3': 31, 'rot2': 32, 'depth': 1.92, 'yaw': -2.49, 'datetime': '2018-11-26 12:34:24.381058', 'mgs': 0, 'flw2': 0.0, 'flw1': 0.0, 'flw0': 0.0, 'time': 33.35, 'compass': 158.08, 'pitch': -1.16, 'roll': -7.08}
{'lipoC2': 7.43, 'temp': 30.44, 'lipoC3S3': 11.65, 'state': 'normal', 'rot1': 242, 'rot0': 245, 'rot3': 31, 'rot2': 32, 'depth': 1.92, 'yaw': -2.51, 'datetime': '2018-11-26 12:34:24.591763', 'mgs': 0, 'flw2': 0.0, 'flw1': 0.0, 'flw0': 0.0, 'time': 33.56, 'compass': 158.06, 'pitch': -1.16, 'roll': -7.36}
{'lipoC2': 7.43, 'temp': 30.5, 'lipoC3S3': 11.64, 'state': 'normal', 'rot1': 242, 'rot0': 245, 'rot3': 31, 'rot2': 32, 'depth': 1.996, 'yaw': -2.61, 'datetime': '2018-11-26 12:34:24.801177', 'mgs': 0, 'flw2': 0.0, 'flw1': 0.0, 'flw0': 0.0, 'time': 33.77, 'compass': 157.96, 'pitch': -1.16, 'roll': -7.72}
{'lipoC2': 7.43, 'temp': 30.5, 'lipoC3S3': 11.64, 'state': 'normal', 'rot1': 242, 'rot0': 245, 'rot3': 31, 'rot2': 32, 'depth': 2.072, 'yaw': -2.65, 'datetime': '2018-11-26 12:34:25.012359', 'mgs': 0, 'flw2': 0.0, 'flw1': 0.0, 'flw0': 0.0, 'time': 33.98, 'compass': 157.92, 'pitch': -1.15, 'roll': -7.93}
{'lipoC2': 7.43, 'temp': 30.5, 'lipoC3S3': 11.65, 'state': 'normal', 'rot1': 242, 'rot0': 245, 'rot3': 31, 'rot2': 32, 'depth': 2.148, 'yaw': -2.65, 'datetime': '2018-11-26 12:34:25.226154', 'mgs': 0, 'flw2': 0.0, 'flw1': 0.0, 'flw0': 0.0, 'time': 34.19, 'compass': 157.92, 'pitch': -1.14, 'roll': -8.12}
{'lipoC2': 7.42, 'temp': 30.5, 'lipoC3S3': 11.65, 'state': 'normal', 'rot1': 242, 'rot0': 245, 'rot3': 31, 'rot2': 32, 'depth': 2.148, 'yaw': -2.65, 'datetime': '2018-11-26 12:34:25.439019', 'mgs': 0, 'flw2': 0.0, 'flw1': 0.0, 'flw0': 0.0, 'time': 34.4, 'compass': 157.92, 'pitch': -1.14, 'roll': -8.42}
{'lipoC2': 7.43, 'temp': 30.5, 'lipoC3S3': 11.65, 'state': 'normal', 'rot1': 242, 'rot0': 245, 'rot3': 31, 'rot2': 32, 'depth': 2.148, 'yaw': -2.65, 'datetime': '2018-11-26 12:34:25.648496', 'mgs': 0, 'flw2': 0.0, 'flw1': 0.0, 'flw0': 0.0, 'time': 34.61, 'compass': 157.91, 'pitch': -1.14, 'roll': -8.68}
{'lipoC2': 7.42, 'temp': 30.5, 'lipoC3S3': 11.64, 'state': 'normal', 'rot1': 242, 'rot0': 245, 'rot3': 31, 'rot2': 32, 'depth': 2.225, 'yaw': -2.65, 'datetime': '2018-11-26 12:34:25.859351', 'mgs': 0, 'flw2': 0.0, 'flw1': 0.0, 'flw0': 0.0, 'time': 34.82, 'compass': 157.92, 'pitch': -1.14, 'roll': -8.67}
{'lipoC2': 7.43, 'temp': 30.5, 'lipoC3S3': 11.64, 'state': 'normal', 'rot1': 242, 'rot0': 245, 'rot3': 31, 'rot2': 32, 'depth': 2.225, 'yaw': -2.65, 'datetime': '2018-11-26 12:34:26.071494', 'mgs': 0, 'flw2': 0.0, 'flw1': 0.0, 'flw0': 0.0, 'time': 35.03, 'compass': 157.92, 'pitch': -1.14, 'roll': -8.45}
{'lipoC2': 7.43, 'temp': 30.5, 'lipoC3S3': 11.64, 'state': 'normal', 'rot1': 242, 'rot0': 245, 'rot3': 31, 'rot2': 32, 'depth': 2.301, 'yaw': -2.65, 'datetime': '2018-11-26 12:34:26.281776', 'mgs': 0, 'flw2': 0.0, 'flw1': 0.0, 'flw0': 0.0, 'time': 35.25, 'compass': 157.92, 'pitch': -1.13, 'roll': -8.24}
{'lipoC2': 7.43, 'temp': 30.5, 'lipoC3S3': 11.64, 'state': 'normal', 'rot1': 242, 'rot0': 245, 'rot3': 31, 'rot2': 32, 'depth': 2.377, 'yaw': -2.65, 'datetime': '2018-11-26 12:34:26.489932', 'mgs': 0, 'flw2': 0.0, 'flw1': 0.0, 'flw0': 0.0, 'time': 35.46, 'compass': 157.92, 'pitch': -1.12, 'roll': -8.13}
{'lipoC2': 7.43, 'temp': 30.44, 'lipoC3S3': 11.65, 'state': 'normal', 'rot1': 242, 'rot0': 245, 'rot3': 31, 'rot2': 32, 'depth': 2.377, 'yaw': -2.65, 'datetime': '2018-11-26 12:34:26.705043', 'mgs': 0, 'flw2': 0.0, 'flw1': 0.0, 'flw0': 0.0, 'time': 35.67, 'compass': 157.91, 'pitch': -1.12, 'roll': -8.11}
{'lipoC2': 7.43, 'temp': 30.44, 'lipoC3S3': 11.65, 'state': 'normal', 'rot1': 242, 'rot0': 245, 'rot3': 31, 'rot2': 32, 'depth': 2.377, 'yaw': -2.65, 'datetime': '2018-11-26 12:34:26.915048', 'mgs': 0, 'flw2': 0.0, 'flw1': 0.0, 'flw0': 0.0, 'time': 35.88, 'compass': 157.92, 'pitch': -1.12, 'roll': -8.06}
{'lipoC2': 7.43, 'temp': 30.44, 'lipoC3S3': 11.64, 'state': 'normal', 'rot1': 242, 'rot0': 245, 'rot3': 31, 'rot2': 32, 'depth': 2.454, 'yaw': -2.66, 'datetime': '2018-11-26 12:34:27.123228', 'mgs': 0, 'flw2': 0.0, 'flw1': 0.0, 'flw0': 0.0, 'time': 36.09, 'compass': 157.91, 'pitch': -1.09, 'roll': -7.92}
{'lipoC2': 7.42, 'temp': 30.5, 'lipoC3S3': 11.64, 'state': 'normal', 'rot1': 242, 'rot0': 245, 'rot3': 31, 'rot2': 32, 'depth': 2.454, 'yaw': -2.66, 'datetime': '2018-11-26 12:34:27.334249', 'mgs': 0, 'flw2': 0.0, 'flw1': 0.0, 'flw0': 0.0, 'time': 36.3, 'compass': 157.91, 'pitch': -1.07, 'roll': -7.82}
{'lipoC2': 7.42, 'temp': 30.5, 'lipoC3S3': 11.64, 'state': 'normal', 'rot1': 242, 'rot0': 245, 'rot3': 31, 'rot2': 32, 'depth': 2.53, 'yaw': -2.75, 'datetime': '2018-11-26 12:34:27.545188', 'mgs': 0, 'flw2': 0.0, 'flw1': 0.0, 'flw0': 0.0, 'time': 36.51, 'compass': 157.82, 'pitch': -1.13, 'roll': -7.87}
{'lipoC2': 7.43, 'temp': 30.5, 'lipoC3S3': 11.65, 'state': 'normal', 'rot1': 242, 'rot0': 245, 'rot3': 31, 'rot2': 32, 'depth': 2.53, 'yaw': -2.83, 'datetime': '2018-11-26 12:34:27.754302', 'mgs': 0, 'flw2': 0.0, 'flw1': 0.0, 'flw0': 0.0, 'time': 36.72, 'compass': 157.74, 'pitch': -1.21, 'roll': -7.97}
{'lipoC2': 7.43, 'temp': 30.5, 'lipoC3S3': 11.64, 'state': 'normal', 'rot1': 242, 'rot0': 245, 'rot3': 31, 'rot2': 32, 'depth': 2.606, 'yaw': -2.96, 'datetime': '2018-11-26 12:34:27.965160', 'mgs': 0, 'flw2': 0.0, 'flw1': 0.0, 'flw0': 0.0, 'time': 36.93, 'compass': 157.61, 'pitch': -1.32, 'roll': -7.98}
{'lipoC2': 7.42, 'temp': 30.5, 'lipoC3S3': 11.65, 'state': 'normal', 'rot1': 242, 'rot0': 245, 'rot3': 31, 'rot2': 32, 'depth': 2.53, 'yaw': -3.11, 'datetime': '2018-11-26 12:34:28.176707', 'mgs': 0, 'flw2': 0.0, 'flw1': 0.0, 'flw0': 0.0, 'time': 37.14, 'compass': 157.45, 'pitch': -1.37, 'roll': -7.98}
{'lipoC2': 7.43, 'temp': 30.5, 'lipoC3S3': 11.65, 'state': 'normal', 'rot1': 242, 'rot0': 245, 'rot3': 31, 'rot2': 32, 'depth': 2.606, 'yaw': -3.27, 'datetime': '2018-11-26 12:34:28.387067', 'mgs': 0, 'flw2': 0.0, 'flw1': 0.0, 'flw0': 0.0, 'time': 37.35, 'compass': 157.29, 'pitch': -1.4, 'roll': -7.97}
{'lipoC2': 7.43, 'temp': 30.5, 'lipoC3S3': 11.65, 'state': 'normal', 'rot1': 242, 'rot0': 245, 'rot3': 31, 'rot2': 32, 'depth': 2.606, 'yaw': -3.46, 'datetime': '2018-11-26 12:34:28.597641', 'mgs': 0, 'flw2': 0.0, 'flw1': 0.0, 'flw0': 0.0, 'time': 37.57, 'compass': 157.11, 'pitch': -1.42, 'roll': -7.9}
{'lipoC2': 7.43, 'temp': 30.5, 'lipoC3S3': 11.64, 'state': 'normal', 'rot1': 242, 'rot0': 245, 'rot3': 31, 'rot2': 32, 'depth': 2.682, 'yaw': -3.65, 'datetime': '2018-11-26 12:34:28.807977', 'mgs': 0, 'flw2': 0.0, 'flw1': 0.0, 'flw0': 0.0, 'time': 37.78, 'compass': 156.91, 'pitch': -1.44, 'roll': -7.89}
{'lipoC2': 7.43, 'temp': 30.44, 'lipoC3S3': 11.65, 'state': 'normal', 'rot1': 242, 'rot0': 245, 'rot3': 31, 'rot2': 32, 'depth': 2.606, 'yaw': -3.87, 'datetime': '2018-11-26 12:34:29.019612', 'mgs': 0, 'flw2': 0.0, 'flw1': 0.0, 'flw0': 0.0, 'time': 37.99, 'compass': 156.69, 'pitch': -1.36, 'roll': -7.89}
{'lipoC2': 7.43, 'temp': 30.5, 'lipoC3S3': 11.65, 'state': 'normal', 'rot1': 242, 'rot0': 245, 'rot3': 31, 'rot2': 32, 'depth': 2.53, 'yaw': -4.06, 'datetime': '2018-11-26 12:34:29.230071', 'mgs': 0, 'flw2': 0.0, 'flw1': 0.0, 'flw0': 0.0, 'time': 38.2, 'compass': 156.5, 'pitch': -1.37, 'roll': -7.84}
{'lipoC2': 7.43, 'temp': 30.5, 'lipoC3S3': 11.65, 'state': 'normal', 'rot1': 242, 'rot0': 245, 'rot3': 31, 'rot2': 32, 'depth': 2.606, 'yaw': -4.27, 'datetime': '2018-11-26 12:34:29.438717', 'mgs': 0, 'flw2': 0.0, 'flw1': 0.0, 'flw0': 0.0, 'time': 38.41, 'compass': 156.29, 'pitch': -1.36, 'roll': -7.72}
{'lipoC2': 7.43, 'temp': 30.5, 'lipoC3S3': 11.65, 'state': 'normal', 'rot1': 242, 'rot0': 245, 'rot3': 31, 'rot2': 32, 'depth': 2.606, 'yaw': -4.48, 'datetime': '2018-11-26 12:34:29.648483', 'mgs': 0, 'flw2': 0.0, 'flw1': 0.0, 'flw0': 0.0, 'time': 38.62, 'compass': 156.09, 'pitch': -1.35, 'roll': -7.61}
{'lipoC2': 7.43, 'temp': 30.44, 'lipoC3S3': 11.65, 'state': 'normal', 'rot1': 242, 'rot0': 245, 'rot3': 31, 'rot2': 32, 'depth': 2.53, 'yaw': -4.66, 'datetime': '2018-11-26 12:34:29.859242', 'mgs': 0, 'flw2': 0.0, 'flw1': 0.0, 'flw0': 0.0, 'time': 38.83, 'compass': 155.91, 'pitch': -1.33, 'roll': -7.52}
{'lipoC2': 7.43, 'temp': 30.5, 'lipoC3S3': 11.65, 'state': 'normal', 'rot1': 242, 'rot0': 245, 'rot3': 31, 'rot2': 32, 'depth': 2.606, 'yaw': -4.86, 'datetime': '2018-11-26 12:34:30.070037', 'mgs': 0, 'flw2': 0.0, 'flw1': 0.0, 'flw0': 0.0, 'time': 39.04, 'compass': 155.71, 'pitch': -1.32, 'roll': -7.45}
{'lipoC2': 7.43, 'temp': 30.5, 'lipoC3S3': 11.65, 'state': 'normal', 'rot1': 242, 'rot0': 245, 'rot3': 31, 'rot2': 32, 'depth': 2.53, 'yaw': -5.0, 'datetime': '2018-11-26 12:34:30.279977', 'mgs': 0, 'flw2': 0.0, 'flw1': 0.0, 'flw0': 0.0, 'time': 39.25, 'compass': 155.56, 'pitch': -1.3, 'roll': -7.4}
{'lipoC2': 7.43, 'temp': 30.44, 'lipoC3S3': 11.65, 'state': 'normal', 'rot1': 242, 'rot0': 245, 'rot3': 31, 'rot2': 32, 'depth': 2.53, 'yaw': -5.04, 'datetime': '2018-11-26 12:34:30.490875', 'mgs': 0, 'flw2': 0.0, 'flw1': 0.0, 'flw0': 0.0, 'time': 39.46, 'compass': 155.53, 'pitch': -1.29, 'roll': -7.36}
{'lipoC2': 7.43, 'temp': 30.44, 'lipoC3S3': 11.65, 'state': 'normal', 'rot1': 242, 'rot0': 245, 'rot3': 31, 'rot2': 32, 'depth': 2.53, 'yaw': -5.04, 'datetime': '2018-11-26 12:34:30.701641', 'mgs': 0, 'flw2': 0.0, 'flw1': 0.0, 'flw0': 0.0, 'time': 39.67, 'compass': 155.53, 'pitch': -1.29, 'roll': -7.35}
{'lipoC2': 7.42, 'temp': 30.5, 'lipoC3S3': 11.64, 'state': 'normal', 'rot1': 242, 'rot0': 245, 'rot3': 31, 'rot2': 32, 'depth': 2.454, 'yaw': -5.04, 'datetime': '2018-11-26 12:34:30.916935', 'mgs': 0, 'flw2': 0.0, 'flw1': 0.0, 'flw0': 0.0, 'time': 39.89, 'compass': 155.53, 'pitch': -1.29, 'roll': -7.35}
{'lipoC2': 7.43, 'temp': 30.44, 'lipoC3S3': 11.64, 'state': 'normal', 'rot1': 242, 'rot0': 245, 'rot3': 31, 'rot2': 32, 'depth': 2.377, 'yaw': -5.04, 'datetime': '2018-11-26 12:34:31.125148', 'mgs': 0, 'flw2': 0.0, 'flw1': 0.0, 'flw0': 0.0, 'time': 40.1, 'compass': 155.53, 'pitch': -1.29, 'roll': -7.35}
{'lipoC2': 7.43, 'temp': 30.44, 'lipoC3S3': 11.65, 'state': 'normal', 'rot1': 242, 'rot0': 245, 'rot3': 31, 'rot2': 32, 'depth': 2.377, 'yaw': -5.04, 'datetime': '2018-11-26 12:34:31.335474', 'mgs': 0, 'flw2': 0.0, 'flw1': 0.0, 'flw0': 0.0, 'time': 40.31, 'compass': 155.53, 'pitch': -1.29, 'roll': -7.35}
{'lipoC2': 7.43, 'temp': 30.44, 'lipoC3S3': 11.65, 'state': 'normal', 'rot1': 242, 'rot0': 245, 'rot3': 31, 'rot2': 32, 'depth': 2.377, 'yaw': -5.04, 'datetime': '2018-11-26 12:34:31.546568', 'mgs': 0, 'flw2': 0.0, 'flw1': 0.0, 'flw0': 0.0, 'time': 40.52, 'compass': 155.53, 'pitch': -1.27, 'roll': -7.28}
{'lipoC2': 7.43, 'temp': 30.44, 'lipoC3S3': 11.65, 'state': 'normal', 'rot1': 242, 'rot0': 245, 'rot3': 31, 'rot2': 32, 'depth': 2.301, 'yaw': -5.04, 'datetime': '2018-11-26 12:34:31.757366', 'mgs': 0, 'flw2': 0.0, 'flw1': 0.0, 'flw0': 0.0, 'time': 40.73, 'compass': 155.53, 'pitch': -1.23, 'roll': -7.26}
{'lipoC2': 7.43, 'temp': 30.44, 'lipoC3S3': 11.65, 'state': 'normal', 'rot1': 242, 'rot0': 245, 'rot3': 31, 'rot2': 32, 'depth': 2.301, 'yaw': -5.05, 'datetime': '2018-11-26 12:34:31.967321', 'mgs': 0, 'flw2': 0.0, 'flw1': 0.0, 'flw0': 0.0, 'time': 40.94, 'compass': 155.52, 'pitch': -1.19, 'roll': -7.23}
{'lipoC2': 7.43, 'temp': 30.5, 'lipoC3S3': 11.65, 'state': 'normal', 'rot1': 242, 'rot0': 245, 'rot3': 31, 'rot2': 32, 'depth': 2.301, 'yaw': -5.05, 'datetime': '2018-11-26 12:34:32.178132', 'mgs': 0, 'flw2': 0.0, 'flw1': 0.0, 'flw0': 0.0, 'time': 41.15, 'compass': 155.52, 'pitch': -1.15, 'roll': -7.08}
{'lipoC2': 7.43, 'temp': 30.44, 'lipoC3S3': 11.65, 'state': 'normal', 'rot1': 242, 'rot0': 245, 'rot3': 31, 'rot2': 32, 'depth': 2.225, 'yaw': -5.05, 'datetime': '2018-11-26 12:34:32.389074', 'mgs': 0, 'flw2': 0.0, 'flw1': 0.0, 'flw0': 0.0, 'time': 41.36, 'compass': 155.52, 'pitch': -1.13, 'roll': -6.97}
{'lipoC2': 7.43, 'temp': 30.44, 'lipoC3S3': 11.65, 'state': 'normal', 'rot1': 242, 'rot0': 245, 'rot3': 31, 'rot2': 32, 'depth': 2.225, 'yaw': -5.05, 'datetime': '2018-11-26 12:34:32.598807', 'mgs': 0, 'flw2': 0.0, 'flw1': 0.0, 'flw0': 0.0, 'time': 41.57, 'compass': 155.52, 'pitch': -1.12, 'roll': -6.88}
{'lipoC2': 7.43, 'temp': 30.5, 'lipoC3S3': 11.65, 'state': 'normal', 'rot1': 242, 'rot0': 245, 'rot3': 31, 'rot2': 32, 'depth': 2.072, 'yaw': -5.05, 'datetime': '2018-11-26 12:34:32.809399', 'mgs': 0, 'flw2': 0.0, 'flw1': 0.0, 'flw0': 0.0, 'time': 41.78, 'compass': 155.52, 'pitch': -1.12, 'roll': -6.98}
{'lipoC2': 7.43, 'temp': 30.5, 'lipoC3S3': 11.65, 'state': 'normal', 'rot1': 242, 'rot0': 245, 'rot3': 31, 'rot2': 32, 'depth': 2.072, 'yaw': -5.06, 'datetime': '2018-11-26 12:34:33.019360', 'mgs': 0, 'flw2': 0.0, 'flw1': 0.0, 'flw0': 0.0, 'time': 42.0, 'compass': 155.51, 'pitch': -1.11, 'roll': -7.04}
{'lipoC2': 7.43, 'temp': 30.44, 'lipoC3S3': 11.65, 'state': 'normal', 'rot1': 242, 'rot0': 245, 'rot3': 31, 'rot2': 32, 'depth': 1.996, 'yaw': -5.06, 'datetime': '2018-11-26 12:34:33.230727', 'mgs': 0, 'flw2': 0.0, 'flw1': 0.0, 'flw0': 0.0, 'time': 42.21, 'compass': 155.51, 'pitch': -1.12, 'roll': -7.03}
{'lipoC2': 7.43, 'temp': 30.5, 'lipoC3S3': 11.65, 'state': 'normal', 'rot1': 242, 'rot0': 245, 'rot3': 31, 'rot2': 32, 'depth': 1.996, 'yaw': -5.06, 'datetime': '2018-11-26 12:34:33.442711', 'mgs': 0, 'flw2': 0.0, 'flw1': 0.0, 'flw0': 0.0, 'time': 42.42, 'compass': 155.51, 'pitch': -1.12, 'roll': -7.03}
{'lipoC2': 7.43, 'temp': 30.5, 'lipoC3S3': 11.65, 'state': 'normal', 'rot1': 242, 'rot0': 245, 'rot3': 31, 'rot2': 32, 'depth': 1.996, 'yaw': -5.06, 'datetime': '2018-11-26 12:34:33.651932', 'mgs': 0, 'flw2': 0.0, 'flw1': 0.0, 'flw0': 0.0, 'time': 42.63, 'compass': 155.51, 'pitch': -1.11, 'roll': -6.97}
