{'lipoC2': 8.51, 'temp': 0.0, 'lipoC3S3': 12.48, 'state': 'normal', 'rot1': 0, 'rot0': 0, 'rot3': 0, 'rot2': 0, 'depth': -1.056, 'yaw': 0.0, 'datetime': '2018-12-12 10:15:05.958405', 'mgs': 0, 'flw2': 0.29, 'flw1': 0.0, 'flw0': 0.0, 'time': 1.36, 'compass': -4.79, 'pitch': -1.91, 'roll': 1.2}
{'lipoC2': 8.49, 'temp': 0.0, 'lipoC3S3': 12.48, 'state': 'normal', 'rot1': 0, 'rot0': 0, 'rot3': 0, 'rot2': 0, 'depth': -1.666, 'yaw': 0.0, 'datetime': '2018-12-12 10:15:06.167720', 'mgs': 0, 'flw2': 0.0, 'flw1': 0.0, 'flw0': 0.09, 'time': 1.57, 'compass': -4.79, 'pitch': -1.91, 'roll': 1.2}
{'lipoC2': 8.19, 'temp': 0.0, 'lipoC3S3': 12.79, 'state': 'normal', 'rot1': 0, 'rot0': 0, 'rot3': 0, 'rot2': 0, 'depth': -1.285, 'yaw': 0.0, 'datetime': '2018-12-12 10:15:06.374629', 'mgs': 0, 'flw2': 0.0, 'flw1': 0.53, 'flw0': 0.0, 'time': 1.78, 'compass': -4.79, 'pitch': -1.91, 'roll': 1.2}
{'lipoC2': 8.22, 'temp': 0.0, 'lipoC3S3': 12.54, 'state': 'normal', 'rot1': 0, 'rot0': 0, 'rot3': 0, 'rot2': 0, 'depth': -0.674, 'yaw': 0.0, 'datetime': '2018-12-12 10:15:06.583228', 'mgs': 0, 'flw2': 0.0, 'flw1': 0.0, 'flw0': 0.27, 'time': 1.98, 'compass': -4.79, 'pitch': -1.91, 'roll': 1.2}
{'lipoC2': 8.52, 'temp': 0.0, 'lipoC3S3': 12.48, 'state': 'normal', 'rot1': 0, 'rot0': 0, 'rot3': 0, 'rot2': 0, 'depth': -1.132, 'yaw': 0.0, 'datetime': '2018-12-12 10:15:06.792561', 'mgs': 0, 'flw2': 0.18, 'flw1': 0.0, 'flw0': 0.0, 'time': 2.19, 'compass': -4.79, 'pitch': -1.91, 'roll': 1.2}
{'lipoC2': 8.5, 'temp': 0.0, 'lipoC3S3': 12.47, 'state': 'normal', 'rot1': 0, 'rot0': 0, 'rot3': 0, 'rot2': 0, 'depth': -1.666, 'yaw': 0.0, 'datetime': '2018-12-12 10:15:07.000041', 'mgs': 0, 'flw2': 0.21, 'flw1': 0.0, 'flw0': 0.0, 'time': 2.4, 'compass': -4.79, 'pitch': -1.91, 'roll': 1.2}
{'lipoC2': 8.25, 'temp': 0.0, 'lipoC3S3': 12.6, 'state': 'normal', 'rot1': 0, 'rot0': 0, 'rot3': 0, 'rot2': 0, 'depth': 1.691, 'yaw': 0.0, 'datetime': '2018-12-12 10:15:07.209060', 'mgs': 0, 'flw2': 0.0, 'flw1': 0.0, 'flw0': 0.18, 'time': 2.61, 'compass': -4.79, 'pitch': -1.91, 'roll': 1.2}
{'lipoC2': 8.14, 'temp': 0.0, 'lipoC3S3': 12.88, 'state': 'normal', 'rot1': 0, 'rot0': 0, 'rot3': 0, 'rot2': 0, 'depth': -1.056, 'yaw': 0.0, 'datetime': '2018-12-12 10:15:07.417192', 'mgs': 0, 'flw2': 0.13, 'flw1': 0.0, 'flw0': 0.0, 'time': 2.82, 'compass': -4.79, 'pitch': -1.91, 'roll': 1.2}
{'lipoC2': 8.29, 'temp': 0.0, 'lipoC3S3': 12.43, 'state': 'normal', 'rot1': 0, 'rot0': 0, 'rot3': 0, 'rot2': 0, 'depth': 1.843, 'yaw': 0.0, 'datetime': '2018-12-12 10:15:07.626538', 'mgs': 0, 'flw2': 0.16, 'flw1': 0.0, 'flw0': 0.0, 'time': 3.03, 'compass': -4.79, 'pitch': -1.91, 'roll': 1.2}
{'lipoC2': 8.2, 'temp': 0.0, 'lipoC3S3': 12.79, 'state': 'normal', 'rot1': 0, 'rot0': 0, 'rot3': 0, 'rot2': 0, 'depth': -1.285, 'yaw': 0.0, 'datetime': '2018-12-12 10:15:07.833315', 'mgs': 0, 'flw2': 0.0, 'flw1': 0.35, 'flw0': 0.0, 'time': 3.23, 'compass': -4.79, 'pitch': -1.91, 'roll': 1.2}
{'lipoC2': 8.51, 'temp': 0.0, 'lipoC3S3': 12.48, 'state': 'normal', 'rot1': 0, 'rot0': 0, 'rot3': 0, 'rot2': 0, 'depth': -0.598, 'yaw': 0.0, 'datetime': '2018-12-12 10:15:08.042452', 'mgs': 0, 'flw2': 0.0, 'flw1': 0.18, 'flw0': 0.0, 'time': 3.44, 'compass': -4.79, 'pitch': -1.91, 'roll': 1.2}
{'lipoC2': 8.46, 'temp': 0.0, 'lipoC3S3': 12.48, 'state': 'normal', 'rot1': 0, 'rot0': 0, 'rot3': 0, 'rot2': 0, 'depth': -1.819, 'yaw': 0.0, 'datetime': '2018-12-12 10:15:08.256511', 'mgs': 0, 'flw2': 0.0, 'flw1': 0.0, 'flw0': 0.31, 'time': 3.65, 'compass': -4.79, 'pitch': -1.91, 'roll': 1.2}
{'lipoC2': 8.28, 'temp': 0.0, 'lipoC3S3': 12.66, 'state': 'normal', 'rot1': 0, 'rot0': 0, 'rot3': 0, 'rot2': 0, 'depth': 1.843, 'yaw': 0.0, 'datetime': '2018-12-12 10:15:08.462498', 'mgs': 0, 'flw2': 0.29, 'flw1': 0.0, 'flw0': 0.0, 'time': 3.86, 'compass': -4.79, 'pitch': -1.91, 'roll': 1.2}
{'lipoC2': 8.16, 'temp': 0.0, 'lipoC3S3': 12.85, 'state': 'normal', 'rot1': 0, 'rot0': 0, 'rot3': 0, 'rot2': 0, 'depth': 0.928, 'yaw': 0.0, 'datetime': '2018-12-12 10:15:08.670570', 'mgs': 0, 'flw2': 0.32, 'flw1': 0.0, 'flw0': 0.05, 'time': 4.07, 'compass': -4.79, 'pitch': -1.91, 'roll': 1.2}
{'lipoC2': 8.2, 'temp': 0.0, 'lipoC3S3': 12.72, 'state': 'normal', 'rot1': 0, 'rot0': 0, 'rot3': 0, 'rot2': 0, 'depth': -1.285, 'yaw': 0.0, 'datetime': '2018-12-12 10:15:08.982292', 'mgs': 0, 'flw2': 0.0, 'flw1': 0.23, 'flw0': 0.0, 'time': 4.38, 'compass': -4.79, 'pitch': -1.91, 'roll': 1.2}
{'lipoC2': 8.16, 'temp': 0.0, 'lipoC3S3': 12.85, 'state': 'normal', 'rot1': 0, 'rot0': 0, 'rot3': 0, 'rot2': 0, 'depth': -1.208, 'yaw': 0.0, 'datetime': '2018-12-12 10:15:09.189666', 'mgs': 0, 'flw2': 0.0, 'flw1': 0.0, 'flw0': 0.31, 'time': 4.59, 'compass': -4.79, 'pitch': -1.91, 'roll': 1.2}
{'lipoC2': 8.22, 'temp': 0.0, 'lipoC3S3': 12.62, 'state': 'normal', 'rot1': 0, 'rot0': 0, 'rot3': 0, 'rot2': 0, 'depth': -1.132, 'yaw': 0.0, 'datetime': '2018-12-12 10:15:09.398019', 'mgs': 0, 'flw2': 0.0, 'flw1': 0.0, 'flw0': 0.31, 'time': 4.79, 'compass': -4.79, 'pitch': -1.91, 'roll': 1.2}
{'lipoC2': 8.29, 'temp': 0.0, 'lipoC3S3': 12.67, 'state': 'normal', 'rot1': 0, 'rot0': 0, 'rot3': 0, 'rot2': 0, 'depth': -1.819, 'yaw': 0.0, 'datetime': '2018-12-12 10:15:09.610940', 'mgs': 0, 'flw2': 0.23, 'flw1': 0.0, 'flw0': 0.0, 'time': 5.0, 'compass': -4.79, 'pitch': -1.91, 'roll': 1.2}
{'lipoC2': 8.29, 'temp': 0.0, 'lipoC3S3': 12.66, 'state': 'normal', 'rot1': 0, 'rot0': 0, 'rot3': 0, 'rot2': 0, 'depth': 1.92, 'yaw': -0.0, 'datetime': '2018-12-12 10:15:09.815862', 'mgs': 0, 'flw2': 0.23, 'flw1': 0.0, 'flw0': 0.0, 'time': 5.21, 'compass': -4.79, 'pitch': -1.92, 'roll': 1.21}
{'lipoC2': 8.51, 'temp': 0.0, 'lipoC3S3': 12.48, 'state': 'normal', 'rot1': 0, 'rot0': 0, 'rot3': 0, 'rot2': 0, 'depth': -1.132, 'yaw': -0.0, 'datetime': '2018-12-12 10:15:10.025805', 'mgs': 0, 'flw2': 0.0, 'flw1': 0.0, 'flw0': 0.01, 'time': 5.42, 'compass': -4.79, 'pitch': -1.93, 'roll': 1.21}
{'lipoC2': 8.22, 'temp': 0.0, 'lipoC3S3': 12.6, 'state': 'normal', 'rot1': 0, 'rot0': 0, 'rot3': 0, 'rot2': 0, 'depth': -0.98, 'yaw': -0.0, 'datetime': '2018-12-12 10:15:10.237546', 'mgs': 0, 'flw2': 0.17, 'flw1': 0.0, 'flw0': 0.0, 'time': 5.63, 'compass': -4.79, 'pitch': -1.93, 'roll': 1.21}
{'lipoC2': 8.19, 'temp': 0.0, 'lipoC3S3': 12.79, 'state': 'normal', 'rot1': 0, 'rot0': 0, 'rot3': 0, 'rot2': 0, 'depth': -1.208, 'yaw': -0.0, 'datetime': '2018-12-12 10:15:10.446029', 'mgs': 0, 'flw2': 0.0, 'flw1': 0.41, 'flw0': 0.0, 'time': 5.84, 'compass': -4.79, 'pitch': -1.93, 'roll': 1.21}
{'lipoC2': 8.2, 'temp': 0.0, 'lipoC3S3': 12.77, 'state': 'normal', 'rot1': 0, 'rot0': 0, 'rot3': 0, 'rot2': 0, 'depth': -1.208, 'yaw': -0.0, 'datetime': '2018-12-12 10:15:10.651578', 'mgs': 0, 'flw2': 0.0, 'flw1': 0.0, 'flw0': 0.33, 'time': 6.04, 'compass': -4.79, 'pitch': -1.93, 'roll': 1.21}
{'lipoC2': 8.42, 'temp': 0.0, 'lipoC3S3': 12.47, 'state': 'normal', 'rot1': 0, 'rot0': 0, 'rot3': 0, 'rot2': 0, 'depth': 1.309, 'yaw': -0.0, 'datetime': '2018-12-12 10:15:10.860139', 'mgs': 0, 'flw2': 0.0, 'flw1': 0.47, 'flw0': 0.0, 'time': 6.25, 'compass': -4.79, 'pitch': -1.95, 'roll': 1.21}
{'lipoC2': 8.22, 'temp': 0.0, 'lipoC3S3': 12.37, 'state': 'normal', 'rot1': 0, 'rot0': 0, 'rot3': 0, 'rot2': 0, 'depth': -1.514, 'yaw': -0.0, 'datetime': '2018-12-12 10:15:11.070425', 'mgs': 0, 'flw2': 0.1, 'flw1': 0.0, 'flw0': 0.0, 'time': 6.46, 'compass': -4.79, 'pitch': -1.95, 'roll': 1.21}
{'lipoC2': 8.21, 'temp': 0.0, 'lipoC3S3': 12.31, 'state': 'normal', 'rot1': 0, 'rot0': 0, 'rot3': 0, 'rot2': 0, 'depth': 0.775, 'yaw': -0.0, 'datetime': '2018-12-12 10:15:11.279342', 'mgs': 0, 'flw2': 0.0, 'flw1': 0.62, 'flw0': 0.0, 'time': 6.67, 'compass': -4.79, 'pitch': -1.95, 'roll': 1.21}
{'lipoC2': 8.46, 'temp': 0.0, 'lipoC3S3': 12.51, 'state': 'normal', 'rot1': 0, 'rot0': 0, 'rot3': 0, 'rot2': 0, 'depth': -1.666, 'yaw': -0.0, 'datetime': '2018-12-12 10:15:11.485542', 'mgs': 0, 'flw2': 0.32, 'flw1': 0.0, 'flw0': 0.0, 'time': 6.88, 'compass': -4.79, 'pitch': -1.98, 'roll': 1.21}
{'lipoC2': 8.15, 'temp': 0.0, 'lipoC3S3': 12.88, 'state': 'normal', 'rot1': 0, 'rot0': 1, 'rot3': 0, 'rot2': 0, 'depth': 0.47, 'yaw': -0.0, 'datetime': '2018-12-12 10:15:11.694252', 'mgs': 0, 'flw2': 0.02, 'flw1': 0.0, 'flw0': 0.26, 'time': 7.09, 'compass': -4.79, 'pitch': -1.95, 'roll': 1.2}
{'lipoC2': 8.16, 'temp': 0.0, 'lipoC3S3': 12.42, 'state': 'normal', 'rot1': 0, 'rot0': 1, 'rot3': 0, 'rot2': 0, 'depth': -1.208, 'yaw': -0.0, 'datetime': '2018-12-12 10:15:11.900709', 'mgs': 0, 'flw2': 0.0, 'flw1': 0.67, 'flw0': 0.0, 'time': 7.29, 'compass': -4.79, 'pitch': -1.95, 'roll': 1.19}
{'lipoC2': 8.51, 'temp': 0.0, 'lipoC3S3': 12.48, 'state': 'normal', 'rot1': 0, 'rot0': 1, 'rot3': 0, 'rot2': 0, 'depth': -0.217, 'yaw': -0.0, 'datetime': '2018-12-12 10:15:12.109571', 'mgs': 0, 'flw2': 0.28, 'flw1': 0.0, 'flw0': 0.0, 'time': 7.5, 'compass': -4.79, 'pitch': -1.96, 'roll': 1.2}
{'lipoC2': 8.16, 'temp': 0.0, 'lipoC3S3': 12.87, 'state': 'normal', 'rot1': 0, 'rot0': 1, 'rot3': 0, 'rot2': 0, 'depth': -1.132, 'yaw': -0.0, 'datetime': '2018-12-12 10:15:12.326224', 'mgs': 0, 'flw2': 0.0, 'flw1': 0.59, 'flw0': 0.0, 'time': 7.71, 'compass': -4.79, 'pitch': -1.95, 'roll': 1.19}
{'lipoC2': 8.28, 'temp': 0.0, 'lipoC3S3': 12.68, 'state': 'normal', 'rot1': 0, 'rot0': 1, 'rot3': 0, 'rot2': 0, 'depth': 1.843, 'yaw': 0.0, 'datetime': '2018-12-12 10:15:12.528364', 'mgs': 0, 'flw2': 0.21, 'flw1': 0.0, 'flw0': 0.0, 'time': 7.92, 'compass': -4.79, 'pitch': -1.93, 'roll': 1.19}
{'lipoC2': 8.3, 'temp': 0.0, 'lipoC3S3': 12.41, 'state': 'normal', 'rot1': 0, 'rot0': 1, 'rot3': 0, 'rot2': 0, 'depth': -1.132, 'yaw': 0.0, 'datetime': '2018-12-12 10:15:12.736790', 'mgs': 0, 'flw2': 0.1, 'flw1': 0.0, 'flw0': 0.0, 'time': 8.13, 'compass': -4.79, 'pitch': -1.93, 'roll': 1.18}
{'lipoC2': 8.19, 'temp': 0.0, 'lipoC3S3': 12.76, 'state': 'normal', 'rot1': 0, 'rot0': 2, 'rot3': 0, 'rot2': 0, 'depth': -1.132, 'yaw': 0.0, 'datetime': '2018-12-12 10:15:12.946021', 'mgs': 0, 'flw2': 0.0, 'flw1': 0.0, 'flw0': 0.06, 'time': 8.34, 'compass': -4.78, 'pitch': -1.92, 'roll': 1.17}
{'lipoC2': 8.16, 'temp': 0.0, 'lipoC3S3': 12.87, 'state': 'normal', 'rot1': 0, 'rot0': 2, 'rot3': 0, 'rot2': 0, 'depth': -1.132, 'yaw': 0.0, 'datetime': '2018-12-12 10:15:13.157504', 'mgs': 0, 'flw2': 0.0, 'flw1': 0.7, 'flw0': 0.0, 'time': 8.54, 'compass': -4.78, 'pitch': -1.9, 'roll': 1.16}
{'lipoC2': 8.14, 'temp': 0.0, 'lipoC3S3': 12.88, 'state': 'normal', 'rot1': 0, 'rot0': 2, 'rot3': 0, 'rot2': 0, 'depth': 0.317, 'yaw': 0.0, 'datetime': '2018-12-12 10:15:13.365872', 'mgs': 0, 'flw2': 0.0, 'flw1': 0.15, 'flw0': 0.0, 'time': 8.75, 'compass': -4.78, 'pitch': -1.9, 'roll': 1.16}
{'lipoC2': 8.26, 'temp': 0.0, 'lipoC3S3': 12.35, 'state': 'normal', 'rot1': 0, 'rot0': 2, 'rot3': 0, 'rot2': 0, 'depth': 1.767, 'yaw': 0.0, 'datetime': '2018-12-12 10:15:13.573002', 'mgs': 0, 'flw2': 0.28, 'flw1': 0.0, 'flw0': 0.0, 'time': 8.96, 'compass': -4.78, 'pitch': -1.92, 'roll': 1.16}
{'lipoC2': 8.25, 'temp': 0.0, 'lipoC3S3': 12.68, 'state': 'normal', 'rot1': 0, 'rot0': 2, 'rot3': 0, 'rot2': 0, 'depth': -1.59, 'yaw': 0.0, 'datetime': '2018-12-12 10:15:13.777851', 'mgs': 0, 'flw2': 0.28, 'flw1': 0.0, 'flw0': 0.0, 'time': 9.17, 'compass': -4.78, 'pitch': -1.92, 'roll': 1.16}
{'lipoC2': 8.24, 'temp': 0.0, 'lipoC3S3': 12.71, 'state': 'normal', 'rot1': 0, 'rot0': 2, 'rot3': 0, 'rot2': 0, 'depth': 1.843, 'yaw': 0.01, 'datetime': '2018-12-12 10:15:13.985888', 'mgs': 0, 'flw2': 0.07, 'flw1': 0.0, 'flw0': 0.0, 'time': 9.38, 'compass': -4.78, 'pitch': -1.93, 'roll': 1.16}
{'lipoC2': 8.17, 'temp': 0.0, 'lipoC3S3': 12.83, 'state': 'normal', 'rot1': 0, 'rot0': 2, 'rot3': 0, 'rot2': 0, 'depth': 1.233, 'yaw': -0.01, 'datetime': '2018-12-12 10:15:14.198119', 'mgs': 0, 'flw2': 0.09, 'flw1': 0.0, 'flw0': 0.0, 'time': 9.58, 'compass': -4.79, 'pitch': -1.89, 'roll': 1.13}
{'lipoC2': 8.22, 'temp': 0.0, 'lipoC3S3': 12.62, 'state': 'normal', 'rot1': 0, 'rot0': 2, 'rot3': 0, 'rot2': 0, 'depth': -0.98, 'yaw': -0.01, 'datetime': '2018-12-12 10:15:14.406617', 'mgs': 0, 'flw2': 0.0, 'flw1': 0.0, 'flw0': 0.33, 'time': 9.79, 'compass': -4.79, 'pitch': -1.9, 'roll': 1.15}
{'lipoC2': 8.52, 'temp': 0.0, 'lipoC3S3': 12.5, 'state': 'normal', 'rot1': 0, 'rot0': 2, 'rot3': 0, 'rot2': 0, 'depth': -0.598, 'yaw': -0.01, 'datetime': '2018-12-12 10:15:14.614320', 'mgs': 0, 'flw2': 0.13, 'flw1': 0.0, 'flw0': 0.0, 'time': 10.0, 'compass': -4.79, 'pitch': -1.92, 'roll': 1.15}
{'lipoC2': 8.16, 'temp': 0.0, 'lipoC3S3': 12.88, 'state': 'normal', 'rot1': 0, 'rot0': 3, 'rot3': 0, 'rot2': 0, 'depth': -1.208, 'yaw': -0.01, 'datetime': '2018-12-12 10:15:14.926283', 'mgs': 0, 'flw2': 0.12, 'flw1': 0.0, 'flw0': 0.26, 'time': 10.31, 'compass': -4.79, 'pitch': -1.98, 'roll': 1.16}
{'lipoC2': 8.22, 'temp': 0.0, 'lipoC3S3': 12.48, 'state': 'normal', 'rot1': 0, 'rot0': 3, 'rot3': 0, 'rot2': 0, 'depth': -0.751, 'yaw': -0.01, 'datetime': '2018-12-12 10:15:15.132583', 'mgs': 0, 'flw2': 0.0, 'flw1': 0.32, 'flw0': 0.0, 'time': 10.52, 'compass': -4.79, 'pitch': -1.97, 'roll': 1.16}
{'lipoC2': 8.14, 'temp': 0.0, 'lipoC3S3': 12.88, 'state': 'normal', 'rot1': 0, 'rot0': 3, 'rot3': 0, 'rot2': 0, 'depth': 0.317, 'yaw': -0.01, 'datetime': '2018-12-12 10:15:15.345402', 'mgs': 0, 'flw2': 0.12, 'flw1': 0.0, 'flw0': 0.24, 'time': 10.73, 'compass': -4.79, 'pitch': -1.97, 'roll': 1.16}
{'lipoC2': 8.29, 'temp': 0.0, 'lipoC3S3': 12.38, 'state': 'normal', 'rot1': 0, 'rot0': 3, 'rot3': 0, 'rot2': 0, 'depth': 2.072, 'yaw': -0.01, 'datetime': '2018-12-12 10:15:15.552912', 'mgs': 0, 'flw2': 0.0, 'flw1': 0.79, 'flw0': 0.0, 'time': 10.94, 'compass': -4.79, 'pitch': -1.94, 'roll': 1.16}
{'lipoC2': 8.3, 'temp': 0.0, 'lipoC3S3': 12.62, 'state': 'normal', 'rot1': 0, 'rot0': 3, 'rot3': 0, 'rot2': 0, 'depth': -1.895, 'yaw': -0.01, 'datetime': '2018-12-12 10:15:15.761791', 'mgs': 0, 'flw2': 0.32, 'flw1': 0.0, 'flw0': 0.0, 'time': 11.15, 'compass': -4.79, 'pitch': -1.95, 'roll': 1.16}
{'lipoC2': 8.48, 'temp': 0.0, 'lipoC3S3': 12.66, 'state': 'normal', 'rot1': 0, 'rot0': 3, 'rot3': 0, 'rot2': 0, 'depth': -1.743, 'yaw': -0.01, 'datetime': '2018-12-12 10:15:15.968500', 'mgs': 0, 'flw2': 0.0, 'flw1': 0.0, 'flw0': 0.28, 'time': 11.35, 'compass': -4.79, 'pitch': -1.99, 'roll': 1.16}
{'lipoC2': 8.24, 'temp': 0.0, 'lipoC3S3': 12.72, 'state': 'normal', 'rot1': 0, 'rot0': 3, 'rot3': 0, 'rot2': 0, 'depth': -1.59, 'yaw': -0.01, 'datetime': '2018-12-12 10:15:16.181998', 'mgs': 0, 'flw2': 0.1, 'flw1': 0.0, 'flw0': 0.0, 'time': 11.56, 'compass': -4.79, 'pitch': -1.97, 'roll': 1.16}
{'lipoC2': 8.21, 'temp': 0.0, 'lipoC3S3': 12.34, 'state': 'normal', 'rot1': 0, 'rot0': 3, 'rot3': 0, 'rot2': 0, 'depth': 0.775, 'yaw': -0.01, 'datetime': '2018-12-12 10:15:16.384886', 'mgs': 0, 'flw2': 0.32, 'flw1': 0.0, 'flw0': 0.0, 'time': 11.77, 'compass': -4.79, 'pitch': -1.99, 'roll': 1.16}
{'lipoC2': 8.28, 'temp': 0.0, 'lipoC3S3': 12.43, 'state': 'normal', 'rot1': 0, 'rot0': 4, 'rot3': 0, 'rot2': 0, 'depth': 1.92, 'yaw': -0.01, 'datetime': '2018-12-12 10:15:16.593039', 'mgs': 0, 'flw2': 0.15, 'flw1': 0.0, 'flw0': 0.0, 'time': 11.98, 'compass': -4.79, 'pitch': -2.0, 'roll': 1.16}
{'lipoC2': 8.2, 'temp': 0.0, 'lipoC3S3': 12.77, 'state': 'normal', 'rot1': 0, 'rot0': 4, 'rot3': 0, 'rot2': 0, 'depth': -1.285, 'yaw': -0.01, 'datetime': '2018-12-12 10:15:16.802604', 'mgs': 0, 'flw2': 0.0, 'flw1': 0.0, 'flw0': 0.34, 'time': 12.19, 'compass': -4.79, 'pitch': -2.01, 'roll': 1.16}
{'lipoC2': 8.22, 'temp': 0.0, 'lipoC3S3': 12.34, 'state': 'normal', 'rot1': 0, 'rot0': 4, 'rot3': 0, 'rot2': 0, 'depth': 1.309, 'yaw': -0.01, 'datetime': '2018-12-12 10:15:17.008627', 'mgs': 0, 'flw2': 0.22, 'flw1': 0.0, 'flw0': 0.0, 'time': 12.39, 'compass': -4.79, 'pitch': -2.01, 'roll': 1.16}
{'lipoC2': 8.26, 'temp': 0.0, 'lipoC3S3': 12.68, 'state': 'normal', 'rot1': 0, 'rot0': 5, 'rot3': 0, 'rot2': 0, 'depth': 1.92, 'yaw': -0.01, 'datetime': '2018-12-12 10:15:17.220667', 'mgs': 0, 'flw2': 0.21, 'flw1': 0.0, 'flw0': 0.0, 'time': 12.6, 'compass': -4.79, 'pitch': -2.0, 'roll': 1.15}
{'lipoC2': 8.3, 'temp': 0.0, 'lipoC3S3': 12.64, 'state': 'normal', 'rot1': 0, 'rot0': 5, 'rot3': 0, 'rot2': 0, 'depth': 1.843, 'yaw': -0.01, 'datetime': '2018-12-12 10:15:17.426646', 'mgs': 0, 'flw2': 0.2, 'flw1': 0.0, 'flw0': 0.0, 'time': 12.81, 'compass': -4.79, 'pitch': -1.99, 'roll': 1.15}
{'lipoC2': 8.46, 'temp': 0.0, 'lipoC3S3': 12.48, 'state': 'normal', 'rot1': 0, 'rot0': 5, 'rot3': 0, 'rot2': 0, 'depth': 0.546, 'yaw': -0.01, 'datetime': '2018-12-12 10:15:17.638184', 'mgs': 0, 'flw2': 0.0, 'flw1': 0.38, 'flw0': 0.0, 'time': 13.02, 'compass': -4.79, 'pitch': -1.99, 'roll': 1.15}
{'lipoC2': 8.52, 'temp': 0.0, 'lipoC3S3': 12.47, 'state': 'normal', 'rot1': 0, 'rot0': 6, 'rot3': 0, 'rot2': 0, 'depth': -1.132, 'yaw': -0.01, 'datetime': '2018-12-12 10:15:17.844677', 'mgs': 0, 'flw2': 0.15, 'flw1': 0.0, 'flw0': 0.0, 'time': 13.23, 'compass': -4.79, 'pitch': -1.99, 'roll': 1.15}
{'lipoC2': 8.41, 'temp': 0.0, 'lipoC3S3': 12.59, 'state': 'normal', 'rot1': 0, 'rot0': 6, 'rot3': 0, 'rot2': 0, 'depth': -1.971, 'yaw': -0.01, 'datetime': '2018-12-12 10:15:18.053857', 'mgs': 0, 'flw2': 0.0, 'flw1': 0.0, 'flw0': 0.28, 'time': 13.44, 'compass': -4.79, 'pitch': -2.0, 'roll': 1.15}
{'lipoC2': 8.21, 'temp': 0.0, 'lipoC3S3': 12.34, 'state': 'normal', 'rot1': 0, 'rot0': 6, 'rot3': 0, 'rot2': 0, 'depth': 1.004, 'yaw': -0.01, 'datetime': '2018-12-12 10:15:18.263334', 'mgs': 0, 'flw2': 0.0, 'flw1': 0.35, 'flw0': 0.0, 'time': 13.64, 'compass': -4.79, 'pitch': -1.99, 'roll': 1.15}
{'lipoC2': 8.21, 'temp': 0.0, 'lipoC3S3': 12.5, 'state': 'normal', 'rot1': 0, 'rot0': 6, 'rot3': 0, 'rot2': 0, 'depth': -1.208, 'yaw': -0.01, 'datetime': '2018-12-12 10:15:18.472442', 'mgs': 0, 'flw2': 0.0, 'flw1': 0.35, 'flw0': 0.0, 'time': 13.85, 'compass': -4.79, 'pitch': -1.99, 'roll': 1.15}
{'lipoC2': 8.51, 'temp': 0.0, 'lipoC3S3': 12.47, 'state': 'normal', 'rot1': 0, 'rot0': 6, 'rot3': 0, 'rot2': 0, 'depth': -0.98, 'yaw': -0.01, 'datetime': '2018-12-12 10:15:18.677632', 'mgs': 0, 'flw2': 0.28, 'flw1': 0.0, 'flw0': 0.0, 'time': 14.06, 'compass': -4.79, 'pitch': -1.99, 'roll': 1.15}
{'lipoC2': 8.4, 'temp': 0.0, 'lipoC3S3': 12.56, 'state': 'normal', 'rot1': 0, 'rot0': 6, 'rot3': 0, 'rot2': 0, 'depth': -1.971, 'yaw': -0.01, 'datetime': '2018-12-12 10:15:18.885669', 'mgs': 0, 'flw2': 0.28, 'flw1': 0.0, 'flw0': 0.0, 'time': 14.27, 'compass': -4.79, 'pitch': -1.99, 'roll': 1.15}
{'lipoC2': 8.15, 'temp': 0.0, 'lipoC3S3': 12.89, 'state': 'normal', 'rot1': 0, 'rot0': 6, 'rot3': 0, 'rot2': 0, 'depth': -0.98, 'yaw': -0.01, 'datetime': '2018-12-12 10:15:19.098092', 'mgs': 0, 'flw2': 0.17, 'flw1': 0.0, 'flw0': 0.21, 'time': 14.48, 'compass': -4.79, 'pitch': -1.99, 'roll': 1.15}
{'lipoC2': 8.15, 'temp': 0.0, 'lipoC3S3': 12.87, 'state': 'normal', 'rot1': 0, 'rot0': 6, 'rot3': 0, 'rot2': 0, 'depth': -1.132, 'yaw': -0.01, 'datetime': '2018-12-12 10:15:19.303248', 'mgs': 0, 'flw2': 0.1, 'flw1': 0.0, 'flw0': 0.28, 'time': 14.68, 'compass': -4.79, 'pitch': -1.99, 'roll': 1.15}
{'lipoC2': 8.36, 'temp': 0.0, 'lipoC3S3': 12.43, 'state': 'normal', 'rot1': 0, 'rot0': 6, 'rot3': 0, 'rot2': 0, 'depth': 1.767, 'yaw': -0.01, 'datetime': '2018-12-12 10:15:19.511045', 'mgs': 0, 'flw2': 0.29, 'flw1': 0.0, 'flw0': 0.04, 'time': 14.89, 'compass': -4.79, 'pitch': -1.99, 'roll': 1.15}
{'lipoC2': 8.33, 'temp': 0.0, 'lipoC3S3': 12.42, 'state': 'normal', 'rot1': 0, 'rot0': 6, 'rot3': 0, 'rot2': 0, 'depth': 1.92, 'yaw': -0.01, 'datetime': '2018-12-12 10:15:19.723174', 'mgs': 0, 'flw2': 0.0, 'flw1': 0.56, 'flw0': 0.0, 'time': 15.1, 'compass': -4.79, 'pitch': -1.99, 'roll': 1.15}
{'lipoC2': 8.3, 'temp': 0.0, 'lipoC3S3': 12.41, 'state': 'normal', 'rot1': 0, 'rot0': 6, 'rot3': 0, 'rot2': 0, 'depth': -1.056, 'yaw': -0.01, 'datetime': '2018-12-12 10:15:19.930286', 'mgs': 0, 'flw2': 0.04, 'flw1': 0.0, 'flw0': 0.0, 'time': 15.31, 'compass': -4.79, 'pitch': -1.99, 'roll': 1.15}
{'lipoC2': 8.49, 'temp': 0.0, 'lipoC3S3': 12.48, 'state': 'normal', 'rot1': 0, 'rot0': 6, 'rot3': 0, 'rot2': 0, 'depth': -1.514, 'yaw': -0.01, 'datetime': '2018-12-12 10:15:20.140594', 'mgs': 0, 'flw2': 0.0, 'flw1': 0.0, 'flw0': 0.05, 'time': 15.52, 'compass': -4.79, 'pitch': -1.99, 'roll': 1.15}
{'lipoC2': 8.42, 'temp': 0.0, 'lipoC3S3': 12.55, 'state': 'normal', 'rot1': 0, 'rot0': 6, 'rot3': 0, 'rot2': 0, 'depth': -1.895, 'yaw': -0.01, 'datetime': '2018-12-12 10:15:20.347791', 'mgs': 0, 'flw2': 0.0, 'flw1': 0.0, 'flw0': 0.28, 'time': 15.73, 'compass': -4.79, 'pitch': -1.99, 'roll': 1.15}
{'lipoC2': 8.16, 'temp': 0.0, 'lipoC3S3': 12.84, 'state': 'normal', 'rot1': 0, 'rot0': 6, 'rot3': 0, 'rot2': 0, 'depth': -1.056, 'yaw': -0.01, 'datetime': '2018-12-12 10:15:20.559756', 'mgs': 0, 'flw2': 0.0, 'flw1': 0.0, 'flw0': 0.0, 'time': 15.93, 'compass': -4.79, 'pitch': -1.99, 'roll': 1.15}
{'lipoC2': 8.37, 'temp': 0.0, 'lipoC3S3': 12.45, 'state': 'normal', 'rot1': 0, 'rot0': 6, 'rot3': 0, 'rot2': 0, 'depth': 1.691, 'yaw': -0.01, 'datetime': '2018-12-12 10:15:20.869223', 'mgs': 0, 'flw2': 0.33, 'flw1': 0.0, 'flw0': 0.01, 'time': 16.25, 'compass': -4.79, 'pitch': -1.99, 'roll': 1.15}
{'lipoC2': 8.35, 'temp': 0.0, 'lipoC3S3': 12.6, 'state': 'normal', 'rot1': 0, 'rot0': 6, 'rot3': 0, 'rot2': 0, 'depth': -1.895, 'yaw': -0.01, 'datetime': '2018-12-12 10:15:21.077964', 'mgs': 0, 'flw2': 0.0, 'flw1': 0.0, 'flw0': 0.18, 'time': 16.45, 'compass': -4.79, 'pitch': -1.99, 'roll': 1.15}
{'lipoC2': 8.34, 'temp': 0.0, 'lipoC3S3': 12.62, 'state': 'normal', 'rot1': 1, 'rot0': 6, 'rot3': 0, 'rot2': 0, 'depth': -1.895, 'yaw': -0.01, 'datetime': '2018-12-12 10:15:21.286060', 'mgs': 0, 'flw2': 0.0, 'flw1': 0.0, 'flw0': 0.0, 'time': 16.66, 'compass': -4.79, 'pitch': -1.99, 'roll': 1.15}
{'lipoC2': 8.51, 'temp': 0.0, 'lipoC3S3': 12.47, 'state': 'normal', 'rot1': 1, 'rot0': 6, 'rot3': 0, 'rot2': 0, 'depth': -0.98, 'yaw': -0.01, 'datetime': '2018-12-12 10:15:21.498419', 'mgs': 0, 'flw2': 0.28, 'flw1': 0.0, 'flw0': 0.0, 'time': 16.87, 'compass': -4.79, 'pitch': -1.99, 'roll': 1.15}
{'lipoC2': 8.19, 'temp': 0.0, 'lipoC3S3': 12.76, 'state': 'normal', 'rot1': 1, 'rot0': 6, 'rot3': 0, 'rot2': 0, 'depth': 1.538, 'yaw': -0.01, 'datetime': '2018-12-12 10:15:21.707898', 'mgs': 0, 'flw2': 0.17, 'flw1': 0.0, 'flw0': 0.0, 'time': 17.08, 'compass': -4.79, 'pitch': -1.99, 'roll': 1.15}
{'lipoC2': 8.39, 'temp': 0.0, 'lipoC3S3': 12.46, 'state': 'normal', 'rot1': 1, 'rot0': 6, 'rot3': 0, 'rot2': 0, 'depth': 1.538, 'yaw': -0.01, 'datetime': '2018-12-12 10:15:21.914110', 'mgs': 0, 'flw2': 0.0, 'flw1': 0.0, 'flw0': 0.33, 'time': 17.29, 'compass': -4.79, 'pitch': -1.99, 'roll': 1.15}
{'lipoC2': 8.5, 'temp': 0.0, 'lipoC3S3': 12.47, 'state': 'normal', 'rot1': 1, 'rot0': 6, 'rot3': 0, 'rot2': 0, 'depth': -1.743, 'yaw': -0.01, 'datetime': '2018-12-12 10:15:22.117958', 'mgs': 0, 'flw2': 0.28, 'flw1': 0.0, 'flw0': 0.0, 'time': 17.5, 'compass': -4.79, 'pitch': -1.99, 'roll': 1.15}
{'lipoC2': 8.22, 'temp': 0.0, 'lipoC3S3': 12.35, 'state': 'normal', 'rot1': 1, 'rot0': 6, 'rot3': 0, 'rot2': 0, 'depth': 1.843, 'yaw': -0.01, 'datetime': '2018-12-12 10:15:22.328675', 'mgs': 0, 'flw2': 0.0, 'flw1': 0.0, 'flw0': 0.04, 'time': 17.7, 'compass': -4.79, 'pitch': -1.99, 'roll': 1.15}
{'lipoC2': 8.22, 'temp': 0.0, 'lipoC3S3': 12.58, 'state': 'normal', 'rot1': 2, 'rot0': 6, 'rot3': 0, 'rot2': 0, 'depth': -0.674, 'yaw': -0.01, 'datetime': '2018-12-12 10:15:22.538438', 'mgs': 0, 'flw2': 0.0, 'flw1': 0.0, 'flw0': 0.27, 'time': 17.91, 'compass': -4.79, 'pitch': -1.99, 'roll': 1.15}
{'lipoC2': 8.28, 'temp': 0.0, 'lipoC3S3': 12.67, 'state': 'normal', 'rot1': 2, 'rot0': 6, 'rot3': 0, 'rot2': 0, 'depth': -1.666, 'yaw': -0.01, 'datetime': '2018-12-12 10:15:22.745046', 'mgs': 0, 'flw2': 0.28, 'flw1': 0.0, 'flw0': 0.0, 'time': 18.12, 'compass': -4.79, 'pitch': -1.99, 'roll': 1.15}
{'lipoC2': 8.45, 'temp': 0.0, 'lipoC3S3': 12.5, 'state': 'normal', 'rot1': 2, 'rot0': 6, 'rot3': 0, 'rot2': 0, 'depth': 0.699, 'yaw': -0.01, 'datetime': '2018-12-12 10:15:22.952514', 'mgs': 0, 'flw2': 0.32, 'flw1': 0.0, 'flw0': 0.07, 'time': 18.33, 'compass': -4.79, 'pitch': -1.99, 'roll': 1.15}
{'lipoC2': 8.49, 'temp': 0.0, 'lipoC3S3': 12.5, 'state': 'normal', 'rot1': 2, 'rot0': 6, 'rot3': 0, 'rot2': 0, 'depth': 0.394, 'yaw': -0.01, 'datetime': '2018-12-12 10:15:23.162084', 'mgs': 0, 'flw2': 0.29, 'flw1': 0.0, 'flw0': 0.0, 'time': 18.54, 'compass': -4.79, 'pitch': -1.99, 'roll': 1.15}
{'lipoC2': 8.36, 'temp': 0.0, 'lipoC3S3': 12.45, 'state': 'normal', 'rot1': 3, 'rot0': 6, 'rot3': 0, 'rot2': 0, 'depth': 1.767, 'yaw': -0.01, 'datetime': '2018-12-12 10:15:23.370044', 'mgs': 0, 'flw2': 0.0, 'flw1': 0.62, 'flw0': 0.0, 'time': 18.75, 'compass': -4.79, 'pitch': -1.99, 'roll': 1.15}
{'lipoC2': 8.39, 'temp': 0.0, 'lipoC3S3': 12.56, 'state': 'normal', 'rot1': 3, 'rot0': 6, 'rot3': 0, 'rot2': 0, 'depth': -1.971, 'yaw': -0.01, 'datetime': '2018-12-12 10:15:23.579400', 'mgs': 0, 'flw2': 0.32, 'flw1': 0.0, 'flw0': 0.0, 'time': 18.95, 'compass': -4.79, 'pitch': -1.99, 'roll': 1.15}
{'lipoC2': 8.22, 'temp': 0.0, 'lipoC3S3': 12.75, 'state': 'normal', 'rot1': 3, 'rot0': 6, 'rot3': 0, 'rot2': 0, 'depth': -1.514, 'yaw': -0.01, 'datetime': '2018-12-12 10:15:23.786926', 'mgs': 0, 'flw2': 0.0, 'flw1': 0.26, 'flw0': 0.0, 'time': 19.16, 'compass': -4.79, 'pitch': -1.99, 'roll': 1.15}
{'lipoC2': 8.19, 'temp': 0.0, 'lipoC3S3': 12.81, 'state': 'normal', 'rot1': 4, 'rot0': 6, 'rot3': 0, 'rot2': 0, 'depth': -1.285, 'yaw': -0.01, 'datetime': '2018-12-12 10:15:23.996512', 'mgs': 0, 'flw2': 0.26, 'flw1': 0.0, 'flw0': 0.0, 'time': 19.37, 'compass': -4.79, 'pitch': -1.98, 'roll': 1.15}
{'lipoC2': 8.15, 'temp': 0.0, 'lipoC3S3': 12.88, 'state': 'normal', 'rot1': 4, 'rot0': 6, 'rot3': 0, 'rot2': 0, 'depth': -1.132, 'yaw': -0.01, 'datetime': '2018-12-12 10:15:24.206090', 'mgs': 0, 'flw2': 0.1, 'flw1': 0.0, 'flw0': 0.24, 'time': 19.58, 'compass': -4.79, 'pitch': -1.97, 'roll': 1.15}
{'lipoC2': 8.22, 'temp': 0.0, 'lipoC3S3': 12.5, 'state': 'normal', 'rot1': 4, 'rot0': 6, 'rot3': 0, 'rot2': 0, 'depth': -0.598, 'yaw': -0.01, 'datetime': '2018-12-12 10:15:24.413938', 'mgs': 0, 'flw2': 0.2, 'flw1': 0.0, 'flw0': 0.0, 'time': 19.79, 'compass': -4.79, 'pitch': -1.97, 'roll': 1.15}
{'lipoC2': 8.51, 'temp': 0.0, 'lipoC3S3': 12.48, 'state': 'normal', 'rot1': 4, 'rot0': 6, 'rot3': 0, 'rot2': 0, 'depth': -0.446, 'yaw': -0.01, 'datetime': '2018-12-12 10:15:24.623664', 'mgs': 0, 'flw2': 0.15, 'flw1': 0.0, 'flw0': 0.0, 'time': 20.0, 'compass': -4.79, 'pitch': -1.97, 'roll': 1.15}
{'lipoC2': 8.23, 'temp': 0.0, 'lipoC3S3': 12.34, 'state': 'normal', 'rot1': 4, 'rot0': 6, 'rot3': 0, 'rot2': 0, 'depth': 1.614, 'yaw': -0.01, 'datetime': '2018-12-12 10:15:24.830952', 'mgs': 0, 'flw2': 0.29, 'flw1': 0.0, 'flw0': 0.0, 'time': 20.2, 'compass': -4.79, 'pitch': -1.97, 'roll': 1.15}
{'lipoC2': 8.39, 'temp': 0.0, 'lipoC3S3': 12.56, 'state': 'normal', 'rot1': 4, 'rot0': 6, 'rot3': 0, 'rot2': 0, 'depth': -1.971, 'yaw': -0.01, 'datetime': '2018-12-12 10:15:25.040376', 'mgs': 0, 'flw2': 0.0, 'flw1': 0.0, 'flw0': 0.0, 'time': 20.41, 'compass': -4.79, 'pitch': -1.97, 'roll': 1.15}
{'lipoC2': 8.44, 'temp': 0.0, 'lipoC3S3': 12.52, 'state': 'normal', 'rot1': 4, 'rot0': 6, 'rot3': 0, 'rot2': 0, 'depth': 0.928, 'yaw': -0.01, 'datetime': '2018-12-12 10:15:25.247836', 'mgs': 0, 'flw2': 0.33, 'flw1': 0.0, 'flw0': 0.0, 'time': 20.62, 'compass': -4.79, 'pitch': -1.97, 'roll': 1.14}
{'lipoC2': 8.22, 'temp': 0.0, 'lipoC3S3': 12.34, 'state': 'normal', 'rot1': 4, 'rot0': 6, 'rot3': 0, 'rot2': 0, 'depth': 1.385, 'yaw': -0.01, 'datetime': '2018-12-12 10:15:25.456838', 'mgs': 0, 'flw2': 0.0, 'flw1': 0.0, 'flw0': 0.0, 'time': 20.83, 'compass': -4.79, 'pitch': -1.97, 'roll': 1.12}
{'lipoC2': 8.14, 'temp': 0.0, 'lipoC3S3': 12.89, 'state': 'normal', 'rot1': 4, 'rot0': 6, 'rot3': 0, 'rot2': 0, 'depth': 0.165, 'yaw': -0.01, 'datetime': '2018-12-12 10:15:25.665485', 'mgs': 0, 'flw2': 0.0, 'flw1': 0.7, 'flw0': 0.0, 'time': 21.04, 'compass': -4.79, 'pitch': -1.95, 'roll': 1.14}
{'lipoC2': 8.49, 'temp': 0.0, 'lipoC3S3': 12.48, 'state': 'normal', 'rot1': 4, 'rot0': 6, 'rot3': 0, 'rot2': 0, 'depth': -1.666, 'yaw': -0.01, 'datetime': '2018-12-12 10:15:25.872857', 'mgs': 0, 'flw2': 0.0, 'flw1': 0.0, 'flw0': 0.09, 'time': 21.25, 'compass': -4.79, 'pitch': -1.97, 'roll': 1.14}
{'lipoC2': 8.45, 'temp': 0.0, 'lipoC3S3': 12.54, 'state': 'normal', 'rot1': 4, 'rot0': 6, 'rot3': 0, 'rot2': 0, 'depth': -1.743, 'yaw': -0.0, 'datetime': '2018-12-12 10:15:26.083148', 'mgs': 0, 'flw2': 0.0, 'flw1': 0.0, 'flw0': 0.22, 'time': 21.45, 'compass': -4.79, 'pitch': -2.04, 'roll': 1.15}
{'lipoC2': 8.25, 'temp': 0.0, 'lipoC3S3': 12.72, 'state': 'normal', 'rot1': 4, 'rot0': 6, 'rot3': 0, 'rot2': 0, 'depth': -1.666, 'yaw': -0.01, 'datetime': '2018-12-12 10:15:26.289300', 'mgs': 0, 'flw2': 0.04, 'flw1': 0.0, 'flw0': 0.0, 'time': 21.66, 'compass': -4.79, 'pitch': -1.98, 'roll': 1.14}
{'lipoC2': 8.14, 'temp': 0.0, 'lipoC3S3': 12.93, 'state': 'normal', 'rot1': 4, 'rot0': 6, 'rot3': 0, 'rot2': 0, 'depth': -0.903, 'yaw': -0.0, 'datetime': '2018-12-12 10:15:26.501991', 'mgs': 0, 'flw2': 0.02, 'flw1': 0.0, 'flw0': 0.27, 'time': 21.87, 'compass': -4.79, 'pitch': -2.03, 'roll': 1.14}
{'lipoC2': 8.2, 'temp': 0.0, 'lipoC3S3': 12.35, 'state': 'normal', 'rot1': 4, 'rot0': 6, 'rot3': 0, 'rot2': 0, 'depth': 0.699, 'yaw': -0.0, 'datetime': '2018-12-12 10:15:26.709339', 'mgs': 0, 'flw2': 0.32, 'flw1': 0.0, 'flw0': 0.0, 'time': 22.08, 'compass': -4.79, 'pitch': -2.03, 'roll': 1.14}
{'lipoC2': 8.51, 'temp': 0.0, 'lipoC3S3': 12.48, 'state': 'normal', 'rot1': 4, 'rot0': 6, 'rot3': 1, 'rot2': 0, 'depth': -1.285, 'yaw': -0.01, 'datetime': '2018-12-12 10:15:26.918599', 'mgs': 0, 'flw2': 0.31, 'flw1': 0.0, 'flw0': 0.0, 'time': 22.29, 'compass': -4.79, 'pitch': -2.01, 'roll': 1.14}
{'lipoC2': 8.16, 'temp': 0.0, 'lipoC3S3': 12.85, 'state': 'normal', 'rot1': 4, 'rot0': 6, 'rot3': 1, 'rot2': 0, 'depth': -1.132, 'yaw': -0.01, 'datetime': '2018-12-12 10:15:27.126926', 'mgs': 0, 'flw2': 0.23, 'flw1': 0.0, 'flw0': 0.13, 'time': 22.5, 'compass': -4.79, 'pitch': -1.99, 'roll': 1.14}
{'lipoC2': 8.17, 'temp': 0.0, 'lipoC3S3': 12.81, 'state': 'normal', 'rot1': 4, 'rot0': 6, 'rot3': 1, 'rot2': 0, 'depth': -1.056, 'yaw': 0.0, 'datetime': '2018-12-12 10:15:27.338679', 'mgs': 0, 'flw2': 0.0, 'flw1': 0.53, 'flw0': 0.0, 'time': 22.7, 'compass': -4.79, 'pitch': -2.01, 'roll': 1.12}
{'lipoC2': 8.16, 'temp': 0.0, 'lipoC3S3': 12.83, 'state': 'normal', 'rot1': 4, 'rot0': 6, 'rot3': 1, 'rot2': 0, 'depth': 1.538, 'yaw': -0.0, 'datetime': '2018-12-12 10:15:27.543497', 'mgs': 0, 'flw2': 0.0, 'flw1': 0.53, 'flw0': 0.0, 'time': 22.91, 'compass': -4.79, 'pitch': -2.08, 'roll': 1.14}
{'lipoC2': 8.31, 'temp': 0.0, 'lipoC3S3': 12.64, 'state': 'normal', 'rot1': 4, 'rot0': 6, 'rot3': 1, 'rot2': 0, 'depth': -1.971, 'yaw': -0.0, 'datetime': '2018-12-12 10:15:27.752646', 'mgs': 0, 'flw2': 0.17, 'flw1': 0.0, 'flw0': 0.0, 'time': 23.12, 'compass': -4.79, 'pitch': -2.15, 'roll': 1.15}
{'lipoC2': 8.22, 'temp': 0.0, 'lipoC3S3': 12.48, 'state': 'normal', 'rot1': 4, 'rot0': 6, 'rot3': 1, 'rot2': 0, 'depth': -0.674, 'yaw': -0.0, 'datetime': '2018-12-12 10:15:27.959488', 'mgs': 0, 'flw2': 0.0, 'flw1': 0.0, 'flw0': 0.2, 'time': 23.33, 'compass': -4.79, 'pitch': -2.11, 'roll': 1.14}
{'lipoC2': 8.21, 'temp': 0.0, 'lipoC3S3': 12.81, 'state': 'normal', 'rot1': 4, 'rot0': 6, 'rot3': 2, 'rot2': 0, 'depth': 1.843, 'yaw': -0.0, 'datetime': '2018-12-12 10:15:28.166687', 'mgs': 0, 'flw2': 0.32, 'flw1': 0.0, 'flw0': 0.02, 'time': 23.53, 'compass': -4.79, 'pitch': -2.09, 'roll': 1.14}
{'lipoC2': 8.16, 'temp': 0.0, 'lipoC3S3': 12.84, 'state': 'normal', 'rot1': 4, 'rot0': 6, 'rot3': 2, 'rot2': 0, 'depth': -1.208, 'yaw': -0.01, 'datetime': '2018-12-12 10:15:28.375925', 'mgs': 0, 'flw2': 0.0, 'flw1': 0.29, 'flw0': 0.0, 'time': 23.74, 'compass': -4.79, 'pitch': -2.11, 'roll': 1.12}
{'lipoC2': 8.25, 'temp': 0.0, 'lipoC3S3': 12.7, 'state': 'normal', 'rot1': 4, 'rot0': 6, 'rot3': 2, 'rot2': 0, 'depth': -1.743, 'yaw': -0.01, 'datetime': '2018-12-12 10:15:28.583077', 'mgs': 0, 'flw2': 0.18, 'flw1': 0.0, 'flw0': 0.0, 'time': 23.95, 'compass': -4.79, 'pitch': -2.15, 'roll': 1.12}
{'lipoC2': 8.14, 'temp': 0.0, 'lipoC3S3': 12.89, 'state': 'normal', 'rot1': 4, 'rot0': 6, 'rot3': 2, 'rot2': 0, 'depth': -0.98, 'yaw': -0.01, 'datetime': '2018-12-12 10:15:28.794945', 'mgs': 0, 'flw2': 0.0, 'flw1': 0.7, 'flw0': 0.0, 'time': 24.16, 'compass': -4.79, 'pitch': -2.15, 'roll': 1.12}
{'lipoC2': 8.43, 'temp': 0.0, 'lipoC3S3': 12.48, 'state': 'normal', 'rot1': 4, 'rot0': 6, 'rot3': 2, 'rot2': 0, 'depth': -2.124, 'yaw': -0.01, 'datetime': '2018-12-12 10:15:29.003537', 'mgs': 0, 'flw2': 0.0, 'flw1': 0.0, 'flw0': 0.13, 'time': 24.37, 'compass': -4.79, 'pitch': -2.14, 'roll': 1.13}
{'lipoC2': 8.15, 'temp': 0.0, 'lipoC3S3': 12.87, 'state': 'normal', 'rot1': 4, 'rot0': 6, 'rot3': 2, 'rot2': 0, 'depth': -1.056, 'yaw': -0.01, 'datetime': '2018-12-12 10:15:29.215052', 'mgs': 0, 'flw2': 0.0, 'flw1': 0.73, 'flw0': 0.0, 'time': 24.58, 'compass': -4.79, 'pitch': -2.14, 'roll': 1.11}
{'lipoC2': 8.16, 'temp': 0.0, 'lipoC3S3': 12.87, 'state': 'normal', 'rot1': 4, 'rot0': 6, 'rot3': 2, 'rot2': 0, 'depth': -1.056, 'yaw': -0.01, 'datetime': '2018-12-12 10:15:29.423503', 'mgs': 0, 'flw2': 0.28, 'flw1': 0.0, 'flw0': 0.0, 'time': 24.78, 'compass': -4.79, 'pitch': -2.14, 'roll': 1.1}
{'lipoC2': 8.44, 'temp': 0.0, 'lipoC3S3': 12.51, 'state': 'normal', 'rot1': 4, 'rot0': 6, 'rot3': 2, 'rot2': 0, 'depth': 0.928, 'yaw': -0.01, 'datetime': '2018-12-12 10:15:29.630941', 'mgs': 0, 'flw2': 0.33, 'flw1': 0.0, 'flw0': 0.0, 'time': 24.99, 'compass': -4.79, 'pitch': -2.14, 'roll': 1.1}
{'lipoC2': 8.2, 'temp': 0.0, 'lipoC3S3': 12.33, 'state': 'normal', 'rot1': 4, 'rot0': 6, 'rot3': 2, 'rot2': 0, 'depth': 1.614, 'yaw': -0.01, 'datetime': '2018-12-12 10:15:29.839604', 'mgs': 0, 'flw2': 0.29, 'flw1': 0.0, 'flw0': 0.0, 'time': 25.2, 'compass': -4.79, 'pitch': -2.13, 'roll': 1.14}
{'lipoC2': 8.22, 'temp': 0.0, 'lipoC3S3': 12.64, 'state': 'normal', 'rot1': 4, 'rot0': 6, 'rot3': 2, 'rot2': 0, 'depth': -1.056, 'yaw': -0.01, 'datetime': '2018-12-12 10:15:30.046845', 'mgs': 0, 'flw2': 0.17, 'flw1': 0.0, 'flw0': 0.0, 'time': 25.41, 'compass': -4.79, 'pitch': -2.13, 'roll': 1.1}
{'lipoC2': 8.19, 'temp': 0.0, 'lipoC3S3': 12.79, 'state': 'normal', 'rot1': 4, 'rot0': 6, 'rot3': 2, 'rot2': 0, 'depth': -1.285, 'yaw': -0.01, 'datetime': '2018-12-12 10:15:30.258760', 'mgs': 0, 'flw2': 0.0, 'flw1': 0.0, 'flw0': 0.32, 'time': 25.62, 'compass': -4.79, 'pitch': -2.12, 'roll': 1.08}
{'lipoC2': 8.14, 'temp': 0.0, 'lipoC3S3': 12.89, 'state': 'normal', 'rot1': 4, 'rot0': 6, 'rot3': 2, 'rot2': 0, 'depth': 0.317, 'yaw': -0.01, 'datetime': '2018-12-12 10:15:30.461089', 'mgs': 0, 'flw2': 0.0, 'flw1': 0.73, 'flw0': 0.0, 'time': 25.83, 'compass': -4.79, 'pitch': -2.12, 'roll': 1.08}
{'lipoC2': 8.29, 'temp': 0.0, 'lipoC3S3': 12.38, 'state': 'normal', 'rot1': 4, 'rot0': 6, 'rot3': 2, 'rot2': 0, 'depth': -1.056, 'yaw': -0.01, 'datetime': '2018-12-12 10:15:30.668932', 'mgs': 0, 'flw2': 0.0, 'flw1': 0.82, 'flw0': 0.0, 'time': 26.03, 'compass': -4.79, 'pitch': -2.12, 'roll': 1.09}
{'lipoC2': 8.2, 'temp': 0.0, 'lipoC3S3': 12.71, 'state': 'normal', 'rot1': 4, 'rot0': 6, 'rot3': 2, 'rot2': 0, 'depth': -1.208, 'yaw': -0.01, 'datetime': '2018-12-12 10:15:30.881581', 'mgs': 0, 'flw2': 0.0, 'flw1': 0.0, 'flw0': 0.28, 'time': 26.24, 'compass': -4.79, 'pitch': -2.1, 'roll': 1.09}
{'lipoC2': 8.26, 'temp': 0.0, 'lipoC3S3': 12.7, 'state': 'normal', 'rot1': 4, 'rot0': 6, 'rot3': 2, 'rot2': 0, 'depth': 1.843, 'yaw': -0.01, 'datetime': '2018-12-12 10:15:31.087646', 'mgs': 0, 'flw2': 0.07, 'flw1': 0.0, 'flw0': 0.0, 'time': 26.45, 'compass': -4.79, 'pitch': -2.09, 'roll': 1.09}
{'lipoC2': 8.37, 'temp': 0.0, 'lipoC3S3': 12.45, 'state': 'normal', 'rot1': 4, 'rot0': 6, 'rot3': 2, 'rot2': 0, 'depth': 1.614, 'yaw': -0.01, 'datetime': '2018-12-12 10:15:31.299177', 'mgs': 0, 'flw2': 0.07, 'flw1': 0.0, 'flw0': 0.0, 'time': 26.66, 'compass': -4.79, 'pitch': -2.09, 'roll': 1.09}
{'lipoC2': 8.45, 'temp': 0.0, 'lipoC3S3': 12.64, 'state': 'normal', 'rot1': 4, 'rot0': 6, 'rot3': 2, 'rot2': 0, 'depth': -1.971, 'yaw': -0.01, 'datetime': '2018-12-12 10:15:31.507413', 'mgs': 0, 'flw2': 0.0, 'flw1': 0.26, 'flw0': 0.0, 'time': 26.87, 'compass': -4.79, 'pitch': -2.09, 'roll': 1.09}
{'lipoC2': 8.35, 'temp': 0.0, 'lipoC3S3': 12.6, 'state': 'normal', 'rot1': 4, 'rot0': 6, 'rot3': 2, 'rot2': 0, 'depth': -1.895, 'yaw': -0.01, 'datetime': '2018-12-12 10:15:31.712079', 'mgs': 0, 'flw2': 0.0, 'flw1': 0.64, 'flw0': 0.17, 'time': 27.07, 'compass': -4.79, 'pitch': -2.09, 'roll': 1.09}
{'lipoC2': 8.15, 'temp': 0.0, 'lipoC3S3': 12.87, 'state': 'normal', 'rot1': 4, 'rot0': 6, 'rot3': 2, 'rot2': 0, 'depth': -1.208, 'yaw': -0.01, 'datetime': '2018-12-12 10:15:31.921106', 'mgs': 0, 'flw2': 0.07, 'flw1': 0.0, 'flw0': 0.26, 'time': 27.28, 'compass': -4.79, 'pitch': -2.09, 'roll': 1.09}
{'lipoC2': 8.51, 'temp': 0.0, 'lipoC3S3': 12.81, 'state': 'normal', 'rot1': 4, 'rot0': 6, 'rot3': 2, 'rot2': 0, 'depth': 0.241, 'yaw': -0.01, 'datetime': '2018-12-12 10:15:32.129390', 'mgs': 0, 'flw2': 0.0, 'flw1': 0.56, 'flw0': 0.0, 'time': 27.49, 'compass': -4.79, 'pitch': -2.1, 'roll': 1.09}
{'lipoC2': 8.22, 'temp': 0.0, 'lipoC3S3': 12.5, 'state': 'normal', 'rot1': 4, 'rot0': 6, 'rot3': 2, 'rot2': 0, 'depth': -0.598, 'yaw': -0.01, 'datetime': '2018-12-12 10:15:32.344381', 'mgs': 0, 'flw2': 0.0, 'flw1': 0.0, 'flw0': 0.22, 'time': 27.7, 'compass': -4.79, 'pitch': -2.11, 'roll': 1.09}
{'lipoC2': 8.22, 'temp': 0.0, 'lipoC3S3': 12.6, 'state': 'normal', 'rot1': 4, 'rot0': 6, 'rot3': 2, 'rot2': 0, 'depth': -0.98, 'yaw': -0.01, 'datetime': '2018-12-12 10:15:32.551075', 'mgs': 0, 'flw2': 0.0, 'flw1': 0.0, 'flw0': 0.26, 'time': 27.91, 'compass': -4.79, 'pitch': -2.11, 'roll': 1.09}
{'lipoC2': 8.25, 'temp': 0.0, 'lipoC3S3': 12.35, 'state': 'normal', 'rot1': 4, 'rot0': 6, 'rot3': 2, 'rot2': 0, 'depth': 1.614, 'yaw': -0.01, 'datetime': '2018-12-12 10:15:32.758002', 'mgs': 0, 'flw2': 0.0, 'flw1': 0.0, 'flw0': 0.0, 'time': 28.12, 'compass': -4.79, 'pitch': -2.1, 'roll': 1.09}
{'lipoC2': 8.16, 'temp': 0.0, 'lipoC3S3': 12.84, 'state': 'normal', 'rot1': 4, 'rot0': 6, 'rot3': 2, 'rot2': 0, 'depth': -1.208, 'yaw': -0.01, 'datetime': '2018-12-12 10:15:32.965843', 'mgs': 0, 'flw2': 0.0, 'flw1': 0.0, 'flw0': 0.33, 'time': 28.32, 'compass': -4.79, 'pitch': -2.1, 'roll': 1.09}
{'lipoC2': 8.51, 'temp': 0.0, 'lipoC3S3': 12.48, 'state': 'normal', 'rot1': 4, 'rot0': 6, 'rot3': 2, 'rot2': 0, 'depth': -0.827, 'yaw': -0.01, 'datetime': '2018-12-12 10:15:33.174295', 'mgs': 0, 'flw2': 0.32, 'flw1': 0.0, 'flw0': 0.0, 'time': 28.53, 'compass': -4.79, 'pitch': -2.1, 'roll': 1.09}
{'lipoC2': 8.34, 'temp': 0.0, 'lipoC3S3': 12.46, 'state': 'normal', 'rot1': 4, 'rot0': 6, 'rot3': 2, 'rot2': 0, 'depth': -1.895, 'yaw': -0.01, 'datetime': '2018-12-12 10:15:33.381555', 'mgs': 0, 'flw2': 0.0, 'flw1': 0.0, 'flw0': 0.16, 'time': 28.74, 'compass': -4.79, 'pitch': -2.1, 'roll': 1.09}
{'lipoC2': 8.51, 'temp': 0.0, 'lipoC3S3': 12.47, 'state': 'normal', 'rot1': 4, 'rot0': 6, 'rot3': 2, 'rot2': 0, 'depth': -0.14, 'yaw': -0.01, 'datetime': '2018-12-12 10:15:33.590989', 'mgs': 0, 'flw2': 0.0, 'flw1': 0.0, 'flw0': 0.32, 'time': 28.95, 'compass': -4.79, 'pitch': -2.1, 'roll': 1.09}
{'lipoC2': 8.5, 'temp': 0.0, 'lipoC3S3': 12.47, 'state': 'normal', 'rot1': 4, 'rot0': 6, 'rot3': 2, 'rot2': 0, 'depth': -1.819, 'yaw': -0.01, 'datetime': '2018-12-12 10:15:33.800934', 'mgs': 0, 'flw2': 0.12, 'flw1': 0.0, 'flw0': 0.32, 'time': 29.16, 'compass': -4.79, 'pitch': -2.1, 'roll': 1.09}
{'lipoC2': 8.41, 'temp': 0.0, 'lipoC3S3': 12.42, 'state': 'normal', 'rot1': 4, 'rot0': 6, 'rot3': 2, 'rot2': 0, 'depth': 1.004, 'yaw': -0.01, 'datetime': '2018-12-12 10:15:34.008705', 'mgs': 0, 'flw2': 0.32, 'flw1': 0.0, 'flw0': 0.0, 'time': 29.37, 'compass': -4.79, 'pitch': -2.1, 'roll': 1.09}
{'lipoC2': 8.41, 'temp': 0.0, 'lipoC3S3': 12.45, 'state': 'normal', 'rot1': 4, 'rot0': 6, 'rot3': 2, 'rot2': 0, 'depth': -1.285, 'yaw': -0.01, 'datetime': '2018-12-12 10:15:34.217038', 'mgs': 0, 'flw2': 0.23, 'flw1': 0.0, 'flw0': 0.0, 'time': 29.57, 'compass': -4.79, 'pitch': -2.1, 'roll': 1.09}
{'lipoC2': 8.17, 'temp': 0.0, 'lipoC3S3': 12.43, 'state': 'normal', 'rot1': 4, 'rot0': 6, 'rot3': 2, 'rot2': 0, 'depth': -1.437, 'yaw': -0.01, 'datetime': '2018-12-12 10:15:34.425478', 'mgs': 0, 'flw2': 0.24, 'flw1': 0.0, 'flw0': 0.0, 'time': 29.78, 'compass': -4.79, 'pitch': -2.1, 'roll': 1.09}
{'lipoC2': 8.53, 'temp': 0.0, 'lipoC3S3': 12.47, 'state': 'normal', 'rot1': 4, 'rot0': 6, 'rot3': 2, 'rot2': 0, 'depth': 0.317, 'yaw': -0.01, 'datetime': '2018-12-12 10:15:34.635010', 'mgs': 0, 'flw2': 0.1, 'flw1': 0.0, 'flw0': 0.0, 'time': 29.99, 'compass': -4.79, 'pitch': -2.1, 'roll': 1.09}
{'lipoC2': 8.51, 'temp': 0.0, 'lipoC3S3': 12.47, 'state': 'normal', 'rot1': 4, 'rot0': 6, 'rot3': 2, 'rot2': 0, 'depth': -1.208, 'yaw': -0.01, 'datetime': '2018-12-12 10:15:34.843294', 'mgs': 0, 'flw2': 0.31, 'flw1': 0.0, 'flw0': 0.0, 'time': 30.2, 'compass': -4.79, 'pitch': -2.1, 'roll': 1.09}
{'lipoC2': 8.52, 'temp': 0.0, 'lipoC3S3': 12.47, 'state': 'normal', 'rot1': 4, 'rot0': 6, 'rot3': 2, 'rot2': 0, 'depth': -1.285, 'yaw': -0.01, 'datetime': '2018-12-12 10:15:35.051084', 'mgs': 0, 'flw2': 0.18, 'flw1': 0.0, 'flw0': 0.0, 'time': 30.41, 'compass': -4.79, 'pitch': -2.1, 'roll': 1.09}
{'lipoC2': 8.51, 'temp': 0.0, 'lipoC3S3': 12.48, 'state': 'normal', 'rot1': 4, 'rot0': 6, 'rot3': 3, 'rot2': 0, 'depth': -1.132, 'yaw': -0.01, 'datetime': '2018-12-12 10:15:35.260240', 'mgs': 0, 'flw2': 0.18, 'flw1': 0.0, 'flw0': 0.0, 'time': 30.61, 'compass': -4.79, 'pitch': -2.1, 'roll': 1.09}
{'lipoC2': 8.16, 'temp': 0.0, 'lipoC3S3': 12.83, 'state': 'normal', 'rot1': 4, 'rot0': 6, 'rot3': 3, 'rot2': 0, 'depth': -1.285, 'yaw': -0.01, 'datetime': '2018-12-12 10:15:35.469134', 'mgs': 0, 'flw2': 0.0, 'flw1': 0.53, 'flw0': 0.0, 'time': 30.82, 'compass': -4.79, 'pitch': -2.1, 'roll': 1.09}
{'lipoC2': 8.42, 'temp': 0.0, 'lipoC3S3': 12.48, 'state': 'normal', 'rot1': 4, 'rot0': 6, 'rot3': 3, 'rot2': 0, 'depth': 1.385, 'yaw': -0.01, 'datetime': '2018-12-12 10:15:35.678348', 'mgs': 0, 'flw2': 0.0, 'flw1': 0.41, 'flw0': 0.0, 'time': 31.03, 'compass': -4.79, 'pitch': -2.1, 'roll': 1.09}
{'lipoC2': 8.19, 'temp': 0.0, 'lipoC3S3': 12.79, 'state': 'normal', 'rot1': 4, 'rot0': 6, 'rot3': 3, 'rot2': 0, 'depth': -1.208, 'yaw': -0.01, 'datetime': '2018-12-12 10:15:35.885331', 'mgs': 0, 'flw2': 0.0, 'flw1': 0.38, 'flw0': 0.0, 'time': 31.24, 'compass': -4.79, 'pitch': -2.1, 'roll': 1.09}
{'lipoC2': 8.41, 'temp': 0.0, 'lipoC3S3': 12.48, 'state': 'normal', 'rot1': 4, 'rot0': 6, 'rot3': 3, 'rot2': 0, 'depth': 1.157, 'yaw': -0.01, 'datetime': '2018-12-12 10:15:36.094453', 'mgs': 0, 'flw2': 0.0, 'flw1': 0.41, 'flw0': 0.0, 'time': 31.45, 'compass': -4.79, 'pitch': -2.1, 'roll': 1.09}
{'lipoC2': 8.26, 'temp': 0.0, 'lipoC3S3': 12.68, 'state': 'normal', 'rot1': 4, 'rot0': 6, 'rot3': 3, 'rot2': 0, 'depth': 1.92, 'yaw': -0.01, 'datetime': '2018-12-12 10:15:36.303916', 'mgs': 0, 'flw2': 0.27, 'flw1': 0.0, 'flw0': 0.0, 'time': 31.66, 'compass': -4.79, 'pitch': -2.1, 'roll': 1.09}
{'lipoC2': 8.34, 'temp': 0.0, 'lipoC3S3': 12.41, 'state': 'normal', 'rot1': 4, 'rot0': 6, 'rot3': 3, 'rot2': 0, 'depth': 1.767, 'yaw': -0.01, 'datetime': '2018-12-12 10:15:36.512073', 'mgs': 0, 'flw2': 0.0, 'flw1': 0.0, 'flw0': 0.0, 'time': 31.86, 'compass': -4.79, 'pitch': -2.1, 'roll': 1.09}
{'lipoC2': 8.5, 'temp': 0.0, 'lipoC3S3': 12.47, 'state': 'normal', 'rot1': 4, 'rot0': 6, 'rot3': 3, 'rot2': 0, 'depth': -1.666, 'yaw': -0.01, 'datetime': '2018-12-12 10:15:36.720286', 'mgs': 0, 'flw2': 0.21, 'flw1': 0.0, 'flw0': 0.0, 'time': 32.07, 'compass': -4.79, 'pitch': -2.1, 'roll': 1.09}
{'lipoC2': 8.17, 'temp': 0.0, 'lipoC3S3': 12.84, 'state': 'normal', 'rot1': 4, 'rot0': 6, 'rot3': 3, 'rot2': 0, 'depth': -1.361, 'yaw': -0.01, 'datetime': '2018-12-12 10:15:36.928563', 'mgs': 0, 'flw2': 0.1, 'flw1': 0.0, 'flw0': 0.31, 'time': 32.28, 'compass': -4.79, 'pitch': -2.1, 'roll': 1.09}
{'lipoC2': 8.22, 'temp': 0.0, 'lipoC3S3': 12.71, 'state': 'normal', 'rot1': 4, 'rot0': 6, 'rot3': 3, 'rot2': 0, 'depth': -1.361, 'yaw': -0.01, 'datetime': '2018-12-12 10:15:37.138815', 'mgs': 0, 'flw2': 0.32, 'flw1': 0.0, 'flw0': 0.0, 'time': 32.49, 'compass': -4.79, 'pitch': -2.1, 'roll': 1.09}
{'lipoC2': 8.15, 'temp': 0.0, 'lipoC3S3': 12.87, 'state': 'normal', 'rot1': 4, 'rot0': 6, 'rot3': 3, 'rot2': 0, 'depth': -0.903, 'yaw': -0.01, 'datetime': '2018-12-12 10:15:37.345711', 'mgs': 0, 'flw2': 0.0, 'flw1': 0.44, 'flw0': 0.0, 'time': 32.7, 'compass': -4.79, 'pitch': -2.09, 'roll': 1.09}
{'lipoC2': 8.52, 'temp': 0.0, 'lipoC3S3': 12.47, 'state': 'normal', 'rot1': 4, 'rot0': 6, 'rot3': 3, 'rot2': 0, 'depth': -1.361, 'yaw': -0.01, 'datetime': '2018-12-12 10:15:37.554141', 'mgs': 0, 'flw2': 0.0, 'flw1': 0.09, 'flw0': 0.0, 'time': 32.91, 'compass': -4.79, 'pitch': -2.09, 'roll': 1.09}
{'lipoC2': 8.51, 'temp': 0.0, 'lipoC3S3': 12.47, 'state': 'normal', 'rot1': 4, 'rot0': 6, 'rot3': 3, 'rot2': 0, 'depth': -1.514, 'yaw': -0.01, 'datetime': '2018-12-12 10:15:37.762408', 'mgs': 0, 'flw2': 0.09, 'flw1': 0.0, 'flw0': 0.38, 'time': 33.11, 'compass': -4.79, 'pitch': -2.09, 'roll': 1.09}
{'lipoC2': 8.19, 'temp': 0.0, 'lipoC3S3': 12.79, 'state': 'normal', 'rot1': 4, 'rot0': 6, 'rot3': 3, 'rot2': 0, 'depth': -1.285, 'yaw': -0.01, 'datetime': '2018-12-12 10:15:37.971625', 'mgs': 0, 'flw2': 0.06, 'flw1': 0.0, 'flw0': 0.31, 'time': 33.32, 'compass': -4.79, 'pitch': -2.09, 'roll': 1.09}
{'lipoC2': 8.3, 'temp': 0.0, 'lipoC3S3': 12.41, 'state': 'normal', 'rot1': 4, 'rot0': 6, 'rot3': 4, 'rot2': 0, 'depth': -1.208, 'yaw': -0.01, 'datetime': '2018-12-12 10:15:38.179980', 'mgs': 0, 'flw2': 0.21, 'flw1': 0.0, 'flw0': 0.0, 'time': 33.53, 'compass': -4.79, 'pitch': -2.09, 'roll': 1.09}
{'lipoC2': 8.36, 'temp': 0.0, 'lipoC3S3': 12.45, 'state': 'normal', 'rot1': 4, 'rot0': 6, 'rot3': 4, 'rot2': 0, 'depth': 1.614, 'yaw': -0.01, 'datetime': '2018-12-12 10:15:38.387845', 'mgs': 0, 'flw2': 0.07, 'flw1': 0.0, 'flw0': 0.0, 'time': 33.74, 'compass': -4.79, 'pitch': -2.09, 'roll': 1.09}
{'lipoC2': 8.19, 'temp': 0.0, 'lipoC3S3': 12.81, 'state': 'normal', 'rot1': 4, 'rot0': 6, 'rot3': 4, 'rot2': 0, 'depth': -1.285, 'yaw': -0.01, 'datetime': '2018-12-12 10:15:38.596321', 'mgs': 0, 'flw2': 0.2, 'flw1': 0.0, 'flw0': 0.0, 'time': 33.95, 'compass': -4.79, 'pitch': -2.09, 'roll': 1.09}
{'lipoC2': 8.14, 'temp': 0.0, 'lipoC3S3': 12.91, 'state': 'normal', 'rot1': 4, 'rot0': 6, 'rot3': 4, 'rot2': 0, 'depth': -1.208, 'yaw': -0.01, 'datetime': '2018-12-12 10:15:38.805828', 'mgs': 0, 'flw2': 0.33, 'flw1': 0.0, 'flw0': 0.11, 'time': 34.15, 'compass': -4.79, 'pitch': -2.05, 'roll': 1.09}
{'lipoC2': 8.13, 'temp': 0.0, 'lipoC3S3': 12.88, 'state': 'normal', 'rot1': 4, 'rot0': 6, 'rot3': 4, 'rot2': 0, 'depth': 0.317, 'yaw': -0.01, 'datetime': '2018-12-12 10:15:39.014340', 'mgs': 0, 'flw2': 0.0, 'flw1': 0.0, 'flw0': 0.0, 'time': 34.36, 'compass': -4.79, 'pitch': -2.05, 'roll': 1.09}
{'lipoC2': 8.16, 'temp': 0.0, 'lipoC3S3': 12.84, 'state': 'normal', 'rot1': 4, 'rot0': 6, 'rot3': 4, 'rot2': 0, 'depth': -1.056, 'yaw': -0.01, 'datetime': '2018-12-12 10:15:39.222194', 'mgs': 0, 'flw2': 0.0, 'flw1': 0.64, 'flw0': 0.0, 'time': 34.57, 'compass': -4.79, 'pitch': -2.05, 'roll': 1.09}
{'lipoC2': 8.51, 'temp': 0.0, 'lipoC3S3': 12.8, 'state': 'normal', 'rot1': 4, 'rot0': 6, 'rot3': 4, 'rot2': 0, 'depth': -1.208, 'yaw': -0.01, 'datetime': '2018-12-12 10:15:39.431490', 'mgs': 0, 'flw2': 0.0, 'flw1': 0.29, 'flw0': 0.0, 'time': 34.78, 'compass': -4.79, 'pitch': -2.05, 'roll': 1.09}
{'lipoC2': 8.35, 'temp': 0.0, 'lipoC3S3': 12.46, 'state': 'normal', 'rot1': 4, 'rot0': 6, 'rot3': 4, 'rot2': 0, 'depth': -1.208, 'yaw': -0.01, 'datetime': '2018-12-12 10:15:39.641516', 'mgs': 0, 'flw2': 0.29, 'flw1': 0.0, 'flw0': 0.07, 'time': 34.99, 'compass': -4.79, 'pitch': -2.05, 'roll': 1.09}
{'lipoC2': 8.43, 'temp': 0.0, 'lipoC3S3': 12.51, 'state': 'normal', 'rot1': 4, 'rot0': 6, 'rot3': 4, 'rot2': 0, 'depth': 0.851, 'yaw': -0.01, 'datetime': '2018-12-12 10:15:39.849588', 'mgs': 0, 'flw2': 0.27, 'flw1': 0.0, 'flw0': 0.0, 'time': 35.2, 'compass': -4.79, 'pitch': -2.05, 'roll': 1.09}
{'lipoC2': 8.26, 'temp': 0.0, 'lipoC3S3': 12.7, 'state': 'normal', 'rot1': 4, 'rot0': 6, 'rot3': 4, 'rot2': 0, 'depth': 1.843, 'yaw': -0.01, 'datetime': '2018-12-12 10:15:40.057583', 'mgs': 0, 'flw2': 0.0, 'flw1': 0.0, 'flw0': 0.0, 'time': 35.4, 'compass': -4.79, 'pitch': -2.05, 'roll': 1.09}
{'lipoC2': 8.36, 'temp': 0.0, 'lipoC3S3': 12.48, 'state': 'normal', 'rot1': 4, 'rot0': 6, 'rot3': 4, 'rot2': 0, 'depth': -1.971, 'yaw': -0.01, 'datetime': '2018-12-12 10:15:40.264661', 'mgs': 0, 'flw2': 0.0, 'flw1': 0.0, 'flw0': 0.15, 'time': 35.61, 'compass': -4.79, 'pitch': -2.05, 'roll': 1.09}
{'lipoC2': 8.3, 'temp': 0.0, 'lipoC3S3': 12.64, 'state': 'normal', 'rot1': 4, 'rot0': 6, 'rot3': 4, 'rot2': 0, 'depth': 1.92, 'yaw': -0.01, 'datetime': '2018-12-12 10:15:40.473745', 'mgs': 0, 'flw2': 0.17, 'flw1': 0.0, 'flw0': 0.0, 'time': 35.82, 'compass': -4.79, 'pitch': -2.05, 'roll': 1.09}
{'lipoC2': 8.49, 'temp': 0.0, 'lipoC3S3': 12.48, 'state': 'normal', 'rot1': 4, 'rot0': 6, 'rot3': 4, 'rot2': 0, 'depth': 0.241, 'yaw': -0.01, 'datetime': '2018-12-12 10:15:40.681400', 'mgs': 0, 'flw2': 0.0, 'flw1': 0.0, 'flw0': 0.01, 'time': 36.03, 'compass': -4.79, 'pitch': -2.05, 'roll': 1.09}
{'lipoC2': 8.37, 'temp': 0.0, 'lipoC3S3': 12.45, 'state': 'normal', 'rot1': 4, 'rot0': 6, 'rot3': 5, 'rot2': 0, 'depth': 1.614, 'yaw': -0.01, 'datetime': '2018-12-12 10:15:40.889794', 'mgs': 0, 'flw2': 0.0, 'flw1': 0.35, 'flw0': 0.0, 'time': 36.24, 'compass': -4.79, 'pitch': -2.05, 'roll': 1.09}
{'lipoC2': 8.41, 'temp': 0.0, 'lipoC3S3': 12.58, 'state': 'normal', 'rot1': 4, 'rot0': 6, 'rot3': 5, 'rot2': 0, 'depth': -1.895, 'yaw': -0.01, 'datetime': '2018-12-12 10:15:41.099281', 'mgs': 0, 'flw2': 0.1, 'flw1': 0.0, 'flw0': 0.0, 'time': 36.45, 'compass': -4.79, 'pitch': -2.05, 'roll': 1.09}
{'lipoC2': 8.3, 'temp': 0.0, 'lipoC3S3': 12.64, 'state': 'normal', 'rot1': 4, 'rot0': 6, 'rot3': 5, 'rot2': 0, 'depth': -1.895, 'yaw': -0.01, 'datetime': '2018-12-12 10:15:41.308678', 'mgs': 0, 'flw2': 0.17, 'flw1': 0.0, 'flw0': 0.0, 'time': 36.65, 'compass': -4.79, 'pitch': -2.05, 'roll': 1.09}
{'lipoC2': 8.28, 'temp': 0.0, 'lipoC3S3': 12.64, 'state': 'normal', 'rot1': 4, 'rot0': 6, 'rot3': 5, 'rot2': 0, 'depth': 1.92, 'yaw': -0.01, 'datetime': '2018-12-12 10:15:41.515462', 'mgs': 0, 'flw2': 0.29, 'flw1': 0.0, 'flw0': 0.0, 'time': 36.86, 'compass': -4.79, 'pitch': -2.05, 'roll': 1.09}
{'lipoC2': 8.39, 'temp': 0.0, 'lipoC3S3': 12.55, 'state': 'normal', 'rot1': 4, 'rot0': 6, 'rot3': 5, 'rot2': 0, 'depth': -1.971, 'yaw': -0.01, 'datetime': '2018-12-12 10:15:41.723735', 'mgs': 0, 'flw2': 0.0, 'flw1': 0.0, 'flw0': 0.31, 'time': 37.07, 'compass': -4.79, 'pitch': -2.05, 'roll': 1.09}
{'lipoC2': 8.42, 'temp': 0.0, 'lipoC3S3': 12.48, 'state': 'normal', 'rot1': 4, 'rot0': 6, 'rot3': 5, 'rot2': 0, 'depth': 1.309, 'yaw': -0.01, 'datetime': '2018-12-12 10:15:41.932826', 'mgs': 0, 'flw2': 0.0, 'flw1': 0.12, 'flw0': 0.0, 'time': 37.28, 'compass': -4.79, 'pitch': -2.05, 'roll': 1.09}
{'lipoC2': 8.51, 'temp': 0.0, 'lipoC3S3': 12.47, 'state': 'normal', 'rot1': 4, 'rot0': 6, 'rot3': 5, 'rot2': 0, 'depth': -0.827, 'yaw': -0.01, 'datetime': '2018-12-12 10:15:42.141838', 'mgs': 0, 'flw2': 0.0, 'flw1': 0.0, 'flw0': 0.0, 'time': 37.49, 'compass': -4.79, 'pitch': -2.05, 'roll': 1.09}
{'lipoC2': 8.14, 'temp': 0.0, 'lipoC3S3': 12.88, 'state': 'normal', 'rot1': 4, 'rot0': 6, 'rot3': 5, 'rot2': 0, 'depth': -0.903, 'yaw': -0.01, 'datetime': '2018-12-12 10:15:42.348732', 'mgs': 0, 'flw2': 0.0, 'flw1': 0.7, 'flw0': 0.0, 'time': 37.69, 'compass': -4.79, 'pitch': -2.05, 'roll': 1.09}
{'lipoC2': 8.5, 'temp': 0.0, 'lipoC3S3': 12.47, 'state': 'normal', 'rot1': 4, 'rot0': 6, 'rot3': 5, 'rot2': 0, 'depth': 0.317, 'yaw': -0.01, 'datetime': '2018-12-12 10:15:42.557965', 'mgs': 0, 'flw2': 0.29, 'flw1': 0.0, 'flw0': 0.0, 'time': 37.9, 'compass': -4.79, 'pitch': -2.05, 'roll': 1.09}
{'lipoC2': 8.51, 'temp': 0.0, 'lipoC3S3': 12.47, 'state': 'normal', 'rot1': 4, 'rot0': 6, 'rot3': 5, 'rot2': 0, 'depth': -0.674, 'yaw': -0.01, 'datetime': '2018-12-12 10:15:42.767103', 'mgs': 0, 'flw2': 0.28, 'flw1': 0.0, 'flw0': 0.0, 'time': 38.11, 'compass': -4.79, 'pitch': -2.05, 'roll': 1.09}
{'lipoC2': 8.4, 'temp': 0.0, 'lipoC3S3': 12.48, 'state': 'normal', 'rot1': 4, 'rot0': 6, 'rot3': 5, 'rot2': 0, 'depth': 1.538, 'yaw': -0.01, 'datetime': '2018-12-12 10:15:42.975469', 'mgs': 0, 'flw2': 0.15, 'flw1': 0.0, 'flw0': 0.0, 'time': 38.32, 'compass': -4.79, 'pitch': -2.05, 'roll': 1.09}
{'lipoC2': 8.5, 'temp': 0.0, 'lipoC3S3': 12.48, 'state': 'normal', 'rot1': 4, 'rot0': 6, 'rot3': 5, 'rot2': 0, 'depth': 0.089, 'yaw': -0.01, 'datetime': '2018-12-12 10:15:43.183053', 'mgs': 0, 'flw2': 0.0, 'flw1': 0.0, 'flw0': 0.32, 'time': 38.53, 'compass': -4.79, 'pitch': -2.05, 'roll': 1.09}
{'lipoC2': 8.21, 'temp': 0.0, 'lipoC3S3': 12.33, 'state': 'normal', 'rot1': 4, 'rot0': 6, 'rot3': 5, 'rot2': 0, 'depth': 1.233, 'yaw': -0.01, 'datetime': '2018-12-12 10:15:43.392385', 'mgs': 0, 'flw2': 0.28, 'flw1': 0.0, 'flw0': 0.0, 'time': 38.74, 'compass': -4.79, 'pitch': -2.05, 'roll': 1.09}
{'lipoC2': 8.21, 'temp': 0.0, 'lipoC3S3': 12.63, 'state': 'normal', 'rot1': 4, 'rot0': 6, 'rot3': 6, 'rot2': 0, 'depth': -1.285, 'yaw': -0.01, 'datetime': '2018-12-12 10:15:43.600699', 'mgs': 0, 'flw2': 0.26, 'flw1': 0.0, 'flw0': 0.0, 'time': 38.94, 'compass': -4.79, 'pitch': -2.05, 'roll': 1.09}
{'lipoC2': 8.46, 'temp': 0.0, 'lipoC3S3': 12.5, 'state': 'normal', 'rot1': 4, 'rot0': 6, 'rot3': 6, 'rot2': 0, 'depth': 0.699, 'yaw': -0.01, 'datetime': '2018-12-12 10:15:43.912527', 'mgs': 0, 'flw2': 0.0, 'flw1': 0.0, 'flw0': 0.28, 'time': 39.26, 'compass': -4.79, 'pitch': -2.05, 'roll': 1.09}
{'lipoC2': 8.21, 'temp': 0.0, 'lipoC3S3': 12.33, 'state': 'normal', 'rot1': 4, 'rot0': 6, 'rot3': 6, 'rot2': 0, 'depth': 1.309, 'yaw': -0.01, 'datetime': '2018-12-12 10:15:44.118799', 'mgs': 0, 'flw2': 0.32, 'flw1': 0.0, 'flw0': 0.0, 'time': 39.46, 'compass': -4.79, 'pitch': -2.05, 'roll': 1.09}
{'lipoC2': 8.24, 'temp': 0.0, 'lipoC3S3': 12.74, 'state': 'normal', 'rot1': 4, 'rot0': 6, 'rot3': 6, 'rot2': 0, 'depth': 1.92, 'yaw': -0.01, 'datetime': '2018-12-12 10:15:44.327150', 'mgs': 0, 'flw2': 0.0, 'flw1': 0.67, 'flw0': 0.0, 'time': 39.67, 'compass': -4.79, 'pitch': -2.05, 'roll': 1.09}
{'lipoC2': 8.21, 'temp': 0.0, 'lipoC3S3': 12.68, 'state': 'normal', 'rot1': 4, 'rot0': 6, 'rot3': 6, 'rot2': 0, 'depth': -1.208, 'yaw': -0.01, 'datetime': '2018-12-12 10:15:44.538121', 'mgs': 0, 'flw2': 0.0, 'flw1': 0.0, 'flw0': 0.31, 'time': 39.88, 'compass': -4.79, 'pitch': -2.05, 'roll': 1.09}
{'lipoC2': 8.24, 'temp': 0.0, 'lipoC3S3': 12.7, 'state': 'normal', 'rot1': 4, 'rot0': 6, 'rot3': 6, 'rot2': 0, 'depth': -1.514, 'yaw': -0.01, 'datetime': '2018-12-12 10:15:44.758232', 'mgs': 0, 'flw2': 0.26, 'flw1': 0.0, 'flw0': 0.0, 'time': 40.09, 'compass': -4.79, 'pitch': -2.05, 'roll': 1.09}
{'lipoC2': 8.24, 'temp': 0.0, 'lipoC3S3': 12.35, 'state': 'normal', 'rot1': 4, 'rot0': 6, 'rot3': 6, 'rot2': 0, 'depth': 1.462, 'yaw': -0.01, 'datetime': '2018-12-12 10:15:45.060800', 'mgs': 0, 'flw2': 0.12, 'flw1': 0.0, 'flw0': 0.0, 'time': 40.4, 'compass': -4.79, 'pitch': -2.05, 'roll': 1.09}
{'lipoC2': 8.21, 'temp': 0.0, 'lipoC3S3': 12.43, 'state': 'normal', 'rot1': 4, 'rot0': 6, 'rot3': 6, 'rot2': 0, 'depth': -1.895, 'yaw': -0.01, 'datetime': '2018-12-12 10:15:45.266497', 'mgs': 0, 'flw2': 0.24, 'flw1': 0.0, 'flw0': 0.0, 'time': 40.61, 'compass': -4.79, 'pitch': -2.05, 'roll': 1.09}
{'lipoC2': 8.24, 'temp': 0.0, 'lipoC3S3': 12.35, 'state': 'normal', 'rot1': 4, 'rot0': 6, 'rot3': 6, 'rot2': 0, 'depth': 1.767, 'yaw': -0.01, 'datetime': '2018-12-12 10:15:45.477670', 'mgs': 0, 'flw2': 0.09, 'flw1': 0.0, 'flw0': 0.0, 'time': 40.82, 'compass': -4.79, 'pitch': -2.05, 'roll': 1.09}
{'lipoC2': 8.4, 'temp': 0.0, 'lipoC3S3': 12.46, 'state': 'normal', 'rot1': 4, 'rot0': 6, 'rot3': 6, 'rot2': 0, 'depth': -1.285, 'yaw': -0.01, 'datetime': '2018-12-12 10:15:45.685353', 'mgs': 0, 'flw2': 0.0, 'flw1': 0.0, 'flw0': 0.32, 'time': 41.03, 'compass': -4.79, 'pitch': -2.05, 'roll': 1.09}
{'lipoC2': 8.22, 'temp': 0.0, 'lipoC3S3': 12.67, 'state': 'normal', 'rot1': 4, 'rot0': 6, 'rot3': 6, 'rot2': 0, 'depth': -0.98, 'yaw': -0.01, 'datetime': '2018-12-12 10:15:45.890292', 'mgs': 0, 'flw2': 0.0, 'flw1': 0.0, 'flw0': 0.33, 'time': 41.23, 'compass': -4.79, 'pitch': -2.05, 'roll': 1.09}
{'lipoC2': 8.22, 'temp': 0.0, 'lipoC3S3': 12.34, 'state': 'normal', 'rot1': 4, 'rot0': 6, 'rot3': 6, 'rot2': 0, 'depth': 1.538, 'yaw': -0.01, 'datetime': '2018-12-12 10:15:46.099864', 'mgs': 0, 'flw2': 0.28, 'flw1': 0.0, 'flw0': 0.0, 'time': 41.44, 'compass': -4.79, 'pitch': -2.05, 'roll': 1.09}
{'lipoC2': 8.16, 'temp': 0.0, 'lipoC3S3': 12.83, 'state': 'normal', 'rot1': 4, 'rot0': 6, 'rot3': 6, 'rot2': 0, 'depth': -0.903, 'yaw': -0.01, 'datetime': '2018-12-12 10:15:46.306899', 'mgs': 0, 'flw2': 0.0, 'flw1': 0.47, 'flw0': 0.0, 'time': 41.65, 'compass': -4.79, 'pitch': -2.05, 'roll': 1.09}
{'lipoC2': 8.35, 'temp': 0.0, 'lipoC3S3': 12.58, 'state': 'normal', 'rot1': 4, 'rot0': 6, 'rot3': 6, 'rot2': 0, 'depth': -1.895, 'yaw': -0.01, 'datetime': '2018-12-12 10:15:46.517964', 'mgs': 0, 'flw2': 0.0, 'flw1': 0.0, 'flw0': 0.31, 'time': 41.86, 'compass': -4.79, 'pitch': -2.05, 'roll': 1.09}
{'lipoC2': 8.5, 'temp': 0.0, 'lipoC3S3': 12.48, 'state': 'normal', 'rot1': 4, 'rot0': 6, 'rot3': 6, 'rot2': 0, 'depth': 0.089, 'yaw': -0.01, 'datetime': '2018-12-12 10:15:46.725514', 'mgs': 0, 'flw2': 0.31, 'flw1': 0.0, 'flw0': 0.0, 'time': 42.07, 'compass': -4.79, 'pitch': -2.05, 'roll': 1.09}
{'lipoC2': 8.4, 'temp': 0.0, 'lipoC3S3': 12.46, 'state': 'normal', 'rot1': 4, 'rot0': 6, 'rot3': 6, 'rot2': 0, 'depth': -1.285, 'yaw': -0.01, 'datetime': '2018-12-12 10:15:46.934855', 'mgs': 0, 'flw2': 0.32, 'flw1': 0.0, 'flw0': 0.01, 'time': 42.27, 'compass': -4.79, 'pitch': -2.05, 'roll': 1.09}
{'lipoC2': 8.16, 'temp': 0.0, 'lipoC3S3': 12.87, 'state': 'normal', 'rot1': 4, 'rot0': 6, 'rot3': 6, 'rot2': 0, 'depth': -1.056, 'yaw': -0.01, 'datetime': '2018-12-12 10:15:47.141614', 'mgs': 0, 'flw2': 0.0, 'flw1': 0.64, 'flw0': 0.0, 'time': 42.48, 'compass': -4.79, 'pitch': -2.05, 'roll': 1.09}
{'lipoC2': 8.15, 'temp': 0.0, 'lipoC3S3': 12.91, 'state': 'normal', 'rot1': 4, 'rot0': 6, 'rot3': 6, 'rot2': 0, 'depth': -1.132, 'yaw': -0.01, 'datetime': '2018-12-12 10:15:47.349292', 'mgs': 0, 'flw2': 0.0, 'flw1': 0.32, 'flw0': 0.0, 'time': 42.69, 'compass': -4.79, 'pitch': -2.05, 'roll': 1.09}
{'lipoC2': 8.29, 'temp': 0.0, 'lipoC3S3': 12.38, 'state': 'normal', 'rot1': 4, 'rot0': 6, 'rot3': 6, 'rot2': 0, 'depth': 1.996, 'yaw': -0.01, 'datetime': '2018-12-12 10:15:47.558627', 'mgs': 0, 'flw2': 0.0, 'flw1': 0.0, 'flw0': 0.0, 'time': 42.9, 'compass': -4.79, 'pitch': -2.05, 'roll': 1.09}
{'lipoC2': 8.19, 'temp': 0.0, 'lipoC3S3': 12.81, 'state': 'normal', 'rot1': 4, 'rot0': 6, 'rot3': 6, 'rot2': 0, 'depth': -1.285, 'yaw': -0.01, 'datetime': '2018-12-12 10:15:47.765416', 'mgs': 0, 'flw2': 0.0, 'flw1': 0.0, 'flw0': 0.33, 'time': 43.11, 'compass': -4.79, 'pitch': -2.03, 'roll': 1.09}
{'lipoC2': 8.51, 'temp': 0.0, 'lipoC3S3': 12.47, 'state': 'normal', 'rot1': 4, 'rot0': 6, 'rot3': 6, 'rot2': 0, 'depth': -1.59, 'yaw': -0.01, 'datetime': '2018-12-12 10:15:47.974619', 'mgs': 0, 'flw2': 0.12, 'flw1': 0.0, 'flw0': 0.0, 'time': 43.31, 'compass': -4.79, 'pitch': -2.03, 'roll': 1.09}
{'lipoC2': 8.21, 'temp': 0.0, 'lipoC3S3': 12.48, 'state': 'normal', 'rot1': 4, 'rot0': 6, 'rot3': 6, 'rot2': 0, 'depth': -0.522, 'yaw': -0.01, 'datetime': '2018-12-12 10:15:48.184319', 'mgs': 0, 'flw2': 0.0, 'flw1': 0.0, 'flw0': 0.23, 'time': 43.52, 'compass': -4.79, 'pitch': -2.03, 'roll': 1.09}
{'lipoC2': 8.25, 'temp': 0.0, 'lipoC3S3': 12.34, 'state': 'normal', 'rot1': 4, 'rot0': 6, 'rot3': 6, 'rot2': 0, 'depth': 1.92, 'yaw': -0.01, 'datetime': '2018-12-12 10:15:48.394427', 'mgs': 0, 'flw2': 0.0, 'flw1': 0.47, 'flw0': 0.0, 'time': 43.73, 'compass': -4.79, 'pitch': -2.03, 'roll': 1.09}
