{'lipoC2': 0.0, 'temp': 28.56, 'lipoC3S3': 0.0, 'state': 'normal', 'rot1': 19, 'rot0': 19, 'rot3': 0, 'rot2': 0, 'depth': -0.064, 'yaw': 0.0, 'datetime': '2018-12-11 14:27:01.188709', 'mgs': 0, 'flw2': 1.25, 'flw1': 0.0, 'flw0': 1.17, 'time': 1.36, 'compass': 82.05, 'pitch': 0.58, 'roll': 1.44}
{'lipoC2': 0.0, 'temp': 28.56, 'lipoC3S3': 0.0, 'state': 'normal', 'rot1': 23, 'rot0': 22, 'rot3': 0, 'rot2': 0, 'depth': -0.293, 'yaw': 0.0, 'datetime': '2018-12-11 14:27:01.397732', 'mgs': 0, 'flw2': 1.22, 'flw1': 0.0, 'flw0': 1.22, 'time': 1.57, 'compass': 82.05, 'pitch': 0.58, 'roll': 1.44}
{'lipoC2': 0.0, 'temp': 28.56, 'lipoC3S3': 0.0, 'state': 'normal', 'rot1': 27, 'rot0': 26, 'rot3': 0, 'rot2': 0, 'depth': -0.217, 'yaw': 0.0, 'datetime': '2018-12-11 14:27:01.608100', 'mgs': 0, 'flw2': 1.14, 'flw1': 0.0, 'flw0': 1.29, 'time': 1.78, 'compass': 82.05, 'pitch': 0.58, 'roll': 1.44}
{'lipoC2': 0.0, 'temp': 28.56, 'lipoC3S3': 0.0, 'state': 'normal', 'rot1': 31, 'rot0': 29, 'rot3': 0, 'rot2': 0, 'depth': 0.012, 'yaw': 0.0, 'datetime': '2018-12-11 14:27:01.816948', 'mgs': 0, 'flw2': 1.26, 'flw1': 0.0, 'flw0': 1.2, 'time': 1.99, 'compass': 82.05, 'pitch': 0.58, 'roll': 1.44}
{'lipoC2': 0.0, 'temp': 28.56, 'lipoC3S3': 0.0, 'state': 'normal', 'rot1': 34, 'rot0': 33, 'rot3': 0, 'rot2': 0, 'depth': -0.217, 'yaw': 0.0, 'datetime': '2018-12-11 14:27:02.027271', 'mgs': 0, 'flw2': 1.16, 'flw1': 0.0, 'flw0': 1.26, 'time': 2.2, 'compass': 82.05, 'pitch': 0.58, 'roll': 1.44}
{'lipoC2': 0.0, 'temp': 28.56, 'lipoC3S3': 0.0, 'state': 'normal', 'rot1': 38, 'rot0': 37, 'rot3': 0, 'rot2': 0, 'depth': -0.293, 'yaw': 0.0, 'datetime': '2018-12-11 14:27:02.237536', 'mgs': 0, 'flw2': 1.21, 'flw1': 0.0, 'flw0': 1.2, 'time': 2.41, 'compass': 82.05, 'pitch': 0.58, 'roll': 1.44}
{'lipoC2': 0.0, 'temp': 28.56, 'lipoC3S3': 0.0, 'state': 'normal', 'rot1': 42, 'rot0': 40, 'rot3': 0, 'rot2': 0, 'depth': 0.012, 'yaw': 0.0, 'datetime': '2018-12-11 14:27:02.446037', 'mgs': 0, 'flw2': 1.22, 'flw1': 0.0, 'flw0': 1.17, 'time': 2.62, 'compass': 82.05, 'pitch': 0.58, 'roll': 1.44}
{'lipoC2': 0.0, 'temp': 28.56, 'lipoC3S3': 0.0, 'state': 'normal', 'rot1': 45, 'rot0': 44, 'rot3': 0, 'rot2': 0, 'depth': -0.217, 'yaw': 0.0, 'datetime': '2018-12-11 14:27:02.656747', 'mgs': 0, 'flw2': 1.26, 'flw1': 0.0, 'flw0': 1.29, 'time': 2.83, 'compass': 82.05, 'pitch': 0.58, 'roll': 1.44}
{'lipoC2': 0.0, 'temp': 28.63, 'lipoC3S3': 0.0, 'state': 'normal', 'rot1': 49, 'rot0': 48, 'rot3': 0, 'rot2': 0, 'depth': -0.293, 'yaw': 0.0, 'datetime': '2018-12-11 14:27:02.866129', 'mgs': 0, 'flw2': 1.16, 'flw1': 0.0, 'flw0': 1.2, 'time': 3.04, 'compass': 82.05, 'pitch': 0.58, 'roll': 1.44}
{'lipoC2': 0.0, 'temp': 28.56, 'lipoC3S3': 0.0, 'state': 'normal', 'rot1': 52, 'rot0': 51, 'rot3': 0, 'rot2': 0, 'depth': -0.293, 'yaw': -0.0, 'datetime': '2018-12-11 14:27:03.075740', 'mgs': 0, 'flw2': 0.0, 'flw1': 0.0, 'flw0': 0.0, 'time': 3.25, 'compass': 82.05, 'pitch': 0.57, 'roll': 1.44}
{'lipoC2': 0.0, 'temp': 28.56, 'lipoC3S3': 0.0, 'state': 'normal', 'rot1': 52, 'rot0': 51, 'rot3': 0, 'rot2': 0, 'depth': -0.217, 'yaw': 0.0, 'datetime': '2018-12-11 14:27:03.284967', 'mgs': 0, 'flw2': 0.0, 'flw1': 0.0, 'flw0': 0.0, 'time': 3.46, 'compass': 82.05, 'pitch': 0.58, 'roll': 1.44}
{'lipoC2': 0.0, 'temp': 28.63, 'lipoC3S3': 0.0, 'state': 'normal', 'rot1': 56, 'rot0': 54, 'rot3': 0, 'rot2': 0, 'depth': -0.14, 'yaw': 0.0, 'datetime': '2018-12-11 14:27:03.493338', 'mgs': 0, 'flw2': 1.31, 'flw1': 0.0, 'flw0': 1.27, 'time': 3.67, 'compass': 82.05, 'pitch': 0.58, 'roll': 1.44}
{'lipoC2': 0.0, 'temp': 28.56, 'lipoC3S3': 0.0, 'state': 'normal', 'rot1': 59, 'rot0': 57, 'rot3': 0, 'rot2': 0, 'depth': -0.14, 'yaw': -0.0, 'datetime': '2018-12-11 14:27:03.705018', 'mgs': 0, 'flw2': 1.23, 'flw1': 0.0, 'flw0': 1.26, 'time': 3.88, 'compass': 82.05, 'pitch': 0.57, 'roll': 1.44}
{'lipoC2': 0.0, 'temp': 28.56, 'lipoC3S3': 0.0, 'state': 'normal', 'rot1': 63, 'rot0': 61, 'rot3': 0, 'rot2': 0, 'depth': -0.14, 'yaw': -0.0, 'datetime': '2018-12-11 14:27:03.915058', 'mgs': 0, 'flw2': 1.18, 'flw1': 0.0, 'flw0': 1.26, 'time': 4.09, 'compass': 82.05, 'pitch': 0.57, 'roll': 1.44}
{'lipoC2': 0.0, 'temp': 28.63, 'lipoC3S3': 0.0, 'state': 'normal', 'rot1': 67, 'rot0': 64, 'rot3': 0, 'rot2': 0, 'depth': -0.14, 'yaw': -0.0, 'datetime': '2018-12-11 14:27:04.123878', 'mgs': 0, 'flw2': 1.25, 'flw1': 0.0, 'flw0': 1.2, 'time': 4.3, 'compass': 82.05, 'pitch': 0.57, 'roll': 1.44}
{'lipoC2': 0.0, 'temp': 28.63, 'lipoC3S3': 0.0, 'state': 'normal', 'rot1': 70, 'rot0': 68, 'rot3': 0, 'rot2': 0, 'depth': -0.293, 'yaw': -0.0, 'datetime': '2018-12-11 14:27:04.334430', 'mgs': 0, 'flw2': 1.22, 'flw1': 0.0, 'flw0': 1.28, 'time': 4.51, 'compass': 82.05, 'pitch': 0.57, 'roll': 1.44}
{'lipoC2': 0.0, 'temp': 28.56, 'lipoC3S3': 0.0, 'state': 'normal', 'rot1': 74, 'rot0': 72, 'rot3': 0, 'rot2': 0, 'depth': -0.293, 'yaw': -0.0, 'datetime': '2018-12-11 14:27:04.542874', 'mgs': 0, 'flw2': 1.17, 'flw1': 0.0, 'flw0': 1.26, 'time': 4.72, 'compass': 82.05, 'pitch': 0.57, 'roll': 1.44}
{'lipoC2': 0.0, 'temp': 28.63, 'lipoC3S3': 0.0, 'state': 'normal', 'rot1': 77, 'rot0': 75, 'rot3': 0, 'rot2': 0, 'depth': -0.064, 'yaw': -0.0, 'datetime': '2018-12-11 14:27:04.751609', 'mgs': 0, 'flw2': 1.25, 'flw1': 0.0, 'flw0': 1.22, 'time': 4.93, 'compass': 82.05, 'pitch': 0.57, 'roll': 1.44}
{'lipoC2': 0.0, 'temp': 28.63, 'lipoC3S3': 0.0, 'state': 'normal', 'rot1': 81, 'rot0': 79, 'rot3': 0, 'rot2': 0, 'depth': -0.293, 'yaw': -0.0, 'datetime': '2018-12-11 14:27:04.972747', 'mgs': 0, 'flw2': 1.23, 'flw1': 0.0, 'flw0': 1.25, 'time': 5.14, 'compass': 82.05, 'pitch': 0.57, 'roll': 1.44}
{'lipoC2': 0.0, 'temp': 28.56, 'lipoC3S3': 0.0, 'state': 'normal', 'rot1': 87, 'rot0': 85, 'rot3': 0, 'rot2': 0, 'depth': -0.217, 'yaw': -0.0, 'datetime': '2018-12-11 14:27:05.273577', 'mgs': 0, 'flw2': 1.22, 'flw1': 0.0, 'flw0': 1.23, 'time': 5.45, 'compass': 82.05, 'pitch': 0.57, 'roll': 1.44}
{'lipoC2': 0.0, 'temp': 28.63, 'lipoC3S3': 0.0, 'state': 'normal', 'rot1': 90, 'rot0': 88, 'rot3': 0, 'rot2': 0, 'depth': -0.14, 'yaw': -0.0, 'datetime': '2018-12-11 14:27:05.483469', 'mgs': 0, 'flw2': 1.25, 'flw1': 0.0, 'flw0': 1.27, 'time': 5.66, 'compass': 82.05, 'pitch': 0.57, 'roll': 1.44}
{'lipoC2': 0.0, 'temp': 28.63, 'lipoC3S3': 0.0, 'state': 'normal', 'rot1': 94, 'rot0': 92, 'rot3': 0, 'rot2': 0, 'depth': -0.217, 'yaw': -0.0, 'datetime': '2018-12-11 14:27:05.691609', 'mgs': 0, 'flw2': 1.25, 'flw1': 0.0, 'flw0': 1.15, 'time': 5.87, 'compass': 82.05, 'pitch': 0.57, 'roll': 1.44}
{'lipoC2': 0.0, 'temp': 28.63, 'lipoC3S3': 0.0, 'state': 'normal', 'rot1': 98, 'rot0': 95, 'rot3': 0, 'rot2': 0, 'depth': -0.217, 'yaw': -0.0, 'datetime': '2018-12-11 14:27:05.909660', 'mgs': 0, 'flw2': 1.21, 'flw1': 0.0, 'flw0': 1.25, 'time': 6.08, 'compass': 82.05, 'pitch': 0.57, 'roll': 1.44}
