{'lipoC2': 7.65, 'temp': 24.63, 'lipoC3S3': 12.26, 'state': 'normal', 'rot1': 0, 'rot0': 0, 'rot3': 0, 'rot2': 0, 'depth': 2.072, 'yaw': 0.03, 'datetime': '2018-11-26 11:10:15.608013', 'mgs': 0, 'flw2': 0.0, 'flw1': 0.0, 'flw0': 0.0, 'time': 1.36, 'compass': 161.45, 'pitch': 1.34, 'roll': -4.78}
{'lipoC2': 7.65, 'temp': 24.63, 'lipoC3S3': 12.27, 'state': 'normal', 'rot1': 0, 'rot0': 0, 'rot3': 0, 'rot2': 0, 'depth': 2.072, 'yaw': 0.08, 'datetime': '2018-11-26 11:10:15.813171', 'mgs': 0, 'flw2': 0.0, 'flw1': 0.0, 'flw0': 0.0, 'time': 1.57, 'compass': 161.5, 'pitch': 0.7, 'roll': -4.59}
{'lipoC2': 7.65, 'temp': 24.63, 'lipoC3S3': 12.25, 'state': 'normal', 'rot1': 1, 'rot0': 1, 'rot3': 0, 'rot2': 0, 'depth': 2.072, 'yaw': 0.03, 'datetime': '2018-11-26 11:10:16.024354', 'mgs': 0, 'flw2': 2.78, 'flw1': 0.0, 'flw0': 3.03, 'time': 1.78, 'compass': 161.45, 'pitch': 0.21, 'roll': -4.21}
{'lipoC2': 7.65, 'temp': 24.63, 'lipoC3S3': 12.13, 'state': 'normal', 'rot1': 3, 'rot0': 4, 'rot3': 0, 'rot2': 0, 'depth': 1.996, 'yaw': -0.27, 'datetime': '2018-11-26 11:10:16.230657', 'mgs': 0, 'flw2': 2.76, 'flw1': 0.0, 'flw0': 2.98, 'time': 1.99, 'compass': 161.14, 'pitch': -0.1, 'roll': -2.08}
{'lipoC2': 7.65, 'temp': 24.38, 'lipoC3S3': 12.22, 'state': 'normal', 'rot1': 6, 'rot0': 6, 'rot3': 0, 'rot2': 0, 'depth': 2.454, 'yaw': -0.88, 'datetime': '2018-11-26 11:10:16.444642', 'mgs': 0, 'flw2': 2.89, 'flw1': 0.0, 'flw0': 2.92, 'time': 2.2, 'compass': 160.53, 'pitch': -0.24, 'roll': 0.82}
{'lipoC2': 7.65, 'temp': 24.38, 'lipoC3S3': 12.08, 'state': 'normal', 'rot1': 8, 'rot0': 8, 'rot3': 0, 'rot2': 0, 'depth': 2.072, 'yaw': -1.75, 'datetime': '2018-11-26 11:10:16.653577', 'mgs': 0, 'flw2': 2.73, 'flw1': 0.0, 'flw0': 2.92, 'time': 2.41, 'compass': 159.67, 'pitch': -0.45, 'roll': 3.95}
{'lipoC2': 7.65, 'temp': 24.63, 'lipoC3S3': 12.25, 'state': 'normal', 'rot1': 11, 'rot0': 10, 'rot3': 0, 'rot2': 0, 'depth': 2.835, 'yaw': -2.68, 'datetime': '2018-11-26 11:10:16.862043', 'mgs': 0, 'flw2': 2.84, 'flw1': 0.0, 'flw0': 1.27, 'time': 2.62, 'compass': 158.74, 'pitch': -0.62, 'roll': 6.47}
{'lipoC2': 7.66, 'temp': 24.63, 'lipoC3S3': 12.23, 'state': 'normal', 'rot1': 13, 'rot0': 12, 'rot3': 0, 'rot2': 0, 'depth': 2.072, 'yaw': -2.83, 'datetime': '2018-11-26 11:10:17.070297', 'mgs': 0, 'flw2': 2.8, 'flw1': 0.0, 'flw0': 1.28, 'time': 2.83, 'compass': 158.59, 'pitch': -0.71, 'roll': 7.57}
{'lipoC2': 7.65, 'temp': 24.69, 'lipoC3S3': 12.23, 'state': 'normal', 'rot1': 16, 'rot0': 14, 'rot3': 0, 'rot2': 0, 'depth': 2.988, 'yaw': -1.95, 'datetime': '2018-11-26 11:10:17.281689', 'mgs': 0, 'flw2': 3.02, 'flw1': 0.0, 'flw0': 1.33, 'time': 3.04, 'compass': 159.46, 'pitch': -0.82, 'roll': 7.53}
{'lipoC2': 7.65, 'temp': 24.56, 'lipoC3S3': 12.22, 'state': 'normal', 'rot1': 18, 'rot0': 16, 'rot3': 1, 'rot2': 0, 'depth': 2.454, 'yaw': -0.38, 'datetime': '2018-11-26 11:10:17.490899', 'mgs': 0, 'flw2': 2.82, 'flw1': 3.93, 'flw0': 1.43, 'time': 3.25, 'compass': 161.04, 'pitch': -1.01, 'roll': 6.75}
{'lipoC2': 7.65, 'temp': 24.63, 'lipoC3S3': 12.23, 'state': 'normal', 'rot1': 20, 'rot0': 17, 'rot3': 2, 'rot2': 1, 'depth': 1.767, 'yaw': 1.58, 'datetime': '2018-11-26 11:10:17.695563', 'mgs': 0, 'flw2': 2.76, 'flw1': 0.0, 'flw0': 1.35, 'time': 3.46, 'compass': 163.0, 'pitch': -1.08, 'roll': 5.72}
{'lipoC2': 7.65, 'temp': 24.75, 'lipoC3S3': 12.23, 'state': 'normal', 'rot1': 22, 'rot0': 19, 'rot3': 2, 'rot2': 1, 'depth': 2.454, 'yaw': 3.1, 'datetime': '2018-11-26 11:10:17.905131', 'mgs': 0, 'flw2': 1.31, 'flw1': 0.0, 'flw0': 2.98, 'time': 3.67, 'compass': 164.52, 'pitch': -0.85, 'roll': 4.12}
{'lipoC2': 7.65, 'temp': 24.75, 'lipoC3S3': 12.23, 'state': 'normal', 'rot1': 24, 'rot0': 22, 'rot3': 2, 'rot2': 1, 'depth': 2.682, 'yaw': 2.65, 'datetime': '2018-11-26 11:10:18.113426', 'mgs': 0, 'flw2': 1.31, 'flw1': 0.0, 'flw0': 2.93, 'time': 3.88, 'compass': 164.07, 'pitch': -0.65, 'roll': 2.64}
{'lipoC2': 7.65, 'temp': 24.69, 'lipoC3S3': 12.23, 'state': 'normal', 'rot1': 26, 'rot0': 24, 'rot3': 2, 'rot2': 1, 'depth': 2.072, 'yaw': 0.89, 'datetime': '2018-11-26 11:10:18.323418', 'mgs': 0, 'flw2': 1.35, 'flw1': 0.0, 'flw0': 2.93, 'time': 4.09, 'compass': 162.31, 'pitch': -0.58, 'roll': 1.96}
{'lipoC2': 7.65, 'temp': 24.63, 'lipoC3S3': 12.22, 'state': 'normal', 'rot1': 28, 'rot0': 26, 'rot3': 2, 'rot2': 1, 'depth': 2.606, 'yaw': -1.27, 'datetime': '2018-11-26 11:10:18.533185', 'mgs': 0, 'flw2': 2.94, 'flw1': 0.0, 'flw0': 2.89, 'time': 4.3, 'compass': 160.14, 'pitch': -0.51, 'roll': 2.01}
{'lipoC2': 7.64, 'temp': 24.63, 'lipoC3S3': 12.23, 'state': 'normal', 'rot1': 30, 'rot0': 29, 'rot3': 2, 'rot2': 1, 'depth': 1.614, 'yaw': -2.76, 'datetime': '2018-11-26 11:10:18.744491', 'mgs': 0, 'flw2': 2.8, 'flw1': 0.0, 'flw0': 1.31, 'time': 4.51, 'compass': 158.65, 'pitch': -0.45, 'roll': 2.77}
{'lipoC2': 7.65, 'temp': 24.56, 'lipoC3S3': 12.23, 'state': 'normal', 'rot1': 33, 'rot0': 30, 'rot3': 2, 'rot2': 1, 'depth': 2.377, 'yaw': -2.96, 'datetime': '2018-11-26 11:10:18.953968', 'mgs': 0, 'flw2': 2.89, 'flw1': 0.0, 'flw0': 1.31, 'time': 4.72, 'compass': 158.46, 'pitch': -0.5, 'roll': 3.23}
{'lipoC2': 7.65, 'temp': 24.56, 'lipoC3S3': 12.22, 'state': 'normal', 'rot1': 35, 'rot0': 32, 'rot3': 2, 'rot2': 1, 'depth': 1.767, 'yaw': -1.87, 'datetime': '2018-11-26 11:10:19.162176', 'mgs': 0, 'flw2': 2.73, 'flw1': 0.0, 'flw0': 1.29, 'time': 4.93, 'compass': 159.55, 'pitch': -0.61, 'roll': 3.27}
{'lipoC2': 7.65, 'temp': 24.63, 'lipoC3S3': 12.18, 'state': 'normal', 'rot1': 38, 'rot0': 34, 'rot3': 2, 'rot2': 1, 'depth': 1.843, 'yaw': 0.0, 'datetime': '2018-11-26 11:10:19.371687', 'mgs': 0, 'flw2': 2.65, 'flw1': 0.0, 'flw0': 3.09, 'time': 5.14, 'compass': 161.42, 'pitch': -0.71, 'roll': 3.48}
{'lipoC2': 7.65, 'temp': 24.75, 'lipoC3S3': 12.22, 'state': 'normal', 'rot1': 40, 'rot0': 36, 'rot3': 2, 'rot2': 1, 'depth': 2.377, 'yaw': 1.38, 'datetime': '2018-11-26 11:10:19.580238', 'mgs': 0, 'flw2': 2.78, 'flw1': 0.0, 'flw0': 2.87, 'time': 5.34, 'compass': 162.79, 'pitch': -0.86, 'roll': 4.22}
{'lipoC2': 7.65, 'temp': 24.75, 'lipoC3S3': 12.16, 'state': 'normal', 'rot1': 42, 'rot0': 39, 'rot3': 2, 'rot2': 1, 'depth': 1.92, 'yaw': 1.57, 'datetime': '2018-11-26 11:10:19.790427', 'mgs': 0, 'flw2': 1.22, 'flw1': 0.0, 'flw0': 2.98, 'time': 5.55, 'compass': 162.98, 'pitch': -0.88, 'roll': 4.66}
{'lipoC2': 7.65, 'temp': 24.56, 'lipoC3S3': 12.23, 'state': 'normal', 'rot1': 44, 'rot0': 41, 'rot3': 2, 'rot2': 1, 'depth': 2.988, 'yaw': 0.28, 'datetime': '2018-11-26 11:10:20.004065', 'mgs': 0, 'flw2': 1.28, 'flw1': 0.0, 'flw0': 2.88, 'time': 5.76, 'compass': 161.69, 'pitch': -0.79, 'roll': 4.05}
{'lipoC2': 7.65, 'temp': 24.56, 'lipoC3S3': 12.14, 'state': 'normal', 'rot1': 45, 'rot0': 43, 'rot3': 2, 'rot2': 1, 'depth': 1.996, 'yaw': -1.84, 'datetime': '2018-11-26 11:10:20.208202', 'mgs': 0, 'flw2': 1.26, 'flw1': 0.0, 'flw0': 2.94, 'time': 5.97, 'compass': 159.57, 'pitch': -0.68, 'roll': 3.27}
{'lipoC2': 7.65, 'temp': 24.63, 'lipoC3S3': 12.23, 'state': 'normal', 'rot1': 48, 'rot0': 45, 'rot3': 2, 'rot2': 1, 'depth': 1.996, 'yaw': -3.81, 'datetime': '2018-11-26 11:10:20.418288', 'mgs': 0, 'flw2': 2.72, 'flw1': 0.0, 'flw0': 1.34, 'time': 6.18, 'compass': 157.6, 'pitch': -0.78, 'roll': 2.59}
{'lipoC2': 7.65, 'temp': 24.56, 'lipoC3S3': 12.22, 'state': 'normal', 'rot1': 50, 'rot0': 47, 'rot3': 2, 'rot2': 1, 'depth': 2.072, 'yaw': -4.08, 'datetime': '2018-11-26 11:10:20.626192', 'mgs': 0, 'flw2': 2.66, 'flw1': 0.0, 'flw0': 1.29, 'time': 6.39, 'compass': 157.33, 'pitch': -1.0, 'roll': 1.8}
{'lipoC2': 7.65, 'temp': 24.69, 'lipoC3S3': 12.21, 'state': 'normal', 'rot1': 52, 'rot0': 49, 'rot3': 2, 'rot2': 1, 'depth': 1.996, 'yaw': -3.25, 'datetime': '2018-11-26 11:10:20.842983', 'mgs': 0, 'flw2': 2.71, 'flw1': 0.0, 'flw0': 1.28, 'time': 6.6, 'compass': 158.17, 'pitch': -1.1, 'roll': 1.14}
{'lipoC2': 7.65, 'temp': 24.63, 'lipoC3S3': 12.22, 'state': 'normal', 'rot1': 55, 'rot0': 50, 'rot3': 2, 'rot2': 1, 'depth': 2.377, 'yaw': -1.47, 'datetime': '2018-11-26 11:10:21.057087', 'mgs': 0, 'flw2': 2.78, 'flw1': 0.0, 'flw0': 1.29, 'time': 6.81, 'compass': 159.95, 'pitch': -1.12, 'roll': 0.75}
{'lipoC2': 7.65, 'temp': 24.63, 'lipoC3S3': 12.14, 'state': 'normal', 'rot1': 57, 'rot0': 52, 'rot3': 2, 'rot2': 1, 'depth': 2.148, 'yaw': 0.88, 'datetime': '2018-11-26 11:10:21.259345', 'mgs': 0, 'flw2': 2.69, 'flw1': 0.0, 'flw0': 3.0, 'time': 7.02, 'compass': 162.3, 'pitch': -1.0, 'roll': 0.7}
{'lipoC2': 7.65, 'temp': 24.63, 'lipoC3S3': 12.22, 'state': 'normal', 'rot1': 60, 'rot0': 55, 'rot3': 2, 'rot2': 2, 'depth': 2.225, 'yaw': 2.66, 'datetime': '2018-11-26 11:10:21.467816', 'mgs': 0, 'flw2': 2.75, 'flw1': 5.07, 'flw0': 3.04, 'time': 7.23, 'compass': 164.08, 'pitch': -0.81, 'roll': 1.41}
{'lipoC2': 7.65, 'temp': 24.5, 'lipoC3S3': 12.22, 'state': 'normal', 'rot1': 62, 'rot0': 57, 'rot3': 3, 'rot2': 3, 'depth': 2.759, 'yaw': 3.29, 'datetime': '2018-11-26 11:10:21.681919', 'mgs': 0, 'flw2': 1.31, 'flw1': 4.1, 'flw0': 3.09, 'time': 7.44, 'compass': 164.7, 'pitch': -0.89, 'roll': 2.87}
{'lipoC2': 7.65, 'temp': 24.63, 'lipoC3S3': 12.23, 'state': 'normal', 'rot1': 63, 'rot0': 59, 'rot3': 3, 'rot2': 3, 'depth': 2.301, 'yaw': 2.41, 'datetime': '2018-11-26 11:10:21.887694', 'mgs': 0, 'flw2': 1.29, 'flw1': 0.0, 'flw0': 3.11, 'time': 7.65, 'compass': 163.82, 'pitch': -1.12, 'roll': 4.21}
{'lipoC2': 7.65, 'temp': 24.63, 'lipoC3S3': 12.22, 'state': 'normal', 'rot1': 65, 'rot0': 62, 'rot3': 3, 'rot2': 3, 'depth': 2.072, 'yaw': 0.39, 'datetime': '2018-11-26 11:10:22.095742', 'mgs': 0, 'flw2': 1.37, 'flw1': 0.0, 'flw0': 2.98, 'time': 7.86, 'compass': 161.81, 'pitch': -1.29, 'roll': 4.83}
{'lipoC2': 7.65, 'temp': 24.56, 'lipoC3S3': 12.22, 'state': 'normal', 'rot1': 67, 'rot0': 64, 'rot3': 3, 'rot2': 3, 'depth': 2.225, 'yaw': -2.12, 'datetime': '2018-11-26 11:10:22.305783', 'mgs': 0, 'flw2': 2.84, 'flw1': 0.0, 'flw0': 3.03, 'time': 8.07, 'compass': 159.3, 'pitch': -1.46, 'roll': 5.35}
{'lipoC2': 7.65, 'temp': 24.63, 'lipoC3S3': 12.22, 'state': 'normal', 'rot1': 70, 'rot0': 66, 'rot3': 3, 'rot2': 3, 'depth': 2.301, 'yaw': -4.05, 'datetime': '2018-11-26 11:10:22.515191', 'mgs': 0, 'flw2': 2.97, 'flw1': 0.0, 'flw0': 1.28, 'time': 8.28, 'compass': 157.36, 'pitch': -1.73, 'roll': 5.83}
{'lipoC2': 7.65, 'temp': 24.81, 'lipoC3S3': 12.21, 'state': 'normal', 'rot1': 72, 'rot0': 68, 'rot3': 3, 'rot2': 3, 'depth': 2.911, 'yaw': -4.62, 'datetime': '2018-11-26 11:10:22.723676', 'mgs': 0, 'flw2': 2.91, 'flw1': 0.0, 'flw0': 1.29, 'time': 8.49, 'compass': 156.79, 'pitch': -2.24, 'roll': 5.53}
{'lipoC2': 7.65, 'temp': 24.81, 'lipoC3S3': 12.22, 'state': 'normal', 'rot1': 74, 'rot0': 70, 'rot3': 3, 'rot2': 3, 'depth': 2.759, 'yaw': -3.79, 'datetime': '2018-11-26 11:10:22.933380', 'mgs': 0, 'flw2': 2.86, 'flw1': 0.0, 'flw0': 1.34, 'time': 8.7, 'compass': 157.63, 'pitch': -2.62, 'roll': 4.76}
{'lipoC2': 7.65, 'temp': 24.63, 'lipoC3S3': 12.22, 'state': 'normal', 'rot1': 77, 'rot0': 71, 'rot3': 3, 'rot2': 3, 'depth': 2.606, 'yaw': -1.99, 'datetime': '2018-11-26 11:10:23.142357', 'mgs': 0, 'flw2': 2.88, 'flw1': 0.0, 'flw0': 1.32, 'time': 8.91, 'compass': 159.43, 'pitch': -2.59, 'roll': 3.82}
{'lipoC2': 7.65, 'temp': 24.69, 'lipoC3S3': 12.22, 'state': 'normal', 'rot1': 79, 'rot0': 73, 'rot3': 3, 'rot2': 3, 'depth': 2.759, 'yaw': 0.32, 'datetime': '2018-11-26 11:10:23.353290', 'mgs': 0, 'flw2': 2.76, 'flw1': 0.0, 'flw0': 1.29, 'time': 9.12, 'compass': 161.74, 'pitch': -2.28, 'roll': 2.78}
{'lipoC2': 7.65, 'temp': 24.63, 'lipoC3S3': 12.19, 'state': 'normal', 'rot1': 82, 'rot0': 75, 'rot3': 3, 'rot2': 3, 'depth': 1.996, 'yaw': 2.56, 'datetime': '2018-11-26 11:10:23.562762', 'mgs': 0, 'flw2': 2.66, 'flw1': 0.0, 'flw0': 2.88, 'time': 9.33, 'compass': 163.97, 'pitch': -1.98, 'roll': 2.01}
{'lipoC2': 7.65, 'temp': 24.63, 'lipoC3S3': 12.13, 'state': 'normal', 'rot1': 84, 'rot0': 78, 'rot3': 3, 'rot2': 3, 'depth': 1.996, 'yaw': 3.61, 'datetime': '2018-11-26 11:10:23.771226', 'mgs': 0, 'flw2': 1.17, 'flw1': 0.0, 'flw0': 2.94, 'time': 9.54, 'compass': 165.02, 'pitch': -1.76, 'roll': 1.85}
{'lipoC2': 7.65, 'temp': 24.5, 'lipoC3S3': 12.21, 'state': 'normal', 'rot1': 86, 'rot0': 80, 'rot3': 3, 'rot2': 3, 'depth': 2.225, 'yaw': 3.11, 'datetime': '2018-11-26 11:10:23.981673', 'mgs': 0, 'flw2': 1.27, 'flw1': 5.01, 'flw0': 3.09, 'time': 9.75, 'compass': 164.53, 'pitch': -1.69, 'roll': 1.56}
{'lipoC2': 7.65, 'temp': 24.63, 'lipoC3S3': 12.21, 'state': 'normal', 'rot1': 87, 'rot0': 83, 'rot3': 4, 'rot2': 4, 'depth': 2.454, 'yaw': 1.22, 'datetime': '2018-11-26 11:10:24.189996', 'mgs': 0, 'flw2': 1.33, 'flw1': 3.78, 'flw0': 2.92, 'time': 9.96, 'compass': 162.63, 'pitch': -2.13, 'roll': 1.73}
{'lipoC2': 7.65, 'temp': 24.63, 'lipoC3S3': 12.14, 'state': 'normal', 'rot1': 89, 'rot0': 85, 'rot3': 4, 'rot2': 5, 'depth': 1.996, 'yaw': -1.48, 'datetime': '2018-11-26 11:10:24.400131', 'mgs': 0, 'flw2': 2.84, 'flw1': 0.0, 'flw0': 2.97, 'time': 10.17, 'compass': 159.94, 'pitch': -2.89, 'roll': 2.51}
{'lipoC2': 7.65, 'temp': 24.63, 'lipoC3S3': 12.06, 'state': 'normal', 'rot1': 92, 'rot0': 87, 'rot3': 4, 'rot2': 5, 'depth': 2.072, 'yaw': -3.9, 'datetime': '2018-11-26 11:10:24.611892', 'mgs': 0, 'flw2': 2.78, 'flw1': 0.0, 'flw0': 2.92, 'time': 10.38, 'compass': 157.51, 'pitch': -3.62, 'roll': 3.57}
{'lipoC2': 7.65, 'temp': 24.63, 'lipoC3S3': 12.22, 'state': 'normal', 'rot1': 94, 'rot0': 89, 'rot3': 4, 'rot2': 5, 'depth': 1.996, 'yaw': -5.27, 'datetime': '2018-11-26 11:10:24.819208', 'mgs': 0, 'flw2': 2.81, 'flw1': 0.0, 'flw0': 1.32, 'time': 10.59, 'compass': 156.15, 'pitch': -3.96, 'roll': 4.56}
{'lipoC2': 7.65, 'temp': 24.63, 'lipoC3S3': 12.18, 'state': 'normal', 'rot1': 96, 'rot0': 91, 'rot3': 4, 'rot2': 5, 'depth': 2.148, 'yaw': -5.01, 'datetime': '2018-11-26 11:10:25.028442', 'mgs': 0, 'flw2': 2.77, 'flw1': 0.0, 'flw0': 1.32, 'time': 10.8, 'compass': 156.41, 'pitch': -3.99, 'roll': 4.63}
{'lipoC2': 7.65, 'temp': 24.69, 'lipoC3S3': 12.14, 'state': 'normal', 'rot1': 99, 'rot0': 93, 'rot3': 4, 'rot2': 5, 'depth': 2.072, 'yaw': -3.73, 'datetime': '2018-11-26 11:10:25.238959', 'mgs': 0, 'flw2': 2.8, 'flw1': 0.0, 'flw0': 1.35, 'time': 11.01, 'compass': 157.69, 'pitch': -3.71, 'roll': 4.36}
{'lipoC2': 7.65, 'temp': 23.63, 'lipoC3S3': 12.21, 'state': 'normal', 'rot1': 101, 'rot0': 94, 'rot3': 4, 'rot2': 5, 'depth': 2.53, 'yaw': -1.81, 'datetime': '2018-11-26 11:10:25.450008', 'mgs': 0, 'flw2': 2.83, 'flw1': 0.0, 'flw0': 1.32, 'time': 11.22, 'compass': 159.6, 'pitch': -3.2, 'roll': 3.98}
{'lipoC2': 7.65, 'temp': 25.06, 'lipoC3S3': 12.22, 'state': 'normal', 'rot1': 103, 'rot0': 96, 'rot3': 4, 'rot2': 5, 'depth': 2.148, 'yaw': 0.39, 'datetime': '2018-11-26 11:10:25.659628', 'mgs': 0, 'flw2': 2.82, 'flw1': 0.0, 'flw0': 3.19, 'time': 11.43, 'compass': 161.81, 'pitch': -2.58, 'roll': 3.64}
{'lipoC2': 7.65, 'temp': 25.0, 'lipoC3S3': 12.22, 'state': 'normal', 'rot1': 106, 'rot0': 99, 'rot3': 4, 'rot2': 5, 'depth': 2.148, 'yaw': 1.69, 'datetime': '2018-11-26 11:10:25.869200', 'mgs': 0, 'flw2': 2.72, 'flw1': 0.0, 'flw0': 3.1, 'time': 11.64, 'compass': 163.11, 'pitch': -2.04, 'roll': 3.78}
{'lipoC2': 7.65, 'temp': 25.0, 'lipoC3S3': 12.21, 'state': 'normal', 'rot1': 108, 'rot0': 101, 'rot3': 4, 'rot2': 5, 'depth': 2.225, 'yaw': 1.64, 'datetime': '2018-11-26 11:10:26.082017', 'mgs': 0, 'flw2': 0.0, 'flw1': 8.38, 'flw0': 0.0, 'time': 11.85, 'compass': 163.05, 'pitch': -1.82, 'roll': 4.13}
{'lipoC2': 7.65, 'temp': 24.69, 'lipoC3S3': 12.21, 'state': 'normal', 'rot1': 108, 'rot0': 101, 'rot3': 5, 'rot2': 6, 'depth': 2.682, 'yaw': 0.99, 'datetime': '2018-11-26 11:10:26.287942', 'mgs': 0, 'flw2': 0.0, 'flw1': 5.6, 'flw0': 0.0, 'time': 12.06, 'compass': 162.4, 'pitch': -2.16, 'roll': 3.35}
{'lipoC2': 7.65, 'temp': 24.5, 'lipoC3S3': 12.22, 'state': 'normal', 'rot1': 108, 'rot0': 101, 'rot3': 7, 'rot2': 7, 'depth': 2.53, 'yaw': 0.24, 'datetime': '2018-11-26 11:10:26.503192', 'mgs': 0, 'flw2': 0.0, 'flw1': 5.63, 'flw0': 0.0, 'time': 12.27, 'compass': 161.66, 'pitch': -2.86, 'roll': 1.97}
{'lipoC2': 7.65, 'temp': 24.69, 'lipoC3S3': 12.18, 'state': 'normal', 'rot1': 108, 'rot0': 101, 'rot3': 8, 'rot2': 9, 'depth': 1.996, 'yaw': -0.49, 'datetime': '2018-11-26 11:10:26.710509', 'mgs': 0, 'flw2': 0.0, 'flw1': 5.3, 'flw0': 0.0, 'time': 12.48, 'compass': 160.92, 'pitch': -3.7, 'roll': 0.74}
{'lipoC2': 7.65, 'temp': 24.63, 'lipoC3S3': 12.17, 'state': 'normal', 'rot1': 108, 'rot0': 101, 'rot3': 9, 'rot2': 10, 'depth': 1.843, 'yaw': -1.18, 'datetime': '2018-11-26 11:10:26.923954', 'mgs': 0, 'flw2': 0.0, 'flw1': 5.39, 'flw0': 0.0, 'time': 12.69, 'compass': 160.23, 'pitch': -4.58, 'roll': -0.14}
{'lipoC2': 7.65, 'temp': 24.63, 'lipoC3S3': 12.22, 'state': 'normal', 'rot1': 108, 'rot0': 101, 'rot3': 10, 'rot2': 11, 'depth': 2.377, 'yaw': -1.86, 'datetime': '2018-11-26 11:10:27.132824', 'mgs': 0, 'flw2': 0.0, 'flw1': 5.1, 'flw0': 0.0, 'time': 12.9, 'compass': 159.55, 'pitch': -5.38, 'roll': -0.47}
{'lipoC2': 7.65, 'temp': 24.63, 'lipoC3S3': 12.19, 'state': 'normal', 'rot1': 108, 'rot0': 101, 'rot3': 11, 'rot2': 13, 'depth': 1.843, 'yaw': -2.54, 'datetime': '2018-11-26 11:10:27.344439', 'mgs': 0, 'flw2': 0.0, 'flw1': 5.21, 'flw0': 0.0, 'time': 13.11, 'compass': 158.87, 'pitch': -5.91, 'roll': -0.42}
{'lipoC2': 7.65, 'temp': 24.63, 'lipoC3S3': 12.18, 'state': 'normal', 'rot1': 108, 'rot0': 101, 'rot3': 12, 'rot2': 14, 'depth': 1.92, 'yaw': -3.32, 'datetime': '2018-11-26 11:10:27.555184', 'mgs': 0, 'flw2': 0.0, 'flw1': 5.3, 'flw0': 0.0, 'time': 13.32, 'compass': 158.1, 'pitch': -6.18, 'roll': -0.32}
{'lipoC2': 7.65, 'temp': 24.63, 'lipoC3S3': 12.19, 'state': 'normal', 'rot1': 108, 'rot0': 101, 'rot3': 13, 'rot2': 15, 'depth': 1.767, 'yaw': -4.26, 'datetime': '2018-11-26 11:10:27.766938', 'mgs': 0, 'flw2': 0.0, 'flw1': 5.42, 'flw0': 0.0, 'time': 13.53, 'compass': 157.16, 'pitch': -6.27, 'roll': 0.1}
{'lipoC2': 7.65, 'temp': 24.63, 'lipoC3S3': 12.16, 'state': 'normal', 'rot1': 108, 'rot0': 101, 'rot3': 14, 'rot2': 17, 'depth': 1.691, 'yaw': -5.26, 'datetime': '2018-11-26 11:10:27.976533', 'mgs': 0, 'flw2': 0.0, 'flw1': 5.1, 'flw0': 0.0, 'time': 13.74, 'compass': 156.16, 'pitch': -6.25, 'roll': 1.0}
{'lipoC2': 7.65, 'temp': 24.63, 'lipoC3S3': 12.16, 'state': 'normal', 'rot1': 108, 'rot0': 101, 'rot3': 15, 'rot2': 18, 'depth': 1.996, 'yaw': -6.35, 'datetime': '2018-11-26 11:10:28.187558', 'mgs': 0, 'flw2': 0.0, 'flw1': 4.89, 'flw0': 0.0, 'time': 13.95, 'compass': 155.06, 'pitch': -6.11, 'roll': 2.02}
{'lipoC2': 7.65, 'temp': 24.63, 'lipoC3S3': 12.22, 'state': 'normal', 'rot1': 108, 'rot0': 101, 'rot3': 16, 'rot2': 19, 'depth': 2.148, 'yaw': -7.33, 'datetime': '2018-11-26 11:10:28.398785', 'mgs': 0, 'flw2': 0.0, 'flw1': 5.36, 'flw0': 0.0, 'time': 14.16, 'compass': 154.08, 'pitch': -5.83, 'roll': 2.58}
{'lipoC2': 7.65, 'temp': 24.69, 'lipoC3S3': 12.19, 'state': 'normal', 'rot1': 108, 'rot0': 101, 'rot3': 17, 'rot2': 21, 'depth': 1.691, 'yaw': -8.26, 'datetime': '2018-11-26 11:10:28.609045', 'mgs': 0, 'flw2': 0.0, 'flw1': 5.21, 'flw0': 0.0, 'time': 14.38, 'compass': 153.16, 'pitch': -5.5, 'roll': 2.77}
{'lipoC2': 7.65, 'temp': 24.63, 'lipoC3S3': 12.17, 'state': 'normal', 'rot1': 108, 'rot0': 101, 'rot3': 18, 'rot2': 22, 'depth': 1.691, 'yaw': -9.12, 'datetime': '2018-11-26 11:10:28.820051', 'mgs': 0, 'flw2': 0.0, 'flw1': 4.66, 'flw0': 0.0, 'time': 14.59, 'compass': 152.29, 'pitch': -5.04, 'roll': 2.85}
{'lipoC2': 7.65, 'temp': 24.63, 'lipoC3S3': 12.17, 'state': 'normal', 'rot1': 108, 'rot0': 101, 'rot3': 20, 'rot2': 23, 'depth': 1.691, 'yaw': -9.8, 'datetime': '2018-11-26 11:10:29.030320', 'mgs': 0, 'flw2': 0.0, 'flw1': 4.45, 'flw0': 0.0, 'time': 14.8, 'compass': 151.61, 'pitch': -4.58, 'roll': 2.94}
{'lipoC2': 7.65, 'temp': 24.63, 'lipoC3S3': 12.17, 'state': 'normal', 'rot1': 108, 'rot0': 101, 'rot3': 21, 'rot2': 25, 'depth': 1.767, 'yaw': -10.4, 'datetime': '2018-11-26 11:10:29.240554', 'mgs': 0, 'flw2': 0.0, 'flw1': 4.25, 'flw0': 0.0, 'time': 15.01, 'compass': 151.02, 'pitch': -4.42, 'roll': 2.91}
{'lipoC2': 7.66, 'temp': 24.63, 'lipoC3S3': 12.22, 'state': 'normal', 'rot1': 108, 'rot0': 101, 'rot3': 22, 'rot2': 26, 'depth': 1.767, 'yaw': -11.13, 'datetime': '2018-11-26 11:10:29.451052', 'mgs': 0, 'flw2': 0.0, 'flw1': 3.93, 'flw0': 0.0, 'time': 15.22, 'compass': 150.28, 'pitch': -4.39, 'roll': 2.56}
{'lipoC2': 7.65, 'temp': 24.63, 'lipoC3S3': 12.21, 'state': 'normal', 'rot1': 108, 'rot0': 101, 'rot3': 23, 'rot2': 27, 'depth': 1.614, 'yaw': -11.99, 'datetime': '2018-11-26 11:10:29.663616', 'mgs': 0, 'flw2': 0.0, 'flw1': 4.34, 'flw0': 0.0, 'time': 15.43, 'compass': 149.43, 'pitch': -4.35, 'roll': 2.2}
{'lipoC2': 7.65, 'temp': 24.63, 'lipoC3S3': 12.18, 'state': 'normal', 'rot1': 108, 'rot0': 101, 'rot3': 24, 'rot2': 29, 'depth': 1.538, 'yaw': -12.89, 'datetime': '2018-11-26 11:10:29.875551', 'mgs': 0, 'flw2': 0.0, 'flw1': 4.19, 'flw0': 0.0, 'time': 15.64, 'compass': 148.52, 'pitch': -4.57, 'roll': 2.12}
{'lipoC2': 7.65, 'temp': 24.63, 'lipoC3S3': 12.16, 'state': 'normal', 'rot1': 108, 'rot0': 101, 'rot3': 25, 'rot2': 30, 'depth': 1.767, 'yaw': -13.91, 'datetime': '2018-11-26 11:10:30.084843', 'mgs': 0, 'flw2': 0.0, 'flw1': 4.25, 'flw0': 0.0, 'time': 15.85, 'compass': 147.51, 'pitch': -4.99, 'roll': 2.18}
{'lipoC2': 7.65, 'temp': 24.63, 'lipoC3S3': 12.22, 'state': 'normal', 'rot1': 108, 'rot0': 101, 'rot3': 26, 'rot2': 32, 'depth': 1.843, 'yaw': -14.99, 'datetime': '2018-11-26 11:10:30.294622', 'mgs': 0, 'flw2': 0.0, 'flw1': 4.13, 'flw0': 0.0, 'time': 16.06, 'compass': 146.42, 'pitch': -5.23, 'roll': 1.96}
{'lipoC2': 7.65, 'temp': 24.63, 'lipoC3S3': 12.19, 'state': 'normal', 'rot1': 108, 'rot0': 101, 'rot3': 27, 'rot2': 33, 'depth': 1.614, 'yaw': -16.07, 'datetime': '2018-11-26 11:10:30.503669', 'mgs': 0, 'flw2': 0.0, 'flw1': 3.72, 'flw0': 0.0, 'time': 16.27, 'compass': 145.34, 'pitch': -5.14, 'roll': 1.71}
{'lipoC2': 7.66, 'temp': 24.63, 'lipoC3S3': 12.19, 'state': 'normal', 'rot1': 108, 'rot0': 101, 'rot3': 29, 'rot2': 34, 'depth': 1.767, 'yaw': -17.15, 'datetime': '2018-11-26 11:10:30.712083', 'mgs': 0, 'flw2': 0.0, 'flw1': 4.39, 'flw0': 0.0, 'time': 16.49, 'compass': 144.26, 'pitch': -4.81, 'roll': 1.75}
{'lipoC2': 7.65, 'temp': 24.63, 'lipoC3S3': 12.19, 'state': 'normal', 'rot1': 108, 'rot0': 101, 'rot3': 30, 'rot2': 36, 'depth': 1.767, 'yaw': -18.32, 'datetime': '2018-11-26 11:10:30.922081', 'mgs': 0, 'flw2': 0.0, 'flw1': 4.28, 'flw0': 0.0, 'time': 16.7, 'compass': 143.1, 'pitch': -4.53, 'roll': 2.1}
{'lipoC2': 7.64, 'temp': 24.56, 'lipoC3S3': 12.21, 'state': 'normal', 'rot1': 108, 'rot0': 101, 'rot3': 31, 'rot2': 37, 'depth': 1.614, 'yaw': -19.52, 'datetime': '2018-11-26 11:10:31.131862', 'mgs': 0, 'flw2': 1.72, 'flw1': 0.0, 'flw0': 1.68, 'time': 16.91, 'compass': 141.9, 'pitch': -4.34, 'roll': 2.47}
{'lipoC2': 7.65, 'temp': 24.44, 'lipoC3S3': 12.21, 'state': 'normal', 'rot1': 110, 'rot0': 103, 'rot3': 31, 'rot2': 37, 'depth': 1.843, 'yaw': -18.99, 'datetime': '2018-11-26 11:10:31.346162', 'mgs': 0, 'flw2': 1.35, 'flw1': 0.0, 'flw0': 1.25, 'time': 17.12, 'compass': 142.42, 'pitch': -3.64, 'roll': 2.45}
{'lipoC2': 7.64, 'temp': 24.5, 'lipoC3S3': 12.22, 'state': 'normal', 'rot1': 111, 'rot0': 104, 'rot3': 31, 'rot2': 37, 'depth': 1.462, 'yaw': -16.07, 'datetime': '2018-11-26 11:10:31.553583', 'mgs': 0, 'flw2': 1.26, 'flw1': 0.0, 'flw0': 1.31, 'time': 17.33, 'compass': 145.34, 'pitch': -2.74, 'roll': 2.29}
{'lipoC2': 7.65, 'temp': 24.5, 'lipoC3S3': 12.21, 'state': 'normal', 'rot1': 113, 'rot0': 106, 'rot3': 31, 'rot2': 37, 'depth': 2.454, 'yaw': -11.37, 'datetime': '2018-11-26 11:10:31.766367', 'mgs': 0, 'flw2': 1.33, 'flw1': 0.0, 'flw0': 1.25, 'time': 17.54, 'compass': 150.05, 'pitch': -2.07, 'roll': 2.05}
{'lipoC2': 7.64, 'temp': 24.44, 'lipoC3S3': 12.21, 'state': 'normal', 'rot1': 115, 'rot0': 108, 'rot3': 31, 'rot2': 37, 'depth': 1.538, 'yaw': -5.31, 'datetime': '2018-11-26 11:10:31.975215', 'mgs': 0, 'flw2': 1.31, 'flw1': 0.0, 'flw0': 1.31, 'time': 17.75, 'compass': 156.11, 'pitch': -1.96, 'roll': 1.43}
{'lipoC2': 7.65, 'temp': 24.56, 'lipoC3S3': 12.21, 'state': 'normal', 'rot1': 117, 'rot0': 109, 'rot3': 31, 'rot2': 37, 'depth': 1.614, 'yaw': 1.81, 'datetime': '2018-11-26 11:10:32.187369', 'mgs': 0, 'flw2': 1.23, 'flw1': 0.0, 'flw0': 1.32, 'time': 17.96, 'compass': 163.23, 'pitch': -2.32, 'roll': 0.4}
{'lipoC2': 7.65, 'temp': 24.56, 'lipoC3S3': 12.22, 'state': 'normal', 'rot1': 118, 'rot0': 111, 'rot3': 31, 'rot2': 37, 'depth': 1.767, 'yaw': 9.68, 'datetime': '2018-11-26 11:10:32.397289', 'mgs': 0, 'flw2': 1.29, 'flw1': 0.0, 'flw0': 1.37, 'time': 18.17, 'compass': 171.09, 'pitch': -2.99, 'roll': -0.89}
{'lipoC2': 7.65, 'temp': 24.56, 'lipoC3S3': 12.22, 'state': 'normal', 'rot1': 120, 'rot0': 113, 'rot3': 31, 'rot2': 37, 'depth': 2.53, 'yaw': 18.42, 'datetime': '2018-11-26 11:10:32.608530', 'mgs': 0, 'flw2': 1.31, 'flw1': 0.0, 'flw0': 1.25, 'time': 18.38, 'compass': 179.84, 'pitch': -3.97, 'roll': -2.43}
{'lipoC2': 7.65, 'temp': 24.56, 'lipoC3S3': 12.13, 'state': 'normal', 'rot1': 122, 'rot0': 115, 'rot3': 31, 'rot2': 37, 'depth': 1.843, 'yaw': 27.13, 'datetime': '2018-11-26 11:10:32.824481', 'mgs': 0, 'flw2': 1.22, 'flw1': 0.0, 'flw0': 1.29, 'time': 18.6, 'compass': -171.46, 'pitch': -4.74, 'roll': -4.17}
{'lipoC2': 7.65, 'temp': 24.63, 'lipoC3S3': 12.21, 'state': 'normal', 'rot1': 124, 'rot0': 117, 'rot3': 31, 'rot2': 37, 'depth': 2.53, 'yaw': 36.21, 'datetime': '2018-11-26 11:10:33.032880', 'mgs': 0, 'flw2': 1.35, 'flw1': 0.0, 'flw0': 1.27, 'time': 18.81, 'compass': -162.37, 'pitch': -4.96, 'roll': -5.85}
{'lipoC2': 7.65, 'temp': 24.81, 'lipoC3S3': 12.22, 'state': 'normal', 'rot1': 125, 'rot0': 119, 'rot3': 31, 'rot2': 37, 'depth': 1.996, 'yaw': 45.65, 'datetime': '2018-11-26 11:10:33.246169', 'mgs': 0, 'flw2': 1.28, 'flw1': 0.0, 'flw0': 1.37, 'time': 19.02, 'compass': -152.93, 'pitch': -4.66, 'roll': -7.43}
{'lipoC2': 7.65, 'temp': 24.56, 'lipoC3S3': 12.21, 'state': 'normal', 'rot1': 127, 'rot0': 120, 'rot3': 31, 'rot2': 37, 'depth': 2.454, 'yaw': 55.29, 'datetime': '2018-11-26 11:10:33.459593', 'mgs': 0, 'flw2': 1.33, 'flw1': 0.0, 'flw0': 1.28, 'time': 19.23, 'compass': -143.29, 'pitch': -3.93, 'roll': -9.07}
{'lipoC2': 7.65, 'temp': 24.63, 'lipoC3S3': 12.21, 'state': 'normal', 'rot1': 129, 'rot0': 122, 'rot3': 31, 'rot2': 37, 'depth': 2.072, 'yaw': 64.83, 'datetime': '2018-11-26 11:10:33.671043', 'mgs': 0, 'flw2': 1.23, 'flw1': 0.0, 'flw0': 1.33, 'time': 19.44, 'compass': -133.76, 'pitch': -2.96, 'roll': -10.32}
{'lipoC2': 7.65, 'temp': 24.31, 'lipoC3S3': 12.21, 'state': 'normal', 'rot1': 130, 'rot0': 123, 'rot3': 32, 'rot2': 37, 'depth': 2.911, 'yaw': 73.71, 'datetime': '2018-11-26 11:10:33.879705', 'mgs': 0, 'flw2': 0.0, 'flw1': 6.56, 'flw0': 0.0, 'time': 19.65, 'compass': -124.88, 'pitch': -2.08, 'roll': -10.87}
{'lipoC2': 7.65, 'temp': 24.31, 'lipoC3S3': 12.22, 'state': 'normal', 'rot1': 130, 'rot0': 123, 'rot3': 33, 'rot2': 38, 'depth': 2.377, 'yaw': 80.73, 'datetime': '2018-11-26 11:10:34.086853', 'mgs': 0, 'flw2': 0.0, 'flw1': 5.16, 'flw0': 0.0, 'time': 19.86, 'compass': -117.85, 'pitch': -1.64, 'roll': -11.78}
{'lipoC2': 7.65, 'temp': 24.63, 'lipoC3S3': 12.18, 'state': 'normal', 'rot1': 130, 'rot0': 123, 'rot3': 34, 'rot2': 40, 'depth': 2.377, 'yaw': 86.38, 'datetime': '2018-11-26 11:10:34.300599', 'mgs': 0, 'flw2': 0.0, 'flw1': 4.54, 'flw0': 0.0, 'time': 20.07, 'compass': -112.21, 'pitch': -1.44, 'roll': -12.94}
{'lipoC2': 7.65, 'temp': 24.63, 'lipoC3S3': 12.22, 'state': 'normal', 'rot1': 130, 'rot0': 123, 'rot3': 35, 'rot2': 41, 'depth': 2.682, 'yaw': 90.94, 'datetime': '2018-11-26 11:10:34.510631', 'mgs': 0, 'flw2': 0.0, 'flw1': 5.04, 'flw0': 0.0, 'time': 20.29, 'compass': -107.65, 'pitch': -1.29, 'roll': -14.11}
{'lipoC2': 7.65, 'temp': 24.63, 'lipoC3S3': 12.19, 'state': 'normal', 'rot1': 130, 'rot0': 123, 'rot3': 36, 'rot2': 42, 'depth': 2.911, 'yaw': 94.74, 'datetime': '2018-11-26 11:10:34.725048', 'mgs': 0, 'flw2': 0.0, 'flw1': 4.63, 'flw0': 0.0, 'time': 20.5, 'compass': -103.85, 'pitch': -1.15, 'roll': -15.31}
{'lipoC2': 7.65, 'temp': 24.94, 'lipoC3S3': 12.22, 'state': 'normal', 'rot1': 130, 'rot0': 123, 'rot3': 37, 'rot2': 43, 'depth': 3.14, 'yaw': 98.01, 'datetime': '2018-11-26 11:10:34.931562', 'mgs': 0, 'flw2': 0.0, 'flw1': 3.57, 'flw0': 0.0, 'time': 20.71, 'compass': -100.58, 'pitch': -1.06, 'roll': -16.41}
{'lipoC2': 7.65, 'temp': 25.0, 'lipoC3S3': 12.22, 'state': 'normal', 'rot1': 130, 'rot0': 123, 'rot3': 38, 'rot2': 44, 'depth': 2.988, 'yaw': 100.9, 'datetime': '2018-11-26 11:10:35.140936', 'mgs': 0, 'flw2': 0.0, 'flw1': 4.45, 'flw0': 0.0, 'time': 20.92, 'compass': -97.69, 'pitch': -0.94, 'roll': -17.12}
{'lipoC2': 7.65, 'temp': 24.63, 'lipoC3S3': 12.17, 'state': 'normal', 'rot1': 130, 'rot0': 123, 'rot3': 39, 'rot2': 45, 'depth': 2.988, 'yaw': 103.34, 'datetime': '2018-11-26 11:10:35.352693', 'mgs': 0, 'flw2': 0.0, 'flw1': 3.75, 'flw0': 0.0, 'time': 21.13, 'compass': -95.24, 'pitch': -0.74, 'roll': -17.47}
{'lipoC2': 7.65, 'temp': 24.31, 'lipoC3S3': 12.22, 'state': 'normal', 'rot1': 130, 'rot0': 123, 'rot3': 40, 'rot2': 46, 'depth': 3.14, 'yaw': 105.46, 'datetime': '2018-11-26 11:10:35.564155', 'mgs': 0, 'flw2': 0.0, 'flw1': 3.87, 'flw0': 0.0, 'time': 21.34, 'compass': -93.12, 'pitch': -0.54, 'roll': -17.56}
{'lipoC2': 7.65, 'temp': 24.31, 'lipoC3S3': 12.22, 'state': 'normal', 'rot1': 130, 'rot0': 123, 'rot3': 41, 'rot2': 47, 'depth': 3.14, 'yaw': 107.39, 'datetime': '2018-11-26 11:10:35.774377', 'mgs': 0, 'flw2': 0.0, 'flw1': 0.0, 'flw0': 0.0, 'time': 21.55, 'compass': -91.2, 'pitch': -0.39, 'roll': -17.33}
{'lipoC2': 7.65, 'temp': 24.69, 'lipoC3S3': 12.22, 'state': 'normal', 'rot1': 130, 'rot0': 123, 'rot3': 41, 'rot2': 47, 'depth': 3.445, 'yaw': 109.02, 'datetime': '2018-11-26 11:10:35.985190', 'mgs': 0, 'flw2': 0.0, 'flw1': 0.0, 'flw0': 0.0, 'time': 21.76, 'compass': -89.57, 'pitch': -0.34, 'roll': -16.41}
{'lipoC2': 7.65, 'temp': 24.63, 'lipoC3S3': 12.09, 'state': 'normal', 'rot1': 130, 'rot0': 123, 'rot3': 42, 'rot2': 48, 'depth': 3.674, 'yaw': 110.42, 'datetime': '2018-11-26 11:10:36.194922', 'mgs': 0, 'flw2': 3.08, 'flw1': 5.92, 'flw0': 1.53, 'time': 21.97, 'compass': -88.16, 'pitch': -0.22, 'roll': -15.49}
{'lipoC2': 7.65, 'temp': 24.63, 'lipoC3S3': 12.16, 'state': 'normal', 'rot1': 132, 'rot0': 125, 'rot3': 43, 'rot2': 49, 'depth': 4.208, 'yaw': 112.49, 'datetime': '2018-11-26 11:10:36.405767', 'mgs': 0, 'flw2': 2.84, 'flw1': 5.48, 'flw0': 1.27, 'time': 22.18, 'compass': -86.09, 'pitch': 0.48, 'roll': -13.81}
{'lipoC2': 7.65, 'temp': 24.44, 'lipoC3S3': 12.09, 'state': 'normal', 'rot1': 135, 'rot0': 126, 'rot3': 45, 'rot2': 51, 'depth': 3.979, 'yaw': 115.12, 'datetime': '2018-11-26 11:10:36.617755', 'mgs': 0, 'flw2': 2.77, 'flw1': 4.95, 'flw0': 1.32, 'time': 22.4, 'compass': -83.46, 'pitch': 1.45, 'roll': -11.2}
{'lipoC2': 7.65, 'temp': 24.63, 'lipoC3S3': 12.19, 'state': 'normal', 'rot1': 137, 'rot0': 128, 'rot3': 46, 'rot2': 52, 'depth': 4.819, 'yaw': 118.12, 'datetime': '2018-11-26 11:10:36.828517', 'mgs': 0, 'flw2': 2.86, 'flw1': 4.92, 'flw0': 1.37, 'time': 22.61, 'compass': -80.46, 'pitch': 2.21, 'roll': -8.63}
{'lipoC2': 7.65, 'temp': 24.63, 'lipoC3S3': 12.12, 'state': 'normal', 'rot1': 140, 'rot0': 130, 'rot3': 47, 'rot2': 53, 'depth': 4.208, 'yaw': 121.17, 'datetime': '2018-11-26 11:10:37.039252', 'mgs': 0, 'flw2': 2.69, 'flw1': 3.69, 'flw0': 1.33, 'time': 22.82, 'compass': -77.41, 'pitch': 2.6, 'roll': -6.49}
{'lipoC2': 7.65, 'temp': 24.63, 'lipoC3S3': 12.13, 'state': 'normal', 'rot1': 142, 'rot0': 131, 'rot3': 48, 'rot2': 54, 'depth': 4.819, 'yaw': 124.33, 'datetime': '2018-11-26 11:10:37.250165', 'mgs': 0, 'flw2': 2.83, 'flw1': 3.46, 'flw0': 1.29, 'time': 23.03, 'compass': -74.25, 'pitch': 2.79, 'roll': -4.84}
{'lipoC2': 7.66, 'temp': 24.63, 'lipoC3S3': 12.13, 'state': 'normal', 'rot1': 144, 'rot0': 133, 'rot3': 49, 'rot2': 55, 'depth': 4.514, 'yaw': 127.74, 'datetime': '2018-11-26 11:10:37.462228', 'mgs': 0, 'flw2': 2.83, 'flw1': 3.54, 'flw0': 1.33, 'time': 23.24, 'compass': -70.85, 'pitch': 3.01, 'roll': -3.84}
{'lipoC2': 7.65, 'temp': 24.75, 'lipoC3S3': 12.13, 'state': 'normal', 'rot1': 147, 'rot0': 135, 'rot3': 50, 'rot2': 56, 'depth': 4.59, 'yaw': 131.23, 'datetime': '2018-11-26 11:10:37.673241', 'mgs': 0, 'flw2': 2.78, 'flw1': 3.66, 'flw0': 1.32, 'time': 23.45, 'compass': -67.35, 'pitch': 3.33, 'roll': -3.47}
{'lipoC2': 7.65, 'temp': 24.63, 'lipoC3S3': 12.13, 'state': 'normal', 'rot1': 149, 'rot0': 136, 'rot3': 51, 'rot2': 57, 'depth': 4.437, 'yaw': 134.85, 'datetime': '2018-11-26 11:10:37.883983', 'mgs': 0, 'flw2': 2.83, 'flw1': 3.93, 'flw0': 1.29, 'time': 23.66, 'compass': -63.73, 'pitch': 3.91, 'roll': -3.66}
{'lipoC2': 7.65, 'temp': 24.5, 'lipoC3S3': 12.18, 'state': 'normal', 'rot1': 152, 'rot0': 138, 'rot3': 52, 'rot2': 58, 'depth': 5.2, 'yaw': 138.46, 'datetime': '2018-11-26 11:10:38.094923', 'mgs': 0, 'flw2': 2.86, 'flw1': 4.16, 'flw0': 1.38, 'time': 23.88, 'compass': -60.12, 'pitch': 4.61, 'roll': -4.22}
{'lipoC2': 7.65, 'temp': 24.63, 'lipoC3S3': 12.19, 'state': 'normal', 'rot1': 154, 'rot0': 140, 'rot3': 53, 'rot2': 59, 'depth': 4.59, 'yaw': 141.95, 'datetime': '2018-11-26 11:10:38.306422', 'mgs': 0, 'flw2': 2.72, 'flw1': 0.0, 'flw0': 1.33, 'time': 24.09, 'compass': -56.63, 'pitch': 5.22, 'roll': -4.83}
{'lipoC2': 7.65, 'temp': 24.63, 'lipoC3S3': 12.19, 'state': 'normal', 'rot1': 157, 'rot0': 142, 'rot3': 53, 'rot2': 59, 'depth': 5.429, 'yaw': 145.52, 'datetime': '2018-11-26 11:10:38.517339', 'mgs': 0, 'flw2': 2.83, 'flw1': 0.0, 'flw0': 1.27, 'time': 24.3, 'compass': -53.07, 'pitch': 5.56, 'roll': -5.19}
{'lipoC2': 7.65, 'temp': 24.56, 'lipoC3S3': 12.19, 'state': 'normal', 'rot1': 159, 'rot0': 143, 'rot3': 53, 'rot2': 59, 'depth': 4.666, 'yaw': 149.42, 'datetime': '2018-11-26 11:10:38.729118', 'mgs': 0, 'flw2': 2.92, 'flw1': 0.0, 'flw0': 1.34, 'time': 24.51, 'compass': -49.16, 'pitch': 5.81, 'roll': -5.34}
{'lipoC2': 7.65, 'temp': 24.63, 'lipoC3S3': 12.21, 'state': 'normal', 'rot1': 162, 'rot0': 145, 'rot3': 53, 'rot2': 59, 'depth': 4.514, 'yaw': 153.57, 'datetime': '2018-11-26 11:10:38.938618', 'mgs': 0, 'flw2': 2.71, 'flw1': 0.0, 'flw0': 1.35, 'time': 24.72, 'compass': -45.02, 'pitch': 5.94, 'roll': -5.31}
{'lipoC2': 7.66, 'temp': 24.63, 'lipoC3S3': 12.13, 'state': 'normal', 'rot1': 164, 'rot0': 147, 'rot3': 53, 'rot2': 59, 'depth': 4.437, 'yaw': 157.86, 'datetime': '2018-11-26 11:10:39.149694', 'mgs': 0, 'flw2': 2.7, 'flw1': 4.25, 'flw0': 1.28, 'time': 24.93, 'compass': -40.72, 'pitch': 6.18, 'roll': -5.39}
{'lipoC2': 7.65, 'temp': 24.63, 'lipoC3S3': 12.19, 'state': 'normal', 'rot1': 166, 'rot0': 149, 'rot3': 55, 'rot2': 61, 'depth': 4.971, 'yaw': 162.26, 'datetime': '2018-11-26 11:10:39.360762', 'mgs': 0, 'flw2': 2.72, 'flw1': 4.63, 'flw0': 1.35, 'time': 25.14, 'compass': -36.33, 'pitch': 6.71, 'roll': -5.98}
{'lipoC2': 7.65, 'temp': 24.5, 'lipoC3S3': 12.16, 'state': 'normal', 'rot1': 169, 'rot0': 151, 'rot3': 56, 'rot2': 62, 'depth': 5.048, 'yaw': 166.51, 'datetime': '2018-11-26 11:10:39.569090', 'mgs': 0, 'flw2': 2.89, 'flw1': 3.46, 'flw0': 1.25, 'time': 25.35, 'compass': -32.08, 'pitch': 7.45, 'roll': -6.52}
{'lipoC2': 7.65, 'temp': 24.5, 'lipoC3S3': 12.14, 'state': 'normal', 'rot1': 171, 'rot0': 152, 'rot3': 57, 'rot2': 63, 'depth': 4.437, 'yaw': 170.83, 'datetime': '2018-11-26 11:10:39.781505', 'mgs': 0, 'flw2': 2.75, 'flw1': 3.54, 'flw0': 1.31, 'time': 25.57, 'compass': -27.76, 'pitch': 8.07, 'roll': -6.79}
{'lipoC2': 7.65, 'temp': 24.56, 'lipoC3S3': 12.12, 'state': 'normal', 'rot1': 174, 'rot0': 154, 'rot3': 58, 'rot2': 64, 'depth': 4.437, 'yaw': 175.13, 'datetime': '2018-11-26 11:10:39.991577', 'mgs': 0, 'flw2': 2.7, 'flw1': 4.34, 'flw0': 1.27, 'time': 25.78, 'compass': -23.46, 'pitch': 8.59, 'roll': -6.81}
{'lipoC2': 7.65, 'temp': 24.63, 'lipoC3S3': 12.18, 'state': 'normal', 'rot1': 176, 'rot0': 156, 'rot3': 59, 'rot2': 65, 'depth': 5.124, 'yaw': 179.58, 'datetime': '2018-11-26 11:10:40.203888', 'mgs': 0, 'flw2': 2.77, 'flw1': 4.42, 'flw0': 1.34, 'time': 25.99, 'compass': -19.01, 'pitch': 9.06, 'roll': -6.51}
{'lipoC2': 7.65, 'temp': 24.63, 'lipoC3S3': 12.19, 'state': 'normal', 'rot1': 179, 'rot0': 158, 'rot3': 59, 'rot2': 65, 'depth': 5.048, 'yaw': -175.92, 'datetime': '2018-11-26 11:10:40.416406', 'mgs': 0, 'flw2': 1.21, 'flw1': 0.0, 'flw0': 2.92, 'time': 26.2, 'compass': -14.51, 'pitch': 9.26, 'roll': -5.72}
{'lipoC2': 7.65, 'temp': 24.63, 'lipoC3S3': 12.19, 'state': 'normal', 'rot1': 181, 'rot0': 160, 'rot3': 59, 'rot2': 65, 'depth': 5.429, 'yaw': -173.11, 'datetime': '2018-11-26 11:10:40.628737', 'mgs': 0, 'flw2': 1.33, 'flw1': 0.0, 'flw0': 2.88, 'time': 26.41, 'compass': -11.69, 'pitch': 8.92, 'roll': -4.76}
{'lipoC2': 7.65, 'temp': 24.63, 'lipoC3S3': 12.21, 'state': 'normal', 'rot1': 182, 'rot0': 163, 'rot3': 59, 'rot2': 65, 'depth': 4.59, 'yaw': -172.21, 'datetime': '2018-11-26 11:10:40.841408', 'mgs': 0, 'flw2': 1.28, 'flw1': 0.0, 'flw0': 3.0, 'time': 26.62, 'compass': -10.79, 'pitch': 8.3, 'roll': -4.22}
{'lipoC2': 7.65, 'temp': 24.63, 'lipoC3S3': 12.18, 'state': 'normal', 'rot1': 184, 'rot0': 165, 'rot3': 59, 'rot2': 65, 'depth': 4.514, 'yaw': -172.26, 'datetime': '2018-11-26 11:10:41.049698', 'mgs': 0, 'flw2': 1.28, 'flw1': 0.0, 'flw0': 2.92, 'time': 26.83, 'compass': -10.85, 'pitch': 7.64, 'roll': -3.8}
{'lipoC2': 7.65, 'temp': 24.63, 'lipoC3S3': 12.17, 'state': 'normal', 'rot1': 186, 'rot0': 168, 'rot3': 60, 'rot2': 66, 'depth': 4.666, 'yaw': -172.87, 'datetime': '2018-11-26 11:10:41.266845', 'mgs': 0, 'flw2': 1.28, 'flw1': 4.6, 'flw0': 2.98, 'time': 27.04, 'compass': -11.46, 'pitch': 7.12, 'roll': -3.56}
{'lipoC2': 7.65, 'temp': 24.56, 'lipoC3S3': 12.18, 'state': 'normal', 'rot1': 187, 'rot0': 170, 'rot3': 61, 'rot2': 67, 'depth': 4.666, 'yaw': -174.03, 'datetime': '2018-11-26 11:10:41.478140', 'mgs': 0, 'flw2': 1.29, 'flw1': 4.42, 'flw0': 3.05, 'time': 27.26, 'compass': -12.61, 'pitch': 6.83, 'roll': -3.72}
{'lipoC2': 7.64, 'temp': 24.56, 'lipoC3S3': 12.09, 'state': 'normal', 'rot1': 189, 'rot0': 172, 'rot3': 62, 'rot2': 68, 'depth': 4.666, 'yaw': -175.68, 'datetime': '2018-11-26 11:10:41.685956', 'mgs': 0, 'flw2': 1.26, 'flw1': 4.19, 'flw0': 2.93, 'time': 27.47, 'compass': -14.26, 'pitch': 6.52, 'roll': -4.04}
{'lipoC2': 7.65, 'temp': 24.63, 'lipoC3S3': 12.17, 'state': 'normal', 'rot1': 191, 'rot0': 175, 'rot3': 63, 'rot2': 70, 'depth': 5.429, 'yaw': -177.51, 'datetime': '2018-11-26 11:10:41.897179', 'mgs': 0, 'flw2': 1.35, 'flw1': 3.98, 'flw0': 2.83, 'time': 27.68, 'compass': -16.1, 'pitch': 6.16, 'roll': -4.28}
{'lipoC2': 7.65, 'temp': 24.63, 'lipoC3S3': 12.19, 'state': 'normal', 'rot1': 193, 'rot0': 177, 'rot3': 64, 'rot2': 70, 'depth': 4.742, 'yaw': -179.75, 'datetime': '2018-11-26 11:10:42.110467', 'mgs': 0, 'flw2': 1.32, 'flw1': 0.0, 'flw0': 2.98, 'time': 27.89, 'compass': -18.34, 'pitch': 5.85, 'roll': -4.34}
{'lipoC2': 7.65, 'temp': 24.63, 'lipoC3S3': 12.17, 'state': 'normal', 'rot1': 194, 'rot0': 180, 'rot3': 64, 'rot2': 70, 'depth': 4.819, 'yaw': 177.75, 'datetime': '2018-11-26 11:10:42.320159', 'mgs': 0, 'flw2': 1.33, 'flw1': 0.0, 'flw0': 2.87, 'time': 28.1, 'compass': -20.84, 'pitch': 5.49, 'roll': -4.07}
{'lipoC2': 7.65, 'temp': 24.63, 'lipoC3S3': 12.19, 'state': 'normal', 'rot1': 196, 'rot0': 182, 'rot3': 64, 'rot2': 71, 'depth': 4.819, 'yaw': 175.03, 'datetime': '2018-11-26 11:10:42.531732', 'mgs': 0, 'flw2': 2.87, 'flw1': 4.01, 'flw0': 1.27, 'time': 28.31, 'compass': -23.55, 'pitch': 5.17, 'roll': -3.89}
{'lipoC2': 7.65, 'temp': 24.63, 'lipoC3S3': 12.17, 'state': 'normal', 'rot1': 199, 'rot0': 184, 'rot3': 65, 'rot2': 72, 'depth': 6.116, 'yaw': 173.83, 'datetime': '2018-11-26 11:10:42.743592', 'mgs': 0, 'flw2': 2.91, 'flw1': 3.49, 'flw0': 1.23, 'time': 28.52, 'compass': -24.75, 'pitch': 5.42, 'roll': -3.98}
{'lipoC2': 7.65, 'temp': 24.63, 'lipoC3S3': 12.18, 'state': 'normal', 'rot1': 201, 'rot0': 186, 'rot3': 67, 'rot2': 73, 'depth': 5.429, 'yaw': 174.5, 'datetime': '2018-11-26 11:10:42.951811', 'mgs': 0, 'flw2': 2.82, 'flw1': 4.83, 'flw0': 1.38, 'time': 28.74, 'compass': -24.08, 'pitch': 5.66, 'roll': -3.66}
{'lipoC2': 7.65, 'temp': 24.56, 'lipoC3S3': 12.1, 'state': 'normal', 'rot1': 203, 'rot0': 187, 'rot3': 68, 'rot2': 74, 'depth': 4.742, 'yaw': 175.89, 'datetime': '2018-11-26 11:10:43.164260', 'mgs': 0, 'flw2': 2.64, 'flw1': 4.13, 'flw0': 1.33, 'time': 28.94, 'compass': -22.7, 'pitch': 5.46, 'roll': -2.46}
{'lipoC2': 7.65, 'temp': 24.56, 'lipoC3S3': 12.17, 'state': 'normal', 'rot1': 206, 'rot0': 189, 'rot3': 69, 'rot2': 74, 'depth': 4.666, 'yaw': 177.56, 'datetime': '2018-11-26 11:10:43.373646', 'mgs': 0, 'flw2': 2.72, 'flw1': 4.6, 'flw0': 1.35, 'time': 29.16, 'compass': -21.03, 'pitch': 5.35, 'roll': -1.29}
{'lipoC2': 7.65, 'temp': 24.63, 'lipoC3S3': 12.17, 'state': 'normal', 'rot1': 208, 'rot0': 191, 'rot3': 70, 'rot2': 75, 'depth': 5.2, 'yaw': 179.71, 'datetime': '2018-11-26 11:10:43.584180', 'mgs': 0, 'flw2': 2.78, 'flw1': 3.84, 'flw0': 1.35, 'time': 29.37, 'compass': -18.88, 'pitch': 5.49, 'roll': -1.09}
{'lipoC2': 7.64, 'temp': 24.63, 'lipoC3S3': 12.14, 'state': 'normal', 'rot1': 211, 'rot0': 192, 'rot3': 70, 'rot2': 76, 'depth': 4.59, 'yaw': -177.86, 'datetime': '2018-11-26 11:10:43.796863', 'mgs': 0, 'flw2': 2.78, 'flw1': 0.0, 'flw0': 3.06, 'time': 29.58, 'compass': -16.44, 'pitch': 5.73, 'roll': -1.11}
{'lipoC2': 7.65, 'temp': 24.63, 'lipoC3S3': 12.18, 'state': 'normal', 'rot1': 213, 'rot0': 195, 'rot3': 70, 'rot2': 76, 'depth': 5.276, 'yaw': -176.09, 'datetime': '2018-11-26 11:10:44.007138', 'mgs': 0, 'flw2': 2.89, 'flw1': 0.0, 'flw0': 2.87, 'time': 29.79, 'compass': -14.67, 'pitch': 5.76, 'roll': -0.64}
{'lipoC2': 7.65, 'temp': 24.56, 'lipoC3S3': 12.1, 'state': 'normal', 'rot1': 215, 'rot0': 197, 'rot3': 70, 'rot2': 76, 'depth': 4.514, 'yaw': -175.19, 'datetime': '2018-11-26 11:10:44.215803', 'mgs': 0, 'flw2': 1.16, 'flw1': 0.0, 'flw0': 2.98, 'time': 30.0, 'compass': -13.78, 'pitch': 5.76, 'roll': 0.04}
{'lipoC2': 7.65, 'temp': 24.56, 'lipoC3S3': 12.19, 'state': 'normal', 'rot1': 217, 'rot0': 200, 'rot3': 70, 'rot2': 76, 'depth': 4.514, 'yaw': -175.58, 'datetime': '2018-11-26 11:10:44.433666', 'mgs': 0, 'flw2': 1.31, 'flw1': 0.0, 'flw0': 3.08, 'time': 30.22, 'compass': -14.17, 'pitch': 5.55, 'roll': 0.16}
{'lipoC2': 7.65, 'temp': 24.56, 'lipoC3S3': 12.17, 'state': 'normal', 'rot1': 219, 'rot0': 202, 'rot3': 71, 'rot2': 77, 'depth': 4.514, 'yaw': -177.37, 'datetime': '2018-11-26 11:10:44.643835', 'mgs': 0, 'flw2': 1.29, 'flw1': 4.6, 'flw0': 3.03, 'time': 30.43, 'compass': -15.96, 'pitch': 5.15, 'roll': -0.48}
{'lipoC2': 7.66, 'temp': 24.56, 'lipoC3S3': 12.1, 'state': 'normal', 'rot1': 221, 'rot0': 204, 'rot3': 72, 'rot2': 78, 'depth': 4.59, 'yaw': -179.69, 'datetime': '2018-11-26 11:10:44.853647', 'mgs': 0, 'flw2': 1.38, 'flw1': 4.19, 'flw0': 2.86, 'time': 30.64, 'compass': -18.27, 'pitch': 4.9, 'roll': -1.64}
{'lipoC2': 7.64, 'temp': 24.56, 'lipoC3S3': 12.18, 'state': 'normal', 'rot1': 222, 'rot0': 207, 'rot3': 73, 'rot2': 79, 'depth': 4.819, 'yaw': 177.47, 'datetime': '2018-11-26 11:10:45.062218', 'mgs': 0, 'flw2': 2.94, 'flw1': 4.19, 'flw0': 1.25, 'time': 30.85, 'compass': -21.11, 'pitch': 4.67, 'roll': -3.1}
{'lipoC2': 7.65, 'temp': 24.56, 'lipoC3S3': 12.17, 'state': 'normal', 'rot1': 225, 'rot0': 209, 'rot3': 74, 'rot2': 80, 'depth': 5.505, 'yaw': 176.21, 'datetime': '2018-11-26 11:10:45.272989', 'mgs': 0, 'flw2': 2.86, 'flw1': 3.93, 'flw0': 1.32, 'time': 31.06, 'compass': -22.37, 'pitch': 4.67, 'roll': -4.33}
{'lipoC2': 7.64, 'temp': 24.63, 'lipoC3S3': 12.06, 'state': 'normal', 'rot1': 227, 'rot0': 210, 'rot3': 74, 'rot2': 80, 'depth': 4.361, 'yaw': 176.34, 'datetime': '2018-11-26 11:10:45.484924', 'mgs': 0, 'flw2': 2.76, 'flw1': 3.63, 'flw0': 1.33, 'time': 31.27, 'compass': -22.24, 'pitch': 4.59, 'roll': -4.92}
{'lipoC2': 7.65, 'temp': 24.63, 'lipoC3S3': 12.18, 'state': 'normal', 'rot1': 229, 'rot0': 212, 'rot3': 75, 'rot2': 81, 'depth': 4.208, 'yaw': 177.25, 'datetime': '2018-11-26 11:10:45.699475', 'mgs': 0, 'flw2': 2.73, 'flw1': 3.46, 'flw0': 1.37, 'time': 31.48, 'compass': -21.34, 'pitch': 4.37, 'roll': -4.31}
{'lipoC2': 7.66, 'temp': 24.56, 'lipoC3S3': 12.09, 'state': 'normal', 'rot1': 232, 'rot0': 214, 'rot3': 76, 'rot2': 83, 'depth': 4.437, 'yaw': 178.69, 'datetime': '2018-11-26 11:10:45.908281', 'mgs': 0, 'flw2': 2.76, 'flw1': 5.16, 'flw0': 1.28, 'time': 31.69, 'compass': -19.89, 'pitch': 4.61, 'roll': -3.3}
{'lipoC2': 7.65, 'temp': 24.75, 'lipoC3S3': 12.17, 'state': 'normal', 'rot1': 234, 'rot0': 215, 'rot3': 77, 'rot2': 84, 'depth': 4.056, 'yaw': -179.42, 'datetime': '2018-11-26 11:10:46.118202', 'mgs': 0, 'flw2': 2.73, 'flw1': 4.98, 'flw0': 1.35, 'time': 31.9, 'compass': -18.0, 'pitch': 5.29, 'roll': -3.06}
{'lipoC2': 7.65, 'temp': 24.56, 'lipoC3S3': 12.16, 'state': 'normal', 'rot1': 237, 'rot0': 217, 'rot3': 78, 'rot2': 85, 'depth': 4.208, 'yaw': -177.52, 'datetime': '2018-11-26 11:10:46.329898', 'mgs': 0, 'flw2': 1.15, 'flw1': 4.98, 'flw0': 3.08, 'time': 32.12, 'compass': -16.11, 'pitch': 6.08, 'roll': -3.19}
{'lipoC2': 7.65, 'temp': 24.63, 'lipoC3S3': 12.17, 'state': 'normal', 'rot1': 239, 'rot0': 220, 'rot3': 79, 'rot2': 87, 'depth': 4.59, 'yaw': -177.09, 'datetime': '2018-11-26 11:10:46.541611', 'mgs': 0, 'flw2': 1.27, 'flw1': 5.16, 'flw0': 3.05, 'time': 32.33, 'compass': -15.68, 'pitch': 6.64, 'roll': -3.6}
{'lipoC2': 7.65, 'temp': 24.63, 'lipoC3S3': 12.12, 'state': 'normal', 'rot1': 240, 'rot0': 222, 'rot3': 80, 'rot2': 88, 'depth': 4.208, 'yaw': -178.42, 'datetime': '2018-11-26 11:10:46.753998', 'mgs': 0, 'flw2': 1.32, 'flw1': 3.93, 'flw0': 2.92, 'time': 32.54, 'compass': -17.01, 'pitch': 6.59, 'roll': -4.12}
{'lipoC2': 7.65, 'temp': 24.56, 'lipoC3S3': 12.17, 'state': 'normal', 'rot1': 242, 'rot0': 225, 'rot3': 81, 'rot2': 89, 'depth': 4.895, 'yaw': 179.23, 'datetime': '2018-11-26 11:10:46.964203', 'mgs': 0, 'flw2': 1.32, 'flw1': 4.31, 'flw0': 3.06, 'time': 32.75, 'compass': -19.36, 'pitch': 5.8, 'roll': -4.37}
{'lipoC2': 7.65, 'temp': 24.63, 'lipoC3S3': 12.13, 'state': 'normal', 'rot1': 244, 'rot0': 227, 'rot3': 82, 'rot2': 91, 'depth': 4.361, 'yaw': 176.42, 'datetime': '2018-11-26 11:10:47.174816', 'mgs': 0, 'flw2': 2.86, 'flw1': 3.69, 'flw0': 1.26, 'time': 32.96, 'compass': -22.17, 'pitch': 4.79, 'roll': -4.42}
{'lipoC2': 7.65, 'temp': 24.63, 'lipoC3S3': 12.18, 'state': 'normal', 'rot1': 245, 'rot0': 228, 'rot3': 84, 'rot2': 91, 'depth': 5.048, 'yaw': 174.58, 'datetime': '2018-11-26 11:10:47.384965', 'mgs': 0, 'flw2': 0.0, 'flw1': 6.09, 'flw0': 0.0, 'time': 33.17, 'compass': -24.01, 'pitch': 3.86, 'roll': -4.66}
{'lipoC2': 7.65, 'temp': 24.56, 'lipoC3S3': 12.17, 'state': 'normal', 'rot1': 245, 'rot0': 228, 'rot3': 85, 'rot2': 93, 'depth': 4.361, 'yaw': 173.26, 'datetime': '2018-11-26 11:10:47.595390', 'mgs': 0, 'flw2': 0.0, 'flw1': 5.42, 'flw0': 0.0, 'time': 33.38, 'compass': -25.33, 'pitch': 2.86, 'roll': -5.48}
{'lipoC2': 7.65, 'temp': 24.63, 'lipoC3S3': 12.17, 'state': 'normal', 'rot1': 245, 'rot0': 228, 'rot3': 86, 'rot2': 94, 'depth': 4.285, 'yaw': 172.12, 'datetime': '2018-11-26 11:10:47.804055', 'mgs': 0, 'flw2': 0.0, 'flw1': 5.39, 'flw0': 0.0, 'time': 33.59, 'compass': -26.46, 'pitch': 2.07, 'roll': -6.51}
{'lipoC2': 7.65, 'temp': 24.63, 'lipoC3S3': 12.16, 'state': 'normal', 'rot1': 245, 'rot0': 228, 'rot3': 87, 'rot2': 95, 'depth': 4.208, 'yaw': 171.1, 'datetime': '2018-11-26 11:10:48.020013', 'mgs': 0, 'flw2': 0.0, 'flw1': 5.36, 'flw0': 0.0, 'time': 33.81, 'compass': -27.48, 'pitch': 1.7, 'roll': -7.43}
{'lipoC2': 7.65, 'temp': 24.56, 'lipoC3S3': 12.16, 'state': 'normal', 'rot1': 245, 'rot0': 228, 'rot3': 88, 'rot2': 97, 'depth': 4.056, 'yaw': 170.13, 'datetime': '2018-11-26 11:10:48.231251', 'mgs': 0, 'flw2': 0.0, 'flw1': 5.1, 'flw0': 0.0, 'time': 34.01, 'compass': -28.45, 'pitch': 1.6, 'roll': -8.14}
{'lipoC2': 7.65, 'temp': 24.63, 'lipoC3S3': 12.12, 'state': 'normal', 'rot1': 245, 'rot0': 228, 'rot3': 89, 'rot2': 98, 'depth': 4.208, 'yaw': 169.23, 'datetime': '2018-11-26 11:10:48.443934', 'mgs': 0, 'flw2': 0.0, 'flw1': 4.95, 'flw0': 0.0, 'time': 34.23, 'compass': -29.35, 'pitch': 1.51, 'roll': -8.49}
{'lipoC2': 7.65, 'temp': 24.56, 'lipoC3S3': 12.18, 'state': 'normal', 'rot1': 245, 'rot0': 228, 'rot3': 90, 'rot2': 99, 'depth': 4.361, 'yaw': 168.32, 'datetime': '2018-11-26 11:10:48.651906', 'mgs': 0, 'flw2': 0.0, 'flw1': 5.42, 'flw0': 0.0, 'time': 34.44, 'compass': -30.27, 'pitch': 1.37, 'roll': -8.41}
{'lipoC2': 7.65, 'temp': 24.56, 'lipoC3S3': 12.17, 'state': 'normal', 'rot1': 245, 'rot0': 228, 'rot3': 91, 'rot2': 101, 'depth': 3.674, 'yaw': 167.44, 'datetime': '2018-11-26 11:10:48.863035', 'mgs': 0, 'flw2': 0.0, 'flw1': 5.01, 'flw0': 0.0, 'time': 34.65, 'compass': -31.14, 'pitch': 1.25, 'roll': -8.02}
{'lipoC2': 7.65, 'temp': 24.63, 'lipoC3S3': 12.16, 'state': 'normal', 'rot1': 245, 'rot0': 228, 'rot3': 92, 'rot2': 102, 'depth': 3.369, 'yaw': 166.6, 'datetime': '2018-11-26 11:10:49.074055', 'mgs': 0, 'flw2': 0.0, 'flw1': 5.19, 'flw0': 0.0, 'time': 34.86, 'compass': -31.98, 'pitch': 1.13, 'roll': -7.44}
{'lipoC2': 7.65, 'temp': 24.56, 'lipoC3S3': 12.19, 'state': 'normal', 'rot1': 245, 'rot0': 228, 'rot3': 93, 'rot2': 103, 'depth': 3.293, 'yaw': 165.8, 'datetime': '2018-11-26 11:10:49.286791', 'mgs': 0, 'flw2': 0.0, 'flw1': 0.0, 'flw0': 0.0, 'time': 35.07, 'compass': -32.78, 'pitch': 1.03, 'roll': -6.82}
{'lipoC2': 7.65, 'temp': 24.63, 'lipoC3S3': 12.21, 'state': 'normal', 'rot1': 245, 'rot0': 228, 'rot3': 93, 'rot2': 103, 'depth': 3.064, 'yaw': 164.81, 'datetime': '2018-11-26 11:10:49.594866', 'mgs': 0, 'flw2': 0.0, 'flw1': 0.0, 'flw0': 0.0, 'time': 35.39, 'compass': -33.78, 'pitch': 1.75, 'roll': -7.11}
{'lipoC2': 7.65, 'temp': 24.63, 'lipoC3S3': 12.19, 'state': 'normal', 'rot1': 245, 'rot0': 228, 'rot3': 93, 'rot2': 103, 'depth': 2.911, 'yaw': 164.27, 'datetime': '2018-11-26 11:10:49.804946', 'mgs': 0, 'flw2': 0.0, 'flw1': 0.0, 'flw0': 0.0, 'time': 35.6, 'compass': -34.32, 'pitch': 2.38, 'roll': -7.97}
{'lipoC2': 7.65, 'temp': 24.63, 'lipoC3S3': 12.21, 'state': 'normal', 'rot1': 245, 'rot0': 228, 'rot3': 93, 'rot2': 103, 'depth': 2.759, 'yaw': 163.85, 'datetime': '2018-11-26 11:10:50.016110', 'mgs': 0, 'flw2': 0.0, 'flw1': 0.0, 'flw0': 0.0, 'time': 35.81, 'compass': -34.73, 'pitch': 2.83, 'roll': -8.77}
{'lipoC2': 7.65, 'temp': 24.63, 'lipoC3S3': 12.19, 'state': 'normal', 'rot1': 245, 'rot0': 228, 'rot3': 93, 'rot2': 103, 'depth': 2.606, 'yaw': 163.55, 'datetime': '2018-11-26 11:10:50.232430', 'mgs': 0, 'flw2': 0.0, 'flw1': 0.0, 'flw0': 0.0, 'time': 36.02, 'compass': -35.04, 'pitch': 2.99, 'roll': -9.59}
{'lipoC2': 7.65, 'temp': 24.56, 'lipoC3S3': 12.21, 'state': 'normal', 'rot1': 245, 'rot0': 228, 'rot3': 93, 'rot2': 103, 'depth': 2.454, 'yaw': 163.34, 'datetime': '2018-11-26 11:10:50.444038', 'mgs': 0, 'flw2': 0.0, 'flw1': 0.0, 'flw0': 0.0, 'time': 36.23, 'compass': -35.25, 'pitch': 2.89, 'roll': -10.27}
{'lipoC2': 7.65, 'temp': 24.63, 'lipoC3S3': 12.21, 'state': 'normal', 'rot1': 245, 'rot0': 228, 'rot3': 93, 'rot2': 103, 'depth': 2.454, 'yaw': 163.22, 'datetime': '2018-11-26 11:10:50.655793', 'mgs': 0, 'flw2': 0.0, 'flw1': 0.0, 'flw0': 0.0, 'time': 36.44, 'compass': -35.37, 'pitch': 2.48, 'roll': -10.4}
{'lipoC2': 7.65, 'temp': 24.63, 'lipoC3S3': 12.21, 'state': 'normal', 'rot1': 245, 'rot0': 228, 'rot3': 93, 'rot2': 103, 'depth': 2.301, 'yaw': 163.18, 'datetime': '2018-11-26 11:10:50.866336', 'mgs': 0, 'flw2': 0.0, 'flw1': 0.0, 'flw0': 0.0, 'time': 36.65, 'compass': -35.41, 'pitch': 1.9, 'roll': -10.03}
{'lipoC2': 7.65, 'temp': 24.63, 'lipoC3S3': 12.21, 'state': 'normal', 'rot1': 245, 'rot0': 228, 'rot3': 93, 'rot2': 103, 'depth': 2.225, 'yaw': 163.24, 'datetime': '2018-11-26 11:10:51.076872', 'mgs': 0, 'flw2': 0.0, 'flw1': 0.0, 'flw0': 0.0, 'time': 36.87, 'compass': -35.35, 'pitch': 1.33, 'roll': -9.43}
{'lipoC2': 7.64, 'temp': 24.63, 'lipoC3S3': 12.21, 'state': 'normal', 'rot1': 245, 'rot0': 228, 'rot3': 93, 'rot2': 103, 'depth': 2.148, 'yaw': 163.31, 'datetime': '2018-11-26 11:10:51.287584', 'mgs': 0, 'flw2': 0.0, 'flw1': 0.0, 'flw0': 0.0, 'time': 37.08, 'compass': -35.28, 'pitch': 0.87, 'roll': -8.67}
{'lipoC2': 7.65, 'temp': 24.63, 'lipoC3S3': 12.21, 'state': 'normal', 'rot1': 245, 'rot0': 228, 'rot3': 93, 'rot2': 103, 'depth': 2.072, 'yaw': 163.36, 'datetime': '2018-11-26 11:10:51.493490', 'mgs': 0, 'flw2': 0.0, 'flw1': 0.0, 'flw0': 0.0, 'time': 37.29, 'compass': -35.23, 'pitch': 0.54, 'roll': -7.86}
{'lipoC2': 7.65, 'temp': 24.56, 'lipoC3S3': 12.21, 'state': 'normal', 'rot1': 245, 'rot0': 228, 'rot3': 93, 'rot2': 103, 'depth': 2.072, 'yaw': 163.37, 'datetime': '2018-11-26 11:10:51.704999', 'mgs': 0, 'flw2': 0.0, 'flw1': 0.0, 'flw0': 0.0, 'time': 37.5, 'compass': -35.22, 'pitch': 0.47, 'roll': -7.09}
{'lipoC2': 7.65, 'temp': 24.56, 'lipoC3S3': 12.21, 'state': 'normal', 'rot1': 245, 'rot0': 228, 'rot3': 93, 'rot2': 103, 'depth': 1.996, 'yaw': 163.4, 'datetime': '2018-11-26 11:10:51.914588', 'mgs': 0, 'flw2': 0.0, 'flw1': 0.0, 'flw0': 0.0, 'time': 37.71, 'compass': -35.19, 'pitch': 0.72, 'roll': -6.34}
{'lipoC2': 7.65, 'temp': 24.44, 'lipoC3S3': 12.21, 'state': 'normal', 'rot1': 245, 'rot0': 228, 'rot3': 93, 'rot2': 103, 'depth': 1.92, 'yaw': 163.48, 'datetime': '2018-11-26 11:10:52.127128', 'mgs': 0, 'flw2': 0.0, 'flw1': 0.0, 'flw0': 0.0, 'time': 37.92, 'compass': -35.1, 'pitch': 1.03, 'roll': -5.84}
{'lipoC2': 7.65, 'temp': 24.56, 'lipoC3S3': 12.21, 'state': 'normal', 'rot1': 245, 'rot0': 228, 'rot3': 93, 'rot2': 103, 'depth': 1.843, 'yaw': 163.56, 'datetime': '2018-11-26 11:10:52.337631', 'mgs': 0, 'flw2': 0.0, 'flw1': 0.0, 'flw0': 0.0, 'time': 38.13, 'compass': -35.03, 'pitch': 1.29, 'roll': -5.76}
{'lipoC2': 7.65, 'temp': 24.63, 'lipoC3S3': 12.21, 'state': 'normal', 'rot1': 245, 'rot0': 228, 'rot3': 93, 'rot2': 103, 'depth': 1.843, 'yaw': 163.67, 'datetime': '2018-11-26 11:10:52.548427', 'mgs': 0, 'flw2': 0.0, 'flw1': 0.0, 'flw0': 0.0, 'time': 38.34, 'compass': -34.91, 'pitch': 1.59, 'roll': -5.88}
{'lipoC2': 7.65, 'temp': 24.63, 'lipoC3S3': 12.22, 'state': 'normal', 'rot1': 245, 'rot0': 228, 'rot3': 93, 'rot2': 103, 'depth': 1.767, 'yaw': 163.8, 'datetime': '2018-11-26 11:10:52.759901', 'mgs': 0, 'flw2': 0.0, 'flw1': 0.0, 'flw0': 0.0, 'time': 38.56, 'compass': -34.78, 'pitch': 1.77, 'roll': -5.89}
{'lipoC2': 7.65, 'temp': 24.63, 'lipoC3S3': 12.22, 'state': 'normal', 'rot1': 245, 'rot0': 228, 'rot3': 93, 'rot2': 103, 'depth': 1.767, 'yaw': 163.87, 'datetime': '2018-11-26 11:10:52.972828', 'mgs': 0, 'flw2': 0.0, 'flw1': 0.0, 'flw0': 0.0, 'time': 38.77, 'compass': -34.71, 'pitch': 1.7, 'roll': -5.89}
{'lipoC2': 7.65, 'temp': 24.5, 'lipoC3S3': 12.22, 'state': 'normal', 'rot1': 245, 'rot0': 228, 'rot3': 93, 'rot2': 103, 'depth': 1.767, 'yaw': 163.9, 'datetime': '2018-11-26 11:10:53.185740', 'mgs': 0, 'flw2': 0.0, 'flw1': 0.0, 'flw0': 0.0, 'time': 38.98, 'compass': -34.68, 'pitch': 1.42, 'roll': -5.9}
{'lipoC2': 7.65, 'temp': 24.56, 'lipoC3S3': 12.21, 'state': 'normal', 'rot1': 245, 'rot0': 228, 'rot3': 93, 'rot2': 103, 'depth': 1.767, 'yaw': 163.97, 'datetime': '2018-11-26 11:10:53.396633', 'mgs': 0, 'flw2': 0.0, 'flw1': 0.0, 'flw0': 0.0, 'time': 39.19, 'compass': -34.61, 'pitch': 1.04, 'roll': -5.81}
{'lipoC2': 7.65, 'temp': 24.56, 'lipoC3S3': 12.22, 'state': 'normal', 'rot1': 245, 'rot0': 228, 'rot3': 93, 'rot2': 103, 'depth': 1.691, 'yaw': 164.02, 'datetime': '2018-11-26 11:10:53.605646', 'mgs': 0, 'flw2': 0.0, 'flw1': 0.0, 'flw0': 0.0, 'time': 39.4, 'compass': -34.57, 'pitch': 0.61, 'roll': -5.57}
{'lipoC2': 7.65, 'temp': 24.63, 'lipoC3S3': 12.21, 'state': 'normal', 'rot1': 245, 'rot0': 228, 'rot3': 93, 'rot2': 103, 'depth': 1.767, 'yaw': 164.08, 'datetime': '2018-11-26 11:10:53.816406', 'mgs': 0, 'flw2': 0.0, 'flw1': 0.0, 'flw0': 0.0, 'time': 39.61, 'compass': -34.51, 'pitch': 0.24, 'roll': -5.68}
{'lipoC2': 7.65, 'temp': 24.63, 'lipoC3S3': 12.22, 'state': 'normal', 'rot1': 245, 'rot0': 228, 'rot3': 93, 'rot2': 103, 'depth': 1.767, 'yaw': 164.22, 'datetime': '2018-11-26 11:10:54.027378', 'mgs': 0, 'flw2': 0.0, 'flw1': 0.0, 'flw0': 0.0, 'time': 39.82, 'compass': -34.36, 'pitch': 0.05, 'roll': -6.01}
{'lipoC2': 7.65, 'temp': 24.56, 'lipoC3S3': 12.21, 'state': 'normal', 'rot1': 245, 'rot0': 228, 'rot3': 93, 'rot2': 103, 'depth': 1.843, 'yaw': 164.37, 'datetime': '2018-11-26 11:10:54.237387', 'mgs': 0, 'flw2': 0.0, 'flw1': 0.0, 'flw0': 0.0, 'time': 40.03, 'compass': -34.22, 'pitch': 0.06, 'roll': -5.88}
{'lipoC2': 7.65, 'temp': 24.75, 'lipoC3S3': 12.22, 'state': 'normal', 'rot1': 245, 'rot0': 228, 'rot3': 93, 'rot2': 103, 'depth': 1.767, 'yaw': 164.52, 'datetime': '2018-11-26 11:10:54.449385', 'mgs': 0, 'flw2': 0.0, 'flw1': 0.0, 'flw0': 0.0, 'time': 40.24, 'compass': -34.06, 'pitch': 0.08, 'roll': -5.5}
{'lipoC2': 7.65, 'temp': 24.75, 'lipoC3S3': 12.21, 'state': 'normal', 'rot1': 245, 'rot0': 228, 'rot3': 93, 'rot2': 103, 'depth': 1.843, 'yaw': 164.69, 'datetime': '2018-11-26 11:10:54.659665', 'mgs': 0, 'flw2': 0.0, 'flw1': 0.0, 'flw0': 0.0, 'time': 40.46, 'compass': -33.89, 'pitch': 0.26, 'roll': -5.64}
{'lipoC2': 7.65, 'temp': 24.63, 'lipoC3S3': 12.22, 'state': 'normal', 'rot1': 245, 'rot0': 228, 'rot3': 93, 'rot2': 103, 'depth': 1.92, 'yaw': 164.85, 'datetime': '2018-11-26 11:10:54.870504', 'mgs': 0, 'flw2': 0.0, 'flw1': 0.0, 'flw0': 0.0, 'time': 40.67, 'compass': -33.73, 'pitch': 0.51, 'roll': -6.25}
{'lipoC2': 7.65, 'temp': 24.63, 'lipoC3S3': 12.22, 'state': 'normal', 'rot1': 245, 'rot0': 228, 'rot3': 93, 'rot2': 103, 'depth': 1.996, 'yaw': 165.0, 'datetime': '2018-11-26 11:10:55.080586', 'mgs': 0, 'flw2': 0.0, 'flw1': 0.0, 'flw0': 0.0, 'time': 40.88, 'compass': -33.58, 'pitch': 0.58, 'roll': -6.52}
{'lipoC2': 7.65, 'temp': 24.63, 'lipoC3S3': 12.21, 'state': 'normal', 'rot1': 245, 'rot0': 228, 'rot3': 93, 'rot2': 103, 'depth': 1.996, 'yaw': 165.14, 'datetime': '2018-11-26 11:10:55.292681', 'mgs': 0, 'flw2': 0.0, 'flw1': 0.0, 'flw0': 0.0, 'time': 41.09, 'compass': -33.45, 'pitch': 0.59, 'roll': -6.51}
{'lipoC2': 7.65, 'temp': 24.63, 'lipoC3S3': 12.21, 'state': 'normal', 'rot1': 245, 'rot0': 228, 'rot3': 93, 'rot2': 103, 'depth': 1.996, 'yaw': 165.27, 'datetime': '2018-11-26 11:10:55.507808', 'mgs': 0, 'flw2': 0.0, 'flw1': 0.0, 'flw0': 0.0, 'time': 41.3, 'compass': -33.31, 'pitch': 0.61, 'roll': -6.73}
{'lipoC2': 7.65, 'temp': 24.63, 'lipoC3S3': 12.22, 'state': 'normal', 'rot1': 245, 'rot0': 228, 'rot3': 93, 'rot2': 103, 'depth': 2.072, 'yaw': 165.41, 'datetime': '2018-11-26 11:10:55.716998', 'mgs': 0, 'flw2': 0.0, 'flw1': 0.0, 'flw0': 0.0, 'time': 41.51, 'compass': -33.17, 'pitch': 0.41, 'roll': -7.23}
{'lipoC2': 7.65, 'temp': 24.63, 'lipoC3S3': 12.22, 'state': 'normal', 'rot1': 245, 'rot0': 228, 'rot3': 93, 'rot2': 103, 'depth': 2.072, 'yaw': 165.5, 'datetime': '2018-11-26 11:10:55.926608', 'mgs': 0, 'flw2': 0.0, 'flw1': 0.0, 'flw0': 0.0, 'time': 41.72, 'compass': -33.09, 'pitch': 0.03, 'roll': -7.54}
{'lipoC2': 7.64, 'temp': 24.63, 'lipoC3S3': 12.22, 'state': 'normal', 'rot1': 245, 'rot0': 228, 'rot3': 93, 'rot2': 103, 'depth': 2.148, 'yaw': 165.55, 'datetime': '2018-11-26 11:10:56.137132', 'mgs': 0, 'flw2': 0.0, 'flw1': 0.0, 'flw0': 0.0, 'time': 41.93, 'compass': -33.03, 'pitch': -0.34, 'roll': -7.54}
{'lipoC2': 7.65, 'temp': 24.63, 'lipoC3S3': 12.22, 'state': 'normal', 'rot1': 245, 'rot0': 228, 'rot3': 93, 'rot2': 103, 'depth': 2.225, 'yaw': 165.63, 'datetime': '2018-11-26 11:10:56.350080', 'mgs': 0, 'flw2': 0.0, 'flw1': 0.0, 'flw0': 0.0, 'time': 42.15, 'compass': -32.96, 'pitch': -0.61, 'roll': -7.54}
{'lipoC2': 7.64, 'temp': 24.56, 'lipoC3S3': 12.22, 'state': 'normal', 'rot1': 245, 'rot0': 228, 'rot3': 93, 'rot2': 103, 'depth': 2.148, 'yaw': 165.75, 'datetime': '2018-11-26 11:10:56.560812', 'mgs': 0, 'flw2': 0.0, 'flw1': 0.0, 'flw0': 0.0, 'time': 42.36, 'compass': -32.83, 'pitch': -0.76, 'roll': -7.61}
{'lipoC2': 7.64, 'temp': 24.63, 'lipoC3S3': 12.22, 'state': 'normal', 'rot1': 245, 'rot0': 228, 'rot3': 93, 'rot2': 103, 'depth': 2.225, 'yaw': 165.87, 'datetime': '2018-11-26 11:10:56.773057', 'mgs': 0, 'flw2': 0.0, 'flw1': 0.0, 'flw0': 0.0, 'time': 42.57, 'compass': -32.72, 'pitch': -0.79, 'roll': -7.78}
