{'lipoC2': 0.0, 'temp': 0.0, 'lipoC3S3': 12.02, 'state': 'normal', 'rot1': 0, 'rot0': 0, 'rot3': 0, 'rot2': 0, 'depth': 1.538, 'yaw': 0.0, 'datetime': '2018-12-18 20:46:15.555631', 'mgs': 0, 'flw2': 0.15, 'flw1': 0.09, 'flw0': 0.0, 'time': 1.26, 'compass': -6.27, 'pitch': 0.41, 'roll': -0.77}
{'lipoC2': 0.01, 'temp': 0.0, 'lipoC3S3': 11.71, 'state': 'normal', 'rot1': 0, 'rot0': 0, 'rot3': 0, 'rot2': 0, 'depth': -0.369, 'yaw': 0.78, 'datetime': '2018-12-18 20:46:15.765290', 'mgs': 0, 'flw2': 0.12, 'flw1': 0.15, 'flw0': 0.0, 'time': 1.47, 'compass': -5.49, 'pitch': 0.4, 'roll': -0.92}
{'lipoC2': 0.16, 'temp': 0.0, 'lipoC3S3': 11.83, 'state': 'normal', 'rot1': 0, 'rot0': 0, 'rot3': 0, 'rot2': 0, 'depth': -0.598, 'yaw': 1.55, 'datetime': '2018-12-18 20:46:15.974899', 'mgs': 0, 'flw2': 0.0, 'flw1': 0.47, 'flw0': 0.0, 'time': 1.67, 'compass': -4.72, 'pitch': 0.4, 'roll': -0.89}
{'lipoC2': 0.0, 'temp': 0.0, 'lipoC3S3': 12.09, 'state': 'normal', 'rot1': 0, 'rot0': 0, 'rot3': 0, 'rot2': 0, 'depth': 1.614, 'yaw': 2.27, 'datetime': '2018-12-18 20:46:16.181856', 'mgs': 0, 'flw2': 0.04, 'flw1': 0.38, 'flw0': 0.0, 'time': 1.88, 'compass': -4.0, 'pitch': 0.41, 'roll': -0.84}
{'lipoC2': 0.05, 'temp': 0.0, 'lipoC3S3': 11.94, 'state': 'normal', 'rot1': 0, 'rot0': 0, 'rot3': 0, 'rot2': 0, 'depth': 1.614, 'yaw': 3.02, 'datetime': '2018-12-18 20:46:16.390225', 'mgs': 0, 'flw2': 0.17, 'flw1': 0.03, 'flw0': 0.0, 'time': 2.09, 'compass': -3.25, 'pitch': 0.43, 'roll': -0.73}
{'lipoC2': 0.16, 'temp': 0.0, 'lipoC3S3': 11.87, 'state': 'normal', 'rot1': 0, 'rot0': 0, 'rot3': 0, 'rot2': 0, 'depth': -0.446, 'yaw': 3.72, 'datetime': '2018-12-18 20:46:16.596627', 'mgs': 0, 'flw2': 0.2, 'flw1': 0.0, 'flw0': 0.0, 'time': 2.29, 'compass': -2.54, 'pitch': 0.39, 'roll': -0.71}
{'lipoC2': 0.03, 'temp': 0.0, 'lipoC3S3': 11.98, 'state': 'normal', 'rot1': 0, 'rot0': 0, 'rot3': 0, 'rot2': 0, 'depth': -2.048, 'yaw': 4.47, 'datetime': '2018-12-18 20:46:16.806905', 'mgs': 0, 'flw2': 0.16, 'flw1': 0.06, 'flw0': 0.0, 'time': 2.5, 'compass': -1.8, 'pitch': 0.24, 'roll': -0.79}
{'lipoC2': 0.0, 'temp': 0.0, 'lipoC3S3': 12.01, 'state': 'normal', 'rot1': 0, 'rot0': 0, 'rot3': 0, 'rot2': 0, 'depth': 1.004, 'yaw': 5.22, 'datetime': '2018-12-18 20:46:17.013245', 'mgs': 0, 'flw2': 0.0, 'flw1': 0.15, 'flw0': 0.16, 'time': 2.71, 'compass': -1.04, 'pitch': 0.25, 'roll': -0.92}
{'lipoC2': 0.08, 'temp': 0.0, 'lipoC3S3': 11.92, 'state': 'normal', 'rot1': 0, 'rot0': 0, 'rot3': 0, 'rot2': 0, 'depth': -2.2, 'yaw': 5.95, 'datetime': '2018-12-18 20:46:17.223023', 'mgs': 0, 'flw2': 0.0, 'flw1': 0.0, 'flw0': 0.0, 'time': 2.92, 'compass': -0.31, 'pitch': 0.54, 'roll': -0.97}
{'lipoC2': 0.0, 'temp': 0.0, 'lipoC3S3': 11.9, 'state': 'normal', 'rot1': 0, 'rot0': 0, 'rot3': 0, 'rot2': 0, 'depth': 0.241, 'yaw': 6.64, 'datetime': '2018-12-18 20:46:17.429330', 'mgs': 0, 'flw2': 0.0, 'flw1': 0.32, 'flw0': 0.0, 'time': 3.13, 'compass': 0.38, 'pitch': 0.91, 'roll': -0.91}
{'lipoC2': 0.13, 'temp': 0.0, 'lipoC3S3': 11.71, 'state': 'normal', 'rot1': 0, 'rot0': 0, 'rot3': 0, 'rot2': 0, 'depth': 0.699, 'yaw': 7.38, 'datetime': '2018-12-18 20:46:17.644240', 'mgs': 0, 'flw2': 0.07, 'flw1': 0.35, 'flw0': 0.0, 'time': 3.33, 'compass': 1.11, 'pitch': 0.92, 'roll': -0.77}
{'lipoC2': 0.18, 'temp': 0.0, 'lipoC3S3': 11.79, 'state': 'normal', 'rot1': 0, 'rot0': 0, 'rot3': 0, 'rot2': 0, 'depth': -0.446, 'yaw': 8.07, 'datetime': '2018-12-18 20:46:17.852485', 'mgs': 0, 'flw2': 0.0, 'flw1': 0.0, 'flw0': 0.21, 'time': 3.54, 'compass': 1.81, 'pitch': 0.46, 'roll': -0.71}
{'lipoC2': 0.06, 'temp': 0.0, 'lipoC3S3': 11.68, 'state': 'normal', 'rot1': 0, 'rot0': 0, 'rot3': 0, 'rot2': 0, 'depth': 1.004, 'yaw': 8.77, 'datetime': '2018-12-18 20:46:18.062189', 'mgs': 0, 'flw2': 0.0, 'flw1': 0.0, 'flw0': 0.22, 'time': 3.75, 'compass': 2.5, 'pitch': 0.12, 'roll': -0.78}
{'lipoC2': 0.1, 'temp': 0.0, 'lipoC3S3': 11.9, 'state': 'normal', 'rot1': 0, 'rot0': 0, 'rot3': 0, 'rot2': 0, 'depth': -1.971, 'yaw': 9.47, 'datetime': '2018-12-18 20:46:18.270679', 'mgs': 0, 'flw2': 0.18, 'flw1': 0.0, 'flw0': 0.0, 'time': 3.95, 'compass': 3.21, 'pitch': 0.36, 'roll': -0.91}
{'lipoC2': 0.0, 'temp': 0.0, 'lipoC3S3': 11.94, 'state': 'normal', 'rot1': 0, 'rot0': 0, 'rot3': 0, 'rot2': 0, 'depth': -1.132, 'yaw': 10.13, 'datetime': '2018-12-18 20:46:18.473063', 'mgs': 0, 'flw2': 0.0, 'flw1': 0.29, 'flw0': 0.09, 'time': 4.16, 'compass': 3.87, 'pitch': 0.9, 'roll': -1.02}
{'lipoC2': 0.14, 'temp': 0.0, 'lipoC3S3': 11.77, 'state': 'normal', 'rot1': 0, 'rot0': 0, 'rot3': 0, 'rot2': 0, 'depth': 0.317, 'yaw': 10.84, 'datetime': '2018-12-18 20:46:18.681907', 'mgs': 0, 'flw2': 0.11, 'flw1': 0.0, 'flw0': 0.1, 'time': 4.37, 'compass': 4.57, 'pitch': 0.97, 'roll': -1.0}
{'lipoC2': 0.0, 'temp': 0.0, 'lipoC3S3': 11.98, 'state': 'normal', 'rot1': 0, 'rot0': 0, 'rot3': 0, 'rot2': 0, 'depth': 0.699, 'yaw': 11.53, 'datetime': '2018-12-18 20:46:18.888192', 'mgs': 0, 'flw2': 0.0, 'flw1': 0.18, 'flw0': 0.15, 'time': 4.58, 'compass': 5.26, 'pitch': 0.5, 'roll': -0.92}
{'lipoC2': 0.12, 'temp': 0.0, 'lipoC3S3': 11.89, 'state': 'normal', 'rot1': 1, 'rot0': 1, 'rot3': 0, 'rot2': 0, 'depth': -1.59, 'yaw': 11.83, 'datetime': '2018-12-18 20:46:19.101252', 'mgs': 0, 'flw2': 2.34, 'flw1': 0.0, 'flw0': 2.73, 'time': 4.79, 'compass': 5.56, 'pitch': 0.4, 'roll': -0.9}
{'lipoC2': 0.0, 'temp': 0.0, 'lipoC3S3': 12.12, 'state': 'normal', 'rot1': 3, 'rot0': 5, 'rot3': 0, 'rot2': 0, 'depth': 1.691, 'yaw': 8.36, 'datetime': '2018-12-18 20:46:19.307437', 'mgs': 0, 'flw2': 2.75, 'flw1': 0.18, 'flw0': 2.67, 'time': 4.99, 'compass': 2.09, 'pitch': 1.53, 'roll': -1.69}
{'lipoC2': 0.0, 'temp': 0.0, 'lipoC3S3': 12.08, 'state': 'normal', 'rot1': 6, 'rot0': 7, 'rot3': 0, 'rot2': 0, 'depth': 1.614, 'yaw': 0.81, 'datetime': '2018-12-18 20:46:19.514153', 'mgs': 0, 'flw2': 2.77, 'flw1': 0.15, 'flw0': 2.64, 'time': 5.2, 'compass': -5.46, 'pitch': 2.55, 'roll': -2.67}
{'lipoC2': 0.1, 'temp': 0.0, 'lipoC3S3': 11.67, 'state': 'normal', 'rot1': 8, 'rot0': 10, 'rot3': 0, 'rot2': 0, 'depth': 0.165, 'yaw': -8.87, 'datetime': '2018-12-18 20:46:19.718958', 'mgs': 0, 'flw2': 0.24, 'flw1': 0.06, 'flw0': 2.23, 'time': 5.41, 'compass': -15.14, 'pitch': 2.65, 'roll': -3.08}
{'lipoC2': 0.16, 'temp': 0.0, 'lipoC3S3': 11.79, 'state': 'normal', 'rot1': 10, 'rot0': 10, 'rot3': 0, 'rot2': 0, 'depth': 0.851, 'yaw': -19.52, 'datetime': '2018-12-18 20:46:19.926910', 'mgs': 0, 'flw2': 0.0, 'flw1': 0.47, 'flw0': 0.0, 'time': 5.62, 'compass': -25.78, 'pitch': 2.78, 'roll': -2.67}
{'lipoC2': 0.04, 'temp': 0.0, 'lipoC3S3': 11.68, 'state': 'normal', 'rot1': 10, 'rot0': 10, 'rot3': 0, 'rot2': 0, 'depth': 1.08, 'yaw': -28.37, 'datetime': '2018-12-18 20:46:20.137528', 'mgs': 0, 'flw2': 0.0, 'flw1': 0.18, 'flw0': 0.18, 'time': 5.83, 'compass': -34.63, 'pitch': 2.42, 'roll': -1.1}
{'lipoC2': 0.13, 'temp': 0.0, 'lipoC3S3': 11.88, 'state': 'normal', 'rot1': 10, 'rot0': 10, 'rot3': 0, 'rot2': 0, 'depth': -1.514, 'yaw': -35.49, 'datetime': '2018-12-18 20:46:20.351566', 'mgs': 0, 'flw2': 0.11, 'flw1': 0.0, 'flw0': 0.06, 'time': 6.04, 'compass': -41.76, 'pitch': 1.81, 'roll': 0.77}
{'lipoC2': 0.0, 'temp': 0.0, 'lipoC3S3': 12.09, 'state': 'normal', 'rot1': 10, 'rot0': 10, 'rot3': 0, 'rot2': 0, 'depth': 1.309, 'yaw': -41.3, 'datetime': '2018-12-18 20:46:20.559235', 'mgs': 0, 'flw2': 0.07, 'flw1': 0.38, 'flw0': 0.0, 'time': 6.24, 'compass': -47.57, 'pitch': 1.82, 'roll': 1.69}
{'lipoC2': 0.0, 'temp': 0.0, 'lipoC3S3': 11.73, 'state': 'normal', 'rot1': 10, 'rot0': 10, 'rot3': 0, 'rot2': 0, 'depth': 1.233, 'yaw': -46.7, 'datetime': '2018-12-18 20:46:20.761724', 'mgs': 0, 'flw2': 0.06, 'flw1': 0.35, 'flw0': 0.0, 'time': 6.45, 'compass': -52.97, 'pitch': 2.11, 'roll': 1.52}
{'lipoC2': 0.0, 'temp': 0.0, 'lipoC3S3': 11.88, 'state': 'normal', 'rot1': 10, 'rot0': 10, 'rot3': 0, 'rot2': 0, 'depth': 0.394, 'yaw': -51.45, 'datetime': '2018-12-18 20:46:20.970914', 'mgs': 0, 'flw2': 0.09, 'flw1': 0.44, 'flw0': 2.16, 'time': 6.66, 'compass': -57.72, 'pitch': 1.91, 'roll': 0.63}
{'lipoC2': 0.0, 'temp': 0.0, 'lipoC3S3': 11.8, 'state': 'normal', 'rot1': 12, 'rot0': 10, 'rot3': 0, 'rot2': 0, 'depth': -0.522, 'yaw': -57.1, 'datetime': '2018-12-18 20:46:21.178737', 'mgs': 0, 'flw2': 0.01, 'flw1': 0.41, 'flw0': 0.0, 'time': 6.87, 'compass': -63.37, 'pitch': 2.31, 'roll': -0.58}
{'lipoC2': 0.0, 'temp': 0.0, 'lipoC3S3': 12.05, 'state': 'normal', 'rot1': 12, 'rot0': 10, 'rot3': 0, 'rot2': 0, 'depth': 1.309, 'yaw': -62.88, 'datetime': '2018-12-18 20:46:21.387546', 'mgs': 0, 'flw2': 0.0, 'flw1': 0.0, 'flw0': 0.2, 'time': 7.08, 'compass': -69.15, 'pitch': 2.81, 'roll': -1.1}
{'lipoC2': 0.0, 'temp': 0.0, 'lipoC3S3': 12.08, 'state': 'normal', 'rot1': 12, 'rot0': 10, 'rot3': 0, 'rot2': 0, 'depth': 1.385, 'yaw': -68.21, 'datetime': '2018-12-18 20:46:21.595031', 'mgs': 0, 'flw2': 0.0, 'flw1': 0.44, 'flw0': 0.0, 'time': 7.28, 'compass': -74.48, 'pitch': 2.57, 'roll': -0.72}
{'lipoC2': 0.04, 'temp': 0.0, 'lipoC3S3': 11.68, 'state': 'normal', 'rot1': 12, 'rot0': 10, 'rot3': 0, 'rot2': 0, 'depth': 0.012, 'yaw': -73.05, 'datetime': '2018-12-18 20:46:21.805308', 'mgs': 0, 'flw2': 0.16, 'flw1': 0.09, 'flw0': 0.0, 'time': 7.49, 'compass': -79.32, 'pitch': 1.92, 'roll': 0.11}
{'lipoC2': 0.1, 'temp': 0.0, 'lipoC3S3': 11.88, 'state': 'normal', 'rot1': 12, 'rot0': 12, 'rot3': 0, 'rot2': 0, 'depth': -2.124, 'yaw': -77.27, 'datetime': '2018-12-18 20:46:22.014401', 'mgs': 0, 'flw2': 2.78, 'flw1': 0.0, 'flw0': 0.5, 'time': 7.7, 'compass': -83.53, 'pitch': 1.88, 'roll': 0.78}
{'lipoC2': 0.0, 'temp': 0.0, 'lipoC3S3': 11.76, 'state': 'normal', 'rot1': 14, 'rot0': 14, 'rot3': 0, 'rot2': 0, 'depth': -1.132, 'yaw': -79.73, 'datetime': '2018-12-18 20:46:22.223496', 'mgs': 0, 'flw2': 2.8, 'flw1': 0.26, 'flw0': 2.67, 'time': 7.91, 'compass': -86.0, 'pitch': 4.18, 'roll': 0.87}
{'lipoC2': 0.05, 'temp': 0.0, 'lipoC3S3': 11.92, 'state': 'normal', 'rot1': 16, 'rot0': 16, 'rot3': 0, 'rot2': 0, 'depth': -2.048, 'yaw': -82.46, 'datetime': '2018-12-18 20:46:22.431526', 'mgs': 0, 'flw2': 2.54, 'flw1': 0.5, 'flw0': 2.84, 'time': 8.12, 'compass': -88.72, 'pitch': 6.67, 'roll': 0.37}
{'lipoC2': 0.0, 'temp': 0.0, 'lipoC3S3': 12.0, 'state': 'normal', 'rot1': 19, 'rot0': 19, 'rot3': 0, 'rot2': 0, 'depth': -2.048, 'yaw': -85.18, 'datetime': '2018-12-18 20:46:22.640645', 'mgs': 0, 'flw2': 2.86, 'flw1': 0.0, 'flw0': 2.66, 'time': 8.33, 'compass': -91.45, 'pitch': 6.53, 'roll': -0.28}
{'lipoC2': 0.14, 'temp': 0.0, 'lipoC3S3': 11.88, 'state': 'normal', 'rot1': 21, 'rot0': 21, 'rot3': 0, 'rot2': 0, 'depth': 1.691, 'yaw': -87.53, 'datetime': '2018-12-18 20:46:22.850062', 'mgs': 0, 'flw2': 2.95, 'flw1': 0.0, 'flw0': 2.94, 'time': 8.54, 'compass': -93.8, 'pitch': 5.27, 'roll': -0.81}
{'lipoC2': 0.04, 'temp': 0.0, 'lipoC3S3': 11.71, 'state': 'normal', 'rot1': 23, 'rot0': 23, 'rot3': 0, 'rot2': 0, 'depth': 1.08, 'yaw': -89.67, 'datetime': '2018-12-18 20:46:23.059371', 'mgs': 0, 'flw2': 2.47, 'flw1': 0.41, 'flw0': 2.97, 'time': 8.75, 'compass': -95.93, 'pitch': 5.03, 'roll': -1.32}
{'lipoC2': 0.0, 'temp': 0.0, 'lipoC3S3': 12.02, 'state': 'normal', 'rot1': 25, 'rot0': 25, 'rot3': 0, 'rot2': 0, 'depth': 1.462, 'yaw': -91.5, 'datetime': '2018-12-18 20:46:23.268154', 'mgs': 0, 'flw2': 2.94, 'flw1': 0.0, 'flw0': 1.16, 'time': 8.95, 'compass': -97.77, 'pitch': 5.7, 'roll': -1.54}
{'lipoC2': 0.14, 'temp': 0.0, 'lipoC3S3': 11.71, 'state': 'normal', 'rot1': 26, 'rot0': 28, 'rot3': 0, 'rot2': 0, 'depth': 0.47, 'yaw': -92.36, 'datetime': '2018-12-18 20:46:23.477493', 'mgs': 0, 'flw2': 2.69, 'flw1': 0.0, 'flw0': 0.28, 'time': 9.16, 'compass': -98.63, 'pitch': 5.12, 'roll': -1.19}
{'lipoC2': 0.0, 'temp': 0.0, 'lipoC3S3': 11.96, 'state': 'normal', 'rot1': 27, 'rot0': 30, 'rot3': 0, 'rot2': 0, 'depth': 0.699, 'yaw': -90.92, 'datetime': '2018-12-18 20:46:23.686188', 'mgs': 0, 'flw2': 2.94, 'flw1': 0.0, 'flw0': 0.0, 'time': 9.37, 'compass': -97.18, 'pitch': 3.06, 'roll': -0.31}
{'lipoC2': 0.01, 'temp': 0.0, 'lipoC3S3': 11.72, 'state': 'normal', 'rot1': 27, 'rot0': 32, 'rot3': 0, 'rot2': 0, 'depth': -0.064, 'yaw': -87.89, 'datetime': '2018-12-18 20:46:23.894321', 'mgs': 0, 'flw2': 2.87, 'flw1': 0.0, 'flw0': 0.0, 'time': 9.58, 'compass': -94.15, 'pitch': 2.24, 'roll': 0.5}
{'lipoC2': 0.04, 'temp': 0.0, 'lipoC3S3': 12.04, 'state': 'normal', 'rot1': 27, 'rot0': 35, 'rot3': 0, 'rot2': 0, 'depth': 1.157, 'yaw': -83.63, 'datetime': '2018-12-18 20:46:24.103163', 'mgs': 0, 'flw2': 0.5, 'flw1': 0.06, 'flw0': 3.26, 'time': 9.79, 'compass': -89.89, 'pitch': 2.77, 'roll': 1.03}
{'lipoC2': 0.0, 'temp': 0.0, 'lipoC3S3': 11.76, 'state': 'normal', 'rot1': 30, 'rot0': 35, 'rot3': 0, 'rot2': 0, 'depth': 0.012, 'yaw': -81.58, 'datetime': '2018-12-18 20:46:24.311262', 'mgs': 0, 'flw2': 0.13, 'flw1': 0.21, 'flw0': 2.67, 'time': 10.0, 'compass': -87.85, 'pitch': 3.39, 'roll': 0.55}
{'lipoC2': 0.13, 'temp': 0.0, 'lipoC3S3': 11.71, 'state': 'normal', 'rot1': 32, 'rot0': 35, 'rot3': 0, 'rot2': 0, 'depth': 0.317, 'yaw': -83.1, 'datetime': '2018-12-18 20:46:24.521220', 'mgs': 0, 'flw2': 0.12, 'flw1': 0.15, 'flw0': 2.59, 'time': 10.21, 'compass': -89.36, 'pitch': 3.11, 'roll': -0.4}
{'lipoC2': 0.0, 'temp': 0.0, 'lipoC3S3': 12.04, 'state': 'normal', 'rot1': 34, 'rot0': 36, 'rot3': 0, 'rot2': 0, 'depth': -1.895, 'yaw': -86.77, 'datetime': '2018-12-18 20:46:24.730202', 'mgs': 0, 'flw2': 2.89, 'flw1': 0.23, 'flw0': 0.13, 'time': 10.42, 'compass': -93.03, 'pitch': 2.16, 'roll': -1.09}
{'lipoC2': 0.11, 'temp': 0.0, 'lipoC3S3': 11.9, 'state': 'normal', 'rot1': 34, 'rot0': 38, 'rot3': 0, 'rot2': 0, 'depth': -1.971, 'yaw': -88.37, 'datetime': '2018-12-18 20:46:24.938171', 'mgs': 0, 'flw2': 2.55, 'flw1': 0.35, 'flw0': 0.0, 'time': 10.62, 'compass': -94.64, 'pitch': 1.66, 'roll': -0.61}
{'lipoC2': 0.0, 'temp': 0.0, 'lipoC3S3': 11.71, 'state': 'normal', 'rot1': 34, 'rot0': 40, 'rot3': 0, 'rot2': 0, 'depth': -1.437, 'yaw': -86.81, 'datetime': '2018-12-18 20:46:25.146230', 'mgs': 0, 'flw2': 0.11, 'flw1': 0.32, 'flw0': 0.0, 'time': 10.83, 'compass': -93.07, 'pitch': 2.26, 'roll': 0.42}
{'lipoC2': 0.25, 'temp': 0.0, 'lipoC3S3': 12.13, 'state': 'normal', 'rot1': 34, 'rot0': 40, 'rot3': 0, 'rot2': 0, 'depth': -1.514, 'yaw': -85.42, 'datetime': '2018-12-18 20:46:25.355534', 'mgs': 0, 'flw2': 0.2, 'flw1': 0.0, 'flw0': 0.0, 'time': 11.04, 'compass': -91.69, 'pitch': 2.01, 'roll': 0.66}
{'lipoC2': 0.0, 'temp': 0.0, 'lipoC3S3': 11.93, 'state': 'normal', 'rot1': 34, 'rot0': 40, 'rot3': 0, 'rot2': 0, 'depth': -2.353, 'yaw': -84.43, 'datetime': '2018-12-18 20:46:25.561193', 'mgs': 0, 'flw2': 0.23, 'flw1': 0.0, 'flw0': 0.0, 'time': 11.25, 'compass': -90.69, 'pitch': 0.98, 'roll': 0.26}
{'lipoC2': 0.01, 'temp': 0.0, 'lipoC3S3': 11.97, 'state': 'normal', 'rot1': 34, 'rot0': 40, 'rot3': 0, 'rot2': 0, 'depth': -1.514, 'yaw': -83.64, 'datetime': '2018-12-18 20:46:25.773598', 'mgs': 0, 'flw2': 0.16, 'flw1': 0.0, 'flw0': 0.0, 'time': 11.46, 'compass': -89.9, 'pitch': 0.39, 'roll': -0.38}
{'lipoC2': 0.0, 'temp': 0.0, 'lipoC3S3': 11.89, 'state': 'normal', 'rot1': 35, 'rot0': 40, 'rot3': 0, 'rot2': 0, 'depth': 0.089, 'yaw': -82.8, 'datetime': '2018-12-18 20:46:25.986289', 'mgs': 0, 'flw2': 0.18, 'flw1': 0.0, 'flw0': 0.04, 'time': 11.67, 'compass': -89.07, 'pitch': 0.37, 'roll': -0.82}
{'lipoC2': 0.03, 'temp': 0.0, 'lipoC3S3': 11.96, 'state': 'normal', 'rot1': 35, 'rot0': 40, 'rot3': 0, 'rot2': 0, 'depth': -1.743, 'yaw': -82.09, 'datetime': '2018-12-18 20:46:26.196492', 'mgs': 0, 'flw2': 0.0, 'flw1': 0.32, 'flw0': 0.09, 'time': 11.88, 'compass': -88.36, 'pitch': 0.62, 'roll': -0.85}
{'lipoC2': 0.08, 'temp': 0.0, 'lipoC3S3': 11.93, 'state': 'normal', 'rot1': 35, 'rot0': 40, 'rot3': 0, 'rot2': 0, 'depth': 1.843, 'yaw': -81.53, 'datetime': '2018-12-18 20:46:26.402909', 'mgs': 0, 'flw2': 0.2, 'flw1': 0.0, 'flw0': 0.0, 'time': 12.08, 'compass': -87.79, 'pitch': 0.81, 'roll': -0.67}
{'lipoC2': 0.18, 'temp': 0.0, 'lipoC3S3': 11.79, 'state': 'normal', 'rot1': 35, 'rot0': 40, 'rot3': 0, 'rot2': 0, 'depth': 0.851, 'yaw': -81.13, 'datetime': '2018-12-18 20:46:26.611559', 'mgs': 0, 'flw2': 0.11, 'flw1': 0.26, 'flw0': 0.02, 'time': 12.29, 'compass': -87.39, 'pitch': 0.86, 'roll': -0.53}
{'lipoC2': 0.14, 'temp': 0.0, 'lipoC3S3': 11.88, 'state': 'normal', 'rot1': 35, 'rot0': 40, 'rot3': 0, 'rot2': 0, 'depth': -1.361, 'yaw': -80.88, 'datetime': '2018-12-18 20:46:26.820235', 'mgs': 0, 'flw2': 0.17, 'flw1': 0.0, 'flw0': 0.12, 'time': 12.5, 'compass': -87.14, 'pitch': 1.0, 'roll': -0.4}
{'lipoC2': 0.0, 'temp': 0.0, 'lipoC3S3': 12.04, 'state': 'normal', 'rot1': 35, 'rot0': 40, 'rot3': 0, 'rot2': 0, 'depth': 1.385, 'yaw': -80.83, 'datetime': '2018-12-18 20:46:27.029313', 'mgs': 0, 'flw2': 0.0, 'flw1': 0.06, 'flw0': 0.18, 'time': 12.71, 'compass': -87.1, 'pitch': 1.08, 'roll': -0.52}
{'lipoC2': 0.0, 'temp': 0.0, 'lipoC3S3': 12.08, 'state': 'normal', 'rot1': 35, 'rot0': 40, 'rot3': 0, 'rot2': 0, 'depth': 1.614, 'yaw': -80.84, 'datetime': '2018-12-18 20:46:27.237340', 'mgs': 0, 'flw2': 0.2, 'flw1': 0.03, 'flw0': 0.0, 'time': 12.92, 'compass': -87.11, 'pitch': 1.01, 'roll': -0.71}
{'lipoC2': 0.0, 'temp': 0.0, 'lipoC3S3': 12.12, 'state': 'normal', 'rot1': 36, 'rot0': 40, 'rot3': 0, 'rot2': 0, 'depth': 1.614, 'yaw': -80.84, 'datetime': '2018-12-18 20:46:27.449124', 'mgs': 0, 'flw2': 0.0, 'flw1': 0.0, 'flw0': 0.24, 'time': 13.13, 'compass': -87.11, 'pitch': 0.88, 'roll': -0.8}
{'lipoC2': 0.0, 'temp': 0.0, 'lipoC3S3': 11.93, 'state': 'normal', 'rot1': 36, 'rot0': 40, 'rot3': 0, 'rot2': 0, 'depth': 0.546, 'yaw': -80.85, 'datetime': '2018-12-18 20:46:27.656307', 'mgs': 0, 'flw2': 0.23, 'flw1': 0.0, 'flw0': 0.0, 'time': 13.34, 'compass': -87.11, 'pitch': 1.07, 'roll': -0.77}
{'lipoC2': 0.02, 'temp': 0.0, 'lipoC3S3': 12.0, 'state': 'normal', 'rot1': 36, 'rot0': 40, 'rot3': 0, 'rot2': 0, 'depth': 1.08, 'yaw': -80.85, 'datetime': '2018-12-18 20:46:27.864527', 'mgs': 0, 'flw2': 0.23, 'flw1': 0.0, 'flw0': 0.0, 'time': 13.54, 'compass': -87.12, 'pitch': 1.4, 'roll': -0.84}
{'lipoC2': 0.0, 'temp': 0.0, 'lipoC3S3': 12.02, 'state': 'normal', 'rot1': 36, 'rot0': 40, 'rot3': 0, 'rot2': 0, 'depth': 1.08, 'yaw': -80.85, 'datetime': '2018-12-18 20:46:28.073175', 'mgs': 0, 'flw2': 0.15, 'flw1': 0.09, 'flw0': 0.0, 'time': 13.75, 'compass': -87.12, 'pitch': 1.33, 'roll': -0.87}
{'lipoC2': 0.11, 'temp': 0.0, 'lipoC3S3': 11.71, 'state': 'normal', 'rot1': 36, 'rot0': 40, 'rot3': 0, 'rot2': 0, 'depth': 0.089, 'yaw': -80.85, 'datetime': '2018-12-18 20:46:28.280945', 'mgs': 0, 'flw2': 0.05, 'flw1': 0.35, 'flw0': 0.0, 'time': 13.96, 'compass': -87.12, 'pitch': 0.97, 'roll': -0.76}
{'lipoC2': 0.0, 'temp': 0.0, 'lipoC3S3': 12.08, 'state': 'normal', 'rot1': 36, 'rot0': 40, 'rot3': 0, 'rot2': 0, 'depth': 1.462, 'yaw': -80.85, 'datetime': '2018-12-18 20:46:28.487595', 'mgs': 0, 'flw2': 0.01, 'flw1': 0.38, 'flw0': 0.0, 'time': 14.17, 'compass': -87.11, 'pitch': 0.83, 'roll': -0.53}
{'lipoC2': 0.0, 'temp': 0.0, 'lipoC3S3': 12.08, 'state': 'normal', 'rot1': 36, 'rot0': 40, 'rot3': 0, 'rot2': 0, 'depth': 1.385, 'yaw': -80.85, 'datetime': '2018-12-18 20:46:28.699233', 'mgs': 0, 'flw2': 0.0, 'flw1': 0.47, 'flw0': 0.0, 'time': 14.38, 'compass': -87.11, 'pitch': 0.98, 'roll': -0.43}
{'lipoC2': 0.12, 'temp': 0.0, 'lipoC3S3': 11.71, 'state': 'normal', 'rot1': 36, 'rot0': 40, 'rot3': 0, 'rot2': 0, 'depth': 0.546, 'yaw': -80.85, 'datetime': '2018-12-18 20:46:28.907645', 'mgs': 0, 'flw2': 0.06, 'flw1': 0.35, 'flw0': 0.0, 'time': 14.59, 'compass': -87.12, 'pitch': 1.17, 'roll': -0.54}
{'lipoC2': 0.16, 'temp': 0.0, 'lipoC3S3': 11.79, 'state': 'normal', 'rot1': 36, 'rot0': 40, 'rot3': 0, 'rot2': 0, 'depth': -0.293, 'yaw': -80.87, 'datetime': '2018-12-18 20:46:29.117585', 'mgs': 0, 'flw2': 0.0, 'flw1': 0.47, 'flw0': 0.0, 'time': 14.79, 'compass': -87.13, 'pitch': 1.1, 'roll': -0.8}
{'lipoC2': 0.0, 'temp': 0.0, 'lipoC3S3': 11.77, 'state': 'normal', 'rot1': 36, 'rot0': 40, 'rot3': 0, 'rot2': 0, 'depth': -0.598, 'yaw': -80.87, 'datetime': '2018-12-18 20:46:29.328311', 'mgs': 0, 'flw2': 0.06, 'flw1': 0.0, 'flw0': 0.12, 'time': 15.0, 'compass': -87.13, 'pitch': 1.03, 'roll': -1.09}
{'lipoC2': 0.0, 'temp': 0.0, 'lipoC3S3': 12.04, 'state': 'normal', 'rot1': 36, 'rot0': 40, 'rot3': 0, 'rot2': 0, 'depth': 1.309, 'yaw': -80.89, 'datetime': '2018-12-18 20:46:29.534517', 'mgs': 0, 'flw2': 0.0, 'flw1': 0.09, 'flw0': 0.16, 'time': 15.21, 'compass': -87.16, 'pitch': 0.98, 'roll': -1.19}
{'lipoC2': 0.08, 'temp': 0.0, 'lipoC3S3': 11.93, 'state': 'normal', 'rot1': 36, 'rot0': 40, 'rot3': 0, 'rot2': 0, 'depth': -2.048, 'yaw': -80.92, 'datetime': '2018-12-18 20:46:29.743658', 'mgs': 0, 'flw2': 0.17, 'flw1': 0.0, 'flw0': 0.0, 'time': 15.42, 'compass': -87.18, 'pitch': 0.96, 'roll': -1.07}
{'lipoC2': 0.0, 'temp': 0.0, 'lipoC3S3': 11.84, 'state': 'normal', 'rot1': 36, 'rot0': 40, 'rot3': 0, 'rot2': 0, 'depth': -0.522, 'yaw': -80.99, 'datetime': '2018-12-18 20:46:29.956099', 'mgs': 0, 'flw2': 0.0, 'flw1': 0.44, 'flw0': 0.0, 'time': 15.63, 'compass': -87.25, 'pitch': 0.92, 'roll': -0.74}
{'lipoC2': 0.0, 'temp': 0.0, 'lipoC3S3': 12.06, 'state': 'normal', 'rot1': 36, 'rot0': 40, 'rot3': 0, 'rot2': 0, 'depth': 1.385, 'yaw': -81.11, 'datetime': '2018-12-18 20:46:30.164340', 'mgs': 0, 'flw2': 0.02, 'flw1': 0.0, 'flw0': 0.13, 'time': 15.84, 'compass': -87.38, 'pitch': 1.03, 'roll': -0.49}
{'lipoC2': 0.0, 'temp': 0.0, 'lipoC3S3': 11.88, 'state': 'normal', 'rot1': 36, 'rot0': 40, 'rot3': 0, 'rot2': 0, 'depth': 0.241, 'yaw': -81.3, 'datetime': '2018-12-18 20:46:30.374044', 'mgs': 0, 'flw2': 0.11, 'flw1': 0.0, 'flw0': 0.07, 'time': 16.05, 'compass': -87.57, 'pitch': 1.36, 'roll': -0.48}
{'lipoC2': 0.0, 'temp': 0.0, 'lipoC3S3': 11.79, 'state': 'normal', 'rot1': 36, 'rot0': 40, 'rot3': 0, 'rot2': 0, 'depth': 0.012, 'yaw': -81.52, 'datetime': '2018-12-18 20:46:30.579417', 'mgs': 0, 'flw2': 0.06, 'flw1': 0.38, 'flw0': 0.0, 'time': 16.26, 'compass': -87.78, 'pitch': 1.42, 'roll': -0.67}
{'lipoC2': 0.0, 'temp': 0.0, 'lipoC3S3': 11.72, 'state': 'normal', 'rot1': 36, 'rot0': 40, 'rot3': 0, 'rot2': 0, 'depth': -1.514, 'yaw': -81.72, 'datetime': '2018-12-18 20:46:30.788622', 'mgs': 0, 'flw2': 0.09, 'flw1': 0.35, 'flw0': 0.0, 'time': 16.46, 'compass': -87.98, 'pitch': 1.0, 'roll': -0.77}
{'lipoC2': 0.13, 'temp': 0.0, 'lipoC3S3': 11.89, 'state': 'normal', 'rot1': 36, 'rot0': 40, 'rot3': 0, 'rot2': 0, 'depth': -1.743, 'yaw': -81.96, 'datetime': '2018-12-18 20:46:30.996894', 'mgs': 0, 'flw2': 0.0, 'flw1': 0.38, 'flw0': 0.0, 'time': 16.67, 'compass': -88.22, 'pitch': 0.8, 'roll': -0.69}
{'lipoC2': 0.02, 'temp': 0.0, 'lipoC3S3': 11.72, 'state': 'normal', 'rot1': 36, 'rot0': 40, 'rot3': 0, 'rot2': 0, 'depth': 1.157, 'yaw': -82.17, 'datetime': '2018-12-18 20:46:31.206647', 'mgs': 0, 'flw2': 0.15, 'flw1': 0.0, 'flw0': 0.0, 'time': 16.88, 'compass': -88.44, 'pitch': 1.05, 'roll': -0.71}
{'lipoC2': 0.11, 'temp': 0.0, 'lipoC3S3': 11.9, 'state': 'normal', 'rot1': 36, 'rot0': 40, 'rot3': 0, 'rot2': 0, 'depth': -2.048, 'yaw': -82.41, 'datetime': '2018-12-18 20:46:31.420054', 'mgs': 0, 'flw2': 0.0, 'flw1': 0.35, 'flw0': 0.0, 'time': 17.09, 'compass': -88.68, 'pitch': 1.35, 'roll': -0.76}
{'lipoC2': 0.02, 'temp': 0.0, 'lipoC3S3': 11.71, 'state': 'normal', 'rot1': 37, 'rot0': 41, 'rot3': 0, 'rot2': 0, 'depth': 1.157, 'yaw': -82.83, 'datetime': '2018-12-18 20:46:31.627585', 'mgs': 0, 'flw2': 2.86, 'flw1': 0.0, 'flw0': 2.49, 'time': 17.3, 'compass': -89.1, 'pitch': 1.65, 'roll': -0.73}
{'lipoC2': 0.0, 'temp': 0.0, 'lipoC3S3': 11.89, 'state': 'normal', 'rot1': 40, 'rot0': 43, 'rot3': 0, 'rot2': 0, 'depth': 0.317, 'yaw': -83.53, 'datetime': '2018-12-18 20:46:31.839155', 'mgs': 0, 'flw2': 2.83, 'flw1': 0.0, 'flw0': 2.66, 'time': 17.51, 'compass': -89.79, 'pitch': 4.22, 'roll': -0.64}
{'lipoC2': 0.0, 'temp': 0.0, 'lipoC3S3': 12.05, 'state': 'normal', 'rot1': 42, 'rot0': 45, 'rot3': 0, 'rot2': 0, 'depth': 1.538, 'yaw': -84.32, 'datetime': '2018-12-18 20:46:32.045318', 'mgs': 0, 'flw2': 2.59, 'flw1': 0.09, 'flw0': 2.33, 'time': 17.72, 'compass': -90.58, 'pitch': 6.22, 'roll': -0.7}
{'lipoC2': 0.0, 'temp': 0.0, 'lipoC3S3': 12.09, 'state': 'normal', 'rot1': 44, 'rot0': 48, 'rot3': 0, 'rot2': 0, 'depth': 1.462, 'yaw': -84.86, 'datetime': '2018-12-18 20:46:32.254209', 'mgs': 0, 'flw2': 2.64, 'flw1': 0.41, 'flw0': 0.37, 'time': 17.93, 'compass': -91.12, 'pitch': 6.03, 'roll': -0.68}
{'lipoC2': 0.1, 'temp': 0.0, 'lipoC3S3': 11.9, 'state': 'normal', 'rot1': 45, 'rot0': 50, 'rot3': 0, 'rot2': 0, 'depth': -1.895, 'yaw': -83.58, 'datetime': '2018-12-18 20:46:32.462342', 'mgs': 0, 'flw2': 2.45, 'flw1': 0.47, 'flw0': 0.21, 'time': 18.13, 'compass': -89.84, 'pitch': 4.13, 'roll': -0.48}
{'lipoC2': 0.16, 'temp': 0.0, 'lipoC3S3': 11.81, 'state': 'normal', 'rot1': 45, 'rot0': 52, 'rot3': 0, 'rot2': 0, 'depth': 0.928, 'yaw': -80.29, 'datetime': '2018-12-18 20:46:32.672677', 'mgs': 0, 'flw2': 2.72, 'flw1': 0.35, 'flw0': 0.09, 'time': 18.34, 'compass': -86.56, 'pitch': 3.16, 'roll': -0.23}
{'lipoC2': 0.0, 'temp': 0.0, 'lipoC3S3': 12.02, 'state': 'normal', 'rot1': 46, 'rot0': 55, 'rot3': 0, 'rot2': 0, 'depth': 1.538, 'yaw': -75.73, 'datetime': '2018-12-18 20:46:32.880111', 'mgs': 0, 'flw2': 2.86, 'flw1': 0.12, 'flw0': 0.0, 'time': 18.55, 'compass': -82.0, 'pitch': 3.74, 'roll': 0.03}
{'lipoC2': 0.05, 'temp': 0.0, 'lipoC3S3': 11.68, 'state': 'normal', 'rot1': 47, 'rot0': 57, 'rot3': 0, 'rot2': 0, 'depth': 1.08, 'yaw': -70.08, 'datetime': '2018-12-18 20:46:33.090910', 'mgs': 0, 'flw2': 2.65, 'flw1': 0.0, 'flw0': 0.46, 'time': 18.76, 'compass': -76.34, 'pitch': 4.16, 'roll': 0.24}
{'lipoC2': 0.0, 'temp': 0.0, 'lipoC3S3': 11.84, 'state': 'normal', 'rot1': 47, 'rot0': 59, 'rot3': 0, 'rot2': 0, 'depth': 0.928, 'yaw': -63.82, 'datetime': '2018-12-18 20:46:33.299162', 'mgs': 0, 'flw2': 2.82, 'flw1': 0.29, 'flw0': 0.11, 'time': 18.97, 'compass': -70.09, 'pitch': 3.61, 'roll': 0.44}
{'lipoC2': 0.16, 'temp': 0.0, 'lipoC3S3': 11.88, 'state': 'normal', 'rot1': 48, 'rot0': 62, 'rot3': 0, 'rot2': 0, 'depth': -1.056, 'yaw': -57.09, 'datetime': '2018-12-18 20:46:33.506623', 'mgs': 0, 'flw2': 2.91, 'flw1': 0.0, 'flw0': 0.31, 'time': 19.18, 'compass': -63.36, 'pitch': 2.87, 'roll': 0.84}
{'lipoC2': 0.0, 'temp': 0.0, 'lipoC3S3': 12.04, 'state': 'normal', 'rot1': 49, 'rot0': 64, 'rot3': 0, 'rot2': 0, 'depth': 1.538, 'yaw': -50.1, 'datetime': '2018-12-18 20:46:33.715714', 'mgs': 0, 'flw2': 2.48, 'flw1': 0.23, 'flw0': 0.38, 'time': 19.39, 'compass': -56.37, 'pitch': 2.72, 'roll': 1.28}
{'lipoC2': 0.0, 'temp': 0.0, 'lipoC3S3': 11.9, 'state': 'normal', 'rot1': 50, 'rot0': 66, 'rot3': 0, 'rot2': 0, 'depth': 0.317, 'yaw': -42.27, 'datetime': '2018-12-18 20:46:33.923174', 'mgs': 0, 'flw2': 2.75, 'flw1': 0.0, 'flw0': 1.35, 'time': 19.59, 'compass': -48.54, 'pitch': 2.96, 'roll': 1.68}
{'lipoC2': 0.16, 'temp': 0.0, 'lipoC3S3': 11.87, 'state': 'normal', 'rot1': 51, 'rot0': 69, 'rot3': 0, 'rot2': 0, 'depth': -0.674, 'yaw': -34.83, 'datetime': '2018-12-18 20:46:34.135590', 'mgs': 0, 'flw2': 2.93, 'flw1': 0.0, 'flw0': 1.99, 'time': 19.8, 'compass': -41.09, 'pitch': 3.78, 'roll': 2.03}
{'lipoC2': 0.1, 'temp': 0.0, 'lipoC3S3': 11.9, 'state': 'normal', 'rot1': 53, 'rot0': 71, 'rot3': 0, 'rot2': 0, 'depth': 1.691, 'yaw': -28.86, 'datetime': '2018-12-18 20:46:34.342901', 'mgs': 0, 'flw2': 2.84, 'flw1': 0.0, 'flw0': 1.99, 'time': 20.01, 'compass': -35.13, 'pitch': 4.76, 'roll': 2.31}
{'lipoC2': 0.0, 'temp': 0.0, 'lipoC3S3': 11.85, 'state': 'normal', 'rot1': 55, 'rot0': 73, 'rot3': 0, 'rot2': 0, 'depth': 0.623, 'yaw': -24.26, 'datetime': '2018-12-18 20:46:34.552985', 'mgs': 0, 'flw2': 2.67, 'flw1': 0.0, 'flw0': 2.15, 'time': 20.22, 'compass': -30.52, 'pitch': 5.03, 'roll': 2.59}
{'lipoC2': 0.0, 'temp': 0.0, 'lipoC3S3': 11.9, 'state': 'normal', 'rot1': 57, 'rot0': 76, 'rot3': 0, 'rot2': 0, 'depth': 0.775, 'yaw': -20.13, 'datetime': '2018-12-18 20:46:34.761135', 'mgs': 0, 'flw2': 2.7, 'flw1': 0.44, 'flw0': 2.01, 'time': 20.43, 'compass': -26.4, 'pitch': 4.94, 'roll': 2.8}
{'lipoC2': 0.14, 'temp': 0.0, 'lipoC3S3': 11.89, 'state': 'normal', 'rot1': 60, 'rot0': 78, 'rot3': 0, 'rot2': 0, 'depth': -1.59, 'yaw': -16.61, 'datetime': '2018-12-18 20:46:34.972063', 'mgs': 0, 'flw2': 0.22, 'flw1': 0.0, 'flw0': 2.81, 'time': 20.64, 'compass': -22.88, 'pitch': 5.07, 'roll': 2.74}
{'lipoC2': 0.0, 'temp': 0.0, 'lipoC3S3': 11.94, 'state': 'normal', 'rot1': 62, 'rot0': 78, 'rot3': 0, 'rot2': 0, 'depth': 0.546, 'yaw': -15.69, 'datetime': '2018-12-18 20:46:35.180911', 'mgs': 0, 'flw2': 0.2, 'flw1': 0.0, 'flw0': 2.64, 'time': 20.84, 'compass': -21.95, 'pitch': 4.39, 'roll': 2.35}
{'lipoC2': 0.13, 'temp': 0.0, 'lipoC3S3': 11.72, 'state': 'normal', 'rot1': 64, 'rot0': 78, 'rot3': 0, 'rot2': 0, 'depth': 0.47, 'yaw': -17.23, 'datetime': '2018-12-18 20:46:35.387892', 'mgs': 0, 'flw2': 0.0, 'flw1': 0.0, 'flw0': 3.02, 'time': 21.05, 'compass': -23.5, 'pitch': 3.11, 'roll': 1.62}
{'lipoC2': 0.11, 'temp': 0.0, 'lipoC3S3': 11.69, 'state': 'normal', 'rot1': 67, 'rot0': 78, 'rot3': 0, 'rot2': 0, 'depth': 0.165, 'yaw': -20.67, 'datetime': '2018-12-18 20:46:35.596088', 'mgs': 0, 'flw2': 0.0, 'flw1': 0.0, 'flw0': 2.99, 'time': 21.26, 'compass': -26.93, 'pitch': 2.38, 'roll': 0.76}
{'lipoC2': 0.12, 'temp': 0.0, 'lipoC3S3': 11.69, 'state': 'normal', 'rot1': 69, 'rot0': 78, 'rot3': 0, 'rot2': 0, 'depth': 0.699, 'yaw': -25.4, 'datetime': '2018-12-18 20:46:35.806937', 'mgs': 0, 'flw2': 0.0, 'flw1': 0.0, 'flw0': 3.03, 'time': 21.47, 'compass': -31.67, 'pitch': 2.38, 'roll': -0.15}
{'lipoC2': 0.13, 'temp': 0.0, 'lipoC3S3': 11.89, 'state': 'normal', 'rot1': 71, 'rot0': 79, 'rot3': 0, 'rot2': 0, 'depth': -1.514, 'yaw': -30.8, 'datetime': '2018-12-18 20:46:36.017337', 'mgs': 0, 'flw2': 2.54, 'flw1': 0.0, 'flw0': 2.78, 'time': 21.68, 'compass': -37.06, 'pitch': 2.73, 'roll': -0.91}
{'lipoC2': 0.0, 'temp': 0.0, 'lipoC3S3': 11.87, 'state': 'normal', 'rot1': 73, 'rot0': 81, 'rot3': 0, 'rot2': 0, 'depth': 0.851, 'yaw': -34.4, 'datetime': '2018-12-18 20:46:36.226843', 'mgs': 0, 'flw2': 2.87, 'flw1': 0.0, 'flw0': 2.98, 'time': 21.89, 'compass': -40.67, 'pitch': 3.6, 'roll': -0.97}
{'lipoC2': 0.05, 'temp': 0.0, 'lipoC3S3': 11.68, 'state': 'normal', 'rot1': 76, 'rot0': 84, 'rot3': 0, 'rot2': 0, 'depth': 0.241, 'yaw': -37.01, 'datetime': '2018-12-18 20:46:36.433578', 'mgs': 0, 'flw2': 2.95, 'flw1': 0.06, 'flw0': 2.44, 'time': 22.09, 'compass': -43.28, 'pitch': 4.29, 'roll': -0.66}
{'lipoC2': 0.16, 'temp': 0.0, 'lipoC3S3': 11.8, 'state': 'normal', 'rot1': 78, 'rot0': 86, 'rot3': 0, 'rot2': 0, 'depth': 0.928, 'yaw': -39.06, 'datetime': '2018-12-18 20:46:36.643879', 'mgs': 0, 'flw2': 2.71, 'flw1': 0.29, 'flw0': 2.66, 'time': 22.3, 'compass': -45.33, 'pitch': 4.51, 'roll': -0.57}
{'lipoC2': 0.0, 'temp': 0.0, 'lipoC3S3': 12.0, 'state': 'normal', 'rot1': 80, 'rot0': 88, 'rot3': 0, 'rot2': 0, 'depth': 1.08, 'yaw': -40.82, 'datetime': '2018-12-18 20:46:36.852128', 'mgs': 0, 'flw2': 2.76, 'flw1': 0.0, 'flw0': 2.51, 'time': 22.51, 'compass': -47.09, 'pitch': 4.49, 'roll': -0.71}
{'lipoC2': 0.02, 'temp': 0.0, 'lipoC3S3': 11.97, 'state': 'normal', 'rot1': 83, 'rot0': 91, 'rot3': 0, 'rot2': 0, 'depth': -1.437, 'yaw': -42.52, 'datetime': '2018-12-18 20:46:37.060473', 'mgs': 0, 'flw2': 2.84, 'flw1': 0.0, 'flw0': 2.5, 'time': 22.72, 'compass': -48.79, 'pitch': 4.66, 'roll': -0.9}
{'lipoC2': 0.13, 'temp': 0.0, 'lipoC3S3': 11.89, 'state': 'normal', 'rot1': 85, 'rot0': 93, 'rot3': 0, 'rot2': 0, 'depth': -1.971, 'yaw': -43.98, 'datetime': '2018-12-18 20:46:37.272637', 'mgs': 0, 'flw2': 2.72, 'flw1': 0.0, 'flw0': 2.75, 'time': 22.93, 'compass': -50.24, 'pitch': 4.92, 'roll': -0.93}
{'lipoC2': 0.04, 'temp': 0.0, 'lipoC3S3': 11.69, 'state': 'normal', 'rot1': 88, 'rot0': 96, 'rot3': 0, 'rot2': 0, 'depth': 0.47, 'yaw': -45.11, 'datetime': '2018-12-18 20:46:37.477792', 'mgs': 0, 'flw2': 2.98, 'flw1': 0.0, 'flw0': 2.44, 'time': 23.14, 'compass': -51.38, 'pitch': 5.38, 'roll': -0.82}
{'lipoC2': 0.0, 'temp': 0.0, 'lipoC3S3': 12.08, 'state': 'normal', 'rot1': 90, 'rot0': 98, 'rot3': 0, 'rot2': 0, 'depth': 1.767, 'yaw': -46.02, 'datetime': '2018-12-18 20:46:37.689250', 'mgs': 0, 'flw2': 2.82, 'flw1': 0.06, 'flw0': 2.44, 'time': 23.35, 'compass': -52.28, 'pitch': 5.72, 'roll': -0.68}
{'lipoC2': 0.12, 'temp': 0.0, 'lipoC3S3': 11.69, 'state': 'normal', 'rot1': 92, 'rot0': 100, 'rot3': 0, 'rot2': 0, 'depth': 0.317, 'yaw': -46.85, 'datetime': '2018-12-18 20:46:37.898060', 'mgs': 0, 'flw2': 2.58, 'flw1': 0.0, 'flw0': 2.94, 'time': 23.56, 'compass': -53.11, 'pitch': 5.6, 'roll': -0.62}
{'lipoC2': 0.16, 'temp': 0.0, 'lipoC3S3': 11.72, 'state': 'normal', 'rot1': 95, 'rot0': 102, 'rot3': 0, 'rot2': 0, 'depth': 0.851, 'yaw': -47.84, 'datetime': '2018-12-18 20:46:38.107028', 'mgs': 0, 'flw2': 2.77, 'flw1': 0.09, 'flw0': 2.45, 'time': 23.76, 'compass': -54.1, 'pitch': 5.12, 'roll': -0.79}
{'lipoC2': 0.15, 'temp': 0.0, 'lipoC3S3': 11.77, 'state': 'normal', 'rot1': 97, 'rot0': 105, 'rot3': 0, 'rot2': 0, 'depth': 0.623, 'yaw': -48.78, 'datetime': '2018-12-18 20:46:38.316505', 'mgs': 0, 'flw2': 2.83, 'flw1': 0.38, 'flw0': 2.61, 'time': 23.97, 'compass': -55.05, 'pitch': 4.72, 'roll': -1.12}
{'lipoC2': 0.0, 'temp': 0.0, 'lipoC3S3': 11.88, 'state': 'normal', 'rot1': 100, 'rot0': 108, 'rot3': 0, 'rot2': 0, 'depth': 0.775, 'yaw': -49.85, 'datetime': '2018-12-18 20:46:38.629809', 'mgs': 0, 'flw2': 2.82, 'flw1': 0.0, 'flw0': 2.91, 'time': 24.29, 'compass': -56.12, 'pitch': 4.46, 'roll': -1.3}
{'lipoC2': 0.15, 'temp': 0.0, 'lipoC3S3': 11.87, 'state': 'normal', 'rot1': 102, 'rot0': 110, 'rot3': 0, 'rot2': 0, 'depth': -0.98, 'yaw': -50.53, 'datetime': '2018-12-18 20:46:38.837190', 'mgs': 0, 'flw2': 2.84, 'flw1': 0.0, 'flw0': 2.82, 'time': 24.5, 'compass': -56.8, 'pitch': 4.08, 'roll': -1.35}
{'lipoC2': 0.08, 'temp': 0.0, 'lipoC3S3': 11.68, 'state': 'normal', 'rot1': 105, 'rot0': 112, 'rot3': 0, 'rot2': 0, 'depth': 0.089, 'yaw': -51.28, 'datetime': '2018-12-18 20:46:39.049623', 'mgs': 0, 'flw2': 2.45, 'flw1': 0.12, 'flw0': 2.59, 'time': 24.71, 'compass': -57.54, 'pitch': 3.62, 'roll': -1.53}
{'lipoC2': 0.01, 'temp': 0.0, 'lipoC3S3': 11.72, 'state': 'normal', 'rot1': 107, 'rot0': 115, 'rot3': 0, 'rot2': 0, 'depth': -0.064, 'yaw': -52.39, 'datetime': '2018-12-18 20:46:39.259711', 'mgs': 0, 'flw2': 1.83, 'flw1': 0.32, 'flw0': 2.89, 'time': 24.91, 'compass': -58.66, 'pitch': 3.45, 'roll': -1.58}
{'lipoC2': 0.17, 'temp': 0.0, 'lipoC3S3': 11.83, 'state': 'normal', 'rot1': 109, 'rot0': 117, 'rot3': 0, 'rot2': 0, 'depth': -0.674, 'yaw': -53.68, 'datetime': '2018-12-18 20:46:39.467166', 'mgs': 0, 'flw2': 2.67, 'flw1': 0.44, 'flw0': 2.88, 'time': 25.12, 'compass': -59.94, 'pitch': 3.77, 'roll': -1.44}
{'lipoC2': 0.18, 'temp': 0.0, 'lipoC3S3': 11.83, 'state': 'normal', 'rot1': 111, 'rot0': 119, 'rot3': 0, 'rot2': 0, 'depth': -0.522, 'yaw': -54.79, 'datetime': '2018-12-18 20:46:39.676584', 'mgs': 0, 'flw2': 2.61, 'flw1': 0.47, 'flw0': 2.8, 'time': 25.33, 'compass': -61.06, 'pitch': 4.3, 'roll': -1.39}
{'lipoC2': 0.1, 'temp': 0.0, 'lipoC3S3': 11.9, 'state': 'normal', 'rot1': 114, 'rot0': 121, 'rot3': 0, 'rot2': 0, 'depth': -1.819, 'yaw': -55.99, 'datetime': '2018-12-18 20:46:39.886341', 'mgs': 0, 'flw2': 2.93, 'flw1': 0.0, 'flw0': 2.76, 'time': 25.54, 'compass': -62.25, 'pitch': 4.47, 'roll': -1.37}
{'lipoC2': 0.0, 'temp': 0.0, 'lipoC3S3': 11.88, 'state': 'normal', 'rot1': 116, 'rot0': 124, 'rot3': 0, 'rot2': 0, 'depth': 0.47, 'yaw': -57.26, 'datetime': '2018-12-18 20:46:40.097405', 'mgs': 0, 'flw2': 2.55, 'flw1': 0.53, 'flw0': 2.8, 'time': 25.75, 'compass': -63.53, 'pitch': 4.43, 'roll': -1.25}
{'lipoC2': 0.0, 'temp': 0.0, 'lipoC3S3': 12.0, 'state': 'normal', 'rot1': 118, 'rot0': 126, 'rot3': 0, 'rot2': 0, 'depth': 1.157, 'yaw': -58.67, 'datetime': '2018-12-18 20:46:40.305333', 'mgs': 0, 'flw2': 2.86, 'flw1': 0.0, 'flw0': 2.48, 'time': 25.96, 'compass': -64.94, 'pitch': 4.53, 'roll': -1.15}
{'lipoC2': 0.15, 'temp': 0.0, 'lipoC3S3': 11.89, 'state': 'normal', 'rot1': 120, 'rot0': 128, 'rot3': 0, 'rot2': 0, 'depth': -1.056, 'yaw': -60.17, 'datetime': '2018-12-18 20:46:40.514504', 'mgs': 0, 'flw2': 2.88, 'flw1': 0.0, 'flw0': 2.81, 'time': 26.17, 'compass': -66.43, 'pitch': 5.0, 'roll': -0.98}
{'lipoC2': 0.12, 'temp': 0.0, 'lipoC3S3': 11.89, 'state': 'normal', 'rot1': 123, 'rot0': 130, 'rot3': 0, 'rot2': 0, 'depth': -1.743, 'yaw': -61.75, 'datetime': '2018-12-18 20:46:40.723464', 'mgs': 0, 'flw2': 2.48, 'flw1': 0.44, 'flw0': 2.81, 'time': 26.38, 'compass': -68.01, 'pitch': 5.56, 'roll': -1.07}
{'lipoC2': 0.0, 'temp': 0.0, 'lipoC3S3': 12.09, 'state': 'normal', 'rot1': 125, 'rot0': 133, 'rot3': 0, 'rot2': 0, 'depth': 1.92, 'yaw': -63.2, 'datetime': '2018-12-18 20:46:40.933092', 'mgs': 0, 'flw2': 2.77, 'flw1': 0.29, 'flw0': 0.33, 'time': 26.59, 'compass': -69.47, 'pitch': 5.69, 'roll': -1.32}
{'lipoC2': 0.04, 'temp': 0.0, 'lipoC3S3': 11.93, 'state': 'normal', 'rot1': 125, 'rot0': 135, 'rot3': 0, 'rot2': 0, 'depth': -1.666, 'yaw': -63.04, 'datetime': '2018-12-18 20:46:41.143213', 'mgs': 0, 'flw2': 2.73, 'flw1': 0.0, 'flw0': 0.0, 'time': 26.8, 'compass': -69.31, 'pitch': 4.57, 'roll': -1.32}
{'lipoC2': 0.15, 'temp': 0.0, 'lipoC3S3': 11.85, 'state': 'normal', 'rot1': 125, 'rot0': 138, 'rot3': 0, 'rot2': 0, 'depth': -0.98, 'yaw': -60.75, 'datetime': '2018-12-18 20:46:41.351130', 'mgs': 0, 'flw2': 2.54, 'flw1': 0.5, 'flw0': 0.0, 'time': 27.0, 'compass': -67.02, 'pitch': 3.19, 'roll': -0.79}
{'lipoC2': 0.0, 'temp': 0.0, 'lipoC3S3': 11.93, 'state': 'normal', 'rot1': 125, 'rot0': 140, 'rot3': 0, 'rot2': 0, 'depth': 0.699, 'yaw': -57.05, 'datetime': '2018-12-18 20:46:41.561001', 'mgs': 0, 'flw2': 2.59, 'flw1': 0.47, 'flw0': 0.52, 'time': 27.21, 'compass': -63.31, 'pitch': 2.96, 'roll': -0.19}
{'lipoC2': 0.14, 'temp': 0.0, 'lipoC3S3': 11.89, 'state': 'normal', 'rot1': 127, 'rot0': 142, 'rot3': 0, 'rot2': 0, 'depth': -1.285, 'yaw': -53.6, 'datetime': '2018-12-18 20:46:41.770274', 'mgs': 0, 'flw2': 2.58, 'flw1': 0.5, 'flw0': 2.78, 'time': 27.42, 'compass': -59.87, 'pitch': 3.97, 'roll': -0.21}
{'lipoC2': 0.02, 'temp': 0.0, 'lipoC3S3': 11.72, 'state': 'normal', 'rot1': 130, 'rot0': 144, 'rot3': 0, 'rot2': 0, 'depth': 1.309, 'yaw': -52.25, 'datetime': '2018-12-18 20:46:41.979294', 'mgs': 0, 'flw2': 2.83, 'flw1': 0.0, 'flw0': 2.65, 'time': 27.63, 'compass': -58.52, 'pitch': 5.11, 'roll': -0.58}
{'lipoC2': 0.0, 'temp': 0.0, 'lipoC3S3': 12.05, 'state': 'normal', 'rot1': 132, 'rot0': 147, 'rot3': 0, 'rot2': 0, 'depth': 1.538, 'yaw': -52.1, 'datetime': '2018-12-18 20:46:42.191915', 'mgs': 0, 'flw2': 2.38, 'flw1': 0.18, 'flw0': 2.88, 'time': 27.84, 'compass': -58.36, 'pitch': 5.33, 'roll': -0.75}
{'lipoC2': 0.12, 'temp': 0.0, 'lipoC3S3': 11.89, 'state': 'normal', 'rot1': 134, 'rot0': 149, 'rot3': 0, 'rot2': 0, 'depth': 1.462, 'yaw': -52.45, 'datetime': '2018-12-18 20:46:42.396918', 'mgs': 0, 'flw2': 2.86, 'flw1': 0.0, 'flw0': 2.83, 'time': 28.05, 'compass': -58.72, 'pitch': 4.94, 'roll': -0.81}
{'lipoC2': 0.0, 'temp': 0.0, 'lipoC3S3': 12.09, 'state': 'normal', 'rot1': 136, 'rot0': 151, 'rot3': 0, 'rot2': 0, 'depth': 1.691, 'yaw': -53.0, 'datetime': '2018-12-18 20:46:42.605279', 'mgs': 0, 'flw2': 2.75, 'flw1': 0.23, 'flw0': 2.56, 'time': 28.26, 'compass': -59.26, 'pitch': 4.49, 'roll': -0.85}
{'lipoC2': 0.05, 'temp': 0.0, 'lipoC3S3': 11.68, 'state': 'normal', 'rot1': 139, 'rot0': 153, 'rot3': 0, 'rot2': 0, 'depth': 0.089, 'yaw': -53.68, 'datetime': '2018-12-18 20:46:42.815852', 'mgs': 0, 'flw2': 2.66, 'flw1': 0.0, 'flw0': 2.19, 'time': 28.47, 'compass': -59.95, 'pitch': 4.78, 'roll': -0.94}
{'lipoC2': 0.08, 'temp': 0.0, 'lipoC3S3': 11.68, 'state': 'normal', 'rot1': 139, 'rot0': 155, 'rot3': 0, 'rot2': 0, 'depth': 0.165, 'yaw': -53.31, 'datetime': '2018-12-18 20:46:43.024906', 'mgs': 0, 'flw2': 2.73, 'flw1': 0.21, 'flw0': 0.0, 'time': 28.68, 'compass': -59.57, 'pitch': 4.69, 'roll': -0.63}
{'lipoC2': 0.08, 'temp': 0.0, 'lipoC3S3': 11.93, 'state': 'normal', 'rot1': 139, 'rot0': 156, 'rot3': 0, 'rot2': 0, 'depth': -1.895, 'yaw': -51.31, 'datetime': '2018-12-18 20:46:43.234125', 'mgs': 0, 'flw2': 0.0, 'flw1': 0.32, 'flw0': 0.05, 'time': 28.89, 'compass': -57.57, 'pitch': 3.29, 'roll': 0.15}
{'lipoC2': 0.0, 'temp': 0.0, 'lipoC3S3': 12.02, 'state': 'normal', 'rot1': 139, 'rot0': 156, 'rot3': 0, 'rot2': 0, 'depth': 1.385, 'yaw': -49.96, 'datetime': '2018-12-18 20:46:43.440999', 'mgs': 0, 'flw2': 0.15, 'flw1': 0.12, 'flw0': 0.0, 'time': 29.09, 'compass': -56.22, 'pitch': 1.68, 'roll': 0.57}
{'lipoC2': 0.0, 'temp': 0.0, 'lipoC3S3': 12.09, 'state': 'normal', 'rot1': 139, 'rot0': 156, 'rot3': 0, 'rot2': 0, 'depth': 1.691, 'yaw': -49.12, 'datetime': '2018-12-18 20:46:43.651151', 'mgs': 0, 'flw2': 0.0, 'flw1': 0.0, 'flw0': 0.21, 'time': 29.3, 'compass': -55.38, 'pitch': 1.24, 'roll': 0.44}
{'lipoC2': 0.0, 'temp': 0.0, 'lipoC3S3': 11.87, 'state': 'normal', 'rot1': 139, 'rot0': 156, 'rot3': 0, 'rot2': 0, 'depth': 0.851, 'yaw': -48.45, 'datetime': '2018-12-18 20:46:43.862112', 'mgs': 0, 'flw2': 0.11, 'flw1': 0.0, 'flw0': 0.72, 'time': 29.51, 'compass': -54.72, 'pitch': 1.4, 'roll': 0.25}
{'lipoC2': 0.08, 'temp': 0.0, 'lipoC3S3': 11.68, 'state': 'normal', 'rot1': 140, 'rot0': 156, 'rot3': 0, 'rot2': 0, 'depth': 1.004, 'yaw': -47.68, 'datetime': '2018-12-18 20:46:44.072435', 'mgs': 0, 'flw2': 0.11, 'flw1': 0.21, 'flw0': 0.0, 'time': 29.72, 'compass': -53.94, 'pitch': 1.21, 'roll': 0.26}
{'lipoC2': 0.12, 'temp': 0.0, 'lipoC3S3': 11.69, 'state': 'normal', 'rot1': 140, 'rot0': 156, 'rot3': 0, 'rot2': 0, 'depth': 0.394, 'yaw': -47.14, 'datetime': '2018-12-18 20:46:44.280465', 'mgs': 0, 'flw2': 0.0, 'flw1': 0.0, 'flw0': 0.48, 'time': 29.93, 'compass': -53.4, 'pitch': 0.85, 'roll': 0.07}
{'lipoC2': 0.0, 'temp': 0.0, 'lipoC3S3': 11.98, 'state': 'normal', 'rot1': 140, 'rot0': 156, 'rot3': 0, 'rot2': 0, 'depth': 0.775, 'yaw': -46.56, 'datetime': '2018-12-18 20:46:44.488843', 'mgs': 0, 'flw2': 0.11, 'flw1': 0.0, 'flw0': 0.0, 'time': 30.14, 'compass': -52.83, 'pitch': 0.71, 'roll': -0.23}
{'lipoC2': 0.0, 'temp': 0.0, 'lipoC3S3': 11.9, 'state': 'normal', 'rot1': 141, 'rot0': 156, 'rot3': 0, 'rot2': 0, 'depth': -0.217, 'yaw': -45.78, 'datetime': '2018-12-18 20:46:44.697809', 'mgs': 0, 'flw2': 0.32, 'flw1': 0.44, 'flw0': 1.1, 'time': 30.35, 'compass': -52.04, 'pitch': 0.81, 'roll': -0.53}
{'lipoC2': 0.0, 'temp': 0.0, 'lipoC3S3': 11.77, 'state': 'normal', 'rot1': 143, 'rot0': 158, 'rot3': 0, 'rot2': 0, 'depth': -0.674, 'yaw': -44.08, 'datetime': '2018-12-18 20:46:44.907737', 'mgs': 0, 'flw2': 2.39, 'flw1': 0.26, 'flw0': 1.57, 'time': 30.56, 'compass': -50.34, 'pitch': 0.82, 'roll': -0.35}
{'lipoC2': 0.0, 'temp': 0.0, 'lipoC3S3': 12.08, 'state': 'normal', 'rot1': 145, 'rot0': 160, 'rot3': 0, 'rot2': 0, 'depth': 0.012, 'yaw': -39.39, 'datetime': '2018-12-18 20:46:45.116780', 'mgs': 0, 'flw2': 2.34, 'flw1': 0.41, 'flw0': 2.2, 'time': 30.77, 'compass': -45.66, 'pitch': 1.29, 'roll': 0.42}
{'lipoC2': 0.02, 'temp': 0.0, 'lipoC3S3': 11.96, 'state': 'normal', 'rot1': 147, 'rot0': 162, 'rot3': 0, 'rot2': 0, 'depth': -1.743, 'yaw': -32.18, 'datetime': '2018-12-18 20:46:45.327034', 'mgs': 0, 'flw2': 1.9, 'flw1': 0.32, 'flw0': 2.33, 'time': 30.98, 'compass': -38.45, 'pitch': 1.7, 'roll': 1.22}
{'lipoC2': 0.0, 'temp': 0.0, 'lipoC3S3': 11.97, 'state': 'normal', 'rot1': 149, 'rot0': 164, 'rot3': 0, 'rot2': 0, 'depth': 1.004, 'yaw': -23.38, 'datetime': '2018-12-18 20:46:45.535734', 'mgs': 0, 'flw2': 2.49, 'flw1': 0.0, 'flw0': 2.34, 'time': 31.18, 'compass': -29.64, 'pitch': 1.99, 'roll': 1.49}
{'lipoC2': 0.0, 'temp': 0.0, 'lipoC3S3': 12.06, 'state': 'normal', 'rot1': 152, 'rot0': 166, 'rot3': 0, 'rot2': 0, 'depth': 1.767, 'yaw': -13.56, 'datetime': '2018-12-18 20:46:45.744583', 'mgs': 0, 'flw2': 2.36, 'flw1': 0.0, 'flw0': 2.64, 'time': 31.39, 'compass': -19.82, 'pitch': 2.15, 'roll': 1.65}
{'lipoC2': 0.09, 'temp': 0.0, 'lipoC3S3': 11.9, 'state': 'normal', 'rot1': 154, 'rot0': 168, 'rot3': 0, 'rot2': 0, 'depth': -1.971, 'yaw': -3.64, 'datetime': '2018-12-18 20:46:45.954292', 'mgs': 0, 'flw2': 2.28, 'flw1': 0.0, 'flw0': 2.78, 'time': 31.6, 'compass': -9.9, 'pitch': 2.26, 'roll': 1.51}
{'lipoC2': 0.0, 'temp': 0.0, 'lipoC3S3': 12.09, 'state': 'normal', 'rot1': 156, 'rot0': 170, 'rot3': 0, 'rot2': 0, 'depth': 1.691, 'yaw': 7.21, 'datetime': '2018-12-18 20:46:46.163503', 'mgs': 0, 'flw2': 2.25, 'flw1': 0.32, 'flw0': 2.81, 'time': 31.81, 'compass': 0.95, 'pitch': 2.36, 'roll': 0.85}
{'lipoC2': 0.08, 'temp': 0.0, 'lipoC3S3': 11.68, 'state': 'normal', 'rot1': 159, 'rot0': 172, 'rot3': 0, 'rot2': 0, 'depth': 1.004, 'yaw': 18.52, 'datetime': '2018-12-18 20:46:46.372746', 'mgs': 0, 'flw2': 2.15, 'flw1': 0.0, 'flw0': 1.9, 'time': 32.02, 'compass': 12.25, 'pitch': 2.66, 'roll': 0.31}
{'lipoC2': 0.0, 'temp': 0.0, 'lipoC3S3': 11.77, 'state': 'normal', 'rot1': 160, 'rot0': 174, 'rot3': 0, 'rot2': 0, 'depth': -0.903, 'yaw': 29.64, 'datetime': '2018-12-18 20:46:46.582948', 'mgs': 0, 'flw2': 0.11, 'flw1': 0.32, 'flw0': 2.54, 'time': 32.23, 'compass': 23.37, 'pitch': 3.11, 'roll': 0.29}
{'lipoC2': 0.12, 'temp': 0.0, 'lipoC3S3': 11.9, 'state': 'normal', 'rot1': 162, 'rot0': 174, 'rot3': 0, 'rot2': 0, 'depth': -1.666, 'yaw': 36.83, 'datetime': '2018-12-18 20:46:46.793769', 'mgs': 0, 'flw2': 0.0, 'flw1': 0.44, 'flw0': 2.29, 'time': 32.44, 'compass': 30.56, 'pitch': 3.45, 'roll': -0.09}
{'lipoC2': 0.08, 'temp': 0.0, 'lipoC3S3': 11.92, 'state': 'normal', 'rot1': 163, 'rot0': 175, 'rot3': 0, 'rot2': 0, 'depth': -2.048, 'yaw': 40.2, 'datetime': '2018-12-18 20:46:47.002495', 'mgs': 0, 'flw2': 0.18, 'flw1': 0.0, 'flw0': 0.0, 'time': 32.65, 'compass': 33.93, 'pitch': 2.99, 'roll': -0.49}
{'lipoC2': 0.0, 'temp': 0.0, 'lipoC3S3': 11.96, 'state': 'normal', 'rot1': 163, 'rot0': 176, 'rot3': 0, 'rot2': 0, 'depth': 1.004, 'yaw': 43.12, 'datetime': '2018-12-18 20:46:47.211210', 'mgs': 0, 'flw2': 0.0, 'flw1': 0.38, 'flw0': 0.04, 'time': 32.86, 'compass': 36.85, 'pitch': 1.19, 'roll': -0.48}
{'lipoC2': 0.06, 'temp': 0.0, 'lipoC3S3': 11.93, 'state': 'normal', 'rot1': 163, 'rot0': 176, 'rot3': 0, 'rot2': 0, 'depth': -1.971, 'yaw': 45.88, 'datetime': '2018-12-18 20:46:47.417924', 'mgs': 0, 'flw2': 0.21, 'flw1': 0.0, 'flw0': 0.0, 'time': 33.06, 'compass': 39.62, 'pitch': -0.03, 'roll': -0.09}
{'lipoC2': 0.0, 'temp': 0.0, 'lipoC3S3': 12.02, 'state': 'normal', 'rot1': 163, 'rot0': 177, 'rot3': 0, 'rot2': 0, 'depth': 1.309, 'yaw': 48.57, 'datetime': '2018-12-18 20:46:47.627085', 'mgs': 0, 'flw2': 0.16, 'flw1': 0.09, 'flw0': 0.0, 'time': 33.27, 'compass': 42.3, 'pitch': 0.12, 'roll': 0.22}
{'lipoC2': 0.03, 'temp': 0.0, 'lipoC3S3': 11.71, 'state': 'normal', 'rot1': 163, 'rot0': 178, 'rot3': 0, 'rot2': 0, 'depth': 0.012, 'yaw': 51.04, 'datetime': '2018-12-18 20:46:47.836049', 'mgs': 0, 'flw2': 0.15, 'flw1': 0.0, 'flw0': 0.0, 'time': 33.48, 'compass': 44.78, 'pitch': 0.48, 'roll': 0.25}
{'lipoC2': 0.0, 'temp': 0.0, 'lipoC3S3': 12.08, 'state': 'normal', 'rot1': 163, 'rot0': 178, 'rot3': 0, 'rot2': 0, 'depth': -0.598, 'yaw': 53.53, 'datetime': '2018-12-18 20:46:48.046111', 'mgs': 0, 'flw2': 0.0, 'flw1': 0.47, 'flw0': 0.0, 'time': 33.69, 'compass': 47.27, 'pitch': 0.19, 'roll': 0.19}
{'lipoC2': 0.16, 'temp': 0.0, 'lipoC3S3': 11.8, 'state': 'normal', 'rot1': 163, 'rot0': 178, 'rot3': 0, 'rot2': 0, 'depth': 0.851, 'yaw': 55.96, 'datetime': '2018-12-18 20:46:48.255537', 'mgs': 0, 'flw2': 0.0, 'flw1': 0.44, 'flw0': 0.0, 'time': 33.9, 'compass': 49.7, 'pitch': -0.37, 'roll': -0.04}
{'lipoC2': 0.0, 'temp': 0.0, 'lipoC3S3': 12.04, 'state': 'normal', 'rot1': 163, 'rot0': 178, 'rot3': 0, 'rot2': 0, 'depth': 1.385, 'yaw': 58.34, 'datetime': '2018-12-18 20:46:48.463610', 'mgs': 0, 'flw2': 0.22, 'flw1': 0.0, 'flw0': 0.17, 'time': 34.11, 'compass': 52.08, 'pitch': -0.4, 'roll': -0.35}
{'lipoC2': 0.09, 'temp': 0.0, 'lipoC3S3': 11.9, 'state': 'normal', 'rot1': 163, 'rot0': 178, 'rot3': 0, 'rot2': 0, 'depth': -2.048, 'yaw': 60.56, 'datetime': '2018-12-18 20:46:48.672840', 'mgs': 0, 'flw2': 0.21, 'flw1': 0.0, 'flw0': 0.0, 'time': 34.32, 'compass': 54.3, 'pitch': 0.11, 'roll': -0.64}
{'lipoC2': 0.02, 'temp': 0.0, 'lipoC3S3': 11.71, 'state': 'normal', 'rot1': 163, 'rot0': 178, 'rot3': 0, 'rot2': 0, 'depth': -0.064, 'yaw': 62.87, 'datetime': '2018-12-18 20:46:48.881739', 'mgs': 0, 'flw2': 0.12, 'flw1': 0.0, 'flw0': 0.0, 'time': 34.53, 'compass': 56.6, 'pitch': 0.55, 'roll': -0.7}
{'lipoC2': 0.0, 'temp': 0.0, 'lipoC3S3': 12.02, 'state': 'normal', 'rot1': 163, 'rot0': 178, 'rot3': 0, 'rot2': 0, 'depth': 1.157, 'yaw': 65.12, 'datetime': '2018-12-18 20:46:49.089734', 'mgs': 0, 'flw2': 0.12, 'flw1': 0.0, 'flw0': 0.0, 'time': 34.74, 'compass': 58.86, 'pitch': 0.5, 'roll': -0.52}
{'lipoC2': 0.06, 'temp': 0.0, 'lipoC3S3': 11.67, 'state': 'normal', 'rot1': 163, 'rot0': 178, 'rot3': 0, 'rot2': 0, 'depth': 1.08, 'yaw': 67.32, 'datetime': '2018-12-18 20:46:49.299744', 'mgs': 0, 'flw2': 0.13, 'flw1': 0.21, 'flw0': 0.0, 'time': 34.94, 'compass': 61.05, 'pitch': 0.29, 'roll': -0.33}
{'lipoC2': 0.0, 'temp': 0.0, 'lipoC3S3': 12.09, 'state': 'normal', 'rot1': 163, 'rot0': 178, 'rot3': 0, 'rot2': 0, 'depth': 1.614, 'yaw': 69.47, 'datetime': '2018-12-18 20:46:49.510259', 'mgs': 0, 'flw2': 0.15, 'flw1': 0.18, 'flw0': 0.0, 'time': 35.15, 'compass': 63.2, 'pitch': 0.25, 'roll': -0.34}
{'lipoC2': 0.13, 'temp': 0.0, 'lipoC3S3': 11.71, 'state': 'normal', 'rot1': 163, 'rot0': 178, 'rot3': 0, 'rot2': 0, 'depth': 0.394, 'yaw': 71.45, 'datetime': '2018-12-18 20:46:49.718579', 'mgs': 0, 'flw2': 0.13, 'flw1': 0.0, 'flw0': 0.29, 'time': 35.36, 'compass': 65.19, 'pitch': 0.24, 'roll': -0.47}
{'lipoC2': 0.11, 'temp': 0.0, 'lipoC3S3': 11.69, 'state': 'normal', 'rot1': 165, 'rot0': 179, 'rot3': 0, 'rot2': 0, 'depth': 0.775, 'yaw': 73.0, 'datetime': '2018-12-18 20:46:49.927927', 'mgs': 0, 'flw2': 2.77, 'flw1': 0.0, 'flw0': 0.94, 'time': 35.57, 'compass': 66.74, 'pitch': 0.78, 'roll': -0.64}
{'lipoC2': 0.0, 'temp': 0.0, 'lipoC3S3': 12.0, 'state': 'normal', 'rot1': 166, 'rot0': 180, 'rot3': 0, 'rot2': 0, 'depth': 1.08, 'yaw': 74.45, 'datetime': '2018-12-18 20:46:50.136557', 'mgs': 0, 'flw2': 0.13, 'flw1': 0.0, 'flw0': 0.0, 'time': 35.78, 'compass': 68.18, 'pitch': 2.32, 'roll': -0.74}
{'lipoC2': 0.08, 'temp': 0.0, 'lipoC3S3': 11.68, 'state': 'normal', 'rot1': 166, 'rot0': 180, 'rot3': 0, 'rot2': 0, 'depth': 0.089, 'yaw': 76.09, 'datetime': '2018-12-18 20:46:50.345641', 'mgs': 0, 'flw2': 0.1, 'flw1': 0.23, 'flw0': 0.0, 'time': 35.99, 'compass': 69.82, 'pitch': 1.46, 'roll': -0.73}
{'lipoC2': 0.0, 'temp': 0.0, 'lipoC3S3': 12.09, 'state': 'normal', 'rot1': 166, 'rot0': 180, 'rot3': 0, 'rot2': 0, 'depth': 1.462, 'yaw': 77.69, 'datetime': '2018-12-18 20:46:50.560561', 'mgs': 0, 'flw2': 0.0, 'flw1': 0.47, 'flw0': 0.0, 'time': 36.2, 'compass': 71.43, 'pitch': 0.11, 'roll': -0.68}
{'lipoC2': 0.0, 'temp': 0.0, 'lipoC3S3': 11.97, 'state': 'normal', 'rot1': 166, 'rot0': 180, 'rot3': 0, 'rot2': 0, 'depth': -1.819, 'yaw': 79.44, 'datetime': '2018-12-18 20:46:50.768849', 'mgs': 0, 'flw2': 0.2, 'flw1': 0.0, 'flw0': 0.0, 'time': 36.41, 'compass': 73.18, 'pitch': 0.02, 'roll': -0.63}
{'lipoC2': 0.0, 'temp': 0.0, 'lipoC3S3': 11.89, 'state': 'normal', 'rot1': 166, 'rot0': 180, 'rot3': 0, 'rot2': 0, 'depth': -0.14, 'yaw': 81.24, 'datetime': '2018-12-18 20:46:50.975428', 'mgs': 0, 'flw2': 0.0, 'flw1': 0.44, 'flw0': 0.01, 'time': 36.62, 'compass': 74.97, 'pitch': 0.8, 'roll': -0.57}
{'lipoC2': 0.0, 'temp': 0.0, 'lipoC3S3': 12.05, 'state': 'normal', 'rot1': 166, 'rot0': 180, 'rot3': 0, 'rot2': 0, 'depth': -2.124, 'yaw': 83.04, 'datetime': '2018-12-18 20:46:51.184739', 'mgs': 0, 'flw2': 0.0, 'flw1': 0.26, 'flw0': 0.12, 'time': 36.82, 'compass': 76.77, 'pitch': 0.99, 'roll': -0.48}
{'lipoC2': 0.08, 'temp': 0.0, 'lipoC3S3': 11.68, 'state': 'normal', 'rot1': 166, 'rot0': 180, 'rot3': 0, 'rot2': 0, 'depth': 0.089, 'yaw': 84.81, 'datetime': '2018-12-18 20:46:51.391210', 'mgs': 0, 'flw2': 0.0, 'flw1': 0.0, 'flw0': 0.22, 'time': 37.03, 'compass': 78.54, 'pitch': 0.42, 'roll': -0.68}
{'lipoC2': 0.05, 'temp': 0.0, 'lipoC3S3': 11.93, 'state': 'normal', 'rot1': 166, 'rot0': 180, 'rot3': 0, 'rot2': 0, 'depth': -2.048, 'yaw': 86.65, 'datetime': '2018-12-18 20:46:51.600696', 'mgs': 0, 'flw2': 0.18, 'flw1': 0.0, 'flw0': 0.0, 'time': 37.24, 'compass': 80.38, 'pitch': 0.05, 'roll': -0.99}
{'lipoC2': 0.0, 'temp': 0.0, 'lipoC3S3': 11.93, 'state': 'normal', 'rot1': 166, 'rot0': 180, 'rot3': 0, 'rot2': 0, 'depth': -1.437, 'yaw': 88.5, 'datetime': '2018-12-18 20:46:51.808857', 'mgs': 0, 'flw2': 0.24, 'flw1': 0.0, 'flw0': 0.0, 'time': 37.45, 'compass': 82.23, 'pitch': 0.48, 'roll': -1.12}
{'lipoC2': 0.14, 'temp': 0.0, 'lipoC3S3': 11.67, 'state': 'normal', 'rot1': 166, 'rot0': 180, 'rot3': 0, 'rot2': 0, 'depth': 0.241, 'yaw': 90.33, 'datetime': '2018-12-18 20:46:52.024448', 'mgs': 0, 'flw2': 0.0, 'flw1': 0.0, 'flw0': 0.24, 'time': 37.66, 'compass': 84.06, 'pitch': 0.93, 'roll': -1.13}
{'lipoC2': 0.02, 'temp': 0.0, 'lipoC3S3': 11.72, 'state': 'normal', 'rot1': 166, 'rot0': 180, 'rot3': 0, 'rot2': 0, 'depth': -0.14, 'yaw': 92.12, 'datetime': '2018-12-18 20:46:52.231208', 'mgs': 0, 'flw2': 0.16, 'flw1': 0.06, 'flw0': 0.0, 'time': 37.87, 'compass': 85.86, 'pitch': 0.74, 'roll': -0.96}
{'lipoC2': 0.0, 'temp': 0.0, 'lipoC3S3': 11.88, 'state': 'normal', 'rot1': 166, 'rot0': 180, 'rot3': 0, 'rot2': 0, 'depth': 0.851, 'yaw': 93.82, 'datetime': '2018-12-18 20:46:52.438540', 'mgs': 0, 'flw2': 0.12, 'flw1': 0.0, 'flw0': 0.07, 'time': 38.08, 'compass': 87.55, 'pitch': 0.29, 'roll': -0.8}
{'lipoC2': 0.13, 'temp': 0.0, 'lipoC3S3': 11.72, 'state': 'normal', 'rot1': 166, 'rot0': 180, 'rot3': 0, 'rot2': 0, 'depth': 0.317, 'yaw': 95.57, 'datetime': '2018-12-18 20:46:52.646607', 'mgs': 0, 'flw2': 0.02, 'flw1': 0.0, 'flw0': 0.17, 'time': 38.29, 'compass': 89.31, 'pitch': 0.26, 'roll': -0.84}
{'lipoC2': 0.18, 'temp': 0.0, 'lipoC3S3': 11.81, 'state': 'normal', 'rot1': 166, 'rot0': 180, 'rot3': 0, 'rot2': 0, 'depth': -1.361, 'yaw': 97.33, 'datetime': '2018-12-18 20:46:52.857704', 'mgs': 0, 'flw2': 0.07, 'flw1': 0.44, 'flw0': 0.0, 'time': 38.49, 'compass': 91.06, 'pitch': 0.6, 'roll': -0.95}
{'lipoC2': 0.0, 'temp': 0.0, 'lipoC3S3': 11.88, 'state': 'normal', 'rot1': 166, 'rot0': 180, 'rot3': 0, 'rot2': 0, 'depth': 0.47, 'yaw': 99.09, 'datetime': '2018-12-18 20:46:53.066114', 'mgs': 0, 'flw2': 0.11, 'flw1': 0.0, 'flw0': 0.07, 'time': 38.7, 'compass': 92.82, 'pitch': 0.71, 'roll': -0.87}
{'lipoC2': 0.0, 'temp': 0.0, 'lipoC3S3': 11.84, 'state': 'normal', 'rot1': 166, 'rot0': 180, 'rot3': 0, 'rot2': 0, 'depth': 0.851, 'yaw': 100.79, 'datetime': '2018-12-18 20:46:53.276712', 'mgs': 0, 'flw2': 0.0, 'flw1': 0.5, 'flw0': 0.0, 'time': 38.91, 'compass': 94.52, 'pitch': 0.49, 'roll': -0.79}
{'lipoC2': 0.0, 'temp': 0.0, 'lipoC3S3': 12.06, 'state': 'normal', 'rot1': 166, 'rot0': 180, 'rot3': 0, 'rot2': 0, 'depth': -0.369, 'yaw': 102.58, 'datetime': '2018-12-18 20:46:53.483821', 'mgs': 0, 'flw2': 0.0, 'flw1': 0.47, 'flw0': 0.0, 'time': 39.12, 'compass': 96.32, 'pitch': 0.3, 'roll': -0.68}
{'lipoC2': 0.17, 'temp': 0.0, 'lipoC3S3': 11.8, 'state': 'normal', 'rot1': 166, 'rot0': 180, 'rot3': 0, 'rot2': 0, 'depth': 0.775, 'yaw': 104.38, 'datetime': '2018-12-18 20:46:53.692860', 'mgs': 0, 'flw2': 0.0, 'flw1': 0.44, 'flw0': 0.0, 'time': 39.33, 'compass': 98.12, 'pitch': 0.38, 'roll': -0.8}
{'lipoC2': 0.09, 'temp': 0.0, 'lipoC3S3': 12.0, 'state': 'normal', 'rot1': 166, 'rot0': 180, 'rot3': 0, 'rot2': 0, 'depth': -1.971, 'yaw': 106.19, 'datetime': '2018-12-18 20:46:53.903832', 'mgs': 0, 'flw2': 0.0, 'flw1': 0.35, 'flw0': 0.0, 'time': 39.54, 'compass': 99.93, 'pitch': 0.59, 'roll': -0.98}
{'lipoC2': 0.0, 'temp': 0.0, 'lipoC3S3': 12.09, 'state': 'normal', 'rot1': 166, 'rot0': 180, 'rot3': 0, 'rot2': 0, 'depth': 1.614, 'yaw': 107.94, 'datetime': '2018-12-18 20:46:54.113192', 'mgs': 0, 'flw2': 0.1, 'flw1': 0.26, 'flw0': 0.0, 'time': 39.75, 'compass': 101.67, 'pitch': 0.58, 'roll': -0.96}
{'lipoC2': 0.08, 'temp': 0.0, 'lipoC3S3': 11.68, 'state': 'normal', 'rot1': 166, 'rot0': 180, 'rot3': 0, 'rot2': 0, 'depth': 0.089, 'yaw': 109.77, 'datetime': '2018-12-18 20:46:54.322698', 'mgs': 0, 'flw2': 0.0, 'flw1': 0.0, 'flw0': 0.21, 'time': 39.96, 'compass': 103.51, 'pitch': 0.52, 'roll': -0.91}
{'lipoC2': 0.1, 'temp': 0.0, 'lipoC3S3': 11.68, 'state': 'normal', 'rot1': 166, 'rot0': 180, 'rot3': 0, 'rot2': 0, 'depth': 0.165, 'yaw': 111.61, 'datetime': '2018-12-18 20:46:54.529500', 'mgs': 0, 'flw2': 0.0, 'flw1': 0.06, 'flw0': 0.18, 'time': 40.16, 'compass': 105.34, 'pitch': 0.5, 'roll': -0.81}
{'lipoC2': 0.0, 'temp': 0.0, 'lipoC3S3': 11.79, 'state': 'normal', 'rot1': 166, 'rot0': 180, 'rot3': 0, 'rot2': 0, 'depth': -0.522, 'yaw': 113.46, 'datetime': '2018-12-18 20:46:54.738043', 'mgs': 0, 'flw2': 3.19, 'flw1': 0.18, 'flw0': 0.59, 'time': 40.37, 'compass': 107.2, 'pitch': 0.54, 'roll': -0.68}
{'lipoC2': 0.0, 'temp': 0.0, 'lipoC3S3': 11.92, 'state': 'normal', 'rot1': 168, 'rot0': 182, 'rot3': 0, 'rot2': 0, 'depth': -0.903, 'yaw': 115.81, 'datetime': '2018-12-18 20:46:54.950279', 'mgs': 0, 'flw2': 2.78, 'flw1': 0.0, 'flw0': 2.73, 'time': 40.58, 'compass': 109.55, 'pitch': 2.65, 'roll': -0.5}
{'lipoC2': 0.11, 'temp': 0.0, 'lipoC3S3': 11.9, 'state': 'normal', 'rot1': 170, 'rot0': 184, 'rot3': 0, 'rot2': 0, 'depth': -1.895, 'yaw': 117.47, 'datetime': '2018-12-18 20:46:55.160907', 'mgs': 0, 'flw2': 0.61, 'flw1': 0.0, 'flw0': 2.78, 'time': 40.79, 'compass': 111.2, 'pitch': 5.24, 'roll': -0.66}
{'lipoC2': 0.03, 'temp': 0.0, 'lipoC3S3': 11.69, 'state': 'normal', 'rot1': 173, 'rot0': 186, 'rot3': 0, 'rot2': 0, 'depth': 0.089, 'yaw': 115.99, 'datetime': '2018-12-18 20:46:55.367667', 'mgs': 0, 'flw2': 2.6, 'flw1': 0.0, 'flw0': 2.53, 'time': 41.0, 'compass': 109.72, 'pitch': 4.21, 'roll': -1.15}
{'lipoC2': 0.11, 'temp': 0.0, 'lipoC3S3': 11.65, 'state': 'normal', 'rot1': 175, 'rot0': 188, 'rot3': 0, 'rot2': 0, 'depth': 0.241, 'yaw': 111.27, 'datetime': '2018-12-18 20:46:55.578830', 'mgs': 0, 'flw2': 2.44, 'flw1': 0.0, 'flw0': 2.91, 'time': 41.21, 'compass': 105.0, 'pitch': 1.63, 'roll': -1.82}
{'lipoC2': 0.0, 'temp': 0.0, 'lipoC3S3': 12.05, 'state': 'normal', 'rot1': 177, 'rot0': 190, 'rot3': 0, 'rot2': 0, 'depth': 1.691, 'yaw': 104.19, 'datetime': '2018-12-18 20:46:55.787578', 'mgs': 0, 'flw2': 0.65, 'flw1': 0.26, 'flw0': 2.95, 'time': 41.42, 'compass': 97.92, 'pitch': 1.39, 'roll': -2.54}
{'lipoC2': 0.0, 'temp': 0.0, 'lipoC3S3': 11.85, 'state': 'normal', 'rot1': 180, 'rot0': 192, 'rot3': 0, 'rot2': 0, 'depth': 0.928, 'yaw': 97.64, 'datetime': '2018-12-18 20:46:55.997322', 'mgs': 0, 'flw2': 2.71, 'flw1': 0.0, 'flw0': 2.95, 'time': 41.63, 'compass': 91.37, 'pitch': 4.21, 'roll': -2.29}
{'lipoC2': 0.14, 'temp': 0.0, 'lipoC3S3': 11.68, 'state': 'normal', 'rot1': 182, 'rot0': 194, 'rot3': 0, 'rot2': 0, 'depth': 0.623, 'yaw': 93.71, 'datetime': '2018-12-18 20:46:56.206069', 'mgs': 0, 'flw2': 2.64, 'flw1': 0.0, 'flw0': 2.88, 'time': 41.84, 'compass': 87.44, 'pitch': 6.46, 'roll': -1.43}
{'lipoC2': 0.13, 'temp': 0.0, 'lipoC3S3': 11.69, 'state': 'normal', 'rot1': 185, 'rot0': 196, 'rot3': 0, 'rot2': 0, 'depth': 0.851, 'yaw': 91.27, 'datetime': '2018-12-18 20:46:56.413303', 'mgs': 0, 'flw2': 2.81, 'flw1': 0.0, 'flw0': 2.92, 'time': 42.05, 'compass': 85.0, 'pitch': 6.39, 'roll': -0.59}
{'lipoC2': 0.13, 'temp': 0.0, 'lipoC3S3': 11.71, 'state': 'normal', 'rot1': 187, 'rot0': 199, 'rot3': 0, 'rot2': 0, 'depth': 0.241, 'yaw': 89.8, 'datetime': '2018-12-18 20:46:56.622262', 'mgs': 0, 'flw2': 2.92, 'flw1': 0.12, 'flw0': 2.53, 'time': 42.26, 'compass': 83.53, 'pitch': 5.42, 'roll': -0.22}
{'lipoC2': 0.05, 'temp': 0.0, 'lipoC3S3': 11.93, 'state': 'normal', 'rot1': 189, 'rot0': 201, 'rot3': 0, 'rot2': 0, 'depth': -1.819, 'yaw': 88.97, 'datetime': '2018-12-18 20:46:56.831297', 'mgs': 0, 'flw2': 2.93, 'flw1': 0.0, 'flw0': 2.61, 'time': 42.46, 'compass': 82.71, 'pitch': 5.31, 'roll': -0.33}
{'lipoC2': 0.14, 'temp': 0.0, 'lipoC3S3': 11.87, 'state': 'normal', 'rot1': 192, 'rot0': 203, 'rot3': 0, 'rot2': 0, 'depth': -1.59, 'yaw': 88.77, 'datetime': '2018-12-18 20:46:57.043130', 'mgs': 0, 'flw2': 2.72, 'flw1': 0.0, 'flw0': 2.92, 'time': 42.67, 'compass': 82.5, 'pitch': 6.06, 'roll': -0.52}
