{'lipoC2': 7.44, 'temp': 0.0, 'lipoC3S3': 11.6, 'state': 'normal', 'rot1': 0, 'rot0': 0, 'rot3': 0, 'rot2': 0, 'depth': 0.699, 'yaw': 0.15, 'datetime': '2018-12-12 13:30:22.951149', 'mgs': 0, 'flw2': 0.05, 'flw1': 0.0, 'flw0': 0.26, 'time': 1.36, 'compass': -122.79, 'pitch': -2.62, 'roll': 1.78}
{'lipoC2': 7.37, 'temp': 0.0, 'lipoC3S3': 11.42, 'state': 'normal', 'rot1': 0, 'rot0': 0, 'rot3': 0, 'rot2': 0, 'depth': -0.674, 'yaw': 0.47, 'datetime': '2018-12-12 13:30:23.159671', 'mgs': 0, 'flw2': 0.0, 'flw1': 0.0, 'flw0': 0.0, 'time': 1.57, 'compass': -122.47, 'pitch': -3.05, 'roll': 2.08}
{'lipoC2': 7.56, 'temp': 0.0, 'lipoC3S3': 11.43, 'state': 'normal', 'rot1': 0, 'rot0': 0, 'rot3': 0, 'rot2': 0, 'depth': -1.208, 'yaw': 0.75, 'datetime': '2018-12-12 13:30:23.367909', 'mgs': 0, 'flw2': 0.0, 'flw1': 0.59, 'flw0': 0.0, 'time': 1.77, 'compass': -122.2, 'pitch': -3.42, 'roll': 2.34}
{'lipoC2': 7.44, 'temp': 0.0, 'lipoC3S3': 11.73, 'state': 'normal', 'rot1': 0, 'rot0': 0, 'rot3': 0, 'rot2': 0, 'depth': -0.217, 'yaw': 1.0, 'datetime': '2018-12-12 13:30:23.577607', 'mgs': 0, 'flw2': 0.15, 'flw1': 0.0, 'flw0': 0.0, 'time': 1.98, 'compass': -121.95, 'pitch': -3.28, 'roll': 2.67}
{'lipoC2': 7.68, 'temp': 0.0, 'lipoC3S3': 11.07, 'state': 'normal', 'rot1': 2, 'rot0': 1, 'rot3': 0, 'rot2': 1, 'depth': 1.843, 'yaw': 1.8, 'datetime': '2018-12-12 13:30:23.784331', 'mgs': 0, 'flw2': 3.76, 'flw1': 3.54, 'flw0': 4.49, 'time': 2.19, 'compass': -121.14, 'pitch': -2.99, 'roll': 3.15}
{'lipoC2': 7.48, 'temp': 0.0, 'lipoC3S3': 11.36, 'state': 'normal', 'rot1': 7, 'rot0': 5, 'rot3': 1, 'rot2': 2, 'depth': 0.012, 'yaw': 7.55, 'datetime': '2018-12-12 13:30:23.993462', 'mgs': 0, 'flw2': 3.81, 'flw1': 2.37, 'flw0': 4.39, 'time': 2.4, 'compass': -115.4, 'pitch': -1.56, 'roll': 4.48}
{'lipoC2': 7.42, 'temp': 0.0, 'lipoC3S3': 11.36, 'state': 'normal', 'rot1': 11, 'rot0': 9, 'rot3': 2, 'rot2': 3, 'depth': -0.217, 'yaw': 17.4, 'datetime': '2018-12-12 13:30:24.201425', 'mgs': 0, 'flw2': 3.69, 'flw1': 2.34, 'flw0': 3.72, 'time': 2.61, 'compass': -105.55, 'pitch': 0.87, 'roll': 5.96}
{'lipoC2': 7.64, 'temp': 0.0, 'lipoC3S3': 11.31, 'state': 'normal', 'rot1': 15, 'rot0': 12, 'rot3': 2, 'rot2': 4, 'depth': 0.775, 'yaw': 28.66, 'datetime': '2018-12-12 13:30:24.412006', 'mgs': 0, 'flw2': 2.76, 'flw1': 2.14, 'flw0': 3.34, 'time': 2.82, 'compass': -94.28, 'pitch': 3.2, 'roll': 6.74}
{'lipoC2': 7.63, 'temp': 0.0, 'lipoC3S3': 11.13, 'state': 'normal', 'rot1': 17, 'rot0': 15, 'rot3': 3, 'rot2': 5, 'depth': -1.514, 'yaw': 40.77, 'datetime': '2018-12-12 13:30:24.622354', 'mgs': 0, 'flw2': 2.23, 'flw1': 2.58, 'flw0': 2.27, 'time': 3.03, 'compass': -82.17, 'pitch': 4.86, 'roll': 6.62}
{'lipoC2': 7.38, 'temp': 0.0, 'lipoC3S3': 11.42, 'state': 'normal', 'rot1': 20, 'rot0': 17, 'rot3': 4, 'rot2': 6, 'depth': -0.598, 'yaw': 52.53, 'datetime': '2018-12-12 13:30:24.831394', 'mgs': 0, 'flw2': 1.79, 'flw1': 2.58, 'flw0': 1.67, 'time': 3.24, 'compass': -70.41, 'pitch': 5.34, 'roll': 5.69}
{'lipoC2': 7.66, 'temp': 0.0, 'lipoC3S3': 11.27, 'state': 'normal', 'rot1': 23, 'rot0': 19, 'rot3': 5, 'rot2': 7, 'depth': -1.056, 'yaw': 63.77, 'datetime': '2018-12-12 13:30:25.041710', 'mgs': 0, 'flw2': 1.25, 'flw1': 2.58, 'flw0': 1.11, 'time': 3.44, 'compass': -59.18, 'pitch': 5.29, 'roll': 4.47}
{'lipoC2': 7.46, 'temp': 0.0, 'lipoC3S3': 11.44, 'state': 'normal', 'rot1': 24, 'rot0': 20, 'rot3': 5, 'rot2': 8, 'depth': -0.14, 'yaw': 74.31, 'datetime': '2018-12-12 13:30:25.251483', 'mgs': 0, 'flw2': 0.62, 'flw1': 3.05, 'flw0': 0.72, 'time': 3.65, 'compass': -48.64, 'pitch': 5.07, 'roll': 3.51}
{'lipoC2': 7.57, 'temp': 0.0, 'lipoC3S3': 11.4, 'state': 'normal', 'rot1': 26, 'rot0': 22, 'rot3': 6, 'rot2': 9, 'depth': 0.165, 'yaw': 84.06, 'datetime': '2018-12-12 13:30:25.459231', 'mgs': 0, 'flw2': 0.28, 'flw1': 3.25, 'flw0': 0.37, 'time': 3.86, 'compass': -38.89, 'pitch': 4.79, 'roll': 3.04}
{'lipoC2': 7.38, 'temp': 0.0, 'lipoC3S3': 11.39, 'state': 'normal', 'rot1': 27, 'rot0': 23, 'rot3': 7, 'rot2': 10, 'depth': -0.98, 'yaw': 92.62, 'datetime': '2018-12-12 13:30:25.669082', 'mgs': 0, 'flw2': 0.43, 'flw1': 2.67, 'flw0': 0.18, 'time': 4.07, 'compass': -30.33, 'pitch': 4.1, 'roll': 2.61}
{'lipoC2': 7.47, 'temp': 0.0, 'lipoC3S3': 11.4, 'state': 'normal', 'rot1': 28, 'rot0': 24, 'rot3': 8, 'rot2': 11, 'depth': -0.903, 'yaw': 100.8, 'datetime': '2018-12-12 13:30:25.878700', 'mgs': 0, 'flw2': 0.55, 'flw1': 2.43, 'flw0': 0.12, 'time': 4.28, 'compass': -22.14, 'pitch': 3.13, 'roll': 2.83}
{'lipoC2': 7.53, 'temp': 0.0, 'lipoC3S3': 11.32, 'state': 'normal', 'rot1': 29, 'rot0': 25, 'rot3': 8, 'rot2': 12, 'depth': -1.895, 'yaw': 108.29, 'datetime': '2018-12-12 13:30:26.091033', 'mgs': 0, 'flw2': 0.55, 'flw1': 2.34, 'flw0': 0.2, 'time': 4.49, 'compass': -14.66, 'pitch': 2.4, 'roll': 3.36}
{'lipoC2': 7.62, 'temp': 0.0, 'lipoC3S3': 11.21, 'state': 'normal', 'rot1': 31, 'rot0': 26, 'rot3': 9, 'rot2': 13, 'depth': -1.666, 'yaw': 115.35, 'datetime': '2018-12-12 13:30:26.300919', 'mgs': 0, 'flw2': 0.18, 'flw1': 1.88, 'flw0': 0.6, 'time': 4.7, 'compass': -7.6, 'pitch': 2.37, 'roll': 3.42}
{'lipoC2': 7.56, 'temp': 0.0, 'lipoC3S3': 11.27, 'state': 'normal', 'rot1': 31, 'rot0': 26, 'rot3': 10, 'rot2': 14, 'depth': 0.928, 'yaw': 121.93, 'datetime': '2018-12-12 13:30:26.511118', 'mgs': 0, 'flw2': 0.0, 'flw1': 2.14, 'flw0': 0.17, 'time': 4.91, 'compass': -1.02, 'pitch': 2.42, 'roll': 3.59}
{'lipoC2': 7.65, 'temp': 0.0, 'lipoC3S3': 11.36, 'state': 'normal', 'rot1': 31, 'rot0': 26, 'rot3': 11, 'rot2': 15, 'depth': -0.674, 'yaw': 127.76, 'datetime': '2018-12-12 13:30:26.720088', 'mgs': 0, 'flw2': 0.0, 'flw1': 3.05, 'flw0': 0.0, 'time': 5.12, 'compass': 4.81, 'pitch': 2.08, 'roll': 4.45}
{'lipoC2': 7.65, 'temp': 0.0, 'lipoC3S3': 11.3, 'state': 'normal', 'rot1': 32, 'rot0': 26, 'rot3': 12, 'rot2': 16, 'depth': -1.056, 'yaw': 132.81, 'datetime': '2018-12-12 13:30:26.930469', 'mgs': 0, 'flw2': 0.31, 'flw1': 2.84, 'flw0': 0.23, 'time': 5.33, 'compass': 9.86, 'pitch': 1.85, 'roll': 5.18}
{'lipoC2': 7.37, 'temp': 0.0, 'lipoC3S3': 11.4, 'state': 'normal', 'rot1': 33, 'rot0': 27, 'rot3': 12, 'rot2': 17, 'depth': -0.98, 'yaw': 136.62, 'datetime': '2018-12-12 13:30:27.141055', 'mgs': 0, 'flw2': 0.18, 'flw1': 2.08, 'flw0': 0.63, 'time': 5.54, 'compass': 13.68, 'pitch': 2.38, 'roll': 4.95}
{'lipoC2': 7.65, 'temp': 0.0, 'lipoC3S3': 11.19, 'state': 'normal', 'rot1': 34, 'rot0': 28, 'rot3': 13, 'rot2': 18, 'depth': -1.285, 'yaw': 139.5, 'datetime': '2018-12-12 13:30:27.350072', 'mgs': 0, 'flw2': 0.18, 'flw1': 1.99, 'flw0': 0.59, 'time': 5.75, 'compass': 16.56, 'pitch': 3.05, 'roll': 4.83}
{'lipoC2': 7.42, 'temp': 0.0, 'lipoC3S3': 11.71, 'state': 'normal', 'rot1': 35, 'rot0': 29, 'rot3': 14, 'rot2': 19, 'depth': 1.691, 'yaw': 141.68, 'datetime': '2018-12-12 13:30:27.559979', 'mgs': 0, 'flw2': 0.07, 'flw1': 3.25, 'flw0': 0.22, 'time': 5.96, 'compass': 18.73, 'pitch': 3.32, 'roll': 4.87}
{'lipoC2': 7.48, 'temp': 0.0, 'lipoC3S3': 11.46, 'state': 'normal', 'rot1': 36, 'rot0': 30, 'rot3': 15, 'rot2': 20, 'depth': -0.369, 'yaw': 143.1, 'datetime': '2018-12-12 13:30:27.770292', 'mgs': 0, 'flw2': 0.28, 'flw1': 2.61, 'flw0': 0.35, 'time': 6.17, 'compass': 20.16, 'pitch': 3.49, 'roll': 4.81}
{'lipoC2': 7.66, 'temp': 0.0, 'lipoC3S3': 11.25, 'state': 'normal', 'rot1': 37, 'rot0': 30, 'rot3': 15, 'rot2': 21, 'depth': -0.98, 'yaw': 143.97, 'datetime': '2018-12-12 13:30:27.980401', 'mgs': 0, 'flw2': 0.22, 'flw1': 1.99, 'flw0': 0.6, 'time': 6.38, 'compass': 21.02, 'pitch': 4.17, 'roll': 4.87}
{'lipoC2': 7.57, 'temp': 0.0, 'lipoC3S3': 11.42, 'state': 'normal', 'rot1': 39, 'rot0': 31, 'rot3': 16, 'rot2': 22, 'depth': -0.751, 'yaw': 144.14, 'datetime': '2018-12-12 13:30:28.190186', 'mgs': 0, 'flw2': 0.48, 'flw1': 2.46, 'flw0': 0.28, 'time': 6.59, 'compass': 21.19, 'pitch': 4.68, 'roll': 5.09}
{'lipoC2': 7.5, 'temp': 0.0, 'lipoC3S3': 11.32, 'state': 'normal', 'rot1': 40, 'rot0': 32, 'rot3': 17, 'rot2': 23, 'depth': -0.827, 'yaw': 143.72, 'datetime': '2018-12-12 13:30:28.401802', 'mgs': 0, 'flw2': 0.2, 'flw1': 2.05, 'flw0': 0.59, 'time': 6.8, 'compass': 20.78, 'pitch': 4.48, 'roll': 5.14}
{'lipoC2': 7.42, 'temp': 0.0, 'lipoC3S3': 11.59, 'state': 'normal', 'rot1': 41, 'rot0': 33, 'rot3': 18, 'rot2': 24, 'depth': 0.546, 'yaw': 142.81, 'datetime': '2018-12-12 13:30:28.612482', 'mgs': 0, 'flw2': 0.27, 'flw1': 2.96, 'flw0': 0.29, 'time': 7.01, 'compass': 19.87, 'pitch': 3.6, 'roll': 5.18}
{'lipoC2': 7.41, 'temp': 0.0, 'lipoC3S3': 11.68, 'state': 'normal', 'rot1': 42, 'rot0': 34, 'rot3': 19, 'rot2': 25, 'depth': 1.309, 'yaw': 141.46, 'datetime': '2018-12-12 13:30:28.821579', 'mgs': 0, 'flw2': 0.29, 'flw1': 2.26, 'flw0': 0.2, 'time': 7.22, 'compass': 18.52, 'pitch': 3.13, 'roll': 5.32}
{'lipoC2': 7.55, 'temp': 0.0, 'lipoC3S3': 11.4, 'state': 'normal', 'rot1': 43, 'rot0': 35, 'rot3': 19, 'rot2': 26, 'depth': 0.47, 'yaw': 139.74, 'datetime': '2018-12-12 13:30:29.031785', 'mgs': 0, 'flw2': 0.59, 'flw1': 2.23, 'flw0': 0.12, 'time': 7.43, 'compass': 16.79, 'pitch': 3.13, 'roll': 5.6}
{'lipoC2': 7.51, 'temp': 0.0, 'lipoC3S3': 11.36, 'state': 'normal', 'rot1': 44, 'rot0': 36, 'rot3': 20, 'rot2': 27, 'depth': -0.217, 'yaw': 137.59, 'datetime': '2018-12-12 13:30:29.241637', 'mgs': 0, 'flw2': 0.6, 'flw1': 2.37, 'flw0': 0.12, 'time': 7.64, 'compass': 14.65, 'pitch': 3.13, 'roll': 5.7}
{'lipoC2': 7.41, 'temp': 0.0, 'lipoC3S3': 11.71, 'state': 'normal', 'rot1': 45, 'rot0': 37, 'rot3': 21, 'rot2': 28, 'depth': 1.538, 'yaw': 135.18, 'datetime': '2018-12-12 13:30:29.451060', 'mgs': 0, 'flw2': 0.18, 'flw1': 3.08, 'flw0': 0.24, 'time': 7.85, 'compass': 12.23, 'pitch': 2.47, 'roll': 5.68}
{'lipoC2': 7.41, 'temp': 0.0, 'lipoC3S3': 11.72, 'state': 'normal', 'rot1': 46, 'rot0': 38, 'rot3': 22, 'rot2': 29, 'depth': -1.208, 'yaw': 132.69, 'datetime': '2018-12-12 13:30:29.662430', 'mgs': 0, 'flw2': 0.11, 'flw1': 3.31, 'flw0': 0.2, 'time': 8.06, 'compass': 9.74, 'pitch': 1.26, 'roll': 5.81}
{'lipoC2': 7.56, 'temp': 0.0, 'lipoC3S3': 11.27, 'state': 'normal', 'rot1': 47, 'rot0': 39, 'rot3': 23, 'rot2': 30, 'depth': -1.514, 'yaw': 129.96, 'datetime': '2018-12-12 13:30:29.873301', 'mgs': 0, 'flw2': 0.2, 'flw1': 2.14, 'flw0': 0.61, 'time': 8.27, 'compass': 7.02, 'pitch': 0.51, 'roll': 6.27}
{'lipoC2': 7.51, 'temp': 0.0, 'lipoC3S3': 11.34, 'state': 'normal', 'rot1': 49, 'rot0': 40, 'rot3': 23, 'rot2': 31, 'depth': -0.217, 'yaw': 127.02, 'datetime': '2018-12-12 13:30:30.082589', 'mgs': 0, 'flw2': 0.18, 'flw1': 2.02, 'flw0': 0.55, 'time': 8.48, 'compass': 4.07, 'pitch': 1.28, 'roll': 6.57}
{'lipoC2': 7.53, 'temp': 0.0, 'lipoC3S3': 11.42, 'state': 'normal', 'rot1': 49, 'rot0': 40, 'rot3': 24, 'rot2': 32, 'depth': -0.369, 'yaw': 124.14, 'datetime': '2018-12-12 13:30:30.292531', 'mgs': 0, 'flw2': 0.26, 'flw1': 2.31, 'flw0': 0.0, 'time': 8.69, 'compass': 1.19, 'pitch': 2.59, 'roll': 6.81}
{'lipoC2': 7.52, 'temp': 0.0, 'lipoC3S3': 11.3, 'state': 'normal', 'rot1': 49, 'rot0': 40, 'rot3': 25, 'rot2': 33, 'depth': -1.743, 'yaw': 121.64, 'datetime': '2018-12-12 13:30:30.501649', 'mgs': 0, 'flw2': 0.0, 'flw1': 3.19, 'flw0': 0.0, 'time': 8.9, 'compass': -1.31, 'pitch': 2.85, 'roll': 6.94}
{'lipoC2': 7.58, 'temp': 0.0, 'lipoC3S3': 11.38, 'state': 'normal', 'rot1': 49, 'rot0': 40, 'rot3': 26, 'rot2': 34, 'depth': -0.674, 'yaw': 119.37, 'datetime': '2018-12-12 13:30:30.712548', 'mgs': 0, 'flw2': 0.0, 'flw1': 1.82, 'flw0': 0.0, 'time': 9.11, 'compass': -3.58, 'pitch': 2.26, 'roll': 7.05}
{'lipoC2': 7.41, 'temp': 0.0, 'lipoC3S3': 11.69, 'state': 'normal', 'rot1': 49, 'rot0': 40, 'rot3': 26, 'rot2': 35, 'depth': 1.004, 'yaw': 117.25, 'datetime': '2018-12-12 13:30:30.922291', 'mgs': 0, 'flw2': 0.0, 'flw1': 2.78, 'flw0': 0.0, 'time': 9.32, 'compass': -5.69, 'pitch': 1.93, 'roll': 6.96}
{'lipoC2': 7.52, 'temp': 0.0, 'lipoC3S3': 11.34, 'state': 'normal', 'rot1': 49, 'rot0': 40, 'rot3': 27, 'rot2': 36, 'depth': -1.819, 'yaw': 115.42, 'datetime': '2018-12-12 13:30:31.133595', 'mgs': 0, 'flw2': 0.0, 'flw1': 2.08, 'flw0': 0.16, 'time': 9.53, 'compass': -7.52, 'pitch': 2.19, 'roll': 7.08}
{'lipoC2': 7.46, 'temp': 0.0, 'lipoC3S3': 11.6, 'state': 'normal', 'rot1': 49, 'rot0': 40, 'rot3': 28, 'rot2': 37, 'depth': 1.004, 'yaw': 113.79, 'datetime': '2018-12-12 13:30:31.342122', 'mgs': 0, 'flw2': 0.0, 'flw1': 2.84, 'flw0': 0.0, 'time': 9.74, 'compass': -9.15, 'pitch': 2.53, 'roll': 7.64}
{'lipoC2': 7.61, 'temp': 0.0, 'lipoC3S3': 11.23, 'state': 'normal', 'rot1': 50, 'rot0': 41, 'rot3': 29, 'rot2': 38, 'depth': -1.59, 'yaw': 112.41, 'datetime': '2018-12-12 13:30:31.552214', 'mgs': 0, 'flw2': 0.46, 'flw1': 2.31, 'flw0': 0.23, 'time': 9.95, 'compass': -10.53, 'pitch': 2.67, 'roll': 7.87}
{'lipoC2': 7.52, 'temp': 0.0, 'lipoC3S3': 11.29, 'state': 'normal', 'rot1': 51, 'rot0': 41, 'rot3': 29, 'rot2': 39, 'depth': -0.064, 'yaw': 111.65, 'datetime': '2018-12-12 13:30:31.763851', 'mgs': 0, 'flw2': 0.18, 'flw1': 2.05, 'flw0': 0.57, 'time': 10.16, 'compass': -11.3, 'pitch': 2.33, 'roll': 7.6}
{'lipoC2': 7.52, 'temp': 0.0, 'lipoC3S3': 11.4, 'state': 'normal', 'rot1': 52, 'rot0': 42, 'rot3': 30, 'rot2': 40, 'depth': -0.217, 'yaw': 111.41, 'datetime': '2018-12-12 13:30:31.973600', 'mgs': 0, 'flw2': 0.44, 'flw1': 2.55, 'flw0': 0.22, 'time': 10.37, 'compass': -11.54, 'pitch': 1.78, 'roll': 7.19}
{'lipoC2': 7.51, 'temp': 0.0, 'lipoC3S3': 11.36, 'state': 'normal', 'rot1': 53, 'rot0': 43, 'rot3': 31, 'rot2': 41, 'depth': -0.98, 'yaw': 111.76, 'datetime': '2018-12-12 13:30:32.185334', 'mgs': 0, 'flw2': 0.44, 'flw1': 2.29, 'flw0': 0.2, 'time': 10.58, 'compass': -11.19, 'pitch': 1.38, 'roll': 7.36}
{'lipoC2': 7.65, 'temp': 0.0, 'lipoC3S3': 11.43, 'state': 'normal', 'rot1': 55, 'rot0': 44, 'rot3': 32, 'rot2': 42, 'depth': 1.843, 'yaw': 112.6, 'datetime': '2018-12-12 13:30:32.396820', 'mgs': 0, 'flw2': 0.39, 'flw1': 2.61, 'flw0': 0.26, 'time': 10.79, 'compass': -10.34, 'pitch': 1.45, 'roll': 7.72}
{'lipoC2': 7.56, 'temp': 0.0, 'lipoC3S3': 11.25, 'state': 'normal', 'rot1': 56, 'rot0': 45, 'rot3': 33, 'rot2': 43, 'depth': 0.394, 'yaw': 113.76, 'datetime': '2018-12-12 13:30:32.607414', 'mgs': 0, 'flw2': 0.21, 'flw1': 2.29, 'flw0': 0.61, 'time': 11.0, 'compass': -9.19, 'pitch': 2.02, 'roll': 7.97}
{'lipoC2': 7.59, 'temp': 0.0, 'lipoC3S3': 11.39, 'state': 'normal', 'rot1': 57, 'rot0': 46, 'rot3': 33, 'rot2': 44, 'depth': -0.598, 'yaw': 115.25, 'datetime': '2018-12-12 13:30:32.814563', 'mgs': 0, 'flw2': 0.43, 'flw1': 2.34, 'flw0': 0.22, 'time': 11.2, 'compass': -7.69, 'pitch': 2.49, 'roll': 8.17}
{'lipoC2': 7.37, 'temp': 0.0, 'lipoC3S3': 11.36, 'state': 'normal', 'rot1': 58, 'rot0': 47, 'rot3': 34, 'rot2': 45, 'depth': -1.132, 'yaw': 116.86, 'datetime': '2018-12-12 13:30:33.028161', 'mgs': 0, 'flw2': 0.0, 'flw1': 2.4, 'flw0': 0.0, 'time': 11.42, 'compass': -6.09, 'pitch': 2.39, 'roll': 8.26}
{'lipoC2': 7.37, 'temp': 0.0, 'lipoC3S3': 11.64, 'state': 'normal', 'rot1': 58, 'rot0': 47, 'rot3': 35, 'rot2': 46, 'depth': -1.056, 'yaw': 118.05, 'datetime': '2018-12-12 13:30:33.235642', 'mgs': 0, 'flw2': 0.0, 'flw1': 2.26, 'flw0': 0.0, 'time': 11.63, 'compass': -4.89, 'pitch': 2.39, 'roll': 8.17}
{'lipoC2': 7.47, 'temp': 0.0, 'lipoC3S3': 11.4, 'state': 'normal', 'rot1': 58, 'rot0': 47, 'rot3': 36, 'rot2': 47, 'depth': -1.056, 'yaw': 118.96, 'datetime': '2018-12-12 13:30:33.447473', 'mgs': 0, 'flw2': 0.0, 'flw1': 2.11, 'flw0': 0.0, 'time': 11.84, 'compass': -3.98, 'pitch': 2.52, 'roll': 7.91}
{'lipoC2': 7.48, 'temp': 0.0, 'lipoC3S3': 11.43, 'state': 'normal', 'rot1': 58, 'rot0': 47, 'rot3': 36, 'rot2': 48, 'depth': -1.056, 'yaw': 119.69, 'datetime': '2018-12-12 13:30:33.656202', 'mgs': 0, 'flw2': 0.26, 'flw1': 2.49, 'flw0': 0.0, 'time': 12.05, 'compass': -3.25, 'pitch': 2.72, 'roll': 7.95}
{'lipoC2': 7.62, 'temp': 0.0, 'lipoC3S3': 11.39, 'state': 'normal', 'rot1': 58, 'rot0': 47, 'rot3': 37, 'rot2': 49, 'depth': -0.598, 'yaw': 120.19, 'datetime': '2018-12-12 13:30:33.866703', 'mgs': 0, 'flw2': 0.0, 'flw1': 2.43, 'flw0': 0.22, 'time': 12.26, 'compass': -2.75, 'pitch': 2.4, 'roll': 8.09}
{'lipoC2': 7.58, 'temp': 0.0, 'lipoC3S3': 11.38, 'state': 'normal', 'rot1': 58, 'rot0': 47, 'rot3': 38, 'rot2': 50, 'depth': 0.165, 'yaw': 120.54, 'datetime': '2018-12-12 13:30:34.076516', 'mgs': 0, 'flw2': 0.0, 'flw1': 2.49, 'flw0': 0.0, 'time': 12.47, 'compass': -2.4, 'pitch': 1.67, 'roll': 7.84}
{'lipoC2': 7.51, 'temp': 0.0, 'lipoC3S3': 11.35, 'state': 'normal', 'rot1': 58, 'rot0': 47, 'rot3': 39, 'rot2': 52, 'depth': -1.437, 'yaw': 120.8, 'datetime': '2018-12-12 13:30:34.288859', 'mgs': 0, 'flw2': 0.0, 'flw1': 2.43, 'flw0': 0.1, 'time': 12.68, 'compass': -2.15, 'pitch': 1.63, 'roll': 7.62}
{'lipoC2': 7.37, 'temp': 0.0, 'lipoC3S3': 11.42, 'state': 'normal', 'rot1': 58, 'rot0': 47, 'rot3': 40, 'rot2': 53, 'depth': -0.522, 'yaw': 120.97, 'datetime': '2018-12-12 13:30:34.502684', 'mgs': 0, 'flw2': 0.0, 'flw1': 3.16, 'flw0': 0.0, 'time': 12.89, 'compass': -1.97, 'pitch': 2.12, 'roll': 7.86}
{'lipoC2': 7.37, 'temp': 0.0, 'lipoC3S3': 11.4, 'state': 'normal', 'rot1': 58, 'rot0': 47, 'rot3': 40, 'rot2': 54, 'depth': -0.827, 'yaw': 121.01, 'datetime': '2018-12-12 13:30:34.709879', 'mgs': 0, 'flw2': 0.0, 'flw1': 2.14, 'flw0': 0.27, 'time': 13.1, 'compass': -1.94, 'pitch': 2.34, 'roll': 8.26}
{'lipoC2': 7.37, 'temp': 0.0, 'lipoC3S3': 11.36, 'state': 'normal', 'rot1': 58, 'rot0': 47, 'rot3': 41, 'rot2': 55, 'depth': -0.751, 'yaw': 121.02, 'datetime': '2018-12-12 13:30:34.919450', 'mgs': 0, 'flw2': 0.0, 'flw1': 2.75, 'flw0': 0.0, 'time': 13.3, 'compass': -1.93, 'pitch': 1.91, 'roll': 8.36}
{'lipoC2': 7.47, 'temp': 0.0, 'lipoC3S3': 11.44, 'state': 'normal', 'rot1': 58, 'rot0': 47, 'rot3': 42, 'rot2': 56, 'depth': -0.369, 'yaw': 121.02, 'datetime': '2018-12-12 13:30:35.127902', 'mgs': 0, 'flw2': 0.0, 'flw1': 1.99, 'flw0': 0.0, 'time': 13.51, 'compass': -1.93, 'pitch': 1.56, 'roll': 8.38}
{'lipoC2': 7.44, 'temp': 0.0, 'lipoC3S3': 11.67, 'state': 'normal', 'rot1': 58, 'rot0': 47, 'rot3': 43, 'rot2': 57, 'depth': 1.462, 'yaw': 121.02, 'datetime': '2018-12-12 13:30:35.339180', 'mgs': 0, 'flw2': 0.0, 'flw1': 2.08, 'flw0': 0.28, 'time': 13.72, 'compass': -1.92, 'pitch': 1.49, 'roll': 8.74}
{'lipoC2': 7.37, 'temp': 0.0, 'lipoC3S3': 11.38, 'state': 'normal', 'rot1': 58, 'rot0': 47, 'rot3': 43, 'rot2': 58, 'depth': -1.132, 'yaw': 120.98, 'datetime': '2018-12-12 13:30:35.549679', 'mgs': 0, 'flw2': 0.0, 'flw1': 2.05, 'flw0': 0.26, 'time': 13.94, 'compass': -1.96, 'pitch': 1.5, 'roll': 9.12}
{'lipoC2': 7.53, 'temp': 0.0, 'lipoC3S3': 11.31, 'state': 'normal', 'rot1': 58, 'rot0': 47, 'rot3': 44, 'rot2': 59, 'depth': 0.165, 'yaw': 120.75, 'datetime': '2018-12-12 13:30:35.760602', 'mgs': 0, 'flw2': 0.0, 'flw1': 2.08, 'flw0': 0.21, 'time': 14.15, 'compass': -2.19, 'pitch': 1.47, 'roll': 9.15}
{'lipoC2': 7.51, 'temp': 0.0, 'lipoC3S3': 11.34, 'state': 'normal', 'rot1': 58, 'rot0': 47, 'rot3': 45, 'rot2': 60, 'depth': -1.437, 'yaw': 120.5, 'datetime': '2018-12-12 13:30:35.971821', 'mgs': 0, 'flw2': 0.05, 'flw1': 2.58, 'flw0': 0.0, 'time': 14.35, 'compass': -2.44, 'pitch': 1.52, 'roll': 9.09}
{'lipoC2': 7.37, 'temp': 0.0, 'lipoC3S3': 11.4, 'state': 'normal', 'rot1': 58, 'rot0': 47, 'rot3': 46, 'rot2': 61, 'depth': -0.522, 'yaw': 120.24, 'datetime': '2018-12-12 13:30:36.177688', 'mgs': 0, 'flw2': 0.0, 'flw1': 2.05, 'flw0': 0.28, 'time': 14.56, 'compass': -2.71, 'pitch': 1.7, 'roll': 9.09}
{'lipoC2': 7.38, 'temp': 0.0, 'lipoC3S3': 11.34, 'state': 'normal', 'rot1': 58, 'rot0': 47, 'rot3': 47, 'rot2': 62, 'depth': -1.132, 'yaw': 119.96, 'datetime': '2018-12-12 13:30:36.390216', 'mgs': 0, 'flw2': 0.0, 'flw1': 2.78, 'flw0': 0.0, 'time': 14.77, 'compass': -2.99, 'pitch': 1.76, 'roll': 9.11}
{'lipoC2': 7.42, 'temp': 0.0, 'lipoC3S3': 11.38, 'state': 'normal', 'rot1': 58, 'rot0': 47, 'rot3': 47, 'rot2': 63, 'depth': -0.98, 'yaw': 119.66, 'datetime': '2018-12-12 13:30:36.597985', 'mgs': 0, 'flw2': 0.0, 'flw1': 2.46, 'flw0': 0.11, 'time': 14.98, 'compass': -3.28, 'pitch': 1.78, 'roll': 9.33}
{'lipoC2': 7.47, 'temp': 0.0, 'lipoC3S3': 11.46, 'state': 'normal', 'rot1': 58, 'rot0': 47, 'rot3': 48, 'rot2': 64, 'depth': -0.903, 'yaw': 119.37, 'datetime': '2018-12-12 13:30:36.809631', 'mgs': 0, 'flw2': 0.0, 'flw1': 2.2, 'flw0': 0.0, 'time': 15.19, 'compass': -3.57, 'pitch': 1.72, 'roll': 9.36}
{'lipoC2': 7.37, 'temp': 0.0, 'lipoC3S3': 11.34, 'state': 'normal', 'rot1': 58, 'rot0': 47, 'rot3': 49, 'rot2': 65, 'depth': -0.293, 'yaw': 118.95, 'datetime': '2018-12-12 13:30:37.018504', 'mgs': 0, 'flw2': 0.18, 'flw1': 2.52, 'flw0': 0.0, 'time': 15.4, 'compass': -4.0, 'pitch': 1.63, 'roll': 9.12}
{'lipoC2': 7.43, 'temp': 0.0, 'lipoC3S3': 11.64, 'state': 'normal', 'rot1': 58, 'rot0': 47, 'rot3': 50, 'rot2': 66, 'depth': 1.691, 'yaw': 118.5, 'datetime': '2018-12-12 13:30:37.227521', 'mgs': 0, 'flw2': 0.0, 'flw1': 3.16, 'flw0': 0.0, 'time': 15.61, 'compass': -4.44, 'pitch': 1.23, 'roll': 8.91}
{'lipoC2': 7.65, 'temp': 0.0, 'lipoC3S3': 11.23, 'state': 'normal', 'rot1': 58, 'rot0': 47, 'rot3': 50, 'rot2': 67, 'depth': -1.361, 'yaw': 118.17, 'datetime': '2018-12-12 13:30:37.436479', 'mgs': 0, 'flw2': 0.0, 'flw1': 1.93, 'flw0': 0.29, 'time': 15.82, 'compass': -4.77, 'pitch': 1.07, 'roll': 9.02}
{'lipoC2': 7.43, 'temp': 0.0, 'lipoC3S3': 11.64, 'state': 'normal', 'rot1': 58, 'rot0': 47, 'rot3': 51, 'rot2': 68, 'depth': -0.751, 'yaw': 117.81, 'datetime': '2018-12-12 13:30:37.651577', 'mgs': 0, 'flw2': 0.0, 'flw1': 2.4, 'flw0': 0.0, 'time': 16.03, 'compass': -5.13, 'pitch': 1.26, 'roll': 9.37}
{'lipoC2': 7.47, 'temp': 0.0, 'lipoC3S3': 11.5, 'state': 'normal', 'rot1': 58, 'rot0': 47, 'rot3': 52, 'rot2': 69, 'depth': -1.285, 'yaw': 117.35, 'datetime': '2018-12-12 13:30:37.858942', 'mgs': 0, 'flw2': 0.0, 'flw1': 2.84, 'flw0': 0.0, 'time': 16.24, 'compass': -5.59, 'pitch': 1.23, 'roll': 9.53}
{'lipoC2': 7.66, 'temp': 0.0, 'lipoC3S3': 11.36, 'state': 'normal', 'rot1': 58, 'rot0': 47, 'rot3': 53, 'rot2': 70, 'depth': -0.446, 'yaw': 116.87, 'datetime': '2018-12-12 13:30:38.068622', 'mgs': 0, 'flw2': 0.0, 'flw1': 2.29, 'flw0': 0.24, 'time': 16.45, 'compass': -6.08, 'pitch': 0.85, 'roll': 9.6}
{'lipoC2': 7.59, 'temp': 0.0, 'lipoC3S3': 11.4, 'state': 'normal', 'rot1': 58, 'rot0': 47, 'rot3': 54, 'rot2': 71, 'depth': -0.98, 'yaw': 116.38, 'datetime': '2018-12-12 13:30:38.278894', 'mgs': 0, 'flw2': 0.0, 'flw1': 2.34, 'flw0': 0.0, 'time': 16.66, 'compass': -6.56, 'pitch': 0.27, 'roll': 9.52}
{'lipoC2': 7.62, 'temp': 0.0, 'lipoC3S3': 11.4, 'state': 'normal', 'rot1': 58, 'rot0': 47, 'rot3': 54, 'rot2': 72, 'depth': 0.623, 'yaw': 115.89, 'datetime': '2018-12-12 13:30:38.488488', 'mgs': 0, 'flw2': 0.0, 'flw1': 2.37, 'flw0': 0.0, 'time': 16.87, 'compass': -7.05, 'pitch': 0.2, 'roll': 9.27}
{'lipoC2': 7.37, 'temp': 0.0, 'lipoC3S3': 11.36, 'state': 'normal', 'rot1': 58, 'rot0': 47, 'rot3': 55, 'rot2': 73, 'depth': -0.598, 'yaw': 115.41, 'datetime': '2018-12-12 13:30:38.697739', 'mgs': 0, 'flw2': 0.0, 'flw1': 2.81, 'flw0': 0.0, 'time': 17.08, 'compass': -7.54, 'pitch': 0.72, 'roll': 9.27}
{'lipoC2': 7.59, 'temp': 0.0, 'lipoC3S3': 11.21, 'state': 'normal', 'rot1': 58, 'rot0': 47, 'rot3': 56, 'rot2': 74, 'depth': -1.743, 'yaw': 114.95, 'datetime': '2018-12-12 13:30:38.908288', 'mgs': 0, 'flw2': 0.0, 'flw1': 2.05, 'flw0': 0.18, 'time': 17.29, 'compass': -8.0, 'pitch': 1.14, 'roll': 9.72}
{'lipoC2': 7.56, 'temp': 0.0, 'lipoC3S3': 11.42, 'state': 'normal', 'rot1': 58, 'rot0': 47, 'rot3': 57, 'rot2': 75, 'depth': -0.217, 'yaw': 114.47, 'datetime': '2018-12-12 13:30:39.118333', 'mgs': 0, 'flw2': 0.0, 'flw1': 2.61, 'flw0': 0.04, 'time': 17.5, 'compass': -8.48, 'pitch': 1.09, 'roll': 9.95}
{'lipoC2': 7.5, 'temp': 0.0, 'lipoC3S3': 11.31, 'state': 'normal', 'rot1': 58, 'rot0': 47, 'rot3': 58, 'rot2': 76, 'depth': 0.089, 'yaw': 114.05, 'datetime': '2018-12-12 13:30:39.329494', 'mgs': 0, 'flw2': 0.31, 'flw1': 2.26, 'flw0': 0.39, 'time': 17.71, 'compass': -8.9, 'pitch': 1.02, 'roll': 9.74}
{'lipoC2': 7.44, 'temp': 0.0, 'lipoC3S3': 11.59, 'state': 'normal', 'rot1': 60, 'rot0': 48, 'rot3': 58, 'rot2': 77, 'depth': 1.08, 'yaw': 114.22, 'datetime': '2018-12-12 13:30:39.540113', 'mgs': 0, 'flw2': 0.15, 'flw1': 3.16, 'flw0': 0.27, 'time': 17.92, 'compass': -8.73, 'pitch': 1.41, 'roll': 9.5}
{'lipoC2': 7.49, 'temp': 0.0, 'lipoC3S3': 11.35, 'state': 'normal', 'rot1': 61, 'rot0': 49, 'rot3': 59, 'rot2': 78, 'depth': -0.751, 'yaw': 115.05, 'datetime': '2018-12-12 13:30:39.749211', 'mgs': 0, 'flw2': 0.22, 'flw1': 2.34, 'flw0': 0.48, 'time': 18.13, 'compass': -7.9, 'pitch': 1.67, 'roll': 9.6}
{'lipoC2': 7.38, 'temp': 0.0, 'lipoC3S3': 11.36, 'state': 'normal', 'rot1': 62, 'rot0': 50, 'rot3': 60, 'rot2': 79, 'depth': -0.903, 'yaw': 116.1, 'datetime': '2018-12-12 13:30:39.960796', 'mgs': 0, 'flw2': 0.15, 'flw1': 2.55, 'flw0': 0.0, 'time': 18.34, 'compass': -6.84, 'pitch': 1.6, 'roll': 9.97}
{'lipoC2': 7.55, 'temp': 0.0, 'lipoC3S3': 11.29, 'state': 'normal', 'rot1': 62, 'rot0': 50, 'rot3': 61, 'rot2': 80, 'depth': -1.895, 'yaw': 116.78, 'datetime': '2018-12-12 13:30:40.170864', 'mgs': 0, 'flw2': 0.0, 'flw1': 2.58, 'flw0': 0.05, 'time': 18.55, 'compass': -6.17, 'pitch': 1.62, 'roll': 10.33}
{'lipoC2': 7.66, 'temp': 0.0, 'lipoC3S3': 11.34, 'state': 'normal', 'rot1': 62, 'rot0': 50, 'rot3': 61, 'rot2': 81, 'depth': -0.293, 'yaw': 117.3, 'datetime': '2018-12-12 13:30:40.381118', 'mgs': 0, 'flw2': 0.0, 'flw1': 2.31, 'flw0': 0.23, 'time': 18.76, 'compass': -5.65, 'pitch': 1.89, 'roll': 10.33}
{'lipoC2': 7.61, 'temp': 0.0, 'lipoC3S3': 11.39, 'state': 'normal', 'rot1': 62, 'rot0': 50, 'rot3': 62, 'rot2': 82, 'depth': 0.241, 'yaw': 117.66, 'datetime': '2018-12-12 13:30:40.591069', 'mgs': 0, 'flw2': 0.0, 'flw1': 2.31, 'flw0': 0.26, 'time': 18.97, 'compass': -5.29, 'pitch': 2.14, 'roll': 9.96}
{'lipoC2': 7.54, 'temp': 0.0, 'lipoC3S3': 11.35, 'state': 'normal', 'rot1': 62, 'rot0': 50, 'rot3': 63, 'rot2': 83, 'depth': 0.394, 'yaw': 117.95, 'datetime': '2018-12-12 13:30:40.800900', 'mgs': 0, 'flw2': 0.0, 'flw1': 2.08, 'flw0': 0.0, 'time': 19.18, 'compass': -5.0, 'pitch': 2.04, 'roll': 9.73}
{'lipoC2': 7.64, 'temp': 0.0, 'lipoC3S3': 11.38, 'state': 'normal', 'rot1': 62, 'rot0': 50, 'rot3': 64, 'rot2': 84, 'depth': 0.928, 'yaw': 118.15, 'datetime': '2018-12-12 13:30:41.011062', 'mgs': 0, 'flw2': 0.0, 'flw1': 2.75, 'flw0': 0.0, 'time': 19.39, 'compass': -4.8, 'pitch': 1.14, 'roll': 9.94}
{'lipoC2': 7.46, 'temp': 0.0, 'lipoC3S3': 11.25, 'state': 'normal', 'rot1': 62, 'rot0': 50, 'rot3': 65, 'rot2': 86, 'depth': 1.157, 'yaw': 118.19, 'datetime': '2018-12-12 13:30:41.221166', 'mgs': 0, 'flw2': 0.0, 'flw1': 2.84, 'flw0': 0.0, 'time': 19.6, 'compass': -4.76, 'pitch': 0.16, 'roll': 10.29}
{'lipoC2': 7.55, 'temp': 0.0, 'lipoC3S3': 11.35, 'state': 'normal', 'rot1': 62, 'rot0': 50, 'rot3': 65, 'rot2': 87, 'depth': -2.048, 'yaw': 118.19, 'datetime': '2018-12-12 13:30:41.431457', 'mgs': 0, 'flw2': 0.0, 'flw1': 2.26, 'flw0': 0.17, 'time': 19.81, 'compass': -4.75, 'pitch': 0.11, 'roll': 10.35}
{'lipoC2': 7.65, 'temp': 0.0, 'lipoC3S3': 11.54, 'state': 'normal', 'rot1': 62, 'rot0': 50, 'rot3': 66, 'rot2': 88, 'depth': -0.522, 'yaw': 118.19, 'datetime': '2018-12-12 13:30:41.642366', 'mgs': 0, 'flw2': 0.0, 'flw1': 3.19, 'flw0': 0.0, 'time': 20.02, 'compass': -4.75, 'pitch': 0.73, 'roll': 10.29}
{'lipoC2': 7.51, 'temp': 0.0, 'lipoC3S3': 11.38, 'state': 'normal', 'rot1': 62, 'rot0': 50, 'rot3': 67, 'rot2': 89, 'depth': -1.743, 'yaw': 118.19, 'datetime': '2018-12-12 13:30:41.852778', 'mgs': 0, 'flw2': 0.0, 'flw1': 1.85, 'flw0': 0.0, 'time': 20.23, 'compass': -4.76, 'pitch': 1.01, 'roll': 10.23}
{'lipoC2': 7.41, 'temp': 0.0, 'lipoC3S3': 11.67, 'state': 'normal', 'rot1': 62, 'rot0': 50, 'rot3': 68, 'rot2': 90, 'depth': -0.674, 'yaw': 118.35, 'datetime': '2018-12-12 13:30:42.061429', 'mgs': 0, 'flw2': 0.0, 'flw1': 2.37, 'flw0': 0.0, 'time': 20.44, 'compass': -4.59, 'pitch': 0.83, 'roll': 9.85}
{'lipoC2': 7.38, 'temp': 0.0, 'lipoC3S3': 11.36, 'state': 'normal', 'rot1': 62, 'rot0': 50, 'rot3': 69, 'rot2': 91, 'depth': -1.056, 'yaw': 118.64, 'datetime': '2018-12-12 13:30:42.271991', 'mgs': 0, 'flw2': 0.12, 'flw1': 2.46, 'flw0': 0.0, 'time': 20.65, 'compass': -4.3, 'pitch': 0.88, 'roll': 7.95}
{'lipoC2': 7.65, 'temp': 0.0, 'lipoC3S3': 11.52, 'state': 'normal', 'rot1': 62, 'rot0': 50, 'rot3': 70, 'rot2': 92, 'depth': -0.522, 'yaw': 119.41, 'datetime': '2018-12-12 13:30:42.483230', 'mgs': 0, 'flw2': 0.0, 'flw1': 2.31, 'flw0': 0.22, 'time': 20.86, 'compass': -3.54, 'pitch': 0.87, 'roll': 4.32}
{'lipoC2': 7.51, 'temp': 0.0, 'lipoC3S3': 11.39, 'state': 'normal', 'rot1': 62, 'rot0': 50, 'rot3': 70, 'rot2': 93, 'depth': 0.623, 'yaw': 120.51, 'datetime': '2018-12-12 13:30:42.692575', 'mgs': 0, 'flw2': 0.0, 'flw1': 2.52, 'flw0': 0.09, 'time': 21.07, 'compass': -2.44, 'pitch': 0.59, 'roll': 0.66}
{'lipoC2': 7.43, 'temp': 0.0, 'lipoC3S3': 11.69, 'state': 'normal', 'rot1': 62, 'rot0': 50, 'rot3': 71, 'rot2': 94, 'depth': 2.225, 'yaw': 121.85, 'datetime': '2018-12-12 13:30:42.903211', 'mgs': 0, 'flw2': 0.0, 'flw1': 3.46, 'flw0': 0.0, 'time': 21.28, 'compass': -1.1, 'pitch': 0.46, 'roll': -1.86}
{'lipoC2': 7.42, 'temp': 0.0, 'lipoC3S3': 11.29, 'state': 'normal', 'rot1': 62, 'rot0': 50, 'rot3': 72, 'rot2': 95, 'depth': 2.148, 'yaw': 123.3, 'datetime': '2018-12-12 13:30:43.111909', 'mgs': 0, 'flw2': 0.0, 'flw1': 2.84, 'flw0': 0.0, 'time': 21.49, 'compass': 0.35, 'pitch': -0.03, 'roll': -2.91}
{'lipoC2': 7.41, 'temp': 0.0, 'lipoC3S3': 11.72, 'state': 'normal', 'rot1': 62, 'rot0': 50, 'rot3': 73, 'rot2': 96, 'depth': 1.996, 'yaw': 124.59, 'datetime': '2018-12-12 13:30:43.321899', 'mgs': 0, 'flw2': 0.15, 'flw1': 2.49, 'flw0': 0.0, 'time': 21.7, 'compass': 1.65, 'pitch': -0.71, 'roll': -1.96}
{'lipoC2': 7.44, 'temp': 0.0, 'lipoC3S3': 11.58, 'state': 'normal', 'rot1': 62, 'rot0': 50, 'rot3': 74, 'rot2': 97, 'depth': -0.217, 'yaw': 125.48, 'datetime': '2018-12-12 13:30:43.532586', 'mgs': 0, 'flw2': 0.0, 'flw1': 3.22, 'flw0': 0.0, 'time': 21.91, 'compass': 2.53, 'pitch': -0.9, 'roll': 0.22}
{'lipoC2': 7.54, 'temp': 0.0, 'lipoC3S3': 11.42, 'state': 'normal', 'rot1': 62, 'rot0': 50, 'rot3': 74, 'rot2': 98, 'depth': -1.285, 'yaw': 126.22, 'datetime': '2018-12-12 13:30:43.743281', 'mgs': 0, 'flw2': 0.21, 'flw1': 2.49, 'flw0': 0.0, 'time': 22.12, 'compass': 3.28, 'pitch': -0.22, 'roll': 2.52}
{'lipoC2': 7.55, 'temp': 0.0, 'lipoC3S3': 11.23, 'state': 'normal', 'rot1': 62, 'rot0': 50, 'rot3': 75, 'rot2': 99, 'depth': 0.394, 'yaw': 126.82, 'datetime': '2018-12-12 13:30:43.954349', 'mgs': 0, 'flw2': 0.0, 'flw1': 1.93, 'flw0': 0.23, 'time': 22.33, 'compass': 3.87, 'pitch': 0.86, 'roll': 4.51}
{'lipoC2': 7.52, 'temp': 0.0, 'lipoC3S3': 11.39, 'state': 'normal', 'rot1': 62, 'rot0': 50, 'rot3': 76, 'rot2': 100, 'depth': -1.132, 'yaw': 127.28, 'datetime': '2018-12-12 13:30:44.163312', 'mgs': 0, 'flw2': 0.0, 'flw1': 2.4, 'flw0': 0.02, 'time': 22.54, 'compass': 4.34, 'pitch': 1.44, 'roll': 6.26}
{'lipoC2': 7.57, 'temp': 0.0, 'lipoC3S3': 11.4, 'state': 'normal', 'rot1': 62, 'rot0': 50, 'rot3': 77, 'rot2': 101, 'depth': 0.089, 'yaw': 127.63, 'datetime': '2018-12-12 13:30:44.372677', 'mgs': 0, 'flw2': 0.0, 'flw1': 1.88, 'flw0': 0.0, 'time': 22.75, 'compass': 4.68, 'pitch': 1.3, 'roll': 7.84}
{'lipoC2': 7.42, 'temp': 0.0, 'lipoC3S3': 11.69, 'state': 'normal', 'rot1': 62, 'rot0': 50, 'rot3': 78, 'rot2': 102, 'depth': 1.538, 'yaw': 127.69, 'datetime': '2018-12-12 13:30:44.583074', 'mgs': 0, 'flw2': 0.24, 'flw1': 3.19, 'flw0': 0.26, 'time': 22.96, 'compass': 4.75, 'pitch': 1.47, 'roll': 9.28}
{'lipoC2': 7.58, 'temp': 0.0, 'lipoC3S3': 11.39, 'state': 'normal', 'rot1': 63, 'rot0': 51, 'rot3': 78, 'rot2': 102, 'depth': 0.165, 'yaw': 126.98, 'datetime': '2018-12-12 13:30:44.793369', 'mgs': 0, 'flw2': 0.02, 'flw1': 2.4, 'flw0': 0.09, 'time': 23.17, 'compass': 4.03, 'pitch': 2.32, 'roll': 10.33}
{'lipoC2': 7.4, 'temp': 0.0, 'lipoC3S3': 11.46, 'state': 'normal', 'rot1': 63, 'rot0': 51, 'rot3': 79, 'rot2': 104, 'depth': -0.598, 'yaw': 126.36, 'datetime': '2018-12-12 13:30:45.004256', 'mgs': 0, 'flw2': 0.0, 'flw1': 2.4, 'flw0': 0.06, 'time': 23.38, 'compass': 3.42, 'pitch': 2.99, 'roll': 11.01}
{'lipoC2': 7.57, 'temp': 0.0, 'lipoC3S3': 11.25, 'state': 'normal', 'rot1': 63, 'rot0': 51, 'rot3': 80, 'rot2': 105, 'depth': 0.623, 'yaw': 125.82, 'datetime': '2018-12-12 13:30:45.215415', 'mgs': 0, 'flw2': 0.0, 'flw1': 2.14, 'flw0': 0.18, 'time': 23.59, 'compass': 2.88, 'pitch': 2.47, 'roll': 11.15}
{'lipoC2': 7.63, 'temp': 0.0, 'lipoC3S3': 11.26, 'state': 'normal', 'rot1': 63, 'rot0': 51, 'rot3': 81, 'rot2': 106, 'depth': 1.309, 'yaw': 125.27, 'datetime': '2018-12-12 13:30:45.429513', 'mgs': 0, 'flw2': 0.0, 'flw1': 1.99, 'flw0': 0.27, 'time': 23.8, 'compass': 2.33, 'pitch': 1.58, 'roll': 10.86}
{'lipoC2': 7.46, 'temp': 0.0, 'lipoC3S3': 11.48, 'state': 'normal', 'rot1': 63, 'rot0': 51, 'rot3': 82, 'rot2': 107, 'depth': -0.98, 'yaw': 124.8, 'datetime': '2018-12-12 13:30:45.635337', 'mgs': 0, 'flw2': 0.0, 'flw1': 2.2, 'flw0': 0.06, 'time': 24.01, 'compass': 1.86, 'pitch': 1.39, 'roll': 10.61}
{'lipoC2': 7.59, 'temp': 0.0, 'lipoC3S3': 11.4, 'state': 'normal', 'rot1': 63, 'rot0': 51, 'rot3': 83, 'rot2': 108, 'depth': 0.47, 'yaw': 124.38, 'datetime': '2018-12-12 13:30:45.849167', 'mgs': 0, 'flw2': 0.0, 'flw1': 2.26, 'flw0': 0.0, 'time': 24.22, 'compass': 1.43, 'pitch': 1.38, 'roll': 10.45}
{'lipoC2': 7.41, 'temp': 0.0, 'lipoC3S3': 11.72, 'state': 'normal', 'rot1': 63, 'rot0': 51, 'rot3': 83, 'rot2': 109, 'depth': 1.233, 'yaw': 123.91, 'datetime': '2018-12-12 13:30:46.058715', 'mgs': 0, 'flw2': 0.0, 'flw1': 2.61, 'flw0': 0.0, 'time': 24.43, 'compass': 0.96, 'pitch': 1.0, 'roll': 10.48}
{'lipoC2': 7.38, 'temp': 0.0, 'lipoC3S3': 11.42, 'state': 'normal', 'rot1': 63, 'rot0': 51, 'rot3': 84, 'rot2': 110, 'depth': -0.522, 'yaw': 123.34, 'datetime': '2018-12-12 13:30:46.270865', 'mgs': 0, 'flw2': 0.0, 'flw1': 3.16, 'flw0': 0.0, 'time': 24.64, 'compass': 0.4, 'pitch': 0.33, 'roll': 10.5}
{'lipoC2': 7.62, 'temp': 0.0, 'lipoC3S3': 11.18, 'state': 'normal', 'rot1': 63, 'rot0': 51, 'rot3': 85, 'rot2': 111, 'depth': -1.666, 'yaw': 122.78, 'datetime': '2018-12-12 13:30:46.481122', 'mgs': 0, 'flw2': 0.0, 'flw1': 3.08, 'flw0': 0.0, 'time': 24.85, 'compass': -0.17, 'pitch': 0.07, 'roll': 10.49}
{'lipoC2': 7.63, 'temp': 0.0, 'lipoC3S3': 11.23, 'state': 'normal', 'rot1': 63, 'rot0': 51, 'rot3': 86, 'rot2': 112, 'depth': 1.691, 'yaw': 122.23, 'datetime': '2018-12-12 13:30:46.688975', 'mgs': 0, 'flw2': 0.0, 'flw1': 2.14, 'flw0': 0.13, 'time': 25.06, 'compass': -0.72, 'pitch': 0.52, 'roll': 10.5}
{'lipoC2': 7.51, 'temp': 0.0, 'lipoC3S3': 11.39, 'state': 'normal', 'rot1': 63, 'rot0': 51, 'rot3': 86, 'rot2': 113, 'depth': 0.012, 'yaw': 121.65, 'datetime': '2018-12-12 13:30:46.897246', 'mgs': 0, 'flw2': 0.23, 'flw1': 2.52, 'flw0': 0.0, 'time': 25.27, 'compass': -1.29, 'pitch': 0.6, 'roll': 10.5}
{'lipoC2': 7.46, 'temp': 0.0, 'lipoC3S3': 11.63, 'state': 'normal', 'rot1': 63, 'rot0': 51, 'rot3': 87, 'rot2': 114, 'depth': 1.462, 'yaw': 121.12, 'datetime': '2018-12-12 13:30:47.110536', 'mgs': 0, 'flw2': 0.0, 'flw1': 3.05, 'flw0': 0.0, 'time': 25.48, 'compass': -1.82, 'pitch': 0.13, 'roll': 10.65}
{'lipoC2': 7.52, 'temp': 0.0, 'lipoC3S3': 11.3, 'state': 'normal', 'rot1': 63, 'rot0': 51, 'rot3': 88, 'rot2': 115, 'depth': -1.819, 'yaw': 120.64, 'datetime': '2018-12-12 13:30:47.317849', 'mgs': 0, 'flw2': 0.0, 'flw1': 3.22, 'flw0': 0.0, 'time': 25.69, 'compass': -2.31, 'pitch': -0.19, 'roll': 10.99}
{'lipoC2': 7.66, 'temp': 0.0, 'lipoC3S3': 11.31, 'state': 'normal', 'rot1': 63, 'rot0': 51, 'rot3': 89, 'rot2': 116, 'depth': -1.208, 'yaw': 120.08, 'datetime': '2018-12-12 13:30:47.532176', 'mgs': 0, 'flw2': 0.0, 'flw1': 2.49, 'flw0': 0.18, 'time': 25.9, 'compass': -2.86, 'pitch': 0.03, 'roll': 11.23}
{'lipoC2': 7.51, 'temp': 0.0, 'lipoC3S3': 11.42, 'state': 'normal', 'rot1': 63, 'rot0': 51, 'rot3': 90, 'rot2': 117, 'depth': -0.98, 'yaw': 119.51, 'datetime': '2018-12-12 13:30:47.741084', 'mgs': 0, 'flw2': 0.17, 'flw1': 2.37, 'flw0': 0.0, 'time': 26.11, 'compass': -3.43, 'pitch': 0.54, 'roll': 11.34}
{'lipoC2': 7.36, 'temp': 0.0, 'lipoC3S3': 11.39, 'state': 'normal', 'rot1': 63, 'rot0': 51, 'rot3': 90, 'rot2': 118, 'depth': -0.674, 'yaw': 118.97, 'datetime': '2018-12-12 13:30:47.951115', 'mgs': 0, 'flw2': 0.0, 'flw1': 3.08, 'flw0': 0.0, 'time': 26.32, 'compass': -3.98, 'pitch': 0.82, 'roll': 11.74}
{'lipoC2': 7.38, 'temp': 0.0, 'lipoC3S3': 11.38, 'state': 'normal', 'rot1': 63, 'rot0': 51, 'rot3': 91, 'rot2': 119, 'depth': -0.598, 'yaw': 118.46, 'datetime': '2018-12-12 13:30:48.164046', 'mgs': 0, 'flw2': 0.0, 'flw1': 1.93, 'flw0': 0.28, 'time': 26.53, 'compass': -4.48, 'pitch': 1.1, 'roll': 12.5}
{'lipoC2': 7.43, 'temp': 0.0, 'lipoC3S3': 11.71, 'state': 'normal', 'rot1': 63, 'rot0': 51, 'rot3': 92, 'rot2': 120, 'depth': 1.462, 'yaw': 118.03, 'datetime': '2018-12-12 13:30:48.372910', 'mgs': 0, 'flw2': 0.0, 'flw1': 3.11, 'flw0': 0.0, 'time': 26.74, 'compass': -4.92, 'pitch': 0.58, 'roll': 12.9}
{'lipoC2': 7.42, 'temp': 0.0, 'lipoC3S3': 11.71, 'state': 'normal', 'rot1': 63, 'rot0': 51, 'rot3': 93, 'rot2': 121, 'depth': 1.614, 'yaw': 117.62, 'datetime': '2018-12-12 13:30:48.583715', 'mgs': 0, 'flw2': 0.0, 'flw1': 3.22, 'flw0': 0.0, 'time': 26.95, 'compass': -5.33, 'pitch': -6.15, 'roll': 11.96}
{'lipoC2': 7.46, 'temp': 0.0, 'lipoC3S3': 11.61, 'state': 'normal', 'rot1': 63, 'rot0': 51, 'rot3': 94, 'rot2': 122, 'depth': 1.157, 'yaw': 117.74, 'datetime': '2018-12-12 13:30:48.790824', 'mgs': 0, 'flw2': 0.0, 'flw1': 3.54, 'flw0': 0.0, 'time': 27.16, 'compass': -5.2, 'pitch': -17.67, 'roll': 11.33}
{'lipoC2': 7.37, 'temp': 0.0, 'lipoC3S3': 11.38, 'state': 'normal', 'rot1': 63, 'rot0': 51, 'rot3': 94, 'rot2': 123, 'depth': -1.59, 'yaw': 118.44, 'datetime': '2018-12-12 13:30:49.000439', 'mgs': 0, 'flw2': 0.0, 'flw1': 2.31, 'flw0': 0.26, 'time': 27.37, 'compass': -4.5, 'pitch': -25.91, 'roll': 11.48}
{'lipoC2': 7.44, 'temp': 0.0, 'lipoC3S3': 11.52, 'state': 'normal', 'rot1': 63, 'rot0': 51, 'rot3': 95, 'rot2': 124, 'depth': -0.903, 'yaw': 119.51, 'datetime': '2018-12-12 13:30:49.212300', 'mgs': 0, 'flw2': 0.0, 'flw1': 2.29, 'flw0': 0.21, 'time': 27.58, 'compass': -3.43, 'pitch': -27.1, 'roll': 12.16}
{'lipoC2': 7.42, 'temp': 0.0, 'lipoC3S3': 11.69, 'state': 'normal', 'rot1': 63, 'rot0': 51, 'rot3': 96, 'rot2': 125, 'depth': 1.538, 'yaw': 120.89, 'datetime': '2018-12-12 13:30:49.421813', 'mgs': 0, 'flw2': 0.0, 'flw1': 3.37, 'flw0': 0.0, 'time': 27.79, 'compass': -2.05, 'pitch': -21.54, 'roll': 12.17}
{'lipoC2': 7.58, 'temp': 0.0, 'lipoC3S3': 11.26, 'state': 'normal', 'rot1': 63, 'rot0': 51, 'rot3': 96, 'rot2': 126, 'depth': -1.666, 'yaw': 122.04, 'datetime': '2018-12-12 13:30:49.633561', 'mgs': 0, 'flw2': 0.0, 'flw1': 2.2, 'flw0': 0.15, 'time': 28.0, 'compass': -0.91, 'pitch': -10.9, 'roll': 11.16}
{'lipoC2': 7.67, 'temp': 0.0, 'lipoC3S3': 11.43, 'state': 'normal', 'rot1': 63, 'rot0': 51, 'rot3': 97, 'rot2': 127, 'depth': -0.446, 'yaw': 122.37, 'datetime': '2018-12-12 13:30:49.845705', 'mgs': 0, 'flw2': 0.0, 'flw1': 3.28, 'flw0': 0.0, 'time': 28.21, 'compass': -0.58, 'pitch': 4.5, 'roll': 9.52}
{'lipoC2': 7.44, 'temp': 0.0, 'lipoC3S3': 11.56, 'state': 'normal', 'rot1': 63, 'rot0': 51, 'rot3': 98, 'rot2': 128, 'depth': 2.377, 'yaw': 121.87, 'datetime': '2018-12-12 13:30:50.053929', 'mgs': 0, 'flw2': 0.0, 'flw1': 3.28, 'flw0': 0.0, 'time': 28.42, 'compass': -1.08, 'pitch': 19.58, 'roll': 8.26}
{'lipoC2': 7.38, 'temp': 0.0, 'lipoC3S3': 11.54, 'state': 'normal', 'rot1': 63, 'rot0': 51, 'rot3': 99, 'rot2': 129, 'depth': 0.089, 'yaw': 120.96, 'datetime': '2018-12-12 13:30:50.264638', 'mgs': 0, 'flw2': 0.0, 'flw1': 2.58, 'flw0': 0.0, 'time': 28.63, 'compass': -1.98, 'pitch': 27.32, 'roll': 7.27}
{'lipoC2': 7.44, 'temp': 0.0, 'lipoC3S3': 11.54, 'state': 'normal', 'rot1': 63, 'rot0': 51, 'rot3': 100, 'rot2': 130, 'depth': 0.47, 'yaw': 120.77, 'datetime': '2018-12-12 13:30:50.475184', 'mgs': 0, 'flw2': 0.0, 'flw1': 3.31, 'flw0': 0.0, 'time': 28.84, 'compass': -2.18, 'pitch': 25.69, 'roll': 7.63}
{'lipoC2': 7.47, 'temp': 0.0, 'lipoC3S3': 11.42, 'state': 'normal', 'rot1': 63, 'rot0': 51, 'rot3': 101, 'rot2': 131, 'depth': 0.241, 'yaw': 120.77, 'datetime': '2018-12-12 13:30:50.684814', 'mgs': 0, 'flw2': 0.18, 'flw1': 2.58, 'flw0': 0.0, 'time': 29.05, 'compass': -2.18, 'pitch': 20.38, 'roll': 8.45}
{'lipoC2': 7.43, 'temp': 0.0, 'lipoC3S3': 11.29, 'state': 'normal', 'rot1': 63, 'rot0': 51, 'rot3': 101, 'rot2': 132, 'depth': 0.089, 'yaw': 120.85, 'datetime': '2018-12-12 13:30:50.895870', 'mgs': 0, 'flw2': 0.0, 'flw1': 2.43, 'flw0': 0.18, 'time': 29.26, 'compass': -2.09, 'pitch': 13.46, 'roll': 9.51}
{'lipoC2': 7.42, 'temp': 0.0, 'lipoC3S3': 11.59, 'state': 'normal', 'rot1': 63, 'rot0': 51, 'rot3': 102, 'rot2': 133, 'depth': 2.377, 'yaw': 120.78, 'datetime': '2018-12-12 13:30:51.103322', 'mgs': 0, 'flw2': 0.31, 'flw1': 2.58, 'flw0': 0.0, 'time': 29.47, 'compass': -2.17, 'pitch': 5.23, 'roll': 10.5}
{'lipoC2': 7.67, 'temp': 0.0, 'lipoC3S3': 11.31, 'state': 'normal', 'rot1': 63, 'rot0': 51, 'rot3': 103, 'rot2': 134, 'depth': 1.691, 'yaw': 120.58, 'datetime': '2018-12-12 13:30:51.311874', 'mgs': 0, 'flw2': 0.0, 'flw1': 2.23, 'flw0': 0.29, 'time': 29.68, 'compass': -2.36, 'pitch': -2.89, 'roll': 11.16}
{'lipoC2': 7.47, 'temp': 0.0, 'lipoC3S3': 11.39, 'state': 'normal', 'rot1': 63, 'rot0': 51, 'rot3': 104, 'rot2': 135, 'depth': -1.056, 'yaw': 120.41, 'datetime': '2018-12-12 13:30:51.521845', 'mgs': 0, 'flw2': 0.29, 'flw1': 2.34, 'flw0': 0.0, 'time': 29.89, 'compass': -2.53, 'pitch': -8.84, 'roll': 11.32}
{'lipoC2': 7.4, 'temp': 0.0, 'lipoC3S3': 11.72, 'state': 'normal', 'rot1': 63, 'rot0': 51, 'rot3': 104, 'rot2': 136, 'depth': -1.056, 'yaw': 120.4, 'datetime': '2018-12-12 13:30:51.733137', 'mgs': 0, 'flw2': 0.01, 'flw1': 2.46, 'flw0': 0.01, 'time': 30.1, 'compass': -2.55, 'pitch': -11.95, 'roll': 11.32}
{'lipoC2': 7.4, 'temp': 0.0, 'lipoC3S3': 11.63, 'state': 'normal', 'rot1': 63, 'rot0': 51, 'rot3': 105, 'rot2': 137, 'depth': 0.775, 'yaw': 120.4, 'datetime': '2018-12-12 13:30:51.950780', 'mgs': 0, 'flw2': 0.0, 'flw1': 2.14, 'flw0': 0.0, 'time': 30.31, 'compass': -2.55, 'pitch': -12.31, 'roll': 11.32}
{'lipoC2': 7.44, 'temp': 0.0, 'lipoC3S3': 11.36, 'state': 'normal', 'rot1': 63, 'rot0': 51, 'rot3': 106, 'rot2': 138, 'depth': -1.208, 'yaw': 120.44, 'datetime': '2018-12-12 13:30:52.161792', 'mgs': 0, 'flw2': 0.0, 'flw1': 2.7, 'flw0': 0.0, 'time': 30.52, 'compass': -2.5, 'pitch': -10.34, 'roll': 11.12}
{'lipoC2': 7.36, 'temp': 0.0, 'lipoC3S3': 11.38, 'state': 'normal', 'rot1': 63, 'rot0': 51, 'rot3': 107, 'rot2': 139, 'depth': -0.751, 'yaw': 120.49, 'datetime': '2018-12-12 13:30:52.371022', 'mgs': 0, 'flw2': 0.0, 'flw1': 2.31, 'flw0': 0.0, 'time': 30.73, 'compass': -2.46, 'pitch': -7.29, 'roll': 10.84}
{'lipoC2': 7.39, 'temp': 0.0, 'lipoC3S3': 11.42, 'state': 'normal', 'rot1': 63, 'rot0': 51, 'rot3': 107, 'rot2': 140, 'depth': -0.903, 'yaw': 120.52, 'datetime': '2018-12-12 13:30:52.581877', 'mgs': 0, 'flw2': 0.0, 'flw1': 3.28, 'flw0': 0.0, 'time': 30.94, 'compass': -2.43, 'pitch': -3.97, 'roll': 10.79}
{'lipoC2': 7.61, 'temp': 0.0, 'lipoC3S3': 11.22, 'state': 'normal', 'rot1': 63, 'rot0': 51, 'rot3': 108, 'rot2': 141, 'depth': -1.819, 'yaw': 120.51, 'datetime': '2018-12-12 13:30:52.792535', 'mgs': 0, 'flw2': 0.0, 'flw1': 2.17, 'flw0': 0.28, 'time': 31.15, 'compass': -2.43, 'pitch': -0.76, 'roll': 11.05}
{'lipoC2': 7.58, 'temp': 0.0, 'lipoC3S3': 11.25, 'state': 'normal', 'rot1': 63, 'rot0': 51, 'rot3': 109, 'rot2': 142, 'depth': -1.666, 'yaw': 120.5, 'datetime': '2018-12-12 13:30:53.003448', 'mgs': 0, 'flw2': 0.0, 'flw1': 2.14, 'flw0': 0.22, 'time': 31.36, 'compass': -2.44, 'pitch': 1.94, 'roll': 11.06}
{'lipoC2': 7.41, 'temp': 0.0, 'lipoC3S3': 11.63, 'state': 'normal', 'rot1': 63, 'rot0': 51, 'rot3': 110, 'rot2': 143, 'depth': 1.157, 'yaw': 120.5, 'datetime': '2018-12-12 13:30:53.211962', 'mgs': 0, 'flw2': 0.0, 'flw1': 1.99, 'flw0': 0.0, 'time': 31.57, 'compass': -2.45, 'pitch': 3.61, 'roll': 10.93}
{'lipoC2': 7.38, 'temp': 0.0, 'lipoC3S3': 11.38, 'state': 'normal', 'rot1': 63, 'rot0': 51, 'rot3': 111, 'rot2': 144, 'depth': -1.208, 'yaw': 120.53, 'datetime': '2018-12-12 13:30:53.424508', 'mgs': 0, 'flw2': 0.0, 'flw1': 2.14, 'flw0': 0.21, 'time': 31.78, 'compass': -2.41, 'pitch': 3.46, 'roll': 11.63}
{'lipoC2': 7.53, 'temp': 0.0, 'lipoC3S3': 11.38, 'state': 'normal', 'rot1': 63, 'rot0': 51, 'rot3': 111, 'rot2': 145, 'depth': -0.903, 'yaw': 120.46, 'datetime': '2018-12-12 13:30:53.635585', 'mgs': 0, 'flw2': 0.17, 'flw1': 2.34, 'flw0': 0.0, 'time': 31.99, 'compass': -2.49, 'pitch': 2.49, 'roll': 12.86}
{'lipoC2': 7.66, 'temp': 0.0, 'lipoC3S3': 11.29, 'state': 'normal', 'rot1': 63, 'rot0': 51, 'rot3': 112, 'rot2': 146, 'depth': -1.285, 'yaw': 120.17, 'datetime': '2018-12-12 13:30:53.842012', 'mgs': 0, 'flw2': 0.0, 'flw1': 2.17, 'flw0': 0.0, 'time': 32.2, 'compass': -2.78, 'pitch': 1.91, 'roll': 13.47}
{'lipoC2': 7.43, 'temp': 0.0, 'lipoC3S3': 11.54, 'state': 'normal', 'rot1': 63, 'rot0': 51, 'rot3': 113, 'rot2': 147, 'depth': -0.751, 'yaw': 120.38, 'datetime': '2018-12-12 13:30:54.056140', 'mgs': 0, 'flw2': 0.0, 'flw1': 2.02, 'flw0': 0.0, 'time': 32.41, 'compass': -2.56, 'pitch': 0.54, 'roll': 13.52}
{'lipoC2': 7.46, 'temp': 0.0, 'lipoC3S3': 11.64, 'state': 'normal', 'rot1': 63, 'rot0': 51, 'rot3': 114, 'rot2': 148, 'depth': 1.157, 'yaw': 122.2, 'datetime': '2018-12-12 13:30:54.265459', 'mgs': 0, 'flw2': 0.0, 'flw1': 2.93, 'flw0': 0.0, 'time': 32.62, 'compass': -0.75, 'pitch': -3.53, 'roll': 14.13}
{'lipoC2': 7.61, 'temp': 0.0, 'lipoC3S3': 11.32, 'state': 'normal', 'rot1': 63, 'rot0': 51, 'rot3': 114, 'rot2': 149, 'depth': -2.2, 'yaw': 125.07, 'datetime': '2018-12-12 13:30:54.476692', 'mgs': 0, 'flw2': 0.05, 'flw1': 2.58, 'flw0': 0.0, 'time': 32.83, 'compass': 2.12, 'pitch': -8.52, 'roll': 15.57}
{'lipoC2': 7.55, 'temp': 0.0, 'lipoC3S3': 11.29, 'state': 'normal', 'rot1': 63, 'rot0': 51, 'rot3': 115, 'rot2': 150, 'depth': 0.012, 'yaw': 127.7, 'datetime': '2018-12-12 13:30:54.686759', 'mgs': 0, 'flw2': 0.0, 'flw1': 2.61, 'flw0': 0.06, 'time': 33.04, 'compass': 4.76, 'pitch': -10.86, 'roll': 16.73}
{'lipoC2': 7.44, 'temp': 0.0, 'lipoC3S3': 11.56, 'state': 'normal', 'rot1': 64, 'rot0': 51, 'rot3': 116, 'rot2': 151, 'depth': 1.08, 'yaw': 130.24, 'datetime': '2018-12-12 13:30:54.896953', 'mgs': 0, 'flw2': 0.29, 'flw1': 2.37, 'flw0': 0.63, 'time': 33.25, 'compass': 7.29, 'pitch': -10.13, 'roll': 17.0}
{'lipoC2': 7.65, 'temp': 0.0, 'lipoC3S3': 11.27, 'state': 'normal', 'rot1': 64, 'rot0': 52, 'rot3': 117, 'rot2': 152, 'depth': -1.59, 'yaw': 132.07, 'datetime': '2018-12-12 13:30:55.108255', 'mgs': 0, 'flw2': 0.28, 'flw1': 2.52, 'flw0': 0.57, 'time': 33.46, 'compass': 9.12, 'pitch': -7.12, 'roll': 16.25}
{'lipoC2': 7.39, 'temp': 0.0, 'lipoC3S3': 11.46, 'state': 'normal', 'rot1': 66, 'rot0': 53, 'rot3': 117, 'rot2': 153, 'depth': -0.903, 'yaw': 132.76, 'datetime': '2018-12-12 13:30:55.319306', 'mgs': 0, 'flw2': 0.09, 'flw1': 3.02, 'flw0': 0.27, 'time': 33.67, 'compass': 9.81, 'pitch': -8.55, 'roll': 14.89}
{'lipoC2': 7.63, 'temp': 0.0, 'lipoC3S3': 11.36, 'state': 'normal', 'rot1': 67, 'rot0': 54, 'rot3': 118, 'rot2': 154, 'depth': -1.132, 'yaw': 132.4, 'datetime': '2018-12-12 13:30:55.532088', 'mgs': 0, 'flw2': 0.42, 'flw1': 2.46, 'flw0': 0.33, 'time': 33.88, 'compass': 9.46, 'pitch': -16.66, 'roll': 12.35}
{'lipoC2': 7.46, 'temp': 0.0, 'lipoC3S3': 11.44, 'state': 'normal', 'rot1': 68, 'rot0': 55, 'rot3': 119, 'rot2': 155, 'depth': -0.903, 'yaw': 131.59, 'datetime': '2018-12-12 13:30:55.741337', 'mgs': 0, 'flw2': 0.27, 'flw1': 2.87, 'flw0': 0.37, 'time': 34.09, 'compass': 8.64, 'pitch': -25.23, 'roll': 11.83}
{'lipoC2': 7.61, 'temp': 0.0, 'lipoC3S3': 11.4, 'state': 'normal', 'rot1': 69, 'rot0': 56, 'rot3': 120, 'rot2': 156, 'depth': -1.132, 'yaw': 130.61, 'datetime': '2018-12-12 13:30:55.951808', 'mgs': 0, 'flw2': 0.17, 'flw1': 3.34, 'flw0': 0.24, 'time': 34.3, 'compass': 7.67, 'pitch': -30.28, 'roll': 12.12}
{'lipoC2': 7.56, 'temp': 0.0, 'lipoC3S3': 11.4, 'state': 'normal', 'rot1': 70, 'rot0': 57, 'rot3': 120, 'rot2': 157, 'depth': -0.827, 'yaw': 130.01, 'datetime': '2018-12-12 13:30:56.161939', 'mgs': 0, 'flw2': 0.27, 'flw1': 2.67, 'flw0': 0.29, 'time': 34.51, 'compass': 7.06, 'pitch': -32.27, 'roll': 11.33}
{'lipoC2': 7.51, 'temp': 0.0, 'lipoC3S3': 11.25, 'state': 'normal', 'rot1': 72, 'rot0': 58, 'rot3': 121, 'rot2': 158, 'depth': -0.446, 'yaw': 129.09, 'datetime': '2018-12-12 13:30:56.373062', 'mgs': 0, 'flw2': 0.18, 'flw1': 2.05, 'flw0': 0.61, 'time': 34.72, 'compass': 6.14, 'pitch': -29.79, 'roll': 10.48}
{'lipoC2': 7.39, 'temp': 0.0, 'lipoC3S3': 11.4, 'state': 'normal', 'rot1': 73, 'rot0': 59, 'rot3': 122, 'rot2': 159, 'depth': -0.751, 'yaw': 127.77, 'datetime': '2018-12-12 13:30:56.584778', 'mgs': 0, 'flw2': 0.31, 'flw1': 2.31, 'flw0': 0.54, 'time': 34.93, 'compass': 4.82, 'pitch': -22.7, 'roll': 10.17}
{'lipoC2': 7.62, 'temp': 0.0, 'lipoC3S3': 11.4, 'state': 'normal', 'rot1': 74, 'rot0': 59, 'rot3': 123, 'rot2': 160, 'depth': -1.361, 'yaw': 126.06, 'datetime': '2018-12-12 13:30:56.794219', 'mgs': 0, 'flw2': 0.0, 'flw1': 2.14, 'flw0': 0.27, 'time': 35.14, 'compass': 3.11, 'pitch': -11.57, 'roll': 11.27}
{'lipoC2': 7.41, 'temp': 0.0, 'lipoC3S3': 11.64, 'state': 'normal', 'rot1': 74, 'rot0': 59, 'rot3': 123, 'rot2': 161, 'depth': 1.385, 'yaw': 125.4, 'datetime': '2018-12-12 13:30:57.004490', 'mgs': 0, 'flw2': 0.0, 'flw1': 2.17, 'flw0': 0.0, 'time': 35.35, 'compass': 2.45, 'pitch': 5.51, 'roll': 14.79}
{'lipoC2': 7.41, 'temp': 0.0, 'lipoC3S3': 11.71, 'state': 'normal', 'rot1': 74, 'rot0': 59, 'rot3': 124, 'rot2': 162, 'depth': 2.606, 'yaw': 125.38, 'datetime': '2018-12-12 13:30:57.214134', 'mgs': 0, 'flw2': 0.0, 'flw1': 2.2, 'flw0': 0.0, 'time': 35.56, 'compass': 2.43, 'pitch': 22.6, 'roll': 16.71}
{'lipoC2': 7.41, 'temp': 0.0, 'lipoC3S3': 11.68, 'state': 'normal', 'rot1': 74, 'rot0': 59, 'rot3': 125, 'rot2': 163, 'depth': 2.454, 'yaw': 124.25, 'datetime': '2018-12-12 13:30:57.424420', 'mgs': 0, 'flw2': 0.0, 'flw1': 3.02, 'flw0': 0.0, 'time': 35.77, 'compass': 1.3, 'pitch': 32.79, 'roll': 16.78}
{'lipoC2': 7.41, 'temp': 0.0, 'lipoC3S3': 11.61, 'state': 'normal', 'rot1': 74, 'rot0': 59, 'rot3': 126, 'rot2': 164, 'depth': 0.317, 'yaw': 122.5, 'datetime': '2018-12-12 13:30:57.636552', 'mgs': 0, 'flw2': 0.0, 'flw1': 2.17, 'flw0': 0.0, 'time': 35.98, 'compass': -0.45, 'pitch': 32.65, 'roll': 16.66}
{'lipoC2': 7.41, 'temp': 0.0, 'lipoC3S3': 11.68, 'state': 'normal', 'rot1': 74, 'rot0': 59, 'rot3': 127, 'rot2': 165, 'depth': 0.012, 'yaw': 120.76, 'datetime': '2018-12-12 13:30:57.847274', 'mgs': 0, 'flw2': 0.11, 'flw1': 2.61, 'flw0': 0.0, 'time': 36.19, 'compass': -2.18, 'pitch': 27.02, 'roll': 16.27}
{'lipoC2': 7.41, 'temp': 0.0, 'lipoC3S3': 11.72, 'state': 'normal', 'rot1': 74, 'rot0': 59, 'rot3': 128, 'rot2': 166, 'depth': -0.064, 'yaw': 119.23, 'datetime': '2018-12-12 13:30:58.057607', 'mgs': 0, 'flw2': 0.0, 'flw1': 2.81, 'flw0': 0.0, 'time': 36.4, 'compass': -3.72, 'pitch': 18.54, 'roll': 15.32}
{'lipoC2': 7.66, 'temp': 0.0, 'lipoC3S3': 11.27, 'state': 'normal', 'rot1': 74, 'rot0': 59, 'rot3': 128, 'rot2': 167, 'depth': -0.293, 'yaw': 118.07, 'datetime': '2018-12-12 13:30:58.266722', 'mgs': 0, 'flw2': 0.0, 'flw1': 2.2, 'flw0': 0.29, 'time': 36.61, 'compass': -4.88, 'pitch': 8.46, 'roll': 14.01}
{'lipoC2': 7.43, 'temp': 0.0, 'lipoC3S3': 11.34, 'state': 'normal', 'rot1': 74, 'rot0': 59, 'rot3': 129, 'rot2': 168, 'depth': -0.674, 'yaw': 117.38, 'datetime': '2018-12-12 13:30:58.476801', 'mgs': 0, 'flw2': 0.2, 'flw1': 2.49, 'flw0': 0.0, 'time': 36.82, 'compass': -5.56, 'pitch': -0.78, 'roll': 13.04}
{'lipoC2': 7.48, 'temp': 0.0, 'lipoC3S3': 11.35, 'state': 'normal', 'rot1': 74, 'rot0': 59, 'rot3': 130, 'rot2': 169, 'depth': -0.369, 'yaw': 117.1, 'datetime': '2018-12-12 13:30:58.690130', 'mgs': 0, 'flw2': 0.05, 'flw1': 2.58, 'flw0': 0.0, 'time': 37.03, 'compass': -5.85, 'pitch': -8.41, 'roll': 12.65}
{'lipoC2': 7.36, 'temp': 0.0, 'lipoC3S3': 11.36, 'state': 'normal', 'rot1': 74, 'rot0': 59, 'rot3': 131, 'rot2': 170, 'depth': -0.751, 'yaw': 117.29, 'datetime': '2018-12-12 13:30:58.898469', 'mgs': 0, 'flw2': 0.0, 'flw1': 3.31, 'flw0': 0.0, 'time': 37.24, 'compass': -5.66, 'pitch': -12.66, 'roll': 11.19}
{'lipoC2': 7.65, 'temp': 0.0, 'lipoC3S3': 11.32, 'state': 'normal', 'rot1': 74, 'rot0': 59, 'rot3': 132, 'rot2': 171, 'depth': -0.98, 'yaw': 117.87, 'datetime': '2018-12-12 13:30:59.106965', 'mgs': 0, 'flw2': 0.0, 'flw1': 2.26, 'flw0': 0.0, 'time': 37.46, 'compass': -5.07, 'pitch': -10.44, 'roll': 6.16}
{'lipoC2': 7.41, 'temp': 0.0, 'lipoC3S3': 11.58, 'state': 'normal', 'rot1': 74, 'rot0': 59, 'rot3': 132, 'rot2': 172, 'depth': 1.004, 'yaw': 118.52, 'datetime': '2018-12-12 13:30:59.317223', 'mgs': 0, 'flw2': 0.0, 'flw1': 2.93, 'flw0': 0.0, 'time': 37.67, 'compass': -4.42, 'pitch': -1.48, 'roll': -3.94}
{'lipoC2': 7.41, 'temp': 0.0, 'lipoC3S3': 11.6, 'state': 'normal', 'rot1': 74, 'rot0': 59, 'rot3': 133, 'rot2': 173, 'depth': 1.538, 'yaw': 118.87, 'datetime': '2018-12-12 13:30:59.527483', 'mgs': 0, 'flw2': 0.0, 'flw1': 1.76, 'flw0': 0.0, 'time': 37.88, 'compass': -4.08, 'pitch': 8.48, 'roll': -14.79}
{'lipoC2': 7.41, 'temp': 0.0, 'lipoC3S3': 11.73, 'state': 'normal', 'rot1': 74, 'rot0': 59, 'rot3': 134, 'rot2': 174, 'depth': 2.301, 'yaw': 119.86, 'datetime': '2018-12-12 13:30:59.740727', 'mgs': 0, 'flw2': 0.0, 'flw1': 2.17, 'flw0': 0.0, 'time': 38.09, 'compass': -3.08, 'pitch': 13.54, 'roll': -19.01}
{'lipoC2': 7.37, 'temp': 0.0, 'lipoC3S3': 11.38, 'state': 'normal', 'rot1': 74, 'rot0': 59, 'rot3': 135, 'rot2': 175, 'depth': -0.293, 'yaw': 122.14, 'datetime': '2018-12-12 13:30:59.953565', 'mgs': 0, 'flw2': 0.0, 'flw1': 2.31, 'flw0': 0.0, 'time': 38.3, 'compass': -0.8, 'pitch': 13.77, 'roll': -14.93}
{'lipoC2': 7.51, 'temp': 0.0, 'lipoC3S3': 11.38, 'state': 'normal', 'rot1': 74, 'rot0': 59, 'rot3': 136, 'rot2': 177, 'depth': -1.056, 'yaw': 120.07, 'datetime': '2018-12-12 13:31:00.264568', 'mgs': 0, 'flw2': 0.0, 'flw1': 3.4, 'flw0': 0.0, 'time': 38.61, 'compass': -2.87, 'pitch': 10.22, 'roll': 6.19}
{'lipoC2': 7.66, 'temp': 0.0, 'lipoC3S3': 11.31, 'state': 'normal', 'rot1': 74, 'rot0': 59, 'rot3': 137, 'rot2': 177, 'depth': -0.522, 'yaw': 113.72, 'datetime': '2018-12-12 13:31:00.475123', 'mgs': 0, 'flw2': 0.0, 'flw1': 2.46, 'flw0': 0.26, 'time': 38.82, 'compass': -9.23, 'pitch': 3.18, 'roll': 21.78}
{'lipoC2': 7.57, 'temp': 0.0, 'lipoC3S3': 11.42, 'state': 'normal', 'rot1': 74, 'rot0': 60, 'rot3': 138, 'rot2': 179, 'depth': -0.522, 'yaw': 103.6, 'datetime': '2018-12-12 13:31:00.688621', 'mgs': 0, 'flw2': 0.61, 'flw1': 2.2, 'flw0': 0.15, 'time': 39.03, 'compass': -19.35, 'pitch': -8.08, 'roll': 32.71}
{'lipoC2': 7.58, 'temp': 0.0, 'lipoC3S3': 11.21, 'state': 'normal', 'rot1': 75, 'rot0': 61, 'rot3': 138, 'rot2': 180, 'depth': 0.165, 'yaw': 90.33, 'datetime': '2018-12-12 13:31:00.897874', 'mgs': 0, 'flw2': 0.24, 'flw1': 1.96, 'flw0': 0.61, 'time': 39.24, 'compass': -32.62, 'pitch': -22.96, 'roll': 39.63}
{'lipoC2': 7.38, 'temp': 0.0, 'lipoC3S3': 11.36, 'state': 'normal', 'rot1': 76, 'rot0': 62, 'rot3': 139, 'rot2': 181, 'depth': -1.132, 'yaw': 82.38, 'datetime': '2018-12-12 13:31:01.109118', 'mgs': 0, 'flw2': 0.43, 'flw1': 2.49, 'flw0': 0.37, 'time': 39.45, 'compass': -40.56, 'pitch': -30.24, 'roll': 38.49}
{'lipoC2': 7.56, 'temp': 0.0, 'lipoC3S3': 11.36, 'state': 'normal', 'rot1': 78, 'rot0': 63, 'rot3': 140, 'rot2': 182, 'depth': -0.827, 'yaw': 80.89, 'datetime': '2018-12-12 13:31:01.318975', 'mgs': 0, 'flw2': 0.82, 'flw1': 2.11, 'flw0': 0.28, 'time': 39.66, 'compass': -42.06, 'pitch': -30.85, 'roll': 33.33}
{'lipoC2': 7.53, 'temp': 0.0, 'lipoC3S3': 11.15, 'state': 'normal', 'rot1': 79, 'rot0': 64, 'rot3': 141, 'rot2': 183, 'depth': -1.132, 'yaw': 82.77, 'datetime': '2018-12-12 13:31:01.529816', 'mgs': 0, 'flw2': 0.52, 'flw1': 2.37, 'flw0': 0.82, 'time': 39.87, 'compass': -40.18, 'pitch': -27.18, 'roll': 26.93}
{'lipoC2': 7.38, 'temp': 0.0, 'lipoC3S3': 11.35, 'state': 'normal', 'rot1': 81, 'rot0': 65, 'rot3': 142, 'rot2': 184, 'depth': -0.903, 'yaw': 85.54, 'datetime': '2018-12-12 13:31:01.738668', 'mgs': 0, 'flw2': 0.39, 'flw1': 2.9, 'flw0': 0.39, 'time': 40.08, 'compass': -37.41, 'pitch': -20.92, 'roll': 20.68}
{'lipoC2': 7.41, 'temp': 0.0, 'lipoC3S3': 11.71, 'state': 'normal', 'rot1': 82, 'rot0': 66, 'rot3': 143, 'rot2': 185, 'depth': -0.369, 'yaw': 88.27, 'datetime': '2018-12-12 13:31:01.950060', 'mgs': 0, 'flw2': 0.21, 'flw1': 3.22, 'flw0': 0.22, 'time': 40.29, 'compass': -34.67, 'pitch': -13.74, 'roll': 15.14}
{'lipoC2': 7.43, 'temp': 0.0, 'lipoC3S3': 11.69, 'state': 'normal', 'rot1': 83, 'rot0': 67, 'rot3': 143, 'rot2': 186, 'depth': 0.165, 'yaw': 90.82, 'datetime': '2018-12-12 13:31:02.157564', 'mgs': 0, 'flw2': 0.06, 'flw1': 3.34, 'flw0': 0.22, 'time': 40.51, 'compass': -32.13, 'pitch': -7.21, 'roll': 10.6}
{'lipoC2': 7.43, 'temp': 0.0, 'lipoC3S3': 11.65, 'state': 'normal', 'rot1': 85, 'rot0': 68, 'rot3': 144, 'rot2': 187, 'depth': -0.064, 'yaw': 93.16, 'datetime': '2018-12-12 13:31:02.367475', 'mgs': 0, 'flw2': 0.18, 'flw1': 1.99, 'flw0': 0.65, 'time': 40.72, 'compass': -29.79, 'pitch': -2.37, 'roll': 7.56}
{'lipoC2': 7.67, 'temp': 0.0, 'lipoC3S3': 11.22, 'state': 'normal', 'rot1': 87, 'rot0': 70, 'rot3': 145, 'rot2': 188, 'depth': 2.759, 'yaw': 95.5, 'datetime': '2018-12-12 13:31:02.576065', 'mgs': 0, 'flw2': 0.2, 'flw1': 2.99, 'flw0': 0.4, 'time': 40.93, 'compass': -27.44, 'pitch': 0.21, 'roll': 6.41}
{'lipoC2': 7.65, 'temp': 0.0, 'lipoC3S3': 11.31, 'state': 'normal', 'rot1': 89, 'rot0': 71, 'rot3': 146, 'rot2': 189, 'depth': -0.674, 'yaw': 98.0, 'datetime': '2018-12-12 13:31:02.794234', 'mgs': 0, 'flw2': 0.61, 'flw1': 2.34, 'flw0': 0.15, 'time': 41.14, 'compass': -24.95, 'pitch': 0.71, 'roll': 6.91}
{'lipoC2': 7.41, 'temp': 0.0, 'lipoC3S3': 11.67, 'state': 'normal', 'rot1': 90, 'rot0': 73, 'rot3': 147, 'rot2': 190, 'depth': 2.072, 'yaw': 100.64, 'datetime': '2018-12-12 13:31:02.998440', 'mgs': 0, 'flw2': 0.26, 'flw1': 3.05, 'flw0': 0.27, 'time': 41.35, 'compass': -22.31, 'pitch': -0.05, 'roll': 8.45}
{'lipoC2': 7.33, 'temp': 0.0, 'lipoC3S3': 11.34, 'state': 'normal', 'rot1': 91, 'rot0': 74, 'rot3': 147, 'rot2': 191, 'depth': -0.598, 'yaw': 103.29, 'datetime': '2018-12-12 13:31:03.208716', 'mgs': 0, 'flw2': 0.18, 'flw1': 2.43, 'flw0': 0.39, 'time': 41.56, 'compass': -19.65, 'pitch': -1.62, 'roll': 10.51}
{'lipoC2': 7.59, 'temp': 0.0, 'lipoC3S3': 11.23, 'state': 'normal', 'rot1': 94, 'rot0': 75, 'rot3': 148, 'rot2': 192, 'depth': 1.843, 'yaw': 105.94, 'datetime': '2018-12-12 13:31:03.419921', 'mgs': 0, 'flw2': 0.1, 'flw1': 3.49, 'flw0': 0.23, 'time': 41.77, 'compass': -17.01, 'pitch': -3.31, 'roll': 12.57}
{'lipoC2': 7.43, 'temp': 0.0, 'lipoC3S3': 11.36, 'state': 'normal', 'rot1': 95, 'rot0': 76, 'rot3': 149, 'rot2': 193, 'depth': -0.903, 'yaw': 108.68, 'datetime': '2018-12-12 13:31:03.636441', 'mgs': 0, 'flw2': 0.43, 'flw1': 2.37, 'flw0': 0.16, 'time': 41.98, 'compass': -14.26, 'pitch': -4.32, 'roll': 14.21}
{'lipoC2': 7.61, 'temp': 0.0, 'lipoC3S3': 11.38, 'state': 'normal', 'rot1': 97, 'rot0': 77, 'rot3': 150, 'rot2': 194, 'depth': 1.157, 'yaw': 111.63, 'datetime': '2018-12-12 13:31:03.846313', 'mgs': 0, 'flw2': 0.21, 'flw1': 2.11, 'flw0': 0.44, 'time': 42.19, 'compass': -11.32, 'pitch': -4.22, 'roll': 15.31}
{'lipoC2': 7.39, 'temp': 0.0, 'lipoC3S3': 11.4, 'state': 'normal', 'rot1': 98, 'rot0': 78, 'rot3': 150, 'rot2': 195, 'depth': -0.293, 'yaw': 114.78, 'datetime': '2018-12-12 13:31:04.058433', 'mgs': 0, 'flw2': 0.22, 'flw1': 2.2, 'flw0': 0.57, 'time': 42.4, 'compass': -8.16, 'pitch': -3.36, 'roll': 15.99}
{'lipoC2': 7.57, 'temp': 0.0, 'lipoC3S3': 11.22, 'state': 'normal', 'rot1': 99, 'rot0': 79, 'rot3': 151, 'rot2': 196, 'depth': -2.124, 'yaw': 118.07, 'datetime': '2018-12-12 13:31:04.264049', 'mgs': 0, 'flw2': 0.0, 'flw1': 2.02, 'flw0': 0.18, 'time': 42.61, 'compass': -4.87, 'pitch': -2.27, 'roll': 16.35}
{'lipoC2': 7.61, 'temp': 0.0, 'lipoC3S3': 11.4, 'state': 'normal', 'rot1': 99, 'rot0': 79, 'rot3': 152, 'rot2': 197, 'depth': 0.089, 'yaw': 121.03, 'datetime': '2018-12-12 13:31:04.473045', 'mgs': 0, 'flw2': 0.0, 'flw1': 2.43, 'flw0': 0.0, 'time': 42.82, 'compass': -1.92, 'pitch': -1.63, 'roll': 16.02}
