{'lipoC3S3': 0.0, 'datetime': '2019-02-27 10:41:23.580141', 'pitch': 174.91, 'rot1': 0, 'rot0': 0, 'rot3': 0, 'rot2': 0, 'state': 'normal', 'flw3': 0, 'flw2': 0, 'flw1': 0, 'flw0': 0, 'roll': -81.2, 'cur2': 0.0, 'cur0': 0.0, 'cur1': 0.0, 'mgs': 0, 'compass': 11.06, 'lipoC2': 0.0, 'temp': 25.54, 'thr3': 32.0, 'depth': 0.159, 'time': 1.39, 'thr2': 31.0, 'yaw': 0.0, 'thr0': 26.0, 'thr1': 26.0}
{'lipoC3S3': 0.0, 'datetime': '2019-02-27 10:41:23.899954', 'pitch': 174.91, 'rot1': 0, 'rot0': 0, 'rot3': 0, 'rot2': 0, 'state': 'normal', 'flw3': 0, 'flw2': 0, 'flw1': 0, 'flw0': 0, 'roll': -81.2, 'cur2': 0.0, 'cur0': 0.0, 'cur1': 0.0, 'mgs': 0, 'compass': 11.06, 'lipoC2': 0.0, 'temp': 25.48, 'thr3': 32.0, 'depth': 0.159, 'time': 1.71, 'thr2': 31.0, 'yaw': 0.0, 'thr0': 26.0, 'thr1': 26.0}
{'lipoC3S3': 0.0, 'datetime': '2019-02-27 10:41:24.215057', 'pitch': 174.91, 'rot1': 0, 'rot0': 0, 'rot3': 0, 'rot2': 0, 'state': 'normal', 'flw3': 0, 'flw2': 0, 'flw1': 0, 'flw0': 0, 'roll': -81.2, 'cur2': 0.0, 'cur0': 0.0, 'cur1': 0.0, 'mgs': 0, 'compass': 11.06, 'lipoC2': 0.0, 'temp': 25.49, 'thr3': 32.0, 'depth': 0.159, 'time': 2.03, 'thr2': 31.0, 'yaw': 0.0, 'thr0': 26.0, 'thr1': 26.0}
{'lipoC3S3': 0.0, 'datetime': '2019-02-27 10:41:24.536842', 'pitch': 174.91, 'rot1': 0, 'rot0': 0, 'rot3': 0, 'rot2': 0, 'state': 'normal', 'flw3': 0, 'flw2': 0, 'flw1': 0, 'flw0': 0, 'roll': -81.2, 'cur2': 0.18, 'cur0': 0.13, 'cur1': 0.0, 'mgs': 0, 'compass': 11.06, 'lipoC2': 0.0, 'temp': 25.49, 'thr3': 32.0, 'depth': 0.159, 'time': 2.36, 'thr2': 31.0, 'yaw': 0.0, 'thr0': 26.0, 'thr1': 26.0}
{'lipoC3S3': 0.0, 'datetime': '2019-02-27 10:41:24.856737', 'pitch': 174.91, 'rot1': 0, 'rot0': 0, 'rot3': 0, 'rot2': 0, 'state': 'normal', 'flw3': 0, 'flw2': 0, 'flw1': 0, 'flw0': 0, 'roll': -81.2, 'cur2': 0.17, 'cur0': 0.13, 'cur1': 0.0, 'mgs': 0, 'compass': 11.06, 'lipoC2': 0.0, 'temp': 25.5, 'thr3': 32.0, 'depth': 0.159, 'time': 2.68, 'thr2': 31.0, 'yaw': 0.0, 'thr0': 26.0, 'thr1': 26.0}
{'lipoC3S3': 0.0, 'datetime': '2019-02-27 10:41:25.187127', 'pitch': 174.91, 'rot1': 0, 'rot0': 0, 'rot3': 0, 'rot2': 0, 'state': 'normal', 'flw3': 0, 'flw2': 0, 'flw1': 0, 'flw0': 0, 'roll': -81.2, 'cur2': 0.18, 'cur0': 0.13, 'cur1': 0.0, 'mgs': 0, 'compass': 11.06, 'lipoC2': 0.0, 'temp': 25.5, 'thr3': 32.0, 'depth': 0.159, 'time': 3.0, 'thr2': 31.0, 'yaw': 0.0, 'thr0': 26.0, 'thr1': 26.0}
{'lipoC3S3': 0.0, 'datetime': '2019-02-27 10:41:25.508739', 'pitch': 174.91, 'rot1': 0, 'rot0': 0, 'rot3': 0, 'rot2': 0, 'state': 'normal', 'flw3': 0, 'flw2': 0, 'flw1': 0, 'flw0': 0, 'roll': -81.2, 'cur2': 0.18, 'cur0': 0.15, 'cur1': 0.0, 'mgs': 0, 'compass': 11.06, 'lipoC2': 0.0, 'temp': 25.5, 'thr3': 32.0, 'depth': 0.159, 'time': 3.32, 'thr2': 31.0, 'yaw': 0.0, 'thr0': 26.0, 'thr1': 26.0}
{'lipoC3S3': 0.0, 'datetime': '2019-02-27 10:41:25.830573', 'pitch': 174.91, 'rot1': 0, 'rot0': 0, 'rot3': 0, 'rot2': 0, 'state': 'normal', 'flw3': 0, 'flw2': 0, 'flw1': 0, 'flw0': 0, 'roll': -81.2, 'cur2': 0.2, 'cur0': 0.13, 'cur1': 0.0, 'mgs': 0, 'compass': 11.06, 'lipoC2': 0.0, 'temp': 25.5, 'thr3': 32.0, 'depth': 0.159, 'time': 3.64, 'thr2': 31.0, 'yaw': 0.0, 'thr0': 26.0, 'thr1': 26.0}
{'lipoC3S3': 0.0, 'datetime': '2019-02-27 10:41:26.151959', 'pitch': 174.91, 'rot1': 0, 'rot0': 0, 'rot3': 0, 'rot2': 0, 'state': 'normal', 'flw3': 0, 'flw2': 0, 'flw1': 0, 'flw0': 0, 'roll': -81.2, 'cur2': 0.18, 'cur0': 0.15, 'cur1': 0.0, 'mgs': 0, 'compass': 11.06, 'lipoC2': 0.0, 'temp': 25.5, 'thr3': 32.0, 'depth': 0.159, 'time': 3.96, 'thr2': 31.0, 'yaw': 0.0, 'thr0': 26.0, 'thr1': 26.0}
{'lipoC3S3': 0.0, 'datetime': '2019-02-27 10:41:26.473669', 'pitch': 174.91, 'rot1': 0, 'rot0': 0, 'rot3': 0, 'rot2': 0, 'state': 'normal', 'flw3': 0, 'flw2': 0, 'flw1': 0, 'flw0': 0, 'roll': -81.2, 'cur2': 0.17, 'cur0': 0.15, 'cur1': 0.0, 'mgs': 0, 'compass': 11.06, 'lipoC2': 0.0, 'temp': 25.5, 'thr3': 32.0, 'depth': 0.159, 'time': 4.28, 'thr2': 31.0, 'yaw': 0.0, 'thr0': 26.0, 'thr1': 26.0}
{'lipoC3S3': 0.0, 'datetime': '2019-02-27 10:41:26.796481', 'pitch': 174.91, 'rot1': 0, 'rot0': 0, 'rot3': 0, 'rot2': 0, 'state': 'normal', 'flw3': 0, 'flw2': 0, 'flw1': 0, 'flw0': 0, 'roll': -81.2, 'cur2': 0.18, 'cur0': 0.15, 'cur1': 0.0, 'mgs': 0, 'compass': 11.06, 'lipoC2': 0.0, 'temp': 25.5, 'thr3': 32.0, 'depth': 0.159, 'time': 4.6, 'thr2': 31.0, 'yaw': 0.0, 'thr0': 26.0, 'thr1': 26.0}
{'lipoC3S3': 0.0, 'datetime': '2019-02-27 10:41:27.118072', 'pitch': 174.91, 'rot1': 0, 'rot0': 0, 'rot3': 0, 'rot2': 0, 'state': 'normal', 'flw3': 0, 'flw2': 0, 'flw1': 0, 'flw0': 0, 'roll': -81.2, 'cur2': 0.17, 'cur0': 0.15, 'cur1': 0.0, 'mgs': 0, 'compass': 11.06, 'lipoC2': 0.0, 'temp': 25.51, 'thr3': 32.0, 'depth': 0.159, 'time': 4.93, 'thr2': 31.0, 'yaw': 0.0, 'thr0': 26.0, 'thr1': 26.0}
{'lipoC3S3': 0.0, 'datetime': '2019-02-27 10:41:27.439545', 'pitch': 174.91, 'rot1': 0, 'rot0': 0, 'rot3': 0, 'rot2': 0, 'state': 'normal', 'flw3': 0, 'flw2': 0, 'flw1': 0, 'flw0': 0, 'roll': -81.2, 'cur2': 0.2, 'cur0': 0.13, 'cur1': 0.0, 'mgs': 0, 'compass': 11.06, 'lipoC2': 0.0, 'temp': 25.51, 'thr3': 32.0, 'depth': 0.159, 'time': 5.25, 'thr2': 31.0, 'yaw': 0.0, 'thr0': 26.0, 'thr1': 26.0}
{'lipoC3S3': 0.0, 'datetime': '2019-02-27 10:41:27.754904', 'pitch': 174.91, 'rot1': 0, 'rot0': 0, 'rot3': 0, 'rot2': 0, 'state': 'normal', 'flw3': 0, 'flw2': 0, 'flw1': 0, 'flw0': 0, 'roll': -81.2, 'cur2': 0.18, 'cur0': 0.16, 'cur1': 0.0, 'mgs': 0, 'compass': 11.06, 'lipoC2': 0.0, 'temp': 25.51, 'thr3': 32.0, 'depth': 0.159, 'time': 5.57, 'thr2': 31.0, 'yaw': 0.0, 'thr0': 26.0, 'thr1': 26.0}
{'lipoC3S3': 0.0, 'datetime': '2019-02-27 10:41:28.076189', 'pitch': 174.91, 'rot1': 0, 'rot0': 0, 'rot3': 0, 'rot2': 0, 'state': 'normal', 'flw3': 0, 'flw2': 0, 'flw1': 0, 'flw0': 0, 'roll': -81.2, 'cur2': 0.18, 'cur0': 0.18, 'cur1': 0.0, 'mgs': 0, 'compass': 11.06, 'lipoC2': 0.0, 'temp': 25.51, 'thr3': 32.0, 'depth': 0.159, 'time': 5.89, 'thr2': 31.0, 'yaw': 0.0, 'thr0': 26.0, 'thr1': 26.0}
{'lipoC3S3': 0.0, 'datetime': '2019-02-27 10:41:28.405453', 'pitch': 174.91, 'rot1': 0, 'rot0': 0, 'rot3': 0, 'rot2': 0, 'state': 'normal', 'flw3': 0, 'flw2': 0, 'flw1': 0, 'flw0': 0, 'roll': -81.2, 'cur2': 0.18, 'cur0': 0.13, 'cur1': 0.0, 'mgs': 0, 'compass': 11.06, 'lipoC2': 0.0, 'temp': 25.51, 'thr3': 32.0, 'depth': 0.149, 'time': 6.21, 'thr2': 31.0, 'yaw': 0.0, 'thr0': 26.0, 'thr1': 26.0}
{'lipoC3S3': 0.0, 'datetime': '2019-02-27 10:41:28.727366', 'pitch': 174.91, 'rot1': 0, 'rot0': 3, 'rot3': 0, 'rot2': 0, 'state': 'normal', 'flw3': 0, 'flw2': 0, 'flw1': 0, 'flw0': 0, 'roll': -81.2, 'cur2': 0.18, 'cur0': 0.13, 'cur1': 0.0, 'mgs': 0, 'compass': 11.06, 'lipoC2': 0.0, 'temp': 25.51, 'thr3': 32.0, 'depth': 0.159, 'time': 6.53, 'thr2': 31.0, 'yaw': 0.0, 'thr0': 26.0, 'thr1': 26.0}
{'lipoC3S3': 0.0, 'datetime': '2019-02-27 10:41:29.048873', 'pitch': 174.91, 'rot1': 0, 'rot0': 8, 'rot3': 0, 'rot2': 0, 'state': 'normal', 'flw3': 0, 'flw2': 0, 'flw1': 0, 'flw0': 0, 'roll': -81.2, 'cur2': 0.17, 'cur0': 0.12, 'cur1': 0.0, 'mgs': 0, 'compass': 11.06, 'lipoC2': 0.0, 'temp': 25.51, 'thr3': 32.0, 'depth': 0.149, 'time': 6.85, 'thr2': 31.0, 'yaw': 0.0, 'thr0': 26.0, 'thr1': 26.0}
{'lipoC3S3': 0.0, 'datetime': '2019-02-27 10:41:29.371954', 'pitch': 174.91, 'rot1': 0, 'rot0': 12, 'rot3': 0, 'rot2': 0, 'state': 'normal', 'flw3': 0, 'flw2': 0, 'flw1': 0, 'flw0': 0, 'roll': -81.2, 'cur2': 0.17, 'cur0': 0.13, 'cur1': 0.0, 'mgs': 0, 'compass': 11.06, 'lipoC2': 0.0, 'temp': 25.51, 'thr3': 32.0, 'depth': 0.149, 'time': 7.18, 'thr2': 31.0, 'yaw': 0.0, 'thr0': 26.0, 'thr1': 26.0}
{'lipoC3S3': 0.0, 'datetime': '2019-02-27 10:41:29.692768', 'pitch': 174.91, 'rot1': 0, 'rot0': 16, 'rot3': 0, 'rot2': 0, 'state': 'normal', 'flw3': 0, 'flw2': 0, 'flw1': 0, 'flw0': 0, 'roll': -81.2, 'cur2': 0.17, 'cur0': 0.12, 'cur1': 0.0, 'mgs': 0, 'compass': 11.06, 'lipoC2': 0.0, 'temp': 25.51, 'thr3': 32.0, 'depth': 0.159, 'time': 7.5, 'thr2': 31.0, 'yaw': 0.0, 'thr0': 26.0, 'thr1': 26.0}
{'lipoC3S3': 0.0, 'datetime': '2019-02-27 10:41:30.015218', 'pitch': 174.91, 'rot1': 0, 'rot0': 24, 'rot3': 0, 'rot2': 0, 'state': 'normal', 'flw3': 0, 'flw2': 0, 'flw1': 0, 'flw0': 0, 'roll': -81.2, 'cur2': 0.18, 'cur0': 0.12, 'cur1': 0.0, 'mgs': 0, 'compass': 11.06, 'lipoC2': 0.0, 'temp': 25.51, 'thr3': 32.0, 'depth': 0.149, 'time': 7.82, 'thr2': 31.0, 'yaw': 0.0, 'thr0': 26.0, 'thr1': 26.0}
{'lipoC3S3': 0.0, 'datetime': '2019-02-27 10:41:30.337297', 'pitch': 174.91, 'rot1': 0, 'rot0': 28, 'rot3': 0, 'rot2': 0, 'state': 'normal', 'flw3': 0, 'flw2': 0, 'flw1': 0, 'flw0': 0, 'roll': -81.2, 'cur2': 0.18, 'cur0': 0.13, 'cur1': 0.0, 'mgs': 0, 'compass': 11.06, 'lipoC2': 0.0, 'temp': 25.51, 'thr3': 32.0, 'depth': 0.159, 'time': 8.14, 'thr2': 31.0, 'yaw': 0.0, 'thr0': 26.0, 'thr1': 26.0}
{'lipoC3S3': 0.0, 'datetime': '2019-02-27 10:41:30.658881', 'pitch': 174.91, 'rot1': 0, 'rot0': 32, 'rot3': 0, 'rot2': 0, 'state': 'normal', 'flw3': 0, 'flw2': 0, 'flw1': 0, 'flw0': 0, 'roll': -81.2, 'cur2': 0.18, 'cur0': 0.12, 'cur1': 0.0, 'mgs': 0, 'compass': 11.06, 'lipoC2': 0.0, 'temp': 25.51, 'thr3': 32.0, 'depth': 0.159, 'time': 8.46, 'thr2': 31.0, 'yaw': 0.0, 'thr0': 26.0, 'thr1': 26.0}
{'lipoC3S3': 0.0, 'datetime': '2019-02-27 10:41:30.981362', 'pitch': 174.91, 'rot1': 0, 'rot0': 34, 'rot3': 0, 'rot2': 0, 'state': 'normal', 'flw3': 0, 'flw2': 0, 'flw1': 0, 'flw0': 0, 'roll': -81.2, 'cur2': 0.18, 'cur0': 0.12, 'cur1': 0.0, 'mgs': 0, 'compass': 11.06, 'lipoC2': 0.0, 'temp': 25.51, 'thr3': 32.0, 'depth': 0.159, 'time': 8.78, 'thr2': 31.0, 'yaw': 0.0, 'thr0': 26.0, 'thr1': 26.0}
{'lipoC3S3': 0.0, 'datetime': '2019-02-27 10:41:31.305125', 'pitch': 174.91, 'rot1': 0, 'rot0': 40, 'rot3': 0, 'rot2': 0, 'state': 'normal', 'flw3': 0, 'flw2': 0, 'flw1': 0, 'flw0': 0, 'roll': -81.2, 'cur2': 0.18, 'cur0': 0.12, 'cur1': 0.0, 'mgs': 0, 'compass': 11.06, 'lipoC2': 0.0, 'temp': 25.51, 'thr3': 32.0, 'depth': 0.159, 'time': 9.1, 'thr2': 31.0, 'yaw': 0.0, 'thr0': 26.0, 'thr1': 26.0}
{'lipoC3S3': 0.0, 'datetime': '2019-02-27 10:41:31.627230', 'pitch': 174.91, 'rot1': 0, 'rot0': 45, 'rot3': 0, 'rot2': 0, 'state': 'normal', 'flw3': 0, 'flw2': 0, 'flw1': 0, 'flw0': 0, 'roll': -81.2, 'cur2': 0.18, 'cur0': 0.12, 'cur1': 0.0, 'mgs': 0, 'compass': 11.06, 'lipoC2': 0.0, 'temp': 25.51, 'thr3': 32.0, 'depth': 0.159, 'time': 9.43, 'thr2': 31.0, 'yaw': 0.0, 'thr0': 26.0, 'thr1': 26.0}
{'lipoC3S3': 0.0, 'datetime': '2019-02-27 10:41:31.948842', 'pitch': 174.91, 'rot1': 0, 'rot0': 48, 'rot3': 0, 'rot2': 0, 'state': 'normal', 'flw3': 0, 'flw2': 0, 'flw1': 0, 'flw0': 0, 'roll': -81.2, 'cur2': 0.18, 'cur0': 0.11, 'cur1': 0.0, 'mgs': 0, 'compass': 11.06, 'lipoC2': 0.0, 'temp': 25.51, 'thr3': 32.0, 'depth': 0.159, 'time': 9.75, 'thr2': 31.0, 'yaw': 0.0, 'thr0': 26.0, 'thr1': 26.0}
{'lipoC3S3': 0.0, 'datetime': '2019-02-27 10:41:32.261634', 'pitch': 174.91, 'rot1': 0, 'rot0': 51, 'rot3': 0, 'rot2': 0, 'state': 'normal', 'flw3': 0, 'flw2': 0, 'flw1': 0, 'flw0': 0, 'roll': -81.2, 'cur2': 0.17, 'cur0': 0.13, 'cur1': 0.0, 'mgs': 0, 'compass': 11.06, 'lipoC2': 0.0, 'temp': 25.51, 'thr3': 32.0, 'depth': 0.149, 'time': 10.07, 'thr2': 31.0, 'yaw': 0.0, 'thr0': 26.0, 'thr1': 26.0}
{'lipoC3S3': 0.0, 'datetime': '2019-02-27 10:41:32.583948', 'pitch': 174.91, 'rot1': 0, 'rot0': 55, 'rot3': 0, 'rot2': 0, 'state': 'normal', 'flw3': 0, 'flw2': 0, 'flw1': 0, 'flw0': 0, 'roll': -81.2, 'cur2': 0.18, 'cur0': 0.12, 'cur1': 0.0, 'mgs': 0, 'compass': 11.06, 'lipoC2': 0.0, 'temp': 25.51, 'thr3': 32.0, 'depth': 0.159, 'time': 10.39, 'thr2': 31.0, 'yaw': 0.0, 'thr0': 26.0, 'thr1': 26.0}
{'lipoC3S3': 0.0, 'datetime': '2019-02-27 10:41:32.911611', 'pitch': 174.91, 'rot1': 0, 'rot0': 59, 'rot3': 0, 'rot2': 0, 'state': 'normal', 'flw3': 0, 'flw2': 0, 'flw1': 0, 'flw0': 0, 'roll': -81.2, 'cur2': 0.17, 'cur0': 0.13, 'cur1': 0.0, 'mgs': 0, 'compass': 11.06, 'lipoC2': 0.0, 'temp': 25.51, 'thr3': 32.0, 'depth': 0.159, 'time': 10.71, 'thr2': 31.0, 'yaw': 0.0, 'thr0': 26.0, 'thr1': 26.0}
{'lipoC3S3': 0.0, 'datetime': '2019-02-27 10:41:33.235897', 'pitch': 174.91, 'rot1': 0, 'rot0': 63, 'rot3': 0, 'rot2': 0, 'state': 'normal', 'flw3': 0, 'flw2': 0, 'flw1': 0, 'flw0': 0, 'roll': -81.2, 'cur2': 0.17, 'cur0': 0.12, 'cur1': 0.0, 'mgs': 0, 'compass': 11.06, 'lipoC2': 0.0, 'temp': 25.51, 'thr3': 32.0, 'depth': 0.159, 'time': 11.03, 'thr2': 31.0, 'yaw': 0.0, 'thr0': 26.0, 'thr1': 26.0}
{'lipoC3S3': 0.0, 'datetime': '2019-02-27 10:41:33.555593', 'pitch': 174.91, 'rot1': 0, 'rot0': 65, 'rot3': 0, 'rot2': 0, 'state': 'normal', 'flw3': 0, 'flw2': 0, 'flw1': 0, 'flw0': 0, 'roll': -81.2, 'cur2': 0.17, 'cur0': 0.12, 'cur1': 0.0, 'mgs': 0, 'compass': 11.06, 'lipoC2': 0.0, 'temp': 25.51, 'thr3': 32.0, 'depth': 0.159, 'time': 11.35, 'thr2': 31.0, 'yaw': 0.0, 'thr0': 26.0, 'thr1': 26.0}
{'lipoC3S3': 0.0, 'datetime': '2019-02-27 10:41:33.877635', 'pitch': 174.91, 'rot1': 0, 'rot0': 73, 'rot3': 0, 'rot2': 0, 'state': 'normal', 'flw3': 0, 'flw2': 0, 'flw1': 0, 'flw0': 0, 'roll': -81.2, 'cur2': 0.18, 'cur0': 0.11, 'cur1': 0.0, 'mgs': 0, 'compass': 11.06, 'lipoC2': 0.0, 'temp': 25.51, 'thr3': 32.0, 'depth': 0.159, 'time': 11.68, 'thr2': 31.0, 'yaw': 0.0, 'thr0': 26.0, 'thr1': 26.0}
{'lipoC3S3': 0.0, 'datetime': '2019-02-27 10:41:34.199377', 'pitch': 174.91, 'rot1': 0, 'rot0': 76, 'rot3': 0, 'rot2': 0, 'state': 'normal', 'flw3': 0, 'flw2': 0, 'flw1': 0, 'flw0': 0, 'roll': -81.2, 'cur2': 0.2, 'cur0': 0.12, 'cur1': 0.0, 'mgs': 0, 'compass': 11.06, 'lipoC2': 0.0, 'temp': 25.51, 'thr3': 32.0, 'depth': 0.159, 'time': 12.0, 'thr2': 31.0, 'yaw': 0.0, 'thr0': 26.0, 'thr1': 26.0}
{'lipoC3S3': 0.0, 'datetime': '2019-02-27 10:41:34.521208', 'pitch': 174.91, 'rot1': 0, 'rot0': 79, 'rot3': 0, 'rot2': 0, 'state': 'normal', 'flw3': 0, 'flw2': 0, 'flw1': 0, 'flw0': 0, 'roll': -81.2, 'cur2': 0.18, 'cur0': 0.12, 'cur1': 0.0, 'mgs': 0, 'compass': 11.06, 'lipoC2': 0.0, 'temp': 25.51, 'thr3': 32.0, 'depth': 0.159, 'time': 12.32, 'thr2': 31.0, 'yaw': 0.0, 'thr0': 26.0, 'thr1': 26.0}
{'lipoC3S3': 0.0, 'datetime': '2019-02-27 10:41:34.843644', 'pitch': 174.91, 'rot1': 0, 'rot0': 83, 'rot3': 0, 'rot2': 0, 'state': 'normal', 'flw3': 0, 'flw2': 0, 'flw1': 0, 'flw0': 0, 'roll': -81.2, 'cur2': 0.17, 'cur0': 0.12, 'cur1': 0.0, 'mgs': 0, 'compass': 11.06, 'lipoC2': 0.0, 'temp': 25.51, 'thr3': 32.0, 'depth': 0.159, 'time': 12.64, 'thr2': 31.0, 'yaw': 0.0, 'thr0': 26.0, 'thr1': 26.0}
{'lipoC3S3': 0.0, 'datetime': '2019-02-27 10:41:35.164672', 'pitch': 174.91, 'rot1': 0, 'rot0': 88, 'rot3': 0, 'rot2': 0, 'state': 'normal', 'flw3': 0, 'flw2': 0, 'flw1': 0, 'flw0': 0, 'roll': -81.2, 'cur2': 0.17, 'cur0': 0.13, 'cur1': 0.0, 'mgs': 0, 'compass': 11.06, 'lipoC2': 0.0, 'temp': 25.51, 'thr3': 32.0, 'depth': 0.159, 'time': 12.96, 'thr2': 31.0, 'yaw': 0.0, 'thr0': 26.0, 'thr1': 26.0}
{'lipoC3S3': 0.0, 'datetime': '2019-02-27 10:41:35.487653', 'pitch': 174.91, 'rot1': 0, 'rot0': 96, 'rot3': 0, 'rot2': 0, 'state': 'normal', 'flw3': 0, 'flw2': 0, 'flw1': 0, 'flw0': 0, 'roll': -81.2, 'cur2': 0.18, 'cur0': 0.12, 'cur1': 0.0, 'mgs': 0, 'compass': 11.06, 'lipoC2': 0.0, 'temp': 25.51, 'thr3': 32.0, 'depth': 0.159, 'time': 13.28, 'thr2': 31.0, 'yaw': 0.0, 'thr0': 26.0, 'thr1': 26.0}
{'lipoC3S3': 0.0, 'datetime': '2019-02-27 10:41:35.808590', 'pitch': 174.91, 'rot1': 0, 'rot0': 101, 'rot3': 0, 'rot2': 0, 'state': 'normal', 'flw3': 0, 'flw2': 0, 'flw1': 0, 'flw0': 0, 'roll': -81.2, 'cur2': 0.18, 'cur0': 0.13, 'cur1': 0.0, 'mgs': 0, 'compass': 11.06, 'lipoC2': 0.0, 'temp': 25.51, 'thr3': 32.0, 'depth': 0.159, 'time': 13.6, 'thr2': 31.0, 'yaw': 0.0, 'thr0': 26.0, 'thr1': 26.0}
{'lipoC3S3': 0.0, 'datetime': '2019-02-27 10:41:36.130551', 'pitch': 174.91, 'rot1': 0, 'rot0': 104, 'rot3': 0, 'rot2': 0, 'state': 'normal', 'flw3': 0, 'flw2': 0, 'flw1': 0, 'flw0': 0, 'roll': -81.2, 'cur2': 0.2, 'cur0': 0.12, 'cur1': 0.0, 'mgs': 0, 'compass': 11.06, 'lipoC2': 0.0, 'temp': 25.51, 'thr3': 32.0, 'depth': 0.149, 'time': 13.93, 'thr2': 31.0, 'yaw': 0.0, 'thr0': 26.0, 'thr1': 26.0}
{'lipoC3S3': 0.0, 'datetime': '2019-02-27 10:41:36.452742', 'pitch': 174.91, 'rot1': 0, 'rot0': 116, 'rot3': 0, 'rot2': 0, 'state': 'normal', 'flw3': 0, 'flw2': 0, 'flw1': 0, 'flw0': 0, 'roll': -81.2, 'cur2': 0.17, 'cur0': 0.13, 'cur1': 0.0, 'mgs': 0, 'compass': 11.06, 'lipoC2': 0.0, 'temp': 25.51, 'thr3': 32.0, 'depth': 0.159, 'time': 14.25, 'thr2': 31.0, 'yaw': 0.0, 'thr0': 26.0, 'thr1': 26.0}
{'lipoC3S3': 0.0, 'datetime': '2019-02-27 10:41:36.774225', 'pitch': 174.91, 'rot1': 0, 'rot0': 119, 'rot3': 0, 'rot2': 0, 'state': 'normal', 'flw3': 0, 'flw2': 0, 'flw1': 0, 'flw0': 0, 'roll': -81.2, 'cur2': 0.18, 'cur0': 0.12, 'cur1': 0.0, 'mgs': 0, 'compass': 11.06, 'lipoC2': 0.0, 'temp': 25.51, 'thr3': 32.0, 'depth': 0.159, 'time': 14.57, 'thr2': 31.0, 'yaw': 0.0, 'thr0': 26.0, 'thr1': 26.0}
{'lipoC3S3': 0.0, 'datetime': '2019-02-27 10:41:37.096490', 'pitch': 174.91, 'rot1': 0, 'rot0': 124, 'rot3': 0, 'rot2': 0, 'state': 'normal', 'flw3': 0, 'flw2': 0, 'flw1': 0, 'flw0': 0, 'roll': -81.2, 'cur2': 0.18, 'cur0': 0.12, 'cur1': 0.0, 'mgs': 0, 'compass': 11.06, 'lipoC2': 0.0, 'temp': 25.52, 'thr3': 31.0, 'depth': 0.159, 'time': 14.89, 'thr2': 31.0, 'yaw': 0.0, 'thr0': 26.0, 'thr1': 26.0}
{'lipoC3S3': 0.0, 'datetime': '2019-02-27 10:41:37.418155', 'pitch': 174.91, 'rot1': 0, 'rot0': 128, 'rot3': 0, 'rot2': 0, 'state': 'normal', 'flw3': 0, 'flw2': 0, 'flw1': 0, 'flw0': 0, 'roll': -81.2, 'cur2': 0.17, 'cur0': 0.15, 'cur1': 0.0, 'mgs': 0, 'compass': 11.06, 'lipoC2': 0.0, 'temp': 25.51, 'thr3': 31.0, 'depth': 0.159, 'time': 15.21, 'thr2': 31.0, 'yaw': 0.0, 'thr0': 26.0, 'thr1': 26.0}
{'lipoC3S3': 0.0, 'datetime': '2019-02-27 10:41:37.739746', 'pitch': 174.91, 'rot1': 0, 'rot0': 130, 'rot3': 0, 'rot2': 0, 'state': 'normal', 'flw3': 0, 'flw2': 0, 'flw1': 0, 'flw0': 0, 'roll': -81.2, 'cur2': 0.18, 'cur0': 0.13, 'cur1': 0.0, 'mgs': 0, 'compass': 11.06, 'lipoC2': 0.0, 'temp': 25.51, 'thr3': 32.0, 'depth': 0.159, 'time': 15.53, 'thr2': 31.0, 'yaw': 0.0, 'thr0': 26.0, 'thr1': 26.0}
{'lipoC3S3': 0.0, 'datetime': '2019-02-27 10:41:38.062419', 'pitch': 174.91, 'rot1': 0, 'rot0': 136, 'rot3': 0, 'rot2': 0, 'state': 'normal', 'flw3': 0, 'flw2': 0, 'flw1': 0, 'flw0': 0, 'roll': -81.2, 'cur2': 0.18, 'cur0': 0.15, 'cur1': 0.0, 'mgs': 0, 'compass': 11.06, 'lipoC2': 0.0, 'temp': 25.51, 'thr3': 32.0, 'depth': 0.159, 'time': 15.85, 'thr2': 31.0, 'yaw': 0.0, 'thr0': 26.0, 'thr1': 26.0}
{'lipoC3S3': 0.0, 'datetime': '2019-02-27 10:41:38.383802', 'pitch': 174.91, 'rot1': 0, 'rot0': 139, 'rot3': 0, 'rot2': 0, 'state': 'normal', 'flw3': 0, 'flw2': 0, 'flw1': 0, 'flw0': 0, 'roll': -81.2, 'cur2': 0.17, 'cur0': 0.12, 'cur1': 0.0, 'mgs': 0, 'compass': 11.06, 'lipoC2': 0.0, 'temp': 25.51, 'thr3': 32.0, 'depth': 0.159, 'time': 16.17, 'thr2': 31.0, 'yaw': 0.0, 'thr0': 26.0, 'thr1': 26.0}
{'lipoC3S3': 0.0, 'datetime': '2019-02-27 10:41:38.705556', 'pitch': 174.91, 'rot1': 0, 'rot0': 146, 'rot3': 0, 'rot2': 0, 'state': 'normal', 'flw3': 0, 'flw2': 0, 'flw1': 0, 'flw0': 0, 'roll': -81.2, 'cur2': 0.18, 'cur0': 0.12, 'cur1': 0.0, 'mgs': 0, 'compass': 11.06, 'lipoC2': 0.0, 'temp': 25.51, 'thr3': 32.0, 'depth': 0.159, 'time': 16.5, 'thr2': 31.0, 'yaw': 0.0, 'thr0': 26.0, 'thr1': 26.0}
{'lipoC3S3': 0.0, 'datetime': '2019-02-27 10:41:39.027544', 'pitch': 174.91, 'rot1': 0, 'rot0': 151, 'rot3': 0, 'rot2': 0, 'state': 'normal', 'flw3': 0, 'flw2': 0, 'flw1': 0, 'flw0': 0, 'roll': -81.2, 'cur2': 0.18, 'cur0': 0.15, 'cur1': 0.0, 'mgs': 0, 'compass': 11.06, 'lipoC2': 0.0, 'temp': 25.52, 'thr3': 32.0, 'depth': 0.159, 'time': 16.82, 'thr2': 31.0, 'yaw': 0.0, 'thr0': 26.0, 'thr1': 26.0}
{'lipoC3S3': 0.0, 'datetime': '2019-02-27 10:41:39.349723', 'pitch': 174.91, 'rot1': 0, 'rot0': 156, 'rot3': 0, 'rot2': 0, 'state': 'normal', 'flw3': 0, 'flw2': 0, 'flw1': 0, 'flw0': 0, 'roll': -81.2, 'cur2': 0.18, 'cur0': 0.12, 'cur1': 0.0, 'mgs': 0, 'compass': 11.06, 'lipoC2': 0.0, 'temp': 25.52, 'thr3': 32.0, 'depth': 0.159, 'time': 17.14, 'thr2': 31.0, 'yaw': 0.0, 'thr0': 26.0, 'thr1': 26.0}
{'lipoC3S3': 0.0, 'datetime': '2019-02-27 10:41:39.671107', 'pitch': 174.91, 'rot1': 0, 'rot0': 161, 'rot3': 0, 'rot2': 0, 'state': 'normal', 'flw3': 0, 'flw2': 0, 'flw1': 0, 'flw0': 0, 'roll': -81.2, 'cur2': 0.18, 'cur0': 0.12, 'cur1': 0.0, 'mgs': 0, 'compass': 11.06, 'lipoC2': 0.0, 'temp': 25.52, 'thr3': 32.0, 'depth': 0.159, 'time': 17.46, 'thr2': 31.0, 'yaw': 0.0, 'thr0': 26.0, 'thr1': 26.0}
{'lipoC3S3': 0.0, 'datetime': '2019-02-27 10:41:39.993735', 'pitch': 174.91, 'rot1': 0, 'rot0': 165, 'rot3': 0, 'rot2': 0, 'state': 'normal', 'flw3': 0, 'flw2': 0, 'flw1': 0, 'flw0': 0, 'roll': -81.2, 'cur2': 0.2, 'cur0': 0.12, 'cur1': 0.0, 'mgs': 0, 'compass': 11.06, 'lipoC2': 0.0, 'temp': 25.51, 'thr3': 32.0, 'depth': 0.159, 'time': 17.78, 'thr2': 31.0, 'yaw': 0.0, 'thr0': 26.0, 'thr1': 26.0}
{'lipoC3S3': 0.0, 'datetime': '2019-02-27 10:41:40.314682', 'pitch': 174.91, 'rot1': 0, 'rot0': 171, 'rot3': 0, 'rot2': 0, 'state': 'normal', 'flw3': 0, 'flw2': 0, 'flw1': 0, 'flw0': 0, 'roll': -81.2, 'cur2': 0.18, 'cur0': 0.13, 'cur1': 0.0, 'mgs': 0, 'compass': 11.06, 'lipoC2': 0.0, 'temp': 25.51, 'thr3': 32.0, 'depth': 0.159, 'time': 18.1, 'thr2': 31.0, 'yaw': 0.0, 'thr0': 26.0, 'thr1': 26.0}
{'lipoC3S3': 0.0, 'datetime': '2019-02-27 10:41:40.636111', 'pitch': 174.91, 'rot1': 0, 'rot0': 176, 'rot3': 0, 'rot2': 0, 'state': 'normal', 'flw3': 0, 'flw2': 0, 'flw1': 0, 'flw0': 0, 'roll': -81.2, 'cur2': 0.17, 'cur0': 0.12, 'cur1': 0.0, 'mgs': 0, 'compass': 11.06, 'lipoC2': 0.0, 'temp': 25.52, 'thr3': 32.0, 'depth': 0.159, 'time': 18.42, 'thr2': 31.0, 'yaw': 0.0, 'thr0': 26.0, 'thr1': 26.0}
{'lipoC3S3': 0.0, 'datetime': '2019-02-27 10:41:40.958975', 'pitch': 174.91, 'rot1': 0, 'rot0': 176, 'rot3': 0, 'rot2': 0, 'state': 'normal', 'flw3': 0, 'flw2': 0, 'flw1': 0, 'flw0': 0, 'roll': -81.2, 'cur2': 0.18, 'cur0': 0.16, 'cur1': 0.0, 'mgs': 0, 'compass': 11.06, 'lipoC2': 0.0, 'temp': 25.51, 'thr3': 32.0, 'depth': 0.159, 'time': 18.75, 'thr2': 31.0, 'yaw': 0.0, 'thr0': 26.0, 'thr1': 26.0}
{'lipoC3S3': 0.0, 'datetime': '2019-02-27 10:41:41.284500', 'pitch': 174.91, 'rot1': 0, 'rot0': 176, 'rot3': 0, 'rot2': 0, 'state': 'normal', 'flw3': 0, 'flw2': 0, 'flw1': 0, 'flw0': 0, 'roll': -81.2, 'cur2': 0.18, 'cur0': 0.15, 'cur1': 0.0, 'mgs': 0, 'compass': 11.06, 'lipoC2': 0.0, 'temp': 25.52, 'thr3': 32.0, 'depth': 0.159, 'time': 19.07, 'thr2': 31.0, 'yaw': 0.0, 'thr0': 26.0, 'thr1': 26.0}
{'lipoC3S3': 0.0, 'datetime': '2019-02-27 10:41:41.608700', 'pitch': 174.91, 'rot1': 0, 'rot0': 176, 'rot3': 0, 'rot2': 0, 'state': 'normal', 'flw3': 0, 'flw2': 0, 'flw1': 0, 'flw0': 0, 'roll': -81.2, 'cur2': 0.18, 'cur0': 0.16, 'cur1': 0.0, 'mgs': 0, 'compass': 11.06, 'lipoC2': 0.0, 'temp': 25.52, 'thr3': 32.0, 'depth': 0.159, 'time': 19.39, 'thr2': 31.0, 'yaw': 0.0, 'thr0': 26.0, 'thr1': 26.0}
{'lipoC3S3': 0.0, 'datetime': '2019-02-27 10:41:41.930302', 'pitch': 174.91, 'rot1': 0, 'rot0': 181, 'rot3': 0, 'rot2': 0, 'state': 'normal', 'flw3': 0, 'flw2': 0, 'flw1': 0, 'flw0': 0, 'roll': -81.2, 'cur2': 0.17, 'cur0': 0.18, 'cur1': 0.0, 'mgs': 0, 'compass': 11.06, 'lipoC2': 0.0, 'temp': 25.52, 'thr3': 31.0, 'depth': 0.159, 'time': 19.71, 'thr2': 31.0, 'yaw': 0.0, 'thr0': 26.0, 'thr1': 26.0}
{'lipoC3S3': 0.0, 'datetime': '2019-02-27 10:41:42.251560', 'pitch': 174.91, 'rot1': 0, 'rot0': 181, 'rot3': 0, 'rot2': 0, 'state': 'normal', 'flw3': 0, 'flw2': 0, 'flw1': 0, 'flw0': 0, 'roll': -81.2, 'cur2': 0.18, 'cur0': 0.12, 'cur1': 0.0, 'mgs': 0, 'compass': 11.06, 'lipoC2': 0.0, 'temp': 25.52, 'thr3': 32.0, 'depth': 0.159, 'time': 20.03, 'thr2': 31.0, 'yaw': 0.0, 'thr0': 26.0, 'thr1': 26.0}
{'lipoC3S3': 0.0, 'datetime': '2019-02-27 10:41:42.573889', 'pitch': 174.91, 'rot1': 0, 'rot0': 190, 'rot3': 0, 'rot2': 0, 'state': 'normal', 'flw3': 0, 'flw2': 0, 'flw1': 0, 'flw0': 0, 'roll': -81.2, 'cur2': 0.18, 'cur0': 0.15, 'cur1': 0.0, 'mgs': 0, 'compass': 11.06, 'lipoC2': 0.0, 'temp': 25.52, 'thr3': 32.0, 'depth': 0.159, 'time': 20.35, 'thr2': 31.0, 'yaw': 0.0, 'thr0': 26.0, 'thr1': 26.0}
{'lipoC3S3': 0.0, 'datetime': '2019-02-27 10:41:42.891286', 'pitch': 174.91, 'rot1': 0, 'rot0': 195, 'rot3': 0, 'rot2': 0, 'state': 'normal', 'flw3': 0, 'flw2': 0, 'flw1': 0, 'flw0': 0, 'roll': -81.2, 'cur2': 0.18, 'cur0': 0.13, 'cur1': 0.0, 'mgs': 0, 'compass': 11.06, 'lipoC2': 0.0, 'temp': 25.52, 'thr3': 32.0, 'depth': 0.149, 'time': 20.67, 'thr2': 31.0, 'yaw': 0.0, 'thr0': 26.0, 'thr1': 26.0}
{'lipoC3S3': 0.0, 'datetime': '2019-02-27 10:41:43.204963', 'pitch': 174.91, 'rot1': 0, 'rot0': 195, 'rot3': 0, 'rot2': 0, 'state': 'normal', 'flw3': 0, 'flw2': 0, 'flw1': 0, 'flw0': 0, 'roll': -81.2, 'cur2': 0.18, 'cur0': 0.17, 'cur1': 0.0, 'mgs': 0, 'compass': 11.06, 'lipoC2': 0.0, 'temp': 25.52, 'thr3': 32.0, 'depth': 0.159, 'time': 21.0, 'thr2': 31.0, 'yaw': 0.0, 'thr0': 26.0, 'thr1': 26.0}
{'lipoC3S3': 0.0, 'datetime': '2019-02-27 10:41:43.524954', 'pitch': 174.91, 'rot1': 0, 'rot0': 195, 'rot3': 0, 'rot2': 0, 'state': 'normal', 'flw3': 0, 'flw2': 0, 'flw1': 0, 'flw0': 0, 'roll': -81.2, 'cur2': 0.18, 'cur0': 0.15, 'cur1': 0.0, 'mgs': 0, 'compass': 11.06, 'lipoC2': 0.0, 'temp': 25.52, 'thr3': 32.0, 'depth': 0.159, 'time': 21.32, 'thr2': 31.0, 'yaw': 0.0, 'thr0': 26.0, 'thr1': 26.0}
{'lipoC3S3': 0.0, 'datetime': '2019-02-27 10:41:43.847481', 'pitch': 174.91, 'rot1': 0, 'rot0': 195, 'rot3': 0, 'rot2': 0, 'state': 'normal', 'flw3': 0, 'flw2': 0, 'flw1': 0, 'flw0': 0, 'roll': -81.2, 'cur2': 0.2, 'cur0': 0.13, 'cur1': 0.0, 'mgs': 0, 'compass': 11.06, 'lipoC2': 0.0, 'temp': 25.52, 'thr3': 32.0, 'depth': 0.159, 'time': 21.64, 'thr2': 31.0, 'yaw': 0.0, 'thr0': 26.0, 'thr1': 26.0}
{'lipoC3S3': 0.0, 'datetime': '2019-02-27 10:41:44.168857', 'pitch': 174.91, 'rot1': 0, 'rot0': 197, 'rot3': 0, 'rot2': 0, 'state': 'normal', 'flw3': 0, 'flw2': 0, 'flw1': 0, 'flw0': 0, 'roll': -81.2, 'cur2': 0.18, 'cur0': 0.11, 'cur1': 0.0, 'mgs': 0, 'compass': 11.06, 'lipoC2': 0.0, 'temp': 25.52, 'thr3': 32.0, 'depth': 0.159, 'time': 21.96, 'thr2': 31.0, 'yaw': 0.0, 'thr0': 26.0, 'thr1': 26.0}
{'lipoC3S3': 0.0, 'datetime': '2019-02-27 10:41:44.501964', 'pitch': 174.91, 'rot1': 0, 'rot0': 201, 'rot3': 0, 'rot2': 0, 'state': 'normal', 'flw3': 0, 'flw2': 0, 'flw1': 0, 'flw0': 0, 'roll': -81.2, 'cur2': 0.2, 'cur0': 0.12, 'cur1': 0.0, 'mgs': 0, 'compass': 11.06, 'lipoC2': 0.0, 'temp': 25.52, 'thr3': 32.0, 'depth': 0.159, 'time': 22.28, 'thr2': 31.0, 'yaw': 0.0, 'thr0': 26.0, 'thr1': 26.0}
{'lipoC3S3': 0.0, 'datetime': '2019-02-27 10:41:44.814700', 'pitch': 174.91, 'rot1': 0, 'rot0': 202, 'rot3': 0, 'rot2': 0, 'state': 'normal', 'flw3': 0, 'flw2': 0, 'flw1': 0, 'flw0': 0, 'roll': -81.2, 'cur2': 0.17, 'cur0': 0.13, 'cur1': 0.0, 'mgs': 0, 'compass': 11.06, 'lipoC2': 0.0, 'temp': 25.52, 'thr3': 32.0, 'depth': 0.159, 'time': 22.6, 'thr2': 31.0, 'yaw': 0.0, 'thr0': 26.0, 'thr1': 26.0}
{'lipoC3S3': 0.0, 'datetime': '2019-02-27 10:41:45.134760', 'pitch': 174.91, 'rot1': 0, 'rot0': 212, 'rot3': 0, 'rot2': 0, 'state': 'normal', 'flw3': 0, 'flw2': 0, 'flw1': 0, 'flw0': 0, 'roll': -81.2, 'cur2': 0.17, 'cur0': 0.13, 'cur1': 0.0, 'mgs': 0, 'compass': 11.06, 'lipoC2': 0.0, 'temp': 25.52, 'thr3': 32.0, 'depth': 0.159, 'time': 22.92, 'thr2': 31.0, 'yaw': 0.0, 'thr0': 26.0, 'thr1': 26.0}
{'lipoC3S3': 0.0, 'datetime': '2019-02-27 10:41:45.457478', 'pitch': 174.91, 'rot1': 0, 'rot0': 216, 'rot3': 0, 'rot2': 0, 'state': 'normal', 'flw3': 0, 'flw2': 0, 'flw1': 0, 'flw0': 0, 'roll': -81.2, 'cur2': 0.2, 'cur0': 0.13, 'cur1': 0.0, 'mgs': 0, 'compass': 11.06, 'lipoC2': 0.0, 'temp': 25.52, 'thr3': 31.0, 'depth': 0.159, 'time': 23.25, 'thr2': 31.0, 'yaw': 0.0, 'thr0': 26.0, 'thr1': 26.0}
{'lipoC3S3': 0.0, 'datetime': '2019-02-27 10:41:45.778679', 'pitch': 174.91, 'rot1': 0, 'rot0': 221, 'rot3': 0, 'rot2': 0, 'state': 'normal', 'flw3': 0, 'flw2': 0, 'flw1': 0, 'flw0': 0, 'roll': -81.2, 'cur2': 0.18, 'cur0': 0.13, 'cur1': 0.0, 'mgs': 0, 'compass': 11.06, 'lipoC2': 0.0, 'temp': 25.52, 'thr3': 31.0, 'depth': 0.159, 'time': 23.57, 'thr2': 31.0, 'yaw': 0.0, 'thr0': 26.0, 'thr1': 26.0}
{'lipoC3S3': 0.0, 'datetime': '2019-02-27 10:41:46.113068', 'pitch': 174.91, 'rot1': 0, 'rot0': 225, 'rot3': 0, 'rot2': 0, 'state': 'normal', 'flw3': 0, 'flw2': 0, 'flw1': 0, 'flw0': 0, 'roll': -81.2, 'cur2': 0.18, 'cur0': 0.13, 'cur1': 0.0, 'mgs': 0, 'compass': 11.06, 'lipoC2': 0.0, 'temp': 25.52, 'thr3': 32.0, 'depth': 0.159, 'time': 23.89, 'thr2': 31.0, 'yaw': 0.0, 'thr0': 26.0, 'thr1': 26.0}
{'lipoC3S3': 0.0, 'datetime': '2019-02-27 10:41:46.423456', 'pitch': 174.91, 'rot1': 0, 'rot0': 229, 'rot3': 0, 'rot2': 0, 'state': 'normal', 'flw3': 0, 'flw2': 0, 'flw1': 0, 'flw0': 0, 'roll': -81.2, 'cur2': 0.17, 'cur0': 0.12, 'cur1': 0.0, 'mgs': 0, 'compass': 11.06, 'lipoC2': 0.0, 'temp': 25.52, 'thr3': 31.0, 'depth': 0.159, 'time': 24.21, 'thr2': 31.0, 'yaw': 0.0, 'thr0': 26.0, 'thr1': 26.0}
{'lipoC3S3': 0.0, 'datetime': '2019-02-27 10:41:46.744634', 'pitch': 174.91, 'rot1': 0, 'rot0': 237, 'rot3': 0, 'rot2': 0, 'state': 'normal', 'flw3': 0, 'flw2': 0, 'flw1': 0, 'flw0': 0, 'roll': -81.2, 'cur2': 0.17, 'cur0': 0.13, 'cur1': 0.0, 'mgs': 0, 'compass': 11.06, 'lipoC2': 0.0, 'temp': 25.52, 'thr3': 32.0, 'depth': 0.159, 'time': 24.53, 'thr2': 31.0, 'yaw': 0.0, 'thr0': 26.0, 'thr1': 26.0}
{'lipoC3S3': 0.0, 'datetime': '2019-02-27 10:41:47.072033', 'pitch': 174.91, 'rot1': 0, 'rot0': 240, 'rot3': 0, 'rot2': 0, 'state': 'normal', 'flw3': 0, 'flw2': 0, 'flw1': 0, 'flw0': 0, 'roll': -81.2, 'cur2': 0.18, 'cur0': 0.12, 'cur1': 0.0, 'mgs': 0, 'compass': 11.06, 'lipoC2': 0.0, 'temp': 25.52, 'thr3': 32.0, 'depth': 0.159, 'time': 24.85, 'thr2': 31.0, 'yaw': 0.0, 'thr0': 26.0, 'thr1': 26.0}
{'lipoC3S3': 0.0, 'datetime': '2019-02-27 10:41:47.387023', 'pitch': 174.91, 'rot1': 0, 'rot0': 244, 'rot3': 0, 'rot2': 0, 'state': 'normal', 'flw3': 0, 'flw2': 0, 'flw1': 0, 'flw0': 0, 'roll': -81.2, 'cur2': 0.17, 'cur0': 0.13, 'cur1': 0.0, 'mgs': 0, 'compass': 11.06, 'lipoC2': 0.0, 'temp': 25.52, 'thr3': 32.0, 'depth': 0.159, 'time': 25.17, 'thr2': 31.0, 'yaw': 0.0, 'thr0': 26.0, 'thr1': 26.0}
{'lipoC3S3': 0.0, 'datetime': '2019-02-27 10:41:47.710743', 'pitch': 174.91, 'rot1': 0, 'rot0': 248, 'rot3': 0, 'rot2': 0, 'state': 'normal', 'flw3': 0, 'flw2': 0, 'flw1': 0, 'flw0': 0, 'roll': -81.2, 'cur2': 0.18, 'cur0': 0.12, 'cur1': 0.0, 'mgs': 0, 'compass': 11.06, 'lipoC2': 0.0, 'temp': 25.52, 'thr3': 32.0, 'depth': 0.159, 'time': 25.5, 'thr2': 31.0, 'yaw': 0.0, 'thr0': 26.0, 'thr1': 26.0}
{'lipoC3S3': 0.0, 'datetime': '2019-02-27 10:41:48.030936', 'pitch': 174.91, 'rot1': 0, 'rot0': 250, 'rot3': 0, 'rot2': 0, 'state': 'normal', 'flw3': 0, 'flw2': 0, 'flw1': 0, 'flw0': 0, 'roll': -81.2, 'cur2': 0.17, 'cur0': 0.15, 'cur1': 0.0, 'mgs': 0, 'compass': 11.06, 'lipoC2': 0.0, 'temp': 25.52, 'thr3': 31.0, 'depth': 0.149, 'time': 25.82, 'thr2': 31.0, 'yaw': 0.0, 'thr0': 26.0, 'thr1': 26.0}
{'lipoC3S3': 0.0, 'datetime': '2019-02-27 10:41:48.352929', 'pitch': 174.91, 'rot1': 0, 'rot0': 250, 'rot3': 0, 'rot2': 0, 'state': 'normal', 'flw3': 0, 'flw2': 0, 'flw1': 0, 'flw0': 0, 'roll': -81.2, 'cur2': 0.2, 'cur0': 0.15, 'cur1': 0.0, 'mgs': 0, 'compass': 11.06, 'lipoC2': 0.0, 'temp': 25.52, 'thr3': 32.0, 'depth': 0.149, 'time': 26.14, 'thr2': 31.0, 'yaw': 0.0, 'thr0': 26.0, 'thr1': 26.0}
{'lipoC3S3': 0.0, 'datetime': '2019-02-27 10:41:48.685153', 'pitch': 174.91, 'rot1': 0, 'rot0': 250, 'rot3': 0, 'rot2': 0, 'state': 'normal', 'flw3': 0, 'flw2': 0, 'flw1': 0, 'flw0': 0, 'roll': -81.2, 'cur2': 0.17, 'cur0': 0.16, 'cur1': 0.0, 'mgs': 0, 'compass': 11.06, 'lipoC2': 0.0, 'temp': 25.52, 'thr3': 32.0, 'depth': 0.159, 'time': 26.46, 'thr2': 31.0, 'yaw': 0.0, 'thr0': 26.0, 'thr1': 26.0}
{'lipoC3S3': 0.0, 'datetime': '2019-02-27 10:41:48.996819', 'pitch': 174.91, 'rot1': 0, 'rot0': 252, 'rot3': 0, 'rot2': 0, 'state': 'normal', 'flw3': 0, 'flw2': 0, 'flw1': 0, 'flw0': 0, 'roll': -81.2, 'cur2': 0.17, 'cur0': 0.11, 'cur1': 0.0, 'mgs': 0, 'compass': 11.06, 'lipoC2': 0.0, 'temp': 25.52, 'thr3': 32.0, 'depth': 0.159, 'time': 26.78, 'thr2': 31.0, 'yaw': 0.0, 'thr0': 26.0, 'thr1': 26.0}
{'lipoC3S3': 0.0, 'datetime': '2019-02-27 10:41:49.319364', 'pitch': 174.91, 'rot1': 0, 'rot0': 255, 'rot3': 0, 'rot2': 0, 'state': 'normal', 'flw3': 0, 'flw2': 0, 'flw1': 0, 'flw0': 0, 'roll': -81.2, 'cur2': 0.17, 'cur0': 0.12, 'cur1': 0.0, 'mgs': 0, 'compass': 11.06, 'lipoC2': 0.0, 'temp': 25.52, 'thr3': 32.0, 'depth': 0.159, 'time': 27.1, 'thr2': 31.0, 'yaw': 0.0, 'thr0': 26.0, 'thr1': 26.0}
{'lipoC3S3': 0.0, 'datetime': '2019-02-27 10:41:49.640631', 'pitch': 174.91, 'rot1': 0, 'rot0': 261, 'rot3': 0, 'rot2': 0, 'state': 'normal', 'flw3': 0, 'flw2': 0, 'flw1': 0, 'flw0': 0, 'roll': -81.2, 'cur2': 0.17, 'cur0': 0.13, 'cur1': 0.0, 'mgs': 0, 'compass': 11.06, 'lipoC2': 0.0, 'temp': 25.52, 'thr3': 32.0, 'depth': 0.159, 'time': 27.42, 'thr2': 31.0, 'yaw': 0.0, 'thr0': 26.0, 'thr1': 26.0}
{'lipoC3S3': 0.0, 'datetime': '2019-02-27 10:41:49.962760', 'pitch': 174.91, 'rot1': 0, 'rot0': 263, 'rot3': 0, 'rot2': 0, 'state': 'normal', 'flw3': 0, 'flw2': 0, 'flw1': 0, 'flw0': 0, 'roll': -81.2, 'cur2': 0.2, 'cur0': 0.11, 'cur1': 0.0, 'mgs': 0, 'compass': 11.06, 'lipoC2': 0.0, 'temp': 25.52, 'thr3': 32.0, 'depth': 0.159, 'time': 27.74, 'thr2': 31.0, 'yaw': 0.0, 'thr0': 26.0, 'thr1': 26.0}
{'lipoC3S3': 0.0, 'datetime': '2019-02-27 10:41:50.289536', 'pitch': 174.91, 'rot1': 0, 'rot0': 274, 'rot3': 0, 'rot2': 0, 'state': 'normal', 'flw3': 0, 'flw2': 0, 'flw1': 0, 'flw0': 0, 'roll': -81.2, 'cur2': 0.17, 'cur0': 0.13, 'cur1': 0.0, 'mgs': 0, 'compass': 11.06, 'lipoC2': 0.0, 'temp': 25.52, 'thr3': 31.0, 'depth': 0.159, 'time': 28.07, 'thr2': 31.0, 'yaw': 0.0, 'thr0': 26.0, 'thr1': 26.0}
{'lipoC3S3': 0.0, 'datetime': '2019-02-27 10:41:50.606605', 'pitch': 174.91, 'rot1': 0, 'rot0': 278, 'rot3': 0, 'rot2': 0, 'state': 'normal', 'flw3': 0, 'flw2': 0, 'flw1': 0, 'flw0': 0, 'roll': -81.2, 'cur2': 0.2, 'cur0': 0.11, 'cur1': 0.0, 'mgs': 0, 'compass': 11.06, 'lipoC2': 0.0, 'temp': 25.52, 'thr3': 32.0, 'depth': 0.149, 'time': 28.39, 'thr2': 31.0, 'yaw': 0.0, 'thr0': 26.0, 'thr1': 26.0}
{'lipoC3S3': 0.0, 'datetime': '2019-02-27 10:41:50.928966', 'pitch': 174.91, 'rot1': 0, 'rot0': 283, 'rot3': 0, 'rot2': 0, 'state': 'normal', 'flw3': 0, 'flw2': 0, 'flw1': 0, 'flw0': 0, 'roll': -81.2, 'cur2': 0.18, 'cur0': 0.12, 'cur1': 0.0, 'mgs': 0, 'compass': 11.06, 'lipoC2': 0.0, 'temp': 25.52, 'thr3': 32.0, 'depth': 0.159, 'time': 28.71, 'thr2': 31.0, 'yaw': 0.0, 'thr0': 26.0, 'thr1': 26.0}
{'lipoC3S3': 0.0, 'datetime': '2019-02-27 10:41:51.258326', 'pitch': 174.91, 'rot1': 0, 'rot0': 286, 'rot3': 0, 'rot2': 0, 'state': 'normal', 'flw3': 0, 'flw2': 0, 'flw1': 0, 'flw0': 0, 'roll': -81.2, 'cur2': 0.18, 'cur0': 0.11, 'cur1': 0.0, 'mgs': 0, 'compass': 11.06, 'lipoC2': 0.0, 'temp': 25.52, 'thr3': 31.0, 'depth': 0.159, 'time': 29.03, 'thr2': 31.0, 'yaw': 0.0, 'thr0': 26.0, 'thr1': 26.0}
{'lipoC3S3': 0.0, 'datetime': '2019-02-27 10:41:51.572665', 'pitch': 174.91, 'rot1': 0, 'rot0': 291, 'rot3': 0, 'rot2': 0, 'state': 'normal', 'flw3': 0, 'flw2': 0, 'flw1': 0, 'flw0': 0, 'roll': -81.2, 'cur2': 0.17, 'cur0': 0.15, 'cur1': 0.0, 'mgs': 0, 'compass': 11.06, 'lipoC2': 0.0, 'temp': 25.52, 'thr3': 31.0, 'depth': 0.159, 'time': 29.35, 'thr2': 31.0, 'yaw': 0.0, 'thr0': 26.0, 'thr1': 26.0}
{'lipoC3S3': 0.0, 'datetime': '2019-02-27 10:41:51.892929', 'pitch': 174.91, 'rot1': 0, 'rot0': 294, 'rot3': 0, 'rot2': 0, 'state': 'normal', 'flw3': 0, 'flw2': 0, 'flw1': 0, 'flw0': 0, 'roll': -81.2, 'cur2': 0.17, 'cur0': 0.12, 'cur1': 0.0, 'mgs': 0, 'compass': 11.06, 'lipoC2': 0.0, 'temp': 25.52, 'thr3': 32.0, 'depth': 0.149, 'time': 29.67, 'thr2': 31.0, 'yaw': 0.0, 'thr0': 26.0, 'thr1': 26.0}
{'lipoC3S3': 0.0, 'datetime': '2019-02-27 10:41:52.224438', 'pitch': 174.91, 'rot1': 0, 'rot0': 298, 'rot3': 0, 'rot2': 0, 'state': 'normal', 'flw3': 0, 'flw2': 0, 'flw1': 0, 'flw0': 0, 'roll': -81.2, 'cur2': 0.18, 'cur0': 0.11, 'cur1': 0.0, 'mgs': 0, 'compass': 11.06, 'lipoC2': 0.0, 'temp': 25.52, 'thr3': 32.0, 'depth': 0.159, 'time': 29.99, 'thr2': 31.0, 'yaw': 0.0, 'thr0': 26.0, 'thr1': 26.0}
{'lipoC3S3': 0.0, 'datetime': '2019-02-27 10:41:52.546798', 'pitch': 174.91, 'rot1': 0, 'rot0': 302, 'rot3': 0, 'rot2': 0, 'state': 'normal', 'flw3': 0, 'flw2': 0, 'flw1': 0, 'flw0': 0, 'roll': -81.2, 'cur2': 0.17, 'cur0': 0.13, 'cur1': 0.0, 'mgs': 0, 'compass': 11.06, 'lipoC2': 0.0, 'temp': 25.52, 'thr3': 32.0, 'depth': 0.159, 'time': 30.32, 'thr2': 31.0, 'yaw': 0.0, 'thr0': 26.0, 'thr1': 26.0}
{'lipoC3S3': 0.0, 'datetime': '2019-02-27 10:41:52.868429', 'pitch': 174.91, 'rot1': 0, 'rot0': 306, 'rot3': 0, 'rot2': 0, 'state': 'normal', 'flw3': 0, 'flw2': 0, 'flw1': 0, 'flw0': 0, 'roll': -81.2, 'cur2': 0.2, 'cur0': 0.12, 'cur1': 0.0, 'mgs': 0, 'compass': 11.06, 'lipoC2': 0.0, 'temp': 25.52, 'thr3': 32.0, 'depth': 0.159, 'time': 30.64, 'thr2': 31.0, 'yaw': 0.0, 'thr0': 26.0, 'thr1': 26.0}
{'lipoC3S3': 0.0, 'datetime': '2019-02-27 10:41:53.190234', 'pitch': 174.91, 'rot1': 0, 'rot0': 311, 'rot3': 0, 'rot2': 0, 'state': 'normal', 'flw3': 0, 'flw2': 0, 'flw1': 0, 'flw0': 0, 'roll': -81.2, 'cur2': 0.18, 'cur0': 0.12, 'cur1': 0.0, 'mgs': 0, 'compass': 11.06, 'lipoC2': 0.0, 'temp': 25.52, 'thr3': 32.0, 'depth': 0.149, 'time': 30.96, 'thr2': 31.0, 'yaw': 0.0, 'thr0': 26.0, 'thr1': 26.0}
{'lipoC3S3': 0.0, 'datetime': '2019-02-27 10:41:53.502504', 'pitch': 174.91, 'rot1': 0, 'rot0': 312, 'rot3': 0, 'rot2': 0, 'state': 'normal', 'flw3': 0, 'flw2': 0, 'flw1': 0, 'flw0': 0, 'roll': -81.2, 'cur2': 0.18, 'cur0': 0.13, 'cur1': 0.0, 'mgs': 0, 'compass': 11.06, 'lipoC2': 0.0, 'temp': 25.52, 'thr3': 31.0, 'depth': 0.159, 'time': 31.28, 'thr2': 31.0, 'yaw': 0.0, 'thr0': 26.0, 'thr1': 26.0}
{'lipoC3S3': 0.0, 'datetime': '2019-02-27 10:41:53.824807', 'pitch': 174.91, 'rot1': 0, 'rot0': 322, 'rot3': 0, 'rot2': 0, 'state': 'normal', 'flw3': 0, 'flw2': 0, 'flw1': 0, 'flw0': 0, 'roll': -81.2, 'cur2': 0.18, 'cur0': 0.15, 'cur1': 0.0, 'mgs': 0, 'compass': 11.06, 'lipoC2': 0.0, 'temp': 25.52, 'thr3': 31.0, 'depth': 0.159, 'time': 31.6, 'thr2': 31.0, 'yaw': 0.0, 'thr0': 26.0, 'thr1': 26.0}
{'lipoC3S3': 0.0, 'datetime': '2019-02-27 10:41:54.150710', 'pitch': 174.91, 'rot1': 0, 'rot0': 328, 'rot3': 0, 'rot2': 0, 'state': 'normal', 'flw3': 0, 'flw2': 0, 'flw1': 0, 'flw0': 0, 'roll': -81.2, 'cur2': 0.18, 'cur0': 0.13, 'cur1': 0.0, 'mgs': 0, 'compass': 11.06, 'lipoC2': 0.0, 'temp': 25.52, 'thr3': 31.0, 'depth': 0.159, 'time': 31.92, 'thr2': 31.0, 'yaw': 0.0, 'thr0': 26.0, 'thr1': 26.0}
{'lipoC3S3': 0.0, 'datetime': '2019-02-27 10:41:54.468524', 'pitch': 174.91, 'rot1': 0, 'rot0': 332, 'rot3': 0, 'rot2': 0, 'state': 'normal', 'flw3': 0, 'flw2': 0, 'flw1': 0, 'flw0': 0, 'roll': -81.2, 'cur2': 0.18, 'cur0': 0.12, 'cur1': 0.0, 'mgs': 0, 'compass': 11.06, 'lipoC2': 0.0, 'temp': 25.52, 'thr3': 31.0, 'depth': 0.159, 'time': 32.24, 'thr2': 31.0, 'yaw': 0.0, 'thr0': 26.0, 'thr1': 26.0}
{'lipoC3S3': 0.0, 'datetime': '2019-02-27 10:41:54.790738', 'pitch': 174.91, 'rot1': 0, 'rot0': 338, 'rot3': 0, 'rot2': 0, 'state': 'normal', 'flw3': 0, 'flw2': 0, 'flw1': 0, 'flw0': 0, 'roll': -81.2, 'cur2': 0.17, 'cur0': 0.12, 'cur1': 0.0, 'mgs': 0, 'compass': 11.06, 'lipoC2': 0.0, 'temp': 25.52, 'thr3': 31.0, 'depth': 0.159, 'time': 32.56, 'thr2': 31.0, 'yaw': 0.0, 'thr0': 26.0, 'thr1': 26.0}
{'lipoC3S3': 0.0, 'datetime': '2019-02-27 10:41:55.111997', 'pitch': 174.91, 'rot1': 0, 'rot0': 342, 'rot3': 0, 'rot2': 0, 'state': 'normal', 'flw3': 0, 'flw2': 0, 'flw1': 0, 'flw0': 0, 'roll': -81.2, 'cur2': 0.2, 'cur0': 0.13, 'cur1': 0.0, 'mgs': 0, 'compass': 11.06, 'lipoC2': 0.0, 'temp': 25.52, 'thr3': 31.0, 'depth': 0.159, 'time': 32.89, 'thr2': 31.0, 'yaw': 0.0, 'thr0': 26.0, 'thr1': 26.0}
{'lipoC3S3': 0.0, 'datetime': '2019-02-27 10:41:55.434523', 'pitch': 174.91, 'rot1': 0, 'rot0': 349, 'rot3': 0, 'rot2': 0, 'state': 'normal', 'flw3': 0, 'flw2': 0, 'flw1': 0, 'flw0': 0, 'roll': -81.2, 'cur2': 0.18, 'cur0': 0.13, 'cur1': 0.0, 'mgs': 0, 'compass': 11.06, 'lipoC2': 0.0, 'temp': 25.52, 'thr3': 31.0, 'depth': 0.159, 'time': 33.21, 'thr2': 31.0, 'yaw': 0.0, 'thr0': 26.0, 'thr1': 26.0}
{'lipoC3S3': 0.0, 'datetime': '2019-02-27 10:41:55.762485', 'pitch': 174.91, 'rot1': 0, 'rot0': 355, 'rot3': 0, 'rot2': 0, 'state': 'normal', 'flw3': 0, 'flw2': 0, 'flw1': 0, 'flw0': 0, 'roll': -81.2, 'cur2': 0.18, 'cur0': 0.13, 'cur1': 0.0, 'mgs': 0, 'compass': 11.06, 'lipoC2': 0.0, 'temp': 25.52, 'thr3': 32.0, 'depth': 0.159, 'time': 33.53, 'thr2': 31.0, 'yaw': 0.0, 'thr0': 26.0, 'thr1': 26.0}
{'lipoC3S3': 0.0, 'datetime': '2019-02-27 10:41:56.078125', 'pitch': 174.91, 'rot1': 0, 'rot0': 361, 'rot3': 0, 'rot2': 0, 'state': 'normal', 'flw3': 0, 'flw2': 0, 'flw1': 0, 'flw0': 0, 'roll': -81.2, 'cur2': 0.18, 'cur0': 0.12, 'cur1': 0.0, 'mgs': 0, 'compass': 11.06, 'lipoC2': 0.0, 'temp': 25.52, 'thr3': 32.0, 'depth': 0.159, 'time': 33.85, 'thr2': 31.0, 'yaw': 0.0, 'thr0': 26.0, 'thr1': 26.0}
{'lipoC3S3': 0.0, 'datetime': '2019-02-27 10:41:56.400349', 'pitch': 174.91, 'rot1': 0, 'rot0': 365, 'rot3': 0, 'rot2': 0, 'state': 'normal', 'flw3': 0, 'flw2': 0, 'flw1': 0, 'flw0': 0, 'roll': -81.2, 'cur2': 0.18, 'cur0': 0.13, 'cur1': 0.0, 'mgs': 0, 'compass': 11.06, 'lipoC2': 0.0, 'temp': 25.52, 'thr3': 32.0, 'depth': 0.159, 'time': 34.17, 'thr2': 31.0, 'yaw': 0.0, 'thr0': 26.0, 'thr1': 26.0}
{'lipoC3S3': 0.0, 'datetime': '2019-02-27 10:41:56.721816', 'pitch': 174.91, 'rot1': 0, 'rot0': 369, 'rot3': 0, 'rot2': 0, 'state': 'normal', 'flw3': 0, 'flw2': 0, 'flw1': 0, 'flw0': 0, 'roll': -81.2, 'cur2': 0.18, 'cur0': 0.13, 'cur1': 0.0, 'mgs': 0, 'compass': 11.06, 'lipoC2': 0.0, 'temp': 25.52, 'thr3': 32.0, 'depth': 0.159, 'time': 34.49, 'thr2': 31.0, 'yaw': 0.0, 'thr0': 26.0, 'thr1': 26.0}
{'lipoC3S3': 0.0, 'datetime': '2019-02-27 10:41:57.044148', 'pitch': 174.91, 'rot1': 0, 'rot0': 371, 'rot3': 0, 'rot2': 0, 'state': 'normal', 'flw3': 0, 'flw2': 0, 'flw1': 0, 'flw0': 0, 'roll': -81.2, 'cur2': 0.18, 'cur0': 0.12, 'cur1': 0.0, 'mgs': 0, 'compass': 11.06, 'lipoC2': 0.0, 'temp': 25.52, 'thr3': 32.0, 'depth': 0.159, 'time': 34.81, 'thr2': 31.0, 'yaw': 0.0, 'thr0': 26.0, 'thr1': 26.0}
{'lipoC3S3': 0.0, 'datetime': '2019-02-27 10:41:57.370615', 'pitch': 174.91, 'rot1': 0, 'rot0': 382, 'rot3': 0, 'rot2': 0, 'state': 'normal', 'flw3': 0, 'flw2': 0, 'flw1': 0, 'flw0': 0, 'roll': -81.2, 'cur2': 0.18, 'cur0': 0.13, 'cur1': 0.0, 'mgs': 0, 'compass': 11.06, 'lipoC2': 0.0, 'temp': 25.52, 'thr3': 31.0, 'depth': 0.159, 'time': 35.14, 'thr2': 31.0, 'yaw': 0.0, 'thr0': 26.0, 'thr1': 26.0}
{'lipoC3S3': 0.0, 'datetime': '2019-02-27 10:41:57.687985', 'pitch': 174.91, 'rot1': 0, 'rot0': 386, 'rot3': 0, 'rot2': 0, 'state': 'normal', 'flw3': 0, 'flw2': 0, 'flw1': 0, 'flw0': 0, 'roll': -81.2, 'cur2': 0.17, 'cur0': 0.12, 'cur1': 0.0, 'mgs': 0, 'compass': 11.06, 'lipoC2': 0.0, 'temp': 25.52, 'thr3': 31.0, 'depth': 0.159, 'time': 35.46, 'thr2': 31.0, 'yaw': 0.0, 'thr0': 26.0, 'thr1': 26.0}
{'lipoC3S3': 0.0, 'datetime': '2019-02-27 10:41:58.008281', 'pitch': 174.91, 'rot1': 0, 'rot0': 390, 'rot3': 0, 'rot2': 0, 'state': 'normal', 'flw3': 0, 'flw2': 0, 'flw1': 0, 'flw0': 0, 'roll': -81.2, 'cur2': 0.18, 'cur0': 0.15, 'cur1': 0.0, 'mgs': 0, 'compass': 11.06, 'lipoC2': 0.0, 'temp': 25.52, 'thr3': 31.0, 'depth': 0.159, 'time': 35.78, 'thr2': 30.0, 'yaw': 0.0, 'thr0': 26.0, 'thr1': 26.0}
{'lipoC3S3': 0.0, 'datetime': '2019-02-27 10:41:58.331429', 'pitch': 174.91, 'rot1': 0, 'rot0': 395, 'rot3': 0, 'rot2': 0, 'state': 'normal', 'flw3': 0, 'flw2': 0, 'flw1': 0, 'flw0': 0, 'roll': -81.2, 'cur2': 0.17, 'cur0': 0.13, 'cur1': 0.0, 'mgs': 0, 'compass': 11.06, 'lipoC2': 0.0, 'temp': 25.52, 'thr3': 32.0, 'depth': 0.159, 'time': 36.1, 'thr2': 31.0, 'yaw': 0.0, 'thr0': 26.0, 'thr1': 26.0}
{'lipoC3S3': 0.0, 'datetime': '2019-02-27 10:41:58.653696', 'pitch': 174.91, 'rot1': 0, 'rot0': 401, 'rot3': 0, 'rot2': 0, 'state': 'normal', 'flw3': 0, 'flw2': 0, 'flw1': 0, 'flw0': 0, 'roll': -81.2, 'cur2': 0.18, 'cur0': 0.12, 'cur1': 0.0, 'mgs': 0, 'compass': 11.06, 'lipoC2': 0.0, 'temp': 25.52, 'thr3': 31.0, 'depth': 0.159, 'time': 36.42, 'thr2': 31.0, 'yaw': 0.0, 'thr0': 26.0, 'thr1': 26.0}
{'lipoC3S3': 0.0, 'datetime': '2019-02-27 10:41:58.981974', 'pitch': 174.91, 'rot1': 0, 'rot0': 406, 'rot3': 0, 'rot2': 0, 'state': 'normal', 'flw3': 0, 'flw2': 0, 'flw1': 0, 'flw0': 0, 'roll': -81.2, 'cur2': 0.18, 'cur0': 0.13, 'cur1': 0.0, 'mgs': 0, 'compass': 11.06, 'lipoC2': 0.0, 'temp': 25.52, 'thr3': 32.0, 'depth': 0.159, 'time': 36.74, 'thr2': 31.0, 'yaw': 0.0, 'thr0': 26.0, 'thr1': 26.0}
{'lipoC3S3': 0.0, 'datetime': '2019-02-27 10:41:59.296514', 'pitch': 174.91, 'rot1': 0, 'rot0': 413, 'rot3': 0, 'rot2': 0, 'state': 'normal', 'flw3': 0, 'flw2': 0, 'flw1': 0, 'flw0': 0, 'roll': -81.2, 'cur2': 0.17, 'cur0': 0.12, 'cur1': 0.0, 'mgs': 0, 'compass': 11.06, 'lipoC2': 0.0, 'temp': 25.52, 'thr3': 32.0, 'depth': 0.159, 'time': 37.06, 'thr2': 31.0, 'yaw': 0.0, 'thr0': 22.0, 'thr1': 26.0}
{'lipoC3S3': 0.0, 'datetime': '2019-02-27 10:41:59.617775', 'pitch': 174.91, 'rot1': 0, 'rot0': 416, 'rot3': 0, 'rot2': 0, 'state': 'normal', 'flw3': 0, 'flw2': 0, 'flw1': 0, 'flw0': 0, 'roll': -81.2, 'cur2': 0.2, 'cur0': 0.12, 'cur1': 0.0, 'mgs': 0, 'compass': 11.06, 'lipoC2': 0.0, 'temp': 25.52, 'thr3': 32.0, 'depth': 0.159, 'time': 37.38, 'thr2': 31.0, 'yaw': 0.0, 'thr0': 26.0, 'thr1': 26.0}
{'lipoC3S3': 0.0, 'datetime': '2019-02-27 10:41:59.940344', 'pitch': 174.91, 'rot1': 0, 'rot0': 419, 'rot3': 0, 'rot2': 0, 'state': 'normal', 'flw3': 0, 'flw2': 0, 'flw1': 0, 'flw0': 0, 'roll': -81.2, 'cur2': 0.18, 'cur0': 0.13, 'cur1': 0.0, 'mgs': 0, 'compass': 11.06, 'lipoC2': 0.0, 'temp': 25.52, 'thr3': 32.0, 'depth': 0.159, 'time': 37.71, 'thr2': 31.0, 'yaw': 0.0, 'thr0': 26.0, 'thr1': 26.0}
{'lipoC3S3': 0.0, 'datetime': '2019-02-27 10:42:00.261426', 'pitch': 174.91, 'rot1': 0, 'rot0': 423, 'rot3': 0, 'rot2': 0, 'state': 'normal', 'flw3': 0, 'flw2': 0, 'flw1': 0, 'flw0': 0, 'roll': -81.2, 'cur2': 0.2, 'cur0': 0.13, 'cur1': 0.0, 'mgs': 0, 'compass': 11.06, 'lipoC2': 0.0, 'temp': 25.52, 'thr3': 32.0, 'depth': 0.159, 'time': 38.03, 'thr2': 31.0, 'yaw': 0.0, 'thr0': 26.0, 'thr1': 26.0}
{'lipoC3S3': 0.0, 'datetime': '2019-02-27 10:42:00.590792', 'pitch': 174.91, 'rot1': 0, 'rot0': 425, 'rot3': 0, 'rot2': 0, 'state': 'normal', 'flw3': 0, 'flw2': 0, 'flw1': 0, 'flw0': 0, 'roll': -81.2, 'cur2': 0.18, 'cur0': 0.12, 'cur1': 0.0, 'mgs': 0, 'compass': 11.06, 'lipoC2': 0.0, 'temp': 25.52, 'thr3': 31.0, 'depth': 0.159, 'time': 38.35, 'thr2': 30.0, 'yaw': 0.0, 'thr0': 26.0, 'thr1': 26.0}
{'lipoC3S3': 0.0, 'datetime': '2019-02-27 10:42:00.906120', 'pitch': 174.91, 'rot1': 0, 'rot0': 433, 'rot3': 0, 'rot2': 0, 'state': 'normal', 'flw3': 0, 'flw2': 0, 'flw1': 0, 'flw0': 0, 'roll': -81.2, 'cur2': 0.18, 'cur0': 0.12, 'cur1': 0.0, 'mgs': 0, 'compass': 11.06, 'lipoC2': 0.0, 'temp': 25.52, 'thr3': 31.0, 'depth': 0.159, 'time': 38.67, 'thr2': 31.0, 'yaw': 0.0, 'thr0': 26.0, 'thr1': 26.0}
{'lipoC3S3': 0.0, 'datetime': '2019-02-27 10:42:01.227388', 'pitch': 174.91, 'rot1': 0, 'rot0': 437, 'rot3': 0, 'rot2': 0, 'state': 'normal', 'flw3': 0, 'flw2': 0, 'flw1': 0, 'flw0': 0, 'roll': -81.2, 'cur2': 0.18, 'cur0': 0.15, 'cur1': 0.0, 'mgs': 0, 'compass': 11.06, 'lipoC2': 0.0, 'temp': 25.52, 'thr3': 31.0, 'depth': 0.159, 'time': 38.99, 'thr2': 31.0, 'yaw': 0.0, 'thr0': 26.0, 'thr1': 26.0}
{'lipoC3S3': 0.0, 'datetime': '2019-02-27 10:42:01.557698', 'pitch': 174.91, 'rot1': 0, 'rot0': 440, 'rot3': 0, 'rot2': 0, 'state': 'normal', 'flw3': 0, 'flw2': 0, 'flw1': 0, 'flw0': 0, 'roll': -81.2, 'cur2': 0.18, 'cur0': 0.13, 'cur1': 0.0, 'mgs': 0, 'compass': 11.06, 'lipoC2': 0.0, 'temp': 25.52, 'thr3': 31.0, 'depth': 0.159, 'time': 39.31, 'thr2': 31.0, 'yaw': 0.0, 'thr0': 26.0, 'thr1': 26.0}
{'lipoC3S3': 0.0, 'datetime': '2019-02-27 10:42:01.876817', 'pitch': 174.91, 'rot1': 0, 'rot0': 444, 'rot3': 0, 'rot2': 0, 'state': 'normal', 'flw3': 0, 'flw2': 0, 'flw1': 0, 'flw0': 0, 'roll': -81.2, 'cur2': 0.18, 'cur0': 0.15, 'cur1': 0.0, 'mgs': 0, 'compass': 11.06, 'lipoC2': 0.0, 'temp': 25.52, 'thr3': 31.0, 'depth': 0.159, 'time': 39.63, 'thr2': 31.0, 'yaw': 0.0, 'thr0': 26.0, 'thr1': 26.0}
{'lipoC3S3': 0.0, 'datetime': '2019-02-27 10:42:02.198899', 'pitch': 174.91, 'rot1': 0, 'rot0': 448, 'rot3': 0, 'rot2': 0, 'state': 'normal', 'flw3': 0, 'flw2': 0, 'flw1': 0, 'flw0': 0, 'roll': -81.2, 'cur2': 0.18, 'cur0': 0.13, 'cur1': 0.0, 'mgs': 0, 'compass': 11.06, 'lipoC2': 0.0, 'temp': 25.52, 'thr3': 31.0, 'depth': 0.159, 'time': 39.96, 'thr2': 31.0, 'yaw': 0.0, 'thr0': 26.0, 'thr1': 26.0}
{'lipoC3S3': 0.0, 'datetime': '2019-02-27 10:42:02.522647', 'pitch': 174.91, 'rot1': 0, 'rot0': 448, 'rot3': 0, 'rot2': 0, 'state': 'normal', 'flw3': 0, 'flw2': 0, 'flw1': 0, 'flw0': 0, 'roll': -81.2, 'cur2': 0.18, 'cur0': 0.16, 'cur1': 0.0, 'mgs': 0, 'compass': 11.06, 'lipoC2': 0.0, 'temp': 25.52, 'thr3': 31.0, 'depth': 0.159, 'time': 40.28, 'thr2': 31.0, 'yaw': 0.0, 'thr0': 26.0, 'thr1': 26.0}
{'lipoC3S3': 0.0, 'datetime': '2019-02-27 10:42:02.840323', 'pitch': 174.91, 'rot1': 0, 'rot0': 448, 'rot3': 0, 'rot2': 0, 'state': 'normal', 'flw3': 0, 'flw2': 0, 'flw1': 0, 'flw0': 0, 'roll': -81.2, 'cur2': 0.18, 'cur0': 0.15, 'cur1': 0.0, 'mgs': 0, 'compass': 11.06, 'lipoC2': 0.0, 'temp': 25.52, 'thr3': 31.0, 'depth': 0.159, 'time': 40.6, 'thr2': 31.0, 'yaw': 0.0, 'thr0': 26.0, 'thr1': 26.0}
{'lipoC3S3': 0.0, 'datetime': '2019-02-27 10:42:03.170116', 'pitch': 174.91, 'rot1': 0, 'rot0': 448, 'rot3': 0, 'rot2': 0, 'state': 'normal', 'flw3': 0, 'flw2': 0, 'flw1': 0, 'flw0': 0, 'roll': -81.2, 'cur2': 0.18, 'cur0': 0.16, 'cur1': 0.0, 'mgs': 0, 'compass': 11.06, 'lipoC2': 0.0, 'temp': 25.52, 'thr3': 31.0, 'depth': 0.149, 'time': 40.92, 'thr2': 31.0, 'yaw': 0.0, 'thr0': 26.0, 'thr1': 26.0}
{'lipoC3S3': 0.0, 'datetime': '2019-02-27 10:42:03.483150', 'pitch': 174.91, 'rot1': 0, 'rot0': 448, 'rot3': 0, 'rot2': 0, 'state': 'normal', 'flw3': 0, 'flw2': 0, 'flw1': 0, 'flw0': 0, 'roll': -81.2, 'cur2': 0.18, 'cur0': 0.16, 'cur1': 0.0, 'mgs': 0, 'compass': 11.06, 'lipoC2': 0.0, 'temp': 25.52, 'thr3': 31.0, 'depth': 0.149, 'time': 41.24, 'thr2': 31.0, 'yaw': 0.0, 'thr0': 26.0, 'thr1': 26.0}
{'lipoC3S3': 0.0, 'datetime': '2019-02-27 10:42:03.808253', 'pitch': 174.91, 'rot1': 0, 'rot0': 448, 'rot3': 0, 'rot2': 0, 'state': 'normal', 'flw3': 0, 'flw2': 0, 'flw1': 0, 'flw0': 0, 'roll': -81.2, 'cur2': 0.2, 'cur0': 0.16, 'cur1': 0.0, 'mgs': 0, 'compass': 11.06, 'lipoC2': 0.0, 'temp': 25.52, 'thr3': 31.0, 'depth': 0.149, 'time': 41.56, 'thr2': 31.0, 'yaw': 0.0, 'thr0': 26.0, 'thr1': 26.0}
{'lipoC3S3': 0.0, 'datetime': '2019-02-27 10:42:04.129183', 'pitch': 174.91, 'rot1': 0, 'rot0': 448, 'rot3': 0, 'rot2': 0, 'state': 'normal', 'flw3': 0, 'flw2': 0, 'flw1': 0, 'flw0': 0, 'roll': -81.2, 'cur2': 0.18, 'cur0': 0.16, 'cur1': 0.0, 'mgs': 0, 'compass': 11.06, 'lipoC2': 0.0, 'temp': 25.52, 'thr3': 31.0, 'depth': 0.159, 'time': 41.88, 'thr2': 31.0, 'yaw': 0.0, 'thr0': 26.0, 'thr1': 26.0}
{'lipoC3S3': 0.0, 'datetime': '2019-02-27 10:42:04.454363', 'pitch': 174.91, 'rot1': 0, 'rot0': 448, 'rot3': 0, 'rot2': 0, 'state': 'normal', 'flw3': 0, 'flw2': 0, 'flw1': 0, 'flw0': 0, 'roll': -81.2, 'cur2': 0.2, 'cur0': 0.15, 'cur1': 0.0, 'mgs': 0, 'compass': 11.06, 'lipoC2': 0.0, 'temp': 25.52, 'thr3': 31.0, 'depth': 0.159, 'time': 42.21, 'thr2': 31.0, 'yaw': 0.0, 'thr0': 26.0, 'thr1': 26.0}
{'lipoC3S3': 0.0, 'datetime': '2019-02-27 10:42:04.770425', 'pitch': 174.91, 'rot1': 0, 'rot0': 448, 'rot3': 0, 'rot2': 0, 'state': 'normal', 'flw3': 0, 'flw2': 0, 'flw1': 0, 'flw0': 0, 'roll': -81.2, 'cur2': 0.17, 'cur0': 0.16, 'cur1': 0.0, 'mgs': 0, 'compass': 11.06, 'lipoC2': 0.0, 'temp': 25.52, 'thr3': 31.0, 'depth': 0.159, 'time': 42.53, 'thr2': 31.0, 'yaw': 0.0, 'thr0': 26.0, 'thr1': 26.0}
{'lipoC3S3': 0.0, 'datetime': '2019-02-27 10:42:05.091387', 'pitch': 174.91, 'rot1': 0, 'rot0': 448, 'rot3': 0, 'rot2': 0, 'state': 'normal', 'flw3': 0, 'flw2': 0, 'flw1': 0, 'flw0': 0, 'roll': -81.2, 'cur2': 0.17, 'cur0': 0.16, 'cur1': 0.0, 'mgs': 0, 'compass': 11.06, 'lipoC2': 0.0, 'temp': 25.52, 'thr3': 31.0, 'depth': 0.159, 'time': 42.85, 'thr2': 31.0, 'yaw': 0.0, 'thr0': 26.0, 'thr1': 26.0}
{'lipoC3S3': 0.0, 'datetime': '2019-02-27 10:42:05.415533', 'pitch': 174.91, 'rot1': 0, 'rot0': 448, 'rot3': 0, 'rot2': 0, 'state': 'normal', 'flw3': 0, 'flw2': 0, 'flw1': 0, 'flw0': 0, 'roll': -81.2, 'cur2': 0.18, 'cur0': 0.16, 'cur1': 0.0, 'mgs': 0, 'compass': 11.06, 'lipoC2': 0.0, 'temp': 25.52, 'thr3': 31.0, 'depth': 0.159, 'time': 43.17, 'thr2': 31.0, 'yaw': 0.0, 'thr0': 26.0, 'thr1': 26.0}
{'lipoC3S3': 0.0, 'datetime': '2019-02-27 10:42:05.742332', 'pitch': 174.91, 'rot1': 0, 'rot0': 448, 'rot3': 0, 'rot2': 0, 'state': 'normal', 'flw3': 0, 'flw2': 0, 'flw1': 0, 'flw0': 0, 'roll': -81.2, 'cur2': 0.17, 'cur0': 0.16, 'cur1': 0.0, 'mgs': 0, 'compass': 11.06, 'lipoC2': 0.0, 'temp': 25.52, 'thr3': 31.0, 'depth': 0.159, 'time': 43.49, 'thr2': 31.0, 'yaw': 0.0, 'thr0': 26.0, 'thr1': 26.0}
{'lipoC3S3': 0.0, 'datetime': '2019-02-27 10:42:06.064278', 'pitch': 174.91, 'rot1': 0, 'rot0': 448, 'rot3': 0, 'rot2': 0, 'state': 'normal', 'flw3': 0, 'flw2': 0, 'flw1': 0, 'flw0': 0, 'roll': -81.2, 'cur2': 0.2, 'cur0': 0.16, 'cur1': 0.0, 'mgs': 0, 'compass': 11.06, 'lipoC2': 0.0, 'temp': 25.52, 'thr3': 31.0, 'depth': 0.159, 'time': 43.81, 'thr2': 31.0, 'yaw': 0.0, 'thr0': 26.0, 'thr1': 26.0}
{'lipoC3S3': 0.0, 'datetime': '2019-02-27 10:42:06.378654', 'pitch': 174.91, 'rot1': 0, 'rot0': 448, 'rot3': 0, 'rot2': 0, 'state': 'normal', 'flw3': 0, 'flw2': 0, 'flw1': 0, 'flw0': 0, 'roll': -81.2, 'cur2': 0.17, 'cur0': 0.18, 'cur1': 0.0, 'mgs': 0, 'compass': 11.06, 'lipoC2': 0.0, 'temp': 25.52, 'thr3': 32.0, 'depth': 0.159, 'time': 44.13, 'thr2': 31.0, 'yaw': 0.0, 'thr0': 26.0, 'thr1': 26.0}
{'lipoC3S3': 0.0, 'datetime': '2019-02-27 10:42:06.698842', 'pitch': 174.91, 'rot1': 0, 'rot0': 448, 'rot3': 0, 'rot2': 0, 'state': 'normal', 'flw3': 0, 'flw2': 0, 'flw1': 0, 'flw0': 0, 'roll': -81.2, 'cur2': 0.18, 'cur0': 0.16, 'cur1': 0.0, 'mgs': 0, 'compass': 11.06, 'lipoC2': 0.0, 'temp': 25.52, 'thr3': 31.0, 'depth': 0.159, 'time': 44.46, 'thr2': 31.0, 'yaw': 0.0, 'thr0': 26.0, 'thr1': 26.0}
{'lipoC3S3': 0.0, 'datetime': '2019-02-27 10:42:07.026394', 'pitch': 174.91, 'rot1': 0, 'rot0': 448, 'rot3': 0, 'rot2': 0, 'state': 'normal', 'flw3': 0, 'flw2': 0, 'flw1': 0, 'flw0': 0, 'roll': -81.2, 'cur2': 0.17, 'cur0': 0.16, 'cur1': 0.0, 'mgs': 0, 'compass': 11.06, 'lipoC2': 0.0, 'temp': 25.52, 'thr3': 31.0, 'depth': 0.159, 'time': 44.78, 'thr2': 31.0, 'yaw': 0.0, 'thr0': 26.0, 'thr1': 26.0}
{'lipoC3S3': 0.0, 'datetime': '2019-02-27 10:42:07.342394', 'pitch': 174.91, 'rot1': 0, 'rot0': 461, 'rot3': 0, 'rot2': 0, 'state': 'normal', 'flw3': 0, 'flw2': 0, 'flw1': 0, 'flw0': 0, 'roll': -81.2, 'cur2': 0.2, 'cur0': 0.17, 'cur1': 0.0, 'mgs': 0, 'compass': 11.06, 'lipoC2': 0.0, 'temp': 25.52, 'thr3': 32.0, 'depth': 0.159, 'time': 45.1, 'thr2': 31.0, 'yaw': 0.0, 'thr0': 26.0, 'thr1': 26.0}
{'lipoC3S3': 0.0, 'datetime': '2019-02-27 10:42:07.664875', 'pitch': 174.91, 'rot1': 0, 'rot0': 461, 'rot3': 0, 'rot2': 0, 'state': 'normal', 'flw3': 0, 'flw2': 0, 'flw1': 0, 'flw0': 0, 'roll': -81.2, 'cur2': 0.18, 'cur0': 0.11, 'cur1': 0.0, 'mgs': 0, 'compass': 11.06, 'lipoC2': 0.0, 'temp': 25.52, 'thr3': 32.0, 'depth': 0.159, 'time': 45.42, 'thr2': 31.0, 'yaw': 0.0, 'thr0': 26.0, 'thr1': 26.0}
{'lipoC3S3': 0.0, 'datetime': '2019-02-27 10:42:07.987238', 'pitch': 174.91, 'rot1': 0, 'rot0': 465, 'rot3': 0, 'rot2': 0, 'state': 'normal', 'flw3': 0, 'flw2': 0, 'flw1': 0, 'flw0': 0, 'roll': -81.2, 'cur2': 0.17, 'cur0': 0.13, 'cur1': 0.0, 'mgs': 0, 'compass': 11.06, 'lipoC2': 0.0, 'temp': 25.52, 'thr3': 32.0, 'depth': 0.159, 'time': 45.74, 'thr2': 31.0, 'yaw': 0.0, 'thr0': 26.0, 'thr1': 26.0}
{'lipoC3S3': 0.0, 'datetime': '2019-02-27 10:42:08.308671', 'pitch': 174.91, 'rot1': 0, 'rot0': 470, 'rot3': 0, 'rot2': 0, 'state': 'normal', 'flw3': 0, 'flw2': 0, 'flw1': 0, 'flw0': 0, 'roll': -81.2, 'cur2': 0.18, 'cur0': 0.12, 'cur1': 0.0, 'mgs': 0, 'compass': 11.06, 'lipoC2': 0.0, 'temp': 25.52, 'thr3': 32.0, 'depth': 0.159, 'time': 46.06, 'thr2': 31.0, 'yaw': 0.0, 'thr0': 26.0, 'thr1': 26.0}
{'lipoC3S3': 0.0, 'datetime': '2019-02-27 10:42:08.632409', 'pitch': 174.91, 'rot1': 0, 'rot0': 470, 'rot3': 0, 'rot2': 0, 'state': 'normal', 'flw3': 0, 'flw2': 0, 'flw1': 0, 'flw0': 0, 'roll': -81.2, 'cur2': 0.18, 'cur0': 0.15, 'cur1': 0.0, 'mgs': 0, 'compass': 11.06, 'lipoC2': 0.0, 'temp': 25.52, 'thr3': 32.0, 'depth': 0.149, 'time': 46.38, 'thr2': 31.0, 'yaw': 0.0, 'thr0': 26.0, 'thr1': 26.0}
{'lipoC3S3': 0.0, 'datetime': '2019-02-27 10:42:08.952225', 'pitch': 174.91, 'rot1': 0, 'rot0': 470, 'rot3': 0, 'rot2': 0, 'state': 'normal', 'flw3': 0, 'flw2': 0, 'flw1': 0, 'flw0': 0, 'roll': -81.2, 'cur2': 0.18, 'cur0': 0.16, 'cur1': 0.0, 'mgs': 0, 'compass': 11.06, 'lipoC2': 0.0, 'temp': 25.52, 'thr3': 32.0, 'depth': 0.159, 'time': 46.71, 'thr2': 31.0, 'yaw': 0.0, 'thr0': 26.0, 'thr1': 26.0}
{'lipoC3S3': 0.0, 'datetime': '2019-02-27 10:42:09.274722', 'pitch': 174.91, 'rot1': 0, 'rot0': 470, 'rot3': 0, 'rot2': 0, 'state': 'normal', 'flw3': 0, 'flw2': 0, 'flw1': 0, 'flw0': 0, 'roll': -81.2, 'cur2': 0.18, 'cur0': 0.15, 'cur1': 0.0, 'mgs': 0, 'compass': 11.06, 'lipoC2': 0.0, 'temp': 25.52, 'thr3': 31.0, 'depth': 0.159, 'time': 47.03, 'thr2': 31.0, 'yaw': 0.0, 'thr0': 26.0, 'thr1': 26.0}
{'lipoC3S3': 0.0, 'datetime': '2019-02-27 10:42:09.594933', 'pitch': 174.91, 'rot1': 0, 'rot0': 470, 'rot3': 0, 'rot2': 0, 'state': 'normal', 'flw3': 0, 'flw2': 0, 'flw1': 0, 'flw0': 0, 'roll': -81.2, 'cur2': 0.18, 'cur0': 0.16, 'cur1': 0.0, 'mgs': 0, 'compass': 11.06, 'lipoC2': 0.0, 'temp': 25.52, 'thr3': 31.0, 'depth': 0.159, 'time': 47.35, 'thr2': 31.0, 'yaw': 0.0, 'thr0': 26.0, 'thr1': 26.0}
{'lipoC3S3': 0.0, 'datetime': '2019-02-27 10:42:09.918299', 'pitch': 174.91, 'rot1': 0, 'rot0': 475, 'rot3': 0, 'rot2': 0, 'state': 'normal', 'flw3': 0, 'flw2': 0, 'flw1': 0, 'flw0': 0, 'roll': -81.2, 'cur2': 0.18, 'cur0': 0.12, 'cur1': 0.0, 'mgs': 0, 'compass': 11.06, 'lipoC2': 0.0, 'temp': 25.52, 'thr3': 31.0, 'depth': 0.159, 'time': 47.67, 'thr2': 30.0, 'yaw': 0.0, 'thr0': 26.0, 'thr1': 26.0}
{'lipoC3S3': 0.0, 'datetime': '2019-02-27 10:42:10.244751', 'pitch': 174.91, 'rot1': 0, 'rot0': 480, 'rot3': 0, 'rot2': 0, 'state': 'normal', 'flw3': 0, 'flw2': 0, 'flw1': 0, 'flw0': 0, 'roll': -81.2, 'cur2': 0.18, 'cur0': 0.13, 'cur1': 0.0, 'mgs': 0, 'compass': 11.06, 'lipoC2': 0.0, 'temp': 25.52, 'thr3': 31.0, 'depth': 0.159, 'time': 47.99, 'thr2': 31.0, 'yaw': 0.0, 'thr0': 26.0, 'thr1': 26.0}
{'lipoC3S3': 0.0, 'datetime': '2019-02-27 10:42:10.560877', 'pitch': 174.91, 'rot1': 0, 'rot0': 484, 'rot3': 0, 'rot2': 0, 'state': 'normal', 'flw3': 0, 'flw2': 0, 'flw1': 0, 'flw0': 0, 'roll': -81.2, 'cur2': 0.18, 'cur0': 0.12, 'cur1': 0.0, 'mgs': 0, 'compass': 11.06, 'lipoC2': 0.0, 'temp': 25.52, 'thr3': 32.0, 'depth': 0.159, 'time': 48.31, 'thr2': 31.0, 'yaw': 0.0, 'thr0': 26.0, 'thr1': 26.0}
{'lipoC3S3': 0.0, 'datetime': '2019-02-27 10:42:10.884636', 'pitch': 174.91, 'rot1': 0, 'rot0': 487, 'rot3': 0, 'rot2': 0, 'state': 'normal', 'flw3': 0, 'flw2': 0, 'flw1': 0, 'flw0': 0, 'roll': -81.2, 'cur2': 0.17, 'cur0': 0.13, 'cur1': 0.0, 'mgs': 0, 'compass': 11.06, 'lipoC2': 0.0, 'temp': 25.52, 'thr3': 31.0, 'depth': 0.159, 'time': 48.63, 'thr2': 30.0, 'yaw': 0.0, 'thr0': 26.0, 'thr1': 26.0}
{'lipoC3S3': 0.0, 'datetime': '2019-02-27 10:42:11.204397', 'pitch': 174.91, 'rot1': 0, 'rot0': 497, 'rot3': 0, 'rot2': 0, 'state': 'normal', 'flw3': 0, 'flw2': 0, 'flw1': 0, 'flw0': 0, 'roll': -81.2, 'cur2': 0.17, 'cur0': 0.12, 'cur1': 0.0, 'mgs': 0, 'compass': 11.06, 'lipoC2': 0.0, 'temp': 25.52, 'thr3': 31.0, 'depth': 0.159, 'time': 48.96, 'thr2': 30.0, 'yaw': 0.0, 'thr0': 26.0, 'thr1': 26.0}
{'lipoC3S3': 0.0, 'datetime': '2019-02-27 10:42:11.526748', 'pitch': 174.91, 'rot1': 0, 'rot0': 510, 'rot3': 0, 'rot2': 0, 'state': 'normal', 'flw3': 0, 'flw2': 0, 'flw1': 0, 'flw0': 0, 'roll': -81.2, 'cur2': 0.17, 'cur0': 0.12, 'cur1': 0.0, 'mgs': 0, 'compass': 11.06, 'lipoC2': 0.0, 'temp': 25.52, 'thr3': 31.0, 'depth': 0.159, 'time': 49.28, 'thr2': 30.0, 'yaw': 0.0, 'thr0': 26.0, 'thr1': 26.0}
