{'lipoC2': 7.48, 'temp': 0.0, 'lipoC3S3': 11.63, 'state': 'normal', 'rot1': 0, 'rot0': 0, 'rot3': 0, 'rot2': 0, 'depth': 0.089, 'yaw': 0.0, 'datetime': '2018-12-12 13:24:08.756124', 'mgs': 0, 'flw2': 0.0, 'flw1': 0.0, 'flw0': 0.0, 'time': 1.25, 'compass': 115.54, 'pitch': -3.04, 'roll': 0.87}
{'lipoC2': 7.43, 'temp': 0.0, 'lipoC3S3': 11.87, 'state': 'normal', 'rot1': 0, 'rot0': 0, 'rot3': 0, 'rot2': 0, 'depth': 0.394, 'yaw': -1.57, 'datetime': '2018-12-12 13:24:08.963703', 'mgs': 0, 'flw2': 0.0, 'flw1': 0.09, 'flw0': 0.0, 'time': 1.46, 'compass': 113.97, 'pitch': -3.15, 'roll': 1.22}
{'lipoC2': 7.44, 'temp': 0.0, 'lipoC3S3': 11.58, 'state': 'normal', 'rot1': 0, 'rot0': 0, 'rot3': 0, 'rot2': 0, 'depth': 0.317, 'yaw': -3.01, 'datetime': '2018-12-12 13:24:09.171140', 'mgs': 0, 'flw2': 0.0, 'flw1': 0.0, 'flw0': 0.0, 'time': 1.67, 'compass': 112.53, 'pitch': -3.55, 'roll': 1.21}
{'lipoC2': 7.42, 'temp': 0.0, 'lipoC3S3': 11.9, 'state': 'normal', 'rot1': 0, 'rot0': 0, 'rot3': 0, 'rot2': 0, 'depth': 2.072, 'yaw': -4.47, 'datetime': '2018-12-12 13:24:09.378628', 'mgs': 0, 'flw2': 0.0, 'flw1': 0.26, 'flw0': 0.0, 'time': 1.88, 'compass': 111.07, 'pitch': -4.16, 'roll': 0.95}
{'lipoC2': 7.4, 'temp': 0.0, 'lipoC3S3': 11.69, 'state': 'normal', 'rot1': 0, 'rot0': 0, 'rot3': 0, 'rot2': 0, 'depth': -0.064, 'yaw': -5.85, 'datetime': '2018-12-12 13:24:09.587865', 'mgs': 0, 'flw2': 0.0, 'flw1': 0.47, 'flw0': 0.0, 'time': 2.08, 'compass': 109.69, 'pitch': -4.52, 'roll': 0.64}
{'lipoC2': 7.43, 'temp': 0.0, 'lipoC3S3': 11.87, 'state': 'normal', 'rot1': 0, 'rot0': 0, 'rot3': 0, 'rot2': 0, 'depth': 0.012, 'yaw': -7.16, 'datetime': '2018-12-12 13:24:09.797542', 'mgs': 0, 'flw2': 0.0, 'flw1': 0.26, 'flw0': 0.0, 'time': 2.29, 'compass': 108.38, 'pitch': -4.21, 'roll': 0.36}
{'lipoC2': 7.44, 'temp': 0.0, 'lipoC3S3': 11.81, 'state': 'normal', 'rot1': 0, 'rot0': 0, 'rot3': 0, 'rot2': 0, 'depth': 0.394, 'yaw': -8.36, 'datetime': '2018-12-12 13:24:10.005860', 'mgs': 0, 'flw2': 0.0, 'flw1': 0.35, 'flw0': 0.0, 'time': 2.5, 'compass': 107.18, 'pitch': -3.49, 'roll': 0.03}
{'lipoC2': 7.46, 'temp': 0.0, 'lipoC3S3': 11.9, 'state': 'normal', 'rot1': 0, 'rot0': 0, 'rot3': 0, 'rot2': 0, 'depth': 2.53, 'yaw': -9.56, 'datetime': '2018-12-12 13:24:10.212194', 'mgs': 0, 'flw2': 0.28, 'flw1': 0.0, 'flw0': 0.01, 'time': 2.71, 'compass': 105.98, 'pitch': -3.11, 'roll': -0.31}
{'lipoC2': 7.42, 'temp': 0.0, 'lipoC3S3': 11.93, 'state': 'normal', 'rot1': 0, 'rot0': 0, 'rot3': 0, 'rot2': 0, 'depth': 2.301, 'yaw': -10.68, 'datetime': '2018-12-12 13:24:10.420657', 'mgs': 0, 'flw2': 0.0, 'flw1': 0.06, 'flw0': 0.0, 'time': 2.92, 'compass': 104.86, 'pitch': -3.39, 'roll': -0.44}
{'lipoC2': 7.43, 'temp': 0.0, 'lipoC3S3': 11.51, 'state': 'normal', 'rot1': 0, 'rot0': 0, 'rot3': 0, 'rot2': 0, 'depth': 2.606, 'yaw': -11.82, 'datetime': '2018-12-12 13:24:10.627742', 'mgs': 0, 'flw2': 0.06, 'flw1': 0.0, 'flw0': 0.27, 'time': 3.12, 'compass': 103.72, 'pitch': -3.8, 'roll': -0.28}
{'lipoC2': 7.42, 'temp': 0.0, 'lipoC3S3': 11.94, 'state': 'normal', 'rot1': 0, 'rot0': 0, 'rot3': 0, 'rot2': 0, 'depth': 1.996, 'yaw': -12.92, 'datetime': '2018-12-12 13:24:10.836148', 'mgs': 0, 'flw2': 0.0, 'flw1': 0.0, 'flw0': 0.0, 'time': 3.33, 'compass': 102.62, 'pitch': -3.71, 'roll': 0.01}
{'lipoC2': 7.46, 'temp': 0.0, 'lipoC3S3': 11.83, 'state': 'normal', 'rot1': 0, 'rot0': 0, 'rot3': 0, 'rot2': 0, 'depth': 0.623, 'yaw': -14.02, 'datetime': '2018-12-12 13:24:11.043753', 'mgs': 0, 'flw2': 0.0, 'flw1': 0.41, 'flw0': 0.0, 'time': 3.54, 'compass': 101.52, 'pitch': -3.25, 'roll': 0.29}
{'lipoC2': 7.44, 'temp': 0.0, 'lipoC3S3': 11.63, 'state': 'normal', 'rot1': 0, 'rot0': 0, 'rot3': 0, 'rot2': 0, 'depth': -0.369, 'yaw': -15.09, 'datetime': '2018-12-12 13:24:11.253104', 'mgs': 0, 'flw2': 0.0, 'flw1': 0.0, 'flw0': 0.0, 'time': 3.75, 'compass': 100.46, 'pitch': -2.83, 'roll': 0.49}
{'lipoC2': 7.65, 'temp': 0.0, 'lipoC3S3': 11.64, 'state': 'normal', 'rot1': 0, 'rot0': 0, 'rot3': 0, 'rot2': 0, 'depth': 0.546, 'yaw': -16.2, 'datetime': '2018-12-12 13:24:11.460179', 'mgs': 0, 'flw2': 0.24, 'flw1': 0.0, 'flw0': 0.05, 'time': 3.95, 'compass': 99.35, 'pitch': -2.88, 'roll': 0.64}
{'lipoC2': 7.43, 'temp': 0.0, 'lipoC3S3': 11.87, 'state': 'normal', 'rot1': 0, 'rot0': 0, 'rot3': 0, 'rot2': 0, 'depth': 0.699, 'yaw': -17.26, 'datetime': '2018-12-12 13:24:11.670604', 'mgs': 0, 'flw2': 0.0, 'flw1': 0.0, 'flw0': 0.0, 'time': 4.16, 'compass': 98.28, 'pitch': -3.52, 'roll': 0.64}
{'lipoC2': 7.42, 'temp': 0.0, 'lipoC3S3': 11.93, 'state': 'normal', 'rot1': 0, 'rot0': 0, 'rot3': 0, 'rot2': 0, 'depth': 0.165, 'yaw': -18.23, 'datetime': '2018-12-12 13:24:11.875111', 'mgs': 0, 'flw2': 0.0, 'flw1': 0.0, 'flw0': 0.0, 'time': 4.37, 'compass': 97.31, 'pitch': -4.15, 'roll': 0.57}
{'lipoC2': 7.43, 'temp': 0.0, 'lipoC3S3': 11.88, 'state': 'normal', 'rot1': 0, 'rot0': 0, 'rot3': 0, 'rot2': 0, 'depth': 1.004, 'yaw': -19.21, 'datetime': '2018-12-12 13:24:12.079387', 'mgs': 0, 'flw2': 0.0, 'flw1': 0.26, 'flw0': 0.0, 'time': 4.58, 'compass': 96.33, 'pitch': -4.03, 'roll': 0.5}
{'lipoC2': 7.47, 'temp': 0.0, 'lipoC3S3': 11.92, 'state': 'normal', 'rot1': 0, 'rot0': 0, 'rot3': 0, 'rot2': 0, 'depth': 0.623, 'yaw': -20.14, 'datetime': '2018-12-12 13:24:12.287887', 'mgs': 0, 'flw2': 0.0, 'flw1': 0.0, 'flw0': 0.0, 'time': 4.78, 'compass': 95.4, 'pitch': -3.76, 'roll': 0.44}
{'lipoC2': 7.46, 'temp': 0.0, 'lipoC3S3': 11.84, 'state': 'normal', 'rot1': 0, 'rot0': 0, 'rot3': 0, 'rot2': 0, 'depth': 1.614, 'yaw': -21.0, 'datetime': '2018-12-12 13:24:12.495818', 'mgs': 0, 'flw2': 0.0, 'flw1': 0.35, 'flw0': 0.0, 'time': 4.99, 'compass': 94.54, 'pitch': -4.32, 'roll': 0.38}
{'lipoC2': 7.39, 'temp': 0.0, 'lipoC3S3': 11.64, 'state': 'normal', 'rot1': 0, 'rot0': 0, 'rot3': 0, 'rot2': 0, 'depth': 0.394, 'yaw': -21.86, 'datetime': '2018-12-12 13:24:12.704766', 'mgs': 0, 'flw2': 0.0, 'flw1': 0.47, 'flw0': 0.0, 'time': 5.2, 'compass': 93.69, 'pitch': -5.2, 'roll': 0.31}
{'lipoC2': 7.46, 'temp': 0.0, 'lipoC3S3': 11.89, 'state': 'normal', 'rot1': 0, 'rot0': 0, 'rot3': 0, 'rot2': 0, 'depth': 2.454, 'yaw': -22.68, 'datetime': '2018-12-12 13:24:12.914263', 'mgs': 0, 'flw2': 0.27, 'flw1': 0.0, 'flw0': 0.01, 'time': 5.41, 'compass': 92.86, 'pitch': -5.1, 'roll': 0.29}
{'lipoC2': 7.47, 'temp': 0.0, 'lipoC3S3': 11.87, 'state': 'normal', 'rot1': 0, 'rot0': 0, 'rot3': 0, 'rot2': 0, 'depth': 0.623, 'yaw': -23.43, 'datetime': '2018-12-12 13:24:13.122032', 'mgs': 0, 'flw2': 0.0, 'flw1': 0.0, 'flw0': 0.0, 'time': 5.62, 'compass': 92.12, 'pitch': -4.21, 'roll': 0.49}
{'lipoC2': 7.37, 'temp': 0.0, 'lipoC3S3': 11.61, 'state': 'normal', 'rot1': 0, 'rot0': 0, 'rot3': 0, 'rot2': 0, 'depth': 0.546, 'yaw': -24.17, 'datetime': '2018-12-12 13:24:13.334673', 'mgs': 0, 'flw2': 0.0, 'flw1': 0.0, 'flw0': 0.0, 'time': 5.82, 'compass': 91.37, 'pitch': -3.69, 'roll': 0.65}
{'lipoC2': 7.42, 'temp': 0.0, 'lipoC3S3': 11.68, 'state': 'normal', 'rot1': 0, 'rot0': 0, 'rot3': 0, 'rot2': 0, 'depth': 0.394, 'yaw': -24.89, 'datetime': '2018-12-12 13:24:13.540057', 'mgs': 0, 'flw2': 0.0, 'flw1': 0.32, 'flw0': 0.0, 'time': 6.03, 'compass': 90.65, 'pitch': -3.86, 'roll': 0.6}
{'lipoC2': 7.44, 'temp': 0.0, 'lipoC3S3': 11.75, 'state': 'normal', 'rot1': 0, 'rot0': 0, 'rot3': 0, 'rot2': 0, 'depth': 0.241, 'yaw': -25.56, 'datetime': '2018-12-12 13:24:13.745695', 'mgs': 0, 'flw2': 0.0, 'flw1': 0.56, 'flw0': 0.0, 'time': 6.24, 'compass': 89.98, 'pitch': -4.03, 'roll': 0.56}
{'lipoC2': 7.41, 'temp': 0.0, 'lipoC3S3': 11.73, 'state': 'normal', 'rot1': 0, 'rot0': 0, 'rot3': 0, 'rot2': 0, 'depth': -0.064, 'yaw': -26.19, 'datetime': '2018-12-12 13:24:13.951966', 'mgs': 0, 'flw2': 0.0, 'flw1': 0.38, 'flw0': 0.0, 'time': 6.45, 'compass': 89.35, 'pitch': -3.91, 'roll': 0.7}
{'lipoC2': 7.49, 'temp': 0.0, 'lipoC3S3': 11.65, 'state': 'normal', 'rot1': 0, 'rot0': 0, 'rot3': 0, 'rot2': 0, 'depth': 0.241, 'yaw': -26.8, 'datetime': '2018-12-12 13:24:14.161892', 'mgs': 0, 'flw2': 0.0, 'flw1': 0.0, 'flw0': 0.0, 'time': 6.65, 'compass': 88.74, 'pitch': -3.8, 'roll': 0.94}
{'lipoC2': 7.41, 'temp': 0.0, 'lipoC3S3': 11.96, 'state': 'normal', 'rot1': 0, 'rot0': 0, 'rot3': 0, 'rot2': 0, 'depth': 2.225, 'yaw': -27.41, 'datetime': '2018-12-12 13:24:14.370856', 'mgs': 0, 'flw2': 0.0, 'flw1': 0.29, 'flw0': 0.0, 'time': 6.86, 'compass': 88.13, 'pitch': -3.93, 'roll': 0.96}
{'lipoC2': 7.49, 'temp': 0.0, 'lipoC3S3': 11.68, 'state': 'normal', 'rot1': 0, 'rot0': 0, 'rot3': 0, 'rot2': 0, 'depth': 0.928, 'yaw': -27.97, 'datetime': '2018-12-12 13:24:14.579494', 'mgs': 0, 'flw2': 0.04, 'flw1': 0.0, 'flw0': 0.0, 'time': 7.07, 'compass': 87.58, 'pitch': -4.07, 'roll': 0.74}
{'lipoC2': 7.43, 'temp': 0.0, 'lipoC3S3': 11.93, 'state': 'normal', 'rot1': 0, 'rot0': 0, 'rot3': 0, 'rot2': 0, 'depth': 2.53, 'yaw': -28.5, 'datetime': '2018-12-12 13:24:14.786350', 'mgs': 0, 'flw2': 0.0, 'flw1': 0.0, 'flw0': 0.0, 'time': 7.28, 'compass': 87.05, 'pitch': -4.07, 'roll': 0.65}
{'lipoC2': 7.46, 'temp': 0.0, 'lipoC3S3': 11.81, 'state': 'normal', 'rot1': 0, 'rot0': 0, 'rot3': 0, 'rot2': 0, 'depth': 0.623, 'yaw': -29.0, 'datetime': '2018-12-12 13:24:14.996704', 'mgs': 0, 'flw2': 0.0, 'flw1': 0.38, 'flw0': 0.0, 'time': 7.49, 'compass': 86.54, 'pitch': -4.04, 'roll': 0.86}
{'lipoC2': 7.46, 'temp': 0.0, 'lipoC3S3': 11.93, 'state': 'normal', 'rot1': 0, 'rot0': 0, 'rot3': 0, 'rot2': 0, 'depth': 0.47, 'yaw': -29.48, 'datetime': '2018-12-12 13:24:15.200889', 'mgs': 0, 'flw2': 0.0, 'flw1': 0.0, 'flw0': 0.0, 'time': 7.69, 'compass': 86.06, 'pitch': -3.9, 'roll': 0.94}
{'lipoC2': 7.42, 'temp': 0.0, 'lipoC3S3': 11.96, 'state': 'normal', 'rot1': 0, 'rot0': 0, 'rot3': 0, 'rot2': 0, 'depth': 0.089, 'yaw': -29.97, 'datetime': '2018-12-12 13:24:15.408183', 'mgs': 0, 'flw2': 0.0, 'flw1': 0.21, 'flw0': 0.0, 'time': 7.9, 'compass': 85.57, 'pitch': -3.88, 'roll': 0.71}
{'lipoC2': 7.63, 'temp': 0.0, 'lipoC3S3': 11.51, 'state': 'normal', 'rot1': 0, 'rot0': 0, 'rot3': 0, 'rot2': 0, 'depth': -0.522, 'yaw': -30.41, 'datetime': '2018-12-12 13:24:15.617426', 'mgs': 0, 'flw2': 0.22, 'flw1': 0.0, 'flw0': 0.23, 'time': 8.11, 'compass': 85.13, 'pitch': -4.22, 'roll': 0.55}
{'lipoC2': 7.43, 'temp': 0.0, 'lipoC3S3': 11.93, 'state': 'normal', 'rot1': 0, 'rot0': 0, 'rot3': 0, 'rot2': 0, 'depth': 2.682, 'yaw': -30.8, 'datetime': '2018-12-12 13:24:15.825915', 'mgs': 0, 'flw2': 0.0, 'flw1': 0.29, 'flw0': 0.0, 'time': 8.32, 'compass': 84.75, 'pitch': -4.58, 'roll': 0.68}
{'lipoC2': 7.43, 'temp': 0.0, 'lipoC3S3': 11.94, 'state': 'normal', 'rot1': 0, 'rot0': 0, 'rot3': 0, 'rot2': 0, 'depth': 2.682, 'yaw': -31.19, 'datetime': '2018-12-12 13:24:16.034930', 'mgs': 0, 'flw2': 0.0, 'flw1': 0.0, 'flw0': 0.0, 'time': 8.53, 'compass': 84.35, 'pitch': -4.45, 'roll': 0.8}
{'lipoC2': 7.41, 'temp': 0.0, 'lipoC3S3': 11.69, 'state': 'normal', 'rot1': 0, 'rot0': 0, 'rot3': 0, 'rot2': 0, 'depth': 0.699, 'yaw': -31.6, 'datetime': '2018-12-12 13:24:16.242330', 'mgs': 0, 'flw2': 0.0, 'flw1': 0.44, 'flw0': 0.0, 'time': 8.73, 'compass': 83.94, 'pitch': -4.24, 'roll': 0.77}
{'lipoC2': 7.46, 'temp': 0.0, 'lipoC3S3': 11.76, 'state': 'normal', 'rot1': 0, 'rot0': 0, 'rot3': 0, 'rot2': 0, 'depth': 0.241, 'yaw': -31.95, 'datetime': '2018-12-12 13:24:16.450775', 'mgs': 0, 'flw2': 0.11, 'flw1': 0.0, 'flw0': 0.0, 'time': 8.94, 'compass': 83.6, 'pitch': -4.42, 'roll': 0.79}
{'lipoC2': 7.46, 'temp': 0.0, 'lipoC3S3': 11.89, 'state': 'normal', 'rot1': 0, 'rot0': 0, 'rot3': 0, 'rot2': 0, 'depth': 2.53, 'yaw': -32.27, 'datetime': '2018-12-12 13:24:16.657875', 'mgs': 0, 'flw2': 0.0, 'flw1': 0.29, 'flw0': 0.02, 'time': 9.15, 'compass': 83.27, 'pitch': -4.83, 'roll': 1.11}
{'lipoC2': 7.41, 'temp': 0.0, 'lipoC3S3': 11.71, 'state': 'normal', 'rot1': 0, 'rot0': 0, 'rot3': 0, 'rot2': 0, 'depth': 0.241, 'yaw': -32.59, 'datetime': '2018-12-12 13:24:16.866024', 'mgs': 0, 'flw2': 0.0, 'flw1': 0.56, 'flw0': 0.0, 'time': 9.36, 'compass': 82.95, 'pitch': -4.75, 'roll': 1.39}
{'lipoC2': 7.44, 'temp': 0.0, 'lipoC3S3': 11.94, 'state': 'normal', 'rot1': 0, 'rot0': 0, 'rot3': 0, 'rot2': 0, 'depth': 0.089, 'yaw': -32.86, 'datetime': '2018-12-12 13:24:17.074182', 'mgs': 0, 'flw2': 0.0, 'flw1': 0.15, 'flw0': 0.0, 'time': 9.56, 'compass': 82.68, 'pitch': -4.26, 'roll': 1.33}
{'lipoC2': 7.66, 'temp': 0.0, 'lipoC3S3': 11.56, 'state': 'normal', 'rot1': 0, 'rot0': 0, 'rot3': 0, 'rot2': 0, 'depth': 2.682, 'yaw': -33.11, 'datetime': '2018-12-12 13:24:17.286480', 'mgs': 0, 'flw2': 0.21, 'flw1': 0.0, 'flw0': 0.21, 'time': 9.77, 'compass': 82.44, 'pitch': -4.15, 'roll': 1.21}
{'lipoC2': 7.61, 'temp': 0.0, 'lipoC3S3': 11.5, 'state': 'normal', 'rot1': 0, 'rot0': 0, 'rot3': 0, 'rot2': 0, 'depth': -0.674, 'yaw': -33.31, 'datetime': '2018-12-12 13:24:17.495273', 'mgs': 0, 'flw2': 0.0, 'flw1': 0.29, 'flw0': 0.0, 'time': 9.98, 'compass': 82.23, 'pitch': -4.63, 'roll': 1.22}
{'lipoC2': 7.39, 'temp': 0.0, 'lipoC3S3': 11.67, 'state': 'normal', 'rot1': 0, 'rot0': 0, 'rot3': 0, 'rot2': 0, 'depth': -0.14, 'yaw': -33.48, 'datetime': '2018-12-12 13:24:17.705064', 'mgs': 0, 'flw2': 0.0, 'flw1': 0.59, 'flw0': 0.0, 'time': 10.19, 'compass': 82.06, 'pitch': -4.94, 'roll': 1.28}
{'lipoC2': 7.61, 'temp': 0.0, 'lipoC3S3': 11.64, 'state': 'normal', 'rot1': 0, 'rot0': 0, 'rot3': 0, 'rot2': 0, 'depth': 0.546, 'yaw': -33.63, 'datetime': '2018-12-12 13:24:17.913111', 'mgs': 0, 'flw2': 0.18, 'flw1': 0.0, 'flw0': 0.17, 'time': 10.4, 'compass': 81.92, 'pitch': -4.94, 'roll': 1.27}
{'lipoC2': 7.51, 'temp': 0.0, 'lipoC3S3': 11.61, 'state': 'normal', 'rot1': 0, 'rot0': 0, 'rot3': 0, 'rot2': 0, 'depth': 0.851, 'yaw': -33.75, 'datetime': '2018-12-12 13:24:18.121538', 'mgs': 0, 'flw2': 0.0, 'flw1': 0.0, 'flw0': 0.0, 'time': 10.61, 'compass': 81.8, 'pitch': -4.95, 'roll': 1.26}
{'lipoC2': 7.48, 'temp': 0.0, 'lipoC3S3': 11.67, 'state': 'normal', 'rot1': 0, 'rot0': 0, 'rot3': 0, 'rot2': 0, 'depth': 0.775, 'yaw': -33.84, 'datetime': '2018-12-12 13:24:18.330149', 'mgs': 0, 'flw2': 0.0, 'flw1': 0.0, 'flw0': 0.12, 'time': 10.81, 'compass': 81.71, 'pitch': -5.08, 'roll': 1.27}
{'lipoC2': 7.42, 'temp': 0.0, 'lipoC3S3': 11.88, 'state': 'normal', 'rot1': 0, 'rot0': 0, 'rot3': 0, 'rot2': 0, 'depth': 0.012, 'yaw': -33.86, 'datetime': '2018-12-12 13:24:18.538209', 'mgs': 0, 'flw2': 0.0, 'flw1': 0.18, 'flw0': 0.0, 'time': 11.02, 'compass': 81.68, 'pitch': -5.1, 'roll': 1.37}
{'lipoC2': 7.42, 'temp': 0.0, 'lipoC3S3': 11.92, 'state': 'normal', 'rot1': 0, 'rot0': 0, 'rot3': 0, 'rot2': 0, 'depth': -0.14, 'yaw': -33.86, 'datetime': '2018-12-12 13:24:18.749052', 'mgs': 0, 'flw2': 0.0, 'flw1': 0.12, 'flw0': 0.0, 'time': 11.23, 'compass': 81.68, 'pitch': -5.1, 'roll': 1.37}
{'lipoC2': 7.46, 'temp': 0.0, 'lipoC3S3': 11.84, 'state': 'normal', 'rot1': 0, 'rot0': 0, 'rot3': 0, 'rot2': 0, 'depth': 2.301, 'yaw': -33.86, 'datetime': '2018-12-12 13:24:18.956890', 'mgs': 0, 'flw2': 0.0, 'flw1': 0.56, 'flw0': 0.0, 'time': 11.44, 'compass': 81.68, 'pitch': -5.04, 'roll': 1.37}
{'lipoC2': 7.39, 'temp': 0.0, 'lipoC3S3': 11.68, 'state': 'normal', 'rot1': 0, 'rot0': 0, 'rot3': 0, 'rot2': 0, 'depth': -0.14, 'yaw': -33.86, 'datetime': '2018-12-12 13:24:19.166381', 'mgs': 0, 'flw2': 0.12, 'flw1': 0.0, 'flw0': 0.27, 'time': 11.65, 'compass': 81.68, 'pitch': -5.02, 'roll': 1.37}
{'lipoC2': 7.59, 'temp': 0.0, 'lipoC3S3': 11.5, 'state': 'normal', 'rot1': 0, 'rot0': 0, 'rot3': 0, 'rot2': 0, 'depth': -0.598, 'yaw': -33.86, 'datetime': '2018-12-12 13:24:19.373492', 'mgs': 0, 'flw2': 0.0, 'flw1': 0.0, 'flw0': 0.24, 'time': 11.85, 'compass': 81.68, 'pitch': -5.09, 'roll': 1.39}
{'lipoC2': 7.46, 'temp': 0.0, 'lipoC3S3': 11.9, 'state': 'normal', 'rot1': 0, 'rot0': 0, 'rot3': 0, 'rot2': 0, 'depth': 0.317, 'yaw': -33.86, 'datetime': '2018-12-12 13:24:19.581257', 'mgs': 0, 'flw2': 0.0, 'flw1': 0.41, 'flw0': 0.0, 'time': 12.06, 'compass': 81.68, 'pitch': -4.99, 'roll': 1.39}
{'lipoC2': 7.46, 'temp': 0.0, 'lipoC3S3': 11.83, 'state': 'normal', 'rot1': 0, 'rot0': 0, 'rot3': 0, 'rot2': 0, 'depth': 0.47, 'yaw': -33.86, 'datetime': '2018-12-12 13:24:19.789924', 'mgs': 0, 'flw2': 0.0, 'flw1': 0.29, 'flw0': 0.0, 'time': 12.27, 'compass': 81.68, 'pitch': -4.75, 'roll': 1.39}
{'lipoC2': 7.64, 'temp': 0.0, 'lipoC3S3': 11.61, 'state': 'normal', 'rot1': 0, 'rot0': 0, 'rot3': 0, 'rot2': 0, 'depth': 0.546, 'yaw': -33.86, 'datetime': '2018-12-12 13:24:19.998918', 'mgs': 0, 'flw2': 0.26, 'flw1': 0.0, 'flw0': 0.06, 'time': 12.48, 'compass': 81.68, 'pitch': -5.05, 'roll': 1.39}
{'lipoC2': 7.47, 'temp': 0.0, 'lipoC3S3': 11.85, 'state': 'normal', 'rot1': 0, 'rot0': 0, 'rot3': 0, 'rot2': 0, 'depth': 0.623, 'yaw': -33.86, 'datetime': '2018-12-12 13:24:20.206809', 'mgs': 0, 'flw2': 0.0, 'flw1': 0.5, 'flw0': 0.0, 'time': 12.69, 'compass': 81.68, 'pitch': -5.62, 'roll': 1.43}
{'lipoC2': 7.47, 'temp': 0.0, 'lipoC3S3': 11.84, 'state': 'normal', 'rot1': 0, 'rot0': 0, 'rot3': 0, 'rot2': 0, 'depth': 2.377, 'yaw': -33.87, 'datetime': '2018-12-12 13:24:20.415589', 'mgs': 0, 'flw2': 0.0, 'flw1': 0.59, 'flw0': 0.0, 'time': 12.89, 'compass': 81.67, 'pitch': -5.81, 'roll': 1.66}
{'lipoC2': 7.42, 'temp': 0.0, 'lipoC3S3': 11.94, 'state': 'normal', 'rot1': 0, 'rot0': 0, 'rot3': 0, 'rot2': 0, 'depth': 2.301, 'yaw': -33.88, 'datetime': '2018-12-12 13:24:20.623342', 'mgs': 0, 'flw2': 0.0, 'flw1': 0.0, 'flw0': 0.0, 'time': 13.1, 'compass': 81.67, 'pitch': -5.66, 'roll': 1.8}
{'lipoC2': 7.42, 'temp': 0.0, 'lipoC3S3': 11.93, 'state': 'normal', 'rot1': 0, 'rot0': 0, 'rot3': 0, 'rot2': 0, 'depth': 2.454, 'yaw': -33.87, 'datetime': '2018-12-12 13:24:20.830392', 'mgs': 0, 'flw2': 0.0, 'flw1': 0.0, 'flw0': 0.0, 'time': 13.31, 'compass': 81.68, 'pitch': -5.61, 'roll': 1.72}
{'lipoC2': 7.38, 'temp': 0.0, 'lipoC3S3': 11.63, 'state': 'normal', 'rot1': 0, 'rot0': 0, 'rot3': 0, 'rot2': 0, 'depth': -0.369, 'yaw': -33.85, 'datetime': '2018-12-12 13:24:21.038426', 'mgs': 0, 'flw2': 0.0, 'flw1': 0.18, 'flw0': 0.0, 'time': 13.52, 'compass': 81.69, 'pitch': -5.61, 'roll': 1.57}
{'lipoC2': 7.39, 'temp': 0.0, 'lipoC3S3': 11.69, 'state': 'normal', 'rot1': 0, 'rot0': 0, 'rot3': 0, 'rot2': 0, 'depth': 0.546, 'yaw': -33.83, 'datetime': '2018-12-12 13:24:21.246800', 'mgs': 0, 'flw2': 0.0, 'flw1': 0.56, 'flw0': 0.0, 'time': 13.73, 'compass': 81.71, 'pitch': -5.39, 'roll': 1.57}
{'lipoC2': 7.43, 'temp': 0.0, 'lipoC3S3': 11.76, 'state': 'normal', 'rot1': 0, 'rot0': 0, 'rot3': 0, 'rot2': 0, 'depth': 0.394, 'yaw': -33.75, 'datetime': '2018-12-12 13:24:21.455683', 'mgs': 0, 'flw2': 0.0, 'flw1': 0.59, 'flw0': 0.0, 'time': 13.93, 'compass': 81.79, 'pitch': -5.12, 'roll': 1.7}
{'lipoC2': 7.42, 'temp': 0.0, 'lipoC3S3': 11.88, 'state': 'normal', 'rot1': 0, 'rot0': 0, 'rot3': 0, 'rot2': 0, 'depth': 0.241, 'yaw': -33.74, 'datetime': '2018-12-12 13:24:21.664946', 'mgs': 0, 'flw2': 0.0, 'flw1': 0.0, 'flw0': 0.0, 'time': 14.14, 'compass': 81.8, 'pitch': -5.35, 'roll': 1.7}
{'lipoC2': 7.46, 'temp': 0.0, 'lipoC3S3': 11.77, 'state': 'normal', 'rot1': 0, 'rot0': 0, 'rot3': 0, 'rot2': 0, 'depth': 0.47, 'yaw': -33.74, 'datetime': '2018-12-12 13:24:21.874106', 'mgs': 0, 'flw2': 0.0, 'flw1': 0.23, 'flw0': 0.0, 'time': 14.35, 'compass': 81.8, 'pitch': -5.81, 'roll': 1.7}
{'lipoC2': 7.52, 'temp': 0.0, 'lipoC3S3': 11.65, 'state': 'normal', 'rot1': 0, 'rot0': 0, 'rot3': 0, 'rot2': 0, 'depth': 0.623, 'yaw': -33.61, 'datetime': '2018-12-12 13:24:22.081308', 'mgs': 0, 'flw2': 0.0, 'flw1': 0.0, 'flw0': 0.0, 'time': 14.56, 'compass': 81.93, 'pitch': -5.69, 'roll': 1.72}
{'lipoC2': 7.65, 'temp': 0.0, 'lipoC3S3': 11.61, 'state': 'normal', 'rot1': 0, 'rot0': 0, 'rot3': 0, 'rot2': 0, 'depth': 1.92, 'yaw': -33.49, 'datetime': '2018-12-12 13:24:22.288998', 'mgs': 0, 'flw2': 0.0, 'flw1': 0.64, 'flw0': 0.0, 'time': 14.77, 'compass': 82.06, 'pitch': -5.23, 'roll': 1.74}
{'lipoC2': 7.44, 'temp': 0.0, 'lipoC3S3': 11.83, 'state': 'normal', 'rot1': 0, 'rot0': 0, 'rot3': 0, 'rot2': 0, 'depth': 0.317, 'yaw': -33.33, 'datetime': '2018-12-12 13:24:22.496976', 'mgs': 0, 'flw2': 0.11, 'flw1': 0.0, 'flw0': 0.0, 'time': 14.97, 'compass': 82.21, 'pitch': -5.28, 'roll': 1.95}
{'lipoC2': 7.42, 'temp': 0.0, 'lipoC3S3': 11.94, 'state': 'normal', 'rot1': 0, 'rot0': 0, 'rot3': 0, 'rot2': 0, 'depth': 0.089, 'yaw': -33.17, 'datetime': '2018-12-12 13:24:22.705363', 'mgs': 0, 'flw2': 0.0, 'flw1': 0.0, 'flw0': 0.0, 'time': 15.18, 'compass': 82.37, 'pitch': -5.73, 'roll': 2.13}
{'lipoC2': 7.46, 'temp': 0.0, 'lipoC3S3': 11.83, 'state': 'normal', 'rot1': 0, 'rot0': 0, 'rot3': 0, 'rot2': 0, 'depth': 2.377, 'yaw': -32.95, 'datetime': '2018-12-12 13:24:22.912748', 'mgs': 0, 'flw2': 0.0, 'flw1': 0.62, 'flw0': 0.0, 'time': 15.39, 'compass': 82.59, 'pitch': -6.04, 'roll': 2.24}
{'lipoC2': 7.46, 'temp': 0.0, 'lipoC3S3': 11.93, 'state': 'normal', 'rot1': 0, 'rot0': 0, 'rot3': 0, 'rot2': 0, 'depth': 0.394, 'yaw': -32.75, 'datetime': '2018-12-12 13:24:23.121733', 'mgs': 0, 'flw2': 0.0, 'flw1': 0.0, 'flw0': 0.0, 'time': 15.6, 'compass': 82.79, 'pitch': -6.22, 'roll': 2.26}
{'lipoC2': 7.42, 'temp': 0.0, 'lipoC3S3': 11.88, 'state': 'normal', 'rot1': 0, 'rot0': 0, 'rot3': 0, 'rot2': 0, 'depth': 1.614, 'yaw': -32.54, 'datetime': '2018-12-12 13:24:23.329835', 'mgs': 0, 'flw2': 0.0, 'flw1': 0.18, 'flw0': 0.0, 'time': 15.81, 'compass': 83.01, 'pitch': -6.3, 'roll': 2.28}
{'lipoC2': 7.41, 'temp': 0.0, 'lipoC3S3': 11.68, 'state': 'normal', 'rot1': 0, 'rot0': 0, 'rot3': 0, 'rot2': 0, 'depth': -0.369, 'yaw': -32.3, 'datetime': '2018-12-12 13:24:23.538742', 'mgs': 0, 'flw2': 0.17, 'flw1': 0.0, 'flw0': 0.28, 'time': 16.01, 'compass': 83.25, 'pitch': -6.18, 'roll': 2.31}
{'lipoC2': 7.43, 'temp': 0.0, 'lipoC3S3': 11.94, 'state': 'normal', 'rot1': 0, 'rot0': 0, 'rot3': 0, 'rot2': 0, 'depth': 0.317, 'yaw': -32.02, 'datetime': '2018-12-12 13:24:23.746491', 'mgs': 0, 'flw2': 0.0, 'flw1': 0.0, 'flw0': 0.0, 'time': 16.22, 'compass': 83.52, 'pitch': -5.99, 'roll': 2.34}
{'lipoC2': 7.62, 'temp': 0.0, 'lipoC3S3': 11.61, 'state': 'normal', 'rot1': 0, 'rot0': 0, 'rot3': 0, 'rot2': 0, 'depth': 1.462, 'yaw': -31.73, 'datetime': '2018-12-12 13:24:23.954321', 'mgs': 0, 'flw2': 0.2, 'flw1': 0.0, 'flw0': 0.24, 'time': 16.43, 'compass': 83.81, 'pitch': -5.91, 'roll': 2.37}
{'lipoC2': 7.47, 'temp': 0.0, 'lipoC3S3': 11.88, 'state': 'normal', 'rot1': 0, 'rot0': 0, 'rot3': 0, 'rot2': 0, 'depth': 2.148, 'yaw': -31.43, 'datetime': '2018-12-12 13:24:24.161460', 'mgs': 0, 'flw2': 0.0, 'flw1': 0.0, 'flw0': 0.0, 'time': 16.64, 'compass': 84.11, 'pitch': -5.8, 'roll': 2.37}
{'lipoC2': 7.55, 'temp': 0.0, 'lipoC3S3': 11.52, 'state': 'normal', 'rot1': 0, 'rot0': 0, 'rot3': 0, 'rot2': 0, 'depth': -0.598, 'yaw': -31.11, 'datetime': '2018-12-12 13:24:24.370721', 'mgs': 0, 'flw2': 0.0, 'flw1': 0.29, 'flw0': 0.0, 'time': 16.84, 'compass': 84.43, 'pitch': -5.67, 'roll': 2.29}
{'lipoC2': 7.42, 'temp': 0.0, 'lipoC3S3': 11.75, 'state': 'normal', 'rot1': 0, 'rot0': 0, 'rot3': 0, 'rot2': 0, 'depth': 0.012, 'yaw': -30.77, 'datetime': '2018-12-12 13:24:24.579418', 'mgs': 0, 'flw2': 0.0, 'flw1': 0.59, 'flw0': 0.0, 'time': 17.05, 'compass': 84.78, 'pitch': -5.48, 'roll': 2.32}
{'lipoC2': 7.47, 'temp': 0.0, 'lipoC3S3': 11.72, 'state': 'normal', 'rot1': 0, 'rot0': 0, 'rot3': 0, 'rot2': 0, 'depth': 0.317, 'yaw': -30.38, 'datetime': '2018-12-12 13:24:24.790348', 'mgs': 0, 'flw2': 0.05, 'flw1': 0.0, 'flw0': 0.0, 'time': 17.26, 'compass': 85.16, 'pitch': -5.56, 'roll': 2.4}
{'lipoC2': 7.66, 'temp': 0.0, 'lipoC3S3': 11.54, 'state': 'normal', 'rot1': 0, 'rot0': 0, 'rot3': 0, 'rot2': 0, 'depth': 2.682, 'yaw': -30.01, 'datetime': '2018-12-12 13:24:24.996615', 'mgs': 0, 'flw2': 0.1, 'flw1': 0.0, 'flw0': 0.28, 'time': 17.47, 'compass': 85.53, 'pitch': -6.18, 'roll': 2.44}
{'lipoC2': 7.55, 'temp': 0.0, 'lipoC3S3': 11.58, 'state': 'normal', 'rot1': 0, 'rot0': 0, 'rot3': 0, 'rot2': 0, 'depth': -0.827, 'yaw': -29.64, 'datetime': '2018-12-12 13:24:25.203114', 'mgs': 0, 'flw2': 0.0, 'flw1': 0.56, 'flw0': 0.0, 'time': 17.68, 'compass': 85.9, 'pitch': -6.69, 'roll': 2.52}
{'lipoC2': 7.42, 'temp': 0.0, 'lipoC3S3': 11.58, 'state': 'normal', 'rot1': 0, 'rot0': 0, 'rot3': 0, 'rot2': 0, 'depth': 0.089, 'yaw': -29.26, 'datetime': '2018-12-12 13:24:25.410511', 'mgs': 0, 'flw2': 0.23, 'flw1': 0.0, 'flw0': 0.21, 'time': 17.89, 'compass': 86.28, 'pitch': -6.65, 'roll': 2.72}
{'lipoC2': 7.42, 'temp': 0.0, 'lipoC3S3': 11.96, 'state': 'normal', 'rot1': 0, 'rot0': 0, 'rot3': 0, 'rot2': 0, 'depth': -0.064, 'yaw': -28.85, 'datetime': '2018-12-12 13:24:25.619137', 'mgs': 0, 'flw2': 0.0, 'flw1': 0.62, 'flw0': 0.0, 'time': 18.09, 'compass': 86.69, 'pitch': -6.45, 'roll': 2.81}
{'lipoC2': 7.42, 'temp': 0.0, 'lipoC3S3': 11.72, 'state': 'normal', 'rot1': 0, 'rot0': 0, 'rot3': 0, 'rot2': 0, 'depth': 0.317, 'yaw': -28.48, 'datetime': '2018-12-12 13:24:25.829080', 'mgs': 0, 'flw2': 0.0, 'flw1': 0.44, 'flw0': 0.0, 'time': 18.3, 'compass': 87.06, 'pitch': -6.44, 'roll': 2.85}
{'lipoC2': 7.46, 'temp': 0.0, 'lipoC3S3': 11.84, 'state': 'normal', 'rot1': 0, 'rot0': 0, 'rot3': 0, 'rot2': 0, 'depth': 2.225, 'yaw': -28.09, 'datetime': '2018-12-12 13:24:26.037588', 'mgs': 0, 'flw2': 0.0, 'flw1': 0.0, 'flw0': 0.22, 'time': 18.51, 'compass': 87.45, 'pitch': -6.42, 'roll': 2.9}
{'lipoC2': 7.42, 'temp': 0.0, 'lipoC3S3': 11.92, 'state': 'normal', 'rot1': 0, 'rot0': 0, 'rot3': 0, 'rot2': 0, 'depth': 2.148, 'yaw': -27.71, 'datetime': '2018-12-12 13:24:26.243519', 'mgs': 0, 'flw2': 0.0, 'flw1': 0.0, 'flw0': 0.0, 'time': 18.72, 'compass': 87.84, 'pitch': -6.4, 'roll': 2.94}
{'lipoC2': 7.43, 'temp': 0.0, 'lipoC3S3': 11.97, 'state': 'normal', 'rot1': 0, 'rot0': 0, 'rot3': 0, 'rot2': 0, 'depth': -0.14, 'yaw': -27.33, 'datetime': '2018-12-12 13:24:26.452754', 'mgs': 0, 'flw2': 0.17, 'flw1': 0.0, 'flw0': 0.16, 'time': 18.92, 'compass': 88.22, 'pitch': -6.34, 'roll': 2.98}
{'lipoC2': 7.42, 'temp': 0.0, 'lipoC3S3': 11.72, 'state': 'normal', 'rot1': 0, 'rot0': 0, 'rot3': 0, 'rot2': 0, 'depth': 1.614, 'yaw': -26.95, 'datetime': '2018-12-12 13:24:26.662212', 'mgs': 0, 'flw2': 0.02, 'flw1': 0.0, 'flw0': 0.27, 'time': 19.13, 'compass': 88.59, 'pitch': -6.08, 'roll': 2.99}
{'lipoC2': 7.46, 'temp': 0.0, 'lipoC3S3': 11.81, 'state': 'normal', 'rot1': 0, 'rot0': 0, 'rot3': 0, 'rot2': 0, 'depth': 0.623, 'yaw': -26.58, 'datetime': '2018-12-12 13:24:26.870544', 'mgs': 0, 'flw2': 0.0, 'flw1': 0.59, 'flw0': 0.0, 'time': 19.34, 'compass': 88.96, 'pitch': -5.72, 'roll': 2.8}
{'lipoC2': 7.59, 'temp': 0.0, 'lipoC3S3': 11.52, 'state': 'normal', 'rot1': 0, 'rot0': 0, 'rot3': 0, 'rot2': 0, 'depth': -0.598, 'yaw': -26.26, 'datetime': '2018-12-12 13:24:27.077208', 'mgs': 0, 'flw2': 0.04, 'flw1': 0.0, 'flw0': 0.23, 'time': 19.55, 'compass': 89.28, 'pitch': -5.63, 'roll': 2.77}
{'lipoC2': 7.38, 'temp': 0.0, 'lipoC3S3': 11.58, 'state': 'normal', 'rot1': 0, 'rot0': 0, 'rot3': 0, 'rot2': 0, 'depth': 0.012, 'yaw': -25.97, 'datetime': '2018-12-12 13:24:27.286849', 'mgs': 0, 'flw2': 0.05, 'flw1': 0.0, 'flw0': 5.41, 'time': 19.76, 'compass': 89.57, 'pitch': -6.05, 'roll': 2.92}
{'lipoC2': 7.41, 'temp': 0.0, 'lipoC3S3': 11.94, 'state': 'normal', 'rot1': 3, 'rot0': 0, 'rot3': 0, 'rot2': 0, 'depth': 0.775, 'yaw': -28.44, 'datetime': '2018-12-12 13:24:27.494184', 'mgs': 0, 'flw2': 0.0, 'flw1': 0.03, 'flw0': 0.07, 'time': 19.96, 'compass': 87.11, 'pitch': -5.23, 'roll': 2.31}
{'lipoC2': 7.41, 'temp': 0.0, 'lipoC3S3': 11.96, 'state': 'normal', 'rot1': 3, 'rot0': 0, 'rot3': 0, 'rot2': 0, 'depth': 0.165, 'yaw': -33.16, 'datetime': '2018-12-12 13:24:27.704038', 'mgs': 0, 'flw2': 0.0, 'flw1': 0.59, 'flw0': 0.0, 'time': 20.17, 'compass': 82.38, 'pitch': -3.64, 'roll': 1.44}
{'lipoC2': 7.46, 'temp': 0.0, 'lipoC3S3': 11.89, 'state': 'normal', 'rot1': 3, 'rot0': 0, 'rot3': 0, 'rot2': 0, 'depth': 2.454, 'yaw': -37.2, 'datetime': '2018-12-12 13:24:27.912552', 'mgs': 0, 'flw2': 0.0, 'flw1': 0.21, 'flw0': 0.0, 'time': 20.38, 'compass': 78.34, 'pitch': -3.38, 'roll': 1.06}
{'lipoC2': 7.67, 'temp': 0.0, 'lipoC3S3': 11.52, 'state': 'normal', 'rot1': 3, 'rot0': 0, 'rot3': 0, 'rot2': 0, 'depth': 2.759, 'yaw': -40.62, 'datetime': '2018-12-12 13:24:28.118756', 'mgs': 0, 'flw2': 0.0, 'flw1': 0.44, 'flw0': 0.0, 'time': 20.59, 'compass': 74.92, 'pitch': -3.83, 'roll': 0.9}
{'lipoC2': 7.41, 'temp': 0.0, 'lipoC3S3': 11.73, 'state': 'normal', 'rot1': 3, 'rot0': 0, 'rot3': 0, 'rot2': 0, 'depth': 1.08, 'yaw': -43.78, 'datetime': '2018-12-12 13:24:28.325472', 'mgs': 0, 'flw2': 0.0, 'flw1': 0.53, 'flw0': 0.0, 'time': 20.8, 'compass': 71.77, 'pitch': -4.9, 'roll': 1.22}
{'lipoC2': 7.49, 'temp': 0.0, 'lipoC3S3': 11.65, 'state': 'normal', 'rot1': 3, 'rot0': 0, 'rot3': 0, 'rot2': 0, 'depth': 0.089, 'yaw': -46.44, 'datetime': '2018-12-12 13:24:28.533808', 'mgs': 0, 'flw2': 0.0, 'flw1': 0.0, 'flw0': 0.0, 'time': 21.0, 'compass': 69.1, 'pitch': -6.51, 'roll': 1.84}
{'lipoC2': 7.49, 'temp': 0.0, 'lipoC3S3': 11.58, 'state': 'normal', 'rot1': 5, 'rot0': 0, 'rot3': 0, 'rot2': 0, 'depth': 0.623, 'yaw': -47.92, 'datetime': '2018-12-12 13:24:28.743559', 'mgs': 0, 'flw2': 0.5, 'flw1': 0.0, 'flw0': 5.73, 'time': 21.21, 'compass': 67.62, 'pitch': -7.98, 'roll': 1.93}
{'lipoC2': 7.42, 'temp': 0.0, 'lipoC3S3': 11.6, 'state': 'normal', 'rot1': 12, 'rot0': 0, 'rot3': 0, 'rot2': 0, 'depth': 2.148, 'yaw': -44.97, 'datetime': '2018-12-12 13:24:28.952697', 'mgs': 0, 'flw2': 0.26, 'flw1': 0.0, 'flw0': 0.18, 'time': 21.42, 'compass': 70.58, 'pitch': -9.39, 'roll': 1.91}
{'lipoC2': 7.41, 'temp': 0.0, 'lipoC3S3': 11.73, 'state': 'normal', 'rot1': 12, 'rot0': 0, 'rot3': 0, 'rot2': 0, 'depth': 0.012, 'yaw': -41.81, 'datetime': '2018-12-12 13:24:29.159445', 'mgs': 0, 'flw2': 0.0, 'flw1': 0.59, 'flw0': 0.0, 'time': 21.63, 'compass': 73.73, 'pitch': -10.11, 'roll': 2.35}
{'lipoC2': 7.43, 'temp': 0.0, 'lipoC3S3': 11.88, 'state': 'normal', 'rot1': 12, 'rot0': 0, 'rot3': 0, 'rot2': 0, 'depth': 0.394, 'yaw': -39.26, 'datetime': '2018-12-12 13:24:29.368495', 'mgs': 0, 'flw2': 0.0, 'flw1': 0.0, 'flw0': 0.0, 'time': 21.84, 'compass': 76.29, 'pitch': -10.07, 'roll': 3.09}
{'lipoC2': 7.46, 'temp': 0.0, 'lipoC3S3': 11.93, 'state': 'normal', 'rot1': 12, 'rot0': 0, 'rot3': 0, 'rot2': 0, 'depth': 2.454, 'yaw': -36.82, 'datetime': '2018-12-12 13:24:29.576933', 'mgs': 0, 'flw2': 0.0, 'flw1': 0.0, 'flw0': 0.0, 'time': 22.04, 'compass': 78.72, 'pitch': -9.56, 'roll': 3.62}
{'lipoC2': 7.65, 'temp': 0.0, 'lipoC3S3': 11.36, 'state': 'normal', 'rot1': 12, 'rot0': 0, 'rot3': 0, 'rot2': 0, 'depth': 2.606, 'yaw': -34.53, 'datetime': '2018-12-12 13:24:29.784644', 'mgs': 0, 'flw2': 9.97, 'flw1': 0.0, 'flw0': 0.28, 'time': 22.25, 'compass': 81.01, 'pitch': -8.51, 'roll': 3.52}
{'lipoC2': 7.4, 'temp': 0.0, 'lipoC3S3': 11.4, 'state': 'normal', 'rot1': 12, 'rot0': 5, 'rot3': 0, 'rot2': 0, 'depth': -0.14, 'yaw': -28.62, 'datetime': '2018-12-12 13:24:29.991939', 'mgs': 0, 'flw2': 12.49, 'flw1': 0.0, 'flw0': 0.22, 'time': 22.46, 'compass': 86.92, 'pitch': -4.72, 'roll': 4.36}
{'lipoC2': 7.42, 'temp': 0.0, 'lipoC3S3': 11.93, 'state': 'normal', 'rot1': 12, 'rot0': 9, 'rot3': 0, 'rot2': 0, 'depth': 0.241, 'yaw': -16.64, 'datetime': '2018-12-12 13:24:30.197874', 'mgs': 0, 'flw2': 0.0, 'flw1': 0.32, 'flw0': 0.0, 'time': 22.67, 'compass': 98.9, 'pitch': 1.74, 'roll': 6.08}
{'lipoC2': 7.43, 'temp': 0.0, 'lipoC3S3': 11.92, 'state': 'normal', 'rot1': 12, 'rot0': 9, 'rot3': 0, 'rot2': 0, 'depth': 0.394, 'yaw': -5.19, 'datetime': '2018-12-12 13:24:30.409636', 'mgs': 0, 'flw2': 0.0, 'flw1': 0.18, 'flw0': 0.0, 'time': 22.88, 'compass': 110.35, 'pitch': 4.72, 'roll': 6.59}
{'lipoC2': 7.42, 'temp': 0.0, 'lipoC3S3': 11.64, 'state': 'normal', 'rot1': 12, 'rot0': 9, 'rot3': 0, 'rot2': 0, 'depth': 2.53, 'yaw': 3.16, 'datetime': '2018-12-12 13:24:30.615672', 'mgs': 0, 'flw2': 0.27, 'flw1': 0.0, 'flw0': 0.05, 'time': 23.09, 'compass': 118.7, 'pitch': 3.96, 'roll': 6.25}
{'lipoC2': 7.42, 'temp': 0.0, 'lipoC3S3': 11.92, 'state': 'normal', 'rot1': 12, 'rot0': 9, 'rot3': 0, 'rot2': 0, 'depth': 2.53, 'yaw': 9.89, 'datetime': '2018-12-12 13:24:30.826605', 'mgs': 0, 'flw2': 0.0, 'flw1': 0.26, 'flw0': 0.0, 'time': 23.29, 'compass': 125.43, 'pitch': 2.12, 'roll': 5.9}
{'lipoC2': 7.42, 'temp': 0.0, 'lipoC3S3': 11.92, 'state': 'normal', 'rot1': 12, 'rot0': 9, 'rot3': 0, 'rot2': 0, 'depth': 0.012, 'yaw': 15.36, 'datetime': '2018-12-12 13:24:31.032570', 'mgs': 0, 'flw2': 0.0, 'flw1': 0.18, 'flw0': 0.0, 'time': 23.5, 'compass': 130.91, 'pitch': 0.53, 'roll': 5.84}
{'lipoC2': 7.43, 'temp': 0.0, 'lipoC3S3': 11.94, 'state': 'normal', 'rot1': 12, 'rot0': 9, 'rot3': 0, 'rot2': 0, 'depth': 0.165, 'yaw': 20.27, 'datetime': '2018-12-12 13:24:31.241444', 'mgs': 0, 'flw2': 0.0, 'flw1': 0.12, 'flw0': 0.0, 'time': 23.71, 'compass': 135.81, 'pitch': -1.65, 'roll': 5.99}
{'lipoC2': 7.46, 'temp': 0.0, 'lipoC3S3': 11.96, 'state': 'normal', 'rot1': 12, 'rot0': 9, 'rot3': 0, 'rot2': 0, 'depth': 0.241, 'yaw': 24.42, 'datetime': '2018-12-12 13:24:31.452385', 'mgs': 0, 'flw2': 0.0, 'flw1': 0.09, 'flw0': 0.0, 'time': 23.92, 'compass': 139.97, 'pitch': -4.38, 'roll': 6.18}
{'lipoC2': 7.42, 'temp': 0.0, 'lipoC3S3': 11.87, 'state': 'normal', 'rot1': 12, 'rot0': 9, 'rot3': 0, 'rot2': 0, 'depth': -0.217, 'yaw': 27.89, 'datetime': '2018-12-12 13:24:31.660727', 'mgs': 0, 'flw2': 0.0, 'flw1': 0.53, 'flw0': 0.0, 'time': 24.13, 'compass': 143.44, 'pitch': -6.58, 'roll': 6.48}
{'lipoC2': 7.43, 'temp': 0.0, 'lipoC3S3': 11.79, 'state': 'normal', 'rot1': 12, 'rot0': 9, 'rot3': 0, 'rot2': 0, 'depth': 1.538, 'yaw': 31.13, 'datetime': '2018-12-12 13:24:31.867867', 'mgs': 0, 'flw2': 0.0, 'flw1': 0.23, 'flw0': 0.01, 'time': 24.33, 'compass': 146.68, 'pitch': -7.15, 'roll': 6.99}
{'lipoC2': 7.65, 'temp': 0.0, 'lipoC3S3': 11.52, 'state': 'normal', 'rot1': 12, 'rot0': 9, 'rot3': 0, 'rot2': 0, 'depth': -0.674, 'yaw': 34.1, 'datetime': '2018-12-12 13:24:32.078055', 'mgs': 0, 'flw2': 0.24, 'flw1': 0.0, 'flw0': 0.18, 'time': 24.54, 'compass': 149.64, 'pitch': -5.81, 'roll': 7.44}
{'lipoC2': 7.54, 'temp': 0.0, 'lipoC3S3': 11.65, 'state': 'normal', 'rot1': 12, 'rot0': 9, 'rot3': 0, 'rot2': 0, 'depth': 0.47, 'yaw': 36.83, 'datetime': '2018-12-12 13:24:32.288811', 'mgs': 0, 'flw2': 0.0, 'flw1': 0.0, 'flw0': 0.0, 'time': 24.75, 'compass': 152.37, 'pitch': -4.2, 'roll': 7.52}
{'lipoC2': 7.47, 'temp': 0.0, 'lipoC3S3': 11.84, 'state': 'normal', 'rot1': 14, 'rot0': 9, 'rot3': 0, 'rot2': 0, 'depth': 0.47, 'yaw': 39.32, 'datetime': '2018-12-12 13:24:32.496620', 'mgs': 0, 'flw2': 0.0, 'flw1': 0.56, 'flw0': 2.47, 'time': 24.96, 'compass': 154.86, 'pitch': -3.12, 'roll': 7.49}
{'lipoC2': 7.44, 'temp': 0.0, 'lipoC3S3': 11.8, 'state': 'normal', 'rot1': 15, 'rot0': 9, 'rot3': 0, 'rot2': 0, 'depth': 0.165, 'yaw': 42.62, 'datetime': '2018-12-12 13:24:32.702306', 'mgs': 0, 'flw2': 0.0, 'flw1': 0.0, 'flw0': 0.0, 'time': 25.17, 'compass': 158.16, 'pitch': -1.97, 'roll': 7.76}
{'lipoC2': 7.55, 'temp': 0.0, 'lipoC3S3': 11.61, 'state': 'normal', 'rot1': 15, 'rot0': 9, 'rot3': 0, 'rot2': 0, 'depth': -0.751, 'yaw': 45.42, 'datetime': '2018-12-12 13:24:32.908572', 'mgs': 0, 'flw2': 0.0, 'flw1': 0.0, 'flw0': 0.0, 'time': 25.38, 'compass': 160.96, 'pitch': 0.32, 'roll': 7.76}
{'lipoC2': 7.43, 'temp': 0.0, 'lipoC3S3': 11.94, 'state': 'normal', 'rot1': 15, 'rot0': 9, 'rot3': 0, 'rot2': 0, 'depth': 0.241, 'yaw': 47.77, 'datetime': '2018-12-12 13:24:33.120732', 'mgs': 0, 'flw2': 0.0, 'flw1': 0.0, 'flw0': 0.0, 'time': 25.58, 'compass': 163.31, 'pitch': 2.18, 'roll': 7.37}
{'lipoC2': 7.47, 'temp': 0.0, 'lipoC3S3': 11.67, 'state': 'normal', 'rot1': 15, 'rot0': 9, 'rot3': 0, 'rot2': 0, 'depth': 0.317, 'yaw': 49.58, 'datetime': '2018-12-12 13:24:33.326875', 'mgs': 0, 'flw2': 0.0, 'flw1': 0.0, 'flw0': 0.16, 'time': 25.79, 'compass': 165.13, 'pitch': 2.37, 'roll': 6.99}
{'lipoC2': 7.49, 'temp': 0.0, 'lipoC3S3': 11.63, 'state': 'normal', 'rot1': 15, 'rot0': 9, 'rot3': 0, 'rot2': 0, 'depth': 0.47, 'yaw': 51.06, 'datetime': '2018-12-12 13:24:33.536688', 'mgs': 0, 'flw2': 0.0, 'flw1': 0.0, 'flw0': 0.15, 'time': 26.0, 'compass': 166.6, 'pitch': 1.52, 'roll': 6.89}
{'lipoC2': 7.42, 'temp': 0.0, 'lipoC3S3': 11.94, 'state': 'normal', 'rot1': 15, 'rot0': 9, 'rot3': 0, 'rot2': 0, 'depth': 2.072, 'yaw': 52.27, 'datetime': '2018-12-12 13:24:33.744018', 'mgs': 0, 'flw2': 0.0, 'flw1': 0.0, 'flw0': 0.0, 'time': 26.21, 'compass': 167.82, 'pitch': 0.75, 'roll': 6.94}
{'lipoC2': 7.42, 'temp': 0.0, 'lipoC3S3': 11.64, 'state': 'normal', 'rot1': 15, 'rot0': 9, 'rot3': 0, 'rot2': 0, 'depth': 0.012, 'yaw': 53.32, 'datetime': '2018-12-12 13:24:33.954576', 'mgs': 0, 'flw2': 0.26, 'flw1': 0.0, 'flw0': 0.07, 'time': 26.42, 'compass': 168.86, 'pitch': 0.45, 'roll': 7.13}
{'lipoC2': 7.46, 'temp': 0.0, 'lipoC3S3': 11.88, 'state': 'normal', 'rot1': 15, 'rot0': 9, 'rot3': 0, 'rot2': 0, 'depth': 0.47, 'yaw': 54.17, 'datetime': '2018-12-12 13:24:34.159955', 'mgs': 0, 'flw2': 0.0, 'flw1': 0.44, 'flw0': 0.0, 'time': 26.63, 'compass': 169.71, 'pitch': 0.13, 'roll': 7.4}
{'lipoC2': 7.43, 'temp': 0.0, 'lipoC3S3': 11.73, 'state': 'normal', 'rot1': 15, 'rot0': 9, 'rot3': 0, 'rot2': 0, 'depth': 0.317, 'yaw': 54.94, 'datetime': '2018-12-12 13:24:34.368677', 'mgs': 0, 'flw2': 0.0, 'flw1': 0.56, 'flw0': 0.0, 'time': 26.83, 'compass': 170.48, 'pitch': -0.88, 'roll': 7.92}
{'lipoC2': 7.44, 'temp': 0.0, 'lipoC3S3': 11.94, 'state': 'normal', 'rot1': 15, 'rot0': 9, 'rot3': 0, 'rot2': 0, 'depth': 2.454, 'yaw': 55.63, 'datetime': '2018-12-12 13:24:34.581738', 'mgs': 0, 'flw2': 0.0, 'flw1': 0.0, 'flw0': 0.0, 'time': 27.04, 'compass': 171.17, 'pitch': -2.07, 'roll': 8.44}
{'lipoC2': 7.55, 'temp': 0.0, 'lipoC3S3': 11.58, 'state': 'normal', 'rot1': 15, 'rot0': 9, 'rot3': 0, 'rot2': 0, 'depth': -0.827, 'yaw': 56.24, 'datetime': '2018-12-12 13:24:34.788500', 'mgs': 0, 'flw2': 0.0, 'flw1': 0.0, 'flw0': 0.15, 'time': 27.25, 'compass': 171.79, 'pitch': -2.62, 'roll': 8.76}
{'lipoC2': 7.62, 'temp': 0.0, 'lipoC3S3': 11.5, 'state': 'normal', 'rot1': 15, 'rot0': 9, 'rot3': 0, 'rot2': 0, 'depth': 2.225, 'yaw': 56.78, 'datetime': '2018-12-12 13:24:35.001926', 'mgs': 0, 'flw2': 0.17, 'flw1': 0.0, 'flw0': 0.26, 'time': 27.46, 'compass': 172.32, 'pitch': -2.43, 'roll': 8.79}
{'lipoC2': 7.42, 'temp': 0.0, 'lipoC3S3': 11.94, 'state': 'normal', 'rot1': 15, 'rot0': 9, 'rot3': 0, 'rot2': 0, 'depth': 2.301, 'yaw': 57.32, 'datetime': '2018-12-12 13:24:35.212528', 'mgs': 0, 'flw2': 0.0, 'flw1': 0.0, 'flw0': 0.0, 'time': 27.67, 'compass': 172.86, 'pitch': -1.79, 'roll': 8.81}
{'lipoC2': 7.44, 'temp': 0.0, 'lipoC3S3': 11.83, 'state': 'normal', 'rot1': 15, 'rot0': 9, 'rot3': 0, 'rot2': 0, 'depth': 1.462, 'yaw': 57.83, 'datetime': '2018-12-12 13:24:35.414340', 'mgs': 0, 'flw2': 0.0, 'flw1': 0.0, 'flw0': 0.0, 'time': 27.88, 'compass': 173.38, 'pitch': -0.99, 'roll': 8.74}
{'lipoC2': 7.41, 'temp': 0.0, 'lipoC3S3': 11.69, 'state': 'normal', 'rot1': 15, 'rot0': 9, 'rot3': 0, 'rot2': 0, 'depth': 1.004, 'yaw': 58.3, 'datetime': '2018-12-12 13:24:35.625565', 'mgs': 0, 'flw2': 0.0, 'flw1': 0.56, 'flw0': 0.0, 'time': 28.08, 'compass': 173.84, 'pitch': -0.33, 'roll': 8.5}
{'lipoC2': 7.46, 'temp': 0.0, 'lipoC3S3': 11.9, 'state': 'normal', 'rot1': 15, 'rot0': 9, 'rot3': 0, 'rot2': 0, 'depth': 0.317, 'yaw': 58.72, 'datetime': '2018-12-12 13:24:35.830876', 'mgs': 0, 'flw2': 0.0, 'flw1': 0.21, 'flw0': 0.0, 'time': 28.29, 'compass': 174.26, 'pitch': 0.16, 'roll': 8.39}
{'lipoC2': 7.47, 'temp': 0.0, 'lipoC3S3': 11.81, 'state': 'normal', 'rot1': 15, 'rot0': 9, 'rot3': 0, 'rot2': 0, 'depth': 2.454, 'yaw': 59.17, 'datetime': '2018-12-12 13:24:36.044000', 'mgs': 0, 'flw2': 0.0, 'flw1': 0.56, 'flw0': 0.0, 'time': 28.5, 'compass': 174.71, 'pitch': 0.49, 'roll': 8.38}
{'lipoC2': 7.42, 'temp': 0.0, 'lipoC3S3': 11.59, 'state': 'normal', 'rot1': 15, 'rot0': 9, 'rot3': 0, 'rot2': 0, 'depth': 0.775, 'yaw': 59.56, 'datetime': '2018-12-12 13:24:36.251058', 'mgs': 0, 'flw2': 0.0, 'flw1': 0.0, 'flw0': 0.16, 'time': 28.71, 'compass': 175.11, 'pitch': 0.51, 'roll': 8.36}
{'lipoC2': 7.64, 'temp': 0.0, 'lipoC3S3': 11.5, 'state': 'normal', 'rot1': 15, 'rot0': 9, 'rot3': 0, 'rot2': 0, 'depth': -0.293, 'yaw': 59.87, 'datetime': '2018-12-12 13:24:36.456697', 'mgs': 0, 'flw2': 0.0, 'flw1': 0.12, 'flw0': 0.0, 'time': 28.92, 'compass': 175.42, 'pitch': 0.14, 'roll': 8.34}
{'lipoC2': 7.44, 'temp': 0.0, 'lipoC3S3': 11.93, 'state': 'normal', 'rot1': 15, 'rot0': 9, 'rot3': 0, 'rot2': 0, 'depth': 0.165, 'yaw': 60.08, 'datetime': '2018-12-12 13:24:36.667033', 'mgs': 0, 'flw2': 0.0, 'flw1': 0.0, 'flw0': 0.0, 'time': 29.13, 'compass': 175.62, 'pitch': -0.18, 'roll': 8.44}
{'lipoC2': 7.44, 'temp': 0.0, 'lipoC3S3': 11.93, 'state': 'normal', 'rot1': 15, 'rot0': 9, 'rot3': 0, 'rot2': 0, 'depth': 2.53, 'yaw': 60.27, 'datetime': '2018-12-12 13:24:36.873756', 'mgs': 0, 'flw2': 0.0, 'flw1': 0.0, 'flw0': 0.0, 'time': 29.33, 'compass': 175.81, 'pitch': -0.42, 'roll': 8.73}
{'lipoC2': 7.47, 'temp': 0.0, 'lipoC3S3': 11.64, 'state': 'normal', 'rot1': 15, 'rot0': 9, 'rot3': 0, 'rot2': 0, 'depth': 0.317, 'yaw': 60.32, 'datetime': '2018-12-12 13:24:37.081406', 'mgs': 0, 'flw2': 0.0, 'flw1': 0.0, 'flw0': 0.0, 'time': 29.54, 'compass': 175.86, 'pitch': -0.84, 'roll': 8.87}
{'lipoC2': 7.47, 'temp': 0.0, 'lipoC3S3': 11.89, 'state': 'normal', 'rot1': 15, 'rot0': 9, 'rot3': 0, 'rot2': 0, 'depth': 2.454, 'yaw': 60.31, 'datetime': '2018-12-12 13:24:37.292426', 'mgs': 0, 'flw2': 0.0, 'flw1': 0.0, 'flw0': 0.0, 'time': 29.75, 'compass': 175.85, 'pitch': -1.14, 'roll': 8.98}
{'lipoC2': 7.46, 'temp': 0.0, 'lipoC3S3': 11.76, 'state': 'normal', 'rot1': 15, 'rot0': 9, 'rot3': 0, 'rot2': 0, 'depth': 0.623, 'yaw': 60.31, 'datetime': '2018-12-12 13:24:37.505941', 'mgs': 0, 'flw2': 0.0, 'flw1': 0.56, 'flw0': 0.0, 'time': 29.96, 'compass': 175.86, 'pitch': -1.35, 'roll': 9.21}
{'lipoC2': 7.44, 'temp': 0.0, 'lipoC3S3': 11.77, 'state': 'normal', 'rot1': 15, 'rot0': 9, 'rot3': 0, 'rot2': 0, 'depth': 1.385, 'yaw': 60.29, 'datetime': '2018-12-12 13:24:37.712933', 'mgs': 0, 'flw2': 0.15, 'flw1': 0.0, 'flw0': 0.0, 'time': 30.17, 'compass': 175.83, 'pitch': -1.67, 'roll': 9.33}
{'lipoC2': 7.46, 'temp': 0.0, 'lipoC3S3': 11.85, 'state': 'normal', 'rot1': 15, 'rot0': 9, 'rot3': 0, 'rot2': 0, 'depth': 0.394, 'yaw': 60.2, 'datetime': '2018-12-12 13:24:37.921889', 'mgs': 0, 'flw2': 0.0, 'flw1': 0.0, 'flw0': 0.22, 'time': 30.38, 'compass': 175.74, 'pitch': -1.53, 'roll': 9.33}
{'lipoC2': 7.42, 'temp': 0.0, 'lipoC3S3': 11.94, 'state': 'normal', 'rot1': 15, 'rot0': 9, 'rot3': 0, 'rot2': 0, 'depth': 2.454, 'yaw': 60.03, 'datetime': '2018-12-12 13:24:38.134019', 'mgs': 0, 'flw2': 0.0, 'flw1': 0.29, 'flw0': 0.0, 'time': 30.58, 'compass': 175.57, 'pitch': -0.89, 'roll': 9.31}
{'lipoC2': 7.63, 'temp': 0.0, 'lipoC3S3': 11.5, 'state': 'normal', 'rot1': 15, 'rot0': 9, 'rot3': 0, 'rot2': 0, 'depth': -0.446, 'yaw': 59.82, 'datetime': '2018-12-12 13:24:38.343252', 'mgs': 0, 'flw2': 0.0, 'flw1': 0.59, 'flw0': 0.0, 'time': 30.79, 'compass': 175.36, 'pitch': -0.53, 'roll': 9.31}
{'lipoC2': 7.44, 'temp': 0.0, 'lipoC3S3': 11.93, 'state': 'normal', 'rot1': 15, 'rot0': 9, 'rot3': 0, 'rot2': 0, 'depth': 2.835, 'yaw': 59.6, 'datetime': '2018-12-12 13:24:38.550338', 'mgs': 0, 'flw2': 0.17, 'flw1': 0.0, 'flw0': 0.22, 'time': 31.0, 'compass': 175.15, 'pitch': -0.72, 'roll': 9.4}
{'lipoC2': 7.42, 'temp': 0.0, 'lipoC3S3': 11.93, 'state': 'normal', 'rot1': 15, 'rot0': 9, 'rot3': 0, 'rot2': 0, 'depth': 2.225, 'yaw': 59.4, 'datetime': '2018-12-12 13:24:38.764805', 'mgs': 0, 'flw2': 0.0, 'flw1': 0.0, 'flw0': 0.0, 'time': 31.21, 'compass': 174.94, 'pitch': -0.82, 'roll': 9.39}
{'lipoC2': 7.46, 'temp': 0.0, 'lipoC3S3': 11.83, 'state': 'normal', 'rot1': 15, 'rot0': 9, 'rot3': 0, 'rot2': 0, 'depth': 2.454, 'yaw': 59.0, 'datetime': '2018-12-12 13:24:39.065325', 'mgs': 0, 'flw2': 0.0, 'flw1': 0.62, 'flw0': 0.0, 'time': 31.52, 'compass': 174.54, 'pitch': -0.54, 'roll': 9.19}
{'lipoC2': 7.46, 'temp': 0.0, 'lipoC3S3': 11.84, 'state': 'normal', 'rot1': 15, 'rot0': 9, 'rot3': 0, 'rot2': 0, 'depth': 0.089, 'yaw': 58.68, 'datetime': '2018-12-12 13:24:39.273414', 'mgs': 0, 'flw2': 0.0, 'flw1': 0.53, 'flw0': 0.0, 'time': 31.73, 'compass': 174.23, 'pitch': -0.75, 'roll': 9.17}
{'lipoC2': 7.44, 'temp': 0.0, 'lipoC3S3': 11.73, 'state': 'normal', 'rot1': 15, 'rot0': 9, 'rot3': 0, 'rot2': 0, 'depth': 0.317, 'yaw': 58.41, 'datetime': '2018-12-12 13:24:39.480258', 'mgs': 0, 'flw2': 0.0, 'flw1': 0.0, 'flw0': 0.0, 'time': 31.94, 'compass': 173.95, 'pitch': -1.35, 'roll': 9.35}
{'lipoC2': 7.53, 'temp': 0.0, 'lipoC3S3': 11.58, 'state': 'normal', 'rot1': 15, 'rot0': 9, 'rot3': 0, 'rot2': 0, 'depth': -0.293, 'yaw': 58.15, 'datetime': '2018-12-12 13:24:39.698621', 'mgs': 0, 'flw2': 0.0, 'flw1': 0.59, 'flw0': 0.0, 'time': 32.15, 'compass': 173.69, 'pitch': -1.78, 'roll': 9.51}
{'lipoC2': 7.42, 'temp': 0.0, 'lipoC3S3': 11.94, 'state': 'normal', 'rot1': 15, 'rot0': 9, 'rot3': 0, 'rot2': 0, 'depth': 0.089, 'yaw': 57.88, 'datetime': '2018-12-12 13:24:39.901987', 'mgs': 0, 'flw2': 0.0, 'flw1': 0.0, 'flw0': 0.0, 'time': 32.36, 'compass': 173.42, 'pitch': -1.7, 'roll': 9.62}
{'lipoC2': 7.39, 'temp': 0.0, 'lipoC3S3': 11.64, 'state': 'normal', 'rot1': 15, 'rot0': 9, 'rot3': 0, 'rot2': 0, 'depth': -0.064, 'yaw': 57.6, 'datetime': '2018-12-12 13:24:40.109922', 'mgs': 0, 'flw2': 0.02, 'flw1': 0.03, 'flw0': 0.0, 'time': 32.56, 'compass': 173.15, 'pitch': -1.68, 'roll': 9.83}
{'lipoC2': 7.59, 'temp': 0.0, 'lipoC3S3': 11.65, 'state': 'normal', 'rot1': 15, 'rot0': 9, 'rot3': 0, 'rot2': 0, 'depth': 0.546, 'yaw': 57.37, 'datetime': '2018-12-12 13:24:40.320066', 'mgs': 0, 'flw2': 0.26, 'flw1': 0.0, 'flw0': 0.04, 'time': 32.77, 'compass': 172.91, 'pitch': -2.07, 'roll': 9.91}
{'lipoC2': 7.41, 'temp': 0.0, 'lipoC3S3': 11.73, 'state': 'normal', 'rot1': 15, 'rot0': 9, 'rot3': 0, 'rot2': 0, 'depth': 0.089, 'yaw': 57.19, 'datetime': '2018-12-12 13:24:40.530563', 'mgs': 0, 'flw2': 0.0, 'flw1': 0.64, 'flw0': 0.0, 'time': 32.98, 'compass': 172.73, 'pitch': -2.28, 'roll': 9.91}
{'lipoC2': 7.44, 'temp': 0.0, 'lipoC3S3': 11.79, 'state': 'normal', 'rot1': 15, 'rot0': 9, 'rot3': 0, 'rot2': 0, 'depth': 0.47, 'yaw': 57.04, 'datetime': '2018-12-12 13:24:40.740423', 'mgs': 0, 'flw2': 0.05, 'flw1': 0.0, 'flw0': 0.0, 'time': 33.19, 'compass': 172.58, 'pitch': -2.0, 'roll': 9.91}
{'lipoC2': 7.53, 'temp': 0.0, 'lipoC3S3': 11.65, 'state': 'normal', 'rot1': 15, 'rot0': 9, 'rot3': 0, 'rot2': 0, 'depth': 0.623, 'yaw': 57.03, 'datetime': '2018-12-12 13:24:40.947796', 'mgs': 0, 'flw2': 0.0, 'flw1': 0.0, 'flw0': 0.0, 'time': 33.4, 'compass': 172.58, 'pitch': -1.65, 'roll': 10.01}
{'lipoC2': 7.42, 'temp': 0.0, 'lipoC3S3': 11.93, 'state': 'normal', 'rot1': 15, 'rot0': 9, 'rot3': 0, 'rot2': 0, 'depth': 2.377, 'yaw': 57.04, 'datetime': '2018-12-12 13:24:41.154275', 'mgs': 0, 'flw2': 0.0, 'flw1': 0.0, 'flw0': 0.0, 'time': 33.61, 'compass': 172.58, 'pitch': -1.55, 'roll': 10.02}
{'lipoC2': 7.63, 'temp': 0.0, 'lipoC3S3': 11.64, 'state': 'normal', 'rot1': 15, 'rot0': 9, 'rot3': 0, 'rot2': 0, 'depth': 0.546, 'yaw': 57.03, 'datetime': '2018-12-12 13:24:41.367140', 'mgs': 0, 'flw2': 0.24, 'flw1': 0.0, 'flw0': 0.1, 'time': 33.82, 'compass': 172.57, 'pitch': -1.76, 'roll': 10.02}
{'lipoC2': 7.61, 'temp': 0.0, 'lipoC3S3': 11.5, 'state': 'normal', 'rot1': 15, 'rot0': 9, 'rot3': 0, 'rot2': 0, 'depth': 1.92, 'yaw': 57.03, 'datetime': '2018-12-12 13:24:41.574467', 'mgs': 0, 'flw2': 0.22, 'flw1': 0.0, 'flw0': 0.24, 'time': 34.03, 'compass': 172.57, 'pitch': -2.0, 'roll': 10.02}
{'lipoC2': 7.44, 'temp': 0.0, 'lipoC3S3': 11.79, 'state': 'normal', 'rot1': 15, 'rot0': 9, 'rot3': 0, 'rot2': 0, 'depth': 0.47, 'yaw': 57.03, 'datetime': '2018-12-12 13:24:41.781739', 'mgs': 0, 'flw2': 0.24, 'flw1': 0.0, 'flw0': 0.0, 'time': 34.24, 'compass': 172.57, 'pitch': -1.67, 'roll': 10.02}
{'lipoC2': 7.44, 'temp': 0.0, 'lipoC3S3': 11.92, 'state': 'normal', 'rot1': 15, 'rot0': 9, 'rot3': 0, 'rot2': 0, 'depth': 2.759, 'yaw': 57.03, 'datetime': '2018-12-12 13:24:41.990655', 'mgs': 0, 'flw2': 0.27, 'flw1': 0.0, 'flw0': 0.07, 'time': 34.44, 'compass': 172.57, 'pitch': -1.25, 'roll': 10.09}
{'lipoC2': 7.43, 'temp': 0.0, 'lipoC3S3': 11.88, 'state': 'normal', 'rot1': 15, 'rot0': 9, 'rot3': 0, 'rot2': 0, 'depth': 1.996, 'yaw': 57.03, 'datetime': '2018-12-12 13:24:42.198108', 'mgs': 0, 'flw2': 0.0, 'flw1': 0.0, 'flw0': 0.0, 'time': 34.65, 'compass': 172.57, 'pitch': -1.58, 'roll': 10.28}
{'lipoC2': 7.58, 'temp': 0.0, 'lipoC3S3': 11.5, 'state': 'normal', 'rot1': 15, 'rot0': 9, 'rot3': 0, 'rot2': 0, 'depth': 1.843, 'yaw': 57.02, 'datetime': '2018-12-12 13:24:42.406583', 'mgs': 0, 'flw2': 0.0, 'flw1': 0.38, 'flw0': 0.0, 'time': 34.86, 'compass': 172.56, 'pitch': -2.37, 'roll': 10.45}
{'lipoC2': 7.42, 'temp': 0.0, 'lipoC3S3': 11.96, 'state': 'normal', 'rot1': 15, 'rot0': 9, 'rot3': 0, 'rot2': 0, 'depth': 0.012, 'yaw': 57.01, 'datetime': '2018-12-12 13:24:42.615833', 'mgs': 0, 'flw2': 0.0, 'flw1': 0.21, 'flw0': 0.0, 'time': 35.06, 'compass': 172.55, 'pitch': -2.85, 'roll': 10.68}
{'lipoC2': 7.44, 'temp': 0.0, 'lipoC3S3': 11.93, 'state': 'normal', 'rot1': 15, 'rot0': 9, 'rot3': 0, 'rot2': 0, 'depth': 2.53, 'yaw': 57.0, 'datetime': '2018-12-12 13:24:42.824889', 'mgs': 0, 'flw2': 0.0, 'flw1': 0.44, 'flw0': 0.0, 'time': 35.27, 'compass': 172.55, 'pitch': -2.74, 'roll': 10.85}
{'lipoC2': 7.43, 'temp': 0.0, 'lipoC3S3': 11.63, 'state': 'normal', 'rot1': 15, 'rot0': 9, 'rot3': 0, 'rot2': 0, 'depth': -0.064, 'yaw': 57.0, 'datetime': '2018-12-12 13:24:43.033566', 'mgs': 0, 'flw2': 0.0, 'flw1': 0.0, 'flw0': 0.0, 'time': 35.48, 'compass': 172.55, 'pitch': -2.55, 'roll': 10.76}
{'lipoC2': 7.39, 'temp': 0.0, 'lipoC3S3': 11.67, 'state': 'normal', 'rot1': 15, 'rot0': 9, 'rot3': 0, 'rot2': 0, 'depth': 0.699, 'yaw': 57.01, 'datetime': '2018-12-12 13:24:43.244552', 'mgs': 0, 'flw2': 0.0, 'flw1': 0.47, 'flw0': 0.0, 'time': 35.69, 'compass': 172.56, 'pitch': -2.55, 'roll': 10.64}
{'lipoC2': 7.44, 'temp': 0.0, 'lipoC3S3': 11.94, 'state': 'normal', 'rot1': 15, 'rot0': 9, 'rot3': 0, 'rot2': 0, 'depth': 2.759, 'yaw': 57.01, 'datetime': '2018-12-12 13:24:43.449218', 'mgs': 0, 'flw2': 0.0, 'flw1': 0.0, 'flw0': 0.0, 'time': 35.9, 'compass': 172.56, 'pitch': -2.55, 'roll': 10.64}
{'lipoC2': 7.44, 'temp': 0.0, 'lipoC3S3': 11.94, 'state': 'normal', 'rot1': 15, 'rot0': 9, 'rot3': 0, 'rot2': 0, 'depth': 2.682, 'yaw': 57.02, 'datetime': '2018-12-12 13:24:43.658798', 'mgs': 0, 'flw2': 0.0, 'flw1': 0.26, 'flw0': 0.0, 'time': 36.11, 'compass': 172.56, 'pitch': -2.55, 'roll': 10.57}
{'lipoC2': 7.46, 'temp': 0.0, 'lipoC3S3': 11.73, 'state': 'normal', 'rot1': 15, 'rot0': 9, 'rot3': 0, 'rot2': 0, 'depth': 0.317, 'yaw': 56.89, 'datetime': '2018-12-12 13:24:43.867406', 'mgs': 0, 'flw2': 0.0, 'flw1': 0.03, 'flw0': 0.01, 'time': 36.32, 'compass': 172.44, 'pitch': -2.57, 'roll': 10.31}
{'lipoC2': 7.59, 'temp': 0.0, 'lipoC3S3': 11.5, 'state': 'normal', 'rot1': 15, 'rot0': 9, 'rot3': 0, 'rot2': 0, 'depth': -0.522, 'yaw': 56.71, 'datetime': '2018-12-12 13:24:44.077680', 'mgs': 0, 'flw2': 0.0, 'flw1': 0.0, 'flw0': 0.27, 'time': 36.53, 'compass': 172.25, 'pitch': -2.46, 'roll': 10.18}
{'lipoC2': 7.46, 'temp': 0.0, 'lipoC3S3': 11.93, 'state': 'normal', 'rot1': 15, 'rot0': 9, 'rot3': 0, 'rot2': 0, 'depth': 0.241, 'yaw': 56.46, 'datetime': '2018-12-12 13:24:44.286142', 'mgs': 0, 'flw2': 0.0, 'flw1': 0.0, 'flw0': 0.0, 'time': 36.74, 'compass': 172.0, 'pitch': -2.25, 'roll': 10.17}
{'lipoC2': 7.55, 'temp': 0.0, 'lipoC3S3': 11.52, 'state': 'normal', 'rot1': 15, 'rot0': 9, 'rot3': 0, 'rot2': 0, 'depth': -0.522, 'yaw': 56.14, 'datetime': '2018-12-12 13:24:44.495247', 'mgs': 0, 'flw2': 0.0, 'flw1': 0.0, 'flw0': 0.21, 'time': 36.94, 'compass': 171.69, 'pitch': -2.04, 'roll': 10.15}
{'lipoC2': 7.46, 'temp': 0.0, 'lipoC3S3': 11.77, 'state': 'normal', 'rot1': 15, 'rot0': 9, 'rot3': 0, 'rot2': 0, 'depth': 0.47, 'yaw': 55.77, 'datetime': '2018-12-12 13:24:44.705102', 'mgs': 0, 'flw2': 0.0, 'flw1': 0.18, 'flw0': 0.0, 'time': 37.15, 'compass': 171.31, 'pitch': -2.24, 'roll': 10.4}
{'lipoC2': 7.46, 'temp': 0.0, 'lipoC3S3': 11.9, 'state': 'normal', 'rot1': 15, 'rot0': 9, 'rot3': 0, 'rot2': 0, 'depth': 2.606, 'yaw': 55.38, 'datetime': '2018-12-12 13:24:44.912690', 'mgs': 0, 'flw2': 0.27, 'flw1': 0.0, 'flw0': 0.04, 'time': 37.36, 'compass': 170.92, 'pitch': -2.81, 'roll': 10.74}
{'lipoC2': 7.42, 'temp': 0.0, 'lipoC3S3': 11.72, 'state': 'normal', 'rot1': 15, 'rot0': 9, 'rot3': 0, 'rot2': 0, 'depth': 1.309, 'yaw': 54.99, 'datetime': '2018-12-12 13:24:45.121549', 'mgs': 0, 'flw2': 0.0, 'flw1': 0.5, 'flw0': 0.0, 'time': 37.57, 'compass': 170.54, 'pitch': -3.25, 'roll': 11.06}
{'lipoC2': 7.44, 'temp': 0.0, 'lipoC3S3': 11.73, 'state': 'normal', 'rot1': 15, 'rot0': 9, 'rot3': 0, 'rot2': 0, 'depth': 0.47, 'yaw': 54.6, 'datetime': '2018-12-12 13:24:45.328974', 'mgs': 0, 'flw2': 0.0, 'flw1': 0.53, 'flw0': 0.0, 'time': 37.78, 'compass': 170.14, 'pitch': -3.59, 'roll': 11.38}
{'lipoC2': 7.47, 'temp': 0.0, 'lipoC3S3': 11.64, 'state': 'normal', 'rot1': 15, 'rot0': 9, 'rot3': 0, 'rot2': 0, 'depth': -0.14, 'yaw': 54.19, 'datetime': '2018-12-12 13:24:45.539265', 'mgs': 0, 'flw2': 0.0, 'flw1': 0.0, 'flw0': 0.0, 'time': 37.99, 'compass': 169.73, 'pitch': -4.06, 'roll': 11.64}
{'lipoC2': 7.38, 'temp': 0.0, 'lipoC3S3': 11.64, 'state': 'normal', 'rot1': 15, 'rot0': 9, 'rot3': 0, 'rot2': 0, 'depth': -0.446, 'yaw': 53.81, 'datetime': '2018-12-12 13:24:45.748025', 'mgs': 0, 'flw2': 0.0, 'flw1': 0.0, 'flw0': 0.0, 'time': 38.2, 'compass': 169.35, 'pitch': -4.11, 'roll': 11.73}
{'lipoC2': 7.44, 'temp': 0.0, 'lipoC3S3': 11.94, 'state': 'normal', 'rot1': 15, 'rot0': 9, 'rot3': 0, 'rot2': 0, 'depth': 0.241, 'yaw': 53.5, 'datetime': '2018-12-12 13:24:45.957384', 'mgs': 0, 'flw2': 0.0, 'flw1': 0.0, 'flw0': 0.0, 'time': 38.4, 'compass': 169.05, 'pitch': -3.98, 'roll': 11.7}
{'lipoC2': 7.46, 'temp': 0.0, 'lipoC3S3': 11.8, 'state': 'normal', 'rot1': 15, 'rot0': 9, 'rot3': 0, 'rot2': 0, 'depth': 0.623, 'yaw': 53.18, 'datetime': '2018-12-12 13:24:46.164829', 'mgs': 0, 'flw2': 0.0, 'flw1': 0.59, 'flw0': 0.0, 'time': 38.61, 'compass': 168.72, 'pitch': -4.12, 'roll': 11.6}
{'lipoC2': 7.42, 'temp': 0.0, 'lipoC3S3': 11.94, 'state': 'normal', 'rot1': 15, 'rot0': 9, 'rot3': 0, 'rot2': 0, 'depth': 0.089, 'yaw': 52.84, 'datetime': '2018-12-12 13:24:46.373430', 'mgs': 0, 'flw2': 0.18, 'flw1': 0.0, 'flw0': 0.23, 'time': 38.82, 'compass': 168.38, 'pitch': -4.16, 'roll': 11.34}
{'lipoC2': 7.58, 'temp': 0.0, 'lipoC3S3': 11.51, 'state': 'normal', 'rot1': 15, 'rot0': 9, 'rot3': 0, 'rot2': 0, 'depth': 1.92, 'yaw': 52.55, 'datetime': '2018-12-12 13:24:46.585352', 'mgs': 0, 'flw2': 0.0, 'flw1': 0.06, 'flw0': 0.0, 'time': 39.03, 'compass': 168.09, 'pitch': -3.89, 'roll': 11.22}
{'lipoC2': 7.43, 'temp': 0.0, 'lipoC3S3': 11.63, 'state': 'normal', 'rot1': 15, 'rot0': 9, 'rot3': 0, 'rot2': 0, 'depth': 0.012, 'yaw': 52.24, 'datetime': '2018-12-12 13:24:46.795702', 'mgs': 0, 'flw2': 0.0, 'flw1': 0.03, 'flw0': 0.0, 'time': 39.24, 'compass': 167.79, 'pitch': -3.73, 'roll': 11.19}
{'lipoC2': 7.54, 'temp': 0.0, 'lipoC3S3': 11.67, 'state': 'normal', 'rot1': 15, 'rot0': 9, 'rot3': 0, 'rot2': 0, 'depth': 0.394, 'yaw': 51.91, 'datetime': '2018-12-12 13:24:47.003493', 'mgs': 0, 'flw2': 0.0, 'flw1': 0.0, 'flw0': 0.0, 'time': 39.44, 'compass': 167.45, 'pitch': -3.87, 'roll': 11.03}
{'lipoC2': 7.59, 'temp': 0.0, 'lipoC3S3': 11.5, 'state': 'normal', 'rot1': 15, 'rot0': 9, 'rot3': 0, 'rot2': 0, 'depth': -0.522, 'yaw': 51.51, 'datetime': '2018-12-12 13:24:47.213373', 'mgs': 0, 'flw2': 0.0, 'flw1': 0.67, 'flw0': 0.0, 'time': 39.65, 'compass': 167.05, 'pitch': -4.1, 'roll': 10.99}
{'lipoC2': 7.38, 'temp': 0.0, 'lipoC3S3': 11.63, 'state': 'normal', 'rot1': 15, 'rot0': 9, 'rot3': 0, 'rot2': 0, 'depth': -0.369, 'yaw': 51.04, 'datetime': '2018-12-12 13:24:47.422476', 'mgs': 0, 'flw2': 0.0, 'flw1': 0.15, 'flw0': 0.0, 'time': 39.86, 'compass': 166.58, 'pitch': -4.09, 'roll': 11.14}
{'lipoC2': 7.39, 'temp': 0.0, 'lipoC3S3': 11.63, 'state': 'normal', 'rot1': 15, 'rot0': 9, 'rot3': 0, 'rot2': 0, 'depth': -0.217, 'yaw': 50.5, 'datetime': '2018-12-12 13:24:47.629992', 'mgs': 0, 'flw2': 0.0, 'flw1': 0.15, 'flw0': 0.0, 'time': 40.07, 'compass': 166.04, 'pitch': -3.86, 'roll': 11.42}
{'lipoC2': 7.41, 'temp': 0.0, 'lipoC3S3': 11.71, 'state': 'normal', 'rot1': 15, 'rot0': 9, 'rot3': 0, 'rot2': 0, 'depth': 0.394, 'yaw': 49.98, 'datetime': '2018-12-12 13:24:47.837953', 'mgs': 0, 'flw2': 0.0, 'flw1': 0.47, 'flw0': 0.0, 'time': 40.28, 'compass': 165.52, 'pitch': -4.03, 'roll': 11.61}
{'lipoC2': 7.42, 'temp': 0.0, 'lipoC3S3': 11.97, 'state': 'normal', 'rot1': 15, 'rot0': 9, 'rot3': 0, 'rot2': 0, 'depth': 0.089, 'yaw': 49.44, 'datetime': '2018-12-12 13:24:48.045815', 'mgs': 0, 'flw2': 0.0, 'flw1': 0.0, 'flw0': 0.0, 'time': 40.49, 'compass': 164.98, 'pitch': -4.75, 'roll': 11.79}
{'lipoC2': 7.43, 'temp': 0.0, 'lipoC3S3': 11.76, 'state': 'normal', 'rot1': 15, 'rot0': 9, 'rot3': 0, 'rot2': 0, 'depth': 0.394, 'yaw': 48.88, 'datetime': '2018-12-12 13:24:48.255251', 'mgs': 0, 'flw2': 0.0, 'flw1': 0.53, 'flw0': 0.0, 'time': 40.69, 'compass': 164.43, 'pitch': -5.33, 'roll': 12.03}
{'lipoC2': 7.44, 'temp': 0.0, 'lipoC3S3': 11.79, 'state': 'normal', 'rot1': 15, 'rot0': 9, 'rot3': 0, 'rot2': 0, 'depth': 0.623, 'yaw': 48.32, 'datetime': '2018-12-12 13:24:48.463827', 'mgs': 0, 'flw2': 0.0, 'flw1': 0.59, 'flw0': 0.0, 'time': 40.9, 'compass': 163.86, 'pitch': -5.52, 'roll': 12.2}
{'lipoC2': 7.43, 'temp': 0.0, 'lipoC3S3': 11.94, 'state': 'normal', 'rot1': 15, 'rot0': 9, 'rot3': 0, 'rot2': 0, 'depth': 2.606, 'yaw': 47.82, 'datetime': '2018-12-12 13:24:48.672648', 'mgs': 0, 'flw2': 0.0, 'flw1': 0.0, 'flw0': 0.0, 'time': 41.11, 'compass': 163.36, 'pitch': -5.74, 'roll': 12.16}
