{'lipoC2': 7.35, 'temp': 0.0, 'lipoC3S3': 11.71, 'state': 'normal', 'rot1': 0, 'rot0': 0, 'rot3': 0, 'rot2': 0, 'depth': 1.996, 'yaw': 0.0, 'datetime': '2018-12-12 14:13:42.278006', 'mgs': 0, 'flw2': 0.26, 'flw1': 0.0, 'flw0': 0.11, 'time': 1.26, 'compass': -1.12, 'pitch': -1.6, 'roll': 0.66}
{'lipoC2': 7.36, 'temp': 0.0, 'lipoC3S3': 11.69, 'state': 'normal', 'rot1': 0, 'rot0': 0, 'rot3': 0, 'rot2': 0, 'depth': -0.064, 'yaw': -0.27, 'datetime': '2018-12-12 14:13:42.485786', 'mgs': 0, 'flw2': 0.0, 'flw1': 0.0, 'flw0': 0.0, 'time': 1.47, 'compass': -1.4, 'pitch': -1.53, 'roll': 0.81}
{'lipoC2': 7.36, 'temp': 0.0, 'lipoC3S3': 11.59, 'state': 'normal', 'rot1': 0, 'rot0': 0, 'rot3': 0, 'rot2': 0, 'depth': 1.157, 'yaw': -0.57, 'datetime': '2018-12-12 14:13:42.693735', 'mgs': 0, 'flw2': 0.26, 'flw1': 0.0, 'flw0': 0.0, 'time': 1.67, 'compass': -1.69, 'pitch': -1.79, 'roll': 0.79}
{'lipoC2': 7.48, 'temp': 0.0, 'lipoC3S3': 11.43, 'state': 'normal', 'rot1': 0, 'rot0': 0, 'rot3': 0, 'rot2': 0, 'depth': 0.928, 'yaw': -0.87, 'datetime': '2018-12-12 14:13:42.901359', 'mgs': 0, 'flw2': 0.0, 'flw1': 0.0, 'flw0': 0.0, 'time': 1.88, 'compass': -1.99, 'pitch': -2.18, 'roll': 0.64}
{'lipoC2': 7.28, 'temp': 0.0, 'lipoC3S3': 11.38, 'state': 'normal', 'rot1': 0, 'rot0': 0, 'rot3': 0, 'rot2': 0, 'depth': -0.598, 'yaw': -1.19, 'datetime': '2018-12-12 14:13:43.107758', 'mgs': 0, 'flw2': 0.0, 'flw1': 0.0, 'flw0': 0.32, 'time': 2.09, 'compass': -2.31, 'pitch': -2.22, 'roll': 0.56}
{'lipoC2': 7.54, 'temp': 0.0, 'lipoC3S3': 11.27, 'state': 'normal', 'rot1': 0, 'rot0': 0, 'rot3': 0, 'rot2': 0, 'depth': -1.132, 'yaw': -1.44, 'datetime': '2018-12-12 14:13:43.314987', 'mgs': 0, 'flw2': 0.0, 'flw1': 0.62, 'flw0': 0.0, 'time': 2.29, 'compass': -2.57, 'pitch': -1.88, 'roll': 0.34}
{'lipoC2': 7.35, 'temp': 0.0, 'lipoC3S3': 11.39, 'state': 'normal', 'rot1': 0, 'rot0': 0, 'rot3': 0, 'rot2': 0, 'depth': -0.598, 'yaw': -1.72, 'datetime': '2018-12-12 14:13:43.523002', 'mgs': 0, 'flw2': 0.01, 'flw1': 0.0, 'flw0': 0.0, 'time': 2.5, 'compass': -2.84, 'pitch': -1.76, 'roll': 0.21}
{'lipoC2': 7.51, 'temp': 0.0, 'lipoC3S3': 11.27, 'state': 'normal', 'rot1': 0, 'rot0': 0, 'rot3': 0, 'rot2': 0, 'depth': -1.208, 'yaw': -1.99, 'datetime': '2018-12-12 14:13:43.732068', 'mgs': 0, 'flw2': 0.0, 'flw1': 0.0, 'flw0': 0.0, 'time': 2.71, 'compass': -3.11, 'pitch': -2.09, 'roll': 0.36}
{'lipoC2': 7.34, 'temp': 0.0, 'lipoC3S3': 11.56, 'state': 'normal', 'rot1': 0, 'rot0': 0, 'rot3': 0, 'rot2': 0, 'depth': 0.775, 'yaw': -2.28, 'datetime': '2018-12-12 14:13:43.942157', 'mgs': 0, 'flw2': 0.0, 'flw1': 0.56, 'flw0': 0.0, 'time': 2.92, 'compass': -3.4, 'pitch': -2.06, 'roll': 0.67}
{'lipoC2': 7.36, 'temp': 0.0, 'lipoC3S3': 11.69, 'state': 'normal', 'rot1': 0, 'rot0': 0, 'rot3': 0, 'rot2': 0, 'depth': 1.614, 'yaw': -2.52, 'datetime': '2018-12-12 14:13:44.149956', 'mgs': 0, 'flw2': 0.0, 'flw1': 0.0, 'flw0': 0.0, 'time': 3.13, 'compass': -3.64, 'pitch': -1.59, 'roll': 0.64}
{'lipoC2': 7.3, 'temp': 0.0, 'lipoC3S3': 11.38, 'state': 'normal', 'rot1': 0, 'rot0': 0, 'rot3': 0, 'rot2': 0, 'depth': -0.598, 'yaw': -2.79, 'datetime': '2018-12-12 14:13:44.357008', 'mgs': 0, 'flw2': 0.22, 'flw1': 0.0, 'flw0': 1.57, 'time': 3.33, 'compass': -3.91, 'pitch': -1.42, 'roll': 0.32}
{'lipoC2': 7.29, 'temp': 0.0, 'lipoC3S3': 11.35, 'state': 'normal', 'rot1': 2, 'rot0': 0, 'rot3': 0, 'rot2': 0, 'depth': -1.132, 'yaw': -3.92, 'datetime': '2018-12-12 14:13:44.565663', 'mgs': 0, 'flw2': 0.0, 'flw1': 0.41, 'flw0': 6.98, 'time': 3.54, 'compass': -5.04, 'pitch': -1.21, 'roll': -0.19}
{'lipoC2': 7.36, 'temp': 0.0, 'lipoC3S3': 11.44, 'state': 'normal', 'rot1': 5, 'rot0': 0, 'rot3': 0, 'rot2': 0, 'depth': -0.369, 'yaw': -10.41, 'datetime': '2018-12-12 14:13:44.772899', 'mgs': 0, 'flw2': 0.0, 'flw1': 0.53, 'flw0': 6.75, 'time': 3.75, 'compass': -11.53, 'pitch': 1.49, 'roll': -1.36}
{'lipoC2': 7.36, 'temp': 0.0, 'lipoC3S3': 11.4, 'state': 'normal', 'rot1': 9, 'rot0': 0, 'rot3': 0, 'rot2': 0, 'depth': 1.462, 'yaw': -21.57, 'datetime': '2018-12-12 14:13:44.981188', 'mgs': 0, 'flw2': 0.01, 'flw1': 0.0, 'flw0': 7.15, 'time': 3.95, 'compass': -22.7, 'pitch': 3.76, 'roll': -2.09}
{'lipoC2': 7.36, 'temp': 0.0, 'lipoC3S3': 11.4, 'state': 'normal', 'rot1': 13, 'rot0': 0, 'rot3': 0, 'rot2': 0, 'depth': 0.241, 'yaw': -34.9, 'datetime': '2018-12-12 14:13:45.190014', 'mgs': 0, 'flw2': 0.0, 'flw1': 0.0, 'flw0': 7.19, 'time': 4.16, 'compass': -36.02, 'pitch': 4.19, 'roll': -2.18}
{'lipoC2': 7.34, 'temp': 0.0, 'lipoC3S3': 11.36, 'state': 'normal', 'rot1': 17, 'rot0': 0, 'rot3': 0, 'rot2': 0, 'depth': 1.309, 'yaw': -45.4, 'datetime': '2018-12-12 14:13:45.400108', 'mgs': 0, 'flw2': 5.99, 'flw1': 0.44, 'flw0': 6.29, 'time': 4.37, 'compass': -46.52, 'pitch': 5.43, 'roll': 0.07}
{'lipoC2': 7.36, 'temp': 0.0, 'lipoC3S3': 11.42, 'state': 'normal', 'rot1': 21, 'rot0': 4, 'rot3': 0, 'rot2': 0, 'depth': -0.064, 'yaw': -55.32, 'datetime': '2018-12-12 14:13:45.607831', 'mgs': 0, 'flw2': 5.97, 'flw1': 0.56, 'flw0': 6.77, 'time': 4.58, 'compass': -56.44, 'pitch': 6.97, 'roll': 1.15}
{'lipoC2': 7.55, 'temp': 0.0, 'lipoC3S3': 11.23, 'state': 'normal', 'rot1': 25, 'rot0': 8, 'rot3': 0, 'rot2': 0, 'depth': 0.089, 'yaw': -61.16, 'datetime': '2018-12-12 14:13:45.816640', 'mgs': 0, 'flw2': 6.31, 'flw1': 0.0, 'flw0': 6.86, 'time': 4.79, 'compass': -62.29, 'pitch': 8.93, 'roll': 1.46}
{'lipoC2': 7.37, 'temp': 0.0, 'lipoC3S3': 11.46, 'state': 'normal', 'rot1': 29, 'rot0': 11, 'rot3': 0, 'rot2': 0, 'depth': 2.682, 'yaw': -64.37, 'datetime': '2018-12-12 14:13:46.024183', 'mgs': 0, 'flw2': 6.14, 'flw1': 0.73, 'flw0': 6.9, 'time': 5.0, 'compass': -65.49, 'pitch': 9.15, 'roll': 1.08}
{'lipoC2': 7.36, 'temp': 0.0, 'lipoC3S3': 11.42, 'state': 'normal', 'rot1': 31, 'rot0': 13, 'rot3': 0, 'rot2': 0, 'depth': -0.064, 'yaw': -66.44, 'datetime': '2018-12-12 14:13:46.235326', 'mgs': 0, 'flw2': 0.01, 'flw1': 0.0, 'flw0': 0.16, 'time': 5.21, 'compass': -67.56, 'pitch': 7.78, 'roll': 0.62}
{'lipoC2': 7.33, 'temp': 0.0, 'lipoC3S3': 11.69, 'state': 'normal', 'rot1': 31, 'rot0': 13, 'rot3': 0, 'rot2': 0, 'depth': 2.072, 'yaw': -68.16, 'datetime': '2018-12-12 14:13:46.444419', 'mgs': 0, 'flw2': 0.0, 'flw1': 0.0, 'flw0': 0.0, 'time': 5.41, 'compass': -69.28, 'pitch': 1.59, 'roll': 0.21}
{'lipoC2': 7.37, 'temp': 0.0, 'lipoC3S3': 11.36, 'state': 'normal', 'rot1': 31, 'rot0': 13, 'rot3': 0, 'rot2': 0, 'depth': -0.14, 'yaw': -69.93, 'datetime': '2018-12-12 14:13:46.653422', 'mgs': 0, 'flw2': 0.16, 'flw1': 0.0, 'flw0': 0.26, 'time': 5.62, 'compass': -71.05, 'pitch': -3.07, 'roll': -0.47}
{'lipoC2': 7.56, 'temp': 0.0, 'lipoC3S3': 11.34, 'state': 'normal', 'rot1': 31, 'rot0': 13, 'rot3': 0, 'rot2': 0, 'depth': 1.92, 'yaw': -71.85, 'datetime': '2018-12-12 14:13:46.866117', 'mgs': 0, 'flw2': 0.0, 'flw1': 0.0, 'flw0': 0.0, 'time': 5.83, 'compass': -72.97, 'pitch': -3.07, 'roll': -0.77}
{'lipoC2': 7.37, 'temp': 0.0, 'lipoC3S3': 11.38, 'state': 'normal', 'rot1': 31, 'rot0': 13, 'rot3': 0, 'rot2': 0, 'depth': -0.369, 'yaw': -73.92, 'datetime': '2018-12-12 14:13:47.072717', 'mgs': 0, 'flw2': 0.0, 'flw1': 0.5, 'flw0': 0.0, 'time': 6.04, 'compass': -75.04, 'pitch': -1.08, 'roll': -0.61}
{'lipoC2': 7.43, 'temp': 0.0, 'lipoC3S3': 11.29, 'state': 'normal', 'rot1': 31, 'rot0': 13, 'rot3': 0, 'rot2': 0, 'depth': -0.751, 'yaw': -75.96, 'datetime': '2018-12-12 14:13:47.279195', 'mgs': 0, 'flw2': 0.0, 'flw1': 0.0, 'flw0': 0.21, 'time': 6.25, 'compass': -77.09, 'pitch': -0.35, 'roll': -0.34}
{'lipoC2': 7.35, 'temp': 0.0, 'lipoC3S3': 11.51, 'state': 'normal', 'rot1': 31, 'rot0': 13, 'rot3': 0, 'rot2': 0, 'depth': 1.157, 'yaw': -78.15, 'datetime': '2018-12-12 14:13:47.487243', 'mgs': 0, 'flw2': 0.0, 'flw1': 0.0, 'flw0': 0.1, 'time': 6.46, 'compass': -79.27, 'pitch': -1.41, 'roll': -0.34}
{'lipoC2': 7.4, 'temp': 0.0, 'lipoC3S3': 11.38, 'state': 'normal', 'rot1': 31, 'rot0': 13, 'rot3': 0, 'rot2': 0, 'depth': 0.012, 'yaw': -80.39, 'datetime': '2018-12-12 14:13:47.696686', 'mgs': 0, 'flw2': 0.16, 'flw1': 0.0, 'flw0': 0.26, 'time': 6.67, 'compass': -81.51, 'pitch': -2.16, 'roll': -0.58}
{'lipoC2': 7.32, 'temp': 0.0, 'lipoC3S3': 11.36, 'state': 'normal', 'rot1': 31, 'rot0': 13, 'rot3': 0, 'rot2': 0, 'depth': -0.598, 'yaw': -82.67, 'datetime': '2018-12-12 14:13:47.910540', 'mgs': 0, 'flw2': 0.0, 'flw1': 0.56, 'flw0': 0.0, 'time': 6.88, 'compass': -83.8, 'pitch': -1.58, 'roll': -0.68}
{'lipoC2': 7.28, 'temp': 0.0, 'lipoC3S3': 11.4, 'state': 'normal', 'rot1': 31, 'rot0': 13, 'rot3': 0, 'rot2': 0, 'depth': -0.446, 'yaw': -84.82, 'datetime': '2018-12-12 14:13:48.119156', 'mgs': 0, 'flw2': 0.22, 'flw1': 0.0, 'flw0': 0.23, 'time': 7.09, 'compass': -85.94, 'pitch': -0.92, 'roll': -0.72}
{'lipoC2': 7.37, 'temp': 0.0, 'lipoC3S3': 11.64, 'state': 'normal', 'rot1': 31, 'rot0': 13, 'rot3': 0, 'rot2': 0, 'depth': 1.157, 'yaw': -87.06, 'datetime': '2018-12-12 14:13:48.323621', 'mgs': 0, 'flw2': 0.0, 'flw1': 0.0, 'flw0': 0.0, 'time': 7.29, 'compass': -88.18, 'pitch': -0.99, 'roll': -0.76}
{'lipoC2': 7.36, 'temp': 0.0, 'lipoC3S3': 11.44, 'state': 'normal', 'rot1': 31, 'rot0': 13, 'rot3': 0, 'rot2': 0, 'depth': -0.369, 'yaw': -89.32, 'datetime': '2018-12-12 14:13:48.538361', 'mgs': 0, 'flw2': 0.09, 'flw1': 0.0, 'flw0': 0.22, 'time': 7.5, 'compass': -90.45, 'pitch': -1.44, 'roll': -0.65}
{'lipoC2': 7.48, 'temp': 0.0, 'lipoC3S3': 11.26, 'state': 'normal', 'rot1': 31, 'rot0': 13, 'rot3': 0, 'rot2': 0, 'depth': -1.056, 'yaw': -91.62, 'datetime': '2018-12-12 14:13:48.746769', 'mgs': 0, 'flw2': 0.23, 'flw1': 0.0, 'flw0': 0.15, 'time': 7.71, 'compass': -92.75, 'pitch': -1.25, 'roll': -0.3}
{'lipoC2': 7.49, 'temp': 0.0, 'lipoC3S3': 11.23, 'state': 'normal', 'rot1': 31, 'rot0': 13, 'rot3': 0, 'rot2': 0, 'depth': -1.208, 'yaw': -93.84, 'datetime': '2018-12-12 14:13:48.954510', 'mgs': 0, 'flw2': 0.23, 'flw1': 0.0, 'flw0': 0.23, 'time': 7.92, 'compass': -94.97, 'pitch': -0.89, 'roll': -0.18}
{'lipoC2': 7.36, 'temp': 0.0, 'lipoC3S3': 11.4, 'state': 'normal', 'rot1': 31, 'rot0': 13, 'rot3': 0, 'rot2': 0, 'depth': -0.369, 'yaw': -96.21, 'datetime': '2018-12-12 14:13:49.161358', 'mgs': 0, 'flw2': 0.0, 'flw1': 0.21, 'flw0': 0.0, 'time': 8.13, 'compass': -97.33, 'pitch': -0.66, 'roll': -0.52}
{'lipoC2': 7.39, 'temp': 0.0, 'lipoC3S3': 11.38, 'state': 'normal', 'rot1': 31, 'rot0': 13, 'rot3': 0, 'rot2': 0, 'depth': 0.012, 'yaw': -98.59, 'datetime': '2018-12-12 14:13:49.373442', 'mgs': 0, 'flw2': 0.21, 'flw1': 0.0, 'flw0': 0.26, 'time': 8.34, 'compass': -99.71, 'pitch': -0.63, 'roll': -1.11}
{'lipoC2': 7.37, 'temp': 0.0, 'lipoC3S3': 11.39, 'state': 'normal', 'rot1': 31, 'rot0': 13, 'rot3': 0, 'rot2': 0, 'depth': -0.369, 'yaw': -101.0, 'datetime': '2018-12-12 14:13:49.583040', 'mgs': 0, 'flw2': 0.01, 'flw1': 0.0, 'flw0': 0.22, 'time': 8.55, 'compass': -102.12, 'pitch': -0.72, 'roll': -1.27}
{'lipoC2': 7.36, 'temp': 0.0, 'lipoC3S3': 11.69, 'state': 'normal', 'rot1': 31, 'rot0': 13, 'rot3': 0, 'rot2': 0, 'depth': -0.064, 'yaw': -103.34, 'datetime': '2018-12-12 14:13:49.792816', 'mgs': 0, 'flw2': 0.0, 'flw1': 0.21, 'flw0': 0.0, 'time': 8.76, 'compass': -104.46, 'pitch': -0.99, 'roll': -0.87}
{'lipoC2': 7.37, 'temp': 0.0, 'lipoC3S3': 11.69, 'state': 'normal', 'rot1': 31, 'rot0': 13, 'rot3': 0, 'rot2': 0, 'depth': 0.089, 'yaw': -105.56, 'datetime': '2018-12-12 14:13:49.999824', 'mgs': 0, 'flw2': 0.0, 'flw1': 0.29, 'flw0': 0.0, 'time': 8.96, 'compass': -106.68, 'pitch': -1.08, 'roll': -0.5}
{'lipoC2': 7.43, 'temp': 0.0, 'lipoC3S3': 11.18, 'state': 'normal', 'rot1': 31, 'rot0': 15, 'rot3': 0, 'rot2': 0, 'depth': 0.47, 'yaw': -107.07, 'datetime': '2018-12-12 14:13:50.206365', 'mgs': 0, 'flw2': 5.94, 'flw1': 0.18, 'flw0': 0.0, 'time': 9.17, 'compass': -108.19, 'pitch': -0.43, 'roll': -0.42}
{'lipoC2': 7.53, 'temp': 0.0, 'lipoC3S3': 11.36, 'state': 'normal', 'rot1': 31, 'rot0': 18, 'rot3': 0, 'rot2': 0, 'depth': 1.92, 'yaw': -103.68, 'datetime': '2018-12-12 14:13:50.415991', 'mgs': 0, 'flw2': 6.01, 'flw1': 0.0, 'flw0': 0.0, 'time': 9.38, 'compass': -104.8, 'pitch': 2.49, 'roll': 0.01}
{'lipoC2': 7.56, 'temp': 0.0, 'lipoC3S3': 11.27, 'state': 'normal', 'rot1': 31, 'rot0': 21, 'rot3': 0, 'rot2': 0, 'depth': -0.446, 'yaw': -96.17, 'datetime': '2018-12-12 14:13:50.624567', 'mgs': 0, 'flw2': 6.36, 'flw1': 0.0, 'flw0': 0.13, 'time': 9.59, 'compass': -97.29, 'pitch': 4.09, 'roll': 0.36}
{'lipoC2': 7.37, 'temp': 0.0, 'lipoC3S3': 11.27, 'state': 'normal', 'rot1': 31, 'rot0': 25, 'rot3': 0, 'rot2': 0, 'depth': -0.14, 'yaw': -85.94, 'datetime': '2018-12-12 14:13:50.835943', 'mgs': 0, 'flw2': 5.86, 'flw1': 0.0, 'flw0': 0.07, 'time': 9.8, 'compass': -87.06, 'pitch': 3.13, 'roll': 0.81}
{'lipoC2': 7.36, 'temp': 0.0, 'lipoC3S3': 11.48, 'state': 'normal', 'rot1': 31, 'rot0': 28, 'rot3': 0, 'rot2': 0, 'depth': 1.385, 'yaw': -74.57, 'datetime': '2018-12-12 14:13:51.042983', 'mgs': 0, 'flw2': 6.15, 'flw1': 0.03, 'flw0': 0.0, 'time': 10.01, 'compass': -75.69, 'pitch': 1.83, 'roll': 1.7}
{'lipoC2': 7.34, 'temp': 0.0, 'lipoC3S3': 11.46, 'state': 'normal', 'rot1': 31, 'rot0': 31, 'rot3': 0, 'rot2': 0, 'depth': 0.775, 'yaw': -61.62, 'datetime': '2018-12-12 14:13:51.253574', 'mgs': 0, 'flw2': 6.13, 'flw1': 0.09, 'flw0': 0.0, 'time': 10.22, 'compass': -62.74, 'pitch': 1.54, 'roll': 2.74}
{'lipoC2': 7.32, 'temp': 0.0, 'lipoC3S3': 11.4, 'state': 'normal', 'rot1': 31, 'rot0': 35, 'rot3': 0, 'rot2': 0, 'depth': 0.699, 'yaw': -47.68, 'datetime': '2018-12-12 14:13:51.463217', 'mgs': 0, 'flw2': 5.94, 'flw1': 0.35, 'flw0': 0.1, 'time': 10.42, 'compass': -48.8, 'pitch': 2.37, 'roll': 3.76}
{'lipoC2': 7.47, 'temp': 0.0, 'lipoC3S3': 11.18, 'state': 'normal', 'rot1': 31, 'rot0': 38, 'rot3': 0, 'rot2': 0, 'depth': -0.446, 'yaw': -32.67, 'datetime': '2018-12-12 14:13:51.669327', 'mgs': 0, 'flw2': 6.16, 'flw1': 0.15, 'flw0': 0.0, 'time': 10.63, 'compass': -33.8, 'pitch': 3.58, 'roll': 4.7}
{'lipoC2': 7.37, 'temp': 0.0, 'lipoC3S3': 11.51, 'state': 'normal', 'rot1': 31, 'rot0': 41, 'rot3': 0, 'rot2': 0, 'depth': 0.012, 'yaw': -18.54, 'datetime': '2018-12-12 14:13:51.885007', 'mgs': 0, 'flw2': 5.85, 'flw1': 0.0, 'flw0': 0.0, 'time': 10.84, 'compass': -19.66, 'pitch': 4.31, 'roll': 4.85}
{'lipoC2': 7.44, 'temp': 0.0, 'lipoC3S3': 11.18, 'state': 'normal', 'rot1': 31, 'rot0': 45, 'rot3': 0, 'rot2': 0, 'depth': 0.851, 'yaw': -3.58, 'datetime': '2018-12-12 14:13:52.087679', 'mgs': 0, 'flw2': 5.99, 'flw1': 0.0, 'flw0': 0.0, 'time': 11.05, 'compass': -4.7, 'pitch': 4.76, 'roll': 4.44}
{'lipoC2': 7.56, 'temp': 0.0, 'lipoC3S3': 11.17, 'state': 'normal', 'rot1': 31, 'rot0': 48, 'rot3': 0, 'rot2': 0, 'depth': -0.293, 'yaw': 11.53, 'datetime': '2018-12-12 14:13:52.295376', 'mgs': 0, 'flw2': 6.29, 'flw1': 0.0, 'flw0': 0.11, 'time': 11.26, 'compass': 10.41, 'pitch': 4.74, 'roll': 4.16}
{'lipoC2': 7.33, 'temp': 0.0, 'lipoC3S3': 11.32, 'state': 'normal', 'rot1': 31, 'rot0': 52, 'rot3': 0, 'rot2': 0, 'depth': 0.012, 'yaw': 27.17, 'datetime': '2018-12-12 14:13:52.504480', 'mgs': 0, 'flw2': 6.07, 'flw1': 0.0, 'flw0': 0.0, 'time': 11.47, 'compass': 26.05, 'pitch': 4.89, 'roll': 4.59}
{'lipoC2': 7.36, 'temp': 0.0, 'lipoC3S3': 11.35, 'state': 'normal', 'rot1': 31, 'rot0': 55, 'rot3': 0, 'rot2': 0, 'depth': 1.309, 'yaw': 42.84, 'datetime': '2018-12-12 14:13:52.713071', 'mgs': 0, 'flw2': 5.93, 'flw1': 0.0, 'flw0': 0.22, 'time': 11.68, 'compass': 41.72, 'pitch': 5.26, 'roll': 5.38}
{'lipoC2': 7.28, 'temp': 0.0, 'lipoC3S3': 11.3, 'state': 'normal', 'rot1': 31, 'rot0': 59, 'rot3': 0, 'rot2': 0, 'depth': -0.293, 'yaw': 60.03, 'datetime': '2018-12-12 14:13:52.924331', 'mgs': 0, 'flw2': 6.21, 'flw1': 0.0, 'flw0': 0.09, 'time': 11.88, 'compass': 58.91, 'pitch': 5.56, 'roll': 6.22}
{'lipoC2': 7.35, 'temp': 0.0, 'lipoC3S3': 11.36, 'state': 'normal', 'rot1': 34, 'rot0': 62, 'rot3': 0, 'rot2': 0, 'depth': 0.317, 'yaw': 76.39, 'datetime': '2018-12-12 14:13:53.130478', 'mgs': 0, 'flw2': 6.01, 'flw1': 0.64, 'flw0': 6.71, 'time': 12.09, 'compass': 75.26, 'pitch': 6.94, 'roll': 6.83}
{'lipoC2': 7.3, 'temp': 0.0, 'lipoC3S3': 11.22, 'state': 'normal', 'rot1': 38, 'rot0': 65, 'rot3': 0, 'rot2': 0, 'depth': 0.241, 'yaw': 87.17, 'datetime': '2018-12-12 14:13:53.342614', 'mgs': 0, 'flw2': 6.12, 'flw1': 0.12, 'flw0': 6.6, 'time': 12.3, 'compass': 86.05, 'pitch': 9.02, 'roll': 7.15}
{'lipoC2': 7.53, 'temp': 0.0, 'lipoC3S3': 11.06, 'state': 'normal', 'rot1': 42, 'rot0': 69, 'rot3': 0, 'rot2': 0, 'depth': 1.462, 'yaw': 93.81, 'datetime': '2018-12-12 14:13:53.548570', 'mgs': 0, 'flw2': 6.23, 'flw1': 0.0, 'flw0': 7.14, 'time': 12.51, 'compass': 92.69, 'pitch': 8.47, 'roll': 7.1}
{'lipoC2': 7.48, 'temp': 0.0, 'lipoC3S3': 11.07, 'state': 'normal', 'rot1': 46, 'rot0': 72, 'rot3': 0, 'rot2': 0, 'depth': 1.233, 'yaw': 97.75, 'datetime': '2018-12-12 14:13:53.757972', 'mgs': 0, 'flw2': 6.04, 'flw1': 0.0, 'flw0': 6.58, 'time': 12.72, 'compass': 96.63, 'pitch': 6.36, 'roll': 6.64}
{'lipoC2': 7.54, 'temp': 0.0, 'lipoC3S3': 11.02, 'state': 'normal', 'rot1': 50, 'rot0': 75, 'rot3': 0, 'rot2': 0, 'depth': -1.132, 'yaw': 100.55, 'datetime': '2018-12-12 14:13:53.967436', 'mgs': 0, 'flw2': 6.13, 'flw1': 0.0, 'flw0': 6.63, 'time': 12.93, 'compass': 99.42, 'pitch': 4.94, 'roll': 5.37}
{'lipoC2': 7.34, 'temp': 0.0, 'lipoC3S3': 11.1, 'state': 'normal', 'rot1': 53, 'rot0': 78, 'rot3': 0, 'rot2': 0, 'depth': 0.089, 'yaw': 102.41, 'datetime': '2018-12-12 14:13:54.175188', 'mgs': 0, 'flw2': 6.01, 'flw1': 0.0, 'flw0': 6.87, 'time': 13.14, 'compass': 101.29, 'pitch': 5.65, 'roll': 3.99}
{'lipoC2': 7.36, 'temp': 0.0, 'lipoC3S3': 11.51, 'state': 'normal', 'rot1': 57, 'rot0': 81, 'rot3': 0, 'rot2': 0, 'depth': 2.225, 'yaw': 103.57, 'datetime': '2018-12-12 14:13:54.383993', 'mgs': 0, 'flw2': 6.03, 'flw1': 0.41, 'flw0': 6.56, 'time': 13.34, 'compass': 102.45, 'pitch': 6.91, 'roll': 3.24}
{'lipoC2': 7.37, 'temp': 0.0, 'lipoC3S3': 11.31, 'state': 'normal', 'rot1': 61, 'rot0': 84, 'rot3': 0, 'rot2': 0, 'depth': 0.089, 'yaw': 104.34, 'datetime': '2018-12-12 14:13:54.594842', 'mgs': 0, 'flw2': 6.01, 'flw1': 0.35, 'flw0': 6.75, 'time': 13.55, 'compass': 103.22, 'pitch': 7.2, 'roll': 2.71}
{'lipoC2': 7.42, 'temp': 0.0, 'lipoC3S3': 11.13, 'state': 'normal', 'rot1': 65, 'rot0': 87, 'rot3': 0, 'rot2': 0, 'depth': 1.691, 'yaw': 104.66, 'datetime': '2018-12-12 14:13:54.807920', 'mgs': 0, 'flw2': 6.01, 'flw1': 0.5, 'flw0': 6.97, 'time': 13.76, 'compass': 103.54, 'pitch': 6.68, 'roll': 2.1}
{'lipoC2': 7.37, 'temp': 0.0, 'lipoC3S3': 11.23, 'state': 'normal', 'rot1': 69, 'rot0': 91, 'rot3': 0, 'rot2': 0, 'depth': -0.14, 'yaw': 104.41, 'datetime': '2018-12-12 14:13:55.020308', 'mgs': 0, 'flw2': 5.93, 'flw1': 0.0, 'flw0': 6.75, 'time': 13.97, 'compass': 103.29, 'pitch': 6.06, 'roll': 1.26}
{'lipoC2': 7.33, 'temp': 0.0, 'lipoC3S3': 11.51, 'state': 'normal', 'rot1': 75, 'rot0': 96, 'rot3': 0, 'rot2': 0, 'depth': -0.369, 'yaw': 103.19, 'datetime': '2018-12-12 14:13:55.322378', 'mgs': 0, 'flw2': 6.02, 'flw1': 0.0, 'flw0': 6.79, 'time': 14.28, 'compass': 102.07, 'pitch': 6.39, 'roll': 0.38}
{'lipoC2': 7.34, 'temp': 0.0, 'lipoC3S3': 11.39, 'state': 'normal', 'rot1': 80, 'rot0': 97, 'rot3': 0, 'rot2': 0, 'depth': 1.385, 'yaw': 100.46, 'datetime': '2018-12-12 14:13:55.531712', 'mgs': 0, 'flw2': 0.0, 'flw1': 0.0, 'flw0': 7.3, 'time': 14.49, 'compass': 99.34, 'pitch': 5.66, 'roll': -0.34}
{'lipoC2': 7.32, 'temp': 0.0, 'lipoC3S3': 11.54, 'state': 'normal', 'rot1': 83, 'rot0': 97, 'rot3': 0, 'rot2': 0, 'depth': 2.072, 'yaw': 93.81, 'datetime': '2018-12-12 14:13:55.746955', 'mgs': 0, 'flw2': 0.0, 'flw1': 0.41, 'flw0': 6.79, 'time': 14.7, 'compass': 92.69, 'pitch': 3.44, 'roll': -1.51}
{'lipoC2': 7.35, 'temp': 0.0, 'lipoC3S3': 11.35, 'state': 'normal', 'rot1': 87, 'rot0': 97, 'rot3': 0, 'rot2': 0, 'depth': 0.394, 'yaw': 84.89, 'datetime': '2018-12-12 14:13:55.960524', 'mgs': 0, 'flw2': 0.0, 'flw1': 0.0, 'flw0': 6.88, 'time': 14.91, 'compass': 83.77, 'pitch': 3.3, 'roll': -2.41}
{'lipoC2': 7.44, 'temp': 0.0, 'lipoC3S3': 11.11, 'state': 'normal', 'rot1': 92, 'rot0': 97, 'rot3': 0, 'rot2': 0, 'depth': -0.674, 'yaw': 69.36, 'datetime': '2018-12-12 14:13:56.263877', 'mgs': 0, 'flw2': 0.18, 'flw1': 0.0, 'flw0': 7.01, 'time': 15.22, 'compass': 68.23, 'pitch': 5.64, 'roll': -2.8}
{'lipoC2': 7.52, 'temp': 0.0, 'lipoC3S3': 11.11, 'state': 'normal', 'rot1': 96, 'rot0': 97, 'rot3': 0, 'rot2': 0, 'depth': -0.903, 'yaw': 57.67, 'datetime': '2018-12-12 14:13:56.473203', 'mgs': 0, 'flw2': 0.0, 'flw1': 0.0, 'flw0': 6.97, 'time': 15.43, 'compass': 56.55, 'pitch': 6.16, 'roll': -2.8}
{'lipoC2': 7.29, 'temp': 0.0, 'lipoC3S3': 11.39, 'state': 'normal', 'rot1': 100, 'rot0': 97, 'rot3': 0, 'rot2': 0, 'depth': 0.089, 'yaw': 46.54, 'datetime': '2018-12-12 14:13:56.681430', 'mgs': 0, 'flw2': 7.2, 'flw1': 0.38, 'flw0': 0.02, 'time': 15.64, 'compass': 45.42, 'pitch': 5.18, 'roll': -2.52}
{'lipoC2': 7.49, 'temp': 0.0, 'lipoC3S3': 11.13, 'state': 'normal', 'rot1': 100, 'rot0': 100, 'rot3': 0, 'rot2': 0, 'depth': 0.928, 'yaw': 35.87, 'datetime': '2018-12-12 14:13:56.899501', 'mgs': 0, 'flw2': 7.02, 'flw1': 0.0, 'flw0': 0.0, 'time': 15.85, 'compass': 34.75, 'pitch': 0.42, 'roll': -2.51}
{'lipoC2': 7.52, 'temp': 0.0, 'lipoC3S3': 11.14, 'state': 'normal', 'rot1': 100, 'rot0': 104, 'rot3': 0, 'rot2': 0, 'depth': -0.98, 'yaw': 25.61, 'datetime': '2018-12-12 14:13:57.103502', 'mgs': 0, 'flw2': 7.12, 'flw1': 0.0, 'flw0': 0.0, 'time': 16.06, 'compass': 24.49, 'pitch': -3.99, 'roll': -3.46}
{'lipoC2': 7.36, 'temp': 0.0, 'lipoC3S3': 11.56, 'state': 'normal', 'rot1': 100, 'rot0': 107, 'rot3': 0, 'rot2': 0, 'depth': 0.623, 'yaw': 14.68, 'datetime': '2018-12-12 14:13:57.324243', 'mgs': 0, 'flw2': 7.2, 'flw1': 0.0, 'flw0': 0.0, 'time': 16.27, 'compass': 13.55, 'pitch': -3.55, 'roll': -4.16}
{'lipoC2': 7.36, 'temp': 0.0, 'lipoC3S3': 11.34, 'state': 'normal', 'rot1': 100, 'rot0': 113, 'rot3': 0, 'rot2': 0, 'depth': -0.369, 'yaw': -2.78, 'datetime': '2018-12-12 14:13:57.624937', 'mgs': 0, 'flw2': 6.85, 'flw1': 0.0, 'flw0': 0.16, 'time': 16.58, 'compass': -3.9, 'pitch': -1.16, 'roll': -3.48}
{'lipoC2': 7.36, 'temp': 0.0, 'lipoC3S3': 11.56, 'state': 'normal', 'rot1': 100, 'rot0': 116, 'rot3': 0, 'rot2': 0, 'depth': 1.996, 'yaw': -14.53, 'datetime': '2018-12-12 14:13:57.833385', 'mgs': 0, 'flw2': 7.17, 'flw1': 0.0, 'flw0': 0.0, 'time': 16.79, 'compass': -15.65, 'pitch': -2.22, 'roll': -2.88}
{'lipoC2': 7.4, 'temp': 0.0, 'lipoC3S3': 11.31, 'state': 'normal', 'rot1': 100, 'rot0': 117, 'rot3': 0, 'rot2': 0, 'depth': 0.089, 'yaw': -24.77, 'datetime': '2018-12-12 14:13:58.042681', 'mgs': 0, 'flw2': 0.09, 'flw1': 0.0, 'flw0': 0.42, 'time': 17.0, 'compass': -25.89, 'pitch': -1.96, 'roll': -2.48}
{'lipoC2': 7.54, 'temp': 0.0, 'lipoC3S3': 11.11, 'state': 'normal', 'rot1': 103, 'rot0': 119, 'rot3': 0, 'rot2': 0, 'depth': -1.056, 'yaw': -33.01, 'datetime': '2018-12-12 14:13:58.256059', 'mgs': 0, 'flw2': 6.08, 'flw1': 0.0, 'flw0': 7.06, 'time': 17.21, 'compass': -34.13, 'pitch': 1.37, 'roll': -1.16}
{'lipoC2': 7.55, 'temp': 0.0, 'lipoC3S3': 11.15, 'state': 'normal', 'rot1': 106, 'rot0': 123, 'rot3': 0, 'rot2': 0, 'depth': -0.98, 'yaw': -41.27, 'datetime': '2018-12-12 14:13:58.464556', 'mgs': 0, 'flw2': 6.16, 'flw1': 0.0, 'flw0': 7.12, 'time': 17.42, 'compass': -42.39, 'pitch': 7.42, 'roll': 0.02}
{'lipoC2': 7.52, 'temp': 0.0, 'lipoC3S3': 11.07, 'state': 'normal', 'rot1': 110, 'rot0': 126, 'rot3': 0, 'rot2': 0, 'depth': 1.233, 'yaw': -49.0, 'datetime': '2018-12-12 14:13:58.675959', 'mgs': 0, 'flw2': 6.35, 'flw1': 0.0, 'flw0': 7.03, 'time': 17.63, 'compass': -50.12, 'pitch': 10.25, 'roll': 0.47}
{'lipoC2': 7.34, 'temp': 0.0, 'lipoC3S3': 11.38, 'state': 'normal', 'rot1': 114, 'rot0': 129, 'rot3': 0, 'rot2': 0, 'depth': 2.148, 'yaw': -55.84, 'datetime': '2018-12-12 14:13:58.885562', 'mgs': 0, 'flw2': 5.79, 'flw1': 0.0, 'flw0': 6.54, 'time': 17.84, 'compass': -56.96, 'pitch': 8.92, 'roll': -0.01}
{'lipoC2': 7.38, 'temp': 0.0, 'lipoC3S3': 11.18, 'state': 'normal', 'rot1': 117, 'rot0': 133, 'rot3': 0, 'rot2': 0, 'depth': -0.217, 'yaw': -61.37, 'datetime': '2018-12-12 14:13:59.096384', 'mgs': 0, 'flw2': 5.83, 'flw1': 0.18, 'flw0': 7.06, 'time': 18.05, 'compass': -62.49, 'pitch': 7.16, 'roll': -1.09}
{'lipoC2': 7.33, 'temp': 0.0, 'lipoC3S3': 11.32, 'state': 'normal', 'rot1': 121, 'rot0': 136, 'rot3': 0, 'rot2': 0, 'depth': 0.47, 'yaw': -65.94, 'datetime': '2018-12-12 14:13:59.305692', 'mgs': 0, 'flw2': 6.47, 'flw1': 0.0, 'flw0': 6.76, 'time': 18.25, 'compass': -67.06, 'pitch': 6.55, 'roll': -1.75}
{'lipoC2': 7.36, 'temp': 0.0, 'lipoC3S3': 11.47, 'state': 'normal', 'rot1': 125, 'rot0': 139, 'rot3': 0, 'rot2': 0, 'depth': 3.14, 'yaw': -69.24, 'datetime': '2018-12-12 14:13:59.514893', 'mgs': 0, 'flw2': 6.07, 'flw1': 0.0, 'flw0': 6.88, 'time': 18.46, 'compass': -70.36, 'pitch': 6.35, 'roll': -2.06}
{'lipoC2': 7.35, 'temp': 0.0, 'lipoC3S3': 11.38, 'state': 'normal', 'rot1': 129, 'rot0': 143, 'rot3': 0, 'rot2': 0, 'depth': 1.004, 'yaw': -72.27, 'datetime': '2018-12-12 14:13:59.723408', 'mgs': 0, 'flw2': 5.98, 'flw1': 0.0, 'flw0': 6.48, 'time': 18.67, 'compass': -73.39, 'pitch': 6.44, 'roll': -2.25}
{'lipoC2': 7.34, 'temp': 0.0, 'lipoC3S3': 11.27, 'state': 'normal', 'rot1': 133, 'rot0': 146, 'rot3': 0, 'rot2': 0, 'depth': 2.53, 'yaw': -75.26, 'datetime': '2018-12-12 14:13:59.935682', 'mgs': 0, 'flw2': 6.31, 'flw1': 0.0, 'flw0': 6.71, 'time': 18.88, 'compass': -76.38, 'pitch': 6.52, 'roll': -2.75}
{'lipoC2': 7.35, 'temp': 0.0, 'lipoC3S3': 11.48, 'state': 'normal', 'rot1': 136, 'rot0': 149, 'rot3': 0, 'rot2': 0, 'depth': 2.148, 'yaw': -78.39, 'datetime': '2018-12-12 14:14:00.144413', 'mgs': 0, 'flw2': 5.94, 'flw1': 0.0, 'flw0': 6.77, 'time': 19.09, 'compass': -79.51, 'pitch': 6.68, 'roll': -2.91}
{'lipoC2': 7.32, 'temp': 0.0, 'lipoC3S3': 11.34, 'state': 'normal', 'rot1': 140, 'rot0': 153, 'rot3': 0, 'rot2': 0, 'depth': 1.462, 'yaw': -81.17, 'datetime': '2018-12-12 14:14:00.350080', 'mgs': 0, 'flw2': 6.13, 'flw1': 0.53, 'flw0': 6.51, 'time': 19.3, 'compass': -82.29, 'pitch': 6.26, 'roll': -2.74}
{'lipoC2': 7.38, 'temp': 0.0, 'lipoC3S3': 11.06, 'state': 'normal', 'rot1': 143, 'rot0': 157, 'rot3': 0, 'rot2': 0, 'depth': 0.699, 'yaw': -83.72, 'datetime': '2018-12-12 14:14:00.564205', 'mgs': 0, 'flw2': 6.02, 'flw1': 0.0, 'flw0': 7.28, 'time': 19.51, 'compass': -84.84, 'pitch': 5.73, 'roll': -2.87}
{'lipoC2': 7.34, 'temp': 0.0, 'lipoC3S3': 11.38, 'state': 'normal', 'rot1': 147, 'rot0': 160, 'rot3': 0, 'rot2': 0, 'depth': 2.148, 'yaw': -85.89, 'datetime': '2018-12-12 14:14:00.773339', 'mgs': 0, 'flw2': 5.74, 'flw1': 0.03, 'flw0': 6.77, 'time': 19.72, 'compass': -87.01, 'pitch': 5.64, 'roll': -3.08}
{'lipoC2': 7.37, 'temp': 0.0, 'lipoC3S3': 11.35, 'state': 'normal', 'rot1': 151, 'rot0': 163, 'rot3': 0, 'rot2': 0, 'depth': 1.309, 'yaw': -87.45, 'datetime': '2018-12-12 14:14:00.984366', 'mgs': 0, 'flw2': 5.77, 'flw1': 0.0, 'flw0': 6.79, 'time': 19.93, 'compass': -88.58, 'pitch': 5.83, 'roll': -3.13}
{'lipoC2': 7.46, 'temp': 0.0, 'lipoC3S3': 11.01, 'state': 'normal', 'rot1': 154, 'rot0': 166, 'rot3': 0, 'rot2': 0, 'depth': -0.598, 'yaw': -88.41, 'datetime': '2018-12-12 14:14:01.193173', 'mgs': 0, 'flw2': 5.91, 'flw1': 0.56, 'flw0': 6.88, 'time': 20.14, 'compass': -89.53, 'pitch': 6.29, 'roll': -3.06}
{'lipoC2': 7.49, 'temp': 0.0, 'lipoC3S3': 11.21, 'state': 'normal', 'rot1': 158, 'rot0': 170, 'rot3': 0, 'rot2': 0, 'depth': 1.309, 'yaw': -89.23, 'datetime': '2018-12-12 14:14:01.400547', 'mgs': 0, 'flw2': 5.98, 'flw1': 0.0, 'flw0': 6.6, 'time': 20.35, 'compass': -90.35, 'pitch': 6.28, 'roll': -2.98}
{'lipoC2': 7.38, 'temp': 0.0, 'lipoC3S3': 11.0, 'state': 'normal', 'rot1': 162, 'rot0': 173, 'rot3': 0, 'rot2': 0, 'depth': -0.217, 'yaw': -90.16, 'datetime': '2018-12-12 14:14:01.610576', 'mgs': 0, 'flw2': 5.79, 'flw1': 0.21, 'flw0': 6.75, 'time': 20.56, 'compass': -91.29, 'pitch': 6.13, 'roll': -2.84}
{'lipoC2': 7.34, 'temp': 0.0, 'lipoC3S3': 11.54, 'state': 'normal', 'rot1': 165, 'rot0': 176, 'rot3': 0, 'rot2': 0, 'depth': 2.148, 'yaw': -90.96, 'datetime': '2018-12-12 14:14:01.819809', 'mgs': 0, 'flw2': 6.04, 'flw1': 0.0, 'flw0': 6.76, 'time': 20.76, 'compass': -92.08, 'pitch': 6.01, 'roll': -2.22}
{'lipoC2': 7.38, 'temp': 0.0, 'lipoC3S3': 11.21, 'state': 'normal', 'rot1': 169, 'rot0': 180, 'rot3': 0, 'rot2': 0, 'depth': 1.157, 'yaw': -91.75, 'datetime': '2018-12-12 14:14:02.029255', 'mgs': 0, 'flw2': 6.36, 'flw1': 0.0, 'flw0': 6.54, 'time': 20.97, 'compass': -92.88, 'pitch': 6.23, 'roll': -1.3}
{'lipoC2': 7.38, 'temp': 0.0, 'lipoC3S3': 10.92, 'state': 'normal', 'rot1': 174, 'rot0': 183, 'rot3': 0, 'rot2': 0, 'depth': 0.851, 'yaw': -92.85, 'datetime': '2018-12-12 14:14:02.237518', 'mgs': 0, 'flw2': 6.27, 'flw1': 0.0, 'flw0': 6.8, 'time': 21.18, 'compass': -93.97, 'pitch': 6.43, 'roll': -0.78}
{'lipoC2': 7.54, 'temp': 0.0, 'lipoC3S3': 11.26, 'state': 'normal', 'rot1': 176, 'rot0': 186, 'rot3': 0, 'rot2': 0, 'depth': -1.056, 'yaw': -94.48, 'datetime': '2018-12-12 14:14:02.448216', 'mgs': 0, 'flw2': 0.0, 'flw1': 0.0, 'flw0': 0.0, 'time': 21.39, 'compass': -95.6, 'pitch': 6.06, 'roll': -0.66}
{'lipoC2': 7.36, 'temp': 0.0, 'lipoC3S3': 11.58, 'state': 'normal', 'rot1': 176, 'rot0': 186, 'rot3': 0, 'rot2': 0, 'depth': 1.538, 'yaw': -96.04, 'datetime': '2018-12-12 14:14:02.656861', 'mgs': 0, 'flw2': 0.0, 'flw1': 0.09, 'flw0': 0.0, 'time': 21.6, 'compass': -97.16, 'pitch': 1.64, 'roll': -0.57}
{'lipoC2': 7.36, 'temp': 0.0, 'lipoC3S3': 11.59, 'state': 'normal', 'rot1': 176, 'rot0': 186, 'rot3': 0, 'rot2': 0, 'depth': -0.064, 'yaw': -97.62, 'datetime': '2018-12-12 14:14:02.870621', 'mgs': 0, 'flw2': 0.0, 'flw1': 0.0, 'flw0': 0.0, 'time': 21.81, 'compass': -98.74, 'pitch': -0.96, 'roll': -0.48}
{'lipoC2': 7.35, 'temp': 0.0, 'lipoC3S3': 11.64, 'state': 'normal', 'rot1': 176, 'rot0': 186, 'rot3': 0, 'rot2': 0, 'depth': 0.012, 'yaw': -99.36, 'datetime': '2018-12-12 14:14:03.072647', 'mgs': 0, 'flw2': 0.17, 'flw1': 0.0, 'flw0': 0.0, 'time': 22.02, 'compass': -100.49, 'pitch': -1.12, 'roll': -0.29}
{'lipoC2': 7.38, 'temp': 0.0, 'lipoC3S3': 11.29, 'state': 'normal', 'rot1': 176, 'rot0': 186, 'rot3': 0, 'rot2': 0, 'depth': -0.369, 'yaw': -101.03, 'datetime': '2018-12-12 14:14:03.282734', 'mgs': 0, 'flw2': 0.0, 'flw1': 0.0, 'flw0': 0.0, 'time': 22.23, 'compass': -102.15, 'pitch': -0.92, 'roll': -0.07}
{'lipoC2': 7.46, 'temp': 0.0, 'lipoC3S3': 11.21, 'state': 'normal', 'rot1': 176, 'rot0': 186, 'rot3': 0, 'rot2': 0, 'depth': 0.47, 'yaw': -102.79, 'datetime': '2018-12-12 14:14:03.493681', 'mgs': 0, 'flw2': 0.27, 'flw1': 0.0, 'flw0': 0.17, 'time': 22.44, 'compass': -103.91, 'pitch': -1.21, 'roll': -0.0}
{'lipoC2': 7.34, 'temp': 0.0, 'lipoC3S3': 11.34, 'state': 'normal', 'rot1': 176, 'rot0': 186, 'rot3': 0, 'rot2': 0, 'depth': -0.064, 'yaw': -104.57, 'datetime': '2018-12-12 14:14:03.703522', 'mgs': 0, 'flw2': 0.06, 'flw1': 0.0, 'flw0': 5.14, 'time': 22.65, 'compass': -105.69, 'pitch': -1.5, 'roll': -0.24}
{'lipoC2': 7.36, 'temp': 0.0, 'lipoC3S3': 11.35, 'state': 'normal', 'rot1': 180, 'rot0': 186, 'rot3': 0, 'rot2': 0, 'depth': 1.309, 'yaw': -108.85, 'datetime': '2018-12-12 14:14:03.913349', 'mgs': 0, 'flw2': 0.0, 'flw1': 0.67, 'flw0': 6.71, 'time': 22.86, 'compass': -109.97, 'pitch': -0.24, 'roll': -1.33}
{'lipoC2': 7.55, 'temp': 0.0, 'lipoC3S3': 11.07, 'state': 'normal', 'rot1': 183, 'rot0': 186, 'rot3': 0, 'rot2': 0, 'depth': -1.056, 'yaw': -118.13, 'datetime': '2018-12-12 14:14:04.125651', 'mgs': 0, 'flw2': 5.81, 'flw1': 0.53, 'flw0': 6.42, 'time': 23.07, 'compass': -119.25, 'pitch': 2.27, 'roll': -3.01}
{'lipoC2': 7.34, 'temp': 0.0, 'lipoC3S3': 11.38, 'state': 'normal', 'rot1': 186, 'rot0': 189, 'rot3': 0, 'rot2': 0, 'depth': 2.072, 'yaw': -126.79, 'datetime': '2018-12-12 14:14:04.332084', 'mgs': 0, 'flw2': 5.87, 'flw1': 0.09, 'flw0': 6.84, 'time': 23.28, 'compass': -127.91, 'pitch': 4.79, 'roll': -3.93}
{'lipoC2': 7.37, 'temp': 0.0, 'lipoC3S3': 11.44, 'state': 'normal', 'rot1': 190, 'rot0': 192, 'rot3': 0, 'rot2': 0, 'depth': 0.089, 'yaw': -132.03, 'datetime': '2018-12-12 14:14:04.542280', 'mgs': 0, 'flw2': 5.92, 'flw1': 0.26, 'flw0': 6.71, 'time': 23.49, 'compass': -133.15, 'pitch': 6.5, 'roll': -3.78}
{'lipoC2': 7.56, 'temp': 0.0, 'lipoC3S3': 11.17, 'state': 'normal', 'rot1': 194, 'rot0': 195, 'rot3': 0, 'rot2': 0, 'depth': -0.446, 'yaw': -135.2, 'datetime': '2018-12-12 14:14:04.752540', 'mgs': 0, 'flw2': 0.1, 'flw1': 0.0, 'flw0': 6.71, 'time': 23.69, 'compass': -136.32, 'pitch': 6.72, 'roll': -3.22}
{'lipoC2': 7.54, 'temp': 0.0, 'lipoC3S3': 11.27, 'state': 'normal', 'rot1': 197, 'rot0': 195, 'rot3': 0, 'rot2': 0, 'depth': -0.293, 'yaw': -141.61, 'datetime': '2018-12-12 14:14:04.964408', 'mgs': 0, 'flw2': 0.07, 'flw1': 0.0, 'flw0': 6.98, 'time': 23.91, 'compass': -142.73, 'pitch': 4.77, 'roll': -3.09}
{'lipoC2': 7.41, 'temp': 0.0, 'lipoC3S3': 11.25, 'state': 'normal', 'rot1': 201, 'rot0': 195, 'rot3': 0, 'rot2': 0, 'depth': 0.546, 'yaw': -151.2, 'datetime': '2018-12-12 14:14:05.172486', 'mgs': 0, 'flw2': 0.0, 'flw1': 0.0, 'flw0': 6.63, 'time': 24.11, 'compass': -152.33, 'pitch': 3.47, 'roll': -3.58}
{'lipoC2': 7.37, 'temp': 0.0, 'lipoC3S3': 11.05, 'state': 'normal', 'rot1': 205, 'rot0': 198, 'rot3': 0, 'rot2': 0, 'depth': 1.157, 'yaw': -160.47, 'datetime': '2018-12-12 14:14:05.381618', 'mgs': 0, 'flw2': 6.12, 'flw1': 0.0, 'flw0': 6.69, 'time': 24.32, 'compass': -161.59, 'pitch': 5.03, 'roll': -4.18}
{'lipoC2': 7.36, 'temp': 0.0, 'lipoC3S3': 11.47, 'state': 'normal', 'rot1': 208, 'rot0': 198, 'rot3': 0, 'rot2': 0, 'depth': 1.767, 'yaw': -167.98, 'datetime': '2018-12-12 14:14:05.590835', 'mgs': 0, 'flw2': 0.0, 'flw1': 0.0, 'flw0': 6.88, 'time': 24.53, 'compass': -169.1, 'pitch': 7.45, 'roll': -4.71}
{'lipoC2': 7.54, 'temp': 0.0, 'lipoC3S3': 11.06, 'state': 'normal', 'rot1': 212, 'rot0': 199, 'rot3': 0, 'rot2': 0, 'depth': -0.827, 'yaw': -177.68, 'datetime': '2018-12-12 14:14:05.800160', 'mgs': 0, 'flw2': 5.97, 'flw1': 0.44, 'flw0': 6.86, 'time': 24.74, 'compass': -178.8, 'pitch': 7.17, 'roll': -5.54}
{'lipoC2': 7.28, 'temp': 0.0, 'lipoC3S3': 11.25, 'state': 'normal', 'rot1': 215, 'rot0': 201, 'rot3': 0, 'rot2': 0, 'depth': -0.293, 'yaw': 174.18, 'datetime': '2018-12-12 14:14:06.013128', 'mgs': 0, 'flw2': 0.0, 'flw1': 0.5, 'flw0': 6.91, 'time': 24.95, 'compass': 173.06, 'pitch': 7.11, 'roll': -6.39}
{'lipoC2': 7.34, 'temp': 0.0, 'lipoC3S3': 11.35, 'state': 'normal', 'rot1': 219, 'rot0': 201, 'rot3': 0, 'rot2': 0, 'depth': 0.089, 'yaw': 165.12, 'datetime': '2018-12-12 14:14:06.223510', 'mgs': 0, 'flw2': 0.1, 'flw1': 0.0, 'flw0': 6.93, 'time': 25.16, 'compass': 163.99, 'pitch': 5.89, 'roll': -6.99}
{'lipoC2': 7.35, 'temp': 0.0, 'lipoC3S3': 11.25, 'state': 'normal', 'rot1': 223, 'rot0': 202, 'rot3': 0, 'rot2': 0, 'depth': -0.14, 'yaw': 153.85, 'datetime': '2018-12-12 14:14:06.431513', 'mgs': 0, 'flw2': 6.16, 'flw1': 0.0, 'flw0': 6.81, 'time': 25.37, 'compass': 152.73, 'pitch': 5.14, 'roll': -7.44}
{'lipoC2': 7.56, 'temp': 0.0, 'lipoC3S3': 11.26, 'state': 'normal', 'rot1': 226, 'rot0': 204, 'rot3': 0, 'rot2': 0, 'depth': 2.377, 'yaw': 143.16, 'datetime': '2018-12-12 14:14:06.638552', 'mgs': 0, 'flw2': 0.0, 'flw1': 0.0, 'flw0': 6.56, 'time': 25.58, 'compass': 142.04, 'pitch': 6.89, 'roll': -7.61}
{'lipoC2': 7.35, 'temp': 0.0, 'lipoC3S3': 11.21, 'state': 'normal', 'rot1': 228, 'rot0': 204, 'rot3': 0, 'rot2': 0, 'depth': 0.699, 'yaw': 131.82, 'datetime': '2018-12-12 14:14:06.846962', 'mgs': 0, 'flw2': 0.2, 'flw1': 0.0, 'flw0': 0.07, 'time': 25.79, 'compass': 130.7, 'pitch': 7.45, 'roll': -6.94}
{'lipoC2': 7.36, 'temp': 0.0, 'lipoC3S3': 11.64, 'state': 'normal', 'rot1': 228, 'rot0': 204, 'rot3': 0, 'rot2': 0, 'depth': 0.317, 'yaw': 123.63, 'datetime': '2018-12-12 14:14:07.055526', 'mgs': 0, 'flw2': 0.18, 'flw1': 0.0, 'flw0': 0.0, 'time': 26.0, 'compass': 122.51, 'pitch': 3.72, 'roll': -4.89}
{'lipoC2': 7.55, 'temp': 0.0, 'lipoC3S3': 11.32, 'state': 'normal', 'rot1': 228, 'rot0': 204, 'rot3': 0, 'rot2': 0, 'depth': -0.751, 'yaw': 117.22, 'datetime': '2018-12-12 14:14:07.267327', 'mgs': 0, 'flw2': 0.0, 'flw1': 0.06, 'flw0': 0.04, 'time': 26.21, 'compass': 116.1, 'pitch': 0.11, 'roll': -3.0}
{'lipoC2': 7.43, 'temp': 0.0, 'lipoC3S3': 11.18, 'state': 'normal', 'rot1': 228, 'rot0': 204, 'rot3': 1, 'rot2': 0, 'depth': 0.241, 'yaw': 111.17, 'datetime': '2018-12-12 14:14:07.478577', 'mgs': 0, 'flw2': 0.0, 'flw1': 1.52, 'flw0': 0.27, 'time': 26.42, 'compass': 110.05, 'pitch': -0.61, 'roll': -1.93}
{'lipoC2': 7.51, 'temp': 0.0, 'lipoC3S3': 11.19, 'state': 'normal', 'rot1': 228, 'rot0': 204, 'rot3': 1, 'rot2': 1, 'depth': -0.751, 'yaw': 105.65, 'datetime': '2018-12-12 14:14:07.687853', 'mgs': 0, 'flw2': 0.0, 'flw1': 3.16, 'flw0': 0.17, 'time': 26.62, 'compass': 104.53, 'pitch': 0.21, 'roll': -1.51}
{'lipoC2': 7.56, 'temp': 0.0, 'lipoC3S3': 11.21, 'state': 'normal', 'rot1': 228, 'rot0': 204, 'rot3': 2, 'rot2': 1, 'depth': -0.674, 'yaw': 100.78, 'datetime': '2018-12-12 14:14:07.891813', 'mgs': 0, 'flw2': 0.0, 'flw1': 4.6, 'flw0': 0.0, 'time': 26.83, 'compass': 99.66, 'pitch': 0.14, 'roll': -1.24}
{'lipoC2': 7.33, 'temp': 0.0, 'lipoC3S3': 11.54, 'state': 'normal', 'rot1': 228, 'rot0': 204, 'rot3': 4, 'rot2': 3, 'depth': 2.454, 'yaw': 96.49, 'datetime': '2018-12-12 14:14:08.101245', 'mgs': 0, 'flw2': 0.0, 'flw1': 5.8, 'flw0': 0.0, 'time': 27.04, 'compass': 95.37, 'pitch': -0.98, 'roll': -1.12}
{'lipoC2': 7.53, 'temp': 0.0, 'lipoC3S3': 11.09, 'state': 'normal', 'rot1': 228, 'rot0': 204, 'rot3': 5, 'rot2': 4, 'depth': -0.903, 'yaw': 92.77, 'datetime': '2018-12-12 14:14:08.309670', 'mgs': 0, 'flw2': 0.0, 'flw1': 7.24, 'flw0': 0.0, 'time': 27.25, 'compass': 91.64, 'pitch': -1.58, 'roll': -0.67}
{'lipoC2': 7.34, 'temp': 0.0, 'lipoC3S3': 11.54, 'state': 'normal', 'rot1': 228, 'rot0': 204, 'rot3': 7, 'rot2': 5, 'depth': 1.996, 'yaw': 89.31, 'datetime': '2018-12-12 14:14:08.519444', 'mgs': 0, 'flw2': 0.0, 'flw1': 8.41, 'flw0': 0.0, 'time': 27.46, 'compass': 88.19, 'pitch': -1.3, 'roll': 0.03}
{'lipoC2': 7.32, 'temp': 0.0, 'lipoC3S3': 11.31, 'state': 'normal', 'rot1': 228, 'rot0': 204, 'rot3': 9, 'rot2': 7, 'depth': 0.546, 'yaw': 86.42, 'datetime': '2018-12-12 14:14:08.735181', 'mgs': 0, 'flw2': 0.0, 'flw1': 10.75, 'flw0': 0.0, 'time': 27.67, 'compass': 85.3, 'pitch': -0.45, 'roll': 0.33}
{'lipoC2': 7.35, 'temp': 0.0, 'lipoC3S3': 11.54, 'state': 'normal', 'rot1': 228, 'rot0': 204, 'rot3': 11, 'rot2': 8, 'depth': 0.394, 'yaw': 83.93, 'datetime': '2018-12-12 14:14:08.941052', 'mgs': 0, 'flw2': 0.0, 'flw1': 8.64, 'flw0': 0.0, 'time': 27.88, 'compass': 82.81, 'pitch': 0.61, 'roll': 0.14}
{'lipoC2': 7.34, 'temp': 0.0, 'lipoC3S3': 11.39, 'state': 'normal', 'rot1': 228, 'rot0': 204, 'rot3': 13, 'rot2': 9, 'depth': 2.301, 'yaw': 81.7, 'datetime': '2018-12-12 14:14:09.151177', 'mgs': 0, 'flw2': 0.0, 'flw1': 9.46, 'flw0': 0.2, 'time': 28.09, 'compass': 80.58, 'pitch': 1.29, 'roll': -1.08}
{'lipoC2': 7.34, 'temp': 0.0, 'lipoC3S3': 11.25, 'state': 'normal', 'rot1': 228, 'rot0': 204, 'rot3': 15, 'rot2': 11, 'depth': -0.064, 'yaw': 79.54, 'datetime': '2018-12-12 14:14:09.360352', 'mgs': 0, 'flw2': 0.0, 'flw1': 9.55, 'flw0': 0.0, 'time': 28.3, 'compass': 78.42, 'pitch': 1.13, 'roll': -1.83}
{'lipoC2': 7.32, 'temp': 0.0, 'lipoC3S3': 11.5, 'state': 'normal', 'rot1': 228, 'rot0': 204, 'rot3': 17, 'rot2': 12, 'depth': 2.454, 'yaw': 77.48, 'datetime': '2018-12-12 14:14:09.570750', 'mgs': 0, 'flw2': 0.0, 'flw1': 9.14, 'flw0': 0.0, 'time': 28.51, 'compass': 76.36, 'pitch': 0.78, 'roll': -2.09}
{'lipoC2': 7.35, 'temp': 0.0, 'lipoC3S3': 11.55, 'state': 'normal', 'rot1': 228, 'rot0': 204, 'rot3': 19, 'rot2': 14, 'depth': 2.377, 'yaw': 75.38, 'datetime': '2018-12-12 14:14:09.780178', 'mgs': 0, 'flw2': 0.0, 'flw1': 8.85, 'flw0': 0.0, 'time': 28.72, 'compass': 74.25, 'pitch': 0.79, 'roll': -2.87}
{'lipoC2': 7.55, 'temp': 0.0, 'lipoC3S3': 11.22, 'state': 'normal', 'rot1': 228, 'rot0': 204, 'rot3': 21, 'rot2': 16, 'depth': 2.454, 'yaw': 73.16, 'datetime': '2018-12-12 14:14:09.991225', 'mgs': 0, 'flw2': 0.04, 'flw1': 9.08, 'flw0': 0.0, 'time': 28.93, 'compass': 72.04, 'pitch': 0.84, 'roll': -3.4}
{'lipoC2': 7.47, 'temp': 0.0, 'lipoC3S3': 11.09, 'state': 'normal', 'rot1': 228, 'rot0': 204, 'rot3': 23, 'rot2': 18, 'depth': -0.446, 'yaw': 70.99, 'datetime': '2018-12-12 14:14:10.201561', 'mgs': 0, 'flw2': 0.0, 'flw1': 8.23, 'flw0': 0.0, 'time': 29.14, 'compass': 69.87, 'pitch': 0.94, 'roll': -3.1}
{'lipoC2': 7.41, 'temp': 0.0, 'lipoC3S3': 11.14, 'state': 'normal', 'rot1': 228, 'rot0': 204, 'rot3': 25, 'rot2': 19, 'depth': 0.47, 'yaw': 68.87, 'datetime': '2018-12-12 14:14:10.410725', 'mgs': 0, 'flw2': 0.26, 'flw1': 9.55, 'flw0': 0.0, 'time': 29.35, 'compass': 67.75, 'pitch': 1.17, 'roll': -3.13}
{'lipoC2': 7.53, 'temp': 0.0, 'lipoC3S3': 11.13, 'state': 'normal', 'rot1': 228, 'rot0': 204, 'rot3': 27, 'rot2': 21, 'depth': 1.843, 'yaw': 66.78, 'datetime': '2018-12-12 14:14:10.620756', 'mgs': 0, 'flw2': 0.0, 'flw1': 9.2, 'flw0': 0.0, 'time': 29.56, 'compass': 65.66, 'pitch': 1.1, 'roll': -2.71}
{'lipoC2': 7.29, 'temp': 0.0, 'lipoC3S3': 11.31, 'state': 'normal', 'rot1': 228, 'rot0': 204, 'rot3': 29, 'rot2': 22, 'depth': 0.089, 'yaw': 64.65, 'datetime': '2018-12-12 14:14:10.831794', 'mgs': 0, 'flw2': 0.0, 'flw1': 9.14, 'flw0': 0.22, 'time': 29.76, 'compass': 63.53, 'pitch': 0.84, 'roll': -2.17}
{'lipoC2': 7.36, 'temp': 0.0, 'lipoC3S3': 11.22, 'state': 'normal', 'rot1': 228, 'rot0': 204, 'rot3': 31, 'rot2': 24, 'depth': 1.538, 'yaw': 62.5, 'datetime': '2018-12-12 14:14:11.043171', 'mgs': 0, 'flw2': 0.01, 'flw1': 10.28, 'flw0': 0.26, 'time': 29.98, 'compass': 61.37, 'pitch': 0.84, 'roll': -1.7}
{'lipoC2': 7.37, 'temp': 0.0, 'lipoC3S3': 11.5, 'state': 'normal', 'rot1': 228, 'rot0': 204, 'rot3': 33, 'rot2': 25, 'depth': 0.165, 'yaw': 60.45, 'datetime': '2018-12-12 14:14:11.259598', 'mgs': 0, 'flw2': 0.0, 'flw1': 9.99, 'flw0': 0.0, 'time': 30.19, 'compass': 59.33, 'pitch': 0.84, 'roll': -1.33}
{'lipoC2': 7.48, 'temp': 0.0, 'lipoC3S3': 11.25, 'state': 'normal', 'rot1': 228, 'rot0': 204, 'rot3': 36, 'rot2': 27, 'depth': 0.546, 'yaw': 58.41, 'datetime': '2018-12-12 14:14:11.469455', 'mgs': 0, 'flw2': 0.0, 'flw1': 9.55, 'flw0': 0.0, 'time': 30.4, 'compass': 57.29, 'pitch': 0.82, 'roll': -1.82}
{'lipoC2': 7.5, 'temp': 0.0, 'lipoC3S3': 11.47, 'state': 'normal', 'rot1': 228, 'rot0': 204, 'rot3': 38, 'rot2': 28, 'depth': 0.546, 'yaw': 56.34, 'datetime': '2018-12-12 14:14:11.675968', 'mgs': 0, 'flw2': 0.0, 'flw1': 9.2, 'flw0': 0.0, 'time': 30.61, 'compass': 55.22, 'pitch': 0.58, 'roll': -2.49}
{'lipoC2': 7.35, 'temp': 0.0, 'lipoC3S3': 11.15, 'state': 'normal', 'rot1': 228, 'rot0': 204, 'rot3': 40, 'rot2': 30, 'depth': 2.53, 'yaw': 54.34, 'datetime': '2018-12-12 14:14:11.883373', 'mgs': 0, 'flw2': 0.0, 'flw1': 9.43, 'flw0': 0.0, 'time': 30.82, 'compass': 53.22, 'pitch': 0.17, 'roll': -2.77}
{'lipoC2': 7.34, 'temp': 0.0, 'lipoC3S3': 11.38, 'state': 'normal', 'rot1': 228, 'rot0': 204, 'rot3': 43, 'rot2': 31, 'depth': 0.775, 'yaw': 52.2, 'datetime': '2018-12-12 14:14:12.095341', 'mgs': 0, 'flw2': 0.0, 'flw1': 8.94, 'flw0': 0.24, 'time': 31.03, 'compass': 51.08, 'pitch': 0.43, 'roll': -3.32}
{'lipoC2': 7.38, 'temp': 0.0, 'lipoC3S3': 11.17, 'state': 'normal', 'rot1': 228, 'rot0': 204, 'rot3': 45, 'rot2': 33, 'depth': 1.157, 'yaw': 50.1, 'datetime': '2018-12-12 14:14:12.308353', 'mgs': 0, 'flw2': 0.0, 'flw1': 8.99, 'flw0': 0.28, 'time': 31.24, 'compass': 48.98, 'pitch': 1.04, 'roll': -4.02}
{'lipoC2': 7.54, 'temp': 0.0, 'lipoC3S3': 11.23, 'state': 'normal', 'rot1': 228, 'rot0': 204, 'rot3': 47, 'rot2': 34, 'depth': 2.377, 'yaw': 48.05, 'datetime': '2018-12-12 14:14:12.516799', 'mgs': 0, 'flw2': 0.07, 'flw1': 8.91, 'flw0': 0.0, 'time': 31.45, 'compass': 46.93, 'pitch': 1.02, 'roll': -3.58}
{'lipoC2': 7.34, 'temp': 0.0, 'lipoC3S3': 11.36, 'state': 'normal', 'rot1': 228, 'rot0': 204, 'rot3': 49, 'rot2': 36, 'depth': -0.064, 'yaw': 46.03, 'datetime': '2018-12-12 14:14:12.725292', 'mgs': 0, 'flw2': 0.0, 'flw1': 8.03, 'flw0': 0.22, 'time': 31.66, 'compass': 44.91, 'pitch': 0.78, 'roll': -3.16}
{'lipoC2': 7.33, 'temp': 0.0, 'lipoC3S3': 11.31, 'state': 'normal', 'rot1': 228, 'rot0': 204, 'rot3': 51, 'rot2': 37, 'depth': -0.369, 'yaw': 43.87, 'datetime': '2018-12-12 14:14:12.938567', 'mgs': 0, 'flw2': 0.0, 'flw1': 9.49, 'flw0': 0.0, 'time': 31.86, 'compass': 42.75, 'pitch': 0.51, 'roll': -3.15}
{'lipoC2': 7.47, 'temp': 0.0, 'lipoC3S3': 11.07, 'state': 'normal', 'rot1': 228, 'rot0': 204, 'rot3': 53, 'rot2': 38, 'depth': -0.293, 'yaw': 41.57, 'datetime': '2018-12-12 14:14:13.147460', 'mgs': 0, 'flw2': 0.04, 'flw1': 9.46, 'flw0': 0.18, 'time': 32.08, 'compass': 40.45, 'pitch': 0.59, 'roll': -2.78}
{'lipoC2': 7.34, 'temp': 0.0, 'lipoC3S3': 11.51, 'state': 'normal', 'rot1': 228, 'rot0': 204, 'rot3': 55, 'rot2': 40, 'depth': 2.377, 'yaw': 39.53, 'datetime': '2018-12-12 14:14:13.356095', 'mgs': 0, 'flw2': 0.0, 'flw1': 8.12, 'flw0': 0.0, 'time': 32.28, 'compass': 38.41, 'pitch': 0.59, 'roll': -2.13}
{'lipoC2': 7.34, 'temp': 0.0, 'lipoC3S3': 11.52, 'state': 'normal', 'rot1': 228, 'rot0': 204, 'rot3': 57, 'rot2': 41, 'depth': 0.165, 'yaw': 37.54, 'datetime': '2018-12-12 14:14:13.568397', 'mgs': 0, 'flw2': 0.0, 'flw1': 8.94, 'flw0': 0.0, 'time': 32.5, 'compass': 36.42, 'pitch': 0.6, 'roll': -2.33}
{'lipoC2': 7.4, 'temp': 0.0, 'lipoC3S3': 11.15, 'state': 'normal', 'rot1': 228, 'rot0': 204, 'rot3': 59, 'rot2': 43, 'depth': 0.47, 'yaw': 35.56, 'datetime': '2018-12-12 14:14:13.776156', 'mgs': 0, 'flw2': 0.17, 'flw1': 8.85, 'flw0': 0.24, 'time': 32.71, 'compass': 34.43, 'pitch': 0.29, 'roll': -2.62}
{'lipoC2': 7.55, 'temp': 0.0, 'lipoC3S3': 11.21, 'state': 'normal', 'rot1': 228, 'rot0': 204, 'rot3': 61, 'rot2': 44, 'depth': -0.293, 'yaw': 33.73, 'datetime': '2018-12-12 14:14:13.985006', 'mgs': 0, 'flw2': 0.13, 'flw1': 7.71, 'flw0': 0.01, 'time': 32.92, 'compass': 32.6, 'pitch': -0.01, 'roll': -2.4}
{'lipoC2': 7.33, 'temp': 0.0, 'lipoC3S3': 11.51, 'state': 'normal', 'rot1': 228, 'rot0': 204, 'rot3': 63, 'rot2': 46, 'depth': 2.225, 'yaw': 31.84, 'datetime': '2018-12-12 14:14:14.198770', 'mgs': 0, 'flw2': 0.0, 'flw1': 4.48, 'flw0': 0.11, 'time': 33.13, 'compass': 30.71, 'pitch': 0.32, 'roll': -2.63}
{'lipoC2': 7.33, 'temp': 0.0, 'lipoC3S3': 11.5, 'state': 'normal', 'rot1': 228, 'rot0': 204, 'rot3': 65, 'rot2': 47, 'depth': 2.148, 'yaw': 30.24, 'datetime': '2018-12-12 14:14:14.406648', 'mgs': 0, 'flw2': 0.0, 'flw1': 5.48, 'flw0': 0.0, 'time': 33.34, 'compass': 29.12, 'pitch': 0.81, 'roll': -2.41}
{'lipoC2': 7.56, 'temp': 0.0, 'lipoC3S3': 11.31, 'state': 'normal', 'rot1': 228, 'rot0': 204, 'rot3': 66, 'rot2': 48, 'depth': -0.598, 'yaw': 28.57, 'datetime': '2018-12-12 14:14:14.620721', 'mgs': 0, 'flw2': 0.0, 'flw1': 4.25, 'flw0': 0.0, 'time': 33.55, 'compass': 27.45, 'pitch': 1.02, 'roll': -1.76}
{'lipoC2': 7.34, 'temp': 0.0, 'lipoC3S3': 11.6, 'state': 'normal', 'rot1': 228, 'rot0': 204, 'rot3': 67, 'rot2': 49, 'depth': -0.064, 'yaw': 27.14, 'datetime': '2018-12-12 14:14:14.828757', 'mgs': 0, 'flw2': 0.0, 'flw1': 0.97, 'flw0': 0.0, 'time': 33.76, 'compass': 26.02, 'pitch': 0.67, 'roll': -0.87}
{'lipoC2': 7.36, 'temp': 0.0, 'lipoC3S3': 11.6, 'state': 'normal', 'rot1': 228, 'rot0': 204, 'rot3': 68, 'rot2': 50, 'depth': 0.089, 'yaw': 25.78, 'datetime': '2018-12-12 14:14:15.038538', 'mgs': 0, 'flw2': 0.0, 'flw1': 0.44, 'flw0': 0.0, 'time': 33.97, 'compass': 24.65, 'pitch': 0.06, 'roll': 0.0}
{'lipoC2': 7.5, 'temp': 0.0, 'lipoC3S3': 11.21, 'state': 'normal', 'rot1': 228, 'rot0': 204, 'rot3': 68, 'rot2': 50, 'depth': 1.233, 'yaw': 24.52, 'datetime': '2018-12-12 14:14:15.245952', 'mgs': 0, 'flw2': 0.0, 'flw1': 0.82, 'flw0': 0.0, 'time': 34.17, 'compass': 23.4, 'pitch': -0.47, 'roll': 0.27}
{'lipoC2': 7.37, 'temp': 0.0, 'lipoC3S3': 11.63, 'state': 'normal', 'rot1': 228, 'rot0': 204, 'rot3': 68, 'rot2': 50, 'depth': 0.012, 'yaw': 23.45, 'datetime': '2018-12-12 14:14:15.458210', 'mgs': 0, 'flw2': 0.06, 'flw1': 0.0, 'flw0': 0.0, 'time': 34.38, 'compass': 22.33, 'pitch': -0.85, 'roll': 0.06}
{'lipoC2': 7.5, 'temp': 0.0, 'lipoC3S3': 11.19, 'state': 'normal', 'rot1': 228, 'rot0': 204, 'rot3': 68, 'rot2': 50, 'depth': 0.928, 'yaw': 22.46, 'datetime': '2018-12-12 14:14:15.670966', 'mgs': 0, 'flw2': 0.11, 'flw1': 1.0, 'flw0': 0.1, 'time': 34.6, 'compass': 21.34, 'pitch': -0.89, 'roll': -0.36}
{'lipoC2': 7.46, 'temp': 0.0, 'lipoC3S3': 11.35, 'state': 'normal', 'rot1': 228, 'rot0': 204, 'rot3': 69, 'rot2': 51, 'depth': 1.233, 'yaw': 21.57, 'datetime': '2018-12-12 14:14:15.881651', 'mgs': 0, 'flw2': 0.0, 'flw1': 2.11, 'flw0': 0.0, 'time': 34.81, 'compass': 20.45, 'pitch': -0.88, 'roll': -0.64}
{'lipoC2': 7.56, 'temp': 0.0, 'lipoC3S3': 11.3, 'state': 'normal', 'rot1': 228, 'rot0': 204, 'rot3': 69, 'rot2': 51, 'depth': -0.522, 'yaw': 20.79, 'datetime': '2018-12-12 14:14:16.092115', 'mgs': 0, 'flw2': 0.0, 'flw1': 0.88, 'flw0': 0.0, 'time': 35.01, 'compass': 19.67, 'pitch': -1.16, 'roll': -0.49}
{'lipoC2': 7.32, 'temp': 0.0, 'lipoC3S3': 11.34, 'state': 'normal', 'rot1': 228, 'rot0': 204, 'rot3': 70, 'rot2': 52, 'depth': -0.598, 'yaw': 20.1, 'datetime': '2018-12-12 14:14:16.299004', 'mgs': 0, 'flw2': 0.0, 'flw1': 0.94, 'flw0': 0.0, 'time': 35.22, 'compass': 18.98, 'pitch': -1.51, 'roll': -0.18}
{'lipoC2': 7.55, 'temp': 0.0, 'lipoC3S3': 11.36, 'state': 'normal', 'rot1': 228, 'rot0': 204, 'rot3': 70, 'rot2': 52, 'depth': -0.293, 'yaw': 19.52, 'datetime': '2018-12-12 14:14:16.508370', 'mgs': 0, 'flw2': 0.0, 'flw1': 0.0, 'flw0': 0.0, 'time': 35.44, 'compass': 18.4, 'pitch': -1.49, 'roll': 0.16}
{'lipoC2': 7.49, 'temp': 0.0, 'lipoC3S3': 11.22, 'state': 'normal', 'rot1': 228, 'rot0': 204, 'rot3': 70, 'rot2': 52, 'depth': 0.623, 'yaw': 18.96, 'datetime': '2018-12-12 14:14:16.719772', 'mgs': 0, 'flw2': 0.11, 'flw1': 0.26, 'flw0': 0.12, 'time': 35.65, 'compass': 17.84, 'pitch': -1.14, 'roll': 0.26}
{'lipoC2': 7.36, 'temp': 0.0, 'lipoC3S3': 11.56, 'state': 'normal', 'rot1': 228, 'rot0': 204, 'rot3': 71, 'rot2': 55, 'depth': -0.217, 'yaw': 18.47, 'datetime': '2018-12-12 14:14:16.931102', 'mgs': 0, 'flw2': 0.0, 'flw1': 0.35, 'flw0': 0.0, 'time': 35.86, 'compass': 17.35, 'pitch': -0.9, 'roll': -0.17}
{'lipoC2': 7.36, 'temp': 0.0, 'lipoC3S3': 11.65, 'state': 'normal', 'rot1': 228, 'rot0': 204, 'rot3': 71, 'rot2': 55, 'depth': 0.012, 'yaw': 18.07, 'datetime': '2018-12-12 14:14:17.139958', 'mgs': 0, 'flw2': 0.0, 'flw1': 0.0, 'flw0': 0.0, 'time': 36.07, 'compass': 16.94, 'pitch': -0.9, 'roll': -0.65}
{'lipoC2': 7.38, 'temp': 0.0, 'lipoC3S3': 11.35, 'state': 'normal', 'rot1': 228, 'rot0': 204, 'rot3': 71, 'rot2': 55, 'depth': 0.241, 'yaw': 17.73, 'datetime': '2018-12-12 14:14:17.350296', 'mgs': 0, 'flw2': 0.0, 'flw1': 0.44, 'flw0': 0.0, 'time': 36.28, 'compass': 16.61, 'pitch': -0.83, 'roll': -0.71}
{'lipoC2': 7.3, 'temp': 0.0, 'lipoC3S3': 11.34, 'state': 'normal', 'rot1': 228, 'rot0': 204, 'rot3': 71, 'rot2': 55, 'depth': -0.446, 'yaw': 17.55, 'datetime': '2018-12-12 14:14:17.559322', 'mgs': 0, 'flw2': 0.0, 'flw1': 0.5, 'flw0': 0.0, 'time': 36.49, 'compass': 16.43, 'pitch': -0.25, 'roll': -0.4}
{'lipoC2': 7.36, 'temp': 0.0, 'lipoC3S3': 11.51, 'state': 'normal', 'rot1': 228, 'rot0': 204, 'rot3': 71, 'rot2': 55, 'depth': -0.369, 'yaw': 17.36, 'datetime': '2018-12-12 14:14:17.770108', 'mgs': 0, 'flw2': 0.0, 'flw1': 0.0, 'flw0': 0.06, 'time': 36.69, 'compass': 16.24, 'pitch': 0.14, 'roll': 0.01}
{'lipoC2': 7.56, 'temp': 0.0, 'lipoC3S3': 11.3, 'state': 'normal', 'rot1': 228, 'rot0': 204, 'rot3': 71, 'rot2': 55, 'depth': -0.827, 'yaw': 17.22, 'datetime': '2018-12-12 14:14:17.981444', 'mgs': 0, 'flw2': 0.0, 'flw1': 0.0, 'flw0': 0.0, 'time': 36.9, 'compass': 16.1, 'pitch': -0.5, 'roll': 0.47}
{'lipoC2': 7.28, 'temp': 0.0, 'lipoC3S3': 11.35, 'state': 'normal', 'rot1': 228, 'rot0': 204, 'rot3': 71, 'rot2': 55, 'depth': -0.674, 'yaw': 17.2, 'datetime': '2018-12-12 14:14:18.192250', 'mgs': 0, 'flw2': 0.0, 'flw1': 0.53, 'flw0': 0.0, 'time': 37.12, 'compass': 16.08, 'pitch': -1.73, 'roll': 0.74}
{'lipoC2': 7.37, 'temp': 0.0, 'lipoC3S3': 11.35, 'state': 'normal', 'rot1': 228, 'rot0': 204, 'rot3': 71, 'rot2': 55, 'depth': -0.598, 'yaw': 17.18, 'datetime': '2018-12-12 14:14:18.402025', 'mgs': 0, 'flw2': 0.0, 'flw1': 0.29, 'flw0': 0.0, 'time': 37.33, 'compass': 16.06, 'pitch': -2.2, 'roll': 0.51}
{'lipoC2': 7.36, 'temp': 0.0, 'lipoC3S3': 11.67, 'state': 'normal', 'rot1': 228, 'rot0': 204, 'rot3': 71, 'rot2': 55, 'depth': 1.614, 'yaw': 17.2, 'datetime': '2018-12-12 14:14:18.614182', 'mgs': 0, 'flw2': 0.15, 'flw1': 0.0, 'flw0': 0.0, 'time': 37.53, 'compass': 16.08, 'pitch': -1.57, 'roll': -0.22}
{'lipoC2': 7.44, 'temp': 0.0, 'lipoC3S3': 11.22, 'state': 'normal', 'rot1': 228, 'rot0': 204, 'rot3': 71, 'rot2': 55, 'depth': -0.674, 'yaw': 17.22, 'datetime': '2018-12-12 14:14:18.827698', 'mgs': 0, 'flw2': 0.26, 'flw1': 0.0, 'flw0': 0.18, 'time': 37.74, 'compass': 16.1, 'pitch': -0.71, 'roll': -0.91}
