{'lipoC2': 0.12, 'temp': 0.0, 'lipoC3S3': 11.69, 'state': 'normal', 'rot1': 0, 'rot0': 1, 'rot3': 0, 'rot2': 0, 'depth': 0.317, 'yaw': 0.0, 'datetime': '2018-12-18 20:43:19.901630', 'mgs': 0, 'flw2': 0.0, 'flw1': 0.0, 'flw0': 0.24, 'time': 1.26, 'compass': -41.31, 'pitch': 0.05, 'roll': -0.1}
{'lipoC2': 0.13, 'temp': 0.0, 'lipoC3S3': 11.75, 'state': 'normal', 'rot1': 0, 'rot0': 1, 'rot3': 0, 'rot2': 0, 'depth': 0.546, 'yaw': -0.61, 'datetime': '2018-12-18 20:43:20.113475', 'mgs': 0, 'flw2': 0.09, 'flw1': 0.41, 'flw0': 0.0, 'time': 1.47, 'compass': -41.92, 'pitch': -0.25, 'roll': -0.25}
{'lipoC2': 0.09, 'temp': 0.0, 'lipoC3S3': 11.69, 'state': 'normal', 'rot1': 0, 'rot0': 1, 'rot3': 0, 'rot2': 0, 'depth': 0.165, 'yaw': -1.13, 'datetime': '2018-12-18 20:43:20.321775', 'mgs': 0, 'flw2': 0.18, 'flw1': 0.06, 'flw0': 0.0, 'time': 1.67, 'compass': -42.44, 'pitch': -0.65, 'roll': -0.25}
{'lipoC2': 0.11, 'temp': 0.0, 'lipoC3S3': 11.68, 'state': 'normal', 'rot1': 0, 'rot0': 1, 'rot3': 0, 'rot2': 0, 'depth': 0.241, 'yaw': -1.16, 'datetime': '2018-12-18 20:43:20.528702', 'mgs': 0, 'flw2': 0.2, 'flw1': 0.03, 'flw0': 0.0, 'time': 1.88, 'compass': -42.47, 'pitch': -0.65, 'roll': -0.19}
{'lipoC2': 0.0, 'temp': 0.0, 'lipoC3S3': 11.9, 'state': 'normal', 'rot1': 0, 'rot0': 1, 'rot3': 0, 'rot2': 0, 'depth': -0.14, 'yaw': -1.17, 'datetime': '2018-12-18 20:43:20.736575', 'mgs': 0, 'flw2': 0.0, 'flw1': 0.41, 'flw0': 0.0, 'time': 2.09, 'compass': -42.48, 'pitch': -0.28, 'roll': 0.04}
{'lipoC2': 0.03, 'temp': 0.0, 'lipoC3S3': 11.72, 'state': 'normal', 'rot1': 0, 'rot0': 1, 'rot3': 0, 'rot2': 0, 'depth': 1.309, 'yaw': -1.18, 'datetime': '2018-12-18 20:43:20.945040', 'mgs': 0, 'flw2': 0.15, 'flw1': 0.0, 'flw0': 0.0, 'time': 2.3, 'compass': -42.49, 'pitch': -0.08, 'roll': 0.23}
{'lipoC2': 0.01, 'temp': 0.0, 'lipoC3S3': 11.8, 'state': 'normal', 'rot1': 0, 'rot0': 1, 'rot3': 0, 'rot2': 0, 'depth': 1.385, 'yaw': -1.2, 'datetime': '2018-12-18 20:43:21.152863', 'mgs': 0, 'flw2': 0.27, 'flw1': 0.29, 'flw0': 0.0, 'time': 2.5, 'compass': -42.51, 'pitch': -0.32, 'roll': 0.17}
{'lipoC2': 0.12, 'temp': 0.0, 'lipoC3S3': 11.71, 'state': 'normal', 'rot1': 0, 'rot0': 1, 'rot3': 0, 'rot2': 0, 'depth': 0.241, 'yaw': -1.21, 'datetime': '2018-12-18 20:43:21.360923', 'mgs': 0, 'flw2': 0.17, 'flw1': 0.15, 'flw0': 0.0, 'time': 2.71, 'compass': -42.52, 'pitch': -0.79, 'roll': -0.1}
{'lipoC2': 0.14, 'temp': 0.0, 'lipoC3S3': 11.69, 'state': 'normal', 'rot1': 0, 'rot0': 1, 'rot3': 0, 'rot2': 0, 'depth': 0.623, 'yaw': -1.29, 'datetime': '2018-12-18 20:43:21.570029', 'mgs': 0, 'flw2': 0.0, 'flw1': 0.03, 'flw0': 0.23, 'time': 2.92, 'compass': -42.6, 'pitch': -1.06, 'roll': -0.25}
{'lipoC2': 0.0, 'temp': 0.0, 'lipoC3S3': 12.1, 'state': 'normal', 'rot1': 0, 'rot0': 1, 'rot3': 0, 'rot2': 0, 'depth': 1.691, 'yaw': -1.31, 'datetime': '2018-12-18 20:43:21.776967', 'mgs': 0, 'flw2': 0.12, 'flw1': 0.23, 'flw0': 0.0, 'time': 3.13, 'compass': -42.62, 'pitch': -0.94, 'roll': -0.25}
{'lipoC2': 0.1, 'temp': 0.0, 'lipoC3S3': 11.9, 'state': 'normal', 'rot1': 0, 'rot0': 1, 'rot3': 0, 'rot2': 0, 'depth': -1.895, 'yaw': -1.33, 'datetime': '2018-12-18 20:43:21.985222', 'mgs': 0, 'flw2': 0.05, 'flw1': 0.0, 'flw0': 0.12, 'time': 3.33, 'compass': -42.64, 'pitch': -0.52, 'roll': -0.25}
{'lipoC2': 0.06, 'temp': 0.0, 'lipoC3S3': 11.69, 'state': 'normal', 'rot1': 0, 'rot0': 1, 'rot3': 0, 'rot2': 0, 'depth': 0.165, 'yaw': -1.33, 'datetime': '2018-12-18 20:43:22.193752', 'mgs': 0, 'flw2': 0.2, 'flw1': 0.23, 'flw0': 0.31, 'time': 3.54, 'compass': -42.64, 'pitch': -0.31, 'roll': -0.26}
{'lipoC2': 0.08, 'temp': 0.0, 'lipoC3S3': 11.69, 'state': 'normal', 'rot1': 0, 'rot0': 1, 'rot3': 0, 'rot2': 0, 'depth': 0.241, 'yaw': -1.33, 'datetime': '2018-12-18 20:43:22.402167', 'mgs': 0, 'flw2': 0.15, 'flw1': 0.0, 'flw0': 0.0, 'time': 3.75, 'compass': -42.64, 'pitch': -0.51, 'roll': -0.24}
{'lipoC2': 0.16, 'temp': 0.0, 'lipoC3S3': 11.84, 'state': 'normal', 'rot1': 0, 'rot0': 1, 'rot3': 0, 'rot2': 0, 'depth': 1.233, 'yaw': -3.31, 'datetime': '2018-12-18 20:43:22.609782', 'mgs': 0, 'flw2': 0.0, 'flw1': 0.44, 'flw0': 0.0, 'time': 3.96, 'compass': -44.61, 'pitch': -0.92, 'roll': -0.21}
{'lipoC2': 0.0, 'temp': 0.0, 'lipoC3S3': 11.8, 'state': 'normal', 'rot1': 0, 'rot0': 1, 'rot3': 0, 'rot2': 0, 'depth': 1.233, 'yaw': -3.78, 'datetime': '2018-12-18 20:43:22.819266', 'mgs': 0, 'flw2': 0.02, 'flw1': 0.47, 'flw0': 0.0, 'time': 4.17, 'compass': -45.09, 'pitch': -1.03, 'roll': -0.21}
{'lipoC2': 0.12, 'temp': 0.0, 'lipoC3S3': 11.89, 'state': 'normal', 'rot1': 0, 'rot0': 1, 'rot3': 0, 'rot2': 0, 'depth': -1.666, 'yaw': -4.21, 'datetime': '2018-12-18 20:43:23.028249', 'mgs': 0, 'flw2': 0.13, 'flw1': 0.0, 'flw0': 0.05, 'time': 4.38, 'compass': -45.52, 'pitch': -0.78, 'roll': -0.18}
{'lipoC2': 0.0, 'temp': 0.0, 'lipoC3S3': 11.72, 'state': 'normal', 'rot1': 0, 'rot0': 1, 'rot3': 0, 'rot2': 0, 'depth': -1.056, 'yaw': -4.81, 'datetime': '2018-12-18 20:43:23.235490', 'mgs': 0, 'flw2': 0.0, 'flw1': 0.0, 'flw0': 0.2, 'time': 4.58, 'compass': -46.12, 'pitch': -0.51, 'roll': -0.19}
{'lipoC2': 0.14, 'temp': 0.0, 'lipoC3S3': 11.73, 'state': 'normal', 'rot1': 0, 'rot0': 1, 'rot3': 0, 'rot2': 0, 'depth': 0.546, 'yaw': -5.17, 'datetime': '2018-12-18 20:43:23.442872', 'mgs': 0, 'flw2': 0.06, 'flw1': 0.38, 'flw0': 0.0, 'time': 4.79, 'compass': -46.48, 'pitch': -0.47, 'roll': -0.17}
{'lipoC2': 0.0, 'temp': 0.0, 'lipoC3S3': 12.12, 'state': 'normal', 'rot1': 0, 'rot0': 1, 'rot3': 0, 'rot2': 0, 'depth': 1.767, 'yaw': -5.64, 'datetime': '2018-12-18 20:43:23.651032', 'mgs': 0, 'flw2': 0.05, 'flw1': 0.41, 'flw0': 0.0, 'time': 5.0, 'compass': -46.95, 'pitch': -0.71, 'roll': -0.17}
{'lipoC2': 0.0, 'temp': 0.0, 'lipoC3S3': 12.1, 'state': 'normal', 'rot1': 0, 'rot0': 1, 'rot3': 0, 'rot2': 0, 'depth': 1.691, 'yaw': -5.97, 'datetime': '2018-12-18 20:43:23.860174', 'mgs': 0, 'flw2': 0.11, 'flw1': 0.26, 'flw0': 0.0, 'time': 5.2, 'compass': -47.28, 'pitch': -0.95, 'roll': -0.13}
{'lipoC2': 0.15, 'temp': 0.0, 'lipoC3S3': 11.75, 'state': 'normal', 'rot1': 0, 'rot0': 1, 'rot3': 0, 'rot2': 0, 'depth': 0.47, 'yaw': -5.97, 'datetime': '2018-12-18 20:43:24.067744', 'mgs': 0, 'flw2': 0.0, 'flw1': 0.41, 'flw0': 0.0, 'time': 5.41, 'compass': -47.28, 'pitch': -0.9, 'roll': -0.13}
{'lipoC2': 0.0, 'temp': 0.0, 'lipoC3S3': 12.09, 'state': 'normal', 'rot1': 0, 'rot0': 1, 'rot3': 0, 'rot2': 0, 'depth': 1.538, 'yaw': -5.97, 'datetime': '2018-12-18 20:43:24.275702', 'mgs': 0, 'flw2': 0.02, 'flw1': 0.0, 'flw0': 0.16, 'time': 5.62, 'compass': -47.28, 'pitch': -0.63, 'roll': -0.14}
{'lipoC2': 0.0, 'temp': 0.0, 'lipoC3S3': 12.09, 'state': 'normal', 'rot1': 0, 'rot0': 1, 'rot3': 0, 'rot2': 0, 'depth': -0.14, 'yaw': -5.97, 'datetime': '2018-12-18 20:43:24.483732', 'mgs': 0, 'flw2': 0.0, 'flw1': 0.44, 'flw0': 0.0, 'time': 5.83, 'compass': -47.28, 'pitch': -0.52, 'roll': -0.15}
{'lipoC2': 0.0, 'temp': 0.0, 'lipoC3S3': 11.97, 'state': 'normal', 'rot1': 0, 'rot0': 1, 'rot3': 0, 'rot2': 0, 'depth': 0.775, 'yaw': -5.97, 'datetime': '2018-12-18 20:43:24.691760', 'mgs': 0, 'flw2': 0.15, 'flw1': 0.0, 'flw0': 0.0, 'time': 6.04, 'compass': -47.28, 'pitch': -0.58, 'roll': -0.14}
{'lipoC2': 0.11, 'temp': 0.0, 'lipoC3S3': 11.89, 'state': 'normal', 'rot1': 0, 'rot0': 1, 'rot3': 0, 'rot2': 0, 'depth': 1.843, 'yaw': -5.97, 'datetime': '2018-12-18 20:43:24.901502', 'mgs': 0, 'flw2': 0.0, 'flw1': 0.41, 'flw0': 0.0, 'time': 6.24, 'compass': -47.28, 'pitch': -0.58, 'roll': -0.0}
{'lipoC2': 0.09, 'temp': 0.0, 'lipoC3S3': 11.92, 'state': 'normal', 'rot1': 0, 'rot0': 1, 'rot3': 0, 'rot2': 0, 'depth': -1.971, 'yaw': -5.97, 'datetime': '2018-12-18 20:43:25.106811', 'mgs': 0, 'flw2': 0.17, 'flw1': 0.0, 'flw0': 0.0, 'time': 6.45, 'compass': -47.28, 'pitch': -0.6, 'roll': 0.01}
{'lipoC2': 0.0, 'temp': 0.0, 'lipoC3S3': 12.05, 'state': 'normal', 'rot1': 0, 'rot0': 1, 'rot3': 0, 'rot2': 0, 'depth': 1.614, 'yaw': -5.97, 'datetime': '2018-12-18 20:43:25.315270', 'mgs': 0, 'flw2': 0.0, 'flw1': 0.21, 'flw0': 0.13, 'time': 6.66, 'compass': -47.28, 'pitch': -0.84, 'roll': -0.16}
{'lipoC2': 0.0, 'temp': 0.0, 'lipoC3S3': 11.77, 'state': 'normal', 'rot1': 0, 'rot0': 1, 'rot3': 0, 'rot2': 0, 'depth': -0.674, 'yaw': -6.85, 'datetime': '2018-12-18 20:43:25.522729', 'mgs': 0, 'flw2': 0.07, 'flw1': 0.35, 'flw0': 0.0, 'time': 6.86, 'compass': -48.16, 'pitch': -1.08, 'roll': -0.27}
{'lipoC2': 0.0, 'temp': 0.0, 'lipoC3S3': 12.04, 'state': 'normal', 'rot1': 0, 'rot0': 1, 'rot3': 0, 'rot2': 0, 'depth': 1.614, 'yaw': -7.8, 'datetime': '2018-12-18 20:43:25.730694', 'mgs': 0, 'flw2': 0.0, 'flw1': 0.21, 'flw0': 0.15, 'time': 7.07, 'compass': -49.11, 'pitch': -1.03, 'roll': -0.25}
{'lipoC2': 0.16, 'temp': 0.0, 'lipoC3S3': 11.85, 'state': 'normal', 'rot1': 0, 'rot0': 1, 'rot3': 0, 'rot2': 0, 'depth': 1.843, 'yaw': -8.1, 'datetime': '2018-12-18 20:43:25.942863', 'mgs': 0, 'flw2': 0.0, 'flw1': 0.0, 'flw0': 0.24, 'time': 7.28, 'compass': -49.4, 'pitch': -0.61, 'roll': -0.24}
{'lipoC2': 0.18, 'temp': 0.0, 'lipoC3S3': 11.8, 'state': 'normal', 'rot1': 0, 'rot0': 3, 'rot3': 0, 'rot2': 0, 'depth': 0.47, 'yaw': -8.4, 'datetime': '2018-12-18 20:43:26.147597', 'mgs': 0, 'flw2': 1.89, 'flw1': 0.03, 'flw0': 1.29, 'time': 7.49, 'compass': -49.71, 'pitch': -0.21, 'roll': -0.14}
{'lipoC2': 0.1, 'temp': 0.0, 'lipoC3S3': 11.79, 'state': 'normal', 'rot1': 3, 'rot0': 9, 'rot3': 0, 'rot2': 0, 'depth': -1.971, 'yaw': -10.52, 'datetime': '2018-12-18 20:43:26.353115', 'mgs': 0, 'flw2': 1.48, 'flw1': 0.0, 'flw0': 1.01, 'time': 7.7, 'compass': -51.83, 'pitch': -0.04, 'roll': -0.51}
{'lipoC2': 0.11, 'temp': 0.0, 'lipoC3S3': 11.87, 'state': 'normal', 'rot1': 7, 'rot0': 12, 'rot3': 0, 'rot2': 0, 'depth': 1.996, 'yaw': -15.46, 'datetime': '2018-12-18 20:43:26.562049', 'mgs': 0, 'flw2': 0.94, 'flw1': 0.41, 'flw0': 1.66, 'time': 7.91, 'compass': -56.76, 'pitch': -0.1, 'roll': -1.26}
{'lipoC2': 0.3, 'temp': 0.0, 'lipoC3S3': 11.56, 'state': 'normal', 'rot1': 9, 'rot0': 15, 'rot3': 0, 'rot2': 0, 'depth': -3.04, 'yaw': -21.98, 'datetime': '2018-12-18 20:43:26.769966', 'mgs': 0, 'flw2': 1.49, 'flw1': 0.0, 'flw0': 1.05, 'time': 8.11, 'compass': -63.28, 'pitch': -0.02, 'roll': -1.83}
{'lipoC2': 0.06, 'temp': 0.0, 'lipoC3S3': 11.93, 'state': 'normal', 'rot1': 11, 'rot0': 18, 'rot3': 0, 'rot2': 0, 'depth': -1.59, 'yaw': -29.46, 'datetime': '2018-12-18 20:43:26.979387', 'mgs': 0, 'flw2': 1.44, 'flw1': 0.0, 'flw0': 1.23, 'time': 8.32, 'compass': -70.77, 'pitch': 0.25, 'roll': -1.83}
{'lipoC2': 0.0, 'temp': 0.0, 'lipoC3S3': 11.85, 'state': 'normal', 'rot1': 14, 'rot0': 20, 'rot3': 0, 'rot2': 0, 'depth': 0.623, 'yaw': -38.64, 'datetime': '2018-12-18 20:43:27.187415', 'mgs': 0, 'flw2': 1.25, 'flw1': 0.35, 'flw0': 1.03, 'time': 8.53, 'compass': -79.95, 'pitch': 0.51, 'roll': -1.56}
{'lipoC2': 0.0, 'temp': 0.0, 'lipoC3S3': 11.88, 'state': 'normal', 'rot1': 16, 'rot0': 22, 'rot3': 0, 'rot2': 0, 'depth': 0.775, 'yaw': -48.07, 'datetime': '2018-12-18 20:43:27.397173', 'mgs': 0, 'flw2': 0.78, 'flw1': 0.35, 'flw0': 0.49, 'time': 8.74, 'compass': -89.38, 'pitch': 0.7, 'roll': -1.2}
{'lipoC2': 0.0, 'temp': 0.0, 'lipoC3S3': 11.71, 'state': 'normal', 'rot1': 18, 'rot0': 23, 'rot3': 0, 'rot2': 0, 'depth': 1.233, 'yaw': -57.22, 'datetime': '2018-12-18 20:43:27.605470', 'mgs': 0, 'flw2': 0.27, 'flw1': 0.0, 'flw0': 0.81, 'time': 8.95, 'compass': -98.53, 'pitch': 0.71, 'roll': -0.66}
{'lipoC2': 0.14, 'temp': 0.0, 'lipoC3S3': 11.89, 'state': 'normal', 'rot1': 19, 'rot0': 24, 'rot3': 0, 'rot2': 0, 'depth': -1.666, 'yaw': -65.52, 'datetime': '2018-12-18 20:43:27.817439', 'mgs': 0, 'flw2': 0.55, 'flw1': 0.0, 'flw0': 0.32, 'time': 9.16, 'compass': -106.82, 'pitch': 0.68, 'roll': -0.1}
{'lipoC2': 0.11, 'temp': 0.0, 'lipoC3S3': 12.02, 'state': 'normal', 'rot1': 20, 'rot0': 25, 'rot3': 0, 'rot2': 0, 'depth': -2.048, 'yaw': -72.62, 'datetime': '2018-12-18 20:43:28.030342', 'mgs': 0, 'flw2': 0.46, 'flw1': 0.0, 'flw0': 0.43, 'time': 9.36, 'compass': -113.93, 'pitch': 0.76, 'roll': 0.22}
{'lipoC2': 0.16, 'temp': 0.0, 'lipoC3S3': 11.85, 'state': 'normal', 'rot1': 21, 'rot0': 27, 'rot3': 0, 'rot2': 0, 'depth': -0.827, 'yaw': -78.7, 'datetime': '2018-12-18 20:43:28.239292', 'mgs': 0, 'flw2': 0.37, 'flw1': 0.41, 'flw0': 0.27, 'time': 9.57, 'compass': -120.0, 'pitch': 0.91, 'roll': 0.23}
{'lipoC2': 0.0, 'temp': 0.0, 'lipoC3S3': 11.96, 'state': 'normal', 'rot1': 22, 'rot0': 28, 'rot3': 0, 'rot2': 0, 'depth': 2.148, 'yaw': -85.0, 'datetime': '2018-12-18 20:43:28.446441', 'mgs': 0, 'flw2': 0.46, 'flw1': 0.23, 'flw0': 0.13, 'time': 9.78, 'compass': -126.31, 'pitch': 0.95, 'roll': 0.03}
{'lipoC2': 0.1, 'temp': 0.0, 'lipoC3S3': 11.92, 'state': 'normal', 'rot1': 23, 'rot0': 29, 'rot3': 0, 'rot2': 0, 'depth': -2.048, 'yaw': -90.99, 'datetime': '2018-12-18 20:43:28.656573', 'mgs': 0, 'flw2': 0.06, 'flw1': 0.41, 'flw0': 0.38, 'time': 9.99, 'compass': -132.29, 'pitch': 1.01, 'roll': -0.22}
{'lipoC2': 0.11, 'temp': 0.0, 'lipoC3S3': 11.9, 'state': 'normal', 'rot1': 24, 'rot0': 30, 'rot3': 0, 'rot2': 0, 'depth': 1.843, 'yaw': -97.17, 'datetime': '2018-12-18 20:43:28.865385', 'mgs': 0, 'flw2': 0.52, 'flw1': 0.0, 'flw0': 0.35, 'time': 10.2, 'compass': -138.48, 'pitch': 1.17, 'roll': -0.42}
{'lipoC2': 0.05, 'temp': 0.0, 'lipoC3S3': 11.94, 'state': 'normal', 'rot1': 25, 'rot0': 31, 'rot3': 0, 'rot2': 0, 'depth': -1.666, 'yaw': -103.29, 'datetime': '2018-12-18 20:43:29.074246', 'mgs': 0, 'flw2': 0.26, 'flw1': 0.5, 'flw0': 0.35, 'time': 10.41, 'compass': -144.6, 'pitch': 1.2, 'roll': -0.36}
{'lipoC2': 0.0, 'temp': 0.0, 'lipoC3S3': 11.85, 'state': 'normal', 'rot1': 26, 'rot0': 32, 'rot3': 0, 'rot2': 0, 'depth': 0.851, 'yaw': -109.16, 'datetime': '2018-12-18 20:43:29.283830', 'mgs': 0, 'flw2': 0.43, 'flw1': 0.41, 'flw0': 0.27, 'time': 10.62, 'compass': -150.47, 'pitch': 1.1, 'roll': -0.13}
{'lipoC2': 0.0, 'temp': 0.0, 'lipoC3S3': 12.1, 'state': 'normal', 'rot1': 27, 'rot0': 33, 'rot3': 0, 'rot2': 0, 'depth': 1.767, 'yaw': -115.31, 'datetime': '2018-12-18 20:43:29.492663', 'mgs': 0, 'flw2': 0.5, 'flw1': 0.0, 'flw0': 0.02, 'time': 10.83, 'compass': -156.62, 'pitch': 1.17, 'roll': 0.0}
{'lipoC2': 0.02, 'temp': 0.0, 'lipoC3S3': 12.02, 'state': 'normal', 'rot1': 27, 'rot0': 33, 'rot3': 0, 'rot2': 0, 'depth': 1.309, 'yaw': -121.18, 'datetime': '2018-12-18 20:43:29.701653', 'mgs': 0, 'flw2': 0.0, 'flw1': 0.09, 'flw0': 0.2, 'time': 11.03, 'compass': -162.49, 'pitch': 1.3, 'roll': 0.2}
{'lipoC2': 0.15, 'temp': 0.0, 'lipoC3S3': 11.73, 'state': 'normal', 'rot1': 27, 'rot0': 33, 'rot3': 0, 'rot2': 0, 'depth': 0.623, 'yaw': -126.4, 'datetime': '2018-12-18 20:43:29.909015', 'mgs': 0, 'flw2': 3.41, 'flw1': 0.03, 'flw0': 0.59, 'time': 11.24, 'compass': -167.7, 'pitch': 0.85, 'roll': 0.6}
{'lipoC2': 0.0, 'temp': 0.0, 'lipoC3S3': 11.87, 'state': 'normal', 'rot1': 29, 'rot0': 36, 'rot3': 0, 'rot2': 0, 'depth': 0.928, 'yaw': -129.72, 'datetime': '2018-12-18 20:43:30.116934', 'mgs': 0, 'flw2': 2.8, 'flw1': 0.0, 'flw0': 0.87, 'time': 11.45, 'compass': -171.02, 'pitch': 1.65, 'roll': 0.94}
{'lipoC2': 0.17, 'temp': 0.0, 'lipoC3S3': 11.65, 'state': 'normal', 'rot1': 30, 'rot0': 39, 'rot3': 0, 'rot2': 0, 'depth': 0.623, 'yaw': -131.0, 'datetime': '2018-12-18 20:43:30.328170', 'mgs': 0, 'flw2': 2.82, 'flw1': 0.0, 'flw0': 0.84, 'time': 11.66, 'compass': -172.3, 'pitch': 3.62, 'roll': 0.91}
{'lipoC2': 0.18, 'temp': 0.0, 'lipoC3S3': 11.79, 'state': 'normal', 'rot1': 31, 'rot0': 41, 'rot3': 0, 'rot2': 0, 'depth': -0.446, 'yaw': -130.41, 'datetime': '2018-12-18 20:43:30.537772', 'mgs': 0, 'flw2': 2.91, 'flw1': 0.23, 'flw0': 0.55, 'time': 11.87, 'compass': -171.72, 'pitch': 4.51, 'roll': 0.73}
{'lipoC2': 0.0, 'temp': 0.0, 'lipoC3S3': 12.1, 'state': 'normal', 'rot1': 32, 'rot0': 44, 'rot3': 0, 'rot2': 0, 'depth': 1.614, 'yaw': -128.31, 'datetime': '2018-12-18 20:43:30.746885', 'mgs': 0, 'flw2': 2.81, 'flw1': 0.0, 'flw0': 0.99, 'time': 12.08, 'compass': -169.62, 'pitch': 3.76, 'roll': 0.65}
{'lipoC2': 0.09, 'temp': 0.0, 'lipoC3S3': 11.68, 'state': 'normal', 'rot1': 33, 'rot0': 46, 'rot3': 0, 'rot2': 0, 'depth': 0.089, 'yaw': -125.2, 'datetime': '2018-12-18 20:43:30.955383', 'mgs': 0, 'flw2': 2.71, 'flw1': 0.0, 'flw0': 0.98, 'time': 12.29, 'compass': -166.51, 'pitch': 2.89, 'roll': 0.62}
{'lipoC2': 0.0, 'temp': 0.0, 'lipoC3S3': 11.87, 'state': 'normal', 'rot1': 35, 'rot0': 48, 'rot3': 0, 'rot2': 0, 'depth': 0.241, 'yaw': -121.78, 'datetime': '2018-12-18 20:43:31.165197', 'mgs': 0, 'flw2': 2.7, 'flw1': 0.0, 'flw0': 0.85, 'time': 12.5, 'compass': -163.09, 'pitch': 2.94, 'roll': 0.56}
{'lipoC2': 0.0, 'temp': 0.0, 'lipoC3S3': 11.94, 'state': 'normal', 'rot1': 36, 'rot0': 51, 'rot3': 0, 'rot2': 0, 'depth': 1.08, 'yaw': -117.94, 'datetime': '2018-12-18 20:43:31.373373', 'mgs': 0, 'flw2': 2.56, 'flw1': 0.47, 'flw0': 0.73, 'time': 12.71, 'compass': -159.25, 'pitch': 3.52, 'roll': 0.65}
{'lipoC2': 0.03, 'temp': 0.0, 'lipoC3S3': 11.69, 'state': 'normal', 'rot1': 38, 'rot0': 53, 'rot3': 0, 'rot2': 0, 'depth': 1.614, 'yaw': -114.25, 'datetime': '2018-12-18 20:43:31.583725', 'mgs': 0, 'flw2': 2.42, 'flw1': 0.29, 'flw0': 2.84, 'time': 12.91, 'compass': -155.56, 'pitch': 3.8, 'roll': 0.8}
{'lipoC2': 0.0, 'temp': 0.0, 'lipoC3S3': 11.89, 'state': 'normal', 'rot1': 40, 'rot0': 55, 'rot3': 0, 'rot2': 0, 'depth': 0.699, 'yaw': -112.18, 'datetime': '2018-12-18 20:43:31.791253', 'mgs': 0, 'flw2': 0.73, 'flw1': 0.0, 'flw0': 2.82, 'time': 13.13, 'compass': -153.49, 'pitch': 4.04, 'roll': 0.88}
{'lipoC2': 0.0, 'temp': 0.0, 'lipoC3S3': 12.02, 'state': 'normal', 'rot1': 43, 'rot0': 56, 'rot3': 0, 'rot2': 0, 'depth': 1.309, 'yaw': -112.32, 'datetime': '2018-12-18 20:43:32.002110', 'mgs': 0, 'flw2': 0.39, 'flw1': 0.23, 'flw0': 2.93, 'time': 13.33, 'compass': -153.63, 'pitch': 3.16, 'roll': 0.88}
{'lipoC2': 0.05, 'temp': 0.0, 'lipoC3S3': 11.94, 'state': 'normal', 'rot1': 45, 'rot0': 57, 'rot3': 0, 'rot2': 0, 'depth': -1.819, 'yaw': -114.14, 'datetime': '2018-12-18 20:43:32.210547', 'mgs': 0, 'flw2': 0.98, 'flw1': 0.0, 'flw0': 2.64, 'time': 13.54, 'compass': -155.45, 'pitch': 2.29, 'roll': 0.69}
{'lipoC2': 0.11, 'temp': 0.0, 'lipoC3S3': 11.69, 'state': 'normal', 'rot1': 47, 'rot0': 59, 'rot3': 0, 'rot2': 0, 'depth': 1.157, 'yaw': -117.08, 'datetime': '2018-12-18 20:43:32.418543', 'mgs': 0, 'flw2': 0.71, 'flw1': 0.0, 'flw0': 2.91, 'time': 13.75, 'compass': -158.39, 'pitch': 2.55, 'roll': 0.32}
{'lipoC2': 0.0, 'temp': 0.0, 'lipoC3S3': 11.9, 'state': 'normal', 'rot1': 49, 'rot0': 60, 'rot3': 0, 'rot2': 0, 'depth': 0.089, 'yaw': -120.61, 'datetime': '2018-12-18 20:43:32.626596', 'mgs': 0, 'flw2': 0.94, 'flw1': 0.0, 'flw0': 2.64, 'time': 13.96, 'compass': -161.92, 'pitch': 3.12, 'roll': -0.06}
{'lipoC2': 0.0, 'temp': 0.0, 'lipoC3S3': 12.1, 'state': 'normal', 'rot1': 52, 'rot0': 62, 'rot3': 0, 'rot2': 0, 'depth': 1.385, 'yaw': -124.21, 'datetime': '2018-12-18 20:43:32.838015', 'mgs': 0, 'flw2': 2.77, 'flw1': 0.0, 'flw0': 3.02, 'time': 14.17, 'compass': -165.52, 'pitch': 3.26, 'roll': -0.23}
{'lipoC2': 0.12, 'temp': 0.0, 'lipoC3S3': 11.71, 'state': 'normal', 'rot1': 54, 'rot0': 64, 'rot3': 0, 'rot2': 0, 'depth': 0.699, 'yaw': -126.58, 'datetime': '2018-12-18 20:43:33.046996', 'mgs': 0, 'flw2': 2.48, 'flw1': 0.06, 'flw0': 0.87, 'time': 14.38, 'compass': -167.88, 'pitch': 3.54, 'roll': -0.14}
{'lipoC2': 0.15, 'temp': 0.0, 'lipoC3S3': 11.77, 'state': 'normal', 'rot1': 55, 'rot0': 67, 'rot3': 0, 'rot2': 0, 'depth': 0.699, 'yaw': -127.05, 'datetime': '2018-12-18 20:43:33.259420', 'mgs': 0, 'flw2': 2.8, 'flw1': 0.0, 'flw0': 0.93, 'time': 14.59, 'compass': -168.36, 'pitch': 3.05, 'roll': 0.19}
{'lipoC2': 0.08, 'temp': 0.0, 'lipoC3S3': 11.68, 'state': 'normal', 'rot1': 57, 'rot0': 68, 'rot3': 0, 'rot2': 0, 'depth': 1.08, 'yaw': -125.9, 'datetime': '2018-12-18 20:43:33.465567', 'mgs': 0, 'flw2': 0.0, 'flw1': 0.0, 'flw0': 0.22, 'time': 14.8, 'compass': -167.21, 'pitch': 2.35, 'roll': 0.62}
{'lipoC2': 0.0, 'temp': 0.0, 'lipoC3S3': 12.02, 'state': 'normal', 'rot1': 57, 'rot0': 68, 'rot3': 0, 'rot2': 0, 'depth': 1.309, 'yaw': -124.88, 'datetime': '2018-12-18 20:43:33.675445', 'mgs': 0, 'flw2': 0.0, 'flw1': 0.06, 'flw0': 0.21, 'time': 15.0, 'compass': -166.19, 'pitch': 0.87, 'roll': 0.63}
{'lipoC2': 0.09, 'temp': 0.0, 'lipoC3S3': 11.69, 'state': 'normal', 'rot1': 57, 'rot0': 68, 'rot3': 0, 'rot2': 0, 'depth': 0.165, 'yaw': -124.32, 'datetime': '2018-12-18 20:43:33.883465', 'mgs': 0, 'flw2': 0.0, 'flw1': 0.0, 'flw0': 0.22, 'time': 15.21, 'compass': -165.62, 'pitch': -0.33, 'roll': 0.27}
{'lipoC2': 0.0, 'temp': 0.0, 'lipoC3S3': 12.09, 'state': 'normal', 'rot1': 57, 'rot0': 68, 'rot3': 0, 'rot2': 0, 'depth': 1.767, 'yaw': -123.96, 'datetime': '2018-12-18 20:43:34.090317', 'mgs': 0, 'flw2': 0.18, 'flw1': 0.15, 'flw0': 0.0, 'time': 15.42, 'compass': -165.27, 'pitch': -0.29, 'roll': -0.13}
{'lipoC2': 0.12, 'temp': 0.0, 'lipoC3S3': 11.88, 'state': 'normal', 'rot1': 57, 'rot0': 69, 'rot3': 0, 'rot2': 0, 'depth': -2.124, 'yaw': -123.68, 'datetime': '2018-12-18 20:43:34.299088', 'mgs': 0, 'flw2': 3.09, 'flw1': 0.0, 'flw0': 3.28, 'time': 15.63, 'compass': -164.98, 'pitch': 0.42, 'roll': -0.37}
{'lipoC2': 0.0, 'temp': 0.0, 'lipoC3S3': 12.12, 'state': 'normal', 'rot1': 60, 'rot0': 71, 'rot3': 0, 'rot2': 0, 'depth': 1.538, 'yaw': -124.39, 'datetime': '2018-12-18 20:43:34.508536', 'mgs': 0, 'flw2': 2.8, 'flw1': 0.21, 'flw0': 2.6, 'time': 15.84, 'compass': -165.7, 'pitch': 2.58, 'roll': -0.25}
{'lipoC2': 0.0, 'temp': 0.0, 'lipoC3S3': 11.89, 'state': 'normal', 'rot1': 62, 'rot0': 74, 'rot3': 0, 'rot2': 0, 'depth': 0.012, 'yaw': -125.44, 'datetime': '2018-12-18 20:43:34.716753', 'mgs': 0, 'flw2': 2.89, 'flw1': 0.0, 'flw0': 0.77, 'time': 16.05, 'compass': -166.74, 'pitch': 3.93, 'roll': 0.21}
{'lipoC2': 0.16, 'temp': 0.0, 'lipoC3S3': 11.8, 'state': 'normal', 'rot1': 63, 'rot0': 76, 'rot3': 0, 'rot2': 0, 'depth': 0.928, 'yaw': -123.85, 'datetime': '2018-12-18 20:43:34.933469', 'mgs': 0, 'flw2': 2.84, 'flw1': 0.32, 'flw0': 0.61, 'time': 16.26, 'compass': -165.16, 'pitch': 3.03, 'roll': 0.65}
{'lipoC2': 0.04, 'temp': 0.0, 'lipoC3S3': 11.71, 'state': 'normal', 'rot1': 64, 'rot0': 78, 'rot3': 0, 'rot2': 0, 'depth': 1.309, 'yaw': -121.55, 'datetime': '2018-12-18 20:43:35.140794', 'mgs': 0, 'flw2': 2.86, 'flw1': 0.0, 'flw0': 0.48, 'time': 16.47, 'compass': -162.86, 'pitch': 2.23, 'roll': 0.78}
{'lipoC2': 0.15, 'temp': 0.0, 'lipoC3S3': 11.85, 'state': 'normal', 'rot1': 66, 'rot0': 81, 'rot3': 0, 'rot2': 0, 'depth': -1.361, 'yaw': -119.07, 'datetime': '2018-12-18 20:43:35.348445', 'mgs': 0, 'flw2': 2.6, 'flw1': 0.0, 'flw0': 2.97, 'time': 16.67, 'compass': -160.37, 'pitch': 3.1, 'roll': 0.66}
{'lipoC2': 0.17, 'temp': 0.0, 'lipoC3S3': 11.72, 'state': 'normal', 'rot1': 69, 'rot0': 83, 'rot3': 0, 'rot2': 0, 'depth': 1.004, 'yaw': -117.57, 'datetime': '2018-12-18 20:43:35.560534', 'mgs': 0, 'flw2': 2.8, 'flw1': 0.0, 'flw0': 2.94, 'time': 16.88, 'compass': -158.88, 'pitch': 4.71, 'roll': 0.52}
{'lipoC2': 0.1, 'temp': 0.0, 'lipoC3S3': 11.67, 'state': 'normal', 'rot1': 71, 'rot0': 85, 'rot3': 0, 'rot2': 0, 'depth': 0.089, 'yaw': -117.05, 'datetime': '2018-12-18 20:43:35.768263', 'mgs': 0, 'flw2': 2.67, 'flw1': 0.0, 'flw0': 3.03, 'time': 17.09, 'compass': -158.36, 'pitch': 5.04, 'roll': 0.73}
{'lipoC2': 0.09, 'temp': 0.0, 'lipoC3S3': 12.01, 'state': 'normal', 'rot1': 74, 'rot0': 87, 'rot3': 0, 'rot2': 0, 'depth': 1.843, 'yaw': -117.27, 'datetime': '2018-12-18 20:43:35.979073', 'mgs': 0, 'flw2': 0.85, 'flw1': 0.0, 'flw0': 2.92, 'time': 17.3, 'compass': -158.58, 'pitch': 4.29, 'roll': 0.75}
{'lipoC2': 0.1, 'temp': 0.0, 'lipoC3S3': 11.9, 'state': 'normal', 'rot1': 76, 'rot0': 89, 'rot3': 1, 'rot2': 0, 'depth': -1.895, 'yaw': -119.24, 'datetime': '2018-12-18 20:43:36.187174', 'mgs': 0, 'flw2': 2.8, 'flw1': 3.75, 'flw0': 2.8, 'time': 17.51, 'compass': -160.55, 'pitch': 2.97, 'roll': 0.08}
{'lipoC2': 0.16, 'temp': 0.0, 'lipoC3S3': 11.85, 'state': 'normal', 'rot1': 78, 'rot0': 91, 'rot3': 2, 'rot2': 1, 'depth': 1.233, 'yaw': -121.19, 'datetime': '2018-12-18 20:43:36.394716', 'mgs': 0, 'flw2': 2.86, 'flw1': 0.5, 'flw0': 2.6, 'time': 17.72, 'compass': -162.49, 'pitch': 3.2, 'roll': -0.71}
{'lipoC2': 0.05, 'temp': 0.0, 'lipoC3S3': 11.69, 'state': 'normal', 'rot1': 81, 'rot0': 94, 'rot3': 2, 'rot2': 1, 'depth': 0.165, 'yaw': -122.15, 'datetime': '2018-12-18 20:43:36.603417', 'mgs': 0, 'flw2': 2.53, 'flw1': 0.12, 'flw0': 3.08, 'time': 17.93, 'compass': -163.46, 'pitch': 3.6, 'roll': -0.74}
{'lipoC2': 0.0, 'temp': 0.0, 'lipoC3S3': 11.73, 'state': 'normal', 'rot1': 83, 'rot0': 96, 'rot3': 2, 'rot2': 1, 'depth': -1.208, 'yaw': -122.84, 'datetime': '2018-12-18 20:43:36.815399', 'mgs': 0, 'flw2': 2.76, 'flw1': 0.26, 'flw0': 2.65, 'time': 18.14, 'compass': -164.15, 'pitch': 3.0, 'roll': -0.37}
{'lipoC2': 0.13, 'temp': 0.0, 'lipoC3S3': 11.71, 'state': 'normal', 'rot1': 85, 'rot0': 99, 'rot3': 2, 'rot2': 1, 'depth': 0.241, 'yaw': -124.37, 'datetime': '2018-12-18 20:43:37.025595', 'mgs': 0, 'flw2': 2.8, 'flw1': 0.09, 'flw0': 2.55, 'time': 18.35, 'compass': -165.68, 'pitch': 2.28, 'roll': 0.04}
{'lipoC2': 0.0, 'temp': 0.0, 'lipoC3S3': 11.92, 'state': 'normal', 'rot1': 87, 'rot0': 101, 'rot3': 2, 'rot2': 1, 'depth': 0.012, 'yaw': -125.54, 'datetime': '2018-12-18 20:43:37.233127', 'mgs': 0, 'flw2': 0.0, 'flw1': 0.41, 'flw0': 0.01, 'time': 18.56, 'compass': -166.85, 'pitch': 2.19, 'roll': 0.41}
{'lipoC2': 0.1, 'temp': 0.0, 'lipoC3S3': 11.68, 'state': 'normal', 'rot1': 87, 'rot0': 101, 'rot3': 2, 'rot2': 1, 'depth': 0.089, 'yaw': -126.06, 'datetime': '2018-12-18 20:43:37.439964', 'mgs': 0, 'flw2': 0.15, 'flw1': 0.0, 'flw0': 0.0, 'time': 18.77, 'compass': -167.37, 'pitch': 0.84, 'roll': 0.8}
{'lipoC2': 0.16, 'temp': 0.0, 'lipoC3S3': 11.72, 'state': 'normal', 'rot1': 88, 'rot0': 101, 'rot3': 2, 'rot2': 1, 'depth': 0.623, 'yaw': -126.67, 'datetime': '2018-12-18 20:43:37.649565', 'mgs': 0, 'flw2': 2.97, 'flw1': 0.0, 'flw0': 3.26, 'time': 18.98, 'compass': -167.98, 'pitch': -0.52, 'roll': 1.06}
{'lipoC2': 0.0, 'temp': 0.0, 'lipoC3S3': 12.13, 'state': 'normal', 'rot1': 90, 'rot0': 104, 'rot3': 2, 'rot2': 1, 'depth': 1.92, 'yaw': -127.98, 'datetime': '2018-12-18 20:43:37.857798', 'mgs': 0, 'flw2': 2.72, 'flw1': 0.0, 'flw0': 2.95, 'time': 19.18, 'compass': -169.29, 'pitch': 1.56, 'roll': 0.85}
{'lipoC2': 0.09, 'temp': 0.0, 'lipoC3S3': 12.0, 'state': 'normal', 'rot1': 92, 'rot0': 106, 'rot3': 2, 'rot2': 1, 'depth': 1.843, 'yaw': -128.68, 'datetime': '2018-12-18 20:43:38.067605', 'mgs': 0, 'flw2': 2.43, 'flw1': 0.47, 'flw0': 0.73, 'time': 19.39, 'compass': -169.99, 'pitch': 4.02, 'roll': 0.34}
{'lipoC2': 0.0, 'temp': 0.0, 'lipoC3S3': 11.89, 'state': 'normal', 'rot1': 94, 'rot0': 109, 'rot3': 2, 'rot2': 2, 'depth': 0.851, 'yaw': -127.66, 'datetime': '2018-12-18 20:43:38.281899', 'mgs': 0, 'flw2': 2.91, 'flw1': 2.49, 'flw0': 0.74, 'time': 19.6, 'compass': -168.96, 'pitch': 3.69, 'roll': -0.04}
{'lipoC2': 0.13, 'temp': 0.0, 'lipoC3S3': 11.71, 'state': 'normal', 'rot1': 95, 'rot0': 111, 'rot3': 3, 'rot2': 2, 'depth': 0.317, 'yaw': -125.27, 'datetime': '2018-12-18 20:43:38.493686', 'mgs': 0, 'flw2': 2.77, 'flw1': 0.18, 'flw0': 0.49, 'time': 19.81, 'compass': -166.58, 'pitch': 2.75, 'roll': -0.29}
{'lipoC2': 0.0, 'temp': 0.0, 'lipoC3S3': 12.02, 'state': 'normal', 'rot1': 97, 'rot0': 114, 'rot3': 3, 'rot2': 3, 'depth': 1.691, 'yaw': -122.18, 'datetime': '2018-12-18 20:43:38.696789', 'mgs': 0, 'flw2': 2.4, 'flw1': 0.35, 'flw0': 3.02, 'time': 20.02, 'compass': -163.48, 'pitch': 2.48, 'roll': -0.4}
{'lipoC2': 0.17, 'temp': 0.0, 'lipoC3S3': 11.81, 'state': 'normal', 'rot1': 99, 'rot0': 117, 'rot3': 3, 'rot2': 3, 'depth': -1.056, 'yaw': -120.26, 'datetime': '2018-12-18 20:43:38.906484', 'mgs': 0, 'flw2': 2.58, 'flw1': 0.53, 'flw0': 2.82, 'time': 20.23, 'compass': -161.56, 'pitch': 3.15, 'roll': -0.36}
{'lipoC2': 0.06, 'temp': 0.0, 'lipoC3S3': 11.9, 'state': 'normal', 'rot1': 102, 'rot0': 119, 'rot3': 3, 'rot2': 3, 'depth': 1.92, 'yaw': -118.99, 'datetime': '2018-12-18 20:43:39.114802', 'mgs': 0, 'flw2': 2.86, 'flw1': 0.0, 'flw0': 2.87, 'time': 20.44, 'compass': -160.3, 'pitch': 3.41, 'roll': 0.01}
{'lipoC2': 0.0, 'temp': 0.0, 'lipoC3S3': 11.9, 'state': 'normal', 'rot1': 105, 'rot0': 121, 'rot3': 3, 'rot2': 3, 'depth': 0.394, 'yaw': -118.48, 'datetime': '2018-12-18 20:43:39.331761', 'mgs': 0, 'flw2': 0.49, 'flw1': 0.5, 'flw0': 2.75, 'time': 20.65, 'compass': -159.79, 'pitch': 3.02, 'roll': 0.41}
{'lipoC2': 0.17, 'temp': 0.0, 'lipoC3S3': 11.79, 'state': 'normal', 'rot1': 108, 'rot0': 123, 'rot3': 3, 'rot2': 3, 'depth': 0.851, 'yaw': -119.69, 'datetime': '2018-12-18 20:43:39.540549', 'mgs': 0, 'flw2': 0.77, 'flw1': 0.47, 'flw0': 2.67, 'time': 20.86, 'compass': -161.0, 'pitch': 2.15, 'roll': 0.56}
{'lipoC2': 0.0, 'temp': 0.0, 'lipoC3S3': 12.1, 'state': 'normal', 'rot1': 110, 'rot0': 124, 'rot3': 3, 'rot2': 3, 'depth': 1.691, 'yaw': -123.38, 'datetime': '2018-12-18 20:43:39.748924', 'mgs': 0, 'flw2': 0.74, 'flw1': 4.39, 'flw0': 2.62, 'time': 21.07, 'compass': -164.68, 'pitch': 1.92, 'roll': 0.12}
{'lipoC2': 0.09, 'temp': 0.0, 'lipoC3S3': 11.67, 'state': 'normal', 'rot1': 112, 'rot0': 126, 'rot3': 4, 'rot2': 4, 'depth': 1.004, 'yaw': -127.8, 'datetime': '2018-12-18 20:43:39.960722', 'mgs': 0, 'flw2': 2.56, 'flw1': 2.75, 'flw0': 3.02, 'time': 21.28, 'compass': -169.1, 'pitch': 2.64, 'roll': -0.9}
{'lipoC2': 0.13, 'temp': 0.0, 'lipoC3S3': 11.87, 'state': 'normal', 'rot1': 115, 'rot0': 128, 'rot3': 4, 'rot2': 4, 'depth': -2.2, 'yaw': -130.67, 'datetime': '2018-12-18 20:43:40.163411', 'mgs': 0, 'flw2': 2.8, 'flw1': 0.0, 'flw0': 0.82, 'time': 21.49, 'compass': -171.98, 'pitch': 3.76, 'roll': -1.41}
{'lipoC2': 0.0, 'temp': 0.0, 'lipoC3S3': 11.88, 'state': 'normal', 'rot1': 117, 'rot0': 131, 'rot3': 4, 'rot2': 4, 'depth': 0.165, 'yaw': -131.07, 'datetime': '2018-12-18 20:43:40.373094', 'mgs': 0, 'flw2': 2.98, 'flw1': 0.0, 'flw0': 0.72, 'time': 21.69, 'compass': -172.38, 'pitch': 2.87, 'roll': -0.94}
{'lipoC2': 0.0, 'temp': 0.0, 'lipoC3S3': 11.89, 'state': 'normal', 'rot1': 118, 'rot0': 133, 'rot3': 4, 'rot2': 4, 'depth': 0.47, 'yaw': -130.21, 'datetime': '2018-12-18 20:43:40.581994', 'mgs': 0, 'flw2': 0.23, 'flw1': 0.0, 'flw0': 0.0, 'time': 21.91, 'compass': -171.51, 'pitch': 1.42, 'roll': 0.03}
{'lipoC2': 0.04, 'temp': 0.0, 'lipoC3S3': 12.04, 'state': 'normal', 'rot1': 118, 'rot0': 133, 'rot3': 4, 'rot2': 4, 'depth': 1.385, 'yaw': -129.07, 'datetime': '2018-12-18 20:43:40.798213', 'mgs': 0, 'flw2': 0.0, 'flw1': 0.12, 'flw0': 0.18, 'time': 22.12, 'compass': -170.38, 'pitch': 0.1, 'roll': 0.71}
{'lipoC2': 0.0, 'temp': 0.0, 'lipoC3S3': 12.1, 'state': 'normal', 'rot1': 119, 'rot0': 134, 'rot3': 4, 'rot2': 4, 'depth': 2.148, 'yaw': -129.02, 'datetime': '2018-12-18 20:43:41.002684', 'mgs': 0, 'flw2': 3.3, 'flw1': 0.0, 'flw0': 0.65, 'time': 22.33, 'compass': -170.33, 'pitch': -0.2, 'roll': 0.82}
{'lipoC2': 0.0, 'temp': 0.0, 'lipoC3S3': 12.08, 'state': 'normal', 'rot1': 120, 'rot0': 136, 'rot3': 4, 'rot2': 4, 'depth': 2.072, 'yaw': -127.49, 'datetime': '2018-12-18 20:43:41.212354', 'mgs': 0, 'flw2': 2.94, 'flw1': 0.09, 'flw0': 0.43, 'time': 22.53, 'compass': -168.79, 'pitch': 1.53, 'roll': 0.84}
{'lipoC2': 0.0, 'temp': 0.0, 'lipoC3S3': 12.09, 'state': 'normal', 'rot1': 123, 'rot0': 139, 'rot3': 4, 'rot2': 4, 'depth': 1.767, 'yaw': -125.05, 'datetime': '2018-12-18 20:43:41.420712', 'mgs': 0, 'flw2': 2.77, 'flw1': 0.0, 'flw0': 2.48, 'time': 22.74, 'compass': -166.36, 'pitch': 3.7, 'roll': 0.74}
{'lipoC2': 0.15, 'temp': 0.0, 'lipoC3S3': 11.76, 'state': 'normal', 'rot1': 125, 'rot0': 141, 'rot3': 4, 'rot2': 4, 'depth': 0.546, 'yaw': -123.57, 'datetime': '2018-12-18 20:43:41.633016', 'mgs': 0, 'flw2': 0.68, 'flw1': 0.44, 'flw0': 2.7, 'time': 22.95, 'compass': -164.88, 'pitch': 4.82, 'roll': 0.48}
{'lipoC2': 0.13, 'temp': 0.0, 'lipoC3S3': 11.89, 'state': 'normal', 'rot1': 128, 'rot0': 142, 'rot3': 4, 'rot2': 4, 'depth': -1.59, 'yaw': -125.27, 'datetime': '2018-12-18 20:43:41.842895', 'mgs': 0, 'flw2': 0.99, 'flw1': 0.0, 'flw0': 2.64, 'time': 23.16, 'compass': -166.57, 'pitch': 4.13, 'roll': 0.18}
{'lipoC2': 0.0, 'temp': 0.0, 'lipoC3S3': 12.04, 'state': 'normal', 'rot1': 130, 'rot0': 144, 'rot3': 4, 'rot2': 4, 'depth': 1.691, 'yaw': -127.93, 'datetime': '2018-12-18 20:43:42.054423', 'mgs': 0, 'flw2': 2.6, 'flw1': 0.21, 'flw0': 2.86, 'time': 23.37, 'compass': -169.24, 'pitch': 3.27, 'roll': -0.15}
{'lipoC2': 0.15, 'temp': 0.0, 'lipoC3S3': 11.87, 'state': 'normal', 'rot1': 133, 'rot0': 147, 'rot3': 4, 'rot2': 4, 'depth': -0.98, 'yaw': -129.94, 'datetime': '2018-12-18 20:43:42.264422', 'mgs': 0, 'flw2': 2.88, 'flw1': 0.0, 'flw0': 0.68, 'time': 23.58, 'compass': -171.24, 'pitch': 3.93, 'roll': -0.41}
{'lipoC2': 0.0, 'temp': 0.0, 'lipoC3S3': 11.92, 'state': 'normal', 'rot1': 134, 'rot0': 149, 'rot3': 4, 'rot2': 4, 'depth': -0.14, 'yaw': -130.13, 'datetime': '2018-12-18 20:43:42.472212', 'mgs': 0, 'flw2': 2.8, 'flw1': 3.69, 'flw0': 0.63, 'time': 23.79, 'compass': -171.44, 'pitch': 4.1, 'roll': -0.22}
{'lipoC2': 0.16, 'temp': 0.0, 'lipoC3S3': 11.73, 'state': 'normal', 'rot1': 136, 'rot0': 151, 'rot3': 5, 'rot2': 5, 'depth': 0.623, 'yaw': -128.63, 'datetime': '2018-12-18 20:43:42.682253', 'mgs': 0, 'flw2': 2.61, 'flw1': 2.61, 'flw0': 0.99, 'time': 24.0, 'compass': -169.93, 'pitch': 3.85, 'roll': -0.05}
{'lipoC2': 0.0, 'temp': 0.0, 'lipoC3S3': 11.89, 'state': 'normal', 'rot1': 138, 'rot0': 154, 'rot3': 6, 'rot2': 5, 'depth': 0.394, 'yaw': -126.01, 'datetime': '2018-12-18 20:43:42.891170', 'mgs': 0, 'flw2': 2.95, 'flw1': 0.0, 'flw0': 2.98, 'time': 24.21, 'compass': -167.32, 'pitch': 3.4, 'roll': -0.1}
{'lipoC2': 0.13, 'temp': 0.0, 'lipoC3S3': 11.89, 'state': 'normal', 'rot1': 140, 'rot0': 156, 'rot3': 6, 'rot2': 5, 'depth': -1.743, 'yaw': -123.62, 'datetime': '2018-12-18 20:43:43.102805', 'mgs': 0, 'flw2': 2.75, 'flw1': 3.98, 'flw0': 2.81, 'time': 24.42, 'compass': -164.93, 'pitch': 3.25, 'roll': -0.12}
{'lipoC2': 0.0, 'temp': 0.0, 'lipoC3S3': 12.09, 'state': 'normal', 'rot1': 143, 'rot0': 158, 'rot3': 7, 'rot2': 6, 'depth': -0.064, 'yaw': -122.57, 'datetime': '2018-12-18 20:43:43.314811', 'mgs': 0, 'flw2': 0.83, 'flw1': 3.57, 'flw0': 2.81, 'time': 24.63, 'compass': -163.88, 'pitch': 3.28, 'roll': -0.26}
{'lipoC2': 0.0, 'temp': 0.0, 'lipoC3S3': 12.09, 'state': 'normal', 'rot1': 145, 'rot0': 159, 'rot3': 7, 'rot2': 7, 'depth': 1.614, 'yaw': -123.56, 'datetime': '2018-12-18 20:43:43.525974', 'mgs': 0, 'flw2': 0.82, 'flw1': 0.35, 'flw0': 2.56, 'time': 24.84, 'compass': -164.86, 'pitch': 2.41, 'roll': -0.58}
{'lipoC2': 0.09, 'temp': 0.0, 'lipoC3S3': 11.92, 'state': 'normal', 'rot1': 148, 'rot0': 161, 'rot3': 7, 'rot2': 7, 'depth': -1.971, 'yaw': -125.18, 'datetime': '2018-12-18 20:43:43.733506', 'mgs': 0, 'flw2': 0.94, 'flw1': 0.0, 'flw0': 2.65, 'time': 25.05, 'compass': -166.49, 'pitch': 1.21, 'roll': -0.88}
{'lipoC2': 0.0, 'temp': 0.0, 'lipoC3S3': 11.73, 'state': 'normal', 'rot1': 150, 'rot0': 162, 'rot3': 7, 'rot2': 7, 'depth': -0.751, 'yaw': -127.03, 'datetime': '2018-12-18 20:43:43.944422', 'mgs': 0, 'flw2': 0.09, 'flw1': 0.41, 'flw0': 0.0, 'time': 25.25, 'compass': -168.33, 'pitch': 0.94, 'roll': -0.95}
{'lipoC2': 0.0, 'temp': 0.0, 'lipoC3S3': 11.94, 'state': 'normal', 'rot1': 150, 'rot0': 162, 'rot3': 7, 'rot2': 7, 'depth': 0.546, 'yaw': -128.08, 'datetime': '2018-12-18 20:43:44.151364', 'mgs': 0, 'flw2': 0.17, 'flw1': 0.0, 'flw0': 0.0, 'time': 25.46, 'compass': -169.39, 'pitch': 0.18, 'roll': -0.33}
{'lipoC2': 0.09, 'temp': 0.0, 'lipoC3S3': 11.69, 'state': 'normal', 'rot1': 150, 'rot0': 162, 'rot3': 7, 'rot2': 7, 'depth': 1.157, 'yaw': -128.73, 'datetime': '2018-12-18 20:43:44.363137', 'mgs': 0, 'flw2': 0.1, 'flw1': 0.29, 'flw0': 0.0, 'time': 25.67, 'compass': -170.04, 'pitch': -0.48, 'roll': 0.56}
{'lipoC2': 0.0, 'temp': 0.0, 'lipoC3S3': 12.06, 'state': 'normal', 'rot1': 150, 'rot0': 162, 'rot3': 7, 'rot2': 7, 'depth': 1.614, 'yaw': -129.23, 'datetime': '2018-12-18 20:43:44.571923', 'mgs': 0, 'flw2': 0.0, 'flw1': 0.15, 'flw0': 0.18, 'time': 25.89, 'compass': -170.54, 'pitch': -0.23, 'roll': 1.04}
{'lipoC2': 0.03, 'temp': 0.0, 'lipoC3S3': 11.9, 'state': 'normal', 'rot1': 150, 'rot0': 162, 'rot3': 7, 'rot2': 7, 'depth': -1.514, 'yaw': -129.6, 'datetime': '2018-12-18 20:43:44.780666', 'mgs': 0, 'flw2': 0.0, 'flw1': 0.23, 'flw0': 0.12, 'time': 26.09, 'compass': -170.91, 'pitch': 0.19, 'roll': 0.87}
{'lipoC2': 0.0, 'temp': 0.0, 'lipoC3S3': 12.08, 'state': 'normal', 'rot1': 150, 'rot0': 162, 'rot3': 7, 'rot2': 7, 'depth': 1.614, 'yaw': -129.91, 'datetime': '2018-12-18 20:43:44.990644', 'mgs': 0, 'flw2': 0.0, 'flw1': 0.41, 'flw0': 0.0, 'time': 26.3, 'compass': -171.22, 'pitch': 0.13, 'roll': 0.42}
{'lipoC2': 0.0, 'temp': 0.0, 'lipoC3S3': 12.09, 'state': 'normal', 'rot1': 150, 'rot0': 162, 'rot3': 7, 'rot2': 7, 'depth': -0.217, 'yaw': -130.03, 'datetime': '2018-12-18 20:43:45.200635', 'mgs': 0, 'flw2': 0.02, 'flw1': 0.0, 'flw0': 0.16, 'time': 26.51, 'compass': -171.34, 'pitch': -0.21, 'roll': 0.04}
{'lipoC2': 0.0, 'temp': 0.0, 'lipoC3S3': 11.97, 'state': 'normal', 'rot1': 150, 'rot0': 162, 'rot3': 7, 'rot2': 7, 'depth': 0.775, 'yaw': -130.03, 'datetime': '2018-12-18 20:43:45.411767', 'mgs': 0, 'flw2': 0.0, 'flw1': 0.18, 'flw0': 0.13, 'time': 26.72, 'compass': -171.34, 'pitch': -0.29, 'roll': -0.05}
{'lipoC2': 0.03, 'temp': 0.0, 'lipoC3S3': 12.02, 'state': 'normal', 'rot1': 150, 'rot0': 162, 'rot3': 7, 'rot2': 7, 'depth': 0.089, 'yaw': -129.89, 'datetime': '2018-12-18 20:43:45.620615', 'mgs': 0, 'flw2': 0.15, 'flw1': 0.12, 'flw0': 0.0, 'time': 26.93, 'compass': -171.2, 'pitch': 0.12, 'roll': 0.05}
{'lipoC2': 0.0, 'temp': 0.0, 'lipoC3S3': 11.89, 'state': 'normal', 'rot1': 150, 'rot0': 162, 'rot3': 7, 'rot2': 7, 'depth': 0.623, 'yaw': -130.12, 'datetime': '2018-12-18 20:43:45.829689', 'mgs': 0, 'flw2': 0.17, 'flw1': 0.0, 'flw0': 0.01, 'time': 27.14, 'compass': -171.43, 'pitch': 0.38, 'roll': 0.17}
{'lipoC2': 0.16, 'temp': 0.0, 'lipoC3S3': 11.84, 'state': 'normal', 'rot1': 150, 'rot0': 162, 'rot3': 7, 'rot2': 7, 'depth': -0.522, 'yaw': -130.84, 'datetime': '2018-12-18 20:43:46.040620', 'mgs': 0, 'flw2': 0.0, 'flw1': 0.44, 'flw0': 0.0, 'time': 27.35, 'compass': -172.15, 'pitch': 0.01, 'roll': 0.17}
{'lipoC2': 0.0, 'temp': 0.0, 'lipoC3S3': 12.09, 'state': 'normal', 'rot1': 150, 'rot0': 162, 'rot3': 7, 'rot2': 7, 'depth': -0.674, 'yaw': -131.29, 'datetime': '2018-12-18 20:43:46.248668', 'mgs': 0, 'flw2': 0.0, 'flw1': 0.41, 'flw0': 0.0, 'time': 27.56, 'compass': -172.6, 'pitch': -0.33, 'roll': 0.18}
{'lipoC2': 0.18, 'temp': 0.0, 'lipoC3S3': 11.79, 'state': 'normal', 'rot1': 150, 'rot0': 162, 'rot3': 7, 'rot2': 7, 'depth': 1.843, 'yaw': -131.06, 'datetime': '2018-12-18 20:43:46.455530', 'mgs': 0, 'flw2': 1.81, 'flw1': 0.15, 'flw0': 1.44, 'time': 27.77, 'compass': -172.36, 'pitch': -0.22, 'roll': 0.14}
{'lipoC2': 0.0, 'temp': 0.0, 'lipoC3S3': 11.84, 'state': 'normal', 'rot1': 153, 'rot0': 165, 'rot3': 7, 'rot2': 7, 'depth': -0.827, 'yaw': -129.2, 'datetime': '2018-12-18 20:43:46.664261', 'mgs': 0, 'flw2': 1.62, 'flw1': 0.0, 'flw0': 1.05, 'time': 27.98, 'compass': -170.5, 'pitch': 0.19, 'roll': 0.41}
{'lipoC2': 0.0, 'temp': 0.0, 'lipoC3S3': 12.02, 'state': 'normal', 'rot1': 155, 'rot0': 167, 'rot3': 7, 'rot2': 7, 'depth': 2.225, 'yaw': -124.4, 'datetime': '2018-12-18 20:43:46.873226', 'mgs': 0, 'flw2': 1.65, 'flw1': 0.0, 'flw0': 1.07, 'time': 28.19, 'compass': -165.71, 'pitch': 0.4, 'roll': 1.09}
{'lipoC2': 0.0, 'temp': 0.0, 'lipoC3S3': 11.88, 'state': 'normal', 'rot1': 157, 'rot0': 169, 'rot3': 7, 'rot2': 7, 'depth': 0.47, 'yaw': -117.5, 'datetime': '2018-12-18 20:43:47.085512', 'mgs': 0, 'flw2': 1.35, 'flw1': 0.0, 'flw0': 1.2, 'time': 28.4, 'compass': -158.81, 'pitch': 0.36, 'roll': 1.98}
{'lipoC2': 0.0, 'temp': 0.0, 'lipoC3S3': 11.72, 'state': 'normal', 'rot1': 158, 'rot0': 170, 'rot3': 7, 'rot2': 7, 'depth': -1.208, 'yaw': -109.15, 'datetime': '2018-12-18 20:43:47.296606', 'mgs': 0, 'flw2': 1.04, 'flw1': 0.0, 'flw0': 1.21, 'time': 28.61, 'compass': -150.46, 'pitch': 0.17, 'roll': 2.51}
{'lipoC2': 0.15, 'temp': 0.0, 'lipoC3S3': 11.88, 'state': 'normal', 'rot1': 160, 'rot0': 172, 'rot3': 7, 'rot2': 7, 'depth': -1.514, 'yaw': -100.68, 'datetime': '2018-12-18 20:43:47.505382', 'mgs': 0, 'flw2': 0.92, 'flw1': 0.0, 'flw0': 0.89, 'time': 28.82, 'compass': -141.99, 'pitch': -0.05, 'roll': 2.57}
{'lipoC2': 0.0, 'temp': 0.0, 'lipoC3S3': 11.81, 'state': 'normal', 'rot1': 161, 'rot0': 173, 'rot3': 7, 'rot2': 7, 'depth': 1.233, 'yaw': -92.6, 'datetime': '2018-12-18 20:43:47.713566', 'mgs': 0, 'flw2': 0.81, 'flw1': 0.35, 'flw0': 0.63, 'time': 29.02, 'compass': -133.91, 'pitch': -0.24, 'roll': 2.44}
{'lipoC2': 0.01, 'temp': 0.0, 'lipoC3S3': 11.69, 'state': 'normal', 'rot1': 163, 'rot0': 175, 'rot3': 7, 'rot2': 7, 'depth': -0.064, 'yaw': -84.52, 'datetime': '2018-12-18 20:43:47.925310', 'mgs': 0, 'flw2': 0.78, 'flw1': 0.0, 'flw0': 0.29, 'time': 29.23, 'compass': -125.83, 'pitch': -0.04, 'roll': 2.13}
{'lipoC2': 0.02, 'temp': 0.0, 'lipoC3S3': 12.0, 'state': 'normal', 'rot1': 164, 'rot0': 176, 'rot3': 7, 'rot2': 7, 'depth': -1.59, 'yaw': -76.76, 'datetime': '2018-12-18 20:43:48.137478', 'mgs': 0, 'flw2': 0.57, 'flw1': 0.0, 'flw0': 0.13, 'time': 29.44, 'compass': -118.07, 'pitch': 0.3, 'roll': 1.62}
{'lipoC2': 0.0, 'temp': 0.0, 'lipoC3S3': 11.97, 'state': 'normal', 'rot1': 165, 'rot0': 177, 'rot3': 7, 'rot2': 7, 'depth': 0.699, 'yaw': -69.08, 'datetime': '2018-12-18 20:43:48.344420', 'mgs': 0, 'flw2': 0.59, 'flw1': 0.0, 'flw0': 0.13, 'time': 29.65, 'compass': -110.38, 'pitch': 0.22, 'roll': 1.0}
{'lipoC2': 0.0, 'temp': 0.0, 'lipoC3S3': 12.1, 'state': 'normal', 'rot1': 166, 'rot0': 178, 'rot3': 7, 'rot2': 7, 'depth': 1.691, 'yaw': -61.56, 'datetime': '2018-12-18 20:43:48.551914', 'mgs': 0, 'flw2': 0.51, 'flw1': 0.06, 'flw0': 0.01, 'time': 29.86, 'compass': -102.86, 'pitch': -0.13, 'roll': 0.44}
{'lipoC2': 0.02, 'temp': 0.0, 'lipoC3S3': 11.73, 'state': 'normal', 'rot1': 167, 'rot0': 179, 'rot3': 7, 'rot2': 7, 'depth': 1.385, 'yaw': -54.57, 'datetime': '2018-12-18 20:43:48.765233', 'mgs': 0, 'flw2': 0.51, 'flw1': 0.0, 'flw0': 0.06, 'time': 30.07, 'compass': -95.88, 'pitch': -0.35, 'roll': 0.2}
{'lipoC2': 0.11, 'temp': 0.0, 'lipoC3S3': 11.71, 'state': 'normal', 'rot1': 168, 'rot0': 180, 'rot3': 7, 'rot2': 7, 'depth': 0.165, 'yaw': -47.19, 'datetime': '2018-12-18 20:43:48.970317', 'mgs': 0, 'flw2': 0.51, 'flw1': 0.12, 'flw0': 0.09, 'time': 30.28, 'compass': -88.5, 'pitch': -0.22, 'roll': 0.41}
{'lipoC2': 0.12, 'temp': 0.0, 'lipoC3S3': 11.72, 'state': 'normal', 'rot1': 169, 'rot0': 181, 'rot3': 7, 'rot2': 7, 'depth': 0.241, 'yaw': -39.98, 'datetime': '2018-12-18 20:43:49.180706', 'mgs': 0, 'flw2': 0.33, 'flw1': 0.0, 'flw0': 0.54, 'time': 30.49, 'compass': -81.29, 'pitch': 0.05, 'roll': 0.84}
{'lipoC2': 0.0, 'temp': 0.0, 'lipoC3S3': 12.09, 'state': 'normal', 'rot1': 170, 'rot0': 182, 'rot3': 7, 'rot2': 7, 'depth': 1.538, 'yaw': -32.61, 'datetime': '2018-12-18 20:43:49.388340', 'mgs': 0, 'flw2': 0.35, 'flw1': 0.44, 'flw0': 0.34, 'time': 30.69, 'compass': -73.91, 'pitch': 0.2, 'roll': 1.34}
{'lipoC2': 0.0, 'temp': 0.0, 'lipoC3S3': 11.9, 'state': 'normal', 'rot1': 171, 'rot0': 183, 'rot3': 7, 'rot2': 7, 'depth': 0.623, 'yaw': -25.21, 'datetime': '2018-12-18 20:43:49.598726', 'mgs': 0, 'flw2': 0.09, 'flw1': 0.44, 'flw0': 0.35, 'time': 30.9, 'compass': -66.52, 'pitch': 0.1, 'roll': 1.62}
{'lipoC2': 0.0, 'temp': 0.0, 'lipoC3S3': 12.1, 'state': 'normal', 'rot1': 172, 'rot0': 185, 'rot3': 7, 'rot2': 7, 'depth': 1.614, 'yaw': -17.63, 'datetime': '2018-12-18 20:43:49.808176', 'mgs': 0, 'flw2': 0.33, 'flw1': 0.0, 'flw0': 0.57, 'time': 31.11, 'compass': -58.93, 'pitch': -0.0, 'roll': 1.61}
{'lipoC2': 0.02, 'temp': 0.0, 'lipoC3S3': 12.04, 'state': 'normal', 'rot1': 173, 'rot0': 188, 'rot3': 7, 'rot2': 7, 'depth': 1.462, 'yaw': -9.62, 'datetime': '2018-12-18 20:43:50.019478', 'mgs': 0, 'flw2': 0.1, 'flw1': 0.09, 'flw0': 0.55, 'time': 31.32, 'compass': -50.93, 'pitch': 0.1, 'roll': 1.53}
{'lipoC2': 0.02, 'temp': 0.0, 'lipoC3S3': 11.69, 'state': 'normal', 'rot1': 173, 'rot0': 191, 'rot3': 7, 'rot2': 7, 'depth': -0.14, 'yaw': -2.02, 'datetime': '2018-12-18 20:43:50.226447', 'mgs': 0, 'flw2': 0.15, 'flw1': 0.18, 'flw0': 0.0, 'time': 31.53, 'compass': -43.33, 'pitch': 0.26, 'roll': 1.38}
{'lipoC2': 0.0, 'temp': 0.0, 'lipoC3S3': 12.09, 'state': 'normal', 'rot1': 174, 'rot0': 193, 'rot3': 7, 'rot2': 7, 'depth': -2.048, 'yaw': 4.75, 'datetime': '2018-12-18 20:43:50.434013', 'mgs': 0, 'flw2': 1.04, 'flw1': 0.21, 'flw0': 3.11, 'time': 31.74, 'compass': -36.55, 'pitch': 0.08, 'roll': 1.06}
{'lipoC2': 0.06, 'temp': 0.0, 'lipoC3S3': 11.69, 'state': 'normal', 'rot1': 176, 'rot0': 200, 'rot3': 7, 'rot2': 7, 'depth': 0.241, 'yaw': 9.61, 'datetime': '2018-12-18 20:43:50.645641', 'mgs': 0, 'flw2': 0.72, 'flw1': 0.0, 'flw0': 2.88, 'time': 31.95, 'compass': -31.7, 'pitch': 1.26, 'roll': 0.49}
{'lipoC2': 0.0, 'temp': 0.0, 'lipoC3S3': 11.9, 'state': 'normal', 'rot1': 178, 'rot0': 202, 'rot3': 7, 'rot2': 7, 'depth': 0.394, 'yaw': 12.31, 'datetime': '2018-12-18 20:43:50.853767', 'mgs': 0, 'flw2': 0.45, 'flw1': 0.44, 'flw0': 2.87, 'time': 32.16, 'compass': -29.0, 'pitch': 2.99, 'roll': -0.04}
{'lipoC2': 0.15, 'temp': 0.0, 'lipoC3S3': 11.88, 'state': 'normal', 'rot1': 181, 'rot0': 203, 'rot3': 7, 'rot2': 7, 'depth': -0.598, 'yaw': 12.95, 'datetime': '2018-12-18 20:43:51.066968', 'mgs': 0, 'flw2': 0.57, 'flw1': 0.47, 'flw0': 2.69, 'time': 32.37, 'compass': -28.36, 'pitch': 3.22, 'roll': -0.19}
{'lipoC2': 0.0, 'temp': 0.0, 'lipoC3S3': 11.9, 'state': 'normal', 'rot1': 183, 'rot0': 205, 'rot3': 7, 'rot2': 7, 'depth': 0.394, 'yaw': 12.31, 'datetime': '2018-12-18 20:43:51.274832', 'mgs': 0, 'flw2': 0.43, 'flw1': 0.41, 'flw0': 2.92, 'time': 32.58, 'compass': -29.0, 'pitch': 2.41, 'roll': -0.1}
{'lipoC2': 0.09, 'temp': 0.0, 'lipoC3S3': 11.68, 'state': 'normal', 'rot1': 186, 'rot0': 214, 'rot3': 7, 'rot2': 7, 'depth': 1.157, 'yaw': 10.86, 'datetime': '2018-12-18 20:43:51.482787', 'mgs': 0, 'flw2': 0.67, 'flw1': 0.0, 'flw0': 2.91, 'time': 32.78, 'compass': -30.45, 'pitch': 2.22, 'roll': -0.13}
{'lipoC2': 0.17, 'temp': 0.0, 'lipoC3S3': 11.79, 'state': 'normal', 'rot1': 188, 'rot0': 223, 'rot3': 7, 'rot2': 7, 'depth': -0.293, 'yaw': 8.38, 'datetime': '2018-12-18 20:43:51.689890', 'mgs': 0, 'flw2': 0.89, 'flw1': 0.15, 'flw0': 2.42, 'time': 32.99, 'compass': -32.93, 'pitch': 2.74, 'roll': -0.28}
{'lipoC2': 0.0, 'temp': 0.0, 'lipoC3S3': 12.12, 'state': 'normal', 'rot1': 190, 'rot0': 226, 'rot3': 7, 'rot2': 7, 'depth': 1.691, 'yaw': 5.67, 'datetime': '2018-12-18 20:43:51.899343', 'mgs': 0, 'flw2': 0.83, 'flw1': 0.29, 'flw0': 2.66, 'time': 33.2, 'compass': -35.64, 'pitch': 2.97, 'roll': -0.27}
{'lipoC2': 0.0, 'temp': 0.0, 'lipoC3S3': 11.8, 'state': 'normal', 'rot1': 193, 'rot0': 230, 'rot3': 7, 'rot2': 7, 'depth': -1.132, 'yaw': 2.18, 'datetime': '2018-12-18 20:43:52.111289', 'mgs': 0, 'flw2': 0.65, 'flw1': 0.56, 'flw0': 2.81, 'time': 33.41, 'compass': -39.13, 'pitch': 2.67, 'roll': -0.28}
{'lipoC2': 0.13, 'temp': 0.0, 'lipoC3S3': 11.89, 'state': 'normal', 'rot1': 195, 'rot0': 237, 'rot3': 7, 'rot2': 7, 'depth': -1.666, 'yaw': -1.54, 'datetime': '2018-12-18 20:43:52.317515', 'mgs': 0, 'flw2': 0.95, 'flw1': 0.0, 'flw0': 2.6, 'time': 33.62, 'compass': -42.84, 'pitch': 2.46, 'roll': -0.21}
{'lipoC2': 0.03, 'temp': 0.0, 'lipoC3S3': 12.05, 'state': 'normal', 'rot1': 196, 'rot0': 239, 'rot3': 7, 'rot2': 7, 'depth': -0.064, 'yaw': -5.12, 'datetime': '2018-12-18 20:43:52.528085', 'mgs': 0, 'flw2': 0.0, 'flw1': 0.06, 'flw0': 0.22, 'time': 33.83, 'compass': -46.43, 'pitch': 2.08, 'roll': -0.02}
{'lipoC2': 0.09, 'temp': 0.0, 'lipoC3S3': 11.93, 'state': 'normal', 'rot1': 196, 'rot0': 239, 'rot3': 7, 'rot2': 7, 'depth': -2.048, 'yaw': -7.7, 'datetime': '2018-12-18 20:43:52.736379', 'mgs': 0, 'flw2': 0.0, 'flw1': 0.26, 'flw0': 0.09, 'time': 34.04, 'compass': -49.0, 'pitch': 0.7, 'roll': 0.38}
{'lipoC2': 0.11, 'temp': 0.0, 'lipoC3S3': 11.71, 'state': 'normal', 'rot1': 196, 'rot0': 240, 'rot3': 7, 'rot2': 7, 'depth': 0.012, 'yaw': -9.61, 'datetime': '2018-12-18 20:43:52.946040', 'mgs': 0, 'flw2': 0.0, 'flw1': 0.0, 'flw0': 0.22, 'time': 34.25, 'compass': -50.92, 'pitch': -0.12, 'roll': 0.73}
{'lipoC2': 0.12, 'temp': 0.0, 'lipoC3S3': 12.05, 'state': 'normal', 'rot1': 197, 'rot0': 243, 'rot3': 7, 'rot2': 7, 'depth': -2.353, 'yaw': -11.25, 'datetime': '2018-12-18 20:43:53.151201', 'mgs': 0, 'flw2': 0.55, 'flw1': 0.26, 'flw0': 0.63, 'time': 34.46, 'compass': -52.56, 'pitch': 0.23, 'roll': 0.82}
{'lipoC2': 0.17, 'temp': 0.0, 'lipoC3S3': 11.71, 'state': 'normal', 'rot1': 198, 'rot0': 247, 'rot3': 7, 'rot2': 7, 'depth': 0.241, 'yaw': -11.88, 'datetime': '2018-12-18 20:43:53.360988', 'mgs': 0, 'flw2': 0.54, 'flw1': 0.21, 'flw0': 0.13, 'time': 34.67, 'compass': -53.19, 'pitch': 0.99, 'roll': 0.74}
{'lipoC2': 0.12, 'temp': 0.0, 'lipoC3S3': 11.85, 'state': 'normal', 'rot1': 200, 'rot0': 250, 'rot3': 7, 'rot2': 7, 'depth': 2.148, 'yaw': -11.58, 'datetime': '2018-12-18 20:43:53.573089', 'mgs': 0, 'flw2': 0.27, 'flw1': 0.47, 'flw0': 0.23, 'time': 34.88, 'compass': -52.89, 'pitch': 1.04, 'roll': 0.53}
{'lipoC2': 0.13, 'temp': 0.0, 'lipoC3S3': 11.71, 'state': 'normal', 'rot1': 201, 'rot0': 254, 'rot3': 7, 'rot2': 7, 'depth': 1.004, 'yaw': -10.66, 'datetime': '2018-12-18 20:43:53.783753', 'mgs': 0, 'flw2': 0.44, 'flw1': 0.32, 'flw0': 0.15, 'time': 35.08, 'compass': -51.96, 'pitch': 0.62, 'roll': 0.41}
{'lipoC2': 0.0, 'temp': 0.0, 'lipoC3S3': 11.98, 'state': 'normal', 'rot1': 202, 'rot0': 257, 'rot3': 7, 'rot2': 7, 'depth': 0.546, 'yaw': -9.26, 'datetime': '2018-12-18 20:43:53.993410', 'mgs': 0, 'flw2': 0.28, 'flw1': 0.0, 'flw0': 0.52, 'time': 35.29, 'compass': -50.57, 'pitch': 0.58, 'roll': 0.37}
{'lipoC2': 0.0, 'temp': 0.0, 'lipoC3S3': 12.1, 'state': 'normal', 'rot1': 203, 'rot0': 260, 'rot3': 7, 'rot2': 7, 'depth': 1.614, 'yaw': -9.2, 'datetime': '2018-12-18 20:43:54.201411', 'mgs': 0, 'flw2': 0.44, 'flw1': 0.29, 'flw0': 0.16, 'time': 35.5, 'compass': -50.51, 'pitch': 0.82, 'roll': 0.47}
{'lipoC2': 0.09, 'temp': 0.0, 'lipoC3S3': 11.97, 'state': 'normal', 'rot1': 204, 'rot0': 267, 'rot3': 7, 'rot2': 7, 'depth': -1.971, 'yaw': -7.3, 'datetime': '2018-12-18 20:43:54.415994', 'mgs': 0, 'flw2': 0.02, 'flw1': 0.26, 'flw0': 0.42, 'time': 35.71, 'compass': -48.61, 'pitch': 0.82, 'roll': 0.46}
{'lipoC2': 0.12, 'temp': 0.0, 'lipoC3S3': 11.9, 'state': 'normal', 'rot1': 205, 'rot0': 275, 'rot3': 7, 'rot2': 7, 'depth': -1.666, 'yaw': -5.23, 'datetime': '2018-12-18 20:43:54.618721', 'mgs': 0, 'flw2': 0.56, 'flw1': 0.0, 'flw0': 0.21, 'time': 35.92, 'compass': -46.54, 'pitch': 0.52, 'roll': 0.62}
{'lipoC2': 0.14, 'temp': 0.0, 'lipoC3S3': 11.72, 'state': 'normal', 'rot1': 206, 'rot0': 280, 'rot3': 7, 'rot2': 7, 'depth': 0.241, 'yaw': -3.1, 'datetime': '2018-12-18 20:43:54.830708', 'mgs': 0, 'flw2': 0.45, 'flw1': 0.29, 'flw0': 0.18, 'time': 36.13, 'compass': -44.4, 'pitch': 0.23, 'roll': 0.88}
{'lipoC2': 0.08, 'temp': 0.0, 'lipoC3S3': 11.68, 'state': 'normal', 'rot1': 207, 'rot0': 281, 'rot3': 7, 'rot2': 7, 'depth': 0.012, 'yaw': -0.37, 'datetime': '2018-12-18 20:43:55.040634', 'mgs': 0, 'flw2': 0.0, 'flw1': 0.0, 'flw0': 0.0, 'time': 36.34, 'compass': -41.68, 'pitch': 0.06, 'roll': 1.04}
{'lipoC2': 0.11, 'temp': 0.0, 'lipoC3S3': 11.92, 'state': 'normal', 'rot1': 207, 'rot0': 281, 'rot3': 7, 'rot2': 7, 'depth': -1.971, 'yaw': 2.47, 'datetime': '2018-12-18 20:43:55.247866', 'mgs': 0, 'flw2': 0.0, 'flw1': 0.38, 'flw0': 0.05, 'time': 36.55, 'compass': -38.84, 'pitch': 0.0, 'roll': 0.85}
{'lipoC2': 0.15, 'temp': 0.0, 'lipoC3S3': 11.72, 'state': 'normal', 'rot1': 207, 'rot0': 281, 'rot3': 7, 'rot2': 7, 'depth': 0.241, 'yaw': 4.82, 'datetime': '2018-12-18 20:43:55.459082', 'mgs': 0, 'flw2': 0.16, 'flw1': 0.12, 'flw0': 0.22, 'time': 36.76, 'compass': -36.49, 'pitch': -0.22, 'roll': 0.47}
{'lipoC2': 0.0, 'temp': 0.0, 'lipoC3S3': 11.92, 'state': 'normal', 'rot1': 208, 'rot0': 286, 'rot3': 7, 'rot2': 7, 'depth': -0.293, 'yaw': 6.97, 'datetime': '2018-12-18 20:43:55.667099', 'mgs': 0, 'flw2': 2.98, 'flw1': 0.0, 'flw0': 2.62, 'time': 36.96, 'compass': -34.34, 'pitch': 0.5, 'roll': 0.12}
{'lipoC2': 0.08, 'temp': 0.0, 'lipoC3S3': 11.93, 'state': 'normal', 'rot1': 211, 'rot0': 297, 'rot3': 7, 'rot2': 7, 'depth': -2.048, 'yaw': 8.81, 'datetime': '2018-12-18 20:43:55.874897', 'mgs': 0, 'flw2': 2.39, 'flw1': 0.41, 'flw0': 2.8, 'time': 37.17, 'compass': -32.5, 'pitch': 3.29, 'roll': 0.02}
{'lipoC2': 0.0, 'temp': 0.0, 'lipoC3S3': 11.81, 'state': 'normal', 'rot1': 213, 'rot0': 299, 'rot3': 7, 'rot2': 7, 'depth': 0.012, 'yaw': 10.62, 'datetime': '2018-12-18 20:43:56.084914', 'mgs': 0, 'flw2': 2.75, 'flw1': 0.59, 'flw0': 2.8, 'time': 37.38, 'compass': -30.68, 'pitch': 5.1, 'roll': 0.23}
{'lipoC2': 0.0, 'temp': 0.0, 'lipoC3S3': 11.77, 'state': 'normal', 'rot1': 216, 'rot0': 301, 'rot3': 7, 'rot2': 7, 'depth': 1.462, 'yaw': 11.5, 'datetime': '2018-12-18 20:43:56.294511', 'mgs': 0, 'flw2': 0.87, 'flw1': 0.0, 'flw0': 2.95, 'time': 37.59, 'compass': -29.81, 'pitch': 4.71, 'roll': 0.5}
{'lipoC2': 0.04, 'temp': 0.0, 'lipoC3S3': 11.88, 'state': 'normal', 'rot1': 218, 'rot0': 303, 'rot3': 7, 'rot2': 7, 'depth': -1.666, 'yaw': 10.38, 'datetime': '2018-12-18 20:43:56.503532', 'mgs': 0, 'flw2': 0.96, 'flw1': 0.0, 'flw0': 2.49, 'time': 37.8, 'compass': -30.93, 'pitch': 2.93, 'roll': 0.51}
{'lipoC2': 0.15, 'temp': 0.0, 'lipoC3S3': 11.89, 'state': 'normal', 'rot1': 220, 'rot0': 308, 'rot3': 7, 'rot2': 7, 'depth': -0.98, 'yaw': 8.06, 'datetime': '2018-12-18 20:43:56.718064', 'mgs': 0, 'flw2': 0.54, 'flw1': 0.5, 'flw0': 2.84, 'time': 38.01, 'compass': -33.25, 'pitch': 2.31, 'roll': 0.28}
{'lipoC2': 0.09, 'temp': 0.0, 'lipoC3S3': 11.93, 'state': 'normal', 'rot1': 222, 'rot0': 317, 'rot3': 7, 'rot2': 7, 'depth': -1.971, 'yaw': 5.29, 'datetime': '2018-12-18 20:43:56.922759', 'mgs': 0, 'flw2': 2.86, 'flw1': 0.0, 'flw0': 2.48, 'time': 38.22, 'compass': -36.02, 'pitch': 3.3, 'roll': -0.02}
{'lipoC2': 0.0, 'temp': 0.0, 'lipoC3S3': 12.02, 'state': 'normal', 'rot1': 225, 'rot0': 320, 'rot3': 7, 'rot2': 7, 'depth': 1.385, 'yaw': 3.39, 'datetime': '2018-12-18 20:43:57.132412', 'mgs': 0, 'flw2': 2.53, 'flw1': 0.29, 'flw0': 2.77, 'time': 38.43, 'compass': -37.92, 'pitch': 4.73, 'roll': -0.23}
{'lipoC2': 0.18, 'temp': 0.0, 'lipoC3S3': 11.85, 'state': 'normal', 'rot1': 227, 'rot0': 322, 'rot3': 7, 'rot2': 7, 'depth': -1.056, 'yaw': 1.74, 'datetime': '2018-12-18 20:43:57.342835', 'mgs': 0, 'flw2': 2.75, 'flw1': 0.5, 'flw0': 2.61, 'time': 38.63, 'compass': -39.57, 'pitch': 5.15, 'roll': -0.24}
{'lipoC2': 0.0, 'temp': 0.0, 'lipoC3S3': 12.04, 'state': 'normal', 'rot1': 229, 'rot0': 324, 'rot3': 7, 'rot2': 7, 'depth': 1.462, 'yaw': 0.18, 'datetime': '2018-12-18 20:43:57.552582', 'mgs': 0, 'flw2': 0.17, 'flw1': 0.0, 'flw0': 0.0, 'time': 38.85, 'compass': -41.13, 'pitch': 4.59, 'roll': -0.13}
{'lipoC2': 0.17, 'temp': 0.0, 'lipoC3S3': 11.87, 'state': 'normal', 'rot1': 229, 'rot0': 324, 'rot3': 7, 'rot2': 7, 'depth': -1.132, 'yaw': -1.12, 'datetime': '2018-12-18 20:43:57.763594', 'mgs': 0, 'flw2': 0.0, 'flw1': 0.0, 'flw0': 0.06, 'time': 39.06, 'compass': -42.43, 'pitch': 1.71, 'roll': 0.24}
{'lipoC2': 0.13, 'temp': 0.0, 'lipoC3S3': 11.89, 'state': 'normal', 'rot1': 229, 'rot0': 324, 'rot3': 7, 'rot2': 7, 'depth': -1.666, 'yaw': -1.92, 'datetime': '2018-12-18 20:43:57.970489', 'mgs': 0, 'flw2': 0.2, 'flw1': 0.0, 'flw0': 0.0, 'time': 39.26, 'compass': -43.22, 'pitch': -0.5, 'roll': 0.55}
{'lipoC2': 0.09, 'temp': 0.0, 'lipoC3S3': 11.67, 'state': 'normal', 'rot1': 229, 'rot0': 324, 'rot3': 7, 'rot2': 7, 'depth': 1.004, 'yaw': -3.45, 'datetime': '2018-12-18 20:43:58.176774', 'mgs': 0, 'flw2': 0.26, 'flw1': 0.0, 'flw0': 0.0, 'time': 39.47, 'compass': -44.76, 'pitch': -0.41, 'roll': 0.53}
{'lipoC2': 0.0, 'temp': 0.0, 'lipoC3S3': 12.1, 'state': 'normal', 'rot1': 230, 'rot0': 329, 'rot3': 7, 'rot2': 7, 'depth': 1.614, 'yaw': -4.58, 'datetime': '2018-12-18 20:43:58.385030', 'mgs': 0, 'flw2': 0.44, 'flw1': 0.35, 'flw0': 0.2, 'time': 39.68, 'compass': -45.89, 'pitch': 0.59, 'roll': 0.33}
{'lipoC2': 0.16, 'temp': 0.0, 'lipoC3S3': 11.89, 'state': 'normal', 'rot1': 231, 'rot0': 336, 'rot3': 7, 'rot2': 7, 'depth': -0.98, 'yaw': -4.38, 'datetime': '2018-12-18 20:43:58.594511', 'mgs': 0, 'flw2': 0.12, 'flw1': 0.47, 'flw0': 0.33, 'time': 39.89, 'compass': -45.69, 'pitch': 0.65, 'roll': 0.32}
{'lipoC2': 0.17, 'temp': 0.0, 'lipoC3S3': 11.87, 'state': 'normal', 'rot1': 232, 'rot0': 342, 'rot3': 7, 'rot2': 7, 'depth': -0.751, 'yaw': -3.28, 'datetime': '2018-12-18 20:43:58.804990', 'mgs': 0, 'flw2': 0.55, 'flw1': 0.0, 'flw0': 0.39, 'time': 40.1, 'compass': -44.58, 'pitch': 0.04, 'roll': 0.32}
{'lipoC2': 0.0, 'temp': 0.0, 'lipoC3S3': 11.81, 'state': 'normal', 'rot1': 233, 'rot0': 345, 'rot3': 7, 'rot2': 7, 'depth': -1.208, 'yaw': -1.66, 'datetime': '2018-12-18 20:43:59.019358', 'mgs': 0, 'flw2': 0.0, 'flw1': 0.41, 'flw0': 0.0, 'time': 40.31, 'compass': -42.97, 'pitch': -0.18, 'roll': 0.33}
{'lipoC2': 0.04, 'temp': 0.0, 'lipoC3S3': 11.97, 'state': 'normal', 'rot1': 233, 'rot0': 345, 'rot3': 7, 'rot2': 7, 'depth': -1.895, 'yaw': -0.21, 'datetime': '2018-12-18 20:43:59.226682', 'mgs': 0, 'flw2': 0.0, 'flw1': 0.0, 'flw0': 0.22, 'time': 40.52, 'compass': -41.52, 'pitch': 0.11, 'roll': 0.32}
{'lipoC2': 0.0, 'temp': 0.0, 'lipoC3S3': 11.89, 'state': 'normal', 'rot1': 233, 'rot0': 345, 'rot3': 7, 'rot2': 7, 'depth': 0.317, 'yaw': 1.0, 'datetime': '2018-12-18 20:43:59.437182', 'mgs': 0, 'flw2': 0.22, 'flw1': 0.0, 'flw0': 0.0, 'time': 40.72, 'compass': -40.31, 'pitch': 0.22, 'roll': 0.32}
{'lipoC2': 0.0, 'temp': 0.0, 'lipoC3S3': 11.92, 'state': 'normal', 'rot1': 233, 'rot0': 345, 'rot3': 7, 'rot2': 7, 'depth': 0.012, 'yaw': 2.06, 'datetime': '2018-12-18 20:43:59.643816', 'mgs': 0, 'flw2': 0.16, 'flw1': 0.0, 'flw0': 0.0, 'time': 40.93, 'compass': -39.24, 'pitch': 0.04, 'roll': 0.31}
{'lipoC2': 0.0, 'temp': 0.0, 'lipoC3S3': 12.12, 'state': 'normal', 'rot1': 233, 'rot0': 345, 'rot3': 7, 'rot2': 7, 'depth': 1.691, 'yaw': 2.95, 'datetime': '2018-12-18 20:43:59.853841', 'mgs': 0, 'flw2': 3.1, 'flw1': 0.38, 'flw0': 3.16, 'time': 41.14, 'compass': -38.36, 'pitch': -0.27, 'roll': 0.36}
{'lipoC2': 0.03, 'temp': 0.0, 'lipoC3S3': 11.68, 'state': 'normal', 'rot1': 235, 'rot0': 354, 'rot3': 7, 'rot2': 7, 'depth': 1.691, 'yaw': 3.58, 'datetime': '2018-12-18 20:44:00.065888', 'mgs': 0, 'flw2': 2.94, 'flw1': 0.09, 'flw0': 2.53, 'time': 41.35, 'compass': -37.73, 'pitch': 1.64, 'roll': 0.26}
{'lipoC2': 0.17, 'temp': 0.0, 'lipoC3S3': 11.87, 'state': 'normal', 'rot1': 238, 'rot0': 356, 'rot3': 7, 'rot2': 7, 'depth': -1.208, 'yaw': 3.92, 'datetime': '2018-12-18 20:44:00.274337', 'mgs': 0, 'flw2': 2.7, 'flw1': 0.56, 'flw0': 2.73, 'time': 41.56, 'compass': -37.39, 'pitch': 4.12, 'roll': 0.04}
{'lipoC2': 0.18, 'temp': 0.0, 'lipoC3S3': 11.83, 'state': 'normal', 'rot1': 240, 'rot0': 359, 'rot3': 7, 'rot2': 7, 'depth': 1.233, 'yaw': 4.02, 'datetime': '2018-12-18 20:44:00.483110', 'mgs': 0, 'flw2': 2.8, 'flw1': 0.5, 'flw0': 2.66, 'time': 41.77, 'compass': -37.29, 'pitch': 4.51, 'roll': 0.07}
{'lipoC2': 0.09, 'temp': 0.0, 'lipoC3S3': 11.92, 'state': 'normal', 'rot1': 242, 'rot0': 361, 'rot3': 7, 'rot2': 7, 'depth': -1.666, 'yaw': 3.51, 'datetime': '2018-12-18 20:44:00.692879', 'mgs': 0, 'flw2': 3.05, 'flw1': 0.0, 'flw0': 2.49, 'time': 41.98, 'compass': -37.8, 'pitch': 3.88, 'roll': 0.38}
{'lipoC2': 0.15, 'temp': 0.0, 'lipoC3S3': 11.89, 'state': 'normal', 'rot1': 244, 'rot0': 364, 'rot3': 7, 'rot2': 7, 'depth': -1.514, 'yaw': 1.91, 'datetime': '2018-12-18 20:44:00.902512', 'mgs': 0, 'flw2': 2.94, 'flw1': 0.0, 'flw0': 2.77, 'time': 42.19, 'compass': -39.4, 'pitch': 3.94, 'roll': 0.65}
{'lipoC2': 0.0, 'temp': 0.0, 'lipoC3S3': 11.88, 'state': 'normal', 'rot1': 246, 'rot0': 366, 'rot3': 7, 'rot2': 7, 'depth': 0.851, 'yaw': 0.69, 'datetime': '2018-12-18 20:44:01.110022', 'mgs': 0, 'flw2': 2.86, 'flw1': 0.0, 'flw0': 2.78, 'time': 42.4, 'compass': -40.62, 'pitch': 4.55, 'roll': 0.63}
