{'lipoC2': 7.08, 'temp': 0.0, 'lipoC3S3': 11.25, 'state': 'normal', 'rot1': 0, 'rot0': 0, 'rot3': 0, 'rot2': 0, 'depth': 0.546, 'yaw': 0.0, 'datetime': '2018-12-12 14:48:53.489317', 'mgs': 0, 'flw2': 0.0, 'flw1': 0.0, 'flw0': 0.17, 'time': 1.25, 'compass': 82.68, 'pitch': -3.07, 'roll': -1.17}
{'lipoC2': 7.23, 'temp': 0.0, 'lipoC3S3': 11.0, 'state': 'normal', 'rot1': 0, 'rot0': 0, 'rot3': 0, 'rot2': 0, 'depth': 0.546, 'yaw': 0.73, 'datetime': '2018-12-12 14:48:53.697308', 'mgs': 0, 'flw2': 0.04, 'flw1': 0.0, 'flw0': 0.12, 'time': 1.46, 'compass': 83.41, 'pitch': -2.99, 'roll': -1.47}
{'lipoC2': 7.2, 'temp': 0.0, 'lipoC3S3': 11.3, 'state': 'normal', 'rot1': 0, 'rot0': 0, 'rot3': 0, 'rot2': 0, 'depth': -1.437, 'yaw': 1.43, 'datetime': '2018-12-12 14:48:53.905396', 'mgs': 0, 'flw2': 0.07, 'flw1': 0.0, 'flw0': 0.0, 'time': 1.67, 'compass': 84.11, 'pitch': -2.32, 'roll': -1.21}
{'lipoC2': 7.11, 'temp': 0.0, 'lipoC3S3': 11.17, 'state': 'normal', 'rot1': 0, 'rot0': 0, 'rot3': 0, 'rot2': 0, 'depth': 0.623, 'yaw': 2.1, 'datetime': '2018-12-12 14:48:54.112612', 'mgs': 0, 'flw2': 0.0, 'flw1': 0.06, 'flw0': 0.0, 'time': 1.88, 'compass': 84.78, 'pitch': -1.71, 'roll': -0.7}
{'lipoC2': 7.14, 'temp': 0.0, 'lipoC3S3': 11.23, 'state': 'normal', 'rot1': 0, 'rot0': 0, 'rot3': 0, 'rot2': 0, 'depth': 1.614, 'yaw': 2.73, 'datetime': '2018-12-12 14:48:54.320815', 'mgs': 0, 'flw2': 0.18, 'flw1': 0.0, 'flw0': 0.0, 'time': 2.09, 'compass': 85.4, 'pitch': -1.89, 'roll': -0.51}
{'lipoC2': 7.1, 'temp': 0.0, 'lipoC3S3': 11.09, 'state': 'normal', 'rot1': 0, 'rot0': 0, 'rot3': 0, 'rot2': 0, 'depth': -0.369, 'yaw': 3.32, 'datetime': '2018-12-12 14:48:54.528317', 'mgs': 0, 'flw2': 0.11, 'flw1': 0.0, 'flw0': 0.0, 'time': 2.29, 'compass': 85.99, 'pitch': -2.46, 'roll': -0.61}
{'lipoC2': 7.12, 'temp': 0.0, 'lipoC3S3': 10.96, 'state': 'normal', 'rot1': 0, 'rot0': 0, 'rot3': 0, 'rot2': 0, 'depth': -0.522, 'yaw': 3.89, 'datetime': '2018-12-12 14:48:54.736313', 'mgs': 0, 'flw2': 0.0, 'flw1': 0.0, 'flw0': 0.0, 'time': 2.5, 'compass': 86.57, 'pitch': -2.79, 'roll': -0.67}
{'lipoC2': 7.19, 'temp': 0.0, 'lipoC3S3': 11.35, 'state': 'normal', 'rot1': 0, 'rot0': 0, 'rot3': 0, 'rot2': 0, 'depth': -0.217, 'yaw': 4.43, 'datetime': '2018-12-12 14:48:54.956840', 'mgs': 0, 'flw2': 0.0, 'flw1': 0.56, 'flw0': 0.0, 'time': 2.71, 'compass': 87.1, 'pitch': -2.77, 'roll': -0.84}
{'lipoC2': 7.18, 'temp': 0.0, 'lipoC3S3': 11.18, 'state': 'normal', 'rot1': 0, 'rot0': 0, 'rot3': 0, 'rot2': 0, 'depth': -0.674, 'yaw': 5.11, 'datetime': '2018-12-12 14:48:55.267322', 'mgs': 0, 'flw2': 0.0, 'flw1': 0.0, 'flw0': 0.0, 'time': 3.02, 'compass': 87.79, 'pitch': -2.41, 'roll': -1.21}
{'lipoC2': 7.22, 'temp': 0.0, 'lipoC3S3': 11.3, 'state': 'normal', 'rot1': 0, 'rot0': 0, 'rot3': 0, 'rot2': 0, 'depth': 1.004, 'yaw': 5.54, 'datetime': '2018-12-12 14:48:55.470931', 'mgs': 0, 'flw2': 0.06, 'flw1': 0.0, 'flw0': 0.0, 'time': 3.23, 'compass': 88.22, 'pitch': -1.99, 'roll': -1.28}
{'lipoC2': 7.07, 'temp': 0.0, 'lipoC3S3': 11.25, 'state': 'normal', 'rot1': 0, 'rot0': 0, 'rot3': 0, 'rot2': 0, 'depth': 0.241, 'yaw': 5.98, 'datetime': '2018-12-12 14:48:55.680994', 'mgs': 0, 'flw2': 0.13, 'flw1': 0.0, 'flw0': 0.0, 'time': 3.43, 'compass': 88.66, 'pitch': -1.8, 'roll': -1.16}
{'lipoC2': 7.23, 'temp': 0.0, 'lipoC3S3': 11.15, 'state': 'normal', 'rot1': 0, 'rot0': 0, 'rot3': 0, 'rot2': 0, 'depth': -1.437, 'yaw': 6.35, 'datetime': '2018-12-12 14:48:55.890736', 'mgs': 0, 'flw2': 0.0, 'flw1': 0.29, 'flw0': 0.0, 'time': 3.64, 'compass': 89.03, 'pitch': -2.14, 'roll': -0.82}
{'lipoC2': 7.24, 'temp': 0.0, 'lipoC3S3': 11.25, 'state': 'normal', 'rot1': 0, 'rot0': 0, 'rot3': 0, 'rot2': 0, 'depth': 1.538, 'yaw': 6.66, 'datetime': '2018-12-12 14:48:56.094636', 'mgs': 0, 'flw2': 0.0, 'flw1': 0.44, 'flw0': 0.0, 'time': 3.85, 'compass': 89.34, 'pitch': -2.68, 'roll': -0.38}
{'lipoC2': 7.27, 'temp': 0.0, 'lipoC3S3': 11.18, 'state': 'normal', 'rot1': 0, 'rot0': 0, 'rot3': 0, 'rot2': 0, 'depth': -0.369, 'yaw': 7.16, 'datetime': '2018-12-12 14:48:56.400952', 'mgs': 0, 'flw2': 0.0, 'flw1': 0.59, 'flw0': 0.0, 'time': 4.16, 'compass': 89.84, 'pitch': -2.3, 'roll': -0.24}
{'lipoC2': 7.1, 'temp': 0.0, 'lipoC3S3': 11.47, 'state': 'normal', 'rot1': 0, 'rot0': 0, 'rot3': 0, 'rot2': 0, 'depth': -1.132, 'yaw': 7.55, 'datetime': '2018-12-12 14:48:56.711848', 'mgs': 0, 'flw2': 0.0, 'flw1': 0.47, 'flw0': 0.05, 'time': 4.47, 'compass': 90.23, 'pitch': -2.16, 'roll': -1.27}
{'lipoC2': 7.44, 'temp': 0.0, 'lipoC3S3': 11.02, 'state': 'normal', 'rot1': 0, 'rot0': 0, 'rot3': 0, 'rot2': 0, 'depth': 1.08, 'yaw': 7.77, 'datetime': '2018-12-12 14:48:56.931347', 'mgs': 0, 'flw2': 0.0, 'flw1': 0.0, 'flw0': 0.05, 'time': 4.68, 'compass': 90.44, 'pitch': -2.48, 'roll': -1.79}
{'lipoC2': 7.28, 'temp': 0.0, 'lipoC3S3': 11.0, 'state': 'normal', 'rot1': 0, 'rot0': 0, 'rot3': 0, 'rot2': 0, 'depth': -0.369, 'yaw': 8.15, 'datetime': '2018-12-12 14:48:57.234537', 'mgs': 0, 'flw2': 0.04, 'flw1': 0.73, 'flw0': 0.0, 'time': 4.99, 'compass': 90.83, 'pitch': -2.53, 'roll': -1.37}
{'lipoC2': 7.38, 'temp': 0.0, 'lipoC3S3': 11.0, 'state': 'normal', 'rot1': 0, 'rot0': 0, 'rot3': 0, 'rot2': 0, 'depth': -0.14, 'yaw': 8.37, 'datetime': '2018-12-12 14:48:57.442678', 'mgs': 0, 'flw2': 0.04, 'flw1': 0.0, 'flw0': 0.1, 'time': 5.2, 'compass': 91.05, 'pitch': -2.53, 'roll': -0.83}
{'lipoC2': 7.07, 'temp': 0.0, 'lipoC3S3': 11.18, 'state': 'normal', 'rot1': 0, 'rot0': 0, 'rot3': 0, 'rot2': 0, 'depth': 0.546, 'yaw': 8.61, 'datetime': '2018-12-12 14:48:57.653897', 'mgs': 0, 'flw2': 0.0, 'flw1': 0.5, 'flw0': 0.0, 'time': 5.41, 'compass': 91.28, 'pitch': -2.52, 'roll': -0.59}
{'lipoC2': 7.24, 'temp': 0.0, 'lipoC3S3': 11.32, 'state': 'normal', 'rot1': 0, 'rot0': 0, 'rot3': 0, 'rot2': 0, 'depth': -0.522, 'yaw': 8.82, 'datetime': '2018-12-12 14:48:57.861604', 'mgs': 0, 'flw2': 0.0, 'flw1': 0.0, 'flw0': 0.18, 'time': 5.62, 'compass': 91.49, 'pitch': -2.7, 'roll': -0.74}
{'lipoC2': 7.21, 'temp': 0.0, 'lipoC3S3': 11.18, 'state': 'normal', 'rot1': 0, 'rot0': 0, 'rot3': 0, 'rot2': 0, 'depth': 1.385, 'yaw': 8.97, 'datetime': '2018-12-12 14:48:58.069348', 'mgs': 0, 'flw2': 0.13, 'flw1': 0.0, 'flw0': 0.0, 'time': 5.83, 'compass': 91.64, 'pitch': -2.84, 'roll': -0.91}
{'lipoC2': 7.21, 'temp': 0.0, 'lipoC3S3': 11.22, 'state': 'normal', 'rot1': 0, 'rot0': 0, 'rot3': 0, 'rot2': 0, 'depth': 1.614, 'yaw': 9.14, 'datetime': '2018-12-12 14:48:58.276338', 'mgs': 0, 'flw2': 0.0, 'flw1': 0.0, 'flw0': 0.0, 'time': 6.03, 'compass': 91.82, 'pitch': -2.58, 'roll': -1.11}
{'lipoC2': 7.1, 'temp': 0.0, 'lipoC3S3': 11.15, 'state': 'normal', 'rot1': 0, 'rot0': 0, 'rot3': 0, 'rot2': 0, 'depth': -0.522, 'yaw': 9.33, 'datetime': '2018-12-12 14:48:58.483501', 'mgs': 0, 'flw2': 0.26, 'flw1': 0.09, 'flw0': 0.0, 'time': 6.24, 'compass': 92.01, 'pitch': -2.0, 'roll': -1.5}
{'lipoC2': 7.1, 'temp': 0.0, 'lipoC3S3': 10.98, 'state': 'normal', 'rot1': 0, 'rot0': 0, 'rot3': 0, 'rot2': 0, 'depth': 1.691, 'yaw': 9.5, 'datetime': '2018-12-12 14:48:58.692530', 'mgs': 0, 'flw2': 0.0, 'flw1': 0.64, 'flw0': 0.55, 'time': 6.45, 'compass': 92.18, 'pitch': -1.86, 'roll': -1.72}
{'lipoC2': 7.43, 'temp': 0.0, 'lipoC3S3': 11.0, 'state': 'normal', 'rot1': 1, 'rot0': 0, 'rot3': 0, 'rot2': 0, 'depth': 0.546, 'yaw': 9.22, 'datetime': '2018-12-12 14:48:58.899960', 'mgs': 0, 'flw2': 0.0, 'flw1': 0.0, 'flw0': 1.48, 'time': 6.66, 'compass': 91.9, 'pitch': -2.04, 'roll': -1.57}
{'lipoC2': 7.21, 'temp': 0.0, 'lipoC3S3': 11.21, 'state': 'normal', 'rot1': 3, 'rot0': 0, 'rot3': 0, 'rot2': 0, 'depth': 1.462, 'yaw': 7.53, 'datetime': '2018-12-12 14:48:59.108739', 'mgs': 0, 'flw2': 0.0, 'flw1': 0.0, 'flw0': 1.78, 'time': 6.86, 'compass': 90.2, 'pitch': -1.58, 'roll': -1.35}
{'lipoC2': 7.44, 'temp': 0.0, 'lipoC3S3': 11.0, 'state': 'normal', 'rot1': 5, 'rot0': 1, 'rot3': 0, 'rot2': 0, 'depth': 1.385, 'yaw': 4.26, 'datetime': '2018-12-12 14:48:59.322777', 'mgs': 0, 'flw2': 0.77, 'flw1': 0.0, 'flw0': 2.23, 'time': 7.07, 'compass': 86.94, 'pitch': -0.46, 'roll': -1.39}
{'lipoC2': 7.13, 'temp': 0.0, 'lipoC3S3': 10.98, 'state': 'normal', 'rot1': 7, 'rot0': 2, 'rot3': 0, 'rot2': 0, 'depth': -0.522, 'yaw': -0.11, 'datetime': '2018-12-12 14:48:59.525522', 'mgs': 0, 'flw2': 1.5, 'flw1': 0.0, 'flw0': 2.12, 'time': 7.28, 'compass': 82.57, 'pitch': 0.54, 'roll': -1.68}
{'lipoC2': 7.09, 'temp': 0.0, 'lipoC3S3': 10.84, 'state': 'normal', 'rot1': 9, 'rot0': 4, 'rot3': 0, 'rot2': 0, 'depth': -0.14, 'yaw': -4.75, 'datetime': '2018-12-12 14:48:59.733051', 'mgs': 0, 'flw2': 1.06, 'flw1': 0.0, 'flw0': 2.19, 'time': 7.49, 'compass': 77.92, 'pitch': 0.66, 'roll': -1.78}
{'lipoC2': 7.23, 'temp': 0.0, 'lipoC3S3': 10.97, 'state': 'normal', 'rot1': 11, 'rot0': 5, 'rot3': 0, 'rot2': 0, 'depth': -0.827, 'yaw': -9.12, 'datetime': '2018-12-12 14:48:59.940803', 'mgs': 0, 'flw2': 1.89, 'flw1': 0.0, 'flw0': 2.14, 'time': 7.7, 'compass': 73.56, 'pitch': 0.5, 'roll': -1.7}
{'lipoC2': 7.3, 'temp': 0.0, 'lipoC3S3': 11.0, 'state': 'normal', 'rot1': 13, 'rot0': 7, 'rot3': 0, 'rot2': 0, 'depth': -0.598, 'yaw': -12.69, 'datetime': '2018-12-12 14:49:00.149458', 'mgs': 0, 'flw2': 2.01, 'flw1': 0.0, 'flw0': 1.97, 'time': 7.91, 'compass': 69.98, 'pitch': 1.13, 'roll': -1.64}
{'lipoC2': 7.11, 'temp': 0.0, 'lipoC3S3': 10.96, 'state': 'normal', 'rot1': 15, 'rot0': 9, 'rot3': 0, 'rot2': 0, 'depth': 1.767, 'yaw': -15.73, 'datetime': '2018-12-12 14:49:00.361398', 'mgs': 0, 'flw2': 1.86, 'flw1': 0.0, 'flw0': 2.34, 'time': 8.11, 'compass': 66.95, 'pitch': 2.19, 'roll': -1.51}
{'lipoC2': 7.21, 'temp': 0.0, 'lipoC3S3': 11.42, 'state': 'normal', 'rot1': 17, 'rot0': 11, 'rot3': 0, 'rot2': 0, 'depth': 0.165, 'yaw': -18.01, 'datetime': '2018-12-12 14:49:00.571508', 'mgs': 0, 'flw2': 2.2, 'flw1': 0.21, 'flw0': 2.11, 'time': 8.32, 'compass': 64.67, 'pitch': 2.29, 'roll': -1.37}
{'lipoC2': 7.28, 'temp': 0.0, 'lipoC3S3': 11.25, 'state': 'normal', 'rot1': 19, 'rot0': 13, 'rot3': 0, 'rot2': 0, 'depth': -0.903, 'yaw': -19.62, 'datetime': '2018-12-12 14:49:00.779787', 'mgs': 0, 'flw2': 2.2, 'flw1': 0.44, 'flw0': 2.17, 'time': 8.53, 'compass': 63.05, 'pitch': 1.57, 'roll': -1.29}
{'lipoC2': 7.1, 'temp': 0.0, 'lipoC3S3': 11.42, 'state': 'normal', 'rot1': 21, 'rot0': 15, 'rot3': 0, 'rot2': 0, 'depth': -1.056, 'yaw': -20.86, 'datetime': '2018-12-12 14:49:00.987366', 'mgs': 0, 'flw2': 2.25, 'flw1': 0.56, 'flw0': 2.77, 'time': 8.74, 'compass': 61.81, 'pitch': 1.03, 'roll': -1.3}
{'lipoC2': 7.2, 'temp': 0.0, 'lipoC3S3': 11.09, 'state': 'normal', 'rot1': 24, 'rot0': 18, 'rot3': 0, 'rot2': 0, 'depth': 0.851, 'yaw': -22.02, 'datetime': '2018-12-12 14:49:01.198672', 'mgs': 0, 'flw2': 2.27, 'flw1': 0.47, 'flw0': 2.78, 'time': 8.95, 'compass': 60.66, 'pitch': 1.34, 'roll': -1.43}
{'lipoC2': 7.21, 'temp': 0.0, 'lipoC3S3': 11.06, 'state': 'normal', 'rot1': 26, 'rot0': 20, 'rot3': 0, 'rot2': 0, 'depth': -0.674, 'yaw': -23.45, 'datetime': '2018-12-12 14:49:01.405526', 'mgs': 0, 'flw2': 2.42, 'flw1': 0.0, 'flw0': 2.83, 'time': 9.16, 'compass': 59.22, 'pitch': 1.86, 'roll': -1.61}
{'lipoC2': 7.11, 'temp': 0.0, 'lipoC3S3': 10.94, 'state': 'normal', 'rot1': 28, 'rot0': 22, 'rot3': 0, 'rot2': 0, 'depth': 2.682, 'yaw': -24.95, 'datetime': '2018-12-12 14:49:01.615916', 'mgs': 0, 'flw2': 2.77, 'flw1': 0.0, 'flw0': 2.72, 'time': 9.37, 'compass': 57.72, 'pitch': 1.59, 'roll': -1.79}
{'lipoC2': 7.27, 'temp': 0.0, 'lipoC3S3': 11.01, 'state': 'normal', 'rot1': 31, 'rot0': 24, 'rot3': 0, 'rot2': 0, 'depth': 0.241, 'yaw': -26.29, 'datetime': '2018-12-12 14:49:01.824082', 'mgs': 0, 'flw2': 2.26, 'flw1': 0.0, 'flw0': 3.11, 'time': 9.57, 'compass': 56.39, 'pitch': 1.12, 'roll': -1.89}
{'lipoC2': 7.29, 'temp': 0.0, 'lipoC3S3': 10.93, 'state': 'normal', 'rot1': 33, 'rot0': 26, 'rot3': 0, 'rot2': 0, 'depth': 2.148, 'yaw': -27.55, 'datetime': '2018-12-12 14:49:02.033531', 'mgs': 0, 'flw2': 2.84, 'flw1': 0.0, 'flw0': 2.94, 'time': 9.78, 'compass': 55.13, 'pitch': 1.25, 'roll': -2.05}
{'lipoC2': 7.33, 'temp': 0.0, 'lipoC3S3': 10.97, 'state': 'normal', 'rot1': 36, 'rot0': 29, 'rot3': 0, 'rot2': 0, 'depth': -1.59, 'yaw': -28.83, 'datetime': '2018-12-12 14:49:02.244517', 'mgs': 0, 'flw2': 2.91, 'flw1': 0.0, 'flw0': 2.81, 'time': 9.99, 'compass': 53.85, 'pitch': 1.85, 'roll': -1.97}
{'lipoC2': 7.08, 'temp': 0.0, 'lipoC3S3': 11.18, 'state': 'normal', 'rot1': 38, 'rot0': 31, 'rot3': 0, 'rot2': 0, 'depth': -0.14, 'yaw': -29.94, 'datetime': '2018-12-12 14:49:02.450900', 'mgs': 0, 'flw2': 3.25, 'flw1': 0.06, 'flw0': 3.11, 'time': 10.2, 'compass': 52.74, 'pitch': 1.75, 'roll': -1.77}
{'lipoC2': 7.12, 'temp': 0.0, 'lipoC3S3': 11.13, 'state': 'normal', 'rot1': 40, 'rot0': 34, 'rot3': 0, 'rot2': 0, 'depth': 1.157, 'yaw': -30.85, 'datetime': '2018-12-12 14:49:02.658596', 'mgs': 0, 'flw2': 3.36, 'flw1': 0.21, 'flw0': 2.97, 'time': 10.41, 'compass': 51.82, 'pitch': 1.4, 'roll': -1.69}
{'lipoC2': 7.07, 'temp': 0.0, 'lipoC3S3': 11.05, 'state': 'normal', 'rot1': 43, 'rot0': 36, 'rot3': 0, 'rot2': 0, 'depth': -0.522, 'yaw': -31.52, 'datetime': '2018-12-12 14:49:02.867412', 'mgs': 0, 'flw2': 3.67, 'flw1': 0.0, 'flw0': 2.95, 'time': 10.62, 'compass': 51.15, 'pitch': 1.49, 'roll': -1.77}
{'lipoC2': 7.07, 'temp': 0.0, 'lipoC3S3': 11.13, 'state': 'normal', 'rot1': 45, 'rot0': 39, 'rot3': 0, 'rot2': 0, 'depth': -0.293, 'yaw': -31.84, 'datetime': '2018-12-12 14:49:03.078153', 'mgs': 0, 'flw2': 3.38, 'flw1': 0.0, 'flw0': 3.15, 'time': 10.83, 'compass': 50.83, 'pitch': 1.87, 'roll': -1.8}
{'lipoC2': 7.13, 'temp': 0.0, 'lipoC3S3': 11.19, 'state': 'normal', 'rot1': 47, 'rot0': 41, 'rot3': 0, 'rot2': 0, 'depth': -0.064, 'yaw': -32.12, 'datetime': '2018-12-12 14:49:03.286602', 'mgs': 0, 'flw2': 3.3, 'flw1': 0.0, 'flw0': 3.08, 'time': 11.04, 'compass': 50.56, 'pitch': 2.13, 'roll': -1.71}
{'lipoC2': 7.54, 'temp': 0.0, 'lipoC3S3': 11.02, 'state': 'normal', 'rot1': 50, 'rot0': 44, 'rot3': 0, 'rot2': 0, 'depth': 1.538, 'yaw': -32.38, 'datetime': '2018-12-12 14:49:03.496688', 'mgs': 0, 'flw2': 3.52, 'flw1': 0.0, 'flw0': 3.11, 'time': 11.25, 'compass': 50.3, 'pitch': 2.12, 'roll': -1.65}
{'lipoC2': 7.21, 'temp': 0.0, 'lipoC3S3': 10.9, 'state': 'normal', 'rot1': 52, 'rot0': 47, 'rot3': 0, 'rot2': 0, 'depth': -0.674, 'yaw': -32.53, 'datetime': '2018-12-12 14:49:03.707573', 'mgs': 0, 'flw2': 4.13, 'flw1': 0.0, 'flw0': 2.97, 'time': 11.45, 'compass': 50.15, 'pitch': 1.93, 'roll': -1.75}
{'lipoC2': 7.1, 'temp': 0.0, 'lipoC3S3': 10.96, 'state': 'normal', 'rot1': 54, 'rot0': 50, 'rot3': 0, 'rot2': 0, 'depth': 0.089, 'yaw': -32.22, 'datetime': '2018-12-12 14:49:03.914604', 'mgs': 0, 'flw2': 4.68, 'flw1': 0.0, 'flw0': 2.75, 'time': 11.66, 'compass': 50.46, 'pitch': 1.96, 'roll': -1.69}
{'lipoC2': 7.1, 'temp': 0.0, 'lipoC3S3': 10.92, 'state': 'normal', 'rot1': 56, 'rot0': 53, 'rot3': 0, 'rot2': 0, 'depth': -0.064, 'yaw': -31.64, 'datetime': '2018-12-12 14:49:04.123118', 'mgs': 0, 'flw2': 4.48, 'flw1': 0.23, 'flw0': 2.67, 'time': 11.87, 'compass': 51.04, 'pitch': 2.42, 'roll': -1.66}
{'lipoC2': 7.3, 'temp': 0.0, 'lipoC3S3': 11.23, 'state': 'normal', 'rot1': 59, 'rot0': 56, 'rot3': 0, 'rot2': 0, 'depth': 0.851, 'yaw': -30.82, 'datetime': '2018-12-12 14:49:04.331255', 'mgs': 0, 'flw2': 4.7, 'flw1': 0.56, 'flw0': 2.92, 'time': 12.08, 'compass': 51.85, 'pitch': 2.76, 'roll': -1.65}
{'lipoC2': 7.13, 'temp': 0.0, 'lipoC3S3': 11.3, 'state': 'normal', 'rot1': 61, 'rot0': 59, 'rot3': 0, 'rot2': 0, 'depth': -1.437, 'yaw': -29.67, 'datetime': '2018-12-12 14:49:04.539657', 'mgs': 0, 'flw2': 4.47, 'flw1': 0.47, 'flw0': 3.08, 'time': 12.29, 'compass': 53.0, 'pitch': 2.75, 'roll': -1.52}
{'lipoC2': 7.3, 'temp': 0.0, 'lipoC3S3': 11.35, 'state': 'normal', 'rot1': 63, 'rot0': 62, 'rot3': 0, 'rot2': 0, 'depth': 0.623, 'yaw': -28.2, 'datetime': '2018-12-12 14:49:04.752661', 'mgs': 0, 'flw2': 4.59, 'flw1': 0.44, 'flw0': 2.94, 'time': 12.5, 'compass': 54.48, 'pitch': 2.79, 'roll': -1.34}
{'lipoC2': 7.33, 'temp': 0.0, 'lipoC3S3': 10.88, 'state': 'normal', 'rot1': 65, 'rot0': 65, 'rot3': 0, 'rot2': 0, 'depth': -0.293, 'yaw': -26.57, 'datetime': '2018-12-12 14:49:04.960479', 'mgs': 0, 'flw2': 4.86, 'flw1': 0.0, 'flw0': 2.87, 'time': 12.71, 'compass': 56.11, 'pitch': 2.62, 'roll': -1.0}
{'lipoC2': 7.18, 'temp': 0.0, 'lipoC3S3': 11.15, 'state': 'normal', 'rot1': 68, 'rot0': 67, 'rot3': 0, 'rot2': 0, 'depth': -0.064, 'yaw': -24.95, 'datetime': '2018-12-12 14:49:05.170958', 'mgs': 0, 'flw2': 3.56, 'flw1': 0.0, 'flw0': 3.08, 'time': 12.91, 'compass': 57.73, 'pitch': 2.36, 'roll': -0.38}
{'lipoC2': 7.38, 'temp': 0.0, 'lipoC3S3': 10.93, 'state': 'normal', 'rot1': 70, 'rot0': 70, 'rot3': 0, 'rot2': 0, 'depth': 0.241, 'yaw': -23.55, 'datetime': '2018-12-12 14:49:05.377991', 'mgs': 0, 'flw2': 2.88, 'flw1': 0.0, 'flw0': 2.29, 'time': 13.12, 'compass': 59.13, 'pitch': 2.26, 'roll': -0.06}
{'lipoC2': 7.14, 'temp': 0.0, 'lipoC3S3': 11.06, 'state': 'normal', 'rot1': 72, 'rot0': 72, 'rot3': 0, 'rot2': 0, 'depth': -0.369, 'yaw': -22.51, 'datetime': '2018-12-12 14:49:05.592060', 'mgs': 0, 'flw2': 2.37, 'flw1': 0.0, 'flw0': 2.62, 'time': 13.33, 'compass': 60.17, 'pitch': 1.84, 'roll': -0.25}
{'lipoC2': 7.27, 'temp': 0.0, 'lipoC3S3': 11.0, 'state': 'normal', 'rot1': 74, 'rot0': 75, 'rot3': 0, 'rot2': 0, 'depth': -0.827, 'yaw': -21.69, 'datetime': '2018-12-12 14:49:05.798219', 'mgs': 0, 'flw2': 2.38, 'flw1': 0.0, 'flw0': 2.5, 'time': 13.54, 'compass': 60.99, 'pitch': 1.55, 'roll': -0.8}
{'lipoC2': 7.42, 'temp': 0.0, 'lipoC3S3': 10.93, 'state': 'normal', 'rot1': 76, 'rot0': 77, 'rot3': 0, 'rot2': 0, 'depth': 1.385, 'yaw': -20.91, 'datetime': '2018-12-12 14:49:06.007109', 'mgs': 0, 'flw2': 2.83, 'flw1': 0.0, 'flw0': 2.2, 'time': 13.75, 'compass': 61.77, 'pitch': 1.65, 'roll': -0.91}
{'lipoC2': 7.12, 'temp': 0.0, 'lipoC3S3': 11.44, 'state': 'normal', 'rot1': 78, 'rot0': 79, 'rot3': 0, 'rot2': 0, 'depth': -0.903, 'yaw': -20.01, 'datetime': '2018-12-12 14:49:06.218005', 'mgs': 0, 'flw2': 2.53, 'flw1': 0.62, 'flw0': 2.21, 'time': 13.96, 'compass': 62.67, 'pitch': 1.74, 'roll': -0.58}
{'lipoC2': 7.36, 'temp': 0.0, 'lipoC3S3': 11.11, 'state': 'normal', 'rot1': 81, 'rot0': 81, 'rot3': 0, 'rot2': 0, 'depth': 0.317, 'yaw': -19.07, 'datetime': '2018-12-12 14:49:06.425680', 'mgs': 0, 'flw2': 2.64, 'flw1': 0.0, 'flw0': 2.62, 'time': 14.17, 'compass': 63.61, 'pitch': 1.73, 'roll': -0.15}
{'lipoC2': 7.08, 'temp': 0.0, 'lipoC3S3': 10.85, 'state': 'normal', 'rot1': 83, 'rot0': 84, 'rot3': 0, 'rot2': 0, 'depth': 1.767, 'yaw': -18.25, 'datetime': '2018-12-12 14:49:06.634295', 'mgs': 0, 'flw2': 2.87, 'flw1': 0.0, 'flw0': 2.34, 'time': 14.38, 'compass': 64.43, 'pitch': 1.85, 'roll': 0.24}
{'lipoC2': 7.34, 'temp': 0.0, 'lipoC3S3': 10.94, 'state': 'normal', 'rot1': 85, 'rot0': 86, 'rot3': 0, 'rot2': 0, 'depth': 2.301, 'yaw': -17.47, 'datetime': '2018-12-12 14:49:06.842747', 'mgs': 0, 'flw2': 2.93, 'flw1': 0.0, 'flw0': 2.23, 'time': 14.58, 'compass': 65.21, 'pitch': 1.75, 'roll': 0.23}
{'lipoC2': 7.23, 'temp': 0.0, 'lipoC3S3': 10.96, 'state': 'normal', 'rot1': 87, 'rot0': 89, 'rot3': 0, 'rot2': 0, 'depth': 1.462, 'yaw': -16.71, 'datetime': '2018-12-12 14:49:07.052676', 'mgs': 0, 'flw2': 2.64, 'flw1': 0.0, 'flw0': 2.14, 'time': 14.79, 'compass': 65.97, 'pitch': 1.6, 'roll': -0.12}
{'lipoC2': 7.26, 'temp': 0.0, 'lipoC3S3': 11.03, 'state': 'normal', 'rot1': 89, 'rot0': 91, 'rot3': 0, 'rot2': 0, 'depth': 1.92, 'yaw': -15.72, 'datetime': '2018-12-12 14:49:07.262226', 'mgs': 0, 'flw2': 2.75, 'flw1': 0.59, 'flw0': 2.16, 'time': 15.0, 'compass': 66.96, 'pitch': 1.62, 'roll': -0.29}
{'lipoC2': 7.12, 'temp': 0.0, 'lipoC3S3': 11.4, 'state': 'normal', 'rot1': 91, 'rot0': 93, 'rot3': 0, 'rot2': 0, 'depth': 0.851, 'yaw': -14.51, 'datetime': '2018-12-12 14:49:07.469783', 'mgs': 0, 'flw2': 2.54, 'flw1': 0.56, 'flw0': 2.33, 'time': 15.21, 'compass': 68.17, 'pitch': 1.68, 'roll': -0.16}
{'lipoC2': 7.22, 'temp': 0.0, 'lipoC3S3': 10.96, 'state': 'normal', 'rot1': 94, 'rot0': 96, 'rot3': 0, 'rot2': 0, 'depth': -0.522, 'yaw': -13.18, 'datetime': '2018-12-12 14:49:07.678755', 'mgs': 0, 'flw2': 2.65, 'flw1': 0.5, 'flw0': 2.16, 'time': 15.42, 'compass': 69.5, 'pitch': 1.63, 'roll': 0.01}
{'lipoC2': 7.52, 'temp': 0.0, 'lipoC3S3': 10.97, 'state': 'normal', 'rot1': 96, 'rot0': 98, 'rot3': 0, 'rot2': 0, 'depth': -0.217, 'yaw': -11.66, 'datetime': '2018-12-12 14:49:07.888088', 'mgs': 0, 'flw2': 2.62, 'flw1': 0.0, 'flw0': 2.42, 'time': 15.63, 'compass': 71.02, 'pitch': 1.4, 'roll': 0.04}
{'lipoC2': 7.23, 'temp': 0.0, 'lipoC3S3': 11.42, 'state': 'normal', 'rot1': 98, 'rot0': 100, 'rot3': 0, 'rot2': 0, 'depth': -0.217, 'yaw': -10.13, 'datetime': '2018-12-12 14:49:08.095426', 'mgs': 0, 'flw2': 1.5, 'flw1': 0.5, 'flw0': 3.03, 'time': 15.84, 'compass': 72.55, 'pitch': 1.39, 'roll': -0.1}
{'lipoC2': 7.13, 'temp': 0.0, 'lipoC3S3': 10.96, 'state': 'normal', 'rot1': 100, 'rot0': 102, 'rot3': 0, 'rot2': 0, 'depth': 1.538, 'yaw': -9.43, 'datetime': '2018-12-12 14:49:08.305206', 'mgs': 0, 'flw2': 1.57, 'flw1': 0.0, 'flw0': 3.25, 'time': 16.05, 'compass': 73.25, 'pitch': 1.38, 'roll': -0.18}
{'lipoC2': 7.12, 'temp': 0.0, 'lipoC3S3': 11.13, 'state': 'normal', 'rot1': 103, 'rot0': 104, 'rot3': 0, 'rot2': 0, 'depth': 0.089, 'yaw': -9.48, 'datetime': '2018-12-12 14:49:08.518035', 'mgs': 0, 'flw2': 1.87, 'flw1': 0.0, 'flw0': 3.04, 'time': 16.26, 'compass': 73.2, 'pitch': 1.27, 'roll': -0.23}
{'lipoC2': 7.32, 'temp': 0.0, 'lipoC3S3': 11.07, 'state': 'normal', 'rot1': 105, 'rot0': 105, 'rot3': 0, 'rot2': 0, 'depth': 1.767, 'yaw': -9.89, 'datetime': '2018-12-12 14:49:08.726336', 'mgs': 0, 'flw2': 1.43, 'flw1': 0.0, 'flw0': 3.09, 'time': 16.47, 'compass': 72.79, 'pitch': 0.99, 'roll': -0.26}
{'lipoC2': 7.19, 'temp': 0.0, 'lipoC3S3': 11.13, 'state': 'normal', 'rot1': 107, 'rot0': 107, 'rot3': 0, 'rot2': 0, 'depth': 0.851, 'yaw': -10.63, 'datetime': '2018-12-12 14:49:08.938758', 'mgs': 0, 'flw2': 1.57, 'flw1': 0.56, 'flw0': 3.04, 'time': 16.67, 'compass': 72.05, 'pitch': 0.75, 'roll': -0.52}
{'lipoC2': 7.18, 'temp': 0.0, 'lipoC3S3': 11.13, 'state': 'normal', 'rot1': 109, 'rot0': 109, 'rot3': 0, 'rot2': 0, 'depth': 1.004, 'yaw': -11.68, 'datetime': '2018-12-12 14:49:09.146307', 'mgs': 0, 'flw2': 1.03, 'flw1': 0.0, 'flw0': 2.56, 'time': 16.88, 'compass': 71.0, 'pitch': 0.8, 'roll': -0.85}
{'lipoC2': 7.12, 'temp': 0.0, 'lipoC3S3': 11.1, 'state': 'normal', 'rot1': 112, 'rot0': 110, 'rot3': 0, 'rot2': 0, 'depth': -0.751, 'yaw': -13.08, 'datetime': '2018-12-12 14:49:09.352149', 'mgs': 0, 'flw2': 0.54, 'flw1': 0.0, 'flw0': 2.66, 'time': 17.09, 'compass': 69.6, 'pitch': 0.63, 'roll': -0.97}
{'lipoC2': 7.33, 'temp': 0.0, 'lipoC3S3': 11.01, 'state': 'normal', 'rot1': 114, 'rot0': 111, 'rot3': 0, 'rot2': 0, 'depth': -0.827, 'yaw': -15.14, 'datetime': '2018-12-12 14:49:09.563506', 'mgs': 0, 'flw2': 0.24, 'flw1': 0.53, 'flw0': 2.42, 'time': 17.3, 'compass': 67.53, 'pitch': 0.06, 'roll': -1.3}
{'lipoC2': 7.37, 'temp': 0.0, 'lipoC3S3': 11.0, 'state': 'normal', 'rot1': 116, 'rot0': 112, 'rot3': 0, 'rot2': 0, 'depth': 1.08, 'yaw': -18.48, 'datetime': '2018-12-12 14:49:09.773943', 'mgs': 0, 'flw2': 0.0, 'flw1': 0.0, 'flw0': 2.32, 'time': 17.51, 'compass': 64.2, 'pitch': -0.49, 'roll': -1.96}
{'lipoC2': 7.11, 'temp': 0.0, 'lipoC3S3': 11.07, 'state': 'normal', 'rot1': 118, 'rot0': 112, 'rot3': 0, 'rot2': 0, 'depth': -0.674, 'yaw': -22.41, 'datetime': '2018-12-12 14:49:09.981392', 'mgs': 0, 'flw2': 0.23, 'flw1': 0.0, 'flw0': 0.98, 'time': 17.72, 'compass': 60.27, 'pitch': -0.79, 'roll': -2.32}
{'lipoC2': 7.22, 'temp': 0.0, 'lipoC3S3': 11.11, 'state': 'normal', 'rot1': 119, 'rot0': 112, 'rot3': 0, 'rot2': 0, 'depth': -1.514, 'yaw': -25.94, 'datetime': '2018-12-12 14:49:10.192174', 'mgs': 0, 'flw2': 0.06, 'flw1': 0.03, 'flw0': 0.0, 'time': 17.93, 'compass': 56.73, 'pitch': -1.15, 'roll': -2.12}
{'lipoC2': 7.08, 'temp': 0.0, 'lipoC3S3': 10.96, 'state': 'normal', 'rot1': 119, 'rot0': 112, 'rot3': 0, 'rot2': 0, 'depth': -0.217, 'yaw': -28.23, 'datetime': '2018-12-12 14:49:10.399216', 'mgs': 0, 'flw2': 0.0, 'flw1': 0.0, 'flw0': 0.0, 'time': 18.14, 'compass': 54.44, 'pitch': -2.05, 'roll': -1.67}
{'lipoC2': 7.11, 'temp': 0.0, 'lipoC3S3': 11.09, 'state': 'normal', 'rot1': 119, 'rot0': 112, 'rot3': 0, 'rot2': 0, 'depth': -0.674, 'yaw': -29.76, 'datetime': '2018-12-12 14:49:10.606967', 'mgs': 0, 'flw2': 0.0, 'flw1': 0.64, 'flw0': 0.0, 'time': 18.35, 'compass': 52.91, 'pitch': -2.27, 'roll': -1.4}
{'lipoC2': 7.27, 'temp': 0.0, 'lipoC3S3': 11.01, 'state': 'normal', 'rot1': 119, 'rot0': 112, 'rot3': 0, 'rot2': 0, 'depth': 2.225, 'yaw': -30.83, 'datetime': '2018-12-12 14:49:10.818346', 'mgs': 0, 'flw2': 0.0, 'flw1': 0.0, 'flw0': 0.0, 'time': 18.55, 'compass': 51.85, 'pitch': -1.77, 'roll': -1.31}
{'lipoC2': 7.46, 'temp': 0.0, 'lipoC3S3': 10.98, 'state': 'normal', 'rot1': 119, 'rot0': 112, 'rot3': 0, 'rot2': 0, 'depth': -0.293, 'yaw': -31.56, 'datetime': '2018-12-12 14:49:11.026349', 'mgs': 0, 'flw2': 0.0, 'flw1': 0.0, 'flw0': 0.0, 'time': 18.76, 'compass': 51.12, 'pitch': -1.53, 'roll': -1.25}
{'lipoC2': 7.37, 'temp': 0.0, 'lipoC3S3': 11.0, 'state': 'normal', 'rot1': 119, 'rot0': 112, 'rot3': 0, 'rot2': 0, 'depth': -0.903, 'yaw': -32.08, 'datetime': '2018-12-12 14:49:11.239065', 'mgs': 0, 'flw2': 0.0, 'flw1': 0.53, 'flw0': 0.0, 'time': 18.97, 'compass': 50.6, 'pitch': -1.76, 'roll': -1.2}
{'lipoC2': 7.29, 'temp': 0.0, 'lipoC3S3': 11.18, 'state': 'normal', 'rot1': 119, 'rot0': 112, 'rot3': 0, 'rot2': 0, 'depth': 1.538, 'yaw': -32.34, 'datetime': '2018-12-12 14:49:11.448251', 'mgs': 0, 'flw2': 0.0, 'flw1': 0.0, 'flw0': 0.0, 'time': 19.18, 'compass': 50.34, 'pitch': -1.91, 'roll': -1.16}
{'lipoC2': 7.15, 'temp': 0.0, 'lipoC3S3': 10.96, 'state': 'normal', 'rot1': 120, 'rot0': 112, 'rot3': 0, 'rot2': 0, 'depth': 1.538, 'yaw': -32.34, 'datetime': '2018-12-12 14:49:11.658503', 'mgs': 0, 'flw2': 0.0, 'flw1': 0.0, 'flw0': 1.56, 'time': 19.39, 'compass': 50.33, 'pitch': -1.82, 'roll': -1.14}
{'lipoC2': 7.32, 'temp': 0.0, 'lipoC3S3': 10.97, 'state': 'normal', 'rot1': 121, 'rot0': 112, 'rot3': 0, 'rot2': 0, 'depth': 0.089, 'yaw': -32.91, 'datetime': '2018-12-12 14:49:11.870679', 'mgs': 0, 'flw2': 0.01, 'flw1': 0.0, 'flw0': 1.44, 'time': 19.6, 'compass': 49.77, 'pitch': -1.14, 'roll': -1.59}
{'lipoC2': 7.07, 'temp': 0.0, 'lipoC3S3': 11.06, 'state': 'normal', 'rot1': 123, 'rot0': 112, 'rot3': 0, 'rot2': 0, 'depth': 0.241, 'yaw': -34.8, 'datetime': '2018-12-12 14:49:12.071958', 'mgs': 0, 'flw2': 0.0, 'flw1': 0.0, 'flw0': 1.35, 'time': 19.81, 'compass': 47.87, 'pitch': -0.27, 'roll': -2.44}
{'lipoC2': 7.1, 'temp': 0.0, 'lipoC3S3': 11.19, 'state': 'normal', 'rot1': 125, 'rot0': 112, 'rot3': 0, 'rot2': 0, 'depth': -0.598, 'yaw': -37.66, 'datetime': '2018-12-12 14:49:12.283064', 'mgs': 0, 'flw2': 0.01, 'flw1': 0.0, 'flw0': 1.28, 'time': 20.02, 'compass': 45.01, 'pitch': -0.18, 'roll': -3.02}
{'lipoC2': 7.17, 'temp': 0.0, 'lipoC3S3': 11.25, 'state': 'normal', 'rot1': 126, 'rot0': 112, 'rot3': 0, 'rot2': 0, 'depth': -0.674, 'yaw': -41.01, 'datetime': '2018-12-12 14:49:12.492966', 'mgs': 0, 'flw2': 0.0, 'flw1': 0.0, 'flw0': 1.93, 'time': 20.23, 'compass': 41.67, 'pitch': -0.62, 'roll': -3.15}
{'lipoC2': 7.25, 'temp': 0.0, 'lipoC3S3': 11.29, 'state': 'normal', 'rot1': 128, 'rot0': 112, 'rot3': 0, 'rot2': 0, 'depth': 1.614, 'yaw': -45.19, 'datetime': '2018-12-12 14:49:12.703213', 'mgs': 0, 'flw2': 0.0, 'flw1': 0.0, 'flw0': 2.05, 'time': 20.44, 'compass': 37.49, 'pitch': -0.2, 'roll': -3.02}
{'lipoC2': 7.14, 'temp': 0.0, 'lipoC3S3': 10.96, 'state': 'normal', 'rot1': 131, 'rot0': 112, 'rot3': 0, 'rot2': 0, 'depth': 1.614, 'yaw': -50.16, 'datetime': '2018-12-12 14:49:12.909702', 'mgs': 0, 'flw2': 0.06, 'flw1': 0.0, 'flw0': 2.37, 'time': 20.65, 'compass': 32.52, 'pitch': 0.69, 'roll': -2.77}
{'lipoC2': 7.39, 'temp': 0.0, 'lipoC3S3': 10.94, 'state': 'normal', 'rot1': 133, 'rot0': 112, 'rot3': 0, 'rot2': 0, 'depth': 1.157, 'yaw': -56.22, 'datetime': '2018-12-12 14:49:13.118656', 'mgs': 0, 'flw2': 0.0, 'flw1': 0.0, 'flw0': 2.37, 'time': 20.85, 'compass': 26.46, 'pitch': 1.08, 'roll': -2.53}
{'lipoC2': 7.11, 'temp': 0.0, 'lipoC3S3': 11.39, 'state': 'normal', 'rot1': 135, 'rot0': 112, 'rot3': 0, 'rot2': 0, 'depth': -0.598, 'yaw': -62.98, 'datetime': '2018-12-12 14:49:13.326951', 'mgs': 0, 'flw2': 0.18, 'flw1': 0.0, 'flw0': 2.72, 'time': 21.06, 'compass': 19.7, 'pitch': 0.76, 'roll': -2.81}
{'lipoC2': 7.26, 'temp': 0.0, 'lipoC3S3': 10.97, 'state': 'normal', 'rot1': 137, 'rot0': 112, 'rot3': 0, 'rot2': 0, 'depth': 0.546, 'yaw': -70.62, 'datetime': '2018-12-12 14:49:13.537580', 'mgs': 0, 'flw2': 0.0, 'flw1': 0.09, 'flw0': 2.56, 'time': 21.27, 'compass': 12.05, 'pitch': 0.6, 'roll': -3.54}
{'lipoC2': 7.29, 'temp': 0.0, 'lipoC3S3': 11.29, 'state': 'normal', 'rot1': 140, 'rot0': 112, 'rot3': 0, 'rot2': 0, 'depth': -0.217, 'yaw': -79.09, 'datetime': '2018-12-12 14:49:13.746615', 'mgs': 0, 'flw2': 0.24, 'flw1': 0.0, 'flw0': 2.83, 'time': 21.48, 'compass': 3.59, 'pitch': 1.32, 'roll': -4.29}
{'lipoC2': 7.37, 'temp': 0.0, 'lipoC3S3': 11.0, 'state': 'normal', 'rot1': 142, 'rot0': 112, 'rot3': 0, 'rot2': 0, 'depth': 1.08, 'yaw': -88.13, 'datetime': '2018-12-12 14:49:13.957322', 'mgs': 0, 'flw2': 0.37, 'flw1': 0.0, 'flw0': 3.09, 'time': 21.69, 'compass': -5.45, 'pitch': 2.26, 'roll': -4.4}
{'lipoC2': 7.21, 'temp': 0.0, 'lipoC3S3': 11.39, 'state': 'normal', 'rot1': 144, 'rot0': 113, 'rot3': 0, 'rot2': 0, 'depth': 0.012, 'yaw': -97.4, 'datetime': '2018-12-12 14:49:14.165762', 'mgs': 0, 'flw2': 0.29, 'flw1': 0.59, 'flw0': 2.8, 'time': 21.9, 'compass': -14.72, 'pitch': 2.77, 'roll': -4.21}
{'lipoC2': 7.1, 'temp': 0.0, 'lipoC3S3': 11.11, 'state': 'normal', 'rot1': 147, 'rot0': 114, 'rot3': 0, 'rot2': 0, 'depth': 0.928, 'yaw': -106.46, 'datetime': '2018-12-12 14:49:14.375452', 'mgs': 0, 'flw2': 0.59, 'flw1': 0.0, 'flw0': 2.84, 'time': 22.11, 'compass': -23.78, 'pitch': 3.14, 'roll': -4.12}
{'lipoC2': 7.2, 'temp': 0.0, 'lipoC3S3': 11.13, 'state': 'normal', 'rot1': 149, 'rot0': 115, 'rot3': 0, 'rot2': 0, 'depth': 1.843, 'yaw': -116.42, 'datetime': '2018-12-12 14:49:14.585054', 'mgs': 0, 'flw2': 0.33, 'flw1': 0.0, 'flw0': 2.92, 'time': 22.32, 'compass': -33.74, 'pitch': 3.52, 'roll': -4.02}
{'lipoC2': 7.09, 'temp': 0.0, 'lipoC3S3': 10.89, 'state': 'normal', 'rot1': 151, 'rot0': 116, 'rot3': 0, 'rot2': 0, 'depth': -0.14, 'yaw': -126.74, 'datetime': '2018-12-12 14:49:14.794024', 'mgs': 0, 'flw2': 0.62, 'flw1': 0.12, 'flw0': 1.48, 'time': 22.53, 'compass': -44.07, 'pitch': 3.9, 'roll': -3.66}
{'lipoC2': 7.19, 'temp': 0.0, 'lipoC3S3': 11.3, 'state': 'normal', 'rot1': 153, 'rot0': 117, 'rot3': 0, 'rot2': 0, 'depth': -0.369, 'yaw': -136.41, 'datetime': '2018-12-12 14:49:15.004848', 'mgs': 0, 'flw2': 1.16, 'flw1': 0.0, 'flw0': 1.42, 'time': 22.74, 'compass': -53.73, 'pitch': 3.55, 'roll': -3.1}
{'lipoC2': 7.13, 'temp': 0.0, 'lipoC3S3': 11.31, 'state': 'normal', 'rot1': 155, 'rot0': 119, 'rot3': 0, 'rot2': 0, 'depth': -0.293, 'yaw': -145.05, 'datetime': '2018-12-12 14:49:15.214490', 'mgs': 0, 'flw2': 1.22, 'flw1': 0.0, 'flw0': 1.88, 'time': 22.95, 'compass': -62.38, 'pitch': 2.97, 'roll': -2.88}
{'lipoC2': 7.22, 'temp': 0.0, 'lipoC3S3': 10.89, 'state': 'normal', 'rot1': 156, 'rot0': 121, 'rot3': 0, 'rot2': 0, 'depth': -1.59, 'yaw': -152.37, 'datetime': '2018-12-12 14:49:15.424278', 'mgs': 0, 'flw2': 2.22, 'flw1': 0.0, 'flw0': 1.22, 'time': 23.16, 'compass': -69.69, 'pitch': 2.65, 'roll': -2.82}
{'lipoC2': 7.09, 'temp': 0.0, 'lipoC3S3': 10.96, 'state': 'normal', 'rot1': 158, 'rot0': 123, 'rot3': 0, 'rot2': 0, 'depth': -0.217, 'yaw': -157.56, 'datetime': '2018-12-12 14:49:15.632892', 'mgs': 0, 'flw2': 2.58, 'flw1': 0.0, 'flw0': 1.57, 'time': 23.36, 'compass': -74.89, 'pitch': 2.56, 'roll': -2.48}
{'lipoC2': 7.09, 'temp': 0.0, 'lipoC3S3': 11.18, 'state': 'normal', 'rot1': 160, 'rot0': 125, 'rot3': 0, 'rot2': 0, 'depth': 1.309, 'yaw': -161.24, 'datetime': '2018-12-12 14:49:15.842600', 'mgs': 0, 'flw2': 2.59, 'flw1': 0.0, 'flw0': 1.39, 'time': 23.57, 'compass': -78.56, 'pitch': 2.34, 'roll': -1.93}
{'lipoC2': 7.08, 'temp': 0.0, 'lipoC3S3': 11.18, 'state': 'normal', 'rot1': 162, 'rot0': 127, 'rot3': 0, 'rot2': 0, 'depth': 0.241, 'yaw': -163.64, 'datetime': '2018-12-12 14:49:16.052280', 'mgs': 0, 'flw2': 2.92, 'flw1': 0.0, 'flw0': 1.45, 'time': 23.78, 'compass': -80.97, 'pitch': 2.0, 'roll': -1.34}
{'lipoC2': 7.06, 'temp': 0.0, 'lipoC3S3': 11.23, 'state': 'normal', 'rot1': 163, 'rot0': 130, 'rot3': 0, 'rot2': 0, 'depth': 1.843, 'yaw': -164.94, 'datetime': '2018-12-12 14:49:16.261422', 'mgs': 0, 'flw2': 3.11, 'flw1': 0.0, 'flw0': 1.09, 'time': 23.99, 'compass': -82.26, 'pitch': 1.69, 'roll': -0.92}
{'lipoC2': 7.13, 'temp': 0.0, 'lipoC3S3': 10.97, 'state': 'normal', 'rot1': 165, 'rot0': 132, 'rot3': 0, 'rot2': 0, 'depth': 2.072, 'yaw': -165.34, 'datetime': '2018-12-12 14:49:16.472425', 'mgs': 0, 'flw2': 2.82, 'flw1': 0.0, 'flw0': 1.15, 'time': 24.2, 'compass': -82.66, 'pitch': 1.47, 'roll': -0.85}
{'lipoC2': 7.17, 'temp': 0.0, 'lipoC3S3': 10.93, 'state': 'normal', 'rot1': 167, 'rot0': 135, 'rot3': 0, 'rot2': 0, 'depth': 1.538, 'yaw': -165.25, 'datetime': '2018-12-12 14:49:16.680862', 'mgs': 0, 'flw2': 3.45, 'flw1': 0.0, 'flw0': 1.27, 'time': 24.41, 'compass': -82.58, 'pitch': 1.29, 'roll': -0.79}
{'lipoC2': 7.25, 'temp': 0.0, 'lipoC3S3': 11.36, 'state': 'normal', 'rot1': 168, 'rot0': 137, 'rot3': 0, 'rot2': 0, 'depth': -0.14, 'yaw': -164.55, 'datetime': '2018-12-12 14:49:16.890765', 'mgs': 0, 'flw2': 2.92, 'flw1': 0.53, 'flw0': 1.32, 'time': 24.62, 'compass': -81.87, 'pitch': 1.18, 'roll': -0.75}
{'lipoC2': 7.5, 'temp': 0.0, 'lipoC3S3': 10.98, 'state': 'normal', 'rot1': 170, 'rot0': 139, 'rot3': 0, 'rot2': 0, 'depth': 0.012, 'yaw': -163.32, 'datetime': '2018-12-12 14:49:17.099320', 'mgs': 0, 'flw2': 2.93, 'flw1': 0.0, 'flw0': 1.43, 'time': 24.83, 'compass': -80.64, 'pitch': 0.69, 'roll': -0.72}
{'lipoC2': 7.35, 'temp': 0.0, 'lipoC3S3': 10.88, 'state': 'normal', 'rot1': 172, 'rot0': 142, 'rot3': 0, 'rot2': 0, 'depth': 0.241, 'yaw': -162.09, 'datetime': '2018-12-12 14:49:17.311766', 'mgs': 0, 'flw2': 2.71, 'flw1': 0.0, 'flw0': 1.29, 'time': 25.04, 'compass': -79.42, 'pitch': 0.35, 'roll': -0.7}
{'lipoC2': 7.15, 'temp': 0.0, 'lipoC3S3': 10.96, 'state': 'normal', 'rot1': 174, 'rot0': 145, 'rot3': 0, 'rot2': 0, 'depth': -0.598, 'yaw': -160.8, 'datetime': '2018-12-12 14:49:17.518011', 'mgs': 0, 'flw2': 3.09, 'flw1': 0.0, 'flw0': 1.2, 'time': 25.25, 'compass': -78.12, 'pitch': 0.48, 'roll': -0.55}
{'lipoC2': 7.22, 'temp': 0.0, 'lipoC3S3': 10.96, 'state': 'normal', 'rot1': 176, 'rot0': 147, 'rot3': 0, 'rot2': 0, 'depth': -0.827, 'yaw': -159.39, 'datetime': '2018-12-12 14:49:17.732518', 'mgs': 0, 'flw2': 3.03, 'flw1': 0.0, 'flw0': 1.78, 'time': 25.46, 'compass': -76.71, 'pitch': 0.6, 'roll': -0.33}
{'lipoC2': 7.09, 'temp': 0.0, 'lipoC3S3': 11.18, 'state': 'normal', 'rot1': 177, 'rot0': 149, 'rot3': 0, 'rot2': 0, 'depth': 0.775, 'yaw': -158.07, 'datetime': '2018-12-12 14:49:17.940777', 'mgs': 0, 'flw2': 2.21, 'flw1': 0.0, 'flw0': 1.9, 'time': 25.67, 'compass': -75.39, 'pitch': 0.48, 'roll': -0.2}
{'lipoC2': 7.3, 'temp': 0.0, 'lipoC3S3': 11.17, 'state': 'normal', 'rot1': 179, 'rot0': 151, 'rot3': 0, 'rot2': 0, 'depth': -0.674, 'yaw': -157.29, 'datetime': '2018-12-12 14:49:18.148517', 'mgs': 0, 'flw2': 2.4, 'flw1': 0.56, 'flw0': 1.56, 'time': 25.88, 'compass': -74.62, 'pitch': 0.32, 'roll': -0.5}
{'lipoC2': 7.35, 'temp': 0.0, 'lipoC3S3': 10.93, 'state': 'normal', 'rot1': 181, 'rot0': 154, 'rot3': 0, 'rot2': 0, 'depth': 0.317, 'yaw': -156.86, 'datetime': '2018-12-12 14:49:18.358842', 'mgs': 0, 'flw2': 2.43, 'flw1': 0.0, 'flw0': 1.83, 'time': 26.08, 'compass': -74.18, 'pitch': 0.17, 'roll': -1.38}
{'lipoC2': 7.34, 'temp': 0.0, 'lipoC3S3': 10.96, 'state': 'normal', 'rot1': 183, 'rot0': 156, 'rot3': 0, 'rot2': 0, 'depth': -1.132, 'yaw': -156.56, 'datetime': '2018-12-12 14:49:18.574057', 'mgs': 0, 'flw2': 2.48, 'flw1': 0.62, 'flw0': 1.72, 'time': 26.3, 'compass': -73.89, 'pitch': 0.18, 'roll': -2.13}
{'lipoC2': 7.1, 'temp': 0.0, 'lipoC3S3': 11.03, 'state': 'normal', 'rot1': 185, 'rot0': 158, 'rot3': 0, 'rot2': 0, 'depth': -1.208, 'yaw': -156.11, 'datetime': '2018-12-12 14:49:18.785078', 'mgs': 0, 'flw2': 2.12, 'flw1': 0.0, 'flw0': 2.19, 'time': 26.51, 'compass': -73.43, 'pitch': 0.19, 'roll': -2.12}
{'lipoC2': 7.22, 'temp': 0.0, 'lipoC3S3': 11.14, 'state': 'normal', 'rot1': 187, 'rot0': 160, 'rot3': 0, 'rot2': 0, 'depth': 0.928, 'yaw': -155.27, 'datetime': '2018-12-12 14:49:18.994220', 'mgs': 0, 'flw2': 2.09, 'flw1': 0.0, 'flw0': 2.03, 'time': 26.72, 'compass': -72.59, 'pitch': 0.15, 'roll': -1.18}
{'lipoC2': 7.29, 'temp': 0.0, 'lipoC3S3': 11.26, 'state': 'normal', 'rot1': 189, 'rot0': 162, 'rot3': 0, 'rot2': 0, 'depth': 0.165, 'yaw': -154.22, 'datetime': '2018-12-12 14:49:19.202352', 'mgs': 0, 'flw2': 2.66, 'flw1': 0.0, 'flw0': 1.88, 'time': 26.92, 'compass': -71.54, 'pitch': 0.25, 'roll': -0.19}
{'lipoC2': 7.11, 'temp': 0.0, 'lipoC3S3': 11.01, 'state': 'normal', 'rot1': 191, 'rot0': 164, 'rot3': 0, 'rot2': 0, 'depth': -0.827, 'yaw': -153.33, 'datetime': '2018-12-12 14:49:19.412137', 'mgs': 0, 'flw2': 2.5, 'flw1': 0.0, 'flw0': 1.94, 'time': 27.13, 'compass': -70.66, 'pitch': 0.53, 'roll': 0.14}
{'lipoC2': 7.4, 'temp': 0.0, 'lipoC3S3': 11.05, 'state': 'normal', 'rot1': 193, 'rot0': 166, 'rot3': 0, 'rot2': 0, 'depth': -0.064, 'yaw': -152.57, 'datetime': '2018-12-12 14:49:19.620278', 'mgs': 0, 'flw2': 2.23, 'flw1': 0.21, 'flw0': 1.75, 'time': 27.34, 'compass': -69.89, 'pitch': 0.74, 'roll': 0.16}
{'lipoC2': 7.32, 'temp': 0.0, 'lipoC3S3': 11.14, 'state': 'normal', 'rot1': 195, 'rot0': 169, 'rot3': 0, 'rot2': 0, 'depth': 0.012, 'yaw': -151.7, 'datetime': '2018-12-12 14:49:19.828571', 'mgs': 0, 'flw2': 2.15, 'flw1': 0.0, 'flw0': 1.87, 'time': 27.55, 'compass': -69.03, 'pitch': 0.97, 'roll': 0.07}
{'lipoC2': 7.08, 'temp': 0.0, 'lipoC3S3': 11.15, 'state': 'normal', 'rot1': 197, 'rot0': 171, 'rot3': 0, 'rot2': 0, 'depth': -0.064, 'yaw': -150.98, 'datetime': '2018-12-12 14:49:20.038694', 'mgs': 0, 'flw2': 2.05, 'flw1': 0.0, 'flw0': 1.75, 'time': 27.76, 'compass': -68.3, 'pitch': 0.86, 'roll': -0.23}
{'lipoC2': 7.21, 'temp': 0.0, 'lipoC3S3': 10.86, 'state': 'normal', 'rot1': 199, 'rot0': 173, 'rot3': 0, 'rot2': 0, 'depth': -1.285, 'yaw': -150.7, 'datetime': '2018-12-12 14:49:20.247827', 'mgs': 0, 'flw2': 1.26, 'flw1': 0.0, 'flw0': 2.11, 'time': 27.97, 'compass': -68.02, 'pitch': 0.39, 'roll': -0.73}
{'lipoC2': 7.07, 'temp': 0.0, 'lipoC3S3': 11.19, 'state': 'normal', 'rot1': 201, 'rot0': 175, 'rot3': 0, 'rot2': 0, 'depth': -0.217, 'yaw': -151.08, 'datetime': '2018-12-12 14:49:20.457617', 'mgs': 0, 'flw2': 1.71, 'flw1': 0.12, 'flw0': 2.31, 'time': 28.18, 'compass': -68.4, 'pitch': 0.2, 'roll': -1.42}
{'lipoC2': 7.22, 'temp': 0.0, 'lipoC3S3': 11.19, 'state': 'normal', 'rot1': 203, 'rot0': 177, 'rot3': 0, 'rot2': 0, 'depth': -1.361, 'yaw': -151.73, 'datetime': '2018-12-12 14:49:20.667296', 'mgs': 0, 'flw2': 1.73, 'flw1': 0.0, 'flw0': 1.97, 'time': 28.39, 'compass': -69.05, 'pitch': 0.27, 'roll': -1.83}
{'lipoC2': 7.07, 'temp': 0.0, 'lipoC3S3': 11.23, 'state': 'normal', 'rot1': 205, 'rot0': 179, 'rot3': 0, 'rot2': 0, 'depth': -0.293, 'yaw': -152.29, 'datetime': '2018-12-12 14:49:20.878218', 'mgs': 0, 'flw2': 1.4, 'flw1': 0.0, 'flw0': 2.2, 'time': 28.6, 'compass': -69.61, 'pitch': 0.37, 'roll': -1.7}
{'lipoC2': 7.28, 'temp': 0.0, 'lipoC3S3': 11.15, 'state': 'normal', 'rot1': 208, 'rot0': 181, 'rot3': 0, 'rot2': 0, 'depth': -0.522, 'yaw': -152.96, 'datetime': '2018-12-12 14:49:21.081755', 'mgs': 0, 'flw2': 1.37, 'flw1': 0.32, 'flw0': 1.94, 'time': 28.81, 'compass': -70.29, 'pitch': -0.01, 'roll': -1.54}
{'lipoC2': 7.06, 'temp': 0.0, 'lipoC3S3': 11.27, 'state': 'normal', 'rot1': 210, 'rot0': 183, 'rot3': 0, 'rot2': 0, 'depth': 0.241, 'yaw': -153.77, 'datetime': '2018-12-12 14:49:21.293944', 'mgs': 0, 'flw2': 1.59, 'flw1': 0.0, 'flw0': 1.77, 'time': 29.02, 'compass': -71.09, 'pitch': -0.55, 'roll': -1.5}
{'lipoC2': 7.22, 'temp': 0.0, 'lipoC3S3': 10.98, 'state': 'normal', 'rot1': 212, 'rot0': 185, 'rot3': 0, 'rot2': 0, 'depth': -1.59, 'yaw': -154.78, 'datetime': '2018-12-12 14:49:21.502327', 'mgs': 0, 'flw2': 1.76, 'flw1': 0.0, 'flw0': 2.01, 'time': 29.23, 'compass': -72.1, 'pitch': -0.57, 'roll': -1.48}
{'lipoC2': 7.29, 'temp': 0.0, 'lipoC3S3': 11.01, 'state': 'normal', 'rot1': 214, 'rot0': 187, 'rot3': 0, 'rot2': 0, 'depth': -0.293, 'yaw': -155.9, 'datetime': '2018-12-12 14:49:21.722707', 'mgs': 0, 'flw2': 1.48, 'flw1': 0.0, 'flw0': 2.1, 'time': 29.44, 'compass': -73.22, 'pitch': 0.01, 'roll': -1.68}
{'lipoC2': 7.08, 'temp': 0.0, 'lipoC3S3': 11.44, 'state': 'normal', 'rot1': 217, 'rot0': 189, 'rot3': 0, 'rot2': 0, 'depth': -1.361, 'yaw': -157.17, 'datetime': '2018-12-12 14:49:21.931431', 'mgs': 0, 'flw2': 1.42, 'flw1': 0.38, 'flw0': 1.92, 'time': 29.65, 'compass': -74.49, 'pitch': 0.49, 'roll': -2.1}
{'lipoC2': 7.23, 'temp': 0.0, 'lipoC3S3': 11.26, 'state': 'normal', 'rot1': 219, 'rot0': 191, 'rot3': 0, 'rot2': 0, 'depth': 0.623, 'yaw': -158.42, 'datetime': '2018-12-12 14:49:22.137319', 'mgs': 0, 'flw2': 1.54, 'flw1': 0.18, 'flw0': 1.94, 'time': 29.85, 'compass': -75.74, 'pitch': 0.51, 'roll': -2.19}
{'lipoC2': 7.07, 'temp': 0.0, 'lipoC3S3': 11.02, 'state': 'normal', 'rot1': 221, 'rot0': 192, 'rot3': 0, 'rot2': 0, 'depth': 0.546, 'yaw': -159.57, 'datetime': '2018-12-12 14:49:22.346138', 'mgs': 0, 'flw2': 1.46, 'flw1': 0.5, 'flw0': 1.75, 'time': 30.06, 'compass': -76.89, 'pitch': 0.48, 'roll': -1.87}
{'lipoC2': 7.22, 'temp': 0.0, 'lipoC3S3': 10.85, 'state': 'normal', 'rot1': 222, 'rot0': 194, 'rot3': 0, 'rot2': 0, 'depth': -0.751, 'yaw': -160.59, 'datetime': '2018-12-12 14:49:22.557890', 'mgs': 0, 'flw2': 1.56, 'flw1': 0.0, 'flw0': 2.16, 'time': 30.27, 'compass': -77.91, 'pitch': 0.69, 'roll': -1.49}
{'lipoC2': 7.11, 'temp': 0.0, 'lipoC3S3': 11.39, 'state': 'normal', 'rot1': 225, 'rot0': 197, 'rot3': 0, 'rot2': 0, 'depth': -0.598, 'yaw': -161.5, 'datetime': '2018-12-12 14:49:22.767763', 'mgs': 0, 'flw2': 1.83, 'flw1': 0.06, 'flw0': 1.99, 'time': 30.48, 'compass': -78.82, 'pitch': 1.14, 'roll': -1.32}
{'lipoC2': 7.27, 'temp': 0.0, 'lipoC3S3': 10.89, 'state': 'normal', 'rot1': 227, 'rot0': 199, 'rot3': 0, 'rot2': 0, 'depth': -0.293, 'yaw': -162.34, 'datetime': '2018-12-12 14:49:22.978238', 'mgs': 0, 'flw2': 2.14, 'flw1': 0.0, 'flw0': 2.39, 'time': 30.69, 'compass': -79.67, 'pitch': 1.21, 'roll': -1.37}
{'lipoC2': 7.12, 'temp': 0.0, 'lipoC3S3': 11.07, 'state': 'normal', 'rot1': 228, 'rot0': 201, 'rot3': 0, 'rot2': 0, 'depth': 0.623, 'yaw': -163.02, 'datetime': '2018-12-12 14:49:23.184813', 'mgs': 0, 'flw2': 2.28, 'flw1': 0.0, 'flw0': 2.19, 'time': 30.9, 'compass': -80.34, 'pitch': 0.66, 'roll': -1.45}
{'lipoC2': 7.15, 'temp': 0.0, 'lipoC3S3': 10.94, 'state': 'normal', 'rot1': 230, 'rot0': 203, 'rot3': 0, 'rot2': 0, 'depth': 0.546, 'yaw': -163.54, 'datetime': '2018-12-12 14:49:23.393418', 'mgs': 0, 'flw2': 2.33, 'flw1': 0.0, 'flw0': 1.97, 'time': 31.11, 'compass': -80.86, 'pitch': 0.06, 'roll': -1.59}
{'lipoC2': 7.11, 'temp': 0.0, 'lipoC3S3': 10.94, 'state': 'normal', 'rot1': 232, 'rot0': 205, 'rot3': 0, 'rot2': 0, 'depth': -0.369, 'yaw': -163.76, 'datetime': '2018-12-12 14:49:23.604175', 'mgs': 0, 'flw2': 2.56, 'flw1': 0.0, 'flw0': 2.01, 'time': 31.32, 'compass': -81.09, 'pitch': 0.22, 'roll': -1.94}
{'lipoC2': 7.33, 'temp': 0.0, 'lipoC3S3': 10.93, 'state': 'normal', 'rot1': 234, 'rot0': 207, 'rot3': 0, 'rot2': 0, 'depth': 2.606, 'yaw': -163.77, 'datetime': '2018-12-12 14:49:23.815077', 'mgs': 0, 'flw2': 2.4, 'flw1': 0.0, 'flw0': 1.99, 'time': 31.53, 'compass': -81.09, 'pitch': 0.91, 'roll': -2.23}
{'lipoC2': 7.13, 'temp': 0.0, 'lipoC3S3': 11.18, 'state': 'normal', 'rot1': 236, 'rot0': 209, 'rot3': 0, 'rot2': 0, 'depth': 2.301, 'yaw': -163.65, 'datetime': '2018-12-12 14:49:24.024317', 'mgs': 0, 'flw2': 1.98, 'flw1': 0.0, 'flw0': 2.32, 'time': 31.74, 'compass': -80.97, 'pitch': 1.01, 'roll': -2.23}
{'lipoC2': 7.22, 'temp': 0.0, 'lipoC3S3': 10.92, 'state': 'normal', 'rot1': 238, 'rot0': 211, 'rot3': 0, 'rot2': 0, 'depth': -1.59, 'yaw': -163.46, 'datetime': '2018-12-12 14:49:24.233390', 'mgs': 0, 'flw2': 2.39, 'flw1': 0.0, 'flw0': 2.14, 'time': 31.95, 'compass': -80.78, 'pitch': 0.69, 'roll': -2.11}
{'lipoC2': 7.23, 'temp': 0.0, 'lipoC3S3': 11.05, 'state': 'normal', 'rot1': 240, 'rot0': 213, 'rot3': 0, 'rot2': 0, 'depth': -1.514, 'yaw': -163.34, 'datetime': '2018-12-12 14:49:24.443558', 'mgs': 0, 'flw2': 2.36, 'flw1': 0.53, 'flw0': 2.01, 'time': 32.16, 'compass': -80.66, 'pitch': 0.4, 'roll': -1.81}
{'lipoC2': 7.29, 'temp': 0.0, 'lipoC3S3': 11.31, 'state': 'normal', 'rot1': 242, 'rot0': 216, 'rot3': 0, 'rot2': 0, 'depth': -1.208, 'yaw': -163.35, 'datetime': '2018-12-12 14:49:24.654207', 'mgs': 0, 'flw2': 2.01, 'flw1': 0.59, 'flw0': 2.23, 'time': 32.37, 'compass': -80.67, 'pitch': 0.34, 'roll': -1.54}
{'lipoC2': 7.25, 'temp': 0.0, 'lipoC3S3': 11.15, 'state': 'normal', 'rot1': 245, 'rot0': 218, 'rot3': 0, 'rot2': 0, 'depth': 1.614, 'yaw': -163.35, 'datetime': '2018-12-12 14:49:24.862784', 'mgs': 0, 'flw2': 2.4, 'flw1': 0.0, 'flw0': 2.1, 'time': 32.58, 'compass': -80.67, 'pitch': 0.42, 'roll': -1.4}
{'lipoC2': 7.25, 'temp': 0.0, 'lipoC3S3': 10.9, 'state': 'normal', 'rot1': 246, 'rot0': 220, 'rot3': 0, 'rot2': 0, 'depth': -0.293, 'yaw': -163.37, 'datetime': '2018-12-12 14:49:25.073700', 'mgs': 0, 'flw2': 2.66, 'flw1': 0.0, 'flw0': 2.03, 'time': 32.79, 'compass': -80.69, 'pitch': 0.76, 'roll': -1.53}
{'lipoC2': 7.08, 'temp': 0.0, 'lipoC3S3': 10.81, 'state': 'normal', 'rot1': 248, 'rot0': 222, 'rot3': 0, 'rot2': 0, 'depth': -0.14, 'yaw': -163.57, 'datetime': '2018-12-12 14:49:25.281445', 'mgs': 0, 'flw2': 2.14, 'flw1': 0.0, 'flw0': 2.29, 'time': 33.0, 'compass': -80.9, 'pitch': 0.92, 'roll': -1.76}
{'lipoC2': 7.12, 'temp': 0.0, 'lipoC3S3': 10.97, 'state': 'normal', 'rot1': 250, 'rot0': 224, 'rot3': 0, 'rot2': 0, 'depth': -0.369, 'yaw': -163.75, 'datetime': '2018-12-12 14:49:25.491464', 'mgs': 0, 'flw2': 2.14, 'flw1': 0.0, 'flw0': 2.14, 'time': 33.21, 'compass': -81.08, 'pitch': 0.7, 'roll': -1.87}
{'lipoC2': 7.44, 'temp': 0.0, 'lipoC3S3': 10.92, 'state': 'normal', 'rot1': 252, 'rot0': 227, 'rot3': 0, 'rot2': 0, 'depth': 1.157, 'yaw': -163.9, 'datetime': '2018-12-12 14:49:25.701905', 'mgs': 0, 'flw2': 2.17, 'flw1': 0.0, 'flw0': 2.28, 'time': 33.42, 'compass': -81.22, 'pitch': 0.66, 'roll': -1.93}
{'lipoC2': 7.27, 'temp': 0.0, 'lipoC3S3': 11.07, 'state': 'normal', 'rot1': 254, 'rot0': 229, 'rot3': 0, 'rot2': 0, 'depth': -0.293, 'yaw': -163.94, 'datetime': '2018-12-12 14:49:25.913537', 'mgs': 0, 'flw2': 2.64, 'flw1': 0.0, 'flw0': 2.09, 'time': 33.63, 'compass': -81.26, 'pitch': 0.81, 'roll': -1.82}
{'lipoC2': 7.29, 'temp': 0.0, 'lipoC3S3': 11.15, 'state': 'normal', 'rot1': 257, 'rot0': 231, 'rot3': 0, 'rot2': 0, 'depth': -0.446, 'yaw': -163.93, 'datetime': '2018-12-12 14:49:26.123238', 'mgs': 0, 'flw2': 2.42, 'flw1': 0.56, 'flw0': 1.95, 'time': 33.84, 'compass': -81.26, 'pitch': 0.79, 'roll': -1.58}
{'lipoC2': 7.09, 'temp': 0.0, 'lipoC3S3': 10.85, 'state': 'normal', 'rot1': 259, 'rot0': 233, 'rot3': 0, 'rot2': 0, 'depth': -0.14, 'yaw': -164.12, 'datetime': '2018-12-12 14:49:26.331663', 'mgs': 0, 'flw2': 2.31, 'flw1': 0.0, 'flw0': 2.16, 'time': 34.04, 'compass': -81.44, 'pitch': 0.49, 'roll': -1.5}
{'lipoC2': 7.19, 'temp': 0.0, 'lipoC3S3': 11.42, 'state': 'normal', 'rot1': 261, 'rot0': 236, 'rot3': 0, 'rot2': 0, 'depth': -1.514, 'yaw': -164.19, 'datetime': '2018-12-12 14:49:26.541451', 'mgs': 0, 'flw2': 2.27, 'flw1': 0.44, 'flw0': 1.94, 'time': 34.25, 'compass': -81.52, 'pitch': 0.45, 'roll': -1.43}
{'lipoC2': 7.21, 'temp': 0.0, 'lipoC3S3': 11.29, 'state': 'normal', 'rot1': 263, 'rot0': 238, 'rot3': 0, 'rot2': 0, 'depth': -0.064, 'yaw': -164.07, 'datetime': '2018-12-12 14:49:26.751307', 'mgs': 0, 'flw2': 2.19, 'flw1': 0.44, 'flw0': 1.7, 'time': 34.46, 'compass': -81.39, 'pitch': 0.73, 'roll': -1.43}
{'lipoC2': 7.08, 'temp': 0.0, 'lipoC3S3': 11.1, 'state': 'normal', 'rot1': 264, 'rot0': 240, 'rot3': 0, 'rot2': 0, 'depth': -0.827, 'yaw': -163.66, 'datetime': '2018-12-12 14:49:26.961955', 'mgs': 0, 'flw2': 1.22, 'flw1': 0.0, 'flw0': 0.96, 'time': 34.67, 'compass': -80.98, 'pitch': 0.97, 'roll': -1.43}
{'lipoC2': 7.33, 'temp': 0.0, 'lipoC3S3': 10.98, 'state': 'normal', 'rot1': 266, 'rot0': 242, 'rot3': 0, 'rot2': 0, 'depth': 1.767, 'yaw': -163.26, 'datetime': '2018-12-12 14:49:27.170466', 'mgs': 0, 'flw2': 0.37, 'flw1': 0.0, 'flw0': 0.51, 'time': 34.88, 'compass': -80.58, 'pitch': 0.24, 'roll': -1.4}
{'lipoC2': 7.23, 'temp': 0.0, 'lipoC3S3': 11.27, 'state': 'normal', 'rot1': 266, 'rot0': 243, 'rot3': 0, 'rot2': 0, 'depth': 1.843, 'yaw': -162.9, 'datetime': '2018-12-12 14:49:27.381354', 'mgs': 0, 'flw2': 0.0, 'flw1': 0.0, 'flw0': 0.0, 'time': 35.09, 'compass': -80.22, 'pitch': -1.53, 'roll': -1.4}
{'lipoC2': 7.26, 'temp': 0.0, 'lipoC3S3': 11.22, 'state': 'normal', 'rot1': 266, 'rot0': 243, 'rot3': 0, 'rot2': 0, 'depth': 1.385, 'yaw': -162.52, 'datetime': '2018-12-12 14:49:27.590237', 'mgs': 0, 'flw2': 0.23, 'flw1': 0.0, 'flw0': 0.0, 'time': 35.3, 'compass': -79.84, 'pitch': -2.77, 'roll': -1.42}
{'lipoC2': 7.28, 'temp': 0.0, 'lipoC3S3': 11.06, 'state': 'normal', 'rot1': 266, 'rot0': 243, 'rot3': 0, 'rot2': 0, 'depth': -0.446, 'yaw': -162.34, 'datetime': '2018-12-12 14:49:27.799034', 'mgs': 0, 'flw2': 0.0, 'flw1': 0.59, 'flw0': 0.0, 'time': 35.51, 'compass': -79.66, 'pitch': -2.35, 'roll': -1.62}
{'lipoC2': 7.08, 'temp': 0.0, 'lipoC3S3': 11.25, 'state': 'normal', 'rot1': 266, 'rot0': 243, 'rot3': 0, 'rot2': 0, 'depth': -0.522, 'yaw': -162.32, 'datetime': '2018-12-12 14:49:28.009772', 'mgs': 0, 'flw2': 0.0, 'flw1': 0.0, 'flw0': 0.24, 'time': 35.72, 'compass': -79.64, 'pitch': -1.19, 'roll': -1.91}
{'lipoC2': 7.34, 'temp': 0.0, 'lipoC3S3': 11.15, 'state': 'normal', 'rot1': 266, 'rot0': 243, 'rot3': 0, 'rot2': 0, 'depth': 1.08, 'yaw': -162.32, 'datetime': '2018-12-12 14:49:28.216713', 'mgs': 0, 'flw2': 0.0, 'flw1': 0.53, 'flw0': 0.0, 'time': 35.93, 'compass': -79.64, 'pitch': -0.96, 'roll': -1.83}
{'lipoC2': 7.07, 'temp': 0.0, 'lipoC3S3': 11.26, 'state': 'normal', 'rot1': 266, 'rot0': 243, 'rot3': 0, 'rot2': 0, 'depth': 0.851, 'yaw': -162.32, 'datetime': '2018-12-12 14:49:28.427172', 'mgs': 0, 'flw2': 0.0, 'flw1': 0.0, 'flw0': 0.12, 'time': 36.13, 'compass': -79.65, 'pitch': -1.58, 'roll': -1.47}
{'lipoC2': 7.23, 'temp': 0.0, 'lipoC3S3': 10.86, 'state': 'normal', 'rot1': 266, 'rot0': 243, 'rot3': 0, 'rot2': 0, 'depth': -0.598, 'yaw': -162.41, 'datetime': '2018-12-12 14:49:28.637016', 'mgs': 0, 'flw2': 0.16, 'flw1': 0.0, 'flw0': 0.0, 'time': 36.35, 'compass': -79.73, 'pitch': -2.04, 'roll': -1.14}
{'lipoC2': 7.25, 'temp': 0.0, 'lipoC3S3': 11.23, 'state': 'normal', 'rot1': 266, 'rot0': 245, 'rot3': 0, 'rot2': 0, 'depth': -0.598, 'yaw': -161.52, 'datetime': '2018-12-12 14:49:28.846328', 'mgs': 0, 'flw2': 5.41, 'flw1': 0.0, 'flw0': 0.0, 'time': 36.55, 'compass': -78.84, 'pitch': -1.13, 'roll': -0.76}
{'lipoC2': 7.08, 'temp': 0.0, 'lipoC3S3': 11.06, 'state': 'normal', 'rot1': 266, 'rot0': 248, 'rot3': 0, 'rot2': 0, 'depth': -0.293, 'yaw': -156.37, 'datetime': '2018-12-12 14:49:29.055878', 'mgs': 0, 'flw2': 4.72, 'flw1': 0.0, 'flw0': 0.16, 'time': 36.76, 'compass': -73.7, 'pitch': 1.29, 'roll': 0.05}
{'lipoC2': 7.19, 'temp': 0.0, 'lipoC3S3': 10.85, 'state': 'normal', 'rot1': 266, 'rot0': 250, 'rot3': 0, 'rot2': 0, 'depth': 1.462, 'yaw': -148.7, 'datetime': '2018-12-12 14:49:29.263748', 'mgs': 0, 'flw2': 1.99, 'flw1': 0.0, 'flw0': 0.0, 'time': 36.97, 'compass': -66.02, 'pitch': 1.49, 'roll': 0.91}
{'lipoC2': 7.09, 'temp': 0.0, 'lipoC3S3': 11.19, 'state': 'normal', 'rot1': 266, 'rot0': 252, 'rot3': 0, 'rot2': 0, 'depth': 0.089, 'yaw': -140.84, 'datetime': '2018-12-12 14:49:29.473557', 'mgs': 0, 'flw2': 2.65, 'flw1': 0.0, 'flw0': 0.07, 'time': 37.18, 'compass': -58.17, 'pitch': -0.45, 'roll': 1.84}
{'lipoC2': 7.07, 'temp': 0.0, 'lipoC3S3': 10.96, 'state': 'normal', 'rot1': 266, 'rot0': 255, 'rot3': 0, 'rot2': 0, 'depth': -0.14, 'yaw': -133.15, 'datetime': '2018-12-12 14:49:29.683829', 'mgs': 0, 'flw2': 3.03, 'flw1': 0.0, 'flw0': 0.11, 'time': 37.39, 'compass': -50.48, 'pitch': -1.15, 'roll': 2.27}
{'lipoC2': 7.24, 'temp': 0.0, 'lipoC3S3': 11.1, 'state': 'normal', 'rot1': 266, 'rot0': 258, 'rot3': 0, 'rot2': 0, 'depth': 1.538, 'yaw': -124.52, 'datetime': '2018-12-12 14:49:29.894300', 'mgs': 0, 'flw2': 3.37, 'flw1': 0.29, 'flw0': 0.17, 'time': 37.6, 'compass': -41.84, 'pitch': -0.1, 'roll': 1.98}
{'lipoC2': 7.19, 'temp': 0.0, 'lipoC3S3': 11.39, 'state': 'normal', 'rot1': 266, 'rot0': 260, 'rot3': 0, 'rot2': 0, 'depth': 0.394, 'yaw': -114.98, 'datetime': '2018-12-12 14:49:30.103315', 'mgs': 0, 'flw2': 3.48, 'flw1': 0.41, 'flw0': 0.43, 'time': 37.81, 'compass': -32.3, 'pitch': 1.07, 'roll': 1.55}
{'lipoC2': 7.08, 'temp': 0.0, 'lipoC3S3': 11.19, 'state': 'normal', 'rot1': 267, 'rot0': 263, 'rot3': 0, 'rot2': 0, 'depth': -0.674, 'yaw': -104.85, 'datetime': '2018-12-12 14:49:30.311888', 'mgs': 0, 'flw2': 3.67, 'flw1': 0.0, 'flw0': 0.68, 'time': 38.02, 'compass': -22.17, 'pitch': 1.16, 'roll': 1.59}
{'lipoC2': 7.3, 'temp': 0.0, 'lipoC3S3': 11.22, 'state': 'normal', 'rot1': 268, 'rot0': 266, 'rot3': 0, 'rot2': 0, 'depth': -0.674, 'yaw': -94.43, 'datetime': '2018-12-12 14:49:30.521641', 'mgs': 0, 'flw2': 3.64, 'flw1': 0.44, 'flw0': 0.31, 'time': 38.23, 'compass': -11.75, 'pitch': 1.22, 'roll': 2.47}
{'lipoC2': 7.08, 'temp': 0.0, 'lipoC3S3': 11.14, 'state': 'normal', 'rot1': 269, 'rot0': 269, 'rot3': 0, 'rot2': 0, 'depth': -0.598, 'yaw': -84.06, 'datetime': '2018-12-12 14:49:30.731689', 'mgs': 0, 'flw2': 3.59, 'flw1': 0.41, 'flw0': 0.57, 'time': 38.44, 'compass': -1.38, 'pitch': 1.8, 'roll': 3.62}
{'lipoC2': 7.3, 'temp': 0.0, 'lipoC3S3': 11.13, 'state': 'normal', 'rot1': 270, 'rot0': 271, 'rot3': 0, 'rot2': 0, 'depth': 0.851, 'yaw': -74.57, 'datetime': '2018-12-12 14:49:30.940729', 'mgs': 0, 'flw2': 3.8, 'flw1': 0.0, 'flw0': 0.4, 'time': 38.65, 'compass': 8.11, 'pitch': 2.21, 'roll': 4.38}
{'lipoC2': 7.46, 'temp': 0.0, 'lipoC3S3': 10.88, 'state': 'normal', 'rot1': 272, 'rot0': 274, 'rot3': 0, 'rot2': 0, 'depth': 1.614, 'yaw': -64.75, 'datetime': '2018-12-12 14:49:31.151046', 'mgs': 0, 'flw2': 3.41, 'flw1': 0.0, 'flw0': 1.1, 'time': 38.85, 'compass': 17.93, 'pitch': 2.33, 'roll': 4.85}
{'lipoC2': 7.11, 'temp': 0.0, 'lipoC3S3': 11.01, 'state': 'normal', 'rot1': 273, 'rot0': 276, 'rot3': 0, 'rot2': 0, 'depth': -0.064, 'yaw': -55.24, 'datetime': '2018-12-12 14:49:31.360187', 'mgs': 0, 'flw2': 3.15, 'flw1': 0.26, 'flw0': 1.16, 'time': 39.06, 'compass': 27.44, 'pitch': 2.56, 'roll': 5.1}
{'lipoC2': 7.07, 'temp': 0.0, 'lipoC3S3': 11.06, 'state': 'normal', 'rot1': 275, 'rot0': 279, 'rot3': 0, 'rot2': 0, 'depth': -0.827, 'yaw': -45.91, 'datetime': '2018-12-12 14:49:31.568344', 'mgs': 0, 'flw2': 3.16, 'flw1': 0.0, 'flw0': 1.43, 'time': 39.27, 'compass': 36.77, 'pitch': 2.9, 'roll': 4.94}
{'lipoC2': 7.2, 'temp': 0.0, 'lipoC3S3': 11.47, 'state': 'normal', 'rot1': 276, 'rot0': 282, 'rot3': 0, 'rot2': 0, 'depth': -1.437, 'yaw': -36.74, 'datetime': '2018-12-12 14:49:31.778257', 'mgs': 0, 'flw2': 1.6, 'flw1': 0.79, 'flw0': 1.25, 'time': 39.48, 'compass': 45.93, 'pitch': 3.0, 'roll': 4.76}
{'lipoC2': 7.17, 'temp': 0.0, 'lipoC3S3': 10.96, 'state': 'normal', 'rot1': 278, 'rot0': 284, 'rot3': 0, 'rot2': 0, 'depth': -0.14, 'yaw': -28.64, 'datetime': '2018-12-12 14:49:31.986550', 'mgs': 0, 'flw2': 1.7, 'flw1': 0.0, 'flw0': 1.32, 'time': 39.69, 'compass': 54.04, 'pitch': 2.33, 'roll': 4.76}
{'lipoC2': 7.22, 'temp': 0.0, 'lipoC3S3': 11.23, 'state': 'normal', 'rot1': 280, 'rot0': 285, 'rot3': 0, 'rot2': 0, 'depth': -0.369, 'yaw': -22.11, 'datetime': '2018-12-12 14:49:32.197386', 'mgs': 0, 'flw2': 0.88, 'flw1': 0.03, 'flw0': 1.1, 'time': 39.9, 'compass': 60.57, 'pitch': 1.82, 'roll': 4.5}
{'lipoC2': 7.13, 'temp': 0.0, 'lipoC3S3': 11.06, 'state': 'normal', 'rot1': 281, 'rot0': 287, 'rot3': 0, 'rot2': 0, 'depth': -0.217, 'yaw': -16.42, 'datetime': '2018-12-12 14:49:32.407059', 'mgs': 0, 'flw2': 1.1, 'flw1': 0.0, 'flw0': 1.16, 'time': 40.11, 'compass': 66.26, 'pitch': 1.54, 'roll': 3.9}
{'lipoC2': 7.07, 'temp': 0.0, 'lipoC3S3': 11.06, 'state': 'normal', 'rot1': 283, 'rot0': 288, 'rot3': 0, 'rot2': 0, 'depth': -0.064, 'yaw': -11.77, 'datetime': '2018-12-12 14:49:32.618992', 'mgs': 0, 'flw2': 0.77, 'flw1': 0.0, 'flw0': 1.35, 'time': 40.32, 'compass': 70.9, 'pitch': 1.05, 'roll': 3.3}
{'lipoC2': 7.4, 'temp': 0.0, 'lipoC3S3': 10.96, 'state': 'normal', 'rot1': 285, 'rot0': 290, 'rot3': 0, 'rot2': 0, 'depth': -0.827, 'yaw': -8.05, 'datetime': '2018-12-12 14:49:32.829123', 'mgs': 0, 'flw2': 0.85, 'flw1': 0.0, 'flw0': 1.14, 'time': 40.53, 'compass': 74.63, 'pitch': 0.26, 'roll': 2.92}
{'lipoC2': 7.14, 'temp': 0.0, 'lipoC3S3': 10.9, 'state': 'normal', 'rot1': 286, 'rot0': 291, 'rot3': 0, 'rot2': 0, 'depth': 0.928, 'yaw': -5.23, 'datetime': '2018-12-12 14:49:33.039206', 'mgs': 0, 'flw2': 0.15, 'flw1': 0.0, 'flw0': 1.33, 'time': 40.74, 'compass': 77.45, 'pitch': -0.7, 'roll': 2.67}
{'lipoC2': 7.35, 'temp': 0.0, 'lipoC3S3': 10.97, 'state': 'normal', 'rot1': 288, 'rot0': 292, 'rot3': 0, 'rot2': 0, 'depth': 1.691, 'yaw': -3.41, 'datetime': '2018-12-12 14:49:33.244445', 'mgs': 0, 'flw2': 0.26, 'flw1': 0.0, 'flw0': 1.53, 'time': 40.94, 'compass': 79.27, 'pitch': -1.11, 'roll': 2.03}
{'lipoC2': 7.33, 'temp': 0.0, 'lipoC3S3': 11.17, 'state': 'normal', 'rot1': 290, 'rot0': 293, 'rot3': 0, 'rot2': 0, 'depth': 0.623, 'yaw': -2.49, 'datetime': '2018-12-12 14:49:33.454578', 'mgs': 0, 'flw2': 0.29, 'flw1': 0.56, 'flw0': 1.17, 'time': 41.15, 'compass': 80.19, 'pitch': -0.77, 'roll': 1.1}
{'lipoC2': 7.39, 'temp': 0.0, 'lipoC3S3': 10.97, 'state': 'normal', 'rot1': 291, 'rot0': 293, 'rot3': 0, 'rot2': 0, 'depth': -1.895, 'yaw': -2.33, 'datetime': '2018-12-12 14:49:33.666301', 'mgs': 0, 'flw2': 0.17, 'flw1': 0.23, 'flw0': 1.5, 'time': 41.37, 'compass': 80.34, 'pitch': -0.44, 'roll': 0.27}
{'lipoC2': 7.24, 'temp': 0.0, 'lipoC3S3': 11.02, 'state': 'normal', 'rot1': 293, 'rot0': 294, 'rot3': 0, 'rot2': 0, 'depth': 0.317, 'yaw': -3.22, 'datetime': '2018-12-12 14:49:33.875042', 'mgs': 0, 'flw2': 0.15, 'flw1': 0.41, 'flw0': 1.57, 'time': 41.57, 'compass': 79.46, 'pitch': -0.49, 'roll': 0.06}
{'lipoC2': 7.2, 'temp': 0.0, 'lipoC3S3': 11.19, 'state': 'normal', 'rot1': 295, 'rot0': 295, 'rot3': 0, 'rot2': 0, 'depth': -0.98, 'yaw': -5.28, 'datetime': '2018-12-12 14:49:34.085027', 'mgs': 0, 'flw2': 0.0, 'flw1': 0.0, 'flw0': 1.75, 'time': 41.78, 'compass': 77.4, 'pitch': -0.96, 'roll': 0.2}
{'lipoC2': 7.1, 'temp': 0.0, 'lipoC3S3': 11.07, 'state': 'normal', 'rot1': 297, 'rot0': 296, 'rot3': 0, 'rot2': 0, 'depth': -0.522, 'yaw': -8.1, 'datetime': '2018-12-12 14:49:34.292338', 'mgs': 0, 'flw2': 0.5, 'flw1': 0.0, 'flw0': 1.7, 'time': 41.99, 'compass': 74.58, 'pitch': -1.3, 'roll': 0.44}
{'lipoC2': 7.17, 'temp': 0.0, 'lipoC3S3': 11.18, 'state': 'normal', 'rot1': 299, 'rot0': 297, 'rot3': 0, 'rot2': 0, 'depth': 1.08, 'yaw': -11.46, 'datetime': '2018-12-12 14:49:34.502123', 'mgs': 0, 'flw2': 0.78, 'flw1': 0.0, 'flw0': 1.72, 'time': 42.2, 'compass': 71.21, 'pitch': -0.85, 'roll': 0.34}
{'lipoC2': 7.27, 'temp': 0.0, 'lipoC3S3': 11.3, 'state': 'normal', 'rot1': 301, 'rot0': 298, 'rot3': 0, 'rot2': 0, 'depth': 1.004, 'yaw': -14.92, 'datetime': '2018-12-12 14:49:34.715628', 'mgs': 0, 'flw2': 0.74, 'flw1': 0.0, 'flw0': 1.65, 'time': 42.41, 'compass': 67.76, 'pitch': -0.14, 'roll': -0.1}
{'lipoC2': 7.17, 'temp': 0.0, 'lipoC3S3': 11.25, 'state': 'normal', 'rot1': 303, 'rot0': 299, 'rot3': 0, 'rot2': 0, 'depth': -0.674, 'yaw': -18.75, 'datetime': '2018-12-12 14:49:34.921344', 'mgs': 0, 'flw2': 0.77, 'flw1': 0.0, 'flw0': 1.64, 'time': 42.62, 'compass': 63.93, 'pitch': -0.06, 'roll': -0.68}
{'lipoC2': 7.26, 'temp': 0.0, 'lipoC3S3': 10.82, 'state': 'normal', 'rot1': 305, 'rot0': 300, 'rot3': 0, 'rot2': 0, 'depth': -0.598, 'yaw': -22.69, 'datetime': '2018-12-12 14:49:35.130701', 'mgs': 0, 'flw2': 0.23, 'flw1': 0.0, 'flw0': 1.84, 'time': 42.83, 'compass': 59.99, 'pitch': -0.42, 'roll': -1.08}
