{'lipoC3S3': 0.0, 'datetime': '2019-02-27 09:51:13.972616', 'pitch': 1.45, 'rot1': 0, 'rot0': 0, 'rot3': 0, 'rot2': 0, 'state': 'normal', 'flw3': 0, 'flw2': 0, 'flw1': 0, 'flw0': 0, 'roll': 1.12, 'cur2': 0.0, 'cur0': 0.0, 'cur1': 0.0, 'mgs': 0, 'compass': 3.96, 'lipoC2': 0.0, 'temp': 24.77, 'thr3': 37.0, 'depth': 0.129, 'time': 1.39, 'thr2': 32.0, 'yaw': -0.0, 'thr0': 27.0, 'thr1': 27.0}
{'lipoC3S3': 0.0, 'datetime': '2019-02-27 09:51:14.292468', 'pitch': 1.39, 'rot1': 0, 'rot0': 0, 'rot3': 0, 'rot2': 0, 'state': 'normal', 'flw3': 0, 'flw2': 0, 'flw1': 0, 'flw0': 0, 'roll': 1.0, 'cur2': 0.0, 'cur0': 0.0, 'cur1': 0.0, 'mgs': 0, 'compass': 3.96, 'lipoC2': 0.0, 'temp': 24.72, 'thr3': 36.0, 'depth': 0.119, 'time': 1.71, 'thr2': 32.0, 'yaw': -0.0, 'thr0': 27.0, 'thr1': 27.0}
{'lipoC3S3': 0.0, 'datetime': '2019-02-27 09:51:14.611660', 'pitch': 1.35, 'rot1': 0, 'rot0': 0, 'rot3': 0, 'rot2': 0, 'state': 'normal', 'flw3': 0, 'flw2': 0, 'flw1': 0, 'flw0': 0, 'roll': 0.94, 'cur2': 0.0, 'cur0': 0.0, 'cur1': 0.0, 'mgs': 0, 'compass': 3.96, 'lipoC2': 0.0, 'temp': 24.72, 'thr3': 36.0, 'depth': 0.119, 'time': 2.04, 'thr2': 32.0, 'yaw': -0.0, 'thr0': 27.0, 'thr1': 27.0}
{'lipoC3S3': 0.0, 'datetime': '2019-02-27 09:51:14.933480', 'pitch': 1.26, 'rot1': 88, 'rot0': 42, 'rot3': 7, 'rot2': 11, 'state': 'normal', 'flw3': 0, 'flw2': 0, 'flw1': 0, 'flw0': 0, 'roll': 0.89, 'cur2': 2.89, 'cur0': 2.75, 'cur1': 0.0, 'mgs': 0, 'compass': 3.96, 'lipoC2': 0.0, 'temp': 24.73, 'thr3': 41.0, 'depth': 0.119, 'time': 2.36, 'thr2': 32.0, 'yaw': 0.0, 'thr0': 27.0, 'thr1': 27.0}
{'lipoC3S3': 0.0, 'datetime': '2019-02-27 09:51:15.257011', 'pitch': 1.25, 'rot1': 105, 'rot0': 51, 'rot3': 7, 'rot2': 11, 'state': 'normal', 'flw3': 0, 'flw2': 0, 'flw1': 0, 'flw0': 0, 'roll': 0.89, 'cur2': 2.73, 'cur0': 2.83, 'cur1': 0.0, 'mgs': 0, 'compass': 3.98, 'lipoC2': 0.0, 'temp': 24.73, 'thr3': 37.0, 'depth': 0.119, 'time': 2.68, 'thr2': 32.0, 'yaw': 0.02, 'thr0': 27.0, 'thr1': 27.0}
{'lipoC3S3': 0.0, 'datetime': '2019-02-27 09:51:15.582884', 'pitch': 1.21, 'rot1': 118, 'rot0': 62, 'rot3': 7, 'rot2': 11, 'state': 'normal', 'flw3': 0, 'flw2': 0, 'flw1': 0, 'flw0': 0, 'roll': 0.85, 'cur2': 2.8, 'cur0': 2.55, 'cur1': 0.0, 'mgs': 0, 'compass': 3.98, 'lipoC2': 0.0, 'temp': 24.73, 'thr3': 36.0, 'depth': 0.119, 'time': 3.0, 'thr2': 31.0, 'yaw': 0.02, 'thr0': 27.0, 'thr1': 27.0}
{'lipoC3S3': 0.0, 'datetime': '2019-02-27 09:51:15.908923', 'pitch': 1.24, 'rot1': 132, 'rot0': 72, 'rot3': 7, 'rot2': 11, 'state': 'normal', 'flw3': 0, 'flw2': 0, 'flw1': 0, 'flw0': 0, 'roll': 0.85, 'cur2': 2.8, 'cur0': 2.58, 'cur1': 0.0, 'mgs': 0, 'compass': 3.96, 'lipoC2': 0.0, 'temp': 24.73, 'thr3': 36.0, 'depth': 0.119, 'time': 3.32, 'thr2': 31.0, 'yaw': 0.0, 'thr0': 27.0, 'thr1': 27.0}
{'lipoC3S3': 0.0, 'datetime': '2019-02-27 09:51:16.228589', 'pitch': 1.25, 'rot1': 146, 'rot0': 82, 'rot3': 7, 'rot2': 11, 'state': 'normal', 'flw3': 0, 'flw2': 0, 'flw1': 0, 'flw0': 0, 'roll': 0.85, 'cur2': 2.81, 'cur0': 2.8, 'cur1': 0.0, 'mgs': 0, 'compass': 4.0, 'lipoC2': 0.0, 'temp': 24.74, 'thr3': 36.0, 'depth': 0.119, 'time': 3.64, 'thr2': 31.0, 'yaw': 0.04, 'thr0': 27.0, 'thr1': 27.0}
{'lipoC3S3': 0.0, 'datetime': '2019-02-27 09:51:16.550057', 'pitch': 1.23, 'rot1': 164, 'rot0': 92, 'rot3': 7, 'rot2': 11, 'state': 'normal', 'flw3': 0, 'flw2': 0, 'flw1': 0, 'flw0': 0, 'roll': 0.85, 'cur2': 2.67, 'cur0': 2.62, 'cur1': 0.0, 'mgs': 0, 'compass': 4.0, 'lipoC2': 0.0, 'temp': 24.74, 'thr3': 36.0, 'depth': 0.119, 'time': 3.96, 'thr2': 31.0, 'yaw': 0.04, 'thr0': 27.0, 'thr1': 27.0}
{'lipoC3S3': 0.0, 'datetime': '2019-02-27 09:51:16.873955', 'pitch': 1.74, 'rot1': 177, 'rot0': 102, 'rot3': 7, 'rot2': 11, 'state': 'normal', 'flw3': 0, 'flw2': 0, 'flw1': 0, 'flw0': 0, 'roll': 0.6, 'cur2': 2.61, 'cur0': 2.81, 'cur1': 0.0, 'mgs': 0, 'compass': 3.05, 'lipoC2': 0.0, 'temp': 24.74, 'thr3': 35.0, 'depth': 0.119, 'time': 4.28, 'thr2': 31.0, 'yaw': -0.92, 'thr0': 27.0, 'thr1': 27.0}
{'lipoC3S3': 0.0, 'datetime': '2019-02-27 09:51:17.193637', 'pitch': 1.42, 'rot1': 190, 'rot0': 112, 'rot3': 7, 'rot2': 11, 'state': 'normal', 'flw3': 0, 'flw2': 0, 'flw1': 0, 'flw0': 0, 'roll': 0.65, 'cur2': 2.76, 'cur0': 2.71, 'cur1': 0.0, 'mgs': 0, 'compass': -5.67, 'lipoC2': 0.0, 'temp': 24.74, 'thr3': 36.0, 'depth': 0.129, 'time': 4.61, 'thr2': 31.0, 'yaw': -9.63, 'thr0': 27.0, 'thr1': 27.0}
{'lipoC3S3': 0.0, 'datetime': '2019-02-27 09:51:17.518040', 'pitch': 1.22, 'rot1': 205, 'rot0': 121, 'rot3': 7, 'rot2': 11, 'state': 'normal', 'flw3': 0, 'flw2': 0, 'flw1': 0, 'flw0': 0, 'roll': 0.9, 'cur2': 2.73, 'cur0': 2.29, 'cur1': 0.0, 'mgs': 0, 'compass': -22.34, 'lipoC2': 0.0, 'temp': 24.74, 'thr3': 35.0, 'depth': 0.119, 'time': 4.93, 'thr2': 31.0, 'yaw': -26.3, 'thr0': 27.0, 'thr1': 27.0}
{'lipoC3S3': 0.0, 'datetime': '2019-02-27 09:51:17.832215', 'pitch': 1.1, 'rot1': 217, 'rot0': 131, 'rot3': 7, 'rot2': 11, 'state': 'normal', 'flw3': 0, 'flw2': 0, 'flw1': 0, 'flw0': 0, 'roll': 0.91, 'cur2': 2.77, 'cur0': 1.7, 'cur1': 0.0, 'mgs': 0, 'compass': -40.02, 'lipoC2': 0.0, 'temp': 24.74, 'thr3': 36.0, 'depth': 0.119, 'time': 5.25, 'thr2': 31.0, 'yaw': -43.98, 'thr0': 27.0, 'thr1': 27.0}
{'lipoC3S3': 0.0, 'datetime': '2019-02-27 09:51:18.157277', 'pitch': 1.21, 'rot1': 226, 'rot0': 141, 'rot3': 7, 'rot2': 11, 'state': 'normal', 'flw3': 0, 'flw2': 0, 'flw1': 0, 'flw0': 0, 'roll': 0.87, 'cur2': 2.64, 'cur0': 0.99, 'cur1': 0.0, 'mgs': 0, 'compass': -54.49, 'lipoC2': 0.0, 'temp': 24.74, 'thr3': 36.0, 'depth': 0.119, 'time': 5.57, 'thr2': 31.0, 'yaw': -58.45, 'thr0': 27.0, 'thr1': 27.0}
{'lipoC3S3': 0.0, 'datetime': '2019-02-27 09:51:18.484354', 'pitch': 1.11, 'rot1': 236, 'rot0': 151, 'rot3': 7, 'rot2': 11, 'state': 'normal', 'flw3': 0, 'flw2': 0, 'flw1': 0, 'flw0': 0, 'roll': 0.92, 'cur2': 2.82, 'cur0': 0.71, 'cur1': 0.0, 'mgs': 0, 'compass': -62.75, 'lipoC2': 0.0, 'temp': 24.74, 'thr3': 36.0, 'depth': 0.119, 'time': 5.89, 'thr2': 31.0, 'yaw': -66.71, 'thr0': 27.0, 'thr1': 27.0}
{'lipoC3S3': 0.0, 'datetime': '2019-02-27 09:51:18.800676', 'pitch': 1.11, 'rot1': 244, 'rot0': 163, 'rot3': 7, 'rot2': 11, 'state': 'normal', 'flw3': 0, 'flw2': 0, 'flw1': 0, 'flw0': 0, 'roll': 0.48, 'cur2': 2.73, 'cur0': 0.57, 'cur1': 0.0, 'mgs': 0, 'compass': -59.21, 'lipoC2': 0.0, 'temp': 24.74, 'thr3': 35.0, 'depth': 0.119, 'time': 6.21, 'thr2': 31.0, 'yaw': -63.17, 'thr0': 27.0, 'thr1': 27.0}
{'lipoC3S3': 0.0, 'datetime': '2019-02-27 09:51:19.122771', 'pitch': 0.99, 'rot1': 251, 'rot0': 173, 'rot3': 7, 'rot2': 11, 'state': 'normal', 'flw3': 0, 'flw2': 0, 'flw1': 0, 'flw0': 0, 'roll': 0.23, 'cur2': 2.72, 'cur0': 0.98, 'cur1': 0.0, 'mgs': 0, 'compass': -43.23, 'lipoC2': 0.0, 'temp': 24.74, 'thr3': 35.0, 'depth': 0.119, 'time': 6.53, 'thr2': 32.0, 'yaw': -47.2, 'thr0': 27.0, 'thr1': 27.0}
{'lipoC3S3': 0.0, 'datetime': '2019-02-27 09:51:19.448686', 'pitch': 1.26, 'rot1': 262, 'rot0': 185, 'rot3': 7, 'rot2': 11, 'state': 'normal', 'flw3': 0, 'flw2': 0, 'flw1': 0, 'flw0': 0, 'roll': 0.04, 'cur2': 2.66, 'cur0': 1.82, 'cur1': 0.0, 'mgs': 0, 'compass': -18.27, 'lipoC2': 0.0, 'temp': 24.74, 'thr3': 35.0, 'depth': 0.119, 'time': 6.86, 'thr2': 31.0, 'yaw': -22.23, 'thr0': 27.0, 'thr1': 27.0}
{'lipoC3S3': 0.0, 'datetime': '2019-02-27 09:51:19.761458', 'pitch': 1.03, 'rot1': 275, 'rot0': 194, 'rot3': 7, 'rot2': 11, 'state': 'normal', 'flw3': 0, 'flw2': 0, 'flw1': 0, 'flw0': 0, 'roll': 0.01, 'cur2': 2.8, 'cur0': 2.6, 'cur1': 0.0, 'mgs': 0, 'compass': 7.1, 'lipoC2': 0.0, 'temp': 24.74, 'thr3': 36.0, 'depth': 0.119, 'time': 7.18, 'thr2': 31.0, 'yaw': 3.14, 'thr0': 27.0, 'thr1': 27.0}
{'lipoC3S3': 0.0, 'datetime': '2019-02-27 09:51:20.082860', 'pitch': 1.05, 'rot1': 289, 'rot0': 206, 'rot3': 7, 'rot2': 11, 'state': 'normal', 'flw3': 0, 'flw2': 0, 'flw1': 0, 'flw0': 0, 'roll': 0.14, 'cur2': 2.22, 'cur0': 2.71, 'cur1': 0.0, 'mgs': 0, 'compass': 30.9, 'lipoC2': 0.0, 'temp': 24.74, 'thr3': 36.0, 'depth': 0.119, 'time': 7.5, 'thr2': 31.0, 'yaw': 26.94, 'thr0': 27.0, 'thr1': 27.0}
{'lipoC3S3': 0.0, 'datetime': '2019-02-27 09:51:20.411038', 'pitch': 0.9, 'rot1': 307, 'rot0': 213, 'rot3': 7, 'rot2': 11, 'state': 'normal', 'flw3': 0, 'flw2': 0, 'flw1': 0, 'flw0': 0, 'roll': 0.19, 'cur2': 1.37, 'cur0': 2.76, 'cur1': 0.0, 'mgs': 0, 'compass': 52.7, 'lipoC2': 0.0, 'temp': 24.74, 'thr3': 36.0, 'depth': 0.119, 'time': 7.82, 'thr2': 31.0, 'yaw': 48.73, 'thr0': 27.0, 'thr1': 27.0}
{'lipoC3S3': 0.0, 'datetime': '2019-02-27 09:51:20.728282', 'pitch': 0.78, 'rot1': 323, 'rot0': 218, 'rot3': 7, 'rot2': 11, 'state': 'normal', 'flw3': 0, 'flw2': 0, 'flw1': 0, 'flw0': 0, 'roll': 0.22, 'cur2': 0.67, 'cur0': 2.7, 'cur1': 0.0, 'mgs': 0, 'compass': 72.16, 'lipoC2': 0.0, 'temp': 24.74, 'thr3': 35.0, 'depth': 0.119, 'time': 8.14, 'thr2': 31.0, 'yaw': 68.2, 'thr0': 27.0, 'thr1': 27.0}
{'lipoC3S3': 0.0, 'datetime': '2019-02-27 09:51:21.047562', 'pitch': 0.67, 'rot1': 339, 'rot0': 222, 'rot3': 7, 'rot2': 11, 'state': 'normal', 'flw3': 0, 'flw2': 0, 'flw1': 0, 'flw0': 0, 'roll': 0.3, 'cur2': 0.16, 'cur0': 2.71, 'cur1': 0.0, 'mgs': 0, 'compass': 91.26, 'lipoC2': 0.0, 'temp': 24.74, 'thr3': 36.0, 'depth': 0.119, 'time': 8.46, 'thr2': 31.0, 'yaw': 87.3, 'thr0': 27.0, 'thr1': 27.0}
{'lipoC3S3': 0.0, 'datetime': '2019-02-27 09:51:21.371170', 'pitch': 0.6, 'rot1': 353, 'rot0': 223, 'rot3': 7, 'rot2': 11, 'state': 'normal', 'flw3': 0, 'flw2': 0, 'flw1': 0, 'flw0': 0, 'roll': 0.46, 'cur2': 0.1, 'cur0': 2.89, 'cur1': 0.0, 'mgs': 0, 'compass': 108.44, 'lipoC2': 0.0, 'temp': 24.74, 'thr3': 36.0, 'depth': 0.119, 'time': 8.78, 'thr2': 31.0, 'yaw': 104.48, 'thr0': 27.0, 'thr1': 27.0}
{'lipoC3S3': 0.0, 'datetime': '2019-02-27 09:51:21.701050', 'pitch': 0.52, 'rot1': 366, 'rot0': 225, 'rot3': 7, 'rot2': 11, 'state': 'normal', 'flw3': 0, 'flw2': 0, 'flw1': 0, 'flw0': 0, 'roll': 0.5, 'cur2': 0.7, 'cur0': 2.76, 'cur1': 0.0, 'mgs': 0, 'compass': 124.12, 'lipoC2': 0.0, 'temp': 24.74, 'thr3': 35.0, 'depth': 0.119, 'time': 9.1, 'thr2': 31.0, 'yaw': 120.16, 'thr0': 27.0, 'thr1': 27.0}
{'lipoC3S3': 0.0, 'datetime': '2019-02-27 09:51:22.014808', 'pitch': 0.39, 'rot1': 381, 'rot0': 231, 'rot3': 7, 'rot2': 11, 'state': 'normal', 'flw3': 0, 'flw2': 0, 'flw1': 0, 'flw0': 0, 'roll': 0.55, 'cur2': 1.09, 'cur0': 2.73, 'cur1': 0.0, 'mgs': 0, 'compass': 133.66, 'lipoC2': 0.0, 'temp': 24.74, 'thr3': 35.0, 'depth': 0.119, 'time': 9.43, 'thr2': 31.0, 'yaw': 129.7, 'thr0': 27.0, 'thr1': 27.0}
{'lipoC3S3': 0.0, 'datetime': '2019-02-27 09:51:22.334968', 'pitch': 0.23, 'rot1': 395, 'rot0': 238, 'rot3': 7, 'rot2': 11, 'state': 'normal', 'flw3': 0, 'flw2': 0, 'flw1': 0, 'flw0': 0, 'roll': 0.64, 'cur2': 1.12, 'cur0': 2.64, 'cur1': 0.0, 'mgs': 0, 'compass': 129.45, 'lipoC2': 0.0, 'temp': 24.74, 'thr3': 36.0, 'depth': 0.119, 'time': 9.75, 'thr2': 31.0, 'yaw': 125.49, 'thr0': 27.0, 'thr1': 27.0}
{'lipoC3S3': 0.0, 'datetime': '2019-02-27 09:51:22.657425', 'pitch': 0.21, 'rot1': 411, 'rot0': 243, 'rot3': 8, 'rot2': 12, 'state': 'normal', 'flw3': 0, 'flw2': 0, 'flw1': 0, 'flw0': 0, 'roll': 0.52, 'cur2': 0.72, 'cur0': 2.78, 'cur1': 0.0, 'mgs': 0, 'compass': 109.85, 'lipoC2': 0.0, 'temp': 24.74, 'thr3': 36.0, 'depth': 0.119, 'time': 10.07, 'thr2': 31.0, 'yaw': 105.89, 'thr0': 27.0, 'thr1': 27.0}
{'lipoC3S3': 0.0, 'datetime': '2019-02-27 09:51:22.980023', 'pitch': 0.49, 'rot1': 429, 'rot0': 275, 'rot3': 56, 'rot2': 60, 'state': 'normal', 'flw3': 0, 'flw2': 0, 'flw1': 0, 'flw0': 0, 'roll': 0.34, 'cur2': 0.01, 'cur0': 2.64, 'cur1': 0.0, 'mgs': 0, 'compass': 80.75, 'lipoC2': 0.0, 'temp': -384.75, 'thr3': 36.0, 'depth': -188249.33, 'time': 10.39, 'thr2': 32.0, 'yaw': 76.79, 'thr0': 27.0, 'thr1': 27.0}
{'lipoC3S3': 0.0, 'datetime': '2019-02-27 09:51:23.312550', 'pitch': 0.79, 'rot1': 442, 'rot0': 347, 'rot3': 179, 'rot2': 226, 'state': 'normal', 'flw3': 0, 'flw2': 0, 'flw1': 0, 'flw0': 0, 'roll': 0.16, 'cur2': 0.83, 'cur0': 2.83, 'cur1': 0.0, 'mgs': 0, 'compass': 50.13, 'lipoC2': 0.0, 'temp': 24.73, 'thr3': 36.0, 'depth': 0.119, 'time': 10.71, 'thr2': 31.0, 'yaw': 46.17, 'thr0': 27.0, 'thr1': 27.0}
{'lipoC3S3': 0.0, 'datetime': '2019-02-27 09:51:23.635626', 'pitch': 1.04, 'rot1': 458, 'rot0': 352, 'rot3': 179, 'rot2': 228, 'state': 'normal', 'flw3': 0, 'flw2': 0, 'flw1': 0, 'flw0': 0, 'roll': 0.11, 'cur2': 1.86, 'cur0': 2.78, 'cur1': 0.0, 'mgs': 0, 'compass': 20.87, 'lipoC2': 0.0, 'temp': 24.74, 'thr3': 36.0, 'depth': 0.119, 'time': 11.03, 'thr2': 31.0, 'yaw': 16.91, 'thr0': 27.0, 'thr1': 27.0}
{'lipoC3S3': 0.0, 'datetime': '2019-02-27 09:51:23.957143', 'pitch': 1.29, 'rot1': 475, 'rot0': 360, 'rot3': 179, 'rot2': 229, 'state': 'normal', 'flw3': 0, 'flw2': 0, 'flw1': 0, 'flw0': 0, 'roll': 0.21, 'cur2': 2.71, 'cur0': 2.7, 'cur1': 0.0, 'mgs': 0, 'compass': -7.01, 'lipoC2': 0.0, 'temp': 24.74, 'thr3': 35.0, 'depth': 0.119, 'time': 11.36, 'thr2': 31.0, 'yaw': -10.97, 'thr0': 27.0, 'thr1': 27.0}
{'lipoC3S3': 0.0, 'datetime': '2019-02-27 09:51:24.279031', 'pitch': 1.44, 'rot1': 491, 'rot0': 371, 'rot3': 179, 'rot2': 229, 'state': 'normal', 'flw3': 0, 'flw2': 0, 'flw1': 0, 'flw0': 0, 'roll': 0.35, 'cur2': 2.62, 'cur0': 1.87, 'cur1': 0.0, 'mgs': 0, 'compass': -33.48, 'lipoC2': 0.0, 'temp': 24.74, 'thr3': 36.0, 'depth': 0.119, 'time': 11.68, 'thr2': 31.0, 'yaw': -37.44, 'thr0': 27.0, 'thr1': 27.0}
{'lipoC3S3': 0.0, 'datetime': '2019-02-27 09:51:24.601641', 'pitch': 1.58, 'rot1': 504, 'rot0': 382, 'rot3': 179, 'rot2': 229, 'state': 'normal', 'flw3': 0, 'flw2': 0, 'flw1': 0, 'flw0': 0, 'roll': 0.55, 'cur2': 2.75, 'cur0': 1.05, 'cur1': 0.0, 'mgs': 0, 'compass': -58.53, 'lipoC2': 0.0, 'temp': 24.74, 'thr3': 35.0, 'depth': 0.129, 'time': 12.0, 'thr2': 31.0, 'yaw': -62.49, 'thr0': 27.0, 'thr1': 27.0}
{'lipoC3S3': 0.0, 'datetime': '2019-02-27 09:51:24.926701', 'pitch': 1.58, 'rot1': 512, 'rot0': 394, 'rot3': 179, 'rot2': 229, 'state': 'normal', 'flw3': 0, 'flw2': 0, 'flw1': 0, 'flw0': 0, 'roll': 0.79, 'cur2': 2.72, 'cur0': 0.32, 'cur1': 0.0, 'mgs': 0, 'compass': -80.96, 'lipoC2': 0.0, 'temp': 24.74, 'thr3': 35.0, 'depth': 0.119, 'time': 12.32, 'thr2': 31.0, 'yaw': -84.92, 'thr0': 27.0, 'thr1': 29.0}
{'lipoC3S3': 0.0, 'datetime': '2019-02-27 09:51:25.244812', 'pitch': 1.45, 'rot1': 515, 'rot0': 405, 'rot3': 179, 'rot2': 229, 'state': 'normal', 'flw3': 0, 'flw2': 0, 'flw1': 0, 'flw0': 0, 'roll': 0.93, 'cur2': 2.76, 'cur0': 0.0, 'cur1': 0.0, 'mgs': 0, 'compass': -99.58, 'lipoC2': 0.0, 'temp': 24.74, 'thr3': 35.0, 'depth': 0.129, 'time': 12.65, 'thr2': 31.0, 'yaw': -103.54, 'thr0': 27.0, 'thr1': 27.0}
{'lipoC3S3': 0.0, 'datetime': '2019-02-27 09:51:25.575314', 'pitch': 1.31, 'rot1': 516, 'rot0': 417, 'rot3': 179, 'rot2': 229, 'state': 'normal', 'flw3': 0, 'flw2': 0, 'flw1': 0, 'flw0': 0, 'roll': 0.94, 'cur2': 2.62, 'cur0': 0.4, 'cur1': 0.0, 'mgs': 0, 'compass': -112.29, 'lipoC2': 0.0, 'temp': 24.74, 'thr3': 36.0, 'depth': 0.129, 'time': 12.97, 'thr2': 31.0, 'yaw': -116.25, 'thr0': 27.0, 'thr1': 27.0}
{'lipoC3S3': 0.0, 'datetime': '2019-02-27 09:51:25.893605', 'pitch': 1.69, 'rot1': 523, 'rot0': 428, 'rot3': 179, 'rot2': 229, 'state': 'normal', 'flw3': 0, 'flw2': 0, 'flw1': 0, 'flw0': 0, 'roll': 0.34, 'cur2': 2.8, 'cur0': 0.57, 'cur1': 0.0, 'mgs': 0, 'compass': -109.71, 'lipoC2': 0.0, 'temp': 24.74, 'thr3': 37.0, 'depth': 0.119, 'time': 13.29, 'thr2': 32.0, 'yaw': -113.67, 'thr0': 27.0, 'thr1': 27.0}
{'lipoC3S3': 0.0, 'datetime': '2019-02-27 09:51:26.216534', 'pitch': 1.83, 'rot1': 528, 'rot0': 438, 'rot3': 179, 'rot2': 229, 'state': 'normal', 'flw3': 0, 'flw2': 0, 'flw1': 0, 'flw0': 0, 'roll': -0.21, 'cur2': 2.7, 'cur0': 0.24, 'cur1': 0.0, 'mgs': 0, 'compass': -89.08, 'lipoC2': 0.0, 'temp': 24.74, 'thr3': 36.0, 'depth': 0.119, 'time': 13.62, 'thr2': 31.0, 'yaw': -93.04, 'thr0': 27.0, 'thr1': 27.0}
{'lipoC3S3': 0.0, 'datetime': '2019-02-27 09:51:26.543099', 'pitch': 1.57, 'rot1': 530, 'rot0': 447, 'rot3': 179, 'rot2': 229, 'state': 'normal', 'flw3': 0, 'flw2': 0, 'flw1': 0, 'flw0': 0, 'roll': -0.5, 'cur2': 2.66, 'cur0': 0.28, 'cur1': 0.0, 'mgs': 0, 'compass': -61.26, 'lipoC2': 0.0, 'temp': 24.74, 'thr3': 36.0, 'depth': 0.119, 'time': 13.94, 'thr2': 31.0, 'yaw': -65.22, 'thr0': 27.0, 'thr1': 27.0}
{'lipoC3S3': 0.0, 'datetime': '2019-02-27 09:51:26.856694', 'pitch': 1.06, 'rot1': 539, 'rot0': 458, 'rot3': 179, 'rot2': 229, 'state': 'normal', 'flw3': 0, 'flw2': 0, 'flw1': 0, 'flw0': 0, 'roll': -0.57, 'cur2': 2.7, 'cur0': 1.07, 'cur1': 0.0, 'mgs': 0, 'compass': -35.38, 'lipoC2': 0.0, 'temp': 24.74, 'thr3': 36.0, 'depth': 0.119, 'time': 14.26, 'thr2': 31.0, 'yaw': -39.34, 'thr0': 27.0, 'thr1': 27.0}
{'lipoC3S3': 0.0, 'datetime': '2019-02-27 09:51:27.179565', 'pitch': 0.71, 'rot1': 547, 'rot0': 469, 'rot3': 179, 'rot2': 229, 'state': 'normal', 'flw3': 0, 'flw2': 0, 'flw1': 0, 'flw0': 0, 'roll': -0.4, 'cur2': 2.8, 'cur0': 2.0, 'cur1': 0.0, 'mgs': 0, 'compass': -10.97, 'lipoC2': 0.0, 'temp': 24.74, 'thr3': 35.0, 'depth': 0.119, 'time': 14.58, 'thr2': 31.0, 'yaw': -14.93, 'thr0': 27.0, 'thr1': 27.0}
{'lipoC3S3': 0.0, 'datetime': '2019-02-27 09:51:27.504150', 'pitch': 0.69, 'rot1': 562, 'rot0': 479, 'rot3': 179, 'rot2': 229, 'state': 'normal', 'flw3': 0, 'flw2': 0, 'flw1': 0, 'flw0': 0, 'roll': -0.24, 'cur2': 2.69, 'cur0': 2.92, 'cur1': 0.0, 'mgs': 0, 'compass': 11.02, 'lipoC2': 0.0, 'temp': 24.74, 'thr3': 36.0, 'depth': 0.119, 'time': 14.91, 'thr2': 31.0, 'yaw': 7.06, 'thr0': 27.0, 'thr1': 27.0}
{'lipoC3S3': 0.0, 'datetime': '2019-02-27 09:51:27.827115', 'pitch': 0.7, 'rot1': 576, 'rot0': 490, 'rot3': 179, 'rot2': 229, 'state': 'normal', 'flw3': 0, 'flw2': 0, 'flw1': 0, 'flw0': 0, 'roll': -0.09, 'cur2': 2.16, 'cur0': 2.75, 'cur1': 0.0, 'mgs': 0, 'compass': 23.91, 'lipoC2': 0.0, 'temp': 24.74, 'thr3': 35.0, 'depth': 0.119, 'time': 15.23, 'thr2': 31.0, 'yaw': 19.95, 'thr0': 27.0, 'thr1': 27.0}
{'lipoC3S3': 0.0, 'datetime': '2019-02-27 09:51:28.150726', 'pitch': 0.67, 'rot1': 591, 'rot0': 498, 'rot3': 180, 'rot2': 230, 'state': 'normal', 'flw3': 0, 'flw2': 0, 'flw1': 0, 'flw0': 0, 'roll': 0.05, 'cur2': 2.12, 'cur0': 2.72, 'cur1': 0.0, 'mgs': 0, 'compass': 22.43, 'lipoC2': 0.0, 'temp': 24.74, 'thr3': 36.0, 'depth': 0.119, 'time': 15.55, 'thr2': 31.0, 'yaw': 18.47, 'thr0': 27.0, 'thr1': 27.0}
{'lipoC3S3': 0.0, 'datetime': '2019-02-27 09:51:28.472715', 'pitch': 0.66, 'rot1': 608, 'rot0': 507, 'rot3': 180, 'rot2': 230, 'state': 'normal', 'flw3': 0, 'flw2': 0, 'flw1': 0, 'flw0': 0, 'roll': 0.05, 'cur2': 2.37, 'cur0': 2.72, 'cur1': 0.0, 'mgs': 0, 'compass': 10.39, 'lipoC2': 0.0, 'temp': 24.74, 'thr3': 36.0, 'depth': 0.119, 'time': 15.88, 'thr2': 31.0, 'yaw': 6.43, 'thr0': 27.0, 'thr1': 27.0}
{'lipoC3S3': 0.0, 'datetime': '2019-02-27 09:51:28.794870', 'pitch': 0.42, 'rot1': 624, 'rot0': 517, 'rot3': 180, 'rot2': 230, 'state': 'normal', 'flw3': 0, 'flw2': 0, 'flw1': 0, 'flw0': 0, 'roll': -0.09, 'cur2': 2.69, 'cur0': 2.75, 'cur1': 0.0, 'mgs': 0, 'compass': -1.4, 'lipoC2': 0.0, 'temp': 24.75, 'thr3': 35.0, 'depth': 245137.2, 'time': 16.2, 'thr2': 31.0, 'yaw': -5.36, 'thr0': 27.0, 'thr1': 27.0}
{'lipoC3S3': 0.0, 'datetime': '2019-02-27 09:51:29.118154', 'pitch': 0.8, 'rot1': 639, 'rot0': 528, 'rot3': 180, 'rot2': 230, 'state': 'normal', 'flw3': 0, 'flw2': 0, 'flw1': 0, 'flw0': 0, 'roll': -0.24, 'cur2': 2.71, 'cur0': 2.72, 'cur1': 0.0, 'mgs': 0, 'compass': -2.95, 'lipoC2': 0.0, 'temp': 24.74, 'thr3': 36.0, 'depth': 0.119, 'time': 16.52, 'thr2': 31.0, 'yaw': -6.91, 'thr0': 27.0, 'thr1': 27.0}
{'lipoC3S3': 0.0, 'datetime': '2019-02-27 09:51:29.440725', 'pitch': 0.84, 'rot1': 655, 'rot0': 539, 'rot3': 180, 'rot2': 230, 'state': 'normal', 'flw3': 0, 'flw2': 0, 'flw1': 0, 'flw0': 0, 'roll': -0.19, 'cur2': 2.64, 'cur0': 2.64, 'cur1': 0.0, 'mgs': 0, 'compass': -2.27, 'lipoC2': 0.0, 'temp': 24.74, 'thr3': 36.0, 'depth': 0.119, 'time': 16.84, 'thr2': 31.0, 'yaw': -6.24, 'thr0': 27.0, 'thr1': 27.0}
{'lipoC3S3': 0.0, 'datetime': '2019-02-27 09:51:29.763674', 'pitch': 0.91, 'rot1': 669, 'rot0': 553, 'rot3': 180, 'rot2': 230, 'state': 'normal', 'flw3': 0, 'flw2': 0, 'flw1': 0, 'flw0': 0, 'roll': -0.21, 'cur2': 2.56, 'cur0': 2.58, 'cur1': 0.0, 'mgs': 0, 'compass': -2.34, 'lipoC2': 0.0, 'temp': 24.75, 'thr3': 36.0, 'depth': 0.119, 'time': 17.16, 'thr2': 31.0, 'yaw': -6.3, 'thr0': 27.0, 'thr1': 27.0}
{'lipoC3S3': 0.0, 'datetime': '2019-02-27 09:51:30.089127', 'pitch': 0.95, 'rot1': 683, 'rot0': 564, 'rot3': 180, 'rot2': 230, 'state': 'normal', 'flw3': 0, 'flw2': 0, 'flw1': 0, 'flw0': 0, 'roll': -0.09, 'cur2': 2.54, 'cur0': 2.71, 'cur1': 0.0, 'mgs': 0, 'compass': -2.33, 'lipoC2': 0.0, 'temp': 24.74, 'thr3': 36.0, 'depth': 0.129, 'time': 17.49, 'thr2': 31.0, 'yaw': -6.29, 'thr0': 27.0, 'thr1': 27.0}
{'lipoC3S3': 0.0, 'datetime': '2019-02-27 09:51:30.411891', 'pitch': 0.94, 'rot1': 696, 'rot0': 575, 'rot3': 180, 'rot2': 230, 'state': 'normal', 'flw3': 0, 'flw2': 0, 'flw1': 0, 'flw0': 0, 'roll': -0.0, 'cur2': 2.7, 'cur0': 2.78, 'cur1': 0.0, 'mgs': 0, 'compass': -2.33, 'lipoC2': 0.0, 'temp': 24.74, 'thr3': 36.0, 'depth': 0.119, 'time': 17.81, 'thr2': 31.0, 'yaw': -6.29, 'thr0': 27.0, 'thr1': 26.0}
