{'lipoC2': 0.0, 'temp': 0.0, 'lipoC3S3': 12.35, 'state': 'normal', 'rot1': 0, 'rot0': 0, 'rot3': 0, 'rot2': 0, 'depth': 0.546, 'yaw': 0.0, 'datetime': '2018-12-18 17:54:41.585028', 'mgs': 0, 'flw2': 0.0, 'flw1': 0.0, 'flw0': 0.0, 'time': 1.25, 'compass': 122.06, 'pitch': -1.05, 'roll': 1.18}
{'lipoC2': 0.03, 'temp': 0.0, 'lipoC3S3': 12.25, 'state': 'normal', 'rot1': 0, 'rot0': 0, 'rot3': 0, 'rot2': 0, 'depth': 0.012, 'yaw': 0.0, 'datetime': '2018-12-18 17:54:41.794394', 'mgs': 0, 'flw2': 0.0, 'flw1': 0.0, 'flw0': 0.15, 'time': 1.46, 'compass': 122.06, 'pitch': -1.03, 'roll': 1.17}
{'lipoC2': 0.12, 'temp': 0.0, 'lipoC3S3': 12.34, 'state': 'normal', 'rot1': 0, 'rot0': 0, 'rot3': 0, 'rot2': 0, 'depth': 1.92, 'yaw': 0.0, 'datetime': '2018-12-18 17:54:42.002699', 'mgs': 0, 'flw2': 0.21, 'flw1': 0.26, 'flw0': 0.0, 'time': 1.67, 'compass': 122.06, 'pitch': -1.04, 'roll': 1.18}
{'lipoC2': 0.01, 'temp': 0.0, 'lipoC3S3': 12.25, 'state': 'normal', 'rot1': 0, 'rot0': 0, 'rot3': 0, 'rot2': 0, 'depth': 0.165, 'yaw': 0.0, 'datetime': '2018-12-18 17:54:42.212142', 'mgs': 0, 'flw2': 0.2, 'flw1': 0.0, 'flw0': 0.0, 'time': 1.88, 'compass': 122.06, 'pitch': -1.04, 'roll': 1.18}
{'lipoC2': 0.1, 'temp': 0.0, 'lipoC3S3': 12.13, 'state': 'normal', 'rot1': 0, 'rot0': 0, 'rot3': 0, 'rot2': 0, 'depth': 0.394, 'yaw': -0.0, 'datetime': '2018-12-18 17:54:42.417459', 'mgs': 0, 'flw2': 0.0, 'flw1': 0.12, 'flw0': 0.21, 'time': 2.09, 'compass': 122.05, 'pitch': -0.97, 'roll': 1.17}
{'lipoC2': 0.08, 'temp': 0.0, 'lipoC3S3': 12.17, 'state': 'normal', 'rot1': 0, 'rot0': 0, 'rot3': 0, 'rot2': 0, 'depth': 0.317, 'yaw': -0.0, 'datetime': '2018-12-18 17:54:42.628761', 'mgs': 0, 'flw2': 0.17, 'flw1': 0.09, 'flw0': 0.0, 'time': 2.3, 'compass': 122.05, 'pitch': -0.8, 'roll': 1.18}
{'lipoC2': 0.0, 'temp': 0.0, 'lipoC3S3': 12.48, 'state': 'normal', 'rot1': 0, 'rot0': 0, 'rot3': 0, 'rot2': 0, 'depth': 1.462, 'yaw': -0.0, 'datetime': '2018-12-18 17:54:42.837825', 'mgs': 0, 'flw2': 0.16, 'flw1': 0.0, 'flw0': 0.0, 'time': 2.5, 'compass': 122.05, 'pitch': -0.77, 'roll': 1.18}
{'lipoC2': 0.12, 'temp': 0.0, 'lipoC3S3': 12.13, 'state': 'normal', 'rot1': 0, 'rot0': 0, 'rot3': 0, 'rot2': 0, 'depth': 0.623, 'yaw': -0.0, 'datetime': '2018-12-18 17:54:43.044711', 'mgs': 0, 'flw2': 0.0, 'flw1': 0.15, 'flw0': 0.2, 'time': 2.71, 'compass': 122.05, 'pitch': -0.79, 'roll': 1.18}
{'lipoC2': 0.0, 'temp': 0.0, 'lipoC3S3': 12.5, 'state': 'normal', 'rot1': 0, 'rot0': 0, 'rot3': 0, 'rot2': 0, 'depth': 1.538, 'yaw': -0.0, 'datetime': '2018-12-18 17:54:43.253566', 'mgs': 0, 'flw2': 0.0, 'flw1': 0.15, 'flw0': 0.21, 'time': 2.92, 'compass': 122.05, 'pitch': -0.84, 'roll': 1.18}
{'lipoC2': 0.0, 'temp': 0.0, 'lipoC3S3': 12.54, 'state': 'normal', 'rot1': 0, 'rot0': 0, 'rot3': 0, 'rot2': 0, 'depth': 0.089, 'yaw': -0.0, 'datetime': '2018-12-18 17:54:43.461698', 'mgs': 0, 'flw2': 0.1, 'flw1': 0.35, 'flw0': 0.0, 'time': 3.13, 'compass': 122.05, 'pitch': -0.77, 'roll': 1.17}
{'lipoC2': 0.02, 'temp': 0.0, 'lipoC3S3': 12.21, 'state': 'normal', 'rot1': 0, 'rot0': 0, 'rot3': 0, 'rot2': 0, 'depth': 1.385, 'yaw': -0.0, 'datetime': '2018-12-18 17:54:43.672168', 'mgs': 0, 'flw2': 0.16, 'flw1': 0.0, 'flw0': 0.0, 'time': 3.34, 'compass': 122.05, 'pitch': -0.59, 'roll': 1.18}
{'lipoC2': 0.0, 'temp': 0.0, 'lipoC3S3': 12.55, 'state': 'normal', 'rot1': 0, 'rot0': 0, 'rot3': 0, 'rot2': 0, 'depth': 1.614, 'yaw': -0.0, 'datetime': '2018-12-18 17:54:43.879012', 'mgs': 0, 'flw2': 0.0, 'flw1': 0.29, 'flw0': 0.13, 'time': 3.54, 'compass': 122.05, 'pitch': -0.58, 'roll': 1.17}
{'lipoC2': 0.0, 'temp': 0.0, 'lipoC3S3': 12.45, 'state': 'normal', 'rot1': 0, 'rot0': 0, 'rot3': 0, 'rot2': 0, 'depth': 1.157, 'yaw': -0.0, 'datetime': '2018-12-18 17:54:44.087715', 'mgs': 0, 'flw2': 0.21, 'flw1': 0.0, 'flw0': 0.0, 'time': 3.75, 'compass': 122.05, 'pitch': -0.58, 'roll': 1.17}
{'lipoC2': 0.12, 'temp': 0.0, 'lipoC3S3': 12.52, 'state': 'normal', 'rot1': 0, 'rot0': 0, 'rot3': 0, 'rot2': 0, 'depth': 0.775, 'yaw': -0.0, 'datetime': '2018-12-18 17:54:44.296981', 'mgs': 0, 'flw2': 0.0, 'flw1': 0.0, 'flw0': 0.18, 'time': 3.96, 'compass': 122.05, 'pitch': -0.53, 'roll': 1.18}
{'lipoC2': 0.0, 'temp': 0.0, 'lipoC3S3': 12.5, 'state': 'normal', 'rot1': 0, 'rot0': 0, 'rot3': 0, 'rot2': 0, 'depth': 1.462, 'yaw': -0.0, 'datetime': '2018-12-18 17:54:44.503835', 'mgs': 0, 'flw2': 0.0, 'flw1': 0.0, 'flw0': 0.18, 'time': 4.17, 'compass': 122.06, 'pitch': -0.48, 'roll': 1.17}
{'lipoC2': 0.0, 'temp': 0.0, 'lipoC3S3': 12.46, 'state': 'normal', 'rot1': 0, 'rot0': 0, 'rot3': 0, 'rot2': 0, 'depth': 1.309, 'yaw': -0.0, 'datetime': '2018-12-18 17:54:44.712447', 'mgs': 0, 'flw2': 0.0, 'flw1': 0.29, 'flw0': 0.12, 'time': 4.38, 'compass': 122.05, 'pitch': -0.52, 'roll': 1.18}
{'lipoC2': 0.14, 'temp': 0.0, 'lipoC3S3': 12.29, 'state': 'normal', 'rot1': 0, 'rot0': 0, 'rot3': 0, 'rot2': 0, 'depth': -0.98, 'yaw': -0.0, 'datetime': '2018-12-18 17:54:44.920655', 'mgs': 0, 'flw2': 0.0, 'flw1': 0.41, 'flw0': 0.0, 'time': 4.58, 'compass': 122.05, 'pitch': -0.6, 'roll': 1.18}
{'lipoC2': 0.04, 'temp': 0.0, 'lipoC3S3': 12.18, 'state': 'normal', 'rot1': 0, 'rot0': 0, 'rot3': 0, 'rot2': 0, 'depth': 1.309, 'yaw': -0.0, 'datetime': '2018-12-18 17:54:45.128591', 'mgs': 0, 'flw2': 0.18, 'flw1': 0.0, 'flw0': 3.42, 'time': 4.79, 'compass': 122.06, 'pitch': -0.47, 'roll': 1.18}
{'lipoC2': 0.04, 'temp': 0.0, 'lipoC3S3': 12.18, 'state': 'normal', 'rot1': 2, 'rot0': 0, 'rot3': 0, 'rot2': 0, 'depth': 1.233, 'yaw': -1.89, 'datetime': '2018-12-18 17:54:45.336465', 'mgs': 0, 'flw2': 0.2, 'flw1': 0.0, 'flw0': 2.45, 'time': 5.0, 'compass': 120.17, 'pitch': 0.73, 'roll': 0.78}
{'lipoC2': 0.0, 'temp': 0.0, 'lipoC3S3': 12.48, 'state': 'normal', 'rot1': 4, 'rot0': 0, 'rot3': 0, 'rot2': 0, 'depth': 1.691, 'yaw': -6.62, 'datetime': '2018-12-18 17:54:45.545863', 'mgs': 0, 'flw2': 0.0, 'flw1': 0.21, 'flw0': 0.21, 'time': 5.21, 'compass': 115.44, 'pitch': 2.06, 'roll': 0.24}
{'lipoC2': 0.0, 'temp': 0.0, 'lipoC3S3': 12.37, 'state': 'normal', 'rot1': 4, 'rot0': 0, 'rot3': 0, 'rot2': 0, 'depth': 0.241, 'yaw': -11.92, 'datetime': '2018-12-18 17:54:45.752736', 'mgs': 0, 'flw2': 0.15, 'flw1': 0.0, 'flw0': 0.01, 'time': 5.41, 'compass': 110.13, 'pitch': 1.02, 'roll': 0.4}
{'lipoC2': 0.01, 'temp': 0.0, 'lipoC3S3': 12.43, 'state': 'normal', 'rot1': 4, 'rot0': 0, 'rot3': 0, 'rot2': 0, 'depth': -1.132, 'yaw': -16.5, 'datetime': '2018-12-18 17:54:45.960661', 'mgs': 0, 'flw2': 0.0, 'flw1': 0.5, 'flw0': 0.01, 'time': 5.62, 'compass': 105.55, 'pitch': -0.93, 'roll': 1.14}
{'lipoC2': 0.04, 'temp': 0.0, 'lipoC3S3': 12.19, 'state': 'normal', 'rot1': 4, 'rot0': 0, 'rot3': 0, 'rot2': 0, 'depth': 1.385, 'yaw': -20.3, 'datetime': '2018-12-18 17:54:46.168232', 'mgs': 0, 'flw2': 0.0, 'flw1': 0.32, 'flw0': 0.12, 'time': 5.83, 'compass': 101.75, 'pitch': -1.04, 'roll': 1.74}
{'lipoC2': 0.0, 'temp': 0.0, 'lipoC3S3': 12.56, 'state': 'normal', 'rot1': 4, 'rot0': 0, 'rot3': 0, 'rot2': 0, 'depth': 1.614, 'yaw': -23.84, 'datetime': '2018-12-18 17:54:46.374692', 'mgs': 0, 'flw2': 0.12, 'flw1': 0.29, 'flw0': 0.0, 'time': 6.04, 'compass': 98.21, 'pitch': 0.32, 'roll': 1.91}
{'lipoC2': 0.02, 'temp': 0.0, 'lipoC3S3': 12.22, 'state': 'normal', 'rot1': 4, 'rot0': 0, 'rot3': 0, 'rot2': 0, 'depth': 0.241, 'yaw': -27.06, 'datetime': '2018-12-18 17:54:46.584035', 'mgs': 0, 'flw2': 0.17, 'flw1': 0.0, 'flw0': 0.0, 'time': 6.24, 'compass': 95.0, 'pitch': 1.04, 'roll': 1.7}
{'lipoC2': 0.03, 'temp': 0.0, 'lipoC3S3': 12.43, 'state': 'normal', 'rot1': 4, 'rot0': 0, 'rot3': 0, 'rot2': 0, 'depth': -1.285, 'yaw': -29.9, 'datetime': '2018-12-18 17:54:46.793661', 'mgs': 0, 'flw2': 0.0, 'flw1': 0.41, 'flw0': 0.0, 'time': 6.45, 'compass': 92.16, 'pitch': 0.47, 'roll': 1.31}
{'lipoC2': 0.0, 'temp': 0.0, 'lipoC3S3': 12.55, 'state': 'normal', 'rot1': 4, 'rot0': 0, 'rot3': 0, 'rot2': 0, 'depth': 1.614, 'yaw': -32.66, 'datetime': '2018-12-18 17:54:47.001668', 'mgs': 0, 'flw2': 0.0, 'flw1': 0.0, 'flw0': 0.22, 'time': 6.66, 'compass': 89.4, 'pitch': -0.21, 'roll': 0.9}
{'lipoC2': 0.0, 'temp': 0.0, 'lipoC3S3': 12.19, 'state': 'normal', 'rot1': 4, 'rot0': 0, 'rot3': 0, 'rot2': 0, 'depth': -0.674, 'yaw': -35.21, 'datetime': '2018-12-18 17:54:47.211857', 'mgs': 0, 'flw2': 0.0, 'flw1': 0.0, 'flw0': 0.18, 'time': 6.87, 'compass': 86.85, 'pitch': 0.03, 'roll': 0.68}
{'lipoC2': 0.12, 'temp': 0.0, 'lipoC3S3': 12.16, 'state': 'normal', 'rot1': 4, 'rot0': 0, 'rot3': 0, 'rot2': 0, 'depth': 0.699, 'yaw': -37.5, 'datetime': '2018-12-18 17:54:47.419557', 'mgs': 0, 'flw2': 0.13, 'flw1': 0.18, 'flw0': 0.0, 'time': 7.08, 'compass': 84.55, 'pitch': 0.63, 'roll': 0.76}
{'lipoC2': 0.15, 'temp': 0.0, 'lipoC3S3': 12.3, 'state': 'normal', 'rot1': 4, 'rot0': 0, 'rot3': 0, 'rot2': 0, 'depth': -0.827, 'yaw': -39.74, 'datetime': '2018-12-18 17:54:47.625973', 'mgs': 0, 'flw2': 0.0, 'flw1': 0.38, 'flw0': 0.0, 'time': 7.28, 'compass': 82.31, 'pitch': 0.78, 'roll': 1.12}
{'lipoC2': 0.0, 'temp': 0.0, 'lipoC3S3': 12.41, 'state': 'normal', 'rot1': 4, 'rot0': 0, 'rot3': 0, 'rot2': 0, 'depth': 0.775, 'yaw': -41.89, 'datetime': '2018-12-18 17:54:47.837599', 'mgs': 0, 'flw2': 0.0, 'flw1': 0.44, 'flw0': 0.01, 'time': 7.49, 'compass': 80.17, 'pitch': 0.53, 'roll': 1.51}
{'lipoC2': 0.0, 'temp': 0.0, 'lipoC3S3': 12.52, 'state': 'normal', 'rot1': 4, 'rot0': 0, 'rot3': 0, 'rot2': 0, 'depth': -1.59, 'yaw': -43.83, 'datetime': '2018-12-18 17:54:48.041778', 'mgs': 0, 'flw2': 0.37, 'flw1': 0.0, 'flw0': 0.22, 'time': 7.7, 'compass': 78.22, 'pitch': 0.36, 'roll': 1.65}
{'lipoC2': 0.04, 'temp': 0.0, 'lipoC3S3': 12.18, 'state': 'normal', 'rot1': 4, 'rot0': 0, 'rot3': 0, 'rot2': 0, 'depth': 0.241, 'yaw': -45.52, 'datetime': '2018-12-18 17:54:48.249374', 'mgs': 0, 'flw2': 0.0, 'flw1': 0.18, 'flw0': 0.18, 'time': 7.91, 'compass': 76.54, 'pitch': 0.48, 'roll': 1.58}
{'lipoC2': 0.0, 'temp': 0.0, 'lipoC3S3': 12.55, 'state': 'normal', 'rot1': 4, 'rot0': 0, 'rot3': 0, 'rot2': 0, 'depth': 1.691, 'yaw': -47.08, 'datetime': '2018-12-18 17:54:48.457231', 'mgs': 0, 'flw2': 0.18, 'flw1': 0.09, 'flw0': 0.2, 'time': 8.12, 'compass': 74.98, 'pitch': 0.58, 'roll': 1.34}
{'lipoC2': 0.14, 'temp': 0.0, 'lipoC3S3': 12.25, 'state': 'normal', 'rot1': 4, 'rot0': 0, 'rot3': 0, 'rot2': 0, 'depth': -0.522, 'yaw': -48.5, 'datetime': '2018-12-18 17:54:48.667849', 'mgs': 0, 'flw2': 0.07, 'flw1': 0.38, 'flw0': 0.0, 'time': 8.32, 'compass': 73.55, 'pitch': 0.55, 'roll': 1.14}
{'lipoC2': 0.0, 'temp': 0.0, 'lipoC3S3': 12.42, 'state': 'normal', 'rot1': 4, 'rot0': 0, 'rot3': 0, 'rot2': 0, 'depth': 0.775, 'yaw': -49.94, 'datetime': '2018-12-18 17:54:48.875359', 'mgs': 0, 'flw2': 0.2, 'flw1': 0.0, 'flw0': 0.0, 'time': 8.53, 'compass': 72.11, 'pitch': 0.52, 'roll': 1.1}
{'lipoC2': 0.0, 'temp': 0.0, 'lipoC3S3': 12.55, 'state': 'normal', 'rot1': 4, 'rot0': 0, 'rot3': 0, 'rot2': 0, 'depth': 1.767, 'yaw': -51.36, 'datetime': '2018-12-18 17:54:49.084866', 'mgs': 0, 'flw2': 0.0, 'flw1': 0.06, 'flw0': 0.2, 'time': 8.74, 'compass': 70.7, 'pitch': 0.49, 'roll': 1.13}
{'lipoC2': 0.03, 'temp': 0.0, 'lipoC3S3': 12.43, 'state': 'normal', 'rot1': 4, 'rot0': 1, 'rot3': 0, 'rot2': 0, 'depth': -1.437, 'yaw': -52.66, 'datetime': '2018-12-18 17:54:49.293902', 'mgs': 0, 'flw2': 0.43, 'flw1': 0.44, 'flw0': 0.02, 'time': 8.95, 'compass': 69.39, 'pitch': 0.54, 'roll': 1.31}
{'lipoC2': 0.0, 'temp': 0.0, 'lipoC3S3': 12.55, 'state': 'normal', 'rot1': 4, 'rot0': 2, 'rot3': 0, 'rot2': 0, 'depth': 1.614, 'yaw': -53.53, 'datetime': '2018-12-18 17:54:49.498878', 'mgs': 0, 'flw2': 1.5, 'flw1': 0.18, 'flw0': 0.0, 'time': 9.15, 'compass': 68.52, 'pitch': 0.89, 'roll': 1.62}
{'lipoC2': 0.08, 'temp': 0.0, 'lipoC3S3': 12.39, 'state': 'normal', 'rot1': 4, 'rot0': 4, 'rot3': 0, 'rot2': 0, 'depth': -1.743, 'yaw': -52.88, 'datetime': '2018-12-18 17:54:49.706685', 'mgs': 0, 'flw2': 2.76, 'flw1': 0.0, 'flw0': 0.02, 'time': 9.36, 'compass': 69.18, 'pitch': 1.71, 'roll': 1.94}
{'lipoC2': 0.0, 'temp': 0.0, 'lipoC3S3': 12.51, 'state': 'normal', 'rot1': 4, 'rot0': 6, 'rot3': 0, 'rot2': 0, 'depth': 1.767, 'yaw': -49.77, 'datetime': '2018-12-18 17:54:49.915536', 'mgs': 0, 'flw2': 2.6, 'flw1': 0.09, 'flw0': 0.2, 'time': 9.57, 'compass': 72.28, 'pitch': 2.79, 'roll': 2.24}
{'lipoC2': 0.06, 'temp': 0.0, 'lipoC3S3': 12.16, 'state': 'normal', 'rot1': 4, 'rot0': 8, 'rot3': 0, 'rot2': 0, 'depth': 0.394, 'yaw': -44.23, 'datetime': '2018-12-18 17:54:50.123900', 'mgs': 0, 'flw2': 2.65, 'flw1': 0.0, 'flw0': 0.2, 'time': 9.78, 'compass': 77.83, 'pitch': 3.18, 'roll': 2.34}
{'lipoC2': 0.14, 'temp': 0.0, 'lipoC3S3': 12.29, 'state': 'normal', 'rot1': 4, 'rot0': 11, 'rot3': 0, 'rot2': 0, 'depth': -0.598, 'yaw': -37.07, 'datetime': '2018-12-18 17:54:50.333527', 'mgs': 0, 'flw2': 2.64, 'flw1': 0.41, 'flw0': 0.0, 'time': 9.99, 'compass': 84.99, 'pitch': 2.89, 'roll': 2.2}
{'lipoC2': 0.09, 'temp': 0.0, 'lipoC3S3': 12.38, 'state': 'normal', 'rot1': 4, 'rot0': 13, 'rot3': 0, 'rot2': 0, 'depth': -1.971, 'yaw': -29.23, 'datetime': '2018-12-18 17:54:50.542131', 'mgs': 0, 'flw2': 2.84, 'flw1': 0.0, 'flw0': 0.04, 'time': 10.19, 'compass': 92.83, 'pitch': 2.73, 'roll': 2.13}
{'lipoC2': 0.0, 'temp': 0.0, 'lipoC3S3': 12.51, 'state': 'normal', 'rot1': 6, 'rot0': 16, 'rot3': 0, 'rot2': 0, 'depth': 1.691, 'yaw': -20.55, 'datetime': '2018-12-18 17:54:50.749243', 'mgs': 0, 'flw2': 2.91, 'flw1': 0.0, 'flw0': 2.56, 'time': 10.4, 'compass': 101.5, 'pitch': 3.17, 'roll': 2.24}
{'lipoC2': 0.05, 'temp': 0.0, 'lipoC3S3': 12.43, 'state': 'normal', 'rot1': 8, 'rot0': 18, 'rot3': 0, 'rot2': 0, 'depth': -1.437, 'yaw': -14.18, 'datetime': '2018-12-18 17:54:50.958071', 'mgs': 0, 'flw2': 2.54, 'flw1': 0.47, 'flw0': 3.04, 'time': 10.61, 'compass': 107.88, 'pitch': 4.47, 'roll': 2.23}
{'lipoC2': 0.0, 'temp': 0.0, 'lipoC3S3': 12.37, 'state': 'normal', 'rot1': 10, 'rot0': 20, 'rot3': 0, 'rot2': 0, 'depth': 0.089, 'yaw': -10.13, 'datetime': '2018-12-18 17:54:51.165286', 'mgs': 0, 'flw2': 2.62, 'flw1': 0.5, 'flw0': 2.89, 'time': 10.82, 'compass': 111.93, 'pitch': 5.13, 'roll': 2.21}
{'lipoC2': 0.14, 'temp': 0.0, 'lipoC3S3': 12.21, 'state': 'normal', 'rot1': 13, 'rot0': 23, 'rot3': 0, 'rot2': 0, 'depth': -0.598, 'yaw': -7.23, 'datetime': '2018-12-18 17:54:51.376116', 'mgs': 0, 'flw2': 3.02, 'flw1': 0.06, 'flw0': 2.48, 'time': 11.03, 'compass': 114.83, 'pitch': 5.05, 'roll': 2.26}
{'lipoC2': 0.02, 'temp': 0.0, 'lipoC3S3': 12.43, 'state': 'normal', 'rot1': 15, 'rot0': 24, 'rot3': 0, 'rot2': 0, 'depth': -1.132, 'yaw': -5.29, 'datetime': '2018-12-18 17:54:51.585145', 'mgs': 0, 'flw2': 0.17, 'flw1': 0.41, 'flw0': 2.95, 'time': 11.24, 'compass': 116.77, 'pitch': 4.61, 'roll': 2.13}
{'lipoC2': 0.11, 'temp': 0.0, 'lipoC3S3': 12.37, 'state': 'normal', 'rot1': 17, 'rot0': 25, 'rot3': 0, 'rot2': 0, 'depth': -1.59, 'yaw': -5.77, 'datetime': '2018-12-18 17:54:51.794276', 'mgs': 0, 'flw2': 0.38, 'flw1': 0.0, 'flw0': 2.94, 'time': 11.45, 'compass': 116.29, 'pitch': 3.46, 'roll': 1.76}
{'lipoC2': 0.11, 'temp': 0.0, 'lipoC3S3': 12.16, 'state': 'normal', 'rot1': 20, 'rot0': 26, 'rot3': 0, 'rot2': 0, 'depth': 1.004, 'yaw': -8.1, 'datetime': '2018-12-18 17:54:52.003372', 'mgs': 0, 'flw2': 0.45, 'flw1': 0.09, 'flw0': 2.71, 'time': 11.66, 'compass': 113.96, 'pitch': 2.91, 'roll': 1.39}
{'lipoC2': 0.16, 'temp': 0.0, 'lipoC3S3': 12.29, 'state': 'normal', 'rot1': 22, 'rot0': 27, 'rot3': 0, 'rot2': 0, 'depth': -0.674, 'yaw': -11.43, 'datetime': '2018-12-18 17:54:52.212585', 'mgs': 0, 'flw2': 0.76, 'flw1': 0.32, 'flw0': 2.89, 'time': 11.86, 'compass': 110.62, 'pitch': 3.15, 'roll': 1.08}
{'lipoC2': 0.03, 'temp': 0.0, 'lipoC3S3': 12.21, 'state': 'normal', 'rot1': 24, 'rot0': 29, 'rot3': 0, 'rot2': 0, 'depth': 1.309, 'yaw': -15.28, 'datetime': '2018-12-18 17:54:52.420319', 'mgs': 0, 'flw2': 2.97, 'flw1': 0.0, 'flw0': 2.78, 'time': 12.07, 'compass': 106.77, 'pitch': 3.8, 'roll': 0.87}
{'lipoC2': 0.0, 'temp': 0.0, 'lipoC3S3': 12.56, 'state': 'normal', 'rot1': 26, 'rot0': 31, 'rot3': 0, 'rot2': 0, 'depth': 0.241, 'yaw': -17.61, 'datetime': '2018-12-18 17:54:52.629355', 'mgs': 0, 'flw2': 2.97, 'flw1': 0.18, 'flw0': 2.56, 'time': 12.28, 'compass': 104.44, 'pitch': 4.75, 'roll': 1.05}
{'lipoC2': 0.15, 'temp': 0.0, 'lipoC3S3': 12.23, 'state': 'normal', 'rot1': 29, 'rot0': 33, 'rot3': 0, 'rot2': 0, 'depth': -0.293, 'yaw': -19.14, 'datetime': '2018-12-18 17:54:52.838605', 'mgs': 0, 'flw2': 1.99, 'flw1': 0.06, 'flw0': 2.69, 'time': 12.49, 'compass': 102.92, 'pitch': 4.99, 'roll': 1.28}
{'lipoC2': 0.0, 'temp': 0.0, 'lipoC3S3': 12.51, 'state': 'normal', 'rot1': 31, 'rot0': 35, 'rot3': 0, 'rot2': 0, 'depth': 1.691, 'yaw': -21.18, 'datetime': '2018-12-18 17:54:53.048784', 'mgs': 0, 'flw2': 1.28, 'flw1': 0.23, 'flw0': 3.14, 'time': 12.7, 'compass': 100.87, 'pitch': 4.55, 'roll': 1.36}
{'lipoC2': 0.08, 'temp': 0.0, 'lipoC3S3': 12.39, 'state': 'normal', 'rot1': 34, 'rot0': 37, 'rot3': 0, 'rot2': 0, 'depth': -1.743, 'yaw': -23.69, 'datetime': '2018-12-18 17:54:53.259417', 'mgs': 0, 'flw2': 1.59, 'flw1': 0.44, 'flw0': 2.92, 'time': 12.91, 'compass': 98.36, 'pitch': 4.28, 'roll': 1.29}
{'lipoC2': 0.02, 'temp': 0.0, 'lipoC3S3': 12.23, 'state': 'normal', 'rot1': 36, 'rot0': 39, 'rot3': 0, 'rot2': 0, 'depth': 1.614, 'yaw': -26.62, 'datetime': '2018-12-18 17:54:53.467268', 'mgs': 0, 'flw2': 1.62, 'flw1': 0.0, 'flw0': 2.82, 'time': 13.12, 'compass': 95.43, 'pitch': 4.55, 'roll': 1.06}
{'lipoC2': 0.15, 'temp': 0.0, 'lipoC3S3': 12.29, 'state': 'normal', 'rot1': 39, 'rot0': 41, 'rot3': 0, 'rot2': 0, 'depth': 1.92, 'yaw': -29.88, 'datetime': '2018-12-18 17:54:53.675317', 'mgs': 0, 'flw2': 1.43, 'flw1': 0.35, 'flw0': 2.71, 'time': 13.33, 'compass': 92.17, 'pitch': 4.93, 'roll': 0.83}
{'lipoC2': 0.0, 'temp': 0.0, 'lipoC3S3': 12.39, 'state': 'normal', 'rot1': 41, 'rot0': 42, 'rot3': 0, 'rot2': 0, 'depth': 0.775, 'yaw': -33.26, 'datetime': '2018-12-18 17:54:53.886839', 'mgs': 0, 'flw2': 0.99, 'flw1': 0.0, 'flw0': 2.83, 'time': 13.53, 'compass': 88.8, 'pitch': 4.91, 'roll': 0.8}
{'lipoC2': 0.06, 'temp': 0.0, 'lipoC3S3': 12.16, 'state': 'normal', 'rot1': 44, 'rot0': 43, 'rot3': 0, 'rot2': 0, 'depth': 1.385, 'yaw': -36.92, 'datetime': '2018-12-18 17:54:54.100206', 'mgs': 0, 'flw2': 0.0, 'flw1': 0.15, 'flw0': 3.03, 'time': 13.74, 'compass': 85.14, 'pitch': 4.63, 'roll': 0.73}
{'lipoC2': 0.08, 'temp': 0.0, 'lipoC3S3': 12.14, 'state': 'normal', 'rot1': 46, 'rot0': 44, 'rot3': 0, 'rot2': 0, 'depth': 0.546, 'yaw': -42.12, 'datetime': '2018-12-18 17:54:54.309211', 'mgs': 0, 'flw2': 0.01, 'flw1': 0.0, 'flw0': 2.99, 'time': 13.95, 'compass': 79.94, 'pitch': 4.23, 'roll': 0.57}
{'lipoC2': 0.06, 'temp': 0.0, 'lipoC3S3': 12.41, 'state': 'normal', 'rot1': 49, 'rot0': 44, 'rot3': 0, 'rot2': 0, 'depth': -1.666, 'yaw': -48.67, 'datetime': '2018-12-18 17:54:54.520658', 'mgs': 0, 'flw2': 0.0, 'flw1': 0.35, 'flw0': 2.97, 'time': 14.16, 'compass': 73.39, 'pitch': 4.11, 'roll': 0.38}
{'lipoC2': 0.01, 'temp': 0.0, 'lipoC3S3': 12.19, 'state': 'normal', 'rot1': 51, 'rot0': 44, 'rot3': 0, 'rot2': 0, 'depth': 0.241, 'yaw': -56.31, 'datetime': '2018-12-18 17:54:54.727405', 'mgs': 0, 'flw2': 0.0, 'flw1': 0.0, 'flw0': 3.0, 'time': 14.37, 'compass': 65.74, 'pitch': 4.44, 'roll': 0.19}
{'lipoC2': 0.11, 'temp': 0.0, 'lipoC3S3': 12.38, 'state': 'normal', 'rot1': 54, 'rot0': 44, 'rot3': 0, 'rot2': 0, 'depth': -1.514, 'yaw': -64.09, 'datetime': '2018-12-18 17:54:54.940961', 'mgs': 0, 'flw2': 0.11, 'flw1': 0.0, 'flw0': 2.83, 'time': 14.58, 'compass': 57.96, 'pitch': 4.52, 'roll': 0.07}
{'lipoC2': 0.05, 'temp': 0.0, 'lipoC3S3': 12.17, 'state': 'normal', 'rot1': 56, 'rot0': 44, 'rot3': 0, 'rot2': 0, 'depth': 0.47, 'yaw': -72.52, 'datetime': '2018-12-18 17:54:55.149909', 'mgs': 0, 'flw2': 0.0, 'flw1': 0.06, 'flw0': 3.02, 'time': 14.79, 'compass': 49.53, 'pitch': 4.42, 'roll': 0.07}
{'lipoC2': 0.0, 'temp': 0.0, 'lipoC3S3': 12.54, 'state': 'normal', 'rot1': 58, 'rot0': 44, 'rot3': 0, 'rot2': 0, 'depth': 1.614, 'yaw': -81.19, 'datetime': '2018-12-18 17:54:55.353688', 'mgs': 0, 'flw2': 2.17, 'flw1': 0.26, 'flw0': 2.75, 'time': 14.99, 'compass': 40.87, 'pitch': 4.34, 'roll': 0.3}
{'lipoC2': 0.04, 'temp': 0.0, 'lipoC3S3': 12.18, 'state': 'normal', 'rot1': 61, 'rot0': 46, 'rot3': 0, 'rot2': 0, 'depth': 1.385, 'yaw': -89.14, 'datetime': '2018-12-18 17:54:55.561708', 'mgs': 0, 'flw2': 2.89, 'flw1': 0.0, 'flw0': 2.62, 'time': 15.2, 'compass': 32.91, 'pitch': 4.67, 'roll': 0.62}
{'lipoC2': 0.15, 'temp': 0.0, 'lipoC3S3': 12.27, 'state': 'normal', 'rot1': 63, 'rot0': 49, 'rot3': 0, 'rot2': 0, 'depth': -0.903, 'yaw': -95.16, 'datetime': '2018-12-18 17:54:55.770753', 'mgs': 0, 'flw2': 2.89, 'flw1': 0.26, 'flw0': 2.61, 'time': 15.41, 'compass': 26.89, 'pitch': 5.55, 'roll': 0.78}
{'lipoC2': 0.09, 'temp': 0.0, 'lipoC3S3': 12.14, 'state': 'normal', 'rot1': 66, 'rot0': 51, 'rot3': 0, 'rot2': 0, 'depth': 0.623, 'yaw': -99.63, 'datetime': '2018-12-18 17:54:55.982041', 'mgs': 0, 'flw2': 2.29, 'flw1': 0.26, 'flw0': 3.0, 'time': 15.62, 'compass': 22.42, 'pitch': 5.63, 'roll': 0.83}
{'lipoC2': 0.06, 'temp': 0.0, 'lipoC3S3': 12.39, 'state': 'normal', 'rot1': 68, 'rot0': 54, 'rot3': 0, 'rot2': 0, 'depth': 1.767, 'yaw': -103.29, 'datetime': '2018-12-18 17:54:56.189941', 'mgs': 0, 'flw2': 2.6, 'flw1': 0.53, 'flw0': 2.92, 'time': 15.83, 'compass': 18.76, 'pitch': 4.82, 'roll': 0.74}
{'lipoC2': 0.0, 'temp': 0.0, 'lipoC3S3': 12.17, 'state': 'normal', 'rot1': 71, 'rot0': 56, 'rot3': 0, 'rot2': 0, 'depth': -0.293, 'yaw': -106.07, 'datetime': '2018-12-18 17:54:56.396678', 'mgs': 0, 'flw2': 2.65, 'flw1': 0.0, 'flw0': 3.04, 'time': 16.04, 'compass': 15.99, 'pitch': 4.17, 'roll': 0.55}
{'lipoC2': 0.02, 'temp': 0.0, 'lipoC3S3': 12.43, 'state': 'normal', 'rot1': 73, 'rot0': 58, 'rot3': 0, 'rot2': 0, 'depth': 1.614, 'yaw': -108.26, 'datetime': '2018-12-18 17:54:56.604757', 'mgs': 0, 'flw2': 2.58, 'flw1': 0.5, 'flw0': 2.91, 'time': 16.25, 'compass': 13.8, 'pitch': 4.19, 'roll': 0.44}
{'lipoC2': 0.02, 'temp': 0.0, 'lipoC3S3': 12.43, 'state': 'normal', 'rot1': 76, 'rot0': 61, 'rot3': 0, 'rot2': 0, 'depth': -0.98, 'yaw': -109.97, 'datetime': '2018-12-18 17:54:56.812801', 'mgs': 0, 'flw2': 2.77, 'flw1': 0.47, 'flw0': 2.88, 'time': 16.46, 'compass': 12.08, 'pitch': 4.51, 'roll': 0.59}
{'lipoC2': 0.0, 'temp': 0.0, 'lipoC3S3': 12.55, 'state': 'normal', 'rot1': 78, 'rot0': 63, 'rot3': 0, 'rot2': 0, 'depth': 1.691, 'yaw': -111.43, 'datetime': '2018-12-18 17:54:57.023165', 'mgs': 0, 'flw2': 2.51, 'flw1': 0.23, 'flw0': 3.14, 'time': 16.67, 'compass': 10.62, 'pitch': 4.52, 'roll': 0.92}
{'lipoC2': 0.09, 'temp': 0.0, 'lipoC3S3': 12.14, 'state': 'normal', 'rot1': 81, 'rot0': 66, 'rot3': 0, 'rot2': 0, 'depth': 0.546, 'yaw': -112.74, 'datetime': '2018-12-18 17:54:57.232524', 'mgs': 0, 'flw2': 2.59, 'flw1': 0.0, 'flw0': 3.0, 'time': 16.88, 'compass': 9.32, 'pitch': 4.08, 'roll': 1.28}
{'lipoC2': 0.0, 'temp': 0.0, 'lipoC3S3': 12.22, 'state': 'normal', 'rot1': 83, 'rot0': 68, 'rot3': 0, 'rot2': 0, 'depth': -0.598, 'yaw': -114.0, 'datetime': '2018-12-18 17:54:57.441887', 'mgs': 0, 'flw2': 2.69, 'flw1': 0.0, 'flw0': 3.02, 'time': 17.08, 'compass': 8.05, 'pitch': 3.67, 'roll': 1.47}
{'lipoC2': 0.1, 'temp': 0.0, 'lipoC3S3': 12.14, 'state': 'normal', 'rot1': 86, 'rot0': 71, 'rot3': 0, 'rot2': 0, 'depth': 1.157, 'yaw': -115.19, 'datetime': '2018-12-18 17:54:57.649872', 'mgs': 0, 'flw2': 2.71, 'flw1': 0.0, 'flw0': 2.99, 'time': 17.29, 'compass': 6.87, 'pitch': 3.56, 'roll': 1.57}
{'lipoC2': 0.0, 'temp': 0.0, 'lipoC3S3': 12.51, 'state': 'normal', 'rot1': 88, 'rot0': 73, 'rot3': 0, 'rot2': 0, 'depth': 1.92, 'yaw': -116.33, 'datetime': '2018-12-18 17:54:57.859116', 'mgs': 0, 'flw2': 2.93, 'flw1': 0.0, 'flw0': 2.59, 'time': 17.5, 'compass': 5.73, 'pitch': 3.58, 'roll': 1.68}
{'lipoC2': 0.05, 'temp': 0.0, 'lipoC3S3': 12.16, 'state': 'normal', 'rot1': 91, 'rot0': 76, 'rot3': 0, 'rot2': 0, 'depth': 0.851, 'yaw': -117.66, 'datetime': '2018-12-18 17:54:58.068319', 'mgs': 0, 'flw2': 2.47, 'flw1': 0.32, 'flw0': 3.04, 'time': 17.71, 'compass': 4.4, 'pitch': 3.6, 'roll': 1.8}
{'lipoC2': 0.0, 'temp': 0.0, 'lipoC3S3': 12.52, 'state': 'normal', 'rot1': 93, 'rot0': 78, 'rot3': 0, 'rot2': 0, 'depth': 2.225, 'yaw': -118.94, 'datetime': '2018-12-18 17:54:58.278236', 'mgs': 0, 'flw2': 2.99, 'flw1': 0.0, 'flw0': 2.5, 'time': 17.92, 'compass': 3.12, 'pitch': 3.68, 'roll': 1.88}
{'lipoC2': 0.0, 'temp': 0.0, 'lipoC3S3': 12.38, 'state': 'normal', 'rot1': 95, 'rot0': 80, 'rot3': 0, 'rot2': 0, 'depth': 0.012, 'yaw': -120.1, 'datetime': '2018-12-18 17:54:58.486681', 'mgs': 0, 'flw2': 2.84, 'flw1': 0.0, 'flw0': 2.82, 'time': 18.13, 'compass': 1.96, 'pitch': 4.0, 'roll': 1.96}
{'lipoC2': 0.0, 'temp': 0.0, 'lipoC3S3': 12.21, 'state': 'normal', 'rot1': 98, 'rot0': 83, 'rot3': 0, 'rot2': 0, 'depth': -0.522, 'yaw': -121.28, 'datetime': '2018-12-18 17:54:58.697213', 'mgs': 0, 'flw2': 3.03, 'flw1': 0.21, 'flw0': 2.59, 'time': 18.34, 'compass': 0.78, 'pitch': 4.37, 'roll': 2.19}
{'lipoC2': 0.0, 'temp': 0.0, 'lipoC3S3': 12.38, 'state': 'normal', 'rot1': 100, 'rot0': 85, 'rot3': 0, 'rot2': 0, 'depth': -0.14, 'yaw': -122.45, 'datetime': '2018-12-18 17:54:58.905400', 'mgs': 0, 'flw2': 2.93, 'flw1': 0.0, 'flw0': 2.88, 'time': 18.55, 'compass': -0.4, 'pitch': 4.46, 'roll': 2.35}
{'lipoC2': 0.0, 'temp': 0.0, 'lipoC3S3': 12.38, 'state': 'normal', 'rot1': 103, 'rot0': 87, 'rot3': 0, 'rot2': 0, 'depth': -0.217, 'yaw': -123.95, 'datetime': '2018-12-18 17:54:59.114971', 'mgs': 0, 'flw2': 2.88, 'flw1': 0.0, 'flw0': 2.97, 'time': 18.76, 'compass': -1.9, 'pitch': 4.4, 'roll': 2.4}
{'lipoC2': 0.18, 'temp': 0.0, 'lipoC3S3': 12.14, 'state': 'normal', 'rot1': 105, 'rot0': 89, 'rot3': 0, 'rot2': 0, 'depth': -1.437, 'yaw': -125.55, 'datetime': '2018-12-18 17:54:59.323291', 'mgs': 0, 'flw2': 2.86, 'flw1': 0.0, 'flw0': 2.58, 'time': 18.96, 'compass': -3.49, 'pitch': 4.33, 'roll': 2.31}
{'lipoC2': 0.0, 'temp': 0.0, 'lipoC3S3': 12.21, 'state': 'normal', 'rot1': 108, 'rot0': 92, 'rot3': 0, 'rot2': 0, 'depth': -0.522, 'yaw': -127.37, 'datetime': '2018-12-18 17:54:59.533565', 'mgs': 0, 'flw2': 2.86, 'flw1': 0.26, 'flw0': 2.76, 'time': 19.17, 'compass': -5.31, 'pitch': 4.22, 'roll': 2.19}
{'lipoC2': 0.0, 'temp': 0.0, 'lipoC3S3': 12.55, 'state': 'normal', 'rot1': 110, 'rot0': 94, 'rot3': 0, 'rot2': 0, 'depth': 2.072, 'yaw': -129.43, 'datetime': '2018-12-18 17:54:59.744138', 'mgs': 0, 'flw2': 2.83, 'flw1': 0.0, 'flw0': 3.02, 'time': 19.38, 'compass': -7.37, 'pitch': 4.15, 'roll': 2.03}
{'lipoC2': 0.0, 'temp': 0.0, 'lipoC3S3': 12.45, 'state': 'normal', 'rot1': 112, 'rot0': 97, 'rot3': 0, 'rot2': 0, 'depth': 1.309, 'yaw': -131.36, 'datetime': '2018-12-18 17:54:59.953569', 'mgs': 0, 'flw2': 2.48, 'flw1': 0.44, 'flw0': 2.98, 'time': 19.59, 'compass': -9.31, 'pitch': 4.09, 'roll': 1.88}
{'lipoC2': 0.0, 'temp': 0.0, 'lipoC3S3': 12.39, 'state': 'normal', 'rot1': 115, 'rot0': 99, 'rot3': 0, 'rot2': 0, 'depth': 0.775, 'yaw': -133.31, 'datetime': '2018-12-18 17:55:00.163079', 'mgs': 0, 'flw2': 2.87, 'flw1': 0.0, 'flw0': 2.81, 'time': 19.8, 'compass': -11.25, 'pitch': 3.85, 'roll': 1.94}
{'lipoC2': 0.14, 'temp': 0.0, 'lipoC3S3': 12.52, 'state': 'normal', 'rot1': 117, 'rot0': 102, 'rot3': 0, 'rot2': 0, 'depth': -0.674, 'yaw': -135.47, 'datetime': '2018-12-18 17:55:00.371555', 'mgs': 0, 'flw2': 2.89, 'flw1': 0.41, 'flw0': 2.84, 'time': 20.01, 'compass': -13.41, 'pitch': 3.8, 'roll': 2.09}
{'lipoC2': 0.0, 'temp': 0.0, 'lipoC3S3': 12.56, 'state': 'normal', 'rot1': 119, 'rot0': 104, 'rot3': 0, 'rot2': 0, 'depth': 0.165, 'yaw': -137.73, 'datetime': '2018-12-18 17:55:00.581368', 'mgs': 0, 'flw2': 2.95, 'flw1': 0.18, 'flw0': 2.61, 'time': 20.22, 'compass': -15.67, 'pitch': 4.09, 'roll': 2.15}
{'lipoC2': 0.01, 'temp': 0.0, 'lipoC3S3': 12.43, 'state': 'normal', 'rot1': 122, 'rot0': 107, 'rot3': 0, 'rot2': 0, 'depth': 1.538, 'yaw': -139.98, 'datetime': '2018-12-18 17:55:00.792239', 'mgs': 0, 'flw2': 2.6, 'flw1': 0.47, 'flw0': 2.89, 'time': 20.43, 'compass': -17.93, 'pitch': 4.45, 'roll': 2.12}
{'lipoC2': 0.0, 'temp': 0.0, 'lipoC3S3': 12.38, 'state': 'normal', 'rot1': 124, 'rot0': 109, 'rot3': 0, 'rot2': 0, 'depth': 0.241, 'yaw': -142.24, 'datetime': '2018-12-18 17:55:01.003603', 'mgs': 0, 'flw2': 2.8, 'flw1': 0.0, 'flw0': 2.94, 'time': 20.64, 'compass': -20.18, 'pitch': 4.41, 'roll': 2.24}
{'lipoC2': 0.11, 'temp': 0.0, 'lipoC3S3': 12.16, 'state': 'normal', 'rot1': 126, 'rot0': 111, 'rot3': 0, 'rot2': 0, 'depth': 0.623, 'yaw': -144.43, 'datetime': '2018-12-18 17:55:01.215919', 'mgs': 0, 'flw2': 2.88, 'flw1': 0.15, 'flw0': 2.7, 'time': 20.85, 'compass': -22.37, 'pitch': 4.1, 'roll': 2.41}
{'lipoC2': 0.0, 'temp': 0.0, 'lipoC3S3': 12.55, 'state': 'normal', 'rot1': 128, 'rot0': 114, 'rot3': 0, 'rot2': 0, 'depth': -0.217, 'yaw': -146.57, 'datetime': '2018-12-18 17:55:01.425326', 'mgs': 0, 'flw2': 2.82, 'flw1': 0.0, 'flw0': 3.03, 'time': 21.06, 'compass': -24.52, 'pitch': 4.05, 'roll': 2.47}
{'lipoC2': 0.12, 'temp': 0.0, 'lipoC3S3': 12.16, 'state': 'normal', 'rot1': 131, 'rot0': 116, 'rot3': 0, 'rot2': 0, 'depth': 0.851, 'yaw': -148.95, 'datetime': '2018-12-18 17:55:01.635884', 'mgs': 0, 'flw2': 2.83, 'flw1': 0.06, 'flw0': 2.64, 'time': 21.27, 'compass': -26.9, 'pitch': 4.3, 'roll': 2.3}
{'lipoC2': 0.1, 'temp': 0.0, 'lipoC3S3': 12.14, 'state': 'normal', 'rot1': 133, 'rot0': 118, 'rot3': 0, 'rot2': 0, 'depth': 0.623, 'yaw': -151.45, 'datetime': '2018-12-18 17:55:01.844328', 'mgs': 0, 'flw2': 2.92, 'flw1': 0.0, 'flw0': 2.72, 'time': 21.48, 'compass': -29.39, 'pitch': 4.5, 'roll': 2.14}
{'lipoC2': 0.0, 'temp': 0.0, 'lipoC3S3': 12.55, 'state': 'normal', 'rot1': 135, 'rot0': 121, 'rot3': 0, 'rot2': 0, 'depth': -0.751, 'yaw': -153.8, 'datetime': '2018-12-18 17:55:02.055238', 'mgs': 0, 'flw2': 2.88, 'flw1': 0.0, 'flw0': 3.0, 'time': 21.69, 'compass': -31.75, 'pitch': 4.64, 'roll': 2.17}
{'lipoC2': 0.04, 'temp': 0.0, 'lipoC3S3': 12.42, 'state': 'normal', 'rot1': 138, 'rot0': 123, 'rot3': 0, 'rot2': 0, 'depth': 1.691, 'yaw': -156.22, 'datetime': '2018-12-18 17:55:02.264364', 'mgs': 0, 'flw2': 2.75, 'flw1': 0.5, 'flw0': 2.97, 'time': 21.9, 'compass': -34.16, 'pitch': 4.57, 'roll': 2.19}
{'lipoC2': 0.0, 'temp': 0.0, 'lipoC3S3': 12.45, 'state': 'normal', 'rot1': 140, 'rot0': 125, 'rot3': 0, 'rot2': 0, 'depth': -1.285, 'yaw': -158.94, 'datetime': '2018-12-18 17:55:02.476007', 'mgs': 0, 'flw2': 2.48, 'flw1': 0.38, 'flw0': 3.11, 'time': 22.11, 'compass': -36.88, 'pitch': 4.57, 'roll': 2.09}
{'lipoC2': 0.0, 'temp': 0.0, 'lipoC3S3': 12.41, 'state': 'normal', 'rot1': 142, 'rot0': 128, 'rot3': 0, 'rot2': 0, 'depth': 1.233, 'yaw': -161.53, 'datetime': '2018-12-18 17:55:02.685742', 'mgs': 0, 'flw2': 1.75, 'flw1': 0.47, 'flw0': 2.88, 'time': 22.32, 'compass': -39.47, 'pitch': 4.74, 'roll': 1.95}
{'lipoC2': 0.14, 'temp': 0.0, 'lipoC3S3': 12.26, 'state': 'normal', 'rot1': 145, 'rot0': 128, 'rot3': 0, 'rot2': 0, 'depth': -0.293, 'yaw': -165.22, 'datetime': '2018-12-18 17:55:02.895433', 'mgs': 0, 'flw2': 0.05, 'flw1': 0.35, 'flw0': 3.02, 'time': 22.52, 'compass': -43.16, 'pitch': 4.24, 'roll': 1.83}
{'lipoC2': 0.1, 'temp': 0.0, 'lipoC3S3': 12.38, 'state': 'normal', 'rot1': 147, 'rot0': 128, 'rot3': 0, 'rot2': 0, 'depth': 1.843, 'yaw': -171.32, 'datetime': '2018-12-18 17:55:03.104426', 'mgs': 0, 'flw2': 0.12, 'flw1': 0.0, 'flw0': 2.87, 'time': 22.73, 'compass': -49.26, 'pitch': 3.09, 'roll': 1.56}
{'lipoC2': 0.0, 'temp': 0.0, 'lipoC3S3': 12.45, 'state': 'normal', 'rot1': 150, 'rot0': 128, 'rot3': 0, 'rot2': 0, 'depth': 1.157, 'yaw': -178.98, 'datetime': '2018-12-18 17:55:03.315857', 'mgs': 0, 'flw2': 0.0, 'flw1': 0.32, 'flw0': 2.94, 'time': 22.94, 'compass': -56.92, 'pitch': 2.78, 'roll': 1.16}
{'lipoC2': 0.0, 'temp': 0.0, 'lipoC3S3': 12.35, 'state': 'normal', 'rot1': 152, 'rot0': 128, 'rot3': 0, 'rot2': 0, 'depth': 0.928, 'yaw': 172.36, 'datetime': '2018-12-18 17:55:03.524848', 'mgs': 0, 'flw2': 0.07, 'flw1': 0.35, 'flw0': 2.92, 'time': 23.15, 'compass': -65.58, 'pitch': 3.16, 'roll': 1.02}
{'lipoC2': 0.0, 'temp': 0.0, 'lipoC3S3': 12.34, 'state': 'normal', 'rot1': 154, 'rot0': 128, 'rot3': 0, 'rot2': 0, 'depth': 0.546, 'yaw': 163.25, 'datetime': '2018-12-18 17:55:03.733597', 'mgs': 0, 'flw2': 0.05, 'flw1': 0.0, 'flw0': 2.98, 'time': 23.36, 'compass': -74.7, 'pitch': 3.12, 'roll': 1.1}
{'lipoC2': 0.0, 'temp': 0.0, 'lipoC3S3': 12.54, 'state': 'normal', 'rot1': 156, 'rot0': 128, 'rot3': 0, 'rot2': 0, 'depth': 1.691, 'yaw': 153.07, 'datetime': '2018-12-18 17:55:03.944939', 'mgs': 0, 'flw2': 0.12, 'flw1': 0.26, 'flw0': 2.75, 'time': 23.57, 'compass': -84.88, 'pitch': 2.77, 'roll': 1.01}
{'lipoC2': 0.0, 'temp': 0.0, 'lipoC3S3': 12.43, 'state': 'normal', 'rot1': 159, 'rot0': 128, 'rot3': 0, 'rot2': 0, 'depth': 1.385, 'yaw': 142.56, 'datetime': '2018-12-18 17:55:04.153090', 'mgs': 0, 'flw2': 0.0, 'flw1': 0.44, 'flw0': 2.97, 'time': 23.78, 'compass': -95.38, 'pitch': 2.67, 'roll': 0.52}
{'lipoC2': 0.0, 'temp': 0.0, 'lipoC3S3': 12.38, 'state': 'normal', 'rot1': 161, 'rot0': 128, 'rot3': 0, 'rot2': 0, 'depth': 0.699, 'yaw': 131.62, 'datetime': '2018-12-18 17:55:04.358955', 'mgs': 0, 'flw2': 0.13, 'flw1': 0.0, 'flw0': 2.84, 'time': 23.99, 'compass': -106.32, 'pitch': 2.84, 'roll': -0.23}
{'lipoC2': 0.14, 'temp': 0.0, 'lipoC3S3': 12.25, 'state': 'normal', 'rot1': 163, 'rot0': 128, 'rot3': 0, 'rot2': 0, 'depth': -0.293, 'yaw': 120.66, 'datetime': '2018-12-18 17:55:04.569108', 'mgs': 0, 'flw2': 0.15, 'flw1': 0.18, 'flw0': 2.75, 'time': 24.2, 'compass': -117.29, 'pitch': 2.95, 'roll': -0.69}
{'lipoC2': 0.0, 'temp': 0.0, 'lipoC3S3': 12.21, 'state': 'normal', 'rot1': 166, 'rot0': 128, 'rot3': 0, 'rot2': 0, 'depth': -0.522, 'yaw': 109.95, 'datetime': '2018-12-18 17:55:04.779213', 'mgs': 0, 'flw2': 0.28, 'flw1': 0.23, 'flw0': 2.86, 'time': 24.41, 'compass': -127.99, 'pitch': 2.65, 'roll': -0.79}
{'lipoC2': 0.14, 'temp': 0.0, 'lipoC3S3': 12.31, 'state': 'normal', 'rot1': 168, 'rot0': 130, 'rot3': 0, 'rot2': 0, 'depth': -0.98, 'yaw': 99.13, 'datetime': '2018-12-18 17:55:04.992302', 'mgs': 0, 'flw2': 2.84, 'flw1': 0.44, 'flw0': 2.97, 'time': 24.62, 'compass': -138.82, 'pitch': 2.15, 'roll': -1.13}
{'lipoC2': 0.0, 'temp': 0.0, 'lipoC3S3': 12.39, 'state': 'normal', 'rot1': 170, 'rot0': 132, 'rot3': 0, 'rot2': 0, 'depth': 1.08, 'yaw': 86.31, 'datetime': '2018-12-18 17:55:05.201582', 'mgs': 0, 'flw2': 2.72, 'flw1': 0.47, 'flw0': 2.84, 'time': 24.83, 'compass': -151.64, 'pitch': 1.56, 'roll': -2.0}
{'lipoC2': 0.11, 'temp': 0.0, 'lipoC3S3': 12.37, 'state': 'normal', 'rot1': 173, 'rot0': 135, 'rot3': 0, 'rot2': 0, 'depth': -1.59, 'yaw': 72.53, 'datetime': '2018-12-18 17:55:05.410793', 'mgs': 0, 'flw2': 2.73, 'flw1': 0.0, 'flw0': 2.97, 'time': 25.03, 'compass': -165.42, 'pitch': 1.63, 'roll': -2.68}
{'lipoC2': 0.1, 'temp': 0.0, 'lipoC3S3': 12.13, 'state': 'normal', 'rot1': 175, 'rot0': 137, 'rot3': 0, 'rot2': 0, 'depth': 0.623, 'yaw': 58.05, 'datetime': '2018-12-18 17:55:05.615453', 'mgs': 0, 'flw2': 2.86, 'flw1': 0.0, 'flw0': 2.62, 'time': 25.25, 'compass': -179.89, 'pitch': 2.13, 'roll': -2.81}
{'lipoC2': 0.05, 'temp': 0.0, 'lipoC3S3': 12.42, 'state': 'normal', 'rot1': 178, 'rot0': 140, 'rot3': 0, 'rot2': 0, 'depth': 1.843, 'yaw': 43.46, 'datetime': '2018-12-18 17:55:05.821984', 'mgs': 0, 'flw2': 2.71, 'flw1': 0.47, 'flw0': 0.13, 'time': 25.45, 'compass': 165.52, 'pitch': 2.45, 'roll': -2.07}
{'lipoC2': 0.0, 'temp': 0.0, 'lipoC3S3': 12.55, 'state': 'normal', 'rot1': 178, 'rot0': 142, 'rot3': 0, 'rot2': 0, 'depth': -0.217, 'yaw': 29.97, 'datetime': '2018-12-18 17:55:06.032760', 'mgs': 0, 'flw2': 0.0, 'flw1': 0.0, 'flw0': 0.21, 'time': 25.67, 'compass': 152.03, 'pitch': 1.27, 'roll': -0.66}
{'lipoC2': 0.13, 'temp': 0.0, 'lipoC3S3': 12.31, 'state': 'normal', 'rot1': 179, 'rot0': 142, 'rot3': 0, 'rot2': 0, 'depth': 1.767, 'yaw': 19.25, 'datetime': '2018-12-18 17:55:06.242896', 'mgs': 0, 'flw2': 0.0, 'flw1': 0.47, 'flw0': 3.03, 'time': 25.88, 'compass': 141.31, 'pitch': 0.54, 'roll': 0.76}
{'lipoC2': 0.0, 'temp': 0.0, 'lipoC3S3': 12.55, 'state': 'normal', 'rot1': 181, 'rot0': 142, 'rot3': 0, 'rot2': 0, 'depth': 1.691, 'yaw': 10.88, 'datetime': '2018-12-18 17:55:06.454029', 'mgs': 0, 'flw2': 0.17, 'flw1': 0.06, 'flw0': 2.58, 'time': 26.08, 'compass': 132.93, 'pitch': 0.43, 'roll': 1.7}
{'lipoC2': 0.14, 'temp': 0.0, 'lipoC3S3': 12.33, 'state': 'normal', 'rot1': 184, 'rot0': 142, 'rot3': 0, 'rot2': 0, 'depth': -0.827, 'yaw': 4.98, 'datetime': '2018-12-18 17:55:06.665707', 'mgs': 0, 'flw2': 0.1, 'flw1': 0.0, 'flw0': 3.02, 'time': 26.29, 'compass': 127.04, 'pitch': 0.77, 'roll': 1.67}
{'lipoC2': 0.0, 'temp': 0.0, 'lipoC3S3': 12.54, 'state': 'normal', 'rot1': 185, 'rot0': 142, 'rot3': 0, 'rot2': 0, 'depth': 1.462, 'yaw': 0.71, 'datetime': '2018-12-18 17:55:06.874364', 'mgs': 0, 'flw2': 0.0, 'flw1': 0.0, 'flw0': 0.18, 'time': 26.5, 'compass': 122.76, 'pitch': 0.9, 'roll': 0.99}
{'lipoC2': 0.09, 'temp': 0.0, 'lipoC3S3': 12.14, 'state': 'normal', 'rot1': 186, 'rot0': 142, 'rot3': 0, 'rot2': 0, 'depth': 1.233, 'yaw': -3.6, 'datetime': '2018-12-18 17:55:07.081667', 'mgs': 0, 'flw2': 0.18, 'flw1': 0.03, 'flw0': 2.92, 'time': 26.71, 'compass': 118.45, 'pitch': 1.32, 'roll': 0.13}
{'lipoC2': 0.0, 'temp': 0.0, 'lipoC3S3': 12.27, 'state': 'normal', 'rot1': 188, 'rot0': 142, 'rot3': 0, 'rot2': 0, 'depth': 1.233, 'yaw': -6.32, 'datetime': '2018-12-18 17:55:07.291934', 'mgs': 0, 'flw2': 0.15, 'flw1': 0.18, 'flw0': 2.71, 'time': 26.92, 'compass': 115.74, 'pitch': 0.98, 'roll': 0.01}
{'lipoC2': 0.02, 'temp': 0.0, 'lipoC3S3': 12.23, 'state': 'normal', 'rot1': 191, 'rot0': 142, 'rot3': 0, 'rot2': 0, 'depth': 1.462, 'yaw': -7.31, 'datetime': '2018-12-18 17:55:07.501119', 'mgs': 0, 'flw2': 0.17, 'flw1': 0.0, 'flw0': 2.88, 'time': 27.13, 'compass': 114.74, 'pitch': 0.48, 'roll': 0.53}
{'lipoC2': 0.0, 'temp': 0.0, 'lipoC3S3': 12.56, 'state': 'normal', 'rot1': 193, 'rot0': 142, 'rot3': 0, 'rot2': 0, 'depth': 1.691, 'yaw': -7.12, 'datetime': '2018-12-18 17:55:07.710815', 'mgs': 0, 'flw2': 0.13, 'flw1': 0.18, 'flw0': 2.72, 'time': 27.34, 'compass': 114.94, 'pitch': 0.38, 'roll': 1.21}
{'lipoC2': 0.01, 'temp': 0.0, 'lipoC3S3': 12.22, 'state': 'normal', 'rot1': 196, 'rot0': 142, 'rot3': 0, 'rot2': 0, 'depth': 0.089, 'yaw': -5.88, 'datetime': '2018-12-18 17:55:07.920845', 'mgs': 0, 'flw2': 0.2, 'flw1': 0.0, 'flw0': 2.7, 'time': 27.55, 'compass': 116.17, 'pitch': 0.68, 'roll': 1.54}
{'lipoC2': 0.01, 'temp': 0.0, 'lipoC3S3': 12.25, 'state': 'normal', 'rot1': 198, 'rot0': 142, 'rot3': 0, 'rot2': 0, 'depth': 0.012, 'yaw': -3.92, 'datetime': '2018-12-18 17:55:08.132418', 'mgs': 0, 'flw2': 0.18, 'flw1': 0.0, 'flw0': 2.34, 'time': 27.76, 'compass': 118.14, 'pitch': 0.85, 'roll': 1.23}
{'lipoC2': 0.15, 'temp': 0.0, 'lipoC3S3': 12.22, 'state': 'normal', 'rot1': 198, 'rot0': 142, 'rot3': 0, 'rot2': 0, 'depth': -0.446, 'yaw': -2.22, 'datetime': '2018-12-18 17:55:08.342850', 'mgs': 0, 'flw2': 0.01, 'flw1': 0.44, 'flw0': 0.0, 'time': 27.97, 'compass': 119.83, 'pitch': 0.96, 'roll': 0.42}
{'lipoC2': 0.01, 'temp': 0.0, 'lipoC3S3': 12.26, 'state': 'normal', 'rot1': 198, 'rot0': 142, 'rot3': 0, 'rot2': 0, 'depth': 0.012, 'yaw': -1.46, 'datetime': '2018-12-18 17:55:08.552347', 'mgs': 0, 'flw2': 0.2, 'flw1': 0.0, 'flw0': 0.0, 'time': 28.17, 'compass': 120.59, 'pitch': 0.3, 'roll': -0.67}
{'lipoC2': 0.04, 'temp': 0.0, 'lipoC3S3': 12.17, 'state': 'normal', 'rot1': 198, 'rot0': 142, 'rot3': 0, 'rot2': 0, 'depth': 0.241, 'yaw': -1.41, 'datetime': '2018-12-18 17:55:08.760616', 'mgs': 0, 'flw2': 0.15, 'flw1': 0.18, 'flw0': 0.0, 'time': 28.38, 'compass': 120.65, 'pitch': -1.51, 'roll': -1.18}
{'lipoC2': 0.06, 'temp': 0.0, 'lipoC3S3': 12.41, 'state': 'normal', 'rot1': 198, 'rot0': 142, 'rot3': 0, 'rot2': 0, 'depth': -1.743, 'yaw': -1.81, 'datetime': '2018-12-18 17:55:08.963353', 'mgs': 0, 'flw2': 0.0, 'flw1': 0.44, 'flw0': 0.0, 'time': 28.59, 'compass': 120.25, 'pitch': -2.35, 'roll': -0.9}
{'lipoC2': 0.0, 'temp': 0.0, 'lipoC3S3': 12.55, 'state': 'normal', 'rot1': 198, 'rot0': 142, 'rot3': 0, 'rot2': 0, 'depth': 1.614, 'yaw': -2.33, 'datetime': '2018-12-18 17:55:09.172730', 'mgs': 0, 'flw2': 0.21, 'flw1': 0.03, 'flw0': 0.0, 'time': 28.8, 'compass': 119.72, 'pitch': -2.65, 'roll': -0.2}
{'lipoC2': 0.0, 'temp': 0.0, 'lipoC3S3': 12.21, 'state': 'normal', 'rot1': 198, 'rot0': 142, 'rot3': 0, 'rot2': 0, 'depth': -0.293, 'yaw': -2.81, 'datetime': '2018-12-18 17:55:09.380978', 'mgs': 0, 'flw2': 0.12, 'flw1': 0.26, 'flw0': 0.0, 'time': 29.01, 'compass': 119.25, 'pitch': -2.09, 'roll': 0.44}
{'lipoC2': 0.16, 'temp': 0.0, 'lipoC3S3': 12.22, 'state': 'normal', 'rot1': 198, 'rot0': 142, 'rot3': 0, 'rot2': 0, 'depth': -0.827, 'yaw': -3.32, 'datetime': '2018-12-18 17:55:09.593233', 'mgs': 0, 'flw2': 0.0, 'flw1': 0.0, 'flw0': 0.2, 'time': 29.22, 'compass': 118.73, 'pitch': -1.47, 'roll': 0.6}
{'lipoC2': 0.12, 'temp': 0.0, 'lipoC3S3': 12.37, 'state': 'normal', 'rot1': 198, 'rot0': 142, 'rot3': 0, 'rot2': 0, 'depth': -1.819, 'yaw': -3.92, 'datetime': '2018-12-18 17:55:09.812387', 'mgs': 0, 'flw2': 0.07, 'flw1': 0.0, 'flw0': 0.11, 'time': 29.43, 'compass': 118.14, 'pitch': -0.33, 'roll': 0.28}
{'lipoC2': 0.0, 'temp': 0.0, 'lipoC3S3': 12.22, 'state': 'normal', 'rot1': 198, 'rot0': 142, 'rot3': 0, 'rot2': 0, 'depth': -0.446, 'yaw': -4.61, 'datetime': '2018-12-18 17:55:10.021584', 'mgs': 0, 'flw2': 0.12, 'flw1': 0.32, 'flw0': 0.23, 'time': 29.64, 'compass': 117.45, 'pitch': 0.29, 'roll': -0.08}
{'lipoC2': 0.0, 'temp': 0.0, 'lipoC3S3': 12.56, 'state': 'normal', 'rot1': 200, 'rot0': 143, 'rot3': 0, 'rot2': 0, 'depth': 1.538, 'yaw': -4.2, 'datetime': '2018-12-18 17:55:10.228794', 'mgs': 0, 'flw2': 2.73, 'flw1': 0.21, 'flw0': 2.71, 'time': 29.85, 'compass': 117.85, 'pitch': -0.03, 'roll': 0.18}
{'lipoC2': 0.0, 'temp': 0.0, 'lipoC3S3': 12.54, 'state': 'normal', 'rot1': 203, 'rot0': 145, 'rot3': 0, 'rot2': 0, 'depth': 1.462, 'yaw': 0.22, 'datetime': '2018-12-18 17:55:10.441915', 'mgs': 0, 'flw2': 0.24, 'flw1': 0.21, 'flw0': 1.56, 'time': 30.06, 'compass': 122.27, 'pitch': 0.74, 'roll': 1.34}
{'lipoC2': 0.01, 'temp': 0.0, 'lipoC3S3': 12.19, 'state': 'normal', 'rot1': 203, 'rot0': 145, 'rot3': 0, 'rot2': 0, 'depth': 1.309, 'yaw': 7.08, 'datetime': '2018-12-18 17:55:10.745259', 'mgs': 0, 'flw2': 0.17, 'flw1': 0.06, 'flw0': 0.0, 'time': 30.37, 'compass': 129.14, 'pitch': 0.78, 'roll': 1.15}
{'lipoC2': 0.0, 'temp': 0.0, 'lipoC3S3': 12.29, 'state': 'normal', 'rot1': 203, 'rot0': 145, 'rot3': 0, 'rot2': 0, 'depth': 0.928, 'yaw': 10.08, 'datetime': '2018-12-18 17:55:10.954968', 'mgs': 0, 'flw2': 0.0, 'flw1': 0.0, 'flw0': 0.18, 'time': 30.58, 'compass': 132.13, 'pitch': 0.48, 'roll': -0.12}
{'lipoC2': 0.0, 'temp': 0.0, 'lipoC3S3': 12.55, 'state': 'normal', 'rot1': 203, 'rot0': 145, 'rot3': 0, 'rot2': 0, 'depth': 1.691, 'yaw': 12.52, 'datetime': '2018-12-18 17:55:11.164196', 'mgs': 0, 'flw2': 0.0, 'flw1': 0.18, 'flw0': 1.71, 'time': 30.79, 'compass': 134.58, 'pitch': 0.42, 'roll': -1.23}
{'lipoC2': 0.14, 'temp': 0.0, 'lipoC3S3': 12.23, 'state': 'normal', 'rot1': 204, 'rot0': 146, 'rot3': 0, 'rot2': 0, 'depth': 0.928, 'yaw': 13.79, 'datetime': '2018-12-18 17:55:11.374730', 'mgs': 0, 'flw2': 0.12, 'flw1': 0.32, 'flw0': 0.0, 'time': 31.0, 'compass': 135.84, 'pitch': 0.76, 'roll': -1.68}
{'lipoC2': 0.11, 'temp': 0.0, 'lipoC3S3': 12.14, 'state': 'normal', 'rot1': 204, 'rot0': 146, 'rot3': 0, 'rot2': 0, 'depth': 0.47, 'yaw': 14.69, 'datetime': '2018-12-18 17:55:11.583847', 'mgs': 0, 'flw2': 0.15, 'flw1': 0.15, 'flw0': 0.0, 'time': 31.2, 'compass': 136.75, 'pitch': 1.16, 'roll': -1.13}
{'lipoC2': 0.15, 'temp': 0.0, 'lipoC3S3': 12.3, 'state': 'normal', 'rot1': 204, 'rot0': 146, 'rot3': 0, 'rot2': 0, 'depth': -0.751, 'yaw': 15.48, 'datetime': '2018-12-18 17:55:11.792166', 'mgs': 0, 'flw2': 0.0, 'flw1': 0.41, 'flw0': 0.0, 'time': 31.41, 'compass': 137.53, 'pitch': 1.29, 'roll': -0.05}
{'lipoC2': 0.0, 'temp': 0.0, 'lipoC3S3': 12.55, 'state': 'normal', 'rot1': 204, 'rot0': 146, 'rot3': 0, 'rot2': 0, 'depth': 1.462, 'yaw': 16.06, 'datetime': '2018-12-18 17:55:12.000171', 'mgs': 0, 'flw2': 0.0, 'flw1': 0.0, 'flw0': 0.21, 'time': 31.62, 'compass': 138.11, 'pitch': 1.22, 'roll': 0.76}
{'lipoC2': 0.12, 'temp': 0.0, 'lipoC3S3': 12.37, 'state': 'normal', 'rot1': 204, 'rot0': 146, 'rot3': 0, 'rot2': 0, 'depth': -1.666, 'yaw': 16.47, 'datetime': '2018-12-18 17:55:12.210649', 'mgs': 0, 'flw2': 0.0, 'flw1': 0.44, 'flw0': 0.01, 'time': 31.83, 'compass': 138.53, 'pitch': 1.19, 'roll': 0.9}
{'lipoC2': 0.0, 'temp': 0.0, 'lipoC3S3': 12.38, 'state': 'normal', 'rot1': 204, 'rot0': 146, 'rot3': 0, 'rot2': 0, 'depth': 0.241, 'yaw': 16.77, 'datetime': '2018-12-18 17:55:12.421858', 'mgs': 0, 'flw2': 0.13, 'flw1': 0.0, 'flw0': 0.04, 'time': 32.04, 'compass': 138.82, 'pitch': 1.51, 'roll': 0.39}
{'lipoC2': 0.0, 'temp': 0.0, 'lipoC3S3': 12.5, 'state': 'normal', 'rot1': 204, 'rot0': 146, 'rot3': 0, 'rot2': 0, 'depth': 1.462, 'yaw': 16.96, 'datetime': '2018-12-18 17:55:12.629965', 'mgs': 0, 'flw2': 0.0, 'flw1': 0.26, 'flw0': 0.12, 'time': 32.25, 'compass': 139.02, 'pitch': 1.74, 'roll': -0.32}
{'lipoC2': 0.15, 'temp': 0.0, 'lipoC3S3': 12.26, 'state': 'normal', 'rot1': 204, 'rot0': 146, 'rot3': 0, 'rot2': 0, 'depth': -0.598, 'yaw': 17.12, 'datetime': '2018-12-18 17:55:12.842641', 'mgs': 0, 'flw2': 0.0, 'flw1': 0.38, 'flw0': 0.0, 'time': 32.46, 'compass': 139.17, 'pitch': 1.62, 'roll': -0.73}
{'lipoC2': 0.13, 'temp': 0.0, 'lipoC3S3': 12.14, 'state': 'normal', 'rot1': 204, 'rot0': 146, 'rot3': 0, 'rot2': 0, 'depth': 0.546, 'yaw': 17.28, 'datetime': '2018-12-18 17:55:13.049327', 'mgs': 0, 'flw2': 0.15, 'flw1': 0.15, 'flw0': 0.0, 'time': 32.67, 'compass': 139.33, 'pitch': 1.39, 'roll': -0.6}
{'lipoC2': 0.15, 'temp': 0.0, 'lipoC3S3': 12.26, 'state': 'normal', 'rot1': 204, 'rot0': 146, 'rot3': 0, 'rot2': 0, 'depth': -1.208, 'yaw': 17.3, 'datetime': '2018-12-18 17:55:13.258321', 'mgs': 0, 'flw2': 0.11, 'flw1': 0.35, 'flw0': 0.0, 'time': 32.88, 'compass': 139.35, 'pitch': 1.33, 'roll': -0.08}
{'lipoC2': 0.0, 'temp': 0.0, 'lipoC3S3': 12.51, 'state': 'normal', 'rot1': 204, 'rot0': 146, 'rot3': 0, 'rot2': 0, 'depth': 1.538, 'yaw': 17.31, 'datetime': '2018-12-18 17:55:13.467277', 'mgs': 0, 'flw2': 0.16, 'flw1': 0.09, 'flw0': 0.0, 'time': 33.09, 'compass': 139.37, 'pitch': 1.5, 'roll': 0.38}
{'lipoC2': 0.02, 'temp': 0.0, 'lipoC3S3': 12.43, 'state': 'normal', 'rot1': 204, 'rot0': 146, 'rot3': 0, 'rot2': 0, 'depth': -1.208, 'yaw': 17.25, 'datetime': '2018-12-18 17:55:13.675021', 'mgs': 0, 'flw2': 0.0, 'flw1': 0.44, 'flw0': 0.02, 'time': 33.29, 'compass': 139.31, 'pitch': 1.62, 'roll': 0.53}
{'lipoC2': 0.0, 'temp': 0.0, 'lipoC3S3': 12.38, 'state': 'normal', 'rot1': 204, 'rot0': 146, 'rot3': 0, 'rot2': 0, 'depth': 0.012, 'yaw': 17.13, 'datetime': '2018-12-18 17:55:13.887967', 'mgs': 0, 'flw2': 0.0, 'flw1': 0.0, 'flw0': 0.04, 'time': 33.51, 'compass': 139.19, 'pitch': 1.62, 'roll': 0.45}
{'lipoC2': 0.09, 'temp': 0.0, 'lipoC3S3': 12.14, 'state': 'normal', 'rot1': 204, 'rot0': 146, 'rot3': 0, 'rot2': 0, 'depth': 1.157, 'yaw': 17.05, 'datetime': '2018-12-18 17:55:14.096029', 'mgs': 0, 'flw2': 0.0, 'flw1': 0.03, 'flw0': 0.18, 'time': 33.72, 'compass': 139.1, 'pitch': 1.6, 'roll': 0.16}
{'lipoC2': 0.0, 'temp': 0.0, 'lipoC3S3': 12.54, 'state': 'normal', 'rot1': 204, 'rot0': 146, 'rot3': 0, 'rot2': 0, 'depth': 1.767, 'yaw': 17.03, 'datetime': '2018-12-18 17:55:14.304650', 'mgs': 0, 'flw2': 0.12, 'flw1': 0.23, 'flw0': 0.0, 'time': 33.92, 'compass': 139.09, 'pitch': 1.64, 'roll': -0.1}
{'lipoC2': 0.15, 'temp': 0.0, 'lipoC3S3': 12.29, 'state': 'normal', 'rot1': 204, 'rot0': 146, 'rot3': 0, 'rot2': 0, 'depth': -0.598, 'yaw': 17.03, 'datetime': '2018-12-18 17:55:14.513819', 'mgs': 0, 'flw2': 0.02, 'flw1': 0.44, 'flw0': 0.0, 'time': 34.13, 'compass': 139.09, 'pitch': 1.89, 'roll': -0.2}
{'lipoC2': 0.11, 'temp': 0.0, 'lipoC3S3': 12.13, 'state': 'normal', 'rot1': 204, 'rot0': 146, 'rot3': 0, 'rot2': 0, 'depth': 0.47, 'yaw': 17.03, 'datetime': '2018-12-18 17:55:14.723032', 'mgs': 0, 'flw2': 0.0, 'flw1': 0.0, 'flw0': 0.22, 'time': 34.34, 'compass': 139.08, 'pitch': 2.12, 'roll': -0.1}
{'lipoC2': 0.0, 'temp': 0.0, 'lipoC3S3': 12.56, 'state': 'normal', 'rot1': 204, 'rot0': 146, 'rot3': 0, 'rot2': 0, 'depth': 1.691, 'yaw': 17.05, 'datetime': '2018-12-18 17:55:14.932337', 'mgs': 0, 'flw2': 3.39, 'flw1': 0.12, 'flw0': 3.54, 'time': 34.55, 'compass': 139.1, 'pitch': 2.13, 'roll': 0.2}
{'lipoC2': 0.02, 'temp': 0.0, 'lipoC3S3': 12.19, 'state': 'normal', 'rot1': 207, 'rot0': 149, 'rot3': 0, 'rot2': 0, 'depth': 1.385, 'yaw': 19.91, 'datetime': '2018-12-18 17:55:15.143118', 'mgs': 0, 'flw2': 2.98, 'flw1': 0.0, 'flw0': 2.8, 'time': 34.76, 'compass': 141.97, 'pitch': 2.41, 'roll': 0.92}
{'lipoC2': 0.06, 'temp': 0.0, 'lipoC3S3': 12.41, 'state': 'normal', 'rot1': 209, 'rot0': 151, 'rot3': 0, 'rot2': 0, 'depth': -1.514, 'yaw': 22.68, 'datetime': '2018-12-18 17:55:15.353683', 'mgs': 0, 'flw2': 2.61, 'flw1': 0.47, 'flw0': 2.95, 'time': 34.97, 'compass': 144.73, 'pitch': 2.77, 'roll': -0.86}
{'lipoC2': 0.0, 'temp': 0.0, 'lipoC3S3': 12.21, 'state': 'normal', 'rot1': 212, 'rot0': 153, 'rot3': 0, 'rot2': 0, 'depth': 1.843, 'yaw': 24.0, 'datetime': '2018-12-18 17:55:15.561931', 'mgs': 0, 'flw2': 2.95, 'flw1': 0.0, 'flw0': 3.08, 'time': 35.18, 'compass': 146.06, 'pitch': 3.0, 'roll': -4.1}
{'lipoC2': 0.11, 'temp': 0.0, 'lipoC3S3': 12.37, 'state': 'normal', 'rot1': 214, 'rot0': 156, 'rot3': 0, 'rot2': 0, 'depth': -1.819, 'yaw': 27.21, 'datetime': '2018-12-18 17:55:15.771629', 'mgs': 0, 'flw2': 2.88, 'flw1': 0.0, 'flw0': 3.11, 'time': 35.39, 'compass': 149.26, 'pitch': 2.93, 'roll': -5.47}
{'lipoC2': 0.0, 'temp': 0.0, 'lipoC3S3': 12.35, 'state': 'normal', 'rot1': 217, 'rot0': 158, 'rot3': 0, 'rot2': 0, 'depth': 0.851, 'yaw': 30.34, 'datetime': '2018-12-18 17:55:15.979933', 'mgs': 0, 'flw2': 2.83, 'flw1': 0.44, 'flw0': 2.91, 'time': 35.6, 'compass': 152.39, 'pitch': 3.3, 'roll': -5.73}
{'lipoC2': 0.0, 'temp': 0.0, 'lipoC3S3': 12.18, 'state': 'normal', 'rot1': 219, 'rot0': 160, 'rot3': 0, 'rot2': 0, 'depth': 1.538, 'yaw': 32.6, 'datetime': '2018-12-18 17:55:16.190505', 'mgs': 0, 'flw2': 2.97, 'flw1': 0.09, 'flw0': 3.22, 'time': 35.81, 'compass': 154.65, 'pitch': 3.68, 'roll': -6.02}
{'lipoC2': 0.01, 'temp': 0.0, 'lipoC3S3': 12.22, 'state': 'normal', 'rot1': 222, 'rot0': 163, 'rot3': 0, 'rot2': 0, 'depth': 0.394, 'yaw': 35.88, 'datetime': '2018-12-18 17:55:16.399726', 'mgs': 0, 'flw2': 1.75, 'flw1': 0.23, 'flw0': 2.51, 'time': 36.02, 'compass': 157.93, 'pitch': 4.01, 'roll': -5.33}
{'lipoC2': 0.0, 'temp': 0.0, 'lipoC3S3': 12.54, 'state': 'normal', 'rot1': 222, 'rot0': 163, 'rot3': 0, 'rot2': 0, 'depth': -1.361, 'yaw': 39.51, 'datetime': '2018-12-18 17:55:16.610422', 'mgs': 0, 'flw2': 0.0, 'flw1': 0.0, 'flw0': 0.21, 'time': 36.23, 'compass': 161.57, 'pitch': 3.91, 'roll': -3.91}
{'lipoC2': 0.12, 'temp': 0.0, 'lipoC3S3': 12.37, 'state': 'normal', 'rot1': 222, 'rot0': 163, 'rot3': 0, 'rot2': 0, 'depth': -1.437, 'yaw': 42.23, 'datetime': '2018-12-18 17:55:16.819856', 'mgs': 0, 'flw2': 0.1, 'flw1': 0.0, 'flw0': 0.07, 'time': 36.43, 'compass': 164.28, 'pitch': 3.0, 'roll': -1.95}
{'lipoC2': 0.0, 'temp': 0.0, 'lipoC3S3': 12.54, 'state': 'normal', 'rot1': 222, 'rot0': 163, 'rot3': 0, 'rot2': 0, 'depth': -0.14, 'yaw': 44.33, 'datetime': '2018-12-18 17:55:17.027830', 'mgs': 0, 'flw2': 0.0, 'flw1': 0.0, 'flw0': 0.2, 'time': 36.64, 'compass': 166.39, 'pitch': 2.09, 'roll': -0.25}
{'lipoC2': 0.14, 'temp': 0.0, 'lipoC3S3': 12.33, 'state': 'normal', 'rot1': 222, 'rot0': 163, 'rot3': 0, 'rot2': 0, 'depth': -1.285, 'yaw': 46.11, 'datetime': '2018-12-18 17:55:17.237186', 'mgs': 0, 'flw2': 0.0, 'flw1': 0.44, 'flw0': 0.0, 'time': 36.85, 'compass': 168.16, 'pitch': 1.74, 'roll': 0.55}
{'lipoC2': 0.03, 'temp': 0.0, 'lipoC3S3': 12.38, 'state': 'normal', 'rot1': 222, 'rot0': 163, 'rot3': 0, 'rot2': 0, 'depth': -1.361, 'yaw': 47.68, 'datetime': '2018-12-18 17:55:17.446003', 'mgs': 0, 'flw2': 0.2, 'flw1': 0.0, 'flw0': 0.0, 'time': 37.06, 'compass': 169.73, 'pitch': 1.57, 'roll': 0.39}
{'lipoC2': 0.12, 'temp': 0.0, 'lipoC3S3': 12.34, 'state': 'normal', 'rot1': 222, 'rot0': 163, 'rot3': 0, 'rot2': 0, 'depth': -1.514, 'yaw': 49.13, 'datetime': '2018-12-18 17:55:17.656389', 'mgs': 0, 'flw2': 0.0, 'flw1': 0.41, 'flw0': 0.0, 'time': 37.27, 'compass': 171.19, 'pitch': 1.3, 'roll': -0.36}
{'lipoC2': 0.0, 'temp': 0.0, 'lipoC3S3': 12.52, 'state': 'normal', 'rot1': 222, 'rot0': 163, 'rot3': 0, 'rot2': 0, 'depth': 1.614, 'yaw': 50.66, 'datetime': '2018-12-18 17:55:17.867062', 'mgs': 0, 'flw2': 0.16, 'flw1': 0.18, 'flw0': 0.0, 'time': 37.48, 'compass': 172.72, 'pitch': 1.08, 'roll': -1.2}
{'lipoC2': 0.0, 'temp': 0.0, 'lipoC3S3': 12.54, 'state': 'normal', 'rot1': 222, 'rot0': 163, 'rot3': 0, 'rot2': 0, 'depth': 1.767, 'yaw': 52.23, 'datetime': '2018-12-18 17:55:18.074842', 'mgs': 0, 'flw2': 0.0, 'flw1': 0.0, 'flw0': 0.2, 'time': 37.69, 'compass': 174.29, 'pitch': 1.1, 'roll': -1.54}
{'lipoC2': 0.03, 'temp': 0.0, 'lipoC3S3': 12.21, 'state': 'normal', 'rot1': 223, 'rot0': 163, 'rot3': 0, 'rot2': 0, 'depth': 1.385, 'yaw': 53.84, 'datetime': '2018-12-18 17:55:18.284236', 'mgs': 0, 'flw2': 0.2, 'flw1': 0.0, 'flw0': 3.32, 'time': 37.9, 'compass': 175.9, 'pitch': 1.38, 'roll': -1.29}
{'lipoC2': 0.0, 'temp': 0.0, 'lipoC3S3': 12.51, 'state': 'normal', 'rot1': 226, 'rot0': 163, 'rot3': 0, 'rot2': 0, 'depth': 1.538, 'yaw': 56.9, 'datetime': '2018-12-18 17:55:18.492465', 'mgs': 0, 'flw2': 0.0, 'flw1': 0.09, 'flw0': 3.11, 'time': 38.1, 'compass': 178.95, 'pitch': 1.01, 'roll': -0.4}
{'lipoC2': 0.1, 'temp': 0.0, 'lipoC3S3': 12.14, 'state': 'normal', 'rot1': 228, 'rot0': 163, 'rot3': 0, 'rot2': 0, 'depth': 0.317, 'yaw': 61.34, 'datetime': '2018-12-18 17:55:18.703482', 'mgs': 0, 'flw2': 0.13, 'flw1': 0.0, 'flw0': 2.7, 'time': 38.31, 'compass': -176.61, 'pitch': 0.47, 'roll': 0.44}
{'lipoC2': 0.15, 'temp': 0.0, 'lipoC3S3': 12.31, 'state': 'normal', 'rot1': 230, 'rot0': 163, 'rot3': 0, 'rot2': 0, 'depth': -1.132, 'yaw': 67.27, 'datetime': '2018-12-18 17:55:18.912904', 'mgs': 0, 'flw2': 0.06, 'flw1': 0.0, 'flw0': 3.17, 'time': 38.52, 'compass': -170.68, 'pitch': 0.36, 'roll': 0.71}
{'lipoC2': 0.0, 'temp': 0.0, 'lipoC3S3': 12.55, 'state': 'normal', 'rot1': 233, 'rot0': 163, 'rot3': 0, 'rot2': 0, 'depth': 1.538, 'yaw': 74.14, 'datetime': '2018-12-18 17:55:19.123667', 'mgs': 0, 'flw2': 0.18, 'flw1': 0.0, 'flw0': 3.31, 'time': 38.73, 'compass': -163.8, 'pitch': 0.36, 'roll': 0.35}
{'lipoC2': 0.06, 'temp': 0.0, 'lipoC3S3': 12.42, 'state': 'normal', 'rot1': 235, 'rot0': 164, 'rot3': 0, 'rot2': 0, 'depth': -1.819, 'yaw': 81.58, 'datetime': '2018-12-18 17:55:19.338126', 'mgs': 0, 'flw2': 2.95, 'flw1': 0.0, 'flw0': 0.02, 'time': 38.94, 'compass': -156.37, 'pitch': -0.08, 'roll': -0.23}
{'lipoC2': 0.0, 'temp': 0.0, 'lipoC3S3': 12.21, 'state': 'normal', 'rot1': 235, 'rot0': 167, 'rot3': 0, 'rot2': 0, 'depth': -0.903, 'yaw': 86.83, 'datetime': '2018-12-18 17:55:19.544566', 'mgs': 0, 'flw2': 2.8, 'flw1': 0.35, 'flw0': 0.0, 'time': 39.15, 'compass': -151.11, 'pitch': -0.59, 'roll': -1.43}
{'lipoC2': 0.15, 'temp': 0.0, 'lipoC3S3': 12.26, 'state': 'normal', 'rot1': 235, 'rot0': 170, 'rot3': 0, 'rot2': 0, 'depth': -0.674, 'yaw': 89.54, 'datetime': '2018-12-18 17:55:19.754402', 'mgs': 0, 'flw2': 2.72, 'flw1': 0.0, 'flw0': 0.0, 'time': 39.36, 'compass': -148.41, 'pitch': -0.52, 'roll': -2.7}
{'lipoC2': 0.0, 'temp': 0.0, 'lipoC3S3': 12.34, 'state': 'normal', 'rot1': 235, 'rot0': 172, 'rot3': 0, 'rot2': 0, 'depth': 0.47, 'yaw': 90.18, 'datetime': '2018-12-18 17:55:19.962440', 'mgs': 0, 'flw2': 2.78, 'flw1': 0.0, 'flw0': 0.13, 'time': 39.57, 'compass': -147.76, 'pitch': -0.33, 'roll': -3.02}
{'lipoC2': 0.08, 'temp': 0.0, 'lipoC3S3': 12.39, 'state': 'normal', 'rot1': 235, 'rot0': 175, 'rot3': 0, 'rot2': 0, 'depth': -1.895, 'yaw': 89.38, 'datetime': '2018-12-18 17:55:20.172394', 'mgs': 0, 'flw2': 2.54, 'flw1': 0.29, 'flw0': 0.0, 'time': 39.78, 'compass': -148.56, 'pitch': -0.28, 'roll': -2.37}
{'lipoC2': 0.0, 'temp': 0.0, 'lipoC3S3': 12.55, 'state': 'normal', 'rot1': 235, 'rot0': 177, 'rot3': 0, 'rot2': 0, 'depth': 1.92, 'yaw': 87.41, 'datetime': '2018-12-18 17:55:20.385460', 'mgs': 0, 'flw2': 2.86, 'flw1': 0.0, 'flw0': 0.18, 'time': 39.99, 'compass': -150.54, 'pitch': -0.3, 'roll': -1.58}
{'lipoC2': 0.12, 'temp': 0.0, 'lipoC3S3': 12.35, 'state': 'normal', 'rot1': 235, 'rot0': 180, 'rot3': 0, 'rot2': 0, 'depth': -1.361, 'yaw': 84.48, 'datetime': '2018-12-18 17:55:20.592367', 'mgs': 0, 'flw2': 2.8, 'flw1': 0.44, 'flw0': 0.0, 'time': 40.2, 'compass': -153.46, 'pitch': -0.26, 'roll': -1.11}
{'lipoC2': 0.0, 'temp': 0.0, 'lipoC3S3': 12.37, 'state': 'normal', 'rot1': 235, 'rot0': 182, 'rot3': 0, 'rot2': 0, 'depth': -0.064, 'yaw': 80.79, 'datetime': '2018-12-18 17:55:20.802146', 'mgs': 0, 'flw2': 2.8, 'flw1': 0.0, 'flw0': 0.12, 'time': 40.41, 'compass': -157.15, 'pitch': -0.16, 'roll': -1.05}
{'lipoC2': 0.15, 'temp': 0.0, 'lipoC3S3': 12.29, 'state': 'normal', 'rot1': 235, 'rot0': 184, 'rot3': 0, 'rot2': 0, 'depth': -0.903, 'yaw': 76.67, 'datetime': '2018-12-18 17:55:21.013363', 'mgs': 0, 'flw2': 2.61, 'flw1': 0.47, 'flw0': 0.0, 'time': 40.62, 'compass': -161.28, 'pitch': 0.14, 'roll': -1.06}
{'lipoC2': 0.0, 'temp': 0.0, 'lipoC3S3': 12.39, 'state': 'normal', 'rot1': 235, 'rot0': 187, 'rot3': 0, 'rot2': 0, 'depth': -0.064, 'yaw': 71.94, 'datetime': '2018-12-18 17:55:21.221051', 'mgs': 0, 'flw2': 2.97, 'flw1': 0.0, 'flw0': 0.0, 'time': 40.83, 'compass': -166.0, 'pitch': 0.48, 'roll': -1.01}
{'lipoC2': 0.09, 'temp': 0.0, 'lipoC3S3': 12.39, 'state': 'normal', 'rot1': 235, 'rot0': 190, 'rot3': 0, 'rot2': 0, 'depth': -1.743, 'yaw': 66.82, 'datetime': '2018-12-18 17:55:21.431103', 'mgs': 0, 'flw2': 2.98, 'flw1': 0.0, 'flw0': 0.0, 'time': 41.04, 'compass': -171.12, 'pitch': 0.86, 'roll': -0.73}
{'lipoC2': 0.0, 'temp': 0.0, 'lipoC3S3': 12.55, 'state': 'normal', 'rot1': 235, 'rot0': 193, 'rot3': 0, 'rot2': 0, 'depth': 1.538, 'yaw': 61.43, 'datetime': '2018-12-18 17:55:21.644946', 'mgs': 0, 'flw2': 2.81, 'flw1': 0.0, 'flw0': 0.17, 'time': 41.25, 'compass': -176.51, 'pitch': 1.27, 'roll': -0.45}
{'lipoC2': 0.16, 'temp': 0.0, 'lipoC3S3': 12.27, 'state': 'normal', 'rot1': 235, 'rot0': 195, 'rot3': 0, 'rot2': 0, 'depth': -0.598, 'yaw': 55.8, 'datetime': '2018-12-18 17:55:21.851818', 'mgs': 0, 'flw2': 2.6, 'flw1': 0.35, 'flw0': 0.0, 'time': 41.46, 'compass': 177.85, 'pitch': 1.63, 'roll': -0.31}
{'lipoC2': 0.0, 'temp': 0.0, 'lipoC3S3': 12.22, 'state': 'normal', 'rot1': 235, 'rot0': 198, 'rot3': 0, 'rot2': 0, 'depth': -1.056, 'yaw': 49.93, 'datetime': '2018-12-18 17:55:22.060820', 'mgs': 0, 'flw2': 2.29, 'flw1': 0.44, 'flw0': 0.0, 'time': 41.66, 'compass': 171.98, 'pitch': 1.7, 'roll': -0.13}
{'lipoC2': 0.0, 'temp': 0.0, 'lipoC3S3': 12.23, 'state': 'normal', 'rot1': 235, 'rot0': 200, 'rot3': 0, 'rot2': 0, 'depth': -1.056, 'yaw': 44.24, 'datetime': '2018-12-18 17:55:22.268442', 'mgs': 0, 'flw2': 2.29, 'flw1': 0.44, 'flw0': 0.0, 'time': 41.87, 'compass': 166.3, 'pitch': 1.79, 'roll': 0.04}
{'lipoC2': 0.0, 'temp': 0.0, 'lipoC3S3': 12.38, 'state': 'normal', 'rot1': 235, 'rot0': 200, 'rot3': 0, 'rot2': 0, 'depth': 0.012, 'yaw': 38.77, 'datetime': '2018-12-18 17:55:22.478883', 'mgs': 0, 'flw2': 0.0, 'flw1': 0.32, 'flw0': 0.09, 'time': 42.08, 'compass': 160.83, 'pitch': 2.34, 'roll': 0.46}
{'lipoC2': 0.0, 'temp': 0.0, 'lipoC3S3': 12.38, 'state': 'normal', 'rot1': 235, 'rot0': 200, 'rot3': 0, 'rot2': 0, 'depth': 0.394, 'yaw': 34.53, 'datetime': '2018-12-18 17:55:22.691166', 'mgs': 0, 'flw2': 0.16, 'flw1': 0.0, 'flw0': 0.05, 'time': 42.29, 'compass': 156.59, 'pitch': 3.18, 'roll': 1.15}
{'lipoC2': 0.0, 'temp': 0.0, 'lipoC3S3': 12.45, 'state': 'normal', 'rot1': 235, 'rot0': 200, 'rot3': 0, 'rot2': 0, 'depth': -1.285, 'yaw': 31.01, 'datetime': '2018-12-18 17:55:22.897367', 'mgs': 0, 'flw2': 0.16, 'flw1': 0.0, 'flw0': 0.0, 'time': 42.5, 'compass': 153.06, 'pitch': 3.28, 'roll': 1.64}
{'lipoC2': 0.11, 'temp': 0.0, 'lipoC3S3': 12.38, 'state': 'normal', 'rot1': 236, 'rot0': 200, 'rot3': 0, 'rot2': 0, 'depth': -1.743, 'yaw': 27.92, 'datetime': '2018-12-18 17:55:23.108813', 'mgs': 0, 'flw2': 0.0, 'flw1': 0.38, 'flw0': 1.89, 'time': 42.71, 'compass': 149.98, 'pitch': 2.94, 'roll': 1.77}
