{'lipoC2': 7.32, 'temp': 0.0, 'lipoC3S3': 11.39, 'state': 'normal', 'rot1': 0, 'rot0': 0, 'rot3': 0, 'rot2': 0, 'depth': -1.056, 'yaw': 0.0, 'datetime': '2018-12-12 13:56:40.285170', 'mgs': 0, 'flw2': 0.0, 'flw1': 0.44, 'flw0': 0.0, 'time': 1.26, 'compass': -0.95, 'pitch': -3.28, 'roll': -0.99}
{'lipoC2': 7.4, 'temp': 0.0, 'lipoC3S3': 11.63, 'state': 'normal', 'rot1': 0, 'rot0': 0, 'rot3': 0, 'rot2': 0, 'depth': 1.462, 'yaw': 0.0, 'datetime': '2018-12-12 13:56:40.493224', 'mgs': 0, 'flw2': 0.0, 'flw1': 0.62, 'flw0': 0.0, 'time': 1.46, 'compass': -0.95, 'pitch': -3.28, 'roll': -0.99}
{'lipoC2': 7.38, 'temp': 0.0, 'lipoC3S3': 11.72, 'state': 'normal', 'rot1': 0, 'rot0': 0, 'rot3': 0, 'rot2': 0, 'depth': 1.538, 'yaw': 0.0, 'datetime': '2018-12-12 13:56:40.700952', 'mgs': 0, 'flw2': 0.04, 'flw1': 0.0, 'flw0': 0.0, 'time': 1.67, 'compass': -0.95, 'pitch': -3.28, 'roll': -0.99}
{'lipoC2': 7.34, 'temp': 0.0, 'lipoC3S3': 11.48, 'state': 'normal', 'rot1': 0, 'rot0': 0, 'rot3': 0, 'rot2': 0, 'depth': -0.827, 'yaw': 0.0, 'datetime': '2018-12-12 13:56:40.908545', 'mgs': 0, 'flw2': 0.24, 'flw1': 0.0, 'flw0': 0.13, 'time': 1.88, 'compass': -0.95, 'pitch': -3.28, 'roll': -0.99}
{'lipoC2': 7.46, 'temp': 0.0, 'lipoC3S3': 11.4, 'state': 'normal', 'rot1': 0, 'rot0': 0, 'rot3': 0, 'rot2': 0, 'depth': 0.623, 'yaw': 0.0, 'datetime': '2018-12-12 13:56:41.114823', 'mgs': 0, 'flw2': 0.04, 'flw1': 0.06, 'flw0': 0.0, 'time': 2.09, 'compass': -0.95, 'pitch': -3.28, 'roll': -0.99}
{'lipoC2': 7.3, 'temp': 0.0, 'lipoC3S3': 11.38, 'state': 'normal', 'rot1': 0, 'rot0': 0, 'rot3': 0, 'rot2': 0, 'depth': -0.98, 'yaw': 0.0, 'datetime': '2018-12-12 13:56:41.324222', 'mgs': 0, 'flw2': 0.0, 'flw1': 0.0, 'flw0': 0.13, 'time': 2.3, 'compass': -0.95, 'pitch': -3.28, 'roll': -0.99}
{'lipoC2': 7.37, 'temp': 0.0, 'lipoC3S3': 11.75, 'state': 'normal', 'rot1': 0, 'rot0': 0, 'rot3': 0, 'rot2': 0, 'depth': 1.691, 'yaw': 0.0, 'datetime': '2018-12-12 13:56:41.532246', 'mgs': 0, 'flw2': 0.0, 'flw1': 0.21, 'flw0': 0.0, 'time': 2.5, 'compass': -0.95, 'pitch': -3.28, 'roll': -0.99}
{'lipoC2': 7.61, 'temp': 0.0, 'lipoC3S3': 11.38, 'state': 'normal', 'rot1': 0, 'rot0': 0, 'rot3': 0, 'rot2': 0, 'depth': -0.446, 'yaw': 0.0, 'datetime': '2018-12-12 13:56:41.739242', 'mgs': 0, 'flw2': 0.21, 'flw1': 0.0, 'flw0': 0.24, 'time': 2.71, 'compass': -0.95, 'pitch': -3.28, 'roll': -0.99}
{'lipoC2': 7.49, 'temp': 0.0, 'lipoC3S3': 11.3, 'state': 'normal', 'rot1': 0, 'rot0': 0, 'rot3': 0, 'rot2': 0, 'depth': 0.394, 'yaw': 0.0, 'datetime': '2018-12-12 13:56:41.951397', 'mgs': 0, 'flw2': 0.02, 'flw1': 0.0, 'flw0': 0.24, 'time': 2.92, 'compass': -0.95, 'pitch': -3.28, 'roll': -0.99}
{'lipoC2': 7.62, 'temp': 0.0, 'lipoC3S3': 11.32, 'state': 'normal', 'rot1': 0, 'rot0': 0, 'rot3': 0, 'rot2': 0, 'depth': -0.827, 'yaw': 0.0, 'datetime': '2018-12-12 13:56:42.158315', 'mgs': 0, 'flw2': 0.26, 'flw1': 0.0, 'flw0': 0.2, 'time': 3.13, 'compass': -0.95, 'pitch': -3.28, 'roll': -0.99}
{'lipoC2': 7.33, 'temp': 0.0, 'lipoC3S3': 11.43, 'state': 'normal', 'rot1': 0, 'rot0': 0, 'rot3': 0, 'rot2': 0, 'depth': -0.751, 'yaw': -0.01, 'datetime': '2018-12-12 13:56:42.367788', 'mgs': 0, 'flw2': 0.0, 'flw1': 0.5, 'flw0': 0.0, 'time': 3.34, 'compass': -0.96, 'pitch': -3.39, 'roll': -0.94}
{'lipoC2': 7.58, 'temp': 0.0, 'lipoC3S3': 11.43, 'state': 'normal', 'rot1': 0, 'rot0': 0, 'rot3': 0, 'rot2': 0, 'depth': -0.522, 'yaw': 0.98, 'datetime': '2018-12-12 13:56:42.575237', 'mgs': 0, 'flw2': 0.0, 'flw1': 0.0, 'flw0': 0.0, 'time': 3.54, 'compass': 0.03, 'pitch': -3.71, 'roll': -0.73}
{'lipoC2': 7.39, 'temp': 0.0, 'lipoC3S3': 11.4, 'state': 'normal', 'rot1': 0, 'rot0': 0, 'rot3': 0, 'rot2': 0, 'depth': -1.056, 'yaw': 3.64, 'datetime': '2018-12-12 13:56:42.783375', 'mgs': 0, 'flw2': 0.0, 'flw1': 0.0, 'flw0': 0.1, 'time': 3.75, 'compass': 2.69, 'pitch': -3.98, 'roll': -0.66}
{'lipoC2': 7.37, 'temp': 0.0, 'lipoC3S3': 11.68, 'state': 'normal', 'rot1': 0, 'rot0': 0, 'rot3': 0, 'rot2': 0, 'depth': -1.132, 'yaw': 5.09, 'datetime': '2018-12-12 13:56:42.991093', 'mgs': 0, 'flw2': 0.0, 'flw1': 0.0, 'flw0': 0.0, 'time': 3.96, 'compass': 4.14, 'pitch': -3.96, 'roll': -0.7}
{'lipoC2': 7.41, 'temp': 0.0, 'lipoC3S3': 11.47, 'state': 'normal', 'rot1': 0, 'rot0': 0, 'rot3': 0, 'rot2': 0, 'depth': -1.971, 'yaw': 5.88, 'datetime': '2018-12-12 13:56:43.200274', 'mgs': 0, 'flw2': 0.0, 'flw1': 0.0, 'flw0': 0.13, 'time': 4.17, 'compass': 4.93, 'pitch': -4.14, 'roll': -0.61}
{'lipoC2': 7.32, 'temp': 0.0, 'lipoC3S3': 11.39, 'state': 'normal', 'rot1': 1, 'rot0': 0, 'rot3': 0, 'rot2': 0, 'depth': -1.056, 'yaw': 11.43, 'datetime': '2018-12-12 13:56:43.408603', 'mgs': 0, 'flw2': 0.05, 'flw1': 0.0, 'flw0': 0.09, 'time': 4.38, 'compass': 10.48, 'pitch': -5.34, 'roll': -0.53}
{'lipoC2': 7.44, 'temp': 0.0, 'lipoC3S3': 11.38, 'state': 'normal', 'rot1': 2, 'rot0': 1, 'rot3': 0, 'rot2': 0, 'depth': -0.674, 'yaw': 10.87, 'datetime': '2018-12-12 13:56:43.617058', 'mgs': 0, 'flw2': 0.34, 'flw1': 0.0, 'flw0': 0.46, 'time': 4.58, 'compass': 9.92, 'pitch': -5.74, 'roll': -1.0}
{'lipoC2': 7.36, 'temp': 0.0, 'lipoC3S3': 11.39, 'state': 'normal', 'rot1': 3, 'rot0': 2, 'rot3': 0, 'rot2': 0, 'depth': -0.903, 'yaw': 10.12, 'datetime': '2018-12-12 13:56:43.824386', 'mgs': 0, 'flw2': 0.16, 'flw1': 0.12, 'flw0': 0.0, 'time': 4.79, 'compass': 9.17, 'pitch': -5.9, 'roll': -0.99}
{'lipoC2': 7.42, 'temp': 0.0, 'lipoC3S3': 11.35, 'state': 'normal', 'rot1': 4, 'rot0': 3, 'rot3': 0, 'rot2': 0, 'depth': -0.674, 'yaw': 5.19, 'datetime': '2018-12-12 13:56:44.032699', 'mgs': 0, 'flw2': 0.43, 'flw1': 0.0, 'flw0': 0.54, 'time': 5.0, 'compass': 4.24, 'pitch': -6.97, 'roll': -1.05}
{'lipoC2': 7.47, 'temp': 0.0, 'lipoC3S3': 11.35, 'state': 'normal', 'rot1': 5, 'rot0': 4, 'rot3': 0, 'rot2': 0, 'depth': -1.437, 'yaw': -0.95, 'datetime': '2018-12-12 13:56:44.240192', 'mgs': 0, 'flw2': 0.0, 'flw1': 0.0, 'flw0': 0.22, 'time': 5.21, 'compass': -1.9, 'pitch': -4.13, 'roll': -1.1}
{'lipoC2': 7.56, 'temp': 0.0, 'lipoC3S3': 11.43, 'state': 'normal', 'rot1': 5, 'rot0': 4, 'rot3': 0, 'rot2': 0, 'depth': -0.446, 'yaw': -0.27, 'datetime': '2018-12-12 13:56:44.448164', 'mgs': 0, 'flw2': 0.0, 'flw1': 0.0, 'flw0': 0.0, 'time': 5.41, 'compass': -1.22, 'pitch': -4.24, 'roll': -0.77}
{'lipoC2': 7.58, 'temp': 0.0, 'lipoC3S3': 11.42, 'state': 'normal', 'rot1': 5, 'rot0': 4, 'rot3': 0, 'rot2': 0, 'depth': 1.233, 'yaw': -0.52, 'datetime': '2018-12-12 13:56:44.656524', 'mgs': 0, 'flw2': 0.0, 'flw1': 0.0, 'flw0': 0.0, 'time': 5.62, 'compass': -1.47, 'pitch': -3.68, 'roll': -0.96}
{'lipoC2': 7.42, 'temp': 0.0, 'lipoC3S3': 11.4, 'state': 'normal', 'rot1': 5, 'rot0': 4, 'rot3': 0, 'rot2': 0, 'depth': -0.903, 'yaw': -0.51, 'datetime': '2018-12-12 13:56:44.866883', 'mgs': 0, 'flw2': 0.0, 'flw1': 0.0, 'flw0': 0.13, 'time': 5.83, 'compass': -1.46, 'pitch': -3.41, 'roll': -1.04}
{'lipoC2': 7.38, 'temp': 0.0, 'lipoC3S3': 11.61, 'state': 'normal', 'rot1': 5, 'rot0': 4, 'rot3': 0, 'rot2': 0, 'depth': -0.293, 'yaw': -0.56, 'datetime': '2018-12-12 13:56:45.074264', 'mgs': 0, 'flw2': 0.0, 'flw1': 0.0, 'flw0': 0.0, 'time': 6.04, 'compass': -1.52, 'pitch': -3.26, 'roll': -1.09}
{'lipoC2': 7.58, 'temp': 0.0, 'lipoC3S3': 11.4, 'state': 'normal', 'rot1': 5, 'rot0': 4, 'rot3': 0, 'rot2': 0, 'depth': -0.522, 'yaw': -0.71, 'datetime': '2018-12-12 13:56:45.282738', 'mgs': 0, 'flw2': 0.0, 'flw1': 0.0, 'flw0': 0.0, 'time': 6.24, 'compass': -1.66, 'pitch': -3.31, 'roll': -1.09}
{'lipoC2': 7.61, 'temp': 0.0, 'lipoC3S3': 11.42, 'state': 'normal', 'rot1': 5, 'rot0': 4, 'rot3': 0, 'rot2': 0, 'depth': -0.522, 'yaw': -0.71, 'datetime': '2018-12-12 13:56:45.491117', 'mgs': 0, 'flw2': 0.0, 'flw1': 0.35, 'flw0': 0.0, 'time': 6.45, 'compass': -1.66, 'pitch': -3.32, 'roll': -1.08}
{'lipoC2': 7.49, 'temp': 0.0, 'lipoC3S3': 11.3, 'state': 'normal', 'rot1': 5, 'rot0': 4, 'rot3': 0, 'rot2': 0, 'depth': 0.317, 'yaw': -0.7, 'datetime': '2018-12-12 13:56:45.699933', 'mgs': 0, 'flw2': 0.1, 'flw1': 0.0, 'flw0': 0.27, 'time': 6.66, 'compass': -1.66, 'pitch': -3.32, 'roll': -1.06}
{'lipoC2': 7.4, 'temp': 0.0, 'lipoC3S3': 11.69, 'state': 'normal', 'rot1': 5, 'rot0': 4, 'rot3': 0, 'rot2': 0, 'depth': -0.751, 'yaw': -0.7, 'datetime': '2018-12-12 13:56:45.906681', 'mgs': 0, 'flw2': 0.26, 'flw1': 0.0, 'flw0': 0.13, 'time': 6.87, 'compass': -1.66, 'pitch': -3.32, 'roll': -1.05}
{'lipoC2': 7.42, 'temp': 0.0, 'lipoC3S3': 11.47, 'state': 'normal', 'rot1': 5, 'rot0': 4, 'rot3': 0, 'rot2': 0, 'depth': -0.903, 'yaw': -0.7, 'datetime': '2018-12-12 13:56:46.115600', 'mgs': 0, 'flw2': 0.0, 'flw1': 0.0, 'flw0': 0.02, 'time': 7.08, 'compass': -1.66, 'pitch': -3.31, 'roll': -1.05}
{'lipoC2': 7.54, 'temp': 0.0, 'lipoC3S3': 11.26, 'state': 'normal', 'rot1': 5, 'rot0': 4, 'rot3': 0, 'rot2': 0, 'depth': 1.233, 'yaw': -0.7, 'datetime': '2018-12-12 13:56:46.323946', 'mgs': 0, 'flw2': 0.0, 'flw1': 0.0, 'flw0': 0.22, 'time': 7.29, 'compass': -1.66, 'pitch': -3.32, 'roll': -1.05}
{'lipoC2': 7.4, 'temp': 0.0, 'lipoC3S3': 11.65, 'state': 'normal', 'rot1': 5, 'rot0': 4, 'rot3': 0, 'rot2': 0, 'depth': -0.446, 'yaw': -0.7, 'datetime': '2018-12-12 13:56:46.531269', 'mgs': 0, 'flw2': 0.0, 'flw1': 0.38, 'flw0': 0.0, 'time': 7.49, 'compass': -1.66, 'pitch': -3.29, 'roll': -1.05}
{'lipoC2': 7.36, 'temp': 0.0, 'lipoC3S3': 11.39, 'state': 'normal', 'rot1': 5, 'rot0': 4, 'rot3': 0, 'rot2': 0, 'depth': -1.132, 'yaw': -0.7, 'datetime': '2018-12-12 13:56:46.739932', 'mgs': 0, 'flw2': 0.0, 'flw1': 0.03, 'flw0': 0.0, 'time': 7.7, 'compass': -1.66, 'pitch': -3.31, 'roll': -1.04}
{'lipoC2': 7.48, 'temp': 0.0, 'lipoC3S3': 11.34, 'state': 'normal', 'rot1': 5, 'rot0': 4, 'rot3': 0, 'rot2': 0, 'depth': -1.743, 'yaw': -0.7, 'datetime': '2018-12-12 13:56:46.948108', 'mgs': 0, 'flw2': 0.0, 'flw1': 0.0, 'flw0': 0.17, 'time': 7.91, 'compass': -1.66, 'pitch': -3.32, 'roll': -1.04}
{'lipoC2': 7.43, 'temp': 0.0, 'lipoC3S3': 11.39, 'state': 'normal', 'rot1': 5, 'rot0': 4, 'rot3': 0, 'rot2': 0, 'depth': -0.217, 'yaw': -0.7, 'datetime': '2018-12-12 13:56:47.157509', 'mgs': 0, 'flw2': 0.0, 'flw1': 0.06, 'flw0': 0.0, 'time': 8.12, 'compass': -1.66, 'pitch': -3.34, 'roll': -1.03}
{'lipoC2': 7.56, 'temp': 0.0, 'lipoC3S3': 11.27, 'state': 'normal', 'rot1': 5, 'rot0': 4, 'rot3': 0, 'rot2': 0, 'depth': -1.819, 'yaw': -0.71, 'datetime': '2018-12-12 13:56:47.364940', 'mgs': 0, 'flw2': 0.21, 'flw1': 0.0, 'flw0': 0.27, 'time': 8.33, 'compass': -1.66, 'pitch': -3.36, 'roll': -1.01}
{'lipoC2': 7.34, 'temp': 0.0, 'lipoC3S3': 11.44, 'state': 'normal', 'rot1': 5, 'rot0': 4, 'rot3': 0, 'rot2': 0, 'depth': -0.293, 'yaw': -1.86, 'datetime': '2018-12-12 13:56:47.574060', 'mgs': 0, 'flw2': 0.0, 'flw1': 0.38, 'flw0': 0.0, 'time': 8.53, 'compass': -2.81, 'pitch': -2.09, 'roll': -1.11}
{'lipoC2': 7.54, 'temp': 0.0, 'lipoC3S3': 11.43, 'state': 'normal', 'rot1': 5, 'rot0': 4, 'rot3': 0, 'rot2': 0, 'depth': -0.446, 'yaw': -6.24, 'datetime': '2018-12-12 13:56:47.782863', 'mgs': 0, 'flw2': 0.0, 'flw1': 0.0, 'flw0': 0.0, 'time': 8.74, 'compass': -7.19, 'pitch': -1.35, 'roll': 0.7}
{'lipoC2': 7.46, 'temp': 0.0, 'lipoC3S3': 11.42, 'state': 'normal', 'rot1': 5, 'rot0': 4, 'rot3': 0, 'rot2': 0, 'depth': -0.293, 'yaw': -11.49, 'datetime': '2018-12-12 13:56:47.989851', 'mgs': 0, 'flw2': 0.0, 'flw1': 0.0, 'flw0': 0.0, 'time': 8.95, 'compass': -12.44, 'pitch': -2.64, 'roll': 1.3}
{'lipoC2': 7.57, 'temp': 0.0, 'lipoC3S3': 11.43, 'state': 'normal', 'rot1': 6, 'rot0': 5, 'rot3': 0, 'rot2': 0, 'depth': -0.446, 'yaw': -21.04, 'datetime': '2018-12-12 13:56:48.198400', 'mgs': 0, 'flw2': 0.51, 'flw1': 0.0, 'flw0': 0.22, 'time': 9.16, 'compass': -21.99, 'pitch': -4.97, 'roll': -5.96}
{'lipoC2': 7.37, 'temp': 0.0, 'lipoC3S3': 11.67, 'state': 'normal', 'rot1': 7, 'rot0': 6, 'rot3': 0, 'rot2': 0, 'depth': 1.462, 'yaw': -31.15, 'datetime': '2018-12-12 13:56:48.405533', 'mgs': 0, 'flw2': 0.16, 'flw1': 0.0, 'flw0': 0.29, 'time': 9.36, 'compass': -32.1, 'pitch': -4.95, 'roll': -10.02}
{'lipoC2': 7.48, 'temp': 0.0, 'lipoC3S3': 11.29, 'state': 'normal', 'rot1': 9, 'rot0': 7, 'rot3': 0, 'rot2': 0, 'depth': -1.208, 'yaw': -34.5, 'datetime': '2018-12-12 13:56:48.615269', 'mgs': 0, 'flw2': 0.04, 'flw1': 0.56, 'flw0': 0.13, 'time': 9.57, 'compass': -35.45, 'pitch': -3.7, 'roll': -8.13}
{'lipoC2': 7.37, 'temp': 0.0, 'lipoC3S3': 11.73, 'state': 'normal', 'rot1': 10, 'rot0': 8, 'rot3': 0, 'rot2': 0, 'depth': 1.614, 'yaw': -32.51, 'datetime': '2018-12-12 13:56:48.823470', 'mgs': 0, 'flw2': 0.17, 'flw1': 0.5, 'flw0': 0.13, 'time': 9.78, 'compass': -33.47, 'pitch': -2.91, 'roll': -8.54}
{'lipoC2': 7.59, 'temp': 0.0, 'lipoC3S3': 11.29, 'state': 'normal', 'rot1': 11, 'rot0': 10, 'rot3': 0, 'rot2': 0, 'depth': -1.514, 'yaw': -31.3, 'datetime': '2018-12-12 13:56:49.032899', 'mgs': 0, 'flw2': 0.11, 'flw1': 0.56, 'flw0': 0.11, 'time': 9.99, 'compass': -32.25, 'pitch': -2.19, 'roll': -8.79}
{'lipoC2': 7.41, 'temp': 0.0, 'lipoC3S3': 11.72, 'state': 'normal', 'rot1': 12, 'rot0': 11, 'rot3': 0, 'rot2': 0, 'depth': -0.827, 'yaw': -31.83, 'datetime': '2018-12-12 13:56:49.243005', 'mgs': 0, 'flw2': 0.02, 'flw1': 0.0, 'flw0': 0.02, 'time': 10.2, 'compass': -32.78, 'pitch': -1.0, 'roll': -7.71}
{'lipoC2': 7.61, 'temp': 0.0, 'lipoC3S3': 11.35, 'state': 'normal', 'rot1': 13, 'rot0': 12, 'rot3': 0, 'rot2': 0, 'depth': -1.285, 'yaw': -33.42, 'datetime': '2018-12-12 13:56:49.451091', 'mgs': 0, 'flw2': 0.49, 'flw1': 0.0, 'flw0': 0.31, 'time': 10.41, 'compass': -34.37, 'pitch': -0.52, 'roll': -7.85}
{'lipoC2': 7.33, 'temp': 0.0, 'lipoC3S3': 11.39, 'state': 'normal', 'rot1': 15, 'rot0': 13, 'rot3': 0, 'rot2': 0, 'depth': -1.056, 'yaw': -34.05, 'datetime': '2018-12-12 13:56:49.662220', 'mgs': 0, 'flw2': 0.11, 'flw1': 0.09, 'flw0': 0.2, 'time': 10.62, 'compass': -35.0, 'pitch': -1.22, 'roll': -6.47}
{'lipoC2': 7.54, 'temp': 0.0, 'lipoC3S3': 11.26, 'state': 'normal', 'rot1': 16, 'rot0': 14, 'rot3': 0, 'rot2': 0, 'depth': 0.623, 'yaw': -32.52, 'datetime': '2018-12-12 13:56:49.872705', 'mgs': 0, 'flw2': 0.46, 'flw1': 0.0, 'flw0': 0.55, 'time': 10.82, 'compass': -33.47, 'pitch': -1.08, 'roll': -9.96}
{'lipoC2': 7.33, 'temp': 0.0, 'lipoC3S3': 11.39, 'state': 'normal', 'rot1': 17, 'rot0': 15, 'rot3': 0, 'rot2': 0, 'depth': -1.056, 'yaw': -29.74, 'datetime': '2018-12-12 13:56:50.081410', 'mgs': 0, 'flw2': 0.13, 'flw1': 0.0, 'flw0': 0.31, 'time': 11.03, 'compass': -30.69, 'pitch': -2.37, 'roll': -10.51}
{'lipoC2': 7.34, 'temp': 0.0, 'lipoC3S3': 11.38, 'state': 'normal', 'rot1': 18, 'rot0': 16, 'rot3': 0, 'rot2': 0, 'depth': -1.132, 'yaw': -33.24, 'datetime': '2018-12-12 13:56:50.290344', 'mgs': 0, 'flw2': 0.39, 'flw1': 0.0, 'flw0': 0.54, 'time': 11.24, 'compass': -34.19, 'pitch': -4.63, 'roll': -8.18}
{'lipoC2': 7.49, 'temp': 0.0, 'lipoC3S3': 11.39, 'state': 'normal', 'rot1': 19, 'rot0': 17, 'rot3': 0, 'rot2': 0, 'depth': 0.089, 'yaw': -38.43, 'datetime': '2018-12-12 13:56:50.498838', 'mgs': 0, 'flw2': 0.15, 'flw1': 0.0, 'flw0': 0.18, 'time': 11.45, 'compass': -39.38, 'pitch': -6.7, 'roll': -5.32}
{'lipoC2': 7.39, 'temp': 0.0, 'lipoC3S3': 11.39, 'state': 'normal', 'rot1': 21, 'rot0': 19, 'rot3': 0, 'rot2': 0, 'depth': -0.98, 'yaw': -42.74, 'datetime': '2018-12-12 13:56:50.710509', 'mgs': 0, 'flw2': 0.28, 'flw1': 0.0, 'flw0': 0.17, 'time': 11.66, 'compass': -43.69, 'pitch': -6.12, 'roll': -7.69}
{'lipoC2': 7.57, 'temp': 0.0, 'lipoC3S3': 11.3, 'state': 'normal', 'rot1': 23, 'rot0': 20, 'rot3': 0, 'rot2': 0, 'depth': 0.928, 'yaw': -47.11, 'datetime': '2018-12-12 13:56:50.925255', 'mgs': 0, 'flw2': 0.23, 'flw1': 0.26, 'flw0': 0.39, 'time': 11.87, 'compass': -48.06, 'pitch': -5.68, 'roll': -9.03}
{'lipoC2': 7.36, 'temp': 0.0, 'lipoC3S3': 11.39, 'state': 'normal', 'rot1': 26, 'rot0': 23, 'rot3': 0, 'rot2': 0, 'depth': 1.691, 'yaw': -54.11, 'datetime': '2018-12-12 13:56:51.227198', 'mgs': 0, 'flw2': 0.79, 'flw1': 0.0, 'flw0': 0.48, 'time': 12.18, 'compass': -55.06, 'pitch': -8.73, 'roll': -7.68}
{'lipoC2': 7.57, 'temp': 0.0, 'lipoC3S3': 11.3, 'state': 'normal', 'rot1': 28, 'rot0': 25, 'rot3': 0, 'rot2': 0, 'depth': -1.666, 'yaw': -56.72, 'datetime': '2018-12-12 13:56:51.436270', 'mgs': 0, 'flw2': 0.87, 'flw1': 0.0, 'flw0': 0.73, 'time': 12.39, 'compass': -57.68, 'pitch': -8.5, 'roll': -5.38}
{'lipoC2': 7.4, 'temp': 0.0, 'lipoC3S3': 11.65, 'state': 'normal', 'rot1': 31, 'rot0': 27, 'rot3': 0, 'rot2': 0, 'depth': -0.522, 'yaw': -59.62, 'datetime': '2018-12-12 13:56:51.646811', 'mgs': 0, 'flw2': 0.54, 'flw1': 0.62, 'flw0': 0.48, 'time': 12.6, 'compass': -60.57, 'pitch': -8.1, 'roll': -2.31}
{'lipoC2': 7.44, 'temp': 0.0, 'lipoC3S3': 11.36, 'state': 'normal', 'rot1': 34, 'rot0': 30, 'rot3': 0, 'rot2': 0, 'depth': -1.285, 'yaw': -61.93, 'datetime': '2018-12-12 13:56:51.857133', 'mgs': 0, 'flw2': 0.56, 'flw1': 0.0, 'flw0': 0.81, 'time': 12.81, 'compass': -62.88, 'pitch': -7.04, 'roll': -1.83}
{'lipoC2': 7.43, 'temp': 0.0, 'lipoC3S3': 11.34, 'state': 'normal', 'rot1': 37, 'rot0': 32, 'rot3': 0, 'rot2': 0, 'depth': -0.827, 'yaw': -62.9, 'datetime': '2018-12-12 13:56:52.064998', 'mgs': 0, 'flw2': 0.72, 'flw1': 0.0, 'flw0': 0.89, 'time': 13.02, 'compass': -63.85, 'pitch': -6.29, 'roll': -2.49}
{'lipoC2': 7.4, 'temp': 0.0, 'lipoC3S3': 11.25, 'state': 'normal', 'rot1': 40, 'rot0': 34, 'rot3': 0, 'rot2': 0, 'depth': -0.217, 'yaw': -58.69, 'datetime': '2018-12-12 13:56:52.272771', 'mgs': 0, 'flw2': 0.93, 'flw1': 0.0, 'flw0': 0.92, 'time': 13.23, 'compass': -59.64, 'pitch': -3.0, 'roll': -4.25}
{'lipoC2': 7.48, 'temp': 0.0, 'lipoC3S3': 11.26, 'state': 'normal', 'rot1': 44, 'rot0': 37, 'rot3': 0, 'rot2': 0, 'depth': 0.089, 'yaw': -52.0, 'datetime': '2018-12-12 13:56:52.480858', 'mgs': 0, 'flw2': 0.52, 'flw1': 0.0, 'flw0': 0.74, 'time': 13.44, 'compass': -52.95, 'pitch': 1.92, 'roll': -2.61}
{'lipoC2': 7.51, 'temp': 0.0, 'lipoC3S3': 11.42, 'state': 'normal', 'rot1': 47, 'rot0': 39, 'rot3': 0, 'rot2': 0, 'depth': -0.98, 'yaw': -50.97, 'datetime': '2018-12-12 13:56:52.690724', 'mgs': 0, 'flw2': 0.65, 'flw1': 0.0, 'flw0': 0.77, 'time': 13.65, 'compass': -51.92, 'pitch': 5.93, 'roll': 2.16}
{'lipoC2': 7.61, 'temp': 0.0, 'lipoC3S3': 11.32, 'state': 'normal', 'rot1': 50, 'rot0': 41, 'rot3': 0, 'rot2': 0, 'depth': -0.598, 'yaw': -51.27, 'datetime': '2018-12-12 13:56:52.899446', 'mgs': 0, 'flw2': 0.67, 'flw1': 0.32, 'flw0': 0.46, 'time': 13.85, 'compass': -52.23, 'pitch': 8.59, 'roll': 2.8}
{'lipoC2': 7.37, 'temp': 0.0, 'lipoC3S3': 11.61, 'state': 'normal', 'rot1': 52, 'rot0': 43, 'rot3': 0, 'rot2': 0, 'depth': -0.98, 'yaw': -49.79, 'datetime': '2018-12-12 13:56:53.111765', 'mgs': 0, 'flw2': 0.66, 'flw1': 0.0, 'flw0': 0.87, 'time': 14.06, 'compass': -50.74, 'pitch': 9.79, 'roll': 2.2}
{'lipoC2': 7.52, 'temp': 0.0, 'lipoC3S3': 11.25, 'state': 'normal', 'rot1': 54, 'rot0': 44, 'rot3': 0, 'rot2': 0, 'depth': 0.317, 'yaw': -48.75, 'datetime': '2018-12-12 13:56:53.320638', 'mgs': 0, 'flw2': 0.94, 'flw1': 0.0, 'flw0': 0.93, 'time': 14.27, 'compass': -49.7, 'pitch': 5.91, 'roll': 3.6}
{'lipoC2': 7.4, 'temp': 0.0, 'lipoC3S3': 11.68, 'state': 'normal', 'rot1': 55, 'rot0': 45, 'rot3': 0, 'rot2': 0, 'depth': 1.385, 'yaw': -47.36, 'datetime': '2018-12-12 13:56:53.528542', 'mgs': 0, 'flw2': 0.59, 'flw1': 0.0, 'flw0': 0.46, 'time': 14.48, 'compass': -48.31, 'pitch': -2.17, 'roll': 8.84}
{'lipoC2': 7.58, 'temp': 0.0, 'lipoC3S3': 11.4, 'state': 'normal', 'rot1': 57, 'rot0': 47, 'rot3': 0, 'rot2': 0, 'depth': -0.293, 'yaw': -45.5, 'datetime': '2018-12-12 13:56:53.738068', 'mgs': 0, 'flw2': 0.72, 'flw1': 0.0, 'flw0': 0.46, 'time': 14.69, 'compass': -46.45, 'pitch': -6.67, 'roll': 16.34}
{'lipoC2': 7.52, 'temp': 0.0, 'lipoC3S3': 11.42, 'state': 'normal', 'rot1': 58, 'rot0': 48, 'rot3': 0, 'rot2': 0, 'depth': 0.851, 'yaw': -44.54, 'datetime': '2018-12-12 13:56:53.946255', 'mgs': 0, 'flw2': 0.49, 'flw1': 0.0, 'flw0': 0.42, 'time': 14.9, 'compass': -45.49, 'pitch': -7.78, 'roll': 13.42}
{'lipoC2': 7.38, 'temp': 0.0, 'lipoC3S3': 11.58, 'state': 'normal', 'rot1': 60, 'rot0': 49, 'rot3': 0, 'rot2': 0, 'depth': -0.369, 'yaw': -43.33, 'datetime': '2018-12-12 13:56:54.157019', 'mgs': 0, 'flw2': 0.43, 'flw1': 0.59, 'flw0': 0.52, 'time': 15.11, 'compass': -44.28, 'pitch': -8.61, 'roll': 4.7}
{'lipoC2': 7.39, 'temp': 0.0, 'lipoC3S3': 11.71, 'state': 'normal', 'rot1': 61, 'rot0': 50, 'rot3': 0, 'rot2': 0, 'depth': 0.165, 'yaw': -39.48, 'datetime': '2018-12-12 13:56:54.366372', 'mgs': 0, 'flw2': 0.48, 'flw1': 0.15, 'flw0': 0.5, 'time': 15.32, 'compass': -40.43, 'pitch': -5.37, 'roll': -1.24}
{'lipoC2': 7.35, 'temp': 0.0, 'lipoC3S3': 11.38, 'state': 'normal', 'rot1': 63, 'rot0': 52, 'rot3': 0, 'rot2': 0, 'depth': -0.369, 'yaw': -33.66, 'datetime': '2018-12-12 13:56:54.575468', 'mgs': 0, 'flw2': 0.2, 'flw1': 0.0, 'flw0': 0.35, 'time': 15.52, 'compass': -34.62, 'pitch': -5.52, 'roll': -2.86}
{'lipoC2': 7.4, 'temp': 0.0, 'lipoC3S3': 11.69, 'state': 'normal', 'rot1': 64, 'rot0': 53, 'rot3': 0, 'rot2': 0, 'depth': 0.241, 'yaw': -27.98, 'datetime': '2018-12-12 13:56:54.783622', 'mgs': 0, 'flw2': 0.18, 'flw1': 0.0, 'flw0': 0.11, 'time': 15.73, 'compass': -28.93, 'pitch': -6.33, 'roll': -1.22}
{'lipoC2': 7.37, 'temp': 0.0, 'lipoC3S3': 11.6, 'state': 'normal', 'rot1': 65, 'rot0': 54, 'rot3': 0, 'rot2': 0, 'depth': -0.369, 'yaw': -24.3, 'datetime': '2018-12-12 13:56:54.993496', 'mgs': 0, 'flw2': 0.44, 'flw1': 0.0, 'flw0': 0.17, 'time': 15.94, 'compass': -25.25, 'pitch': -5.04, 'roll': -0.13}
{'lipoC2': 7.37, 'temp': 0.0, 'lipoC3S3': 11.55, 'state': 'normal', 'rot1': 67, 'rot0': 55, 'rot3': 0, 'rot2': 0, 'depth': 1.767, 'yaw': -20.86, 'datetime': '2018-12-12 13:56:55.200967', 'mgs': 0, 'flw2': 0.32, 'flw1': 0.0, 'flw0': 0.49, 'time': 16.15, 'compass': -21.81, 'pitch': -3.56, 'roll': 0.16}
{'lipoC2': 7.39, 'temp': 0.0, 'lipoC3S3': 11.71, 'state': 'normal', 'rot1': 68, 'rot0': 56, 'rot3': 0, 'rot2': 0, 'depth': 0.089, 'yaw': -17.55, 'datetime': '2018-12-12 13:56:55.410290', 'mgs': 0, 'flw2': 0.24, 'flw1': 0.38, 'flw0': 0.24, 'time': 16.36, 'compass': -18.5, 'pitch': -1.95, 'roll': -0.08}
{'lipoC2': 7.46, 'temp': 0.0, 'lipoC3S3': 11.35, 'state': 'normal', 'rot1': 69, 'rot0': 57, 'rot3': 0, 'rot2': 0, 'depth': -0.293, 'yaw': -14.62, 'datetime': '2018-12-12 13:56:55.619572', 'mgs': 0, 'flw2': 0.37, 'flw1': 0.0, 'flw0': 0.57, 'time': 16.57, 'compass': -15.57, 'pitch': -1.73, 'roll': -0.4}
{'lipoC2': 7.39, 'temp': 0.0, 'lipoC3S3': 11.47, 'state': 'normal', 'rot1': 70, 'rot0': 58, 'rot3': 0, 'rot2': 0, 'depth': 1.08, 'yaw': -11.69, 'datetime': '2018-12-12 13:56:55.829044', 'mgs': 0, 'flw2': 0.26, 'flw1': 0.0, 'flw0': 0.44, 'time': 16.78, 'compass': -12.64, 'pitch': -2.45, 'roll': -0.41}
{'lipoC2': 7.4, 'temp': 0.0, 'lipoC3S3': 11.64, 'state': 'normal', 'rot1': 71, 'rot0': 59, 'rot3': 0, 'rot2': 0, 'depth': 0.089, 'yaw': -8.07, 'datetime': '2018-12-12 13:56:56.038386', 'mgs': 0, 'flw2': 0.2, 'flw1': 0.59, 'flw0': 0.2, 'time': 16.99, 'compass': -9.02, 'pitch': -2.59, 'roll': -0.31}
{'lipoC2': 7.39, 'temp': 0.0, 'lipoC3S3': 11.71, 'state': 'normal', 'rot1': 72, 'rot0': 59, 'rot3': 0, 'rot2': 0, 'depth': 1.996, 'yaw': -3.87, 'datetime': '2018-12-12 13:56:56.245217', 'mgs': 0, 'flw2': 0.0, 'flw1': 0.12, 'flw0': 0.0, 'time': 17.19, 'compass': -4.82, 'pitch': -1.92, 'roll': 0.16}
{'lipoC2': 7.51, 'temp': 0.0, 'lipoC3S3': 11.39, 'state': 'normal', 'rot1': 72, 'rot0': 59, 'rot3': 0, 'rot2': 0, 'depth': 0.928, 'yaw': 1.77, 'datetime': '2018-12-12 13:56:56.454946', 'mgs': 0, 'flw2': 0.0, 'flw1': 0.56, 'flw0': 0.0, 'time': 17.4, 'compass': 0.82, 'pitch': -2.39, 'roll': 0.78}
{'lipoC2': 7.37, 'temp': 0.0, 'lipoC3S3': 11.56, 'state': 'normal', 'rot1': 72, 'rot0': 59, 'rot3': 0, 'rot2': 0, 'depth': -0.217, 'yaw': 7.3, 'datetime': '2018-12-12 13:56:56.664791', 'mgs': 0, 'flw2': 0.0, 'flw1': 0.32, 'flw0': 0.0, 'time': 17.61, 'compass': 6.34, 'pitch': -2.72, 'roll': -0.69}
{'lipoC2': 7.38, 'temp': 0.0, 'lipoC3S3': 11.59, 'state': 'normal', 'rot1': 72, 'rot0': 59, 'rot3': 0, 'rot2': 0, 'depth': 0.699, 'yaw': 9.88, 'datetime': '2018-12-12 13:56:56.877924', 'mgs': 0, 'flw2': 0.26, 'flw1': 0.59, 'flw0': 0.32, 'time': 17.82, 'compass': 8.93, 'pitch': -3.21, 'roll': -3.38}
{'lipoC2': 7.37, 'temp': 0.0, 'lipoC3S3': 11.71, 'state': 'normal', 'rot1': 73, 'rot0': 60, 'rot3': 0, 'rot2': 0, 'depth': -0.217, 'yaw': 11.19, 'datetime': '2018-12-12 13:56:57.084928', 'mgs': 0, 'flw2': 0.6, 'flw1': 0.0, 'flw0': 0.22, 'time': 18.03, 'compass': 10.24, 'pitch': -2.87, 'roll': -3.61}
{'lipoC2': 7.46, 'temp': 0.0, 'lipoC3S3': 11.3, 'state': 'normal', 'rot1': 74, 'rot0': 61, 'rot3': 0, 'rot2': 0, 'depth': 0.165, 'yaw': 11.68, 'datetime': '2018-12-12 13:56:57.293853', 'mgs': 0, 'flw2': 0.15, 'flw1': 0.59, 'flw0': 0.23, 'time': 18.24, 'compass': 10.73, 'pitch': -3.8, 'roll': -1.54}
{'lipoC2': 7.39, 'temp': 0.0, 'lipoC3S3': 11.61, 'state': 'normal', 'rot1': 76, 'rot0': 62, 'rot3': 0, 'rot2': 0, 'depth': -0.064, 'yaw': 10.22, 'datetime': '2018-12-12 13:56:57.502413', 'mgs': 0, 'flw2': 0.17, 'flw1': 0.59, 'flw0': 0.21, 'time': 18.45, 'compass': 9.27, 'pitch': -3.49, 'roll': 0.29}
{'lipoC2': 7.39, 'temp': 0.0, 'lipoC3S3': 11.6, 'state': 'normal', 'rot1': 77, 'rot0': 63, 'rot3': 0, 'rot2': 0, 'depth': -0.064, 'yaw': 7.72, 'datetime': '2018-12-12 13:56:57.710578', 'mgs': 0, 'flw2': 0.07, 'flw1': 0.47, 'flw0': 0.26, 'time': 18.65, 'compass': 6.77, 'pitch': -1.31, 'roll': 0.77}
{'lipoC2': 7.49, 'temp': 0.0, 'lipoC3S3': 11.26, 'state': 'normal', 'rot1': 78, 'rot0': 64, 'rot3': 0, 'rot2': 0, 'depth': -0.674, 'yaw': 4.29, 'datetime': '2018-12-12 13:56:57.921473', 'mgs': 0, 'flw2': 0.51, 'flw1': 0.0, 'flw0': 0.61, 'time': 18.86, 'compass': 3.34, 'pitch': -0.66, 'roll': 0.29}
{'lipoC2': 7.42, 'temp': 0.0, 'lipoC3S3': 11.4, 'state': 'normal', 'rot1': 78, 'rot0': 64, 'rot3': 0, 'rot2': 0, 'depth': -0.446, 'yaw': 0.48, 'datetime': '2018-12-12 13:56:58.132206', 'mgs': 0, 'flw2': 0.0, 'flw1': 0.56, 'flw0': 0.0, 'time': 19.07, 'compass': -0.48, 'pitch': -1.67, 'roll': -0.5}
{'lipoC2': 7.5, 'temp': 0.0, 'lipoC3S3': 11.27, 'state': 'normal', 'rot1': 78, 'rot0': 64, 'rot3': 0, 'rot2': 0, 'depth': -0.98, 'yaw': -2.89, 'datetime': '2018-12-12 13:56:58.338303', 'mgs': 0, 'flw2': 0.1, 'flw1': 0.0, 'flw0': 0.27, 'time': 19.28, 'compass': -3.84, 'pitch': -2.32, 'roll': -1.23}
{'lipoC2': 7.61, 'temp': 0.0, 'lipoC3S3': 11.34, 'state': 'normal', 'rot1': 78, 'rot0': 64, 'rot3': 0, 'rot2': 0, 'depth': -0.751, 'yaw': -6.05, 'datetime': '2018-12-12 13:56:58.549082', 'mgs': 0, 'flw2': 0.28, 'flw1': 0.0, 'flw0': 0.1, 'time': 19.49, 'compass': -7.0, 'pitch': -1.52, 'roll': -1.69}
{'lipoC2': 7.41, 'temp': 0.0, 'lipoC3S3': 11.4, 'state': 'normal', 'rot1': 78, 'rot0': 64, 'rot3': 0, 'rot2': 0, 'depth': -0.14, 'yaw': -9.14, 'datetime': '2018-12-12 13:56:58.754841', 'mgs': 0, 'flw2': 0.0, 'flw1': 0.0, 'flw0': 0.16, 'time': 19.7, 'compass': -10.09, 'pitch': -0.48, 'roll': -1.78}
{'lipoC2': 7.37, 'temp': 0.0, 'lipoC3S3': 11.5, 'state': 'normal', 'rot1': 79, 'rot0': 65, 'rot3': 0, 'rot2': 0, 'depth': -0.369, 'yaw': -11.8, 'datetime': '2018-12-12 13:56:58.965291', 'mgs': 0, 'flw2': 0.24, 'flw1': 0.15, 'flw0': 0.31, 'time': 19.91, 'compass': -12.75, 'pitch': -0.95, 'roll': -1.21}
{'lipoC2': 7.39, 'temp': 0.0, 'lipoC3S3': 11.4, 'state': 'normal', 'rot1': 80, 'rot0': 65, 'rot3': 0, 'rot2': 0, 'depth': -0.064, 'yaw': -13.64, 'datetime': '2018-12-12 13:56:59.172928', 'mgs': 0, 'flw2': 0.33, 'flw1': 0.0, 'flw0': 0.51, 'time': 20.11, 'compass': -14.59, 'pitch': -2.11, 'roll': -0.29}
{'lipoC2': 7.39, 'temp': 0.0, 'lipoC3S3': 11.51, 'state': 'normal', 'rot1': 81, 'rot0': 66, 'rot3': 0, 'rot2': 0, 'depth': -0.369, 'yaw': -14.82, 'datetime': '2018-12-12 13:56:59.380686', 'mgs': 0, 'flw2': 0.35, 'flw1': 0.0, 'flw0': 0.52, 'time': 20.32, 'compass': -15.77, 'pitch': -1.65, 'roll': 0.02}
{'lipoC2': 7.39, 'temp': 0.0, 'lipoC3S3': 11.61, 'state': 'normal', 'rot1': 83, 'rot0': 67, 'rot3': 0, 'rot2': 0, 'depth': -0.14, 'yaw': -15.46, 'datetime': '2018-12-12 13:56:59.591105', 'mgs': 0, 'flw2': 0.2, 'flw1': 0.59, 'flw0': 0.22, 'time': 20.53, 'compass': -16.41, 'pitch': -0.12, 'roll': -0.22}
{'lipoC2': 7.39, 'temp': 0.0, 'lipoC3S3': 11.39, 'state': 'normal', 'rot1': 84, 'rot0': 68, 'rot3': 0, 'rot2': 0, 'depth': -0.446, 'yaw': -15.61, 'datetime': '2018-12-12 13:56:59.801286', 'mgs': 0, 'flw2': 0.12, 'flw1': 0.0, 'flw0': 0.13, 'time': 20.74, 'compass': -16.56, 'pitch': 0.06, 'roll': -0.58}
{'lipoC2': 7.48, 'temp': 0.0, 'lipoC3S3': 11.27, 'state': 'normal', 'rot1': 85, 'rot0': 69, 'rot3': 0, 'rot2': 0, 'depth': 0.47, 'yaw': -15.33, 'datetime': '2018-12-12 13:57:00.010881', 'mgs': 0, 'flw2': 0.5, 'flw1': 0.0, 'flw0': 0.63, 'time': 20.95, 'compass': -16.28, 'pitch': -0.93, 'roll': -0.83}
{'lipoC2': 7.39, 'temp': 0.0, 'lipoC3S3': 11.69, 'state': 'normal', 'rot1': 85, 'rot0': 70, 'rot3': 0, 'rot2': 0, 'depth': 0.165, 'yaw': -14.8, 'datetime': '2018-12-12 13:57:00.218472', 'mgs': 0, 'flw2': 0.18, 'flw1': 0.0, 'flw0': 0.13, 'time': 21.16, 'compass': -15.76, 'pitch': -1.26, 'roll': -1.04}
{'lipoC2': 7.59, 'temp': 0.0, 'lipoC3S3': 11.31, 'state': 'normal', 'rot1': 87, 'rot0': 71, 'rot3': 0, 'rot2': 0, 'depth': -0.751, 'yaw': -14.15, 'datetime': '2018-12-12 13:57:00.428046', 'mgs': 0, 'flw2': 0.62, 'flw1': 0.0, 'flw0': 0.46, 'time': 21.37, 'compass': -15.1, 'pitch': -0.65, 'roll': -1.19}
{'lipoC2': 7.49, 'temp': 0.0, 'lipoC3S3': 11.42, 'state': 'normal', 'rot1': 88, 'rot0': 72, 'rot3': 0, 'rot2': 0, 'depth': 0.928, 'yaw': -13.07, 'datetime': '2018-12-12 13:57:00.634425', 'mgs': 0, 'flw2': 0.29, 'flw1': 0.0, 'flw0': 0.1, 'time': 21.57, 'compass': -14.02, 'pitch': -0.75, 'roll': -0.98}
{'lipoC2': 7.47, 'temp': 0.0, 'lipoC3S3': 11.4, 'state': 'normal', 'rot1': 89, 'rot0': 73, 'rot3': 0, 'rot2': 0, 'depth': 0.928, 'yaw': -11.52, 'datetime': '2018-12-12 13:57:00.843107', 'mgs': 0, 'flw2': 0.37, 'flw1': 0.0, 'flw0': 0.55, 'time': 21.78, 'compass': -12.47, 'pitch': -1.35, 'roll': -0.43}
{'lipoC2': 7.39, 'temp': 0.0, 'lipoC3S3': 11.72, 'state': 'normal', 'rot1': 90, 'rot0': 74, 'rot3': 0, 'rot2': 0, 'depth': -0.064, 'yaw': -9.42, 'datetime': '2018-12-12 13:57:01.055200', 'mgs': 0, 'flw2': 0.09, 'flw1': 0.64, 'flw0': 0.17, 'time': 21.99, 'compass': -10.37, 'pitch': -1.61, 'roll': 0.06}
{'lipoC2': 7.38, 'temp': 0.0, 'lipoC3S3': 11.69, 'state': 'normal', 'rot1': 91, 'rot0': 74, 'rot3': 0, 'rot2': 0, 'depth': -0.14, 'yaw': -6.94, 'datetime': '2018-12-12 13:57:01.261724', 'mgs': 0, 'flw2': 0.23, 'flw1': 0.0, 'flw0': 0.32, 'time': 22.2, 'compass': -7.89, 'pitch': -1.38, 'roll': 0.05}
{'lipoC2': 7.43, 'temp': 0.0, 'lipoC3S3': 11.42, 'state': 'normal', 'rot1': 91, 'rot0': 75, 'rot3': 0, 'rot2': 0, 'depth': -0.598, 'yaw': -4.44, 'datetime': '2018-12-12 13:57:01.471335', 'mgs': 0, 'flw2': 0.0, 'flw1': 0.0, 'flw0': 0.12, 'time': 22.41, 'compass': -5.39, 'pitch': -1.52, 'roll': -0.33}
{'lipoC2': 7.39, 'temp': 0.0, 'lipoC3S3': 11.73, 'state': 'normal', 'rot1': 91, 'rot0': 75, 'rot3': 0, 'rot2': 0, 'depth': -0.064, 'yaw': -2.51, 'datetime': '2018-12-12 13:57:01.679510', 'mgs': 0, 'flw2': 0.0, 'flw1': 0.0, 'flw0': 0.0, 'time': 22.62, 'compass': -3.46, 'pitch': -1.97, 'roll': -0.77}
{'lipoC2': 7.58, 'temp': 0.0, 'lipoC3S3': 11.29, 'state': 'normal', 'rot1': 91, 'rot0': 75, 'rot3': 0, 'rot2': 0, 'depth': -0.903, 'yaw': -0.88, 'datetime': '2018-12-12 13:57:01.888382', 'mgs': 0, 'flw2': 0.0, 'flw1': 0.15, 'flw0': 0.0, 'time': 22.83, 'compass': -1.83, 'pitch': -2.24, 'roll': -0.99}
{'lipoC2': 7.38, 'temp': 0.0, 'lipoC3S3': 11.55, 'state': 'normal', 'rot1': 91, 'rot0': 75, 'rot3': 0, 'rot2': 0, 'depth': 0.012, 'yaw': 0.44, 'datetime': '2018-12-12 13:57:02.096851', 'mgs': 0, 'flw2': 0.0, 'flw1': 0.35, 'flw0': 0.0, 'time': 23.03, 'compass': -0.52, 'pitch': -2.14, 'roll': -0.84}
{'lipoC2': 7.47, 'temp': 0.0, 'lipoC3S3': 11.31, 'state': 'normal', 'rot1': 91, 'rot0': 75, 'rot3': 0, 'rot2': 0, 'depth': -0.827, 'yaw': 1.48, 'datetime': '2018-12-12 13:57:02.307550', 'mgs': 0, 'flw2': 0.04, 'flw1': 0.0, 'flw0': 0.24, 'time': 23.24, 'compass': 0.52, 'pitch': -1.93, 'roll': -0.4}
{'lipoC2': 7.36, 'temp': 0.0, 'lipoC3S3': 11.69, 'state': 'normal', 'rot1': 91, 'rot0': 75, 'rot3': 0, 'rot2': 0, 'depth': -0.446, 'yaw': 2.24, 'datetime': '2018-12-12 13:57:02.514388', 'mgs': 0, 'flw2': 0.0, 'flw1': 0.38, 'flw0': 0.0, 'time': 23.45, 'compass': 1.29, 'pitch': -1.74, 'roll': 0.03}
{'lipoC2': 7.36, 'temp': 0.0, 'lipoC3S3': 11.73, 'state': 'normal', 'rot1': 91, 'rot0': 75, 'rot3': 0, 'rot2': 0, 'depth': -0.522, 'yaw': 2.68, 'datetime': '2018-12-12 13:57:02.726434', 'mgs': 0, 'flw2': 0.0, 'flw1': 0.0, 'flw0': 0.0, 'time': 23.66, 'compass': 1.73, 'pitch': -1.66, 'roll': 0.17}
{'lipoC2': 7.59, 'temp': 0.0, 'lipoC3S3': 11.32, 'state': 'normal', 'rot1': 91, 'rot0': 75, 'rot3': 0, 'rot2': 0, 'depth': -0.751, 'yaw': 2.78, 'datetime': '2018-12-12 13:57:02.935581', 'mgs': 0, 'flw2': 0.0, 'flw1': 0.0, 'flw0': 0.0, 'time': 23.87, 'compass': 1.83, 'pitch': -1.6, 'roll': -0.11}
{'lipoC2': 7.4, 'temp': 0.0, 'lipoC3S3': 11.39, 'state': 'normal', 'rot1': 91, 'rot0': 75, 'rot3': 0, 'rot2': 0, 'depth': -0.064, 'yaw': 2.64, 'datetime': '2018-12-12 13:57:03.142649', 'mgs': 0, 'flw2': 0.0, 'flw1': 0.03, 'flw0': 0.0, 'time': 24.08, 'compass': 1.68, 'pitch': -1.86, 'roll': -0.76}
{'lipoC2': 7.56, 'temp': 0.0, 'lipoC3S3': 11.4, 'state': 'normal', 'rot1': 91, 'rot0': 75, 'rot3': 0, 'rot2': 0, 'depth': -1.056, 'yaw': 2.15, 'datetime': '2018-12-12 13:57:03.352286', 'mgs': 0, 'flw2': 0.07, 'flw1': 0.0, 'flw0': 0.27, 'time': 24.29, 'compass': 1.2, 'pitch': -2.32, 'roll': -1.3}
{'lipoC2': 7.4, 'temp': 0.0, 'lipoC3S3': 11.5, 'state': 'normal', 'rot1': 91, 'rot0': 75, 'rot3': 0, 'rot2': 0, 'depth': 0.012, 'yaw': 1.36, 'datetime': '2018-12-12 13:57:03.559883', 'mgs': 0, 'flw2': 0.0, 'flw1': 0.0, 'flw0': 0.06, 'time': 24.5, 'compass': 0.41, 'pitch': -2.19, 'roll': -1.38}
{'lipoC2': 7.46, 'temp': 0.0, 'lipoC3S3': 11.72, 'state': 'normal', 'rot1': 91, 'rot0': 75, 'rot3': 0, 'rot2': 0, 'depth': -0.293, 'yaw': 0.37, 'datetime': '2018-12-12 13:57:03.769587', 'mgs': 0, 'flw2': 0.0, 'flw1': 0.5, 'flw0': 0.0, 'time': 24.7, 'compass': -0.58, 'pitch': -1.41, 'roll': -1.16}
{'lipoC2': 7.57, 'temp': 0.0, 'lipoC3S3': 11.23, 'state': 'normal', 'rot1': 91, 'rot0': 75, 'rot3': 0, 'rot2': 0, 'depth': -1.056, 'yaw': -0.87, 'datetime': '2018-12-12 13:57:03.979691', 'mgs': 0, 'flw2': 0.0, 'flw1': 0.0, 'flw0': 0.24, 'time': 24.91, 'compass': -1.82, 'pitch': -1.02, 'roll': -0.82}
{'lipoC2': 7.36, 'temp': 0.0, 'lipoC3S3': 11.65, 'state': 'normal', 'rot1': 91, 'rot0': 75, 'rot3': 0, 'rot2': 0, 'depth': 2.148, 'yaw': -2.32, 'datetime': '2018-12-12 13:57:04.185606', 'mgs': 0, 'flw2': 0.0, 'flw1': 0.0, 'flw0': 0.0, 'time': 25.12, 'compass': -3.27, 'pitch': -1.79, 'roll': -0.52}
{'lipoC2': 7.38, 'temp': 0.0, 'lipoC3S3': 11.73, 'state': 'normal', 'rot1': 91, 'rot0': 75, 'rot3': 0, 'rot2': 0, 'depth': 2.301, 'yaw': -3.89, 'datetime': '2018-12-12 13:57:04.393203', 'mgs': 0, 'flw2': 0.0, 'flw1': 0.0, 'flw0': 0.0, 'time': 25.33, 'compass': -4.85, 'pitch': -2.78, 'roll': -0.45}
{'lipoC2': 7.5, 'temp': 0.0, 'lipoC3S3': 11.27, 'state': 'normal', 'rot1': 91, 'rot0': 75, 'rot3': 0, 'rot2': 0, 'depth': 0.623, 'yaw': -5.45, 'datetime': '2018-12-12 13:57:04.603851', 'mgs': 0, 'flw2': 0.18, 'flw1': 0.0, 'flw0': 0.28, 'time': 25.54, 'compass': -6.4, 'pitch': -2.8, 'roll': -0.77}
{'lipoC2': 7.43, 'temp': 0.0, 'lipoC3S3': 11.42, 'state': 'normal', 'rot1': 91, 'rot0': 75, 'rot3': 0, 'rot2': 0, 'depth': -0.217, 'yaw': -7.13, 'datetime': '2018-12-12 13:57:04.812916', 'mgs': 0, 'flw2': 0.0, 'flw1': 0.0, 'flw0': 0.0, 'time': 25.75, 'compass': -8.08, 'pitch': -1.8, 'roll': -1.15}
{'lipoC2': 7.5, 'temp': 0.0, 'lipoC3S3': 11.3, 'state': 'normal', 'rot1': 91, 'rot0': 75, 'rot3': 0, 'rot2': 0, 'depth': -1.208, 'yaw': -8.86, 'datetime': '2018-12-12 13:57:05.023826', 'mgs': 0, 'flw2': 0.0, 'flw1': 0.0, 'flw0': 0.13, 'time': 25.95, 'compass': -9.81, 'pitch': -1.16, 'roll': -1.02}
{'lipoC2': 7.38, 'temp': 0.0, 'lipoC3S3': 11.71, 'state': 'normal', 'rot1': 92, 'rot0': 75, 'rot3': 0, 'rot2': 0, 'depth': 2.148, 'yaw': -10.35, 'datetime': '2018-12-12 13:57:05.231101', 'mgs': 0, 'flw2': 0.29, 'flw1': 0.18, 'flw0': 0.28, 'time': 26.16, 'compass': -11.3, 'pitch': -1.54, 'roll': -0.5}
{'lipoC2': 7.61, 'temp': 0.0, 'lipoC3S3': 11.35, 'state': 'normal', 'rot1': 93, 'rot0': 77, 'rot3': 0, 'rot2': 0, 'depth': 2.225, 'yaw': -10.96, 'datetime': '2018-12-12 13:57:05.441122', 'mgs': 0, 'flw2': 0.55, 'flw1': 0.0, 'flw0': 0.35, 'time': 26.37, 'compass': -11.91, 'pitch': -1.98, 'roll': 0.01}
{'lipoC2': 7.39, 'temp': 0.0, 'lipoC3S3': 11.64, 'state': 'normal', 'rot1': 94, 'rot0': 77, 'rot3': 0, 'rot2': 0, 'depth': -0.217, 'yaw': -10.88, 'datetime': '2018-12-12 13:57:05.650097', 'mgs': 0, 'flw2': 0.17, 'flw1': 0.64, 'flw0': 0.21, 'time': 26.58, 'compass': -11.83, 'pitch': -1.59, 'roll': 0.1}
{'lipoC2': 7.53, 'temp': 0.0, 'lipoC3S3': 11.39, 'state': 'normal', 'rot1': 96, 'rot0': 78, 'rot3': 0, 'rot2': 0, 'depth': -1.285, 'yaw': -10.18, 'datetime': '2018-12-12 13:57:05.857589', 'mgs': 0, 'flw2': 0.09, 'flw1': 0.0, 'flw0': 0.17, 'time': 26.79, 'compass': -11.13, 'pitch': -1.05, 'roll': -0.28}
{'lipoC2': 7.37, 'temp': 0.0, 'lipoC3S3': 11.59, 'state': 'normal', 'rot1': 97, 'rot0': 79, 'rot3': 0, 'rot2': 0, 'depth': -0.064, 'yaw': -8.92, 'datetime': '2018-12-12 13:57:06.066876', 'mgs': 0, 'flw2': 0.27, 'flw1': 0.0, 'flw0': 0.42, 'time': 27.0, 'compass': -9.87, 'pitch': -1.1, 'roll': -0.64}
{'lipoC2': 7.48, 'temp': 0.0, 'lipoC3S3': 11.27, 'state': 'normal', 'rot1': 98, 'rot0': 80, 'rot3': 0, 'rot2': 0, 'depth': -0.674, 'yaw': -7.17, 'datetime': '2018-12-12 13:57:06.276565', 'mgs': 0, 'flw2': 0.54, 'flw1': 0.0, 'flw0': 0.62, 'time': 27.21, 'compass': -8.12, 'pitch': -1.51, 'roll': -0.79}
{'lipoC2': 7.53, 'temp': 0.0, 'lipoC3S3': 11.26, 'state': 'normal', 'rot1': 98, 'rot0': 81, 'rot3': 0, 'rot2': 0, 'depth': -1.132, 'yaw': -5.33, 'datetime': '2018-12-12 13:57:06.485421', 'mgs': 0, 'flw2': 0.05, 'flw1': 0.0, 'flw0': 0.26, 'time': 27.42, 'compass': -6.28, 'pitch': -1.59, 'roll': -0.97}
{'lipoC2': 7.37, 'temp': 0.0, 'lipoC3S3': 11.71, 'state': 'normal', 'rot1': 98, 'rot0': 81, 'rot3': 0, 'rot2': 0, 'depth': 2.148, 'yaw': -4.11, 'datetime': '2018-12-12 13:57:06.694333', 'mgs': 0, 'flw2': 0.0, 'flw1': 0.0, 'flw0': 0.0, 'time': 27.63, 'compass': -5.06, 'pitch': -1.61, 'roll': -1.15}
{'lipoC2': 7.36, 'temp': 0.0, 'lipoC3S3': 11.68, 'state': 'normal', 'rot1': 98, 'rot0': 81, 'rot3': 0, 'rot2': 0, 'depth': 2.148, 'yaw': -3.34, 'datetime': '2018-12-12 13:57:06.901637', 'mgs': 0, 'flw2': 0.0, 'flw1': 0.32, 'flw0': 0.0, 'time': 27.83, 'compass': -4.29, 'pitch': -1.62, 'roll': -1.11}
{'lipoC2': 7.49, 'temp': 0.0, 'lipoC3S3': 11.27, 'state': 'normal', 'rot1': 98, 'rot0': 81, 'rot3': 0, 'rot2': 0, 'depth': 0.928, 'yaw': -3.15, 'datetime': '2018-12-12 13:57:07.112903', 'mgs': 0, 'flw2': 0.18, 'flw1': 0.0, 'flw0': 0.29, 'time': 28.04, 'compass': -4.1, 'pitch': -1.56, 'roll': -0.88}
{'lipoC2': 7.36, 'temp': 0.0, 'lipoC3S3': 11.72, 'state': 'normal', 'rot1': 98, 'rot0': 81, 'rot3': 0, 'rot2': 0, 'depth': 1.996, 'yaw': -3.43, 'datetime': '2018-12-12 13:57:07.319296', 'mgs': 0, 'flw2': 0.0, 'flw1': 0.0, 'flw0': 0.0, 'time': 28.25, 'compass': -4.38, 'pitch': -1.29, 'roll': -0.84}
{'lipoC2': 7.39, 'temp': 0.0, 'lipoC3S3': 11.5, 'state': 'normal', 'rot1': 98, 'rot0': 81, 'rot3': 0, 'rot2': 0, 'depth': 0.165, 'yaw': -4.05, 'datetime': '2018-12-12 13:57:07.530678', 'mgs': 0, 'flw2': 0.0, 'flw1': 0.5, 'flw0': 0.0, 'time': 28.46, 'compass': -5.01, 'pitch': -1.42, 'roll': -0.9}
{'lipoC2': 7.41, 'temp': 0.0, 'lipoC3S3': 11.42, 'state': 'normal', 'rot1': 98, 'rot0': 81, 'rot3': 0, 'rot2': 0, 'depth': -0.064, 'yaw': -4.99, 'datetime': '2018-12-12 13:57:07.739533', 'mgs': 0, 'flw2': 0.0, 'flw1': 0.0, 'flw0': 0.11, 'time': 28.67, 'compass': -5.94, 'pitch': -2.01, 'roll': -0.93}
{'lipoC2': 7.37, 'temp': 0.0, 'lipoC3S3': 11.54, 'state': 'normal', 'rot1': 98, 'rot0': 81, 'rot3': 0, 'rot2': 0, 'depth': 1.004, 'yaw': -6.22, 'datetime': '2018-12-12 13:57:07.949652', 'mgs': 0, 'flw2': 0.0, 'flw1': 0.53, 'flw0': 0.0, 'time': 28.88, 'compass': -7.17, 'pitch': -1.96, 'roll': -0.98}
{'lipoC2': 7.36, 'temp': 0.0, 'lipoC3S3': 11.72, 'state': 'normal', 'rot1': 98, 'rot0': 81, 'rot3': 0, 'rot2': 0, 'depth': 2.148, 'yaw': -7.65, 'datetime': '2018-12-12 13:57:08.154925', 'mgs': 0, 'flw2': 0.0, 'flw1': 0.0, 'flw0': 0.0, 'time': 29.08, 'compass': -8.6, 'pitch': -1.21, 'roll': -1.02}
{'lipoC2': 7.47, 'temp': 0.0, 'lipoC3S3': 11.29, 'state': 'normal', 'rot1': 99, 'rot0': 81, 'rot3': 0, 'rot2': 0, 'depth': 0.623, 'yaw': -8.8, 'datetime': '2018-12-12 13:57:08.362905', 'mgs': 0, 'flw2': 0.37, 'flw1': 0.0, 'flw0': 0.57, 'time': 29.29, 'compass': -9.75, 'pitch': -0.97, 'roll': -1.08}
{'lipoC2': 7.4, 'temp': 0.0, 'lipoC3S3': 11.25, 'state': 'normal', 'rot1': 100, 'rot0': 82, 'rot3': 0, 'rot2': 0, 'depth': 0.165, 'yaw': -9.19, 'datetime': '2018-12-12 13:57:08.573558', 'mgs': 0, 'flw2': 0.48, 'flw1': 0.0, 'flw0': 0.61, 'time': 29.5, 'compass': -10.14, 'pitch': -1.61, 'roll': -0.99}
{'lipoC2': 7.37, 'temp': 0.0, 'lipoC3S3': 11.68, 'state': 'normal', 'rot1': 101, 'rot0': 83, 'rot3': 0, 'rot2': 0, 'depth': 2.148, 'yaw': -8.96, 'datetime': '2018-12-12 13:57:08.784002', 'mgs': 0, 'flw2': 0.21, 'flw1': 0.0, 'flw0': 0.31, 'time': 29.71, 'compass': -9.91, 'pitch': -1.91, 'roll': -0.59}
{'lipoC2': 7.61, 'temp': 0.0, 'lipoC3S3': 11.34, 'state': 'normal', 'rot1': 102, 'rot0': 84, 'rot3': 0, 'rot2': 0, 'depth': -0.522, 'yaw': -8.12, 'datetime': '2018-12-12 13:57:08.995017', 'mgs': 0, 'flw2': 0.6, 'flw1': 0.0, 'flw0': 0.51, 'time': 29.92, 'compass': -9.07, 'pitch': -1.36, 'roll': -0.17}
{'lipoC2': 7.37, 'temp': 0.0, 'lipoC3S3': 11.59, 'state': 'normal', 'rot1': 103, 'rot0': 85, 'rot3': 0, 'rot2': 0, 'depth': 1.767, 'yaw': -6.85, 'datetime': '2018-12-12 13:57:09.201577', 'mgs': 0, 'flw2': 0.44, 'flw1': 0.0, 'flw0': 0.4, 'time': 30.13, 'compass': -7.8, 'pitch': -0.99, 'roll': -0.06}
{'lipoC2': 7.56, 'temp': 0.0, 'lipoC3S3': 11.25, 'state': 'normal', 'rot1': 104, 'rot0': 86, 'rot3': 0, 'rot2': 0, 'depth': -1.132, 'yaw': -5.55, 'datetime': '2018-12-12 13:57:09.409689', 'mgs': 0, 'flw2': 0.2, 'flw1': 0.0, 'flw0': 0.28, 'time': 30.34, 'compass': -6.5, 'pitch': -1.08, 'roll': -0.45}
{'lipoC2': 7.39, 'temp': 0.0, 'lipoC3S3': 11.71, 'state': 'normal', 'rot1': 104, 'rot0': 86, 'rot3': 0, 'rot2': 0, 'depth': -0.064, 'yaw': -4.81, 'datetime': '2018-12-12 13:57:09.619003', 'mgs': 0, 'flw2': 0.0, 'flw1': 0.0, 'flw0': 0.0, 'time': 30.55, 'compass': -5.76, 'pitch': -1.12, 'roll': -1.31}
{'lipoC2': 7.4, 'temp': 0.0, 'lipoC3S3': 11.67, 'state': 'normal', 'rot1': 104, 'rot0': 86, 'rot3': 0, 'rot2': 0, 'depth': 0.089, 'yaw': -4.64, 'datetime': '2018-12-12 13:57:09.828977', 'mgs': 0, 'flw2': 0.0, 'flw1': 0.26, 'flw0': 0.0, 'time': 30.75, 'compass': -5.6, 'pitch': -0.98, 'roll': -1.95}
{'lipoC2': 7.37, 'temp': 0.0, 'lipoC3S3': 11.72, 'state': 'normal', 'rot1': 104, 'rot0': 86, 'rot3': 0, 'rot2': 0, 'depth': 2.225, 'yaw': -4.77, 'datetime': '2018-12-12 13:57:10.040367', 'mgs': 0, 'flw2': 0.0, 'flw1': 0.29, 'flw0': 0.0, 'time': 30.96, 'compass': -5.72, 'pitch': -1.14, 'roll': -1.78}
{'lipoC2': 7.39, 'temp': 0.0, 'lipoC3S3': 11.72, 'state': 'normal', 'rot1': 104, 'rot0': 86, 'rot3': 0, 'rot2': 0, 'depth': -0.217, 'yaw': -5.13, 'datetime': '2018-12-12 13:57:10.252855', 'mgs': 0, 'flw2': 0.0, 'flw1': 0.0, 'flw0': 0.0, 'time': 31.17, 'compass': -6.08, 'pitch': -1.28, 'roll': -0.86}
{'lipoC2': 7.39, 'temp': 0.0, 'lipoC3S3': 11.72, 'state': 'normal', 'rot1': 104, 'rot0': 86, 'rot3': 0, 'rot2': 0, 'depth': 2.072, 'yaw': -5.64, 'datetime': '2018-12-12 13:57:10.460069', 'mgs': 0, 'flw2': 0.0, 'flw1': 0.0, 'flw0': 0.0, 'time': 31.38, 'compass': -6.59, 'pitch': -1.52, 'roll': -0.04}
{'lipoC2': 7.39, 'temp': 0.0, 'lipoC3S3': 11.39, 'state': 'normal', 'rot1': 104, 'rot0': 86, 'rot3': 0, 'rot2': 0, 'depth': -0.217, 'yaw': -6.26, 'datetime': '2018-12-12 13:57:10.667246', 'mgs': 0, 'flw2': 0.0, 'flw1': 0.09, 'flw0': 0.0, 'time': 31.59, 'compass': -7.21, 'pitch': -2.06, 'roll': 0.1}
{'lipoC2': 7.44, 'temp': 0.0, 'lipoC3S3': 11.36, 'state': 'normal', 'rot1': 104, 'rot0': 86, 'rot3': 0, 'rot2': 0, 'depth': -0.827, 'yaw': -6.98, 'datetime': '2018-12-12 13:57:10.876512', 'mgs': 0, 'flw2': 0.0, 'flw1': 0.0, 'flw0': 0.12, 'time': 31.8, 'compass': -7.93, 'pitch': -2.29, 'roll': -0.28}
{'lipoC2': 7.35, 'temp': 0.0, 'lipoC3S3': 11.39, 'state': 'normal', 'rot1': 104, 'rot0': 86, 'rot3': 0, 'rot2': 0, 'depth': -0.522, 'yaw': -7.78, 'datetime': '2018-12-12 13:57:11.086239', 'mgs': 0, 'flw2': 0.0, 'flw1': 0.23, 'flw0': 0.0, 'time': 32.01, 'compass': -8.73, 'pitch': -1.63, 'roll': -0.99}
{'lipoC2': 7.39, 'temp': 0.0, 'lipoC3S3': 11.6, 'state': 'normal', 'rot1': 104, 'rot0': 86, 'rot3': 0, 'rot2': 0, 'depth': 0.699, 'yaw': -8.37, 'datetime': '2018-12-12 13:57:11.292739', 'mgs': 0, 'flw2': 0.15, 'flw1': 0.56, 'flw0': 0.24, 'time': 32.22, 'compass': -9.32, 'pitch': -0.85, 'roll': -1.35}
{'lipoC2': 7.38, 'temp': 0.0, 'lipoC3S3': 11.72, 'state': 'normal', 'rot1': 106, 'rot0': 87, 'rot3': 0, 'rot2': 0, 'depth': -0.14, 'yaw': -8.05, 'datetime': '2018-12-12 13:57:11.503112', 'mgs': 0, 'flw2': 0.11, 'flw1': 0.0, 'flw0': 0.16, 'time': 32.42, 'compass': -9.0, 'pitch': -1.25, 'roll': -1.09}
{'lipoC2': 7.4, 'temp': 0.0, 'lipoC3S3': 11.61, 'state': 'normal', 'rot1': 107, 'rot0': 88, 'rot3': 0, 'rot2': 0, 'depth': 1.08, 'yaw': -6.98, 'datetime': '2018-12-12 13:57:11.717596', 'mgs': 0, 'flw2': 0.13, 'flw1': 0.59, 'flw0': 0.21, 'time': 32.63, 'compass': -7.93, 'pitch': -2.49, 'roll': -0.58}
{'lipoC2': 7.4, 'temp': 0.0, 'lipoC3S3': 11.68, 'state': 'normal', 'rot1': 107, 'rot0': 88, 'rot3': 0, 'rot2': 0, 'depth': 0.165, 'yaw': -5.57, 'datetime': '2018-12-12 13:57:11.926068', 'mgs': 0, 'flw2': 0.0, 'flw1': 0.12, 'flw0': 0.0, 'time': 32.84, 'compass': -6.52, 'pitch': -2.73, 'roll': -0.28}
{'lipoC2': 7.38, 'temp': 0.0, 'lipoC3S3': 11.73, 'state': 'normal', 'rot1': 107, 'rot0': 88, 'rot3': 0, 'rot2': 0, 'depth': 2.377, 'yaw': -4.49, 'datetime': '2018-12-12 13:57:12.134240', 'mgs': 0, 'flw2': 0.0, 'flw1': 0.0, 'flw0': 0.0, 'time': 33.05, 'compass': -5.44, 'pitch': -1.14, 'roll': -0.37}
{'lipoC2': 7.4, 'temp': 0.0, 'lipoC3S3': 11.46, 'state': 'normal', 'rot1': 107, 'rot0': 88, 'rot3': 0, 'rot2': 0, 'depth': 0.089, 'yaw': -3.67, 'datetime': '2018-12-12 13:57:12.343405', 'mgs': 0, 'flw2': 0.0, 'flw1': 0.0, 'flw0': 0.15, 'time': 33.26, 'compass': -4.62, 'pitch': 0.08, 'roll': -0.72}
{'lipoC2': 7.42, 'temp': 0.0, 'lipoC3S3': 11.39, 'state': 'normal', 'rot1': 107, 'rot0': 88, 'rot3': 0, 'rot2': 0, 'depth': 0.394, 'yaw': -3.04, 'datetime': '2018-12-12 13:57:12.551267', 'mgs': 0, 'flw2': 0.0, 'flw1': 0.0, 'flw0': 0.0, 'time': 33.47, 'compass': -3.99, 'pitch': -0.86, 'roll': -0.99}
{'lipoC2': 7.4, 'temp': 0.0, 'lipoC3S3': 11.65, 'state': 'normal', 'rot1': 107, 'rot0': 88, 'rot3': 0, 'rot2': 0, 'depth': 1.309, 'yaw': -2.61, 'datetime': '2018-12-12 13:57:12.760169', 'mgs': 0, 'flw2': 0.0, 'flw1': 0.0, 'flw0': 0.0, 'time': 33.68, 'compass': -3.56, 'pitch': -2.65, 'roll': -0.91}
{'lipoC2': 7.4, 'temp': 0.0, 'lipoC3S3': 11.47, 'state': 'normal', 'rot1': 107, 'rot0': 88, 'rot3': 0, 'rot2': 0, 'depth': 0.012, 'yaw': -2.46, 'datetime': '2018-12-12 13:57:12.968922', 'mgs': 0, 'flw2': 0.0, 'flw1': 0.0, 'flw0': 0.07, 'time': 33.89, 'compass': -3.41, 'pitch': -2.54, 'roll': -0.71}
{'lipoC2': 7.36, 'temp': 0.0, 'lipoC3S3': 11.69, 'state': 'normal', 'rot1': 107, 'rot0': 88, 'rot3': 0, 'rot2': 0, 'depth': 2.072, 'yaw': -2.46, 'datetime': '2018-12-12 13:57:13.178526', 'mgs': 0, 'flw2': 0.0, 'flw1': 0.0, 'flw0': 0.0, 'time': 34.1, 'compass': -3.42, 'pitch': -0.94, 'roll': -0.7}
{'lipoC2': 7.4, 'temp': 0.0, 'lipoC3S3': 11.71, 'state': 'normal', 'rot1': 107, 'rot0': 88, 'rot3': 0, 'rot2': 0, 'depth': 1.767, 'yaw': -2.57, 'datetime': '2018-12-12 13:57:13.387943', 'mgs': 0, 'flw2': 0.0, 'flw1': 0.0, 'flw0': 0.0, 'time': 34.3, 'compass': -3.52, 'pitch': -0.27, 'roll': -0.54}
{'lipoC2': 7.36, 'temp': 0.0, 'lipoC3S3': 11.69, 'state': 'normal', 'rot1': 107, 'rot0': 88, 'rot3': 0, 'rot2': 0, 'depth': 2.072, 'yaw': -2.74, 'datetime': '2018-12-12 13:57:13.595962', 'mgs': 0, 'flw2': 0.02, 'flw1': 0.0, 'flw0': 0.0, 'time': 34.51, 'compass': -3.7, 'pitch': -1.35, 'roll': -0.46}
{'lipoC2': 7.44, 'temp': 0.0, 'lipoC3S3': 11.39, 'state': 'normal', 'rot1': 107, 'rot0': 88, 'rot3': 0, 'rot2': 0, 'depth': 0.47, 'yaw': -3.01, 'datetime': '2018-12-12 13:57:13.807098', 'mgs': 0, 'flw2': 0.0, 'flw1': 0.0, 'flw0': 0.06, 'time': 34.72, 'compass': -3.96, 'pitch': -2.77, 'roll': -0.62}
{'lipoC2': 7.36, 'temp': 0.0, 'lipoC3S3': 11.71, 'state': 'normal', 'rot1': 107, 'rot0': 88, 'rot3': 0, 'rot2': 0, 'depth': 1.92, 'yaw': -3.31, 'datetime': '2018-12-12 13:57:14.012971', 'mgs': 0, 'flw2': 0.0, 'flw1': 0.0, 'flw0': 0.0, 'time': 34.93, 'compass': -4.26, 'pitch': -2.71, 'roll': -0.85}
{'lipoC2': 7.37, 'temp': 0.0, 'lipoC3S3': 11.35, 'state': 'normal', 'rot1': 107, 'rot0': 88, 'rot3': 0, 'rot2': 0, 'depth': 2.301, 'yaw': -3.61, 'datetime': '2018-12-12 13:57:14.222201', 'mgs': 0, 'flw2': 0.23, 'flw1': 0.0, 'flw0': 0.22, 'time': 35.14, 'compass': -4.56, 'pitch': -1.57, 'roll': -0.94}
{'lipoC2': 7.4, 'temp': 0.0, 'lipoC3S3': 11.39, 'state': 'normal', 'rot1': 107, 'rot0': 88, 'rot3': 0, 'rot2': 0, 'depth': -0.522, 'yaw': -3.9, 'datetime': '2018-12-12 13:57:14.432754', 'mgs': 0, 'flw2': 0.0, 'flw1': 0.0, 'flw0': 0.0, 'time': 35.35, 'compass': -4.85, 'pitch': -1.22, 'roll': -0.81}
{'lipoC2': 7.39, 'temp': 0.0, 'lipoC3S3': 11.59, 'state': 'normal', 'rot1': 107, 'rot0': 88, 'rot3': 0, 'rot2': 0, 'depth': 0.012, 'yaw': -4.22, 'datetime': '2018-12-12 13:57:14.641820', 'mgs': 0, 'flw2': 0.0, 'flw1': 0.29, 'flw0': 0.0, 'time': 35.56, 'compass': -5.17, 'pitch': -1.86, 'roll': -0.59}
{'lipoC2': 7.39, 'temp': 0.0, 'lipoC3S3': 11.51, 'state': 'normal', 'rot1': 107, 'rot0': 88, 'rot3': 0, 'rot2': 0, 'depth': -0.369, 'yaw': -4.5, 'datetime': '2018-12-12 13:57:14.851103', 'mgs': 0, 'flw2': 0.0, 'flw1': 0.0, 'flw0': 0.07, 'time': 35.76, 'compass': -5.45, 'pitch': -2.42, 'roll': -0.57}
{'lipoC2': 7.48, 'temp': 0.0, 'lipoC3S3': 11.31, 'state': 'normal', 'rot1': 107, 'rot0': 88, 'rot3': 0, 'rot2': 0, 'depth': -0.827, 'yaw': -4.7, 'datetime': '2018-12-12 13:57:15.060107', 'mgs': 0, 'flw2': 0.09, 'flw1': 0.0, 'flw0': 0.24, 'time': 35.97, 'compass': -5.65, 'pitch': -2.23, 'roll': -0.75}
{'lipoC2': 7.39, 'temp': 0.0, 'lipoC3S3': 11.39, 'state': 'normal', 'rot1': 107, 'rot0': 88, 'rot3': 0, 'rot2': 0, 'depth': -0.064, 'yaw': -4.89, 'datetime': '2018-12-12 13:57:15.268421', 'mgs': 0, 'flw2': 0.16, 'flw1': 0.0, 'flw0': 0.0, 'time': 36.18, 'compass': -5.84, 'pitch': -1.56, 'roll': -0.89}
{'lipoC2': 7.42, 'temp': 0.0, 'lipoC3S3': 11.4, 'state': 'normal', 'rot1': 107, 'rot0': 88, 'rot3': 0, 'rot2': 0, 'depth': 0.012, 'yaw': -5.1, 'datetime': '2018-12-12 13:57:15.477597', 'mgs': 0, 'flw2': 0.0, 'flw1': 0.0, 'flw0': 0.11, 'time': 36.39, 'compass': -6.05, 'pitch': -1.33, 'roll': -0.76}
{'lipoC2': 7.46, 'temp': 0.0, 'lipoC3S3': 11.31, 'state': 'normal', 'rot1': 107, 'rot0': 88, 'rot3': 0, 'rot2': 0, 'depth': -0.827, 'yaw': -5.15, 'datetime': '2018-12-12 13:57:15.688680', 'mgs': 0, 'flw2': 0.0, 'flw1': 0.0, 'flw0': 0.18, 'time': 36.6, 'compass': -6.1, 'pitch': -1.68, 'roll': -0.64}
{'lipoC2': 7.4, 'temp': 0.0, 'lipoC3S3': 11.67, 'state': 'normal', 'rot1': 107, 'rot0': 88, 'rot3': 0, 'rot2': 0, 'depth': 0.089, 'yaw': -5.15, 'datetime': '2018-12-12 13:57:15.897598', 'mgs': 0, 'flw2': 0.07, 'flw1': 0.0, 'flw0': 0.0, 'time': 36.81, 'compass': -6.1, 'pitch': -2.07, 'roll': -0.64}
{'lipoC2': 7.39, 'temp': 0.0, 'lipoC3S3': 11.39, 'state': 'normal', 'rot1': 107, 'rot0': 88, 'rot3': 0, 'rot2': 0, 'depth': -0.217, 'yaw': -5.15, 'datetime': '2018-12-12 13:57:16.108061', 'mgs': 0, 'flw2': 0.0, 'flw1': 0.32, 'flw0': 0.0, 'time': 37.02, 'compass': -6.11, 'pitch': -2.26, 'roll': -0.57}
{'lipoC2': 7.61, 'temp': 0.0, 'lipoC3S3': 11.35, 'state': 'normal', 'rot1': 107, 'rot0': 88, 'rot3': 0, 'rot2': 0, 'depth': -0.751, 'yaw': -5.15, 'datetime': '2018-12-12 13:57:16.317130', 'mgs': 0, 'flw2': 0.22, 'flw1': 0.0, 'flw0': 0.01, 'time': 37.23, 'compass': -6.11, 'pitch': -2.2, 'roll': -0.57}
{'lipoC2': 7.39, 'temp': 0.0, 'lipoC3S3': 11.48, 'state': 'normal', 'rot1': 107, 'rot0': 88, 'rot3': 0, 'rot2': 0, 'depth': 0.546, 'yaw': -5.09, 'datetime': '2018-12-12 13:57:16.520763', 'mgs': 0, 'flw2': 0.0, 'flw1': 0.62, 'flw0': 0.0, 'time': 37.44, 'compass': -6.04, 'pitch': -1.88, 'roll': -0.56}
{'lipoC2': 7.4, 'temp': 0.0, 'lipoC3S3': 11.67, 'state': 'normal', 'rot1': 107, 'rot0': 88, 'rot3': 0, 'rot2': 0, 'depth': 0.089, 'yaw': -4.48, 'datetime': '2018-12-12 13:57:16.732433', 'mgs': 0, 'flw2': 0.0, 'flw1': 0.23, 'flw0': 0.0, 'time': 37.65, 'compass': -5.44, 'pitch': -1.7, 'roll': -0.57}
{'lipoC2': 7.37, 'temp': 0.0, 'lipoC3S3': 11.73, 'state': 'normal', 'rot1': 107, 'rot0': 88, 'rot3': 0, 'rot2': 0, 'depth': 2.377, 'yaw': -3.07, 'datetime': '2018-12-12 13:57:16.941366', 'mgs': 0, 'flw2': 0.0, 'flw1': 0.12, 'flw0': 0.0, 'time': 37.86, 'compass': -4.02, 'pitch': -1.99, 'roll': -0.75}
{'lipoC2': 7.32, 'temp': 0.0, 'lipoC3S3': 11.39, 'state': 'normal', 'rot1': 107, 'rot0': 88, 'rot3': 0, 'rot2': 0, 'depth': -0.522, 'yaw': -2.1, 'datetime': '2018-12-12 13:57:17.150794', 'mgs': 0, 'flw2': 0.0, 'flw1': 0.53, 'flw0': 0.0, 'time': 38.06, 'compass': -3.05, 'pitch': -2.41, 'roll': -0.98}
{'lipoC2': 7.58, 'temp': 0.0, 'lipoC3S3': 11.31, 'state': 'normal', 'rot1': 107, 'rot0': 88, 'rot3': 0, 'rot2': 0, 'depth': 1.843, 'yaw': -1.08, 'datetime': '2018-12-12 13:57:17.360735', 'mgs': 0, 'flw2': 0.27, 'flw1': 0.0, 'flw0': 0.09, 'time': 38.27, 'compass': -2.04, 'pitch': -2.28, 'roll': -1.08}
{'lipoC2': 7.39, 'temp': 0.0, 'lipoC3S3': 11.38, 'state': 'normal', 'rot1': 107, 'rot0': 88, 'rot3': 0, 'rot2': 0, 'depth': 0.241, 'yaw': -0.38, 'datetime': '2018-12-12 13:57:17.570182', 'mgs': 0, 'flw2': 0.18, 'flw1': 0.0, 'flw0': 0.27, 'time': 38.48, 'compass': -1.33, 'pitch': -1.53, 'roll': -1.06}
{'lipoC2': 7.38, 'temp': 0.0, 'lipoC3S3': 11.73, 'state': 'normal', 'rot1': 107, 'rot0': 88, 'rot3': 0, 'rot2': 0, 'depth': 2.148, 'yaw': -0.0, 'datetime': '2018-12-12 13:57:17.779125', 'mgs': 0, 'flw2': 0.0, 'flw1': 0.0, 'flw0': 0.0, 'time': 38.69, 'compass': -0.96, 'pitch': -1.18, 'roll': -0.88}
{'lipoC2': 7.53, 'temp': 0.0, 'lipoC3S3': 11.25, 'state': 'normal', 'rot1': 107, 'rot0': 88, 'rot3': 0, 'rot2': 0, 'depth': 1.309, 'yaw': 0.82, 'datetime': '2018-12-12 13:57:17.988832', 'mgs': 0, 'flw2': 0.0, 'flw1': 0.0, 'flw0': 0.28, 'time': 38.9, 'compass': -0.14, 'pitch': -1.96, 'roll': -0.62}
{'lipoC2': 7.59, 'temp': 0.0, 'lipoC3S3': 11.32, 'state': 'normal', 'rot1': 107, 'rot0': 88, 'rot3': 0, 'rot2': 0, 'depth': -0.903, 'yaw': 1.68, 'datetime': '2018-12-12 13:57:18.201117', 'mgs': 0, 'flw2': 0.05, 'flw1': 0.0, 'flw0': 0.0, 'time': 39.11, 'compass': 0.73, 'pitch': -3.04, 'roll': -0.3}
{'lipoC2': 7.38, 'temp': 0.0, 'lipoC3S3': 11.73, 'state': 'normal', 'rot1': 107, 'rot0': 88, 'rot3': 0, 'rot2': 0, 'depth': 2.072, 'yaw': 2.56, 'datetime': '2018-12-12 13:57:18.407581', 'mgs': 0, 'flw2': 0.06, 'flw1': 0.0, 'flw0': 0.0, 'time': 39.32, 'compass': 1.61, 'pitch': -2.97, 'roll': -0.15}
{'lipoC2': 7.47, 'temp': 0.0, 'lipoC3S3': 11.29, 'state': 'normal', 'rot1': 107, 'rot0': 88, 'rot3': 0, 'rot2': 0, 'depth': 0.394, 'yaw': 3.31, 'datetime': '2018-12-12 13:57:18.615119', 'mgs': 0, 'flw2': 0.0, 'flw1': 0.0, 'flw0': 0.0, 'time': 39.53, 'compass': 2.36, 'pitch': -1.94, 'roll': -0.22}
{'lipoC2': 7.37, 'temp': 0.0, 'lipoC3S3': 11.52, 'state': 'normal', 'rot1': 107, 'rot0': 88, 'rot3': 0, 'rot2': 0, 'depth': 0.775, 'yaw': 4.16, 'datetime': '2018-12-12 13:57:18.825147', 'mgs': 0, 'flw2': 0.27, 'flw1': 0.0, 'flw0': 0.2, 'time': 39.73, 'compass': 3.2, 'pitch': -1.64, 'roll': -0.46}
{'lipoC2': 7.3, 'temp': 0.0, 'lipoC3S3': 11.64, 'state': 'normal', 'rot1': 107, 'rot0': 88, 'rot3': 0, 'rot2': 0, 'depth': -0.522, 'yaw': 4.78, 'datetime': '2018-12-12 13:57:19.033280', 'mgs': 0, 'flw2': 0.11, 'flw1': 0.0, 'flw0': 0.0, 'time': 39.94, 'compass': 3.82, 'pitch': -2.37, 'roll': -0.87}
{'lipoC2': 7.4, 'temp': 0.0, 'lipoC3S3': 11.72, 'state': 'normal', 'rot1': 107, 'rot0': 88, 'rot3': 0, 'rot2': 0, 'depth': 0.012, 'yaw': 5.4, 'datetime': '2018-12-12 13:57:19.241436', 'mgs': 0, 'flw2': 0.0, 'flw1': 0.0, 'flw0': 0.0, 'time': 40.15, 'compass': 4.45, 'pitch': -2.99, 'roll': -1.19}
{'lipoC2': 7.43, 'temp': 0.0, 'lipoC3S3': 11.39, 'state': 'normal', 'rot1': 107, 'rot0': 88, 'rot3': 0, 'rot2': 0, 'depth': 0.47, 'yaw': 6.04, 'datetime': '2018-12-12 13:57:19.451003', 'mgs': 0, 'flw2': 0.0, 'flw1': 0.18, 'flw0': 0.0, 'time': 40.36, 'compass': 5.09, 'pitch': -2.53, 'roll': -1.07}
{'lipoC2': 7.53, 'temp': 0.0, 'lipoC3S3': 11.27, 'state': 'normal', 'rot1': 108, 'rot0': 89, 'rot3': 0, 'rot2': 0, 'depth': -1.132, 'yaw': 6.45, 'datetime': '2018-12-12 13:57:19.659162', 'mgs': 0, 'flw2': 0.62, 'flw1': 0.0, 'flw0': 0.59, 'time': 40.57, 'compass': 5.5, 'pitch': -1.51, 'roll': -0.72}
{'lipoC2': 7.4, 'temp': 0.0, 'lipoC3S3': 11.36, 'state': 'normal', 'rot1': 109, 'rot0': 90, 'rot3': 0, 'rot2': 0, 'depth': 0.394, 'yaw': 6.06, 'datetime': '2018-12-12 13:57:19.869795', 'mgs': 0, 'flw2': 0.11, 'flw1': 0.0, 'flw0': 0.24, 'time': 40.78, 'compass': 5.11, 'pitch': -1.07, 'roll': -0.57}
{'lipoC2': 7.34, 'temp': 0.0, 'lipoC3S3': 11.38, 'state': 'normal', 'rot1': 110, 'rot0': 91, 'rot3': 0, 'rot2': 0, 'depth': -0.522, 'yaw': 4.87, 'datetime': '2018-12-12 13:57:20.081259', 'mgs': 0, 'flw2': 0.0, 'flw1': 0.32, 'flw0': 0.0, 'time': 40.99, 'compass': 3.92, 'pitch': -1.57, 'roll': -0.6}
{'lipoC2': 7.58, 'temp': 0.0, 'lipoC3S3': 11.27, 'state': 'normal', 'rot1': 110, 'rot0': 91, 'rot3': 0, 'rot2': 0, 'depth': 1.843, 'yaw': 3.69, 'datetime': '2018-12-12 13:57:20.286947', 'mgs': 0, 'flw2': 0.24, 'flw1': 0.0, 'flw0': 0.23, 'time': 41.19, 'compass': 2.73, 'pitch': -2.47, 'roll': -0.62}
{'lipoC2': 7.36, 'temp': 0.0, 'lipoC3S3': 11.71, 'state': 'normal', 'rot1': 110, 'rot0': 91, 'rot3': 0, 'rot2': 0, 'depth': -0.369, 'yaw': 2.69, 'datetime': '2018-12-12 13:57:20.494560', 'mgs': 0, 'flw2': 0.1, 'flw1': 0.0, 'flw0': 0.0, 'time': 41.4, 'compass': 1.74, 'pitch': -2.87, 'roll': -0.66}
{'lipoC2': 7.32, 'temp': 0.0, 'lipoC3S3': 11.39, 'state': 'normal', 'rot1': 110, 'rot0': 91, 'rot3': 0, 'rot2': 0, 'depth': -0.446, 'yaw': 1.87, 'datetime': '2018-12-12 13:57:20.707131', 'mgs': 0, 'flw2': 0.0, 'flw1': 0.5, 'flw0': 0.0, 'time': 41.61, 'compass': 0.92, 'pitch': -2.34, 'roll': -0.65}
{'lipoC2': 7.36, 'temp': 0.0, 'lipoC3S3': 11.71, 'state': 'normal', 'rot1': 110, 'rot0': 91, 'rot3': 0, 'rot2': 0, 'depth': 1.996, 'yaw': 1.21, 'datetime': '2018-12-12 13:57:20.917212', 'mgs': 0, 'flw2': 0.0, 'flw1': 0.0, 'flw0': 0.0, 'time': 41.82, 'compass': 0.26, 'pitch': -1.58, 'roll': -0.48}
{'lipoC2': 7.38, 'temp': 0.0, 'lipoC3S3': 11.48, 'state': 'normal', 'rot1': 110, 'rot0': 91, 'rot3': 0, 'rot2': 0, 'depth': 0.775, 'yaw': 0.62, 'datetime': '2018-12-12 13:57:21.123067', 'mgs': 0, 'flw2': 0.0, 'flw1': 0.0, 'flw0': 0.09, 'time': 42.03, 'compass': -0.33, 'pitch': -1.61, 'roll': -0.51}
{'lipoC2': 7.38, 'temp': 0.0, 'lipoC3S3': 11.73, 'state': 'normal', 'rot1': 110, 'rot0': 91, 'rot3': 0, 'rot2': 0, 'depth': -0.14, 'yaw': 0.18, 'datetime': '2018-12-12 13:57:21.333028', 'mgs': 0, 'flw2': 0.02, 'flw1': 0.0, 'flw0': 0.0, 'time': 42.24, 'compass': -0.77, 'pitch': -2.35, 'roll': -0.85}
{'lipoC2': 7.51, 'temp': 0.0, 'lipoC3S3': 11.43, 'state': 'normal', 'rot1': 110, 'rot0': 91, 'rot3': 0, 'rot2': 0, 'depth': 0.623, 'yaw': -0.16, 'datetime': '2018-12-12 13:57:21.539982', 'mgs': 0, 'flw2': 0.0, 'flw1': 0.0, 'flw0': 0.0, 'time': 42.45, 'compass': -1.11, 'pitch': -2.79, 'roll': -1.28}
{'lipoC2': 7.53, 'temp': 0.0, 'lipoC3S3': 11.25, 'state': 'normal', 'rot1': 110, 'rot0': 91, 'rot3': 0, 'rot2': 0, 'depth': -1.208, 'yaw': -0.34, 'datetime': '2018-12-12 13:57:21.750862', 'mgs': 0, 'flw2': 0.18, 'flw1': 0.0, 'flw0': 0.29, 'time': 42.66, 'compass': -1.3, 'pitch': -2.55, 'roll': -1.5}
{'lipoC2': 7.36, 'temp': 0.0, 'lipoC3S3': 11.65, 'state': 'normal', 'rot1': 110, 'rot0': 91, 'rot3': 0, 'rot2': 0, 'depth': 1.767, 'yaw': -0.4, 'datetime': '2018-12-12 13:57:21.960582', 'mgs': 0, 'flw2': 0.07, 'flw1': 0.0, 'flw0': 0.0, 'time': 42.87, 'compass': -1.35, 'pitch': -2.0, 'roll': -1.41}
