{'lipoC2': 0.0, 'temp': 0.0, 'lipoC3S3': 12.0, 'state': 'normal', 'rot1': 0, 'rot0': 0, 'rot3': 0, 'rot2': 0, 'depth': 1.004, 'yaw': 0.0, 'datetime': '2018-12-18 20:55:02.536855', 'mgs': 0, 'flw2': 0.12, 'flw1': 0.0, 'flw0': 0.0, 'time': 1.25, 'compass': 8.52, 'pitch': 1.35, 'roll': 0.77}
{'lipoC2': 0.0, 'temp': 0.0, 'lipoC3S3': 11.72, 'state': 'normal', 'rot1': 0, 'rot0': 0, 'rot3': 0, 'rot2': 0, 'depth': -1.437, 'yaw': -0.1, 'datetime': '2018-12-18 20:55:02.745889', 'mgs': 0, 'flw2': 0.0, 'flw1': 0.47, 'flw0': 0.0, 'time': 1.46, 'compass': 8.42, 'pitch': 1.57, 'roll': 0.77}
{'lipoC2': 0.0, 'temp': 0.0, 'lipoC3S3': 11.92, 'state': 'normal', 'rot1': 0, 'rot0': 0, 'rot3': 0, 'rot2': 0, 'depth': -0.751, 'yaw': -0.22, 'datetime': '2018-12-18 20:55:02.956112', 'mgs': 0, 'flw2': 0.16, 'flw1': 0.0, 'flw0': 0.0, 'time': 1.67, 'compass': 8.3, 'pitch': 1.28, 'roll': 0.78}
{'lipoC2': 0.0, 'temp': 0.0, 'lipoC3S3': 12.06, 'state': 'normal', 'rot1': 0, 'rot0': 0, 'rot3': 0, 'rot2': 0, 'depth': 1.385, 'yaw': -0.38, 'datetime': '2018-12-18 20:55:03.164035', 'mgs': 0, 'flw2': 0.01, 'flw1': 0.0, 'flw0': 0.16, 'time': 1.88, 'compass': 8.14, 'pitch': 0.99, 'roll': 0.78}
{'lipoC2': 0.0, 'temp': 0.0, 'lipoC3S3': 11.69, 'state': 'normal', 'rot1': 0, 'rot0': 0, 'rot3': 0, 'rot2': 0, 'depth': -1.514, 'yaw': -0.54, 'datetime': '2018-12-18 20:55:03.369134', 'mgs': 0, 'flw2': 0.0, 'flw1': 0.47, 'flw0': 0.0, 'time': 2.08, 'compass': 7.98, 'pitch': 1.27, 'roll': 0.78}
{'lipoC2': 0.0, 'temp': 0.0, 'lipoC3S3': 11.75, 'state': 'normal', 'rot1': 0, 'rot0': 0, 'rot3': 0, 'rot2': 0, 'depth': -1.132, 'yaw': -0.68, 'datetime': '2018-12-18 20:55:03.576213', 'mgs': 0, 'flw2': 0.0, 'flw1': 0.44, 'flw0': 0.0, 'time': 2.29, 'compass': 7.84, 'pitch': 1.9, 'roll': 0.79}
{'lipoC2': 0.03, 'temp': 0.0, 'lipoC3S3': 11.69, 'state': 'normal', 'rot1': 0, 'rot0': 0, 'rot3': 0, 'rot2': 0, 'depth': 1.157, 'yaw': -0.8, 'datetime': '2018-12-18 20:55:03.785519', 'mgs': 0, 'flw2': 0.18, 'flw1': 0.03, 'flw0': 0.0, 'time': 2.5, 'compass': 7.72, 'pitch': 2.04, 'roll': 0.98}
{'lipoC2': 0.06, 'temp': 0.0, 'lipoC3S3': 11.93, 'state': 'normal', 'rot1': 0, 'rot0': 0, 'rot3': 0, 'rot2': 0, 'depth': -2.2, 'yaw': -0.96, 'datetime': '2018-12-18 20:55:03.994470', 'mgs': 0, 'flw2': 0.0, 'flw1': 0.32, 'flw0': 0.06, 'time': 2.71, 'compass': 7.56, 'pitch': 1.58, 'roll': 1.19}
{'lipoC2': 0.11, 'temp': 0.0, 'lipoC3S3': 11.88, 'state': 'normal', 'rot1': 0, 'rot0': 0, 'rot3': 0, 'rot2': 0, 'depth': -2.048, 'yaw': -1.14, 'datetime': '2018-12-18 20:55:04.203605', 'mgs': 0, 'flw2': 0.2, 'flw1': 0.0, 'flw0': 0.0, 'time': 2.92, 'compass': 7.39, 'pitch': 1.31, 'roll': 1.33}
{'lipoC2': 0.15, 'temp': 0.0, 'lipoC3S3': 11.85, 'state': 'normal', 'rot1': 0, 'rot0': 0, 'rot3': 0, 'rot2': 0, 'depth': -1.208, 'yaw': -1.32, 'datetime': '2018-12-18 20:55:04.410712', 'mgs': 0, 'flw2': 0.0, 'flw1': 0.44, 'flw0': 0.0, 'time': 3.13, 'compass': 7.2, 'pitch': 1.93, 'roll': 1.34}
{'lipoC2': 0.06, 'temp': 0.0, 'lipoC3S3': 11.67, 'state': 'normal', 'rot1': 0, 'rot0': 0, 'rot3': 0, 'rot2': 0, 'depth': 1.004, 'yaw': -1.48, 'datetime': '2018-12-18 20:55:04.618497', 'mgs': 0, 'flw2': 0.05, 'flw1': 0.32, 'flw0': 0.0, 'time': 3.33, 'compass': 7.04, 'pitch': 2.6, 'roll': 1.33}
{'lipoC2': 0.0, 'temp': 0.0, 'lipoC3S3': 12.04, 'state': 'normal', 'rot1': 0, 'rot0': 0, 'rot3': 0, 'rot2': 0, 'depth': 1.157, 'yaw': -1.61, 'datetime': '2018-12-18 20:55:04.825300', 'mgs': 0, 'flw2': 0.0, 'flw1': 0.0, 'flw0': 0.21, 'time': 3.54, 'compass': 6.91, 'pitch': 2.34, 'roll': 1.34}
{'lipoC2': 0.17, 'temp': 0.0, 'lipoC3S3': 11.81, 'state': 'normal', 'rot1': 0, 'rot0': 0, 'rot3': 0, 'rot2': 0, 'depth': -0.674, 'yaw': -1.78, 'datetime': '2018-12-18 20:55:05.037371', 'mgs': 0, 'flw2': 0.0, 'flw1': 0.0, 'flw0': 0.17, 'time': 3.75, 'compass': 6.75, 'pitch': 1.57, 'roll': 1.39}
{'lipoC2': 0.11, 'temp': 0.0, 'lipoC3S3': 11.89, 'state': 'normal', 'rot1': 0, 'rot0': 0, 'rot3': 0, 'rot2': 0, 'depth': -1.895, 'yaw': -1.94, 'datetime': '2018-12-18 20:55:05.247199', 'mgs': 0, 'flw2': 0.21, 'flw1': 0.0, 'flw0': 0.0, 'time': 3.96, 'compass': 6.58, 'pitch': 1.55, 'roll': 1.4}
{'lipoC2': 0.0, 'temp': 0.0, 'lipoC3S3': 12.04, 'state': 'normal', 'rot1': 0, 'rot0': 0, 'rot3': 0, 'rot2': 0, 'depth': 1.309, 'yaw': -2.16, 'datetime': '2018-12-18 20:55:05.559360', 'mgs': 0, 'flw2': 0.0, 'flw1': 0.18, 'flw0': 0.15, 'time': 4.27, 'compass': 6.36, 'pitch': 2.7, 'roll': 1.41}
{'lipoC2': 0.14, 'temp': 0.0, 'lipoC3S3': 11.69, 'state': 'normal', 'rot1': 0, 'rot0': 0, 'rot3': 0, 'rot2': 0, 'depth': 0.317, 'yaw': -2.28, 'datetime': '2018-12-18 20:55:05.768118', 'mgs': 0, 'flw2': 0.11, 'flw1': 0.29, 'flw0': 0.0, 'time': 4.48, 'compass': 6.24, 'pitch': 2.64, 'roll': 1.55}
{'lipoC2': 0.0, 'temp': 0.0, 'lipoC3S3': 12.04, 'state': 'normal', 'rot1': 0, 'rot0': 0, 'rot3': 0, 'rot2': 0, 'depth': 1.385, 'yaw': -2.42, 'datetime': '2018-12-18 20:55:05.976121', 'mgs': 0, 'flw2': 0.0, 'flw1': 0.12, 'flw0': 0.18, 'time': 4.68, 'compass': 6.1, 'pitch': 1.95, 'roll': 1.84}
{'lipoC2': 0.0, 'temp': 0.0, 'lipoC3S3': 11.93, 'state': 'normal', 'rot1': 0, 'rot0': 0, 'rot3': 0, 'rot2': 0, 'depth': 0.699, 'yaw': -2.57, 'datetime': '2018-12-18 20:55:06.183909', 'mgs': 0, 'flw2': 0.21, 'flw1': 0.0, 'flw0': 0.0, 'time': 4.89, 'compass': 5.95, 'pitch': 1.72, 'roll': 1.95}
{'lipoC2': 0.15, 'temp': 0.0, 'lipoC3S3': 11.87, 'state': 'normal', 'rot1': 0, 'rot0': 0, 'rot3': 0, 'rot2': 0, 'depth': -1.361, 'yaw': -2.73, 'datetime': '2018-12-18 20:55:06.390168', 'mgs': 0, 'flw2': 0.0, 'flw1': 0.41, 'flw0': 0.0, 'time': 5.1, 'compass': 5.79, 'pitch': 2.43, 'roll': 1.84}
{'lipoC2': 0.03, 'temp': 0.0, 'lipoC3S3': 11.67, 'state': 'normal', 'rot1': 0, 'rot0': 0, 'rot3': 0, 'rot2': 0, 'depth': -0.064, 'yaw': -2.9, 'datetime': '2018-12-18 20:55:06.598728', 'mgs': 0, 'flw2': 0.15, 'flw1': 0.09, 'flw0': 0.0, 'time': 5.31, 'compass': 5.62, 'pitch': 3.29, 'roll': 1.63}
{'lipoC2': 0.01, 'temp': 0.0, 'lipoC3S3': 11.96, 'state': 'normal', 'rot1': 0, 'rot0': 0, 'rot3': 0, 'rot2': 0, 'depth': -1.437, 'yaw': -3.03, 'datetime': '2018-12-18 20:55:06.808314', 'mgs': 0, 'flw2': 0.23, 'flw1': 0.0, 'flw0': 0.0, 'time': 5.51, 'compass': 5.49, 'pitch': 3.09, 'roll': 1.62}
{'lipoC2': 0.0, 'temp': 0.0, 'lipoC3S3': 11.64, 'state': 'normal', 'rot1': 0, 'rot0': 0, 'rot3': 0, 'rot2': 0, 'depth': 1.233, 'yaw': -3.14, 'datetime': '2018-12-18 20:55:07.017278', 'mgs': 0, 'flw2': 0.16, 'flw1': 0.15, 'flw0': 0.0, 'time': 5.72, 'compass': 5.38, 'pitch': 2.11, 'roll': 1.77}
{'lipoC2': 0.03, 'temp': 0.0, 'lipoC3S3': 11.65, 'state': 'normal', 'rot1': 1, 'rot0': 1, 'rot3': 0, 'rot2': 0, 'depth': 1.08, 'yaw': -2.86, 'datetime': '2018-12-18 20:55:07.219556', 'mgs': 0, 'flw2': 1.6, 'flw1': 0.0, 'flw0': 1.04, 'time': 5.93, 'compass': 5.66, 'pitch': 1.97, 'roll': 2.09}
{'lipoC2': 0.0, 'temp': 0.0, 'lipoC3S3': 12.12, 'state': 'normal', 'rot1': 4, 'rot0': 4, 'rot3': 0, 'rot2': 0, 'depth': 2.072, 'yaw': 0.04, 'datetime': '2018-12-18 20:55:07.432985', 'mgs': 0, 'flw2': 1.7, 'flw1': 0.0, 'flw0': 1.09, 'time': 6.14, 'compass': 8.56, 'pitch': 3.28, 'roll': 2.64}
{'lipoC2': 0.0, 'temp': 0.0, 'lipoC3S3': 11.83, 'state': 'normal', 'rot1': 6, 'rot0': 5, 'rot3': 0, 'rot2': 0, 'depth': 0.699, 'yaw': 4.96, 'datetime': '2018-12-18 20:55:07.634318', 'mgs': 0, 'flw2': 1.56, 'flw1': 0.0, 'flw0': 1.01, 'time': 6.35, 'compass': 13.48, 'pitch': 4.33, 'roll': 2.98}
{'lipoC2': 0.18, 'temp': 0.0, 'lipoC3S3': 11.81, 'state': 'normal', 'rot1': 8, 'rot0': 7, 'rot3': 0, 'rot2': 0, 'depth': 1.767, 'yaw': 11.73, 'datetime': '2018-12-18 20:55:07.842206', 'mgs': 0, 'flw2': 1.57, 'flw1': 0.0, 'flw0': 0.98, 'time': 6.55, 'compass': 20.25, 'pitch': 4.13, 'roll': 2.95}
{'lipoC2': 0.17, 'temp': 0.0, 'lipoC3S3': 11.83, 'state': 'normal', 'rot1': 11, 'rot0': 9, 'rot3': 0, 'rot2': 0, 'depth': -1.056, 'yaw': 19.15, 'datetime': '2018-12-18 20:55:08.051307', 'mgs': 0, 'flw2': 1.05, 'flw1': 0.44, 'flw0': 1.0, 'time': 6.76, 'compass': 27.67, 'pitch': 3.34, 'roll': 2.54}
{'lipoC2': 0.0, 'temp': 0.0, 'lipoC3S3': 12.08, 'state': 'normal', 'rot1': 13, 'rot0': 11, 'rot3': 0, 'rot2': 0, 'depth': 1.691, 'yaw': 27.13, 'datetime': '2018-12-18 20:55:08.260754', 'mgs': 0, 'flw2': 1.05, 'flw1': 0.12, 'flw0': 0.68, 'time': 6.97, 'compass': 35.65, 'pitch': 3.13, 'roll': 1.86}
{'lipoC2': 0.18, 'temp': 0.0, 'lipoC3S3': 11.85, 'state': 'normal', 'rot1': 14, 'rot0': 13, 'rot3': 0, 'rot2': 0, 'depth': 1.233, 'yaw': 35.11, 'datetime': '2018-12-18 20:55:08.469924', 'mgs': 0, 'flw2': 0.72, 'flw1': 0.47, 'flw0': 0.81, 'time': 7.18, 'compass': 43.63, 'pitch': 3.61, 'roll': 1.03}
{'lipoC2': 0.17, 'temp': 0.0, 'lipoC3S3': 11.75, 'state': 'normal', 'rot1': 16, 'rot0': 14, 'rot3': 0, 'rot2': 0, 'depth': 0.317, 'yaw': 43.13, 'datetime': '2018-12-18 20:55:08.684870', 'mgs': 0, 'flw2': 0.66, 'flw1': 0.47, 'flw0': 0.71, 'time': 7.39, 'compass': 51.65, 'pitch': 3.76, 'roll': 0.4}
{'lipoC2': 0.12, 'temp': 0.0, 'lipoC3S3': 11.88, 'state': 'normal', 'rot1': 17, 'rot0': 15, 'rot3': 0, 'rot2': 0, 'depth': -2.124, 'yaw': 51.05, 'datetime': '2018-12-18 20:55:08.905782', 'mgs': 0, 'flw2': 0.74, 'flw1': 0.0, 'flw0': 0.43, 'time': 7.6, 'compass': 59.57, 'pitch': 3.19, 'roll': 0.17}
{'lipoC2': 0.0, 'temp': 0.0, 'lipoC3S3': 11.88, 'state': 'normal', 'rot1': 19, 'rot0': 17, 'rot3': 0, 'rot2': 0, 'depth': 0.012, 'yaw': 62.17, 'datetime': '2018-12-18 20:55:09.208489', 'mgs': 0, 'flw2': 0.59, 'flw1': 0.0, 'flw0': 0.42, 'time': 7.91, 'compass': 70.69, 'pitch': 2.46, 'roll': 0.1}
{'lipoC2': 0.0, 'temp': 0.0, 'lipoC3S3': 11.79, 'state': 'normal', 'rot1': 20, 'rot0': 18, 'rot3': 0, 'rot2': 0, 'depth': -0.751, 'yaw': 68.95, 'datetime': '2018-12-18 20:55:09.415681', 'mgs': 0, 'flw2': 0.42, 'flw1': 0.35, 'flw0': 0.24, 'time': 8.12, 'compass': 77.47, 'pitch': 2.44, 'roll': -0.17}
{'lipoC2': 0.16, 'temp': 0.0, 'lipoC3S3': 11.8, 'state': 'normal', 'rot1': 21, 'rot0': 19, 'rot3': 0, 'rot2': 0, 'depth': -0.903, 'yaw': 75.76, 'datetime': '2018-12-18 20:55:09.625007', 'mgs': 0, 'flw2': 0.45, 'flw1': 0.38, 'flw0': 0.22, 'time': 8.33, 'compass': 84.28, 'pitch': 2.4, 'roll': -0.59}
{'lipoC2': 0.0, 'temp': 0.0, 'lipoC3S3': 12.06, 'state': 'normal', 'rot1': 22, 'rot0': 20, 'rot3': 0, 'rot2': 0, 'depth': 1.538, 'yaw': 82.38, 'datetime': '2018-12-18 20:55:09.833463', 'mgs': 0, 'flw2': 0.51, 'flw1': 0.06, 'flw0': 0.05, 'time': 8.54, 'compass': 90.9, 'pitch': 2.02, 'roll': -0.82}
{'lipoC2': 0.0, 'temp': 0.0, 'lipoC3S3': 11.88, 'state': 'normal', 'rot1': 23, 'rot0': 21, 'rot3': 0, 'rot2': 0, 'depth': -0.14, 'yaw': 88.94, 'datetime': '2018-12-18 20:55:10.044112', 'mgs': 0, 'flw2': 0.49, 'flw1': 0.0, 'flw0': 0.42, 'time': 8.74, 'compass': 97.46, 'pitch': 1.59, 'roll': -0.74}
{'lipoC2': 0.0, 'temp': 0.0, 'lipoC3S3': 12.08, 'state': 'normal', 'rot1': 24, 'rot0': 21, 'rot3': 0, 'rot2': 0, 'depth': 1.385, 'yaw': 95.17, 'datetime': '2018-12-18 20:55:10.254218', 'mgs': 0, 'flw2': 0.44, 'flw1': 0.44, 'flw0': 0.23, 'time': 8.95, 'compass': 103.69, 'pitch': 1.26, 'roll': -0.72}
{'lipoC2': 0.18, 'temp': 0.0, 'lipoC3S3': 11.83, 'state': 'normal', 'rot1': 25, 'rot0': 22, 'rot3': 0, 'rot2': 0, 'depth': -0.522, 'yaw': 101.7, 'datetime': '2018-12-18 20:55:10.462265', 'mgs': 0, 'flw2': 0.39, 'flw1': 0.0, 'flw0': 0.49, 'time': 9.16, 'compass': 110.22, 'pitch': 0.92, 'roll': -0.85}
{'lipoC2': 0.0, 'temp': 0.0, 'lipoC3S3': 12.06, 'state': 'normal', 'rot1': 26, 'rot0': 23, 'rot3': 0, 'rot2': 0, 'depth': 1.309, 'yaw': 108.19, 'datetime': '2018-12-18 20:55:10.671614', 'mgs': 0, 'flw2': 0.27, 'flw1': 0.5, 'flw0': 0.33, 'time': 9.37, 'compass': 116.71, 'pitch': 0.81, 'roll': -0.95}
{'lipoC2': 0.0, 'temp': 0.0, 'lipoC3S3': 12.04, 'state': 'normal', 'rot1': 27, 'rot0': 24, 'rot3': 0, 'rot2': 0, 'depth': 1.233, 'yaw': 114.57, 'datetime': '2018-12-18 20:55:10.883481', 'mgs': 0, 'flw2': 0.26, 'flw1': 0.0, 'flw0': 0.59, 'time': 9.58, 'compass': 123.09, 'pitch': 0.96, 'roll': -1.04}
{'lipoC2': 0.0, 'temp': 0.0, 'lipoC3S3': 12.09, 'state': 'normal', 'rot1': 28, 'rot0': 25, 'rot3': 0, 'rot2': 0, 'depth': 1.691, 'yaw': 120.61, 'datetime': '2018-12-18 20:55:11.092645', 'mgs': 0, 'flw2': 0.27, 'flw1': 0.0, 'flw0': 0.07, 'time': 9.79, 'compass': 129.13, 'pitch': 0.87, 'roll': -1.15}
{'lipoC2': 0.15, 'temp': 0.0, 'lipoC3S3': 11.68, 'state': 'normal', 'rot1': 29, 'rot0': 26, 'rot3': 0, 'rot2': 0, 'depth': 0.317, 'yaw': 126.89, 'datetime': '2018-12-18 20:55:11.303098', 'mgs': 0, 'flw2': 0.11, 'flw1': 0.35, 'flw0': 0.0, 'time': 10.0, 'compass': 135.41, 'pitch': 0.15, 'roll': -1.2}
{'lipoC2': 0.0, 'temp': 0.0, 'lipoC3S3': 12.09, 'state': 'normal', 'rot1': 29, 'rot0': 26, 'rot3': 0, 'rot2': 0, 'depth': 1.462, 'yaw': 132.59, 'datetime': '2018-12-18 20:55:11.509187', 'mgs': 0, 'flw2': 0.0, 'flw1': 0.0, 'flw0': 0.23, 'time': 10.2, 'compass': 141.11, 'pitch': -0.59, 'roll': -1.17}
{'lipoC2': 0.1, 'temp': 0.0, 'lipoC3S3': 11.88, 'state': 'normal', 'rot1': 29, 'rot0': 26, 'rot3': 0, 'rot2': 0, 'depth': -2.048, 'yaw': 137.69, 'datetime': '2018-12-18 20:55:11.715350', 'mgs': 0, 'flw2': 0.6, 'flw1': 0.0, 'flw0': 3.1, 'time': 10.41, 'compass': 146.21, 'pitch': -0.61, 'roll': -1.22}
{'lipoC2': 0.0, 'temp': 0.0, 'lipoC3S3': 12.05, 'state': 'normal', 'rot1': 32, 'rot0': 27, 'rot3': 0, 'rot2': 0, 'depth': 1.309, 'yaw': 140.68, 'datetime': '2018-12-18 20:55:11.930678', 'mgs': 0, 'flw2': 0.4, 'flw1': 0.06, 'flw0': 3.03, 'time': 10.62, 'compass': 149.21, 'pitch': 1.1, 'roll': -1.52}
{'lipoC2': 0.17, 'temp': 0.0, 'lipoC3S3': 11.83, 'state': 'normal', 'rot1': 34, 'rot0': 28, 'rot3': 0, 'rot2': 0, 'depth': -0.827, 'yaw': 141.38, 'datetime': '2018-12-18 20:55:12.135803', 'mgs': 0, 'flw2': 0.79, 'flw1': 0.44, 'flw0': 2.66, 'time': 10.83, 'compass': 149.9, 'pitch': 2.81, 'roll': -1.71}
{'lipoC2': 0.04, 'temp': 0.0, 'lipoC3S3': 11.96, 'state': 'normal', 'rot1': 36, 'rot0': 30, 'rot3': 0, 'rot2': 0, 'depth': -1.895, 'yaw': 140.21, 'datetime': '2018-12-18 20:55:12.341655', 'mgs': 0, 'flw2': 0.4, 'flw1': 0.21, 'flw0': 2.98, 'time': 11.04, 'compass': 148.73, 'pitch': 2.48, 'roll': -1.59}
{'lipoC2': 0.0, 'temp': 0.0, 'lipoC3S3': 11.83, 'state': 'normal', 'rot1': 39, 'rot0': 31, 'rot3': 0, 'rot2': 0, 'depth': 0.928, 'yaw': 137.45, 'datetime': '2018-12-18 20:55:12.551065', 'mgs': 0, 'flw2': 0.71, 'flw1': 0.5, 'flw0': 2.84, 'time': 11.25, 'compass': 145.97, 'pitch': 1.73, 'roll': -1.15}
{'lipoC2': 0.1, 'temp': 0.0, 'lipoC3S3': 11.68, 'state': 'normal', 'rot1': 41, 'rot0': 32, 'rot3': 0, 'rot2': 0, 'depth': 0.699, 'yaw': 133.58, 'datetime': '2018-12-18 20:55:12.760221', 'mgs': 0, 'flw2': 0.83, 'flw1': 0.15, 'flw0': 2.54, 'time': 11.46, 'compass': 142.1, 'pitch': 1.89, 'roll': -0.91}
{'lipoC2': 0.04, 'temp': 0.0, 'lipoC3S3': 11.68, 'state': 'normal', 'rot1': 44, 'rot0': 33, 'rot3': 0, 'rot2': 0, 'depth': 1.157, 'yaw': 129.28, 'datetime': '2018-12-18 20:55:12.973097', 'mgs': 0, 'flw2': 0.67, 'flw1': 0.0, 'flw0': 2.95, 'time': 11.67, 'compass': 137.8, 'pitch': 2.33, 'roll': -1.21}
{'lipoC2': 0.0, 'temp': 0.0, 'lipoC3S3': 11.87, 'state': 'normal', 'rot1': 46, 'rot0': 34, 'rot3': 0, 'rot2': 0, 'depth': 0.089, 'yaw': 124.52, 'datetime': '2018-12-18 20:55:13.180332', 'mgs': 0, 'flw2': 0.89, 'flw1': 0.0, 'flw0': 2.71, 'time': 11.88, 'compass': 133.04, 'pitch': 2.49, 'roll': -1.89}
{'lipoC2': 0.08, 'temp': 0.0, 'lipoC3S3': 11.65, 'state': 'normal', 'rot1': 48, 'rot0': 36, 'rot3': 0, 'rot2': 0, 'depth': 0.012, 'yaw': 120.3, 'datetime': '2018-12-18 20:55:13.387428', 'mgs': 0, 'flw2': 2.76, 'flw1': 0.0, 'flw0': 0.35, 'time': 12.08, 'compass': 128.83, 'pitch': 2.65, 'roll': -2.07}
{'lipoC2': 0.0, 'temp': 0.0, 'lipoC3S3': 12.05, 'state': 'normal', 'rot1': 49, 'rot0': 39, 'rot3': 0, 'rot2': 0, 'depth': 1.462, 'yaw': 119.15, 'datetime': '2018-12-18 20:55:13.596256', 'mgs': 0, 'flw2': 2.62, 'flw1': 0.0, 'flw0': 0.9, 'time': 12.29, 'compass': 127.67, 'pitch': 3.02, 'roll': -1.19}
{'lipoC2': 0.0, 'temp': 0.0, 'lipoC3S3': 11.9, 'state': 'normal', 'rot1': 51, 'rot0': 41, 'rot3': 0, 'rot2': 0, 'depth': -0.14, 'yaw': 120.03, 'datetime': '2018-12-18 20:55:13.806060', 'mgs': 0, 'flw2': 2.48, 'flw1': 0.32, 'flw0': 0.77, 'time': 12.5, 'compass': 128.55, 'pitch': 3.38, 'roll': -0.16}
{'lipoC2': 0.17, 'temp': 0.0, 'lipoC3S3': 11.81, 'state': 'normal', 'rot1': 52, 'rot0': 43, 'rot3': 0, 'rot2': 0, 'depth': -0.98, 'yaw': 122.12, 'datetime': '2018-12-18 20:55:14.023462', 'mgs': 0, 'flw2': 2.7, 'flw1': 0.41, 'flw0': 0.7, 'time': 12.71, 'compass': 130.65, 'pitch': 3.38, 'roll': 0.04}
{'lipoC2': 0.0, 'temp': 0.0, 'lipoC3S3': 11.89, 'state': 'normal', 'rot1': 53, 'rot0': 46, 'rot3': 0, 'rot2': 0, 'depth': 0.089, 'yaw': 124.97, 'datetime': '2018-12-18 20:55:14.229082', 'mgs': 0, 'flw2': 2.39, 'flw1': 0.38, 'flw0': 0.78, 'time': 12.92, 'compass': 133.49, 'pitch': 3.51, 'roll': -0.12}
{'lipoC2': 0.06, 'temp': 0.0, 'lipoC3S3': 11.67, 'state': 'normal', 'rot1': 55, 'rot0': 48, 'rot3': 0, 'rot2': 0, 'depth': 1.08, 'yaw': 128.47, 'datetime': '2018-12-18 20:55:14.434750', 'mgs': 0, 'flw2': 2.73, 'flw1': 0.06, 'flw0': 0.42, 'time': 13.13, 'compass': 136.99, 'pitch': 3.74, 'roll': 0.07}
{'lipoC2': 0.0, 'temp': 0.0, 'lipoC3S3': 12.06, 'state': 'normal', 'rot1': 57, 'rot0': 51, 'rot3': 0, 'rot2': 0, 'depth': 1.538, 'yaw': 131.78, 'datetime': '2018-12-18 20:55:14.645083', 'mgs': 0, 'flw2': 2.72, 'flw1': 0.0, 'flw0': 2.88, 'time': 13.34, 'compass': 140.3, 'pitch': 3.89, 'roll': 0.4}
{'lipoC2': 0.0, 'temp': 0.0, 'lipoC3S3': 12.09, 'state': 'normal', 'rot1': 60, 'rot0': 53, 'rot3': 0, 'rot2': 0, 'depth': 1.614, 'yaw': 133.65, 'datetime': '2018-12-18 20:55:14.855663', 'mgs': 0, 'flw2': 0.6, 'flw1': 0.44, 'flw0': 2.65, 'time': 13.55, 'compass': 142.17, 'pitch': 4.62, 'roll': 0.42}
{'lipoC2': 0.14, 'temp': 0.0, 'lipoC3S3': 11.68, 'state': 'normal', 'rot1': 62, 'rot0': 54, 'rot3': 0, 'rot2': 0, 'depth': 0.241, 'yaw': 133.41, 'datetime': '2018-12-18 20:55:15.061866', 'mgs': 0, 'flw2': 0.84, 'flw1': 0.26, 'flw0': 2.62, 'time': 13.75, 'compass': 141.93, 'pitch': 4.58, 'roll': 0.0}
{'lipoC2': 0.0, 'temp': 0.0, 'lipoC3S3': 11.88, 'state': 'normal', 'rot1': 64, 'rot0': 56, 'rot3': 0, 'rot2': 0, 'depth': 0.394, 'yaw': 131.4, 'datetime': '2018-12-18 20:55:15.272463', 'mgs': 0, 'flw2': 0.18, 'flw1': 0.0, 'flw0': 0.0, 'time': 13.96, 'compass': 139.92, 'pitch': 3.89, 'roll': -0.53}
{'lipoC2': 0.0, 'temp': 0.0, 'lipoC3S3': 11.98, 'state': 'normal', 'rot1': 64, 'rot0': 56, 'rot3': 0, 'rot2': 0, 'depth': 0.699, 'yaw': 129.75, 'datetime': '2018-12-18 20:55:15.481315', 'mgs': 0, 'flw2': 0.0, 'flw1': 0.0, 'flw0': 0.22, 'time': 14.17, 'compass': 138.27, 'pitch': 2.24, 'roll': -0.47}
{'lipoC2': 0.13, 'temp': 0.0, 'lipoC3S3': 11.67, 'state': 'normal', 'rot1': 64, 'rot0': 56, 'rot3': 0, 'rot2': 0, 'depth': 0.699, 'yaw': 128.66, 'datetime': '2018-12-18 20:55:15.692152', 'mgs': 0, 'flw2': 0.06, 'flw1': 0.44, 'flw0': 0.0, 'time': 14.38, 'compass': 137.18, 'pitch': 0.87, 'roll': 0.12}
{'lipoC2': 0.06, 'temp': 0.0, 'lipoC3S3': 11.92, 'state': 'normal', 'rot1': 64, 'rot0': 56, 'rot3': 0, 'rot2': 0, 'depth': -2.2, 'yaw': 127.88, 'datetime': '2018-12-18 20:55:15.893759', 'mgs': 0, 'flw2': 0.18, 'flw1': 0.0, 'flw0': 0.0, 'time': 14.59, 'compass': 136.41, 'pitch': 1.44, 'roll': 0.25}
{'lipoC2': 0.0, 'temp': 0.0, 'lipoC3S3': 11.94, 'state': 'normal', 'rot1': 66, 'rot0': 57, 'rot3': 0, 'rot2': 0, 'depth': 0.699, 'yaw': 127.2, 'datetime': '2018-12-18 20:55:16.099660', 'mgs': 0, 'flw2': 2.98, 'flw1': 0.0, 'flw0': 2.49, 'time': 14.8, 'compass': 135.72, 'pitch': 3.03, 'roll': -0.16}
{'lipoC2': 0.0, 'temp': 0.0, 'lipoC3S3': 12.08, 'state': 'normal', 'rot1': 69, 'rot0': 60, 'rot3': 0, 'rot2': 0, 'depth': 1.691, 'yaw': 126.68, 'datetime': '2018-12-18 20:55:16.309220', 'mgs': 0, 'flw2': 2.31, 'flw1': 0.26, 'flw0': 2.97, 'time': 15.01, 'compass': 135.2, 'pitch': 5.2, 'roll': -0.36}
{'lipoC2': 0.02, 'temp': 0.0, 'lipoC3S3': 11.68, 'state': 'normal', 'rot1': 72, 'rot0': 62, 'rot3': 0, 'rot2': 0, 'depth': 0.012, 'yaw': 126.42, 'datetime': '2018-12-18 20:55:16.517337', 'mgs': 0, 'flw2': 2.98, 'flw1': 0.0, 'flw0': 2.42, 'time': 15.22, 'compass': 134.95, 'pitch': 5.83, 'roll': 0.14}
{'lipoC2': 0.0, 'temp': 0.0, 'lipoC3S3': 12.04, 'state': 'normal', 'rot1': 75, 'rot0': 65, 'rot3': 0, 'rot2': 0, 'depth': 1.462, 'yaw': 126.11, 'datetime': '2018-12-18 20:55:16.728753', 'mgs': 0, 'flw2': 2.56, 'flw1': 0.09, 'flw0': 2.95, 'time': 15.42, 'compass': 134.63, 'pitch': 5.39, 'roll': 0.61}
{'lipoC2': 0.12, 'temp': 0.0, 'lipoC3S3': 11.67, 'state': 'normal', 'rot1': 77, 'rot0': 67, 'rot3': 0, 'rot2': 0, 'depth': 0.089, 'yaw': 125.45, 'datetime': '2018-12-18 20:55:16.939244', 'mgs': 0, 'flw2': 2.87, 'flw1': 0.12, 'flw0': 2.65, 'time': 15.63, 'compass': 133.97, 'pitch': 5.23, 'roll': 0.69}
{'lipoC2': 0.0, 'temp': 0.0, 'lipoC3S3': 12.09, 'state': 'normal', 'rot1': 80, 'rot0': 69, 'rot3': 0, 'rot2': 0, 'depth': 1.614, 'yaw': 124.64, 'datetime': '2018-12-18 20:55:17.147881', 'mgs': 0, 'flw2': 2.64, 'flw1': 0.62, 'flw0': 2.8, 'time': 15.84, 'compass': 133.16, 'pitch': 5.59, 'roll': 0.77}
{'lipoC2': 0.17, 'temp': 0.0, 'lipoC3S3': 11.84, 'state': 'normal', 'rot1': 82, 'rot0': 71, 'rot3': 0, 'rot2': 0, 'depth': 0.851, 'yaw': 124.42, 'datetime': '2018-12-18 20:55:17.357139', 'mgs': 0, 'flw2': 2.59, 'flw1': 0.53, 'flw0': 0.68, 'time': 16.05, 'compass': 132.94, 'pitch': 5.75, 'roll': 0.91}
{'lipoC2': 0.17, 'temp': 0.0, 'lipoC3S3': 11.85, 'state': 'normal', 'rot1': 83, 'rot0': 74, 'rot3': 0, 'rot2': 0, 'depth': -1.132, 'yaw': 126.01, 'datetime': '2018-12-18 20:55:17.565250', 'mgs': 0, 'flw2': 2.56, 'flw1': 0.5, 'flw0': 2.97, 'time': 16.26, 'compass': 134.53, 'pitch': 5.29, 'roll': 1.15}
{'lipoC2': 0.18, 'temp': 0.0, 'lipoC3S3': 11.76, 'state': 'normal', 'rot1': 85, 'rot0': 76, 'rot3': 0, 'rot2': 0, 'depth': 0.623, 'yaw': 127.42, 'datetime': '2018-12-18 20:55:17.773771', 'mgs': 0, 'flw2': 2.77, 'flw1': 0.44, 'flw0': 2.7, 'time': 16.47, 'compass': 135.95, 'pitch': 5.83, 'roll': 1.01}
{'lipoC2': 0.0, 'temp': 0.0, 'lipoC3S3': 11.88, 'state': 'normal', 'rot1': 88, 'rot0': 78, 'rot3': 0, 'rot2': 0, 'depth': -0.369, 'yaw': 128.23, 'datetime': '2018-12-18 20:55:17.983972', 'mgs': 0, 'flw2': 2.91, 'flw1': 0.0, 'flw0': 2.76, 'time': 16.68, 'compass': 136.75, 'pitch': 6.42, 'roll': 0.64}
{'lipoC2': 0.14, 'temp': 0.0, 'lipoC3S3': 11.71, 'state': 'normal', 'rot1': 90, 'rot0': 80, 'rot3': 0, 'rot2': 0, 'depth': 0.165, 'yaw': 128.77, 'datetime': '2018-12-18 20:55:18.193028', 'mgs': 0, 'flw2': 2.71, 'flw1': 0.29, 'flw0': 2.65, 'time': 16.89, 'compass': 137.29, 'pitch': 5.95, 'roll': 0.54}
{'lipoC2': 0.0, 'temp': 0.0, 'lipoC3S3': 11.71, 'state': 'normal', 'rot1': 92, 'rot0': 83, 'rot3': 0, 'rot2': 0, 'depth': -1.59, 'yaw': 129.22, 'datetime': '2018-12-18 20:55:18.403095', 'mgs': 0, 'flw2': 2.75, 'flw1': 0.32, 'flw0': 2.55, 'time': 17.1, 'compass': 137.74, 'pitch': 5.09, 'roll': 0.91}
{'lipoC2': 0.08, 'temp': 0.0, 'lipoC3S3': 11.65, 'state': 'normal', 'rot1': 95, 'rot0': 85, 'rot3': 0, 'rot2': 0, 'depth': 0.012, 'yaw': 129.4, 'datetime': '2018-12-18 20:55:18.612111', 'mgs': 0, 'flw2': 2.84, 'flw1': 0.12, 'flw0': 2.47, 'time': 17.31, 'compass': 137.92, 'pitch': 5.1, 'roll': 1.26}
{'lipoC2': 0.17, 'temp': 0.0, 'lipoC3S3': 11.73, 'state': 'normal', 'rot1': 97, 'rot0': 87, 'rot3': 0, 'rot2': 0, 'depth': 0.47, 'yaw': 129.29, 'datetime': '2018-12-18 20:55:18.820502', 'mgs': 0, 'flw2': 2.72, 'flw1': 0.44, 'flw0': 2.67, 'time': 17.51, 'compass': 137.82, 'pitch': 5.59, 'roll': 1.29}
{'lipoC2': 0.05, 'temp': 0.0, 'lipoC3S3': 11.65, 'state': 'normal', 'rot1': 98, 'rot0': 88, 'rot3': 0, 'rot2': 0, 'depth': 1.233, 'yaw': 129.05, 'datetime': '2018-12-18 20:55:19.029012', 'mgs': 0, 'flw2': 0.0, 'flw1': 0.47, 'flw0': 0.0, 'time': 17.72, 'compass': 137.58, 'pitch': 4.8, 'roll': 1.07}
{'lipoC2': 0.0, 'temp': 0.0, 'lipoC3S3': 11.85, 'state': 'normal', 'rot1': 98, 'rot0': 88, 'rot3': 0, 'rot2': 0, 'depth': 0.394, 'yaw': 128.83, 'datetime': '2018-12-18 20:55:19.235972', 'mgs': 0, 'flw2': 0.0, 'flw1': 0.5, 'flw0': 0.0, 'time': 17.93, 'compass': 137.35, 'pitch': 2.51, 'roll': 1.03}
{'lipoC2': 0.0, 'temp': 0.0, 'lipoC3S3': 11.85, 'state': 'normal', 'rot1': 100, 'rot0': 89, 'rot3': 0, 'rot2': 0, 'depth': 0.47, 'yaw': 128.66, 'datetime': '2018-12-18 20:55:19.445805', 'mgs': 0, 'flw2': 2.49, 'flw1': 0.59, 'flw0': 2.86, 'time': 18.14, 'compass': 137.18, 'pitch': 2.96, 'roll': 1.09}
{'lipoC2': 0.1, 'temp': 0.0, 'lipoC3S3': 11.89, 'state': 'normal', 'rot1': 103, 'rot0': 92, 'rot3': 0, 'rot2': 0, 'depth': -2.353, 'yaw': 128.4, 'datetime': '2018-12-18 20:55:19.654572', 'mgs': 0, 'flw2': 2.34, 'flw1': 0.5, 'flw0': 2.75, 'time': 18.35, 'compass': 136.92, 'pitch': 6.24, 'roll': 1.12}
{'lipoC2': 0.0, 'temp': 0.0, 'lipoC3S3': 11.68, 'state': 'normal', 'rot1': 106, 'rot0': 94, 'rot3': 0, 'rot2': 0, 'depth': -1.361, 'yaw': 127.95, 'datetime': '2018-12-18 20:55:19.867325', 'mgs': 0, 'flw2': 2.84, 'flw1': 0.29, 'flw0': 2.53, 'time': 18.56, 'compass': 136.47, 'pitch': 7.44, 'roll': 1.17}
{'lipoC2': 0.0, 'temp': 0.0, 'lipoC3S3': 12.05, 'state': 'normal', 'rot1': 108, 'rot0': 97, 'rot3': 0, 'rot2': 0, 'depth': 1.767, 'yaw': 127.96, 'datetime': '2018-12-18 20:55:20.076344', 'mgs': 0, 'flw2': 2.72, 'flw1': 0.0, 'flw0': 0.98, 'time': 18.77, 'compass': 136.49, 'pitch': 6.16, 'roll': 1.32}
{'lipoC2': 0.0, 'temp': 0.0, 'lipoC3S3': 11.9, 'state': 'normal', 'rot1': 109, 'rot0': 99, 'rot3': 0, 'rot2': 0, 'depth': -0.369, 'yaw': 129.49, 'datetime': '2018-12-18 20:55:20.284729', 'mgs': 0, 'flw2': 2.62, 'flw1': 0.47, 'flw0': 2.88, 'time': 18.97, 'compass': 138.01, 'pitch': 4.66, 'roll': 1.59}
{'lipoC2': 0.0, 'temp': 0.0, 'lipoC3S3': 11.97, 'state': 'normal', 'rot1': 112, 'rot0': 101, 'rot3': 0, 'rot2': 0, 'depth': 0.775, 'yaw': 130.59, 'datetime': '2018-12-18 20:55:20.493736', 'mgs': 0, 'flw2': 2.91, 'flw1': 0.0, 'flw0': 2.55, 'time': 19.18, 'compass': 139.11, 'pitch': 5.81, 'roll': 1.73}
{'lipoC2': 0.0, 'temp': 0.0, 'lipoC3S3': 11.81, 'state': 'normal', 'rot1': 114, 'rot0': 104, 'rot3': 0, 'rot2': 0, 'depth': -0.674, 'yaw': 130.82, 'datetime': '2018-12-18 20:55:20.703140', 'mgs': 0, 'flw2': 2.54, 'flw1': 0.53, 'flw0': 2.78, 'time': 19.39, 'compass': 139.34, 'pitch': 7.49, 'roll': 1.73}
{'lipoC2': 0.0, 'temp': 0.0, 'lipoC3S3': 12.08, 'state': 'normal', 'rot1': 117, 'rot0': 106, 'rot3': 0, 'rot2': 0, 'depth': 1.614, 'yaw': 130.76, 'datetime': '2018-12-18 20:55:20.914421', 'mgs': 0, 'flw2': 2.54, 'flw1': 0.5, 'flw0': 2.8, 'time': 19.6, 'compass': 139.29, 'pitch': 7.83, 'roll': 1.74}
{'lipoC2': 0.0, 'temp': 0.0, 'lipoC3S3': 11.88, 'state': 'normal', 'rot1': 119, 'rot0': 109, 'rot3': 0, 'rot2': 0, 'depth': 0.928, 'yaw': 130.41, 'datetime': '2018-12-18 20:55:21.123105', 'mgs': 0, 'flw2': 2.95, 'flw1': 0.0, 'flw0': 2.6, 'time': 19.81, 'compass': 138.93, 'pitch': 7.69, 'roll': 1.7}
{'lipoC2': 0.0, 'temp': 0.0, 'lipoC3S3': 12.09, 'state': 'normal', 'rot1': 122, 'rot0': 111, 'rot3': 0, 'rot2': 0, 'depth': 1.691, 'yaw': 130.02, 'datetime': '2018-12-18 20:55:21.332654', 'mgs': 0, 'flw2': 2.77, 'flw1': 0.0, 'flw0': 2.97, 'time': 20.02, 'compass': 138.55, 'pitch': 7.67, 'roll': 1.53}
{'lipoC2': 0.02, 'temp': 0.0, 'lipoC3S3': 11.98, 'state': 'normal', 'rot1': 124, 'rot0': 113, 'rot3': 0, 'rot2': 0, 'depth': -1.819, 'yaw': 129.63, 'datetime': '2018-12-18 20:55:21.541194', 'mgs': 0, 'flw2': 2.5, 'flw1': 0.03, 'flw0': 2.94, 'time': 20.23, 'compass': 138.15, 'pitch': 7.89, 'roll': 1.4}
{'lipoC2': 0.02, 'temp': 0.0, 'lipoC3S3': 11.67, 'state': 'normal', 'rot1': 126, 'rot0': 115, 'rot3': 0, 'rot2': 0, 'depth': -0.369, 'yaw': 129.37, 'datetime': '2018-12-18 20:55:21.751740', 'mgs': 0, 'flw2': 2.75, 'flw1': 0.0, 'flw0': 2.55, 'time': 20.44, 'compass': 137.89, 'pitch': 7.9, 'roll': 1.39}
{'lipoC2': 0.0, 'temp': 0.0, 'lipoC3S3': 12.01, 'state': 'normal', 'rot1': 129, 'rot0': 117, 'rot3': 0, 'rot2': 0, 'depth': 1.157, 'yaw': 129.04, 'datetime': '2018-12-18 20:55:21.962280', 'mgs': 0, 'flw2': 2.87, 'flw1': 0.0, 'flw0': 2.93, 'time': 20.65, 'compass': 137.56, 'pitch': 7.8, 'roll': 1.75}
{'lipoC2': 0.16, 'temp': 0.0, 'lipoC3S3': 11.87, 'state': 'normal', 'rot1': 131, 'rot0': 120, 'rot3': 0, 'rot2': 0, 'depth': -1.361, 'yaw': 128.61, 'datetime': '2018-12-18 20:55:22.171766', 'mgs': 0, 'flw2': 2.8, 'flw1': 0.0, 'flw0': 2.71, 'time': 20.86, 'compass': 137.13, 'pitch': 7.46, 'roll': 2.22}
{'lipoC2': 0.16, 'temp': 0.0, 'lipoC3S3': 11.88, 'state': 'normal', 'rot1': 132, 'rot0': 120, 'rot3': 0, 'rot2': 0, 'depth': 0.928, 'yaw': 128.01, 'datetime': '2018-12-18 20:55:22.382038', 'mgs': 0, 'flw2': 0.59, 'flw1': 0.0, 'flw0': 0.37, 'time': 21.07, 'compass': 136.53, 'pitch': 6.5, 'roll': 2.33}
{'lipoC2': 0.11, 'temp': 0.0, 'lipoC3S3': 11.67, 'state': 'normal', 'rot1': 133, 'rot0': 121, 'rot3': 0, 'rot2': 0, 'depth': 0.012, 'yaw': 127.75, 'datetime': '2018-12-18 20:55:22.588686', 'mgs': 0, 'flw2': 0.43, 'flw1': 0.23, 'flw0': 0.12, 'time': 21.28, 'compass': 136.27, 'pitch': 4.52, 'roll': 2.14}
{'lipoC2': 0.03, 'temp': 0.0, 'lipoC3S3': 11.68, 'state': 'normal', 'rot1': 134, 'rot0': 122, 'rot3': 0, 'rot2': 0, 'depth': 1.309, 'yaw': 128.41, 'datetime': '2018-12-18 20:55:22.796658', 'mgs': 0, 'flw2': 0.0, 'flw1': 0.26, 'flw0': 0.54, 'time': 21.49, 'compass': 136.93, 'pitch': 3.95, 'roll': 2.05}
{'lipoC2': 0.01, 'temp': 0.0, 'lipoC3S3': 11.97, 'state': 'normal', 'rot1': 135, 'rot0': 123, 'rot3': 0, 'rot2': 0, 'depth': -1.666, 'yaw': 129.6, 'datetime': '2018-12-18 20:55:23.008429', 'mgs': 0, 'flw2': 0.12, 'flw1': 0.15, 'flw0': 0.0, 'time': 21.69, 'compass': 138.12, 'pitch': 4.35, 'roll': 2.23}
{'lipoC2': 0.17, 'temp': 0.0, 'lipoC3S3': 11.85, 'state': 'normal', 'rot1': 135, 'rot0': 123, 'rot3': 0, 'rot2': 0, 'depth': -1.056, 'yaw': 130.75, 'datetime': '2018-12-18 20:55:23.218412', 'mgs': 0, 'flw2': 0.0, 'flw1': 0.29, 'flw0': 0.0, 'time': 21.91, 'compass': 139.28, 'pitch': 4.69, 'roll': 2.55}
{'lipoC2': 0.17, 'temp': 0.0, 'lipoC3S3': 11.77, 'state': 'normal', 'rot1': 135, 'rot0': 123, 'rot3': 0, 'rot2': 0, 'depth': 0.394, 'yaw': 131.68, 'datetime': '2018-12-18 20:55:23.431085', 'mgs': 0, 'flw2': 0.21, 'flw1': 0.0, 'flw0': 0.0, 'time': 22.11, 'compass': 140.2, 'pitch': 5.07, 'roll': 2.57}
{'lipoC2': 0.15, 'temp': 0.0, 'lipoC3S3': 11.73, 'state': 'normal', 'rot1': 135, 'rot0': 123, 'rot3': 0, 'rot2': 0, 'depth': 0.165, 'yaw': 132.45, 'datetime': '2018-12-18 20:55:23.639367', 'mgs': 0, 'flw2': 0.0, 'flw1': 0.0, 'flw0': 0.21, 'time': 22.32, 'compass': 140.97, 'pitch': 5.41, 'roll': 2.16}
{'lipoC2': 0.19, 'temp': 0.0, 'lipoC3S3': 11.79, 'state': 'normal', 'rot1': 135, 'rot0': 123, 'rot3': 0, 'rot2': 0, 'depth': 0.851, 'yaw': 133.22, 'datetime': '2018-12-18 20:55:23.848926', 'mgs': 0, 'flw2': 0.0, 'flw1': 0.53, 'flw0': 0.0, 'time': 22.53, 'compass': 141.74, 'pitch': 5.3, 'roll': 1.73}
{'lipoC2': 0.15, 'temp': 0.0, 'lipoC3S3': 11.71, 'state': 'normal', 'rot1': 135, 'rot0': 124, 'rot3': 0, 'rot2': 0, 'depth': 0.317, 'yaw': 134.05, 'datetime': '2018-12-18 20:55:24.060153', 'mgs': 0, 'flw2': 3.21, 'flw1': 0.35, 'flw0': 3.19, 'time': 22.74, 'compass': 142.57, 'pitch': 5.02, 'roll': 1.63}
{'lipoC2': 0.14, 'temp': 0.0, 'lipoC3S3': 11.88, 'state': 'normal', 'rot1': 137, 'rot0': 126, 'rot3': 0, 'rot2': 0, 'depth': -1.666, 'yaw': 134.82, 'datetime': '2018-12-18 20:55:24.268613', 'mgs': 0, 'flw2': 3.02, 'flw1': 0.0, 'flw0': 2.76, 'time': 22.95, 'compass': 143.34, 'pitch': 6.72, 'roll': 1.67}
{'lipoC2': 0.1, 'temp': 0.0, 'lipoC3S3': 11.97, 'state': 'normal', 'rot1': 140, 'rot0': 128, 'rot3': 0, 'rot2': 0, 'depth': -2.2, 'yaw': 135.6, 'datetime': '2018-12-18 20:55:24.478663', 'mgs': 0, 'flw2': 2.48, 'flw1': 0.47, 'flw0': 2.82, 'time': 23.16, 'compass': 144.12, 'pitch': 9.05, 'roll': 1.87}
{'lipoC2': 0.12, 'temp': 0.0, 'lipoC3S3': 11.88, 'state': 'normal', 'rot1': 142, 'rot0': 130, 'rot3': 0, 'rot2': 0, 'depth': -2.048, 'yaw': 136.01, 'datetime': '2018-12-18 20:55:24.688233', 'mgs': 0, 'flw2': 0.84, 'flw1': 0.0, 'flw0': 2.69, 'time': 23.37, 'compass': 144.53, 'pitch': 9.31, 'roll': 2.13}
{'lipoC2': 0.09, 'temp': 0.0, 'lipoC3S3': 11.67, 'state': 'normal', 'rot1': 144, 'rot0': 132, 'rot3': 0, 'rot2': 0, 'depth': 0.394, 'yaw': 134.68, 'datetime': '2018-12-18 20:55:24.897571', 'mgs': 0, 'flw2': 0.84, 'flw1': 0.15, 'flw0': 2.69, 'time': 23.58, 'compass': 143.2, 'pitch': 7.71, 'roll': 2.27}
{'lipoC2': 0.11, 'temp': 0.0, 'lipoC3S3': 11.67, 'state': 'normal', 'rot1': 146, 'rot0': 133, 'rot3': 0, 'rot2': 0, 'depth': 0.089, 'yaw': 132.12, 'datetime': '2018-12-18 20:55:25.108868', 'mgs': 0, 'flw2': 2.81, 'flw1': 0.12, 'flw0': 2.67, 'time': 23.79, 'compass': 140.65, 'pitch': 6.88, 'roll': 2.19}
{'lipoC2': 0.05, 'temp': 0.0, 'lipoC3S3': 11.65, 'state': 'normal', 'rot1': 149, 'rot0': 136, 'rot3': 0, 'rot2': 0, 'depth': 0.012, 'yaw': 130.54, 'datetime': '2018-12-18 20:55:25.317665', 'mgs': 0, 'flw2': 2.78, 'flw1': 0.09, 'flw0': 0.31, 'time': 24.0, 'compass': 139.06, 'pitch': 8.12, 'roll': 2.39}
{'lipoC2': 0.0, 'temp': 0.0, 'lipoC3S3': 11.73, 'state': 'normal', 'rot1': 150, 'rot0': 138, 'rot3': 0, 'rot2': 0, 'depth': -1.59, 'yaw': 130.84, 'datetime': '2018-12-18 20:55:25.523450', 'mgs': 0, 'flw2': 2.71, 'flw1': 0.53, 'flw0': 0.65, 'time': 24.2, 'compass': 139.37, 'pitch': 8.48, 'roll': 3.02}
{'lipoC2': 0.11, 'temp': 0.0, 'lipoC3S3': 11.9, 'state': 'normal', 'rot1': 152, 'rot0': 140, 'rot3': 0, 'rot2': 0, 'depth': -1.819, 'yaw': 132.9, 'datetime': '2018-12-18 20:55:25.736276', 'mgs': 0, 'flw2': 2.82, 'flw1': 0.0, 'flw0': 0.49, 'time': 24.41, 'compass': 141.42, 'pitch': 7.86, 'roll': 3.58}
{'lipoC2': 0.0, 'temp': 0.0, 'lipoC3S3': 11.88, 'state': 'normal', 'rot1': 153, 'rot0': 142, 'rot3': 0, 'rot2': 0, 'depth': 0.47, 'yaw': 135.82, 'datetime': '2018-12-18 20:55:25.946329', 'mgs': 0, 'flw2': 2.8, 'flw1': 0.0, 'flw0': 2.76, 'time': 24.62, 'compass': 144.34, 'pitch': 7.58, 'roll': 3.74}
{'lipoC2': 0.09, 'temp': 0.0, 'lipoC3S3': 11.92, 'state': 'normal', 'rot1': 155, 'rot0': 145, 'rot3': 0, 'rot2': 0, 'depth': -1.666, 'yaw': 137.92, 'datetime': '2018-12-18 20:55:26.157033', 'mgs': 0, 'flw2': 2.91, 'flw1': 0.0, 'flw0': 2.44, 'time': 24.83, 'compass': 146.44, 'pitch': 8.5, 'roll': 3.6}
{'lipoC2': 0.04, 'temp': 0.0, 'lipoC3S3': 11.65, 'state': 'normal', 'rot1': 158, 'rot0': 146, 'rot3': 0, 'rot2': 0, 'depth': 1.309, 'yaw': 137.55, 'datetime': '2018-12-18 20:55:26.367493', 'mgs': 0, 'flw2': 0.85, 'flw1': 0.21, 'flw0': 2.51, 'time': 25.04, 'compass': 146.07, 'pitch': 9.46, 'roll': 2.52}
{'lipoC2': 0.16, 'temp': 0.0, 'lipoC3S3': 11.85, 'state': 'normal', 'rot1': 160, 'rot0': 147, 'rot3': 0, 'rot2': 0, 'depth': -0.674, 'yaw': 136.12, 'datetime': '2018-12-18 20:55:26.575674', 'mgs': 0, 'flw2': 0.54, 'flw1': 0.53, 'flw0': 2.88, 'time': 25.25, 'compass': 144.64, 'pitch': 8.26, 'roll': 2.14}
{'lipoC2': 0.16, 'temp': 0.0, 'lipoC3S3': 11.8, 'state': 'normal', 'rot1': 163, 'rot0': 149, 'rot3': 0, 'rot2': 0, 'depth': 0.47, 'yaw': 133.83, 'datetime': '2018-12-18 20:55:26.783740', 'mgs': 0, 'flw2': 0.56, 'flw1': 0.47, 'flw0': 2.78, 'time': 25.46, 'compass': 142.35, 'pitch': 7.01, 'roll': 2.08}
{'lipoC2': 0.0, 'temp': 0.0, 'lipoC3S3': 11.75, 'state': 'normal', 'rot1': 165, 'rot0': 151, 'rot3': 0, 'rot2': 0, 'depth': -1.208, 'yaw': 131.43, 'datetime': '2018-12-18 20:55:26.995290', 'mgs': 0, 'flw2': 2.87, 'flw1': 0.53, 'flw0': 2.66, 'time': 25.67, 'compass': 139.95, 'pitch': 7.43, 'roll': 2.46}
{'lipoC2': 0.0, 'temp': 0.0, 'lipoC3S3': 12.05, 'state': 'normal', 'rot1': 167, 'rot0': 153, 'rot3': 0, 'rot2': 0, 'depth': 1.309, 'yaw': 130.59, 'datetime': '2018-12-18 20:55:27.205671', 'mgs': 0, 'flw2': 2.7, 'flw1': 0.0, 'flw0': 0.84, 'time': 25.88, 'compass': 139.11, 'pitch': 9.16, 'roll': 2.78}
{'lipoC2': 0.01, 'temp': 0.0, 'lipoC3S3': 11.68, 'state': 'normal', 'rot1': 168, 'rot0': 153, 'rot3': 0, 'rot2': 0, 'depth': 1.538, 'yaw': 131.32, 'datetime': '2018-12-18 20:55:27.413101', 'mgs': 0, 'flw2': 0.63, 'flw1': 0.15, 'flw0': 0.24, 'time': 26.09, 'compass': 139.84, 'pitch': 8.96, 'roll': 3.17}
{'lipoC2': 0.0, 'temp': 0.0, 'lipoC3S3': 12.06, 'state': 'normal', 'rot1': 169, 'rot0': 154, 'rot3': 0, 'rot2': 0, 'depth': 1.538, 'yaw': 132.59, 'datetime': '2018-12-18 20:55:27.624789', 'mgs': 0, 'flw2': 0.43, 'flw1': 0.0, 'flw0': 0.51, 'time': 26.3, 'compass': 141.12, 'pitch': 6.5, 'roll': 3.84}
{'lipoC2': 0.0, 'temp': 0.0, 'lipoC3S3': 12.04, 'state': 'normal', 'rot1': 169, 'rot0': 155, 'rot3': 0, 'rot2': 0, 'depth': 1.157, 'yaw': 134.49, 'datetime': '2018-12-18 20:55:27.830461', 'mgs': 0, 'flw2': 0.0, 'flw1': 0.0, 'flw0': 0.23, 'time': 26.51, 'compass': 143.02, 'pitch': 5.19, 'roll': 4.52}
{'lipoC2': 0.0, 'temp': 0.0, 'lipoC3S3': 12.06, 'state': 'normal', 'rot1': 169, 'rot0': 155, 'rot3': 0, 'rot2': 0, 'depth': 1.462, 'yaw': 136.12, 'datetime': '2018-12-18 20:55:28.039883', 'mgs': 0, 'flw2': 0.0, 'flw1': 0.0, 'flw0': 0.18, 'time': 26.72, 'compass': 144.65, 'pitch': 6.1, 'roll': 4.67}
{'lipoC2': 0.01, 'temp': 0.0, 'lipoC3S3': 11.69, 'state': 'normal', 'rot1': 169, 'rot0': 155, 'rot3': 0, 'rot2': 0, 'depth': 1.385, 'yaw': 137.54, 'datetime': '2018-12-18 20:55:28.251181', 'mgs': 0, 'flw2': 0.17, 'flw1': 0.0, 'flw0': 0.0, 'time': 26.92, 'compass': 146.06, 'pitch': 7.14, 'roll': 3.95}
{'lipoC2': 0.13, 'temp': 0.0, 'lipoC3S3': 11.64, 'state': 'normal', 'rot1': 170, 'rot0': 155, 'rot3': 0, 'rot2': 0, 'depth': 0.012, 'yaw': 138.76, 'datetime': '2018-12-18 20:55:28.459571', 'mgs': 0, 'flw2': 3.13, 'flw1': 0.0, 'flw0': 3.5, 'time': 27.13, 'compass': 147.28, 'pitch': 7.0, 'roll': 2.87}
{'lipoC2': 0.16, 'temp': 0.0, 'lipoC3S3': 11.73, 'state': 'normal', 'rot1': 172, 'rot0': 157, 'rot3': 0, 'rot2': 0, 'depth': 0.394, 'yaw': 140.11, 'datetime': '2018-12-18 20:55:28.668663', 'mgs': 0, 'flw2': 2.76, 'flw1': 0.44, 'flw0': 2.76, 'time': 27.34, 'compass': 148.63, 'pitch': 7.93, 'roll': 2.27}
{'lipoC2': 0.03, 'temp': 0.0, 'lipoC3S3': 11.67, 'state': 'normal', 'rot1': 174, 'rot0': 159, 'rot3': 0, 'rot2': 0, 'depth': 1.462, 'yaw': 141.27, 'datetime': '2018-12-18 20:55:28.879854', 'mgs': 0, 'flw2': 0.88, 'flw1': 0.09, 'flw0': 2.49, 'time': 27.55, 'compass': 149.79, 'pitch': 9.29, 'roll': 2.31}
{'lipoC2': 0.02, 'temp': 0.0, 'lipoC3S3': 11.67, 'state': 'normal', 'rot1': 177, 'rot0': 160, 'rot3': 0, 'rot2': 0, 'depth': -0.217, 'yaw': 140.45, 'datetime': '2018-12-18 20:55:29.088571', 'mgs': 0, 'flw2': 0.88, 'flw1': 0.06, 'flw0': 2.59, 'time': 27.76, 'compass': 148.97, 'pitch': 8.84, 'roll': 2.34}
{'lipoC2': 0.0, 'temp': 0.0, 'lipoC3S3': 12.05, 'state': 'normal', 'rot1': 179, 'rot0': 161, 'rot3': 0, 'rot2': 0, 'depth': 1.385, 'yaw': 138.02, 'datetime': '2018-12-18 20:55:29.297031', 'mgs': 0, 'flw2': 0.67, 'flw1': 0.0, 'flw0': 2.92, 'time': 27.97, 'compass': 146.55, 'pitch': 8.25, 'roll': 2.17}
{'lipoC2': 0.0, 'temp': 0.0, 'lipoC3S3': 11.81, 'state': 'normal', 'rot1': 181, 'rot0': 163, 'rot3': 0, 'rot2': 0, 'depth': -0.598, 'yaw': 135.44, 'datetime': '2018-12-18 20:55:29.504588', 'mgs': 0, 'flw2': 2.71, 'flw1': 0.5, 'flw0': 2.73, 'time': 28.18, 'compass': 143.96, 'pitch': 8.75, 'roll': 2.25}
{'lipoC2': 0.0, 'temp': 0.0, 'lipoC3S3': 12.05, 'state': 'normal', 'rot1': 183, 'rot0': 166, 'rot3': 0, 'rot2': 0, 'depth': 1.233, 'yaw': 134.31, 'datetime': '2018-12-18 20:55:29.719426', 'mgs': 0, 'flw2': 2.65, 'flw1': 0.0, 'flw0': 0.9, 'time': 28.39, 'compass': 142.84, 'pitch': 10.04, 'roll': 2.7}
{'lipoC2': 0.0, 'temp': 0.0, 'lipoC3S3': 11.89, 'state': 'normal', 'rot1': 185, 'rot0': 168, 'rot3': 0, 'rot2': 0, 'depth': 0.394, 'yaw': 135.28, 'datetime': '2018-12-18 20:55:29.926138', 'mgs': 0, 'flw2': 2.49, 'flw1': 0.41, 'flw0': 0.71, 'time': 28.6, 'compass': 143.81, 'pitch': 9.89, 'roll': 3.39}
{'lipoC2': 0.0, 'temp': 0.0, 'lipoC3S3': 11.73, 'state': 'normal', 'rot1': 186, 'rot0': 170, 'rot3': 0, 'rot2': 0, 'depth': -1.285, 'yaw': 137.99, 'datetime': '2018-12-18 20:55:30.135095', 'mgs': 0, 'flw2': 2.78, 'flw1': 0.38, 'flw0': 0.59, 'time': 28.81, 'compass': 146.51, 'pitch': 9.24, 'roll': 4.08}
{'lipoC2': 0.0, 'temp': 0.0, 'lipoC3S3': 11.72, 'state': 'normal', 'rot1': 188, 'rot0': 173, 'rot3': 0, 'rot2': 0, 'depth': -1.437, 'yaw': 141.62, 'datetime': '2018-12-18 20:55:30.346540', 'mgs': 0, 'flw2': 0.65, 'flw1': 0.32, 'flw0': 2.89, 'time': 29.02, 'compass': 150.14, 'pitch': 9.43, 'roll': 4.31}
{'lipoC2': 0.0, 'temp': 0.0, 'lipoC3S3': 11.77, 'state': 'normal', 'rot1': 190, 'rot0': 174, 'rot3': 0, 'rot2': 0, 'depth': -1.056, 'yaw': 143.1, 'datetime': '2018-12-18 20:55:30.555515', 'mgs': 0, 'flw2': 0.85, 'flw1': 0.0, 'flw0': 2.86, 'time': 29.23, 'compass': 151.62, 'pitch': 9.7, 'roll': 4.0}
{'lipoC2': 0.15, 'temp': 0.0, 'lipoC3S3': 11.87, 'state': 'normal', 'rot1': 192, 'rot0': 175, 'rot3': 0, 'rot2': 0, 'depth': 1.08, 'yaw': 142.15, 'datetime': '2018-12-18 20:55:30.764761', 'mgs': 0, 'flw2': 0.93, 'flw1': 0.0, 'flw0': 2.81, 'time': 29.44, 'compass': 150.67, 'pitch': 9.54, 'roll': 3.57}
{'lipoC2': 0.13, 'temp': 0.0, 'lipoC3S3': 11.88, 'state': 'normal', 'rot1': 195, 'rot0': 177, 'rot3': 0, 'rot2': 0, 'depth': -1.285, 'yaw': 139.78, 'datetime': '2018-12-18 20:55:30.974075', 'mgs': 0, 'flw2': 0.95, 'flw1': 0.0, 'flw0': 2.61, 'time': 29.65, 'compass': 148.3, 'pitch': 9.07, 'roll': 3.16}
{'lipoC2': 0.12, 'temp': 0.0, 'lipoC3S3': 11.89, 'state': 'normal', 'rot1': 197, 'rot0': 178, 'rot3': 0, 'rot2': 0, 'depth': -1.819, 'yaw': 136.47, 'datetime': '2018-12-18 20:55:31.185119', 'mgs': 0, 'flw2': 0.93, 'flw1': 0.0, 'flw0': 2.72, 'time': 29.85, 'compass': 144.99, 'pitch': 8.84, 'roll': 2.89}
{'lipoC2': 0.06, 'temp': 0.0, 'lipoC3S3': 11.92, 'state': 'normal', 'rot1': 199, 'rot0': 180, 'rot3': 0, 'rot2': 0, 'depth': -1.971, 'yaw': 133.2, 'datetime': '2018-12-18 20:55:31.395556', 'mgs': 0, 'flw2': 2.88, 'flw1': 0.0, 'flw0': 2.67, 'time': 30.07, 'compass': 141.72, 'pitch': 9.05, 'roll': 3.12}
{'lipoC2': 0.0, 'temp': 0.0, 'lipoC3S3': 11.96, 'state': 'normal', 'rot1': 202, 'rot0': 182, 'rot3': 0, 'rot2': 0, 'depth': -1.208, 'yaw': 131.44, 'datetime': '2018-12-18 20:55:31.603079', 'mgs': 0, 'flw2': 2.38, 'flw1': 0.29, 'flw0': 0.74, 'time': 30.27, 'compass': 139.96, 'pitch': 9.81, 'roll': 3.69}
{'lipoC2': 0.0, 'temp': 0.0, 'lipoC3S3': 12.06, 'state': 'normal', 'rot1': 202, 'rot0': 183, 'rot3': 0, 'rot2': 0, 'depth': 1.462, 'yaw': 131.15, 'datetime': '2018-12-18 20:55:31.813812', 'mgs': 0, 'flw2': 0.0, 'flw1': 0.47, 'flw0': 0.0, 'time': 30.48, 'compass': 139.67, 'pitch': 9.02, 'roll': 4.13}
{'lipoC2': 0.02, 'temp': 0.0, 'lipoC3S3': 11.68, 'state': 'normal', 'rot1': 202, 'rot0': 183, 'rot3': 0, 'rot2': 0, 'depth': -0.14, 'yaw': 130.81, 'datetime': '2018-12-18 20:55:32.022350', 'mgs': 0, 'flw2': 0.0, 'flw1': 0.0, 'flw0': 0.22, 'time': 30.69, 'compass': 139.34, 'pitch': 6.95, 'roll': 4.5}
{'lipoC2': 0.17, 'temp': 0.0, 'lipoC3S3': 11.83, 'state': 'normal', 'rot1': 203, 'rot0': 184, 'rot3': 0, 'rot2': 0, 'depth': -0.903, 'yaw': 130.36, 'datetime': '2018-12-18 20:55:32.225490', 'mgs': 0, 'flw2': 0.38, 'flw1': 0.44, 'flw0': 0.33, 'time': 30.9, 'compass': 138.88, 'pitch': 6.4, 'roll': 4.98}
{'lipoC2': 0.14, 'temp': 0.0, 'lipoC3S3': 11.68, 'state': 'normal', 'rot1': 204, 'rot0': 185, 'rot3': 0, 'rot2': 0, 'depth': 0.165, 'yaw': 130.61, 'datetime': '2018-12-18 20:55:32.437393', 'mgs': 0, 'flw2': 0.35, 'flw1': 0.0, 'flw0': 0.54, 'time': 31.11, 'compass': 139.14, 'pitch': 7.46, 'roll': 5.34}
{'lipoC2': 0.0, 'temp': 0.0, 'lipoC3S3': 12.06, 'state': 'normal', 'rot1': 205, 'rot0': 186, 'rot3': 0, 'rot2': 0, 'depth': 1.462, 'yaw': 131.28, 'datetime': '2018-12-18 20:55:32.647160', 'mgs': 0, 'flw2': 0.43, 'flw1': 0.35, 'flw0': 0.18, 'time': 31.32, 'compass': 139.8, 'pitch': 8.15, 'roll': 5.33}
{'lipoC2': 0.02, 'temp': 0.0, 'lipoC3S3': 11.67, 'state': 'normal', 'rot1': 206, 'rot0': 187, 'rot3': 0, 'rot2': 0, 'depth': 1.309, 'yaw': 132.26, 'datetime': '2018-12-18 20:55:32.860460', 'mgs': 0, 'flw2': 0.44, 'flw1': 0.26, 'flw0': 0.0, 'time': 31.53, 'compass': 140.78, 'pitch': 8.0, 'roll': 5.19}
{'lipoC2': 0.0, 'temp': 0.0, 'lipoC3S3': 12.06, 'state': 'normal', 'rot1': 207, 'rot0': 188, 'rot3': 0, 'rot2': 0, 'depth': -0.751, 'yaw': 133.5, 'datetime': '2018-12-18 20:55:33.070868', 'mgs': 0, 'flw2': 0.24, 'flw1': 0.47, 'flw0': 0.32, 'time': 31.74, 'compass': 142.02, 'pitch': 7.6, 'roll': 5.14}
{'lipoC2': 0.0, 'temp': 0.0, 'lipoC3S3': 11.88, 'state': 'normal', 'rot1': 208, 'rot0': 189, 'rot3': 0, 'rot2': 0, 'depth': 0.623, 'yaw': 135.18, 'datetime': '2018-12-18 20:55:33.279492', 'mgs': 0, 'flw2': 0.56, 'flw1': 0.0, 'flw0': 0.33, 'time': 31.95, 'compass': 143.7, 'pitch': 7.46, 'roll': 5.07}
{'lipoC2': 0.16, 'temp': 0.0, 'lipoC3S3': 11.79, 'state': 'normal', 'rot1': 209, 'rot0': 190, 'rot3': 0, 'rot2': 0, 'depth': -0.827, 'yaw': 137.19, 'datetime': '2018-12-18 20:55:33.485964', 'mgs': 0, 'flw2': 0.35, 'flw1': 0.44, 'flw0': 0.26, 'time': 32.16, 'compass': 145.72, 'pitch': 7.96, 'roll': 4.62}
{'lipoC2': 0.06, 'temp': 0.0, 'lipoC3S3': 11.67, 'state': 'normal', 'rot1': 210, 'rot0': 191, 'rot3': 0, 'rot2': 0, 'depth': 1.004, 'yaw': 139.46, 'datetime': '2018-12-18 20:55:33.696195', 'mgs': 0, 'flw2': 0.43, 'flw1': 0.26, 'flw0': 0.0, 'time': 32.37, 'compass': 147.99, 'pitch': 8.8, 'roll': 3.87}
{'lipoC2': 0.0, 'temp': 0.0, 'lipoC3S3': 12.08, 'state': 'normal', 'rot1': 210, 'rot0': 191, 'rot3': 0, 'rot2': 0, 'depth': 1.462, 'yaw': 141.79, 'datetime': '2018-12-18 20:55:33.911021', 'mgs': 0, 'flw2': 0.0, 'flw1': 0.5, 'flw0': 0.0, 'time': 32.58, 'compass': 150.31, 'pitch': 8.82, 'roll': 3.27}
{'lipoC2': 0.15, 'temp': 0.0, 'lipoC3S3': 11.71, 'state': 'normal', 'rot1': 210, 'rot0': 191, 'rot3': 0, 'rot2': 0, 'depth': 0.546, 'yaw': 143.7, 'datetime': '2018-12-18 20:55:34.121105', 'mgs': 0, 'flw2': 3.3, 'flw1': 0.21, 'flw0': 2.94, 'time': 32.79, 'compass': 152.22, 'pitch': 8.08, 'roll': 3.14}
{'lipoC2': 0.17, 'temp': 0.0, 'lipoC3S3': 11.75, 'state': 'normal', 'rot1': 212, 'rot0': 194, 'rot3': 0, 'rot2': 0, 'depth': 0.394, 'yaw': 145.32, 'datetime': '2018-12-18 20:55:34.327356', 'mgs': 0, 'flw2': 2.65, 'flw1': 0.0, 'flw0': 3.03, 'time': 32.99, 'compass': 153.84, 'pitch': 9.59, 'roll': 3.16}
{'lipoC2': 0.0, 'temp': 0.0, 'lipoC3S3': 11.94, 'state': 'normal', 'rot1': 215, 'rot0': 196, 'rot3': 0, 'rot2': 0, 'depth': 0.699, 'yaw': 146.44, 'datetime': '2018-12-18 20:55:34.534150', 'mgs': 0, 'flw2': 2.36, 'flw1': 0.5, 'flw0': 2.84, 'time': 33.2, 'compass': 154.97, 'pitch': 12.29, 'roll': 2.96}
{'lipoC2': 0.03, 'temp': 0.0, 'lipoC3S3': 11.67, 'state': 'normal', 'rot1': 217, 'rot0': 198, 'rot3': 0, 'rot2': 0, 'depth': 0.165, 'yaw': 147.19, 'datetime': '2018-12-18 20:55:34.745254', 'mgs': 0, 'flw2': 0.88, 'flw1': 0.0, 'flw0': 2.69, 'time': 33.41, 'compass': 155.72, 'pitch': 13.03, 'roll': 2.82}
{'lipoC2': 0.15, 'temp': 0.0, 'lipoC3S3': 11.87, 'state': 'normal', 'rot1': 219, 'rot0': 199, 'rot3': 0, 'rot2': 0, 'depth': -1.819, 'yaw': 146.57, 'datetime': '2018-12-18 20:55:34.952695', 'mgs': 0, 'flw2': 0.89, 'flw1': 0.0, 'flw0': 2.83, 'time': 33.62, 'compass': 155.1, 'pitch': 11.51, 'roll': 3.08}
{'lipoC2': 0.15, 'temp': 0.0, 'lipoC3S3': 11.73, 'state': 'normal', 'rot1': 222, 'rot0': 200, 'rot3': 0, 'rot2': 0, 'depth': 0.546, 'yaw': 144.68, 'datetime': '2018-12-18 20:55:35.165868', 'mgs': 0, 'flw2': 0.77, 'flw1': 0.0, 'flw0': 2.88, 'time': 33.83, 'compass': 153.21, 'pitch': 10.25, 'roll': 3.29}
{'lipoC2': 0.05, 'temp': 0.0, 'lipoC3S3': 11.67, 'state': 'normal', 'rot1': 224, 'rot0': 202, 'rot3': 0, 'rot2': 0, 'depth': 1.157, 'yaw': 141.67, 'datetime': '2018-12-18 20:55:35.376039', 'mgs': 0, 'flw2': 3.04, 'flw1': 0.0, 'flw0': 2.45, 'time': 34.04, 'compass': 150.19, 'pitch': 10.8, 'roll': 3.33}
{'lipoC2': 0.0, 'temp': 0.0, 'lipoC3S3': 11.77, 'state': 'normal', 'rot1': 227, 'rot0': 204, 'rot3': 0, 'rot2': 0, 'depth': -0.293, 'yaw': 139.35, 'datetime': '2018-12-18 20:55:35.583109', 'mgs': 0, 'flw2': 2.7, 'flw1': 0.0, 'flw0': 2.82, 'time': 34.25, 'compass': 147.88, 'pitch': 12.31, 'roll': 3.61}
{'lipoC2': 0.0, 'temp': 0.0, 'lipoC3S3': 12.09, 'state': 'normal', 'rot1': 230, 'rot0': 206, 'rot3': 0, 'rot2': 0, 'depth': -0.98, 'yaw': 138.23, 'datetime': '2018-12-18 20:55:35.791425', 'mgs': 0, 'flw2': 2.84, 'flw1': 0.38, 'flw0': 2.54, 'time': 34.46, 'compass': 146.75, 'pitch': 12.94, 'roll': 4.0}
{'lipoC2': 0.15, 'temp': 0.0, 'lipoC3S3': 11.87, 'state': 'normal', 'rot1': 232, 'rot0': 208, 'rot3': 0, 'rot2': 0, 'depth': -1.056, 'yaw': 137.54, 'datetime': '2018-12-18 20:55:36.001030', 'mgs': 0, 'flw2': 2.83, 'flw1': 0.0, 'flw0': 0.61, 'time': 34.67, 'compass': 146.06, 'pitch': 12.71, 'roll': 4.47}
{'lipoC2': 0.17, 'temp': 0.0, 'lipoC3S3': 11.8, 'state': 'normal', 'rot1': 233, 'rot0': 211, 'rot3': 0, 'rot2': 0, 'depth': 0.851, 'yaw': 137.97, 'datetime': '2018-12-18 20:55:36.210647', 'mgs': 0, 'flw2': 2.69, 'flw1': 0.0, 'flw0': 0.94, 'time': 34.88, 'compass': 146.49, 'pitch': 11.58, 'roll': 4.9}
{'lipoC2': 0.04, 'temp': 0.0, 'lipoC3S3': 11.67, 'state': 'normal', 'rot1': 235, 'rot0': 213, 'rot3': 0, 'rot2': 0, 'depth': 1.462, 'yaw': 139.67, 'datetime': '2018-12-18 20:55:36.420839', 'mgs': 0, 'flw2': 2.66, 'flw1': 0.0, 'flw0': 1.01, 'time': 35.09, 'compass': 148.19, 'pitch': 10.46, 'roll': 5.12}
{'lipoC2': 0.0, 'temp': 0.0, 'lipoC3S3': 12.08, 'state': 'normal', 'rot1': 236, 'rot0': 215, 'rot3': 0, 'rot2': 0, 'depth': 1.691, 'yaw': 142.23, 'datetime': '2018-12-18 20:55:36.632181', 'mgs': 0, 'flw2': 2.49, 'flw1': 0.0, 'flw0': 3.16, 'time': 35.3, 'compass': 150.75, 'pitch': 10.49, 'roll': 5.28}
{'lipoC2': 0.0, 'temp': 0.0, 'lipoC3S3': 12.08, 'state': 'normal', 'rot1': 238, 'rot0': 218, 'rot3': 0, 'rot2': 0, 'depth': 1.614, 'yaw': 143.95, 'datetime': '2018-12-18 20:55:36.839621', 'mgs': 0, 'flw2': 2.78, 'flw1': 0.09, 'flw0': 2.51, 'time': 35.51, 'compass': 152.47, 'pitch': 11.79, 'roll': 5.15}
{'lipoC2': 0.16, 'temp': 0.0, 'lipoC3S3': 11.85, 'state': 'normal', 'rot1': 241, 'rot0': 220, 'rot3': 0, 'rot2': 0, 'depth': 1.767, 'yaw': 144.81, 'datetime': '2018-12-18 20:55:37.052730', 'mgs': 0, 'flw2': 2.7, 'flw1': 0.5, 'flw0': 2.69, 'time': 35.71, 'compass': 153.33, 'pitch': 12.76, 'roll': 4.68}
{'lipoC2': 0.18, 'temp': 0.0, 'lipoC3S3': 11.8, 'state': 'normal', 'rot1': 243, 'rot0': 222, 'rot3': 0, 'rot2': 0, 'depth': 0.928, 'yaw': 145.31, 'datetime': '2018-12-18 20:55:37.262761', 'mgs': 0, 'flw2': 2.72, 'flw1': 0.44, 'flw0': 2.69, 'time': 35.92, 'compass': 153.83, 'pitch': 12.41, 'roll': 4.02}
{'lipoC2': 0.0, 'temp': 0.0, 'lipoC3S3': 12.01, 'state': 'normal', 'rot1': 244, 'rot0': 223, 'rot3': 0, 'rot2': 0, 'depth': 1.157, 'yaw': 145.69, 'datetime': '2018-12-18 20:55:37.472327', 'mgs': 0, 'flw2': 0.0, 'flw1': 0.0, 'flw0': 0.2, 'time': 36.13, 'compass': 154.22, 'pitch': 11.15, 'roll': 3.51}
{'lipoC2': 0.12, 'temp': 0.0, 'lipoC3S3': 11.89, 'state': 'normal', 'rot1': 244, 'rot0': 223, 'rot3': 0, 'rot2': 0, 'depth': -1.514, 'yaw': 146.28, 'datetime': '2018-12-18 20:55:37.681157', 'mgs': 0, 'flw2': 0.12, 'flw1': 0.0, 'flw0': 0.0, 'time': 36.34, 'compass': 154.8, 'pitch': 9.06, 'roll': 3.47}
{'lipoC2': 0.0, 'temp': 0.0, 'lipoC3S3': 12.05, 'state': 'normal', 'rot1': 244, 'rot0': 223, 'rot3': 0, 'rot2': 0, 'depth': 1.538, 'yaw': 147.0, 'datetime': '2018-12-18 20:55:37.886538', 'mgs': 0, 'flw2': 0.0, 'flw1': 0.0, 'flw0': 0.06, 'time': 36.55, 'compass': 155.52, 'pitch': 8.33, 'roll': 3.67}
{'lipoC2': 0.09, 'temp': 0.0, 'lipoC3S3': 11.94, 'state': 'normal', 'rot1': 244, 'rot0': 223, 'rot3': 0, 'rot2': 0, 'depth': -1.971, 'yaw': 147.7, 'datetime': '2018-12-18 20:55:38.095962', 'mgs': 0, 'flw2': 0.0, 'flw1': 0.23, 'flw0': 0.09, 'time': 36.76, 'compass': 156.22, 'pitch': 8.92, 'roll': 3.69}
{'lipoC2': 0.12, 'temp': 0.0, 'lipoC3S3': 11.72, 'state': 'normal', 'rot1': 244, 'rot0': 223, 'rot3': 0, 'rot2': 0, 'depth': 0.165, 'yaw': 148.38, 'datetime': '2018-12-18 20:55:38.306084', 'mgs': 0, 'flw2': 0.12, 'flw1': 0.0, 'flw0': 0.11, 'time': 36.97, 'compass': 156.9, 'pitch': 9.82, 'roll': 3.58}
{'lipoC2': 0.0, 'temp': 0.0, 'lipoC3S3': 11.89, 'state': 'normal', 'rot1': 244, 'rot0': 223, 'rot3': 0, 'rot2': 0, 'depth': 0.394, 'yaw': 149.08, 'datetime': '2018-12-18 20:55:38.515802', 'mgs': 0, 'flw2': 0.16, 'flw1': 0.0, 'flw0': 0.0, 'time': 37.18, 'compass': 157.61, 'pitch': 10.27, 'roll': 3.51}
{'lipoC2': 0.0, 'temp': 0.0, 'lipoC3S3': 11.81, 'state': 'normal', 'rot1': 244, 'rot0': 223, 'rot3': 0, 'rot2': 0, 'depth': 1.233, 'yaw': 149.83, 'datetime': '2018-12-18 20:55:38.724207', 'mgs': 0, 'flw2': 0.0, 'flw1': 0.41, 'flw0': 0.0, 'time': 37.39, 'compass': 158.35, 'pitch': 9.96, 'roll': 3.37}
{'lipoC2': 0.06, 'temp': 0.0, 'lipoC3S3': 11.67, 'state': 'normal', 'rot1': 244, 'rot0': 223, 'rot3': 0, 'rot2': 0, 'depth': 0.012, 'yaw': 150.6, 'datetime': '2018-12-18 20:55:38.936697', 'mgs': 0, 'flw2': 0.0, 'flw1': 0.44, 'flw0': 0.0, 'time': 37.6, 'compass': 159.12, 'pitch': 9.77, 'roll': 3.25}
{'lipoC2': 0.0, 'temp': 0.0, 'lipoC3S3': 11.87, 'state': 'normal', 'rot1': 244, 'rot0': 223, 'rot3': 0, 'rot2': 0, 'depth': 0.928, 'yaw': 151.46, 'datetime': '2018-12-18 20:55:39.149361', 'mgs': 0, 'flw2': 0.2, 'flw1': 0.0, 'flw0': 0.0, 'time': 37.81, 'compass': 159.98, 'pitch': 10.23, 'roll': 3.31}
{'lipoC2': 0.0, 'temp': 0.0, 'lipoC3S3': 11.83, 'state': 'normal', 'rot1': 244, 'rot0': 223, 'rot3': 0, 'rot2': 0, 'depth': -1.056, 'yaw': 152.35, 'datetime': '2018-12-18 20:55:39.354279', 'mgs': 0, 'flw2': 0.0, 'flw1': 0.38, 'flw0': 0.0, 'time': 38.01, 'compass': 160.87, 'pitch': 10.58, 'roll': 3.27}
{'lipoC2': 0.15, 'temp': 0.0, 'lipoC3S3': 11.87, 'state': 'normal', 'rot1': 244, 'rot0': 223, 'rot3': 0, 'rot2': 0, 'depth': -0.98, 'yaw': 153.19, 'datetime': '2018-12-18 20:55:39.562904', 'mgs': 0, 'flw2': 0.2, 'flw1': 0.0, 'flw0': 0.0, 'time': 38.22, 'compass': 161.71, 'pitch': 10.44, 'roll': 3.11}
{'lipoC2': 0.0, 'temp': 0.0, 'lipoC3S3': 11.81, 'state': 'normal', 'rot1': 244, 'rot0': 223, 'rot3': 0, 'rot2': 0, 'depth': -0.598, 'yaw': 154.02, 'datetime': '2018-12-18 20:55:39.770924', 'mgs': 0, 'flw2': 0.0, 'flw1': 0.44, 'flw0': 0.0, 'time': 38.43, 'compass': 162.54, 'pitch': 10.37, 'roll': 2.96}
{'lipoC2': 0.0, 'temp': 0.0, 'lipoC3S3': 11.89, 'state': 'normal', 'rot1': 244, 'rot0': 223, 'rot3': 0, 'rot2': 0, 'depth': -0.064, 'yaw': 154.86, 'datetime': '2018-12-18 20:55:39.981854', 'mgs': 0, 'flw2': 0.21, 'flw1': 0.0, 'flw0': 0.0, 'time': 38.64, 'compass': 163.39, 'pitch': 10.59, 'roll': 2.81}
{'lipoC2': 0.0, 'temp': 0.0, 'lipoC3S3': 12.05, 'state': 'normal', 'rot1': 244, 'rot0': 223, 'rot3': 0, 'rot2': 0, 'depth': -0.369, 'yaw': 155.7, 'datetime': '2018-12-18 20:55:40.191261', 'mgs': 0, 'flw2': 0.0, 'flw1': 0.0, 'flw0': 0.16, 'time': 38.85, 'compass': 164.23, 'pitch': 10.86, 'roll': 2.64}
{'lipoC2': 0.14, 'temp': 0.0, 'lipoC3S3': 11.76, 'state': 'normal', 'rot1': 244, 'rot0': 223, 'rot3': 0, 'rot2': 0, 'depth': 0.317, 'yaw': 156.46, 'datetime': '2018-12-18 20:55:40.404613', 'mgs': 0, 'flw2': 0.0, 'flw1': 0.47, 'flw0': 0.0, 'time': 39.06, 'compass': 164.98, 'pitch': 10.93, 'roll': 2.5}
{'lipoC2': 0.0, 'temp': 0.0, 'lipoC3S3': 11.81, 'state': 'normal', 'rot1': 244, 'rot0': 223, 'rot3': 0, 'rot2': 0, 'depth': 1.08, 'yaw': 157.22, 'datetime': '2018-12-18 20:55:40.612138', 'mgs': 0, 'flw2': 0.0, 'flw1': 0.47, 'flw0': 0.0, 'time': 39.27, 'compass': 165.74, 'pitch': 10.8, 'roll': 2.35}
{'lipoC2': 0.14, 'temp': 0.0, 'lipoC3S3': 11.76, 'state': 'normal', 'rot1': 244, 'rot0': 223, 'rot3': 0, 'rot2': 0, 'depth': 0.546, 'yaw': 157.9, 'datetime': '2018-12-18 20:55:40.820138', 'mgs': 0, 'flw2': 0.05, 'flw1': 0.0, 'flw0': 0.16, 'time': 39.48, 'compass': 166.42, 'pitch': 10.84, 'roll': 2.28}
{'lipoC2': 0.15, 'temp': 0.0, 'lipoC3S3': 11.87, 'state': 'normal', 'rot1': 244, 'rot0': 223, 'rot3': 0, 'rot2': 0, 'depth': 0.851, 'yaw': 158.58, 'datetime': '2018-12-18 20:55:41.030269', 'mgs': 0, 'flw2': 0.18, 'flw1': 0.0, 'flw0': 0.0, 'time': 39.69, 'compass': 167.1, 'pitch': 11.04, 'roll': 2.38}
{'lipoC2': 0.09, 'temp': 0.0, 'lipoC3S3': 11.65, 'state': 'normal', 'rot1': 244, 'rot0': 223, 'rot3': 0, 'rot2': 0, 'depth': 0.012, 'yaw': 159.2, 'datetime': '2018-12-18 20:55:41.236923', 'mgs': 0, 'flw2': 0.0, 'flw1': 0.41, 'flw0': 0.0, 'time': 39.9, 'compass': 167.73, 'pitch': 11.24, 'roll': 2.31}
{'lipoC2': 0.13, 'temp': 0.0, 'lipoC3S3': 11.88, 'state': 'normal', 'rot1': 244, 'rot0': 223, 'rot3': 0, 'rot2': 0, 'depth': 1.233, 'yaw': 159.72, 'datetime': '2018-12-18 20:55:41.449088', 'mgs': 0, 'flw2': 0.18, 'flw1': 0.0, 'flw0': 0.0, 'time': 40.1, 'compass': 168.25, 'pitch': 11.53, 'roll': 2.04}
{'lipoC2': 0.04, 'temp': 0.0, 'lipoC3S3': 11.65, 'state': 'normal', 'rot1': 244, 'rot0': 223, 'rot3': 0, 'rot2': 0, 'depth': -0.217, 'yaw': 160.28, 'datetime': '2018-12-18 20:55:41.657457', 'mgs': 0, 'flw2': 0.15, 'flw1': 0.12, 'flw0': 0.0, 'time': 40.31, 'compass': 168.8, 'pitch': 11.29, 'roll': 1.92}
{'lipoC2': 0.17, 'temp': 0.0, 'lipoC3S3': 11.76, 'state': 'normal', 'rot1': 244, 'rot0': 223, 'rot3': 0, 'rot2': 0, 'depth': 0.47, 'yaw': 160.84, 'datetime': '2018-12-18 20:55:41.870595', 'mgs': 0, 'flw2': 0.0, 'flw1': 0.53, 'flw0': 0.0, 'time': 40.53, 'compass': 169.36, 'pitch': 10.57, 'roll': 2.05}
{'lipoC2': 0.05, 'temp': 0.0, 'lipoC3S3': 11.94, 'state': 'normal', 'rot1': 244, 'rot0': 223, 'rot3': 0, 'rot2': 0, 'depth': -2.048, 'yaw': 161.39, 'datetime': '2018-12-18 20:55:42.075896', 'mgs': 0, 'flw2': 0.16, 'flw1': 0.06, 'flw0': 0.0, 'time': 40.73, 'compass': 169.91, 'pitch': 10.85, 'roll': 2.12}
{'lipoC2': 0.08, 'temp': 0.0, 'lipoC3S3': 11.87, 'state': 'normal', 'rot1': 244, 'rot0': 223, 'rot3': 0, 'rot2': 0, 'depth': 1.843, 'yaw': 161.99, 'datetime': '2018-12-18 20:55:42.285309', 'mgs': 0, 'flw2': 0.0, 'flw1': 0.0, 'flw0': 0.2, 'time': 40.94, 'compass': 170.51, 'pitch': 11.93, 'roll': 2.03}
{'lipoC2': 0.0, 'temp': 0.0, 'lipoC3S3': 12.13, 'state': 'normal', 'rot1': 245, 'rot0': 223, 'rot3': 0, 'rot2': 0, 'depth': 1.385, 'yaw': 162.54, 'datetime': '2018-12-18 20:55:42.492597', 'mgs': 0, 'flw2': 0.79, 'flw1': 0.0, 'flw0': 0.06, 'time': 41.15, 'compass': 171.06, 'pitch': 12.26, 'roll': 1.78}
{'lipoC2': 0.0, 'temp': 0.0, 'lipoC3S3': 11.77, 'state': 'normal', 'rot1': 246, 'rot0': 224, 'rot3': 0, 'rot2': 0, 'depth': 0.623, 'yaw': 164.2, 'datetime': '2018-12-18 20:55:42.702224', 'mgs': 0, 'flw2': 0.52, 'flw1': 0.29, 'flw0': 0.2, 'time': 41.36, 'compass': 172.72, 'pitch': 11.41, 'roll': 1.69}
{'lipoC2': 0.0, 'temp': 0.0, 'lipoC3S3': 12.02, 'state': 'normal', 'rot1': 248, 'rot0': 226, 'rot3': 0, 'rot2': 0, 'depth': 1.538, 'yaw': 166.82, 'datetime': '2018-12-18 20:55:42.912362', 'mgs': 0, 'flw2': 0.35, 'flw1': 0.79, 'flw0': 0.32, 'time': 41.57, 'compass': 175.35, 'pitch': 10.88, 'roll': 1.68}
{'lipoC2': 0.18, 'temp': 0.0, 'lipoC3S3': 11.81, 'state': 'normal', 'rot1': 250, 'rot0': 227, 'rot3': 0, 'rot2': 0, 'depth': -2.429, 'yaw': 170.03, 'datetime': '2018-12-18 20:55:43.120685', 'mgs': 0, 'flw2': 0.6, 'flw1': 0.15, 'flw0': 0.1, 'time': 41.78, 'compass': 178.56, 'pitch': 11.71, 'roll': 1.36}
{'lipoC2': 0.21, 'temp': 0.0, 'lipoC3S3': 11.73, 'state': 'normal', 'rot1': 251, 'rot0': 227, 'rot3': 0, 'rot2': 0, 'depth': -1.819, 'yaw': 173.65, 'datetime': '2018-12-18 20:55:43.332767', 'mgs': 0, 'flw2': 0.61, 'flw1': 0.18, 'flw0': 0.0, 'time': 41.99, 'compass': -177.83, 'pitch': 12.61, 'roll': 0.57}
{'lipoC2': 0.05, 'temp': 0.0, 'lipoC3S3': 11.64, 'state': 'normal', 'rot1': 252, 'rot0': 228, 'rot3': 0, 'rot2': 0, 'depth': 1.08, 'yaw': 177.62, 'datetime': '2018-12-18 20:55:43.541071', 'mgs': 0, 'flw2': 0.49, 'flw1': 0.15, 'flw0': 0.0, 'time': 42.2, 'compass': -173.86, 'pitch': 12.12, 'roll': -0.31}
{'lipoC2': 0.17, 'temp': 0.0, 'lipoC3S3': 11.76, 'state': 'normal', 'rot1': 253, 'rot0': 230, 'rot3': 0, 'rot2': 0, 'depth': -0.903, 'yaw': -178.33, 'datetime': '2018-12-18 20:55:43.750731', 'mgs': 0, 'flw2': 0.32, 'flw1': 0.0, 'flw0': 0.0, 'time': 42.41, 'compass': -169.8, 'pitch': 11.27, 'roll': -1.15}
{'lipoC2': 0.0, 'temp': 0.0, 'lipoC3S3': 11.84, 'state': 'normal', 'rot1': 254, 'rot0': 231, 'rot3': 0, 'rot2': 0, 'depth': -0.293, 'yaw': -173.88, 'datetime': '2018-12-18 20:55:43.964230', 'mgs': 0, 'flw2': 0.2, 'flw1': 0.53, 'flw0': 0.35, 'time': 42.62, 'compass': -165.36, 'pitch': 11.21, 'roll': -2.03}
{'lipoC2': 0.13, 'temp': 0.0, 'lipoC3S3': 11.88, 'state': 'normal', 'rot1': 256, 'rot0': 232, 'rot3': 0, 'rot2': 0, 'depth': 1.385, 'yaw': -169.21, 'datetime': '2018-12-18 20:55:44.173133', 'mgs': 0, 'flw2': 0.56, 'flw1': 0.0, 'flw0': 0.22, 'time': 42.83, 'compass': -160.69, 'pitch': 11.57, 'roll': -2.84}
