{'lipoC2': 7.59, 'temp': 33.56, 'lipoC3S3': 12.05, 'state': 'normal', 'rot1': 18, 'rot0': 17, 'rot3': 0, 'rot2': 0, 'depth': -0.14, 'yaw': 0.0, 'datetime': '2018-12-10 15:24:04.731943', 'mgs': 0, 'flw2': 1.26, 'flw1': 0.0, 'flw0': 1.23, 'time': 1.26, 'compass': -56.2, 'pitch': -3.22, 'roll': 0.79}
{'lipoC2': 7.59, 'temp': 33.56, 'lipoC3S3': 12.05, 'state': 'normal', 'rot1': 22, 'rot0': 21, 'rot3': 0, 'rot2': 0, 'depth': -0.217, 'yaw': -0.0, 'datetime': '2018-12-10 15:24:04.940149', 'mgs': 0, 'flw2': 1.16, 'flw1': 0.0, 'flw0': 1.18, 'time': 1.47, 'compass': -56.2, 'pitch': -3.23, 'roll': 0.79}
{'lipoC2': 7.59, 'temp': 33.56, 'lipoC3S3': 12.05, 'state': 'normal', 'rot1': 26, 'rot0': 24, 'rot3': 0, 'rot2': 0, 'depth': -0.293, 'yaw': -0.0, 'datetime': '2018-12-10 15:24:05.150499', 'mgs': 0, 'flw2': 1.22, 'flw1': 0.0, 'flw0': 1.23, 'time': 1.68, 'compass': -56.2, 'pitch': -3.23, 'roll': 0.79}
{'lipoC2': 7.59, 'temp': 33.63, 'lipoC3S3': 12.05, 'state': 'normal', 'rot1': 29, 'rot0': 28, 'rot3': 0, 'rot2': 0, 'depth': 0.012, 'yaw': -0.0, 'datetime': '2018-12-10 15:24:05.361240', 'mgs': 0, 'flw2': 1.25, 'flw1': 0.0, 'flw0': 1.16, 'time': 1.89, 'compass': -56.2, 'pitch': -3.23, 'roll': 0.79}
{'lipoC2': 7.59, 'temp': 33.56, 'lipoC3S3': 12.05, 'state': 'normal', 'rot1': 33, 'rot0': 32, 'rot3': 0, 'rot2': 0, 'depth': 0.165, 'yaw': -0.0, 'datetime': '2018-12-10 15:24:05.570849', 'mgs': 0, 'flw2': 1.28, 'flw1': 0.0, 'flw0': 1.18, 'time': 2.1, 'compass': -56.2, 'pitch': -3.23, 'roll': 0.79}
{'lipoC2': 7.59, 'temp': 33.56, 'lipoC3S3': 12.06, 'state': 'normal', 'rot1': 36, 'rot0': 35, 'rot3': 0, 'rot2': 0, 'depth': 0.47, 'yaw': 0.01, 'datetime': '2018-12-10 15:24:05.781328', 'mgs': 0, 'flw2': 1.21, 'flw1': 0.0, 'flw0': 1.16, 'time': 2.31, 'compass': -56.19, 'pitch': -3.23, 'roll': 0.78}
{'lipoC2': 7.59, 'temp': 33.56, 'lipoC3S3': 12.04, 'state': 'normal', 'rot1': 40, 'rot0': 39, 'rot3': 0, 'rot2': 0, 'depth': -0.14, 'yaw': 0.01, 'datetime': '2018-12-10 15:24:05.990816', 'mgs': 0, 'flw2': 1.1, 'flw1': 0.0, 'flw0': 1.21, 'time': 2.52, 'compass': -56.19, 'pitch': -3.23, 'roll': 0.79}
{'lipoC2': 7.59, 'temp': 33.56, 'lipoC3S3': 12.05, 'state': 'normal', 'rot1': 44, 'rot0': 43, 'rot3': 0, 'rot2': 0, 'depth': -0.14, 'yaw': 0.01, 'datetime': '2018-12-10 15:24:06.199449', 'mgs': 0, 'flw2': 1.2, 'flw1': 0.0, 'flw0': 1.14, 'time': 2.73, 'compass': -56.19, 'pitch': -3.23, 'roll': 0.78}
{'lipoC2': 7.59, 'temp': 33.56, 'lipoC3S3': 12.05, 'state': 'normal', 'rot1': 48, 'rot0': 46, 'rot3': 0, 'rot2': 0, 'depth': -0.14, 'yaw': 0.01, 'datetime': '2018-12-10 15:24:06.410031', 'mgs': 0, 'flw2': 1.21, 'flw1': 0.0, 'flw0': 1.2, 'time': 2.94, 'compass': -56.19, 'pitch': -3.23, 'roll': 0.78}
{'lipoC2': 7.59, 'temp': 33.56, 'lipoC3S3': 11.98, 'state': 'normal', 'rot1': 51, 'rot0': 50, 'rot3': 0, 'rot2': 0, 'depth': -0.14, 'yaw': 0.01, 'datetime': '2018-12-10 15:24:06.620593', 'mgs': 0, 'flw2': 1.16, 'flw1': 0.0, 'flw0': 1.2, 'time': 3.15, 'compass': -56.19, 'pitch': -3.23, 'roll': 0.78}
{'lipoC2': 7.59, 'temp': 33.56, 'lipoC3S3': 12.04, 'state': 'normal', 'rot1': 55, 'rot0': 53, 'rot3': 0, 'rot2': 0, 'depth': -0.14, 'yaw': 0.01, 'datetime': '2018-12-10 15:24:06.829612', 'mgs': 0, 'flw2': 1.14, 'flw1': 0.0, 'flw0': 1.22, 'time': 3.36, 'compass': -56.19, 'pitch': -3.23, 'roll': 0.78}
{'lipoC2': 7.59, 'temp': 33.63, 'lipoC3S3': 12.05, 'state': 'normal', 'rot1': 59, 'rot0': 57, 'rot3': 0, 'rot2': 0, 'depth': 0.394, 'yaw': 0.01, 'datetime': '2018-12-10 15:24:07.040943', 'mgs': 0, 'flw2': 1.28, 'flw1': 0.0, 'flw0': 1.18, 'time': 3.57, 'compass': -56.19, 'pitch': -3.23, 'roll': 0.78}
{'lipoC2': 7.59, 'temp': 33.56, 'lipoC3S3': 12.05, 'state': 'normal', 'rot1': 62, 'rot0': 61, 'rot3': 0, 'rot2': 0, 'depth': 0.394, 'yaw': -0.0, 'datetime': '2018-12-10 15:24:07.250552', 'mgs': 0, 'flw2': 1.26, 'flw1': 0.0, 'flw0': 1.21, 'time': 3.78, 'compass': -56.2, 'pitch': -3.23, 'roll': 0.79}
{'lipoC2': 7.59, 'temp': 33.56, 'lipoC3S3': 12.05, 'state': 'normal', 'rot1': 66, 'rot0': 65, 'rot3': 0, 'rot2': 0, 'depth': 0.546, 'yaw': -0.0, 'datetime': '2018-12-10 15:24:07.460502', 'mgs': 0, 'flw2': 1.23, 'flw1': 0.0, 'flw0': 1.25, 'time': 3.99, 'compass': -56.2, 'pitch': -3.23, 'roll': 0.81}
{'lipoC2': 7.59, 'temp': 33.56, 'lipoC3S3': 12.06, 'state': 'normal', 'rot1': 70, 'rot0': 68, 'rot3': 0, 'rot2': 0, 'depth': -0.14, 'yaw': -0.0, 'datetime': '2018-12-10 15:24:07.671859', 'mgs': 0, 'flw2': 1.26, 'flw1': 0.0, 'flw0': 1.17, 'time': 4.2, 'compass': -56.2, 'pitch': -3.24, 'roll': 0.8}
{'lipoC2': 7.59, 'temp': 33.56, 'lipoC3S3': 12.06, 'state': 'normal', 'rot1': 74, 'rot0': 72, 'rot3': 0, 'rot2': 0, 'depth': -0.217, 'yaw': -0.0, 'datetime': '2018-12-10 15:24:07.881327', 'mgs': 0, 'flw2': 1.2, 'flw1': 0.0, 'flw0': 1.32, 'time': 4.41, 'compass': -56.2, 'pitch': -3.24, 'roll': 0.8}
{'lipoC2': 7.59, 'temp': 33.56, 'lipoC3S3': 11.96, 'state': 'normal', 'rot1': 77, 'rot0': 75, 'rot3': 0, 'rot2': 0, 'depth': -0.217, 'yaw': 0.01, 'datetime': '2018-12-10 15:24:08.091741', 'mgs': 0, 'flw2': 1.16, 'flw1': 0.0, 'flw0': 1.14, 'time': 4.62, 'compass': -56.19, 'pitch': -3.25, 'roll': 0.8}
{'lipoC2': 7.58, 'temp': 33.56, 'lipoC3S3': 12.05, 'state': 'normal', 'rot1': 81, 'rot0': 79, 'rot3': 0, 'rot2': 0, 'depth': -0.217, 'yaw': 0.01, 'datetime': '2018-12-10 15:24:08.302584', 'mgs': 0, 'flw2': 1.22, 'flw1': 0.0, 'flw0': 1.29, 'time': 4.83, 'compass': -56.19, 'pitch': -3.25, 'roll': 0.8}
{'lipoC2': 7.59, 'temp': 33.56, 'lipoC3S3': 12.05, 'state': 'normal', 'rot1': 85, 'rot0': 83, 'rot3': 0, 'rot2': 0, 'depth': -0.217, 'yaw': 0.01, 'datetime': '2018-12-10 15:24:08.511872', 'mgs': 0, 'flw2': 1.15, 'flw1': 0.0, 'flw0': 1.27, 'time': 5.04, 'compass': -56.19, 'pitch': -3.25, 'roll': 0.81}
{'lipoC2': 7.59, 'temp': 33.56, 'lipoC3S3': 12.08, 'state': 'normal', 'rot1': 88, 'rot0': 87, 'rot3': 0, 'rot2': 0, 'depth': -0.14, 'yaw': 0.01, 'datetime': '2018-12-10 15:24:08.722096', 'mgs': 0, 'flw2': 1.2, 'flw1': 0.0, 'flw0': 1.17, 'time': 5.25, 'compass': -56.19, 'pitch': -3.25, 'roll': 0.81}
{'lipoC2': 7.59, 'temp': 33.56, 'lipoC3S3': 12.0, 'state': 'normal', 'rot1': 92, 'rot0': 90, 'rot3': 0, 'rot2': 0, 'depth': -0.14, 'yaw': 0.01, 'datetime': '2018-12-10 15:24:08.932932', 'mgs': 0, 'flw2': 1.16, 'flw1': 0.0, 'flw0': 1.22, 'time': 5.46, 'compass': -56.19, 'pitch': -3.25, 'roll': 0.81}
{'lipoC2': 7.59, 'temp': 33.56, 'lipoC3S3': 12.02, 'state': 'normal', 'rot1': 96, 'rot0': 94, 'rot3': 0, 'rot2': 0, 'depth': -0.217, 'yaw': 0.01, 'datetime': '2018-12-10 15:24:09.143123', 'mgs': 0, 'flw2': 1.2, 'flw1': 0.0, 'flw0': 1.2, 'time': 5.68, 'compass': -56.19, 'pitch': -3.25, 'roll': 0.81}
{'lipoC2': 7.59, 'temp': 33.56, 'lipoC3S3': 12.0, 'state': 'normal', 'rot1': 99, 'rot0': 97, 'rot3': 0, 'rot2': 0, 'depth': -0.217, 'yaw': 0.01, 'datetime': '2018-12-10 15:24:09.352895', 'mgs': 0, 'flw2': 1.17, 'flw1': 0.0, 'flw0': 1.16, 'time': 5.88, 'compass': -56.19, 'pitch': -3.25, 'roll': 0.8}
{'lipoC2': 7.59, 'temp': 33.63, 'lipoC3S3': 12.05, 'state': 'normal', 'rot1': 103, 'rot0': 101, 'rot3': 0, 'rot2': 0, 'depth': -0.14, 'yaw': 0.01, 'datetime': '2018-12-10 15:24:09.565275', 'mgs': 0, 'flw2': 1.26, 'flw1': 0.0, 'flw0': 1.23, 'time': 6.09, 'compass': -56.19, 'pitch': -3.25, 'roll': 0.8}
{'lipoC2': 7.59, 'temp': 33.56, 'lipoC3S3': 12.04, 'state': 'normal', 'rot1': 107, 'rot0': 105, 'rot3': 0, 'rot2': 0, 'depth': -0.217, 'yaw': 0.01, 'datetime': '2018-12-10 15:24:09.775965', 'mgs': 0, 'flw2': 1.22, 'flw1': 0.0, 'flw0': 1.16, 'time': 6.31, 'compass': -56.19, 'pitch': -3.25, 'roll': 0.79}
{'lipoC2': 7.59, 'temp': 33.56, 'lipoC3S3': 12.04, 'state': 'normal', 'rot1': 111, 'rot0': 109, 'rot3': 0, 'rot2': 0, 'depth': -0.14, 'yaw': 0.01, 'datetime': '2018-12-10 15:24:09.987733', 'mgs': 0, 'flw2': 1.21, 'flw1': 0.0, 'flw0': 1.14, 'time': 6.52, 'compass': -56.19, 'pitch': -3.25, 'roll': 0.78}
{'lipoC2': 7.59, 'temp': 33.56, 'lipoC3S3': 12.05, 'state': 'normal', 'rot1': 114, 'rot0': 112, 'rot3': 0, 'rot2': 0, 'depth': -0.14, 'yaw': 0.01, 'datetime': '2018-12-10 15:24:10.197625', 'mgs': 0, 'flw2': 1.22, 'flw1': 0.0, 'flw0': 1.27, 'time': 6.73, 'compass': -56.19, 'pitch': -3.25, 'roll': 0.79}
{'lipoC2': 7.59, 'temp': 33.56, 'lipoC3S3': 12.06, 'state': 'normal', 'rot1': 118, 'rot0': 116, 'rot3': 0, 'rot2': 0, 'depth': -0.217, 'yaw': 0.01, 'datetime': '2018-12-10 15:24:10.406723', 'mgs': 0, 'flw2': 1.16, 'flw1': 0.0, 'flw0': 1.29, 'time': 6.94, 'compass': -56.19, 'pitch': -3.25, 'roll': 0.78}
{'lipoC2': 7.59, 'temp': 33.63, 'lipoC3S3': 12.0, 'state': 'normal', 'rot1': 122, 'rot0': 120, 'rot3': 0, 'rot2': 0, 'depth': -0.14, 'yaw': 0.01, 'datetime': '2018-12-10 15:24:10.616091', 'mgs': 0, 'flw2': 1.16, 'flw1': 0.0, 'flw0': 1.21, 'time': 7.15, 'compass': -56.19, 'pitch': -3.25, 'roll': 0.77}
{'lipoC2': 7.59, 'temp': 33.56, 'lipoC3S3': 11.96, 'state': 'normal', 'rot1': 125, 'rot0': 123, 'rot3': 0, 'rot2': 0, 'depth': -0.217, 'yaw': 0.01, 'datetime': '2018-12-10 15:24:10.831508', 'mgs': 0, 'flw2': 1.16, 'flw1': 0.0, 'flw0': 1.18, 'time': 7.36, 'compass': -56.19, 'pitch': -3.25, 'roll': 0.78}
{'lipoC2': 7.59, 'temp': 33.56, 'lipoC3S3': 12.04, 'state': 'normal', 'rot1': 129, 'rot0': 127, 'rot3': 0, 'rot2': 0, 'depth': -0.293, 'yaw': 0.01, 'datetime': '2018-12-10 15:24:11.037478', 'mgs': 0, 'flw2': 1.23, 'flw1': 0.0, 'flw0': 1.17, 'time': 7.57, 'compass': -56.19, 'pitch': -3.24, 'roll': 0.77}
{'lipoC2': 7.59, 'temp': 33.56, 'lipoC3S3': 12.05, 'state': 'normal', 'rot1': 133, 'rot0': 131, 'rot3': 0, 'rot2': 0, 'depth': 0.317, 'yaw': 0.01, 'datetime': '2018-12-10 15:24:11.248553', 'mgs': 0, 'flw2': 1.26, 'flw1': 0.0, 'flw0': 1.2, 'time': 7.78, 'compass': -56.19, 'pitch': -3.25, 'roll': 0.78}
{'lipoC2': 7.59, 'temp': 33.56, 'lipoC3S3': 12.05, 'state': 'normal', 'rot1': 137, 'rot0': 134, 'rot3': 0, 'rot2': 0, 'depth': 0.241, 'yaw': 0.01, 'datetime': '2018-12-10 15:24:11.457067', 'mgs': 0, 'flw2': 1.23, 'flw1': 0.0, 'flw0': 1.21, 'time': 7.99, 'compass': -56.19, 'pitch': -3.25, 'roll': 0.78}
{'lipoC2': 7.59, 'temp': 33.56, 'lipoC3S3': 12.05, 'state': 'normal', 'rot1': 141, 'rot0': 138, 'rot3': 0, 'rot2': 0, 'depth': 0.165, 'yaw': 0.01, 'datetime': '2018-12-10 15:24:11.669465', 'mgs': 0, 'flw2': 1.28, 'flw1': 0.0, 'flw0': 1.21, 'time': 8.2, 'compass': -56.19, 'pitch': -3.25, 'roll': 0.78}
{'lipoC2': 7.59, 'temp': 33.56, 'lipoC3S3': 12.05, 'state': 'normal', 'rot1': 144, 'rot0': 142, 'rot3': 0, 'rot2': 0, 'depth': 0.241, 'yaw': 0.01, 'datetime': '2018-12-10 15:24:11.878664', 'mgs': 0, 'flw2': 1.18, 'flw1': 0.0, 'flw0': 1.11, 'time': 8.41, 'compass': -56.19, 'pitch': -3.24, 'roll': 0.77}
{'lipoC2': 7.58, 'temp': 33.56, 'lipoC3S3': 12.04, 'state': 'normal', 'rot1': 148, 'rot0': 145, 'rot3': 0, 'rot2': 0, 'depth': -0.674, 'yaw': 0.01, 'datetime': '2018-12-10 15:24:12.082874', 'mgs': 0, 'flw2': 1.2, 'flw1': 0.0, 'flw0': 1.17, 'time': 8.62, 'compass': -56.19, 'pitch': -3.25, 'roll': 0.78}
{'lipoC2': 7.59, 'temp': 33.56, 'lipoC3S3': 12.02, 'state': 'normal', 'rot1': 152, 'rot0': 149, 'rot3': 0, 'rot2': 0, 'depth': -0.217, 'yaw': 0.01, 'datetime': '2018-12-10 15:24:12.293011', 'mgs': 0, 'flw2': 1.18, 'flw1': 0.0, 'flw0': 1.15, 'time': 8.83, 'compass': -56.19, 'pitch': -3.25, 'roll': 0.78}
{'lipoC2': 7.59, 'temp': 33.56, 'lipoC3S3': 11.96, 'state': 'normal', 'rot1': 155, 'rot0': 153, 'rot3': 0, 'rot2': 0, 'depth': -0.217, 'yaw': 0.01, 'datetime': '2018-12-10 15:24:12.505075', 'mgs': 0, 'flw2': 1.17, 'flw1': 0.0, 'flw0': 1.14, 'time': 9.04, 'compass': -56.19, 'pitch': -3.25, 'roll': 0.78}
{'lipoC2': 7.59, 'temp': 33.56, 'lipoC3S3': 12.04, 'state': 'normal', 'rot1': 159, 'rot0': 156, 'rot3': 0, 'rot2': 0, 'depth': -0.14, 'yaw': 0.01, 'datetime': '2018-12-10 15:24:12.722255', 'mgs': 0, 'flw2': 1.2, 'flw1': 0.0, 'flw0': 1.14, 'time': 9.25, 'compass': -56.19, 'pitch': -3.25, 'roll': 0.78}
{'lipoC2': 7.59, 'temp': 33.56, 'lipoC3S3': 12.04, 'state': 'normal', 'rot1': 163, 'rot0': 160, 'rot3': 0, 'rot2': 0, 'depth': 0.012, 'yaw': 0.01, 'datetime': '2018-12-10 15:24:12.931785', 'mgs': 0, 'flw2': 1.26, 'flw1': 0.0, 'flw0': 1.14, 'time': 9.46, 'compass': -56.19, 'pitch': -3.25, 'roll': 0.78}
{'lipoC2': 7.59, 'temp': 33.56, 'lipoC3S3': 12.05, 'state': 'normal', 'rot1': 167, 'rot0': 164, 'rot3': 0, 'rot2': 0, 'depth': 0.089, 'yaw': 0.01, 'datetime': '2018-12-10 15:24:13.141555', 'mgs': 0, 'flw2': 1.26, 'flw1': 0.0, 'flw0': 1.15, 'time': 9.67, 'compass': -56.19, 'pitch': -3.25, 'roll': 0.77}
{'lipoC2': 7.59, 'temp': 33.5, 'lipoC3S3': 12.05, 'state': 'normal', 'rot1': 171, 'rot0': 167, 'rot3': 0, 'rot2': 0, 'depth': -0.217, 'yaw': 0.01, 'datetime': '2018-12-10 15:24:13.353523', 'mgs': 0, 'flw2': 1.16, 'flw1': 0.0, 'flw0': 1.26, 'time': 9.89, 'compass': -56.19, 'pitch': -3.25, 'roll': 0.76}
{'lipoC2': 7.59, 'temp': 33.56, 'lipoC3S3': 12.05, 'state': 'normal', 'rot1': 175, 'rot0': 171, 'rot3': 0, 'rot2': 0, 'depth': -0.217, 'yaw': 0.01, 'datetime': '2018-12-10 15:24:13.562925', 'mgs': 0, 'flw2': 1.23, 'flw1': 0.0, 'flw0': 1.28, 'time': 10.1, 'compass': -56.19, 'pitch': -3.25, 'roll': 0.76}
{'lipoC2': 7.59, 'temp': 33.63, 'lipoC3S3': 12.04, 'state': 'normal', 'rot1': 179, 'rot0': 175, 'rot3': 0, 'rot2': 0, 'depth': -0.14, 'yaw': 0.01, 'datetime': '2018-12-10 15:24:13.773130', 'mgs': 0, 'flw2': 1.15, 'flw1': 0.0, 'flw0': 1.25, 'time': 10.31, 'compass': -56.19, 'pitch': -3.25, 'roll': 0.76}
{'lipoC2': 7.59, 'temp': 33.56, 'lipoC3S3': 11.96, 'state': 'normal', 'rot1': 183, 'rot0': 179, 'rot3': 0, 'rot2': 0, 'depth': -0.217, 'yaw': 0.01, 'datetime': '2018-12-10 15:24:13.984491', 'mgs': 0, 'flw2': 1.18, 'flw1': 0.0, 'flw0': 1.21, 'time': 10.52, 'compass': -56.19, 'pitch': -3.25, 'roll': 0.75}
{'lipoC2': 7.59, 'temp': 33.63, 'lipoC3S3': 12.01, 'state': 'normal', 'rot1': 186, 'rot0': 182, 'rot3': 0, 'rot2': 0, 'depth': -0.217, 'yaw': 0.01, 'datetime': '2018-12-10 15:24:14.193800', 'mgs': 0, 'flw2': 1.15, 'flw1': 0.0, 'flw0': 1.17, 'time': 10.73, 'compass': -56.19, 'pitch': -3.25, 'roll': 0.74}
{'lipoC2': 7.59, 'temp': 33.56, 'lipoC3S3': 12.04, 'state': 'normal', 'rot1': 190, 'rot0': 186, 'rot3': 0, 'rot2': 0, 'depth': -0.446, 'yaw': 0.01, 'datetime': '2018-12-10 15:24:14.403752', 'mgs': 0, 'flw2': 1.16, 'flw1': 0.0, 'flw0': 1.22, 'time': 10.94, 'compass': -56.19, 'pitch': -3.25, 'roll': 0.75}
{'lipoC2': 7.59, 'temp': 33.56, 'lipoC3S3': 11.96, 'state': 'normal', 'rot1': 194, 'rot0': 190, 'rot3': 0, 'rot2': 0, 'depth': -0.217, 'yaw': 0.01, 'datetime': '2018-12-10 15:24:14.615022', 'mgs': 0, 'flw2': 1.17, 'flw1': 0.0, 'flw0': 1.27, 'time': 11.15, 'compass': -56.19, 'pitch': -3.25, 'roll': 0.75}
{'lipoC2': 7.59, 'temp': 33.56, 'lipoC3S3': 12.06, 'state': 'normal', 'rot1': 198, 'rot0': 194, 'rot3': 0, 'rot2': 0, 'depth': -0.217, 'yaw': 0.01, 'datetime': '2018-12-10 15:24:14.823307', 'mgs': 0, 'flw2': 1.14, 'flw1': 0.0, 'flw0': 1.21, 'time': 11.36, 'compass': -56.19, 'pitch': -3.25, 'roll': 0.74}
{'lipoC2': 7.59, 'temp': 33.56, 'lipoC3S3': 12.02, 'state': 'normal', 'rot1': 202, 'rot0': 198, 'rot3': 0, 'rot2': 0, 'depth': -0.217, 'yaw': 0.01, 'datetime': '2018-12-10 15:24:15.032533', 'mgs': 0, 'flw2': 1.15, 'flw1': 0.0, 'flw0': 1.15, 'time': 11.57, 'compass': -56.19, 'pitch': -3.25, 'roll': 0.74}
{'lipoC2': 7.59, 'temp': 33.56, 'lipoC3S3': 12.04, 'state': 'normal', 'rot1': 205, 'rot0': 202, 'rot3': 0, 'rot2': 0, 'depth': -0.14, 'yaw': 0.01, 'datetime': '2018-12-10 15:24:15.243667', 'mgs': 0, 'flw2': 1.27, 'flw1': 0.0, 'flw0': 1.17, 'time': 11.78, 'compass': -56.19, 'pitch': -3.27, 'roll': 0.74}
{'lipoC2': 7.59, 'temp': 33.63, 'lipoC3S3': 12.05, 'state': 'normal', 'rot1': 209, 'rot0': 205, 'rot3': 0, 'rot2': 0, 'depth': -0.14, 'yaw': 0.01, 'datetime': '2018-12-10 15:24:15.452770', 'mgs': 0, 'flw2': 1.22, 'flw1': 0.0, 'flw0': 1.31, 'time': 11.99, 'compass': -56.19, 'pitch': -3.27, 'roll': 0.74}
{'lipoC2': 7.59, 'temp': 33.63, 'lipoC3S3': 12.05, 'state': 'normal', 'rot1': 213, 'rot0': 209, 'rot3': 0, 'rot2': 0, 'depth': 0.47, 'yaw': 0.01, 'datetime': '2018-12-10 15:24:15.663603', 'mgs': 0, 'flw2': 1.26, 'flw1': 0.0, 'flw0': 1.22, 'time': 12.2, 'compass': -56.19, 'pitch': -3.28, 'roll': 0.74}
{'lipoC2': 7.59, 'temp': 33.56, 'lipoC3S3': 12.05, 'state': 'normal', 'rot1': 217, 'rot0': 212, 'rot3': 0, 'rot2': 0, 'depth': 0.241, 'yaw': 0.01, 'datetime': '2018-12-10 15:24:15.873147', 'mgs': 0, 'flw2': 1.28, 'flw1': 0.0, 'flw0': 1.21, 'time': 12.41, 'compass': -56.19, 'pitch': -3.28, 'roll': 0.74}
{'lipoC2': 7.59, 'temp': 33.63, 'lipoC3S3': 12.05, 'state': 'normal', 'rot1': 220, 'rot0': 216, 'rot3': 0, 'rot2': 0, 'depth': 0.47, 'yaw': 0.01, 'datetime': '2018-12-10 15:24:16.083151', 'mgs': 0, 'flw2': 1.23, 'flw1': 0.0, 'flw0': 1.16, 'time': 12.62, 'compass': -56.19, 'pitch': -3.28, 'roll': 0.73}
{'lipoC2': 7.59, 'temp': 33.63, 'lipoC3S3': 12.05, 'state': 'normal', 'rot1': 224, 'rot0': 220, 'rot3': 0, 'rot2': 0, 'depth': 0.47, 'yaw': 0.01, 'datetime': '2018-12-10 15:24:16.292939', 'mgs': 0, 'flw2': 1.26, 'flw1': 0.0, 'flw0': 1.09, 'time': 12.83, 'compass': -56.19, 'pitch': -3.28, 'roll': 0.72}
{'lipoC2': 7.59, 'temp': 33.56, 'lipoC3S3': 12.1, 'state': 'normal', 'rot1': 227, 'rot0': 224, 'rot3': 0, 'rot2': 0, 'depth': -0.217, 'yaw': 0.01, 'datetime': '2018-12-10 15:24:16.503127', 'mgs': 0, 'flw2': 1.17, 'flw1': 0.0, 'flw0': 1.2, 'time': 13.04, 'compass': -56.19, 'pitch': -3.28, 'roll': 0.72}
{'lipoC2': 7.59, 'temp': 33.56, 'lipoC3S3': 12.05, 'state': 'normal', 'rot1': 231, 'rot0': 227, 'rot3': 0, 'rot2': 0, 'depth': -0.14, 'yaw': 0.01, 'datetime': '2018-12-10 15:24:16.713150', 'mgs': 0, 'flw2': 1.2, 'flw1': 0.0, 'flw0': 1.18, 'time': 13.25, 'compass': -56.19, 'pitch': -3.29, 'roll': 0.72}
{'lipoC2': 7.59, 'temp': 33.63, 'lipoC3S3': 12.05, 'state': 'normal', 'rot1': 235, 'rot0': 231, 'rot3': 0, 'rot2': 0, 'depth': -0.14, 'yaw': 0.01, 'datetime': '2018-12-10 15:24:16.923884', 'mgs': 0, 'flw2': 1.18, 'flw1': 0.0, 'flw0': 1.18, 'time': 13.46, 'compass': -56.19, 'pitch': -3.28, 'roll': 0.71}
{'lipoC2': 7.59, 'temp': 33.56, 'lipoC3S3': 12.06, 'state': 'normal', 'rot1': 238, 'rot0': 234, 'rot3': 0, 'rot2': 0, 'depth': -0.217, 'yaw': 0.01, 'datetime': '2018-12-10 15:24:17.133913', 'mgs': 0, 'flw2': 1.16, 'flw1': 0.0, 'flw0': 1.25, 'time': 13.67, 'compass': -56.19, 'pitch': -3.29, 'roll': 0.7}
{'lipoC2': 7.59, 'temp': 33.56, 'lipoC3S3': 12.0, 'state': 'normal', 'rot1': 242, 'rot0': 238, 'rot3': 0, 'rot2': 0, 'depth': -0.14, 'yaw': 0.01, 'datetime': '2018-12-10 15:24:17.344215', 'mgs': 0, 'flw2': 1.17, 'flw1': 0.0, 'flw0': 1.23, 'time': 13.88, 'compass': -56.19, 'pitch': -3.29, 'roll': 0.7}
{'lipoC2': 7.59, 'temp': 33.56, 'lipoC3S3': 12.04, 'state': 'normal', 'rot1': 246, 'rot0': 242, 'rot3': 0, 'rot2': 0, 'depth': -0.064, 'yaw': 0.01, 'datetime': '2018-12-10 15:24:17.555351', 'mgs': 0, 'flw2': 1.21, 'flw1': 0.0, 'flw0': 1.23, 'time': 14.09, 'compass': -56.19, 'pitch': -3.29, 'roll': 0.69}
{'lipoC2': 7.59, 'temp': 33.56, 'lipoC3S3': 12.04, 'state': 'normal', 'rot1': 249, 'rot0': 245, 'rot3': 0, 'rot2': 0, 'depth': -0.293, 'yaw': 0.01, 'datetime': '2018-12-10 15:24:17.764916', 'mgs': 0, 'flw2': 1.22, 'flw1': 0.0, 'flw0': 1.21, 'time': 14.31, 'compass': -56.19, 'pitch': -3.29, 'roll': 0.69}
{'lipoC2': 7.59, 'temp': 33.56, 'lipoC3S3': 12.02, 'state': 'normal', 'rot1': 253, 'rot0': 249, 'rot3': 0, 'rot2': 0, 'depth': -0.369, 'yaw': 0.01, 'datetime': '2018-12-10 15:24:17.974948', 'mgs': 0, 'flw2': 1.17, 'flw1': 0.0, 'flw0': 1.17, 'time': 14.52, 'compass': -56.19, 'pitch': -3.28, 'roll': 0.7}
{'lipoC2': 7.58, 'temp': 33.56, 'lipoC3S3': 12.04, 'state': 'normal', 'rot1': 257, 'rot0': 253, 'rot3': 0, 'rot2': 0, 'depth': 0.089, 'yaw': 0.01, 'datetime': '2018-12-10 15:24:18.185963', 'mgs': 0, 'flw2': 1.26, 'flw1': 0.0, 'flw0': 1.17, 'time': 14.73, 'compass': -56.19, 'pitch': -3.28, 'roll': 0.68}
{'lipoC2': 7.59, 'temp': 33.56, 'lipoC3S3': 12.04, 'state': 'normal', 'rot1': 261, 'rot0': 256, 'rot3': 0, 'rot2': 0, 'depth': 0.012, 'yaw': 0.01, 'datetime': '2018-12-10 15:24:18.397677', 'mgs': 0, 'flw2': 1.26, 'flw1': 0.0, 'flw0': 1.1, 'time': 14.94, 'compass': -56.19, 'pitch': -3.29, 'roll': 0.69}
{'lipoC2': 7.59, 'temp': 33.63, 'lipoC3S3': 12.04, 'state': 'normal', 'rot1': 264, 'rot0': 260, 'rot3': 0, 'rot2': 0, 'depth': -0.14, 'yaw': 0.01, 'datetime': '2018-12-10 15:24:18.607849', 'mgs': 0, 'flw2': 1.21, 'flw1': 0.0, 'flw0': 1.2, 'time': 15.15, 'compass': -56.19, 'pitch': -3.29, 'roll': 0.69}
{'lipoC2': 7.59, 'temp': 33.56, 'lipoC3S3': 12.05, 'state': 'normal', 'rot1': 268, 'rot0': 264, 'rot3': 0, 'rot2': 0, 'depth': -0.217, 'yaw': 0.01, 'datetime': '2018-12-10 15:24:18.818925', 'mgs': 0, 'flw2': 1.2, 'flw1': 0.0, 'flw0': 1.27, 'time': 15.36, 'compass': -56.19, 'pitch': -3.3, 'roll': 0.69}
{'lipoC2': 7.59, 'temp': 33.63, 'lipoC3S3': 12.08, 'state': 'normal', 'rot1': 272, 'rot0': 267, 'rot3': 0, 'rot2': 0, 'depth': -0.14, 'yaw': 0.01, 'datetime': '2018-12-10 15:24:19.028817', 'mgs': 0, 'flw2': 1.2, 'flw1': 0.0, 'flw0': 1.29, 'time': 15.57, 'compass': -56.19, 'pitch': -3.3, 'roll': 0.69}
{'lipoC2': 7.59, 'temp': 33.56, 'lipoC3S3': 12.1, 'state': 'normal', 'rot1': 275, 'rot0': 271, 'rot3': 0, 'rot2': 0, 'depth': -0.217, 'yaw': 0.01, 'datetime': '2018-12-10 15:24:19.236735', 'mgs': 0, 'flw2': 1.18, 'flw1': 0.0, 'flw0': 1.23, 'time': 15.78, 'compass': -56.19, 'pitch': -3.3, 'roll': 0.69}
{'lipoC2': 7.59, 'temp': 33.56, 'lipoC3S3': 12.02, 'state': 'normal', 'rot1': 279, 'rot0': 275, 'rot3': 0, 'rot2': 0, 'depth': -0.217, 'yaw': 0.01, 'datetime': '2018-12-10 15:24:19.449101', 'mgs': 0, 'flw2': 1.17, 'flw1': 0.0, 'flw0': 1.22, 'time': 15.99, 'compass': -56.19, 'pitch': -3.3, 'roll': 0.69}
{'lipoC2': 7.59, 'temp': 33.56, 'lipoC3S3': 12.04, 'state': 'normal', 'rot1': 282, 'rot0': 278, 'rot3': 0, 'rot2': 0, 'depth': -0.217, 'yaw': 0.01, 'datetime': '2018-12-10 15:24:19.660789', 'mgs': 0, 'flw2': 1.18, 'flw1': 0.0, 'flw0': 1.17, 'time': 16.2, 'compass': -56.19, 'pitch': -3.31, 'roll': 0.69}
{'lipoC2': 7.59, 'temp': 33.63, 'lipoC3S3': 12.02, 'state': 'normal', 'rot1': 286, 'rot0': 282, 'rot3': 0, 'rot2': 0, 'depth': -0.14, 'yaw': 0.01, 'datetime': '2018-12-10 15:24:19.869946', 'mgs': 0, 'flw2': 1.12, 'flw1': 0.0, 'flw0': 1.16, 'time': 16.41, 'compass': -56.19, 'pitch': -3.31, 'roll': 0.69}
{'lipoC2': 7.59, 'temp': 33.56, 'lipoC3S3': 12.02, 'state': 'normal', 'rot1': 290, 'rot0': 285, 'rot3': 0, 'rot2': 0, 'depth': -0.674, 'yaw': 0.01, 'datetime': '2018-12-10 15:24:20.081698', 'mgs': 0, 'flw2': 1.2, 'flw1': 0.0, 'flw0': 1.11, 'time': 16.62, 'compass': -56.19, 'pitch': -3.31, 'roll': 0.68}
{'lipoC2': 7.59, 'temp': 33.63, 'lipoC3S3': 12.02, 'state': 'normal', 'rot1': 293, 'rot0': 289, 'rot3': 0, 'rot2': 0, 'depth': -0.14, 'yaw': 0.01, 'datetime': '2018-12-10 15:24:20.294761', 'mgs': 0, 'flw2': 1.2, 'flw1': 0.0, 'flw0': 1.23, 'time': 16.83, 'compass': -56.19, 'pitch': -3.31, 'roll': 0.68}
{'lipoC2': 7.59, 'temp': 33.56, 'lipoC3S3': 12.04, 'state': 'normal', 'rot1': 297, 'rot0': 293, 'rot3': 0, 'rot2': 0, 'depth': 0.165, 'yaw': 0.01, 'datetime': '2018-12-10 15:24:20.501059', 'mgs': 0, 'flw2': 1.22, 'flw1': 0.0, 'flw0': 1.2, 'time': 17.04, 'compass': -56.19, 'pitch': -3.31, 'roll': 0.68}
{'lipoC2': 7.59, 'temp': 33.56, 'lipoC3S3': 12.04, 'state': 'normal', 'rot1': 301, 'rot0': 296, 'rot3': 0, 'rot2': 0, 'depth': -0.217, 'yaw': 0.01, 'datetime': '2018-12-10 15:24:20.711286', 'mgs': 0, 'flw2': 1.21, 'flw1': 0.0, 'flw0': 1.27, 'time': 17.25, 'compass': -56.19, 'pitch': -3.31, 'roll': 0.68}
{'lipoC2': 7.59, 'temp': 33.63, 'lipoC3S3': 12.04, 'state': 'normal', 'rot1': 304, 'rot0': 300, 'rot3': 0, 'rot2': 0, 'depth': -0.14, 'yaw': 0.01, 'datetime': '2018-12-10 15:24:20.924013', 'mgs': 0, 'flw2': 1.17, 'flw1': 0.0, 'flw0': 1.23, 'time': 17.46, 'compass': -56.19, 'pitch': -3.31, 'roll': 0.68}
{'lipoC2': 7.59, 'temp': 33.63, 'lipoC3S3': 12.04, 'state': 'normal', 'rot1': 308, 'rot0': 304, 'rot3': 0, 'rot2': 0, 'depth': -0.14, 'yaw': 0.01, 'datetime': '2018-12-10 15:24:21.129526', 'mgs': 0, 'flw2': 1.17, 'flw1': 0.0, 'flw0': 1.2, 'time': 17.67, 'compass': -56.19, 'pitch': -3.31, 'roll': 0.67}
{'lipoC2': 7.58, 'temp': 33.56, 'lipoC3S3': 12.0, 'state': 'normal', 'rot1': 312, 'rot0': 308, 'rot3': 0, 'rot2': 0, 'depth': -0.217, 'yaw': 0.01, 'datetime': '2018-12-10 15:24:21.344310', 'mgs': 0, 'flw2': 1.16, 'flw1': 0.0, 'flw0': 1.29, 'time': 17.88, 'compass': -56.19, 'pitch': -3.31, 'roll': 0.68}
{'lipoC2': 7.59, 'temp': 33.63, 'lipoC3S3': 11.94, 'state': 'normal', 'rot1': 315, 'rot0': 311, 'rot3': 0, 'rot2': 0, 'depth': -0.14, 'yaw': 0.01, 'datetime': '2018-12-10 15:24:21.557976', 'mgs': 0, 'flw2': 1.16, 'flw1': 0.0, 'flw0': 1.16, 'time': 18.09, 'compass': -56.19, 'pitch': -3.31, 'roll': 0.69}
{'lipoC2': 7.59, 'temp': 33.63, 'lipoC3S3': 12.04, 'state': 'normal', 'rot1': 319, 'rot0': 315, 'rot3': 0, 'rot2': 0, 'depth': -0.064, 'yaw': 0.01, 'datetime': '2018-12-10 15:24:21.765119', 'mgs': 0, 'flw2': 1.28, 'flw1': 0.0, 'flw0': 1.15, 'time': 18.3, 'compass': -56.19, 'pitch': -3.31, 'roll': 0.7}
{'lipoC2': 7.59, 'temp': 33.56, 'lipoC3S3': 12.04, 'state': 'normal', 'rot1': 325, 'rot0': 320, 'rot3': 0, 'rot2': 0, 'depth': -0.14, 'yaw': 0.01, 'datetime': '2018-12-10 15:24:22.071919', 'mgs': 0, 'flw2': 1.22, 'flw1': 0.0, 'flw0': 1.28, 'time': 18.62, 'compass': -56.19, 'pitch': -3.31, 'roll': 0.69}
{'lipoC2': 7.59, 'temp': 33.63, 'lipoC3S3': 12.04, 'state': 'normal', 'rot1': 328, 'rot0': 324, 'rot3': 0, 'rot2': 0, 'depth': -0.14, 'yaw': 0.01, 'datetime': '2018-12-10 15:24:22.281811', 'mgs': 0, 'flw2': 1.2, 'flw1': 0.0, 'flw0': 1.23, 'time': 18.83, 'compass': -56.19, 'pitch': -3.32, 'roll': 0.69}
{'lipoC2': 7.59, 'temp': 33.56, 'lipoC3S3': 12.05, 'state': 'normal', 'rot1': 332, 'rot0': 327, 'rot3': 0, 'rot2': 0, 'depth': -0.217, 'yaw': 0.01, 'datetime': '2018-12-10 15:24:22.491921', 'mgs': 0, 'flw2': 1.22, 'flw1': 0.0, 'flw0': 1.21, 'time': 19.04, 'compass': -56.19, 'pitch': -3.32, 'roll': 0.68}
{'lipoC2': 7.58, 'temp': 33.63, 'lipoC3S3': 11.94, 'state': 'normal', 'rot1': 336, 'rot0': 331, 'rot3': 0, 'rot2': 0, 'depth': -0.14, 'yaw': 0.01, 'datetime': '2018-12-10 15:24:22.708347', 'mgs': 0, 'flw2': 1.18, 'flw1': 0.0, 'flw0': 1.25, 'time': 19.25, 'compass': -56.19, 'pitch': -3.32, 'roll': 0.68}
{'lipoC2': 7.59, 'temp': 33.56, 'lipoC3S3': 11.97, 'state': 'normal', 'rot1': 340, 'rot0': 335, 'rot3': 0, 'rot2': 0, 'depth': -0.14, 'yaw': 0.01, 'datetime': '2018-12-10 15:24:22.918057', 'mgs': 0, 'flw2': 1.14, 'flw1': 0.0, 'flw0': 1.22, 'time': 19.46, 'compass': -56.19, 'pitch': -3.31, 'roll': 0.68}
{'lipoC2': 7.58, 'temp': 33.63, 'lipoC3S3': 11.93, 'state': 'normal', 'rot1': 343, 'rot0': 338, 'rot3': 0, 'rot2': 0, 'depth': -0.217, 'yaw': 0.01, 'datetime': '2018-12-10 15:24:23.127569', 'mgs': 0, 'flw2': 1.15, 'flw1': 0.0, 'flw0': 1.12, 'time': 19.67, 'compass': -56.19, 'pitch': -3.31, 'roll': 0.68}
{'lipoC2': 7.59, 'temp': 33.63, 'lipoC3S3': 12.04, 'state': 'normal', 'rot1': 347, 'rot0': 342, 'rot3': 0, 'rot2': 0, 'depth': 0.317, 'yaw': 0.01, 'datetime': '2018-12-10 15:24:23.355814', 'mgs': 0, 'flw2': 1.23, 'flw1': 0.0, 'flw0': 1.2, 'time': 19.88, 'compass': -56.19, 'pitch': -3.31, 'roll': 0.68}
{'lipoC2': 7.58, 'temp': 33.56, 'lipoC3S3': 12.04, 'state': 'normal', 'rot1': 352, 'rot0': 347, 'rot3': 0, 'rot2': 0, 'depth': 0.012, 'yaw': 0.01, 'datetime': '2018-12-10 15:24:23.649457', 'mgs': 0, 'flw2': 1.18, 'flw1': 0.0, 'flw0': 1.15, 'time': 20.2, 'compass': -56.19, 'pitch': -3.3, 'roll': 0.69}
{'lipoC2': 7.59, 'temp': 33.56, 'lipoC3S3': 12.05, 'state': 'normal', 'rot1': 356, 'rot0': 351, 'rot3': 0, 'rot2': 0, 'depth': 0.47, 'yaw': 0.01, 'datetime': '2018-12-10 15:24:23.858264', 'mgs': 0, 'flw2': 1.22, 'flw1': 0.0, 'flw0': 1.14, 'time': 20.41, 'compass': -56.19, 'pitch': -3.31, 'roll': 0.68}
{'lipoC2': 7.59, 'temp': 33.63, 'lipoC3S3': 12.04, 'state': 'normal', 'rot1': 360, 'rot0': 354, 'rot3': 0, 'rot2': 0, 'depth': 0.317, 'yaw': 0.01, 'datetime': '2018-12-10 15:24:24.068367', 'mgs': 0, 'flw2': 1.27, 'flw1': 0.0, 'flw0': 1.21, 'time': 20.62, 'compass': -56.19, 'pitch': -3.31, 'roll': 0.68}
{'lipoC2': 7.59, 'temp': 33.63, 'lipoC3S3': 12.04, 'state': 'normal', 'rot1': 364, 'rot0': 358, 'rot3': 0, 'rot2': 0, 'depth': 0.47, 'yaw': 0.01, 'datetime': '2018-12-10 15:24:24.280909', 'mgs': 0, 'flw2': 1.21, 'flw1': 0.0, 'flw0': 1.09, 'time': 20.83, 'compass': -56.19, 'pitch': -3.31, 'roll': 0.68}
{'lipoC2': 7.59, 'temp': 33.56, 'lipoC3S3': 12.04, 'state': 'normal', 'rot1': 367, 'rot0': 361, 'rot3': 0, 'rot2': 0, 'depth': -0.14, 'yaw': 0.01, 'datetime': '2018-12-10 15:24:24.490958', 'mgs': 0, 'flw2': 1.16, 'flw1': 0.0, 'flw0': 1.32, 'time': 21.04, 'compass': -56.19, 'pitch': -3.3, 'roll': 0.69}
{'lipoC2': 7.59, 'temp': 33.56, 'lipoC3S3': 12.04, 'state': 'normal', 'rot1': 371, 'rot0': 365, 'rot3': 0, 'rot2': 0, 'depth': -0.217, 'yaw': 0.01, 'datetime': '2018-12-10 15:24:24.702105', 'mgs': 0, 'flw2': 1.17, 'flw1': 0.0, 'flw0': 1.22, 'time': 21.25, 'compass': -56.19, 'pitch': -3.3, 'roll': 0.69}
{'lipoC2': 7.59, 'temp': 33.56, 'lipoC3S3': 12.02, 'state': 'normal', 'rot1': 375, 'rot0': 369, 'rot3': 0, 'rot2': 0, 'depth': -0.446, 'yaw': 0.01, 'datetime': '2018-12-10 15:24:24.911696', 'mgs': 0, 'flw2': 1.22, 'flw1': 0.0, 'flw0': 1.18, 'time': 21.46, 'compass': -56.19, 'pitch': -3.31, 'roll': 0.7}
{'lipoC2': 7.59, 'temp': 33.63, 'lipoC3S3': 12.01, 'state': 'normal', 'rot1': 378, 'rot0': 372, 'rot3': 0, 'rot2': 0, 'depth': -0.217, 'yaw': 0.01, 'datetime': '2018-12-10 15:24:25.125317', 'mgs': 0, 'flw2': 1.17, 'flw1': 0.0, 'flw0': 1.21, 'time': 21.67, 'compass': -56.19, 'pitch': -3.31, 'roll': 0.7}
{'lipoC2': 7.59, 'temp': 33.56, 'lipoC3S3': 12.04, 'state': 'normal', 'rot1': 382, 'rot0': 376, 'rot3': 0, 'rot2': 0, 'depth': 0.089, 'yaw': 0.01, 'datetime': '2018-12-10 15:24:25.334314', 'mgs': 0, 'flw2': 1.2, 'flw1': 0.0, 'flw0': 1.21, 'time': 21.88, 'compass': -56.19, 'pitch': -3.31, 'roll': 0.71}
{'lipoC2': 7.58, 'temp': 33.56, 'lipoC3S3': 12.02, 'state': 'normal', 'rot1': 386, 'rot0': 380, 'rot3': 0, 'rot2': 0, 'depth': 0.241, 'yaw': 0.01, 'datetime': '2018-12-10 15:24:25.562040', 'mgs': 0, 'flw2': 1.26, 'flw1': 0.0, 'flw0': 1.14, 'time': 22.09, 'compass': -56.19, 'pitch': -3.32, 'roll': 0.7}
{'lipoC2': 7.59, 'temp': 33.63, 'lipoC3S3': 12.05, 'state': 'normal', 'rot1': 391, 'rot0': 385, 'rot3': 0, 'rot2': 0, 'depth': -0.217, 'yaw': 0.01, 'datetime': '2018-12-10 15:24:25.857340', 'mgs': 0, 'flw2': 1.23, 'flw1': 0.0, 'flw0': 1.21, 'time': 22.41, 'compass': -56.19, 'pitch': -3.33, 'roll': 0.7}
{'lipoC2': 7.59, 'temp': 33.56, 'lipoC3S3': 12.05, 'state': 'normal', 'rot1': 395, 'rot0': 389, 'rot3': 0, 'rot2': 0, 'depth': -0.217, 'yaw': 0.01, 'datetime': '2018-12-10 15:24:26.067149', 'mgs': 0, 'flw2': 1.15, 'flw1': 0.0, 'flw0': 1.31, 'time': 22.62, 'compass': -56.19, 'pitch': -3.34, 'roll': 0.71}
{'lipoC2': 7.59, 'temp': 33.56, 'lipoC3S3': 12.04, 'state': 'normal', 'rot1': 399, 'rot0': 392, 'rot3': 0, 'rot2': 0, 'depth': -0.217, 'yaw': 0.01, 'datetime': '2018-12-10 15:24:26.276320', 'mgs': 0, 'flw2': 1.17, 'flw1': 0.0, 'flw0': 1.26, 'time': 22.83, 'compass': -56.19, 'pitch': -3.35, 'roll': 0.7}
{'lipoC2': 7.59, 'temp': 33.5, 'lipoC3S3': 11.92, 'state': 'normal', 'rot1': 402, 'rot0': 396, 'rot3': 0, 'rot2': 0, 'depth': -0.217, 'yaw': 0.01, 'datetime': '2018-12-10 15:24:26.489407', 'mgs': 0, 'flw2': 1.16, 'flw1': 0.0, 'flw0': 1.18, 'time': 23.04, 'compass': -56.19, 'pitch': -3.35, 'roll': 0.7}
{'lipoC2': 7.59, 'temp': 33.5, 'lipoC3S3': 12.02, 'state': 'normal', 'rot1': 406, 'rot0': 399, 'rot3': 0, 'rot2': 0, 'depth': -0.522, 'yaw': 0.01, 'datetime': '2018-12-10 15:24:26.700037', 'mgs': 0, 'flw2': 1.21, 'flw1': 0.0, 'flw0': 1.17, 'time': 23.25, 'compass': -56.19, 'pitch': -3.35, 'roll': 0.7}
{'lipoC2': 7.59, 'temp': 33.63, 'lipoC3S3': 12.04, 'state': 'normal', 'rot1': 410, 'rot0': 403, 'rot3': 0, 'rot2': 0, 'depth': -0.14, 'yaw': 0.01, 'datetime': '2018-12-10 15:24:26.909957', 'mgs': 0, 'flw2': 1.26, 'flw1': 0.0, 'flw0': 1.26, 'time': 23.46, 'compass': -56.19, 'pitch': -3.35, 'roll': 0.7}
{'lipoC2': 7.59, 'temp': 33.56, 'lipoC3S3': 12.04, 'state': 'normal', 'rot1': 414, 'rot0': 407, 'rot3': 0, 'rot2': 0, 'depth': -0.064, 'yaw': 0.01, 'datetime': '2018-12-10 15:24:27.120682', 'mgs': 0, 'flw2': 1.2, 'flw1': 0.0, 'flw0': 1.23, 'time': 23.67, 'compass': -56.19, 'pitch': -3.35, 'roll': 0.7}
{'lipoC2': 7.59, 'temp': 33.56, 'lipoC3S3': 12.04, 'state': 'normal', 'rot1': 417, 'rot0': 410, 'rot3': 0, 'rot2': 0, 'depth': -0.14, 'yaw': 0.01, 'datetime': '2018-12-10 15:24:27.329802', 'mgs': 0, 'flw2': 1.22, 'flw1': 0.0, 'flw0': 1.29, 'time': 23.88, 'compass': -56.19, 'pitch': -3.35, 'roll': 0.7}
{'lipoC2': 7.59, 'temp': 33.56, 'lipoC3S3': 12.04, 'state': 'normal', 'rot1': 421, 'rot0': 414, 'rot3': 0, 'rot2': 0, 'depth': -0.14, 'yaw': 0.01, 'datetime': '2018-12-10 15:24:27.540851', 'mgs': 0, 'flw2': 1.21, 'flw1': 0.0, 'flw0': 1.18, 'time': 24.09, 'compass': -56.19, 'pitch': -3.34, 'roll': 0.71}
{'lipoC2': 7.59, 'temp': 33.56, 'lipoC3S3': 12.04, 'state': 'normal', 'rot1': 424, 'rot0': 417, 'rot3': 0, 'rot2': 0, 'depth': -0.217, 'yaw': 0.01, 'datetime': '2018-12-10 15:24:27.751263', 'mgs': 0, 'flw2': 1.21, 'flw1': 0.0, 'flw0': 1.23, 'time': 24.3, 'compass': -56.19, 'pitch': -3.34, 'roll': 0.71}
{'lipoC2': 7.59, 'temp': 33.63, 'lipoC3S3': 12.01, 'state': 'normal', 'rot1': 428, 'rot0': 421, 'rot3': 0, 'rot2': 0, 'depth': -0.14, 'yaw': 0.01, 'datetime': '2018-12-10 15:24:27.961008', 'mgs': 0, 'flw2': 1.15, 'flw1': 0.0, 'flw0': 1.26, 'time': 24.51, 'compass': -56.19, 'pitch': -3.34, 'roll': 0.71}
{'lipoC2': 7.59, 'temp': 33.63, 'lipoC3S3': 12.04, 'state': 'normal', 'rot1': 432, 'rot0': 424, 'rot3': 0, 'rot2': 0, 'depth': -0.217, 'yaw': 0.01, 'datetime': '2018-12-10 15:24:28.171980', 'mgs': 0, 'flw2': 1.12, 'flw1': 0.0, 'flw0': 1.2, 'time': 24.72, 'compass': -56.19, 'pitch': -3.34, 'roll': 0.71}
{'lipoC2': 7.59, 'temp': 33.63, 'lipoC3S3': 12.02, 'state': 'normal', 'rot1': 436, 'rot0': 428, 'rot3': 0, 'rot2': 0, 'depth': -0.217, 'yaw': 0.01, 'datetime': '2018-12-10 15:24:28.381485', 'mgs': 0, 'flw2': 1.18, 'flw1': 0.0, 'flw0': 1.12, 'time': 24.93, 'compass': -56.19, 'pitch': -3.35, 'roll': 0.7}
{'lipoC2': 7.59, 'temp': 33.56, 'lipoC3S3': 12.04, 'state': 'normal', 'rot1': 440, 'rot0': 432, 'rot3': 0, 'rot2': 0, 'depth': -0.293, 'yaw': 0.01, 'datetime': '2018-12-10 15:24:28.592406', 'mgs': 0, 'flw2': 1.27, 'flw1': 0.0, 'flw0': 1.17, 'time': 25.15, 'compass': -56.19, 'pitch': -3.35, 'roll': 0.7}
{'lipoC2': 7.58, 'temp': 33.56, 'lipoC3S3': 12.02, 'state': 'normal', 'rot1': 443, 'rot0': 435, 'rot3': 0, 'rot2': 0, 'depth': -0.14, 'yaw': 0.01, 'datetime': '2018-12-10 15:24:28.802545', 'mgs': 0, 'flw2': 1.29, 'flw1': 0.0, 'flw0': 1.17, 'time': 25.36, 'compass': -56.19, 'pitch': -3.35, 'roll': 0.7}
{'lipoC2': 7.59, 'temp': 33.56, 'lipoC3S3': 12.04, 'state': 'normal', 'rot1': 447, 'rot0': 439, 'rot3': 0, 'rot2': 0, 'depth': -0.217, 'yaw': 0.01, 'datetime': '2018-12-10 15:24:29.012343', 'mgs': 0, 'flw2': 1.23, 'flw1': 0.0, 'flw0': 1.28, 'time': 25.57, 'compass': -56.19, 'pitch': -3.36, 'roll': 0.71}
{'lipoC2': 7.59, 'temp': 33.56, 'lipoC3S3': 12.04, 'state': 'normal', 'rot1': 451, 'rot0': 443, 'rot3': 0, 'rot2': 0, 'depth': -0.064, 'yaw': 0.01, 'datetime': '2018-12-10 15:24:29.222960', 'mgs': 0, 'flw2': 1.25, 'flw1': 0.0, 'flw0': 1.31, 'time': 25.78, 'compass': -56.19, 'pitch': -3.36, 'roll': 0.7}
{'lipoC2': 7.58, 'temp': 33.63, 'lipoC3S3': 12.04, 'state': 'normal', 'rot1': 455, 'rot0': 446, 'rot3': 0, 'rot2': 0, 'depth': -0.14, 'yaw': 0.01, 'datetime': '2018-12-10 15:24:29.432738', 'mgs': 0, 'flw2': 1.2, 'flw1': 0.0, 'flw0': 1.2, 'time': 25.99, 'compass': -56.19, 'pitch': -3.36, 'roll': 0.71}
{'lipoC2': 7.59, 'temp': 33.63, 'lipoC3S3': 12.04, 'state': 'normal', 'rot1': 458, 'rot0': 450, 'rot3': 0, 'rot2': 0, 'depth': -0.14, 'yaw': 0.01, 'datetime': '2018-12-10 15:24:29.643454', 'mgs': 0, 'flw2': 1.21, 'flw1': 0.0, 'flw0': 1.18, 'time': 26.2, 'compass': -56.19, 'pitch': -3.36, 'roll': 0.71}
{'lipoC2': 7.59, 'temp': 33.63, 'lipoC3S3': 12.09, 'state': 'normal', 'rot1': 462, 'rot0': 454, 'rot3': 0, 'rot2': 0, 'depth': -0.217, 'yaw': 0.01, 'datetime': '2018-12-10 15:24:29.853922', 'mgs': 0, 'flw2': 1.18, 'flw1': 0.0, 'flw0': 1.28, 'time': 26.41, 'compass': -56.19, 'pitch': -3.36, 'roll': 0.71}
{'lipoC2': 7.58, 'temp': 33.63, 'lipoC3S3': 11.93, 'state': 'normal', 'rot1': 466, 'rot0': 457, 'rot3': 0, 'rot2': 0, 'depth': -0.14, 'yaw': 0.01, 'datetime': '2018-12-10 15:24:30.063838', 'mgs': 0, 'flw2': 1.17, 'flw1': 0.0, 'flw0': 1.2, 'time': 26.62, 'compass': -56.19, 'pitch': -3.36, 'roll': 0.71}
{'lipoC2': 7.58, 'temp': 33.69, 'lipoC3S3': 12.02, 'state': 'normal', 'rot1': 470, 'rot0': 461, 'rot3': 0, 'rot2': 0, 'depth': -0.217, 'yaw': 0.01, 'datetime': '2018-12-10 15:24:30.276813', 'mgs': 0, 'flw2': 1.18, 'flw1': 0.0, 'flw0': 1.14, 'time': 26.83, 'compass': -56.19, 'pitch': -3.36, 'roll': 0.71}
{'lipoC2': 7.59, 'temp': 33.56, 'lipoC3S3': 12.02, 'state': 'normal', 'rot1': 473, 'rot0': 464, 'rot3': 0, 'rot2': 0, 'depth': -0.14, 'yaw': 0.01, 'datetime': '2018-12-10 15:24:30.487200', 'mgs': 0, 'flw2': 1.27, 'flw1': 0.0, 'flw0': 1.2, 'time': 27.04, 'compass': -56.19, 'pitch': -3.36, 'roll': 0.71}
{'lipoC2': 7.58, 'temp': 33.63, 'lipoC3S3': 12.02, 'state': 'normal', 'rot1': 477, 'rot0': 468, 'rot3': 0, 'rot2': 0, 'depth': -0.446, 'yaw': 0.01, 'datetime': '2018-12-10 15:24:30.695585', 'mgs': 0, 'flw2': 1.22, 'flw1': 0.0, 'flw0': 1.2, 'time': 27.25, 'compass': -56.19, 'pitch': -3.36, 'roll': 0.71}
{'lipoC2': 7.59, 'temp': 33.63, 'lipoC3S3': 12.02, 'state': 'normal', 'rot1': 481, 'rot0': 472, 'rot3': 0, 'rot2': 0, 'depth': -0.064, 'yaw': 0.01, 'datetime': '2018-12-10 15:24:30.905580', 'mgs': 0, 'flw2': 1.28, 'flw1': 0.0, 'flw0': 1.14, 'time': 27.46, 'compass': -56.19, 'pitch': -3.36, 'roll': 0.72}
{'lipoC2': 7.59, 'temp': 33.56, 'lipoC3S3': 12.04, 'state': 'normal', 'rot1': 485, 'rot0': 475, 'rot3': 0, 'rot2': 0, 'depth': -0.14, 'yaw': 0.01, 'datetime': '2018-12-10 15:24:31.117678', 'mgs': 0, 'flw2': 1.22, 'flw1': 0.0, 'flw0': 1.22, 'time': 27.67, 'compass': -56.19, 'pitch': -3.36, 'roll': 0.72}
{'lipoC2': 7.59, 'temp': 33.56, 'lipoC3S3': 12.04, 'state': 'normal', 'rot1': 488, 'rot0': 479, 'rot3': 0, 'rot2': 0, 'depth': -0.14, 'yaw': 0.01, 'datetime': '2018-12-10 15:24:31.328602', 'mgs': 0, 'flw2': 1.22, 'flw1': 0.0, 'flw0': 1.31, 'time': 27.88, 'compass': -56.19, 'pitch': -3.36, 'roll': 0.72}
{'lipoC2': 7.59, 'temp': 33.56, 'lipoC3S3': 12.1, 'state': 'normal', 'rot1': 492, 'rot0': 482, 'rot3': 0, 'rot2': 0, 'depth': -0.14, 'yaw': 0.01, 'datetime': '2018-12-10 15:24:31.540947', 'mgs': 0, 'flw2': 1.16, 'flw1': 0.0, 'flw0': 1.25, 'time': 28.09, 'compass': -56.19, 'pitch': -3.36, 'roll': 0.72}
{'lipoC2': 7.58, 'temp': 33.56, 'lipoC3S3': 12.02, 'state': 'normal', 'rot1': 496, 'rot0': 486, 'rot3': 0, 'rot2': 0, 'depth': -0.217, 'yaw': 0.01, 'datetime': '2018-12-10 15:24:31.746155', 'mgs': 0, 'flw2': 1.17, 'flw1': 0.0, 'flw0': 1.18, 'time': 28.3, 'compass': -56.19, 'pitch': -3.36, 'roll': 0.72}
{'lipoC2': 7.59, 'temp': 33.56, 'lipoC3S3': 11.96, 'state': 'normal', 'rot1': 499, 'rot0': 490, 'rot3': 0, 'rot2': 0, 'depth': -0.217, 'yaw': 0.01, 'datetime': '2018-12-10 15:24:31.961652', 'mgs': 0, 'flw2': 1.11, 'flw1': 0.0, 'flw0': 1.17, 'time': 28.51, 'compass': -56.19, 'pitch': -3.36, 'roll': 0.72}
{'lipoC2': 7.59, 'temp': 33.56, 'lipoC3S3': 12.02, 'state': 'normal', 'rot1': 503, 'rot0': 493, 'rot3': 0, 'rot2': 0, 'depth': 0.012, 'yaw': 0.01, 'datetime': '2018-12-10 15:24:32.166894', 'mgs': 0, 'flw2': 1.17, 'flw1': 0.0, 'flw0': 1.21, 'time': 28.72, 'compass': -56.19, 'pitch': -3.36, 'roll': 0.71}
{'lipoC2': 7.59, 'temp': 33.56, 'lipoC3S3': 12.02, 'state': 'normal', 'rot1': 507, 'rot0': 497, 'rot3': 0, 'rot2': 0, 'depth': -0.293, 'yaw': 0.01, 'datetime': '2018-12-10 15:24:32.382015', 'mgs': 0, 'flw2': 1.16, 'flw1': 0.0, 'flw0': 1.17, 'time': 28.93, 'compass': -56.19, 'pitch': -3.36, 'roll': 0.72}
{'lipoC2': 7.59, 'temp': 33.63, 'lipoC3S3': 12.04, 'state': 'normal', 'rot1': 511, 'rot0': 500, 'rot3': 0, 'rot2': 0, 'depth': 0.089, 'yaw': 0.01, 'datetime': '2018-12-10 15:24:32.590672', 'mgs': 0, 'flw2': 1.23, 'flw1': 0.0, 'flw0': 1.11, 'time': 29.14, 'compass': -56.19, 'pitch': -3.35, 'roll': 0.72}
{'lipoC2': 7.59, 'temp': 33.63, 'lipoC3S3': 12.04, 'state': 'normal', 'rot1': 514, 'rot0': 504, 'rot3': 0, 'rot2': 0, 'depth': 0.241, 'yaw': 0.01, 'datetime': '2018-12-10 15:24:32.801852', 'mgs': 0, 'flw2': 1.23, 'flw1': 0.0, 'flw0': 1.18, 'time': 29.35, 'compass': -56.19, 'pitch': -3.32, 'roll': 0.73}
{'lipoC2': 7.59, 'temp': 33.63, 'lipoC3S3': 12.04, 'state': 'normal', 'rot1': 518, 'rot0': 508, 'rot3': 0, 'rot2': 0, 'depth': -0.064, 'yaw': 0.01, 'datetime': '2018-12-10 15:24:33.008312', 'mgs': 0, 'flw2': 1.21, 'flw1': 0.0, 'flw0': 1.25, 'time': 29.56, 'compass': -56.19, 'pitch': -3.3, 'roll': 0.73}
{'lipoC2': 7.59, 'temp': 33.56, 'lipoC3S3': 12.05, 'state': 'normal', 'rot1': 522, 'rot0': 511, 'rot3': 0, 'rot2': 0, 'depth': -0.14, 'yaw': 0.01, 'datetime': '2018-12-10 15:24:33.223498', 'mgs': 0, 'flw2': 1.17, 'flw1': 0.0, 'flw0': 1.2, 'time': 29.77, 'compass': -56.19, 'pitch': -3.27, 'roll': 0.74}
{'lipoC2': 7.59, 'temp': 33.63, 'lipoC3S3': 12.04, 'state': 'normal', 'rot1': 525, 'rot0': 515, 'rot3': 0, 'rot2': 0, 'depth': -0.14, 'yaw': 0.01, 'datetime': '2018-12-10 15:24:33.429403', 'mgs': 0, 'flw2': 1.22, 'flw1': 0.0, 'flw0': 1.25, 'time': 29.99, 'compass': -56.19, 'pitch': -3.26, 'roll': 0.73}
{'lipoC2': 7.59, 'temp': 33.56, 'lipoC3S3': 11.98, 'state': 'normal', 'rot1': 529, 'rot0': 519, 'rot3': 0, 'rot2': 0, 'depth': -0.217, 'yaw': 0.01, 'datetime': '2018-12-10 15:24:33.639551', 'mgs': 0, 'flw2': 1.2, 'flw1': 0.0, 'flw0': 1.25, 'time': 30.2, 'compass': -56.19, 'pitch': -3.24, 'roll': 0.74}
{'lipoC2': 7.59, 'temp': 33.56, 'lipoC3S3': 11.92, 'state': 'normal', 'rot1': 533, 'rot0': 522, 'rot3': 0, 'rot2': 0, 'depth': -0.14, 'yaw': 0.01, 'datetime': '2018-12-10 15:24:33.848806', 'mgs': 0, 'flw2': 1.18, 'flw1': 0.0, 'flw0': 1.17, 'time': 30.41, 'compass': -56.19, 'pitch': -3.24, 'roll': 0.75}
{'lipoC2': 7.59, 'temp': 33.56, 'lipoC3S3': 12.02, 'state': 'normal', 'rot1': 536, 'rot0': 526, 'rot3': 0, 'rot2': 0, 'depth': -0.14, 'yaw': 0.01, 'datetime': '2018-12-10 15:24:34.062989', 'mgs': 0, 'flw2': 1.18, 'flw1': 0.0, 'flw0': 1.14, 'time': 30.62, 'compass': -56.19, 'pitch': -3.24, 'roll': 0.75}
{'lipoC2': 7.58, 'temp': 33.63, 'lipoC3S3': 12.04, 'state': 'normal', 'rot1': 540, 'rot0': 529, 'rot3': 0, 'rot2': 0, 'depth': 0.317, 'yaw': 0.01, 'datetime': '2018-12-10 15:24:34.273811', 'mgs': 0, 'flw2': 1.25, 'flw1': 0.0, 'flw0': 1.2, 'time': 30.83, 'compass': -56.19, 'pitch': -3.24, 'roll': 0.75}
{'lipoC2': 7.59, 'temp': 33.63, 'lipoC3S3': 12.01, 'state': 'normal', 'rot1': 544, 'rot0': 533, 'rot3': 0, 'rot2': 0, 'depth': -0.369, 'yaw': 0.01, 'datetime': '2018-12-10 15:24:34.484501', 'mgs': 0, 'flw2': 1.25, 'flw1': 0.0, 'flw0': 1.22, 'time': 31.04, 'compass': -56.19, 'pitch': -3.23, 'roll': 0.76}
{'lipoC2': 7.59, 'temp': 33.63, 'lipoC3S3': 12.02, 'state': 'normal', 'rot1': 548, 'rot0': 537, 'rot3': 0, 'rot2': 0, 'depth': 0.089, 'yaw': 0.01, 'datetime': '2018-12-10 15:24:34.694132', 'mgs': 0, 'flw2': 1.28, 'flw1': 0.0, 'flw0': 1.15, 'time': 31.25, 'compass': -56.19, 'pitch': -3.23, 'roll': 0.76}
{'lipoC2': 7.59, 'temp': 33.56, 'lipoC3S3': 12.02, 'state': 'normal', 'rot1': 551, 'rot0': 540, 'rot3': 0, 'rot2': 0, 'depth': -0.217, 'yaw': 0.01, 'datetime': '2018-12-10 15:24:34.904169', 'mgs': 0, 'flw2': 1.28, 'flw1': 0.0, 'flw0': 1.15, 'time': 31.46, 'compass': -56.19, 'pitch': -3.24, 'roll': 0.75}
{'lipoC2': 7.59, 'temp': 33.63, 'lipoC3S3': 12.02, 'state': 'normal', 'rot1': 555, 'rot0': 544, 'rot3': 0, 'rot2': 0, 'depth': -0.14, 'yaw': 0.01, 'datetime': '2018-12-10 15:24:35.111925', 'mgs': 0, 'flw2': 1.26, 'flw1': 0.0, 'flw0': 1.21, 'time': 31.67, 'compass': -56.19, 'pitch': -3.26, 'roll': 0.75}
{'lipoC2': 7.59, 'temp': 33.56, 'lipoC3S3': 12.04, 'state': 'normal', 'rot1': 559, 'rot0': 548, 'rot3': 0, 'rot2': 0, 'depth': -0.14, 'yaw': 0.01, 'datetime': '2018-12-10 15:24:35.322216', 'mgs': 0, 'flw2': 1.25, 'flw1': 0.0, 'flw0': 1.28, 'time': 31.88, 'compass': -56.19, 'pitch': -3.27, 'roll': 0.75}
{'lipoC2': 7.59, 'temp': 33.56, 'lipoC3S3': 12.02, 'state': 'normal', 'rot1': 563, 'rot0': 551, 'rot3': 0, 'rot2': 0, 'depth': -0.217, 'yaw': 0.01, 'datetime': '2018-12-10 15:24:35.532392', 'mgs': 0, 'flw2': 1.25, 'flw1': 0.0, 'flw0': 1.27, 'time': 32.09, 'compass': -56.19, 'pitch': -3.28, 'roll': 0.75}
{'lipoC2': 7.59, 'temp': 33.63, 'lipoC3S3': 11.96, 'state': 'normal', 'rot1': 566, 'rot0': 555, 'rot3': 0, 'rot2': 0, 'depth': -0.217, 'yaw': 0.01, 'datetime': '2018-12-10 15:24:35.741236', 'mgs': 0, 'flw2': 1.16, 'flw1': 0.0, 'flw0': 1.18, 'time': 32.3, 'compass': -56.19, 'pitch': -3.29, 'roll': 0.75}
{'lipoC2': 7.59, 'temp': 33.56, 'lipoC3S3': 11.98, 'state': 'normal', 'rot1': 570, 'rot0': 558, 'rot3': 0, 'rot2': 0, 'depth': -0.217, 'yaw': 0.01, 'datetime': '2018-12-10 15:24:35.951952', 'mgs': 0, 'flw2': 1.12, 'flw1': 0.0, 'flw0': 1.2, 'time': 32.51, 'compass': -56.19, 'pitch': -3.29, 'roll': 0.75}
{'lipoC2': 7.58, 'temp': 33.63, 'lipoC3S3': 11.96, 'state': 'normal', 'rot1': 574, 'rot0': 562, 'rot3': 0, 'rot2': 0, 'depth': -0.14, 'yaw': 0.01, 'datetime': '2018-12-10 15:24:36.162479', 'mgs': 0, 'flw2': 1.16, 'flw1': 0.0, 'flw0': 1.2, 'time': 32.72, 'compass': -56.19, 'pitch': -3.29, 'roll': 0.75}
{'lipoC2': 7.59, 'temp': 33.63, 'lipoC3S3': 12.02, 'state': 'normal', 'rot1': 578, 'rot0': 566, 'rot3': 0, 'rot2': 0, 'depth': -0.217, 'yaw': 0.01, 'datetime': '2018-12-10 15:24:36.372265', 'mgs': 0, 'flw2': 1.21, 'flw1': 0.0, 'flw0': 1.25, 'time': 32.93, 'compass': -56.19, 'pitch': -3.29, 'roll': 0.75}
{'lipoC2': 7.59, 'temp': 33.56, 'lipoC3S3': 11.92, 'state': 'normal', 'rot1': 582, 'rot0': 570, 'rot3': 0, 'rot2': 0, 'depth': -0.217, 'yaw': 0.01, 'datetime': '2018-12-10 15:24:36.584415', 'mgs': 0, 'flw2': 1.16, 'flw1': 0.0, 'flw0': 1.2, 'time': 33.14, 'compass': -56.19, 'pitch': -3.29, 'roll': 0.75}
{'lipoC2': 7.59, 'temp': 33.63, 'lipoC3S3': 12.02, 'state': 'normal', 'rot1': 585, 'rot0': 573, 'rot3': 0, 'rot2': 0, 'depth': -0.217, 'yaw': 0.01, 'datetime': '2018-12-10 15:24:36.792978', 'mgs': 0, 'flw2': 1.11, 'flw1': 0.0, 'flw0': 1.12, 'time': 33.35, 'compass': -56.19, 'pitch': -3.29, 'roll': 0.75}
{'lipoC2': 7.59, 'temp': 33.56, 'lipoC3S3': 12.02, 'state': 'normal', 'rot1': 589, 'rot0': 577, 'rot3': 0, 'rot2': 0, 'depth': -0.522, 'yaw': 0.01, 'datetime': '2018-12-10 15:24:37.002484', 'mgs': 0, 'flw2': 1.15, 'flw1': 0.0, 'flw0': 1.22, 'time': 33.56, 'compass': -56.19, 'pitch': -3.29, 'roll': 0.75}
{'lipoC2': 7.59, 'temp': 33.56, 'lipoC3S3': 12.02, 'state': 'normal', 'rot1': 593, 'rot0': 580, 'rot3': 0, 'rot2': 0, 'depth': -0.217, 'yaw': 0.01, 'datetime': '2018-12-10 15:24:37.213043', 'mgs': 0, 'flw2': 1.21, 'flw1': 0.0, 'flw0': 1.18, 'time': 33.77, 'compass': -56.19, 'pitch': -3.29, 'roll': 0.75}
{'lipoC2': 7.59, 'temp': 33.63, 'lipoC3S3': 12.02, 'state': 'normal', 'rot1': 597, 'rot0': 584, 'rot3': 0, 'rot2': 0, 'depth': 0.47, 'yaw': 0.01, 'datetime': '2018-12-10 15:24:37.423770', 'mgs': 0, 'flw2': 1.25, 'flw1': 0.0, 'flw0': 1.12, 'time': 33.99, 'compass': -56.19, 'pitch': -3.28, 'roll': 0.76}
{'lipoC2': 7.59, 'temp': 33.63, 'lipoC3S3': 12.02, 'state': 'normal', 'rot1': 601, 'rot0': 588, 'rot3': 0, 'rot2': 0, 'depth': -0.369, 'yaw': 0.01, 'datetime': '2018-12-10 15:24:37.632185', 'mgs': 0, 'flw2': 1.23, 'flw1': 0.0, 'flw0': 1.18, 'time': 34.19, 'compass': -56.19, 'pitch': -3.28, 'roll': 0.78}
{'lipoC2': 7.58, 'temp': 33.63, 'lipoC3S3': 12.02, 'state': 'normal', 'rot1': 604, 'rot0': 591, 'rot3': 0, 'rot2': 0, 'depth': 0.394, 'yaw': 0.01, 'datetime': '2018-12-10 15:24:37.841762', 'mgs': 0, 'flw2': 1.28, 'flw1': 0.0, 'flw0': 1.2, 'time': 34.41, 'compass': -56.19, 'pitch': -3.29, 'roll': 0.78}
{'lipoC2': 7.58, 'temp': 33.5, 'lipoC3S3': 12.02, 'state': 'normal', 'rot1': 608, 'rot0': 595, 'rot3': 0, 'rot2': 0, 'depth': 0.317, 'yaw': 0.01, 'datetime': '2018-12-10 15:24:38.051798', 'mgs': 0, 'flw2': 1.26, 'flw1': 0.0, 'flw0': 1.16, 'time': 34.62, 'compass': -56.19, 'pitch': -3.29, 'roll': 0.79}
{'lipoC2': 7.59, 'temp': 33.56, 'lipoC3S3': 12.04, 'state': 'normal', 'rot1': 611, 'rot0': 599, 'rot3': 0, 'rot2': 0, 'depth': -0.217, 'yaw': 0.01, 'datetime': '2018-12-10 15:24:38.264065', 'mgs': 0, 'flw2': 1.25, 'flw1': 0.0, 'flw0': 1.22, 'time': 34.83, 'compass': -56.19, 'pitch': -3.29, 'roll': 0.79}
{'lipoC2': 7.59, 'temp': 33.63, 'lipoC3S3': 12.01, 'state': 'normal', 'rot1': 615, 'rot0': 602, 'rot3': 0, 'rot2': 0, 'depth': -0.217, 'yaw': 0.01, 'datetime': '2018-12-10 15:24:38.474845', 'mgs': 0, 'flw2': 1.18, 'flw1': 0.0, 'flw0': 1.22, 'time': 35.04, 'compass': -56.19, 'pitch': -3.3, 'roll': 0.79}
{'lipoC2': 7.59, 'temp': 33.63, 'lipoC3S3': 12.04, 'state': 'normal', 'rot1': 619, 'rot0': 606, 'rot3': 0, 'rot2': 0, 'depth': -0.217, 'yaw': 0.01, 'datetime': '2018-12-10 15:24:38.685427', 'mgs': 0, 'flw2': 1.18, 'flw1': 0.0, 'flw0': 1.29, 'time': 35.25, 'compass': -56.19, 'pitch': -3.3, 'roll': 0.79}
{'lipoC2': 7.58, 'temp': 33.56, 'lipoC3S3': 11.98, 'state': 'normal', 'rot1': 622, 'rot0': 610, 'rot3': 0, 'rot2': 0, 'depth': -0.217, 'yaw': 0.01, 'datetime': '2018-12-10 15:24:38.893655', 'mgs': 0, 'flw2': 1.12, 'flw1': 0.0, 'flw0': 1.2, 'time': 35.46, 'compass': -56.19, 'pitch': -3.3, 'roll': 0.79}
{'lipoC2': 7.58, 'temp': 33.56, 'lipoC3S3': 11.93, 'state': 'normal', 'rot1': 626, 'rot0': 613, 'rot3': 0, 'rot2': 0, 'depth': -0.217, 'yaw': 0.01, 'datetime': '2018-12-10 15:24:39.103473', 'mgs': 0, 'flw2': 1.16, 'flw1': 0.0, 'flw0': 1.16, 'time': 35.67, 'compass': -56.19, 'pitch': -3.29, 'roll': 0.79}
{'lipoC2': 7.59, 'temp': 33.56, 'lipoC3S3': 12.0, 'state': 'normal', 'rot1': 630, 'rot0': 617, 'rot3': 0, 'rot2': 0, 'depth': -0.217, 'yaw': 0.01, 'datetime': '2018-12-10 15:24:39.313528', 'mgs': 0, 'flw2': 1.14, 'flw1': 0.0, 'flw0': 1.25, 'time': 35.88, 'compass': -56.19, 'pitch': -3.3, 'roll': 0.82}
{'lipoC2': 7.59, 'temp': 33.56, 'lipoC3S3': 12.02, 'state': 'normal', 'rot1': 634, 'rot0': 620, 'rot3': 0, 'rot2': 0, 'depth': 0.47, 'yaw': 0.01, 'datetime': '2018-12-10 15:24:39.526000', 'mgs': 0, 'flw2': 1.22, 'flw1': 0.0, 'flw0': 1.12, 'time': 36.09, 'compass': -56.19, 'pitch': -3.3, 'roll': 0.8}
{'lipoC2': 7.59, 'temp': 33.56, 'lipoC3S3': 12.02, 'state': 'normal', 'rot1': 637, 'rot0': 624, 'rot3': 0, 'rot2': 0, 'depth': -0.217, 'yaw': 0.01, 'datetime': '2018-12-10 15:24:39.736539', 'mgs': 0, 'flw2': 1.23, 'flw1': 0.0, 'flw0': 1.14, 'time': 36.3, 'compass': -56.19, 'pitch': -3.3, 'roll': 0.8}
{'lipoC2': 7.59, 'temp': 33.63, 'lipoC3S3': 12.02, 'state': 'normal', 'rot1': 641, 'rot0': 628, 'rot3': 0, 'rot2': 0, 'depth': -0.293, 'yaw': 0.01, 'datetime': '2018-12-10 15:24:39.947727', 'mgs': 0, 'flw2': 1.21, 'flw1': 0.0, 'flw0': 1.18, 'time': 36.51, 'compass': -56.19, 'pitch': -3.3, 'roll': 0.81}
{'lipoC2': 7.59, 'temp': 33.63, 'lipoC3S3': 12.02, 'state': 'normal', 'rot1': 645, 'rot0': 631, 'rot3': 0, 'rot2': 0, 'depth': -0.217, 'yaw': 0.01, 'datetime': '2018-12-10 15:24:40.157294', 'mgs': 0, 'flw2': 1.23, 'flw1': 0.0, 'flw0': 1.17, 'time': 36.72, 'compass': -56.19, 'pitch': -3.3, 'roll': 0.8}
{'lipoC2': 7.59, 'temp': 33.56, 'lipoC3S3': 12.02, 'state': 'normal', 'rot1': 648, 'rot0': 635, 'rot3': 0, 'rot2': 0, 'depth': 0.012, 'yaw': 0.01, 'datetime': '2018-12-10 15:24:40.367869', 'mgs': 0, 'flw2': 1.25, 'flw1': 0.0, 'flw0': 1.14, 'time': 36.93, 'compass': -56.19, 'pitch': -3.3, 'roll': 0.8}
{'lipoC2': 7.59, 'temp': 33.56, 'lipoC3S3': 12.02, 'state': 'normal', 'rot1': 652, 'rot0': 638, 'rot3': 0, 'rot2': 0, 'depth': -0.14, 'yaw': 0.01, 'datetime': '2018-12-10 15:24:40.580950', 'mgs': 0, 'flw2': 1.22, 'flw1': 0.0, 'flw0': 1.25, 'time': 37.14, 'compass': -56.19, 'pitch': -3.3, 'roll': 0.82}
{'lipoC2': 7.59, 'temp': 33.63, 'lipoC3S3': 12.02, 'state': 'normal', 'rot1': 656, 'rot0': 642, 'rot3': 0, 'rot2': 0, 'depth': -0.064, 'yaw': 0.01, 'datetime': '2018-12-10 15:24:40.788332', 'mgs': 0, 'flw2': 1.25, 'flw1': 0.0, 'flw0': 1.26, 'time': 37.35, 'compass': -56.19, 'pitch': -3.3, 'roll': 0.82}
{'lipoC2': 7.58, 'temp': 33.63, 'lipoC3S3': 12.02, 'state': 'normal', 'rot1': 659, 'rot0': 645, 'rot3': 0, 'rot2': 0, 'depth': -0.14, 'yaw': 0.01, 'datetime': '2018-12-10 15:24:41.003090', 'mgs': 0, 'flw2': 1.25, 'flw1': 0.0, 'flw0': 1.28, 'time': 37.56, 'compass': -56.19, 'pitch': -3.3, 'roll': 0.82}
{'lipoC2': 7.59, 'temp': 33.63, 'lipoC3S3': 12.02, 'state': 'normal', 'rot1': 663, 'rot0': 649, 'rot3': 0, 'rot2': 0, 'depth': -0.14, 'yaw': 0.01, 'datetime': '2018-12-10 15:24:41.210859', 'mgs': 0, 'flw2': 1.23, 'flw1': 0.0, 'flw0': 1.2, 'time': 37.77, 'compass': -56.19, 'pitch': -3.31, 'roll': 0.82}
{'lipoC2': 7.59, 'temp': 33.63, 'lipoC3S3': 12.04, 'state': 'normal', 'rot1': 667, 'rot0': 653, 'rot3': 0, 'rot2': 0, 'depth': -0.14, 'yaw': 0.01, 'datetime': '2018-12-10 15:24:41.423594', 'mgs': 0, 'flw2': 1.23, 'flw1': 0.0, 'flw0': 1.25, 'time': 37.98, 'compass': -56.19, 'pitch': -3.31, 'roll': 0.82}
{'lipoC2': 7.59, 'temp': 33.63, 'lipoC3S3': 11.97, 'state': 'normal', 'rot1': 671, 'rot0': 656, 'rot3': 0, 'rot2': 0, 'depth': -0.217, 'yaw': 0.01, 'datetime': '2018-12-10 15:24:41.633725', 'mgs': 0, 'flw2': 1.2, 'flw1': 0.0, 'flw0': 1.25, 'time': 38.19, 'compass': -56.19, 'pitch': -3.31, 'roll': 0.82}
{'lipoC2': 7.59, 'temp': 33.63, 'lipoC3S3': 12.05, 'state': 'normal', 'rot1': 674, 'rot0': 660, 'rot3': 0, 'rot2': 0, 'depth': -0.217, 'yaw': 0.01, 'datetime': '2018-12-10 15:24:41.840383', 'mgs': 0, 'flw2': 1.2, 'flw1': 0.0, 'flw0': 1.17, 'time': 38.4, 'compass': -56.19, 'pitch': -3.31, 'roll': 0.82}
{'lipoC2': 7.59, 'temp': 33.63, 'lipoC3S3': 12.0, 'state': 'normal', 'rot1': 678, 'rot0': 664, 'rot3': 0, 'rot2': 0, 'depth': -0.217, 'yaw': 0.01, 'datetime': '2018-12-10 15:24:42.051703', 'mgs': 0, 'flw2': 1.2, 'flw1': 0.0, 'flw0': 1.16, 'time': 38.62, 'compass': -56.19, 'pitch': -3.32, 'roll': 0.81}
{'lipoC2': 7.59, 'temp': 33.56, 'lipoC3S3': 12.02, 'state': 'normal', 'rot1': 682, 'rot0': 667, 'rot3': 0, 'rot2': 0, 'depth': 0.089, 'yaw': 0.01, 'datetime': '2018-12-10 15:24:42.260924', 'mgs': 0, 'flw2': 1.27, 'flw1': 0.0, 'flw0': 1.22, 'time': 38.83, 'compass': -56.19, 'pitch': -3.32, 'roll': 0.79}
{'lipoC2': 7.59, 'temp': 33.56, 'lipoC3S3': 12.01, 'state': 'normal', 'rot1': 686, 'rot0': 671, 'rot3': 0, 'rot2': 0, 'depth': -0.369, 'yaw': 0.01, 'datetime': '2018-12-10 15:24:42.473062', 'mgs': 0, 'flw2': 1.2, 'flw1': 0.0, 'flw0': 1.16, 'time': 39.04, 'compass': -56.19, 'pitch': -3.32, 'roll': 0.79}
{'lipoC2': 7.59, 'temp': 33.56, 'lipoC3S3': 12.04, 'state': 'normal', 'rot1': 689, 'rot0': 675, 'rot3': 0, 'rot2': 0, 'depth': -0.14, 'yaw': 0.01, 'datetime': '2018-12-10 15:24:42.681013', 'mgs': 0, 'flw2': 1.21, 'flw1': 0.0, 'flw0': 1.22, 'time': 39.25, 'compass': -56.19, 'pitch': -3.32, 'roll': 0.79}
{'lipoC2': 7.59, 'temp': 33.63, 'lipoC3S3': 12.02, 'state': 'normal', 'rot1': 693, 'rot0': 679, 'rot3': 0, 'rot2': 0, 'depth': -0.14, 'yaw': 0.01, 'datetime': '2018-12-10 15:24:42.895566', 'mgs': 0, 'flw2': 1.17, 'flw1': 0.0, 'flw0': 1.25, 'time': 39.46, 'compass': -56.19, 'pitch': -3.32, 'roll': 0.79}
{'lipoC2': 7.59, 'temp': 33.63, 'lipoC3S3': 12.02, 'state': 'normal', 'rot1': 697, 'rot0': 682, 'rot3': 0, 'rot2': 0, 'depth': -0.217, 'yaw': 0.01, 'datetime': '2018-12-10 15:24:43.102584', 'mgs': 0, 'flw2': 1.18, 'flw1': 0.0, 'flw0': 1.25, 'time': 39.67, 'compass': -56.19, 'pitch': -3.32, 'roll': 0.79}
{'lipoC2': 7.59, 'temp': 33.69, 'lipoC3S3': 12.02, 'state': 'normal', 'rot1': 700, 'rot0': 686, 'rot3': 0, 'rot2': 0, 'depth': -0.217, 'yaw': 0.01, 'datetime': '2018-12-10 15:24:43.311718', 'mgs': 0, 'flw2': 1.21, 'flw1': 0.0, 'flw0': 1.2, 'time': 39.88, 'compass': -56.19, 'pitch': -3.32, 'roll': 0.79}
{'lipoC2': 7.59, 'temp': 33.63, 'lipoC3S3': 12.05, 'state': 'normal', 'rot1': 704, 'rot0': 689, 'rot3': 0, 'rot2': 0, 'depth': -0.14, 'yaw': 0.01, 'datetime': '2018-12-10 15:24:43.521284', 'mgs': 0, 'flw2': 1.2, 'flw1': 0.0, 'flw0': 1.23, 'time': 40.09, 'compass': -56.19, 'pitch': -3.32, 'roll': 0.8}
{'lipoC2': 7.59, 'temp': 33.63, 'lipoC3S3': 12.01, 'state': 'normal', 'rot1': 708, 'rot0': 693, 'rot3': 0, 'rot2': 0, 'depth': -0.14, 'yaw': 0.01, 'datetime': '2018-12-10 15:24:43.735040', 'mgs': 0, 'flw2': 1.18, 'flw1': 0.0, 'flw0': 1.27, 'time': 40.3, 'compass': -56.19, 'pitch': -3.32, 'roll': 0.81}
{'lipoC2': 7.59, 'temp': 33.63, 'lipoC3S3': 12.02, 'state': 'normal', 'rot1': 711, 'rot0': 697, 'rot3': 0, 'rot2': 0, 'depth': -0.369, 'yaw': 0.01, 'datetime': '2018-12-10 15:24:43.946073', 'mgs': 0, 'flw2': 1.22, 'flw1': 0.0, 'flw0': 1.14, 'time': 40.51, 'compass': -56.19, 'pitch': -3.32, 'roll': 0.81}
{'lipoC2': 7.59, 'temp': 33.63, 'lipoC3S3': 12.01, 'state': 'normal', 'rot1': 715, 'rot0': 701, 'rot3': 0, 'rot2': 0, 'depth': -0.14, 'yaw': 0.01, 'datetime': '2018-12-10 15:24:44.154144', 'mgs': 0, 'flw2': 1.23, 'flw1': 0.0, 'flw0': 1.1, 'time': 40.72, 'compass': -56.19, 'pitch': -3.32, 'roll': 0.8}
{'lipoC2': 7.59, 'temp': 33.63, 'lipoC3S3': 12.02, 'state': 'normal', 'rot1': 719, 'rot0': 704, 'rot3': 0, 'rot2': 0, 'depth': 0.012, 'yaw': 0.01, 'datetime': '2018-12-10 15:24:44.368763', 'mgs': 0, 'flw2': 1.2, 'flw1': 0.0, 'flw0': 1.17, 'time': 40.93, 'compass': -56.19, 'pitch': -3.32, 'roll': 0.81}
{'lipoC2': 7.58, 'temp': 33.56, 'lipoC3S3': 12.04, 'state': 'normal', 'rot1': 723, 'rot0': 708, 'rot3': 0, 'rot2': 0, 'depth': -0.14, 'yaw': 0.01, 'datetime': '2018-12-10 15:24:44.575133', 'mgs': 0, 'flw2': 1.18, 'flw1': 0.0, 'flw0': 1.28, 'time': 41.14, 'compass': -56.19, 'pitch': -3.32, 'roll': 0.81}
{'lipoC2': 7.59, 'temp': 33.56, 'lipoC3S3': 12.04, 'state': 'normal', 'rot1': 726, 'rot0': 712, 'rot3': 0, 'rot2': 0, 'depth': -0.217, 'yaw': 0.01, 'datetime': '2018-12-10 15:24:44.788217', 'mgs': 0, 'flw2': 1.16, 'flw1': 0.0, 'flw0': 1.27, 'time': 41.35, 'compass': -56.19, 'pitch': -3.32, 'roll': 0.8}
{'lipoC2': 7.59, 'temp': 33.63, 'lipoC3S3': 12.1, 'state': 'normal', 'rot1': 730, 'rot0': 715, 'rot3': 0, 'rot2': 0, 'depth': -0.217, 'yaw': 0.01, 'datetime': '2018-12-10 15:24:44.996856', 'mgs': 0, 'flw2': 1.17, 'flw1': 0.0, 'flw0': 1.26, 'time': 41.56, 'compass': -56.19, 'pitch': -3.32, 'roll': 0.8}
{'lipoC2': 7.59, 'temp': 33.63, 'lipoC3S3': 12.04, 'state': 'normal', 'rot1': 734, 'rot0': 719, 'rot3': 0, 'rot2': 0, 'depth': -0.217, 'yaw': 0.01, 'datetime': '2018-12-10 15:24:45.203881', 'mgs': 0, 'flw2': 1.17, 'flw1': 0.0, 'flw0': 1.15, 'time': 41.77, 'compass': -56.19, 'pitch': -3.32, 'roll': 0.81}
{'lipoC2': 7.59, 'temp': 33.63, 'lipoC3S3': 12.0, 'state': 'normal', 'rot1': 738, 'rot0': 722, 'rot3': 0, 'rot2': 0, 'depth': -0.217, 'yaw': 0.01, 'datetime': '2018-12-10 15:24:45.417898', 'mgs': 0, 'flw2': 1.18, 'flw1': 0.0, 'flw0': 1.18, 'time': 41.98, 'compass': -56.19, 'pitch': -3.32, 'roll': 0.81}
{'lipoC2': 7.59, 'temp': 33.63, 'lipoC3S3': 12.0, 'state': 'normal', 'rot1': 741, 'rot0': 726, 'rot3': 0, 'rot2': 0, 'depth': -0.14, 'yaw': 0.01, 'datetime': '2018-12-10 15:24:45.628223', 'mgs': 0, 'flw2': 1.17, 'flw1': 0.0, 'flw0': 1.23, 'time': 42.19, 'compass': -56.19, 'pitch': -3.32, 'roll': 0.8}
{'lipoC2': 7.59, 'temp': 33.63, 'lipoC3S3': 12.02, 'state': 'normal', 'rot1': 745, 'rot0': 730, 'rot3': 0, 'rot2': 0, 'depth': -0.14, 'yaw': 0.01, 'datetime': '2018-12-10 15:24:45.834263', 'mgs': 0, 'flw2': 1.26, 'flw1': 0.0, 'flw0': 1.26, 'time': 42.4, 'compass': -56.19, 'pitch': -3.32, 'roll': 0.79}
{'lipoC2': 7.58, 'temp': 33.63, 'lipoC3S3': 12.02, 'state': 'normal', 'rot1': 749, 'rot0': 734, 'rot3': 0, 'rot2': 0, 'depth': 0.47, 'yaw': 0.01, 'datetime': '2018-12-10 15:24:46.046156', 'mgs': 0, 'flw2': 1.27, 'flw1': 0.0, 'flw0': 1.18, 'time': 42.61, 'compass': -56.19, 'pitch': -3.32, 'roll': 0.78}
{'lipoC2': 7.59, 'temp': 33.63, 'lipoC3S3': 12.02, 'state': 'normal', 'rot1': 752, 'rot0': 737, 'rot3': 0, 'rot2': 0, 'depth': -0.14, 'yaw': 0.01, 'datetime': '2018-12-10 15:24:46.259018', 'mgs': 0, 'flw2': 1.25, 'flw1': 0.0, 'flw0': 1.16, 'time': 42.83, 'compass': -56.19, 'pitch': -3.32, 'roll': 0.78}
