{'lipoC2': 7.54, 'temp': 0.0, 'lipoC3S3': 11.46, 'state': 'normal', 'rot1': 0, 'rot0': 0, 'rot3': 0, 'rot2': 0, 'depth': -1.666, 'yaw': 0.0, 'datetime': '2018-12-12 13:34:34.880766', 'mgs': 0, 'flw2': 0.0, 'flw1': 0.0, 'flw0': 0.0, 'time': 1.26, 'compass': 143.39, 'pitch': -1.54, 'roll': -1.57}
{'lipoC2': 7.54, 'temp': 0.0, 'lipoC3S3': 11.46, 'state': 'normal', 'rot1': 0, 'rot0': 0, 'rot3': 0, 'rot2': 0, 'depth': -1.59, 'yaw': 0.01, 'datetime': '2018-12-12 13:34:35.089415', 'mgs': 0, 'flw2': 0.0, 'flw1': 0.0, 'flw0': 0.0, 'time': 1.47, 'compass': 143.4, 'pitch': -2.01, 'roll': -1.35}
{'lipoC2': 7.61, 'temp': 0.0, 'lipoC3S3': 11.46, 'state': 'normal', 'rot1': 0, 'rot0': 0, 'rot3': 0, 'rot2': 0, 'depth': -1.437, 'yaw': 0.02, 'datetime': '2018-12-12 13:34:35.300717', 'mgs': 0, 'flw2': 0.0, 'flw1': 0.0, 'flw0': 0.0, 'time': 1.67, 'compass': 143.41, 'pitch': -2.29, 'roll': -1.22}
{'lipoC2': 7.55, 'temp': 0.0, 'lipoC3S3': 11.29, 'state': 'normal', 'rot1': 0, 'rot0': 0, 'rot3': 0, 'rot2': 0, 'depth': -2.658, 'yaw': 0.03, 'datetime': '2018-12-12 13:34:35.505953', 'mgs': 0, 'flw2': 0.0, 'flw1': 0.59, 'flw0': 0.0, 'time': 1.88, 'compass': 143.42, 'pitch': -2.48, 'roll': -1.13}
{'lipoC2': 7.55, 'temp': 0.0, 'lipoC3S3': 11.09, 'state': 'normal', 'rot1': 4, 'rot0': 5, 'rot3': 0, 'rot2': 0, 'depth': -0.064, 'yaw': 0.02, 'datetime': '2018-12-12 13:34:35.712411', 'mgs': 0, 'flw2': 5.43, 'flw1': 0.0, 'flw0': 5.87, 'time': 2.09, 'compass': 143.41, 'pitch': -2.62, 'roll': -1.07}
{'lipoC2': 7.64, 'temp': 0.0, 'lipoC3S3': 11.39, 'state': 'normal', 'rot1': 12, 'rot0': 12, 'rot3': 0, 'rot2': 0, 'depth': -1.361, 'yaw': 0.03, 'datetime': '2018-12-12 13:34:35.922162', 'mgs': 0, 'flw2': 2.26, 'flw1': 0.0, 'flw0': 2.17, 'time': 2.3, 'compass': 143.42, 'pitch': -2.7, 'roll': -1.03}
{'lipoC2': 7.5, 'temp': 0.0, 'lipoC3S3': 11.36, 'state': 'normal', 'rot1': 19, 'rot0': 18, 'rot3': 0, 'rot2': 0, 'depth': -2.353, 'yaw': 0.04, 'datetime': '2018-12-12 13:34:36.131815', 'mgs': 0, 'flw2': 1.79, 'flw1': 0.0, 'flw0': 1.99, 'time': 2.51, 'compass': 143.43, 'pitch': -2.69, 'roll': -1.01}
{'lipoC2': 7.61, 'temp': 0.0, 'lipoC3S3': 11.21, 'state': 'normal', 'rot1': 26, 'rot0': 25, 'rot3': 0, 'rot2': 0, 'depth': -2.505, 'yaw': 0.04, 'datetime': '2018-12-12 13:34:36.340293', 'mgs': 0, 'flw2': 1.78, 'flw1': 0.0, 'flw0': 1.73, 'time': 2.72, 'compass': 143.43, 'pitch': -2.7, 'roll': -0.98}
{'lipoC2': 7.65, 'temp': 0.0, 'lipoC3S3': 11.32, 'state': 'normal', 'rot1': 33, 'rot0': 32, 'rot3': 0, 'rot2': 0, 'depth': -2.277, 'yaw': 0.04, 'datetime': '2018-12-12 13:34:36.555270', 'mgs': 0, 'flw2': 1.73, 'flw1': 0.44, 'flw0': 1.76, 'time': 2.92, 'compass': 143.43, 'pitch': -2.68, 'roll': -0.97}
{'lipoC2': 7.37, 'temp': 0.0, 'lipoC3S3': 11.4, 'state': 'normal', 'rot1': 40, 'rot0': 38, 'rot3': 0, 'rot2': 0, 'depth': -0.827, 'yaw': 0.04, 'datetime': '2018-12-12 13:34:36.762368', 'mgs': 0, 'flw2': 1.7, 'flw1': 0.0, 'flw0': 1.73, 'time': 3.13, 'compass': 143.44, 'pitch': -2.71, 'roll': -0.96}
{'lipoC2': 7.51, 'temp': 0.0, 'lipoC3S3': 11.25, 'state': 'normal', 'rot1': 46, 'rot0': 44, 'rot3': 0, 'rot2': 0, 'depth': -2.505, 'yaw': 0.05, 'datetime': '2018-12-12 13:34:36.973285', 'mgs': 0, 'flw2': 1.7, 'flw1': 0.0, 'flw0': 2.05, 'time': 3.34, 'compass': 143.44, 'pitch': -2.69, 'roll': -0.96}
{'lipoC2': 7.4, 'temp': 0.0, 'lipoC3S3': 11.69, 'state': 'normal', 'rot1': 53, 'rot0': 50, 'rot3': 0, 'rot2': 0, 'depth': 0.699, 'yaw': 0.03, 'datetime': '2018-12-12 13:34:37.180545', 'mgs': 0, 'flw2': 1.72, 'flw1': 0.0, 'flw0': 1.78, 'time': 3.55, 'compass': 143.43, 'pitch': -2.92, 'roll': -0.9}
{'lipoC2': 7.64, 'temp': 0.0, 'lipoC3S3': 11.25, 'state': 'normal', 'rot1': 60, 'rot0': 57, 'rot3': 0, 'rot2': 0, 'depth': -2.124, 'yaw': 0.04, 'datetime': '2018-12-12 13:34:37.389608', 'mgs': 0, 'flw2': 2.0, 'flw1': 0.0, 'flw0': 2.15, 'time': 3.76, 'compass': 143.43, 'pitch': -3.03, 'roll': -0.88}
{'lipoC2': 7.47, 'temp': 0.0, 'lipoC3S3': 11.39, 'state': 'normal', 'rot1': 67, 'rot0': 63, 'rot3': 0, 'rot2': 0, 'depth': -1.132, 'yaw': 0.03, 'datetime': '2018-12-12 13:34:37.601312', 'mgs': 0, 'flw2': 1.75, 'flw1': 0.0, 'flw0': 2.05, 'time': 3.97, 'compass': 143.43, 'pitch': -3.13, 'roll': -0.87}
{'lipoC2': 7.46, 'temp': 0.0, 'lipoC3S3': 11.38, 'state': 'normal', 'rot1': 73, 'rot0': 69, 'rot3': 0, 'rot2': 0, 'depth': -1.895, 'yaw': 0.02, 'datetime': '2018-12-12 13:34:37.809364', 'mgs': 0, 'flw2': 1.9, 'flw1': 0.0, 'flw0': 2.21, 'time': 4.18, 'compass': 143.41, 'pitch': -3.17, 'roll': -0.86}
{'lipoC2': 7.64, 'temp': 0.0, 'lipoC3S3': 11.38, 'state': 'normal', 'rot1': 80, 'rot0': 76, 'rot3': 0, 'rot2': 0, 'depth': 0.928, 'yaw': -0.01, 'datetime': '2018-12-12 13:34:38.019042', 'mgs': 0, 'flw2': 2.14, 'flw1': 0.0, 'flw0': 1.98, 'time': 4.39, 'compass': 143.39, 'pitch': -3.23, 'roll': -0.85}
{'lipoC2': 7.42, 'temp': 0.0, 'lipoC3S3': 11.39, 'state': 'normal', 'rot1': 87, 'rot0': 82, 'rot3': 0, 'rot2': 0, 'depth': -2.048, 'yaw': 0.0, 'datetime': '2018-12-12 13:34:38.229417', 'mgs': 0, 'flw2': 1.65, 'flw1': 0.0, 'flw0': 1.78, 'time': 4.6, 'compass': 143.4, 'pitch': -3.35, 'roll': -0.83}
{'lipoC2': 7.38, 'temp': 0.0, 'lipoC3S3': 11.43, 'state': 'normal', 'rot1': 93, 'rot0': 88, 'rot3': 0, 'rot2': 0, 'depth': -1.361, 'yaw': 0.0, 'datetime': '2018-12-12 13:34:38.438492', 'mgs': 0, 'flw2': 1.79, 'flw1': 0.06, 'flw0': 1.87, 'time': 4.81, 'compass': 143.4, 'pitch': -3.42, 'roll': -0.82}
{'lipoC2': 7.43, 'temp': 0.0, 'lipoC3S3': 11.47, 'state': 'normal', 'rot1': 99, 'rot0': 94, 'rot3': 0, 'rot2': 0, 'depth': 0.394, 'yaw': -0.0, 'datetime': '2018-12-12 13:34:38.650196', 'mgs': 0, 'flw2': 1.64, 'flw1': 0.29, 'flw0': 1.78, 'time': 5.02, 'compass': 143.39, 'pitch': -3.47, 'roll': -0.8}
{'lipoC2': 7.65, 'temp': 0.0, 'lipoC3S3': 11.35, 'state': 'normal', 'rot1': 105, 'rot0': 100, 'rot3': 0, 'rot2': 0, 'depth': 0.775, 'yaw': -0.01, 'datetime': '2018-12-12 13:34:38.858530', 'mgs': 0, 'flw2': 2.06, 'flw1': 0.0, 'flw0': 2.2, 'time': 5.23, 'compass': 143.39, 'pitch': -3.5, 'roll': -0.8}
{'lipoC2': 7.66, 'temp': 0.0, 'lipoC3S3': 11.31, 'state': 'normal', 'rot1': 112, 'rot0': 106, 'rot3': 0, 'rot2': 0, 'depth': -1.132, 'yaw': -0.01, 'datetime': '2018-12-12 13:34:39.067927', 'mgs': 0, 'flw2': 2.05, 'flw1': 0.0, 'flw0': 2.14, 'time': 5.44, 'compass': 143.38, 'pitch': -3.53, 'roll': -0.79}
{'lipoC2': 7.61, 'temp': 0.0, 'lipoC3S3': 11.22, 'state': 'normal', 'rot1': 118, 'rot0': 112, 'rot3': 0, 'rot2': 0, 'depth': -2.582, 'yaw': -0.02, 'datetime': '2018-12-12 13:34:39.280270', 'mgs': 0, 'flw2': 1.64, 'flw1': 0.0, 'flw0': 1.77, 'time': 5.64, 'compass': 143.37, 'pitch': -3.56, 'roll': -0.76}
{'lipoC2': 7.65, 'temp': 0.0, 'lipoC3S3': 11.32, 'state': 'normal', 'rot1': 125, 'rot0': 119, 'rot3': 0, 'rot2': 0, 'depth': -1.666, 'yaw': -0.02, 'datetime': '2018-12-12 13:34:39.486993', 'mgs': 0, 'flw2': 2.06, 'flw1': 0.0, 'flw0': 1.98, 'time': 5.86, 'compass': 143.37, 'pitch': -3.58, 'roll': -0.76}
{'lipoC2': 7.55, 'temp': 0.0, 'lipoC3S3': 11.25, 'state': 'normal', 'rot1': 132, 'rot0': 125, 'rot3': 0, 'rot2': 0, 'depth': -0.446, 'yaw': -0.02, 'datetime': '2018-12-12 13:34:39.698734', 'mgs': 0, 'flw2': 1.87, 'flw1': 0.0, 'flw0': 2.19, 'time': 6.07, 'compass': 143.37, 'pitch': -3.66, 'roll': -0.75}
{'lipoC2': 7.44, 'temp': 0.0, 'lipoC3S3': 11.6, 'state': 'normal', 'rot1': 139, 'rot0': 132, 'rot3': 0, 'rot2': 0, 'depth': -0.293, 'yaw': -0.02, 'datetime': '2018-12-12 13:34:39.907752', 'mgs': 0, 'flw2': 1.67, 'flw1': 0.67, 'flw0': 1.82, 'time': 6.28, 'compass': 143.37, 'pitch': -3.64, 'roll': -0.77}
{'lipoC2': 7.56, 'temp': 0.0, 'lipoC3S3': 11.18, 'state': 'normal', 'rot1': 145, 'rot0': 138, 'rot3': 0, 'rot2': 0, 'depth': -2.811, 'yaw': -0.03, 'datetime': '2018-12-12 13:34:40.116808', 'mgs': 0, 'flw2': 1.64, 'flw1': 0.26, 'flw0': 1.9, 'time': 6.48, 'compass': 143.36, 'pitch': -3.55, 'roll': -0.79}
{'lipoC2': 7.62, 'temp': 0.0, 'lipoC3S3': 11.26, 'state': 'normal', 'rot1': 152, 'rot0': 145, 'rot3': 0, 'rot2': 0, 'depth': -2.505, 'yaw': -0.03, 'datetime': '2018-12-12 13:34:40.329372', 'mgs': 0, 'flw2': 1.64, 'flw1': 0.0, 'flw0': 1.88, 'time': 6.69, 'compass': 143.36, 'pitch': -3.47, 'roll': -0.82}
{'lipoC2': 7.41, 'temp': 0.0, 'lipoC3S3': 11.71, 'state': 'normal', 'rot1': 158, 'rot0': 151, 'rot3': 0, 'rot2': 0, 'depth': 0.546, 'yaw': -0.09, 'datetime': '2018-12-12 13:34:40.538192', 'mgs': 0, 'flw2': 1.7, 'flw1': 0.29, 'flw0': 1.78, 'time': 6.9, 'compass': 143.3, 'pitch': -2.7, 'roll': -0.87}
{'lipoC2': 7.59, 'temp': 0.0, 'lipoC3S3': 11.22, 'state': 'normal', 'rot1': 165, 'rot0': 158, 'rot3': 0, 'rot2': 0, 'depth': -2.811, 'yaw': -0.05, 'datetime': '2018-12-12 13:34:40.747746', 'mgs': 0, 'flw2': 1.98, 'flw1': 0.0, 'flw0': 2.26, 'time': 7.11, 'compass': 143.35, 'pitch': -0.55, 'roll': -0.91}
{'lipoC2': 7.61, 'temp': 0.0, 'lipoC3S3': 11.36, 'state': 'normal', 'rot1': 172, 'rot0': 164, 'rot3': 0, 'rot2': 0, 'depth': -1.437, 'yaw': 0.58, 'datetime': '2018-12-12 13:34:40.952564', 'mgs': 0, 'flw2': 1.98, 'flw1': 0.0, 'flw0': 2.15, 'time': 7.32, 'compass': 143.97, 'pitch': -0.4, 'roll': -0.81}
{'lipoC2': 7.43, 'temp': 0.0, 'lipoC3S3': 11.6, 'state': 'normal', 'rot1': 180, 'rot0': 171, 'rot3': 0, 'rot2': 0, 'depth': 0.546, 'yaw': 1.74, 'datetime': '2018-12-12 13:34:41.164641', 'mgs': 0, 'flw2': 1.87, 'flw1': 0.0, 'flw0': 2.32, 'time': 7.53, 'compass': 145.13, 'pitch': -0.03, 'roll': -1.36}
{'lipoC2': 7.66, 'temp': 0.0, 'lipoC3S3': 11.32, 'state': 'normal', 'rot1': 189, 'rot0': 179, 'rot3': 0, 'rot2': 0, 'depth': -0.217, 'yaw': 2.66, 'datetime': '2018-12-12 13:34:41.374471', 'mgs': 0, 'flw2': 1.61, 'flw1': 0.0, 'flw0': 1.93, 'time': 7.74, 'compass': 146.05, 'pitch': 2.48, 'roll': -1.37}
{'lipoC2': 7.43, 'temp': 0.0, 'lipoC3S3': 11.61, 'state': 'normal', 'rot1': 198, 'rot0': 186, 'rot3': 0, 'rot2': 0, 'depth': 0.546, 'yaw': 4.14, 'datetime': '2018-12-12 13:34:41.582594', 'mgs': 0, 'flw2': 1.87, 'flw1': 0.29, 'flw0': 1.83, 'time': 7.95, 'compass': 147.53, 'pitch': 4.06, 'roll': -1.66}
{'lipoC2': 7.41, 'temp': 0.0, 'lipoC3S3': 11.46, 'state': 'normal', 'rot1': 205, 'rot0': 193, 'rot3': 0, 'rot2': 0, 'depth': -1.59, 'yaw': 8.03, 'datetime': '2018-12-12 13:34:41.792032', 'mgs': 0, 'flw2': 1.79, 'flw1': 0.26, 'flw0': 2.12, 'time': 8.16, 'compass': 151.43, 'pitch': 2.78, 'roll': -1.89}
{'lipoC2': 7.54, 'temp': 0.0, 'lipoC3S3': 11.29, 'state': 'normal', 'rot1': 214, 'rot0': 202, 'rot3': 0, 'rot2': 0, 'depth': -0.14, 'yaw': 12.43, 'datetime': '2018-12-12 13:34:42.001526', 'mgs': 0, 'flw2': 1.92, 'flw1': 0.23, 'flw0': 2.21, 'time': 8.37, 'compass': 155.83, 'pitch': 2.9, 'roll': -2.11}
{'lipoC2': 7.36, 'temp': 0.0, 'lipoC3S3': 11.36, 'state': 'normal', 'rot1': 223, 'rot0': 211, 'rot3': 0, 'rot2': 0, 'depth': -2.887, 'yaw': 16.45, 'datetime': '2018-12-12 13:34:42.210277', 'mgs': 0, 'flw2': 2.22, 'flw1': 0.0, 'flw0': 2.51, 'time': 8.58, 'compass': 159.84, 'pitch': 4.03, 'roll': -0.37}
{'lipoC2': 7.51, 'temp': 0.0, 'lipoC3S3': 11.39, 'state': 'normal', 'rot1': 232, 'rot0': 219, 'rot3': 0, 'rot2': 0, 'depth': -0.674, 'yaw': 22.56, 'datetime': '2018-12-12 13:34:42.423950', 'mgs': 0, 'flw2': 2.48, 'flw1': 0.0, 'flw0': 2.19, 'time': 8.79, 'compass': 165.95, 'pitch': 3.15, 'roll': -0.25}
{'lipoC2': 7.61, 'temp': 0.0, 'lipoC3S3': 11.4, 'state': 'normal', 'rot1': 240, 'rot0': 227, 'rot3': 0, 'rot2': 0, 'depth': 0.394, 'yaw': 26.03, 'datetime': '2018-12-12 13:34:42.637334', 'mgs': 0, 'flw2': 2.03, 'flw1': 0.23, 'flw0': 2.45, 'time': 9.0, 'compass': 169.42, 'pitch': 3.74, 'roll': -1.16}
{'lipoC2': 7.51, 'temp': 0.0, 'lipoC3S3': 11.29, 'state': 'normal', 'rot1': 249, 'rot0': 234, 'rot3': 0, 'rot2': 0, 'depth': -1.819, 'yaw': 25.42, 'datetime': '2018-12-12 13:34:42.844456', 'mgs': 0, 'flw2': 2.28, 'flw1': 0.0, 'flw0': 2.59, 'time': 9.21, 'compass': 168.81, 'pitch': 4.09, 'roll': -0.67}
{'lipoC2': 7.61, 'temp': 0.0, 'lipoC3S3': 11.17, 'state': 'normal', 'rot1': 256, 'rot0': 242, 'rot3': 0, 'rot2': 0, 'depth': -2.811, 'yaw': 24.7, 'datetime': '2018-12-12 13:34:43.054177', 'mgs': 0, 'flw2': 1.68, 'flw1': 0.0, 'flw0': 2.48, 'time': 9.41, 'compass': 168.1, 'pitch': 4.0, 'roll': -0.36}
{'lipoC2': 7.43, 'temp': 0.0, 'lipoC3S3': 11.68, 'state': 'normal', 'rot1': 264, 'rot0': 249, 'rot3': 0, 'rot2': 0, 'depth': -1.514, 'yaw': 20.96, 'datetime': '2018-12-12 13:34:43.262966', 'mgs': 0, 'flw2': 2.22, 'flw1': 0.0, 'flw0': 2.22, 'time': 9.62, 'compass': 164.35, 'pitch': 4.01, 'roll': -1.01}
{'lipoC2': 7.46, 'temp': 0.0, 'lipoC3S3': 11.44, 'state': 'normal', 'rot1': 271, 'rot0': 256, 'rot3': 0, 'rot2': 0, 'depth': -1.437, 'yaw': 10.71, 'datetime': '2018-12-12 13:34:43.473268', 'mgs': 0, 'flw2': 1.84, 'flw1': 0.0, 'flw0': 2.12, 'time': 9.83, 'compass': 154.1, 'pitch': 4.26, 'roll': -1.81}
{'lipoC2': 7.38, 'temp': 0.0, 'lipoC3S3': 11.42, 'state': 'normal', 'rot1': 279, 'rot0': 263, 'rot3': 0, 'rot2': 0, 'depth': -1.132, 'yaw': -2.82, 'datetime': '2018-12-12 13:34:43.684249', 'mgs': 0, 'flw2': 1.53, 'flw1': 0.0, 'flw0': 1.76, 'time': 10.04, 'compass': 140.57, 'pitch': 6.64, 'roll': -1.65}
{'lipoC2': 7.4, 'temp': 0.0, 'lipoC3S3': 11.47, 'state': 'normal', 'rot1': 287, 'rot0': 269, 'rot3': 0, 'rot2': 0, 'depth': -0.598, 'yaw': -12.56, 'datetime': '2018-12-12 13:34:43.893342', 'mgs': 0, 'flw2': 1.56, 'flw1': 0.12, 'flw0': 1.59, 'time': 10.25, 'compass': 130.84, 'pitch': 4.36, 'roll': -1.1}
{'lipoC2': 7.44, 'temp': 0.0, 'lipoC3S3': 11.35, 'state': 'normal', 'rot1': 293, 'rot0': 275, 'rot3': 0, 'rot2': 0, 'depth': -2.277, 'yaw': -17.6, 'datetime': '2018-12-12 13:34:44.102782', 'mgs': 0, 'flw2': 1.72, 'flw1': 0.0, 'flw0': 1.43, 'time': 10.46, 'compass': 125.79, 'pitch': 4.5, 'roll': -2.99}
{'lipoC2': 7.61, 'temp': 0.0, 'lipoC3S3': 11.27, 'state': 'normal', 'rot1': 299, 'rot0': 280, 'rot3': 0, 'rot2': 0, 'depth': 0.089, 'yaw': -24.11, 'datetime': '2018-12-12 13:34:44.309852', 'mgs': 0, 'flw2': 1.65, 'flw1': 0.0, 'flw0': 1.99, 'time': 10.67, 'compass': 119.29, 'pitch': 4.59, 'roll': -0.67}
{'lipoC2': 7.41, 'temp': 0.0, 'lipoC3S3': 11.69, 'state': 'normal', 'rot1': 304, 'rot0': 285, 'rot3': 0, 'rot2': 0, 'depth': 1.004, 'yaw': -31.97, 'datetime': '2018-12-12 13:34:44.518208', 'mgs': 0, 'flw2': 1.27, 'flw1': 0.0, 'flw0': 1.07, 'time': 10.88, 'compass': 111.43, 'pitch': 5.22, 'roll': 1.14}
{'lipoC2': 7.58, 'temp': 0.0, 'lipoC3S3': 11.43, 'state': 'normal', 'rot1': 308, 'rot0': 290, 'rot3': 0, 'rot2': 0, 'depth': -2.734, 'yaw': -38.76, 'datetime': '2018-12-12 13:34:44.732964', 'mgs': 0, 'flw2': 1.15, 'flw1': 0.23, 'flw0': 1.34, 'time': 11.09, 'compass': 104.64, 'pitch': 4.62, 'roll': 0.26}
{'lipoC2': 7.39, 'temp': 0.0, 'lipoC3S3': 11.39, 'state': 'normal', 'rot1': 313, 'rot0': 295, 'rot3': 0, 'rot2': 0, 'depth': -1.971, 'yaw': -47.14, 'datetime': '2018-12-12 13:34:44.940056', 'mgs': 0, 'flw2': 0.95, 'flw1': 0.0, 'flw0': 1.0, 'time': 11.3, 'compass': 96.26, 'pitch': 4.35, 'roll': -0.78}
{'lipoC2': 7.64, 'temp': 0.0, 'lipoC3S3': 11.32, 'state': 'normal', 'rot1': 318, 'rot0': 299, 'rot3': 0, 'rot2': 0, 'depth': -2.429, 'yaw': -57.58, 'datetime': '2018-12-12 13:34:45.148978', 'mgs': 0, 'flw2': 1.42, 'flw1': 0.0, 'flw0': 1.23, 'time': 11.51, 'compass': 85.81, 'pitch': 4.11, 'roll': 1.14}
{'lipoC2': 7.39, 'temp': 0.0, 'lipoC3S3': 11.38, 'state': 'normal', 'rot1': 321, 'rot0': 303, 'rot3': 0, 'rot2': 0, 'depth': -2.048, 'yaw': -64.88, 'datetime': '2018-12-12 13:34:45.358822', 'mgs': 0, 'flw2': 0.7, 'flw1': 0.0, 'flw0': 0.73, 'time': 11.72, 'compass': 78.52, 'pitch': 3.18, 'roll': 2.1}
{'lipoC2': 7.66, 'temp': 0.0, 'lipoC3S3': 11.34, 'state': 'normal', 'rot1': 325, 'rot0': 306, 'rot3': 0, 'rot2': 0, 'depth': -1.895, 'yaw': -71.18, 'datetime': '2018-12-12 13:34:45.569769', 'mgs': 0, 'flw2': 1.11, 'flw1': 0.0, 'flw0': 0.9, 'time': 11.93, 'compass': 72.21, 'pitch': 3.68, 'roll': -1.44}
{'lipoC2': 7.49, 'temp': 0.0, 'lipoC3S3': 11.4, 'state': 'normal', 'rot1': 328, 'rot0': 309, 'rot3': 0, 'rot2': 0, 'depth': -2.505, 'yaw': -84.68, 'datetime': '2018-12-12 13:34:45.779973', 'mgs': 0, 'flw2': 0.35, 'flw1': 0.0, 'flw0': 0.54, 'time': 12.14, 'compass': 58.71, 'pitch': 3.87, 'roll': 0.99}
{'lipoC2': 7.35, 'temp': 0.0, 'lipoC3S3': 11.38, 'state': 'normal', 'rot1': 332, 'rot0': 312, 'rot3': 0, 'rot2': 0, 'depth': -1.895, 'yaw': -91.34, 'datetime': '2018-12-12 13:34:45.985863', 'mgs': 0, 'flw2': 0.45, 'flw1': 0.0, 'flw0': 0.59, 'time': 12.35, 'compass': 52.05, 'pitch': 3.62, 'roll': 2.65}
{'lipoC2': 7.37, 'temp': 0.0, 'lipoC3S3': 11.42, 'state': 'normal', 'rot1': 334, 'rot0': 314, 'rot3': 0, 'rot2': 0, 'depth': -1.285, 'yaw': -98.3, 'datetime': '2018-12-12 13:34:46.196396', 'mgs': 0, 'flw2': 0.26, 'flw1': 0.0, 'flw0': 0.39, 'time': 12.56, 'compass': 45.09, 'pitch': 5.38, 'roll': -1.13}
{'lipoC2': 7.62, 'temp': 0.0, 'lipoC3S3': 11.27, 'state': 'normal', 'rot1': 336, 'rot0': 316, 'rot3': 0, 'rot2': 0, 'depth': -2.505, 'yaw': -111.26, 'datetime': '2018-12-12 13:34:46.407263', 'mgs': 0, 'flw2': 0.59, 'flw1': 0.0, 'flw0': 0.54, 'time': 12.77, 'compass': 32.14, 'pitch': 3.5, 'roll': -0.33}
{'lipoC2': 7.5, 'temp': 0.0, 'lipoC3S3': 11.4, 'state': 'normal', 'rot1': 338, 'rot0': 317, 'rot3': 0, 'rot2': 0, 'depth': -2.582, 'yaw': -117.56, 'datetime': '2018-12-12 13:34:46.615844', 'mgs': 0, 'flw2': 0.0, 'flw1': 0.0, 'flw0': 0.11, 'time': 12.97, 'compass': 25.83, 'pitch': 4.53, 'roll': 1.42}
{'lipoC2': 7.38, 'temp': 0.0, 'lipoC3S3': 11.36, 'state': 'normal', 'rot1': 339, 'rot0': 318, 'rot3': 0, 'rot2': 0, 'depth': -2.048, 'yaw': -123.11, 'datetime': '2018-12-12 13:34:46.829776', 'mgs': 0, 'flw2': 0.17, 'flw1': 0.0, 'flw0': 0.01, 'time': 13.18, 'compass': 20.29, 'pitch': 3.77, 'roll': 0.01}
{'lipoC2': 7.55, 'temp': 0.0, 'lipoC3S3': 11.3, 'state': 'normal', 'rot1': 340, 'rot0': 320, 'rot3': 0, 'rot2': 0, 'depth': -0.369, 'yaw': -131.27, 'datetime': '2018-12-12 13:34:47.036732', 'mgs': 0, 'flw2': 0.21, 'flw1': 0.0, 'flw0': 0.44, 'time': 13.39, 'compass': 12.12, 'pitch': 4.69, 'roll': -2.19}
{'lipoC2': 7.42, 'temp': 0.0, 'lipoC3S3': 11.58, 'state': 'normal', 'rot1': 341, 'rot0': 321, 'rot3': 0, 'rot2': 0, 'depth': -0.98, 'yaw': -140.13, 'datetime': '2018-12-12 13:34:47.248788', 'mgs': 0, 'flw2': 0.02, 'flw1': 0.0, 'flw0': 0.07, 'time': 13.6, 'compass': 3.26, 'pitch': 3.18, 'roll': -0.48}
{'lipoC2': 7.38, 'temp': 0.0, 'lipoC3S3': 11.47, 'state': 'normal', 'rot1': 342, 'rot0': 322, 'rot3': 0, 'rot2': 0, 'depth': -1.971, 'yaw': -144.07, 'datetime': '2018-12-12 13:34:47.456963', 'mgs': 0, 'flw2': 0.0, 'flw1': 0.5, 'flw0': 0.0, 'time': 13.81, 'compass': -0.67, 'pitch': 4.25, 'roll': -0.21}
{'lipoC2': 7.35, 'temp': 0.0, 'lipoC3S3': 11.38, 'state': 'normal', 'rot1': 342, 'rot0': 322, 'rot3': 0, 'rot2': 0, 'depth': -1.743, 'yaw': -146.81, 'datetime': '2018-12-12 13:34:47.669743', 'mgs': 0, 'flw2': 0.0, 'flw1': 0.0, 'flw0': 0.22, 'time': 14.02, 'compass': -3.41, 'pitch': 3.22, 'roll': -1.87}
{'lipoC2': 7.64, 'temp': 0.0, 'lipoC3S3': 11.4, 'state': 'normal', 'rot1': 342, 'rot0': 322, 'rot3': 0, 'rot2': 0, 'depth': 0.623, 'yaw': -149.81, 'datetime': '2018-12-12 13:34:47.877828', 'mgs': 0, 'flw2': 0.05, 'flw1': 0.0, 'flw0': 0.0, 'time': 14.23, 'compass': -6.41, 'pitch': 5.28, 'roll': -2.63}
{'lipoC2': 7.59, 'temp': 0.0, 'lipoC3S3': 11.26, 'state': 'normal', 'rot1': 342, 'rot0': 322, 'rot3': 0, 'rot2': 0, 'depth': 0.165, 'yaw': -148.01, 'datetime': '2018-12-12 13:34:48.088745', 'mgs': 0, 'flw2': 0.0, 'flw1': 0.0, 'flw0': 0.26, 'time': 14.44, 'compass': -4.62, 'pitch': 3.37, 'roll': -1.46}
{'lipoC2': 7.37, 'temp': 0.0, 'lipoC3S3': 11.39, 'state': 'normal', 'rot1': 342, 'rot0': 322, 'rot3': 0, 'rot2': 0, 'depth': -2.048, 'yaw': -146.3, 'datetime': '2018-12-12 13:34:48.293723', 'mgs': 0, 'flw2': 0.0, 'flw1': 0.0, 'flw0': 0.0, 'time': 14.65, 'compass': -2.91, 'pitch': 3.23, 'roll': -0.67}
{'lipoC2': 7.35, 'temp': 0.0, 'lipoC3S3': 11.4, 'state': 'normal', 'rot1': 342, 'rot0': 322, 'rot3': 0, 'rot2': 0, 'depth': -1.819, 'yaw': -145.23, 'datetime': '2018-12-12 13:34:48.504407', 'mgs': 0, 'flw2': 0.01, 'flw1': 0.0, 'flw0': 0.27, 'time': 14.86, 'compass': -1.84, 'pitch': 4.88, 'roll': -0.19}
{'lipoC2': 7.55, 'temp': 0.0, 'lipoC3S3': 11.39, 'state': 'normal', 'rot1': 342, 'rot0': 322, 'rot3': 0, 'rot2': 0, 'depth': -2.734, 'yaw': -145.43, 'datetime': '2018-12-12 13:34:48.712544', 'mgs': 0, 'flw2': 0.0, 'flw1': 0.0, 'flw0': 0.0, 'time': 15.07, 'compass': -2.03, 'pitch': 4.33, 'roll': 0.27}
{'lipoC2': 7.66, 'temp': 0.0, 'lipoC3S3': 11.47, 'state': 'normal', 'rot1': 342, 'rot0': 322, 'rot3': 0, 'rot2': 0, 'depth': 0.851, 'yaw': -146.56, 'datetime': '2018-12-12 13:34:48.924558', 'mgs': 0, 'flw2': 0.0, 'flw1': 0.53, 'flw0': 0.0, 'time': 15.28, 'compass': -3.17, 'pitch': 4.88, 'roll': 0.35}
{'lipoC2': 7.36, 'temp': 0.0, 'lipoC3S3': 11.52, 'state': 'normal', 'rot1': 342, 'rot0': 322, 'rot3': 0, 'rot2': 0, 'depth': -1.743, 'yaw': -147.54, 'datetime': '2018-12-12 13:34:49.132336', 'mgs': 0, 'flw2': 0.0, 'flw1': 0.35, 'flw0': 0.0, 'time': 15.48, 'compass': -4.15, 'pitch': 4.25, 'roll': 0.11}
{'lipoC2': 7.36, 'temp': 0.0, 'lipoC3S3': 11.4, 'state': 'normal', 'rot1': 342, 'rot0': 322, 'rot3': 0, 'rot2': 0, 'depth': -2.048, 'yaw': -148.25, 'datetime': '2018-12-12 13:34:49.344132', 'mgs': 0, 'flw2': 0.09, 'flw1': 0.0, 'flw0': 0.28, 'time': 15.69, 'compass': -4.86, 'pitch': 4.3, 'roll': 0.04}
{'lipoC2': 7.63, 'temp': 0.0, 'lipoC3S3': 11.3, 'state': 'normal', 'rot1': 342, 'rot0': 322, 'rot3': 0, 'rot2': 0, 'depth': -2.505, 'yaw': -148.07, 'datetime': '2018-12-12 13:34:49.552707', 'mgs': 0, 'flw2': 0.23, 'flw1': 0.0, 'flw0': 0.27, 'time': 15.9, 'compass': -4.68, 'pitch': 6.48, 'roll': -0.37}
{'lipoC2': 7.57, 'temp': 0.0, 'lipoC3S3': 11.27, 'state': 'normal', 'rot1': 342, 'rot0': 322, 'rot3': 0, 'rot2': 0, 'depth': -2.734, 'yaw': -146.5, 'datetime': '2018-12-12 13:34:49.762974', 'mgs': 0, 'flw2': 0.17, 'flw1': 0.0, 'flw0': 0.29, 'time': 16.11, 'compass': -3.11, 'pitch': 3.89, 'roll': -1.19}
{'lipoC2': 7.42, 'temp': 0.0, 'lipoC3S3': 11.55, 'state': 'normal', 'rot1': 342, 'rot0': 322, 'rot3': 0, 'rot2': 0, 'depth': -1.895, 'yaw': -142.94, 'datetime': '2018-12-12 13:34:49.973660', 'mgs': 0, 'flw2': 0.0, 'flw1': 0.0, 'flw0': 0.09, 'time': 16.32, 'compass': 0.45, 'pitch': 9.74, 'roll': -1.69}
{'lipoC2': 7.65, 'temp': 0.0, 'lipoC3S3': 11.32, 'state': 'normal', 'rot1': 342, 'rot0': 322, 'rot3': 0, 'rot2': 0, 'depth': -2.2, 'yaw': -140.2, 'datetime': '2018-12-12 13:34:50.185608', 'mgs': 0, 'flw2': 0.0, 'flw1': 0.0, 'flw0': 0.0, 'time': 16.53, 'compass': 3.19, 'pitch': 17.87, 'roll': -0.83}
{'lipoC2': 7.56, 'temp': 0.0, 'lipoC3S3': 11.26, 'state': 'normal', 'rot1': 342, 'rot0': 322, 'rot3': 0, 'rot2': 0, 'depth': -2.811, 'yaw': -137.78, 'datetime': '2018-12-12 13:34:50.392668', 'mgs': 0, 'flw2': 0.16, 'flw1': 0.0, 'flw0': 0.28, 'time': 16.74, 'compass': 5.61, 'pitch': 23.91, 'roll': 1.33}
{'lipoC2': 7.44, 'temp': 0.0, 'lipoC3S3': 11.69, 'state': 'normal', 'rot1': 343, 'rot0': 322, 'rot3': 0, 'rot2': 0, 'depth': -0.446, 'yaw': -134.38, 'datetime': '2018-12-12 13:34:50.601000', 'mgs': 0, 'flw2': 0.09, 'flw1': 0.0, 'flw0': 0.01, 'time': 16.95, 'compass': 9.01, 'pitch': 30.27, 'roll': 3.53}
{'lipoC2': 7.64, 'temp': 0.0, 'lipoC3S3': 11.42, 'state': 'normal', 'rot1': 345, 'rot0': 324, 'rot3': 0, 'rot2': 0, 'depth': 0.623, 'yaw': -133.67, 'datetime': '2018-12-12 13:34:50.811676', 'mgs': 0, 'flw2': 0.28, 'flw1': 0.0, 'flw0': 0.09, 'time': 17.16, 'compass': 9.72, 'pitch': 28.47, 'roll': 2.93}
{'lipoC2': 7.48, 'temp': 0.0, 'lipoC3S3': 11.4, 'state': 'normal', 'rot1': 346, 'rot0': 325, 'rot3': 0, 'rot2': 0, 'depth': -1.819, 'yaw': -135.17, 'datetime': '2018-12-12 13:34:51.020307', 'mgs': 0, 'flw2': 0.26, 'flw1': 0.0, 'flw0': 0.45, 'time': 17.37, 'compass': 8.23, 'pitch': 29.56, 'roll': 2.12}
{'lipoC2': 7.38, 'temp': 0.0, 'lipoC3S3': 11.48, 'state': 'normal', 'rot1': 347, 'rot0': 326, 'rot3': 0, 'rot2': 0, 'depth': -1.59, 'yaw': -138.06, 'datetime': '2018-12-12 13:34:51.228722', 'mgs': 0, 'flw2': 0.51, 'flw1': 0.0, 'flw0': 0.39, 'time': 17.58, 'compass': 5.33, 'pitch': 22.94, 'roll': -3.29}
{'lipoC2': 7.61, 'temp': 0.0, 'lipoC3S3': 11.26, 'state': 'normal', 'rot1': 348, 'rot0': 327, 'rot3': 0, 'rot2': 0, 'depth': -2.505, 'yaw': -136.96, 'datetime': '2018-12-12 13:34:51.442812', 'mgs': 0, 'flw2': 0.46, 'flw1': 0.0, 'flw0': 0.52, 'time': 17.79, 'compass': 6.44, 'pitch': 11.02, 'roll': -2.54}
{'lipoC2': 7.57, 'temp': 0.0, 'lipoC3S3': 11.44, 'state': 'normal', 'rot1': 349, 'rot0': 328, 'rot3': 0, 'rot2': 0, 'depth': -1.361, 'yaw': -136.04, 'datetime': '2018-12-12 13:34:51.651917', 'mgs': 0, 'flw2': 0.48, 'flw1': 0.0, 'flw0': 0.15, 'time': 18.0, 'compass': 7.36, 'pitch': 1.26, 'roll': -0.77}
{'lipoC2': 7.37, 'temp': 0.0, 'lipoC3S3': 11.46, 'state': 'normal', 'rot1': 351, 'rot0': 335, 'rot3': 0, 'rot2': 0, 'depth': -1.514, 'yaw': -137.39, 'datetime': '2018-12-12 13:34:51.862057', 'mgs': 0, 'flw2': 0.15, 'flw1': 0.12, 'flw0': 0.18, 'time': 18.21, 'compass': 6.01, 'pitch': -14.76, 'roll': -0.94}
{'lipoC2': 7.44, 'temp': 0.0, 'lipoC3S3': 11.64, 'state': 'normal', 'rot1': 352, 'rot0': 347, 'rot3': 0, 'rot2': 0, 'depth': -0.293, 'yaw': -140.09, 'datetime': '2018-12-12 13:34:52.071469', 'mgs': 0, 'flw2': 0.0, 'flw1': 0.5, 'flw0': 0.16, 'time': 18.42, 'compass': 3.3, 'pitch': -32.01, 'roll': -2.33}
{'lipoC2': 7.63, 'temp': 0.0, 'lipoC3S3': 11.42, 'state': 'normal', 'rot1': 353, 'rot0': 352, 'rot3': 0, 'rot2': 0, 'depth': 0.394, 'yaw': -141.75, 'datetime': '2018-12-12 13:34:52.278660', 'mgs': 0, 'flw2': 0.27, 'flw1': 0.0, 'flw0': 0.06, 'time': 18.63, 'compass': 1.65, 'pitch': -37.31, 'roll': -1.56}
{'lipoC2': 7.41, 'temp': 0.0, 'lipoC3S3': 11.54, 'state': 'normal', 'rot1': 353, 'rot0': 352, 'rot3': 0, 'rot2': 0, 'depth': -0.598, 'yaw': -141.79, 'datetime': '2018-12-12 13:34:52.489489', 'mgs': 0, 'flw2': 0.0, 'flw1': 0.59, 'flw0': 0.0, 'time': 18.84, 'compass': 1.6, 'pitch': -34.77, 'roll': -1.32}
{'lipoC2': 7.37, 'temp': 0.0, 'lipoC3S3': 11.73, 'state': 'normal', 'rot1': 353, 'rot0': 352, 'rot3': 0, 'rot2': 0, 'depth': -2.048, 'yaw': -140.09, 'datetime': '2018-12-12 13:34:52.700645', 'mgs': 0, 'flw2': 0.0, 'flw1': 0.0, 'flw0': 0.0, 'time': 19.05, 'compass': 3.3, 'pitch': -24.45, 'roll': -2.39}
{'lipoC2': 7.65, 'temp': 0.0, 'lipoC3S3': 11.25, 'state': 'normal', 'rot1': 353, 'rot0': 352, 'rot3': 0, 'rot2': 0, 'depth': 0.928, 'yaw': -135.28, 'datetime': '2018-12-12 13:34:52.906419', 'mgs': 0, 'flw2': 0.0, 'flw1': 0.0, 'flw0': 0.12, 'time': 19.25, 'compass': 8.11, 'pitch': -11.01, 'roll': -9.52}
{'lipoC2': 7.4, 'temp': 0.0, 'lipoC3S3': 11.64, 'state': 'normal', 'rot1': 353, 'rot0': 356, 'rot3': 0, 'rot2': 0, 'depth': -0.827, 'yaw': -132.8, 'datetime': '2018-12-12 13:34:53.113107', 'mgs': 0, 'flw2': 0.05, 'flw1': 0.59, 'flw0': 0.16, 'time': 19.46, 'compass': 10.59, 'pitch': -2.03, 'roll': -22.42}
{'lipoC2': 7.65, 'temp': 0.0, 'lipoC3S3': 11.47, 'state': 'normal', 'rot1': 355, 'rot0': 363, 'rot3': 0, 'rot2': 0, 'depth': -2.277, 'yaw': -134.79, 'datetime': '2018-12-12 13:34:53.324375', 'mgs': 0, 'flw2': 0.05, 'flw1': 0.0, 'flw0': 0.07, 'time': 19.67, 'compass': 8.61, 'pitch': -2.64, 'roll': -37.33}
{'lipoC2': 7.35, 'temp': 0.0, 'lipoC3S3': 11.39, 'state': 'normal', 'rot1': 357, 'rot0': 370, 'rot3': 0, 'rot2': 0, 'depth': -1.971, 'yaw': -130.97, 'datetime': '2018-12-12 13:34:53.534341', 'mgs': 0, 'flw2': 0.1, 'flw1': 0.0, 'flw0': 0.28, 'time': 19.88, 'compass': 12.43, 'pitch': -3.94, 'roll': -42.75}
{'lipoC2': 7.49, 'temp': 0.0, 'lipoC3S3': 11.39, 'state': 'normal', 'rot1': 359, 'rot0': 385, 'rot3': 0, 'rot2': 0, 'depth': -2.048, 'yaw': -126.23, 'datetime': '2018-12-12 13:34:53.749275', 'mgs': 0, 'flw2': 0.16, 'flw1': 0.0, 'flw0': 0.0, 'time': 20.09, 'compass': 17.16, 'pitch': -6.78, 'roll': -42.62}
{'lipoC2': 7.61, 'temp': 0.0, 'lipoC3S3': 11.27, 'state': 'normal', 'rot1': 360, 'rot0': 395, 'rot3': 0, 'rot2': 0, 'depth': 0.317, 'yaw': -127.15, 'datetime': '2018-12-12 13:34:53.958312', 'mgs': 0, 'flw2': 0.52, 'flw1': 0.0, 'flw0': 0.46, 'time': 20.3, 'compass': 16.24, 'pitch': -2.61, 'roll': -24.79}
{'lipoC2': 7.41, 'temp': 0.0, 'lipoC3S3': 11.39, 'state': 'normal', 'rot1': 361, 'rot0': 397, 'rot3': 0, 'rot2': 0, 'depth': -1.895, 'yaw': -120.6, 'datetime': '2018-12-12 13:34:54.169391', 'mgs': 0, 'flw2': 0.11, 'flw1': 0.18, 'flw0': 0.0, 'time': 20.51, 'compass': 22.79, 'pitch': 3.46, 'roll': 3.13}
{'lipoC2': 7.57, 'temp': 0.0, 'lipoC3S3': 11.43, 'state': 'normal', 'rot1': 363, 'rot0': 398, 'rot3': 0, 'rot2': 0, 'depth': -0.064, 'yaw': -92.59, 'datetime': '2018-12-12 13:34:54.378182', 'mgs': 0, 'flw2': 0.42, 'flw1': 0.0, 'flw0': 0.17, 'time': 20.72, 'compass': 50.8, 'pitch': 6.96, 'roll': 30.53}
{'lipoC2': 7.41, 'temp': 0.0, 'lipoC3S3': 11.54, 'state': 'normal', 'rot1': 365, 'rot0': 400, 'rot3': 0, 'rot2': 0, 'depth': -0.674, 'yaw': -84.13, 'datetime': '2018-12-12 13:34:54.588897', 'mgs': 0, 'flw2': 0.6, 'flw1': 0.12, 'flw0': 0.62, 'time': 20.93, 'compass': 59.26, 'pitch': 5.92, 'roll': 47.84}
{'lipoC2': 7.61, 'temp': 0.0, 'lipoC3S3': 11.29, 'state': 'normal', 'rot1': 368, 'rot0': 403, 'rot3': 0, 'rot2': 0, 'depth': 0.317, 'yaw': -79.38, 'datetime': '2018-12-12 13:34:54.799162', 'mgs': 0, 'flw2': 0.83, 'flw1': 0.0, 'flw0': 0.95, 'time': 21.14, 'compass': 64.01, 'pitch': 1.27, 'roll': 54.88}
{'lipoC2': 7.49, 'temp': 0.0, 'lipoC3S3': 11.32, 'state': 'normal', 'rot1': 371, 'rot0': 405, 'rot3': 0, 'rot2': 0, 'depth': -2.2, 'yaw': -73.69, 'datetime': '2018-12-12 13:34:55.010083', 'mgs': 0, 'flw2': 0.68, 'flw1': 0.12, 'flw0': 0.72, 'time': 21.35, 'compass': 69.7, 'pitch': 0.65, 'roll': 48.82}
{'lipoC2': 7.57, 'temp': 0.0, 'lipoC3S3': 11.22, 'state': 'normal', 'rot1': 374, 'rot0': 408, 'rot3': 0, 'rot2': 0, 'depth': -0.217, 'yaw': -70.22, 'datetime': '2018-12-12 13:34:55.216130', 'mgs': 0, 'flw2': 0.92, 'flw1': 0.0, 'flw0': 1.07, 'time': 21.56, 'compass': 73.18, 'pitch': 4.39, 'roll': 26.86}
{'lipoC2': 7.59, 'temp': 0.0, 'lipoC3S3': 11.26, 'state': 'normal', 'rot1': 378, 'rot0': 411, 'rot3': 0, 'rot2': 0, 'depth': -2.658, 'yaw': -68.5, 'datetime': '2018-12-12 13:34:55.424776', 'mgs': 0, 'flw2': 1.2, 'flw1': 0.0, 'flw0': 1.06, 'time': 21.77, 'compass': 74.89, 'pitch': 8.26, 'roll': 5.83}
{'lipoC2': 7.48, 'temp': 0.0, 'lipoC3S3': 11.34, 'state': 'normal', 'rot1': 381, 'rot0': 415, 'rot3': 0, 'rot2': 0, 'depth': -1.514, 'yaw': -74.72, 'datetime': '2018-12-12 13:34:55.635549', 'mgs': 0, 'flw2': 0.98, 'flw1': 0.0, 'flw0': 1.1, 'time': 21.98, 'compass': 68.68, 'pitch': 8.6, 'roll': -1.71}
{'lipoC2': 7.62, 'temp': 0.0, 'lipoC3S3': 11.27, 'state': 'normal', 'rot1': 384, 'rot0': 418, 'rot3': 0, 'rot2': 0, 'depth': -0.14, 'yaw': -77.43, 'datetime': '2018-12-12 13:34:55.846006', 'mgs': 0, 'flw2': 1.06, 'flw1': 0.0, 'flw0': 0.85, 'time': 22.19, 'compass': 65.96, 'pitch': 7.91, 'roll': -2.44}
{'lipoC2': 7.65, 'temp': 0.0, 'lipoC3S3': 11.39, 'state': 'normal', 'rot1': 387, 'rot0': 421, 'rot3': 0, 'rot2': 0, 'depth': -1.971, 'yaw': -78.92, 'datetime': '2018-12-12 13:34:56.055440', 'mgs': 0, 'flw2': 0.72, 'flw1': 0.0, 'flw0': 0.54, 'time': 22.4, 'compass': 64.47, 'pitch': 6.84, 'roll': -3.48}
{'lipoC2': 7.36, 'temp': 0.0, 'lipoC3S3': 11.42, 'state': 'normal', 'rot1': 390, 'rot0': 423, 'rot3': 0, 'rot2': 0, 'depth': -1.971, 'yaw': -87.02, 'datetime': '2018-12-12 13:34:56.266720', 'mgs': 0, 'flw2': 0.55, 'flw1': 0.15, 'flw0': 0.59, 'time': 22.61, 'compass': 56.37, 'pitch': 7.03, 'roll': -2.69}
{'lipoC2': 7.51, 'temp': 0.0, 'lipoC3S3': 11.36, 'state': 'normal', 'rot1': 392, 'rot0': 426, 'rot3': 0, 'rot2': 0, 'depth': -0.522, 'yaw': -94.21, 'datetime': '2018-12-12 13:34:56.474788', 'mgs': 0, 'flw2': 0.31, 'flw1': 0.0, 'flw0': 0.33, 'time': 22.82, 'compass': 49.18, 'pitch': 7.39, 'roll': -0.26}
{'lipoC2': 7.36, 'temp': 0.0, 'lipoC3S3': 11.54, 'state': 'normal', 'rot1': 395, 'rot0': 428, 'rot3': 0, 'rot2': 0, 'depth': -1.895, 'yaw': -100.2, 'datetime': '2018-12-12 13:34:56.684369', 'mgs': 0, 'flw2': 0.35, 'flw1': 0.0, 'flw0': 0.49, 'time': 23.02, 'compass': 43.2, 'pitch': 6.69, 'roll': 0.59}
{'lipoC2': 7.43, 'temp': 0.0, 'lipoC3S3': 11.51, 'state': 'normal', 'rot1': 396, 'rot0': 430, 'rot3': 0, 'rot2': 0, 'depth': -1.056, 'yaw': -107.4, 'datetime': '2018-12-12 13:34:56.894293', 'mgs': 0, 'flw2': 0.22, 'flw1': 0.0, 'flw0': 0.4, 'time': 23.23, 'compass': 36.0, 'pitch': 6.45, 'roll': -1.59}
{'lipoC2': 7.63, 'temp': 0.0, 'lipoC3S3': 11.42, 'state': 'normal', 'rot1': 398, 'rot0': 431, 'rot3': 0, 'rot2': 0, 'depth': 0.623, 'yaw': -117.34, 'datetime': '2018-12-12 13:34:57.105937', 'mgs': 0, 'flw2': 0.38, 'flw1': 0.0, 'flw0': 0.13, 'time': 23.44, 'compass': 26.05, 'pitch': 4.7, 'roll': -2.6}
{'lipoC2': 7.65, 'temp': 0.0, 'lipoC3S3': 11.35, 'state': 'normal', 'rot1': 400, 'rot0': 432, 'rot3': 0, 'rot2': 0, 'depth': -1.895, 'yaw': -124.85, 'datetime': '2018-12-12 13:34:57.313103', 'mgs': 0, 'flw2': 0.52, 'flw1': 0.0, 'flw0': 0.37, 'time': 23.65, 'compass': 18.55, 'pitch': 3.22, 'roll': -0.22}
{'lipoC2': 7.38, 'temp': 0.0, 'lipoC3S3': 11.46, 'state': 'normal', 'rot1': 401, 'rot0': 433, 'rot3': 0, 'rot2': 0, 'depth': -1.59, 'yaw': -127.85, 'datetime': '2018-12-12 13:34:57.525315', 'mgs': 0, 'flw2': 0.05, 'flw1': 0.0, 'flw0': 0.15, 'time': 23.86, 'compass': 15.55, 'pitch': 3.18, 'roll': 0.53}
{'lipoC2': 7.43, 'temp': 0.0, 'lipoC3S3': 11.3, 'state': 'normal', 'rot1': 403, 'rot0': 434, 'rot3': 0, 'rot2': 0, 'depth': 0.546, 'yaw': -130.1, 'datetime': '2018-12-12 13:34:57.735129', 'mgs': 0, 'flw2': 0.5, 'flw1': 0.0, 'flw0': 0.45, 'time': 24.07, 'compass': 13.29, 'pitch': 3.54, 'roll': -1.29}
{'lipoC2': 7.36, 'temp': 0.0, 'lipoC3S3': 11.4, 'state': 'normal', 'rot1': 404, 'rot0': 436, 'rot3': 0, 'rot2': 0, 'depth': -2.124, 'yaw': -137.31, 'datetime': '2018-12-12 13:34:57.941198', 'mgs': 0, 'flw2': 0.35, 'flw1': 0.0, 'flw0': 0.54, 'time': 24.28, 'compass': 6.08, 'pitch': 4.0, 'roll': -0.82}
{'lipoC2': 7.46, 'temp': 0.0, 'lipoC3S3': 11.43, 'state': 'normal', 'rot1': 405, 'rot0': 437, 'rot3': 0, 'rot2': 0, 'depth': -1.743, 'yaw': -142.08, 'datetime': '2018-12-12 13:34:58.150809', 'mgs': 0, 'flw2': 0.0, 'flw1': 0.0, 'flw0': 0.09, 'time': 24.49, 'compass': 1.31, 'pitch': 4.86, 'roll': -0.45}
{'lipoC2': 7.49, 'temp': 0.0, 'lipoC3S3': 11.35, 'state': 'normal', 'rot1': 405, 'rot0': 437, 'rot3': 0, 'rot2': 0, 'depth': -1.743, 'yaw': -146.37, 'datetime': '2018-12-12 13:34:58.359522', 'mgs': 0, 'flw2': 0.01, 'flw1': 0.0, 'flw0': 0.22, 'time': 24.7, 'compass': -2.98, 'pitch': 5.2, 'roll': -1.06}
{'lipoC2': 7.65, 'temp': 0.0, 'lipoC3S3': 11.35, 'state': 'normal', 'rot1': 405, 'rot0': 437, 'rot3': 0, 'rot2': 0, 'depth': -2.2, 'yaw': -146.86, 'datetime': '2018-12-12 13:34:58.570392', 'mgs': 0, 'flw2': 0.28, 'flw1': 0.0, 'flw0': 0.16, 'time': 24.91, 'compass': -3.47, 'pitch': 6.14, 'roll': -1.94}
{'lipoC2': 7.42, 'temp': 0.0, 'lipoC3S3': 11.59, 'state': 'normal', 'rot1': 405, 'rot0': 437, 'rot3': 0, 'rot2': 0, 'depth': -0.446, 'yaw': -146.32, 'datetime': '2018-12-12 13:34:58.781430', 'mgs': 0, 'flw2': 0.0, 'flw1': 0.35, 'flw0': 0.0, 'time': 25.12, 'compass': -2.92, 'pitch': 4.93, 'roll': -1.55}
{'lipoC2': 7.59, 'temp': 0.0, 'lipoC3S3': 11.27, 'state': 'normal', 'rot1': 405, 'rot0': 437, 'rot3': 0, 'rot2': 0, 'depth': -0.14, 'yaw': -144.9, 'datetime': '2018-12-12 13:34:58.990657', 'mgs': 0, 'flw2': 0.27, 'flw1': 0.0, 'flw0': 0.22, 'time': 25.33, 'compass': -1.5, 'pitch': 2.57, 'roll': -1.14}
{'lipoC2': 7.62, 'temp': 0.0, 'lipoC3S3': 11.3, 'state': 'normal', 'rot1': 405, 'rot0': 437, 'rot3': 0, 'rot2': 0, 'depth': 0.165, 'yaw': -141.96, 'datetime': '2018-12-12 13:34:59.199246', 'mgs': 0, 'flw2': 0.28, 'flw1': 0.0, 'flw0': 0.16, 'time': 25.54, 'compass': 1.43, 'pitch': -0.99, 'roll': -1.3}
{'lipoC2': 7.42, 'temp': 0.0, 'lipoC3S3': 11.73, 'state': 'normal', 'rot1': 405, 'rot0': 437, 'rot3': 0, 'rot2': 0, 'depth': 0.699, 'yaw': -142.39, 'datetime': '2018-12-12 13:34:59.407881', 'mgs': 0, 'flw2': 0.0, 'flw1': 0.0, 'flw0': 0.0, 'time': 25.75, 'compass': 1.0, 'pitch': -1.98, 'roll': -1.32}
{'lipoC2': 7.38, 'temp': 0.0, 'lipoC3S3': 11.48, 'state': 'normal', 'rot1': 405, 'rot0': 437, 'rot3': 0, 'rot2': 0, 'depth': -1.361, 'yaw': -140.73, 'datetime': '2018-12-12 13:34:59.618043', 'mgs': 0, 'flw2': 0.2, 'flw1': 0.0, 'flw0': 0.26, 'time': 25.95, 'compass': 2.66, 'pitch': -2.86, 'roll': -1.56}
{'lipoC2': 7.42, 'temp': 0.0, 'lipoC3S3': 11.73, 'state': 'normal', 'rot1': 405, 'rot0': 437, 'rot3': 0, 'rot2': 0, 'depth': 0.775, 'yaw': -138.05, 'datetime': '2018-12-12 13:34:59.827616', 'mgs': 0, 'flw2': 0.0, 'flw1': 0.0, 'flw0': 0.0, 'time': 26.17, 'compass': 5.35, 'pitch': -3.75, 'roll': -0.36}
{'lipoC2': 7.65, 'temp': 0.0, 'lipoC3S3': 11.35, 'state': 'normal', 'rot1': 406, 'rot0': 437, 'rot3': 0, 'rot2': 0, 'depth': -2.124, 'yaw': -138.3, 'datetime': '2018-12-12 13:35:00.038742', 'mgs': 0, 'flw2': 0.7, 'flw1': 0.0, 'flw0': 0.5, 'time': 26.38, 'compass': 5.09, 'pitch': -3.37, 'roll': -0.6}
{'lipoC2': 7.42, 'temp': 0.0, 'lipoC3S3': 11.43, 'state': 'normal', 'rot1': 407, 'rot0': 438, 'rot3': 0, 'rot2': 0, 'depth': -0.903, 'yaw': -138.3, 'datetime': '2018-12-12 13:35:00.247280', 'mgs': 0, 'flw2': 0.31, 'flw1': 0.0, 'flw0': 0.06, 'time': 26.58, 'compass': 5.1, 'pitch': -3.29, 'roll': -0.55}
{'lipoC2': 7.66, 'temp': 0.0, 'lipoC3S3': 11.29, 'state': 'normal', 'rot1': 408, 'rot0': 439, 'rot3': 0, 'rot2': 0, 'depth': -1.971, 'yaw': -137.76, 'datetime': '2018-12-12 13:35:00.457074', 'mgs': 0, 'flw2': 0.49, 'flw1': 0.0, 'flw0': 0.5, 'time': 26.79, 'compass': 5.64, 'pitch': -3.29, 'roll': -0.52}
{'lipoC2': 7.56, 'temp': 0.0, 'lipoC3S3': 11.44, 'state': 'normal', 'rot1': 409, 'rot0': 440, 'rot3': 0, 'rot2': 0, 'depth': -0.217, 'yaw': -137.56, 'datetime': '2018-12-12 13:35:00.666930', 'mgs': 0, 'flw2': 0.04, 'flw1': 0.0, 'flw0': 0.0, 'time': 27.0, 'compass': 5.83, 'pitch': -3.31, 'roll': -0.56}
{'lipoC2': 7.39, 'temp': 0.0, 'lipoC3S3': 11.39, 'state': 'normal', 'rot1': 411, 'rot0': 442, 'rot3': 0, 'rot2': 0, 'depth': -1.971, 'yaw': -137.25, 'datetime': '2018-12-12 13:35:00.880179', 'mgs': 0, 'flw2': 0.0, 'flw1': 0.0, 'flw0': 0.13, 'time': 27.21, 'compass': 6.14, 'pitch': -3.32, 'roll': -0.56}
{'lipoC2': 7.61, 'temp': 0.0, 'lipoC3S3': 11.46, 'state': 'normal', 'rot1': 412, 'rot0': 443, 'rot3': 0, 'rot2': 0, 'depth': -1.437, 'yaw': -136.87, 'datetime': '2018-12-12 13:35:01.090244', 'mgs': 0, 'flw2': 0.23, 'flw1': 0.0, 'flw0': 0.04, 'time': 27.42, 'compass': 6.53, 'pitch': -3.34, 'roll': -0.56}
{'lipoC2': 7.42, 'temp': 0.0, 'lipoC3S3': 11.27, 'state': 'normal', 'rot1': 413, 'rot0': 444, 'rot3': 0, 'rot2': 0, 'depth': -0.446, 'yaw': -136.89, 'datetime': '2018-12-12 13:35:01.302183', 'mgs': 0, 'flw2': 0.45, 'flw1': 0.0, 'flw0': 0.51, 'time': 27.63, 'compass': 6.5, 'pitch': -3.35, 'roll': -0.56}
{'lipoC2': 7.64, 'temp': 0.0, 'lipoC3S3': 11.36, 'state': 'normal', 'rot1': 415, 'rot0': 445, 'rot3': 0, 'rot2': 0, 'depth': -1.285, 'yaw': -136.89, 'datetime': '2018-12-12 13:35:01.509095', 'mgs': 0, 'flw2': 0.44, 'flw1': 0.0, 'flw0': 0.49, 'time': 27.84, 'compass': 6.51, 'pitch': -3.39, 'roll': -0.56}
{'lipoC2': 7.66, 'temp': 0.0, 'lipoC3S3': 11.27, 'state': 'normal', 'rot1': 416, 'rot0': 446, 'rot3': 0, 'rot2': 0, 'depth': -1.895, 'yaw': -136.89, 'datetime': '2018-12-12 13:35:01.717972', 'mgs': 0, 'flw2': 0.26, 'flw1': 0.0, 'flw0': 0.55, 'time': 28.05, 'compass': 6.51, 'pitch': -3.42, 'roll': -0.57}
{'lipoC2': 7.38, 'temp': 0.0, 'lipoC3S3': 11.38, 'state': 'normal', 'rot1': 418, 'rot0': 448, 'rot3': 0, 'rot2': 0, 'depth': -2.048, 'yaw': -136.89, 'datetime': '2018-12-12 13:35:01.928311', 'mgs': 0, 'flw2': 0.02, 'flw1': 0.0, 'flw0': 0.5, 'time': 28.26, 'compass': 6.51, 'pitch': -3.4, 'roll': -0.57}
{'lipoC2': 7.43, 'temp': 0.0, 'lipoC3S3': 11.51, 'state': 'normal', 'rot1': 420, 'rot0': 449, 'rot3': 0, 'rot2': 0, 'depth': -1.056, 'yaw': -136.89, 'datetime': '2018-12-12 13:35:02.139167', 'mgs': 0, 'flw2': 0.18, 'flw1': 0.0, 'flw0': 0.35, 'time': 28.47, 'compass': 6.51, 'pitch': -3.42, 'roll': -0.58}
{'lipoC2': 7.61, 'temp': 0.0, 'lipoC3S3': 11.43, 'state': 'normal', 'rot1': 421, 'rot0': 451, 'rot3': 0, 'rot2': 0, 'depth': 0.241, 'yaw': -136.89, 'datetime': '2018-12-12 13:35:02.349386', 'mgs': 0, 'flw2': 0.02, 'flw1': 0.56, 'flw0': 0.13, 'time': 28.68, 'compass': 6.51, 'pitch': -3.43, 'roll': -0.59}
{'lipoC2': 7.56, 'temp': 0.0, 'lipoC3S3': 11.27, 'state': 'normal', 'rot1': 423, 'rot0': 452, 'rot3': 0, 'rot2': 0, 'depth': -2.734, 'yaw': -136.89, 'datetime': '2018-12-12 13:35:02.556669', 'mgs': 0, 'flw2': 0.46, 'flw1': 0.0, 'flw0': 0.52, 'time': 28.89, 'compass': 6.51, 'pitch': -3.44, 'roll': -0.59}
{'lipoC2': 7.51, 'temp': 0.0, 'lipoC3S3': 11.32, 'state': 'normal', 'rot1': 424, 'rot0': 453, 'rot3': 0, 'rot2': 0, 'depth': -2.277, 'yaw': -136.89, 'datetime': '2018-12-12 13:35:02.768553', 'mgs': 0, 'flw2': 0.07, 'flw1': 0.32, 'flw0': 0.18, 'time': 29.1, 'compass': 6.51, 'pitch': -3.43, 'roll': -0.6}
{'lipoC2': 7.39, 'temp': 0.0, 'lipoC3S3': 11.5, 'state': 'normal', 'rot1': 425, 'rot0': 454, 'rot3': 0, 'rot2': 0, 'depth': -1.208, 'yaw': -137.35, 'datetime': '2018-12-12 13:35:02.978336', 'mgs': 0, 'flw2': 0.48, 'flw1': 0.0, 'flw0': 0.32, 'time': 29.31, 'compass': 6.05, 'pitch': -3.52, 'roll': -0.67}
{'lipoC2': 7.56, 'temp': 0.0, 'lipoC3S3': 11.44, 'state': 'normal', 'rot1': 426, 'rot0': 455, 'rot3': 0, 'rot2': 0, 'depth': -1.361, 'yaw': -141.12, 'datetime': '2018-12-12 13:35:03.188579', 'mgs': 0, 'flw2': 0.18, 'flw1': 0.0, 'flw0': 0.01, 'time': 29.52, 'compass': 2.27, 'pitch': -3.51, 'roll': -0.69}
{'lipoC2': 7.64, 'temp': 0.0, 'lipoC3S3': 11.29, 'state': 'normal', 'rot1': 426, 'rot0': 456, 'rot3': 0, 'rot2': 0, 'depth': -2.353, 'yaw': -143.59, 'datetime': '2018-12-12 13:35:03.397939', 'mgs': 0, 'flw2': 0.21, 'flw1': 0.0, 'flw0': 0.26, 'time': 29.73, 'compass': -0.2, 'pitch': -3.41, 'roll': -0.71}
{'lipoC2': 7.47, 'temp': 0.0, 'lipoC3S3': 11.4, 'state': 'normal', 'rot1': 426, 'rot0': 456, 'rot3': 0, 'rot2': 0, 'depth': -1.819, 'yaw': -143.54, 'datetime': '2018-12-12 13:35:03.611871', 'mgs': 0, 'flw2': 0.06, 'flw1': 0.0, 'flw0': 0.22, 'time': 29.94, 'compass': -0.15, 'pitch': -3.35, 'roll': -0.7}
{'lipoC2': 7.42, 'temp': 0.0, 'lipoC3S3': 11.59, 'state': 'normal', 'rot1': 426, 'rot0': 456, 'rot3': 0, 'rot2': 0, 'depth': -0.446, 'yaw': -143.54, 'datetime': '2018-12-12 13:35:03.820424', 'mgs': 0, 'flw2': 0.0, 'flw1': 0.29, 'flw0': 0.0, 'time': 30.15, 'compass': -0.15, 'pitch': -3.37, 'roll': -0.7}
{'lipoC2': 7.43, 'temp': 0.0, 'lipoC3S3': 11.61, 'state': 'normal', 'rot1': 426, 'rot0': 456, 'rot3': 0, 'rot2': 0, 'depth': -0.674, 'yaw': -143.54, 'datetime': '2018-12-12 13:35:04.031385', 'mgs': 0, 'flw2': 0.0, 'flw1': 0.29, 'flw0': 0.0, 'time': 30.36, 'compass': -0.15, 'pitch': -3.41, 'roll': -0.7}
{'lipoC2': 7.41, 'temp': 0.0, 'lipoC3S3': 11.58, 'state': 'normal', 'rot1': 426, 'rot0': 456, 'rot3': 0, 'rot2': 0, 'depth': -0.674, 'yaw': -143.54, 'datetime': '2018-12-12 13:35:04.239366', 'mgs': 0, 'flw2': 0.0, 'flw1': 0.0, 'flw0': 0.0, 'time': 30.57, 'compass': -0.15, 'pitch': -3.4, 'roll': -0.7}
{'lipoC2': 7.47, 'temp': 0.0, 'lipoC3S3': 11.39, 'state': 'normal', 'rot1': 426, 'rot0': 456, 'rot3': 0, 'rot2': 0, 'depth': -1.514, 'yaw': -143.54, 'datetime': '2018-12-12 13:35:04.448492', 'mgs': 0, 'flw2': 0.0, 'flw1': 0.0, 'flw0': 0.17, 'time': 30.78, 'compass': -0.15, 'pitch': -3.41, 'roll': -0.7}
{'lipoC2': 7.41, 'temp': 0.0, 'lipoC3S3': 11.39, 'state': 'normal', 'rot1': 426, 'rot0': 456, 'rot3': 0, 'rot2': 0, 'depth': -1.895, 'yaw': -143.54, 'datetime': '2018-12-12 13:35:04.658382', 'mgs': 0, 'flw2': 0.0, 'flw1': 0.35, 'flw0': 0.0, 'time': 30.99, 'compass': -0.15, 'pitch': -3.42, 'roll': -0.7}
{'lipoC2': 7.48, 'temp': 0.0, 'lipoC3S3': 11.46, 'state': 'normal', 'rot1': 426, 'rot0': 456, 'rot3': 0, 'rot2': 0, 'depth': -2.124, 'yaw': -143.54, 'datetime': '2018-12-12 13:35:04.869986', 'mgs': 0, 'flw2': 0.04, 'flw1': 0.0, 'flw0': 0.0, 'time': 31.2, 'compass': -0.15, 'pitch': -3.41, 'roll': -0.69}
{'lipoC2': 7.39, 'temp': 0.0, 'lipoC3S3': 11.36, 'state': 'normal', 'rot1': 426, 'rot0': 456, 'rot3': 0, 'rot2': 0, 'depth': 0.546, 'yaw': -143.54, 'datetime': '2018-12-12 13:35:05.080642', 'mgs': 0, 'flw2': 0.28, 'flw1': 0.0, 'flw0': 0.15, 'time': 31.41, 'compass': -0.15, 'pitch': -3.41, 'roll': -0.69}
{'lipoC2': 7.37, 'temp': 0.0, 'lipoC3S3': 11.47, 'state': 'normal', 'rot1': 426, 'rot0': 456, 'rot3': 0, 'rot2': 0, 'depth': -1.437, 'yaw': -143.54, 'datetime': '2018-12-12 13:35:05.287593', 'mgs': 0, 'flw2': 0.0, 'flw1': 0.62, 'flw0': 0.0, 'time': 31.62, 'compass': -0.15, 'pitch': -3.42, 'roll': -0.69}
{'lipoC2': 7.58, 'temp': 0.0, 'lipoC3S3': 11.44, 'state': 'normal', 'rot1': 426, 'rot0': 456, 'rot3': 0, 'rot2': 0, 'depth': -0.064, 'yaw': -143.54, 'datetime': '2018-12-12 13:35:05.495163', 'mgs': 0, 'flw2': 0.0, 'flw1': 0.0, 'flw0': 0.0, 'time': 31.83, 'compass': -0.15, 'pitch': -3.41, 'roll': -0.69}
{'lipoC2': 7.43, 'temp': 0.0, 'lipoC3S3': 11.64, 'state': 'normal', 'rot1': 426, 'rot0': 456, 'rot3': 0, 'rot2': 0, 'depth': -1.59, 'yaw': -143.54, 'datetime': '2018-12-12 13:35:05.706283', 'mgs': 0, 'flw2': 0.0, 'flw1': 0.21, 'flw0': 0.0, 'time': 32.04, 'compass': -0.15, 'pitch': -3.41, 'roll': -0.69}
{'lipoC2': 7.38, 'temp': 0.0, 'lipoC3S3': 11.79, 'state': 'normal', 'rot1': 426, 'rot0': 456, 'rot3': 0, 'rot2': 0, 'depth': -2.2, 'yaw': -143.54, 'datetime': '2018-12-12 13:35:05.916047', 'mgs': 0, 'flw2': 0.0, 'flw1': 0.73, 'flw0': 0.0, 'time': 32.24, 'compass': -0.15, 'pitch': -3.4, 'roll': -0.68}
{'lipoC2': 7.38, 'temp': 0.0, 'lipoC3S3': 11.48, 'state': 'normal', 'rot1': 426, 'rot0': 456, 'rot3': 0, 'rot2': 0, 'depth': -1.361, 'yaw': -143.54, 'datetime': '2018-12-12 13:35:06.130129', 'mgs': 0, 'flw2': 0.0, 'flw1': 0.44, 'flw0': 0.0, 'time': 32.45, 'compass': -0.15, 'pitch': -3.41, 'roll': -0.68}
{'lipoC2': 7.43, 'temp': 0.0, 'lipoC3S3': 11.67, 'state': 'normal', 'rot1': 426, 'rot0': 456, 'rot3': 0, 'rot2': 0, 'depth': -0.598, 'yaw': -143.54, 'datetime': '2018-12-12 13:35:06.338464', 'mgs': 0, 'flw2': 0.0, 'flw1': 0.0, 'flw0': 0.0, 'time': 32.66, 'compass': -0.15, 'pitch': -3.42, 'roll': -0.68}
{'lipoC2': 7.39, 'temp': 0.0, 'lipoC3S3': 11.73, 'state': 'normal', 'rot1': 426, 'rot0': 456, 'rot3': 0, 'rot2': 0, 'depth': -2.048, 'yaw': -143.54, 'datetime': '2018-12-12 13:35:06.544995', 'mgs': 0, 'flw2': 0.0, 'flw1': 0.0, 'flw0': 0.0, 'time': 32.87, 'compass': -0.15, 'pitch': -3.43, 'roll': -0.68}
{'lipoC2': 7.61, 'temp': 0.0, 'lipoC3S3': 11.42, 'state': 'normal', 'rot1': 426, 'rot0': 456, 'rot3': 0, 'rot2': 0, 'depth': -1.437, 'yaw': -143.54, 'datetime': '2018-12-12 13:35:06.757047', 'mgs': 0, 'flw2': 0.21, 'flw1': 0.0, 'flw0': 0.2, 'time': 33.08, 'compass': -0.15, 'pitch': -3.44, 'roll': -0.68}
{'lipoC2': 7.46, 'temp': 0.0, 'lipoC3S3': 11.42, 'state': 'normal', 'rot1': 426, 'rot0': 456, 'rot3': 0, 'rot2': 0, 'depth': -1.743, 'yaw': -143.54, 'datetime': '2018-12-12 13:35:06.965757', 'mgs': 0, 'flw2': 0.0, 'flw1': 0.0, 'flw0': 0.0, 'time': 33.29, 'compass': -0.15, 'pitch': -3.44, 'roll': -0.68}
{'lipoC2': 7.61, 'temp': 0.0, 'lipoC3S3': 11.43, 'state': 'normal', 'rot1': 426, 'rot0': 456, 'rot3': 0, 'rot2': 0, 'depth': 0.394, 'yaw': -143.54, 'datetime': '2018-12-12 13:35:07.176159', 'mgs': 0, 'flw2': 0.0, 'flw1': 0.59, 'flw0': 0.0, 'time': 33.5, 'compass': -0.15, 'pitch': -3.44, 'roll': -0.68}
{'lipoC2': 7.54, 'temp': 0.0, 'lipoC3S3': 11.3, 'state': 'normal', 'rot1': 426, 'rot0': 456, 'rot3': 0, 'rot2': 0, 'depth': -2.811, 'yaw': -143.54, 'datetime': '2018-12-12 13:35:07.382985', 'mgs': 0, 'flw2': 0.0, 'flw1': 0.64, 'flw0': 0.0, 'time': 33.71, 'compass': -0.15, 'pitch': -3.44, 'roll': -0.68}
{'lipoC2': 7.42, 'temp': 0.0, 'lipoC3S3': 11.42, 'state': 'normal', 'rot1': 426, 'rot0': 456, 'rot3': 0, 'rot2': 0, 'depth': -2.2, 'yaw': -143.54, 'datetime': '2018-12-12 13:35:07.591626', 'mgs': 0, 'flw2': 0.28, 'flw1': 0.0, 'flw0': 0.11, 'time': 33.92, 'compass': -0.15, 'pitch': -3.44, 'roll': -0.68}
{'lipoC2': 7.49, 'temp': 0.0, 'lipoC3S3': 11.32, 'state': 'normal', 'rot1': 426, 'rot0': 456, 'rot3': 0, 'rot2': 0, 'depth': -1.819, 'yaw': -143.54, 'datetime': '2018-12-12 13:35:07.803873', 'mgs': 0, 'flw2': 0.17, 'flw1': 0.0, 'flw0': 0.28, 'time': 34.13, 'compass': -0.15, 'pitch': -3.44, 'roll': -0.68}
{'lipoC2': 7.36, 'temp': 0.0, 'lipoC3S3': 11.43, 'state': 'normal', 'rot1': 426, 'rot0': 456, 'rot3': 0, 'rot2': 0, 'depth': -1.514, 'yaw': -143.54, 'datetime': '2018-12-12 13:35:08.012615', 'mgs': 0, 'flw2': 0.0, 'flw1': 0.64, 'flw0': 0.0, 'time': 34.34, 'compass': -0.15, 'pitch': -3.44, 'roll': -0.68}
{'lipoC2': 7.56, 'temp': 0.0, 'lipoC3S3': 11.44, 'state': 'normal', 'rot1': 426, 'rot0': 456, 'rot3': 0, 'rot2': 0, 'depth': 0.241, 'yaw': -143.54, 'datetime': '2018-12-12 13:35:08.226627', 'mgs': 0, 'flw2': 0.0, 'flw1': 0.0, 'flw0': 0.0, 'time': 34.55, 'compass': -0.15, 'pitch': -3.44, 'roll': -0.68}
{'lipoC2': 7.4, 'temp': 0.0, 'lipoC3S3': 11.67, 'state': 'normal', 'rot1': 426, 'rot0': 456, 'rot3': 0, 'rot2': 0, 'depth': 0.699, 'yaw': -143.54, 'datetime': '2018-12-12 13:35:08.436068', 'mgs': 0, 'flw2': 0.21, 'flw1': 0.0, 'flw0': 0.0, 'time': 34.76, 'compass': -0.15, 'pitch': -3.44, 'roll': -0.68}
{'lipoC2': 7.41, 'temp': 0.0, 'lipoC3S3': 11.64, 'state': 'normal', 'rot1': 426, 'rot0': 456, 'rot3': 0, 'rot2': 0, 'depth': -1.361, 'yaw': -143.54, 'datetime': '2018-12-12 13:35:08.646233', 'mgs': 0, 'flw2': 0.28, 'flw1': 0.0, 'flw0': 0.18, 'time': 34.97, 'compass': -0.15, 'pitch': -3.44, 'roll': -0.68}
{'lipoC2': 7.55, 'temp': 0.0, 'lipoC3S3': 11.43, 'state': 'normal', 'rot1': 426, 'rot0': 456, 'rot3': 0, 'rot2': 0, 'depth': 0.317, 'yaw': -143.54, 'datetime': '2018-12-12 13:35:08.856448', 'mgs': 0, 'flw2': 0.0, 'flw1': 0.56, 'flw0': 0.0, 'time': 35.18, 'compass': -0.15, 'pitch': -3.44, 'roll': -0.68}
{'lipoC2': 7.56, 'temp': 0.0, 'lipoC3S3': 11.26, 'state': 'normal', 'rot1': 426, 'rot0': 456, 'rot3': 0, 'rot2': 0, 'depth': -2.734, 'yaw': -143.54, 'datetime': '2018-12-12 13:35:09.067488', 'mgs': 0, 'flw2': 0.27, 'flw1': 0.0, 'flw0': 0.23, 'time': 35.39, 'compass': -0.15, 'pitch': -3.44, 'roll': -0.68}
{'lipoC2': 7.53, 'temp': 0.0, 'lipoC3S3': 11.27, 'state': 'normal', 'rot1': 426, 'rot0': 456, 'rot3': 0, 'rot2': 0, 'depth': -1.056, 'yaw': -143.54, 'datetime': '2018-12-12 13:35:09.283968', 'mgs': 0, 'flw2': 0.27, 'flw1': 0.0, 'flw0': 0.23, 'time': 35.6, 'compass': -0.15, 'pitch': -3.44, 'roll': -0.68}
{'lipoC2': 7.63, 'temp': 0.0, 'lipoC3S3': 11.3, 'state': 'normal', 'rot1': 426, 'rot0': 456, 'rot3': 0, 'rot2': 0, 'depth': -2.658, 'yaw': -143.54, 'datetime': '2018-12-12 13:35:09.485002', 'mgs': 0, 'flw2': 0.0, 'flw1': 0.0, 'flw0': 0.0, 'time': 35.81, 'compass': -0.15, 'pitch': -3.44, 'roll': -0.68}
{'lipoC2': 7.61, 'temp': 0.0, 'lipoC3S3': 11.44, 'state': 'normal', 'rot1': 426, 'rot0': 456, 'rot3': 0, 'rot2': 0, 'depth': 0.394, 'yaw': -143.54, 'datetime': '2018-12-12 13:35:09.699909', 'mgs': 0, 'flw2': 0.0, 'flw1': 0.0, 'flw0': 0.0, 'time': 36.02, 'compass': -0.15, 'pitch': -3.44, 'roll': -0.68}
{'lipoC2': 7.4, 'temp': 0.0, 'lipoC3S3': 11.59, 'state': 'normal', 'rot1': 426, 'rot0': 456, 'rot3': 0, 'rot2': 0, 'depth': -2.2, 'yaw': -143.54, 'datetime': '2018-12-12 13:35:09.908099', 'mgs': 0, 'flw2': 0.0, 'flw1': 0.29, 'flw0': 0.0, 'time': 36.23, 'compass': -0.15, 'pitch': -3.45, 'roll': -0.68}
{'lipoC2': 7.56, 'temp': 0.0, 'lipoC3S3': 11.4, 'state': 'normal', 'rot1': 426, 'rot0': 456, 'rot3': 0, 'rot2': 0, 'depth': -2.734, 'yaw': -143.54, 'datetime': '2018-12-12 13:35:10.121782', 'mgs': 0, 'flw2': 0.13, 'flw1': 0.0, 'flw0': 0.29, 'time': 36.44, 'compass': -0.15, 'pitch': -3.31, 'roll': -0.66}
{'lipoC2': 7.62, 'temp': 0.0, 'lipoC3S3': 11.3, 'state': 'normal', 'rot1': 426, 'rot0': 456, 'rot3': 0, 'rot2': 0, 'depth': -2.658, 'yaw': -143.54, 'datetime': '2018-12-12 13:35:10.327498', 'mgs': 0, 'flw2': 0.27, 'flw1': 0.0, 'flw0': 0.2, 'time': 36.64, 'compass': -0.15, 'pitch': -3.34, 'roll': -0.66}
{'lipoC2': 7.66, 'temp': 0.0, 'lipoC3S3': 11.36, 'state': 'normal', 'rot1': 426, 'rot0': 456, 'rot3': 0, 'rot2': 0, 'depth': 0.775, 'yaw': -143.54, 'datetime': '2018-12-12 13:35:10.535162', 'mgs': 0, 'flw2': 0.0, 'flw1': 0.0, 'flw0': 0.0, 'time': 36.85, 'compass': -0.15, 'pitch': -3.31, 'roll': -0.66}
{'lipoC2': 7.58, 'temp': 0.0, 'lipoC3S3': 11.26, 'state': 'normal', 'rot1': 426, 'rot0': 456, 'rot3': 0, 'rot2': 0, 'depth': -2.734, 'yaw': -143.54, 'datetime': '2018-12-12 13:35:10.744981', 'mgs': 0, 'flw2': 0.12, 'flw1': 0.0, 'flw0': 0.28, 'time': 37.06, 'compass': -0.15, 'pitch': -3.25, 'roll': -0.62}
{'lipoC2': 7.61, 'temp': 0.0, 'lipoC3S3': 11.25, 'state': 'normal', 'rot1': 426, 'rot0': 456, 'rot3': 0, 'rot2': 0, 'depth': 0.165, 'yaw': -143.55, 'datetime': '2018-12-12 13:35:10.954202', 'mgs': 0, 'flw2': 0.22, 'flw1': 0.0, 'flw0': 0.27, 'time': 37.27, 'compass': -0.15, 'pitch': -3.36, 'roll': -0.47}
{'lipoC2': 7.48, 'temp': 0.0, 'lipoC3S3': 11.36, 'state': 'normal', 'rot1': 426, 'rot0': 456, 'rot3': 0, 'rot2': 0, 'depth': -1.208, 'yaw': -142.17, 'datetime': '2018-12-12 13:35:11.164950', 'mgs': 0, 'flw2': 0.0, 'flw1': 0.0, 'flw0': 0.2, 'time': 37.48, 'compass': 1.22, 'pitch': -5.43, 'roll': 0.79}
{'lipoC2': 7.64, 'temp': 0.0, 'lipoC3S3': 11.4, 'state': 'normal', 'rot1': 426, 'rot0': 456, 'rot3': 0, 'rot2': 0, 'depth': -1.59, 'yaw': -142.54, 'datetime': '2018-12-12 13:35:11.373676', 'mgs': 0, 'flw2': 0.0, 'flw1': 0.0, 'flw0': 0.0, 'time': 37.69, 'compass': 0.85, 'pitch': -8.29, 'roll': 2.22}
{'lipoC2': 7.48, 'temp': 0.0, 'lipoC3S3': 11.36, 'state': 'normal', 'rot1': 426, 'rot0': 456, 'rot3': 0, 'rot2': 0, 'depth': -1.437, 'yaw': -146.21, 'datetime': '2018-12-12 13:35:11.584194', 'mgs': 0, 'flw2': 0.13, 'flw1': 0.0, 'flw0': 0.26, 'time': 37.9, 'compass': -2.82, 'pitch': -9.63, 'roll': 4.41}
{'lipoC2': 7.41, 'temp': 0.0, 'lipoC3S3': 11.59, 'state': 'normal', 'rot1': 426, 'rot0': 456, 'rot3': 0, 'rot2': 0, 'depth': -0.98, 'yaw': -147.81, 'datetime': '2018-12-12 13:35:11.792956', 'mgs': 0, 'flw2': 0.0, 'flw1': 0.21, 'flw0': 0.0, 'time': 38.11, 'compass': -4.42, 'pitch': -9.88, 'roll': 4.11}
{'lipoC2': 7.55, 'temp': 0.0, 'lipoC3S3': 11.44, 'state': 'normal', 'rot1': 426, 'rot0': 456, 'rot3': 0, 'rot2': 0, 'depth': -1.437, 'yaw': -144.18, 'datetime': '2018-12-12 13:35:12.003360', 'mgs': 0, 'flw2': 0.0, 'flw1': 0.0, 'flw0': 0.0, 'time': 38.32, 'compass': -0.79, 'pitch': -11.25, 'roll': -2.86}
{'lipoC2': 7.52, 'temp': 0.0, 'lipoC3S3': 11.31, 'state': 'normal', 'rot1': 426, 'rot0': 456, 'rot3': 0, 'rot2': 0, 'depth': -2.429, 'yaw': -142.83, 'datetime': '2018-12-12 13:35:12.213929', 'mgs': 0, 'flw2': 0.0, 'flw1': 0.0, 'flw0': 0.22, 'time': 38.53, 'compass': 0.56, 'pitch': -11.22, 'roll': -6.62}
{'lipoC2': 7.38, 'temp': 0.0, 'lipoC3S3': 11.44, 'state': 'normal', 'rot1': 426, 'rot0': 456, 'rot3': 0, 'rot2': 0, 'depth': -0.98, 'yaw': -147.64, 'datetime': '2018-12-12 13:35:12.424307', 'mgs': 0, 'flw2': 0.0, 'flw1': 0.35, 'flw0': 0.0, 'time': 38.74, 'compass': -4.25, 'pitch': -10.6, 'roll': -10.74}
{'lipoC2': 7.58, 'temp': 0.0, 'lipoC3S3': 11.26, 'state': 'normal', 'rot1': 426, 'rot0': 456, 'rot3': 0, 'rot2': 0, 'depth': -2.734, 'yaw': -152.33, 'datetime': '2018-12-12 13:35:12.629473', 'mgs': 0, 'flw2': 0.13, 'flw1': 0.0, 'flw0': 0.29, 'time': 38.95, 'compass': -8.93, 'pitch': -12.1, 'roll': -10.36}
{'lipoC2': 7.47, 'temp': 0.0, 'lipoC3S3': 11.39, 'state': 'normal', 'rot1': 427, 'rot0': 457, 'rot3': 0, 'rot2': 0, 'depth': -0.98, 'yaw': -152.88, 'datetime': '2018-12-12 13:35:12.843188', 'mgs': 0, 'flw2': 0.44, 'flw1': 0.0, 'flw0': 0.5, 'time': 39.16, 'compass': -9.49, 'pitch': -13.27, 'roll': -8.32}
{'lipoC2': 7.55, 'temp': 0.0, 'lipoC3S3': 11.27, 'state': 'normal', 'rot1': 428, 'rot0': 458, 'rot3': 0, 'rot2': 0, 'depth': -2.505, 'yaw': -151.73, 'datetime': '2018-12-12 13:35:13.051634', 'mgs': 0, 'flw2': 0.54, 'flw1': 0.0, 'flw0': 0.45, 'time': 39.37, 'compass': -8.33, 'pitch': -15.66, 'roll': -2.84}
{'lipoC2': 7.38, 'temp': 0.0, 'lipoC3S3': 11.64, 'state': 'normal', 'rot1': 430, 'rot0': 459, 'rot3': 0, 'rot2': 0, 'depth': -1.971, 'yaw': -152.09, 'datetime': '2018-12-12 13:35:13.261702', 'mgs': 0, 'flw2': 0.26, 'flw1': 0.0, 'flw0': 0.34, 'time': 39.58, 'compass': -8.69, 'pitch': -15.68, 'roll': -0.65}
{'lipoC2': 7.36, 'temp': 0.0, 'lipoC3S3': 11.46, 'state': 'normal', 'rot1': 431, 'rot0': 460, 'rot3': 0, 'rot2': 0, 'depth': -1.971, 'yaw': -154.56, 'datetime': '2018-12-12 13:35:13.473185', 'mgs': 0, 'flw2': 0.05, 'flw1': 0.29, 'flw0': 0.2, 'time': 39.79, 'compass': -11.16, 'pitch': -14.03, 'roll': 1.87}
{'lipoC2': 7.42, 'temp': 0.0, 'lipoC3S3': 11.61, 'state': 'normal', 'rot1': 432, 'rot0': 461, 'rot3': 0, 'rot2': 0, 'depth': -1.056, 'yaw': -156.56, 'datetime': '2018-12-12 13:35:13.681408', 'mgs': 0, 'flw2': 0.05, 'flw1': 0.64, 'flw0': 0.11, 'time': 39.99, 'compass': -13.17, 'pitch': -13.92, 'roll': 3.81}
{'lipoC2': 7.63, 'temp': 0.0, 'lipoC3S3': 11.31, 'state': 'normal', 'rot1': 434, 'rot0': 462, 'rot3': 0, 'rot2': 0, 'depth': -2.582, 'yaw': -153.93, 'datetime': '2018-12-12 13:35:13.891473', 'mgs': 0, 'flw2': 0.48, 'flw1': 0.0, 'flw0': 0.35, 'time': 40.2, 'compass': -10.54, 'pitch': -14.38, 'roll': 3.71}
{'lipoC2': 7.65, 'temp': 0.0, 'lipoC3S3': 11.39, 'state': 'normal', 'rot1': 435, 'rot0': 463, 'rot3': 0, 'rot2': 0, 'depth': -2.048, 'yaw': -150.27, 'datetime': '2018-12-12 13:35:14.097164', 'mgs': 0, 'flw2': 0.49, 'flw1': 0.0, 'flw0': 0.24, 'time': 40.41, 'compass': -6.87, 'pitch': -13.43, 'roll': 0.67}
{'lipoC2': 7.59, 'temp': 0.0, 'lipoC3S3': 11.26, 'state': 'normal', 'rot1': 435, 'rot0': 464, 'rot3': 0, 'rot2': 0, 'depth': 0.165, 'yaw': -145.29, 'datetime': '2018-12-12 13:35:14.308073', 'mgs': 0, 'flw2': 0.23, 'flw1': 0.0, 'flw0': 0.26, 'time': 40.62, 'compass': -1.9, 'pitch': -14.32, 'roll': 2.29}
{'lipoC2': 7.59, 'temp': 0.0, 'lipoC3S3': 11.26, 'state': 'normal', 'rot1': 435, 'rot0': 464, 'rot3': 0, 'rot2': 0, 'depth': 0.089, 'yaw': -141.82, 'datetime': '2018-12-12 13:35:14.518274', 'mgs': 0, 'flw2': 0.16, 'flw1': 0.0, 'flw0': 0.29, 'time': 40.83, 'compass': 1.57, 'pitch': -15.22, 'roll': 3.03}
{'lipoC2': 7.61, 'temp': 0.0, 'lipoC3S3': 11.44, 'state': 'normal', 'rot1': 435, 'rot0': 464, 'rot3': 0, 'rot2': 0, 'depth': 0.241, 'yaw': -143.29, 'datetime': '2018-12-12 13:35:14.729629', 'mgs': 0, 'flw2': 0.0, 'flw1': 0.12, 'flw0': 0.0, 'time': 41.04, 'compass': 0.11, 'pitch': -13.98, 'roll': 2.63}
{'lipoC2': 7.59, 'temp': 0.0, 'lipoC3S3': 11.27, 'state': 'normal', 'rot1': 435, 'rot0': 464, 'rot3': 0, 'rot2': 0, 'depth': -2.734, 'yaw': -144.84, 'datetime': '2018-12-12 13:35:14.940298', 'mgs': 0, 'flw2': 0.2, 'flw1': 0.0, 'flw0': 0.29, 'time': 41.25, 'compass': -1.44, 'pitch': -15.47, 'roll': 4.96}
{'lipoC2': 7.39, 'temp': 0.0, 'lipoC3S3': 11.39, 'state': 'normal', 'rot1': 435, 'rot0': 464, 'rot3': 0, 'rot2': 0, 'depth': -2.048, 'yaw': -147.78, 'datetime': '2018-12-12 13:35:15.151548', 'mgs': 0, 'flw2': 0.0, 'flw1': 0.0, 'flw0': 0.0, 'time': 41.46, 'compass': -4.39, 'pitch': -18.66, 'roll': 6.25}
{'lipoC2': 7.59, 'temp': 0.0, 'lipoC3S3': 11.27, 'state': 'normal', 'rot1': 435, 'rot0': 464, 'rot3': 0, 'rot2': 0, 'depth': -2.734, 'yaw': -150.26, 'datetime': '2018-12-12 13:35:15.361558', 'mgs': 0, 'flw2': 0.0, 'flw1': 0.62, 'flw0': 0.0, 'time': 41.67, 'compass': -6.87, 'pitch': -22.93, 'roll': 9.31}
{'lipoC2': 7.64, 'temp': 0.0, 'lipoC3S3': 11.43, 'state': 'normal', 'rot1': 435, 'rot0': 464, 'rot3': 0, 'rot2': 0, 'depth': 0.394, 'yaw': -151.62, 'datetime': '2018-12-12 13:35:15.571579', 'mgs': 0, 'flw2': 0.0, 'flw1': 0.0, 'flw0': 0.0, 'time': 41.88, 'compass': -8.23, 'pitch': -30.76, 'roll': 7.65}
{'lipoC2': 7.41, 'temp': 0.0, 'lipoC3S3': 11.39, 'state': 'normal', 'rot1': 437, 'rot0': 464, 'rot3': 0, 'rot2': 0, 'depth': -1.895, 'yaw': -152.25, 'datetime': '2018-12-12 13:35:15.783129', 'mgs': 0, 'flw2': 0.04, 'flw1': 0.0, 'flw0': 0.05, 'time': 42.09, 'compass': -8.86, 'pitch': -32.37, 'roll': 5.64}
{'lipoC2': 7.43, 'temp': 0.0, 'lipoC3S3': 11.6, 'state': 'normal', 'rot1': 438, 'rot0': 467, 'rot3': 0, 'rot2': 0, 'depth': -0.598, 'yaw': -154.07, 'datetime': '2018-12-12 13:35:15.992495', 'mgs': 0, 'flw2': 0.0, 'flw1': 0.47, 'flw0': 0.16, 'time': 42.3, 'compass': -10.68, 'pitch': -35.39, 'roll': 9.06}
