{'lipoC2': 7.44, 'temp': 0.0, 'lipoC3S3': 11.92, 'state': 'normal', 'rot1': 0, 'rot0': 0, 'rot3': 0, 'rot2': 0, 'depth': 0.241, 'yaw': 0.0, 'datetime': '2018-12-12 13:24:54.957096', 'mgs': 0, 'flw2': 0.0, 'flw1': 0.0, 'flw0': 0.0, 'time': 1.25, 'compass': 150.93, 'pitch': -3.34, 'roll': 1.74}
{'lipoC2': 7.47, 'temp': 0.0, 'lipoC3S3': 11.88, 'state': 'normal', 'rot1': 0, 'rot0': 0, 'rot3': 0, 'rot2': 0, 'depth': 2.377, 'yaw': -0.46, 'datetime': '2018-12-12 13:24:55.166250', 'mgs': 0, 'flw2': 0.26, 'flw1': 0.0, 'flw0': 0.1, 'time': 1.46, 'compass': 150.47, 'pitch': -3.4, 'roll': 1.53}
{'lipoC2': 7.46, 'temp': 0.0, 'lipoC3S3': 11.85, 'state': 'normal', 'rot1': 0, 'rot0': 0, 'rot3': 0, 'rot2': 0, 'depth': 2.148, 'yaw': -0.86, 'datetime': '2018-12-12 13:24:55.374649', 'mgs': 0, 'flw2': 0.0, 'flw1': 0.53, 'flw0': 0.0, 'time': 1.67, 'compass': 150.07, 'pitch': -3.27, 'roll': 1.46}
{'lipoC2': 7.44, 'temp': 0.0, 'lipoC3S3': 11.94, 'state': 'normal', 'rot1': 0, 'rot0': 0, 'rot3': 0, 'rot2': 0, 'depth': 2.682, 'yaw': -1.28, 'datetime': '2018-12-12 13:24:55.583653', 'mgs': 0, 'flw2': 0.0, 'flw1': 0.0, 'flw0': 0.0, 'time': 1.88, 'compass': 149.65, 'pitch': -3.13, 'roll': 1.19}
{'lipoC2': 7.44, 'temp': 0.0, 'lipoC3S3': 11.81, 'state': 'normal', 'rot1': 0, 'rot0': 0, 'rot3': 0, 'rot2': 0, 'depth': 0.47, 'yaw': -1.72, 'datetime': '2018-12-12 13:24:55.790750', 'mgs': 0, 'flw2': 0.0, 'flw1': 7.0, 'flw0': 0.0, 'time': 2.09, 'compass': 149.21, 'pitch': -2.92, 'roll': 0.92}
{'lipoC2': 7.57, 'temp': 0.0, 'lipoC3S3': 11.42, 'state': 'normal', 'rot1': 0, 'rot0': 0, 'rot3': 0, 'rot2': 1, 'depth': -0.827, 'yaw': -2.14, 'datetime': '2018-12-12 13:24:56.003679', 'mgs': 0, 'flw2': 0.0, 'flw1': 3.25, 'flw0': 0.22, 'time': 2.3, 'compass': 148.79, 'pitch': -2.3, 'roll': 0.8}
{'lipoC2': 7.65, 'temp': 0.0, 'lipoC3S3': 11.6, 'state': 'normal', 'rot1': 0, 'rot0': 0, 'rot3': 1, 'rot2': 2, 'depth': 2.606, 'yaw': -2.63, 'datetime': '2018-12-12 13:24:56.206778', 'mgs': 0, 'flw2': 0.0, 'flw1': 3.72, 'flw0': 0.05, 'time': 2.5, 'compass': 148.3, 'pitch': -1.39, 'roll': 0.74}
{'lipoC2': 7.44, 'temp': 0.0, 'lipoC3S3': 11.75, 'state': 'normal', 'rot1': 0, 'rot0': 0, 'rot3': 2, 'rot2': 3, 'depth': 2.377, 'yaw': -3.22, 'datetime': '2018-12-12 13:24:56.417057', 'mgs': 0, 'flw2': 0.0, 'flw1': 4.66, 'flw0': 0.0, 'time': 2.71, 'compass': 147.7, 'pitch': -0.9, 'roll': 0.38}
{'lipoC2': 7.38, 'temp': 0.0, 'lipoC3S3': 11.59, 'state': 'normal', 'rot1': 0, 'rot0': 0, 'rot3': 3, 'rot2': 4, 'depth': -0.598, 'yaw': -3.84, 'datetime': '2018-12-12 13:24:56.627481', 'mgs': 0, 'flw2': 0.0, 'flw1': 4.1, 'flw0': 0.0, 'time': 2.92, 'compass': 147.09, 'pitch': -0.99, 'roll': 0.15}
{'lipoC2': 7.46, 'temp': 0.0, 'lipoC3S3': 11.6, 'state': 'normal', 'rot1': 0, 'rot0': 0, 'rot3': 4, 'rot2': 5, 'depth': 0.394, 'yaw': -4.5, 'datetime': '2018-12-12 13:24:56.837770', 'mgs': 0, 'flw2': 0.2, 'flw1': 3.52, 'flw0': 0.0, 'time': 3.13, 'compass': 146.43, 'pitch': -1.22, 'roll': 0.24}
{'lipoC2': 7.43, 'temp': 0.0, 'lipoC3S3': 11.77, 'state': 'normal', 'rot1': 0, 'rot0': 0, 'rot3': 5, 'rot2': 6, 'depth': -0.064, 'yaw': -5.27, 'datetime': '2018-12-12 13:24:57.045275', 'mgs': 0, 'flw2': 0.05, 'flw1': 3.63, 'flw0': 0.0, 'time': 3.34, 'compass': 145.66, 'pitch': -1.07, 'roll': 0.35}
{'lipoC2': 7.41, 'temp': 0.0, 'lipoC3S3': 11.61, 'state': 'normal', 'rot1': 0, 'rot0': 0, 'rot3': 5, 'rot2': 7, 'depth': -0.14, 'yaw': -6.04, 'datetime': '2018-12-12 13:24:57.257734', 'mgs': 0, 'flw2': 0.0, 'flw1': 3.9, 'flw0': 0.0, 'time': 3.54, 'compass': 144.89, 'pitch': -0.5, 'roll': 0.35}
{'lipoC2': 7.43, 'temp': 0.0, 'lipoC3S3': 11.92, 'state': 'normal', 'rot1': 0, 'rot0': 0, 'rot3': 6, 'rot2': 9, 'depth': -0.14, 'yaw': -6.7, 'datetime': '2018-12-12 13:24:57.464751', 'mgs': 0, 'flw2': 0.0, 'flw1': 3.22, 'flw0': 0.0, 'time': 3.75, 'compass': 144.23, 'pitch': -0.54, 'roll': 0.41}
{'lipoC2': 7.48, 'temp': 0.0, 'lipoC3S3': 11.6, 'state': 'normal', 'rot1': 0, 'rot0': 0, 'rot3': 7, 'rot2': 10, 'depth': 0.165, 'yaw': -7.41, 'datetime': '2018-12-12 13:24:57.669588', 'mgs': 0, 'flw2': 0.0, 'flw1': 3.11, 'flw0': 0.15, 'time': 3.96, 'compass': 143.52, 'pitch': -1.5, 'roll': 0.4}
{'lipoC2': 7.66, 'temp': 0.0, 'lipoC3S3': 11.51, 'state': 'normal', 'rot1': 0, 'rot0': 0, 'rot3': 8, 'rot2': 11, 'depth': -0.446, 'yaw': -7.98, 'datetime': '2018-12-12 13:24:57.877842', 'mgs': 0, 'flw2': 0.0, 'flw1': 2.99, 'flw0': 0.28, 'time': 4.17, 'compass': 142.95, 'pitch': -2.17, 'roll': 0.57}
{'lipoC2': 7.47, 'temp': 0.0, 'lipoC3S3': 11.51, 'state': 'normal', 'rot1': 0, 'rot0': 0, 'rot3': 8, 'rot2': 11, 'depth': 0.089, 'yaw': -8.43, 'datetime': '2018-12-12 13:24:58.087064', 'mgs': 0, 'flw2': 0.18, 'flw1': 0.0, 'flw0': 0.26, 'time': 4.38, 'compass': 142.5, 'pitch': -2.13, 'roll': 1.1}
{'lipoC2': 7.44, 'temp': 0.0, 'lipoC3S3': 11.93, 'state': 'normal', 'rot1': 0, 'rot0': 0, 'rot3': 8, 'rot2': 11, 'depth': 2.072, 'yaw': -8.83, 'datetime': '2018-12-12 13:24:58.296821', 'mgs': 0, 'flw2': 0.0, 'flw1': 0.0, 'flw0': 0.0, 'time': 4.59, 'compass': 142.1, 'pitch': -2.13, 'roll': 1.72}
{'lipoC2': 7.43, 'temp': 0.0, 'lipoC3S3': 11.93, 'state': 'normal', 'rot1': 0, 'rot0': 0, 'rot3': 8, 'rot2': 11, 'depth': 2.072, 'yaw': -9.24, 'datetime': '2018-12-12 13:24:58.505627', 'mgs': 0, 'flw2': 0.0, 'flw1': 0.0, 'flw0': 0.0, 'time': 4.79, 'compass': 141.69, 'pitch': -2.52, 'roll': 1.87}
{'lipoC2': 7.65, 'temp': 0.0, 'lipoC3S3': 11.63, 'state': 'normal', 'rot1': 0, 'rot0': 0, 'rot3': 8, 'rot2': 11, 'depth': -0.674, 'yaw': -9.56, 'datetime': '2018-12-12 13:24:58.714188', 'mgs': 0, 'flw2': 0.0, 'flw1': 0.0, 'flw0': 0.0, 'time': 5.0, 'compass': 141.37, 'pitch': -2.97, 'roll': 1.69}
{'lipoC2': 7.46, 'temp': 0.0, 'lipoC3S3': 11.92, 'state': 'normal', 'rot1': 0, 'rot0': 0, 'rot3': 8, 'rot2': 11, 'depth': 2.301, 'yaw': -9.77, 'datetime': '2018-12-12 13:24:58.924375', 'mgs': 0, 'flw2': 0.0, 'flw1': 0.0, 'flw0': 0.0, 'time': 5.21, 'compass': 141.16, 'pitch': -2.99, 'roll': 1.77}
{'lipoC2': 7.41, 'temp': 0.0, 'lipoC3S3': 11.72, 'state': 'normal', 'rot1': 0, 'rot0': 0, 'rot3': 8, 'rot2': 11, 'depth': 0.699, 'yaw': -9.91, 'datetime': '2018-12-12 13:24:59.130398', 'mgs': 0, 'flw2': 0.0, 'flw1': 0.59, 'flw0': 0.0, 'time': 5.42, 'compass': 141.02, 'pitch': -2.63, 'roll': 2.11}
{'lipoC2': 7.43, 'temp': 0.0, 'lipoC3S3': 11.85, 'state': 'normal', 'rot1': 0, 'rot0': 0, 'rot3': 8, 'rot2': 11, 'depth': 1.309, 'yaw': -10.1, 'datetime': '2018-12-12 13:24:59.340552', 'mgs': 0, 'flw2': 0.0, 'flw1': 0.0, 'flw0': 0.0, 'time': 5.63, 'compass': 140.83, 'pitch': -2.49, 'roll': 2.31}
{'lipoC2': 7.44, 'temp': 0.0, 'lipoC3S3': 11.79, 'state': 'normal', 'rot1': 0, 'rot0': 0, 'rot3': 8, 'rot2': 11, 'depth': 1.157, 'yaw': -10.28, 'datetime': '2018-12-12 13:24:59.550177', 'mgs': 0, 'flw2': 0.0, 'flw1': 0.59, 'flw0': 0.0, 'time': 5.83, 'compass': 140.65, 'pitch': -2.98, 'roll': 2.2}
{'lipoC2': 7.43, 'temp': 0.0, 'lipoC3S3': 11.85, 'state': 'normal', 'rot1': 0, 'rot0': 0, 'rot3': 8, 'rot2': 11, 'depth': 1.767, 'yaw': -10.32, 'datetime': '2018-12-12 13:24:59.759827', 'mgs': 0, 'flw2': 0.05, 'flw1': 0.0, 'flw0': 0.0, 'time': 6.04, 'compass': 140.61, 'pitch': -3.52, 'roll': 1.97}
{'lipoC2': 7.46, 'temp': 0.0, 'lipoC3S3': 11.76, 'state': 'normal', 'rot1': 0, 'rot0': 0, 'rot3': 8, 'rot2': 11, 'depth': 0.699, 'yaw': -10.32, 'datetime': '2018-12-12 13:24:59.967489', 'mgs': 0, 'flw2': 0.0, 'flw1': 0.38, 'flw0': 0.0, 'time': 6.25, 'compass': 140.61, 'pitch': -3.45, 'roll': 1.91}
{'lipoC2': 7.66, 'temp': 0.0, 'lipoC3S3': 11.59, 'state': 'normal', 'rot1': 0, 'rot0': 0, 'rot3': 9, 'rot2': 12, 'depth': 0.546, 'yaw': -10.32, 'datetime': '2018-12-12 13:25:00.172874', 'mgs': 0, 'flw2': 0.0, 'flw1': 0.5, 'flw0': 0.16, 'time': 6.46, 'compass': 140.61, 'pitch': -3.23, 'roll': 1.91}
{'lipoC2': 7.46, 'temp': 0.0, 'lipoC3S3': 11.52, 'state': 'normal', 'rot1': 0, 'rot0': 0, 'rot3': 9, 'rot2': 12, 'depth': 1.996, 'yaw': -10.32, 'datetime': '2018-12-12 13:25:00.382746', 'mgs': 0, 'flw2': 0.0, 'flw1': 0.23, 'flw0': 0.0, 'time': 6.67, 'compass': 140.61, 'pitch': -3.53, 'roll': 1.91}
{'lipoC2': 7.39, 'temp': 0.0, 'lipoC3S3': 11.63, 'state': 'normal', 'rot1': 0, 'rot0': 0, 'rot3': 9, 'rot2': 12, 'depth': 0.546, 'yaw': -10.32, 'datetime': '2018-12-12 13:25:00.590703', 'mgs': 0, 'flw2': 0.0, 'flw1': 0.15, 'flw0': 0.0, 'time': 6.88, 'compass': 140.61, 'pitch': -4.03, 'roll': 1.91}
{'lipoC2': 7.42, 'temp': 0.0, 'lipoC3S3': 11.93, 'state': 'normal', 'rot1': 0, 'rot0': 0, 'rot3': 9, 'rot2': 12, 'depth': 2.682, 'yaw': -10.32, 'datetime': '2018-12-12 13:25:00.803082', 'mgs': 0, 'flw2': 0.13, 'flw1': 0.41, 'flw0': 0.0, 'time': 7.08, 'compass': 140.61, 'pitch': -4.48, 'roll': 1.91}
{'lipoC2': 7.39, 'temp': 0.0, 'lipoC3S3': 11.63, 'state': 'normal', 'rot1': 0, 'rot0': 0, 'rot3': 9, 'rot2': 12, 'depth': -0.064, 'yaw': -10.32, 'datetime': '2018-12-12 13:25:01.009148', 'mgs': 0, 'flw2': 0.0, 'flw1': 0.23, 'flw0': 0.0, 'time': 7.29, 'compass': 140.61, 'pitch': -5.01, 'roll': 1.93}
{'lipoC2': 7.41, 'temp': 0.0, 'lipoC3S3': 11.61, 'state': 'normal', 'rot1': 0, 'rot0': 0, 'rot3': 9, 'rot2': 12, 'depth': -0.064, 'yaw': -10.25, 'datetime': '2018-12-12 13:25:01.216949', 'mgs': 0, 'flw2': 0.0, 'flw1': 0.03, 'flw0': 0.0, 'time': 7.5, 'compass': 140.68, 'pitch': -5.54, 'roll': 2.16}
{'lipoC2': 7.41, 'temp': 0.0, 'lipoC3S3': 11.87, 'state': 'normal', 'rot1': 0, 'rot0': 0, 'rot3': 9, 'rot2': 12, 'depth': 0.012, 'yaw': -10.15, 'datetime': '2018-12-12 13:25:01.426250', 'mgs': 0, 'flw2': 0.0, 'flw1': 0.0, 'flw0': 0.0, 'time': 7.71, 'compass': 140.78, 'pitch': -5.78, 'roll': 2.45}
{'lipoC2': 7.58, 'temp': 0.0, 'lipoC3S3': 11.51, 'state': 'normal', 'rot1': 0, 'rot0': 0, 'rot3': 9, 'rot2': 12, 'depth': -0.293, 'yaw': -10.05, 'datetime': '2018-12-12 13:25:01.637720', 'mgs': 0, 'flw2': 0.0, 'flw1': 0.15, 'flw0': 0.0, 'time': 7.92, 'compass': 140.87, 'pitch': -5.78, 'roll': 2.6}
{'lipoC2': 7.46, 'temp': 0.0, 'lipoC3S3': 11.92, 'state': 'normal', 'rot1': 0, 'rot0': 0, 'rot3': 9, 'rot2': 12, 'depth': 3.064, 'yaw': -9.88, 'datetime': '2018-12-12 13:25:01.846842', 'mgs': 0, 'flw2': 0.0, 'flw1': 0.09, 'flw0': 0.0, 'time': 8.13, 'compass': 141.04, 'pitch': -5.77, 'roll': 2.62}
{'lipoC2': 7.37, 'temp': 0.0, 'lipoC3S3': 11.6, 'state': 'normal', 'rot1': 0, 'rot0': 0, 'rot3': 9, 'rot2': 12, 'depth': 2.53, 'yaw': -9.7, 'datetime': '2018-12-12 13:25:02.053190', 'mgs': 0, 'flw2': 0.22, 'flw1': 0.82, 'flw0': 0.0, 'time': 8.34, 'compass': 141.23, 'pitch': -5.71, 'roll': 2.64}
{'lipoC2': 7.38, 'temp': 0.0, 'lipoC3S3': 11.61, 'state': 'normal', 'rot1': 0, 'rot0': 0, 'rot3': 10, 'rot2': 13, 'depth': -0.064, 'yaw': -9.52, 'datetime': '2018-12-12 13:25:02.257864', 'mgs': 0, 'flw2': 0.0, 'flw1': 2.08, 'flw0': 0.0, 'time': 8.55, 'compass': 141.41, 'pitch': -5.39, 'roll': 2.65}
{'lipoC2': 7.51, 'temp': 0.0, 'lipoC3S3': 11.63, 'state': 'normal', 'rot1': 0, 'rot0': 0, 'rot3': 11, 'rot2': 14, 'depth': 0.775, 'yaw': -9.33, 'datetime': '2018-12-12 13:25:02.468562', 'mgs': 0, 'flw2': 0.15, 'flw1': 1.03, 'flw0': 0.0, 'time': 8.75, 'compass': 141.6, 'pitch': -5.12, 'roll': 2.64}
{'lipoC2': 7.43, 'temp': 0.0, 'lipoC3S3': 11.92, 'state': 'normal', 'rot1': 0, 'rot0': 0, 'rot3': 11, 'rot2': 14, 'depth': 2.835, 'yaw': -9.12, 'datetime': '2018-12-12 13:25:02.678570', 'mgs': 0, 'flw2': 0.0, 'flw1': 1.2, 'flw0': 0.0, 'time': 8.96, 'compass': 141.8, 'pitch': -4.92, 'roll': 2.59}
{'lipoC2': 7.42, 'temp': 0.0, 'lipoC3S3': 11.88, 'state': 'normal', 'rot1': 0, 'rot0': 0, 'rot3': 12, 'rot2': 15, 'depth': 2.911, 'yaw': -8.91, 'datetime': '2018-12-12 13:25:02.891351', 'mgs': 0, 'flw2': 0.0, 'flw1': 2.37, 'flw0': 0.0, 'time': 9.17, 'compass': 142.01, 'pitch': -4.48, 'roll': 2.42}
{'lipoC2': 7.43, 'temp': 0.0, 'lipoC3S3': 11.89, 'state': 'normal', 'rot1': 0, 'rot0': 0, 'rot3': 12, 'rot2': 16, 'depth': 2.988, 'yaw': -8.65, 'datetime': '2018-12-12 13:25:03.098957', 'mgs': 0, 'flw2': 0.07, 'flw1': 3.72, 'flw0': 0.0, 'time': 9.38, 'compass': 142.28, 'pitch': -4.05, 'roll': 2.23}
{'lipoC2': 7.46, 'temp': 0.0, 'lipoC3S3': 11.81, 'state': 'normal', 'rot1': 0, 'rot0': 0, 'rot3': 13, 'rot2': 17, 'depth': 2.53, 'yaw': -8.37, 'datetime': '2018-12-12 13:25:03.303750', 'mgs': 0, 'flw2': 0.0, 'flw1': 6.04, 'flw0': 0.0, 'time': 9.59, 'compass': 142.56, 'pitch': -3.81, 'roll': 2.25}
{'lipoC2': 7.47, 'temp': 0.0, 'lipoC3S3': 11.8, 'state': 'normal', 'rot1': 0, 'rot0': 0, 'rot3': 14, 'rot2': 18, 'depth': 2.759, 'yaw': -8.15, 'datetime': '2018-12-12 13:25:03.516576', 'mgs': 0, 'flw2': 0.0, 'flw1': 8.85, 'flw0': 0.0, 'time': 9.8, 'compass': 142.77, 'pitch': -3.22, 'roll': 1.91}
{'lipoC2': 7.41, 'temp': 0.0, 'lipoC3S3': 11.6, 'state': 'normal', 'rot1': 0, 'rot0': 0, 'rot3': 15, 'rot2': 19, 'depth': 0.699, 'yaw': -8.05, 'datetime': '2018-12-12 13:25:03.728881', 'mgs': 0, 'flw2': 0.0, 'flw1': 9.64, 'flw0': 0.21, 'time': 10.01, 'compass': 142.88, 'pitch': -2.23, 'roll': 0.78}
{'lipoC2': 7.54, 'temp': 0.0, 'lipoC3S3': 11.52, 'state': 'normal', 'rot1': 0, 'rot0': 0, 'rot3': 16, 'rot2': 21, 'depth': 1.08, 'yaw': -8.05, 'datetime': '2018-12-12 13:25:03.936900', 'mgs': 0, 'flw2': 0.0, 'flw1': 9.52, 'flw0': 0.0, 'time': 10.22, 'compass': 142.88, 'pitch': -1.41, 'roll': -0.7}
{'lipoC2': 7.39, 'temp': 0.0, 'lipoC3S3': 11.65, 'state': 'normal', 'rot1': 0, 'rot0': 0, 'rot3': 18, 'rot2': 22, 'depth': 0.546, 'yaw': -8.14, 'datetime': '2018-12-12 13:25:04.142545', 'mgs': 0, 'flw2': 0.0, 'flw1': 0.0, 'flw0': 0.0, 'time': 10.43, 'compass': 142.79, 'pitch': -1.36, 'roll': -0.69}
{'lipoC2': 7.42, 'temp': 0.0, 'lipoC3S3': 11.94, 'state': 'normal', 'rot1': 0, 'rot0': 0, 'rot3': 18, 'rot2': 22, 'depth': -0.369, 'yaw': -8.15, 'datetime': '2018-12-12 13:25:04.349387', 'mgs': 0, 'flw2': 0.0, 'flw1': 0.09, 'flw0': 0.0, 'time': 10.63, 'compass': 142.78, 'pitch': -2.72, 'roll': -0.07}
{'lipoC2': 7.57, 'temp': 0.0, 'lipoC3S3': 11.5, 'state': 'normal', 'rot1': 0, 'rot0': 0, 'rot3': 18, 'rot2': 22, 'depth': -1.056, 'yaw': -8.13, 'datetime': '2018-12-12 13:25:04.559827', 'mgs': 0, 'flw2': 0.0, 'flw1': 0.59, 'flw0': 0.0, 'time': 10.84, 'compass': 142.8, 'pitch': -4.25, 'roll': 0.46}
{'lipoC2': 7.41, 'temp': 0.0, 'lipoC3S3': 11.61, 'state': 'normal', 'rot1': 0, 'rot0': 0, 'rot3': 18, 'rot2': 22, 'depth': -0.446, 'yaw': -7.98, 'datetime': '2018-12-12 13:25:04.771436', 'mgs': 0, 'flw2': 0.0, 'flw1': 0.0, 'flw0': 0.0, 'time': 11.05, 'compass': 142.95, 'pitch': -4.92, 'roll': 1.06}
{'lipoC2': 7.43, 'temp': 0.0, 'lipoC3S3': 11.61, 'state': 'normal', 'rot1': 0, 'rot0': 0, 'rot3': 18, 'rot2': 22, 'depth': -0.522, 'yaw': -7.7, 'datetime': '2018-12-12 13:25:04.981343', 'mgs': 0, 'flw2': 0.0, 'flw1': 0.0, 'flw0': 0.0, 'time': 11.26, 'compass': 143.23, 'pitch': -5.13, 'roll': 2.21}
{'lipoC2': 7.55, 'temp': 0.0, 'lipoC3S3': 11.52, 'state': 'normal', 'rot1': 0, 'rot0': 0, 'rot3': 18, 'rot2': 23, 'depth': -1.132, 'yaw': -7.49, 'datetime': '2018-12-12 13:25:05.184027', 'mgs': 0, 'flw2': 0.0, 'flw1': 0.0, 'flw0': 0.12, 'time': 11.47, 'compass': 143.44, 'pitch': -5.61, 'roll': 3.62}
{'lipoC2': 7.46, 'temp': 0.0, 'lipoC3S3': 11.81, 'state': 'normal', 'rot1': 0, 'rot0': 0, 'rot3': 19, 'rot2': 23, 'depth': 0.165, 'yaw': -7.33, 'datetime': '2018-12-12 13:25:05.393810', 'mgs': 0, 'flw2': 0.0, 'flw1': 1.55, 'flw0': 0.0, 'time': 11.68, 'compass': 143.6, 'pitch': -6.34, 'roll': 4.34}
{'lipoC2': 7.41, 'temp': 0.0, 'lipoC3S3': 11.59, 'state': 'normal', 'rot1': 0, 'rot0': 0, 'rot3': 19, 'rot2': 24, 'depth': -0.446, 'yaw': -7.0, 'datetime': '2018-12-12 13:25:05.603169', 'mgs': 0, 'flw2': 0.0, 'flw1': 0.32, 'flw0': 0.0, 'time': 11.89, 'compass': 143.93, 'pitch': -6.9, 'roll': 4.58}
{'lipoC2': 7.66, 'temp': 0.0, 'lipoC3S3': 11.59, 'state': 'normal', 'rot1': 0, 'rot0': 0, 'rot3': 19, 'rot2': 24, 'depth': -0.293, 'yaw': -6.78, 'datetime': '2018-12-12 13:25:05.811297', 'mgs': 0, 'flw2': 0.0, 'flw1': 0.0, 'flw0': 0.28, 'time': 12.1, 'compass': 144.15, 'pitch': -6.57, 'roll': 5.03}
{'lipoC2': 7.46, 'temp': 0.0, 'lipoC3S3': 11.81, 'state': 'normal', 'rot1': 0, 'rot0': 0, 'rot3': 19, 'rot2': 24, 'depth': 1.996, 'yaw': -6.83, 'datetime': '2018-12-12 13:25:06.022994', 'mgs': 0, 'flw2': 0.0, 'flw1': 0.15, 'flw0': 1.9, 'time': 12.3, 'compass': 144.1, 'pitch': -5.49, 'roll': 5.11}
{'lipoC2': 7.44, 'temp': 0.0, 'lipoC3S3': 11.61, 'state': 'normal', 'rot1': 4, 'rot0': 0, 'rot3': 19, 'rot2': 24, 'depth': 0.165, 'yaw': -9.13, 'datetime': '2018-12-12 13:25:06.234593', 'mgs': 0, 'flw2': 0.0, 'flw1': 0.56, 'flw0': 7.74, 'time': 12.51, 'compass': 141.8, 'pitch': -3.42, 'roll': 3.85}
{'lipoC2': 7.43, 'temp': 0.0, 'lipoC3S3': 11.75, 'state': 'normal', 'rot1': 9, 'rot0': 0, 'rot3': 19, 'rot2': 24, 'depth': 1.08, 'yaw': -16.28, 'datetime': '2018-12-12 13:25:06.441480', 'mgs': 0, 'flw2': 0.0, 'flw1': 0.41, 'flw0': 4.8, 'time': 12.72, 'compass': 134.65, 'pitch': -0.82, 'roll': 1.97}
{'lipoC2': 7.43, 'temp': 0.0, 'lipoC3S3': 11.9, 'state': 'normal', 'rot1': 10, 'rot0': 0, 'rot3': 19, 'rot2': 24, 'depth': 2.606, 'yaw': -25.52, 'datetime': '2018-12-12 13:25:06.651882', 'mgs': 0, 'flw2': 0.0, 'flw1': 0.12, 'flw0': 0.0, 'time': 12.93, 'compass': 125.41, 'pitch': 0.43, 'roll': 0.95}
{'lipoC2': 7.42, 'temp': 0.0, 'lipoC3S3': 11.93, 'state': 'normal', 'rot1': 11, 'rot0': 0, 'rot3': 19, 'rot2': 24, 'depth': 0.089, 'yaw': -26.23, 'datetime': '2018-12-12 13:25:06.860985', 'mgs': 0, 'flw2': 0.16, 'flw1': 0.53, 'flw0': 0.39, 'time': 13.14, 'compass': 124.7, 'pitch': -0.95, 'roll': -1.19}
{'lipoC2': 7.46, 'temp': 0.0, 'lipoC3S3': 11.84, 'state': 'normal', 'rot1': 12, 'rot0': 0, 'rot3': 20, 'rot2': 25, 'depth': 2.988, 'yaw': -25.18, 'datetime': '2018-12-12 13:25:07.073151', 'mgs': 0, 'flw2': 0.0, 'flw1': 3.81, 'flw0': 0.39, 'time': 13.35, 'compass': 125.75, 'pitch': -1.96, 'roll': -3.15}
{'lipoC2': 7.46, 'temp': 0.0, 'lipoC3S3': 11.8, 'state': 'normal', 'rot1': 14, 'rot0': 0, 'rot3': 20, 'rot2': 25, 'depth': 2.377, 'yaw': -25.43, 'datetime': '2018-12-12 13:25:07.281830', 'mgs': 0, 'flw2': 0.0, 'flw1': 0.94, 'flw0': 3.48, 'time': 13.56, 'compass': 125.5, 'pitch': -2.55, 'roll': -3.74}
{'lipoC2': 7.43, 'temp': 0.0, 'lipoC3S3': 11.83, 'state': 'normal', 'rot1': 17, 'rot0': 0, 'rot3': 21, 'rot2': 26, 'depth': 2.53, 'yaw': -28.51, 'datetime': '2018-12-12 13:25:07.491727', 'mgs': 0, 'flw2': 0.0, 'flw1': 0.5, 'flw0': 3.92, 'time': 13.77, 'compass': 122.42, 'pitch': -3.1, 'roll': -3.56}
{'lipoC2': 7.53, 'temp': 0.0, 'lipoC3S3': 11.58, 'state': 'normal', 'rot1': 20, 'rot0': 0, 'rot3': 21, 'rot2': 26, 'depth': 1.157, 'yaw': -34.78, 'datetime': '2018-12-12 13:25:07.701708', 'mgs': 0, 'flw2': 0.0, 'flw1': 0.0, 'flw0': 5.58, 'time': 13.98, 'compass': 116.14, 'pitch': -2.81, 'roll': -2.79}
{'lipoC2': 7.61, 'temp': 0.0, 'lipoC3S3': 11.52, 'state': 'normal', 'rot1': 23, 'rot0': 0, 'rot3': 21, 'rot2': 26, 'depth': 1.462, 'yaw': -43.9, 'datetime': '2018-12-12 13:25:07.911768', 'mgs': 0, 'flw2': 0.0, 'flw1': 3.11, 'flw0': 5.66, 'time': 14.19, 'compass': 107.03, 'pitch': -1.22, 'roll': -1.84}
{'lipoC2': 7.46, 'temp': 0.0, 'lipoC3S3': 11.71, 'state': 'normal', 'rot1': 26, 'rot0': 0, 'rot3': 22, 'rot2': 27, 'depth': 2.53, 'yaw': -54.41, 'datetime': '2018-12-12 13:25:08.121856', 'mgs': 0, 'flw2': 0.0, 'flw1': 2.67, 'flw0': 5.58, 'time': 14.4, 'compass': 96.52, 'pitch': 1.28, 'roll': -1.27}
{'lipoC2': 7.42, 'temp': 0.0, 'lipoC3S3': 11.68, 'state': 'normal', 'rot1': 29, 'rot0': 0, 'rot3': 23, 'rot2': 28, 'depth': 0.012, 'yaw': -66.22, 'datetime': '2018-12-12 13:25:08.330830', 'mgs': 0, 'flw2': 0.0, 'flw1': 1.52, 'flw0': 5.27, 'time': 14.6, 'compass': 84.71, 'pitch': 3.72, 'roll': -0.9}
{'lipoC2': 7.47, 'temp': 0.0, 'lipoC3S3': 11.39, 'state': 'normal', 'rot1': 32, 'rot0': 0, 'rot3': 23, 'rot2': 28, 'depth': 0.928, 'yaw': -72.35, 'datetime': '2018-12-12 13:25:08.536383', 'mgs': 0, 'flw2': 0.0, 'flw1': 1.55, 'flw0': 4.39, 'time': 14.81, 'compass': 78.57, 'pitch': 3.68, 'roll': 2.47}
{'lipoC2': 7.46, 'temp': 0.0, 'lipoC3S3': 11.71, 'state': 'normal', 'rot1': 35, 'rot0': 0, 'rot3': 24, 'rot2': 29, 'depth': 1.614, 'yaw': -76.53, 'datetime': '2018-12-12 13:25:08.746092', 'mgs': 0, 'flw2': 0.76, 'flw1': 1.9, 'flw0': 4.46, 'time': 15.02, 'compass': 74.4, 'pitch': 2.21, 'roll': 5.97}
{'lipoC2': 7.42, 'temp': 0.0, 'lipoC3S3': 11.54, 'state': 'normal', 'rot1': 38, 'rot0': 2, 'rot3': 24, 'rot2': 30, 'depth': -0.293, 'yaw': -83.6, 'datetime': '2018-12-12 13:25:08.957236', 'mgs': 0, 'flw2': 1.33, 'flw1': 1.61, 'flw0': 4.21, 'time': 15.23, 'compass': 67.33, 'pitch': 1.01, 'roll': 6.35}
{'lipoC2': 7.42, 'temp': 0.0, 'lipoC3S3': 11.55, 'state': 'normal', 'rot1': 41, 'rot0': 3, 'rot3': 25, 'rot2': 31, 'depth': 0.546, 'yaw': -91.91, 'datetime': '2018-12-12 13:25:09.166538', 'mgs': 0, 'flw2': 0.96, 'flw1': 2.26, 'flw0': 4.31, 'time': 15.44, 'compass': 59.02, 'pitch': -0.05, 'roll': 4.3}
{'lipoC2': 7.63, 'temp': 0.0, 'lipoC3S3': 11.42, 'state': 'normal', 'rot1': 43, 'rot0': 5, 'rot3': 26, 'rot2': 32, 'depth': -0.98, 'yaw': -100.6, 'datetime': '2018-12-12 13:25:09.376809', 'mgs': 0, 'flw2': 1.03, 'flw1': 1.85, 'flw0': 4.55, 'time': 15.65, 'compass': 50.33, 'pitch': 0.11, 'roll': 0.83}
{'lipoC2': 7.42, 'temp': 0.0, 'lipoC3S3': 11.76, 'state': 'normal', 'rot1': 46, 'rot0': 6, 'rot3': 27, 'rot2': 32, 'depth': -0.217, 'yaw': -108.8, 'datetime': '2018-12-12 13:25:09.586590', 'mgs': 0, 'flw2': 0.99, 'flw1': 2.52, 'flw0': 4.43, 'time': 15.86, 'compass': 42.12, 'pitch': 1.31, 'roll': -2.36}
{'lipoC2': 7.43, 'temp': 0.0, 'lipoC3S3': 11.43, 'state': 'normal', 'rot1': 49, 'rot0': 8, 'rot3': 27, 'rot2': 33, 'depth': -0.217, 'yaw': -117.02, 'datetime': '2018-12-12 13:25:09.795765', 'mgs': 0, 'flw2': 0.94, 'flw1': 1.23, 'flw0': 4.64, 'time': 16.07, 'compass': 33.9, 'pitch': 3.01, 'roll': -5.13}
{'lipoC2': 7.47, 'temp': 0.0, 'lipoC3S3': 11.77, 'state': 'normal', 'rot1': 52, 'rot0': 9, 'rot3': 28, 'rot2': 33, 'depth': 0.394, 'yaw': -125.21, 'datetime': '2018-12-12 13:25:10.006729', 'mgs': 0, 'flw2': 0.02, 'flw1': 0.59, 'flw0': 4.32, 'time': 16.28, 'compass': 25.72, 'pitch': 5.02, 'roll': -6.87}
{'lipoC2': 7.42, 'temp': 0.0, 'lipoC3S3': 11.79, 'state': 'normal', 'rot1': 55, 'rot0': 10, 'rot3': 28, 'rot2': 33, 'depth': 0.165, 'yaw': -133.89, 'datetime': '2018-12-12 13:25:10.217642', 'mgs': 0, 'flw2': 0.16, 'flw1': 0.26, 'flw0': 4.28, 'time': 16.49, 'compass': 17.04, 'pitch': 6.52, 'roll': -7.33}
{'lipoC2': 7.44, 'temp': 0.0, 'lipoC3S3': 11.85, 'state': 'normal', 'rot1': 58, 'rot0': 11, 'rot3': 28, 'rot2': 33, 'depth': 0.699, 'yaw': -143.43, 'datetime': '2018-12-12 13:25:10.426787', 'mgs': 0, 'flw2': 0.0, 'flw1': 1.49, 'flw0': 4.25, 'time': 16.7, 'compass': 7.5, 'pitch': 7.13, 'roll': -7.39}
{'lipoC2': 7.44, 'temp': 0.0, 'lipoC3S3': 11.81, 'state': 'normal', 'rot1': 61, 'rot0': 11, 'rot3': 28, 'rot2': 33, 'depth': 0.317, 'yaw': -154.03, 'datetime': '2018-12-12 13:25:10.637216', 'mgs': 0, 'flw2': 0.0, 'flw1': 0.53, 'flw0': 4.19, 'time': 16.91, 'compass': -3.1, 'pitch': 7.82, 'roll': -7.98}
{'lipoC2': 7.63, 'temp': 0.0, 'lipoC3S3': 11.34, 'state': 'normal', 'rot1': 64, 'rot0': 12, 'rot3': 28, 'rot2': 33, 'depth': -0.522, 'yaw': -165.28, 'datetime': '2018-12-12 13:25:10.847822', 'mgs': 0, 'flw2': 0.22, 'flw1': 0.0, 'flw0': 4.48, 'time': 17.12, 'compass': -14.35, 'pitch': 9.39, 'roll': -8.45}
{'lipoC2': 7.46, 'temp': 0.0, 'lipoC3S3': 11.64, 'state': 'normal', 'rot1': 67, 'rot0': 13, 'rot3': 28, 'rot2': 33, 'depth': 1.08, 'yaw': -176.55, 'datetime': '2018-12-12 13:25:11.058800', 'mgs': 0, 'flw2': 2.81, 'flw1': 0.18, 'flw0': 4.43, 'time': 17.33, 'compass': -25.62, 'pitch': 11.31, 'roll': -8.3}
{'lipoC2': 7.46, 'temp': 0.0, 'lipoC3S3': 11.48, 'state': 'normal', 'rot1': 70, 'rot0': 16, 'rot3': 28, 'rot2': 33, 'depth': 0.241, 'yaw': 173.9, 'datetime': '2018-12-12 13:25:11.267740', 'mgs': 0, 'flw2': 4.54, 'flw1': 0.09, 'flw0': 4.25, 'time': 17.54, 'compass': -35.18, 'pitch': 13.25, 'roll': -8.05}
{'lipoC2': 7.44, 'temp': 0.0, 'lipoC3S3': 11.68, 'state': 'normal', 'rot1': 72, 'rot0': 19, 'rot3': 28, 'rot2': 33, 'depth': 2.682, 'yaw': 166.49, 'datetime': '2018-12-12 13:25:11.480172', 'mgs': 0, 'flw2': 4.74, 'flw1': 0.12, 'flw0': 4.13, 'time': 17.75, 'compass': -42.59, 'pitch': 14.78, 'roll': -7.94}
{'lipoC2': 7.43, 'temp': 0.0, 'lipoC3S3': 11.67, 'state': 'normal', 'rot1': 75, 'rot0': 22, 'rot3': 28, 'rot2': 33, 'depth': 0.241, 'yaw': 161.04, 'datetime': '2018-12-12 13:25:11.689597', 'mgs': 0, 'flw2': 4.75, 'flw1': 0.0, 'flw0': 3.44, 'time': 17.96, 'compass': -48.03, 'pitch': 15.37, 'roll': -7.67}
{'lipoC2': 7.46, 'temp': 0.0, 'lipoC3S3': 11.68, 'state': 'normal', 'rot1': 78, 'rot0': 25, 'rot3': 29, 'rot2': 33, 'depth': 2.682, 'yaw': 156.92, 'datetime': '2018-12-12 13:25:11.900104', 'mgs': 0, 'flw2': 7.93, 'flw1': 3.22, 'flw0': 2.45, 'time': 18.17, 'compass': -52.15, 'pitch': 14.94, 'roll': -7.42}
{'lipoC2': 7.41, 'temp': 0.0, 'lipoC3S3': 11.52, 'state': 'normal', 'rot1': 80, 'rot0': 29, 'rot3': 29, 'rot2': 33, 'depth': 1.08, 'yaw': 155.37, 'datetime': '2018-12-12 13:25:12.110019', 'mgs': 0, 'flw2': 9.14, 'flw1': 0.29, 'flw0': 1.83, 'time': 18.38, 'compass': -53.7, 'pitch': 14.25, 'roll': -7.0}
{'lipoC2': 7.47, 'temp': 0.0, 'lipoC3S3': 11.75, 'state': 'normal', 'rot1': 82, 'rot0': 32, 'rot3': 29, 'rot2': 33, 'depth': 2.377, 'yaw': 157.2, 'datetime': '2018-12-12 13:25:12.317537', 'mgs': 0, 'flw2': 9.05, 'flw1': 0.64, 'flw0': 1.11, 'time': 18.59, 'compass': -51.87, 'pitch': 13.73, 'roll': -6.09}
{'lipoC2': 7.55, 'temp': 0.0, 'lipoC3S3': 11.46, 'state': 'normal', 'rot1': 84, 'rot0': 37, 'rot3': 29, 'rot2': 33, 'depth': 0.546, 'yaw': 161.61, 'datetime': '2018-12-12 13:25:12.527602', 'mgs': 0, 'flw2': 9.17, 'flw1': 0.23, 'flw0': 0.21, 'time': 18.8, 'compass': -47.46, 'pitch': 12.82, 'roll': -5.04}
{'lipoC2': 7.42, 'temp': 0.0, 'lipoC3S3': 11.73, 'state': 'normal', 'rot1': 84, 'rot0': 41, 'rot3': 29, 'rot2': 33, 'depth': 3.064, 'yaw': 168.66, 'datetime': '2018-12-12 13:25:12.738646', 'mgs': 0, 'flw2': 9.66, 'flw1': 0.0, 'flw0': 0.0, 'time': 19.01, 'compass': -40.42, 'pitch': 11.44, 'roll': -3.96}
{'lipoC2': 7.47, 'temp': 0.0, 'lipoC3S3': 11.76, 'state': 'normal', 'rot1': 84, 'rot0': 45, 'rot3': 29, 'rot2': 33, 'depth': 2.759, 'yaw': 178.1, 'datetime': '2018-12-12 13:25:12.948356', 'mgs': 0, 'flw2': 9.33, 'flw1': 0.0, 'flw0': 0.23, 'time': 19.22, 'compass': -30.97, 'pitch': 10.81, 'roll': -2.5}
{'lipoC2': 7.44, 'temp': 0.0, 'lipoC3S3': 11.68, 'state': 'normal', 'rot1': 84, 'rot0': 49, 'rot3': 29, 'rot2': 33, 'depth': 1.462, 'yaw': -171.46, 'datetime': '2018-12-12 13:25:13.157348', 'mgs': 0, 'flw2': 6.32, 'flw1': 0.0, 'flw0': 0.0, 'time': 19.43, 'compass': -20.53, 'pitch': 11.12, 'roll': -1.24}
{'lipoC2': 7.49, 'temp': 0.0, 'lipoC3S3': 11.5, 'state': 'normal', 'rot1': 84, 'rot0': 53, 'rot3': 29, 'rot2': 33, 'depth': 0.623, 'yaw': -160.32, 'datetime': '2018-12-12 13:25:13.368648', 'mgs': 0, 'flw2': 2.12, 'flw1': 0.64, 'flw0': 0.0, 'time': 19.64, 'compass': -9.4, 'pitch': 10.8, 'roll': -0.22}
{'lipoC2': 7.41, 'temp': 0.0, 'lipoC3S3': 11.63, 'state': 'normal', 'rot1': 84, 'rot0': 55, 'rot3': 29, 'rot2': 33, 'depth': 1.462, 'yaw': -150.15, 'datetime': '2018-12-12 13:25:13.579588', 'mgs': 0, 'flw2': 2.2, 'flw1': 0.0, 'flw0': 0.0, 'time': 19.85, 'compass': 0.78, 'pitch': 9.32, 'roll': 0.58}
{'lipoC2': 7.46, 'temp': 0.0, 'lipoC3S3': 11.84, 'state': 'normal', 'rot1': 84, 'rot0': 57, 'rot3': 29, 'rot2': 33, 'depth': 0.394, 'yaw': -142.0, 'datetime': '2018-12-12 13:25:13.798936', 'mgs': 0, 'flw2': 0.6, 'flw1': 0.53, 'flw0': 0.0, 'time': 20.06, 'compass': 8.93, 'pitch': 7.8, 'roll': 1.03}
{'lipoC2': 7.42, 'temp': 0.0, 'lipoC3S3': 11.9, 'state': 'normal', 'rot1': 84, 'rot0': 58, 'rot3': 29, 'rot2': 33, 'depth': 1.462, 'yaw': -135.66, 'datetime': '2018-12-12 13:25:14.009401', 'mgs': 0, 'flw2': 0.0, 'flw1': 0.0, 'flw0': 0.0, 'time': 20.27, 'compass': 15.27, 'pitch': 7.13, 'roll': 1.16}
{'lipoC2': 7.43, 'temp': 0.0, 'lipoC3S3': 11.73, 'state': 'normal', 'rot1': 84, 'rot0': 58, 'rot3': 29, 'rot2': 33, 'depth': 0.317, 'yaw': -131.14, 'datetime': '2018-12-12 13:25:14.216880', 'mgs': 0, 'flw2': 0.0, 'flw1': 0.59, 'flw0': 0.0, 'time': 20.48, 'compass': 19.79, 'pitch': 6.3, 'roll': 0.98}
{'lipoC2': 7.46, 'temp': 0.0, 'lipoC3S3': 11.81, 'state': 'normal', 'rot1': 84, 'rot0': 58, 'rot3': 29, 'rot2': 33, 'depth': 0.47, 'yaw': -127.55, 'datetime': '2018-12-12 13:25:14.425317', 'mgs': 0, 'flw2': 0.0, 'flw1': 0.59, 'flw0': 0.0, 'time': 20.69, 'compass': 23.38, 'pitch': 4.09, 'roll': 0.76}
{'lipoC2': 7.43, 'temp': 0.0, 'lipoC3S3': 11.9, 'state': 'normal', 'rot1': 84, 'rot0': 58, 'rot3': 29, 'rot2': 33, 'depth': 0.165, 'yaw': -124.41, 'datetime': '2018-12-12 13:25:14.636580', 'mgs': 0, 'flw2': 0.0, 'flw1': 0.64, 'flw0': 0.0, 'time': 20.9, 'compass': 26.51, 'pitch': 0.46, 'roll': 0.42}
{'lipoC2': 7.44, 'temp': 0.0, 'lipoC3S3': 11.89, 'state': 'normal', 'rot1': 84, 'rot0': 58, 'rot3': 29, 'rot2': 33, 'depth': 2.606, 'yaw': -121.56, 'datetime': '2018-12-12 13:25:14.849742', 'mgs': 0, 'flw2': 0.0, 'flw1': 0.0, 'flw0': 0.0, 'time': 21.11, 'compass': 29.37, 'pitch': -3.03, 'roll': -0.08}
{'lipoC2': 7.43, 'temp': 0.0, 'lipoC3S3': 11.87, 'state': 'normal', 'rot1': 84, 'rot0': 58, 'rot3': 29, 'rot2': 33, 'depth': 0.012, 'yaw': -118.84, 'datetime': '2018-12-12 13:25:15.057522', 'mgs': 0, 'flw2': 0.0, 'flw1': 0.03, 'flw0': 0.0, 'time': 21.32, 'compass': 32.09, 'pitch': -5.48, 'roll': -0.58}
{'lipoC2': 7.38, 'temp': 0.0, 'lipoC3S3': 11.58, 'state': 'normal', 'rot1': 84, 'rot0': 58, 'rot3': 29, 'rot2': 33, 'depth': -0.369, 'yaw': -116.39, 'datetime': '2018-12-12 13:25:15.264020', 'mgs': 0, 'flw2': 0.17, 'flw1': 0.41, 'flw0': 0.0, 'time': 21.53, 'compass': 34.54, 'pitch': -7.12, 'roll': -0.89}
{'lipoC2': 7.38, 'temp': 0.0, 'lipoC3S3': 11.59, 'state': 'normal', 'rot1': 84, 'rot0': 58, 'rot3': 29, 'rot2': 33, 'depth': -0.598, 'yaw': -113.99, 'datetime': '2018-12-12 13:25:15.476502', 'mgs': 0, 'flw2': 0.0, 'flw1': 0.7, 'flw0': 0.0, 'time': 21.74, 'compass': 36.94, 'pitch': -8.01, 'roll': -1.0}
{'lipoC2': 7.46, 'temp': 0.0, 'lipoC3S3': 11.72, 'state': 'normal', 'rot1': 84, 'rot0': 58, 'rot3': 29, 'rot2': 33, 'depth': 1.004, 'yaw': -111.77, 'datetime': '2018-12-12 13:25:15.687011', 'mgs': 0, 'flw2': 0.0, 'flw1': 0.47, 'flw0': 0.0, 'time': 21.95, 'compass': 39.15, 'pitch': -7.83, 'roll': -0.97}
{'lipoC2': 7.54, 'temp': 0.0, 'lipoC3S3': 11.64, 'state': 'normal', 'rot1': 84, 'rot0': 58, 'rot3': 29, 'rot2': 33, 'depth': 1.233, 'yaw': -109.69, 'datetime': '2018-12-12 13:25:15.898877', 'mgs': 0, 'flw2': 0.0, 'flw1': 0.0, 'flw0': 0.0, 'time': 22.16, 'compass': 41.24, 'pitch': -6.92, 'roll': -0.79}
{'lipoC2': 7.42, 'temp': 0.0, 'lipoC3S3': 11.89, 'state': 'normal', 'rot1': 84, 'rot0': 58, 'rot3': 29, 'rot2': 33, 'depth': 0.165, 'yaw': -107.71, 'datetime': '2018-12-12 13:25:16.106853', 'mgs': 0, 'flw2': 0.0, 'flw1': 0.0, 'flw0': 0.0, 'time': 22.37, 'compass': 43.21, 'pitch': -5.66, 'roll': -0.57}
{'lipoC2': 7.46, 'temp': 0.0, 'lipoC3S3': 11.79, 'state': 'normal', 'rot1': 84, 'rot0': 58, 'rot3': 29, 'rot2': 33, 'depth': 0.851, 'yaw': -105.85, 'datetime': '2018-12-12 13:25:16.315697', 'mgs': 0, 'flw2': 0.0, 'flw1': 0.0, 'flw0': 0.16, 'time': 22.58, 'compass': 45.08, 'pitch': -4.28, 'roll': -0.37}
{'lipoC2': 7.39, 'temp': 0.0, 'lipoC3S3': 11.93, 'state': 'normal', 'rot1': 84, 'rot0': 58, 'rot3': 29, 'rot2': 33, 'depth': 0.47, 'yaw': -104.06, 'datetime': '2018-12-12 13:25:16.525099', 'mgs': 0, 'flw2': 0.0, 'flw1': 0.0, 'flw0': 0.29, 'time': 22.79, 'compass': 46.87, 'pitch': -3.46, 'roll': -0.06}
{'lipoC2': 7.42, 'temp': 0.0, 'lipoC3S3': 11.94, 'state': 'normal', 'rot1': 84, 'rot0': 58, 'rot3': 29, 'rot2': 33, 'depth': 2.759, 'yaw': -102.32, 'datetime': '2018-12-12 13:25:16.733586', 'mgs': 0, 'flw2': 0.0, 'flw1': 0.44, 'flw0': 0.0, 'time': 22.99, 'compass': 48.61, 'pitch': -3.43, 'roll': 0.3}
{'lipoC2': 7.46, 'temp': 0.0, 'lipoC3S3': 11.72, 'state': 'normal', 'rot1': 84, 'rot0': 58, 'rot3': 29, 'rot2': 33, 'depth': 2.988, 'yaw': -100.7, 'datetime': '2018-12-12 13:25:16.945011', 'mgs': 0, 'flw2': 0.0, 'flw1': 0.09, 'flw0': 0.15, 'time': 23.2, 'compass': 50.23, 'pitch': -3.93, 'roll': 0.64}
{'lipoC2': 7.44, 'temp': 0.0, 'lipoC3S3': 11.71, 'state': 'normal', 'rot1': 84, 'rot0': 58, 'rot3': 29, 'rot2': 33, 'depth': 2.53, 'yaw': -99.27, 'datetime': '2018-12-12 13:25:17.155258', 'mgs': 0, 'flw2': 0.05, 'flw1': 0.06, 'flw0': 0.0, 'time': 23.41, 'compass': 51.66, 'pitch': -4.59, 'roll': 0.95}
{'lipoC2': 7.52, 'temp': 0.0, 'lipoC3S3': 11.64, 'state': 'normal', 'rot1': 84, 'rot0': 58, 'rot3': 29, 'rot2': 33, 'depth': 0.47, 'yaw': -97.87, 'datetime': '2018-12-12 13:25:17.364500', 'mgs': 0, 'flw2': 0.26, 'flw1': 0.0, 'flw0': 0.1, 'time': 23.62, 'compass': 53.06, 'pitch': -5.44, 'roll': 1.16}
{'lipoC2': 7.59, 'temp': 0.0, 'lipoC3S3': 11.63, 'state': 'normal', 'rot1': 84, 'rot0': 58, 'rot3': 29, 'rot2': 33, 'depth': 1.996, 'yaw': -96.52, 'datetime': '2018-12-12 13:25:17.573881', 'mgs': 0, 'flw2': 0.22, 'flw1': 0.0, 'flw0': 0.18, 'time': 23.83, 'compass': 54.41, 'pitch': -6.33, 'roll': 1.12}
{'lipoC2': 7.43, 'temp': 0.0, 'lipoC3S3': 11.8, 'state': 'normal', 'rot1': 84, 'rot0': 58, 'rot3': 29, 'rot2': 33, 'depth': 0.47, 'yaw': -95.19, 'datetime': '2018-12-12 13:25:17.782837', 'mgs': 0, 'flw2': 0.0, 'flw1': 0.0, 'flw0': 0.0, 'time': 24.04, 'compass': 55.74, 'pitch': -6.95, 'roll': 0.78}
{'lipoC2': 7.62, 'temp': 0.0, 'lipoC3S3': 11.58, 'state': 'normal', 'rot1': 84, 'rot0': 58, 'rot3': 29, 'rot2': 33, 'depth': 0.546, 'yaw': -93.93, 'datetime': '2018-12-12 13:25:17.995011', 'mgs': 0, 'flw2': 0.0, 'flw1': 0.0, 'flw0': 0.26, 'time': 24.25, 'compass': 57.0, 'pitch': -7.36, 'roll': 0.5}
{'lipoC2': 7.43, 'temp': 0.0, 'lipoC3S3': 11.92, 'state': 'normal', 'rot1': 84, 'rot0': 58, 'rot3': 29, 'rot2': 33, 'depth': 2.911, 'yaw': -92.72, 'datetime': '2018-12-12 13:25:18.202732', 'mgs': 0, 'flw2': 0.0, 'flw1': 0.67, 'flw0': 0.0, 'time': 24.46, 'compass': 58.21, 'pitch': -7.69, 'roll': 0.37}
{'lipoC2': 7.47, 'temp': 0.0, 'lipoC3S3': 11.81, 'state': 'normal', 'rot1': 84, 'rot0': 58, 'rot3': 29, 'rot2': 33, 'depth': 1.157, 'yaw': -91.56, 'datetime': '2018-12-12 13:25:18.413431', 'mgs': 0, 'flw2': 0.0, 'flw1': 0.09, 'flw0': 0.0, 'time': 24.67, 'compass': 59.37, 'pitch': -7.62, 'roll': 0.2}
{'lipoC2': 7.4, 'temp': 0.0, 'lipoC3S3': 11.63, 'state': 'normal', 'rot1': 84, 'rot0': 58, 'rot3': 29, 'rot2': 33, 'depth': 1.08, 'yaw': -90.47, 'datetime': '2018-12-12 13:25:18.625934', 'mgs': 0, 'flw2': 0.0, 'flw1': 0.41, 'flw0': 0.0, 'time': 24.88, 'compass': 60.46, 'pitch': -7.05, 'roll': 0.24}
{'lipoC2': 7.42, 'temp': 0.0, 'lipoC3S3': 11.85, 'state': 'normal', 'rot1': 84, 'rot0': 58, 'rot3': 29, 'rot2': 33, 'depth': 0.317, 'yaw': -89.46, 'datetime': '2018-12-12 13:25:18.834129', 'mgs': 0, 'flw2': 0.0, 'flw1': 0.0, 'flw0': 0.0, 'time': 25.09, 'compass': 61.47, 'pitch': -6.42, 'roll': 0.5}
{'lipoC2': 7.38, 'temp': 0.0, 'lipoC3S3': 11.6, 'state': 'normal', 'rot1': 84, 'rot0': 58, 'rot3': 29, 'rot2': 33, 'depth': -0.369, 'yaw': -88.43, 'datetime': '2018-12-12 13:25:19.043449', 'mgs': 0, 'flw2': 0.01, 'flw1': 0.06, 'flw0': 0.0, 'time': 25.3, 'compass': 62.5, 'pitch': -6.06, 'roll': 0.88}
{'lipoC2': 7.46, 'temp': 0.0, 'lipoC3S3': 11.87, 'state': 'normal', 'rot1': 84, 'rot0': 58, 'rot3': 29, 'rot2': 33, 'depth': 2.606, 'yaw': -87.45, 'datetime': '2018-12-12 13:25:19.252338', 'mgs': 0, 'flw2': 0.0, 'flw1': 0.0, 'flw0': 0.0, 'time': 25.51, 'compass': 63.48, 'pitch': -5.76, 'roll': 1.26}
{'lipoC2': 7.44, 'temp': 0.0, 'lipoC3S3': 11.76, 'state': 'normal', 'rot1': 84, 'rot0': 58, 'rot3': 29, 'rot2': 33, 'depth': 1.767, 'yaw': -86.53, 'datetime': '2018-12-12 13:25:19.462422', 'mgs': 0, 'flw2': 0.0, 'flw1': 0.38, 'flw0': 0.0, 'time': 25.72, 'compass': 64.4, 'pitch': -5.36, 'roll': 1.65}
{'lipoC2': 7.44, 'temp': 0.0, 'lipoC3S3': 11.83, 'state': 'normal', 'rot1': 84, 'rot0': 58, 'rot3': 29, 'rot2': 33, 'depth': 1.614, 'yaw': -85.66, 'datetime': '2018-12-12 13:25:19.672748', 'mgs': 0, 'flw2': 0.0, 'flw1': 0.12, 'flw0': 0.0, 'time': 25.93, 'compass': 65.27, 'pitch': -5.44, 'roll': 1.97}
{'lipoC2': 7.43, 'temp': 0.0, 'lipoC3S3': 11.76, 'state': 'normal', 'rot1': 84, 'rot0': 58, 'rot3': 29, 'rot2': 33, 'depth': 1.462, 'yaw': -84.78, 'datetime': '2018-12-12 13:25:19.886394', 'mgs': 0, 'flw2': 0.0, 'flw1': 0.0, 'flw0': 0.16, 'time': 26.14, 'compass': 66.15, 'pitch': -6.06, 'roll': 2.13}
{'lipoC2': 7.44, 'temp': 0.0, 'lipoC3S3': 11.77, 'state': 'normal', 'rot1': 84, 'rot0': 58, 'rot3': 29, 'rot2': 33, 'depth': 0.394, 'yaw': -83.92, 'datetime': '2018-12-12 13:25:20.093057', 'mgs': 0, 'flw2': 0.02, 'flw1': 0.0, 'flw0': 0.0, 'time': 26.35, 'compass': 67.01, 'pitch': -6.59, 'roll': 2.16}
{'lipoC2': 7.38, 'temp': 0.0, 'lipoC3S3': 11.63, 'state': 'normal', 'rot1': 84, 'rot0': 58, 'rot3': 29, 'rot2': 33, 'depth': -0.369, 'yaw': -83.12, 'datetime': '2018-12-12 13:25:20.304056', 'mgs': 0, 'flw2': 0.0, 'flw1': 0.0, 'flw0': 0.02, 'time': 26.56, 'compass': 67.81, 'pitch': -6.7, 'roll': 2.0}
{'lipoC2': 7.42, 'temp': 0.0, 'lipoC3S3': 11.52, 'state': 'normal', 'rot1': 84, 'rot0': 58, 'rot3': 29, 'rot2': 33, 'depth': 0.317, 'yaw': -82.29, 'datetime': '2018-12-12 13:25:20.511977', 'mgs': 0, 'flw2': 0.04, 'flw1': 0.0, 'flw0': 0.24, 'time': 26.77, 'compass': 68.64, 'pitch': -6.48, 'roll': 1.67}
{'lipoC2': 7.47, 'temp': 0.0, 'lipoC3S3': 11.89, 'state': 'normal', 'rot1': 84, 'rot0': 58, 'rot3': 29, 'rot2': 33, 'depth': 2.454, 'yaw': -81.45, 'datetime': '2018-12-12 13:25:20.726717', 'mgs': 0, 'flw2': 0.0, 'flw1': 0.0, 'flw0': 0.0, 'time': 26.98, 'compass': 69.48, 'pitch': -6.29, 'roll': 1.34}
{'lipoC2': 7.44, 'temp': 0.0, 'lipoC3S3': 11.8, 'state': 'normal', 'rot1': 84, 'rot0': 58, 'rot3': 29, 'rot2': 33, 'depth': 1.538, 'yaw': -80.64, 'datetime': '2018-12-12 13:25:20.937322', 'mgs': 0, 'flw2': 0.0, 'flw1': 0.64, 'flw0': 0.0, 'time': 27.19, 'compass': 70.29, 'pitch': -6.49, 'roll': 1.24}
{'lipoC2': 7.42, 'temp': 0.0, 'lipoC3S3': 11.93, 'state': 'normal', 'rot1': 84, 'rot0': 58, 'rot3': 29, 'rot2': 33, 'depth': 0.165, 'yaw': -79.87, 'datetime': '2018-12-12 13:25:21.143047', 'mgs': 0, 'flw2': 0.0, 'flw1': 0.06, 'flw0': 0.0, 'time': 27.4, 'compass': 71.06, 'pitch': -6.74, 'roll': 1.33}
{'lipoC2': 7.61, 'temp': 0.0, 'lipoC3S3': 11.42, 'state': 'normal', 'rot1': 84, 'rot0': 58, 'rot3': 29, 'rot2': 33, 'depth': -0.522, 'yaw': -79.12, 'datetime': '2018-12-12 13:25:21.346873', 'mgs': 0, 'flw2': 0.0, 'flw1': 4.37, 'flw0': 0.24, 'time': 27.6, 'compass': 71.81, 'pitch': -6.39, 'roll': 1.41}
{'lipoC2': 7.43, 'temp': 0.0, 'lipoC3S3': 11.88, 'state': 'normal', 'rot1': 84, 'rot0': 58, 'rot3': 30, 'rot2': 34, 'depth': 2.682, 'yaw': -78.4, 'datetime': '2018-12-12 13:25:21.558711', 'mgs': 0, 'flw2': 0.13, 'flw1': 3.69, 'flw0': 0.0, 'time': 27.81, 'compass': 72.53, 'pitch': -5.58, 'roll': 1.5}
{'lipoC2': 7.43, 'temp': 0.0, 'lipoC3S3': 11.69, 'state': 'normal', 'rot1': 84, 'rot0': 58, 'rot3': 31, 'rot2': 35, 'depth': 1.538, 'yaw': -77.81, 'datetime': '2018-12-12 13:25:21.766769', 'mgs': 0, 'flw2': 0.0, 'flw1': 1.61, 'flw0': 0.0, 'time': 28.02, 'compass': 73.12, 'pitch': -5.05, 'roll': 1.72}
{'lipoC2': 7.42, 'temp': 0.0, 'lipoC3S3': 11.93, 'state': 'normal', 'rot1': 84, 'rot0': 58, 'rot3': 31, 'rot2': 35, 'depth': 2.377, 'yaw': -77.21, 'datetime': '2018-12-12 13:25:21.981009', 'mgs': 0, 'flw2': 0.0, 'flw1': 0.0, 'flw0': 0.0, 'time': 28.23, 'compass': 73.72, 'pitch': -4.7, 'roll': 1.99}
{'lipoC2': 7.47, 'temp': 0.0, 'lipoC3S3': 11.87, 'state': 'normal', 'rot1': 84, 'rot0': 58, 'rot3': 31, 'rot2': 35, 'depth': 2.53, 'yaw': -76.64, 'datetime': '2018-12-12 13:25:22.189238', 'mgs': 0, 'flw2': 0.24, 'flw1': 0.0, 'flw0': 0.12, 'time': 28.44, 'compass': 74.29, 'pitch': -4.42, 'roll': 2.07}
{'lipoC2': 7.42, 'temp': 0.0, 'lipoC3S3': 11.84, 'state': 'normal', 'rot1': 84, 'rot0': 58, 'rot3': 31, 'rot2': 35, 'depth': -0.064, 'yaw': -76.05, 'datetime': '2018-12-12 13:25:22.406091', 'mgs': 0, 'flw2': 0.0, 'flw1': 0.0, 'flw0': 0.0, 'time': 28.65, 'compass': 74.88, 'pitch': -4.37, 'roll': 2.12}
{'lipoC2': 7.43, 'temp': 0.0, 'lipoC3S3': 11.93, 'state': 'normal', 'rot1': 84, 'rot0': 58, 'rot3': 31, 'rot2': 35, 'depth': 0.089, 'yaw': -75.43, 'datetime': '2018-12-12 13:25:22.607417', 'mgs': 0, 'flw2': 0.0, 'flw1': 0.0, 'flw0': 0.0, 'time': 28.86, 'compass': 75.5, 'pitch': -4.99, 'roll': 2.16}
{'lipoC2': 7.41, 'temp': 0.0, 'lipoC3S3': 11.93, 'state': 'normal', 'rot1': 84, 'rot0': 58, 'rot3': 31, 'rot2': 35, 'depth': -0.14, 'yaw': -74.83, 'datetime': '2018-12-12 13:25:22.825314', 'mgs': 0, 'flw2': 0.0, 'flw1': 0.0, 'flw0': 0.0, 'time': 29.07, 'compass': 76.1, 'pitch': -6.19, 'roll': 2.22}
{'lipoC2': 7.41, 'temp': 0.0, 'lipoC3S3': 11.68, 'state': 'normal', 'rot1': 84, 'rot0': 58, 'rot3': 31, 'rot2': 35, 'depth': 0.089, 'yaw': -74.26, 'datetime': '2018-12-12 13:25:23.033863', 'mgs': 0, 'flw2': 0.0, 'flw1': 0.0, 'flw0': 0.2, 'time': 29.28, 'compass': 76.67, 'pitch': -7.06, 'roll': 2.36}
{'lipoC2': 7.43, 'temp': 0.0, 'lipoC3S3': 11.93, 'state': 'normal', 'rot1': 84, 'rot0': 58, 'rot3': 31, 'rot2': 35, 'depth': -0.14, 'yaw': -73.65, 'datetime': '2018-12-12 13:25:23.236637', 'mgs': 0, 'flw2': 0.0, 'flw1': 0.0, 'flw0': 0.0, 'time': 29.49, 'compass': 77.28, 'pitch': -7.12, 'roll': 2.86}
{'lipoC2': 7.54, 'temp': 0.0, 'lipoC3S3': 11.52, 'state': 'normal', 'rot1': 84, 'rot0': 58, 'rot3': 31, 'rot2': 35, 'depth': -0.598, 'yaw': -73.01, 'datetime': '2018-12-12 13:25:23.448143', 'mgs': 0, 'flw2': 0.0, 'flw1': 0.0, 'flw0': 0.21, 'time': 29.7, 'compass': 77.92, 'pitch': -6.93, 'roll': 3.37}
{'lipoC2': 7.5, 'temp': 0.0, 'lipoC3S3': 11.6, 'state': 'normal', 'rot1': 84, 'rot0': 58, 'rot3': 31, 'rot2': 35, 'depth': -0.293, 'yaw': -72.42, 'datetime': '2018-12-12 13:25:23.659529', 'mgs': 0, 'flw2': 0.0, 'flw1': 0.0, 'flw0': 0.07, 'time': 29.91, 'compass': 78.51, 'pitch': -6.89, 'roll': 3.53}
{'lipoC2': 7.43, 'temp': 0.0, 'lipoC3S3': 11.64, 'state': 'normal', 'rot1': 84, 'rot0': 58, 'rot3': 31, 'rot2': 35, 'depth': 0.089, 'yaw': -71.81, 'datetime': '2018-12-12 13:25:23.869315', 'mgs': 0, 'flw2': 0.18, 'flw1': 0.0, 'flw0': 0.23, 'time': 30.12, 'compass': 79.12, 'pitch': -6.63, 'roll': 3.97}
{'lipoC2': 7.41, 'temp': 0.0, 'lipoC3S3': 11.93, 'state': 'normal', 'rot1': 84, 'rot0': 58, 'rot3': 31, 'rot2': 35, 'depth': -0.064, 'yaw': -71.19, 'datetime': '2018-12-12 13:25:24.081620', 'mgs': 0, 'flw2': 0.0, 'flw1': 0.0, 'flw0': 0.0, 'time': 30.33, 'compass': 79.74, 'pitch': -6.33, 'roll': 4.72}
{'lipoC2': 7.5, 'temp': 0.0, 'lipoC3S3': 11.65, 'state': 'normal', 'rot1': 84, 'rot0': 58, 'rot3': 31, 'rot2': 35, 'depth': -0.217, 'yaw': -70.54, 'datetime': '2018-12-12 13:25:24.293274', 'mgs': 0, 'flw2': 0.26, 'flw1': 0.0, 'flw0': 0.02, 'time': 30.54, 'compass': 80.39, 'pitch': -6.28, 'roll': 5.01}
{'lipoC2': 7.38, 'temp': 0.0, 'lipoC3S3': 11.73, 'state': 'normal', 'rot1': 84, 'rot0': 58, 'rot3': 31, 'rot2': 35, 'depth': -0.369, 'yaw': -69.93, 'datetime': '2018-12-12 13:25:24.504118', 'mgs': 0, 'flw2': 0.05, 'flw1': 0.0, 'flw0': 0.0, 'time': 30.75, 'compass': 81.0, 'pitch': -6.23, 'roll': 4.72}
{'lipoC2': 7.63, 'temp': 0.0, 'lipoC3S3': 11.63, 'state': 'normal', 'rot1': 84, 'rot0': 58, 'rot3': 31, 'rot2': 35, 'depth': 0.546, 'yaw': -69.33, 'datetime': '2018-12-12 13:25:24.715678', 'mgs': 0, 'flw2': 0.24, 'flw1': 0.0, 'flw0': 0.16, 'time': 30.96, 'compass': 81.6, 'pitch': -6.18, 'roll': 4.42}
{'lipoC2': 7.42, 'temp': 0.0, 'lipoC3S3': 11.92, 'state': 'normal', 'rot1': 84, 'rot0': 58, 'rot3': 31, 'rot2': 35, 'depth': 0.165, 'yaw': -68.73, 'datetime': '2018-12-12 13:25:24.921996', 'mgs': 0, 'flw2': 0.0, 'flw1': 0.03, 'flw0': 0.0, 'time': 31.17, 'compass': 82.2, 'pitch': -6.13, 'roll': 4.44}
{'lipoC2': 7.44, 'temp': 0.0, 'lipoC3S3': 11.77, 'state': 'normal', 'rot1': 84, 'rot0': 58, 'rot3': 31, 'rot2': 35, 'depth': 0.394, 'yaw': -68.2, 'datetime': '2018-12-12 13:25:25.129330', 'mgs': 0, 'flw2': 0.09, 'flw1': 0.0, 'flw0': 0.0, 'time': 31.38, 'compass': 82.73, 'pitch': -6.19, 'roll': 4.45}
{'lipoC2': 7.43, 'temp': 0.0, 'lipoC3S3': 11.76, 'state': 'normal', 'rot1': 84, 'rot0': 58, 'rot3': 31, 'rot2': 35, 'depth': 1.538, 'yaw': -67.65, 'datetime': '2018-12-12 13:25:25.340044', 'mgs': 0, 'flw2': 0.0, 'flw1': 0.62, 'flw0': 0.0, 'time': 31.59, 'compass': 83.27, 'pitch': -6.78, 'roll': 4.23}
{'lipoC2': 7.44, 'temp': 0.0, 'lipoC3S3': 11.81, 'state': 'normal', 'rot1': 84, 'rot0': 58, 'rot3': 31, 'rot2': 35, 'depth': 0.623, 'yaw': -67.11, 'datetime': '2018-12-12 13:25:25.550999', 'mgs': 0, 'flw2': 0.0, 'flw1': 0.32, 'flw0': 0.0, 'time': 31.8, 'compass': 83.82, 'pitch': -7.76, 'roll': 3.94}
{'lipoC2': 7.47, 'temp': 0.0, 'lipoC3S3': 11.64, 'state': 'normal', 'rot1': 84, 'rot0': 58, 'rot3': 31, 'rot2': 35, 'depth': 0.394, 'yaw': -66.56, 'datetime': '2018-12-12 13:25:25.767036', 'mgs': 0, 'flw2': 0.0, 'flw1': 0.0, 'flw0': 0.0, 'time': 32.01, 'compass': 84.37, 'pitch': -8.23, 'roll': 3.8}
{'lipoC2': 7.42, 'temp': 0.0, 'lipoC3S3': 11.89, 'state': 'normal', 'rot1': 84, 'rot0': 58, 'rot3': 31, 'rot2': 35, 'depth': 2.072, 'yaw': -66.01, 'datetime': '2018-12-12 13:25:25.976030', 'mgs': 0, 'flw2': 0.0, 'flw1': 0.12, 'flw0': 0.0, 'time': 32.22, 'compass': 84.92, 'pitch': -7.99, 'roll': 3.93}
{'lipoC2': 7.43, 'temp': 0.0, 'lipoC3S3': 11.64, 'state': 'normal', 'rot1': 84, 'rot0': 58, 'rot3': 31, 'rot2': 35, 'depth': 1.614, 'yaw': -65.24, 'datetime': '2018-12-12 13:25:26.279463', 'mgs': 0, 'flw2': 0.23, 'flw1': 0.0, 'flw0': 0.02, 'time': 32.53, 'compass': 85.69, 'pitch': -7.89, 'roll': 4.55}
{'lipoC2': 7.58, 'temp': 0.0, 'lipoC3S3': 11.5, 'state': 'normal', 'rot1': 84, 'rot0': 58, 'rot3': 31, 'rot2': 35, 'depth': -0.446, 'yaw': -64.75, 'datetime': '2018-12-12 13:25:26.489789', 'mgs': 0, 'flw2': 0.0, 'flw1': 0.0, 'flw0': 0.21, 'time': 32.74, 'compass': 86.18, 'pitch': -8.11, 'roll': 4.99}
{'lipoC2': 7.42, 'temp': 0.0, 'lipoC3S3': 11.59, 'state': 'normal', 'rot1': 84, 'rot0': 58, 'rot3': 31, 'rot2': 35, 'depth': 0.165, 'yaw': -64.25, 'datetime': '2018-12-12 13:25:26.699999', 'mgs': 0, 'flw2': 0.07, 'flw1': 0.0, 'flw0': 0.24, 'time': 32.95, 'compass': 86.68, 'pitch': -7.91, 'roll': 5.47}
{'lipoC2': 7.43, 'temp': 0.0, 'lipoC3S3': 11.87, 'state': 'normal', 'rot1': 84, 'rot0': 58, 'rot3': 31, 'rot2': 35, 'depth': 1.691, 'yaw': -63.74, 'datetime': '2018-12-12 13:25:26.909507', 'mgs': 0, 'flw2': 0.0, 'flw1': 0.0, 'flw0': 0.0, 'time': 33.16, 'compass': 87.19, 'pitch': -7.57, 'roll': 5.85}
{'lipoC2': 7.57, 'temp': 0.0, 'lipoC3S3': 11.5, 'state': 'normal', 'rot1': 84, 'rot0': 58, 'rot3': 31, 'rot2': 35, 'depth': -0.522, 'yaw': -63.24, 'datetime': '2018-12-12 13:25:27.120532', 'mgs': 0, 'flw2': 0.0, 'flw1': 0.62, 'flw0': 0.0, 'time': 33.37, 'compass': 87.69, 'pitch': -7.56, 'roll': 5.95}
{'lipoC2': 7.46, 'temp': 0.0, 'lipoC3S3': 11.83, 'state': 'normal', 'rot1': 84, 'rot0': 58, 'rot3': 31, 'rot2': 35, 'depth': 2.759, 'yaw': -62.73, 'datetime': '2018-12-12 13:25:27.329144', 'mgs': 0, 'flw2': 0.0, 'flw1': 0.21, 'flw0': 0.0, 'time': 33.58, 'compass': 88.2, 'pitch': -7.53, 'roll': 5.91}
{'lipoC2': 7.66, 'temp': 0.0, 'lipoC3S3': 11.56, 'state': 'normal', 'rot1': 84, 'rot0': 58, 'rot3': 31, 'rot2': 35, 'depth': 0.699, 'yaw': -62.26, 'datetime': '2018-12-12 13:25:27.539412', 'mgs': 0, 'flw2': 0.13, 'flw1': 0.0, 'flw0': 0.26, 'time': 33.79, 'compass': 88.67, 'pitch': -7.17, 'roll': 5.96}
{'lipoC2': 7.39, 'temp': 0.0, 'lipoC3S3': 11.65, 'state': 'normal', 'rot1': 84, 'rot0': 58, 'rot3': 31, 'rot2': 35, 'depth': 0.775, 'yaw': -61.77, 'datetime': '2018-12-12 13:25:27.749072', 'mgs': 0, 'flw2': 0.0, 'flw1': 0.15, 'flw0': 0.0, 'time': 34.0, 'compass': 89.16, 'pitch': -6.94, 'roll': 6.02}
{'lipoC2': 7.67, 'temp': 0.0, 'lipoC3S3': 11.52, 'state': 'normal', 'rot1': 84, 'rot0': 58, 'rot3': 31, 'rot2': 35, 'depth': 0.241, 'yaw': -61.26, 'datetime': '2018-12-12 13:25:27.959737', 'mgs': 0, 'flw2': 0.0, 'flw1': 0.44, 'flw0': 0.0, 'time': 34.21, 'compass': 89.67, 'pitch': -7.29, 'roll': 6.02}
{'lipoC2': 7.48, 'temp': 0.0, 'lipoC3S3': 11.67, 'state': 'normal', 'rot1': 84, 'rot0': 58, 'rot3': 31, 'rot2': 35, 'depth': 0.851, 'yaw': -60.7, 'datetime': '2018-12-12 13:25:28.171179', 'mgs': 0, 'flw2': 0.0, 'flw1': 0.0, 'flw0': 0.06, 'time': 34.42, 'compass': 90.23, 'pitch': -7.9, 'roll': 6.08}
{'lipoC2': 7.42, 'temp': 0.0, 'lipoC3S3': 11.72, 'state': 'normal', 'rot1': 84, 'rot0': 58, 'rot3': 31, 'rot2': 35, 'depth': 1.691, 'yaw': -60.1, 'datetime': '2018-12-12 13:25:28.379804', 'mgs': 0, 'flw2': 0.0, 'flw1': 0.62, 'flw0': 0.0, 'time': 34.63, 'compass': 90.83, 'pitch': -8.23, 'roll': 6.16}
{'lipoC2': 7.43, 'temp': 0.0, 'lipoC3S3': 11.94, 'state': 'normal', 'rot1': 84, 'rot0': 58, 'rot3': 31, 'rot2': 35, 'depth': 2.759, 'yaw': -59.48, 'datetime': '2018-12-12 13:25:28.589616', 'mgs': 0, 'flw2': 0.0, 'flw1': 0.0, 'flw0': 0.0, 'time': 34.84, 'compass': 91.45, 'pitch': -8.21, 'roll': 6.25}
{'lipoC2': 7.42, 'temp': 0.0, 'lipoC3S3': 11.96, 'state': 'normal', 'rot1': 84, 'rot0': 58, 'rot3': 31, 'rot2': 35, 'depth': 2.53, 'yaw': -58.87, 'datetime': '2018-12-12 13:25:28.799815', 'mgs': 0, 'flw2': 0.0, 'flw1': 0.44, 'flw0': 0.0, 'time': 35.05, 'compass': 92.05, 'pitch': -8.14, 'roll': 6.33}
{'lipoC2': 7.42, 'temp': 0.0, 'lipoC3S3': 11.96, 'state': 'normal', 'rot1': 84, 'rot0': 58, 'rot3': 31, 'rot2': 35, 'depth': 2.377, 'yaw': -58.26, 'datetime': '2018-12-12 13:25:29.010536', 'mgs': 0, 'flw2': 0.0, 'flw1': 0.26, 'flw0': 0.0, 'time': 35.26, 'compass': 92.67, 'pitch': -8.07, 'roll': 6.42}
{'lipoC2': 7.43, 'temp': 0.0, 'lipoC3S3': 11.93, 'state': 'normal', 'rot1': 84, 'rot0': 58, 'rot3': 31, 'rot2': 35, 'depth': 2.682, 'yaw': -57.6, 'datetime': '2018-12-12 13:25:29.219680', 'mgs': 0, 'flw2': 0.0, 'flw1': 0.0, 'flw0': 0.0, 'time': 35.47, 'compass': 93.33, 'pitch': -7.99, 'roll': 6.51}
{'lipoC2': 7.44, 'temp': 0.0, 'lipoC3S3': 11.76, 'state': 'normal', 'rot1': 84, 'rot0': 58, 'rot3': 31, 'rot2': 35, 'depth': 2.072, 'yaw': -56.99, 'datetime': '2018-12-12 13:25:29.434988', 'mgs': 0, 'flw2': 0.0, 'flw1': 0.59, 'flw0': 0.0, 'time': 35.68, 'compass': 93.94, 'pitch': -7.69, 'roll': 6.6}
{'lipoC2': 7.44, 'temp': 0.0, 'lipoC3S3': 11.75, 'state': 'normal', 'rot1': 84, 'rot0': 58, 'rot3': 31, 'rot2': 35, 'depth': 2.759, 'yaw': -56.35, 'datetime': '2018-12-12 13:25:29.650020', 'mgs': 0, 'flw2': 0.0, 'flw1': 0.0, 'flw0': 0.0, 'time': 35.89, 'compass': 94.58, 'pitch': -7.31, 'roll': 6.68}
{'lipoC2': 7.59, 'temp': 0.0, 'lipoC3S3': 11.52, 'state': 'normal', 'rot1': 84, 'rot0': 58, 'rot3': 31, 'rot2': 35, 'depth': -0.446, 'yaw': -55.68, 'datetime': '2018-12-12 13:25:29.857053', 'mgs': 0, 'flw2': 0.04, 'flw1': 0.09, 'flw0': 0.0, 'time': 36.09, 'compass': 95.25, 'pitch': -7.37, 'roll': 6.77}
{'lipoC2': 7.54, 'temp': 0.0, 'lipoC3S3': 11.61, 'state': 'normal', 'rot1': 84, 'rot0': 58, 'rot3': 31, 'rot2': 35, 'depth': 1.843, 'yaw': -55.06, 'datetime': '2018-12-12 13:25:30.067871', 'mgs': 0, 'flw2': 0.0, 'flw1': 0.0, 'flw0': 0.0, 'time': 36.3, 'compass': 95.87, 'pitch': -7.52, 'roll': 6.85}
{'lipoC2': 7.4, 'temp': 0.0, 'lipoC3S3': 11.93, 'state': 'normal', 'rot1': 84, 'rot0': 58, 'rot3': 31, 'rot2': 35, 'depth': 0.165, 'yaw': -54.15, 'datetime': '2018-12-12 13:25:30.372848', 'mgs': 0, 'flw2': 0.0, 'flw1': 0.0, 'flw0': 0.21, 'time': 36.62, 'compass': 96.78, 'pitch': -7.3, 'roll': 6.96}
{'lipoC2': 7.38, 'temp': 0.0, 'lipoC3S3': 11.6, 'state': 'normal', 'rot1': 84, 'rot0': 58, 'rot3': 31, 'rot2': 35, 'depth': -0.217, 'yaw': -53.54, 'datetime': '2018-12-12 13:25:30.582764', 'mgs': 0, 'flw2': 0.0, 'flw1': 0.0, 'flw0': 0.0, 'time': 36.83, 'compass': 97.39, 'pitch': -7.37, 'roll': 7.04}
{'lipoC2': 7.37, 'temp': 0.0, 'lipoC3S3': 11.6, 'state': 'normal', 'rot1': 84, 'rot0': 58, 'rot3': 31, 'rot2': 35, 'depth': 0.546, 'yaw': -52.95, 'datetime': '2018-12-12 13:25:30.792436', 'mgs': 0, 'flw2': 0.0, 'flw1': 0.0, 'flw0': 0.0, 'time': 37.04, 'compass': 97.98, 'pitch': -7.39, 'roll': 7.09}
{'lipoC2': 7.41, 'temp': 0.0, 'lipoC3S3': 11.92, 'state': 'normal', 'rot1': 84, 'rot0': 58, 'rot3': 31, 'rot2': 35, 'depth': -0.064, 'yaw': -52.35, 'datetime': '2018-12-12 13:25:31.014677', 'mgs': 0, 'flw2': 0.0, 'flw1': 0.21, 'flw0': 0.0, 'time': 37.25, 'compass': 98.58, 'pitch': -7.32, 'roll': 7.24}
{'lipoC2': 7.4, 'temp': 0.0, 'lipoC3S3': 11.65, 'state': 'normal', 'rot1': 84, 'rot0': 58, 'rot3': 31, 'rot2': 35, 'depth': 1.004, 'yaw': -51.81, 'datetime': '2018-12-12 13:25:31.222920', 'mgs': 0, 'flw2': 0.0, 'flw1': 0.32, 'flw0': 0.0, 'time': 37.46, 'compass': 99.12, 'pitch': -7.67, 'roll': 7.75}
{'lipoC2': 7.4, 'temp': 0.0, 'lipoC3S3': 11.67, 'state': 'normal', 'rot1': 84, 'rot0': 58, 'rot3': 31, 'rot2': 35, 'depth': 0.089, 'yaw': -51.24, 'datetime': '2018-12-12 13:25:31.430352', 'mgs': 0, 'flw2': 0.02, 'flw1': 0.0, 'flw0': 0.0, 'time': 37.67, 'compass': 99.69, 'pitch': -8.03, 'roll': 8.07}
{'lipoC2': 7.43, 'temp': 0.0, 'lipoC3S3': 11.94, 'state': 'normal', 'rot1': 84, 'rot0': 58, 'rot3': 31, 'rot2': 35, 'depth': 2.759, 'yaw': -50.55, 'datetime': '2018-12-12 13:25:31.640736', 'mgs': 0, 'flw2': 0.0, 'flw1': 0.0, 'flw0': 0.0, 'time': 37.88, 'compass': 100.38, 'pitch': -7.65, 'roll': 8.07}
{'lipoC2': 7.48, 'temp': 0.0, 'lipoC3S3': 11.63, 'state': 'normal', 'rot1': 84, 'rot0': 58, 'rot3': 31, 'rot2': 35, 'depth': -0.217, 'yaw': -49.84, 'datetime': '2018-12-12 13:25:31.855720', 'mgs': 0, 'flw2': 0.24, 'flw1': 0.0, 'flw0': 0.07, 'time': 38.09, 'compass': 101.09, 'pitch': -7.14, 'roll': 8.32}
{'lipoC2': 7.58, 'temp': 0.0, 'lipoC3S3': 11.44, 'state': 'normal', 'rot1': 84, 'rot0': 58, 'rot3': 31, 'rot2': 35, 'depth': 1.843, 'yaw': -49.15, 'datetime': '2018-12-12 13:25:32.065484', 'mgs': 0, 'flw2': 0.0, 'flw1': 4.69, 'flw0': 0.21, 'time': 38.3, 'compass': 101.78, 'pitch': -7.07, 'roll': 8.8}
{'lipoC2': 7.42, 'temp': 0.0, 'lipoC3S3': 11.92, 'state': 'normal', 'rot1': 84, 'rot0': 58, 'rot3': 31, 'rot2': 35, 'depth': 2.148, 'yaw': -48.36, 'datetime': '2018-12-12 13:25:32.276629', 'mgs': 0, 'flw2': 0.0, 'flw1': 0.0, 'flw0': 0.0, 'time': 38.51, 'compass': 102.57, 'pitch': -6.96, 'roll': 8.85}
{'lipoC2': 7.54, 'temp': 0.0, 'lipoC3S3': 11.63, 'state': 'normal', 'rot1': 84, 'rot0': 58, 'rot3': 31, 'rot2': 35, 'depth': -0.674, 'yaw': -47.54, 'datetime': '2018-12-12 13:25:32.485115', 'mgs': 0, 'flw2': 0.0, 'flw1': 0.06, 'flw0': 0.01, 'time': 38.72, 'compass': 103.39, 'pitch': -6.57, 'roll': 8.62}
{'lipoC2': 7.4, 'temp': 0.0, 'lipoC3S3': 11.96, 'state': 'normal', 'rot1': 84, 'rot0': 58, 'rot3': 31, 'rot2': 35, 'depth': 1.462, 'yaw': -46.25, 'datetime': '2018-12-12 13:25:32.788987', 'mgs': 0, 'flw2': 0.0, 'flw1': 0.5, 'flw0': 0.0, 'time': 39.03, 'compass': 104.68, 'pitch': -6.31, 'roll': 8.56}
{'lipoC2': 7.58, 'temp': 0.0, 'lipoC3S3': 11.63, 'state': 'normal', 'rot1': 84, 'rot0': 58, 'rot3': 31, 'rot2': 35, 'depth': 0.47, 'yaw': -45.41, 'datetime': '2018-12-12 13:25:32.999017', 'mgs': 0, 'flw2': 0.11, 'flw1': 0.0, 'flw0': 0.24, 'time': 39.24, 'compass': 105.52, 'pitch': -6.43, 'roll': 8.62}
{'lipoC2': 7.43, 'temp': 0.0, 'lipoC3S3': 11.93, 'state': 'normal', 'rot1': 84, 'rot0': 58, 'rot3': 31, 'rot2': 35, 'depth': 0.012, 'yaw': -44.62, 'datetime': '2018-12-12 13:25:33.208373', 'mgs': 0, 'flw2': 0.13, 'flw1': 0.0, 'flw0': 0.24, 'time': 39.45, 'compass': 106.31, 'pitch': -6.28, 'roll': 8.59}
{'lipoC2': 7.46, 'temp': 0.0, 'lipoC3S3': 11.73, 'state': 'normal', 'rot1': 84, 'rot0': 58, 'rot3': 31, 'rot2': 35, 'depth': 0.394, 'yaw': -43.81, 'datetime': '2018-12-12 13:25:33.430377', 'mgs': 0, 'flw2': 0.13, 'flw1': 2.17, 'flw0': 0.0, 'time': 39.66, 'compass': 107.12, 'pitch': -6.18, 'roll': 8.68}
{'lipoC2': 7.4, 'temp': 0.0, 'lipoC3S3': 11.58, 'state': 'normal', 'rot1': 84, 'rot0': 58, 'rot3': 32, 'rot2': 35, 'depth': 0.089, 'yaw': -43.02, 'datetime': '2018-12-12 13:25:33.639878', 'mgs': 0, 'flw2': 0.0, 'flw1': 3.84, 'flw0': 0.0, 'time': 39.87, 'compass': 107.91, 'pitch': -6.2, 'roll': 8.86}
{'lipoC2': 7.43, 'temp': 0.0, 'lipoC3S3': 11.93, 'state': 'normal', 'rot1': 84, 'rot0': 58, 'rot3': 32, 'rot2': 36, 'depth': -0.064, 'yaw': -42.26, 'datetime': '2018-12-12 13:25:33.843052', 'mgs': 0, 'flw2': 0.2, 'flw1': 1.52, 'flw0': 0.0, 'time': 40.08, 'compass': 108.67, 'pitch': -5.96, 'roll': 9.02}
{'lipoC2': 7.57, 'temp': 0.0, 'lipoC3S3': 11.52, 'state': 'normal', 'rot1': 84, 'rot0': 58, 'rot3': 33, 'rot2': 37, 'depth': -0.751, 'yaw': -41.46, 'datetime': '2018-12-12 13:25:34.059126', 'mgs': 0, 'flw2': 0.0, 'flw1': 0.56, 'flw0': 0.15, 'time': 40.29, 'compass': 109.47, 'pitch': -5.54, 'roll': 9.1}
{'lipoC2': 7.51, 'temp': 0.0, 'lipoC3S3': 11.61, 'state': 'normal', 'rot1': 84, 'rot0': 58, 'rot3': 33, 'rot2': 37, 'depth': -0.446, 'yaw': -40.65, 'datetime': '2018-12-12 13:25:34.261689', 'mgs': 0, 'flw2': 0.0, 'flw1': 0.88, 'flw0': 0.0, 'time': 40.5, 'compass': 110.28, 'pitch': -5.1, 'roll': 9.14}
{'lipoC2': 7.43, 'temp': 0.0, 'lipoC3S3': 11.84, 'state': 'normal', 'rot1': 84, 'rot0': 58, 'rot3': 34, 'rot2': 38, 'depth': 0.241, 'yaw': -39.84, 'datetime': '2018-12-12 13:25:34.477807', 'mgs': 0, 'flw2': 0.0, 'flw1': 1.64, 'flw0': 0.0, 'time': 40.71, 'compass': 111.09, 'pitch': -4.81, 'roll': 9.34}
{'lipoC2': 7.63, 'temp': 0.0, 'lipoC3S3': 11.44, 'state': 'normal', 'rot1': 84, 'rot0': 58, 'rot3': 35, 'rot2': 39, 'depth': -0.522, 'yaw': -38.99, 'datetime': '2018-12-12 13:25:34.685334', 'mgs': 0, 'flw2': 0.0, 'flw1': 1.64, 'flw0': 0.11, 'time': 40.92, 'compass': 111.94, 'pitch': -4.66, 'roll': 9.88}
{'lipoC2': 7.49, 'temp': 0.0, 'lipoC3S3': 11.68, 'state': 'normal', 'rot1': 84, 'rot0': 58, 'rot3': 35, 'rot2': 39, 'depth': 0.851, 'yaw': -38.01, 'datetime': '2018-12-12 13:25:34.900323', 'mgs': 0, 'flw2': 0.0, 'flw1': 0.38, 'flw0': 0.0, 'time': 41.13, 'compass': 112.91, 'pitch': -4.69, 'roll': 10.49}
{'lipoC2': 7.42, 'temp': 0.0, 'lipoC3S3': 11.94, 'state': 'normal', 'rot1': 84, 'rot0': 58, 'rot3': 35, 'rot2': 39, 'depth': -0.827, 'yaw': -36.95, 'datetime': '2018-12-12 13:25:35.107047', 'mgs': 0, 'flw2': 0.0, 'flw1': 0.41, 'flw0': 0.0, 'time': 41.34, 'compass': 113.98, 'pitch': -4.8, 'roll': 10.89}
{'lipoC2': 7.52, 'temp': 0.0, 'lipoC3S3': 11.64, 'state': 'normal', 'rot1': 84, 'rot0': 58, 'rot3': 35, 'rot2': 39, 'depth': -0.903, 'yaw': -35.85, 'datetime': '2018-12-12 13:25:35.318913', 'mgs': 0, 'flw2': 0.01, 'flw1': 0.0, 'flw0': 0.0, 'time': 41.55, 'compass': 115.08, 'pitch': -4.72, 'roll': 11.01}
{'lipoC2': 7.39, 'temp': 0.0, 'lipoC3S3': 11.58, 'state': 'normal', 'rot1': 84, 'rot0': 58, 'rot3': 35, 'rot2': 39, 'depth': -0.14, 'yaw': -34.71, 'datetime': '2018-12-12 13:25:35.521603', 'mgs': 0, 'flw2': 0.0, 'flw1': 0.0, 'flw0': 0.0, 'time': 41.76, 'compass': 116.22, 'pitch': -4.77, 'roll': 11.1}
{'lipoC2': 7.51, 'temp': 0.0, 'lipoC3S3': 11.63, 'state': 'normal', 'rot1': 84, 'rot0': 58, 'rot3': 35, 'rot2': 39, 'depth': 1.233, 'yaw': -33.53, 'datetime': '2018-12-12 13:25:35.729220', 'mgs': 0, 'flw2': 0.0, 'flw1': 0.0, 'flw0': 0.0, 'time': 41.97, 'compass': 117.4, 'pitch': -5.01, 'roll': 11.18}
{'lipoC2': 7.47, 'temp': 0.0, 'lipoC3S3': 11.92, 'state': 'normal', 'rot1': 84, 'rot0': 58, 'rot3': 35, 'rot2': 39, 'depth': 0.394, 'yaw': -32.28, 'datetime': '2018-12-12 13:25:35.938940', 'mgs': 0, 'flw2': 0.0, 'flw1': 0.0, 'flw0': 0.0, 'time': 42.17, 'compass': 118.65, 'pitch': -5.42, 'roll': 10.96}
{'lipoC2': 7.47, 'temp': 0.0, 'lipoC3S3': 11.9, 'state': 'normal', 'rot1': 84, 'rot0': 58, 'rot3': 35, 'rot2': 39, 'depth': 0.394, 'yaw': -31.05, 'datetime': '2018-12-12 13:25:36.149071', 'mgs': 0, 'flw2': 0.0, 'flw1': 0.0, 'flw0': 0.0, 'time': 42.38, 'compass': 119.88, 'pitch': -5.69, 'roll': 10.7}
{'lipoC2': 7.42, 'temp': 0.0, 'lipoC3S3': 11.92, 'state': 'normal', 'rot1': 84, 'rot0': 58, 'rot3': 35, 'rot2': 39, 'depth': -0.064, 'yaw': -29.69, 'datetime': '2018-12-12 13:25:36.359548', 'mgs': 0, 'flw2': 0.0, 'flw1': 0.26, 'flw0': 0.0, 'time': 42.59, 'compass': 121.23, 'pitch': -5.33, 'roll': 10.52}
{'lipoC2': 7.44, 'temp': 0.0, 'lipoC3S3': 11.73, 'state': 'normal', 'rot1': 84, 'rot0': 58, 'rot3': 35, 'rot2': 39, 'depth': 1.614, 'yaw': -28.27, 'datetime': '2018-12-12 13:25:36.570221', 'mgs': 0, 'flw2': 0.0, 'flw1': 0.59, 'flw0': 0.0, 'time': 42.81, 'compass': 122.66, 'pitch': -4.72, 'roll': 10.41}
{'lipoC2': 7.44, 'temp': 0.0, 'lipoC3S3': 11.77, 'state': 'normal', 'rot1': 84, 'rot0': 58, 'rot3': 35, 'rot2': 39, 'depth': 1.309, 'yaw': -26.85, 'datetime': '2018-12-12 13:25:36.781265', 'mgs': 0, 'flw2': 0.13, 'flw1': 0.0, 'flw0': 0.22, 'time': 43.01, 'compass': 124.08, 'pitch': -4.33, 'roll': 10.51}
