{'lipoC2': 7.28, 'temp': 0.0, 'lipoC3S3': 11.5, 'state': 'normal', 'rot1': 0, 'rot0': 0, 'rot3': 0, 'rot2': 0, 'depth': 0.394, 'yaw': 0.0, 'datetime': '2018-12-12 14:29:32.369264', 'mgs': 0, 'flw2': 0.0, 'flw1': 0.56, 'flw0': 0.0, 'time': 1.25, 'compass': 68.68, 'pitch': -2.58, 'roll': 0.4}
{'lipoC2': 7.48, 'temp': 0.0, 'lipoC3S3': 11.22, 'state': 'normal', 'rot1': 0, 'rot0': 0, 'rot3': 0, 'rot2': 0, 'depth': -1.437, 'yaw': 0.86, 'datetime': '2018-12-12 14:29:32.576835', 'mgs': 0, 'flw2': 0.12, 'flw1': 0.0, 'flw0': 0.0, 'time': 1.46, 'compass': 69.54, 'pitch': -3.19, 'roll': 0.16}
{'lipoC2': 7.29, 'temp': 0.0, 'lipoC3S3': 11.48, 'state': 'normal', 'rot1': 0, 'rot0': 0, 'rot3': 0, 'rot2': 0, 'depth': -0.064, 'yaw': 1.58, 'datetime': '2018-12-12 14:29:32.790334', 'mgs': 0, 'flw2': 0.2, 'flw1': 0.0, 'flw0': 0.0, 'time': 1.67, 'compass': 70.26, 'pitch': -3.52, 'roll': 0.16}
{'lipoC2': 7.33, 'temp': 0.0, 'lipoC3S3': 11.61, 'state': 'normal', 'rot1': 0, 'rot0': 0, 'rot3': 0, 'rot2': 0, 'depth': -1.437, 'yaw': 2.64, 'datetime': '2018-12-12 14:29:33.090263', 'mgs': 0, 'flw2': 0.24, 'flw1': 0.0, 'flw0': 0.26, 'time': 1.98, 'compass': 71.32, 'pitch': -3.29, 'roll': 0.51}
{'lipoC2': 7.5, 'temp': 0.0, 'lipoC3S3': 11.21, 'state': 'normal', 'rot1': 0, 'rot0': 0, 'rot3': 0, 'rot2': 0, 'depth': 0.928, 'yaw': 3.28, 'datetime': '2018-12-12 14:29:33.297881', 'mgs': 0, 'flw2': 0.23, 'flw1': 0.0, 'flw0': 0.02, 'time': 2.19, 'compass': 71.96, 'pitch': -3.14, 'roll': 0.51}
{'lipoC2': 7.21, 'temp': 0.0, 'lipoC3S3': 11.23, 'state': 'normal', 'rot1': 0, 'rot0': 0, 'rot3': 0, 'rot2': 0, 'depth': -0.293, 'yaw': 3.87, 'datetime': '2018-12-12 14:29:33.507354', 'mgs': 0, 'flw2': 0.0, 'flw1': 0.53, 'flw0': 0.0, 'time': 2.4, 'compass': 72.55, 'pitch': -3.23, 'roll': 0.36}
{'lipoC2': 7.39, 'temp': 0.0, 'lipoC3S3': 11.29, 'state': 'normal', 'rot1': 0, 'rot0': 0, 'rot3': 0, 'rot2': 0, 'depth': -0.674, 'yaw': 4.36, 'datetime': '2018-12-12 14:29:33.727015', 'mgs': 0, 'flw2': 0.0, 'flw1': 0.12, 'flw0': 0.0, 'time': 2.61, 'compass': 73.04, 'pitch': -3.38, 'roll': 0.26}
{'lipoC2': 7.46, 'temp': 0.0, 'lipoC3S3': 11.06, 'state': 'normal', 'rot1': 0, 'rot0': 0, 'rot3': 0, 'rot2': 0, 'depth': -0.217, 'yaw': 4.85, 'datetime': '2018-12-12 14:29:33.929796', 'mgs': 0, 'flw2': 0.0, 'flw1': 0.23, 'flw0': 0.0, 'time': 2.81, 'compass': 73.53, 'pitch': -3.11, 'roll': 0.23}
{'lipoC2': 7.44, 'temp': 0.0, 'lipoC3S3': 11.06, 'state': 'normal', 'rot1': 0, 'rot0': 0, 'rot3': 0, 'rot2': 0, 'depth': 0.012, 'yaw': 5.31, 'datetime': '2018-12-12 14:29:34.137359', 'mgs': 0, 'flw2': 0.22, 'flw1': 0.0, 'flw0': 0.0, 'time': 3.02, 'compass': 73.99, 'pitch': -2.89, 'roll': 0.44}
{'lipoC2': 7.26, 'temp': 0.0, 'lipoC3S3': 11.26, 'state': 'normal', 'rot1': 0, 'rot0': 0, 'rot3': 0, 'rot2': 0, 'depth': -0.369, 'yaw': 5.63, 'datetime': '2018-12-12 14:29:34.345071', 'mgs': 0, 'flw2': 0.61, 'flw1': 0.15, 'flw0': 0.0, 'time': 3.23, 'compass': 74.31, 'pitch': -3.37, 'roll': 0.68}
{'lipoC2': 7.33, 'temp': 0.0, 'lipoC3S3': 11.58, 'state': 'normal', 'rot1': 0, 'rot0': 2, 'rot3': 0, 'rot2': 0, 'depth': -1.59, 'yaw': 5.36, 'datetime': '2018-12-12 14:29:34.552809', 'mgs': 0, 'flw2': 1.21, 'flw1': 0.0, 'flw0': 0.52, 'time': 3.43, 'compass': 74.04, 'pitch': -4.53, 'roll': 0.63}
{'lipoC2': 7.32, 'temp': 0.0, 'lipoC3S3': 11.32, 'state': 'normal', 'rot1': 0, 'rot0': 3, 'rot3': 0, 'rot2': 0, 'depth': 0.241, 'yaw': 4.23, 'datetime': '2018-12-12 14:29:34.762512', 'mgs': 0, 'flw2': 1.11, 'flw1': 0.47, 'flw0': 0.26, 'time': 3.64, 'compass': 72.91, 'pitch': -4.83, 'roll': 0.21}
{'lipoC2': 7.29, 'temp': 0.0, 'lipoC3S3': 11.19, 'state': 'normal', 'rot1': 1, 'rot0': 6, 'rot3': 0, 'rot2': 0, 'depth': 1.538, 'yaw': 1.96, 'datetime': '2018-12-12 14:29:34.971829', 'mgs': 0, 'flw2': 1.7, 'flw1': 0.79, 'flw0': 0.28, 'time': 3.85, 'compass': 70.65, 'pitch': -3.9, 'roll': -0.35}
{'lipoC2': 7.41, 'temp': 0.0, 'lipoC3S3': 11.27, 'state': 'normal', 'rot1': 2, 'rot0': 8, 'rot3': 0, 'rot2': 0, 'depth': -0.903, 'yaw': -1.36, 'datetime': '2018-12-12 14:29:35.179874', 'mgs': 0, 'flw2': 2.21, 'flw1': 0.67, 'flw0': 0.16, 'time': 4.06, 'compass': 67.32, 'pitch': -3.17, 'roll': -0.95}
{'lipoC2': 7.41, 'temp': 0.0, 'lipoC3S3': 10.97, 'state': 'normal', 'rot1': 3, 'rot0': 12, 'rot3': 0, 'rot2': 0, 'depth': -0.598, 'yaw': -8.84, 'datetime': '2018-12-12 14:29:35.492797', 'mgs': 0, 'flw2': 2.69, 'flw1': 0.7, 'flw0': 0.33, 'time': 4.37, 'compass': 59.84, 'pitch': -3.95, 'roll': -1.53}
{'lipoC2': 7.27, 'temp': 0.0, 'lipoC3S3': 11.15, 'state': 'normal', 'rot1': 4, 'rot0': 14, 'rot3': 0, 'rot2': 0, 'depth': 2.072, 'yaw': -15.26, 'datetime': '2018-12-12 14:29:35.701766', 'mgs': 0, 'flw2': 2.75, 'flw1': 0.0, 'flw0': 0.31, 'time': 4.58, 'compass': 53.42, 'pitch': -4.56, 'roll': -1.74}
{'lipoC2': 7.26, 'temp': 0.0, 'lipoC3S3': 11.25, 'state': 'normal', 'rot1': 5, 'rot0': 16, 'rot3': 0, 'rot2': 0, 'depth': 1.385, 'yaw': -22.47, 'datetime': '2018-12-12 14:29:35.910524', 'mgs': 0, 'flw2': 2.86, 'flw1': 0.0, 'flw0': 0.42, 'time': 4.79, 'compass': 46.21, 'pitch': -4.27, 'roll': -1.8}
{'lipoC2': 7.32, 'temp': 0.0, 'lipoC3S3': 11.1, 'state': 'normal', 'rot1': 6, 'rot0': 19, 'rot3': 0, 'rot2': 0, 'depth': 0.012, 'yaw': -29.89, 'datetime': '2018-12-12 14:29:36.118944', 'mgs': 0, 'flw2': 2.48, 'flw1': 0.0, 'flw0': 0.87, 'time': 5.0, 'compass': 38.79, 'pitch': -3.37, 'roll': -1.6}
{'lipoC2': 7.32, 'temp': 0.0, 'lipoC3S3': 11.22, 'state': 'normal', 'rot1': 7, 'rot0': 20, 'rot3': 0, 'rot2': 0, 'depth': -1.437, 'yaw': -37.83, 'datetime': '2018-12-12 14:29:36.329213', 'mgs': 0, 'flw2': 0.0, 'flw1': 0.0, 'flw0': 0.29, 'time': 5.21, 'compass': 30.85, 'pitch': -2.87, 'roll': -1.31}
{'lipoC2': 7.17, 'temp': 0.0, 'lipoC3S3': 11.15, 'state': 'normal', 'rot1': 8, 'rot0': 20, 'rot3': 0, 'rot2': 0, 'depth': 1.385, 'yaw': -44.39, 'datetime': '2018-12-12 14:29:36.535447', 'mgs': 0, 'flw2': 0.0, 'flw1': 0.0, 'flw0': 0.63, 'time': 5.41, 'compass': 24.29, 'pitch': -2.39, 'roll': -1.42}
{'lipoC2': 7.42, 'temp': 0.0, 'lipoC3S3': 11.22, 'state': 'normal', 'rot1': 9, 'rot0': 20, 'rot3': 0, 'rot2': 0, 'depth': -0.369, 'yaw': -48.32, 'datetime': '2018-12-12 14:29:36.745065', 'mgs': 0, 'flw2': 0.0, 'flw1': 0.09, 'flw0': 0.38, 'time': 5.62, 'compass': 20.36, 'pitch': -2.11, 'roll': -3.3}
{'lipoC2': 7.17, 'temp': 0.0, 'lipoC3S3': 11.25, 'state': 'normal', 'rot1': 10, 'rot0': 20, 'rot3': 0, 'rot2': 0, 'depth': -0.064, 'yaw': -51.72, 'datetime': '2018-12-12 14:29:36.953485', 'mgs': 0, 'flw2': 0.0, 'flw1': 0.0, 'flw0': 0.51, 'time': 5.83, 'compass': 16.97, 'pitch': -2.2, 'roll': -3.99}
{'lipoC2': 7.26, 'temp': 0.0, 'lipoC3S3': 11.3, 'state': 'normal', 'rot1': 11, 'rot0': 20, 'rot3': 0, 'rot2': 0, 'depth': -0.751, 'yaw': -55.57, 'datetime': '2018-12-12 14:29:37.159769', 'mgs': 0, 'flw2': 0.0, 'flw1': 0.0, 'flw0': 0.65, 'time': 6.04, 'compass': 13.11, 'pitch': -2.16, 'roll': -3.34}
{'lipoC2': 7.3, 'temp': 0.0, 'lipoC3S3': 11.54, 'state': 'normal', 'rot1': 13, 'rot0': 20, 'rot3': 0, 'rot2': 0, 'depth': -0.827, 'yaw': -59.79, 'datetime': '2018-12-12 14:29:37.368889', 'mgs': 0, 'flw2': 0.2, 'flw1': 0.0, 'flw0': 1.29, 'time': 6.25, 'compass': 8.89, 'pitch': -1.73, 'roll': -2.27}
{'lipoC2': 7.29, 'temp': 0.0, 'lipoC3S3': 11.29, 'state': 'normal', 'rot1': 14, 'rot0': 20, 'rot3': 0, 'rot2': 0, 'depth': -0.217, 'yaw': -64.74, 'datetime': '2018-12-12 14:29:37.577868', 'mgs': 0, 'flw2': 0.0, 'flw1': 0.15, 'flw0': 1.21, 'time': 6.46, 'compass': 3.94, 'pitch': -0.84, 'roll': -1.71}
{'lipoC2': 7.48, 'temp': 0.0, 'lipoC3S3': 11.17, 'state': 'normal', 'rot1': 16, 'rot0': 20, 'rot3': 0, 'rot2': 0, 'depth': 0.241, 'yaw': -70.54, 'datetime': '2018-12-12 14:29:37.788715', 'mgs': 0, 'flw2': 0.0, 'flw1': 0.35, 'flw0': 1.07, 'time': 6.67, 'compass': -1.86, 'pitch': -0.37, 'roll': -1.89}
{'lipoC2': 7.2, 'temp': 0.0, 'lipoC3S3': 11.3, 'state': 'normal', 'rot1': 18, 'rot0': 20, 'rot3': 0, 'rot2': 0, 'depth': 1.462, 'yaw': -76.77, 'datetime': '2018-12-12 14:29:37.998961', 'mgs': 0, 'flw2': 0.06, 'flw1': 0.0, 'flw0': 1.21, 'time': 6.88, 'compass': -8.09, 'pitch': -0.89, 'roll': -2.48}
{'lipoC2': 7.21, 'temp': 0.0, 'lipoC3S3': 11.54, 'state': 'normal', 'rot1': 20, 'rot0': 20, 'rot3': 0, 'rot2': 0, 'depth': -0.674, 'yaw': -83.68, 'datetime': '2018-12-12 14:29:38.206464', 'mgs': 0, 'flw2': 0.48, 'flw1': 0.0, 'flw0': 1.44, 'time': 7.09, 'compass': -15.0, 'pitch': -1.27, 'roll': -3.3}
{'lipoC2': 7.32, 'temp': 0.0, 'lipoC3S3': 11.5, 'state': 'normal', 'rot1': 21, 'rot0': 21, 'rot3': 0, 'rot2': 0, 'depth': -0.369, 'yaw': -90.63, 'datetime': '2018-12-12 14:29:38.415639', 'mgs': 0, 'flw2': 0.24, 'flw1': 0.0, 'flw0': 1.53, 'time': 7.29, 'compass': -21.95, 'pitch': -0.46, 'roll': -3.83}
{'lipoC2': 7.32, 'temp': 0.0, 'lipoC3S3': 11.5, 'state': 'normal', 'rot1': 23, 'rot0': 21, 'rot3': 0, 'rot2': 0, 'depth': 0.165, 'yaw': -97.58, 'datetime': '2018-12-12 14:29:38.623378', 'mgs': 0, 'flw2': 0.37, 'flw1': 0.0, 'flw0': 1.55, 'time': 7.5, 'compass': -28.9, 'pitch': 0.97, 'roll': -3.8}
{'lipoC2': 7.26, 'temp': 0.0, 'lipoC3S3': 11.31, 'state': 'normal', 'rot1': 25, 'rot0': 22, 'rot3': 0, 'rot2': 0, 'depth': 1.233, 'yaw': -104.1, 'datetime': '2018-12-12 14:29:38.834239', 'mgs': 0, 'flw2': 0.67, 'flw1': 0.0, 'flw0': 1.18, 'time': 7.71, 'compass': -35.42, 'pitch': 1.64, 'roll': -3.52}
{'lipoC2': 7.53, 'temp': 0.0, 'lipoC3S3': 11.26, 'state': 'normal', 'rot1': 26, 'rot0': 23, 'rot3': 0, 'rot2': 0, 'depth': -0.98, 'yaw': -110.39, 'datetime': '2018-12-12 14:29:39.043181', 'mgs': 0, 'flw2': 0.43, 'flw1': 0.44, 'flw0': 1.14, 'time': 7.92, 'compass': -41.71, 'pitch': 1.56, 'roll': -2.99}
{'lipoC2': 7.25, 'temp': 0.0, 'lipoC3S3': 11.32, 'state': 'normal', 'rot1': 28, 'rot0': 25, 'rot3': 0, 'rot2': 0, 'depth': -0.293, 'yaw': -115.79, 'datetime': '2018-12-12 14:29:39.253011', 'mgs': 0, 'flw2': 0.96, 'flw1': 0.0, 'flw0': 1.17, 'time': 8.13, 'compass': -47.1, 'pitch': 1.45, 'roll': -2.4}
{'lipoC2': 7.41, 'temp': 0.0, 'lipoC3S3': 11.25, 'state': 'normal', 'rot1': 30, 'rot0': 27, 'rot3': 0, 'rot2': 0, 'depth': -0.522, 'yaw': -120.4, 'datetime': '2018-12-12 14:29:39.461781', 'mgs': 0, 'flw2': 0.96, 'flw1': 0.56, 'flw0': 1.22, 'time': 8.34, 'compass': -51.72, 'pitch': 2.03, 'roll': -2.01}
{'lipoC2': 7.33, 'temp': 0.0, 'lipoC3S3': 11.58, 'state': 'normal', 'rot1': 31, 'rot0': 28, 'rot3': 0, 'rot2': 0, 'depth': -0.522, 'yaw': -124.62, 'datetime': '2018-12-12 14:29:39.671020', 'mgs': 0, 'flw2': 1.04, 'flw1': 0.79, 'flw0': 1.21, 'time': 8.55, 'compass': -55.94, 'pitch': 2.67, 'roll': -2.13}
{'lipoC2': 7.39, 'temp': 0.0, 'lipoC3S3': 11.31, 'state': 'normal', 'rot1': 33, 'rot0': 30, 'rot3': 0, 'rot2': 0, 'depth': -1.361, 'yaw': -128.32, 'datetime': '2018-12-12 14:29:39.881724', 'mgs': 0, 'flw2': 0.96, 'flw1': 0.12, 'flw0': 1.32, 'time': 8.76, 'compass': -59.64, 'pitch': 2.75, 'roll': -2.71}
{'lipoC2': 7.48, 'temp': 0.0, 'lipoC3S3': 11.3, 'state': 'normal', 'rot1': 35, 'rot0': 31, 'rot3': 0, 'rot2': 0, 'depth': -0.827, 'yaw': -131.86, 'datetime': '2018-12-12 14:29:40.091882', 'mgs': 0, 'flw2': 1.16, 'flw1': 0.0, 'flw0': 1.37, 'time': 8.97, 'compass': -63.18, 'pitch': 2.56, 'roll': -3.0}
{'lipoC2': 7.46, 'temp': 0.0, 'lipoC3S3': 11.09, 'state': 'normal', 'rot1': 37, 'rot0': 33, 'rot3': 0, 'rot2': 0, 'depth': 0.089, 'yaw': -134.99, 'datetime': '2018-12-12 14:29:40.301549', 'mgs': 0, 'flw2': 1.23, 'flw1': 0.0, 'flw0': 1.16, 'time': 9.18, 'compass': -66.31, 'pitch': 2.37, 'roll': -2.94}
{'lipoC2': 7.33, 'temp': 0.0, 'lipoC3S3': 11.19, 'state': 'normal', 'rot1': 38, 'rot0': 35, 'rot3': 0, 'rot2': 0, 'depth': 0.394, 'yaw': -137.79, 'datetime': '2018-12-12 14:29:40.511171', 'mgs': 0, 'flw2': 1.31, 'flw1': 0.0, 'flw0': 1.28, 'time': 9.38, 'compass': -69.11, 'pitch': 2.28, 'roll': -2.52}
{'lipoC2': 7.3, 'temp': 0.0, 'lipoC3S3': 11.29, 'state': 'normal', 'rot1': 40, 'rot0': 36, 'rot3': 0, 'rot2': 0, 'depth': -0.369, 'yaw': -140.31, 'datetime': '2018-12-12 14:29:40.720499', 'mgs': 0, 'flw2': 1.17, 'flw1': 0.0, 'flw0': 1.18, 'time': 9.59, 'compass': -71.63, 'pitch': 2.77, 'roll': -2.16}
{'lipoC2': 7.26, 'temp': 0.0, 'lipoC3S3': 11.19, 'state': 'normal', 'rot1': 42, 'rot0': 38, 'rot3': 0, 'rot2': 0, 'depth': 0.165, 'yaw': -142.68, 'datetime': '2018-12-12 14:29:40.929193', 'mgs': 0, 'flw2': 1.39, 'flw1': 0.0, 'flw0': 1.17, 'time': 9.8, 'compass': -74.0, 'pitch': 3.35, 'roll': -1.98}
{'lipoC2': 7.29, 'temp': 0.0, 'lipoC3S3': 11.26, 'state': 'normal', 'rot1': 43, 'rot0': 40, 'rot3': 0, 'rot2': 0, 'depth': 1.767, 'yaw': -144.87, 'datetime': '2018-12-12 14:29:41.137067', 'mgs': 0, 'flw2': 1.28, 'flw1': 0.0, 'flw0': 1.48, 'time': 10.01, 'compass': -76.19, 'pitch': 3.38, 'roll': -2.07}
{'lipoC2': 7.5, 'temp': 0.0, 'lipoC3S3': 11.31, 'state': 'normal', 'rot1': 45, 'rot0': 42, 'rot3': 0, 'rot2': 0, 'depth': 0.928, 'yaw': -147.12, 'datetime': '2018-12-12 14:29:41.350701', 'mgs': 0, 'flw2': 1.48, 'flw1': 0.67, 'flw0': 1.28, 'time': 10.22, 'compass': -78.44, 'pitch': 2.88, 'roll': -2.48}
{'lipoC2': 7.33, 'temp': 0.0, 'lipoC3S3': 11.44, 'state': 'normal', 'rot1': 47, 'rot0': 44, 'rot3': 0, 'rot2': 0, 'depth': -0.598, 'yaw': -149.17, 'datetime': '2018-12-12 14:29:41.553032', 'mgs': 0, 'flw2': 1.38, 'flw1': 0.62, 'flw0': 1.32, 'time': 10.43, 'compass': -80.49, 'pitch': 2.62, 'roll': -2.86}
{'lipoC2': 7.28, 'temp': 0.0, 'lipoC3S3': 11.47, 'state': 'normal', 'rot1': 49, 'rot0': 45, 'rot3': 0, 'rot2': 0, 'depth': -0.446, 'yaw': -151.0, 'datetime': '2018-12-12 14:29:41.761288', 'mgs': 0, 'flw2': 1.55, 'flw1': 0.0, 'flw0': 1.44, 'time': 10.64, 'compass': -82.32, 'pitch': 2.67, 'roll': -2.71}
{'lipoC2': 7.28, 'temp': 0.0, 'lipoC3S3': 11.54, 'state': 'normal', 'rot1': 51, 'rot0': 47, 'rot3': 0, 'rot2': 0, 'depth': 0.317, 'yaw': -152.49, 'datetime': '2018-12-12 14:29:41.971904', 'mgs': 0, 'flw2': 2.01, 'flw1': 0.0, 'flw0': 1.35, 'time': 10.85, 'compass': -83.81, 'pitch': 2.81, 'roll': -2.09}
{'lipoC2': 7.43, 'temp': 0.0, 'lipoC3S3': 11.13, 'state': 'normal', 'rot1': 52, 'rot0': 49, 'rot3': 0, 'rot2': 0, 'depth': -0.369, 'yaw': -153.63, 'datetime': '2018-12-12 14:29:42.182201', 'mgs': 0, 'flw2': 1.95, 'flw1': 0.0, 'flw0': 1.45, 'time': 11.06, 'compass': -84.95, 'pitch': 3.2, 'roll': -1.64}
{'lipoC2': 7.17, 'temp': 0.0, 'lipoC3S3': 11.26, 'state': 'normal', 'rot1': 54, 'rot0': 51, 'rot3': 0, 'rot2': 0, 'depth': 2.072, 'yaw': -154.41, 'datetime': '2018-12-12 14:29:42.387544', 'mgs': 0, 'flw2': 2.2, 'flw1': 0.0, 'flw0': 1.61, 'time': 11.27, 'compass': -85.73, 'pitch': 3.4, 'roll': -1.32}
{'lipoC2': 7.3, 'temp': 0.0, 'lipoC3S3': 11.19, 'state': 'normal', 'rot1': 56, 'rot0': 54, 'rot3': 0, 'rot2': 0, 'depth': -0.369, 'yaw': -154.89, 'datetime': '2018-12-12 14:29:42.595966', 'mgs': 0, 'flw2': 2.36, 'flw1': 0.0, 'flw0': 1.45, 'time': 11.47, 'compass': -86.21, 'pitch': 3.24, 'roll': -1.05}
{'lipoC2': 7.21, 'temp': 0.0, 'lipoC3S3': 11.51, 'state': 'normal', 'rot1': 59, 'rot0': 56, 'rot3': 0, 'rot2': 0, 'depth': -0.751, 'yaw': -154.95, 'datetime': '2018-12-12 14:29:42.805515', 'mgs': 0, 'flw2': 1.88, 'flw1': 0.0, 'flw0': 1.55, 'time': 11.68, 'compass': -86.27, 'pitch': 2.81, 'roll': -1.01}
{'lipoC2': 7.3, 'temp': 0.0, 'lipoC3S3': 11.27, 'state': 'normal', 'rot1': 61, 'rot0': 58, 'rot3': 0, 'rot2': 0, 'depth': 1.462, 'yaw': -154.71, 'datetime': '2018-12-12 14:29:43.019330', 'mgs': 0, 'flw2': 2.12, 'flw1': 0.26, 'flw0': 1.32, 'time': 11.89, 'compass': -86.03, 'pitch': 2.59, 'roll': -1.07}
{'lipoC2': 7.15, 'temp': 0.0, 'lipoC3S3': 11.22, 'state': 'normal', 'rot1': 63, 'rot0': 61, 'rot3': 0, 'rot2': 0, 'depth': 1.691, 'yaw': -154.26, 'datetime': '2018-12-12 14:29:43.231006', 'mgs': 0, 'flw2': 2.23, 'flw1': 0.0, 'flw0': 1.34, 'time': 12.1, 'compass': -85.58, 'pitch': 2.81, 'roll': -1.4}
{'lipoC2': 7.25, 'temp': 0.0, 'lipoC3S3': 11.19, 'state': 'normal', 'rot1': 64, 'rot0': 63, 'rot3': 0, 'rot2': 0, 'depth': 1.309, 'yaw': -153.4, 'datetime': '2018-12-12 14:29:43.436810', 'mgs': 0, 'flw2': 2.1, 'flw1': 0.0, 'flw0': 0.48, 'time': 12.31, 'compass': -84.72, 'pitch': 3.04, 'roll': -1.38}
{'lipoC2': 7.47, 'temp': 0.0, 'lipoC3S3': 11.25, 'state': 'normal', 'rot1': 65, 'rot0': 65, 'rot3': 0, 'rot2': 0, 'depth': -0.522, 'yaw': -151.63, 'datetime': '2018-12-12 14:29:43.644893', 'mgs': 0, 'flw2': 2.04, 'flw1': 0.53, 'flw0': 0.59, 'time': 12.52, 'compass': -82.95, 'pitch': 3.0, 'roll': -1.03}
{'lipoC2': 7.38, 'temp': 0.0, 'lipoC3S3': 11.18, 'state': 'normal', 'rot1': 66, 'rot0': 67, 'rot3': 0, 'rot2': 0, 'depth': -1.285, 'yaw': -149.25, 'datetime': '2018-12-12 14:29:43.854221', 'mgs': 0, 'flw2': 2.09, 'flw1': 0.0, 'flw0': 0.52, 'time': 12.73, 'compass': -80.57, 'pitch': 2.62, 'roll': -0.75}
{'lipoC2': 7.21, 'temp': 0.0, 'lipoC3S3': 11.56, 'state': 'normal', 'rot1': 67, 'rot0': 69, 'rot3': 0, 'rot2': 0, 'depth': -0.674, 'yaw': -146.5, 'datetime': '2018-12-12 14:29:44.067075', 'mgs': 0, 'flw2': 2.33, 'flw1': 0.0, 'flw0': 0.9, 'time': 12.94, 'compass': -77.82, 'pitch': 2.09, 'roll': -0.81}
{'lipoC2': 7.27, 'temp': 0.0, 'lipoC3S3': 11.22, 'state': 'normal', 'rot1': 69, 'rot0': 71, 'rot3': 0, 'rot2': 0, 'depth': -0.751, 'yaw': -143.45, 'datetime': '2018-12-12 14:29:44.271702', 'mgs': 0, 'flw2': 2.54, 'flw1': 0.0, 'flw0': 0.81, 'time': 13.15, 'compass': -74.77, 'pitch': 1.88, 'roll': -0.89}
{'lipoC2': 7.38, 'temp': 0.0, 'lipoC3S3': 11.26, 'state': 'normal', 'rot1': 70, 'rot0': 74, 'rot3': 0, 'rot2': 0, 'depth': 0.47, 'yaw': -140.0, 'datetime': '2018-12-12 14:29:44.482813', 'mgs': 0, 'flw2': 2.09, 'flw1': 0.0, 'flw0': 0.44, 'time': 13.36, 'compass': -71.32, 'pitch': 2.2, 'roll': -0.79}
{'lipoC2': 7.52, 'temp': 0.0, 'lipoC3S3': 11.3, 'state': 'normal', 'rot1': 72, 'rot0': 76, 'rot3': 0, 'rot2': 0, 'depth': 1.92, 'yaw': -135.99, 'datetime': '2018-12-12 14:29:44.689842', 'mgs': 0, 'flw2': 1.94, 'flw1': 0.56, 'flw0': 0.59, 'time': 13.56, 'compass': -67.31, 'pitch': 2.72, 'roll': -0.91}
{'lipoC2': 7.33, 'temp': 0.0, 'lipoC3S3': 11.58, 'state': 'normal', 'rot1': 73, 'rot0': 78, 'rot3': 0, 'rot2': 0, 'depth': -0.903, 'yaw': -131.78, 'datetime': '2018-12-12 14:29:44.902628', 'mgs': 0, 'flw2': 2.37, 'flw1': 0.79, 'flw0': 0.55, 'time': 13.77, 'compass': -63.1, 'pitch': 2.82, 'roll': -1.12}
{'lipoC2': 7.28, 'temp': 0.0, 'lipoC3S3': 11.26, 'state': 'normal', 'rot1': 74, 'rot0': 80, 'rot3': 0, 'rot2': 0, 'depth': 1.08, 'yaw': -127.28, 'datetime': '2018-12-12 14:29:45.113741', 'mgs': 0, 'flw2': 2.2, 'flw1': 0.0, 'flw0': 0.56, 'time': 13.98, 'compass': -58.6, 'pitch': 2.33, 'roll': -1.08}
{'lipoC2': 7.34, 'temp': 0.0, 'lipoC3S3': 11.58, 'state': 'normal', 'rot1': 75, 'rot0': 83, 'rot3': 0, 'rot2': 0, 'depth': -0.751, 'yaw': -122.56, 'datetime': '2018-12-12 14:29:45.320454', 'mgs': 0, 'flw2': 2.43, 'flw1': 0.0, 'flw0': 0.82, 'time': 14.19, 'compass': -53.88, 'pitch': 1.52, 'roll': -0.84}
{'lipoC2': 7.19, 'temp': 0.0, 'lipoC3S3': 11.36, 'state': 'normal', 'rot1': 77, 'rot0': 85, 'rot3': 0, 'rot2': 0, 'depth': 1.309, 'yaw': -117.72, 'datetime': '2018-12-12 14:29:45.531006', 'mgs': 0, 'flw2': 2.43, 'flw1': 0.0, 'flw0': 0.67, 'time': 14.4, 'compass': -49.04, 'pitch': 1.74, 'roll': -0.6}
{'lipoC2': 7.52, 'temp': 0.0, 'lipoC3S3': 11.25, 'state': 'normal', 'rot1': 78, 'rot0': 87, 'rot3': 0, 'rot2': 0, 'depth': -1.59, 'yaw': -113.02, 'datetime': '2018-12-12 14:29:45.740177', 'mgs': 0, 'flw2': 1.9, 'flw1': 0.76, 'flw0': 0.74, 'time': 14.61, 'compass': -44.34, 'pitch': 2.39, 'roll': -0.42}
{'lipoC2': 7.32, 'temp': 0.0, 'lipoC3S3': 11.5, 'state': 'normal', 'rot1': 80, 'rot0': 89, 'rot3': 0, 'rot2': 0, 'depth': -0.903, 'yaw': -108.21, 'datetime': '2018-12-12 14:29:45.950201', 'mgs': 0, 'flw2': 2.23, 'flw1': 0.0, 'flw0': 1.06, 'time': 14.82, 'compass': -39.53, 'pitch': 2.2, 'roll': -0.34}
{'lipoC2': 7.44, 'temp': 0.0, 'lipoC3S3': 11.25, 'state': 'normal', 'rot1': 81, 'rot0': 92, 'rot3': 0, 'rot2': 0, 'depth': -1.361, 'yaw': -103.48, 'datetime': '2018-12-12 14:29:46.160102', 'mgs': 0, 'flw2': 2.31, 'flw1': 0.88, 'flw0': 0.82, 'time': 15.03, 'compass': -34.79, 'pitch': 1.45, 'roll': -0.27}
{'lipoC2': 7.15, 'temp': 0.0, 'lipoC3S3': 11.19, 'state': 'normal', 'rot1': 83, 'rot0': 94, 'rot3': 0, 'rot2': 0, 'depth': 1.691, 'yaw': -98.78, 'datetime': '2018-12-12 14:29:46.370553', 'mgs': 0, 'flw2': 1.99, 'flw1': 0.0, 'flw0': 0.78, 'time': 15.24, 'compass': -30.1, 'pitch': 0.82, 'roll': -0.29}
{'lipoC2': 7.41, 'temp': 0.0, 'lipoC3S3': 11.27, 'state': 'normal', 'rot1': 85, 'rot0': 96, 'rot3': 0, 'rot2': 0, 'depth': 0.089, 'yaw': -94.11, 'datetime': '2018-12-12 14:29:46.577161', 'mgs': 0, 'flw2': 2.01, 'flw1': 0.06, 'flw0': 0.92, 'time': 15.45, 'compass': -25.42, 'pitch': 0.76, 'roll': -0.35}
{'lipoC2': 7.46, 'temp': 0.0, 'lipoC3S3': 11.11, 'state': 'normal', 'rot1': 86, 'rot0': 98, 'rot3': 0, 'rot2': 0, 'depth': -0.446, 'yaw': -89.64, 'datetime': '2018-12-12 14:29:46.790288', 'mgs': 0, 'flw2': 0.82, 'flw1': 0.0, 'flw0': 0.95, 'time': 15.65, 'compass': -20.96, 'pitch': 1.04, 'roll': -0.41}
{'lipoC2': 7.34, 'temp': 0.0, 'lipoC3S3': 11.5, 'state': 'normal', 'rot1': 93, 'rot0': 105, 'rot3': 0, 'rot2': 0, 'depth': 0.089, 'yaw': -78.08, 'datetime': '2018-12-12 14:29:47.621177', 'mgs': 0, 'flw2': 1.29, 'flw1': 0.0, 'flw0': 1.67, 'time': 16.49, 'compass': -9.4, 'pitch': -0.36, 'roll': -0.15}
{'lipoC2': 7.4, 'temp': 0.0, 'lipoC3S3': 11.3, 'state': 'normal', 'rot1': 95, 'rot0': 107, 'rot3': 0, 'rot2': 0, 'depth': 0.851, 'yaw': -76.46, 'datetime': '2018-12-12 14:29:47.830969', 'mgs': 0, 'flw2': 0.99, 'flw1': 0.12, 'flw0': 1.28, 'time': 16.7, 'compass': -7.78, 'pitch': -1.27, 'roll': -0.68}
{'lipoC2': 7.53, 'temp': 0.0, 'lipoC3S3': 11.23, 'state': 'normal', 'rot1': 97, 'rot0': 108, 'rot3': 0, 'rot2': 0, 'depth': -1.285, 'yaw': -75.36, 'datetime': '2018-12-12 14:29:48.039662', 'mgs': 0, 'flw2': 0.89, 'flw1': 0.29, 'flw0': 1.38, 'time': 16.91, 'compass': -6.68, 'pitch': -2.13, 'roll': -0.89}
{'lipoC2': 7.59, 'temp': 0.0, 'lipoC3S3': 11.27, 'state': 'normal', 'rot1': 99, 'rot0': 110, 'rot3': 0, 'rot2': 0, 'depth': 1.767, 'yaw': -74.58, 'datetime': '2018-12-12 14:29:48.257939', 'mgs': 0, 'flw2': 0.88, 'flw1': 0.29, 'flw0': 1.25, 'time': 17.12, 'compass': -5.9, 'pitch': -1.83, 'roll': -0.86}
{'lipoC2': 7.39, 'temp': 0.0, 'lipoC3S3': 11.5, 'state': 'normal', 'rot1': 101, 'rot0': 111, 'rot3': 0, 'rot2': 0, 'depth': -0.446, 'yaw': -74.07, 'datetime': '2018-12-12 14:29:48.468056', 'mgs': 0, 'flw2': 1.17, 'flw1': 0.0, 'flw0': 1.6, 'time': 17.33, 'compass': -5.39, 'pitch': -1.49, 'roll': -0.71}
{'lipoC2': 7.18, 'temp': 0.0, 'lipoC3S3': 11.3, 'state': 'normal', 'rot1': 102, 'rot0': 113, 'rot3': 0, 'rot2': 0, 'depth': 1.233, 'yaw': -73.9, 'datetime': '2018-12-12 14:29:48.675969', 'mgs': 0, 'flw2': 0.13, 'flw1': 0.62, 'flw0': 1.56, 'time': 17.54, 'compass': -5.22, 'pitch': -1.61, 'roll': -0.67}
{'lipoC2': 7.47, 'temp': 0.0, 'lipoC3S3': 11.29, 'state': 'normal', 'rot1': 104, 'rot0': 113, 'rot3': 0, 'rot2': 0, 'depth': -1.285, 'yaw': -74.79, 'datetime': '2018-12-12 14:29:48.884765', 'mgs': 0, 'flw2': 0.24, 'flw1': 0.62, 'flw0': 1.66, 'time': 17.75, 'compass': -6.11, 'pitch': -1.98, 'roll': -0.87}
{'lipoC2': 7.44, 'temp': 0.0, 'lipoC3S3': 11.26, 'state': 'normal', 'rot1': 107, 'rot0': 114, 'rot3': 0, 'rot2': 0, 'depth': -0.751, 'yaw': -76.8, 'datetime': '2018-12-12 14:29:49.096094', 'mgs': 0, 'flw2': 0.17, 'flw1': 0.47, 'flw0': 1.79, 'time': 17.96, 'compass': -8.12, 'pitch': -2.09, 'roll': -1.41}
{'lipoC2': 7.61, 'temp': 0.0, 'lipoC3S3': 11.27, 'state': 'normal', 'rot1': 108, 'rot0': 115, 'rot3': 0, 'rot2': 0, 'depth': 1.92, 'yaw': -80.05, 'datetime': '2018-12-12 14:29:49.304198', 'mgs': 0, 'flw2': 0.32, 'flw1': 0.0, 'flw0': 2.22, 'time': 18.17, 'compass': -11.37, 'pitch': -1.74, 'roll': -2.17}
{'lipoC2': 7.5, 'temp': 0.0, 'lipoC3S3': 11.15, 'state': 'normal', 'rot1': 110, 'rot0': 115, 'rot3': 0, 'rot2': 0, 'depth': 0.851, 'yaw': -84.44, 'datetime': '2018-12-12 14:29:49.513717', 'mgs': 0, 'flw2': 0.0, 'flw1': 0.47, 'flw0': 2.19, 'time': 18.38, 'compass': -15.76, 'pitch': -1.45, 'roll': -2.76}
{'lipoC2': 7.43, 'temp': 0.0, 'lipoC3S3': 10.97, 'state': 'normal', 'rot1': 113, 'rot0': 115, 'rot3': 0, 'rot2': 0, 'depth': -0.369, 'yaw': -89.89, 'datetime': '2018-12-12 14:29:49.724625', 'mgs': 0, 'flw2': 0.0, 'flw1': 0.29, 'flw0': 1.75, 'time': 18.58, 'compass': -21.21, 'pitch': -1.18, 'roll': -3.0}
{'lipoC2': 7.28, 'temp': 0.0, 'lipoC3S3': 11.31, 'state': 'normal', 'rot1': 114, 'rot0': 115, 'rot3': 0, 'rot2': 0, 'depth': -0.293, 'yaw': -95.5, 'datetime': '2018-12-12 14:29:49.930148', 'mgs': 0, 'flw2': 0.18, 'flw1': 0.0, 'flw0': 0.0, 'time': 18.79, 'compass': -26.82, 'pitch': -1.37, 'roll': -2.84}
{'lipoC2': 7.28, 'temp': 0.0, 'lipoC3S3': 11.19, 'state': 'normal', 'rot1': 114, 'rot0': 115, 'rot3': 0, 'rot2': 0, 'depth': -0.14, 'yaw': -99.65, 'datetime': '2018-12-12 14:29:50.139744', 'mgs': 0, 'flw2': 0.26, 'flw1': 0.0, 'flw0': 0.0, 'time': 19.0, 'compass': -30.97, 'pitch': -2.35, 'roll': -2.29}
{'lipoC2': 7.44, 'temp': 0.0, 'lipoC3S3': 11.01, 'state': 'normal', 'rot1': 114, 'rot0': 115, 'rot3': 0, 'rot2': 0, 'depth': -0.98, 'yaw': -103.14, 'datetime': '2018-12-12 14:29:50.349280', 'mgs': 0, 'flw2': 0.26, 'flw1': 0.0, 'flw0': 0.21, 'time': 19.21, 'compass': -34.46, 'pitch': -2.45, 'roll': -2.0}
{'lipoC2': 7.29, 'temp': 0.0, 'lipoC3S3': 11.25, 'state': 'normal', 'rot1': 114, 'rot0': 115, 'rot3': 0, 'rot2': 0, 'depth': 0.165, 'yaw': -105.93, 'datetime': '2018-12-12 14:29:50.561726', 'mgs': 0, 'flw2': 0.0, 'flw1': 0.0, 'flw0': 0.17, 'time': 19.42, 'compass': -37.25, 'pitch': -1.25, 'roll': -2.04}
{'lipoC2': 7.44, 'temp': 0.0, 'lipoC3S3': 11.23, 'state': 'normal', 'rot1': 114, 'rot0': 115, 'rot3': 0, 'rot2': 0, 'depth': -0.522, 'yaw': -108.39, 'datetime': '2018-12-12 14:29:50.770725', 'mgs': 0, 'flw2': 0.0, 'flw1': 0.21, 'flw0': 0.01, 'time': 19.63, 'compass': -39.71, 'pitch': -0.42, 'roll': -2.25}
{'lipoC2': 7.47, 'temp': 0.0, 'lipoC3S3': 11.34, 'state': 'normal', 'rot1': 114, 'rot0': 115, 'rot3': 0, 'rot2': 0, 'depth': 0.851, 'yaw': -110.45, 'datetime': '2018-12-12 14:29:50.980835', 'mgs': 0, 'flw2': 0.05, 'flw1': 0.23, 'flw0': 0.0, 'time': 19.84, 'compass': -41.77, 'pitch': -0.85, 'roll': -2.29}
{'lipoC2': 7.29, 'temp': 0.0, 'lipoC3S3': 11.36, 'state': 'normal', 'rot1': 114, 'rot0': 115, 'rot3': 0, 'rot2': 0, 'depth': 1.691, 'yaw': -112.11, 'datetime': '2018-12-12 14:29:51.187481', 'mgs': 0, 'flw2': 0.11, 'flw1': 0.0, 'flw0': 0.2, 'time': 20.05, 'compass': -43.43, 'pitch': -1.73, 'roll': -2.23}
{'lipoC2': 7.22, 'temp': 0.0, 'lipoC3S3': 11.54, 'state': 'normal', 'rot1': 114, 'rot0': 115, 'rot3': 0, 'rot2': 0, 'depth': 0.699, 'yaw': -113.45, 'datetime': '2018-12-12 14:29:51.396978', 'mgs': 0, 'flw2': 0.26, 'flw1': 0.0, 'flw0': 0.22, 'time': 20.26, 'compass': -44.77, 'pitch': -1.89, 'roll': -2.06}
{'lipoC2': 7.49, 'temp': 0.0, 'lipoC3S3': 11.32, 'state': 'normal', 'rot1': 114, 'rot0': 115, 'rot3': 0, 'rot2': 0, 'depth': -1.208, 'yaw': -114.72, 'datetime': '2018-12-12 14:29:51.607854', 'mgs': 0, 'flw2': 0.0, 'flw1': 0.18, 'flw0': 0.0, 'time': 20.47, 'compass': -46.04, 'pitch': -1.3, 'roll': -1.99}
{'lipoC2': 7.59, 'temp': 0.0, 'lipoC3S3': 11.27, 'state': 'normal', 'rot1': 114, 'rot0': 115, 'rot3': 0, 'rot2': 0, 'depth': -0.903, 'yaw': -115.79, 'datetime': '2018-12-12 14:29:51.818934', 'mgs': 0, 'flw2': 0.0, 'flw1': 0.26, 'flw0': 0.0, 'time': 20.68, 'compass': -47.11, 'pitch': -1.03, 'roll': -2.04}
{'lipoC2': 7.38, 'temp': 0.0, 'lipoC3S3': 11.54, 'state': 'normal', 'rot1': 114, 'rot0': 115, 'rot3': 0, 'rot2': 0, 'depth': -0.369, 'yaw': -116.75, 'datetime': '2018-12-12 14:29:52.028776', 'mgs': 0, 'flw2': 0.2, 'flw1': 0.0, 'flw0': 0.18, 'time': 20.89, 'compass': -48.07, 'pitch': -1.22, 'roll': -2.01}
{'lipoC2': 7.26, 'temp': 0.0, 'lipoC3S3': 11.29, 'state': 'normal', 'rot1': 114, 'rot0': 115, 'rot3': 0, 'rot2': 0, 'depth': 1.233, 'yaw': -117.52, 'datetime': '2018-12-12 14:29:52.237307', 'mgs': 0, 'flw2': 0.16, 'flw1': 0.0, 'flw0': 0.0, 'time': 21.1, 'compass': -48.84, 'pitch': -1.55, 'roll': -1.82}
{'lipoC2': 7.42, 'temp': 0.0, 'lipoC3S3': 11.11, 'state': 'normal', 'rot1': 114, 'rot0': 115, 'rot3': 0, 'rot2': 0, 'depth': -0.446, 'yaw': -118.17, 'datetime': '2018-12-12 14:29:52.446386', 'mgs': 0, 'flw2': 0.0, 'flw1': 0.0, 'flw0': 0.0, 'time': 21.31, 'compass': -49.49, 'pitch': -1.41, 'roll': -1.82}
{'lipoC2': 7.18, 'temp': 0.0, 'lipoC3S3': 11.4, 'state': 'normal', 'rot1': 114, 'rot0': 115, 'rot3': 0, 'rot2': 0, 'depth': -0.064, 'yaw': -118.74, 'datetime': '2018-12-12 14:29:52.655574', 'mgs': 0, 'flw2': 0.21, 'flw1': 0.0, 'flw0': 0.0, 'time': 21.51, 'compass': -50.06, 'pitch': -1.25, 'roll': -1.9}
{'lipoC2': 7.35, 'temp': 0.0, 'lipoC3S3': 11.03, 'state': 'normal', 'rot1': 114, 'rot0': 115, 'rot3': 0, 'rot2': 0, 'depth': -0.751, 'yaw': -119.17, 'datetime': '2018-12-12 14:29:52.866415', 'mgs': 0, 'flw2': 0.0, 'flw1': 0.0, 'flw0': 0.02, 'time': 21.72, 'compass': -50.49, 'pitch': -1.23, 'roll': -2.12}
{'lipoC2': 7.35, 'temp': 0.0, 'lipoC3S3': 11.35, 'state': 'normal', 'rot1': 114, 'rot0': 115, 'rot3': 0, 'rot2': 0, 'depth': -0.598, 'yaw': -119.6, 'datetime': '2018-12-12 14:29:53.073618', 'mgs': 0, 'flw2': 0.0, 'flw1': 0.35, 'flw0': 0.0, 'time': 21.93, 'compass': -50.92, 'pitch': -1.21, 'roll': -2.44}
{'lipoC2': 7.24, 'temp': 0.0, 'lipoC3S3': 11.23, 'state': 'normal', 'rot1': 114, 'rot0': 115, 'rot3': 0, 'rot2': 0, 'depth': -0.369, 'yaw': -119.86, 'datetime': '2018-12-12 14:29:53.283950', 'mgs': 0, 'flw2': 0.0, 'flw1': 0.0, 'flw0': 0.0, 'time': 22.14, 'compass': -51.18, 'pitch': -1.26, 'roll': -2.46}
{'lipoC2': 7.27, 'temp': 0.0, 'lipoC3S3': 11.46, 'state': 'normal', 'rot1': 114, 'rot0': 115, 'rot3': 0, 'rot2': 0, 'depth': -0.827, 'yaw': -120.07, 'datetime': '2018-12-12 14:29:53.493434', 'mgs': 0, 'flw2': 0.09, 'flw1': 0.0, 'flw0': 0.0, 'time': 22.35, 'compass': -51.39, 'pitch': -1.48, 'roll': -2.22}
{'lipoC2': 7.42, 'temp': 0.0, 'lipoC3S3': 11.3, 'state': 'normal', 'rot1': 115, 'rot0': 115, 'rot3': 0, 'rot2': 0, 'depth': 0.394, 'yaw': -120.35, 'datetime': '2018-12-12 14:29:53.705469', 'mgs': 0, 'flw2': 0.18, 'flw1': 0.0, 'flw0': 0.84, 'time': 22.56, 'compass': -51.67, 'pitch': -1.18, 'roll': -2.2}
{'lipoC2': 7.18, 'temp': 0.0, 'lipoC3S3': 11.39, 'state': 'normal', 'rot1': 116, 'rot0': 115, 'rot3': 0, 'rot2': 0, 'depth': 1.385, 'yaw': -121.4, 'datetime': '2018-12-12 14:29:53.914921', 'mgs': 0, 'flw2': 0.16, 'flw1': 0.0, 'flw0': 0.95, 'time': 22.77, 'compass': -52.72, 'pitch': -0.45, 'roll': -2.27}
{'lipoC2': 7.3, 'temp': 0.0, 'lipoC3S3': 11.06, 'state': 'normal', 'rot1': 118, 'rot0': 115, 'rot3': 0, 'rot2': 0, 'depth': 1.691, 'yaw': -123.41, 'datetime': '2018-12-12 14:29:54.125212', 'mgs': 0, 'flw2': 0.0, 'flw1': 0.0, 'flw0': 1.83, 'time': 22.98, 'compass': -54.73, 'pitch': -0.29, 'roll': -2.69}
{'lipoC2': 7.41, 'temp': 0.0, 'lipoC3S3': 11.59, 'state': 'normal', 'rot1': 120, 'rot0': 115, 'rot3': 0, 'rot2': 0, 'depth': -0.98, 'yaw': -127.18, 'datetime': '2018-12-12 14:29:54.333428', 'mgs': 0, 'flw2': 0.46, 'flw1': 0.0, 'flw0': 2.12, 'time': 23.19, 'compass': -58.5, 'pitch': -0.14, 'roll': -3.44}
{'lipoC2': 7.3, 'temp': 0.0, 'lipoC3S3': 11.31, 'state': 'normal', 'rot1': 122, 'rot0': 115, 'rot3': 0, 'rot2': 0, 'depth': -0.293, 'yaw': -132.59, 'datetime': '2018-12-12 14:29:54.543006', 'mgs': 0, 'flw2': 0.06, 'flw1': 0.0, 'flw0': 1.9, 'time': 23.4, 'compass': -63.91, 'pitch': 0.32, 'roll': -3.99}
{'lipoC2': 7.49, 'temp': 0.0, 'lipoC3S3': 11.3, 'state': 'normal', 'rot1': 124, 'rot0': 116, 'rot3': 0, 'rot2': 0, 'depth': 1.691, 'yaw': -138.78, 'datetime': '2018-12-12 14:29:54.753195', 'mgs': 0, 'flw2': 0.4, 'flw1': 0.0, 'flw0': 2.09, 'time': 23.61, 'compass': -70.1, 'pitch': 1.11, 'roll': -3.8}
{'lipoC2': 7.5, 'temp': 0.0, 'lipoC3S3': 11.18, 'state': 'normal', 'rot1': 126, 'rot0': 117, 'rot3': 0, 'rot2': 0, 'depth': 0.928, 'yaw': -145.17, 'datetime': '2018-12-12 14:29:54.962407', 'mgs': 0, 'flw2': 1.21, 'flw1': 0.0, 'flw0': 2.22, 'time': 23.82, 'compass': -76.49, 'pitch': 1.49, 'roll': -3.21}
{'lipoC2': 7.54, 'temp': 0.0, 'lipoC3S3': 11.27, 'state': 'normal', 'rot1': 128, 'rot0': 118, 'rot3': 0, 'rot2': 0, 'depth': 0.928, 'yaw': -151.06, 'datetime': '2018-12-12 14:29:55.169073', 'mgs': 0, 'flw2': 1.21, 'flw1': 0.0, 'flw0': 1.32, 'time': 24.03, 'compass': -82.38, 'pitch': 1.57, 'roll': -2.67}
{'lipoC2': 7.22, 'temp': 0.0, 'lipoC3S3': 11.23, 'state': 'normal', 'rot1': 131, 'rot0': 120, 'rot3': 0, 'rot2': 0, 'depth': -0.98, 'yaw': -156.04, 'datetime': '2018-12-12 14:29:55.378952', 'mgs': 0, 'flw2': 1.4, 'flw1': 0.09, 'flw0': 1.26, 'time': 24.24, 'compass': -87.36, 'pitch': 1.91, 'roll': -2.44}
{'lipoC2': 7.28, 'temp': 0.0, 'lipoC3S3': 11.4, 'state': 'normal', 'rot1': 133, 'rot0': 122, 'rot3': 0, 'rot2': 0, 'depth': -0.522, 'yaw': -159.58, 'datetime': '2018-12-12 14:29:55.588785', 'mgs': 0, 'flw2': 1.84, 'flw1': 0.0, 'flw0': 1.14, 'time': 24.45, 'compass': -90.9, 'pitch': 2.2, 'roll': -2.35}
{'lipoC2': 7.28, 'temp': 0.0, 'lipoC3S3': 11.34, 'state': 'normal', 'rot1': 135, 'rot0': 124, 'rot3': 0, 'rot2': 0, 'depth': -0.522, 'yaw': -161.87, 'datetime': '2018-12-12 14:29:55.803980', 'mgs': 0, 'flw2': 2.21, 'flw1': 0.0, 'flw0': 1.37, 'time': 24.66, 'compass': -93.19, 'pitch': 2.33, 'roll': -2.61}
{'lipoC2': 7.28, 'temp': 0.0, 'lipoC3S3': 11.1, 'state': 'normal', 'rot1': 137, 'rot0': 126, 'rot3': 0, 'rot2': 0, 'depth': -0.674, 'yaw': -163.01, 'datetime': '2018-12-12 14:29:56.009740', 'mgs': 0, 'flw2': 2.28, 'flw1': 0.23, 'flw0': 1.29, 'time': 24.86, 'compass': -94.33, 'pitch': 2.28, 'roll': -2.83}
{'lipoC2': 7.15, 'temp': 0.0, 'lipoC3S3': 11.58, 'state': 'normal', 'rot1': 139, 'rot0': 129, 'rot3': 0, 'rot2': 0, 'depth': -1.361, 'yaw': -163.06, 'datetime': '2018-12-12 14:29:56.218076', 'mgs': 0, 'flw2': 2.33, 'flw1': 0.0, 'flw0': 1.07, 'time': 25.07, 'compass': -94.38, 'pitch': 2.19, 'roll': -2.61}
{'lipoC2': 7.28, 'temp': 0.0, 'lipoC3S3': 11.64, 'state': 'normal', 'rot1': 141, 'rot0': 132, 'rot3': 0, 'rot2': 0, 'depth': -0.369, 'yaw': -162.29, 'datetime': '2018-12-12 14:29:56.427693', 'mgs': 0, 'flw2': 2.5, 'flw1': 0.0, 'flw0': 1.49, 'time': 25.28, 'compass': -93.61, 'pitch': 2.17, 'roll': -2.16}
{'lipoC2': 7.23, 'temp': 0.0, 'lipoC3S3': 11.1, 'state': 'normal', 'rot1': 143, 'rot0': 134, 'rot3': 0, 'rot2': 0, 'depth': -1.59, 'yaw': -161.04, 'datetime': '2018-12-12 14:29:56.636535', 'mgs': 0, 'flw2': 2.34, 'flw1': 0.0, 'flw0': 1.06, 'time': 25.49, 'compass': -92.35, 'pitch': 2.16, 'roll': -1.77}
{'lipoC2': 7.29, 'temp': 0.0, 'lipoC3S3': 11.55, 'state': 'normal', 'rot1': 145, 'rot0': 137, 'rot3': 0, 'rot2': 0, 'depth': -0.217, 'yaw': -159.4, 'datetime': '2018-12-12 14:29:56.848950', 'mgs': 0, 'flw2': 2.45, 'flw1': 0.23, 'flw0': 1.01, 'time': 25.7, 'compass': -90.72, 'pitch': 2.06, 'roll': -1.59}
{'lipoC2': 7.39, 'temp': 0.0, 'lipoC3S3': 11.1, 'state': 'normal', 'rot1': 147, 'rot0': 139, 'rot3': 0, 'rot2': 0, 'depth': 1.233, 'yaw': -157.64, 'datetime': '2018-12-12 14:29:57.058778', 'mgs': 0, 'flw2': 2.66, 'flw1': 0.0, 'flw0': 1.07, 'time': 25.91, 'compass': -88.96, 'pitch': 1.67, 'roll': -1.68}
{'lipoC2': 7.41, 'temp': 0.0, 'lipoC3S3': 11.13, 'state': 'normal', 'rot1': 149, 'rot0': 141, 'rot3': 0, 'rot2': 0, 'depth': 0.851, 'yaw': -155.68, 'datetime': '2018-12-12 14:29:57.266847', 'mgs': 0, 'flw2': 2.38, 'flw1': 0.62, 'flw0': 0.96, 'time': 26.12, 'compass': -87.0, 'pitch': 1.32, 'roll': -1.78}
{'lipoC2': 7.42, 'temp': 0.0, 'lipoC3S3': 11.26, 'state': 'normal', 'rot1': 152, 'rot0': 143, 'rot3': 0, 'rot2': 0, 'depth': -1.437, 'yaw': -153.41, 'datetime': '2018-12-12 14:29:57.479307', 'mgs': 0, 'flw2': 2.88, 'flw1': 0.0, 'flw0': 1.57, 'time': 26.33, 'compass': -84.72, 'pitch': 1.16, 'roll': -1.79}
{'lipoC2': 7.5, 'temp': 0.0, 'lipoC3S3': 11.23, 'state': 'normal', 'rot1': 153, 'rot0': 146, 'rot3': 0, 'rot2': 0, 'depth': -1.743, 'yaw': -150.79, 'datetime': '2018-12-12 14:29:57.691857', 'mgs': 0, 'flw2': 2.76, 'flw1': 0.59, 'flw0': 1.12, 'time': 26.54, 'compass': -82.11, 'pitch': 1.43, 'roll': -1.85}
{'lipoC2': 7.18, 'temp': 0.0, 'lipoC3S3': 11.29, 'state': 'normal', 'rot1': 155, 'rot0': 148, 'rot3': 0, 'rot2': 0, 'depth': 1.462, 'yaw': -147.75, 'datetime': '2018-12-12 14:29:57.900228', 'mgs': 0, 'flw2': 3.16, 'flw1': 0.0, 'flw0': 1.23, 'time': 26.75, 'compass': -79.07, 'pitch': 1.59, 'roll': -1.71}
{'lipoC2': 7.17, 'temp': 0.0, 'lipoC3S3': 11.11, 'state': 'normal', 'rot1': 157, 'rot0': 151, 'rot3': 0, 'rot2': 0, 'depth': 1.767, 'yaw': -144.04, 'datetime': '2018-12-12 14:29:58.112769', 'mgs': 0, 'flw2': 3.06, 'flw1': 0.0, 'flw0': 1.2, 'time': 26.96, 'compass': -75.36, 'pitch': 1.26, 'roll': -1.28}
{'lipoC2': 7.24, 'temp': 0.0, 'lipoC3S3': 11.35, 'state': 'normal', 'rot1': 159, 'rot0': 153, 'rot3': 0, 'rot2': 0, 'depth': -0.217, 'yaw': -140.13, 'datetime': '2018-12-12 14:29:58.321926', 'mgs': 0, 'flw2': 3.36, 'flw1': 0.0, 'flw0': 1.55, 'time': 27.17, 'compass': -71.45, 'pitch': 0.73, 'roll': -1.14}
{'lipoC2': 7.14, 'temp': 0.0, 'lipoC3S3': 11.54, 'state': 'normal', 'rot1': 161, 'rot0': 156, 'rot3': 0, 'rot2': 0, 'depth': -0.674, 'yaw': -136.54, 'datetime': '2018-12-12 14:29:58.528276', 'mgs': 0, 'flw2': 3.41, 'flw1': 0.0, 'flw0': 1.81, 'time': 27.38, 'compass': -67.86, 'pitch': 0.7, 'roll': -1.13}
{'lipoC2': 7.48, 'temp': 0.0, 'lipoC3S3': 11.18, 'state': 'normal', 'rot1': 163, 'rot0': 158, 'rot3': 0, 'rot2': 0, 'depth': 0.851, 'yaw': -132.78, 'datetime': '2018-12-12 14:29:58.740064', 'mgs': 0, 'flw2': 3.28, 'flw1': 0.0, 'flw0': 1.95, 'time': 27.59, 'compass': -64.1, 'pitch': 1.44, 'roll': -0.84}
{'lipoC2': 7.47, 'temp': 0.0, 'lipoC3S3': 11.18, 'state': 'normal', 'rot1': 165, 'rot0': 161, 'rot3': 0, 'rot2': 0, 'depth': 0.623, 'yaw': -128.97, 'datetime': '2018-12-12 14:29:58.948356', 'mgs': 0, 'flw2': 3.25, 'flw1': 0.59, 'flw0': 1.72, 'time': 27.8, 'compass': -60.29, 'pitch': 2.28, 'roll': -0.46}
{'lipoC2': 7.21, 'temp': 0.0, 'lipoC3S3': 11.22, 'state': 'normal', 'rot1': 167, 'rot0': 164, 'rot3': 0, 'rot2': 0, 'depth': -0.369, 'yaw': -125.29, 'datetime': '2018-12-12 14:29:59.156866', 'mgs': 0, 'flw2': 3.26, 'flw1': 0.59, 'flw0': 1.88, 'time': 28.01, 'compass': -56.61, 'pitch': 2.29, 'roll': -0.36}
{'lipoC2': 7.52, 'temp': 0.0, 'lipoC3S3': 11.17, 'state': 'normal', 'rot1': 169, 'rot0': 167, 'rot3': 0, 'rot2': 0, 'depth': 0.394, 'yaw': -121.89, 'datetime': '2018-12-12 14:29:59.366346', 'mgs': 0, 'flw2': 3.42, 'flw1': 0.09, 'flw0': 2.82, 'time': 28.22, 'compass': -53.21, 'pitch': 1.69, 'roll': -0.47}
{'lipoC2': 7.35, 'temp': 0.0, 'lipoC3S3': 11.14, 'state': 'normal', 'rot1': 171, 'rot0': 169, 'rot3': 0, 'rot2': 0, 'depth': -0.369, 'yaw': -119.06, 'datetime': '2018-12-12 14:29:59.580888', 'mgs': 0, 'flw2': 3.75, 'flw1': 0.0, 'flw0': 2.92, 'time': 28.43, 'compass': -50.38, 'pitch': 1.53, 'roll': -0.37}
{'lipoC2': 7.39, 'temp': 0.0, 'lipoC3S3': 11.18, 'state': 'normal', 'rot1': 173, 'rot0': 172, 'rot3': 0, 'rot2': 0, 'depth': -0.98, 'yaw': -116.85, 'datetime': '2018-12-12 14:29:59.789185', 'mgs': 0, 'flw2': 3.16, 'flw1': 0.12, 'flw0': 2.77, 'time': 28.64, 'compass': -48.17, 'pitch': 1.72, 'roll': 0.05}
{'lipoC2': 7.29, 'temp': 0.0, 'lipoC3S3': 11.3, 'state': 'normal', 'rot1': 176, 'rot0': 174, 'rot3': 0, 'rot2': 0, 'depth': 1.691, 'yaw': -115.29, 'datetime': '2018-12-12 14:29:59.998422', 'mgs': 0, 'flw2': 3.52, 'flw1': 0.0, 'flw0': 2.92, 'time': 28.84, 'compass': -46.61, 'pitch': 1.57, 'roll': 0.34}
{'lipoC2': 7.52, 'temp': 0.0, 'lipoC3S3': 11.44, 'state': 'normal', 'rot1': 178, 'rot0': 177, 'rot3': 0, 'rot2': 0, 'depth': -0.14, 'yaw': -114.18, 'datetime': '2018-12-12 14:30:00.206267', 'mgs': 0, 'flw2': 3.7, 'flw1': 0.0, 'flw0': 2.99, 'time': 29.05, 'compass': -45.5, 'pitch': 1.15, 'roll': 0.37}
{'lipoC2': 7.27, 'temp': 0.0, 'lipoC3S3': 11.32, 'state': 'normal', 'rot1': 180, 'rot0': 179, 'rot3': 0, 'rot2': 0, 'depth': 1.462, 'yaw': -113.15, 'datetime': '2018-12-12 14:30:00.418615', 'mgs': 0, 'flw2': 3.43, 'flw1': 0.0, 'flw0': 2.76, 'time': 29.26, 'compass': -44.47, 'pitch': 0.79, 'roll': 0.13}
{'lipoC2': 7.52, 'temp': 0.0, 'lipoC3S3': 11.25, 'state': 'normal', 'rot1': 183, 'rot0': 182, 'rot3': 0, 'rot2': 0, 'depth': 0.623, 'yaw': -111.94, 'datetime': '2018-12-12 14:30:00.626226', 'mgs': 0, 'flw2': 3.31, 'flw1': 0.64, 'flw0': 2.75, 'time': 29.47, 'compass': -43.26, 'pitch': 0.8, 'roll': -0.17}
{'lipoC2': 7.29, 'temp': 0.0, 'lipoC3S3': 11.34, 'state': 'normal', 'rot1': 185, 'rot0': 184, 'rot3': 0, 'rot2': 0, 'depth': -0.522, 'yaw': -110.42, 'datetime': '2018-12-12 14:30:00.837681', 'mgs': 0, 'flw2': 3.5, 'flw1': 0.12, 'flw0': 3.15, 'time': 29.68, 'compass': -41.74, 'pitch': 0.78, 'roll': -0.07}
{'lipoC2': 7.38, 'temp': 0.0, 'lipoC3S3': 11.09, 'state': 'normal', 'rot1': 187, 'rot0': 187, 'rot3': 0, 'rot2': 0, 'depth': -0.217, 'yaw': -108.82, 'datetime': '2018-12-12 14:30:01.045282', 'mgs': 0, 'flw2': 3.25, 'flw1': 0.0, 'flw0': 2.55, 'time': 29.89, 'compass': -40.14, 'pitch': 0.5, 'roll': 0.3}
{'lipoC2': 7.34, 'temp': 0.0, 'lipoC3S3': 11.03, 'state': 'normal', 'rot1': 190, 'rot0': 190, 'rot3': 0, 'rot2': 0, 'depth': 0.699, 'yaw': -107.19, 'datetime': '2018-12-12 14:30:01.256562', 'mgs': 0, 'flw2': 3.48, 'flw1': 0.0, 'flw0': 2.81, 'time': 30.1, 'compass': -38.51, 'pitch': 0.35, 'roll': 0.59}
{'lipoC2': 7.28, 'temp': 0.0, 'lipoC3S3': 11.38, 'state': 'normal', 'rot1': 192, 'rot0': 192, 'rot3': 0, 'rot2': 0, 'depth': 1.614, 'yaw': -105.74, 'datetime': '2018-12-12 14:30:01.465850', 'mgs': 0, 'flw2': 3.49, 'flw1': 0.09, 'flw0': 2.77, 'time': 30.31, 'compass': -37.06, 'pitch': 0.09, 'roll': 0.58}
{'lipoC2': 7.3, 'temp': 0.0, 'lipoC3S3': 11.01, 'state': 'normal', 'rot1': 195, 'rot0': 195, 'rot3': 0, 'rot2': 0, 'depth': 2.53, 'yaw': -104.09, 'datetime': '2018-12-12 14:30:01.681854', 'mgs': 0, 'flw2': 3.31, 'flw1': 0.0, 'flw0': 2.64, 'time': 30.52, 'compass': -35.41, 'pitch': -0.41, 'roll': 0.42}
{'lipoC2': 7.44, 'temp': 0.0, 'lipoC3S3': 10.97, 'state': 'normal', 'rot1': 197, 'rot0': 197, 'rot3': 0, 'rot2': 0, 'depth': -0.522, 'yaw': -102.33, 'datetime': '2018-12-12 14:30:01.886460', 'mgs': 0, 'flw2': 3.3, 'flw1': 0.23, 'flw0': 2.8, 'time': 30.73, 'compass': -33.65, 'pitch': -0.51, 'roll': 0.18}
{'lipoC2': 7.3, 'temp': 0.0, 'lipoC3S3': 11.47, 'state': 'normal', 'rot1': 200, 'rot0': 200, 'rot3': 0, 'rot2': 0, 'depth': -0.064, 'yaw': -100.24, 'datetime': '2018-12-12 14:30:02.096439', 'mgs': 0, 'flw2': 3.53, 'flw1': 0.09, 'flw0': 3.0, 'time': 30.94, 'compass': -31.56, 'pitch': -0.51, 'roll': 0.2}
{'lipoC2': 7.44, 'temp': 0.0, 'lipoC3S3': 11.1, 'state': 'normal', 'rot1': 202, 'rot0': 202, 'rot3': 0, 'rot2': 0, 'depth': 0.851, 'yaw': -97.99, 'datetime': '2018-12-12 14:30:02.309547', 'mgs': 0, 'flw2': 3.82, 'flw1': 0.0, 'flw0': 2.89, 'time': 31.15, 'compass': -29.31, 'pitch': -0.46, 'roll': 0.26}
{'lipoC2': 7.3, 'temp': 0.0, 'lipoC3S3': 11.15, 'state': 'normal', 'rot1': 204, 'rot0': 205, 'rot3': 0, 'rot2': 0, 'depth': 1.691, 'yaw': -95.75, 'datetime': '2018-12-12 14:30:02.516644', 'mgs': 0, 'flw2': 3.42, 'flw1': 0.03, 'flw0': 2.84, 'time': 31.36, 'compass': -27.07, 'pitch': -0.1, 'roll': 0.43}
{'lipoC2': 7.28, 'temp': 0.0, 'lipoC3S3': 11.21, 'state': 'normal', 'rot1': 207, 'rot0': 207, 'rot3': 0, 'rot2': 0, 'depth': -0.217, 'yaw': -93.53, 'datetime': '2018-12-12 14:30:02.725318', 'mgs': 0, 'flw2': 3.2, 'flw1': 0.0, 'flw0': 3.1, 'time': 31.57, 'compass': -24.85, 'pitch': 0.43, 'roll': 0.42}
{'lipoC2': 7.27, 'temp': 0.0, 'lipoC3S3': 11.11, 'state': 'normal', 'rot1': 209, 'rot0': 210, 'rot3': 0, 'rot2': 0, 'depth': 1.691, 'yaw': -91.16, 'datetime': '2018-12-12 14:30:02.934417', 'mgs': 0, 'flw2': 3.16, 'flw1': 0.0, 'flw0': 2.71, 'time': 31.78, 'compass': -22.48, 'pitch': 0.61, 'roll': 0.62}
{'lipoC2': 7.22, 'temp': 0.0, 'lipoC3S3': 11.32, 'state': 'normal', 'rot1': 212, 'rot0': 212, 'rot3': 0, 'rot2': 0, 'depth': 0.317, 'yaw': -88.65, 'datetime': '2018-12-12 14:30:03.144396', 'mgs': 0, 'flw2': 3.45, 'flw1': 0.0, 'flw0': 3.14, 'time': 31.99, 'compass': -19.97, 'pitch': 0.31, 'roll': 0.71}
{'lipoC2': 7.51, 'temp': 0.0, 'lipoC3S3': 11.15, 'state': 'normal', 'rot1': 214, 'rot0': 215, 'rot3': 0, 'rot2': 0, 'depth': -1.437, 'yaw': -86.18, 'datetime': '2018-12-12 14:30:03.352508', 'mgs': 0, 'flw2': 2.6, 'flw1': 0.59, 'flw0': 2.92, 'time': 32.2, 'compass': -17.5, 'pitch': 0.13, 'roll': 0.78}
{'lipoC2': 7.49, 'temp': 0.0, 'lipoC3S3': 10.9, 'state': 'normal', 'rot1': 217, 'rot0': 217, 'rot3': 0, 'rot2': 0, 'depth': -0.598, 'yaw': -83.96, 'datetime': '2018-12-12 14:30:03.563012', 'mgs': 0, 'flw2': 1.97, 'flw1': 0.0, 'flw0': 3.38, 'time': 32.41, 'compass': -15.28, 'pitch': 0.17, 'roll': 1.22}
{'lipoC2': 7.28, 'temp': 0.0, 'lipoC3S3': 11.38, 'state': 'normal', 'rot1': 219, 'rot0': 219, 'rot3': 0, 'rot2': 0, 'depth': 0.394, 'yaw': -82.58, 'datetime': '2018-12-12 14:30:03.772460', 'mgs': 0, 'flw2': 1.93, 'flw1': 0.0, 'flw0': 3.53, 'time': 32.61, 'compass': -13.9, 'pitch': 0.12, 'roll': 1.48}
{'lipoC2': 7.29, 'temp': 0.0, 'lipoC3S3': 11.25, 'state': 'normal', 'rot1': 222, 'rot0': 221, 'rot3': 0, 'rot2': 0, 'depth': -0.369, 'yaw': -82.43, 'datetime': '2018-12-12 14:30:03.984399', 'mgs': 0, 'flw2': 0.0, 'flw1': 0.0, 'flw0': 0.52, 'time': 32.82, 'compass': -13.75, 'pitch': -0.42, 'roll': 1.22}
{'lipoC2': 7.25, 'temp': 0.0, 'lipoC3S3': 11.32, 'state': 'normal', 'rot1': 222, 'rot0': 221, 'rot3': 0, 'rot2': 0, 'depth': -0.598, 'yaw': -82.8, 'datetime': '2018-12-12 14:30:04.193432', 'mgs': 0, 'flw2': 0.0, 'flw1': 0.09, 'flw0': 0.0, 'time': 33.03, 'compass': -14.12, 'pitch': -2.23, 'roll': 1.04}
{'lipoC2': 7.3, 'temp': 0.0, 'lipoC3S3': 11.23, 'state': 'normal', 'rot1': 222, 'rot0': 221, 'rot3': 0, 'rot2': 0, 'depth': 0.394, 'yaw': -82.39, 'datetime': '2018-12-12 14:30:04.403621', 'mgs': 0, 'flw2': 0.24, 'flw1': 0.0, 'flw0': 0.0, 'time': 33.24, 'compass': -13.71, 'pitch': -4.19, 'roll': 0.96}
{'lipoC2': 7.5, 'temp': 0.0, 'lipoC3S3': 11.31, 'state': 'normal', 'rot1': 222, 'rot0': 221, 'rot3': 0, 'rot2': 0, 'depth': -1.666, 'yaw': -81.46, 'datetime': '2018-12-12 14:30:04.612845', 'mgs': 0, 'flw2': 0.0, 'flw1': 0.09, 'flw0': 0.0, 'time': 33.45, 'compass': -12.78, 'pitch': -4.43, 'roll': 0.77}
{'lipoC2': 7.2, 'temp': 0.0, 'lipoC3S3': 11.35, 'state': 'normal', 'rot1': 222, 'rot0': 221, 'rot3': 0, 'rot2': 0, 'depth': -0.217, 'yaw': -80.18, 'datetime': '2018-12-12 14:30:04.820050', 'mgs': 0, 'flw2': 0.0, 'flw1': 0.0, 'flw0': 0.0, 'time': 33.66, 'compass': -11.5, 'pitch': -3.72, 'roll': 0.86}
{'lipoC2': 7.17, 'temp': 0.0, 'lipoC3S3': 11.29, 'state': 'normal', 'rot1': 222, 'rot0': 221, 'rot3': 0, 'rot2': 0, 'depth': 1.538, 'yaw': -78.66, 'datetime': '2018-12-12 14:30:05.028366', 'mgs': 0, 'flw2': 0.22, 'flw1': 0.0, 'flw0': 0.0, 'time': 33.87, 'compass': -9.98, 'pitch': -3.49, 'roll': 0.98}
{'lipoC2': 7.27, 'temp': 0.0, 'lipoC3S3': 11.44, 'state': 'normal', 'rot1': 222, 'rot0': 221, 'rot3': 0, 'rot2': 0, 'depth': -0.14, 'yaw': -76.98, 'datetime': '2018-12-12 14:30:05.237487', 'mgs': 0, 'flw2': 0.02, 'flw1': 0.0, 'flw0': 0.1, 'time': 34.08, 'compass': -8.3, 'pitch': -3.75, 'roll': 0.75}
{'lipoC2': 7.26, 'temp': 0.0, 'lipoC3S3': 11.18, 'state': 'normal', 'rot1': 222, 'rot0': 221, 'rot3': 0, 'rot2': 0, 'depth': -0.369, 'yaw': -75.08, 'datetime': '2018-12-12 14:30:05.448042', 'mgs': 0, 'flw2': 0.0, 'flw1': 0.06, 'flw0': 0.0, 'time': 34.29, 'compass': -6.4, 'pitch': -3.8, 'roll': 0.41}
{'lipoC2': 7.28, 'temp': 0.0, 'lipoC3S3': 11.4, 'state': 'normal', 'rot1': 222, 'rot0': 221, 'rot3': 0, 'rot2': 0, 'depth': 2.148, 'yaw': -73.07, 'datetime': '2018-12-12 14:30:05.659260', 'mgs': 0, 'flw2': 0.05, 'flw1': 0.0, 'flw0': 0.0, 'time': 34.5, 'compass': -4.39, 'pitch': -3.77, 'roll': 0.37}
{'lipoC2': 7.27, 'temp': 0.0, 'lipoC3S3': 11.55, 'state': 'normal', 'rot1': 222, 'rot0': 221, 'rot3': 0, 'rot2': 0, 'depth': -0.369, 'yaw': -71.0, 'datetime': '2018-12-12 14:30:05.867357', 'mgs': 0, 'flw2': 0.0, 'flw1': 0.0, 'flw0': 0.0, 'time': 34.71, 'compass': -2.32, 'pitch': -4.03, 'roll': 0.82}
{'lipoC2': 7.29, 'temp': 0.0, 'lipoC3S3': 11.46, 'state': 'normal', 'rot1': 222, 'rot0': 221, 'rot3': 0, 'rot2': 0, 'depth': -0.064, 'yaw': -69.04, 'datetime': '2018-12-12 14:30:06.076322', 'mgs': 0, 'flw2': 0.01, 'flw1': 0.03, 'flw0': 0.13, 'time': 34.92, 'compass': -0.36, 'pitch': -4.32, 'roll': 1.52}
{'lipoC2': 7.32, 'temp': 0.0, 'lipoC3S3': 11.07, 'state': 'normal', 'rot1': 222, 'rot0': 221, 'rot3': 0, 'rot2': 0, 'depth': 1.233, 'yaw': -67.05, 'datetime': '2018-12-12 14:30:06.285804', 'mgs': 0, 'flw2': 0.0, 'flw1': 0.47, 'flw0': 0.0, 'time': 35.12, 'compass': 1.63, 'pitch': -4.09, 'roll': 1.84}
{'lipoC2': 7.29, 'temp': 0.0, 'lipoC3S3': 11.17, 'state': 'normal', 'rot1': 222, 'rot0': 221, 'rot3': 0, 'rot2': 0, 'depth': 1.767, 'yaw': -65.19, 'datetime': '2018-12-12 14:30:06.496070', 'mgs': 0, 'flw2': 0.0, 'flw1': 0.23, 'flw0': 0.0, 'time': 35.33, 'compass': 3.49, 'pitch': -3.39, 'roll': 1.62}
{'lipoC2': 7.51, 'temp': 0.0, 'lipoC3S3': 11.23, 'state': 'normal', 'rot1': 222, 'rot0': 221, 'rot3': 0, 'rot2': 0, 'depth': 0.623, 'yaw': -63.26, 'datetime': '2018-12-12 14:30:06.706158', 'mgs': 0, 'flw2': 0.0, 'flw1': 0.06, 'flw0': 0.0, 'time': 35.54, 'compass': 5.42, 'pitch': -3.55, 'roll': 1.46}
{'lipoC2': 7.24, 'temp': 0.0, 'lipoC3S3': 11.17, 'state': 'normal', 'rot1': 224, 'rot0': 221, 'rot3': 0, 'rot2': 0, 'depth': -0.369, 'yaw': -61.87, 'datetime': '2018-12-12 14:30:06.917084', 'mgs': 0, 'flw2': 0.0, 'flw1': 0.0, 'flw0': 2.84, 'time': 35.75, 'compass': 6.81, 'pitch': -4.74, 'roll': 1.31}
{'lipoC2': 7.47, 'temp': 0.0, 'lipoC3S3': 11.09, 'state': 'normal', 'rot1': 226, 'rot0': 221, 'rot3': 0, 'rot2': 0, 'depth': -1.056, 'yaw': -63.46, 'datetime': '2018-12-12 14:30:07.124945', 'mgs': 0, 'flw2': 0.22, 'flw1': 0.0, 'flw0': 2.44, 'time': 35.96, 'compass': 5.22, 'pitch': -4.03, 'roll': 0.35}
{'lipoC2': 7.51, 'temp': 0.0, 'lipoC3S3': 11.23, 'state': 'normal', 'rot1': 228, 'rot0': 221, 'rot3': 0, 'rot2': 0, 'depth': -0.827, 'yaw': -67.28, 'datetime': '2018-12-12 14:30:07.334558', 'mgs': 0, 'flw2': 0.0, 'flw1': 0.59, 'flw0': 2.05, 'time': 36.17, 'compass': 1.4, 'pitch': -2.22, 'roll': -0.26}
{'lipoC2': 7.18, 'temp': 0.0, 'lipoC3S3': 11.36, 'state': 'normal', 'rot1': 231, 'rot0': 221, 'rot3': 0, 'rot2': 0, 'depth': 1.309, 'yaw': -72.13, 'datetime': '2018-12-12 14:30:07.543955', 'mgs': 0, 'flw2': 0.11, 'flw1': 0.0, 'flw0': 2.2, 'time': 36.38, 'compass': -3.45, 'pitch': -1.96, 'roll': -0.23}
{'lipoC2': 7.26, 'temp': 0.0, 'lipoC3S3': 11.26, 'state': 'normal', 'rot1': 233, 'rot0': 221, 'rot3': 0, 'rot2': 0, 'depth': -0.293, 'yaw': -78.13, 'datetime': '2018-12-12 14:30:07.755941', 'mgs': 0, 'flw2': 0.0, 'flw1': 0.64, 'flw0': 1.88, 'time': 36.59, 'compass': -9.45, 'pitch': -3.41, 'roll': -0.13}
{'lipoC2': 7.42, 'temp': 0.0, 'lipoC3S3': 11.27, 'state': 'normal', 'rot1': 235, 'rot0': 221, 'rot3': 0, 'rot2': 0, 'depth': -0.751, 'yaw': -84.65, 'datetime': '2018-12-12 14:30:07.960392', 'mgs': 0, 'flw2': 0.24, 'flw1': 0.0, 'flw0': 2.21, 'time': 36.8, 'compass': -15.97, 'pitch': -4.26, 'roll': -0.56}
{'lipoC2': 7.4, 'temp': 0.0, 'lipoC3S3': 11.06, 'state': 'normal', 'rot1': 237, 'rot0': 221, 'rot3': 0, 'rot2': 0, 'depth': -0.293, 'yaw': -91.46, 'datetime': '2018-12-12 14:30:08.170103', 'mgs': 0, 'flw2': 0.0, 'flw1': 0.62, 'flw0': 1.94, 'time': 37.01, 'compass': -22.78, 'pitch': -3.44, 'roll': -1.12}
{'lipoC2': 7.26, 'temp': 0.0, 'lipoC3S3': 11.32, 'state': 'normal', 'rot1': 239, 'rot0': 221, 'rot3': 0, 'rot2': 0, 'depth': 0.241, 'yaw': -98.49, 'datetime': '2018-12-12 14:30:08.379589', 'mgs': 0, 'flw2': 0.0, 'flw1': 0.0, 'flw0': 1.71, 'time': 37.22, 'compass': -29.81, 'pitch': -2.53, 'roll': -1.5}
{'lipoC2': 7.25, 'temp': 0.0, 'lipoC3S3': 11.29, 'state': 'normal', 'rot1': 242, 'rot0': 221, 'rot3': 0, 'rot2': 0, 'depth': -1.208, 'yaw': -105.92, 'datetime': '2018-12-12 14:30:08.587906', 'mgs': 0, 'flw2': 0.13, 'flw1': 0.0, 'flw0': 2.06, 'time': 37.43, 'compass': -37.24, 'pitch': -2.53, 'roll': -2.14}
{'lipoC2': 7.26, 'temp': 0.0, 'lipoC3S3': 11.39, 'state': 'normal', 'rot1': 244, 'rot0': 221, 'rot3': 0, 'rot2': 0, 'depth': -0.598, 'yaw': -113.6, 'datetime': '2018-12-12 14:30:08.797542', 'mgs': 0, 'flw2': 0.28, 'flw1': 0.0, 'flw0': 1.97, 'time': 37.64, 'compass': -44.92, 'pitch': -2.92, 'roll': -2.84}
{'lipoC2': 7.3, 'temp': 0.0, 'lipoC3S3': 11.32, 'state': 'normal', 'rot1': 247, 'rot0': 221, 'rot3': 0, 'rot2': 0, 'depth': 0.012, 'yaw': -121.21, 'datetime': '2018-12-12 14:30:09.008756', 'mgs': 0, 'flw2': 0.0, 'flw1': 0.0, 'flw0': 1.81, 'time': 37.85, 'compass': -52.53, 'pitch': -2.8, 'roll': -3.42}
{'lipoC2': 7.25, 'temp': 0.0, 'lipoC3S3': 11.39, 'state': 'normal', 'rot1': 249, 'rot0': 221, 'rot3': 0, 'rot2': 0, 'depth': -0.827, 'yaw': -129.67, 'datetime': '2018-12-12 14:30:09.218913', 'mgs': 0, 'flw2': 0.13, 'flw1': 0.26, 'flw0': 2.05, 'time': 38.06, 'compass': -60.99, 'pitch': -2.19, 'roll': -4.16}
{'lipoC2': 7.44, 'temp': 0.0, 'lipoC3S3': 10.94, 'state': 'normal', 'rot1': 252, 'rot0': 222, 'rot3': 0, 'rot2': 0, 'depth': -0.827, 'yaw': -138.32, 'datetime': '2018-12-12 14:30:09.433193', 'mgs': 0, 'flw2': 0.48, 'flw1': 0.0, 'flw0': 1.79, 'time': 38.26, 'compass': -69.64, 'pitch': -1.64, 'roll': -4.96}
{'lipoC2': 7.49, 'temp': 0.0, 'lipoC3S3': 11.27, 'state': 'normal', 'rot1': 254, 'rot0': 223, 'rot3': 0, 'rot2': 0, 'depth': -1.056, 'yaw': -146.51, 'datetime': '2018-12-12 14:30:09.650804', 'mgs': 0, 'flw2': 0.73, 'flw1': 0.0, 'flw0': 2.12, 'time': 38.47, 'compass': -77.83, 'pitch': -0.87, 'roll': -5.51}
{'lipoC2': 7.37, 'temp': 0.0, 'lipoC3S3': 11.25, 'state': 'normal', 'rot1': 256, 'rot0': 224, 'rot3': 0, 'rot2': 0, 'depth': 1.92, 'yaw': -153.99, 'datetime': '2018-12-12 14:30:09.855521', 'mgs': 0, 'flw2': 1.16, 'flw1': 0.0, 'flw0': 1.86, 'time': 38.68, 'compass': -85.31, 'pitch': 0.08, 'roll': -5.57}
{'lipoC2': 7.24, 'temp': 0.0, 'lipoC3S3': 11.31, 'state': 'normal', 'rot1': 258, 'rot0': 226, 'rot3': 0, 'rot2': 0, 'depth': -0.446, 'yaw': -160.74, 'datetime': '2018-12-12 14:30:10.064605', 'mgs': 0, 'flw2': 1.26, 'flw1': 0.0, 'flw0': 1.84, 'time': 38.89, 'compass': -92.06, 'pitch': 0.74, 'roll': -5.52}
{'lipoC2': 7.29, 'temp': 0.0, 'lipoC3S3': 11.5, 'state': 'normal', 'rot1': 260, 'rot0': 228, 'rot3': 0, 'rot2': 0, 'depth': 0.699, 'yaw': -166.87, 'datetime': '2018-12-12 14:30:10.278606', 'mgs': 0, 'flw2': 2.23, 'flw1': 0.0, 'flw0': 2.23, 'time': 39.1, 'compass': -98.19, 'pitch': 1.34, 'roll': -5.49}
{'lipoC2': 7.29, 'temp': 0.0, 'lipoC3S3': 11.25, 'state': 'normal', 'rot1': 264, 'rot0': 231, 'rot3': 0, 'rot2': 0, 'depth': 2.682, 'yaw': -174.26, 'datetime': '2018-12-12 14:30:10.583694', 'mgs': 0, 'flw2': 1.98, 'flw1': 0.0, 'flw0': 1.7, 'time': 39.42, 'compass': -105.58, 'pitch': 2.33, 'roll': -5.76}
{'lipoC2': 7.33, 'temp': 0.0, 'lipoC3S3': 11.55, 'state': 'normal', 'rot1': 265, 'rot0': 233, 'rot3': 0, 'rot2': 0, 'depth': -0.827, 'yaw': -178.15, 'datetime': '2018-12-12 14:30:10.794257', 'mgs': 0, 'flw2': 2.26, 'flw1': 0.0, 'flw0': 2.17, 'time': 39.63, 'compass': -109.47, 'pitch': 2.52, 'roll': -5.97}
{'lipoC2': 7.5, 'temp': 0.0, 'lipoC3S3': 11.23, 'state': 'normal', 'rot1': 267, 'rot0': 235, 'rot3': 0, 'rot2': 0, 'depth': 1.233, 'yaw': 178.68, 'datetime': '2018-12-12 14:30:11.003915', 'mgs': 0, 'flw2': 1.84, 'flw1': 0.44, 'flw0': 1.82, 'time': 39.84, 'compass': -112.63, 'pitch': 2.52, 'roll': -6.03}
{'lipoC2': 7.36, 'temp': 0.0, 'lipoC3S3': 10.9, 'state': 'normal', 'rot1': 269, 'rot0': 237, 'rot3': 0, 'rot2': 0, 'depth': 0.699, 'yaw': 176.24, 'datetime': '2018-12-12 14:30:11.212159', 'mgs': 0, 'flw2': 2.45, 'flw1': 0.0, 'flw0': 2.12, 'time': 40.04, 'compass': -115.08, 'pitch': 2.43, 'roll': -5.81}
{'lipoC2': 7.46, 'temp': 0.0, 'lipoC3S3': 11.15, 'state': 'normal', 'rot1': 271, 'rot0': 239, 'rot3': 0, 'rot2': 0, 'depth': 0.851, 'yaw': 174.28, 'datetime': '2018-12-12 14:30:11.423268', 'mgs': 0, 'flw2': 2.25, 'flw1': 0.0, 'flw0': 1.72, 'time': 40.26, 'compass': -117.04, 'pitch': 2.14, 'roll': -5.33}
{'lipoC2': 7.43, 'temp': 0.0, 'lipoC3S3': 11.26, 'state': 'normal', 'rot1': 273, 'rot0': 242, 'rot3': 0, 'rot2': 0, 'depth': 0.851, 'yaw': 172.74, 'datetime': '2018-12-12 14:30:11.632725', 'mgs': 0, 'flw2': 2.19, 'flw1': 0.59, 'flw0': 1.72, 'time': 40.47, 'compass': -118.58, 'pitch': 1.92, 'roll': -4.79}
{'lipoC2': 7.34, 'temp': 0.0, 'lipoC3S3': 11.1, 'state': 'normal', 'rot1': 275, 'rot0': 244, 'rot3': 0, 'rot2': 0, 'depth': 2.225, 'yaw': 171.63, 'datetime': '2018-12-12 14:30:11.842669', 'mgs': 0, 'flw2': 2.44, 'flw1': 0.0, 'flw0': 1.86, 'time': 40.67, 'compass': -119.69, 'pitch': 2.17, 'roll': -4.52}
{'lipoC2': 7.51, 'temp': 0.0, 'lipoC3S3': 11.06, 'state': 'normal', 'rot1': 277, 'rot0': 246, 'rot3': 0, 'rot2': 0, 'depth': -1.285, 'yaw': 170.94, 'datetime': '2018-12-12 14:30:12.051899', 'mgs': 0, 'flw2': 2.2, 'flw1': 0.0, 'flw0': 1.61, 'time': 40.88, 'compass': -120.38, 'pitch': 2.31, 'roll': -4.49}
{'lipoC2': 7.15, 'temp': 0.0, 'lipoC3S3': 11.54, 'state': 'normal', 'rot1': 279, 'rot0': 248, 'rot3': 0, 'rot2': 0, 'depth': -0.751, 'yaw': 170.72, 'datetime': '2018-12-12 14:30:12.261905', 'mgs': 0, 'flw2': 2.54, 'flw1': 0.0, 'flw0': 2.04, 'time': 41.09, 'compass': -120.6, 'pitch': 1.62, 'roll': -4.44}
{'lipoC2': 7.44, 'temp': 0.0, 'lipoC3S3': 10.98, 'state': 'normal', 'rot1': 281, 'rot0': 250, 'rot3': 0, 'rot2': 0, 'depth': -0.217, 'yaw': 170.74, 'datetime': '2018-12-12 14:30:12.471854', 'mgs': 0, 'flw2': 2.27, 'flw1': 0.0, 'flw0': 2.01, 'time': 41.3, 'compass': -120.58, 'pitch': 0.99, 'roll': -4.24}
{'lipoC2': 7.32, 'temp': 0.0, 'lipoC3S3': 10.96, 'state': 'normal', 'rot1': 283, 'rot0': 253, 'rot3': 0, 'rot2': 0, 'depth': 1.538, 'yaw': 170.84, 'datetime': '2018-12-12 14:30:12.681140', 'mgs': 0, 'flw2': 2.36, 'flw1': 0.0, 'flw0': 1.59, 'time': 41.51, 'compass': -120.48, 'pitch': 1.38, 'roll': -3.99}
{'lipoC2': 7.52, 'temp': 0.0, 'lipoC3S3': 11.21, 'state': 'normal', 'rot1': 285, 'rot0': 255, 'rot3': 0, 'rot2': 0, 'depth': -1.132, 'yaw': 171.4, 'datetime': '2018-12-12 14:30:12.892100', 'mgs': 0, 'flw2': 2.37, 'flw1': 0.26, 'flw0': 1.79, 'time': 41.72, 'compass': -119.92, 'pitch': 2.2, 'roll': -3.79}
{'lipoC2': 7.36, 'temp': 0.0, 'lipoC3S3': 11.23, 'state': 'normal', 'rot1': 287, 'rot0': 258, 'rot3': 0, 'rot2': 0, 'depth': 0.165, 'yaw': 172.43, 'datetime': '2018-12-12 14:30:13.102984', 'mgs': 0, 'flw2': 2.23, 'flw1': 0.0, 'flw0': 1.65, 'time': 41.93, 'compass': -118.89, 'pitch': 2.3, 'roll': -3.63}
{'lipoC2': 7.2, 'temp': 0.0, 'lipoC3S3': 11.1, 'state': 'normal', 'rot1': 289, 'rot0': 260, 'rot3': 0, 'rot2': 0, 'depth': 1.309, 'yaw': 173.68, 'datetime': '2018-12-12 14:30:13.311352', 'mgs': 0, 'flw2': 2.29, 'flw1': 0.0, 'flw0': 1.5, 'time': 42.14, 'compass': -117.64, 'pitch': 1.7, 'roll': -3.59}
{'lipoC2': 7.26, 'temp': 0.0, 'lipoC3S3': 11.32, 'state': 'normal', 'rot1': 291, 'rot0': 262, 'rot3': 0, 'rot2': 0, 'depth': -0.674, 'yaw': 175.19, 'datetime': '2018-12-12 14:30:13.521656', 'mgs': 0, 'flw2': 2.56, 'flw1': 0.0, 'flw0': 1.65, 'time': 42.35, 'compass': -116.13, 'pitch': 1.26, 'roll': -3.69}
{'lipoC2': 7.52, 'temp': 0.0, 'lipoC3S3': 11.18, 'state': 'normal', 'rot1': 293, 'rot0': 264, 'rot3': 0, 'rot2': 0, 'depth': -0.217, 'yaw': 176.97, 'datetime': '2018-12-12 14:30:13.729718', 'mgs': 0, 'flw2': 2.39, 'flw1': 0.0, 'flw0': 1.94, 'time': 42.56, 'compass': -114.35, 'pitch': 1.31, 'roll': -3.65}
{'lipoC2': 7.53, 'temp': 0.0, 'lipoC3S3': 11.23, 'state': 'normal', 'rot1': 295, 'rot0': 266, 'rot3': 0, 'rot2': 0, 'depth': -0.064, 'yaw': 178.72, 'datetime': '2018-12-12 14:30:13.940054', 'mgs': 0, 'flw2': 2.12, 'flw1': 0.47, 'flw0': 1.65, 'time': 42.77, 'compass': -112.6, 'pitch': 1.47, 'roll': -3.25}
{'lipoC2': 7.29, 'temp': 0.0, 'lipoC3S3': 11.13, 'state': 'normal', 'rot1': 297, 'rot0': 268, 'rot3': 0, 'rot2': 0, 'depth': 0.012, 'yaw': 179.99, 'datetime': '2018-12-12 14:30:14.149960', 'mgs': 0, 'flw2': 1.53, 'flw1': 0.0, 'flw0': 2.34, 'time': 42.98, 'compass': -111.33, 'pitch': 1.24, 'roll': -3.08}
{'lipoC2': 7.2, 'temp': 0.0, 'lipoC3S3': 11.38, 'state': 'normal', 'rot1': 299, 'rot0': 270, 'rot3': 0, 'rot2': 0, 'depth': 0.012, 'yaw': 179.76, 'datetime': '2018-12-12 14:30:14.362109', 'mgs': 0, 'flw2': 1.26, 'flw1': 0.0, 'flw0': 2.76, 'time': 43.19, 'compass': -111.56, 'pitch': 1.05, 'roll': -3.5}
{'lipoC2': 7.34, 'temp': 0.0, 'lipoC3S3': 11.26, 'state': 'normal', 'rot1': 302, 'rot0': 271, 'rot3': 0, 'rot2': 0, 'depth': 0.851, 'yaw': 178.32, 'datetime': '2018-12-12 14:30:14.571978', 'mgs': 0, 'flw2': 1.22, 'flw1': 0.0, 'flw0': 2.93, 'time': 43.4, 'compass': -113.0, 'pitch': 1.39, 'roll': -4.42}
