{'lipoC3S3': 0.0, 'datetime': '2019-02-27 09:45:54.883168', 'pitch': 1.13, 'rot1': 0, 'rot0': 0, 'rot3': 0, 'rot2': 0, 'state': 'normal', 'flw3': 0, 'flw2': 0, 'flw1': 0, 'flw0': 0, 'roll': 0.35, 'cur2': 0.0, 'cur0': 0.0, 'cur1': 0.0, 'mgs': 0, 'compass': 3.98, 'lipoC2': 0.0, 'temp': 24.65, 'thr3': 37.0, 'depth': 0.119, 'time': 1.55, 'thr2': 32.0, 'yaw': 0.0, 'thr0': 28.0, 'thr1': 27.0}
{'lipoC3S3': 0.0, 'datetime': '2019-02-27 09:45:55.205048', 'pitch': 1.13, 'rot1': 0, 'rot0': 0, 'rot3': 0, 'rot2': 0, 'state': 'normal', 'flw3': 0, 'flw2': 0, 'flw1': 0, 'flw0': 0, 'roll': 0.35, 'cur2': 0.0, 'cur0': 0.0, 'cur1': 0.0, 'mgs': 0, 'compass': 3.98, 'lipoC2': 0.0, 'temp': 24.65, 'thr3': 36.0, 'depth': 0.119, 'time': 1.87, 'thr2': 32.0, 'yaw': 0.0, 'thr0': 28.0, 'thr1': 27.0}
{'lipoC3S3': 0.0, 'datetime': '2019-02-27 09:45:55.524293', 'pitch': 1.13, 'rot1': 4, 'rot0': 8, 'rot3': 6, 'rot2': 9, 'state': 'normal', 'flw3': 0, 'flw2': 0, 'flw1': 0, 'flw0': 0, 'roll': 0.35, 'cur2': 1.03, 'cur0': 0.98, 'cur1': 1.11, 'mgs': 0, 'compass': 3.98, 'lipoC2': 0.0, 'temp': 24.65, 'thr3': 36.0, 'depth': 0.129, 'time': 2.2, 'thr2': 32.0, 'yaw': 0.0, 'thr0': 27.0, 'thr1': 27.0}
{'lipoC3S3': 0.0, 'datetime': '2019-02-27 09:45:55.848109', 'pitch': 1.13, 'rot1': 12, 'rot0': 14, 'rot3': 7, 'rot2': 10, 'state': 'normal', 'flw3': 0, 'flw2': 0, 'flw1': 0, 'flw0': 0, 'roll': 0.35, 'cur2': 0.93, 'cur0': 0.87, 'cur1': 1.0, 'mgs': 0, 'compass': 3.98, 'lipoC2': 0.0, 'temp': 24.66, 'thr3': 36.0, 'depth': 0.129, 'time': 2.52, 'thr2': 32.0, 'yaw': 0.0, 'thr0': 27.0, 'thr1': 27.0}
{'lipoC3S3': 0.0, 'datetime': '2019-02-27 09:45:56.168227', 'pitch': 1.13, 'rot1': 24, 'rot0': 18, 'rot3': 8, 'rot2': 11, 'state': 'normal', 'flw3': 0, 'flw2': 0, 'flw1': 0, 'flw0': 0, 'roll': 0.35, 'cur2': 0.98, 'cur0': 0.83, 'cur1': 0.97, 'mgs': 0, 'compass': 3.98, 'lipoC2': 0.0, 'temp': 24.66, 'thr3': 36.0, 'depth': 0.119, 'time': 2.84, 'thr2': 32.0, 'yaw': 0.0, 'thr0': 27.0, 'thr1': 27.0}
{'lipoC3S3': 0.0, 'datetime': '2019-02-27 09:45:56.490864', 'pitch': 1.13, 'rot1': 32, 'rot0': 22, 'rot3': 9, 'rot2': 12, 'state': 'normal', 'flw3': 0, 'flw2': 0, 'flw1': 0, 'flw0': 0, 'roll': 0.35, 'cur2': 0.94, 'cur0': 0.92, 'cur1': 0.97, 'mgs': 0, 'compass': 3.98, 'lipoC2': 0.0, 'temp': 24.66, 'thr3': 35.0, 'depth': 0.119, 'time': 3.16, 'thr2': 30.0, 'yaw': 0.0, 'thr0': 28.0, 'thr1': 27.0}
{'lipoC3S3': 0.0, 'datetime': '2019-02-27 09:45:56.815714', 'pitch': 1.13, 'rot1': 39, 'rot0': 30, 'rot3': 9, 'rot2': 13, 'state': 'normal', 'flw3': 0, 'flw2': 0, 'flw1': 0, 'flw0': 0, 'roll': 0.35, 'cur2': 0.9, 'cur0': 0.85, 'cur1': 0.94, 'mgs': 0, 'compass': 3.98, 'lipoC2': 0.0, 'temp': 24.66, 'thr3': 35.0, 'depth': 0.119, 'time': 3.48, 'thr2': 32.0, 'yaw': 0.0, 'thr0': 27.0, 'thr1': 27.0}
{'lipoC3S3': 0.0, 'datetime': '2019-02-27 09:45:57.137899', 'pitch': 1.13, 'rot1': 49, 'rot0': 34, 'rot3': 10, 'rot2': 14, 'state': 'normal', 'flw3': 0, 'flw2': 0, 'flw1': 0, 'flw0': 0, 'roll': 0.35, 'cur2': 1.0, 'cur0': 0.85, 'cur1': 1.03, 'mgs': 0, 'compass': 3.98, 'lipoC2': 0.0, 'temp': 24.66, 'thr3': 35.0, 'depth': 0.129, 'time': 3.8, 'thr2': 31.0, 'yaw': 0.0, 'thr0': 27.0, 'thr1': 27.0}
{'lipoC3S3': 0.0, 'datetime': '2019-02-27 09:45:57.458081', 'pitch': 1.13, 'rot1': 58, 'rot0': 38, 'rot3': 11, 'rot2': 15, 'state': 'normal', 'flw3': 0, 'flw2': 0, 'flw1': 0, 'flw0': 0, 'roll': 0.35, 'cur2': 0.96, 'cur0': 0.9, 'cur1': 1.03, 'mgs': 0, 'compass': 3.98, 'lipoC2': 0.0, 'temp': 24.66, 'thr3': 36.0, 'depth': 0.119, 'time': 4.12, 'thr2': 32.0, 'yaw': 0.0, 'thr0': 28.0, 'thr1': 27.0}
{'lipoC3S3': 0.0, 'datetime': '2019-02-27 09:45:57.778039', 'pitch': 1.13, 'rot1': 65, 'rot0': 42, 'rot3': 12, 'rot2': 16, 'state': 'normal', 'flw3': 0, 'flw2': 0, 'flw1': 0, 'flw0': 0, 'roll': 0.35, 'cur2': 0.9, 'cur0': 0.87, 'cur1': 1.0, 'mgs': 0, 'compass': 3.98, 'lipoC2': 0.0, 'temp': 24.67, 'thr3': 35.0, 'depth': 0.119, 'time': 4.45, 'thr2': 31.0, 'yaw': 0.0, 'thr0': 27.0, 'thr1': 27.0}
{'lipoC3S3': 0.0, 'datetime': '2019-02-27 09:45:58.103411', 'pitch': 1.13, 'rot1': 74, 'rot0': 46, 'rot3': 12, 'rot2': 16, 'state': 'normal', 'flw3': 0, 'flw2': 0, 'flw1': 0, 'flw0': 0, 'roll': 0.35, 'cur2': 0.92, 'cur0': 0.9, 'cur1': 0.97, 'mgs': 0, 'compass': 3.98, 'lipoC2': 0.0, 'temp': 24.66, 'thr3': 35.0, 'depth': 0.119, 'time': 4.77, 'thr2': 31.0, 'yaw': 0.0, 'thr0': 27.0, 'thr1': 27.0}
{'lipoC3S3': 0.0, 'datetime': '2019-02-27 09:45:58.425589', 'pitch': 1.13, 'rot1': 83, 'rot0': 52, 'rot3': 13, 'rot2': 17, 'state': 'normal', 'flw3': 0, 'flw2': 0, 'flw1': 0, 'flw0': 0, 'roll': 0.35, 'cur2': 0.94, 'cur0': 0.84, 'cur1': 0.94, 'mgs': 0, 'compass': 3.98, 'lipoC2': 0.0, 'temp': 24.67, 'thr3': 36.0, 'depth': 0.129, 'time': 5.09, 'thr2': 31.0, 'yaw': 0.0, 'thr0': 27.0, 'thr1': 27.0}
{'lipoC3S3': 0.0, 'datetime': '2019-02-27 09:45:58.747404', 'pitch': 1.13, 'rot1': 92, 'rot0': 55, 'rot3': 14, 'rot2': 18, 'state': 'normal', 'flw3': 0, 'flw2': 0, 'flw1': 0, 'flw0': 0, 'roll': 0.35, 'cur2': 0.96, 'cur0': 0.84, 'cur1': 1.0, 'mgs': 0, 'compass': 3.98, 'lipoC2': 0.0, 'temp': 24.66, 'thr3': 35.0, 'depth': 0.129, 'time': 5.41, 'thr2': 31.0, 'yaw': 0.0, 'thr0': 27.0, 'thr1': 27.0}
{'lipoC3S3': 0.0, 'datetime': '2019-02-27 09:45:59.069309', 'pitch': 1.13, 'rot1': 98, 'rot0': 60, 'rot3': 15, 'rot2': 19, 'state': 'normal', 'flw3': 0, 'flw2': 0, 'flw1': 0, 'flw0': 0, 'roll': 0.35, 'cur2': 0.94, 'cur0': 0.84, 'cur1': 1.03, 'mgs': 0, 'compass': 3.98, 'lipoC2': 0.0, 'temp': 24.66, 'thr3': 35.0, 'depth': 0.119, 'time': 5.73, 'thr2': 31.0, 'yaw': 0.0, 'thr0': 27.0, 'thr1': 27.0}
{'lipoC3S3': 0.0, 'datetime': '2019-02-27 09:45:59.392013', 'pitch': 1.13, 'rot1': 107, 'rot0': 63, 'rot3': 16, 'rot2': 20, 'state': 'normal', 'flw3': 0, 'flw2': 0, 'flw1': 0, 'flw0': 0, 'roll': 0.35, 'cur2': 0.95, 'cur0': 0.9, 'cur1': 1.0, 'mgs': 0, 'compass': 3.98, 'lipoC2': 0.0, 'temp': 24.67, 'thr3': 36.0, 'depth': 0.129, 'time': 6.05, 'thr2': 31.0, 'yaw': 0.0, 'thr0': 27.0, 'thr1': 27.0}
{'lipoC3S3': 0.0, 'datetime': '2019-02-27 09:45:59.711451', 'pitch': 1.13, 'rot1': 119, 'rot0': 67, 'rot3': 17, 'rot2': 21, 'state': 'normal', 'flw3': 0, 'flw2': 0, 'flw1': 0, 'flw0': 0, 'roll': 0.35, 'cur2': 0.94, 'cur0': 0.84, 'cur1': 0.94, 'mgs': 0, 'compass': 3.98, 'lipoC2': 0.0, 'temp': 24.67, 'thr3': 34.0, 'depth': 0.119, 'time': 6.38, 'thr2': 30.0, 'yaw': 0.0, 'thr0': 27.0, 'thr1': 27.0}
{'lipoC3S3': 0.0, 'datetime': '2019-02-27 09:46:00.031834', 'pitch': 1.13, 'rot1': 129, 'rot0': 71, 'rot3': 17, 'rot2': 22, 'state': 'normal', 'flw3': 0, 'flw2': 0, 'flw1': 0, 'flw0': 0, 'roll': 0.35, 'cur2': 0.99, 'cur0': 0.84, 'cur1': 0.91, 'mgs': 0, 'compass': 3.98, 'lipoC2': 0.0, 'temp': 24.67, 'thr3': 35.0, 'depth': 0.119, 'time': 6.7, 'thr2': 31.0, 'yaw': 0.0, 'thr0': 27.0, 'thr1': 27.0}
{'lipoC3S3': 0.0, 'datetime': '2019-02-27 09:46:00.362145', 'pitch': 1.13, 'rot1': 141, 'rot0': 76, 'rot3': 18, 'rot2': 23, 'state': 'normal', 'flw3': 0, 'flw2': 0, 'flw1': 0, 'flw0': 0, 'roll': 0.35, 'cur2': 0.96, 'cur0': 0.84, 'cur1': 1.05, 'mgs': 0, 'compass': 3.98, 'lipoC2': 0.0, 'temp': 24.66, 'thr3': 35.0, 'depth': 0.129, 'time': 7.02, 'thr2': 31.0, 'yaw': 0.0, 'thr0': 27.0, 'thr1': 27.0}
{'lipoC3S3': 0.0, 'datetime': '2019-02-27 09:46:00.688834', 'pitch': 1.13, 'rot1': 152, 'rot0': 81, 'rot3': 19, 'rot2': 24, 'state': 'normal', 'flw3': 0, 'flw2': 0, 'flw1': 0, 'flw0': 0, 'roll': 0.35, 'cur2': 0.93, 'cur0': 0.88, 'cur1': 0.97, 'mgs': 0, 'compass': 3.98, 'lipoC2': 0.0, 'temp': 24.67, 'thr3': 36.0, 'depth': 0.119, 'time': 7.34, 'thr2': 32.0, 'yaw': 0.0, 'thr0': 27.0, 'thr1': 27.0}
{'lipoC3S3': 0.0, 'datetime': '2019-02-27 09:46:01.006768', 'pitch': 1.13, 'rot1': 163, 'rot0': 87, 'rot3': 20, 'rot2': 25, 'state': 'normal', 'flw3': 0, 'flw2': 0, 'flw1': 0, 'flw0': 0, 'roll': 0.35, 'cur2': 0.9, 'cur0': 0.88, 'cur1': 0.94, 'mgs': 0, 'compass': 3.98, 'lipoC2': 0.0, 'temp': 24.67, 'thr3': 35.0, 'depth': 0.129, 'time': 7.66, 'thr2': 31.0, 'yaw': 0.0, 'thr0': 27.0, 'thr1': 27.0}
{'lipoC3S3': 0.0, 'datetime': '2019-02-27 09:46:01.329092', 'pitch': 1.13, 'rot1': 170, 'rot0': 91, 'rot3': 21, 'rot2': 26, 'state': 'normal', 'flw3': 0, 'flw2': 0, 'flw1': 0, 'flw0': 0, 'roll': 0.35, 'cur2': 0.99, 'cur0': 0.82, 'cur1': 0.91, 'mgs': 0, 'compass': 3.98, 'lipoC2': 0.0, 'temp': 24.67, 'thr3': 35.0, 'depth': 0.129, 'time': 7.98, 'thr2': 31.0, 'yaw': 0.0, 'thr0': 27.0, 'thr1': 27.0}
{'lipoC3S3': 0.0, 'datetime': '2019-02-27 09:46:01.651561', 'pitch': 1.13, 'rot1': 181, 'rot0': 95, 'rot3': 21, 'rot2': 27, 'state': 'normal', 'flw3': 0, 'flw2': 0, 'flw1': 0, 'flw0': 0, 'roll': 0.35, 'cur2': 0.93, 'cur0': 0.84, 'cur1': 1.03, 'mgs': 0, 'compass': 3.98, 'lipoC2': 0.0, 'temp': 24.67, 'thr3': 36.0, 'depth': 0.129, 'time': 8.3, 'thr2': 31.0, 'yaw': 0.0, 'thr0': 27.0, 'thr1': 27.0}
{'lipoC3S3': 0.0, 'datetime': '2019-02-27 09:46:01.973989', 'pitch': 1.13, 'rot1': 188, 'rot0': 101, 'rot3': 22, 'rot2': 28, 'state': 'normal', 'flw3': 0, 'flw2': 0, 'flw1': 0, 'flw0': 0, 'roll': 0.35, 'cur2': 0.93, 'cur0': 0.92, 'cur1': 0.97, 'mgs': 0, 'compass': 3.98, 'lipoC2': 0.0, 'temp': 24.67, 'thr3': 36.0, 'depth': 0.129, 'time': 8.63, 'thr2': 32.0, 'yaw': 0.0, 'thr0': 27.0, 'thr1': 27.0}
{'lipoC3S3': 0.0, 'datetime': '2019-02-27 09:46:02.295942', 'pitch': 1.13, 'rot1': 197, 'rot0': 107, 'rot3': 23, 'rot2': 29, 'state': 'normal', 'flw3': 0, 'flw2': 0, 'flw1': 0, 'flw0': 0, 'roll': 0.35, 'cur2': 0.95, 'cur0': 0.85, 'cur1': 0.91, 'mgs': 0, 'compass': 3.98, 'lipoC2': 0.0, 'temp': 24.66, 'thr3': 35.0, 'depth': 0.119, 'time': 8.95, 'thr2': 31.0, 'yaw': 0.0, 'thr0': 27.0, 'thr1': 27.0}
{'lipoC3S3': 0.0, 'datetime': '2019-02-27 09:46:02.618579', 'pitch': 1.13, 'rot1': 204, 'rot0': 112, 'rot3': 24, 'rot2': 30, 'state': 'normal', 'flw3': 0, 'flw2': 0, 'flw1': 0, 'flw0': 0, 'roll': 0.35, 'cur2': 0.94, 'cur0': 0.92, 'cur1': 1.05, 'mgs': 0, 'compass': 3.98, 'lipoC2': 0.0, 'temp': 24.67, 'thr3': 35.0, 'depth': 0.119, 'time': 9.27, 'thr2': 32.0, 'yaw': 0.0, 'thr0': 27.0, 'thr1': 27.0}
{'lipoC3S3': 0.0, 'datetime': '2019-02-27 09:46:02.941326', 'pitch': 1.13, 'rot1': 216, 'rot0': 118, 'rot3': 25, 'rot2': 30, 'state': 'normal', 'flw3': 0, 'flw2': 0, 'flw1': 0, 'flw0': 0, 'roll': 0.35, 'cur2': 0.96, 'cur0': 0.85, 'cur1': 0.94, 'mgs': 0, 'compass': 3.98, 'lipoC2': 0.0, 'temp': 24.67, 'thr3': 35.0, 'depth': 0.129, 'time': 9.59, 'thr2': 31.0, 'yaw': 0.0, 'thr0': 27.0, 'thr1': 27.0}
{'lipoC3S3': 0.0, 'datetime': '2019-02-27 09:46:03.262935', 'pitch': 1.13, 'rot1': 225, 'rot0': 122, 'rot3': 25, 'rot2': 31, 'state': 'normal', 'flw3': 0, 'flw2': 0, 'flw1': 0, 'flw0': 0, 'roll': 0.35, 'cur2': 0.99, 'cur0': 0.9, 'cur1': 1.03, 'mgs': 0, 'compass': 3.98, 'lipoC2': 0.0, 'temp': 24.67, 'thr3': 35.0, 'depth': 0.129, 'time': 9.91, 'thr2': 31.0, 'yaw': 0.0, 'thr0': 27.0, 'thr1': 27.0}
{'lipoC3S3': 0.0, 'datetime': '2019-02-27 09:46:03.585247', 'pitch': 1.13, 'rot1': 234, 'rot0': 126, 'rot3': 26, 'rot2': 32, 'state': 'normal', 'flw3': 0, 'flw2': 0, 'flw1': 0, 'flw0': 0, 'roll': 0.35, 'cur2': 0.92, 'cur0': 0.84, 'cur1': 0.94, 'mgs': 0, 'compass': 3.98, 'lipoC2': 0.0, 'temp': 24.67, 'thr3': 35.0, 'depth': 0.129, 'time': 10.23, 'thr2': 31.0, 'yaw': 0.0, 'thr0': 28.0, 'thr1': 27.0}
{'lipoC3S3': 0.0, 'datetime': '2019-02-27 09:46:03.909757', 'pitch': 1.13, 'rot1': 241, 'rot0': 132, 'rot3': 27, 'rot2': 33, 'state': 'normal', 'flw3': 0, 'flw2': 0, 'flw1': 0, 'flw0': 0, 'roll': 0.35, 'cur2': 0.96, 'cur0': 0.92, 'cur1': 1.0, 'mgs': 0, 'compass': 3.98, 'lipoC2': 0.0, 'temp': 24.67, 'thr3': 35.0, 'depth': 0.119, 'time': 10.55, 'thr2': 31.0, 'yaw': 0.0, 'thr0': 27.0, 'thr1': 27.0}
{'lipoC3S3': 0.0, 'datetime': '2019-02-27 09:46:04.229982', 'pitch': 1.13, 'rot1': 246, 'rot0': 137, 'rot3': 28, 'rot2': 34, 'state': 'normal', 'flw3': 0, 'flw2': 0, 'flw1': 0, 'flw0': 0, 'roll': 0.35, 'cur2': 0.93, 'cur0': 0.85, 'cur1': 0.94, 'mgs': 0, 'compass': 3.98, 'lipoC2': 0.0, 'temp': 24.67, 'thr3': 35.0, 'depth': 0.129, 'time': 10.88, 'thr2': 31.0, 'yaw': 0.0, 'thr0': 27.0, 'thr1': 27.0}
{'lipoC3S3': 0.0, 'datetime': '2019-02-27 09:46:04.553411', 'pitch': 1.13, 'rot1': 253, 'rot0': 145, 'rot3': 29, 'rot2': 35, 'state': 'normal', 'flw3': 0, 'flw2': 0, 'flw1': 0, 'flw0': 0, 'roll': 0.35, 'cur2': 0.95, 'cur0': 0.79, 'cur1': 1.0, 'mgs': 0, 'compass': 3.98, 'lipoC2': 0.0, 'temp': 24.67, 'thr3': 35.0, 'depth': 0.119, 'time': 11.2, 'thr2': 31.0, 'yaw': 0.0, 'thr0': 27.0, 'thr1': 27.0}
{'lipoC3S3': 0.0, 'datetime': '2019-02-27 09:46:04.875072', 'pitch': 1.13, 'rot1': 264, 'rot0': 150, 'rot3': 29, 'rot2': 36, 'state': 'normal', 'flw3': 0, 'flw2': 0, 'flw1': 0, 'flw0': 0, 'roll': 0.35, 'cur2': 0.93, 'cur0': 0.81, 'cur1': 0.97, 'mgs': 0, 'compass': 3.98, 'lipoC2': 0.0, 'temp': 24.67, 'thr3': 36.0, 'depth': 0.119, 'time': 11.52, 'thr2': 32.0, 'yaw': 0.0, 'thr0': 27.0, 'thr1': 27.0}
{'lipoC3S3': 0.0, 'datetime': '2019-02-27 09:46:05.198027', 'pitch': 1.13, 'rot1': 271, 'rot0': 153, 'rot3': 30, 'rot2': 37, 'state': 'normal', 'flw3': 0, 'flw2': 0, 'flw1': 0, 'flw0': 0, 'roll': 0.35, 'cur2': 0.96, 'cur0': 0.79, 'cur1': 1.03, 'mgs': 0, 'compass': 3.98, 'lipoC2': 0.0, 'temp': 24.67, 'thr3': 35.0, 'depth': 0.119, 'time': 11.84, 'thr2': 31.0, 'yaw': 0.0, 'thr0': 27.0, 'thr1': 27.0}
{'lipoC3S3': 0.0, 'datetime': '2019-02-27 09:46:05.520696', 'pitch': 1.13, 'rot1': 279, 'rot0': 156, 'rot3': 31, 'rot2': 38, 'state': 'normal', 'flw3': 0, 'flw2': 0, 'flw1': 0, 'flw0': 0, 'roll': 0.35, 'cur2': 0.94, 'cur0': 0.85, 'cur1': 0.97, 'mgs': 0, 'compass': 3.98, 'lipoC2': 0.0, 'temp': 24.67, 'thr3': 35.0, 'depth': 0.119, 'time': 12.16, 'thr2': 31.0, 'yaw': 0.0, 'thr0': 27.0, 'thr1': 27.0}
{'lipoC3S3': 0.0, 'datetime': '2019-02-27 09:46:05.842304', 'pitch': 1.13, 'rot1': 287, 'rot0': 161, 'rot3': 32, 'rot2': 39, 'state': 'normal', 'flw3': 0, 'flw2': 0, 'flw1': 0, 'flw0': 0, 'roll': 0.35, 'cur2': 1.01, 'cur0': 0.82, 'cur1': 0.91, 'mgs': 0, 'compass': 3.98, 'lipoC2': 0.0, 'temp': 24.67, 'thr3': 36.0, 'depth': 0.129, 'time': 12.48, 'thr2': 31.0, 'yaw': 0.0, 'thr0': 27.0, 'thr1': 27.0}
