{'lipoC2': 7.24, 'temp': 0.0, 'lipoC3S3': 11.06, 'state': 'normal', 'rot1': 0, 'rot0': 0, 'rot3': 0, 'rot2': 0, 'depth': -0.598, 'yaw': 0.14, 'datetime': '2018-12-12 14:56:01.977275', 'mgs': 0, 'flw2': 0.0, 'flw1': 0.0, 'flw0': 0.2, 'time': 1.36, 'compass': 95.22, 'pitch': -1.49, 'roll': -3.01}
{'lipoC2': 7.3, 'temp': 0.0, 'lipoC3S3': 11.05, 'state': 'normal', 'rot1': 0, 'rot0': 0, 'rot3': 0, 'rot2': 0, 'depth': -0.064, 'yaw': 0.41, 'datetime': '2018-12-12 14:56:02.186056', 'mgs': 0, 'flw2': 0.0, 'flw1': 0.0, 'flw0': 0.0, 'time': 1.57, 'compass': 95.5, 'pitch': -2.01, 'roll': -3.07}
{'lipoC2': 7.22, 'temp': 0.0, 'lipoC3S3': 11.06, 'state': 'normal', 'rot1': 0, 'rot0': 0, 'rot3': 0, 'rot2': 0, 'depth': -0.217, 'yaw': 0.67, 'datetime': '2018-12-12 14:56:02.394061', 'mgs': 0, 'flw2': 0.0, 'flw1': 0.0, 'flw0': 0.0, 'time': 1.78, 'compass': 95.75, 'pitch': -1.95, 'roll': -3.05}
{'lipoC2': 7.24, 'temp': 0.0, 'lipoC3S3': 11.18, 'state': 'normal', 'rot1': 0, 'rot0': 0, 'rot3': 0, 'rot2': 0, 'depth': 1.614, 'yaw': 0.92, 'datetime': '2018-12-12 14:56:02.602262', 'mgs': 0, 'flw2': 0.01, 'flw1': 0.0, 'flw0': 0.0, 'time': 1.98, 'compass': 96.0, 'pitch': -1.67, 'roll': -2.82}
{'lipoC2': 7.08, 'temp': 0.0, 'lipoC3S3': 11.1, 'state': 'normal', 'rot1': 0, 'rot0': 0, 'rot3': 0, 'rot2': 0, 'depth': -0.751, 'yaw': 1.2, 'datetime': '2018-12-12 14:56:02.809367', 'mgs': 0, 'flw2': 0.0, 'flw1': 0.0, 'flw0': 0.07, 'time': 2.19, 'compass': 96.29, 'pitch': -1.83, 'roll': -2.76}
{'lipoC2': 7.19, 'temp': 0.0, 'lipoC3S3': 11.0, 'state': 'normal', 'rot1': 0, 'rot0': 0, 'rot3': 0, 'rot2': 0, 'depth': 1.462, 'yaw': 1.5, 'datetime': '2018-12-12 14:56:03.017393', 'mgs': 0, 'flw2': 0.0, 'flw1': 0.0, 'flw0': 0.0, 'time': 2.4, 'compass': 96.58, 'pitch': -2.24, 'roll': -3.0}
{'lipoC2': 7.22, 'temp': 0.0, 'lipoC3S3': 11.18, 'state': 'normal', 'rot1': 0, 'rot0': 0, 'rot3': 0, 'rot2': 0, 'depth': -0.751, 'yaw': 1.72, 'datetime': '2018-12-12 14:56:03.225649', 'mgs': 0, 'flw2': 0.12, 'flw1': 0.0, 'flw0': 0.0, 'time': 2.61, 'compass': 96.8, 'pitch': -2.33, 'roll': -3.32}
{'lipoC2': 7.18, 'temp': 0.0, 'lipoC3S3': 11.02, 'state': 'normal', 'rot1': 0, 'rot0': 0, 'rot3': 0, 'rot2': 0, 'depth': -1.59, 'yaw': 1.97, 'datetime': '2018-12-12 14:56:03.435065', 'mgs': 0, 'flw2': 0.0, 'flw1': 0.0, 'flw0': 0.0, 'time': 2.82, 'compass': 97.05, 'pitch': -2.22, 'roll': -3.72}
{'lipoC2': 7.14, 'temp': 0.0, 'lipoC3S3': 11.13, 'state': 'normal', 'rot1': 0, 'rot0': 0, 'rot3': 0, 'rot2': 0, 'depth': -0.064, 'yaw': 2.22, 'datetime': '2018-12-12 14:56:03.642445', 'mgs': 0, 'flw2': 0.11, 'flw1': 0.0, 'flw0': 0.0, 'time': 3.02, 'compass': 97.31, 'pitch': -2.42, 'roll': -3.99}
{'lipoC2': 7.21, 'temp': 0.0, 'lipoC3S3': 11.25, 'state': 'normal', 'rot1': 0, 'rot0': 0, 'rot3': 0, 'rot2': 0, 'depth': -1.285, 'yaw': 2.5, 'datetime': '2018-12-12 14:56:03.851897', 'mgs': 0, 'flw2': 0.0, 'flw1': 0.0, 'flw0': 0.0, 'time': 3.23, 'compass': 97.59, 'pitch': -2.66, 'roll': -3.98}
{'lipoC2': 7.07, 'temp': 0.0, 'lipoC3S3': 11.35, 'state': 'normal', 'rot1': 0, 'rot0': 0, 'rot3': 0, 'rot2': 0, 'depth': -0.369, 'yaw': 2.75, 'datetime': '2018-12-12 14:56:04.059151', 'mgs': 0, 'flw2': 0.12, 'flw1': 0.09, 'flw0': 0.17, 'time': 3.44, 'compass': 97.84, 'pitch': -2.38, 'roll': -3.97}
{'lipoC2': 7.24, 'temp': 0.0, 'lipoC3S3': 11.35, 'state': 'normal', 'rot1': 0, 'rot0': 0, 'rot3': 0, 'rot2': 0, 'depth': 1.233, 'yaw': 2.98, 'datetime': '2018-12-12 14:56:04.268640', 'mgs': 0, 'flw2': 0.18, 'flw1': 0.0, 'flw0': 0.0, 'time': 3.65, 'compass': 98.06, 'pitch': -2.0, 'roll': -3.82}
{'lipoC2': 7.29, 'temp': 0.0, 'lipoC3S3': 11.09, 'state': 'normal', 'rot1': 0, 'rot0': 0, 'rot3': 0, 'rot2': 0, 'depth': 0.775, 'yaw': 3.25, 'datetime': '2018-12-12 14:56:04.475515', 'mgs': 0, 'flw2': 0.22, 'flw1': 0.44, 'flw0': 0.0, 'time': 3.86, 'compass': 98.34, 'pitch': -2.4, 'roll': -3.76}
{'lipoC2': 7.19, 'temp': 0.0, 'lipoC3S3': 11.23, 'state': 'normal', 'rot1': 0, 'rot0': 0, 'rot3': 0, 'rot2': 0, 'depth': 1.233, 'yaw': 3.51, 'datetime': '2018-12-12 14:56:04.684676', 'mgs': 0, 'flw2': 0.0, 'flw1': 0.0, 'flw0': 0.0, 'time': 4.06, 'compass': 98.6, 'pitch': -2.98, 'roll': -3.77}
{'lipoC2': 7.22, 'temp': 0.0, 'lipoC3S3': 10.9, 'state': 'normal', 'rot1': 0, 'rot0': 0, 'rot3': 0, 'rot2': 0, 'depth': -1.056, 'yaw': 3.78, 'datetime': '2018-12-12 14:56:04.892923', 'mgs': 0, 'flw2': 0.0, 'flw1': 0.0, 'flw0': 0.0, 'time': 4.27, 'compass': 98.86, 'pitch': -2.9, 'roll': -3.76}
{'lipoC2': 7.1, 'temp': 0.0, 'lipoC3S3': 11.25, 'state': 'normal', 'rot1': 0, 'rot0': 0, 'rot3': 0, 'rot2': 0, 'depth': -0.674, 'yaw': 4.04, 'datetime': '2018-12-12 14:56:05.102471', 'mgs': 0, 'flw2': 0.0, 'flw1': 0.0, 'flw0': 0.0, 'time': 4.48, 'compass': 99.12, 'pitch': -2.69, 'roll': -3.87}
{'lipoC2': 7.05, 'temp': 0.0, 'lipoC3S3': 11.18, 'state': 'normal', 'rot1': 0, 'rot0': 0, 'rot3': 0, 'rot2': 0, 'depth': -1.285, 'yaw': 4.28, 'datetime': '2018-12-12 14:56:05.311251', 'mgs': 0, 'flw2': 0.24, 'flw1': 0.0, 'flw0': 0.0, 'time': 4.69, 'compass': 99.37, 'pitch': -3.03, 'roll': -4.11}
{'lipoC2': 7.3, 'temp': 0.0, 'lipoC3S3': 10.89, 'state': 'normal', 'rot1': 0, 'rot0': 0, 'rot3': 0, 'rot2': 0, 'depth': 0.089, 'yaw': 4.52, 'datetime': '2018-12-12 14:56:05.518595', 'mgs': 0, 'flw2': 0.0, 'flw1': 0.0, 'flw0': 0.0, 'time': 4.9, 'compass': 99.61, 'pitch': -3.71, 'roll': -4.39}
{'lipoC2': 7.07, 'temp': 0.0, 'lipoC3S3': 11.09, 'state': 'normal', 'rot1': 0, 'rot0': 0, 'rot3': 0, 'rot2': 0, 'depth': -0.827, 'yaw': 4.81, 'datetime': '2018-12-12 14:56:05.727316', 'mgs': 0, 'flw2': 0.0, 'flw1': 0.0, 'flw0': 0.24, 'time': 5.1, 'compass': 99.89, 'pitch': -3.92, 'roll': -4.76}
{'lipoC2': 7.26, 'temp': 0.0, 'lipoC3S3': 10.96, 'state': 'normal', 'rot1': 0, 'rot0': 0, 'rot3': 0, 'rot2': 0, 'depth': -0.369, 'yaw': 5.05, 'datetime': '2018-12-12 14:56:05.934190', 'mgs': 0, 'flw2': 0.0, 'flw1': 0.03, 'flw0': 0.23, 'time': 5.31, 'compass': 100.13, 'pitch': -3.25, 'roll': -4.88}
{'lipoC2': 7.08, 'temp': 0.0, 'lipoC3S3': 11.07, 'state': 'normal', 'rot1': 0, 'rot0': 0, 'rot3': 0, 'rot2': 0, 'depth': -0.751, 'yaw': 5.26, 'datetime': '2018-12-12 14:56:06.143342', 'mgs': 0, 'flw2': 0.0, 'flw1': 0.23, 'flw0': 0.06, 'time': 5.52, 'compass': 100.34, 'pitch': -2.88, 'roll': -4.71}
{'lipoC2': 7.15, 'temp': 0.0, 'lipoC3S3': 11.18, 'state': 'normal', 'rot1': 0, 'rot0': 0, 'rot3': 0, 'rot2': 0, 'depth': 1.385, 'yaw': 5.47, 'datetime': '2018-12-12 14:56:06.351648', 'mgs': 0, 'flw2': 0.28, 'flw1': 0.0, 'flw0': 0.0, 'time': 5.73, 'compass': 100.55, 'pitch': -3.57, 'roll': -4.45}
{'lipoC2': 7.22, 'temp': 0.0, 'lipoC3S3': 11.19, 'state': 'normal', 'rot1': 0, 'rot0': 0, 'rot3': 0, 'rot2': 0, 'depth': 1.462, 'yaw': 5.66, 'datetime': '2018-12-12 14:56:06.561198', 'mgs': 0, 'flw2': 0.0, 'flw1': 0.18, 'flw0': 0.0, 'time': 5.94, 'compass': 100.75, 'pitch': -4.34, 'roll': -4.37}
{'lipoC2': 7.18, 'temp': 0.0, 'lipoC3S3': 11.21, 'state': 'normal', 'rot1': 0, 'rot0': 0, 'rot3': 0, 'rot2': 0, 'depth': -1.514, 'yaw': 5.86, 'datetime': '2018-12-12 14:56:06.769554', 'mgs': 0, 'flw2': 0.0, 'flw1': 0.0, 'flw0': 0.0, 'time': 6.14, 'compass': 100.94, 'pitch': -4.04, 'roll': -4.52}
{'lipoC2': 7.08, 'temp': 0.0, 'lipoC3S3': 11.07, 'state': 'normal', 'rot1': 0, 'rot0': 0, 'rot3': 0, 'rot2': 0, 'depth': -0.598, 'yaw': 5.99, 'datetime': '2018-12-12 14:56:06.976980', 'mgs': 0, 'flw2': 0.22, 'flw1': 0.0, 'flw0': 0.0, 'time': 6.35, 'compass': 101.08, 'pitch': -3.16, 'roll': -4.83}
{'lipoC2': 7.29, 'temp': 0.0, 'lipoC3S3': 11.29, 'state': 'normal', 'rot1': 0, 'rot0': 0, 'rot3': 0, 'rot2': 0, 'depth': 1.08, 'yaw': 6.01, 'datetime': '2018-12-12 14:56:07.186136', 'mgs': 0, 'flw2': 0.0, 'flw1': 0.62, 'flw0': 0.0, 'time': 6.56, 'compass': 101.1, 'pitch': -2.95, 'roll': -5.02}
{'lipoC2': 7.05, 'temp': 0.0, 'lipoC3S3': 11.34, 'state': 'normal', 'rot1': 0, 'rot0': 0, 'rot3': 0, 'rot2': 0, 'depth': -0.598, 'yaw': 6.12, 'datetime': '2018-12-12 14:56:07.393126', 'mgs': 0, 'flw2': 0.18, 'flw1': 0.0, 'flw0': 0.0, 'time': 6.77, 'compass': 101.2, 'pitch': -3.48, 'roll': -5.14}
{'lipoC2': 7.14, 'temp': 0.0, 'lipoC3S3': 11.25, 'state': 'normal', 'rot1': 0, 'rot0': 0, 'rot3': 0, 'rot2': 0, 'depth': -1.59, 'yaw': 6.15, 'datetime': '2018-12-12 14:56:07.604658', 'mgs': 0, 'flw2': 0.0, 'flw1': 0.0, 'flw0': 0.0, 'time': 6.98, 'compass': 101.23, 'pitch': -4.14, 'roll': -5.22}
{'lipoC2': 7.12, 'temp': 0.0, 'lipoC3S3': 11.05, 'state': 'normal', 'rot1': 0, 'rot0': 0, 'rot3': 0, 'rot2': 0, 'depth': -0.827, 'yaw': 6.15, 'datetime': '2018-12-12 14:56:07.810990', 'mgs': 0, 'flw2': 0.0, 'flw1': 0.0, 'flw0': 0.1, 'time': 7.18, 'compass': 101.23, 'pitch': -4.16, 'roll': -5.21}
{'lipoC2': 7.22, 'temp': 0.0, 'lipoC3S3': 11.06, 'state': 'normal', 'rot1': 0, 'rot0': 0, 'rot3': 0, 'rot2': 0, 'depth': 2.072, 'yaw': 6.14, 'datetime': '2018-12-12 14:56:08.020343', 'mgs': 0, 'flw2': 0.0, 'flw1': 0.0, 'flw0': 0.0, 'time': 7.39, 'compass': 101.22, 'pitch': -4.01, 'roll': -5.1}
{'lipoC2': 7.11, 'temp': 0.0, 'lipoC3S3': 10.88, 'state': 'normal', 'rot1': 0, 'rot0': 0, 'rot3': 0, 'rot2': 0, 'depth': -0.674, 'yaw': 6.15, 'datetime': '2018-12-12 14:56:08.227496', 'mgs': 0, 'flw2': 0.0, 'flw1': 0.0, 'flw0': 0.0, 'time': 7.6, 'compass': 101.23, 'pitch': -4.5, 'roll': -5.23}
{'lipoC2': 7.06, 'temp': 0.0, 'lipoC3S3': 11.01, 'state': 'normal', 'rot1': 0, 'rot0': 0, 'rot3': 0, 'rot2': 0, 'depth': -0.369, 'yaw': 6.18, 'datetime': '2018-12-12 14:56:08.435707', 'mgs': 0, 'flw2': 0.0, 'flw1': 0.0, 'flw0': 0.0, 'time': 7.81, 'compass': 101.26, 'pitch': -4.9, 'roll': -5.56}
{'lipoC2': 7.21, 'temp': 0.0, 'lipoC3S3': 10.92, 'state': 'normal', 'rot1': 0, 'rot0': 0, 'rot3': 0, 'rot2': 0, 'depth': -0.903, 'yaw': 6.21, 'datetime': '2018-12-12 14:56:08.642699', 'mgs': 0, 'flw2': 0.0, 'flw1': 0.0, 'flw0': 0.09, 'time': 8.02, 'compass': 101.29, 'pitch': -4.33, 'roll': -5.91}
{'lipoC2': 7.06, 'temp': 0.0, 'lipoC3S3': 11.13, 'state': 'normal', 'rot1': 0, 'rot0': 0, 'rot3': 0, 'rot2': 0, 'depth': 0.241, 'yaw': 6.21, 'datetime': '2018-12-12 14:56:08.850859', 'mgs': 0, 'flw2': 0.35, 'flw1': 0.0, 'flw0': 0.0, 'time': 8.22, 'compass': 101.3, 'pitch': -3.73, 'roll': -6.07}
{'lipoC2': 7.24, 'temp': 0.0, 'lipoC3S3': 11.22, 'state': 'normal', 'rot1': 0, 'rot0': 0, 'rot3': 0, 'rot2': 0, 'depth': -0.522, 'yaw': 6.2, 'datetime': '2018-12-12 14:56:09.058710', 'mgs': 0, 'flw2': 0.0, 'flw1': 0.0, 'flw0': 0.0, 'time': 8.43, 'compass': 101.29, 'pitch': -4.12, 'roll': -5.9}
{'lipoC2': 7.11, 'temp': 0.0, 'lipoC3S3': 11.26, 'state': 'normal', 'rot1': 0, 'rot0': 0, 'rot3': 0, 'rot2': 0, 'depth': -0.369, 'yaw': 6.19, 'datetime': '2018-12-12 14:56:09.268591', 'mgs': 0, 'flw2': 0.23, 'flw1': 0.0, 'flw0': 0.0, 'time': 8.64, 'compass': 101.28, 'pitch': -4.7, 'roll': -5.69}
{'lipoC2': 7.05, 'temp': 0.0, 'lipoC3S3': 11.1, 'state': 'normal', 'rot1': 0, 'rot0': 0, 'rot3': 0, 'rot2': 0, 'depth': -1.437, 'yaw': 6.2, 'datetime': '2018-12-12 14:56:09.477383', 'mgs': 0, 'flw2': 0.0, 'flw1': 0.23, 'flw0': 0.0, 'time': 8.85, 'compass': 101.28, 'pitch': -4.78, 'roll': -5.75}
{'lipoC2': 7.12, 'temp': 0.0, 'lipoC3S3': 11.18, 'state': 'normal', 'rot1': 0, 'rot0': 0, 'rot3': 0, 'rot2': 0, 'depth': -1.285, 'yaw': 6.2, 'datetime': '2018-12-12 14:56:09.682751', 'mgs': 0, 'flw2': 0.0, 'flw1': 0.0, 'flw0': 0.24, 'time': 9.06, 'compass': 101.29, 'pitch': -4.55, 'roll': -5.93}
{'lipoC2': 7.28, 'temp': 0.0, 'lipoC3S3': 11.52, 'state': 'normal', 'rot1': 0, 'rot0': 0, 'rot3': 0, 'rot2': 0, 'depth': 1.462, 'yaw': 6.22, 'datetime': '2018-12-12 14:56:09.892067', 'mgs': 0, 'flw2': 0.0, 'flw1': 0.88, 'flw0': 0.05, 'time': 9.26, 'compass': 101.3, 'pitch': -4.56, 'roll': -6.11}
{'lipoC2': 7.29, 'temp': 0.0, 'lipoC3S3': 11.36, 'state': 'normal', 'rot1': 0, 'rot0': 0, 'rot3': 0, 'rot2': 0, 'depth': -0.369, 'yaw': 6.24, 'datetime': '2018-12-12 14:56:10.102862', 'mgs': 0, 'flw2': 0.0, 'flw1': 0.0, 'flw0': 0.18, 'time': 9.47, 'compass': 101.32, 'pitch': -4.48, 'roll': -6.34}
{'lipoC2': 7.34, 'temp': 0.0, 'lipoC3S3': 11.22, 'state': 'normal', 'rot1': 0, 'rot0': 0, 'rot3': 0, 'rot2': 0, 'depth': -1.056, 'yaw': 6.23, 'datetime': '2018-12-12 14:56:10.313274', 'mgs': 0, 'flw2': 0.0, 'flw1': 0.0, 'flw0': 0.32, 'time': 9.68, 'compass': 101.32, 'pitch': -4.27, 'roll': -6.38}
{'lipoC2': 7.27, 'temp': 0.0, 'lipoC3S3': 11.14, 'state': 'normal', 'rot1': 0, 'rot0': 0, 'rot3': 0, 'rot2': 0, 'depth': -1.666, 'yaw': 6.21, 'datetime': '2018-12-12 14:56:10.520732', 'mgs': 0, 'flw2': 0.0, 'flw1': 0.41, 'flw0': 0.0, 'time': 9.89, 'compass': 101.3, 'pitch': -4.59, 'roll': -6.09}
{'lipoC2': 7.13, 'temp': 0.0, 'lipoC3S3': 10.97, 'state': 'normal', 'rot1': 0, 'rot0': 0, 'rot3': 0, 'rot2': 0, 'depth': 1.614, 'yaw': 6.2, 'datetime': '2018-12-12 14:56:10.729946', 'mgs': 0, 'flw2': 0.1, 'flw1': 0.0, 'flw0': 0.0, 'time': 10.1, 'compass': 101.28, 'pitch': -5.21, 'roll': -5.98}
{'lipoC2': 7.14, 'temp': 0.0, 'lipoC3S3': 11.29, 'state': 'normal', 'rot1': 0, 'rot0': 0, 'rot3': 0, 'rot2': 0, 'depth': -0.293, 'yaw': 6.23, 'datetime': '2018-12-12 14:56:10.940267', 'mgs': 0, 'flw2': 0.0, 'flw1': 0.06, 'flw0': 0.0, 'time': 10.31, 'compass': 101.32, 'pitch': -5.25, 'roll': -6.34}
{'lipoC2': 7.05, 'temp': 0.0, 'lipoC3S3': 11.38, 'state': 'normal', 'rot1': 0, 'rot0': 0, 'rot3': 0, 'rot2': 0, 'depth': -0.522, 'yaw': 6.3, 'datetime': '2018-12-12 14:56:11.144821', 'mgs': 0, 'flw2': 0.0, 'flw1': 0.03, 'flw0': 0.01, 'time': 10.51, 'compass': 101.39, 'pitch': -4.75, 'roll': -7.07}
{'lipoC2': 7.28, 'temp': 0.0, 'lipoC3S3': 11.23, 'state': 'normal', 'rot1': 0, 'rot0': 0, 'rot3': 0, 'rot2': 0, 'depth': 0.47, 'yaw': 6.36, 'datetime': '2018-12-12 14:56:11.352610', 'mgs': 0, 'flw2': 0.0, 'flw1': 0.0, 'flw0': 0.0, 'time': 10.72, 'compass': 101.44, 'pitch': -4.79, 'roll': -7.69}
{'lipoC2': 7.04, 'temp': 0.0, 'lipoC3S3': 11.27, 'state': 'normal', 'rot1': 0, 'rot0': 0, 'rot3': 0, 'rot2': 0, 'depth': -0.369, 'yaw': 6.45, 'datetime': '2018-12-12 14:56:11.558246', 'mgs': 0, 'flw2': 0.0, 'flw1': 0.0, 'flw0': 0.0, 'time': 10.93, 'compass': 101.53, 'pitch': -5.44, 'roll': -7.76}
{'lipoC2': 7.11, 'temp': 0.0, 'lipoC3S3': 10.89, 'state': 'normal', 'rot1': 0, 'rot0': 0, 'rot3': 0, 'rot2': 0, 'depth': -0.217, 'yaw': 6.41, 'datetime': '2018-12-12 14:56:11.771258', 'mgs': 0, 'flw2': 0.04, 'flw1': 0.0, 'flw0': 0.12, 'time': 11.14, 'compass': 101.49, 'pitch': -5.75, 'roll': -7.39}
{'lipoC2': 7.25, 'temp': 0.0, 'lipoC3S3': 11.05, 'state': 'normal', 'rot1': 0, 'rot0': 0, 'rot3': 0, 'rot2': 0, 'depth': -0.369, 'yaw': 6.37, 'datetime': '2018-12-12 14:56:11.979345', 'mgs': 0, 'flw2': 0.0, 'flw1': 0.0, 'flw0': 0.0, 'time': 11.35, 'compass': 101.45, 'pitch': -5.43, 'roll': -6.87}
{'lipoC2': 7.05, 'temp': 0.0, 'lipoC3S3': 11.25, 'state': 'normal', 'rot1': 0, 'rot0': 0, 'rot3': 0, 'rot2': 0, 'depth': -0.903, 'yaw': 6.33, 'datetime': '2018-12-12 14:56:12.190321', 'mgs': 0, 'flw2': 0.2, 'flw1': 0.12, 'flw0': 0.0, 'time': 11.55, 'compass': 101.42, 'pitch': -5.45, 'roll': -6.45}
{'lipoC2': 7.1, 'temp': 0.0, 'lipoC3S3': 11.25, 'state': 'normal', 'rot1': 0, 'rot0': 0, 'rot3': 0, 'rot2': 0, 'depth': 1.538, 'yaw': 6.33, 'datetime': '2018-12-12 14:56:12.397948', 'mgs': 0, 'flw2': 0.0, 'flw1': 0.0, 'flw0': 0.0, 'time': 11.76, 'compass': 101.41, 'pitch': -6.05, 'roll': -6.38}
{'lipoC2': 7.05, 'temp': 0.0, 'lipoC3S3': 11.31, 'state': 'normal', 'rot1': 0, 'rot0': 0, 'rot3': 0, 'rot2': 0, 'depth': -0.903, 'yaw': 6.36, 'datetime': '2018-12-12 14:56:12.607995', 'mgs': 0, 'flw2': 0.0, 'flw1': 0.06, 'flw0': 0.0, 'time': 11.97, 'compass': 101.44, 'pitch': -6.33, 'roll': -6.72}
{'lipoC2': 7.04, 'temp': 0.0, 'lipoC3S3': 11.13, 'state': 'normal', 'rot1': 0, 'rot0': 0, 'rot3': 0, 'rot2': 0, 'depth': -0.674, 'yaw': 6.42, 'datetime': '2018-12-12 14:56:12.813936', 'mgs': 0, 'flw2': 0.33, 'flw1': 0.0, 'flw0': 0.0, 'time': 12.18, 'compass': 101.51, 'pitch': -5.84, 'roll': -7.27}
{'lipoC2': 7.1, 'temp': 0.0, 'lipoC3S3': 11.25, 'state': 'normal', 'rot1': 0, 'rot0': 0, 'rot3': 0, 'rot2': 0, 'depth': -1.361, 'yaw': 6.46, 'datetime': '2018-12-12 14:56:13.022328', 'mgs': 0, 'flw2': 0.0, 'flw1': 0.0, 'flw0': 0.23, 'time': 12.39, 'compass': 101.54, 'pitch': -5.38, 'roll': -7.63}
{'lipoC2': 7.13, 'temp': 0.0, 'lipoC3S3': 11.25, 'state': 'normal', 'rot1': 0, 'rot0': 0, 'rot3': 0, 'rot2': 0, 'depth': -1.59, 'yaw': 6.53, 'datetime': '2018-12-12 14:56:13.227429', 'mgs': 0, 'flw2': 0.0, 'flw1': 0.0, 'flw0': 0.0, 'time': 12.59, 'compass': 101.61, 'pitch': -5.68, 'roll': -7.78}
{'lipoC2': 7.07, 'temp': 0.0, 'lipoC3S3': 11.18, 'state': 'normal', 'rot1': 0, 'rot0': 0, 'rot3': 0, 'rot2': 0, 'depth': -1.361, 'yaw': 6.55, 'datetime': '2018-12-12 14:56:13.438272', 'mgs': 0, 'flw2': 0.0, 'flw1': 0.0, 'flw0': 0.07, 'time': 12.8, 'compass': 101.63, 'pitch': -6.21, 'roll': -7.84}
{'lipoC2': 7.07, 'temp': 0.0, 'lipoC3S3': 11.01, 'state': 'normal', 'rot1': 0, 'rot0': 0, 'rot3': 0, 'rot2': 0, 'depth': -0.293, 'yaw': 6.69, 'datetime': '2018-12-12 14:56:13.646303', 'mgs': 0, 'flw2': 0.0, 'flw1': 0.0, 'flw0': 0.0, 'time': 13.01, 'compass': 101.77, 'pitch': -6.37, 'roll': -7.8}
{'lipoC2': 7.06, 'temp': 0.0, 'lipoC3S3': 11.1, 'state': 'normal', 'rot1': 0, 'rot0': 0, 'rot3': 0, 'rot2': 0, 'depth': -0.98, 'yaw': 6.81, 'datetime': '2018-12-12 14:56:13.856518', 'mgs': 0, 'flw2': 0.09, 'flw1': 0.0, 'flw0': 0.0, 'time': 13.22, 'compass': 101.9, 'pitch': -6.39, 'roll': -7.58}
{'lipoC2': 7.25, 'temp': 0.0, 'lipoC3S3': 11.29, 'state': 'normal', 'rot1': 0, 'rot0': 0, 'rot3': 0, 'rot2': 0, 'depth': 1.157, 'yaw': 6.91, 'datetime': '2018-12-12 14:56:14.063383', 'mgs': 0, 'flw2': 0.16, 'flw1': 0.0, 'flw0': 0.0, 'time': 13.43, 'compass': 101.99, 'pitch': -6.49, 'roll': -7.53}
{'lipoC2': 7.28, 'temp': 0.0, 'lipoC3S3': 11.02, 'state': 'normal', 'rot1': 0, 'rot0': 0, 'rot3': 0, 'rot2': 0, 'depth': -0.674, 'yaw': 7.07, 'datetime': '2018-12-12 14:56:14.269940', 'mgs': 0, 'flw2': 0.0, 'flw1': 0.44, 'flw0': 0.0, 'time': 13.63, 'compass': 102.15, 'pitch': -6.58, 'roll': -7.7}
{'lipoC2': 7.05, 'temp': 0.0, 'lipoC3S3': 11.22, 'state': 'normal', 'rot1': 0, 'rot0': 0, 'rot3': 0, 'rot2': 0, 'depth': -0.598, 'yaw': 7.17, 'datetime': '2018-12-12 14:56:14.480901', 'mgs': 0, 'flw2': 0.24, 'flw1': 0.0, 'flw0': 0.0, 'time': 13.84, 'compass': 102.26, 'pitch': -6.38, 'roll': -7.92}
{'lipoC2': 7.28, 'temp': 0.0, 'lipoC3S3': 11.15, 'state': 'normal', 'rot1': 0, 'rot0': 0, 'rot3': 0, 'rot2': 0, 'depth': -1.361, 'yaw': 7.26, 'datetime': '2018-12-12 14:56:14.690393', 'mgs': 0, 'flw2': 0.0, 'flw1': 0.0, 'flw0': 0.0, 'time': 14.05, 'compass': 102.34, 'pitch': -6.4, 'roll': -8.26}
{'lipoC2': 7.2, 'temp': 0.0, 'lipoC3S3': 11.54, 'state': 'normal', 'rot1': 0, 'rot0': 0, 'rot3': 0, 'rot2': 0, 'depth': -0.446, 'yaw': 7.32, 'datetime': '2018-12-12 14:56:14.898502', 'mgs': 0, 'flw2': 0.0, 'flw1': 0.0, 'flw0': 0.0, 'time': 14.26, 'compass': 102.4, 'pitch': -6.97, 'roll': -8.49}
{'lipoC2': 7.09, 'temp': 0.0, 'lipoC3S3': 11.39, 'state': 'normal', 'rot1': 0, 'rot0': 0, 'rot3': 0, 'rot2': 0, 'depth': -1.361, 'yaw': 7.31, 'datetime': '2018-12-12 14:56:15.108038', 'mgs': 0, 'flw2': 0.0, 'flw1': 0.0, 'flw0': 0.13, 'time': 14.47, 'compass': 102.4, 'pitch': -7.26, 'roll': -8.47}
{'lipoC2': 7.08, 'temp': 0.0, 'lipoC3S3': 11.06, 'state': 'normal', 'rot1': 0, 'rot0': 0, 'rot3': 0, 'rot2': 0, 'depth': 0.394, 'yaw': 7.36, 'datetime': '2018-12-12 14:56:15.314356', 'mgs': 0, 'flw2': 0.31, 'flw1': 0.0, 'flw0': 0.0, 'time': 14.68, 'compass': 102.45, 'pitch': -6.88, 'roll': -8.52}
{'lipoC2': 7.3, 'temp': 0.0, 'lipoC3S3': 11.07, 'state': 'normal', 'rot1': 0, 'rot0': 0, 'rot3': 0, 'rot2': 0, 'depth': -1.056, 'yaw': 7.4, 'datetime': '2018-12-12 14:56:15.521278', 'mgs': 0, 'flw2': 0.0, 'flw1': 0.0, 'flw0': 0.0, 'time': 14.88, 'compass': 102.48, 'pitch': -6.28, 'roll': -8.65}
{'lipoC2': 7.32, 'temp': 0.0, 'lipoC3S3': 11.02, 'state': 'normal', 'rot1': 0, 'rot0': 0, 'rot3': 0, 'rot2': 0, 'depth': -0.522, 'yaw': 7.39, 'datetime': '2018-12-12 14:56:15.731201', 'mgs': 0, 'flw2': 0.0, 'flw1': 0.0, 'flw0': 0.0, 'time': 15.09, 'compass': 102.47, 'pitch': -6.37, 'roll': -8.6}
{'lipoC2': 7.08, 'temp': 0.0, 'lipoC3S3': 10.98, 'state': 'normal', 'rot1': 0, 'rot0': 0, 'rot3': 0, 'rot2': 0, 'depth': -0.14, 'yaw': 7.36, 'datetime': '2018-12-12 14:56:15.936860', 'mgs': 0, 'flw2': 0.05, 'flw1': 0.0, 'flw0': 0.0, 'time': 15.3, 'compass': 102.44, 'pitch': -7.22, 'roll': -8.29}
{'lipoC2': 7.22, 'temp': 0.0, 'lipoC3S3': 11.01, 'state': 'normal', 'rot1': 0, 'rot0': 0, 'rot3': 0, 'rot2': 0, 'depth': -0.903, 'yaw': 7.34, 'datetime': '2018-12-12 14:56:16.146448', 'mgs': 0, 'flw2': 0.0, 'flw1': 0.5, 'flw0': 0.0, 'time': 15.51, 'compass': 102.42, 'pitch': -7.78, 'roll': -8.19}
{'lipoC2': 7.18, 'temp': 0.0, 'lipoC3S3': 11.27, 'state': 'normal', 'rot1': 0, 'rot0': 0, 'rot3': 0, 'rot2': 0, 'depth': -0.903, 'yaw': 7.4, 'datetime': '2018-12-12 14:56:16.354653', 'mgs': 0, 'flw2': 0.0, 'flw1': 0.0, 'flw0': 0.0, 'time': 15.72, 'compass': 102.48, 'pitch': -7.35, 'roll': -8.63}
{'lipoC2': 7.19, 'temp': 0.0, 'lipoC3S3': 10.98, 'state': 'normal', 'rot1': 0, 'rot0': 0, 'rot3': 0, 'rot2': 0, 'depth': -0.827, 'yaw': 7.48, 'datetime': '2018-12-12 14:56:16.563928', 'mgs': 0, 'flw2': 0.01, 'flw1': 0.0, 'flw0': 0.0, 'time': 15.93, 'compass': 102.56, 'pitch': -6.46, 'roll': -9.32}
{'lipoC2': 7.07, 'temp': 0.0, 'lipoC3S3': 11.03, 'state': 'normal', 'rot1': 0, 'rot0': 0, 'rot3': 0, 'rot2': 0, 'depth': -0.369, 'yaw': 7.52, 'datetime': '2018-12-12 14:56:16.771791', 'mgs': 0, 'flw2': 0.0, 'flw1': 0.0, 'flw0': 0.21, 'time': 16.13, 'compass': 102.61, 'pitch': -6.46, 'roll': -9.65}
{'lipoC2': 7.25, 'temp': 0.0, 'lipoC3S3': 11.0, 'state': 'normal', 'rot1': 0, 'rot0': 0, 'rot3': 0, 'rot2': 0, 'depth': -0.674, 'yaw': 7.5, 'datetime': '2018-12-12 14:56:16.980338', 'mgs': 0, 'flw2': 0.0, 'flw1': 0.5, 'flw0': 0.0, 'time': 16.34, 'compass': 102.58, 'pitch': -7.45, 'roll': -9.43}
{'lipoC2': 7.3, 'temp': 0.0, 'lipoC3S3': 11.09, 'state': 'normal', 'rot1': 0, 'rot0': 0, 'rot3': 0, 'rot2': 0, 'depth': -0.598, 'yaw': 7.43, 'datetime': '2018-12-12 14:56:17.187331', 'mgs': 0, 'flw2': 0.17, 'flw1': 0.0, 'flw0': 0.0, 'time': 16.55, 'compass': 102.52, 'pitch': -7.97, 'roll': -9.01}
{'lipoC2': 7.3, 'temp': 0.0, 'lipoC3S3': 11.06, 'state': 'normal', 'rot1': 0, 'rot0': 0, 'rot3': 0, 'rot2': 0, 'depth': -0.751, 'yaw': 7.4, 'datetime': '2018-12-12 14:56:17.395903', 'mgs': 0, 'flw2': 0.0, 'flw1': 0.0, 'flw0': 0.0, 'time': 16.75, 'compass': 102.49, 'pitch': -7.43, 'roll': -9.0}
{'lipoC2': 7.09, 'temp': 0.0, 'lipoC3S3': 10.9, 'state': 'normal', 'rot1': 0, 'rot0': 0, 'rot3': 0, 'rot2': 0, 'depth': -0.217, 'yaw': 7.31, 'datetime': '2018-12-12 14:56:17.604189', 'mgs': 0, 'flw2': 0.0, 'flw1': 0.0, 'flw0': 0.0, 'time': 16.96, 'compass': 102.39, 'pitch': -7.03, 'roll': -9.49}
{'lipoC2': 7.27, 'temp': 0.0, 'lipoC3S3': 11.46, 'state': 'normal', 'rot1': 0, 'rot0': 0, 'rot3': 0, 'rot2': 0, 'depth': 1.462, 'yaw': 7.28, 'datetime': '2018-12-12 14:56:17.814015', 'mgs': 0, 'flw2': 0.23, 'flw1': 0.09, 'flw0': 0.0, 'time': 17.17, 'compass': 102.36, 'pitch': -7.2, 'roll': -9.88}
{'lipoC2': 7.04, 'temp': 0.0, 'lipoC3S3': 10.98, 'state': 'normal', 'rot1': 0, 'rot0': 0, 'rot3': 0, 'rot2': 0, 'depth': 0.089, 'yaw': 7.13, 'datetime': '2018-12-12 14:56:18.023252', 'mgs': 0, 'flw2': 0.23, 'flw1': 0.0, 'flw0': 0.0, 'time': 17.38, 'compass': 102.22, 'pitch': -7.58, 'roll': -10.05}
{'lipoC2': 7.2, 'temp': 0.0, 'lipoC3S3': 11.29, 'state': 'normal', 'rot1': 0, 'rot0': 0, 'rot3': 0, 'rot2': 0, 'depth': -1.285, 'yaw': 7.08, 'datetime': '2018-12-12 14:56:18.230264', 'mgs': 0, 'flw2': 0.0, 'flw1': 0.38, 'flw0': 0.0, 'time': 17.59, 'compass': 102.16, 'pitch': -8.03, 'roll': -9.99}
{'lipoC2': 7.26, 'temp': 0.0, 'lipoC3S3': 11.14, 'state': 'normal', 'rot1': 0, 'rot0': 0, 'rot3': 0, 'rot2': 0, 'depth': -1.208, 'yaw': 7.03, 'datetime': '2018-12-12 14:56:18.438312', 'mgs': 0, 'flw2': 0.0, 'flw1': 0.0, 'flw0': 0.0, 'time': 17.8, 'compass': 102.11, 'pitch': -8.01, 'roll': -9.67}
{'lipoC2': 7.29, 'temp': 0.0, 'lipoC3S3': 11.31, 'state': 'normal', 'rot1': 0, 'rot0': 0, 'rot3': 0, 'rot2': 0, 'depth': -0.369, 'yaw': 7.01, 'datetime': '2018-12-12 14:56:18.645585', 'mgs': 0, 'flw2': 0.0, 'flw1': 0.0, 'flw0': 0.09, 'time': 18.0, 'compass': 102.09, 'pitch': -7.62, 'roll': -9.55}
{'lipoC2': 7.35, 'temp': 0.0, 'lipoC3S3': 11.03, 'state': 'normal', 'rot1': 0, 'rot0': 0, 'rot3': 0, 'rot2': 0, 'depth': -0.522, 'yaw': 7.0, 'datetime': '2018-12-12 14:56:18.854226', 'mgs': 0, 'flw2': 0.0, 'flw1': 0.38, 'flw0': 0.0, 'time': 18.21, 'compass': 102.09, 'pitch': -7.54, 'roll': -9.65}
{'lipoC2': 7.2, 'temp': 0.0, 'lipoC3S3': 10.94, 'state': 'normal', 'rot1': 0, 'rot0': 0, 'rot3': 0, 'rot2': 0, 'depth': -0.903, 'yaw': 7.04, 'datetime': '2018-12-12 14:56:19.062561', 'mgs': 0, 'flw2': 0.0, 'flw1': 0.0, 'flw0': 0.0, 'time': 18.42, 'compass': 102.12, 'pitch': -7.93, 'roll': -9.92}
{'lipoC2': 7.09, 'temp': 0.0, 'lipoC3S3': 11.09, 'state': 'normal', 'rot1': 0, 'rot0': 0, 'rot3': 0, 'rot2': 0, 'depth': -0.217, 'yaw': 7.07, 'datetime': '2018-12-12 14:56:19.272194', 'mgs': 0, 'flw2': 0.06, 'flw1': 0.0, 'flw0': 0.24, 'time': 18.63, 'compass': 102.16, 'pitch': -8.46, 'roll': -10.17}
{'lipoC2': 7.08, 'temp': 0.0, 'lipoC3S3': 10.93, 'state': 'normal', 'rot1': 0, 'rot0': 0, 'rot3': 0, 'rot2': 0, 'depth': 0.241, 'yaw': 7.06, 'datetime': '2018-12-12 14:56:19.481390', 'mgs': 0, 'flw2': 0.02, 'flw1': 0.0, 'flw0': 0.01, 'time': 18.84, 'compass': 102.15, 'pitch': -8.78, 'roll': -10.17}
{'lipoC2': 7.22, 'temp': 0.0, 'lipoC3S3': 11.18, 'state': 'normal', 'rot1': 0, 'rot0': 0, 'rot3': 0, 'rot2': 0, 'depth': -0.903, 'yaw': 7.09, 'datetime': '2018-12-12 14:56:19.688794', 'mgs': 0, 'flw2': 0.0, 'flw1': 0.0, 'flw0': 0.15, 'time': 19.05, 'compass': 102.18, 'pitch': -8.44, 'roll': -10.35}
{'lipoC2': 7.27, 'temp': 0.0, 'lipoC3S3': 11.17, 'state': 'normal', 'rot1': 0, 'rot0': 0, 'rot3': 0, 'rot2': 0, 'depth': -0.217, 'yaw': 7.14, 'datetime': '2018-12-12 14:56:19.897004', 'mgs': 0, 'flw2': 0.0, 'flw1': 0.0, 'flw0': 0.0, 'time': 19.25, 'compass': 102.23, 'pitch': -7.83, 'roll': -10.68}
{'lipoC2': 7.29, 'temp': 0.0, 'lipoC3S3': 11.02, 'state': 'normal', 'rot1': 0, 'rot0': 0, 'rot3': 0, 'rot2': 0, 'depth': -0.903, 'yaw': 7.15, 'datetime': '2018-12-12 14:56:20.107091', 'mgs': 0, 'flw2': 0.0, 'flw1': 0.32, 'flw0': 0.0, 'time': 19.46, 'compass': 102.24, 'pitch': -8.03, 'roll': -10.75}
{'lipoC2': 7.29, 'temp': 0.0, 'lipoC3S3': 11.13, 'state': 'normal', 'rot1': 0, 'rot0': 0, 'rot3': 0, 'rot2': 0, 'depth': 0.012, 'yaw': 7.15, 'datetime': '2018-12-12 14:56:20.314621', 'mgs': 0, 'flw2': 0.01, 'flw1': 0.41, 'flw0': 0.0, 'time': 19.67, 'compass': 102.23, 'pitch': -8.92, 'roll': -10.7}
{'lipoC2': 7.11, 'temp': 0.0, 'lipoC3S3': 11.18, 'state': 'normal', 'rot1': 0, 'rot0': 0, 'rot3': 0, 'rot2': 0, 'depth': -1.132, 'yaw': 7.14, 'datetime': '2018-12-12 14:56:20.525274', 'mgs': 0, 'flw2': 0.0, 'flw1': 0.0, 'flw0': 0.23, 'time': 19.88, 'compass': 102.22, 'pitch': -9.48, 'roll': -10.63}
{'lipoC2': 7.32, 'temp': 0.0, 'lipoC3S3': 11.23, 'state': 'normal', 'rot1': 0, 'rot0': 0, 'rot3': 0, 'rot2': 0, 'depth': 1.309, 'yaw': 7.14, 'datetime': '2018-12-12 14:56:20.731648', 'mgs': 0, 'flw2': 0.0, 'flw1': 0.0, 'flw0': 0.18, 'time': 20.08, 'compass': 102.22, 'pitch': -9.12, 'roll': -10.63}
{'lipoC2': 7.08, 'temp': 0.0, 'lipoC3S3': 11.29, 'state': 'normal', 'rot1': 0, 'rot0': 0, 'rot3': 0, 'rot2': 0, 'depth': 0.47, 'yaw': 7.14, 'datetime': '2018-12-12 14:56:20.942014', 'mgs': 0, 'flw2': 0.33, 'flw1': 0.0, 'flw0': 0.0, 'time': 20.29, 'compass': 102.22, 'pitch': -8.11, 'roll': -10.63}
{'lipoC2': 7.19, 'temp': 0.0, 'lipoC3S3': 10.98, 'state': 'normal', 'rot1': 0, 'rot0': 0, 'rot3': 0, 'rot2': 0, 'depth': -1.056, 'yaw': 7.14, 'datetime': '2018-12-12 14:56:21.150578', 'mgs': 0, 'flw2': 0.0, 'flw1': 0.5, 'flw0': 0.0, 'time': 20.5, 'compass': 102.23, 'pitch': -7.57, 'roll': -10.69}
{'lipoC2': 7.25, 'temp': 0.0, 'lipoC3S3': 11.27, 'state': 'normal', 'rot1': 0, 'rot0': 0, 'rot3': 0, 'rot2': 0, 'depth': 0.241, 'yaw': 7.15, 'datetime': '2018-12-12 14:56:21.357738', 'mgs': 0, 'flw2': 0.0, 'flw1': 0.0, 'flw0': 0.0, 'time': 20.71, 'compass': 102.24, 'pitch': -8.32, 'roll': -10.73}
{'lipoC2': 7.09, 'temp': 0.0, 'lipoC3S3': 11.13, 'state': 'normal', 'rot1': 0, 'rot0': 0, 'rot3': 0, 'rot2': 0, 'depth': -0.369, 'yaw': 7.15, 'datetime': '2018-12-12 14:56:21.564136', 'mgs': 0, 'flw2': 0.16, 'flw1': 0.0, 'flw0': 0.0, 'time': 20.92, 'compass': 102.23, 'pitch': -9.47, 'roll': -10.73}
{'lipoC2': 7.1, 'temp': 0.0, 'lipoC3S3': 11.35, 'state': 'normal', 'rot1': 0, 'rot0': 0, 'rot3': 0, 'rot2': 0, 'depth': -0.369, 'yaw': 7.17, 'datetime': '2018-12-12 14:56:21.773535', 'mgs': 0, 'flw2': 0.22, 'flw1': 0.0, 'flw0': 0.0, 'time': 21.12, 'compass': 102.25, 'pitch': -9.53, 'roll': -10.84}
{'lipoC2': 7.08, 'temp': 0.0, 'lipoC3S3': 11.13, 'state': 'normal', 'rot1': 0, 'rot0': 0, 'rot3': 0, 'rot2': 0, 'depth': 0.546, 'yaw': 7.2, 'datetime': '2018-12-12 14:56:21.981138', 'mgs': 0, 'flw2': 0.0, 'flw1': 0.09, 'flw0': 0.23, 'time': 21.33, 'compass': 102.28, 'pitch': -8.77, 'roll': -11.04}
{'lipoC2': 7.32, 'temp': 0.0, 'lipoC3S3': 10.94, 'state': 'normal', 'rot1': 0, 'rot0': 0, 'rot3': 0, 'rot2': 0, 'depth': 0.775, 'yaw': 7.23, 'datetime': '2018-12-12 14:56:22.192269', 'mgs': 0, 'flw2': 0.0, 'flw1': 0.0, 'flw0': 0.0, 'time': 21.54, 'compass': 102.32, 'pitch': -8.66, 'roll': -11.22}
{'lipoC2': 7.07, 'temp': 0.0, 'lipoC3S3': 11.09, 'state': 'normal', 'rot1': 0, 'rot0': 0, 'rot3': 0, 'rot2': 0, 'depth': -0.827, 'yaw': 7.28, 'datetime': '2018-12-12 14:56:22.395984', 'mgs': 0, 'flw2': 0.0, 'flw1': 0.53, 'flw0': 0.0, 'time': 21.75, 'compass': 102.36, 'pitch': -9.02, 'roll': -11.4}
{'lipoC2': 7.05, 'temp': 0.0, 'lipoC3S3': 11.09, 'state': 'normal', 'rot1': 0, 'rot0': 0, 'rot3': 0, 'rot2': 0, 'depth': -0.522, 'yaw': 7.32, 'datetime': '2018-12-12 14:56:22.601339', 'mgs': 0, 'flw2': 0.24, 'flw1': 0.0, 'flw0': 0.0, 'time': 21.96, 'compass': 102.4, 'pitch': -9.29, 'roll': -11.65}
{'lipoC2': 7.06, 'temp': 0.0, 'lipoC3S3': 10.98, 'state': 'normal', 'rot1': 0, 'rot0': 0, 'rot3': 0, 'rot2': 0, 'depth': 1.462, 'yaw': 7.46, 'datetime': '2018-12-12 14:56:22.810380', 'mgs': 0, 'flw2': 0.0, 'flw1': 0.0, 'flw0': 0.12, 'time': 22.16, 'compass': 102.54, 'pitch': -9.52, 'roll': -11.66}
{'lipoC2': 7.05, 'temp': 0.0, 'lipoC3S3': 11.23, 'state': 'normal', 'rot1': 0, 'rot0': 0, 'rot3': 0, 'rot2': 0, 'depth': -0.827, 'yaw': 7.64, 'datetime': '2018-12-12 14:56:23.018443', 'mgs': 0, 'flw2': 0.0, 'flw1': 0.67, 'flw0': 0.0, 'time': 22.37, 'compass': 102.72, 'pitch': -9.57, 'roll': -11.63}
{'lipoC2': 7.29, 'temp': 0.0, 'lipoC3S3': 11.42, 'state': 'normal', 'rot1': 0, 'rot0': 0, 'rot3': 0, 'rot2': 0, 'depth': 1.004, 'yaw': 7.8, 'datetime': '2018-12-12 14:56:23.232228', 'mgs': 0, 'flw2': 0.0, 'flw1': 0.0, 'flw0': 0.0, 'time': 22.58, 'compass': 102.88, 'pitch': -9.6, 'roll': -11.6}
{'lipoC2': 7.1, 'temp': 0.0, 'lipoC3S3': 10.92, 'state': 'normal', 'rot1': 0, 'rot0': 0, 'rot3': 0, 'rot2': 0, 'depth': -0.369, 'yaw': 8.01, 'datetime': '2018-12-12 14:56:23.439075', 'mgs': 0, 'flw2': 0.0, 'flw1': 0.0, 'flw0': 0.17, 'time': 22.79, 'compass': 103.1, 'pitch': -9.64, 'roll': -11.57}
{'lipoC2': 7.19, 'temp': 0.0, 'lipoC3S3': 11.13, 'state': 'normal', 'rot1': 0, 'rot0': 0, 'rot3': 0, 'rot2': 0, 'depth': 0.928, 'yaw': 8.22, 'datetime': '2018-12-12 14:56:23.646716', 'mgs': 0, 'flw2': 0.0, 'flw1': 0.0, 'flw0': 0.18, 'time': 23.0, 'compass': 103.3, 'pitch': -9.68, 'roll': -11.54}
{'lipoC2': 7.22, 'temp': 0.0, 'lipoC3S3': 11.03, 'state': 'normal', 'rot1': 0, 'rot0': 0, 'rot3': 0, 'rot2': 0, 'depth': -0.827, 'yaw': 8.41, 'datetime': '2018-12-12 14:56:23.854285', 'mgs': 0, 'flw2': 0.0, 'flw1': 0.0, 'flw0': 0.0, 'time': 23.2, 'compass': 103.5, 'pitch': -9.68, 'roll': -11.62}
{'lipoC2': 7.14, 'temp': 0.0, 'lipoC3S3': 11.17, 'state': 'normal', 'rot1': 0, 'rot0': 0, 'rot3': 0, 'rot2': 0, 'depth': -1.208, 'yaw': 8.65, 'datetime': '2018-12-12 14:56:24.062016', 'mgs': 0, 'flw2': 0.0, 'flw1': 0.56, 'flw0': 0.02, 'time': 23.41, 'compass': 103.73, 'pitch': -9.48, 'roll': -11.59}
{'lipoC2': 7.28, 'temp': 0.0, 'lipoC3S3': 11.09, 'state': 'normal', 'rot1': 0, 'rot0': 0, 'rot3': 0, 'rot2': 0, 'depth': -0.98, 'yaw': 8.89, 'datetime': '2018-12-12 14:56:24.271479', 'mgs': 0, 'flw2': 0.0, 'flw1': 0.0, 'flw0': 0.35, 'time': 23.62, 'compass': 103.98, 'pitch': -9.52, 'roll': -11.74}
{'lipoC2': 7.19, 'temp': 0.0, 'lipoC3S3': 10.92, 'state': 'normal', 'rot1': 0, 'rot0': 0, 'rot3': 0, 'rot2': 0, 'depth': 0.241, 'yaw': 9.09, 'datetime': '2018-12-12 14:56:24.480465', 'mgs': 0, 'flw2': 0.0, 'flw1': 0.47, 'flw0': 0.0, 'time': 23.83, 'compass': 104.17, 'pitch': -10.1, 'roll': -11.89}
{'lipoC2': 7.05, 'temp': 0.0, 'lipoC3S3': 11.02, 'state': 'normal', 'rot1': 0, 'rot0': 0, 'rot3': 0, 'rot2': 0, 'depth': -1.208, 'yaw': 9.32, 'datetime': '2018-12-12 14:56:24.691023', 'mgs': 0, 'flw2': 0.0, 'flw1': 0.0, 'flw0': 0.22, 'time': 24.04, 'compass': 104.41, 'pitch': -10.78, 'roll': -12.01}
{'lipoC2': 7.32, 'temp': 0.0, 'lipoC3S3': 11.23, 'state': 'normal', 'rot1': 0, 'rot0': 0, 'rot3': 0, 'rot2': 0, 'depth': -0.674, 'yaw': 9.59, 'datetime': '2018-12-12 14:56:24.898520', 'mgs': 0, 'flw2': 0.0, 'flw1': 0.0, 'flw0': 0.0, 'time': 24.25, 'compass': 104.67, 'pitch': -10.73, 'roll': -12.0}
{'lipoC2': 7.1, 'temp': 0.0, 'lipoC3S3': 11.0, 'state': 'normal', 'rot1': 0, 'rot0': 0, 'rot3': 0, 'rot2': 0, 'depth': -0.14, 'yaw': 9.82, 'datetime': '2018-12-12 14:56:25.108305', 'mgs': 0, 'flw2': 0.04, 'flw1': 0.0, 'flw0': 0.0, 'time': 24.45, 'compass': 104.9, 'pitch': -10.16, 'roll': -11.82}
{'lipoC2': 7.27, 'temp': 0.0, 'lipoC3S3': 11.4, 'state': 'normal', 'rot1': 0, 'rot0': 0, 'rot3': 0, 'rot2': 0, 'depth': 1.614, 'yaw': 10.01, 'datetime': '2018-12-12 14:56:25.316671', 'mgs': 0, 'flw2': 0.0, 'flw1': 0.18, 'flw0': 0.0, 'time': 24.66, 'compass': 105.1, 'pitch': -10.11, 'roll': -11.76}
{'lipoC2': 7.08, 'temp': 0.0, 'lipoC3S3': 10.98, 'state': 'normal', 'rot1': 0, 'rot0': 0, 'rot3': 0, 'rot2': 0, 'depth': 1.691, 'yaw': 10.28, 'datetime': '2018-12-12 14:56:25.523987', 'mgs': 0, 'flw2': 0.0, 'flw1': 0.0, 'flw0': 0.16, 'time': 24.87, 'compass': 105.36, 'pitch': -10.97, 'roll': -11.79}
{'lipoC2': 7.11, 'temp': 0.0, 'lipoC3S3': 11.21, 'state': 'normal', 'rot1': 0, 'rot0': 0, 'rot3': 0, 'rot2': 0, 'depth': -0.827, 'yaw': 10.59, 'datetime': '2018-12-12 14:56:25.734283', 'mgs': 0, 'flw2': 0.23, 'flw1': 0.0, 'flw0': 0.0, 'time': 25.08, 'compass': 105.68, 'pitch': -11.7, 'roll': -12.12}
{'lipoC2': 7.2, 'temp': 0.0, 'lipoC3S3': 10.92, 'state': 'normal', 'rot1': 0, 'rot0': 0, 'rot3': 0, 'rot2': 0, 'depth': -0.369, 'yaw': 10.89, 'datetime': '2018-12-12 14:56:25.941378', 'mgs': 0, 'flw2': 0.0, 'flw1': 0.0, 'flw0': 0.09, 'time': 25.28, 'compass': 105.98, 'pitch': -11.34, 'roll': -12.47}
{'lipoC2': 7.1, 'temp': 0.0, 'lipoC3S3': 10.98, 'state': 'normal', 'rot1': 0, 'rot0': 0, 'rot3': 0, 'rot2': 0, 'depth': 2.072, 'yaw': 11.21, 'datetime': '2018-12-12 14:56:26.148743', 'mgs': 0, 'flw2': 0.0, 'flw1': 0.0, 'flw0': 0.23, 'time': 25.49, 'compass': 106.3, 'pitch': -10.7, 'roll': -12.54}
{'lipoC2': 7.09, 'temp': 0.0, 'lipoC3S3': 11.19, 'state': 'normal', 'rot1': 0, 'rot0': 0, 'rot3': 0, 'rot2': 0, 'depth': 0.928, 'yaw': 11.44, 'datetime': '2018-12-12 14:56:26.357067', 'mgs': 0, 'flw2': 0.06, 'flw1': 0.29, 'flw0': 0.0, 'time': 25.7, 'compass': 106.53, 'pitch': -11.02, 'roll': -12.32}
{'lipoC2': 7.08, 'temp': 0.0, 'lipoC3S3': 10.96, 'state': 'normal', 'rot1': 0, 'rot0': 0, 'rot3': 0, 'rot2': 0, 'depth': -0.674, 'yaw': 11.7, 'datetime': '2018-12-12 14:56:26.565183', 'mgs': 0, 'flw2': 0.0, 'flw1': 0.5, 'flw0': 0.0, 'time': 25.91, 'compass': 106.79, 'pitch': -11.72, 'roll': -12.12}
{'lipoC2': 7.14, 'temp': 0.0, 'lipoC3S3': 11.26, 'state': 'normal', 'rot1': 0, 'rot0': 0, 'rot3': 0, 'rot2': 0, 'depth': -1.056, 'yaw': 11.95, 'datetime': '2018-12-12 14:56:26.777037', 'mgs': 0, 'flw2': 0.0, 'flw1': 0.0, 'flw0': 0.0, 'time': 26.12, 'compass': 107.04, 'pitch': -11.66, 'roll': -12.07}
{'lipoC2': 7.21, 'temp': 0.0, 'lipoC3S3': 11.06, 'state': 'normal', 'rot1': 0, 'rot0': 0, 'rot3': 0, 'rot2': 0, 'depth': 2.301, 'yaw': 12.2, 'datetime': '2018-12-12 14:56:26.981914', 'mgs': 0, 'flw2': 0.01, 'flw1': 0.0, 'flw0': 0.0, 'time': 26.33, 'compass': 107.29, 'pitch': -11.15, 'roll': -12.09}
{'lipoC2': 7.05, 'temp': 0.0, 'lipoC3S3': 11.25, 'state': 'normal', 'rot1': 0, 'rot0': 0, 'rot3': 0, 'rot2': 0, 'depth': -0.903, 'yaw': 12.53, 'datetime': '2018-12-12 14:56:27.191039', 'mgs': 0, 'flw2': 0.06, 'flw1': 0.0, 'flw0': 0.0, 'time': 26.53, 'compass': 107.61, 'pitch': -11.21, 'roll': -12.09}
{'lipoC2': 7.04, 'temp': 0.0, 'lipoC3S3': 11.06, 'state': 'normal', 'rot1': 0, 'rot0': 0, 'rot3': 0, 'rot2': 0, 'depth': -0.674, 'yaw': 12.8, 'datetime': '2018-12-12 14:56:27.400131', 'mgs': 0, 'flw2': 0.11, 'flw1': 0.0, 'flw0': 0.0, 'time': 26.74, 'compass': 107.89, 'pitch': -11.77, 'roll': -12.28}
{'lipoC2': 7.08, 'temp': 0.0, 'lipoC3S3': 11.07, 'state': 'normal', 'rot1': 0, 'rot0': 0, 'rot3': 0, 'rot2': 0, 'depth': -0.446, 'yaw': 13.08, 'datetime': '2018-12-12 14:56:27.608390', 'mgs': 0, 'flw2': 0.0, 'flw1': 0.0, 'flw0': 0.13, 'time': 26.95, 'compass': 108.16, 'pitch': -12.02, 'roll': -12.58}
{'lipoC2': 7.06, 'temp': 0.0, 'lipoC3S3': 11.23, 'state': 'normal', 'rot1': 0, 'rot0': 0, 'rot3': 0, 'rot2': 0, 'depth': 0.47, 'yaw': 13.32, 'datetime': '2018-12-12 14:56:27.816967', 'mgs': 0, 'flw2': 0.0, 'flw1': 0.0, 'flw0': 0.24, 'time': 27.16, 'compass': 108.4, 'pitch': -12.03, 'roll': -12.63}
{'lipoC2': 7.09, 'temp': 0.0, 'lipoC3S3': 10.96, 'state': 'normal', 'rot1': 0, 'rot0': 0, 'rot3': 0, 'rot2': 0, 'depth': -0.293, 'yaw': 13.59, 'datetime': '2018-12-12 14:56:28.026983', 'mgs': 0, 'flw2': 0.0, 'flw1': 0.0, 'flw0': 0.01, 'time': 27.37, 'compass': 108.68, 'pitch': -12.09, 'roll': -12.57}
{'lipoC2': 7.11, 'temp': 0.0, 'lipoC3S3': 11.44, 'state': 'normal', 'rot1': 0, 'rot0': 0, 'rot3': 0, 'rot2': 0, 'depth': -0.598, 'yaw': 13.79, 'datetime': '2018-12-12 14:56:28.232813', 'mgs': 0, 'flw2': 0.0, 'flw1': 0.0, 'flw0': 0.09, 'time': 27.58, 'compass': 108.87, 'pitch': -12.29, 'roll': -12.53}
{'lipoC2': 7.27, 'temp': 0.0, 'lipoC3S3': 11.36, 'state': 'normal', 'rot1': 0, 'rot0': 0, 'rot3': 0, 'rot2': 0, 'depth': 1.462, 'yaw': 14.0, 'datetime': '2018-12-12 14:56:28.445111', 'mgs': 0, 'flw2': 0.07, 'flw1': 0.0, 'flw0': 0.0, 'time': 27.78, 'compass': 109.08, 'pitch': -12.72, 'roll': -12.48}
{'lipoC2': 7.08, 'temp': 0.0, 'lipoC3S3': 10.98, 'state': 'normal', 'rot1': 0, 'rot0': 0, 'rot3': 0, 'rot2': 0, 'depth': -0.446, 'yaw': 14.23, 'datetime': '2018-12-12 14:56:28.647714', 'mgs': 0, 'flw2': 0.0, 'flw1': 0.0, 'flw0': 0.0, 'time': 27.99, 'compass': 109.32, 'pitch': -13.02, 'roll': -12.31}
{'lipoC2': 7.07, 'temp': 0.0, 'lipoC3S3': 11.1, 'state': 'normal', 'rot1': 0, 'rot0': 0, 'rot3': 0, 'rot2': 0, 'depth': -0.903, 'yaw': 14.4, 'datetime': '2018-12-12 14:56:28.859430', 'mgs': 0, 'flw2': 0.0, 'flw1': 0.35, 'flw0': 0.0, 'time': 28.2, 'compass': 109.49, 'pitch': -13.06, 'roll': -12.31}
{'lipoC2': 7.09, 'temp': 0.0, 'lipoC3S3': 10.9, 'state': 'normal', 'rot1': 0, 'rot0': 0, 'rot3': 0, 'rot2': 0, 'depth': -0.446, 'yaw': 14.65, 'datetime': '2018-12-12 14:56:29.066920', 'mgs': 0, 'flw2': 0.0, 'flw1': 0.0, 'flw0': 0.12, 'time': 28.41, 'compass': 109.73, 'pitch': -13.11, 'roll': -12.55}
{'lipoC2': 7.28, 'temp': 0.0, 'lipoC3S3': 11.46, 'state': 'normal', 'rot1': 0, 'rot0': 0, 'rot3': 0, 'rot2': 0, 'depth': 1.385, 'yaw': 14.95, 'datetime': '2018-12-12 14:56:29.273615', 'mgs': 0, 'flw2': 0.0, 'flw1': 0.0, 'flw0': 0.26, 'time': 28.61, 'compass': 110.03, 'pitch': -13.17, 'roll': -12.89}
{'lipoC2': 7.26, 'temp': 0.0, 'lipoC3S3': 11.23, 'state': 'normal', 'rot1': 0, 'rot0': 0, 'rot3': 0, 'rot2': 0, 'depth': 1.538, 'yaw': 15.19, 'datetime': '2018-12-12 14:56:29.481739', 'mgs': 0, 'flw2': 0.35, 'flw1': 0.03, 'flw0': 0.0, 'time': 28.82, 'compass': 110.27, 'pitch': -13.4, 'roll': -13.17}
{'lipoC2': 7.22, 'temp': 0.0, 'lipoC3S3': 10.98, 'state': 'normal', 'rot1': 0, 'rot0': 0, 'rot3': 0, 'rot2': 0, 'depth': -1.361, 'yaw': 15.35, 'datetime': '2018-12-12 14:56:29.693188', 'mgs': 0, 'flw2': 0.0, 'flw1': 0.0, 'flw0': 0.0, 'time': 29.03, 'compass': 110.43, 'pitch': -13.41, 'roll': -13.14}
{'lipoC2': 7.4, 'temp': 0.0, 'lipoC3S3': 11.18, 'state': 'normal', 'rot1': 0, 'rot0': 0, 'rot3': 0, 'rot2': 0, 'depth': -0.827, 'yaw': 15.38, 'datetime': '2018-12-12 14:56:29.899852', 'mgs': 0, 'flw2': 0.0, 'flw1': 0.53, 'flw0': 0.0, 'time': 29.24, 'compass': 110.46, 'pitch': -13.15, 'roll': -13.13}
{'lipoC2': 7.29, 'temp': 0.0, 'lipoC3S3': 10.9, 'state': 'normal', 'rot1': 0, 'rot0': 0, 'rot3': 0, 'rot2': 0, 'depth': -0.674, 'yaw': 15.38, 'datetime': '2018-12-12 14:56:30.106093', 'mgs': 0, 'flw2': 0.0, 'flw1': 0.0, 'flw0': 0.0, 'time': 29.45, 'compass': 110.46, 'pitch': -12.94, 'roll': -12.9}
{'lipoC2': 7.33, 'temp': 0.0, 'lipoC3S3': 11.3, 'state': 'normal', 'rot1': 0, 'rot0': 0, 'rot3': 0, 'rot2': 0, 'depth': 0.165, 'yaw': 15.37, 'datetime': '2018-12-12 14:56:30.314720', 'mgs': 0, 'flw2': 0.0, 'flw1': 0.53, 'flw0': 0.02, 'time': 29.65, 'compass': 110.45, 'pitch': -13.14, 'roll': -12.5}
{'lipoC2': 7.05, 'temp': 0.0, 'lipoC3S3': 11.21, 'state': 'normal', 'rot1': 0, 'rot0': 0, 'rot3': 0, 'rot2': 0, 'depth': -0.217, 'yaw': 15.39, 'datetime': '2018-12-12 14:56:30.522323', 'mgs': 0, 'flw2': 0.0, 'flw1': 0.7, 'flw0': 0.0, 'time': 29.86, 'compass': 110.47, 'pitch': -13.75, 'roll': -12.58}
{'lipoC2': 7.05, 'temp': 0.0, 'lipoC3S3': 11.07, 'state': 'normal', 'rot1': 0, 'rot0': 0, 'rot3': 0, 'rot2': 0, 'depth': -0.446, 'yaw': 15.56, 'datetime': '2018-12-12 14:56:30.732013', 'mgs': 0, 'flw2': 0.33, 'flw1': 0.0, 'flw0': 0.0, 'time': 30.07, 'compass': 110.64, 'pitch': -14.22, 'roll': -13.23}
{'lipoC2': 7.33, 'temp': 0.0, 'lipoC3S3': 11.0, 'state': 'normal', 'rot1': 0, 'rot0': 0, 'rot3': 0, 'rot2': 0, 'depth': -0.293, 'yaw': 15.73, 'datetime': '2018-12-12 14:56:30.944101', 'mgs': 0, 'flw2': 0.0, 'flw1': 0.09, 'flw0': 0.0, 'time': 30.28, 'compass': 110.82, 'pitch': -14.19, 'roll': -13.9}
{'lipoC2': 7.1, 'temp': 0.0, 'lipoC3S3': 11.3, 'state': 'normal', 'rot1': 0, 'rot0': 0, 'rot3': 0, 'rot2': 0, 'depth': -0.751, 'yaw': 15.78, 'datetime': '2018-12-12 14:56:31.152332', 'mgs': 0, 'flw2': 0.0, 'flw1': 0.56, 'flw0': 0.0, 'time': 30.49, 'compass': 110.87, 'pitch': -13.95, 'roll': -14.11}
{'lipoC2': 7.09, 'temp': 0.0, 'lipoC3S3': 11.18, 'state': 'normal', 'rot1': 0, 'rot0': 0, 'rot3': 0, 'rot2': 0, 'depth': -0.217, 'yaw': 15.73, 'datetime': '2018-12-12 14:56:31.355599', 'mgs': 0, 'flw2': 0.18, 'flw1': 0.0, 'flw0': 0.0, 'time': 30.69, 'compass': 110.82, 'pitch': -13.71, 'roll': -13.92}
{'lipoC2': 7.24, 'temp': 0.0, 'lipoC3S3': 11.26, 'state': 'normal', 'rot1': 0, 'rot0': 0, 'rot3': 0, 'rot2': 0, 'depth': -0.98, 'yaw': 15.65, 'datetime': '2018-12-12 14:56:31.570112', 'mgs': 0, 'flw2': 0.0, 'flw1': 0.53, 'flw0': 0.0, 'time': 30.9, 'compass': 110.74, 'pitch': -13.68, 'roll': -13.6}
{'lipoC2': 7.27, 'temp': 0.0, 'lipoC3S3': 11.05, 'state': 'normal', 'rot1': 0, 'rot0': 0, 'rot3': 0, 'rot2': 0, 'depth': 0.394, 'yaw': 15.58, 'datetime': '2018-12-12 14:56:31.773477', 'mgs': 0, 'flw2': 0.0, 'flw1': 0.53, 'flw0': 0.0, 'time': 31.11, 'compass': 110.67, 'pitch': -13.95, 'roll': -13.33}
{'lipoC2': 7.05, 'temp': 0.0, 'lipoC3S3': 11.26, 'state': 'normal', 'rot1': 0, 'rot0': 0, 'rot3': 0, 'rot2': 0, 'depth': -0.751, 'yaw': 15.72, 'datetime': '2018-12-12 14:56:31.979522', 'mgs': 0, 'flw2': 4.55, 'flw1': 0.0, 'flw0': 4.59, 'time': 31.32, 'compass': 110.81, 'pitch': -14.21, 'roll': -13.21}
{'lipoC2': 7.28, 'temp': 0.0, 'lipoC3S3': 11.22, 'state': 'normal', 'rot1': 5, 'rot0': 4, 'rot3': 0, 'rot2': 0, 'depth': 2.835, 'yaw': 20.32, 'datetime': '2018-12-12 14:56:32.187953', 'mgs': 0, 'flw2': 4.06, 'flw1': 0.32, 'flw0': 4.31, 'time': 31.53, 'compass': 115.4, 'pitch': -14.65, 'roll': -11.33}
{'lipoC2': 7.17, 'temp': 0.0, 'lipoC3S3': 11.13, 'state': 'normal', 'rot1': 9, 'rot0': 7, 'rot3': 0, 'rot2': 0, 'depth': -0.064, 'yaw': 30.09, 'datetime': '2018-12-12 14:56:32.394824', 'mgs': 0, 'flw2': 3.59, 'flw1': 0.0, 'flw0': 3.94, 'time': 31.73, 'compass': 125.17, 'pitch': -15.5, 'roll': -7.73}
{'lipoC2': 7.09, 'temp': 0.0, 'lipoC3S3': 10.89, 'state': 'normal', 'rot1': 13, 'rot0': 10, 'rot3': 0, 'rot2': 0, 'depth': -0.522, 'yaw': 42.87, 'datetime': '2018-12-12 14:56:32.606635', 'mgs': 0, 'flw2': 3.71, 'flw1': 0.47, 'flw0': 4.08, 'time': 31.94, 'compass': 137.95, 'pitch': -17.05, 'roll': -3.39}
{'lipoC2': 7.07, 'temp': 0.0, 'lipoC3S3': 11.19, 'state': 'normal', 'rot1': 17, 'rot0': 14, 'rot3': 0, 'rot2': 0, 'depth': -0.446, 'yaw': 56.07, 'datetime': '2018-12-12 14:56:32.814912', 'mgs': 0, 'flw2': 3.88, 'flw1': 0.0, 'flw0': 3.82, 'time': 32.15, 'compass': 151.16, 'pitch': -18.57, 'roll': 0.58}
{'lipoC2': 7.07, 'temp': 0.0, 'lipoC3S3': 11.13, 'state': 'normal', 'rot1': 21, 'rot0': 16, 'rot3': 0, 'rot2': 0, 'depth': 0.775, 'yaw': 70.24, 'datetime': '2018-12-12 14:56:33.024253', 'mgs': 0, 'flw2': 3.64, 'flw1': 0.0, 'flw0': 4.47, 'time': 32.36, 'compass': 165.32, 'pitch': -18.9, 'roll': 4.8}
{'lipoC2': 7.06, 'temp': 0.0, 'lipoC3S3': 10.94, 'state': 'normal', 'rot1': 25, 'rot0': 20, 'rot3': 0, 'rot2': 0, 'depth': -0.751, 'yaw': 84.75, 'datetime': '2018-12-12 14:56:33.232512', 'mgs': 0, 'flw2': 3.44, 'flw1': 0.0, 'flw0': 4.28, 'time': 32.57, 'compass': 179.83, 'pitch': -17.69, 'roll': 9.61}
{'lipoC2': 7.34, 'temp': 0.0, 'lipoC3S3': 10.88, 'state': 'normal', 'rot1': 29, 'rot0': 23, 'rot3': 0, 'rot2': 0, 'depth': 0.317, 'yaw': 99.9, 'datetime': '2018-12-12 14:56:33.442395', 'mgs': 0, 'flw2': 3.53, 'flw1': 0.0, 'flw0': 3.88, 'time': 32.78, 'compass': -165.01, 'pitch': -15.7, 'roll': 14.53}
{'lipoC2': 7.28, 'temp': 0.0, 'lipoC3S3': 11.22, 'state': 'normal', 'rot1': 33, 'rot0': 26, 'rot3': 0, 'rot2': 0, 'depth': 2.072, 'yaw': 116.25, 'datetime': '2018-12-12 14:56:33.651247', 'mgs': 0, 'flw2': 3.69, 'flw1': 0.0, 'flw0': 3.7, 'time': 32.99, 'compass': -148.67, 'pitch': -12.37, 'roll': 19.29}
{'lipoC2': 7.28, 'temp': 0.0, 'lipoC3S3': 10.81, 'state': 'normal', 'rot1': 38, 'rot0': 29, 'rot3': 0, 'rot2': 0, 'depth': -0.903, 'yaw': 134.25, 'datetime': '2018-12-12 14:56:33.861005', 'mgs': 0, 'flw2': 3.14, 'flw1': 0.0, 'flw0': 3.75, 'time': 33.2, 'compass': -130.66, 'pitch': -6.64, 'roll': 22.88}
{'lipoC2': 7.13, 'temp': 0.0, 'lipoC3S3': 10.88, 'state': 'normal', 'rot1': 41, 'rot0': 33, 'rot3': 0, 'rot2': 0, 'depth': 1.462, 'yaw': 152.54, 'datetime': '2018-12-12 14:56:34.072692', 'mgs': 0, 'flw2': 3.41, 'flw1': 0.0, 'flw0': 3.82, 'time': 33.41, 'compass': -112.37, 'pitch': -0.15, 'roll': 23.87}
{'lipoC2': 7.06, 'temp': 0.0, 'lipoC3S3': 10.97, 'state': 'normal', 'rot1': 44, 'rot0': 36, 'rot3': 0, 'rot2': 0, 'depth': -0.064, 'yaw': 172.08, 'datetime': '2018-12-12 14:56:34.280916', 'mgs': 0, 'flw2': 3.34, 'flw1': 0.0, 'flw0': 3.81, 'time': 33.62, 'compass': -92.83, 'pitch': 6.3, 'roll': 22.81}
{'lipoC2': 7.2, 'temp': 0.0, 'lipoC3S3': 10.76, 'state': 'normal', 'rot1': 48, 'rot0': 39, 'rot3': 0, 'rot2': 0, 'depth': -1.285, 'yaw': -168.52, 'datetime': '2018-12-12 14:56:34.490532', 'mgs': 0, 'flw2': 3.32, 'flw1': 0.64, 'flw0': 3.8, 'time': 33.82, 'compass': -73.43, 'pitch': 12.2, 'roll': 20.01}
{'lipoC2': 7.25, 'temp': 0.0, 'lipoC3S3': 11.11, 'state': 'normal', 'rot1': 52, 'rot0': 42, 'rot3': 0, 'rot2': 0, 'depth': -0.827, 'yaw': -149.8, 'datetime': '2018-12-12 14:56:34.699756', 'mgs': 0, 'flw2': 3.55, 'flw1': 0.44, 'flw0': 3.86, 'time': 34.03, 'compass': -54.72, 'pitch': 16.97, 'roll': 15.54}
{'lipoC2': 7.35, 'temp': 0.0, 'lipoC3S3': 11.27, 'state': 'normal', 'rot1': 55, 'rot0': 45, 'rot3': 0, 'rot2': 0, 'depth': -0.369, 'yaw': -131.45, 'datetime': '2018-12-12 14:56:34.909181', 'mgs': 0, 'flw2': 3.43, 'flw1': 0.73, 'flw0': 3.86, 'time': 34.24, 'compass': -36.37, 'pitch': 19.4, 'roll': 9.85}
{'lipoC2': 7.3, 'temp': 0.0, 'lipoC3S3': 10.73, 'state': 'normal', 'rot1': 58, 'rot0': 48, 'rot3': 0, 'rot2': 0, 'depth': -0.522, 'yaw': -113.28, 'datetime': '2018-12-12 14:56:35.119019', 'mgs': 0, 'flw2': 3.42, 'flw1': 0.0, 'flw0': 3.87, 'time': 34.45, 'compass': -18.2, 'pitch': 19.27, 'roll': 3.49}
{'lipoC2': 7.06, 'temp': 0.0, 'lipoC3S3': 11.21, 'state': 'normal', 'rot1': 63, 'rot0': 52, 'rot3': 0, 'rot2': 0, 'depth': -1.59, 'yaw': -95.11, 'datetime': '2018-12-12 14:56:35.327011', 'mgs': 0, 'flw2': 3.47, 'flw1': 0.0, 'flw0': 4.21, 'time': 34.66, 'compass': -0.02, 'pitch': 17.58, 'roll': -2.76}
{'lipoC2': 7.18, 'temp': 0.0, 'lipoC3S3': 10.98, 'state': 'normal', 'rot1': 68, 'rot0': 55, 'rot3': 0, 'rot2': 0, 'depth': -0.98, 'yaw': -76.94, 'datetime': '2018-12-12 14:56:35.536215', 'mgs': 0, 'flw2': 3.22, 'flw1': 0.0, 'flw0': 4.0, 'time': 34.87, 'compass': 18.14, 'pitch': 14.82, 'roll': -7.82}
{'lipoC2': 7.18, 'temp': 0.0, 'lipoC3S3': 10.82, 'state': 'normal', 'rot1': 72, 'rot0': 58, 'rot3': 0, 'rot2': 0, 'depth': -0.903, 'yaw': -57.15, 'datetime': '2018-12-12 14:56:35.744497', 'mgs': 0, 'flw2': 3.22, 'flw1': 0.0, 'flw0': 3.76, 'time': 35.08, 'compass': 37.94, 'pitch': 10.44, 'roll': -11.78}
{'lipoC2': 7.21, 'temp': 0.0, 'lipoC3S3': 10.93, 'state': 'normal', 'rot1': 76, 'rot0': 62, 'rot3': 0, 'rot2': 0, 'depth': -1.437, 'yaw': -36.78, 'datetime': '2018-12-12 14:56:35.956167', 'mgs': 0, 'flw2': 3.34, 'flw1': 0.62, 'flw0': 3.7, 'time': 35.29, 'compass': 58.31, 'pitch': 3.88, 'roll': -14.41}
{'lipoC2': 7.15, 'temp': 0.0, 'lipoC3S3': 11.19, 'state': 'normal', 'rot1': 80, 'rot0': 65, 'rot3': 0, 'rot2': 0, 'depth': -0.903, 'yaw': -16.26, 'datetime': '2018-12-12 14:56:36.166210', 'mgs': 0, 'flw2': 3.5, 'flw1': 0.41, 'flw0': 3.63, 'time': 35.5, 'compass': 78.83, 'pitch': -4.32, 'roll': -15.19}
{'lipoC2': 7.35, 'temp': 0.0, 'lipoC3S3': 10.89, 'state': 'normal', 'rot1': 84, 'rot0': 68, 'rot3': 0, 'rot2': 0, 'depth': -0.903, 'yaw': 3.85, 'datetime': '2018-12-12 14:56:36.375504', 'mgs': 0, 'flw2': 3.54, 'flw1': 0.56, 'flw0': 3.96, 'time': 35.71, 'compass': 98.93, 'pitch': -11.42, 'roll': -13.14}
{'lipoC2': 7.18, 'temp': 0.0, 'lipoC3S3': 10.89, 'state': 'normal', 'rot1': 88, 'rot0': 72, 'rot3': 0, 'rot2': 0, 'depth': 0.089, 'yaw': 22.46, 'datetime': '2018-12-12 14:56:36.585394', 'mgs': 0, 'flw2': 3.31, 'flw1': 0.0, 'flw0': 3.66, 'time': 35.92, 'compass': 117.55, 'pitch': -15.87, 'roll': -9.08}
{'lipoC2': 7.1, 'temp': 0.0, 'lipoC3S3': 10.88, 'state': 'normal', 'rot1': 91, 'rot0': 75, 'rot3': 0, 'rot2': 0, 'depth': 1.233, 'yaw': 41.39, 'datetime': '2018-12-12 14:56:36.792661', 'mgs': 0, 'flw2': 3.1, 'flw1': 0.0, 'flw0': 3.5, 'time': 36.12, 'compass': 136.47, 'pitch': -19.26, 'roll': -3.45}
{'lipoC2': 7.11, 'temp': 0.0, 'lipoC3S3': 10.78, 'state': 'normal', 'rot1': 95, 'rot0': 79, 'rot3': 0, 'rot2': 0, 'depth': -1.743, 'yaw': 59.44, 'datetime': '2018-12-12 14:56:37.002417', 'mgs': 0, 'flw2': 3.3, 'flw1': 0.0, 'flw0': 3.59, 'time': 36.33, 'compass': 154.53, 'pitch': -21.59, 'roll': 3.14}
{'lipoC2': 7.23, 'temp': 0.0, 'lipoC3S3': 10.82, 'state': 'normal', 'rot1': 101, 'rot0': 82, 'rot3': 0, 'rot2': 0, 'depth': -1.59, 'yaw': 77.35, 'datetime': '2018-12-12 14:56:37.210383', 'mgs': 0, 'flw2': 2.91, 'flw1': 0.0, 'flw0': 3.41, 'time': 36.54, 'compass': 172.43, 'pitch': -20.93, 'roll': 9.74}
{'lipoC2': 7.14, 'temp': 0.0, 'lipoC3S3': 10.98, 'state': 'normal', 'rot1': 105, 'rot0': 85, 'rot3': 0, 'rot2': 0, 'depth': 0.394, 'yaw': 95.85, 'datetime': '2018-12-12 14:56:37.422871', 'mgs': 0, 'flw2': 0.77, 'flw1': 0.7, 'flw0': 0.54, 'time': 36.75, 'compass': -169.07, 'pitch': -17.56, 'roll': 15.28}
{'lipoC2': 7.46, 'temp': 0.0, 'lipoC3S3': 11.02, 'state': 'normal', 'rot1': 107, 'rot0': 86, 'rot3': 0, 'rot2': 0, 'depth': -0.98, 'yaw': 112.64, 'datetime': '2018-12-12 14:56:37.632541', 'mgs': 0, 'flw2': 0.59, 'flw1': 0.0, 'flw0': 3.17, 'time': 36.96, 'compass': -152.27, 'pitch': -13.71, 'roll': 18.15}
{'lipoC2': 7.29, 'temp': 0.0, 'lipoC3S3': 11.27, 'state': 'normal', 'rot1': 108, 'rot0': 87, 'rot3': 0, 'rot2': 0, 'depth': 2.072, 'yaw': 124.98, 'datetime': '2018-12-12 14:56:37.841771', 'mgs': 0, 'flw2': 0.31, 'flw1': 0.0, 'flw0': 0.24, 'time': 37.17, 'compass': -139.94, 'pitch': -9.87, 'roll': 18.63}
{'lipoC2': 7.05, 'temp': 0.0, 'lipoC3S3': 10.76, 'state': 'normal', 'rot1': 112, 'rot0': 90, 'rot3': 0, 'rot2': 0, 'depth': -0.369, 'yaw': 134.22, 'datetime': '2018-12-12 14:56:38.050500', 'mgs': 0, 'flw2': 5.68, 'flw1': 0.0, 'flw0': 5.55, 'time': 37.38, 'compass': -130.7, 'pitch': -7.54, 'roll': 18.48}
{'lipoC2': 7.19, 'temp': 0.0, 'lipoC3S3': 11.32, 'state': 'normal', 'rot1': 115, 'rot0': 92, 'rot3': 0, 'rot2': 0, 'depth': 1.538, 'yaw': 144.42, 'datetime': '2018-12-12 14:56:38.262853', 'mgs': 0, 'flw2': 0.15, 'flw1': 0.41, 'flw0': 0.13, 'time': 37.59, 'compass': -120.5, 'pitch': -4.69, 'roll': 20.16}
{'lipoC2': 7.19, 'temp': 0.0, 'lipoC3S3': 10.89, 'state': 'normal', 'rot1': 117, 'rot0': 93, 'rot3': 0, 'rot2': 0, 'depth': 0.928, 'yaw': 154.8, 'datetime': '2018-12-12 14:56:38.468719', 'mgs': 0, 'flw2': 0.63, 'flw1': 0.0, 'flw0': 2.97, 'time': 37.8, 'compass': -110.12, 'pitch': -0.95, 'roll': 21.78}
{'lipoC2': 7.27, 'temp': 0.0, 'lipoC3S3': 11.13, 'state': 'normal', 'rot1': 119, 'rot0': 95, 'rot3': 0, 'rot2': 0, 'depth': -0.369, 'yaw': 161.99, 'datetime': '2018-12-12 14:56:38.680872', 'mgs': 0, 'flw2': 0.71, 'flw1': 0.0, 'flw0': 2.64, 'time': 38.01, 'compass': -102.92, 'pitch': 3.12, 'roll': 21.48}
{'lipoC2': 7.15, 'temp': 0.0, 'lipoC3S3': 11.26, 'state': 'normal', 'rot1': 121, 'rot0': 96, 'rot3': 0, 'rot2': 0, 'depth': 1.462, 'yaw': 165.88, 'datetime': '2018-12-12 14:56:38.889755', 'mgs': 0, 'flw2': 0.63, 'flw1': 0.09, 'flw0': 2.7, 'time': 38.22, 'compass': -99.04, 'pitch': 5.2, 'roll': 20.38}
{'lipoC2': 7.24, 'temp': 0.0, 'lipoC3S3': 10.96, 'state': 'normal', 'rot1': 124, 'rot0': 98, 'rot3': 0, 'rot2': 0, 'depth': -0.369, 'yaw': 167.31, 'datetime': '2018-12-12 14:56:39.105963', 'mgs': 0, 'flw2': 0.99, 'flw1': 0.0, 'flw0': 2.55, 'time': 38.43, 'compass': -97.61, 'pitch': 4.88, 'roll': 19.71}
{'lipoC2': 7.09, 'temp': 0.0, 'lipoC3S3': 10.93, 'state': 'normal', 'rot1': 128, 'rot0': 99, 'rot3': 0, 'rot2': 0, 'depth': 0.241, 'yaw': 166.97, 'datetime': '2018-12-12 14:56:39.420363', 'mgs': 0, 'flw2': 0.76, 'flw1': 0.38, 'flw0': 2.5, 'time': 38.74, 'compass': -97.95, 'pitch': 4.36, 'roll': 19.59}
{'lipoC2': 7.1, 'temp': 0.0, 'lipoC3S3': 11.06, 'state': 'normal', 'rot1': 131, 'rot0': 101, 'rot3': 0, 'rot2': 0, 'depth': -0.903, 'yaw': 165.37, 'datetime': '2018-12-12 14:56:39.629137', 'mgs': 0, 'flw2': 0.61, 'flw1': 0.0, 'flw0': 2.51, 'time': 38.95, 'compass': -99.54, 'pitch': 4.36, 'roll': 19.67}
{'lipoC2': 7.09, 'temp': 0.0, 'lipoC3S3': 10.93, 'state': 'normal', 'rot1': 133, 'rot0': 102, 'rot3': 0, 'rot2': 0, 'depth': 1.385, 'yaw': 162.65, 'datetime': '2018-12-12 14:56:39.837528', 'mgs': 0, 'flw2': 0.71, 'flw1': 0.0, 'flw0': 2.78, 'time': 39.16, 'compass': -102.26, 'pitch': 3.42, 'roll': 19.41}
{'lipoC2': 7.06, 'temp': 0.0, 'lipoC3S3': 10.96, 'state': 'normal', 'rot1': 135, 'rot0': 103, 'rot3': 0, 'rot2': 0, 'depth': -0.598, 'yaw': 159.29, 'datetime': '2018-12-12 14:56:40.050399', 'mgs': 0, 'flw2': 1.04, 'flw1': 0.0, 'flw0': 2.51, 'time': 39.37, 'compass': -105.63, 'pitch': 1.83, 'roll': 19.19}
{'lipoC2': 7.14, 'temp': 0.0, 'lipoC3S3': 11.15, 'state': 'normal', 'rot1': 136, 'rot0': 104, 'rot3': 0, 'rot2': 0, 'depth': -0.674, 'yaw': 156.06, 'datetime': '2018-12-12 14:56:40.256723', 'mgs': 0, 'flw2': 0.67, 'flw1': 0.0, 'flw0': 0.92, 'time': 39.58, 'compass': -108.85, 'pitch': -0.06, 'roll': 19.08}
{'lipoC2': 7.41, 'temp': 0.0, 'lipoC3S3': 10.96, 'state': 'normal', 'rot1': 137, 'rot0': 105, 'rot3': 0, 'rot2': 0, 'depth': -0.446, 'yaw': 152.75, 'datetime': '2018-12-12 14:56:40.465532', 'mgs': 0, 'flw2': 0.45, 'flw1': 0.0, 'flw0': 0.4, 'time': 39.79, 'compass': -112.17, 'pitch': -2.71, 'roll': 18.99}
{'lipoC2': 7.42, 'temp': 0.0, 'lipoC3S3': 11.0, 'state': 'normal', 'rot1': 139, 'rot0': 106, 'rot3': 0, 'rot2': 0, 'depth': -0.598, 'yaw': 149.31, 'datetime': '2018-12-12 14:56:40.677390', 'mgs': 0, 'flw2': 0.22, 'flw1': 0.0, 'flw0': 0.38, 'time': 40.0, 'compass': -115.6, 'pitch': -3.7, 'roll': 18.8}
{'lipoC2': 7.26, 'temp': 0.0, 'lipoC3S3': 11.06, 'state': 'normal', 'rot1': 139, 'rot0': 107, 'rot3': 0, 'rot2': 0, 'depth': 1.309, 'yaw': 145.89, 'datetime': '2018-12-12 14:56:40.886317', 'mgs': 0, 'flw2': 0.17, 'flw1': 0.0, 'flw0': 0.24, 'time': 40.21, 'compass': -119.02, 'pitch': -3.64, 'roll': 18.53}
{'lipoC2': 7.22, 'temp': 0.0, 'lipoC3S3': 10.9, 'state': 'normal', 'rot1': 140, 'rot0': 108, 'rot3': 0, 'rot2': 0, 'depth': 0.928, 'yaw': 142.6, 'datetime': '2018-12-12 14:56:41.096619', 'mgs': 0, 'flw2': 0.01, 'flw1': 0.03, 'flw0': 0.33, 'time': 40.42, 'compass': -122.32, 'pitch': -4.57, 'roll': 18.3}
{'lipoC2': 7.27, 'temp': 0.0, 'lipoC3S3': 11.46, 'state': 'normal', 'rot1': 141, 'rot0': 109, 'rot3': 0, 'rot2': 0, 'depth': 1.385, 'yaw': 139.39, 'datetime': '2018-12-12 14:56:41.306768', 'mgs': 0, 'flw2': 0.1, 'flw1': 0.0, 'flw0': 0.13, 'time': 40.63, 'compass': -125.52, 'pitch': -6.52, 'roll': 18.03}
{'lipoC2': 7.1, 'temp': 0.0, 'lipoC3S3': 10.96, 'state': 'normal', 'rot1': 142, 'rot0': 110, 'rot3': 0, 'rot2': 0, 'depth': -0.369, 'yaw': 136.2, 'datetime': '2018-12-12 14:56:41.515593', 'mgs': 0, 'flw2': 0.21, 'flw1': 0.0, 'flw0': 0.27, 'time': 40.84, 'compass': -128.72, 'pitch': -7.96, 'roll': 17.81}
{'lipoC2': 7.08, 'temp': 0.0, 'lipoC3S3': 10.88, 'state': 'normal', 'rot1': 143, 'rot0': 111, 'rot3': 0, 'rot2': 0, 'depth': 0.623, 'yaw': 132.92, 'datetime': '2018-12-12 14:56:41.725835', 'mgs': 0, 'flw2': 0.22, 'flw1': 0.0, 'flw0': 0.23, 'time': 41.05, 'compass': -132.0, 'pitch': -8.51, 'roll': 17.3}
{'lipoC2': 7.18, 'temp': 0.0, 'lipoC3S3': 10.9, 'state': 'normal', 'rot1': 144, 'rot0': 112, 'rot3': 0, 'rot2': 0, 'depth': -0.598, 'yaw': 129.77, 'datetime': '2018-12-12 14:56:41.935367', 'mgs': 0, 'flw2': 0.22, 'flw1': 0.0, 'flw0': 0.37, 'time': 41.26, 'compass': -135.14, 'pitch': -9.24, 'roll': 16.42}
{'lipoC2': 7.1, 'temp': 0.0, 'lipoC3S3': 10.92, 'state': 'normal', 'rot1': 145, 'rot0': 113, 'rot3': 0, 'rot2': 0, 'depth': -0.217, 'yaw': 126.47, 'datetime': '2018-12-12 14:56:42.146621', 'mgs': 0, 'flw2': 0.34, 'flw1': 0.0, 'flw0': 0.23, 'time': 41.47, 'compass': -138.44, 'pitch': -10.15, 'roll': 15.48}
{'lipoC2': 7.13, 'temp': 0.0, 'lipoC3S3': 10.97, 'state': 'normal', 'rot1': 146, 'rot0': 113, 'rot3': 0, 'rot2': 0, 'depth': -1.59, 'yaw': 123.14, 'datetime': '2018-12-12 14:56:42.357315', 'mgs': 0, 'flw2': 0.17, 'flw1': 0.41, 'flw0': 0.18, 'time': 41.68, 'compass': -141.77, 'pitch': -10.83, 'roll': 15.03}
{'lipoC2': 7.07, 'temp': 0.0, 'lipoC3S3': 10.97, 'state': 'normal', 'rot1': 146, 'rot0': 114, 'rot3': 0, 'rot2': 0, 'depth': -0.14, 'yaw': 119.99, 'datetime': '2018-12-12 14:56:42.565967', 'mgs': 0, 'flw2': 0.0, 'flw1': 0.0, 'flw0': 0.0, 'time': 41.89, 'compass': -144.93, 'pitch': -11.36, 'roll': 15.01}
{'lipoC2': 7.09, 'temp': 0.0, 'lipoC3S3': 11.09, 'state': 'normal', 'rot1': 147, 'rot0': 114, 'rot3': 0, 'rot2': 0, 'depth': -0.903, 'yaw': 117.37, 'datetime': '2018-12-12 14:56:42.775777', 'mgs': 0, 'flw2': 2.95, 'flw1': 0.0, 'flw0': 3.25, 'time': 42.1, 'compass': -147.54, 'pitch': -12.17, 'roll': 14.92}
{'lipoC2': 7.06, 'temp': 0.0, 'lipoC3S3': 10.98, 'state': 'normal', 'rot1': 149, 'rot0': 117, 'rot3': 0, 'rot2': 0, 'depth': 0.623, 'yaw': 115.05, 'datetime': '2018-12-12 14:56:42.985240', 'mgs': 0, 'flw2': 2.38, 'flw1': 0.0, 'flw0': 2.53, 'time': 42.31, 'compass': -149.86, 'pitch': -11.37, 'roll': 14.21}
{'lipoC2': 7.17, 'temp': 0.0, 'lipoC3S3': 11.17, 'state': 'normal', 'rot1': 150, 'rot0': 119, 'rot3': 0, 'rot2': 0, 'depth': -1.514, 'yaw': 113.44, 'datetime': '2018-12-12 14:56:43.195269', 'mgs': 0, 'flw2': 2.39, 'flw1': 0.0, 'flw0': 0.88, 'time': 42.51, 'compass': -151.48, 'pitch': -10.32, 'roll': 13.2}
{'lipoC2': 7.26, 'temp': 0.0, 'lipoC3S3': 11.14, 'state': 'normal', 'rot1': 152, 'rot0': 121, 'rot3': 0, 'rot2': 0, 'depth': 1.08, 'yaw': 113.91, 'datetime': '2018-12-12 14:56:43.405906', 'mgs': 0, 'flw2': 2.38, 'flw1': 0.0, 'flw0': 0.89, 'time': 42.73, 'compass': -151.01, 'pitch': -11.35, 'roll': 13.37}
{'lipoC2': 7.07, 'temp': 0.0, 'lipoC3S3': 11.07, 'state': 'normal', 'rot1': 153, 'rot0': 124, 'rot3': 0, 'rot2': 0, 'depth': -0.369, 'yaw': 116.33, 'datetime': '2018-12-12 14:56:43.616073', 'mgs': 0, 'flw2': 2.71, 'flw1': 0.0, 'flw0': 0.55, 'time': 42.94, 'compass': -148.58, 'pitch': -11.95, 'roll': 14.54}
