{'lipoC2': 7.12, 'temp': 0.0, 'lipoC3S3': 11.15, 'state': 'normal', 'rot1': 0, 'rot0': 0, 'rot3': 0, 'rot2': 0, 'depth': 1.691, 'yaw': 0.28, 'datetime': '2018-12-12 14:33:15.149316', 'mgs': 0, 'flw2': 0.0, 'flw1': 0.09, 'flw0': 0.0, 'time': 1.36, 'compass': 90.01, 'pitch': -1.64, 'roll': 0.71}
{'lipoC2': 7.41, 'temp': 0.0, 'lipoC3S3': 11.17, 'state': 'normal', 'rot1': 0, 'rot0': 0, 'rot3': 0, 'rot2': 0, 'depth': -0.217, 'yaw': 0.89, 'datetime': '2018-12-12 14:33:15.356014', 'mgs': 0, 'flw2': 0.05, 'flw1': 0.0, 'flw0': 0.0, 'time': 1.57, 'compass': 90.62, 'pitch': -1.79, 'roll': 0.39}
{'lipoC2': 7.27, 'temp': 0.0, 'lipoC3S3': 11.22, 'state': 'normal', 'rot1': 0, 'rot0': 0, 'rot3': 0, 'rot2': 0, 'depth': -0.598, 'yaw': 1.49, 'datetime': '2018-12-12 14:33:15.563721', 'mgs': 0, 'flw2': 0.0, 'flw1': 0.0, 'flw0': 0.0, 'time': 1.77, 'compass': 91.23, 'pitch': -2.34, 'roll': 0.51}
{'lipoC2': 7.3, 'temp': 0.0, 'lipoC3S3': 11.31, 'state': 'normal', 'rot1': 0, 'rot0': 0, 'rot3': 0, 'rot2': 0, 'depth': -1.056, 'yaw': 2.08, 'datetime': '2018-12-12 14:33:15.771609', 'mgs': 0, 'flw2': 0.0, 'flw1': 0.0, 'flw0': 0.06, 'time': 1.98, 'compass': 91.82, 'pitch': -2.01, 'roll': 0.95}
{'lipoC2': 7.13, 'temp': 0.0, 'lipoC3S3': 11.21, 'state': 'normal', 'rot1': 0, 'rot0': 0, 'rot3': 0, 'rot2': 0, 'depth': 1.462, 'yaw': 2.65, 'datetime': '2018-12-12 14:33:15.980320', 'mgs': 0, 'flw2': 0.06, 'flw1': 0.35, 'flw0': 0.0, 'time': 2.19, 'compass': 92.39, 'pitch': -1.2, 'roll': 1.11}
{'lipoC2': 7.46, 'temp': 0.0, 'lipoC3S3': 11.17, 'state': 'normal', 'rot1': 0, 'rot0': 0, 'rot3': 0, 'rot2': 0, 'depth': -0.064, 'yaw': 3.23, 'datetime': '2018-12-12 14:33:16.187228', 'mgs': 0, 'flw2': 0.1, 'flw1': 0.0, 'flw0': 0.0, 'time': 2.4, 'compass': 92.97, 'pitch': -1.16, 'roll': 0.87}
{'lipoC2': 7.24, 'temp': 0.0, 'lipoC3S3': 11.36, 'state': 'normal', 'rot1': 0, 'rot0': 0, 'rot3': 0, 'rot2': 0, 'depth': -1.59, 'yaw': 3.81, 'datetime': '2018-12-12 14:33:16.395577', 'mgs': 0, 'flw2': 0.16, 'flw1': 0.0, 'flw0': 0.2, 'time': 2.61, 'compass': 93.55, 'pitch': -1.8, 'roll': 0.28}
{'lipoC2': 7.44, 'temp': 0.0, 'lipoC3S3': 11.43, 'state': 'normal', 'rot1': 0, 'rot0': 0, 'rot3': 0, 'rot2': 0, 'depth': -1.361, 'yaw': 4.4, 'datetime': '2018-12-12 14:33:16.603204', 'mgs': 0, 'flw2': 0.04, 'flw1': 0.0, 'flw0': 0.02, 'time': 2.81, 'compass': 94.14, 'pitch': -2.27, 'roll': -0.18}
{'lipoC2': 7.47, 'temp': 0.0, 'lipoC3S3': 11.09, 'state': 'normal', 'rot1': 0, 'rot0': 0, 'rot3': 0, 'rot2': 0, 'depth': -1.208, 'yaw': 4.98, 'datetime': '2018-12-12 14:33:16.813400', 'mgs': 0, 'flw2': 0.0, 'flw1': 0.0, 'flw0': 0.18, 'time': 3.02, 'compass': 94.71, 'pitch': -2.07, 'roll': -0.31}
{'lipoC2': 7.12, 'temp': 0.0, 'lipoC3S3': 11.6, 'state': 'normal', 'rot1': 0, 'rot0': 0, 'rot3': 0, 'rot2': 0, 'depth': -0.827, 'yaw': 5.61, 'datetime': '2018-12-12 14:33:17.020489', 'mgs': 0, 'flw2': 0.16, 'flw1': 0.0, 'flw0': 0.21, 'time': 3.23, 'compass': 95.34, 'pitch': -1.64, 'roll': -0.07}
{'lipoC2': 7.13, 'temp': 0.0, 'lipoC3S3': 11.5, 'state': 'normal', 'rot1': 0, 'rot0': 0, 'rot3': 0, 'rot2': 0, 'depth': -0.522, 'yaw': 6.3, 'datetime': '2018-12-12 14:33:17.227727', 'mgs': 0, 'flw2': 0.34, 'flw1': 0.0, 'flw0': 0.23, 'time': 3.44, 'compass': 96.03, 'pitch': -1.54, 'roll': 0.47}
{'lipoC2': 7.54, 'temp': 0.0, 'lipoC3S3': 11.26, 'state': 'normal', 'rot1': 0, 'rot0': 0, 'rot3': 0, 'rot2': 0, 'depth': -1.056, 'yaw': 6.94, 'datetime': '2018-12-12 14:33:17.433187', 'mgs': 0, 'flw2': 0.0, 'flw1': 0.44, 'flw0': 0.82, 'time': 3.64, 'compass': 96.67, 'pitch': -1.97, 'roll': 0.94}
{'lipoC2': 7.39, 'temp': 0.0, 'lipoC3S3': 11.03, 'state': 'normal', 'rot1': 2, 'rot0': 0, 'rot3': 0, 'rot2': 0, 'depth': 0.928, 'yaw': 6.58, 'datetime': '2018-12-12 14:33:17.639640', 'mgs': 0, 'flw2': 0.0, 'flw1': 0.0, 'flw0': 4.39, 'time': 3.85, 'compass': 96.31, 'pitch': -1.69, 'roll': 0.87}
{'lipoC2': 7.24, 'temp': 0.0, 'lipoC3S3': 11.18, 'state': 'normal', 'rot1': 4, 'rot0': 0, 'rot3': 0, 'rot2': 0, 'depth': 0.394, 'yaw': 1.84, 'datetime': '2018-12-12 14:33:17.846847', 'mgs': 0, 'flw2': 0.24, 'flw1': 0.0, 'flw0': 5.26, 'time': 4.06, 'compass': 91.57, 'pitch': 0.66, 'roll': -0.51}
{'lipoC2': 7.28, 'temp': 0.0, 'lipoC3S3': 11.05, 'state': 'normal', 'rot1': 7, 'rot0': 0, 'rot3': 0, 'rot2': 0, 'depth': -0.064, 'yaw': -6.9, 'datetime': '2018-12-12 14:33:18.056657', 'mgs': 0, 'flw2': 4.71, 'flw1': 0.0, 'flw0': 6.98, 'time': 4.27, 'compass': 82.83, 'pitch': 2.56, 'roll': -2.15}
{'lipoC2': 7.29, 'temp': 0.0, 'lipoC3S3': 10.97, 'state': 'normal', 'rot1': 10, 'rot0': 3, 'rot3': 0, 'rot2': 0, 'depth': -0.217, 'yaw': -15.74, 'datetime': '2018-12-12 14:33:18.265365', 'mgs': 0, 'flw2': 6.35, 'flw1': 0.0, 'flw0': 6.79, 'time': 4.47, 'compass': 74.0, 'pitch': 4.11, 'roll': -2.81}
{'lipoC2': 7.27, 'temp': 0.0, 'lipoC3S3': 11.3, 'state': 'normal', 'rot1': 14, 'rot0': 6, 'rot3': 0, 'rot2': 0, 'depth': 1.08, 'yaw': -22.32, 'datetime': '2018-12-12 14:33:18.476595', 'mgs': 0, 'flw2': 6.19, 'flw1': 0.59, 'flw0': 6.76, 'time': 4.68, 'compass': 67.41, 'pitch': 6.08, 'roll': -2.37}
{'lipoC2': 7.15, 'temp': 0.0, 'lipoC3S3': 10.85, 'state': 'normal', 'rot1': 17, 'rot0': 9, 'rot3': 0, 'rot2': 0, 'depth': 1.614, 'yaw': -26.49, 'datetime': '2018-12-12 14:33:18.681510', 'mgs': 0, 'flw2': 5.26, 'flw1': 0.0, 'flw0': 6.27, 'time': 4.89, 'compass': 63.24, 'pitch': 6.87, 'roll': -1.51}
{'lipoC2': 7.28, 'temp': 0.0, 'lipoC3S3': 11.01, 'state': 'normal', 'rot1': 21, 'rot0': 12, 'rot3': 0, 'rot2': 0, 'depth': -0.369, 'yaw': -30.0, 'datetime': '2018-12-12 14:33:18.890618', 'mgs': 0, 'flw2': 3.03, 'flw1': 0.0, 'flw0': 6.84, 'time': 5.1, 'compass': 59.73, 'pitch': 5.93, 'roll': -1.17}
{'lipoC2': 7.41, 'temp': 0.0, 'lipoC3S3': 10.88, 'state': 'normal', 'rot1': 24, 'rot0': 15, 'rot3': 0, 'rot2': 0, 'depth': 0.089, 'yaw': -33.93, 'datetime': '2018-12-12 14:33:19.098978', 'mgs': 0, 'flw2': 6.01, 'flw1': 0.0, 'flw0': 6.77, 'time': 5.31, 'compass': 55.8, 'pitch': 4.6, 'roll': -1.38}
{'lipoC2': 7.24, 'temp': 0.0, 'lipoC3S3': 11.26, 'state': 'normal', 'rot1': 27, 'rot0': 18, 'rot3': 0, 'rot2': 0, 'depth': -0.369, 'yaw': -37.09, 'datetime': '2018-12-12 14:33:19.308911', 'mgs': 0, 'flw2': 6.18, 'flw1': 0.0, 'flw0': 6.97, 'time': 5.52, 'compass': 52.64, 'pitch': 4.85, 'roll': -1.74}
{'lipoC2': 7.19, 'temp': 0.0, 'lipoC3S3': 11.34, 'state': 'normal', 'rot1': 31, 'rot0': 21, 'rot3': 0, 'rot2': 0, 'depth': 1.233, 'yaw': -39.97, 'datetime': '2018-12-12 14:33:19.517764', 'mgs': 0, 'flw2': 6.05, 'flw1': 0.0, 'flw0': 6.97, 'time': 5.73, 'compass': 49.76, 'pitch': 5.64, 'roll': -2.25}
{'lipoC2': 7.3, 'temp': 0.0, 'lipoC3S3': 11.34, 'state': 'normal', 'rot1': 35, 'rot0': 24, 'rot3': 0, 'rot2': 0, 'depth': 0.775, 'yaw': -42.41, 'datetime': '2018-12-12 14:33:19.727181', 'mgs': 0, 'flw2': 5.73, 'flw1': 0.0, 'flw0': 6.38, 'time': 5.94, 'compass': 47.33, 'pitch': 5.84, 'roll': -2.65}
{'lipoC2': 7.27, 'temp': 0.0, 'lipoC3S3': 11.18, 'state': 'normal', 'rot1': 38, 'rot0': 27, 'rot3': 0, 'rot2': 0, 'depth': 2.682, 'yaw': -44.42, 'datetime': '2018-12-12 14:33:19.937167', 'mgs': 0, 'flw2': 5.88, 'flw1': 0.0, 'flw0': 6.57, 'time': 6.14, 'compass': 45.32, 'pitch': 5.35, 'roll': -2.56}
{'lipoC2': 7.27, 'temp': 0.0, 'lipoC3S3': 11.29, 'state': 'normal', 'rot1': 41, 'rot0': 31, 'rot3': 0, 'rot2': 0, 'depth': 0.317, 'yaw': -45.97, 'datetime': '2018-12-12 14:33:20.146715', 'mgs': 0, 'flw2': 6.04, 'flw1': 0.0, 'flw0': 6.49, 'time': 6.35, 'compass': 43.77, 'pitch': 4.74, 'roll': -2.39}
{'lipoC2': 7.17, 'temp': 0.0, 'lipoC3S3': 11.25, 'state': 'normal', 'rot1': 44, 'rot0': 34, 'rot3': 0, 'rot2': 0, 'depth': 0.775, 'yaw': -47.72, 'datetime': '2018-12-12 14:33:20.356955', 'mgs': 0, 'flw2': 5.97, 'flw1': 0.0, 'flw0': 6.8, 'time': 6.56, 'compass': 42.01, 'pitch': 4.4, 'roll': -2.45}
{'lipoC2': 7.26, 'temp': 0.0, 'lipoC3S3': 11.22, 'state': 'normal', 'rot1': 48, 'rot0': 38, 'rot3': 0, 'rot2': 0, 'depth': 0.699, 'yaw': -49.55, 'datetime': '2018-12-12 14:33:20.564254', 'mgs': 0, 'flw2': 6.37, 'flw1': 0.0, 'flw0': 6.87, 'time': 6.77, 'compass': 40.19, 'pitch': 4.8, 'roll': -2.54}
{'lipoC2': 7.22, 'temp': 0.0, 'lipoC3S3': 10.96, 'state': 'normal', 'rot1': 52, 'rot0': 41, 'rot3': 0, 'rot2': 0, 'depth': -0.217, 'yaw': -51.39, 'datetime': '2018-12-12 14:33:20.776187', 'mgs': 0, 'flw2': 5.66, 'flw1': 0.15, 'flw0': 6.9, 'time': 6.98, 'compass': 38.34, 'pitch': 5.81, 'roll': -2.34}
{'lipoC2': 7.32, 'temp': 0.0, 'lipoC3S3': 11.25, 'state': 'normal', 'rot1': 55, 'rot0': 44, 'rot3': 0, 'rot2': 0, 'depth': 1.614, 'yaw': -53.52, 'datetime': '2018-12-12 14:33:20.983214', 'mgs': 0, 'flw2': 5.8, 'flw1': 0.59, 'flw0': 6.47, 'time': 7.19, 'compass': 36.21, 'pitch': 6.62, 'roll': -2.09}
{'lipoC2': 7.19, 'temp': 0.0, 'lipoC3S3': 11.21, 'state': 'normal', 'rot1': 58, 'rot0': 47, 'rot3': 0, 'rot2': 0, 'depth': 3.217, 'yaw': -55.99, 'datetime': '2018-12-12 14:33:21.193125', 'mgs': 0, 'flw2': 5.97, 'flw1': 0.0, 'flw0': 6.98, 'time': 7.4, 'compass': 33.74, 'pitch': 6.77, 'roll': -2.23}
{'lipoC2': 7.51, 'temp': 0.0, 'lipoC3S3': 10.93, 'state': 'normal', 'rot1': 61, 'rot0': 51, 'rot3': 0, 'rot2': 0, 'depth': -1.132, 'yaw': -58.84, 'datetime': '2018-12-12 14:33:21.404187', 'mgs': 0, 'flw2': 5.8, 'flw1': 0.5, 'flw0': 6.69, 'time': 7.61, 'compass': 30.89, 'pitch': 6.65, 'roll': -2.62}
{'lipoC2': 7.28, 'temp': 0.0, 'lipoC3S3': 10.67, 'state': 'normal', 'rot1': 65, 'rot0': 54, 'rot3': 0, 'rot2': 0, 'depth': 2.072, 'yaw': -61.55, 'datetime': '2018-12-12 14:33:21.608737', 'mgs': 0, 'flw2': 5.74, 'flw1': 0.32, 'flw0': 6.42, 'time': 7.81, 'compass': 28.19, 'pitch': 6.58, 'roll': -2.92}
{'lipoC2': 7.5, 'temp': 0.0, 'lipoC3S3': 11.1, 'state': 'normal', 'rot1': 68, 'rot0': 57, 'rot3': 0, 'rot2': 0, 'depth': 1.462, 'yaw': -64.12, 'datetime': '2018-12-12 14:33:21.819284', 'mgs': 0, 'flw2': 6.05, 'flw1': 0.73, 'flw0': 6.84, 'time': 8.02, 'compass': 25.61, 'pitch': 6.64, 'roll': -2.64}
{'lipoC2': 7.51, 'temp': 0.0, 'lipoC3S3': 11.22, 'state': 'normal', 'rot1': 71, 'rot0': 61, 'rot3': 0, 'rot2': 0, 'depth': -0.369, 'yaw': -66.59, 'datetime': '2018-12-12 14:33:22.030197', 'mgs': 0, 'flw2': 5.63, 'flw1': 0.62, 'flw0': 2.89, 'time': 8.23, 'compass': 23.14, 'pitch': 6.46, 'roll': -2.37}
{'lipoC2': 7.28, 'temp': 0.0, 'lipoC3S3': 11.34, 'state': 'normal', 'rot1': 73, 'rot0': 64, 'rot3': 0, 'rot2': 0, 'depth': -0.064, 'yaw': -67.73, 'datetime': '2018-12-12 14:33:22.238653', 'mgs': 0, 'flw2': 3.72, 'flw1': 0.0, 'flw0': 0.0, 'time': 8.44, 'compass': 22.01, 'pitch': 5.32, 'roll': -2.13}
{'lipoC2': 7.43, 'temp': 0.0, 'lipoC3S3': 11.23, 'state': 'normal', 'rot1': 73, 'rot0': 65, 'rot3': 0, 'rot2': 0, 'depth': -0.827, 'yaw': -66.71, 'datetime': '2018-12-12 14:33:22.447075', 'mgs': 0, 'flw2': 0.2, 'flw1': 0.0, 'flw0': 0.0, 'time': 8.65, 'compass': 23.03, 'pitch': 1.64, 'roll': -1.67}
{'lipoC2': 7.12, 'temp': 0.0, 'lipoC3S3': 11.5, 'state': 'normal', 'rot1': 73, 'rot0': 65, 'rot3': 0, 'rot2': 0, 'depth': -0.369, 'yaw': -66.91, 'datetime': '2018-12-12 14:33:22.655942', 'mgs': 0, 'flw2': 0.0, 'flw1': 0.0, 'flw0': 0.0, 'time': 8.86, 'compass': 22.82, 'pitch': -1.61, 'roll': -1.21}
{'lipoC2': 7.29, 'temp': 0.0, 'lipoC3S3': 11.06, 'state': 'normal', 'rot1': 73, 'rot0': 65, 'rot3': 0, 'rot2': 0, 'depth': 2.148, 'yaw': -67.8, 'datetime': '2018-12-12 14:33:22.863597', 'mgs': 0, 'flw2': 0.12, 'flw1': 0.0, 'flw0': 0.0, 'time': 9.07, 'compass': 21.93, 'pitch': -2.19, 'roll': -1.14}
{'lipoC2': 7.39, 'temp': 0.0, 'lipoC3S3': 11.26, 'state': 'normal', 'rot1': 73, 'rot0': 65, 'rot3': 0, 'rot2': 0, 'depth': 1.157, 'yaw': -69.15, 'datetime': '2018-12-12 14:33:23.071783', 'mgs': 0, 'flw2': 0.28, 'flw1': 0.0, 'flw0': 0.0, 'time': 9.27, 'compass': 20.58, 'pitch': -1.42, 'roll': -0.88}
{'lipoC2': 7.18, 'temp': 0.0, 'lipoC3S3': 11.19, 'state': 'normal', 'rot1': 73, 'rot0': 65, 'rot3': 0, 'rot2': 0, 'depth': 0.775, 'yaw': -70.92, 'datetime': '2018-12-12 14:33:23.280093', 'mgs': 0, 'flw2': 0.0, 'flw1': 0.62, 'flw0': 0.0, 'time': 9.48, 'compass': 18.81, 'pitch': -0.97, 'roll': -0.7}
{'lipoC2': 7.17, 'temp': 0.0, 'lipoC3S3': 11.27, 'state': 'normal', 'rot1': 73, 'rot0': 65, 'rot3': 0, 'rot2': 0, 'depth': 1.08, 'yaw': -72.96, 'datetime': '2018-12-12 14:33:23.488740', 'mgs': 0, 'flw2': 0.0, 'flw1': 0.0, 'flw0': 0.0, 'time': 9.69, 'compass': 16.78, 'pitch': -1.33, 'roll': -0.71}
{'lipoC2': 7.32, 'temp': 0.0, 'lipoC3S3': 11.51, 'state': 'normal', 'rot1': 73, 'rot0': 65, 'rot3': 0, 'rot2': 0, 'depth': -1.208, 'yaw': -75.16, 'datetime': '2018-12-12 14:33:23.699262', 'mgs': 0, 'flw2': 0.0, 'flw1': 0.0, 'flw0': 0.28, 'time': 9.9, 'compass': 14.57, 'pitch': -2.09, 'roll': -0.97}
{'lipoC2': 7.28, 'temp': 0.0, 'lipoC3S3': 11.31, 'state': 'normal', 'rot1': 73, 'rot0': 65, 'rot3': 0, 'rot2': 0, 'depth': -0.674, 'yaw': -77.29, 'datetime': '2018-12-12 14:33:23.907106', 'mgs': 0, 'flw2': 0.0, 'flw1': 0.09, 'flw0': 0.0, 'time': 10.11, 'compass': 12.45, 'pitch': -2.04, 'roll': -1.13}
{'lipoC2': 7.33, 'temp': 0.0, 'lipoC3S3': 10.94, 'state': 'normal', 'rot1': 73, 'rot0': 65, 'rot3': 0, 'rot2': 0, 'depth': 1.08, 'yaw': -79.5, 'datetime': '2018-12-12 14:33:24.117180', 'mgs': 0, 'flw2': 0.0, 'flw1': 0.76, 'flw0': 0.0, 'time': 10.32, 'compass': 10.24, 'pitch': -1.36, 'roll': -1.11}
{'lipoC2': 7.22, 'temp': 0.0, 'lipoC3S3': 11.26, 'state': 'normal', 'rot1': 73, 'rot0': 65, 'rot3': 0, 'rot2': 0, 'depth': -0.598, 'yaw': -81.76, 'datetime': '2018-12-12 14:33:24.325132', 'mgs': 0, 'flw2': 0.21, 'flw1': 0.0, 'flw0': 0.09, 'time': 10.52, 'compass': 7.97, 'pitch': -1.14, 'roll': -1.31}
{'lipoC2': 7.2, 'temp': 0.0, 'lipoC3S3': 11.29, 'state': 'normal', 'rot1': 73, 'rot0': 65, 'rot3': 0, 'rot2': 0, 'depth': -0.369, 'yaw': -84.0, 'datetime': '2018-12-12 14:33:24.535742', 'mgs': 0, 'flw2': 0.16, 'flw1': 0.0, 'flw0': 0.44, 'time': 10.73, 'compass': 5.73, 'pitch': -1.66, 'roll': -1.58}
{'lipoC2': 7.3, 'temp': 0.0, 'lipoC3S3': 11.22, 'state': 'normal', 'rot1': 74, 'rot0': 65, 'rot3': 0, 'rot2': 0, 'depth': -0.751, 'yaw': -86.43, 'datetime': '2018-12-12 14:33:24.743437', 'mgs': 0, 'flw2': 2.33, 'flw1': 0.0, 'flw0': 3.65, 'time': 10.94, 'compass': 3.3, 'pitch': -2.18, 'roll': -1.76}
{'lipoC2': 7.25, 'temp': 0.0, 'lipoC3S3': 11.34, 'state': 'normal', 'rot1': 77, 'rot0': 68, 'rot3': 0, 'rot2': 0, 'depth': -0.903, 'yaw': -90.3, 'datetime': '2018-12-12 14:33:24.954972', 'mgs': 0, 'flw2': 4.8, 'flw1': 0.0, 'flw0': 3.76, 'time': 11.15, 'compass': -0.57, 'pitch': -0.04, 'roll': -1.9}
{'lipoC2': 7.3, 'temp': 0.0, 'lipoC3S3': 11.42, 'state': 'normal', 'rot1': 79, 'rot0': 71, 'rot3': 0, 'rot2': 0, 'depth': -1.056, 'yaw': -93.34, 'datetime': '2018-12-12 14:33:25.162591', 'mgs': 0, 'flw2': 5.91, 'flw1': 0.0, 'flw0': 3.41, 'time': 11.36, 'compass': -3.6, 'pitch': 3.56, 'roll': -1.96}
{'lipoC2': 7.26, 'temp': 0.0, 'lipoC3S3': 10.82, 'state': 'normal', 'rot1': 82, 'rot0': 74, 'rot3': 0, 'rot2': 0, 'depth': 1.767, 'yaw': -94.11, 'datetime': '2018-12-12 14:33:25.369416', 'mgs': 0, 'flw2': 5.54, 'flw1': 0.23, 'flw0': 2.97, 'time': 11.57, 'compass': -4.38, 'pitch': 5.51, 'roll': -2.14}
{'lipoC2': 7.3, 'temp': 0.0, 'lipoC3S3': 11.31, 'state': 'normal', 'rot1': 84, 'rot0': 77, 'rot3': 0, 'rot2': 0, 'depth': -0.293, 'yaw': -93.41, 'datetime': '2018-12-12 14:33:25.578429', 'mgs': 0, 'flw2': 5.9, 'flw1': 0.0, 'flw0': 4.02, 'time': 11.78, 'compass': -3.67, 'pitch': 5.08, 'roll': -2.16}
{'lipoC2': 7.28, 'temp': 0.0, 'lipoC3S3': 11.1, 'state': 'normal', 'rot1': 87, 'rot0': 80, 'rot3': 0, 'rot2': 0, 'depth': 0.165, 'yaw': -92.25, 'datetime': '2018-12-12 14:33:25.788084', 'mgs': 0, 'flw2': 5.86, 'flw1': 0.59, 'flw0': 4.22, 'time': 11.98, 'compass': -2.52, 'pitch': 4.1, 'roll': -1.88}
{'lipoC2': 7.42, 'temp': 0.0, 'lipoC3S3': 10.96, 'state': 'normal', 'rot1': 90, 'rot0': 83, 'rot3': 0, 'rot2': 0, 'depth': 1.004, 'yaw': -91.14, 'datetime': '2018-12-12 14:33:25.995755', 'mgs': 0, 'flw2': 6.18, 'flw1': 0.0, 'flw0': 4.93, 'time': 12.19, 'compass': -1.4, 'pitch': 3.44, 'roll': -1.48}
{'lipoC2': 7.25, 'temp': 0.0, 'lipoC3S3': 10.93, 'state': 'normal', 'rot1': 93, 'rot0': 86, 'rot3': 0, 'rot2': 0, 'depth': 1.92, 'yaw': -90.5, 'datetime': '2018-12-12 14:33:26.205854', 'mgs': 0, 'flw2': 6.03, 'flw1': 0.0, 'flw0': 5.75, 'time': 12.4, 'compass': -0.77, 'pitch': 3.36, 'roll': -0.86}
{'lipoC2': 7.25, 'temp': 0.0, 'lipoC3S3': 10.86, 'state': 'normal', 'rot1': 96, 'rot0': 89, 'rot3': 0, 'rot2': 0, 'depth': 1.538, 'yaw': -90.04, 'datetime': '2018-12-12 14:33:26.417332', 'mgs': 0, 'flw2': 5.53, 'flw1': 0.0, 'flw0': 5.63, 'time': 12.61, 'compass': -0.31, 'pitch': 3.71, 'roll': -0.17}
{'lipoC2': 7.33, 'temp': 0.0, 'lipoC3S3': 11.13, 'state': 'normal', 'rot1': 99, 'rot0': 92, 'rot3': 0, 'rot2': 0, 'depth': -0.064, 'yaw': -89.99, 'datetime': '2018-12-12 14:33:26.624098', 'mgs': 0, 'flw2': 5.82, 'flw1': 0.0, 'flw0': 5.66, 'time': 12.82, 'compass': -0.25, 'pitch': 4.51, 'roll': -0.35}
{'lipoC2': 7.3, 'temp': 0.0, 'lipoC3S3': 11.21, 'state': 'normal', 'rot1': 102, 'rot0': 96, 'rot3': 0, 'rot2': 0, 'depth': -0.598, 'yaw': -90.43, 'datetime': '2018-12-12 14:33:26.832971', 'mgs': 0, 'flw2': 5.88, 'flw1': 0.0, 'flw0': 5.83, 'time': 13.03, 'compass': -0.7, 'pitch': 5.03, 'roll': -0.55}
{'lipoC2': 7.46, 'temp': 0.0, 'lipoC3S3': 11.09, 'state': 'normal', 'rot1': 105, 'rot0': 99, 'rot3': 0, 'rot2': 0, 'depth': -1.437, 'yaw': -90.47, 'datetime': '2018-12-12 14:33:27.041972', 'mgs': 0, 'flw2': 5.74, 'flw1': 0.5, 'flw0': 5.79, 'time': 13.24, 'compass': -0.74, 'pitch': 4.7, 'roll': -0.21}
{'lipoC2': 7.28, 'temp': 0.0, 'lipoC3S3': 11.38, 'state': 'normal', 'rot1': 108, 'rot0': 102, 'rot3': 0, 'rot2': 0, 'depth': -0.14, 'yaw': -90.43, 'datetime': '2018-12-12 14:33:27.253006', 'mgs': 0, 'flw2': 6.13, 'flw1': 0.0, 'flw0': 5.94, 'time': 13.45, 'compass': -0.7, 'pitch': 3.8, 'roll': 0.3}
{'lipoC2': 7.42, 'temp': 0.0, 'lipoC3S3': 10.71, 'state': 'normal', 'rot1': 111, 'rot0': 106, 'rot3': 0, 'rot2': 0, 'depth': -0.369, 'yaw': -90.44, 'datetime': '2018-12-12 14:33:27.461301', 'mgs': 0, 'flw2': 5.57, 'flw1': 0.59, 'flw0': 5.47, 'time': 13.66, 'compass': -0.71, 'pitch': 3.73, 'roll': 0.21}
{'lipoC2': 7.4, 'temp': 0.0, 'lipoC3S3': 10.96, 'state': 'normal', 'rot1': 114, 'rot0': 109, 'rot3': 0, 'rot2': 0, 'depth': 1.843, 'yaw': -90.49, 'datetime': '2018-12-12 14:33:27.673474', 'mgs': 0, 'flw2': 5.69, 'flw1': 0.0, 'flw0': 5.44, 'time': 13.87, 'compass': -0.75, 'pitch': 4.07, 'roll': -0.16}
{'lipoC2': 7.3, 'temp': 0.0, 'lipoC3S3': 11.0, 'state': 'normal', 'rot1': 117, 'rot0': 112, 'rot3': 0, 'rot2': 0, 'depth': -0.293, 'yaw': -90.41, 'datetime': '2018-12-12 14:33:27.882072', 'mgs': 0, 'flw2': 5.8, 'flw1': 0.0, 'flw0': 5.46, 'time': 14.07, 'compass': -0.67, 'pitch': 4.17, 'roll': -0.54}
{'lipoC2': 7.14, 'temp': 0.0, 'lipoC3S3': 11.39, 'state': 'normal', 'rot1': 121, 'rot0': 116, 'rot3': 0, 'rot2': 0, 'depth': -1.437, 'yaw': -89.85, 'datetime': '2018-12-12 14:33:28.089880', 'mgs': 0, 'flw2': 5.94, 'flw1': 0.0, 'flw0': 5.91, 'time': 14.28, 'compass': -0.11, 'pitch': 3.79, 'roll': -0.5}
{'lipoC2': 7.37, 'temp': 0.0, 'lipoC3S3': 11.29, 'state': 'normal', 'rot1': 124, 'rot0': 119, 'rot3': 0, 'rot2': 0, 'depth': 1.157, 'yaw': -89.03, 'datetime': '2018-12-12 14:33:28.299474', 'mgs': 0, 'flw2': 5.71, 'flw1': 0.62, 'flw0': 5.76, 'time': 14.49, 'compass': 0.7, 'pitch': 3.46, 'roll': -0.45}
{'lipoC2': 7.18, 'temp': 0.0, 'lipoC3S3': 11.05, 'state': 'normal', 'rot1': 127, 'rot0': 122, 'rot3': 0, 'rot2': 0, 'depth': 2.072, 'yaw': -88.21, 'datetime': '2018-12-12 14:33:28.511738', 'mgs': 0, 'flw2': 5.74, 'flw1': 0.41, 'flw0': 5.79, 'time': 14.7, 'compass': 1.52, 'pitch': 3.77, 'roll': -0.33}
{'lipoC2': 7.44, 'temp': 0.0, 'lipoC3S3': 11.27, 'state': 'normal', 'rot1': 130, 'rot0': 125, 'rot3': 0, 'rot2': 0, 'depth': -1.285, 'yaw': -87.48, 'datetime': '2018-12-12 14:33:28.718817', 'mgs': 0, 'flw2': 5.98, 'flw1': 0.0, 'flw0': 5.65, 'time': 14.91, 'compass': 2.26, 'pitch': 4.2, 'roll': -0.08}
{'lipoC2': 7.32, 'temp': 0.0, 'lipoC3S3': 11.19, 'state': 'normal', 'rot1': 133, 'rot0': 128, 'rot3': 0, 'rot2': 0, 'depth': 1.843, 'yaw': -86.49, 'datetime': '2018-12-12 14:33:28.930966', 'mgs': 0, 'flw2': 6.05, 'flw1': 0.0, 'flw0': 5.82, 'time': 15.12, 'compass': 3.24, 'pitch': 4.33, 'roll': -0.03}
{'lipoC2': 7.21, 'temp': 0.0, 'lipoC3S3': 11.39, 'state': 'normal', 'rot1': 136, 'rot0': 131, 'rot3': 0, 'rot2': 0, 'depth': 0.165, 'yaw': -85.39, 'datetime': '2018-12-12 14:33:29.138977', 'mgs': 0, 'flw2': 6.42, 'flw1': 0.12, 'flw0': 5.53, 'time': 15.33, 'compass': 4.35, 'pitch': 4.37, 'roll': -0.03}
{'lipoC2': 7.38, 'temp': 0.0, 'lipoC3S3': 10.97, 'state': 'normal', 'rot1': 139, 'rot0': 134, 'rot3': 0, 'rot2': 0, 'depth': 1.233, 'yaw': -83.85, 'datetime': '2018-12-12 14:33:29.350427', 'mgs': 0, 'flw2': 5.82, 'flw1': 0.0, 'flw0': 5.64, 'time': 15.54, 'compass': 5.88, 'pitch': 4.35, 'roll': 0.18}
{'lipoC2': 7.17, 'temp': 0.0, 'lipoC3S3': 11.14, 'state': 'normal', 'rot1': 142, 'rot0': 138, 'rot3': 0, 'rot2': 0, 'depth': 2.835, 'yaw': -82.54, 'datetime': '2018-12-12 14:33:29.559156', 'mgs': 0, 'flw2': 5.82, 'flw1': 0.44, 'flw0': 5.49, 'time': 15.75, 'compass': 7.19, 'pitch': 4.51, 'roll': 0.19}
{'lipoC2': 7.49, 'temp': 0.0, 'lipoC3S3': 10.86, 'state': 'normal', 'rot1': 145, 'rot0': 141, 'rot3': 0, 'rot2': 0, 'depth': -1.285, 'yaw': -81.33, 'datetime': '2018-12-12 14:33:29.769415', 'mgs': 0, 'flw2': 5.68, 'flw1': 0.0, 'flw0': 5.41, 'time': 15.96, 'compass': 8.41, 'pitch': 4.74, 'roll': 0.45}
{'lipoC2': 7.3, 'temp': 0.0, 'lipoC3S3': 10.64, 'state': 'normal', 'rot1': 149, 'rot0': 144, 'rot3': 0, 'rot2': 0, 'depth': 1.691, 'yaw': -80.44, 'datetime': '2018-12-12 14:33:29.979079', 'mgs': 0, 'flw2': 5.96, 'flw1': 0.0, 'flw0': 5.58, 'time': 16.17, 'compass': 9.29, 'pitch': 4.8, 'roll': 0.6}
{'lipoC2': 7.44, 'temp': 0.0, 'lipoC3S3': 11.15, 'state': 'normal', 'rot1': 152, 'rot0': 147, 'rot3': 0, 'rot2': 0, 'depth': -0.827, 'yaw': -79.46, 'datetime': '2018-12-12 14:33:30.187486', 'mgs': 0, 'flw2': 5.75, 'flw1': 0.0, 'flw0': 5.48, 'time': 16.38, 'compass': 10.27, 'pitch': 4.87, 'roll': 0.61}
{'lipoC2': 7.48, 'temp': 0.0, 'lipoC3S3': 11.09, 'state': 'normal', 'rot1': 155, 'rot0': 150, 'rot3': 0, 'rot2': 0, 'depth': 0.317, 'yaw': -78.34, 'datetime': '2018-12-12 14:33:30.398413', 'mgs': 0, 'flw2': 6.07, 'flw1': 0.0, 'flw0': 5.18, 'time': 16.59, 'compass': 11.39, 'pitch': 4.7, 'roll': 0.62}
{'lipoC2': 7.35, 'temp': 0.0, 'lipoC3S3': 11.09, 'state': 'normal', 'rot1': 158, 'rot0': 153, 'rot3': 0, 'rot2': 0, 'depth': -0.217, 'yaw': -76.86, 'datetime': '2018-12-12 14:33:30.605550', 'mgs': 0, 'flw2': 5.69, 'flw1': 0.0, 'flw0': 4.94, 'time': 16.8, 'compass': 12.87, 'pitch': 4.36, 'roll': 0.95}
{'lipoC2': 7.43, 'temp': 0.0, 'lipoC3S3': 11.21, 'state': 'normal', 'rot1': 161, 'rot0': 157, 'rot3': 0, 'rot2': 0, 'depth': -1.056, 'yaw': -75.07, 'datetime': '2018-12-12 14:33:30.814574', 'mgs': 0, 'flw2': 5.73, 'flw1': 0.03, 'flw0': 5.11, 'time': 17.0, 'compass': 14.66, 'pitch': 4.39, 'roll': 1.14}
{'lipoC2': 7.38, 'temp': 0.0, 'lipoC3S3': 10.71, 'state': 'normal', 'rot1': 165, 'rot0': 160, 'rot3': 0, 'rot2': 0, 'depth': -0.217, 'yaw': -72.99, 'datetime': '2018-12-12 14:33:31.024146', 'mgs': 0, 'flw2': 5.81, 'flw1': 0.59, 'flw0': 4.65, 'time': 17.21, 'compass': 16.74, 'pitch': 4.52, 'roll': 1.19}
{'lipoC2': 7.48, 'temp': 0.0, 'lipoC3S3': 11.1, 'state': 'normal', 'rot1': 168, 'rot0': 163, 'rot3': 0, 'rot2': 0, 'depth': -0.827, 'yaw': -70.56, 'datetime': '2018-12-12 14:33:31.233713', 'mgs': 0, 'flw2': 6.29, 'flw1': 0.0, 'flw0': 4.69, 'time': 17.42, 'compass': 19.17, 'pitch': 4.76, 'roll': 1.21}
{'lipoC2': 7.3, 'temp': 0.0, 'lipoC3S3': 10.97, 'state': 'normal', 'rot1': 170, 'rot0': 166, 'rot3': 0, 'rot2': 0, 'depth': 0.089, 'yaw': -67.74, 'datetime': '2018-12-12 14:33:31.444513', 'mgs': 0, 'flw2': 5.96, 'flw1': 0.53, 'flw0': 4.77, 'time': 17.64, 'compass': 21.99, 'pitch': 4.84, 'roll': 1.36}
{'lipoC2': 7.12, 'temp': 0.0, 'lipoC3S3': 10.86, 'state': 'normal', 'rot1': 173, 'rot0': 169, 'rot3': 0, 'rot2': 0, 'depth': -0.446, 'yaw': -64.96, 'datetime': '2018-12-12 14:33:31.654219', 'mgs': 0, 'flw2': 5.79, 'flw1': 0.41, 'flw0': 4.85, 'time': 17.84, 'compass': 24.77, 'pitch': 4.75, 'roll': 1.72}
{'lipoC2': 7.12, 'temp': 0.0, 'lipoC3S3': 11.0, 'state': 'normal', 'rot1': 176, 'rot0': 172, 'rot3': 0, 'rot2': 0, 'depth': 1.614, 'yaw': -61.84, 'datetime': '2018-12-12 14:33:31.864105', 'mgs': 0, 'flw2': 5.37, 'flw1': 0.35, 'flw0': 5.09, 'time': 18.05, 'compass': 27.89, 'pitch': 4.66, 'roll': 2.52}
{'lipoC2': 7.35, 'temp': 0.0, 'lipoC3S3': 10.85, 'state': 'normal', 'rot1': 179, 'rot0': 175, 'rot3': 0, 'rot2': 0, 'depth': 1.004, 'yaw': -59.37, 'datetime': '2018-12-12 14:33:32.071795', 'mgs': 0, 'flw2': 1.42, 'flw1': 0.0, 'flw0': 2.98, 'time': 18.26, 'compass': 30.37, 'pitch': 4.33, 'roll': 2.55}
{'lipoC2': 7.21, 'temp': 0.0, 'lipoC3S3': 11.27, 'state': 'normal', 'rot1': 181, 'rot0': 176, 'rot3': 0, 'rot2': 0, 'depth': 1.538, 'yaw': -58.58, 'datetime': '2018-12-12 14:33:32.283658', 'mgs': 0, 'flw2': 1.27, 'flw1': 0.0, 'flw0': 3.26, 'time': 18.47, 'compass': 31.15, 'pitch': 2.2, 'roll': 1.9}
{'lipoC2': 7.43, 'temp': 0.0, 'lipoC3S3': 11.23, 'state': 'normal', 'rot1': 184, 'rot0': 178, 'rot3': 0, 'rot2': 0, 'depth': -0.064, 'yaw': -58.55, 'datetime': '2018-12-12 14:33:32.491818', 'mgs': 0, 'flw2': 1.37, 'flw1': 0.0, 'flw0': 3.2, 'time': 18.68, 'compass': 31.18, 'pitch': 0.43, 'roll': 1.16}
{'lipoC2': 7.24, 'temp': 0.0, 'lipoC3S3': 11.05, 'state': 'normal', 'rot1': 186, 'rot0': 180, 'rot3': 0, 'rot2': 0, 'depth': -0.293, 'yaw': -59.03, 'datetime': '2018-12-12 14:33:32.701890', 'mgs': 0, 'flw2': 1.07, 'flw1': 0.0, 'flw0': 2.8, 'time': 18.89, 'compass': 30.71, 'pitch': 0.01, 'roll': 0.68}
{'lipoC2': 7.13, 'temp': 0.0, 'lipoC3S3': 11.23, 'state': 'normal', 'rot1': 188, 'rot0': 181, 'rot3': 0, 'rot2': 0, 'depth': 1.462, 'yaw': -59.64, 'datetime': '2018-12-12 14:33:32.911528', 'mgs': 0, 'flw2': 0.35, 'flw1': 0.0, 'flw0': 0.0, 'time': 19.1, 'compass': 30.1, 'pitch': -0.06, 'roll': 0.56}
{'lipoC2': 7.33, 'temp': 0.0, 'lipoC3S3': 11.39, 'state': 'normal', 'rot1': 188, 'rot0': 181, 'rot3': 0, 'rot2': 0, 'depth': -1.208, 'yaw': -59.55, 'datetime': '2018-12-12 14:33:33.119315', 'mgs': 0, 'flw2': 0.05, 'flw1': 0.0, 'flw0': 0.0, 'time': 19.31, 'compass': 30.19, 'pitch': -1.43, 'roll': 0.72}
{'lipoC2': 7.17, 'temp': 0.0, 'lipoC3S3': 11.5, 'state': 'normal', 'rot1': 188, 'rot0': 181, 'rot3': 0, 'rot2': 0, 'depth': -1.285, 'yaw': -59.01, 'datetime': '2018-12-12 14:33:33.328383', 'mgs': 0, 'flw2': 0.2, 'flw1': 0.0, 'flw0': 0.12, 'time': 19.52, 'compass': 30.73, 'pitch': -2.3, 'roll': 0.86}
{'lipoC2': 7.26, 'temp': 0.0, 'lipoC3S3': 11.27, 'state': 'normal', 'rot1': 188, 'rot0': 181, 'rot3': 0, 'rot2': 0, 'depth': 1.538, 'yaw': -58.18, 'datetime': '2018-12-12 14:33:33.538435', 'mgs': 0, 'flw2': 0.0, 'flw1': 0.0, 'flw0': 0.0, 'time': 19.73, 'compass': 31.56, 'pitch': -2.03, 'roll': 0.7}
{'lipoC2': 7.51, 'temp': 0.0, 'lipoC3S3': 11.07, 'state': 'normal', 'rot1': 188, 'rot0': 181, 'rot3': 0, 'rot2': 0, 'depth': 0.851, 'yaw': -57.19, 'datetime': '2018-12-12 14:33:33.747595', 'mgs': 0, 'flw2': 0.07, 'flw1': 0.0, 'flw0': 0.0, 'time': 19.93, 'compass': 32.54, 'pitch': -1.65, 'roll': 0.65}
{'lipoC2': 7.18, 'temp': 0.0, 'lipoC3S3': 11.27, 'state': 'normal', 'rot1': 188, 'rot0': 181, 'rot3': 0, 'rot2': 0, 'depth': -0.217, 'yaw': -55.93, 'datetime': '2018-12-12 14:33:33.960834', 'mgs': 0, 'flw2': 0.0, 'flw1': 0.12, 'flw0': 0.0, 'time': 20.15, 'compass': 33.81, 'pitch': -1.9, 'roll': 0.72}
{'lipoC2': 7.41, 'temp': 0.0, 'lipoC3S3': 11.38, 'state': 'normal', 'rot1': 188, 'rot0': 181, 'rot3': 0, 'rot2': 0, 'depth': -0.14, 'yaw': -54.56, 'datetime': '2018-12-12 14:33:34.166481', 'mgs': 0, 'flw2': 0.0, 'flw1': 0.0, 'flw0': 0.35, 'time': 20.35, 'compass': 35.17, 'pitch': -2.5, 'roll': 0.96}
{'lipoC2': 7.47, 'temp': 0.0, 'lipoC3S3': 11.18, 'state': 'normal', 'rot1': 189, 'rot0': 181, 'rot3': 0, 'rot2': 0, 'depth': 0.317, 'yaw': -53.41, 'datetime': '2018-12-12 14:33:34.375978', 'mgs': 0, 'flw2': 0.0, 'flw1': 0.5, 'flw0': 1.57, 'time': 20.56, 'compass': 36.32, 'pitch': -2.29, 'roll': 0.95}
{'lipoC2': 7.17, 'temp': 0.0, 'lipoC3S3': 11.13, 'state': 'normal', 'rot1': 191, 'rot0': 181, 'rot3': 0, 'rot2': 0, 'depth': -0.217, 'yaw': -54.13, 'datetime': '2018-12-12 14:33:34.584279', 'mgs': 0, 'flw2': 0.0, 'flw1': 0.0, 'flw0': 1.88, 'time': 20.77, 'compass': 35.6, 'pitch': -0.85, 'roll': 0.3}
{'lipoC2': 7.29, 'temp': 0.0, 'lipoC3S3': 11.44, 'state': 'normal', 'rot1': 193, 'rot0': 181, 'rot3': 0, 'rot2': 0, 'depth': -0.293, 'yaw': -56.48, 'datetime': '2018-12-12 14:33:34.793786', 'mgs': 0, 'flw2': 0.0, 'flw1': 0.0, 'flw0': 2.25, 'time': 20.98, 'compass': 33.25, 'pitch': -0.06, 'roll': -0.29}
{'lipoC2': 7.29, 'temp': 0.0, 'lipoC3S3': 11.23, 'state': 'normal', 'rot1': 195, 'rot0': 181, 'rot3': 0, 'rot2': 0, 'depth': -0.903, 'yaw': -59.77, 'datetime': '2018-12-12 14:33:35.002486', 'mgs': 0, 'flw2': 0.0, 'flw1': 0.0, 'flw0': 2.19, 'time': 21.19, 'compass': 29.97, 'pitch': -0.6, 'roll': -0.71}
{'lipoC2': 7.3, 'temp': 0.0, 'lipoC3S3': 11.5, 'state': 'normal', 'rot1': 197, 'rot0': 181, 'rot3': 0, 'rot2': 0, 'depth': -0.903, 'yaw': -63.94, 'datetime': '2018-12-12 14:33:35.213569', 'mgs': 0, 'flw2': 0.22, 'flw1': 0.0, 'flw0': 2.36, 'time': 21.4, 'compass': 25.79, 'pitch': -0.95, 'roll': -0.99}
{'lipoC2': 7.39, 'temp': 0.0, 'lipoC3S3': 11.07, 'state': 'normal', 'rot1': 199, 'rot0': 181, 'rot3': 0, 'rot2': 0, 'depth': -0.293, 'yaw': -68.82, 'datetime': '2018-12-12 14:33:35.421887', 'mgs': 0, 'flw2': 0.13, 'flw1': 0.0, 'flw0': 2.04, 'time': 21.61, 'compass': 20.92, 'pitch': -0.49, 'roll': -1.1}
{'lipoC2': 7.32, 'temp': 0.0, 'lipoC3S3': 10.94, 'state': 'normal', 'rot1': 201, 'rot0': 181, 'rot3': 0, 'rot2': 0, 'depth': 2.225, 'yaw': -74.29, 'datetime': '2018-12-12 14:33:35.631301', 'mgs': 0, 'flw2': 0.2, 'flw1': 0.0, 'flw0': 2.45, 'time': 21.82, 'compass': 15.45, 'pitch': -0.34, 'roll': -1.25}
{'lipoC2': 7.25, 'temp': 0.0, 'lipoC3S3': 11.38, 'state': 'normal', 'rot1': 203, 'rot0': 181, 'rot3': 0, 'rot2': 0, 'depth': 0.47, 'yaw': -80.13, 'datetime': '2018-12-12 14:33:35.839499', 'mgs': 0, 'flw2': 0.12, 'flw1': 0.0, 'flw0': 2.58, 'time': 22.02, 'compass': 9.6, 'pitch': -0.5, 'roll': -1.58}
{'lipoC2': 7.28, 'temp': 0.0, 'lipoC3S3': 11.6, 'state': 'normal', 'rot1': 206, 'rot0': 181, 'rot3': 0, 'rot2': 0, 'depth': -0.522, 'yaw': -85.89, 'datetime': '2018-12-12 14:33:36.049372', 'mgs': 0, 'flw2': 0.0, 'flw1': 0.0, 'flw0': 2.64, 'time': 22.23, 'compass': 3.84, 'pitch': -0.66, 'roll': -1.77}
{'lipoC2': 7.12, 'temp': 0.0, 'lipoC3S3': 11.43, 'state': 'normal', 'rot1': 208, 'rot0': 181, 'rot3': 0, 'rot2': 0, 'depth': 0.623, 'yaw': -92.42, 'datetime': '2018-12-12 14:33:36.259750', 'mgs': 0, 'flw2': 0.27, 'flw1': 0.0, 'flw0': 2.82, 'time': 22.44, 'compass': -2.68, 'pitch': -0.58, 'roll': -1.84}
{'lipoC2': 7.49, 'temp': 0.0, 'lipoC3S3': 11.22, 'state': 'normal', 'rot1': 211, 'rot0': 181, 'rot3': 0, 'rot2': 0, 'depth': 0.241, 'yaw': -99.88, 'datetime': '2018-12-12 14:33:36.469238', 'mgs': 0, 'flw2': 0.0, 'flw1': 0.0, 'flw0': 3.98, 'time': 22.65, 'compass': -10.15, 'pitch': -0.04, 'roll': -2.05}
{'lipoC2': 7.18, 'temp': 0.0, 'lipoC3S3': 11.09, 'state': 'normal', 'rot1': 213, 'rot0': 181, 'rot3': 0, 'rot2': 0, 'depth': -0.369, 'yaw': -109.14, 'datetime': '2018-12-12 14:33:36.679049', 'mgs': 0, 'flw2': 0.27, 'flw1': 0.03, 'flw0': 4.09, 'time': 22.86, 'compass': -19.4, 'pitch': 0.99, 'roll': -2.61}
{'lipoC2': 7.24, 'temp': 0.0, 'lipoC3S3': 11.0, 'state': 'normal', 'rot1': 216, 'rot0': 183, 'rot3': 0, 'rot2': 0, 'depth': -0.522, 'yaw': -118.93, 'datetime': '2018-12-12 14:33:36.888835', 'mgs': 0, 'flw2': 6.05, 'flw1': 0.0, 'flw0': 2.94, 'time': 23.07, 'compass': -29.2, 'pitch': 1.9, 'roll': -3.19}
{'lipoC2': 7.39, 'temp': 0.0, 'lipoC3S3': 11.11, 'state': 'normal', 'rot1': 219, 'rot0': 186, 'rot3': 0, 'rot2': 0, 'depth': 1.691, 'yaw': -125.36, 'datetime': '2018-12-12 14:33:37.097640', 'mgs': 0, 'flw2': 5.74, 'flw1': 0.0, 'flw0': 2.94, 'time': 23.28, 'compass': -35.62, 'pitch': 3.76, 'roll': -3.47}
{'lipoC2': 7.47, 'temp': 0.0, 'lipoC3S3': 11.29, 'state': 'normal', 'rot1': 221, 'rot0': 189, 'rot3': 0, 'rot2': 0, 'depth': 0.851, 'yaw': -128.2, 'datetime': '2018-12-12 14:33:37.307170', 'mgs': 0, 'flw2': 6.08, 'flw1': 0.0, 'flw0': 3.37, 'time': 23.49, 'compass': -38.46, 'pitch': 5.32, 'roll': -3.25}
{'lipoC2': 7.35, 'temp': 0.0, 'lipoC3S3': 11.02, 'state': 'normal', 'rot1': 224, 'rot0': 192, 'rot3': 0, 'rot2': 0, 'depth': 0.089, 'yaw': -128.62, 'datetime': '2018-12-12 14:33:37.516776', 'mgs': 0, 'flw2': 5.97, 'flw1': 0.0, 'flw0': 2.87, 'time': 23.7, 'compass': -38.88, 'pitch': 5.19, 'roll': -2.76}
{'lipoC2': 7.34, 'temp': 0.0, 'lipoC3S3': 11.19, 'state': 'normal', 'rot1': 226, 'rot0': 195, 'rot3': 0, 'rot2': 0, 'depth': -0.293, 'yaw': -127.76, 'datetime': '2018-12-12 14:33:37.727752', 'mgs': 0, 'flw2': 2.72, 'flw1': 0.47, 'flw0': 5.05, 'time': 23.91, 'compass': -38.03, 'pitch': 3.82, 'roll': -2.61}
{'lipoC2': 7.32, 'temp': 0.0, 'lipoC3S3': 10.85, 'state': 'normal', 'rot1': 229, 'rot0': 197, 'rot3': 0, 'rot2': 0, 'depth': 0.928, 'yaw': -128.44, 'datetime': '2018-12-12 14:33:37.937582', 'mgs': 0, 'flw2': 2.15, 'flw1': 0.0, 'flw0': 5.74, 'time': 24.12, 'compass': -38.71, 'pitch': 2.85, 'roll': -2.8}
{'lipoC2': 7.11, 'temp': 0.0, 'lipoC3S3': 11.38, 'state': 'normal', 'rot1': 232, 'rot0': 199, 'rot3': 0, 'rot2': 0, 'depth': -0.751, 'yaw': -131.93, 'datetime': '2018-12-12 14:33:38.148107', 'mgs': 0, 'flw2': 1.73, 'flw1': 0.56, 'flw0': 6.25, 'time': 24.33, 'compass': -42.19, 'pitch': 3.01, 'roll': -3.3}
{'lipoC2': 7.32, 'temp': 0.0, 'lipoC3S3': 11.05, 'state': 'normal', 'rot1': 236, 'rot0': 201, 'rot3': 0, 'rot2': 0, 'depth': 0.928, 'yaw': -137.11, 'datetime': '2018-12-12 14:33:38.355645', 'mgs': 0, 'flw2': 4.54, 'flw1': 0.0, 'flw0': 6.53, 'time': 24.53, 'compass': -47.37, 'pitch': 3.55, 'roll': -3.91}
{'lipoC2': 7.32, 'temp': 0.0, 'lipoC3S3': 11.17, 'state': 'normal', 'rot1': 239, 'rot0': 204, 'rot3': 0, 'rot2': 0, 'depth': 0.546, 'yaw': -141.95, 'datetime': '2018-12-12 14:33:38.564185', 'mgs': 0, 'flw2': 5.59, 'flw1': 0.0, 'flw0': 6.43, 'time': 24.74, 'compass': -52.22, 'pitch': 4.39, 'roll': -3.99}
{'lipoC2': 7.36, 'temp': 0.0, 'lipoC3S3': 10.76, 'state': 'normal', 'rot1': 243, 'rot0': 207, 'rot3': 0, 'rot2': 0, 'depth': 2.454, 'yaw': -144.82, 'datetime': '2018-12-12 14:33:38.779003', 'mgs': 0, 'flw2': 5.71, 'flw1': 0.21, 'flw0': 6.2, 'time': 24.95, 'compass': -55.08, 'pitch': 5.33, 'roll': -3.59}
{'lipoC2': 7.38, 'temp': 0.0, 'lipoC3S3': 10.8, 'state': 'normal', 'rot1': 247, 'rot0': 210, 'rot3': 0, 'rot2': 0, 'depth': 1.996, 'yaw': -146.92, 'datetime': '2018-12-12 14:33:38.986603', 'mgs': 0, 'flw2': 4.15, 'flw1': 0.32, 'flw0': 6.8, 'time': 25.16, 'compass': -57.19, 'pitch': 5.36, 'roll': -3.1}
{'lipoC2': 7.17, 'temp': 0.0, 'lipoC3S3': 11.26, 'state': 'normal', 'rot1': 250, 'rot0': 213, 'rot3': 0, 'rot2': 0, 'depth': 1.157, 'yaw': -149.49, 'datetime': '2018-12-12 14:33:39.197697', 'mgs': 0, 'flw2': 4.04, 'flw1': 0.0, 'flw0': 6.63, 'time': 25.37, 'compass': -59.75, 'pitch': 4.47, 'roll': -2.77}
{'lipoC2': 7.38, 'temp': 0.0, 'lipoC3S3': 11.02, 'state': 'normal', 'rot1': 254, 'rot0': 216, 'rot3': 0, 'rot2': 0, 'depth': -1.208, 'yaw': -152.67, 'datetime': '2018-12-12 14:33:39.403552', 'mgs': 0, 'flw2': 3.83, 'flw1': 0.0, 'flw0': 6.98, 'time': 25.58, 'compass': -62.94, 'pitch': 4.05, 'roll': -2.92}
{'lipoC2': 7.25, 'temp': 0.0, 'lipoC3S3': 11.23, 'state': 'normal', 'rot1': 258, 'rot0': 219, 'rot3': 0, 'rot2': 0, 'depth': -0.903, 'yaw': -156.2, 'datetime': '2018-12-12 14:33:39.612446', 'mgs': 0, 'flw2': 4.03, 'flw1': 0.0, 'flw0': 7.23, 'time': 25.79, 'compass': -66.46, 'pitch': 4.38, 'roll': -3.53}
{'lipoC2': 7.26, 'temp': 0.0, 'lipoC3S3': 11.13, 'state': 'normal', 'rot1': 261, 'rot0': 221, 'rot3': 0, 'rot2': 0, 'depth': 0.089, 'yaw': -159.99, 'datetime': '2018-12-12 14:33:39.823708', 'mgs': 0, 'flw2': 3.34, 'flw1': 0.23, 'flw0': 6.63, 'time': 26.0, 'compass': -70.26, 'pitch': 5.29, 'roll': -4.02}
{'lipoC2': 7.18, 'temp': 0.0, 'lipoC3S3': 11.13, 'state': 'normal', 'rot1': 264, 'rot0': 224, 'rot3': 0, 'rot2': 0, 'depth': 0.623, 'yaw': -164.0, 'datetime': '2018-12-12 14:33:40.035728', 'mgs': 0, 'flw2': 3.45, 'flw1': 0.0, 'flw0': 6.6, 'time': 26.21, 'compass': -74.26, 'pitch': 5.69, 'roll': -4.4}
{'lipoC2': 7.37, 'temp': 0.0, 'lipoC3S3': 11.17, 'state': 'normal', 'rot1': 267, 'rot0': 226, 'rot3': 0, 'rot2': 0, 'depth': 0.775, 'yaw': -168.51, 'datetime': '2018-12-12 14:33:40.244821', 'mgs': 0, 'flw2': 3.13, 'flw1': 0.0, 'flw0': 6.59, 'time': 26.42, 'compass': -78.78, 'pitch': 5.1, 'roll': -5.0}
{'lipoC2': 7.21, 'temp': 0.0, 'lipoC3S3': 11.01, 'state': 'normal', 'rot1': 270, 'rot0': 229, 'rot3': 0, 'rot2': 0, 'depth': -0.369, 'yaw': -173.26, 'datetime': '2018-12-12 14:33:40.453849', 'mgs': 0, 'flw2': 3.42, 'flw1': 0.67, 'flw0': 6.6, 'time': 26.63, 'compass': -83.53, 'pitch': 4.2, 'roll': -5.51}
{'lipoC2': 7.26, 'temp': 0.0, 'lipoC3S3': 10.9, 'state': 'normal', 'rot1': 273, 'rot0': 232, 'rot3': 0, 'rot2': 0, 'depth': -0.674, 'yaw': -178.07, 'datetime': '2018-12-12 14:33:40.665381', 'mgs': 0, 'flw2': 4.13, 'flw1': 0.0, 'flw0': 6.87, 'time': 26.84, 'compass': -88.34, 'pitch': 4.08, 'roll': -5.54}
{'lipoC2': 7.5, 'temp': 0.0, 'lipoC3S3': 10.85, 'state': 'normal', 'rot1': 277, 'rot0': 234, 'rot3': 0, 'rot2': 0, 'depth': 0.928, 'yaw': 177.48, 'datetime': '2018-12-12 14:33:40.875731', 'mgs': 0, 'flw2': 4.0, 'flw1': 0.5, 'flw0': 6.77, 'time': 27.05, 'compass': -92.79, 'pitch': 4.47, 'roll': -5.46}
{'lipoC2': 7.24, 'temp': 0.0, 'lipoC3S3': 11.15, 'state': 'normal', 'rot1': 280, 'rot0': 237, 'rot3': 0, 'rot2': 0, 'depth': 1.462, 'yaw': 173.26, 'datetime': '2018-12-12 14:33:41.084052', 'mgs': 0, 'flw2': 4.09, 'flw1': 0.0, 'flw0': 6.82, 'time': 27.25, 'compass': -97.01, 'pitch': 5.3, 'roll': -5.45}
{'lipoC2': 7.19, 'temp': 0.0, 'lipoC3S3': 10.98, 'state': 'normal', 'rot1': 284, 'rot0': 240, 'rot3': 0, 'rot2': 0, 'depth': 2.606, 'yaw': 169.13, 'datetime': '2018-12-12 14:33:41.292928', 'mgs': 0, 'flw2': 4.8, 'flw1': 0.0, 'flw0': 6.2, 'time': 27.46, 'compass': -101.14, 'pitch': 6.05, 'roll': -5.4}
{'lipoC2': 7.27, 'temp': 0.0, 'lipoC3S3': 11.15, 'state': 'normal', 'rot1': 287, 'rot0': 243, 'rot3': 0, 'rot2': 0, 'depth': 2.072, 'yaw': 164.94, 'datetime': '2018-12-12 14:33:41.502074', 'mgs': 0, 'flw2': 5.13, 'flw1': 0.5, 'flw0': 6.35, 'time': 27.67, 'compass': -105.33, 'pitch': 6.31, 'roll': -5.57}
{'lipoC2': 7.38, 'temp': 0.0, 'lipoC3S3': 10.89, 'state': 'normal', 'rot1': 290, 'rot0': 246, 'rot3': 0, 'rot2': 0, 'depth': -0.446, 'yaw': 161.17, 'datetime': '2018-12-12 14:33:41.712730', 'mgs': 0, 'flw2': 5.15, 'flw1': 0.44, 'flw0': 6.36, 'time': 27.88, 'compass': -109.09, 'pitch': 6.0, 'roll': -5.66}
{'lipoC2': 7.47, 'temp': 0.0, 'lipoC3S3': 10.8, 'state': 'normal', 'rot1': 293, 'rot0': 249, 'rot3': 0, 'rot2': 0, 'depth': -1.056, 'yaw': 157.94, 'datetime': '2018-12-12 14:33:41.921271', 'mgs': 0, 'flw2': 5.83, 'flw1': 0.47, 'flw0': 6.51, 'time': 28.09, 'compass': -112.33, 'pitch': 5.63, 'roll': -5.36}
{'lipoC2': 7.29, 'temp': 0.0, 'lipoC3S3': 11.1, 'state': 'normal', 'rot1': 297, 'rot0': 252, 'rot3': 0, 'rot2': 0, 'depth': -0.369, 'yaw': 154.95, 'datetime': '2018-12-12 14:33:42.130484', 'mgs': 0, 'flw2': 6.25, 'flw1': 0.0, 'flw0': 6.37, 'time': 28.3, 'compass': -115.31, 'pitch': 5.74, 'roll': -4.83}
{'lipoC2': 7.28, 'temp': 0.0, 'lipoC3S3': 11.05, 'state': 'normal', 'rot1': 300, 'rot0': 256, 'rot3': 0, 'rot2': 0, 'depth': -0.903, 'yaw': 152.35, 'datetime': '2018-12-12 14:33:42.339806', 'mgs': 0, 'flw2': 5.8, 'flw1': 0.0, 'flw0': 6.45, 'time': 28.51, 'compass': -117.92, 'pitch': 5.16, 'roll': -4.38}
{'lipoC2': 7.24, 'temp': 0.0, 'lipoC3S3': 11.02, 'state': 'normal', 'rot1': 303, 'rot0': 259, 'rot3': 0, 'rot2': 0, 'depth': -0.293, 'yaw': 150.12, 'datetime': '2018-12-12 14:33:42.548931', 'mgs': 0, 'flw2': 6.1, 'flw1': 0.0, 'flw0': 6.69, 'time': 28.72, 'compass': -120.15, 'pitch': 4.42, 'roll': -4.2}
{'lipoC2': 7.29, 'temp': 0.0, 'lipoC3S3': 10.86, 'state': 'normal', 'rot1': 307, 'rot0': 262, 'rot3': 0, 'rot2': 0, 'depth': -0.369, 'yaw': 147.42, 'datetime': '2018-12-12 14:33:42.761511', 'mgs': 0, 'flw2': 5.8, 'flw1': 0.0, 'flw0': 6.42, 'time': 28.93, 'compass': -122.84, 'pitch': 4.44, 'roll': -4.22}
{'lipoC2': 7.32, 'temp': 0.0, 'lipoC3S3': 11.36, 'state': 'normal', 'rot1': 310, 'rot0': 265, 'rot3': 0, 'rot2': 0, 'depth': -0.98, 'yaw': 144.7, 'datetime': '2018-12-12 14:33:42.967540', 'mgs': 0, 'flw2': 5.66, 'flw1': 0.0, 'flw0': 7.09, 'time': 29.14, 'compass': -125.57, 'pitch': 4.81, 'roll': -4.06}
{'lipoC2': 7.27, 'temp': 0.0, 'lipoC3S3': 11.35, 'state': 'normal', 'rot1': 314, 'rot0': 269, 'rot3': 0, 'rot2': 0, 'depth': -0.064, 'yaw': 142.06, 'datetime': '2018-12-12 14:33:43.181712', 'mgs': 0, 'flw2': 6.19, 'flw1': 0.0, 'flw0': 5.37, 'time': 29.35, 'compass': -128.21, 'pitch': 4.79, 'roll': -3.49}
{'lipoC2': 7.53, 'temp': 0.0, 'lipoC3S3': 11.02, 'state': 'normal', 'rot1': 317, 'rot0': 272, 'rot3': 0, 'rot2': 0, 'depth': 0.851, 'yaw': 140.0, 'datetime': '2018-12-12 14:33:43.387446', 'mgs': 0, 'flw2': 5.76, 'flw1': 0.0, 'flw0': 5.1, 'time': 29.56, 'compass': -130.26, 'pitch': 4.2, 'roll': -3.17}
{'lipoC2': 7.37, 'temp': 0.0, 'lipoC3S3': 10.8, 'state': 'normal', 'rot1': 320, 'rot0': 275, 'rot3': 0, 'rot2': 0, 'depth': 1.385, 'yaw': 138.05, 'datetime': '2018-12-12 14:33:43.595698', 'mgs': 0, 'flw2': 6.09, 'flw1': 0.0, 'flw0': 4.86, 'time': 29.77, 'compass': -132.22, 'pitch': 3.76, 'roll': -3.01}
{'lipoC2': 7.49, 'temp': 0.0, 'lipoC3S3': 11.17, 'state': 'normal', 'rot1': 324, 'rot0': 278, 'rot3': 0, 'rot2': 0, 'depth': 0.623, 'yaw': 136.39, 'datetime': '2018-12-12 14:33:43.808939', 'mgs': 0, 'flw2': 5.74, 'flw1': 0.0, 'flw0': 5.38, 'time': 29.98, 'compass': -133.88, 'pitch': 3.87, 'roll': -2.86}
{'lipoC2': 7.29, 'temp': 0.0, 'lipoC3S3': 10.92, 'state': 'normal', 'rot1': 327, 'rot0': 282, 'rot3': 0, 'rot2': 0, 'depth': -0.064, 'yaw': 134.46, 'datetime': '2018-12-12 14:33:44.016685', 'mgs': 0, 'flw2': 5.55, 'flw1': 0.0, 'flw0': 4.94, 'time': 30.19, 'compass': -135.8, 'pitch': 4.02, 'roll': -3.05}
{'lipoC2': 7.13, 'temp': 0.0, 'lipoC3S3': 10.88, 'state': 'normal', 'rot1': 329, 'rot0': 285, 'rot3': 0, 'rot2': 0, 'depth': 1.767, 'yaw': 132.47, 'datetime': '2018-12-12 14:33:44.224358', 'mgs': 0, 'flw2': 6.02, 'flw1': 0.0, 'flw0': 5.46, 'time': 30.4, 'compass': -137.79, 'pitch': 4.02, 'roll': -3.42}
{'lipoC2': 7.51, 'temp': 0.0, 'lipoC3S3': 11.06, 'state': 'normal', 'rot1': 332, 'rot0': 289, 'rot3': 0, 'rot2': 0, 'depth': -1.132, 'yaw': 130.9, 'datetime': '2018-12-12 14:33:44.435794', 'mgs': 0, 'flw2': 5.7, 'flw1': 0.06, 'flw0': 1.95, 'time': 30.6, 'compass': -139.37, 'pitch': 3.98, 'roll': -3.34}
{'lipoC2': 7.3, 'temp': 0.0, 'lipoC3S3': 10.96, 'state': 'normal', 'rot1': 334, 'rot0': 292, 'rot3': 0, 'rot2': 0, 'depth': 0.928, 'yaw': 130.38, 'datetime': '2018-12-12 14:33:44.643580', 'mgs': 0, 'flw2': 5.49, 'flw1': 0.0, 'flw0': 1.34, 'time': 30.81, 'compass': -139.89, 'pitch': 3.36, 'roll': -2.84}
{'lipoC2': 7.13, 'temp': 0.0, 'lipoC3S3': 11.02, 'state': 'normal', 'rot1': 336, 'rot0': 295, 'rot3': 0, 'rot2': 0, 'depth': 0.012, 'yaw': 131.66, 'datetime': '2018-12-12 14:33:44.851639', 'mgs': 0, 'flw2': 5.63, 'flw1': 0.12, 'flw0': 1.55, 'time': 31.02, 'compass': -138.6, 'pitch': 2.29, 'roll': -2.08}
{'lipoC2': 7.25, 'temp': 0.0, 'lipoC3S3': 11.05, 'state': 'normal', 'rot1': 338, 'rot0': 299, 'rot3': 0, 'rot2': 0, 'depth': 0.928, 'yaw': 133.83, 'datetime': '2018-12-12 14:33:45.064298', 'mgs': 0, 'flw2': 5.93, 'flw1': 0.0, 'flw0': 2.61, 'time': 31.23, 'compass': -136.43, 'pitch': 1.94, 'roll': -1.18}
{'lipoC2': 7.28, 'temp': 0.0, 'lipoC3S3': 10.85, 'state': 'normal', 'rot1': 340, 'rot0': 302, 'rot3': 0, 'rot2': 0, 'depth': 1.996, 'yaw': 136.31, 'datetime': '2018-12-12 14:33:45.274157', 'mgs': 0, 'flw2': 5.75, 'flw1': 0.0, 'flw0': 3.22, 'time': 31.44, 'compass': -133.96, 'pitch': 2.47, 'roll': -0.61}
{'lipoC2': 7.25, 'temp': 0.0, 'lipoC3S3': 11.19, 'state': 'normal', 'rot1': 343, 'rot0': 305, 'rot3': 0, 'rot2': 0, 'depth': 0.241, 'yaw': 137.97, 'datetime': '2018-12-12 14:33:45.481259', 'mgs': 0, 'flw2': 5.98, 'flw1': 0.0, 'flw0': 4.7, 'time': 31.65, 'compass': -132.29, 'pitch': 3.09, 'roll': -0.46}
{'lipoC2': 7.23, 'temp': 0.0, 'lipoC3S3': 10.93, 'state': 'normal', 'rot1': 346, 'rot0': 308, 'rot3': 0, 'rot2': 0, 'depth': -0.369, 'yaw': 138.69, 'datetime': '2018-12-12 14:33:45.692730', 'mgs': 0, 'flw2': 5.75, 'flw1': 0.0, 'flw0': 5.3, 'time': 31.86, 'compass': -131.57, 'pitch': 3.6, 'roll': -0.62}
{'lipoC2': 7.29, 'temp': 0.0, 'lipoC3S3': 11.11, 'state': 'normal', 'rot1': 349, 'rot0': 311, 'rot3': 0, 'rot2': 0, 'depth': -0.598, 'yaw': 138.84, 'datetime': '2018-12-12 14:33:45.903119', 'mgs': 0, 'flw2': 5.87, 'flw1': 0.0, 'flw0': 5.3, 'time': 32.07, 'compass': -131.43, 'pitch': 4.01, 'roll': -1.01}
{'lipoC2': 7.48, 'temp': 0.0, 'lipoC3S3': 10.85, 'state': 'normal', 'rot1': 351, 'rot0': 315, 'rot3': 0, 'rot2': 0, 'depth': -0.751, 'yaw': 138.9, 'datetime': '2018-12-12 14:33:46.113225', 'mgs': 0, 'flw2': 5.55, 'flw1': 0.23, 'flw0': 4.55, 'time': 32.28, 'compass': -131.37, 'pitch': 3.93, 'roll': -1.08}
{'lipoC2': 7.27, 'temp': 0.0, 'lipoC3S3': 11.13, 'state': 'normal', 'rot1': 354, 'rot0': 318, 'rot3': 0, 'rot2': 0, 'depth': 1.614, 'yaw': 139.53, 'datetime': '2018-12-12 14:33:46.320588', 'mgs': 0, 'flw2': 6.23, 'flw1': 0.0, 'flw0': 3.52, 'time': 32.49, 'compass': -130.74, 'pitch': 3.67, 'roll': -0.55}
{'lipoC2': 7.46, 'temp': 0.0, 'lipoC3S3': 11.13, 'state': 'normal', 'rot1': 357, 'rot0': 321, 'rot3': 0, 'rot2': 0, 'depth': -0.217, 'yaw': 140.87, 'datetime': '2018-12-12 14:33:46.531337', 'mgs': 0, 'flw2': 5.96, 'flw1': 0.26, 'flw0': 4.16, 'time': 32.7, 'compass': -129.4, 'pitch': 3.76, 'roll': 0.42}
{'lipoC2': 7.26, 'temp': 0.0, 'lipoC3S3': 11.07, 'state': 'normal', 'rot1': 360, 'rot0': 324, 'rot3': 0, 'rot2': 0, 'depth': 2.682, 'yaw': 142.31, 'datetime': '2018-12-12 14:33:46.743905', 'mgs': 0, 'flw2': 6.03, 'flw1': 0.0, 'flw0': 4.68, 'time': 32.91, 'compass': -127.96, 'pitch': 4.22, 'roll': 1.17}
{'lipoC2': 7.58, 'temp': 0.0, 'lipoC3S3': 10.98, 'state': 'normal', 'rot1': 363, 'rot0': 327, 'rot3': 0, 'rot2': 0, 'depth': -0.369, 'yaw': 143.41, 'datetime': '2018-12-12 14:33:46.951144', 'mgs': 0, 'flw2': 5.93, 'flw1': 0.44, 'flw0': 4.97, 'time': 33.12, 'compass': -126.85, 'pitch': 4.35, 'roll': 1.53}
{'lipoC2': 7.13, 'temp': 0.0, 'lipoC3S3': 10.92, 'state': 'normal', 'rot1': 366, 'rot0': 330, 'rot3': 0, 'rot2': 0, 'depth': -0.369, 'yaw': 144.3, 'datetime': '2018-12-12 14:33:47.160651', 'mgs': 0, 'flw2': 5.51, 'flw1': 0.0, 'flw0': 4.69, 'time': 33.33, 'compass': -125.96, 'pitch': 4.09, 'roll': 1.55}
{'lipoC2': 7.19, 'temp': 0.0, 'lipoC3S3': 11.05, 'state': 'normal', 'rot1': 369, 'rot0': 333, 'rot3': 0, 'rot2': 0, 'depth': -0.14, 'yaw': 145.29, 'datetime': '2018-12-12 14:33:47.370976', 'mgs': 0, 'flw2': 5.63, 'flw1': 0.29, 'flw0': 5.0, 'time': 33.54, 'compass': -124.97, 'pitch': 4.08, 'roll': 1.35}
{'lipoC2': 7.32, 'temp': 0.0, 'lipoC3S3': 11.18, 'state': 'normal', 'rot1': 371, 'rot0': 336, 'rot3': 0, 'rot2': 0, 'depth': 0.241, 'yaw': 146.41, 'datetime': '2018-12-12 14:33:47.580408', 'mgs': 0, 'flw2': 6.03, 'flw1': 0.0, 'flw0': 5.25, 'time': 33.74, 'compass': -123.85, 'pitch': 4.2, 'roll': 1.36}
{'lipoC2': 7.29, 'temp': 0.0, 'lipoC3S3': 10.84, 'state': 'normal', 'rot1': 374, 'rot0': 340, 'rot3': 0, 'rot2': 0, 'depth': 0.394, 'yaw': 147.74, 'datetime': '2018-12-12 14:33:47.790489', 'mgs': 0, 'flw2': 5.81, 'flw1': 0.29, 'flw0': 4.72, 'time': 33.96, 'compass': -122.53, 'pitch': 3.76, 'roll': 1.81}
{'lipoC2': 7.36, 'temp': 0.0, 'lipoC3S3': 11.01, 'state': 'normal', 'rot1': 377, 'rot0': 343, 'rot3': 0, 'rot2': 0, 'depth': -0.598, 'yaw': 148.85, 'datetime': '2018-12-12 14:33:48.003133', 'mgs': 0, 'flw2': 5.52, 'flw1': 0.06, 'flw0': 5.07, 'time': 34.16, 'compass': -121.41, 'pitch': 3.1, 'roll': 2.39}
{'lipoC2': 7.24, 'temp': 0.0, 'lipoC3S3': 11.07, 'state': 'normal', 'rot1': 380, 'rot0': 346, 'rot3': 0, 'rot2': 0, 'depth': -0.598, 'yaw': 149.67, 'datetime': '2018-12-12 14:33:48.209913', 'mgs': 0, 'flw2': 5.81, 'flw1': 0.0, 'flw0': 5.36, 'time': 34.37, 'compass': -120.6, 'pitch': 3.52, 'roll': 2.33}
{'lipoC2': 7.29, 'temp': 0.0, 'lipoC3S3': 11.32, 'state': 'normal', 'rot1': 383, 'rot0': 349, 'rot3': 0, 'rot2': 0, 'depth': -0.446, 'yaw': 150.47, 'datetime': '2018-12-12 14:33:48.420915', 'mgs': 0, 'flw2': 5.63, 'flw1': 0.0, 'flw0': 5.22, 'time': 34.58, 'compass': -119.8, 'pitch': 3.99, 'roll': 2.02}
{'lipoC2': 7.11, 'temp': 0.0, 'lipoC3S3': 11.4, 'state': 'normal', 'rot1': 386, 'rot0': 352, 'rot3': 0, 'rot2': 0, 'depth': -0.674, 'yaw': 151.98, 'datetime': '2018-12-12 14:33:48.627550', 'mgs': 0, 'flw2': 5.86, 'flw1': 0.32, 'flw0': 5.44, 'time': 34.79, 'compass': -118.28, 'pitch': 4.21, 'roll': 1.84}
{'lipoC2': 7.22, 'temp': 0.0, 'lipoC3S3': 11.32, 'state': 'normal', 'rot1': 389, 'rot0': 355, 'rot3': 0, 'rot2': 0, 'depth': 2.377, 'yaw': 154.04, 'datetime': '2018-12-12 14:33:48.841764', 'mgs': 0, 'flw2': 5.98, 'flw1': 0.0, 'flw0': 5.33, 'time': 35.0, 'compass': -116.23, 'pitch': 4.02, 'roll': 1.99}
{'lipoC2': 7.21, 'temp': 0.0, 'lipoC3S3': 11.02, 'state': 'normal', 'rot1': 393, 'rot0': 359, 'rot3': 0, 'rot2': 0, 'depth': 3.064, 'yaw': 156.46, 'datetime': '2018-12-12 14:33:49.052610', 'mgs': 0, 'flw2': 5.77, 'flw1': 0.41, 'flw0': 5.36, 'time': 35.21, 'compass': -113.81, 'pitch': 3.89, 'roll': 2.22}
{'lipoC2': 7.13, 'temp': 0.0, 'lipoC3S3': 10.93, 'state': 'normal', 'rot1': 395, 'rot0': 362, 'rot3': 0, 'rot2': 0, 'depth': 2.53, 'yaw': 158.88, 'datetime': '2018-12-12 14:33:49.260331', 'mgs': 0, 'flw2': 5.96, 'flw1': 0.0, 'flw0': 5.37, 'time': 35.42, 'compass': -111.38, 'pitch': 3.99, 'roll': 2.1}
{'lipoC2': 7.39, 'temp': 0.0, 'lipoC3S3': 10.96, 'state': 'normal', 'rot1': 399, 'rot0': 365, 'rot3': 0, 'rot2': 0, 'depth': -1.285, 'yaw': 161.35, 'datetime': '2018-12-12 14:33:49.468047', 'mgs': 0, 'flw2': 5.57, 'flw1': 0.0, 'flw0': 5.66, 'time': 35.63, 'compass': -108.92, 'pitch': 4.09, 'roll': 1.89}
{'lipoC2': 7.21, 'temp': 0.0, 'lipoC3S3': 11.18, 'state': 'normal', 'rot1': 402, 'rot0': 368, 'rot3': 0, 'rot2': 0, 'depth': 1.92, 'yaw': 163.79, 'datetime': '2018-12-12 14:33:49.679636', 'mgs': 0, 'flw2': 5.62, 'flw1': 0.38, 'flw0': 5.85, 'time': 35.84, 'compass': -106.48, 'pitch': 4.27, 'roll': 1.85}
{'lipoC2': 7.28, 'temp': 0.0, 'lipoC3S3': 11.36, 'state': 'normal', 'rot1': 405, 'rot0': 371, 'rot3': 0, 'rot2': 0, 'depth': -0.369, 'yaw': 165.89, 'datetime': '2018-12-12 14:33:49.884614', 'mgs': 0, 'flw2': 3.37, 'flw1': 0.0, 'flw0': 6.76, 'time': 36.05, 'compass': -104.38, 'pitch': 4.49, 'roll': 2.06}
{'lipoC2': 7.3, 'temp': 0.0, 'lipoC3S3': 10.64, 'state': 'normal', 'rot1': 409, 'rot0': 373, 'rot3': 0, 'rot2': 0, 'depth': 1.996, 'yaw': 166.3, 'datetime': '2018-12-12 14:33:50.094990', 'mgs': 0, 'flw2': 4.94, 'flw1': 0.41, 'flw0': 6.2, 'time': 36.26, 'compass': -103.96, 'pitch': 4.02, 'roll': 2.03}
{'lipoC2': 7.32, 'temp': 0.0, 'lipoC3S3': 10.93, 'state': 'normal', 'rot1': 413, 'rot0': 377, 'rot3': 0, 'rot2': 0, 'depth': 0.165, 'yaw': 166.69, 'datetime': '2018-12-12 14:33:50.304592', 'mgs': 0, 'flw2': 6.08, 'flw1': 0.0, 'flw0': 6.81, 'time': 36.47, 'compass': -103.58, 'pitch': 3.64, 'roll': 2.16}
{'lipoC2': 7.33, 'temp': 0.0, 'lipoC3S3': 10.98, 'state': 'normal', 'rot1': 416, 'rot0': 380, 'rot3': 0, 'rot2': 0, 'depth': -0.674, 'yaw': 167.47, 'datetime': '2018-12-12 14:33:50.514039', 'mgs': 0, 'flw2': 5.63, 'flw1': 0.0, 'flw0': 6.73, 'time': 36.67, 'compass': -102.8, 'pitch': 4.06, 'roll': 2.29}
{'lipoC2': 7.24, 'temp': 0.0, 'lipoC3S3': 11.05, 'state': 'normal', 'rot1': 420, 'rot0': 383, 'rot3': 0, 'rot2': 0, 'depth': -0.369, 'yaw': 168.5, 'datetime': '2018-12-12 14:33:50.722611', 'mgs': 0, 'flw2': 5.49, 'flw1': 0.62, 'flw0': 6.71, 'time': 36.88, 'compass': -101.76, 'pitch': 4.59, 'roll': 2.21}
{'lipoC2': 7.29, 'temp': 0.0, 'lipoC3S3': 10.8, 'state': 'normal', 'rot1': 424, 'rot0': 386, 'rot3': 0, 'rot2': 0, 'depth': -1.437, 'yaw': 169.84, 'datetime': '2018-12-12 14:33:50.936128', 'mgs': 0, 'flw2': 5.82, 'flw1': 0.76, 'flw0': 6.8, 'time': 37.09, 'compass': -100.42, 'pitch': 4.83, 'roll': 1.88}
{'lipoC2': 7.12, 'temp': 0.0, 'lipoC3S3': 10.96, 'state': 'normal', 'rot1': 428, 'rot0': 390, 'rot3': 0, 'rot2': 0, 'depth': 2.988, 'yaw': 171.41, 'datetime': '2018-12-12 14:33:51.146951', 'mgs': 0, 'flw2': 5.79, 'flw1': 0.0, 'flw0': 6.6, 'time': 37.3, 'compass': -98.86, 'pitch': 4.78, 'roll': 1.46}
{'lipoC2': 7.48, 'temp': 0.0, 'lipoC3S3': 10.96, 'state': 'normal', 'rot1': 431, 'rot0': 393, 'rot3': 0, 'rot2': 0, 'depth': 1.08, 'yaw': 173.08, 'datetime': '2018-12-12 14:33:51.354354', 'mgs': 0, 'flw2': 6.02, 'flw1': 0.23, 'flw0': 6.45, 'time': 37.51, 'compass': -97.19, 'pitch': 4.71, 'roll': 1.14}
{'lipoC2': 7.26, 'temp': 0.0, 'lipoC3S3': 10.77, 'state': 'normal', 'rot1': 435, 'rot0': 396, 'rot3': 0, 'rot2': 0, 'depth': -0.751, 'yaw': 175.2, 'datetime': '2018-12-12 14:33:51.564439', 'mgs': 0, 'flw2': 5.81, 'flw1': 0.0, 'flw0': 6.62, 'time': 37.72, 'compass': -95.06, 'pitch': 5.53, 'roll': 1.33}
{'lipoC2': 7.27, 'temp': 0.0, 'lipoC3S3': 11.13, 'state': 'normal', 'rot1': 438, 'rot0': 399, 'rot3': 0, 'rot2': 0, 'depth': -0.14, 'yaw': 177.57, 'datetime': '2018-12-12 14:33:51.774396', 'mgs': 0, 'flw2': 5.57, 'flw1': 0.0, 'flw0': 6.62, 'time': 37.93, 'compass': -92.7, 'pitch': 6.11, 'roll': 1.53}
{'lipoC2': 7.32, 'temp': 0.0, 'lipoC3S3': 10.97, 'state': 'normal', 'rot1': 441, 'rot0': 402, 'rot3': 0, 'rot2': 0, 'depth': -0.369, 'yaw': 179.45, 'datetime': '2018-12-12 14:33:51.984479', 'mgs': 0, 'flw2': 5.83, 'flw1': 0.32, 'flw0': 6.53, 'time': 38.14, 'compass': -90.81, 'pitch': 6.01, 'roll': 1.52}
{'lipoC2': 7.14, 'temp': 0.0, 'lipoC3S3': 11.0, 'state': 'normal', 'rot1': 445, 'rot0': 405, 'rot3': 0, 'rot2': 0, 'depth': 1.767, 'yaw': -178.74, 'datetime': '2018-12-12 14:33:52.193532', 'mgs': 0, 'flw2': 5.79, 'flw1': 0.0, 'flw0': 6.24, 'time': 38.35, 'compass': -89.01, 'pitch': 5.76, 'roll': 1.52}
{'lipoC2': 7.14, 'temp': 0.0, 'lipoC3S3': 10.88, 'state': 'normal', 'rot1': 449, 'rot0': 408, 'rot3': 0, 'rot2': 0, 'depth': -0.217, 'yaw': -176.44, 'datetime': '2018-12-12 14:33:52.401050', 'mgs': 0, 'flw2': 5.97, 'flw1': 0.0, 'flw0': 6.9, 'time': 38.56, 'compass': -86.7, 'pitch': 5.73, 'roll': 1.59}
{'lipoC2': 7.26, 'temp': 0.0, 'lipoC3S3': 10.92, 'state': 'normal', 'rot1': 453, 'rot0': 411, 'rot3': 0, 'rot2': 0, 'depth': 0.47, 'yaw': -174.11, 'datetime': '2018-12-12 14:33:52.611804', 'mgs': 0, 'flw2': 6.05, 'flw1': 0.0, 'flw0': 6.76, 'time': 38.77, 'compass': -84.37, 'pitch': 5.72, 'roll': 1.75}
{'lipoC2': 7.36, 'temp': 0.0, 'lipoC3S3': 11.02, 'state': 'normal', 'rot1': 457, 'rot0': 415, 'rot3': 0, 'rot2': 0, 'depth': 0.394, 'yaw': -171.85, 'datetime': '2018-12-12 14:33:52.822667', 'mgs': 0, 'flw2': 5.79, 'flw1': 0.44, 'flw0': 6.3, 'time': 38.98, 'compass': -82.12, 'pitch': 5.08, 'roll': 2.08}
{'lipoC2': 7.48, 'temp': 0.0, 'lipoC3S3': 10.98, 'state': 'normal', 'rot1': 460, 'rot0': 418, 'rot3': 0, 'rot2': 0, 'depth': -0.98, 'yaw': -169.47, 'datetime': '2018-12-12 14:33:53.032860', 'mgs': 0, 'flw2': 5.9, 'flw1': 0.0, 'flw0': 6.73, 'time': 39.19, 'compass': -79.73, 'pitch': 4.58, 'roll': 2.36}
{'lipoC2': 7.32, 'temp': 0.0, 'lipoC3S3': 11.39, 'state': 'normal', 'rot1': 463, 'rot0': 422, 'rot3': 0, 'rot2': 0, 'depth': -0.98, 'yaw': -167.08, 'datetime': '2018-12-12 14:33:53.243469', 'mgs': 0, 'flw2': 5.85, 'flw1': 0.0, 'flw0': 6.99, 'time': 39.4, 'compass': -77.34, 'pitch': 4.95, 'roll': 2.56}
{'lipoC2': 7.28, 'temp': 0.0, 'lipoC3S3': 11.0, 'state': 'normal', 'rot1': 467, 'rot0': 425, 'rot3': 0, 'rot2': 0, 'depth': -0.369, 'yaw': -164.54, 'datetime': '2018-12-12 14:33:53.454846', 'mgs': 0, 'flw2': 5.76, 'flw1': 0.0, 'flw0': 6.45, 'time': 39.6, 'compass': -74.81, 'pitch': 5.51, 'roll': 2.86}
{'lipoC2': 7.23, 'temp': 0.0, 'lipoC3S3': 11.07, 'state': 'normal', 'rot1': 469, 'rot0': 426, 'rot3': 0, 'rot2': 0, 'depth': -1.132, 'yaw': -163.02, 'datetime': '2018-12-12 14:33:53.664098', 'mgs': 0, 'flw2': 0.24, 'flw1': 0.0, 'flw0': 0.24, 'time': 39.81, 'compass': -73.28, 'pitch': 5.03, 'roll': 2.77}
{'lipoC2': 7.47, 'temp': 0.0, 'lipoC3S3': 11.22, 'state': 'normal', 'rot1': 470, 'rot0': 426, 'rot3': 0, 'rot2': 0, 'depth': 0.47, 'yaw': -162.3, 'datetime': '2018-12-12 14:33:53.873588', 'mgs': 0, 'flw2': 0.0, 'flw1': 0.0, 'flw0': 0.0, 'time': 40.02, 'compass': -72.57, 'pitch': 0.49, 'roll': 2.42}
{'lipoC2': 7.27, 'temp': 0.0, 'lipoC3S3': 11.25, 'state': 'normal', 'rot1': 470, 'rot0': 426, 'rot3': 0, 'rot2': 0, 'depth': -0.14, 'yaw': -160.62, 'datetime': '2018-12-12 14:33:54.080283', 'mgs': 0, 'flw2': 0.02, 'flw1': 0.0, 'flw0': 0.0, 'time': 40.23, 'compass': -70.88, 'pitch': -3.14, 'roll': 2.04}
{'lipoC2': 7.32, 'temp': 0.0, 'lipoC3S3': 11.44, 'state': 'normal', 'rot1': 470, 'rot0': 426, 'rot3': 0, 'rot2': 0, 'depth': -2.2, 'yaw': -158.24, 'datetime': '2018-12-12 14:33:54.286157', 'mgs': 0, 'flw2': 0.18, 'flw1': 0.0, 'flw0': 0.35, 'time': 40.44, 'compass': -68.5, 'pitch': -3.55, 'roll': 1.6}
{'lipoC2': 7.38, 'temp': 0.0, 'lipoC3S3': 11.43, 'state': 'normal', 'rot1': 470, 'rot0': 426, 'rot3': 0, 'rot2': 0, 'depth': -0.903, 'yaw': -155.55, 'datetime': '2018-12-12 14:33:54.495078', 'mgs': 0, 'flw2': 0.21, 'flw1': 0.0, 'flw0': 0.07, 'time': 40.65, 'compass': -65.82, 'pitch': -2.66, 'roll': 0.89}
{'lipoC2': 7.29, 'temp': 0.0, 'lipoC3S3': 11.44, 'state': 'normal', 'rot1': 470, 'rot0': 426, 'rot3': 0, 'rot2': 0, 'depth': -0.293, 'yaw': -152.42, 'datetime': '2018-12-12 14:33:54.704992', 'mgs': 0, 'flw2': 0.0, 'flw1': 0.0, 'flw0': 0.33, 'time': 40.86, 'compass': -62.69, 'pitch': -1.88, 'roll': 0.31}
{'lipoC2': 7.46, 'temp': 0.0, 'lipoC3S3': 11.17, 'state': 'normal', 'rot1': 470, 'rot0': 426, 'rot3': 0, 'rot2': 0, 'depth': -0.98, 'yaw': -149.03, 'datetime': '2018-12-12 14:33:54.912639', 'mgs': 0, 'flw2': 0.0, 'flw1': 0.18, 'flw0': 3.88, 'time': 41.07, 'compass': -59.3, 'pitch': -1.94, 'roll': 0.37}
{'lipoC2': 7.33, 'temp': 0.0, 'lipoC3S3': 11.07, 'state': 'normal', 'rot1': 473, 'rot0': 426, 'rot3': 0, 'rot2': 0, 'depth': 0.623, 'yaw': -146.89, 'datetime': '2018-12-12 14:33:55.123565', 'mgs': 0, 'flw2': 0.18, 'flw1': 0.0, 'flw0': 3.48, 'time': 41.28, 'compass': -57.15, 'pitch': -2.02, 'roll': 0.66}
{'lipoC2': 7.17, 'temp': 0.0, 'lipoC3S3': 11.1, 'state': 'normal', 'rot1': 476, 'rot0': 426, 'rot3': 0, 'rot2': 0, 'depth': 1.08, 'yaw': -148.04, 'datetime': '2018-12-12 14:33:55.334793', 'mgs': 0, 'flw2': 0.28, 'flw1': 0.0, 'flw0': 5.35, 'time': 41.49, 'compass': -58.3, 'pitch': -1.2, 'roll': 0.27}
{'lipoC2': 7.3, 'temp': 0.0, 'lipoC3S3': 11.19, 'state': 'normal', 'rot1': 479, 'rot0': 426, 'rot3': 0, 'rot2': 0, 'depth': 0.165, 'yaw': -152.06, 'datetime': '2018-12-12 14:33:55.545995', 'mgs': 0, 'flw2': 0.0, 'flw1': 0.79, 'flw0': 4.92, 'time': 41.7, 'compass': -62.32, 'pitch': -0.25, 'roll': -0.48}
{'lipoC2': 7.51, 'temp': 0.0, 'lipoC3S3': 11.39, 'state': 'normal', 'rot1': 482, 'rot0': 426, 'rot3': 0, 'rot2': 0, 'depth': -1.514, 'yaw': -158.6, 'datetime': '2018-12-12 14:33:55.752398', 'mgs': 0, 'flw2': 0.11, 'flw1': 0.0, 'flw0': 5.31, 'time': 41.91, 'compass': -68.87, 'pitch': 0.26, 'roll': -1.43}
{'lipoC2': 7.49, 'temp': 0.0, 'lipoC3S3': 11.23, 'state': 'normal', 'rot1': 485, 'rot0': 426, 'rot3': 0, 'rot2': 0, 'depth': -0.903, 'yaw': -166.85, 'datetime': '2018-12-12 14:33:55.965081', 'mgs': 0, 'flw2': 0.18, 'flw1': 0.0, 'flw0': 5.65, 'time': 42.12, 'compass': -77.11, 'pitch': 0.42, 'roll': -2.28}
{'lipoC2': 7.3, 'temp': 0.0, 'lipoC3S3': 10.89, 'state': 'normal', 'rot1': 488, 'rot0': 426, 'rot3': 0, 'rot2': 0, 'depth': 2.225, 'yaw': -176.24, 'datetime': '2018-12-12 14:33:56.173575', 'mgs': 0, 'flw2': 0.0, 'flw1': 0.26, 'flw0': 5.22, 'time': 42.32, 'compass': -86.5, 'pitch': 0.46, 'roll': -2.74}
{'lipoC2': 7.26, 'temp': 0.0, 'lipoC3S3': 11.15, 'state': 'normal', 'rot1': 491, 'rot0': 427, 'rot3': 0, 'rot2': 0, 'depth': 1.385, 'yaw': 173.63, 'datetime': '2018-12-12 14:33:56.381013', 'mgs': 0, 'flw2': 1.92, 'flw1': 0.0, 'flw0': 5.58, 'time': 42.53, 'compass': -96.63, 'pitch': 0.76, 'roll': -2.95}
