{'lipoC2': 8.1, 'temp': 0.0, 'lipoC3S3': 12.14, 'state': 'normal', 'rot1': 11, 'rot0': 10, 'rot3': 5, 'rot2': 6, 'depth': 0.546, 'yaw': 0.0, 'datetime': '2018-12-12 10:40:17.452801', 'mgs': 0, 'flw2': 2.53, 'flw1': 2.52, 'flw0': 2.54, 'time': 1.26, 'compass': 4.72, 'pitch': 0.35, 'roll': -2.88}
{'lipoC2': 8.04, 'temp': 0.0, 'lipoC3S3': 12.35, 'state': 'normal', 'rot1': 13, 'rot0': 11, 'rot3': 5, 'rot2': 7, 'depth': 0.928, 'yaw': -13.49, 'datetime': '2018-12-12 10:40:17.660358', 'mgs': 0, 'flw2': 0.27, 'flw1': 2.46, 'flw0': 0.26, 'time': 1.47, 'compass': -8.77, 'pitch': 0.3, 'roll': -2.87}
{'lipoC2': 8.33, 'temp': 0.0, 'lipoC3S3': 12.13, 'state': 'normal', 'rot1': 13, 'rot0': 11, 'rot3': 6, 'rot2': 8, 'depth': -0.827, 'yaw': -24.53, 'datetime': '2018-12-12 10:40:17.869545', 'mgs': 0, 'flw2': 0.32, 'flw1': 3.37, 'flw0': 0.29, 'time': 1.67, 'compass': -19.81, 'pitch': -0.36, 'roll': -1.83}
{'lipoC2': 8.26, 'temp': 0.0, 'lipoC3S3': 12.13, 'state': 'normal', 'rot1': 14, 'rot0': 12, 'rot3': 7, 'rot2': 9, 'depth': 1.004, 'yaw': -32.74, 'datetime': '2018-12-12 10:40:18.078697', 'mgs': 0, 'flw2': 0.13, 'flw1': 2.84, 'flw0': 0.15, 'time': 1.88, 'compass': -28.01, 'pitch': -0.94, 'roll': -0.67}
{'lipoC2': 8.29, 'temp': 0.0, 'lipoC3S3': 12.12, 'state': 'normal', 'rot1': 15, 'rot0': 13, 'rot3': 8, 'rot2': 11, 'depth': -1.514, 'yaw': -39.46, 'datetime': '2018-12-12 10:40:18.287014', 'mgs': 0, 'flw2': 0.5, 'flw1': 2.43, 'flw0': 0.46, 'time': 2.09, 'compass': -34.74, 'pitch': -1.68, 'roll': 0.92}
{'lipoC2': 8.34, 'temp': 0.0, 'lipoC3S3': 12.14, 'state': 'normal', 'rot1': 16, 'rot0': 14, 'rot3': 8, 'rot2': 12, 'depth': 0.851, 'yaw': -44.93, 'datetime': '2018-12-12 10:40:18.496473', 'mgs': 0, 'flw2': 0.4, 'flw1': 3.52, 'flw0': 0.38, 'time': 2.3, 'compass': -40.21, 'pitch': -2.91, 'roll': 2.2}
{'lipoC2': 8.35, 'temp': 0.0, 'lipoC3S3': 12.1, 'state': 'normal', 'rot1': 18, 'rot0': 15, 'rot3': 9, 'rot2': 13, 'depth': 0.851, 'yaw': -49.26, 'datetime': '2018-12-12 10:40:18.706670', 'mgs': 0, 'flw2': 0.73, 'flw1': 2.11, 'flw0': 0.67, 'time': 2.51, 'compass': -44.54, 'pitch': -4.43, 'roll': 3.18}
{'lipoC2': 8.09, 'temp': 0.0, 'lipoC3S3': 12.0, 'state': 'normal', 'rot1': 19, 'rot0': 17, 'rot3': 10, 'rot2': 14, 'depth': 2.377, 'yaw': -52.31, 'datetime': '2018-12-12 10:40:18.916787', 'mgs': 0, 'flw2': 0.84, 'flw1': 2.31, 'flw0': 0.74, 'time': 2.72, 'compass': -47.59, 'pitch': -4.63, 'roll': 3.71}
{'lipoC2': 8.06, 'temp': 0.0, 'lipoC3S3': 12.13, 'state': 'normal', 'rot1': 21, 'rot0': 18, 'rot3': 11, 'rot2': 15, 'depth': -0.674, 'yaw': -54.26, 'datetime': '2018-12-12 10:40:19.127350', 'mgs': 0, 'flw2': 0.59, 'flw1': 3.22, 'flw0': 0.56, 'time': 2.93, 'compass': -49.54, 'pitch': -3.55, 'roll': 3.92}
{'lipoC2': 8.34, 'temp': 0.0, 'lipoC3S3': 12.17, 'state': 'normal', 'rot1': 22, 'rot0': 19, 'rot3': 11, 'rot2': 16, 'depth': -0.14, 'yaw': -55.0, 'datetime': '2018-12-12 10:40:19.336149', 'mgs': 0, 'flw2': 0.48, 'flw1': 2.93, 'flw0': 0.5, 'time': 3.14, 'compass': -50.27, 'pitch': -2.54, 'roll': 4.09}
{'lipoC2': 8.04, 'temp': 0.0, 'lipoC3S3': 12.42, 'state': 'normal', 'rot1': 24, 'rot0': 21, 'rot3': 12, 'rot2': 17, 'depth': -0.598, 'yaw': -54.74, 'datetime': '2018-12-12 10:40:19.546885', 'mgs': 0, 'flw2': 0.59, 'flw1': 2.58, 'flw0': 0.61, 'time': 3.35, 'compass': -50.02, 'pitch': -2.24, 'roll': 4.2}
{'lipoC2': 8.35, 'temp': 0.0, 'lipoC3S3': 12.13, 'state': 'normal', 'rot1': 26, 'rot0': 22, 'rot3': 13, 'rot2': 18, 'depth': -1.361, 'yaw': -53.56, 'datetime': '2018-12-12 10:40:19.758272', 'mgs': 0, 'flw2': 0.57, 'flw1': 3.46, 'flw0': 0.6, 'time': 3.56, 'compass': -48.83, 'pitch': -2.24, 'roll': 4.05}
{'lipoC2': 8.21, 'temp': 0.0, 'lipoC3S3': 12.18, 'state': 'normal', 'rot1': 28, 'rot0': 24, 'rot3': 14, 'rot2': 19, 'depth': -1.514, 'yaw': -51.53, 'datetime': '2018-12-12 10:40:19.968392', 'mgs': 0, 'flw2': 0.95, 'flw1': 2.52, 'flw0': 1.01, 'time': 3.77, 'compass': -46.81, 'pitch': -1.38, 'roll': 3.71}
{'lipoC2': 8.08, 'temp': 0.0, 'lipoC3S3': 12.04, 'state': 'normal', 'rot1': 30, 'rot0': 25, 'rot3': 15, 'rot2': 21, 'depth': 1.385, 'yaw': -49.04, 'datetime': '2018-12-12 10:40:20.178519', 'mgs': 0, 'flw2': 0.54, 'flw1': 3.54, 'flw0': 0.55, 'time': 3.98, 'compass': -44.32, 'pitch': -0.17, 'roll': 3.75}
{'lipoC2': 8.3, 'temp': 0.0, 'lipoC3S3': 12.05, 'state': 'normal', 'rot1': 31, 'rot0': 26, 'rot3': 15, 'rot2': 22, 'depth': -1.361, 'yaw': -46.31, 'datetime': '2018-12-12 10:40:20.387391', 'mgs': 0, 'flw2': 0.77, 'flw1': 2.4, 'flw0': 0.78, 'time': 4.19, 'compass': -41.59, 'pitch': 0.43, 'roll': 4.32}
{'lipoC2': 8.04, 'temp': 0.0, 'lipoC3S3': 12.45, 'state': 'normal', 'rot1': 32, 'rot0': 28, 'rot3': 16, 'rot2': 23, 'depth': -0.446, 'yaw': -43.36, 'datetime': '2018-12-12 10:40:20.597616', 'mgs': 0, 'flw2': 0.33, 'flw1': 2.49, 'flw0': 0.37, 'time': 4.4, 'compass': -38.64, 'pitch': -0.27, 'roll': 4.54}
{'lipoC2': 8.21, 'temp': 0.0, 'lipoC3S3': 12.04, 'state': 'normal', 'rot1': 34, 'rot0': 29, 'rot3': 17, 'rot2': 24, 'depth': -0.903, 'yaw': -40.22, 'datetime': '2018-12-12 10:40:20.808362', 'mgs': 0, 'flw2': 0.39, 'flw1': 2.52, 'flw0': 0.34, 'time': 4.61, 'compass': -35.49, 'pitch': -1.55, 'roll': 4.38}
{'lipoC2': 8.14, 'temp': 0.0, 'lipoC3S3': 12.02, 'state': 'normal', 'rot1': 35, 'rot0': 30, 'rot3': 18, 'rot2': 25, 'depth': 2.072, 'yaw': -37.02, 'datetime': '2018-12-12 10:40:21.018504', 'mgs': 0, 'flw2': 0.61, 'flw1': 2.9, 'flw0': 0.62, 'time': 4.82, 'compass': -32.3, 'pitch': -1.77, 'roll': 4.48}
{'lipoC2': 8.35, 'temp': 0.0, 'lipoC3S3': 12.46, 'state': 'normal', 'rot1': 37, 'rot0': 31, 'rot3': 18, 'rot2': 26, 'depth': -1.056, 'yaw': -33.96, 'datetime': '2018-12-12 10:40:21.229714', 'mgs': 0, 'flw2': 0.22, 'flw1': 2.55, 'flw0': 0.15, 'time': 5.03, 'compass': -29.23, 'pitch': -1.53, 'roll': 4.74}
{'lipoC2': 8.08, 'temp': 0.0, 'lipoC3S3': 12.02, 'state': 'normal', 'rot1': 38, 'rot0': 32, 'rot3': 19, 'rot2': 27, 'depth': 1.08, 'yaw': -30.93, 'datetime': '2018-12-12 10:40:21.439398', 'mgs': 0, 'flw2': 0.62, 'flw1': 2.64, 'flw0': 0.59, 'time': 5.24, 'compass': -26.21, 'pitch': -1.59, 'roll': 5.05}
{'lipoC2': 8.14, 'temp': 0.0, 'lipoC3S3': 12.04, 'state': 'normal', 'rot1': 39, 'rot0': 33, 'rot3': 20, 'rot2': 28, 'depth': 1.538, 'yaw': -27.97, 'datetime': '2018-12-12 10:40:21.648521', 'mgs': 0, 'flw2': 0.12, 'flw1': 2.93, 'flw0': 0.18, 'time': 5.45, 'compass': -23.24, 'pitch': -1.76, 'roll': 5.37}
{'lipoC2': 8.3, 'temp': 0.0, 'lipoC3S3': 12.14, 'state': 'normal', 'rot1': 40, 'rot0': 34, 'rot3': 21, 'rot2': 30, 'depth': -1.208, 'yaw': -25.2, 'datetime': '2018-12-12 10:40:21.859430', 'mgs': 0, 'flw2': 0.63, 'flw1': 2.72, 'flw0': 0.63, 'time': 5.66, 'compass': -20.47, 'pitch': -2.16, 'roll': 5.56}
{'lipoC2': 8.02, 'temp': 0.0, 'lipoC3S3': 12.41, 'state': 'normal', 'rot1': 42, 'rot0': 35, 'rot3': 22, 'rot2': 31, 'depth': -0.522, 'yaw': -22.2, 'datetime': '2018-12-12 10:40:22.069440', 'mgs': 0, 'flw2': 0.24, 'flw1': 2.46, 'flw0': 0.27, 'time': 5.87, 'compass': -17.48, 'pitch': -2.34, 'roll': 5.37}
{'lipoC2': 8.35, 'temp': 0.0, 'lipoC3S3': 12.14, 'state': 'normal', 'rot1': 43, 'rot0': 36, 'rot3': 22, 'rot2': 32, 'depth': -1.132, 'yaw': -19.16, 'datetime': '2018-12-12 10:40:22.282259', 'mgs': 0, 'flw2': 0.11, 'flw1': 3.4, 'flw0': 0.13, 'time': 6.08, 'compass': -14.43, 'pitch': -2.08, 'roll': 5.08}
{'lipoC2': 8.08, 'temp': 0.0, 'lipoC3S3': 11.98, 'state': 'normal', 'rot1': 44, 'rot0': 37, 'rot3': 23, 'rot2': 33, 'depth': 1.691, 'yaw': -16.03, 'datetime': '2018-12-12 10:40:22.490807', 'mgs': 0, 'flw2': 0.57, 'flw1': 2.64, 'flw0': 0.52, 'time': 6.29, 'compass': -11.31, 'pitch': -1.52, 'roll': 5.22}
{'lipoC2': 8.04, 'temp': 0.0, 'lipoC3S3': 12.46, 'state': 'normal', 'rot1': 45, 'rot0': 38, 'rot3': 24, 'rot2': 34, 'depth': -0.598, 'yaw': -12.81, 'datetime': '2018-12-12 10:40:22.699657', 'mgs': 0, 'flw2': 0.26, 'flw1': 2.55, 'flw0': 0.33, 'time': 6.5, 'compass': -8.09, 'pitch': -1.01, 'roll': 5.58}
{'lipoC2': 8.37, 'temp': 0.0, 'lipoC3S3': 12.14, 'state': 'normal', 'rot1': 46, 'rot0': 38, 'rot3': 25, 'rot2': 35, 'depth': -1.208, 'yaw': -9.88, 'datetime': '2018-12-12 10:40:22.909666', 'mgs': 0, 'flw2': 0.0, 'flw1': 3.72, 'flw0': 0.0, 'time': 6.71, 'compass': -5.16, 'pitch': -0.89, 'roll': 5.71}
{'lipoC2': 8.06, 'temp': 0.0, 'lipoC3S3': 12.13, 'state': 'normal', 'rot1': 46, 'rot0': 38, 'rot3': 25, 'rot2': 36, 'depth': -0.751, 'yaw': -7.74, 'datetime': '2018-12-12 10:40:23.119138', 'mgs': 0, 'flw2': 0.0, 'flw1': 3.46, 'flw0': 0.0, 'time': 6.92, 'compass': -3.02, 'pitch': -1.03, 'roll': 5.67}
{'lipoC2': 8.23, 'temp': 0.0, 'lipoC3S3': 12.17, 'state': 'normal', 'rot1': 46, 'rot0': 38, 'rot3': 26, 'rot2': 37, 'depth': -1.285, 'yaw': -6.06, 'datetime': '2018-12-12 10:40:23.330285', 'mgs': 0, 'flw2': 0.29, 'flw1': 2.84, 'flw0': 0.27, 'time': 7.13, 'compass': -1.34, 'pitch': -1.24, 'roll': 5.88}
{'lipoC2': 8.36, 'temp': 0.0, 'lipoC3S3': 12.13, 'state': 'normal', 'rot1': 46, 'rot0': 38, 'rot3': 27, 'rot2': 39, 'depth': -1.208, 'yaw': -4.79, 'datetime': '2018-12-12 10:40:23.541493', 'mgs': 0, 'flw2': 0.0, 'flw1': 3.16, 'flw0': 0.0, 'time': 7.34, 'compass': -0.07, 'pitch': -1.15, 'roll': 6.16}
{'lipoC2': 8.26, 'temp': 0.0, 'lipoC3S3': 12.16, 'state': 'normal', 'rot1': 46, 'rot0': 38, 'rot3': 28, 'rot2': 40, 'depth': -1.437, 'yaw': -3.91, 'datetime': '2018-12-12 10:40:23.750316', 'mgs': 0, 'flw2': 0.15, 'flw1': 2.17, 'flw0': 0.16, 'time': 7.55, 'compass': 0.81, 'pitch': -1.11, 'roll': 6.6}
{'lipoC2': 8.34, 'temp': 0.0, 'lipoC3S3': 12.13, 'state': 'normal', 'rot1': 46, 'rot0': 38, 'rot3': 28, 'rot2': 41, 'depth': -1.132, 'yaw': -3.41, 'datetime': '2018-12-12 10:40:23.960680', 'mgs': 0, 'flw2': 0.0, 'flw1': 3.72, 'flw0': 0.0, 'time': 7.76, 'compass': 1.32, 'pitch': -1.42, 'roll': 6.87}
{'lipoC2': 8.13, 'temp': 0.0, 'lipoC3S3': 12.0, 'state': 'normal', 'rot1': 46, 'rot0': 38, 'rot3': 29, 'rot2': 42, 'depth': 2.148, 'yaw': -3.18, 'datetime': '2018-12-12 10:40:24.170007', 'mgs': 0, 'flw2': 0.13, 'flw1': 2.49, 'flw0': 0.11, 'time': 7.96, 'compass': 1.54, 'pitch': -1.8, 'roll': 6.66}
{'lipoC2': 8.07, 'temp': 0.0, 'lipoC3S3': 12.5, 'state': 'normal', 'rot1': 46, 'rot0': 38, 'rot3': 30, 'rot2': 43, 'depth': -0.751, 'yaw': -3.18, 'datetime': '2018-12-12 10:40:24.381002', 'mgs': 0, 'flw2': 0.0, 'flw1': 3.66, 'flw0': 0.0, 'time': 8.18, 'compass': 1.54, 'pitch': -2.24, 'roll': 6.57}
{'lipoC2': 8.26, 'temp': 0.0, 'lipoC3S3': 12.06, 'state': 'normal', 'rot1': 46, 'rot0': 38, 'rot3': 31, 'rot2': 44, 'depth': 1.004, 'yaw': -3.39, 'datetime': '2018-12-12 10:40:24.592090', 'mgs': 0, 'flw2': 0.0, 'flw1': 3.46, 'flw0': 0.0, 'time': 8.39, 'compass': 1.33, 'pitch': -2.95, 'roll': 6.85}
{'lipoC2': 8.16, 'temp': 0.0, 'lipoC3S3': 11.98, 'state': 'normal', 'rot1': 46, 'rot0': 38, 'rot3': 32, 'rot2': 45, 'depth': 1.996, 'yaw': -3.8, 'datetime': '2018-12-12 10:40:24.801041', 'mgs': 0, 'flw2': 0.0, 'flw1': 2.29, 'flw0': 0.0, 'time': 8.6, 'compass': 0.92, 'pitch': -3.59, 'roll': 6.81}
{'lipoC2': 8.09, 'temp': 0.0, 'lipoC3S3': 12.46, 'state': 'normal', 'rot1': 46, 'rot0': 38, 'rot3': 32, 'rot2': 46, 'depth': -1.361, 'yaw': -4.36, 'datetime': '2018-12-12 10:40:25.010998', 'mgs': 0, 'flw2': 0.26, 'flw1': 2.43, 'flw0': 0.0, 'time': 8.8, 'compass': 0.36, 'pitch': -3.38, 'roll': 6.4}
{'lipoC2': 8.19, 'temp': 0.0, 'lipoC3S3': 12.04, 'state': 'normal', 'rot1': 46, 'rot0': 38, 'rot3': 33, 'rot2': 47, 'depth': 2.072, 'yaw': -5.13, 'datetime': '2018-12-12 10:40:25.219552', 'mgs': 0, 'flw2': 0.0, 'flw1': 3.11, 'flw0': 0.0, 'time': 9.01, 'compass': -0.41, 'pitch': -2.66, 'roll': 6.33}
{'lipoC2': 8.31, 'temp': 0.0, 'lipoC3S3': 12.12, 'state': 'normal', 'rot1': 46, 'rot0': 38, 'rot3': 34, 'rot2': 48, 'depth': -1.437, 'yaw': -6.05, 'datetime': '2018-12-12 10:40:25.429514', 'mgs': 0, 'flw2': 0.0, 'flw1': 3.46, 'flw0': 0.0, 'time': 9.22, 'compass': -1.33, 'pitch': -2.63, 'roll': 6.57}
{'lipoC2': 8.04, 'temp': 0.0, 'lipoC3S3': 12.33, 'state': 'normal', 'rot1': 46, 'rot0': 38, 'rot3': 35, 'rot2': 49, 'depth': -0.598, 'yaw': -7.05, 'datetime': '2018-12-12 10:40:25.639354', 'mgs': 0, 'flw2': 0.31, 'flw1': 2.52, 'flw0': 0.31, 'time': 9.43, 'compass': -2.33, 'pitch': -3.25, 'roll': 6.57}
{'lipoC2': 8.26, 'temp': 0.0, 'lipoC3S3': 12.09, 'state': 'normal', 'rot1': 46, 'rot0': 38, 'rot3': 35, 'rot2': 51, 'depth': 0.699, 'yaw': -8.2, 'datetime': '2018-12-12 10:40:25.851742', 'mgs': 0, 'flw2': 0.0, 'flw1': 3.16, 'flw0': 0.0, 'time': 9.64, 'compass': -3.48, 'pitch': -3.57, 'roll': 6.46}
{'lipoC2': 8.25, 'temp': 0.0, 'lipoC3S3': 12.1, 'state': 'normal', 'rot1': 46, 'rot0': 38, 'rot3': 36, 'rot2': 52, 'depth': 1.08, 'yaw': -9.4, 'datetime': '2018-12-12 10:40:26.061296', 'mgs': 0, 'flw2': 0.0, 'flw1': 3.49, 'flw0': 0.0, 'time': 9.85, 'compass': -4.68, 'pitch': -2.88, 'roll': 6.25}
{'lipoC2': 8.09, 'temp': 0.0, 'lipoC3S3': 12.45, 'state': 'normal', 'rot1': 46, 'rot0': 38, 'rot3': 37, 'rot2': 53, 'depth': -0.674, 'yaw': -10.73, 'datetime': '2018-12-12 10:40:26.269192', 'mgs': 0, 'flw2': 0.0, 'flw1': 3.66, 'flw0': 0.0, 'time': 10.06, 'compass': -6.0, 'pitch': -2.57, 'roll': 5.81}
{'lipoC2': 8.34, 'temp': 0.0, 'lipoC3S3': 12.13, 'state': 'normal', 'rot1': 46, 'rot0': 38, 'rot3': 38, 'rot2': 54, 'depth': -0.14, 'yaw': -12.17, 'datetime': '2018-12-12 10:40:26.476491', 'mgs': 0, 'flw2': 0.0, 'flw1': 2.37, 'flw0': 0.0, 'time': 10.27, 'compass': -7.45, 'pitch': -3.08, 'roll': 5.29}
{'lipoC2': 8.04, 'temp': 0.0, 'lipoC3S3': 12.21, 'state': 'normal', 'rot1': 46, 'rot0': 38, 'rot3': 39, 'rot2': 55, 'depth': 0.928, 'yaw': -13.61, 'datetime': '2018-12-12 10:40:26.687139', 'mgs': 0, 'flw2': 0.17, 'flw1': 2.34, 'flw0': 0.0, 'time': 10.48, 'compass': -8.89, 'pitch': -3.45, 'roll': 5.03}
{'lipoC2': 8.08, 'temp': 0.0, 'lipoC3S3': 12.27, 'state': 'normal', 'rot1': 47, 'rot0': 39, 'rot3': 39, 'rot2': 56, 'depth': -0.674, 'yaw': -14.84, 'datetime': '2018-12-12 10:40:26.897468', 'mgs': 0, 'flw2': 0.65, 'flw1': 2.61, 'flw0': 0.66, 'time': 10.69, 'compass': -10.11, 'pitch': -2.86, 'roll': 4.92}
{'lipoC2': 8.3, 'temp': 0.0, 'lipoC3S3': 12.12, 'state': 'normal', 'rot1': 49, 'rot0': 40, 'rot3': 40, 'rot2': 57, 'depth': -0.217, 'yaw': -15.35, 'datetime': '2018-12-12 10:40:27.110920', 'mgs': 0, 'flw2': 0.26, 'flw1': 2.58, 'flw0': 0.15, 'time': 10.9, 'compass': -10.63, 'pitch': -1.85, 'roll': 4.98}
{'lipoC2': 8.07, 'temp': 0.0, 'lipoC3S3': 12.04, 'state': 'normal', 'rot1': 50, 'rot0': 41, 'rot3': 41, 'rot2': 58, 'depth': 1.767, 'yaw': -15.41, 'datetime': '2018-12-12 10:40:27.319600', 'mgs': 0, 'flw2': 0.15, 'flw1': 3.54, 'flw0': 0.2, 'time': 11.11, 'compass': -10.69, 'pitch': -1.49, 'roll': 5.38}
{'lipoC2': 8.1, 'temp': 0.0, 'lipoC3S3': 12.23, 'state': 'normal', 'rot1': 51, 'rot0': 42, 'rot3': 42, 'rot2': 59, 'depth': 1.92, 'yaw': -15.13, 'datetime': '2018-12-12 10:40:27.529657', 'mgs': 0, 'flw2': 0.66, 'flw1': 2.52, 'flw0': 0.66, 'time': 11.32, 'compass': -10.41, 'pitch': -1.88, 'roll': 5.8}
{'lipoC2': 8.14, 'temp': 0.0, 'lipoC3S3': 12.26, 'state': 'normal', 'rot1': 52, 'rot0': 43, 'rot3': 43, 'rot2': 61, 'depth': -0.903, 'yaw': -14.48, 'datetime': '2018-12-12 10:40:27.738867', 'mgs': 0, 'flw2': 0.4, 'flw1': 2.49, 'flw0': 0.55, 'time': 11.53, 'compass': -9.76, 'pitch': -1.99, 'roll': 5.95}
{'lipoC2': 8.09, 'temp': 0.0, 'lipoC3S3': 12.31, 'state': 'normal', 'rot1': 54, 'rot0': 44, 'rot3': 43, 'rot2': 62, 'depth': -0.598, 'yaw': -13.54, 'datetime': '2018-12-12 10:40:27.950405', 'mgs': 0, 'flw2': 0.6, 'flw1': 2.34, 'flw0': 0.59, 'time': 11.74, 'compass': -8.82, 'pitch': -1.4, 'roll': 5.98}
{'lipoC2': 8.02, 'temp': 0.0, 'lipoC3S3': 12.51, 'state': 'normal', 'rot1': 55, 'rot0': 45, 'rot3': 44, 'rot2': 63, 'depth': -0.827, 'yaw': -12.38, 'datetime': '2018-12-12 10:40:28.161596', 'mgs': 0, 'flw2': 0.15, 'flw1': 2.84, 'flw0': 0.09, 'time': 11.95, 'compass': -7.66, 'pitch': -0.72, 'roll': 6.03}
{'lipoC2': 8.05, 'temp': 0.0, 'lipoC3S3': 12.52, 'state': 'normal', 'rot1': 55, 'rot0': 45, 'rot3': 45, 'rot2': 64, 'depth': -0.827, 'yaw': -11.26, 'datetime': '2018-12-12 10:40:28.370908', 'mgs': 0, 'flw2': 0.06, 'flw1': 2.46, 'flw0': 0.0, 'time': 12.16, 'compass': -6.53, 'pitch': -0.72, 'roll': 6.02}
{'lipoC2': 8.36, 'temp': 0.0, 'lipoC3S3': 12.16, 'state': 'normal', 'rot1': 55, 'rot0': 45, 'rot3': 46, 'rot2': 65, 'depth': -1.132, 'yaw': -10.67, 'datetime': '2018-12-12 10:40:28.581092', 'mgs': 0, 'flw2': 0.15, 'flw1': 2.55, 'flw0': 0.0, 'time': 12.37, 'compass': -5.95, 'pitch': -1.65, 'roll': 5.77}
{'lipoC2': 8.06, 'temp': 0.0, 'lipoC3S3': 12.31, 'state': 'normal', 'rot1': 55, 'rot0': 45, 'rot3': 46, 'rot2': 66, 'depth': -0.446, 'yaw': -10.5, 'datetime': '2018-12-12 10:40:28.790114', 'mgs': 0, 'flw2': 0.0, 'flw1': 2.46, 'flw0': 0.0, 'time': 12.58, 'compass': -5.78, 'pitch': -2.69, 'roll': 5.59}
{'lipoC2': 8.38, 'temp': 0.0, 'lipoC3S3': 12.13, 'state': 'normal', 'rot1': 55, 'rot0': 45, 'rot3': 47, 'rot2': 67, 'depth': -1.743, 'yaw': -10.53, 'datetime': '2018-12-12 10:40:28.999930', 'mgs': 0, 'flw2': 0.0, 'flw1': 3.28, 'flw0': 0.0, 'time': 12.79, 'compass': -5.81, 'pitch': -3.05, 'roll': 5.33}
{'lipoC2': 8.36, 'temp': 0.0, 'lipoC3S3': 12.52, 'state': 'normal', 'rot1': 55, 'rot0': 45, 'rot3': 48, 'rot2': 68, 'depth': -1.285, 'yaw': -10.81, 'datetime': '2018-12-12 10:40:29.210570', 'mgs': 0, 'flw2': 0.26, 'flw1': 2.7, 'flw0': 0.0, 'time': 13.0, 'compass': -6.08, 'pitch': -3.08, 'roll': 5.25}
{'lipoC2': 8.36, 'temp': 0.0, 'lipoC3S3': 12.13, 'state': 'normal', 'rot1': 55, 'rot0': 45, 'rot3': 49, 'rot2': 69, 'depth': 0.165, 'yaw': -11.24, 'datetime': '2018-12-12 10:40:29.420361', 'mgs': 0, 'flw2': 0.2, 'flw1': 2.4, 'flw0': 0.27, 'time': 13.21, 'compass': -6.52, 'pitch': -3.34, 'roll': 5.51}
{'lipoC2': 8.36, 'temp': 0.0, 'lipoC3S3': 12.1, 'state': 'normal', 'rot1': 55, 'rot0': 45, 'rot3': 49, 'rot2': 70, 'depth': 0.241, 'yaw': -11.86, 'datetime': '2018-12-12 10:40:29.630360', 'mgs': 0, 'flw2': 0.0, 'flw1': 2.26, 'flw0': 0.04, 'time': 13.42, 'compass': -7.14, 'pitch': -3.9, 'roll': 5.73}
{'lipoC2': 8.24, 'temp': 0.0, 'lipoC3S3': 12.05, 'state': 'normal', 'rot1': 55, 'rot0': 45, 'rot3': 50, 'rot2': 72, 'depth': 1.157, 'yaw': -12.59, 'datetime': '2018-12-12 10:40:29.839767', 'mgs': 0, 'flw2': 0.0, 'flw1': 2.29, 'flw0': 0.0, 'time': 13.63, 'compass': -7.87, 'pitch': -4.35, 'roll': 5.45}
{'lipoC2': 8.36, 'temp': 0.0, 'lipoC3S3': 12.16, 'state': 'normal', 'rot1': 55, 'rot0': 45, 'rot3': 51, 'rot2': 73, 'depth': -0.827, 'yaw': -13.42, 'datetime': '2018-12-12 10:40:30.048421', 'mgs': 0, 'flw2': 0.21, 'flw1': 2.55, 'flw0': 0.0, 'time': 13.83, 'compass': -8.7, 'pitch': -4.07, 'roll': 5.15}
{'lipoC2': 8.23, 'temp': 0.0, 'lipoC3S3': 12.1, 'state': 'normal', 'rot1': 56, 'rot0': 46, 'rot3': 52, 'rot2': 74, 'depth': 1.385, 'yaw': -14.16, 'datetime': '2018-12-12 10:40:30.259228', 'mgs': 0, 'flw2': 0.11, 'flw1': 3.16, 'flw0': 0.11, 'time': 14.04, 'compass': -9.44, 'pitch': -3.3, 'roll': 5.46}
{'lipoC2': 8.06, 'temp': 0.0, 'lipoC3S3': 12.42, 'state': 'normal', 'rot1': 57, 'rot0': 47, 'rot3': 53, 'rot2': 75, 'depth': -1.208, 'yaw': -14.26, 'datetime': '2018-12-12 10:40:30.470149', 'mgs': 0, 'flw2': 0.12, 'flw1': 2.9, 'flw0': 0.09, 'time': 14.26, 'compass': -9.53, 'pitch': -2.5, 'roll': 6.22}
{'lipoC2': 8.35, 'temp': 0.0, 'lipoC3S3': 12.14, 'state': 'normal', 'rot1': 58, 'rot0': 48, 'rot3': 53, 'rot2': 76, 'depth': -0.14, 'yaw': -13.86, 'datetime': '2018-12-12 10:40:30.680501', 'mgs': 0, 'flw2': 0.52, 'flw1': 2.49, 'flw0': 0.45, 'time': 14.47, 'compass': -9.14, 'pitch': -1.96, 'roll': 6.45}
{'lipoC2': 8.22, 'temp': 0.0, 'lipoC3S3': 12.06, 'state': 'normal', 'rot1': 59, 'rot0': 49, 'rot3': 54, 'rot2': 77, 'depth': -0.827, 'yaw': -13.05, 'datetime': '2018-12-12 10:40:30.890564', 'mgs': 0, 'flw2': 0.21, 'flw1': 2.64, 'flw0': 0.22, 'time': 14.67, 'compass': -8.32, 'pitch': -1.88, 'roll': 6.07}
{'lipoC2': 8.1, 'temp': 0.0, 'lipoC3S3': 12.21, 'state': 'normal', 'rot1': 60, 'rot0': 49, 'rot3': 55, 'rot2': 78, 'depth': -0.751, 'yaw': -11.82, 'datetime': '2018-12-12 10:40:31.099368', 'mgs': 0, 'flw2': 0.28, 'flw1': 2.52, 'flw0': 0.31, 'time': 14.88, 'compass': -7.1, 'pitch': -1.9, 'roll': 5.95}
{'lipoC2': 8.22, 'temp': 0.0, 'lipoC3S3': 12.1, 'state': 'normal', 'rot1': 60, 'rot0': 50, 'rot3': 56, 'rot2': 79, 'depth': -1.056, 'yaw': -10.95, 'datetime': '2018-12-12 10:40:31.309994', 'mgs': 0, 'flw2': 0.0, 'flw1': 2.87, 'flw0': 0.0, 'time': 15.09, 'compass': -6.23, 'pitch': -1.52, 'roll': 6.07}
{'lipoC2': 8.05, 'temp': 0.0, 'lipoC3S3': 12.51, 'state': 'normal', 'rot1': 60, 'rot0': 50, 'rot3': 57, 'rot2': 80, 'depth': -0.827, 'yaw': -10.44, 'datetime': '2018-12-12 10:40:31.521255', 'mgs': 0, 'flw2': 0.04, 'flw1': 2.43, 'flw0': 0.02, 'time': 15.3, 'compass': -5.72, 'pitch': -1.14, 'roll': 6.07}
{'lipoC2': 8.36, 'temp': 0.0, 'lipoC3S3': 12.08, 'state': 'normal', 'rot1': 60, 'rot0': 50, 'rot3': 57, 'rot2': 81, 'depth': -1.437, 'yaw': -10.29, 'datetime': '2018-12-12 10:40:31.732063', 'mgs': 0, 'flw2': 0.17, 'flw1': 2.23, 'flw0': 0.21, 'time': 15.51, 'compass': -5.56, 'pitch': -1.79, 'roll': 5.9}
{'lipoC2': 8.08, 'temp': 0.0, 'lipoC3S3': 12.14, 'state': 'normal', 'rot1': 60, 'rot0': 50, 'rot3': 58, 'rot2': 83, 'depth': 0.546, 'yaw': -10.28, 'datetime': '2018-12-12 10:40:31.940975', 'mgs': 0, 'flw2': 0.29, 'flw1': 2.4, 'flw0': 0.0, 'time': 15.72, 'compass': -5.56, 'pitch': -2.76, 'roll': 5.67}
{'lipoC2': 8.33, 'temp': 0.0, 'lipoC3S3': 12.14, 'state': 'normal', 'rot1': 60, 'rot0': 50, 'rot3': 59, 'rot2': 84, 'depth': -0.369, 'yaw': -10.49, 'datetime': '2018-12-12 10:40:32.150881', 'mgs': 0, 'flw2': 0.0, 'flw1': 3.49, 'flw0': 0.0, 'time': 15.93, 'compass': -5.77, 'pitch': -3.09, 'roll': 5.61}
{'lipoC2': 8.09, 'temp': 0.0, 'lipoC3S3': 12.41, 'state': 'normal', 'rot1': 60, 'rot0': 50, 'rot3': 60, 'rot2': 85, 'depth': -0.446, 'yaw': -10.84, 'datetime': '2018-12-12 10:40:32.359843', 'mgs': 0, 'flw2': 0.22, 'flw1': 2.52, 'flw0': 0.0, 'time': 16.14, 'compass': -6.12, 'pitch': -3.12, 'roll': 5.65}
{'lipoC2': 8.22, 'temp': 0.0, 'lipoC3S3': 12.18, 'state': 'normal', 'rot1': 60, 'rot0': 50, 'rot3': 60, 'rot2': 86, 'depth': -1.361, 'yaw': -11.35, 'datetime': '2018-12-12 10:40:32.570987', 'mgs': 0, 'flw2': 0.15, 'flw1': 2.64, 'flw0': 0.18, 'time': 16.35, 'compass': -6.63, 'pitch': -3.4, 'roll': 5.92}
{'lipoC2': 8.08, 'temp': 0.0, 'lipoC3S3': 12.29, 'state': 'normal', 'rot1': 60, 'rot0': 50, 'rot3': 61, 'rot2': 87, 'depth': -0.446, 'yaw': -11.98, 'datetime': '2018-12-12 10:40:32.780868', 'mgs': 0, 'flw2': 0.0, 'flw1': 3.25, 'flw0': 0.0, 'time': 16.56, 'compass': -7.26, 'pitch': -3.68, 'roll': 6.11}
{'lipoC2': 8.35, 'temp': 0.0, 'lipoC3S3': 12.5, 'state': 'normal', 'rot1': 60, 'rot0': 50, 'rot3': 62, 'rot2': 88, 'depth': 0.623, 'yaw': -12.64, 'datetime': '2018-12-12 10:40:32.992014', 'mgs': 0, 'flw2': 0.0, 'flw1': 3.46, 'flw0': 0.0, 'time': 16.77, 'compass': -7.92, 'pitch': -3.66, 'roll': 6.06}
{'lipoC2': 8.1, 'temp': 0.0, 'lipoC3S3': 12.22, 'state': 'normal', 'rot1': 60, 'rot0': 50, 'rot3': 63, 'rot2': 89, 'depth': -1.437, 'yaw': -13.34, 'datetime': '2018-12-12 10:40:33.202169', 'mgs': 0, 'flw2': 0.29, 'flw1': 3.4, 'flw0': 0.27, 'time': 16.98, 'compass': -8.61, 'pitch': -3.56, 'roll': 5.72}
{'lipoC2': 8.07, 'temp': 0.0, 'lipoC3S3': 12.46, 'state': 'normal', 'rot1': 61, 'rot0': 51, 'rot3': 64, 'rot2': 90, 'depth': -0.674, 'yaw': -13.53, 'datetime': '2018-12-12 10:40:33.410984', 'mgs': 0, 'flw2': 0.13, 'flw1': 2.64, 'flw0': 0.13, 'time': 17.19, 'compass': -8.8, 'pitch': -3.22, 'roll': 5.42}
{'lipoC2': 8.04, 'temp': 0.0, 'lipoC3S3': 12.5, 'state': 'normal', 'rot1': 62, 'rot0': 52, 'rot3': 64, 'rot2': 91, 'depth': -0.522, 'yaw': -13.11, 'datetime': '2018-12-12 10:40:33.621936', 'mgs': 0, 'flw2': 0.11, 'flw1': 2.87, 'flw0': 0.13, 'time': 17.4, 'compass': -8.39, 'pitch': -2.68, 'roll': 5.56}
{'lipoC2': 8.02, 'temp': 0.0, 'lipoC3S3': 12.45, 'state': 'normal', 'rot1': 63, 'rot0': 53, 'rot3': 65, 'rot2': 92, 'depth': -0.674, 'yaw': -12.23, 'datetime': '2018-12-12 10:40:33.833120', 'mgs': 0, 'flw2': 0.0, 'flw1': 2.99, 'flw0': 0.0, 'time': 17.61, 'compass': -7.51, 'pitch': -2.31, 'roll': 6.1}
{'lipoC2': 8.04, 'temp': 0.0, 'lipoC3S3': 12.42, 'state': 'normal', 'rot1': 63, 'rot0': 53, 'rot3': 66, 'rot2': 94, 'depth': 0.851, 'yaw': -11.55, 'datetime': '2018-12-12 10:40:34.042608', 'mgs': 0, 'flw2': 0.0, 'flw1': 3.4, 'flw0': 0.0, 'time': 17.82, 'compass': -6.83, 'pitch': -2.23, 'roll': 6.28}
{'lipoC2': 8.27, 'temp': 0.0, 'lipoC3S3': 12.12, 'state': 'normal', 'rot1': 63, 'rot0': 53, 'rot3': 67, 'rot2': 95, 'depth': 1.385, 'yaw': -11.23, 'datetime': '2018-12-12 10:40:34.252532', 'mgs': 0, 'flw2': 0.0, 'flw1': 3.52, 'flw0': 0.0, 'time': 18.03, 'compass': -6.51, 'pitch': -2.36, 'roll': 6.02}
{'lipoC2': 8.1, 'temp': 0.0, 'lipoC3S3': 11.97, 'state': 'normal', 'rot1': 63, 'rot0': 53, 'rot3': 67, 'rot2': 96, 'depth': -0.293, 'yaw': -11.14, 'datetime': '2018-12-12 10:40:34.462614', 'mgs': 0, 'flw2': 0.13, 'flw1': 2.52, 'flw0': 0.1, 'time': 18.24, 'compass': -6.41, 'pitch': -2.47, 'roll': 5.86}
{'lipoC2': 8.08, 'temp': 0.0, 'lipoC3S3': 11.94, 'state': 'normal', 'rot1': 63, 'rot0': 53, 'rot3': 68, 'rot2': 97, 'depth': 1.385, 'yaw': -11.24, 'datetime': '2018-12-12 10:40:34.671911', 'mgs': 0, 'flw2': 0.17, 'flw1': 2.55, 'flw0': 0.17, 'time': 18.45, 'compass': -6.51, 'pitch': -2.41, 'roll': 5.82}
{'lipoC2': 8.35, 'temp': 0.0, 'lipoC3S3': 12.09, 'state': 'normal', 'rot1': 63, 'rot0': 53, 'rot3': 69, 'rot2': 98, 'depth': -0.674, 'yaw': -11.54, 'datetime': '2018-12-12 10:40:34.882685', 'mgs': 0, 'flw2': 0.0, 'flw1': 3.22, 'flw0': 0.0, 'time': 18.66, 'compass': -6.82, 'pitch': -2.31, 'roll': 5.72}
{'lipoC2': 8.36, 'temp': 0.0, 'lipoC3S3': 12.16, 'state': 'normal', 'rot1': 63, 'rot0': 53, 'rot3': 70, 'rot2': 99, 'depth': 0.47, 'yaw': -11.93, 'datetime': '2018-12-12 10:40:35.092676', 'mgs': 0, 'flw2': 0.0, 'flw1': 2.52, 'flw0': 0.01, 'time': 18.87, 'compass': -7.21, 'pitch': -2.28, 'roll': 5.68}
{'lipoC2': 8.04, 'temp': 0.0, 'lipoC3S3': 12.5, 'state': 'normal', 'rot1': 63, 'rot0': 53, 'rot3': 71, 'rot2': 100, 'depth': -0.751, 'yaw': -12.43, 'datetime': '2018-12-12 10:40:35.304100', 'mgs': 0, 'flw2': 0.0, 'flw1': 2.87, 'flw0': 0.0, 'time': 19.08, 'compass': -7.71, 'pitch': -2.69, 'roll': 6.04}
{'lipoC2': 8.07, 'temp': 0.0, 'lipoC3S3': 12.48, 'state': 'normal', 'rot1': 63, 'rot0': 53, 'rot3': 71, 'rot2': 101, 'depth': -0.598, 'yaw': -13.01, 'datetime': '2018-12-12 10:40:35.514228', 'mgs': 0, 'flw2': 0.27, 'flw1': 2.64, 'flw0': 0.0, 'time': 19.29, 'compass': -8.29, 'pitch': -3.25, 'roll': 6.27}
{'lipoC2': 8.28, 'temp': 0.0, 'lipoC3S3': 12.09, 'state': 'normal', 'rot1': 63, 'rot0': 53, 'rot3': 72, 'rot2': 102, 'depth': 0.775, 'yaw': -13.52, 'datetime': '2018-12-12 10:40:35.723418', 'mgs': 0, 'flw2': 0.16, 'flw1': 2.96, 'flw0': 0.2, 'time': 19.5, 'compass': -8.79, 'pitch': -3.44, 'roll': 6.03}
{'lipoC2': 8.02, 'temp': 0.0, 'lipoC3S3': 12.47, 'state': 'normal', 'rot1': 65, 'rot0': 54, 'rot3': 73, 'rot2': 103, 'depth': -0.522, 'yaw': -13.54, 'datetime': '2018-12-12 10:40:35.934732', 'mgs': 0, 'flw2': 0.33, 'flw1': 2.43, 'flw0': 0.31, 'time': 19.71, 'compass': -8.82, 'pitch': -3.25, 'roll': 5.88}
{'lipoC2': 8.11, 'temp': 0.0, 'lipoC3S3': 12.22, 'state': 'normal', 'rot1': 66, 'rot0': 55, 'rot3': 74, 'rot2': 105, 'depth': 2.072, 'yaw': -12.94, 'datetime': '2018-12-12 10:40:36.148599', 'mgs': 0, 'flw2': 0.65, 'flw1': 2.72, 'flw0': 0.67, 'time': 19.92, 'compass': -8.21, 'pitch': -3.23, 'roll': 6.25}
{'lipoC2': 8.07, 'temp': 0.0, 'lipoC3S3': 12.5, 'state': 'normal', 'rot1': 67, 'rot0': 56, 'rot3': 75, 'rot2': 106, 'depth': -0.674, 'yaw': -11.85, 'datetime': '2018-12-12 10:40:36.358187', 'mgs': 0, 'flw2': 0.28, 'flw1': 2.43, 'flw0': 0.0, 'time': 20.13, 'compass': -7.12, 'pitch': -3.24, 'roll': 6.83}
{'lipoC2': 8.3, 'temp': 0.0, 'lipoC3S3': 12.13, 'state': 'normal', 'rot1': 67, 'rot0': 56, 'rot3': 75, 'rot2': 107, 'depth': 1.92, 'yaw': -11.05, 'datetime': '2018-12-12 10:40:36.570708', 'mgs': 0, 'flw2': 0.0, 'flw1': 3.66, 'flw0': 0.0, 'time': 20.34, 'compass': -6.33, 'pitch': -2.97, 'roll': 6.71}
{'lipoC2': 8.04, 'temp': 0.0, 'lipoC3S3': 12.5, 'state': 'normal', 'rot1': 67, 'rot0': 56, 'rot3': 76, 'rot2': 108, 'depth': -0.98, 'yaw': -10.56, 'datetime': '2018-12-12 10:40:36.775765', 'mgs': 0, 'flw2': 0.09, 'flw1': 2.64, 'flw0': 0.02, 'time': 20.55, 'compass': -5.84, 'pitch': -2.44, 'roll': 6.04}
{'lipoC2': 8.24, 'temp': 0.0, 'lipoC3S3': 12.1, 'state': 'normal', 'rot1': 67, 'rot0': 56, 'rot3': 77, 'rot2': 109, 'depth': -1.361, 'yaw': -10.31, 'datetime': '2018-12-12 10:40:36.989095', 'mgs': 0, 'flw2': 0.1, 'flw1': 2.26, 'flw0': 0.16, 'time': 20.76, 'compass': -5.59, 'pitch': -2.22, 'roll': 5.57}
{'lipoC2': 8.3, 'temp': 0.0, 'lipoC3S3': 12.13, 'state': 'normal', 'rot1': 67, 'rot0': 56, 'rot3': 78, 'rot2': 110, 'depth': 1.767, 'yaw': -10.29, 'datetime': '2018-12-12 10:40:37.198950', 'mgs': 0, 'flw2': 0.05, 'flw1': 2.55, 'flw0': 0.12, 'time': 20.97, 'compass': -5.57, 'pitch': -2.55, 'roll': 5.49}
{'lipoC2': 8.04, 'temp': 0.0, 'lipoC3S3': 12.37, 'state': 'normal', 'rot1': 67, 'rot0': 56, 'rot3': 78, 'rot2': 111, 'depth': 0.928, 'yaw': -10.39, 'datetime': '2018-12-12 10:40:37.411642', 'mgs': 0, 'flw2': 0.04, 'flw1': 2.37, 'flw0': 0.0, 'time': 21.18, 'compass': -5.67, 'pitch': -2.89, 'roll': 5.62}
{'lipoC2': 8.08, 'temp': 0.0, 'lipoC3S3': 12.0, 'state': 'normal', 'rot1': 67, 'rot0': 56, 'rot3': 79, 'rot2': 112, 'depth': 1.691, 'yaw': -10.68, 'datetime': '2018-12-12 10:40:37.619203', 'mgs': 0, 'flw2': 0.24, 'flw1': 2.78, 'flw0': 0.23, 'time': 21.39, 'compass': -5.95, 'pitch': -3.07, 'roll': 5.67}
{'lipoC2': 8.04, 'temp': 0.0, 'lipoC3S3': 12.45, 'state': 'normal', 'rot1': 67, 'rot0': 56, 'rot3': 80, 'rot2': 113, 'depth': 0.394, 'yaw': -11.05, 'datetime': '2018-12-12 10:40:37.827505', 'mgs': 0, 'flw2': 0.11, 'flw1': 2.46, 'flw0': 0.09, 'time': 21.6, 'compass': -6.32, 'pitch': -3.22, 'roll': 5.54}
{'lipoC2': 8.04, 'temp': 0.0, 'lipoC3S3': 12.47, 'state': 'normal', 'rot1': 67, 'rot0': 56, 'rot3': 81, 'rot2': 114, 'depth': 0.089, 'yaw': -11.47, 'datetime': '2018-12-12 10:40:38.040957', 'mgs': 0, 'flw2': 0.24, 'flw1': 2.34, 'flw0': 0.0, 'time': 21.81, 'compass': -6.75, 'pitch': -3.04, 'roll': 5.07}
{'lipoC2': 8.36, 'temp': 0.0, 'lipoC3S3': 12.13, 'state': 'normal', 'rot1': 67, 'rot0': 56, 'rot3': 82, 'rot2': 116, 'depth': 0.317, 'yaw': -11.9, 'datetime': '2018-12-12 10:40:38.252089', 'mgs': 0, 'flw2': 0.0, 'flw1': 3.52, 'flw0': 0.0, 'time': 22.02, 'compass': -7.18, 'pitch': -3.12, 'roll': 5.03}
{'lipoC2': 8.08, 'temp': 0.0, 'lipoC3S3': 11.98, 'state': 'normal', 'rot1': 67, 'rot0': 56, 'rot3': 82, 'rot2': 117, 'depth': 2.072, 'yaw': -12.45, 'datetime': '2018-12-12 10:40:38.461310', 'mgs': 0, 'flw2': 0.0, 'flw1': 3.63, 'flw0': 0.0, 'time': 22.23, 'compass': -7.73, 'pitch': -3.47, 'roll': 5.53}
{'lipoC2': 8.36, 'temp': 0.0, 'lipoC3S3': 12.12, 'state': 'normal', 'rot1': 67, 'rot0': 56, 'rot3': 83, 'rot2': 118, 'depth': -1.132, 'yaw': -13.08, 'datetime': '2018-12-12 10:40:38.672511', 'mgs': 0, 'flw2': 0.0, 'flw1': 3.52, 'flw0': 0.0, 'time': 22.44, 'compass': -8.36, 'pitch': -3.49, 'roll': 5.68}
{'lipoC2': 8.09, 'temp': 0.0, 'lipoC3S3': 11.96, 'state': 'normal', 'rot1': 67, 'rot0': 56, 'rot3': 84, 'rot2': 119, 'depth': 2.225, 'yaw': -13.76, 'datetime': '2018-12-12 10:40:38.876757', 'mgs': 0, 'flw2': 0.16, 'flw1': 2.84, 'flw0': 0.16, 'time': 22.65, 'compass': -9.03, 'pitch': -3.4, 'roll': 5.3}
{'lipoC2': 8.26, 'temp': 0.0, 'lipoC3S3': 12.41, 'state': 'normal', 'rot1': 69, 'rot0': 58, 'rot3': 85, 'rot2': 120, 'depth': -0.369, 'yaw': -13.95, 'datetime': '2018-12-12 10:40:39.086424', 'mgs': 0, 'flw2': 0.63, 'flw1': 2.81, 'flw0': 0.6, 'time': 22.86, 'compass': -9.23, 'pitch': -3.3, 'roll': 5.34}
{'lipoC2': 8.09, 'temp': 0.0, 'lipoC3S3': 12.35, 'state': 'normal', 'rot1': 71, 'rot0': 59, 'rot3': 85, 'rot2': 121, 'depth': -0.598, 'yaw': -13.51, 'datetime': '2018-12-12 10:40:39.296343', 'mgs': 0, 'flw2': 0.13, 'flw1': 2.7, 'flw0': 0.09, 'time': 23.07, 'compass': -8.79, 'pitch': -2.8, 'roll': 5.72}
{'lipoC2': 8.07, 'temp': 0.0, 'lipoC3S3': 12.13, 'state': 'normal', 'rot1': 73, 'rot0': 60, 'rot3': 86, 'rot2': 122, 'depth': 1.385, 'yaw': -12.58, 'datetime': '2018-12-12 10:40:39.512907', 'mgs': 0, 'flw2': 0.35, 'flw1': 2.55, 'flw0': 0.48, 'time': 23.28, 'compass': -7.86, 'pitch': -1.82, 'roll': 5.88}
{'lipoC2': 8.2, 'temp': 0.0, 'lipoC3S3': 12.04, 'state': 'normal', 'rot1': 73, 'rot0': 61, 'rot3': 87, 'rot2': 123, 'depth': 1.462, 'yaw': -11.54, 'datetime': '2018-12-12 10:40:39.724932', 'mgs': 0, 'flw2': 0.0, 'flw1': 2.46, 'flw0': 0.0, 'time': 23.49, 'compass': -6.82, 'pitch': -1.27, 'roll': 5.93}
{'lipoC2': 8.1, 'temp': 0.0, 'lipoC3S3': 11.98, 'state': 'normal', 'rot1': 73, 'rot0': 61, 'rot3': 88, 'rot2': 124, 'depth': -0.064, 'yaw': -10.92, 'datetime': '2018-12-12 10:40:39.936061', 'mgs': 0, 'flw2': 0.18, 'flw1': 2.52, 'flw0': 0.0, 'time': 23.7, 'compass': -6.2, 'pitch': -1.57, 'roll': 6.37}
{'lipoC2': 8.02, 'temp': 0.0, 'lipoC3S3': 12.42, 'state': 'normal', 'rot1': 73, 'rot0': 61, 'rot3': 89, 'rot2': 125, 'depth': -0.446, 'yaw': -10.59, 'datetime': '2018-12-12 10:40:40.144971', 'mgs': 0, 'flw2': 0.09, 'flw1': 2.46, 'flw0': 0.0, 'time': 23.91, 'compass': -5.87, 'pitch': -2.11, 'roll': 6.74}
{'lipoC2': 8.36, 'temp': 0.0, 'lipoC3S3': 12.09, 'state': 'normal', 'rot1': 73, 'rot0': 61, 'rot3': 89, 'rot2': 127, 'depth': 0.089, 'yaw': -10.48, 'datetime': '2018-12-12 10:40:40.354146', 'mgs': 0, 'flw2': 0.0, 'flw1': 3.46, 'flw0': 0.0, 'time': 24.12, 'compass': -5.75, 'pitch': -2.53, 'roll': 6.31}
{'lipoC2': 8.34, 'temp': 0.0, 'lipoC3S3': 12.09, 'state': 'normal', 'rot1': 73, 'rot0': 61, 'rot3': 90, 'rot2': 128, 'depth': -0.064, 'yaw': -10.47, 'datetime': '2018-12-12 10:40:40.559838', 'mgs': 0, 'flw2': 0.0, 'flw1': 3.37, 'flw0': 0.0, 'time': 24.33, 'compass': -5.75, 'pitch': -2.96, 'roll': 5.51}
{'lipoC2': 8.04, 'temp': 0.0, 'lipoC3S3': 12.51, 'state': 'normal', 'rot1': 73, 'rot0': 61, 'rot3': 91, 'rot2': 129, 'depth': -0.827, 'yaw': -10.6, 'datetime': '2018-12-12 10:40:40.770956', 'mgs': 0, 'flw2': 0.22, 'flw1': 2.61, 'flw0': 0.0, 'time': 24.54, 'compass': -5.88, 'pitch': -3.46, 'roll': 5.28}
{'lipoC2': 8.05, 'temp': 0.0, 'lipoC3S3': 12.51, 'state': 'normal', 'rot1': 73, 'rot0': 61, 'rot3': 92, 'rot2': 130, 'depth': -0.98, 'yaw': -10.78, 'datetime': '2018-12-12 10:40:40.982450', 'mgs': 0, 'flw2': 0.0, 'flw1': 2.37, 'flw0': 0.01, 'time': 24.75, 'compass': -6.06, 'pitch': -3.58, 'roll': 5.56}
{'lipoC2': 8.05, 'temp': 0.0, 'lipoC3S3': 12.09, 'state': 'normal', 'rot1': 73, 'rot0': 61, 'rot3': 93, 'rot2': 131, 'depth': -0.827, 'yaw': -11.09, 'datetime': '2018-12-12 10:40:41.192404', 'mgs': 0, 'flw2': 0.0, 'flw1': 3.63, 'flw0': 0.0, 'time': 24.96, 'compass': -6.37, 'pitch': -3.52, 'roll': 5.72}
{'lipoC2': 8.24, 'temp': 0.0, 'lipoC3S3': 12.05, 'state': 'normal', 'rot1': 73, 'rot0': 61, 'rot3': 93, 'rot2': 132, 'depth': 1.08, 'yaw': -11.54, 'datetime': '2018-12-12 10:40:41.401212', 'mgs': 0, 'flw2': 0.0, 'flw1': 2.7, 'flw0': 0.0, 'time': 25.17, 'compass': -6.82, 'pitch': -3.55, 'roll': 5.66}
{'lipoC2': 8.1, 'temp': 0.0, 'lipoC3S3': 11.96, 'state': 'normal', 'rot1': 73, 'rot0': 61, 'rot3': 94, 'rot2': 133, 'depth': 1.996, 'yaw': -12.11, 'datetime': '2018-12-12 10:40:41.611688', 'mgs': 0, 'flw2': 0.0, 'flw1': 2.26, 'flw0': 0.0, 'time': 25.38, 'compass': -7.39, 'pitch': -3.45, 'roll': 5.58}
{'lipoC2': 8.17, 'temp': 0.0, 'lipoC3S3': 12.02, 'state': 'normal', 'rot1': 73, 'rot0': 61, 'rot3': 95, 'rot2': 134, 'depth': 2.148, 'yaw': -12.73, 'datetime': '2018-12-12 10:40:41.821145', 'mgs': 0, 'flw2': 0.31, 'flw1': 2.64, 'flw0': 0.0, 'time': 25.59, 'compass': -8.01, 'pitch': -3.21, 'roll': 5.4}
{'lipoC2': 8.07, 'temp': 0.0, 'lipoC3S3': 11.97, 'state': 'normal', 'rot1': 73, 'rot0': 61, 'rot3': 96, 'rot2': 135, 'depth': 1.462, 'yaw': -13.39, 'datetime': '2018-12-12 10:40:42.032094', 'mgs': 0, 'flw2': 0.0, 'flw1': 2.52, 'flw0': 0.04, 'time': 25.8, 'compass': -8.67, 'pitch': -3.1, 'roll': 5.35}
{'lipoC2': 8.06, 'temp': 0.0, 'lipoC3S3': 12.5, 'state': 'normal', 'rot1': 73, 'rot0': 61, 'rot3': 97, 'rot2': 136, 'depth': -0.827, 'yaw': -13.94, 'datetime': '2018-12-12 10:40:42.242813', 'mgs': 0, 'flw2': 0.21, 'flw1': 2.75, 'flw0': 0.13, 'time': 26.01, 'compass': -9.22, 'pitch': -3.18, 'roll': 5.59}
{'lipoC2': 8.35, 'temp': 0.0, 'lipoC3S3': 12.1, 'state': 'normal', 'rot1': 75, 'rot0': 62, 'rot3': 97, 'rot2': 138, 'depth': -0.751, 'yaw': -13.86, 'datetime': '2018-12-12 10:40:42.453115', 'mgs': 0, 'flw2': 0.12, 'flw1': 3.02, 'flw0': 0.1, 'time': 26.22, 'compass': -9.13, 'pitch': -3.13, 'roll': 6.24}
{'lipoC2': 8.36, 'temp': 0.0, 'lipoC3S3': 12.14, 'state': 'normal', 'rot1': 76, 'rot0': 63, 'rot3': 98, 'rot2': 139, 'depth': 0.089, 'yaw': -13.21, 'datetime': '2018-12-12 10:40:42.663366', 'mgs': 0, 'flw2': 0.57, 'flw1': 2.52, 'flw0': 0.61, 'time': 26.43, 'compass': -8.49, 'pitch': -2.62, 'roll': 6.47}
{'lipoC2': 8.08, 'temp': 0.0, 'lipoC3S3': 12.5, 'state': 'normal', 'rot1': 77, 'rot0': 64, 'rot3': 99, 'rot2': 140, 'depth': -0.446, 'yaw': -12.15, 'datetime': '2018-12-12 10:40:42.872823', 'mgs': 0, 'flw2': 0.23, 'flw1': 2.61, 'flw0': 0.0, 'time': 26.64, 'compass': -7.42, 'pitch': -2.02, 'roll': 6.31}
{'lipoC2': 8.29, 'temp': 0.0, 'lipoC3S3': 12.1, 'state': 'normal', 'rot1': 77, 'rot0': 64, 'rot3': 100, 'rot2': 141, 'depth': -1.514, 'yaw': -11.31, 'datetime': '2018-12-12 10:40:43.083860', 'mgs': 0, 'flw2': 0.0, 'flw1': 3.4, 'flw0': 0.0, 'time': 26.85, 'compass': -6.59, 'pitch': -1.9, 'roll': 6.23}
{'lipoC2': 8.05, 'temp': 0.0, 'lipoC3S3': 12.52, 'state': 'normal', 'rot1': 77, 'rot0': 64, 'rot3': 100, 'rot2': 142, 'depth': -0.903, 'yaw': -10.83, 'datetime': '2018-12-12 10:40:43.295328', 'mgs': 0, 'flw2': 0.24, 'flw1': 2.64, 'flw0': 0.0, 'time': 27.06, 'compass': -6.11, 'pitch': -1.82, 'roll': 6.23}
{'lipoC2': 8.36, 'temp': 0.0, 'lipoC3S3': 12.12, 'state': 'normal', 'rot1': 77, 'rot0': 64, 'rot3': 101, 'rot2': 143, 'depth': 0.623, 'yaw': -10.68, 'datetime': '2018-12-12 10:40:43.504334', 'mgs': 0, 'flw2': 0.0, 'flw1': 3.43, 'flw0': 0.0, 'time': 27.27, 'compass': -5.95, 'pitch': -1.71, 'roll': 5.93}
{'lipoC2': 8.36, 'temp': 0.0, 'lipoC3S3': 12.16, 'state': 'normal', 'rot1': 77, 'rot0': 64, 'rot3': 102, 'rot2': 144, 'depth': 0.47, 'yaw': -10.66, 'datetime': '2018-12-12 10:40:43.714669', 'mgs': 0, 'flw2': 0.29, 'flw1': 2.75, 'flw0': 0.0, 'time': 27.48, 'compass': -5.93, 'pitch': -1.97, 'roll': 5.33}
{'lipoC2': 8.07, 'temp': 0.0, 'lipoC3S3': 12.02, 'state': 'normal', 'rot1': 77, 'rot0': 64, 'rot3': 103, 'rot2': 145, 'depth': 1.309, 'yaw': -10.84, 'datetime': '2018-12-12 10:40:43.924910', 'mgs': 0, 'flw2': 0.32, 'flw1': 2.78, 'flw0': 0.31, 'time': 27.69, 'compass': -6.12, 'pitch': -2.65, 'roll': 5.0}
{'lipoC2': 8.08, 'temp': 0.0, 'lipoC3S3': 12.0, 'state': 'normal', 'rot1': 77, 'rot0': 64, 'rot3': 104, 'rot2': 146, 'depth': 1.309, 'yaw': -11.14, 'datetime': '2018-12-12 10:40:44.135037', 'mgs': 0, 'flw2': 0.0, 'flw1': 3.63, 'flw0': 0.22, 'time': 27.9, 'compass': -6.42, 'pitch': -2.92, 'roll': 4.97}
{'lipoC2': 8.08, 'temp': 0.0, 'lipoC3S3': 11.93, 'state': 'normal', 'rot1': 77, 'rot0': 64, 'rot3': 104, 'rot2': 147, 'depth': 1.92, 'yaw': -11.58, 'datetime': '2018-12-12 10:40:44.346321', 'mgs': 0, 'flw2': 0.2, 'flw1': 2.61, 'flw0': 0.2, 'time': 28.11, 'compass': -6.85, 'pitch': -2.92, 'roll': 5.2}
{'lipoC2': 8.15, 'temp': 0.0, 'lipoC3S3': 11.96, 'state': 'normal', 'rot1': 77, 'rot0': 64, 'rot3': 105, 'rot2': 149, 'depth': 1.996, 'yaw': -12.12, 'datetime': '2018-12-12 10:40:44.557484', 'mgs': 0, 'flw2': 0.0, 'flw1': 2.61, 'flw0': 0.0, 'time': 28.32, 'compass': -7.4, 'pitch': -3.37, 'roll': 5.56}
{'lipoC2': 8.36, 'temp': 0.0, 'lipoC3S3': 12.14, 'state': 'normal', 'rot1': 77, 'rot0': 64, 'rot3': 106, 'rot2': 150, 'depth': 0.775, 'yaw': -12.74, 'datetime': '2018-12-12 10:40:44.766029', 'mgs': 0, 'flw2': 0.0, 'flw1': 3.87, 'flw0': 0.0, 'time': 28.53, 'compass': -8.02, 'pitch': -3.8, 'roll': 5.94}
{'lipoC2': 8.23, 'temp': 0.0, 'lipoC3S3': 12.1, 'state': 'normal', 'rot1': 77, 'rot0': 64, 'rot3': 107, 'rot2': 151, 'depth': -1.361, 'yaw': -13.34, 'datetime': '2018-12-12 10:40:44.977225', 'mgs': 0, 'flw2': 0.34, 'flw1': 3.57, 'flw0': 0.35, 'time': 28.74, 'compass': -8.62, 'pitch': -3.64, 'roll': 6.21}
{'lipoC2': 8.07, 'temp': 0.0, 'lipoC3S3': 12.02, 'state': 'normal', 'rot1': 79, 'rot0': 65, 'rot3': 107, 'rot2': 152, 'depth': 1.385, 'yaw': -13.35, 'datetime': '2018-12-12 10:40:45.188051', 'mgs': 0, 'flw2': 0.23, 'flw1': 3.54, 'flw0': 0.24, 'time': 28.95, 'compass': -8.62, 'pitch': -3.1, 'roll': 6.33}
{'lipoC2': 8.06, 'temp': 0.0, 'lipoC3S3': 12.09, 'state': 'normal', 'rot1': 80, 'rot0': 66, 'rot3': 108, 'rot2': 153, 'depth': -0.446, 'yaw': -12.66, 'datetime': '2018-12-12 10:40:45.398013', 'mgs': 0, 'flw2': 0.12, 'flw1': 2.96, 'flw0': 0.12, 'time': 29.16, 'compass': -7.94, 'pitch': -2.64, 'roll': 6.62}
{'lipoC2': 8.33, 'temp': 0.0, 'lipoC3S3': 12.12, 'state': 'normal', 'rot1': 80, 'rot0': 66, 'rot3': 109, 'rot2': 154, 'depth': -0.446, 'yaw': -11.76, 'datetime': '2018-12-12 10:40:45.609077', 'mgs': 0, 'flw2': 0.0, 'flw1': 2.84, 'flw0': 0.0, 'time': 29.37, 'compass': -7.03, 'pitch': -2.48, 'roll': 6.83}
{'lipoC2': 8.06, 'temp': 0.0, 'lipoC3S3': 12.13, 'state': 'normal', 'rot1': 80, 'rot0': 66, 'rot3': 110, 'rot2': 155, 'depth': -0.827, 'yaw': -11.17, 'datetime': '2018-12-12 10:40:45.818839', 'mgs': 0, 'flw2': 0.0, 'flw1': 3.69, 'flw0': 0.0, 'time': 29.58, 'compass': -6.45, 'pitch': -2.47, 'roll': 6.59}
{'lipoC2': 8.07, 'temp': 0.0, 'lipoC3S3': 12.47, 'state': 'normal', 'rot1': 80, 'rot0': 66, 'rot3': 111, 'rot2': 156, 'depth': -0.98, 'yaw': -10.85, 'datetime': '2018-12-12 10:40:46.028399', 'mgs': 0, 'flw2': 0.0, 'flw1': 3.25, 'flw0': 0.0, 'time': 29.79, 'compass': -6.13, 'pitch': -2.16, 'roll': 5.97}
{'lipoC2': 8.11, 'temp': 0.0, 'lipoC3S3': 12.0, 'state': 'normal', 'rot1': 80, 'rot0': 66, 'rot3': 111, 'rot2': 157, 'depth': 2.072, 'yaw': -10.74, 'datetime': '2018-12-12 10:40:46.238349', 'mgs': 0, 'flw2': 0.0, 'flw1': 3.28, 'flw0': 0.0, 'time': 30.0, 'compass': -6.02, 'pitch': -2.0, 'roll': 5.21}
{'lipoC2': 8.02, 'temp': 0.0, 'lipoC3S3': 12.45, 'state': 'normal', 'rot1': 80, 'rot0': 66, 'rot3': 112, 'rot2': 158, 'depth': 0.47, 'yaw': -10.75, 'datetime': '2018-12-12 10:40:46.448037', 'mgs': 0, 'flw2': 0.0, 'flw1': 3.22, 'flw0': 0.0, 'time': 30.21, 'compass': -6.03, 'pitch': -2.05, 'roll': 4.65}
{'lipoC2': 8.15, 'temp': 0.0, 'lipoC3S3': 12.01, 'state': 'normal', 'rot1': 80, 'rot0': 66, 'rot3': 113, 'rot2': 160, 'depth': -0.369, 'yaw': -10.96, 'datetime': '2018-12-12 10:40:46.658573', 'mgs': 0, 'flw2': 0.0, 'flw1': 2.52, 'flw0': 0.0, 'time': 30.42, 'compass': -6.24, 'pitch': -2.41, 'roll': 4.53}
{'lipoC2': 8.31, 'temp': 0.0, 'lipoC3S3': 12.08, 'state': 'normal', 'rot1': 80, 'rot0': 66, 'rot3': 114, 'rot2': 161, 'depth': -0.293, 'yaw': -11.3, 'datetime': '2018-12-12 10:40:46.869739', 'mgs': 0, 'flw2': 0.0, 'flw1': 3.49, 'flw0': 0.0, 'time': 30.63, 'compass': -6.58, 'pitch': -2.94, 'roll': 4.91}
{'lipoC2': 8.13, 'temp': 0.0, 'lipoC3S3': 12.22, 'state': 'normal', 'rot1': 80, 'rot0': 66, 'rot3': 115, 'rot2': 162, 'depth': -0.598, 'yaw': -11.78, 'datetime': '2018-12-12 10:40:47.078171', 'mgs': 0, 'flw2': 0.29, 'flw1': 2.93, 'flw0': 0.31, 'time': 30.84, 'compass': -7.06, 'pitch': -3.16, 'roll': 5.34}
{'lipoC2': 8.02, 'temp': 0.0, 'lipoC3S3': 12.45, 'state': 'normal', 'rot1': 80, 'rot0': 66, 'rot3': 115, 'rot2': 163, 'depth': 0.394, 'yaw': -12.35, 'datetime': '2018-12-12 10:40:47.288213', 'mgs': 0, 'flw2': 0.04, 'flw1': 2.23, 'flw0': 0.01, 'time': 31.05, 'compass': -7.63, 'pitch': -3.17, 'roll': 5.41}
{'lipoC2': 8.23, 'temp': 0.0, 'lipoC3S3': 12.12, 'state': 'normal', 'rot1': 80, 'rot0': 66, 'rot3': 116, 'rot2': 164, 'depth': 1.462, 'yaw': -13.01, 'datetime': '2018-12-12 10:40:47.498780', 'mgs': 0, 'flw2': 0.0, 'flw1': 3.49, 'flw0': 0.0, 'time': 31.26, 'compass': -8.29, 'pitch': -3.45, 'roll': 5.42}
{'lipoC2': 8.35, 'temp': 0.0, 'lipoC3S3': 12.12, 'state': 'normal', 'rot1': 81, 'rot0': 67, 'rot3': 117, 'rot2': 165, 'depth': 0.012, 'yaw': -13.46, 'datetime': '2018-12-12 10:40:47.708585', 'mgs': 0, 'flw2': 0.2, 'flw1': 3.25, 'flw0': 0.17, 'time': 31.47, 'compass': -8.73, 'pitch': -3.79, 'roll': 5.8}
{'lipoC2': 8.09, 'temp': 0.0, 'lipoC3S3': 12.38, 'state': 'normal', 'rot1': 82, 'rot0': 68, 'rot3': 118, 'rot2': 166, 'depth': -0.674, 'yaw': -13.23, 'datetime': '2018-12-12 10:40:47.920190', 'mgs': 0, 'flw2': 0.17, 'flw1': 2.52, 'flw0': 0.1, 'time': 31.68, 'compass': -8.51, 'pitch': -3.47, 'roll': 6.38}
{'lipoC2': 8.02, 'temp': 0.0, 'lipoC3S3': 12.47, 'state': 'normal', 'rot1': 83, 'rot0': 69, 'rot3': 119, 'rot2': 167, 'depth': -0.674, 'yaw': -12.45, 'datetime': '2018-12-12 10:40:48.131157', 'mgs': 0, 'flw2': 0.0, 'flw1': 3.66, 'flw0': 0.0, 'time': 31.89, 'compass': -7.72, 'pitch': -2.81, 'roll': 6.66}
{'lipoC2': 8.31, 'temp': 0.0, 'lipoC3S3': 12.13, 'state': 'normal', 'rot1': 83, 'rot0': 69, 'rot3': 119, 'rot2': 168, 'depth': -0.369, 'yaw': -11.82, 'datetime': '2018-12-12 10:40:48.340488', 'mgs': 0, 'flw2': 0.0, 'flw1': 3.54, 'flw0': 0.0, 'time': 32.1, 'compass': -7.09, 'pitch': -2.37, 'roll': 6.41}
{'lipoC2': 8.36, 'temp': 0.0, 'lipoC3S3': 12.14, 'state': 'normal', 'rot1': 83, 'rot0': 69, 'rot3': 120, 'rot2': 169, 'depth': 0.317, 'yaw': -11.39, 'datetime': '2018-12-12 10:40:48.550462', 'mgs': 0, 'flw2': 0.0, 'flw1': 3.72, 'flw0': 0.0, 'time': 32.31, 'compass': -6.67, 'pitch': -2.05, 'roll': 5.95}
{'lipoC2': 8.13, 'temp': 0.0, 'lipoC3S3': 12.01, 'state': 'normal', 'rot1': 83, 'rot0': 69, 'rot3': 121, 'rot2': 171, 'depth': 2.148, 'yaw': -11.2, 'datetime': '2018-12-12 10:40:48.760420', 'mgs': 0, 'flw2': 0.0, 'flw1': 2.17, 'flw0': 0.0, 'time': 32.52, 'compass': -6.47, 'pitch': -2.11, 'roll': 5.66}
{'lipoC2': 8.36, 'temp': 0.0, 'lipoC3S3': 12.13, 'state': 'normal', 'rot1': 83, 'rot0': 69, 'rot3': 122, 'rot2': 172, 'depth': -0.903, 'yaw': -11.19, 'datetime': '2018-12-12 10:40:48.970425', 'mgs': 0, 'flw2': 0.0, 'flw1': 3.69, 'flw0': 0.0, 'time': 32.73, 'compass': -6.47, 'pitch': -2.43, 'roll': 5.65}
{'lipoC2': 8.21, 'temp': 0.0, 'lipoC3S3': 12.16, 'state': 'normal', 'rot1': 83, 'rot0': 69, 'rot3': 123, 'rot2': 173, 'depth': -0.98, 'yaw': -11.3, 'datetime': '2018-12-12 10:40:49.181499', 'mgs': 0, 'flw2': 0.29, 'flw1': 2.58, 'flw0': 0.28, 'time': 32.94, 'compass': -6.58, 'pitch': -2.58, 'roll': 5.78}
{'lipoC2': 8.1, 'temp': 0.0, 'lipoC3S3': 11.97, 'state': 'normal', 'rot1': 83, 'rot0': 69, 'rot3': 123, 'rot2': 174, 'depth': -0.598, 'yaw': -11.56, 'datetime': '2018-12-12 10:40:49.392731', 'mgs': 0, 'flw2': 0.24, 'flw1': 2.46, 'flw0': 0.0, 'time': 33.15, 'compass': -6.84, 'pitch': -2.8, 'roll': 5.95}
{'lipoC2': 8.35, 'temp': 0.0, 'lipoC3S3': 12.16, 'state': 'normal', 'rot1': 83, 'rot0': 69, 'rot3': 124, 'rot2': 175, 'depth': 0.089, 'yaw': -11.97, 'datetime': '2018-12-12 10:40:49.601517', 'mgs': 0, 'flw2': 0.27, 'flw1': 2.55, 'flw0': 0.0, 'time': 33.36, 'compass': -7.25, 'pitch': -3.1, 'roll': 5.93}
{'lipoC2': 8.29, 'temp': 0.0, 'lipoC3S3': 12.12, 'state': 'normal', 'rot1': 83, 'rot0': 69, 'rot3': 125, 'rot2': 176, 'depth': -1.514, 'yaw': -12.5, 'datetime': '2018-12-12 10:40:49.812231', 'mgs': 0, 'flw2': 0.0, 'flw1': 3.19, 'flw0': 0.0, 'time': 33.57, 'compass': -7.77, 'pitch': -3.44, 'roll': 5.96}
{'lipoC2': 8.04, 'temp': 0.0, 'lipoC3S3': 12.35, 'state': 'normal', 'rot1': 83, 'rot0': 69, 'rot3': 126, 'rot2': 177, 'depth': -0.522, 'yaw': -13.1, 'datetime': '2018-12-12 10:40:50.021841', 'mgs': 0, 'flw2': 0.22, 'flw1': 2.43, 'flw0': 0.2, 'time': 33.78, 'compass': -8.38, 'pitch': -3.83, 'roll': 6.12}
{'lipoC2': 8.33, 'temp': 0.0, 'lipoC3S3': 12.13, 'state': 'normal', 'rot1': 83, 'rot0': 69, 'rot3': 127, 'rot2': 178, 'depth': 0.699, 'yaw': -13.68, 'datetime': '2018-12-12 10:40:50.232900', 'mgs': 0, 'flw2': 0.37, 'flw1': 3.57, 'flw0': 0.37, 'time': 33.99, 'compass': -8.96, 'pitch': -3.89, 'roll': 6.1}
{'lipoC2': 8.08, 'temp': 0.0, 'lipoC3S3': 12.0, 'state': 'normal', 'rot1': 84, 'rot0': 70, 'rot3': 127, 'rot2': 179, 'depth': 1.538, 'yaw': -13.75, 'datetime': '2018-12-12 10:40:50.443458', 'mgs': 0, 'flw2': 0.43, 'flw1': 2.4, 'flw0': 0.45, 'time': 34.2, 'compass': -9.03, 'pitch': -3.43, 'roll': 5.94}
{'lipoC2': 8.17, 'temp': 0.0, 'lipoC3S3': 12.21, 'state': 'normal', 'rot1': 85, 'rot0': 71, 'rot3': 128, 'rot2': 180, 'depth': 1.843, 'yaw': -13.09, 'datetime': '2018-12-12 10:40:50.652703', 'mgs': 0, 'flw2': 0.61, 'flw1': 2.61, 'flw0': 0.63, 'time': 34.41, 'compass': -8.37, 'pitch': -2.93, 'roll': 5.77}
{'lipoC2': 8.09, 'temp': 0.0, 'lipoC3S3': 12.35, 'state': 'normal', 'rot1': 86, 'rot0': 72, 'rot3': 129, 'rot2': 182, 'depth': -1.285, 'yaw': -11.93, 'datetime': '2018-12-12 10:40:50.863103', 'mgs': 0, 'flw2': 0.0, 'flw1': 3.63, 'flw0': 0.0, 'time': 34.62, 'compass': -7.21, 'pitch': -2.6, 'roll': 5.86}
{'lipoC2': 8.19, 'temp': 0.0, 'lipoC3S3': 12.13, 'state': 'normal', 'rot1': 86, 'rot0': 72, 'rot3': 130, 'rot2': 183, 'depth': -1.285, 'yaw': -11.0, 'datetime': '2018-12-12 10:40:51.072324', 'mgs': 0, 'flw2': 0.29, 'flw1': 2.43, 'flw0': 0.29, 'time': 34.83, 'compass': -6.28, 'pitch': -2.21, 'roll': 5.81}
{'lipoC2': 8.04, 'temp': 0.0, 'lipoC3S3': 12.46, 'state': 'normal', 'rot1': 86, 'rot0': 72, 'rot3': 130, 'rot2': 184, 'depth': -0.827, 'yaw': -10.37, 'datetime': '2018-12-12 10:40:51.283180', 'mgs': 0, 'flw2': 0.07, 'flw1': 2.17, 'flw0': 0.05, 'time': 35.04, 'compass': -5.64, 'pitch': -1.71, 'roll': 5.44}
{'lipoC2': 8.3, 'temp': 0.0, 'lipoC3S3': 12.13, 'state': 'normal', 'rot1': 86, 'rot0': 72, 'rot3': 131, 'rot2': 185, 'depth': -1.437, 'yaw': -9.91, 'datetime': '2018-12-12 10:40:51.498972', 'mgs': 0, 'flw2': 0.0, 'flw1': 3.49, 'flw0': 0.0, 'time': 35.25, 'compass': -5.19, 'pitch': -1.45, 'roll': 5.29}
{'lipoC2': 8.31, 'temp': 0.0, 'lipoC3S3': 12.13, 'state': 'normal', 'rot1': 86, 'rot0': 72, 'rot3': 132, 'rot2': 186, 'depth': -0.217, 'yaw': -9.67, 'datetime': '2018-12-12 10:40:51.810635', 'mgs': 0, 'flw2': 0.0, 'flw1': 3.63, 'flw0': 0.0, 'time': 35.56, 'compass': -4.94, 'pitch': -1.84, 'roll': 5.54}
{'lipoC2': 8.21, 'temp': 0.0, 'lipoC3S3': 12.06, 'state': 'normal', 'rot1': 86, 'rot0': 72, 'rot3': 133, 'rot2': 188, 'depth': 1.691, 'yaw': -9.67, 'datetime': '2018-12-12 10:40:52.025101', 'mgs': 0, 'flw2': 0.0, 'flw1': 3.69, 'flw0': 0.0, 'time': 35.77, 'compass': -4.94, 'pitch': -2.45, 'roll': 5.49}
{'lipoC2': 8.02, 'temp': 0.0, 'lipoC3S3': 12.5, 'state': 'normal', 'rot1': 86, 'rot0': 72, 'rot3': 134, 'rot2': 189, 'depth': -0.903, 'yaw': -9.9, 'datetime': '2018-12-12 10:40:52.235709', 'mgs': 0, 'flw2': 0.11, 'flw1': 2.67, 'flw0': 0.05, 'time': 35.98, 'compass': -5.17, 'pitch': -2.88, 'roll': 5.2}
{'lipoC2': 8.25, 'temp': 0.0, 'lipoC3S3': 12.09, 'state': 'normal', 'rot1': 86, 'rot0': 72, 'rot3': 134, 'rot2': 190, 'depth': 0.775, 'yaw': -10.24, 'datetime': '2018-12-12 10:40:52.446262', 'mgs': 0, 'flw2': 0.0, 'flw1': 3.46, 'flw0': 0.0, 'time': 36.19, 'compass': -5.52, 'pitch': -2.97, 'roll': 4.97}
{'lipoC2': 8.08, 'temp': 0.0, 'lipoC3S3': 11.97, 'state': 'normal', 'rot1': 86, 'rot0': 72, 'rot3': 135, 'rot2': 191, 'depth': 2.072, 'yaw': -10.69, 'datetime': '2018-12-12 10:40:52.654487', 'mgs': 0, 'flw2': 0.17, 'flw1': 2.49, 'flw0': 0.18, 'time': 36.4, 'compass': -5.97, 'pitch': -2.76, 'roll': 4.99}
{'lipoC2': 8.27, 'temp': 0.0, 'lipoC3S3': 12.13, 'state': 'normal', 'rot1': 86, 'rot0': 72, 'rot3': 136, 'rot2': 192, 'depth': -1.514, 'yaw': -11.2, 'datetime': '2018-12-12 10:40:52.863674', 'mgs': 0, 'flw2': 0.0, 'flw1': 2.9, 'flw0': 0.0, 'time': 36.61, 'compass': -6.48, 'pitch': -2.74, 'roll': 5.19}
{'lipoC2': 8.36, 'temp': 0.0, 'lipoC3S3': 12.13, 'state': 'normal', 'rot1': 86, 'rot0': 72, 'rot3': 137, 'rot2': 193, 'depth': 0.928, 'yaw': -11.78, 'datetime': '2018-12-12 10:40:53.076868', 'mgs': 0, 'flw2': 0.0, 'flw1': 3.6, 'flw0': 0.0, 'time': 36.82, 'compass': -7.05, 'pitch': -2.79, 'roll': 5.35}
{'lipoC2': 8.07, 'temp': 0.0, 'lipoC3S3': 12.04, 'state': 'normal', 'rot1': 86, 'rot0': 72, 'rot3': 138, 'rot2': 194, 'depth': 1.614, 'yaw': -12.43, 'datetime': '2018-12-12 10:40:53.285214', 'mgs': 0, 'flw2': 0.0, 'flw1': 3.43, 'flw0': 0.0, 'time': 37.03, 'compass': -7.71, 'pitch': -2.8, 'roll': 5.28}
{'lipoC2': 8.02, 'temp': 0.0, 'lipoC3S3': 12.42, 'state': 'normal', 'rot1': 86, 'rot0': 72, 'rot3': 138, 'rot2': 195, 'depth': -0.598, 'yaw': -13.08, 'datetime': '2018-12-12 10:40:53.494240', 'mgs': 0, 'flw2': 0.13, 'flw1': 2.26, 'flw0': 0.0, 'time': 37.24, 'compass': -8.35, 'pitch': -3.07, 'roll': 4.95}
{'lipoC2': 8.23, 'temp': 0.0, 'lipoC3S3': 12.13, 'state': 'normal', 'rot1': 87, 'rot0': 72, 'rot3': 139, 'rot2': 196, 'depth': 1.92, 'yaw': -13.54, 'datetime': '2018-12-12 10:40:53.704626', 'mgs': 0, 'flw2': 0.24, 'flw1': 3.49, 'flw0': 0.27, 'time': 37.45, 'compass': -8.82, 'pitch': -3.49, 'roll': 4.8}
{'lipoC2': 8.25, 'temp': 0.0, 'lipoC3S3': 12.08, 'state': 'normal', 'rot1': 88, 'rot0': 73, 'rot3': 140, 'rot2': 197, 'depth': 1.309, 'yaw': -13.19, 'datetime': '2018-12-12 10:40:53.916062', 'mgs': 0, 'flw2': 0.21, 'flw1': 2.75, 'flw0': 0.2, 'time': 37.66, 'compass': -8.47, 'pitch': -3.1, 'roll': 5.1}
{'lipoC2': 8.02, 'temp': 0.0, 'lipoC3S3': 12.41, 'state': 'normal', 'rot1': 89, 'rot0': 74, 'rot3': 141, 'rot2': 198, 'depth': -0.14, 'yaw': -12.21, 'datetime': '2018-12-12 10:40:54.124217', 'mgs': 0, 'flw2': 0.23, 'flw1': 2.46, 'flw0': 0.2, 'time': 37.87, 'compass': -7.49, 'pitch': -1.87, 'roll': 5.48}
{'lipoC2': 8.08, 'temp': 0.0, 'lipoC3S3': 12.41, 'state': 'normal', 'rot1': 89, 'rot0': 74, 'rot3': 142, 'rot2': 200, 'depth': -0.293, 'yaw': -11.47, 'datetime': '2018-12-12 10:40:54.337741', 'mgs': 0, 'flw2': 0.0, 'flw1': 3.75, 'flw0': 0.0, 'time': 38.08, 'compass': -6.75, 'pitch': -1.22, 'roll': 5.54}
{'lipoC2': 8.08, 'temp': 0.0, 'lipoC3S3': 11.98, 'state': 'normal', 'rot1': 89, 'rot0': 74, 'rot3': 142, 'rot2': 201, 'depth': 1.691, 'yaw': -11.0, 'datetime': '2018-12-12 10:40:54.546273', 'mgs': 0, 'flw2': 0.16, 'flw1': 2.55, 'flw0': 0.18, 'time': 38.29, 'compass': -6.28, 'pitch': -1.67, 'roll': 5.47}
{'lipoC2': 8.01, 'temp': 0.0, 'lipoC3S3': 12.42, 'state': 'normal', 'rot1': 89, 'rot0': 74, 'rot3': 143, 'rot2': 202, 'depth': 0.317, 'yaw': -10.86, 'datetime': '2018-12-12 10:40:54.759454', 'mgs': 0, 'flw2': 0.09, 'flw1': 2.26, 'flw0': 0.0, 'time': 38.51, 'compass': -6.14, 'pitch': -2.21, 'roll': 5.32}
{'lipoC2': 8.02, 'temp': 0.0, 'lipoC3S3': 12.47, 'state': 'normal', 'rot1': 89, 'rot0': 74, 'rot3': 144, 'rot2': 203, 'depth': -0.064, 'yaw': -10.86, 'datetime': '2018-12-12 10:40:54.967350', 'mgs': 0, 'flw2': 0.26, 'flw1': 2.43, 'flw0': 0.0, 'time': 38.72, 'compass': -6.14, 'pitch': -1.94, 'roll': 4.89}
{'lipoC2': 8.29, 'temp': 0.0, 'lipoC3S3': 12.1, 'state': 'normal', 'rot1': 89, 'rot0': 74, 'rot3': 145, 'rot2': 204, 'depth': -1.514, 'yaw': -11.08, 'datetime': '2018-12-12 10:40:55.182115', 'mgs': 0, 'flw2': 0.0, 'flw1': 2.72, 'flw0': 0.0, 'time': 38.92, 'compass': -6.36, 'pitch': -1.51, 'roll': 4.65}
{'lipoC2': 8.31, 'temp': 0.0, 'lipoC3S3': 12.14, 'state': 'normal', 'rot1': 89, 'rot0': 74, 'rot3': 146, 'rot2': 205, 'depth': -0.369, 'yaw': -11.5, 'datetime': '2018-12-12 10:40:55.386892', 'mgs': 0, 'flw2': 0.12, 'flw1': 2.26, 'flw0': 0.04, 'time': 39.13, 'compass': -6.78, 'pitch': -1.76, 'roll': 4.67}
{'lipoC2': 8.16, 'temp': 0.0, 'lipoC3S3': 12.18, 'state': 'normal', 'rot1': 89, 'rot0': 74, 'rot3': 146, 'rot2': 206, 'depth': -1.132, 'yaw': -11.99, 'datetime': '2018-12-12 10:40:55.600268', 'mgs': 0, 'flw2': 0.0, 'flw1': 2.17, 'flw0': 0.0, 'time': 39.34, 'compass': -7.27, 'pitch': -2.21, 'roll': 4.65}
{'lipoC2': 8.15, 'temp': 0.0, 'lipoC3S3': 12.21, 'state': 'normal', 'rot1': 89, 'rot0': 74, 'rot3': 147, 'rot2': 207, 'depth': -0.674, 'yaw': -12.52, 'datetime': '2018-12-12 10:40:55.809561', 'mgs': 0, 'flw2': 0.32, 'flw1': 2.84, 'flw0': 0.31, 'time': 39.55, 'compass': -7.8, 'pitch': -2.31, 'roll': 4.97}
{'lipoC2': 8.08, 'temp': 0.0, 'lipoC3S3': 12.13, 'state': 'normal', 'rot1': 89, 'rot0': 74, 'rot3': 148, 'rot2': 208, 'depth': 0.546, 'yaw': -13.09, 'datetime': '2018-12-12 10:40:56.018515', 'mgs': 0, 'flw2': 0.32, 'flw1': 2.64, 'flw0': 0.33, 'time': 39.76, 'compass': -8.37, 'pitch': -2.37, 'roll': 5.38}
{'lipoC2': 8.34, 'temp': 0.0, 'lipoC3S3': 12.05, 'state': 'normal', 'rot1': 89, 'rot0': 74, 'rot3': 149, 'rot2': 209, 'depth': 0.47, 'yaw': -13.73, 'datetime': '2018-12-12 10:40:56.232166', 'mgs': 0, 'flw2': 0.72, 'flw1': 2.55, 'flw0': 0.7, 'time': 39.97, 'compass': -9.0, 'pitch': -2.51, 'roll': 5.24}
{'lipoC2': 8.34, 'temp': 0.0, 'lipoC3S3': 12.14, 'state': 'normal', 'rot1': 90, 'rot0': 76, 'rot3': 149, 'rot2': 211, 'depth': 0.012, 'yaw': -13.84, 'datetime': '2018-12-12 10:40:56.440915', 'mgs': 0, 'flw2': 0.26, 'flw1': 3.78, 'flw0': 0.2, 'time': 40.18, 'compass': -9.12, 'pitch': -2.8, 'roll': 5.06}
{'lipoC2': 8.25, 'temp': 0.0, 'lipoC3S3': 12.08, 'state': 'normal', 'rot1': 91, 'rot0': 76, 'rot3': 150, 'rot2': 212, 'depth': 1.385, 'yaw': -13.17, 'datetime': '2018-12-12 10:40:56.650569', 'mgs': 0, 'flw2': 0.44, 'flw1': 2.26, 'flw0': 0.34, 'time': 40.39, 'compass': -8.45, 'pitch': -2.7, 'roll': 5.39}
{'lipoC2': 8.36, 'temp': 0.0, 'lipoC3S3': 12.12, 'state': 'normal', 'rot1': 92, 'rot0': 77, 'rot3': 151, 'rot2': 213, 'depth': -1.056, 'yaw': -11.98, 'datetime': '2018-12-12 10:40:56.858389', 'mgs': 0, 'flw2': 0.0, 'flw1': 3.22, 'flw0': 0.0, 'time': 40.6, 'compass': -7.26, 'pitch': -2.28, 'roll': 5.8}
{'lipoC2': 8.35, 'temp': 0.0, 'lipoC3S3': 12.1, 'state': 'normal', 'rot1': 93, 'rot0': 77, 'rot3': 152, 'rot2': 214, 'depth': -0.827, 'yaw': -10.93, 'datetime': '2018-12-12 10:40:57.072199', 'mgs': 0, 'flw2': 0.13, 'flw1': 2.43, 'flw0': 0.04, 'time': 40.81, 'compass': -6.21, 'pitch': -2.06, 'roll': 5.57}
{'lipoC2': 8.04, 'temp': 0.0, 'lipoC3S3': 12.5, 'state': 'normal', 'rot1': 93, 'rot0': 77, 'rot3': 153, 'rot2': 215, 'depth': -0.751, 'yaw': -10.08, 'datetime': '2018-12-12 10:40:57.284240', 'mgs': 0, 'flw2': 0.0, 'flw1': 2.78, 'flw0': 0.01, 'time': 41.02, 'compass': -5.36, 'pitch': -1.93, 'roll': 5.16}
{'lipoC2': 8.04, 'temp': 0.0, 'lipoC3S3': 12.45, 'state': 'normal', 'rot1': 93, 'rot0': 77, 'rot3': 153, 'rot2': 216, 'depth': -0.369, 'yaw': -9.39, 'datetime': '2018-12-12 10:40:57.490728', 'mgs': 0, 'flw2': 0.22, 'flw1': 2.34, 'flw0': 0.0, 'time': 41.23, 'compass': -4.67, 'pitch': -1.46, 'roll': 5.0}
{'lipoC2': 8.16, 'temp': 0.0, 'lipoC3S3': 12.19, 'state': 'normal', 'rot1': 93, 'rot0': 77, 'rot3': 154, 'rot2': 217, 'depth': -0.827, 'yaw': -8.82, 'datetime': '2018-12-12 10:40:57.705156', 'mgs': 0, 'flw2': 0.29, 'flw1': 2.87, 'flw0': 0.32, 'time': 41.44, 'compass': -4.1, 'pitch': -1.16, 'roll': 4.68}
{'lipoC2': 8.08, 'temp': 0.0, 'lipoC3S3': 11.97, 'state': 'normal', 'rot1': 93, 'rot0': 77, 'rot3': 155, 'rot2': 218, 'depth': -0.369, 'yaw': -8.45, 'datetime': '2018-12-12 10:40:57.911237', 'mgs': 0, 'flw2': 0.29, 'flw1': 2.61, 'flw0': 0.27, 'time': 41.65, 'compass': -3.73, 'pitch': -1.56, 'roll': 4.19}
{'lipoC2': 8.21, 'temp': 0.0, 'lipoC3S3': 12.17, 'state': 'normal', 'rot1': 93, 'rot0': 77, 'rot3': 156, 'rot2': 219, 'depth': -0.827, 'yaw': -8.23, 'datetime': '2018-12-12 10:40:58.124931', 'mgs': 0, 'flw2': 0.0, 'flw1': 2.72, 'flw0': 0.0, 'time': 41.86, 'compass': -3.51, 'pitch': -2.25, 'roll': 4.03}
{'lipoC2': 8.02, 'temp': 0.0, 'lipoC3S3': 12.45, 'state': 'normal', 'rot1': 93, 'rot0': 77, 'rot3': 156, 'rot2': 220, 'depth': -0.522, 'yaw': -8.21, 'datetime': '2018-12-12 10:40:58.335768', 'mgs': 0, 'flw2': 0.16, 'flw1': 2.23, 'flw0': 0.0, 'time': 42.07, 'compass': -3.48, 'pitch': -2.39, 'roll': 3.9}
{'lipoC2': 8.02, 'temp': 0.0, 'lipoC3S3': 12.48, 'state': 'normal', 'rot1': 93, 'rot0': 77, 'rot3': 157, 'rot2': 222, 'depth': -0.674, 'yaw': -8.2, 'datetime': '2018-12-12 10:40:58.540312', 'mgs': 0, 'flw2': 0.24, 'flw1': 2.55, 'flw0': 0.0, 'time': 42.28, 'compass': -3.48, 'pitch': -2.03, 'roll': 3.81}
{'lipoC2': 8.02, 'temp': 0.0, 'lipoC3S3': 12.46, 'state': 'normal', 'rot1': 93, 'rot0': 77, 'rot3': 158, 'rot2': 223, 'depth': 0.623, 'yaw': -8.2, 'datetime': '2018-12-12 10:40:58.755150', 'mgs': 0, 'flw2': 0.07, 'flw1': 2.67, 'flw0': 0.1, 'time': 42.49, 'compass': -3.48, 'pitch': -1.88, 'roll': 3.99}
