{'lipoC2': 0.0, 'temp': 0.0, 'lipoC3S3': 12.64, 'state': 'normal', 'rot1': 0, 'rot0': 0, 'rot3': 0, 'rot2': 0, 'depth': 1.309, 'yaw': 0.0, 'datetime': '2018-12-18 17:02:18.249128', 'mgs': 0, 'flw2': 0.0, 'flw1': 0.26, 'flw0': 0.15, 'time': 1.25, 'compass': -92.26, 'pitch': 1.77, 'roll': 2.34}
{'lipoC2': 0.06, 'temp': 0.0, 'lipoC3S3': 12.29, 'state': 'normal', 'rot1': 0, 'rot0': 0, 'rot3': 0, 'rot2': 0, 'depth': 1.157, 'yaw': 0.2, 'datetime': '2018-12-18 17:02:18.457000', 'mgs': 0, 'flw2': 0.17, 'flw1': 0.15, 'flw0': 0.0, 'time': 1.46, 'compass': -92.06, 'pitch': 1.46, 'roll': 2.55}
{'lipoC2': 0.14, 'temp': 0.0, 'lipoC3S3': 12.29, 'state': 'normal', 'rot1': 0, 'rot0': 0, 'rot3': 0, 'rot2': 0, 'depth': 0.47, 'yaw': 0.35, 'datetime': '2018-12-18 17:02:18.665262', 'mgs': 0, 'flw2': 0.0, 'flw1': 0.0, 'flw0': 0.2, 'time': 1.67, 'compass': -91.91, 'pitch': 1.16, 'roll': 2.59}
{'lipoC2': 0.05, 'temp': 0.0, 'lipoC3S3': 12.31, 'state': 'normal', 'rot1': 0, 'rot0': 0, 'rot3': 0, 'rot2': 0, 'depth': 0.241, 'yaw': 0.51, 'datetime': '2018-12-18 17:02:18.873433', 'mgs': 0, 'flw2': 0.0, 'flw1': 0.15, 'flw0': 0.17, 'time': 1.88, 'compass': -91.75, 'pitch': 1.31, 'roll': 2.58}
{'lipoC2': 0.0, 'temp': 0.0, 'lipoC3S3': 12.51, 'state': 'normal', 'rot1': 0, 'rot0': 0, 'rot3': 0, 'rot2': 0, 'depth': 1.157, 'yaw': 0.67, 'datetime': '2018-12-18 17:02:19.080102', 'mgs': 0, 'flw2': 3.66, 'flw1': 0.64, 'flw0': 3.83, 'time': 2.09, 'compass': -91.59, 'pitch': 1.71, 'roll': 2.58}
{'lipoC2': 0.0, 'temp': 0.0, 'lipoC3S3': 12.54, 'state': 'normal', 'rot1': 3, 'rot0': 2, 'rot3': 0, 'rot2': 0, 'depth': -0.369, 'yaw': 3.71, 'datetime': '2018-12-18 17:02:19.289792', 'mgs': 0, 'flw2': 2.73, 'flw1': 0.64, 'flw0': 3.15, 'time': 2.3, 'compass': -88.54, 'pitch': 2.25, 'roll': 3.09}
{'lipoC2': 0.15, 'temp': 0.0, 'lipoC3S3': 12.29, 'state': 'normal', 'rot1': 6, 'rot0': 5, 'rot3': 0, 'rot2': 0, 'depth': 0.851, 'yaw': 10.98, 'datetime': '2018-12-18 17:02:19.497823', 'mgs': 0, 'flw2': 2.48, 'flw1': 0.0, 'flw0': 2.6, 'time': 2.5, 'compass': -81.28, 'pitch': 2.93, 'roll': 4.07}
{'lipoC2': 0.06, 'temp': 0.0, 'lipoC3S3': 12.29, 'state': 'normal', 'rot1': 9, 'rot0': 7, 'rot3': 0, 'rot2': 0, 'depth': 1.385, 'yaw': 21.27, 'datetime': '2018-12-18 17:02:19.706784', 'mgs': 0, 'flw2': 1.6, 'flw1': 0.12, 'flw0': 2.2, 'time': 2.71, 'compass': -70.98, 'pitch': 3.28, 'roll': 4.64}
{'lipoC2': 0.0, 'temp': 0.0, 'lipoC3S3': 12.58, 'state': 'normal', 'rot1': 11, 'rot0': 10, 'rot3': 0, 'rot2': 0, 'depth': -0.903, 'yaw': 32.38, 'datetime': '2018-12-18 17:02:19.915595', 'mgs': 0, 'flw2': 1.68, 'flw1': 0.0, 'flw0': 1.29, 'time': 2.92, 'compass': -59.88, 'pitch': 3.27, 'roll': 4.43}
{'lipoC2': 0.0, 'temp': 0.0, 'lipoC3S3': 12.62, 'state': 'normal', 'rot1': 13, 'rot0': 12, 'rot3': 0, 'rot2': 0, 'depth': 1.309, 'yaw': 42.75, 'datetime': '2018-12-18 17:02:20.124394', 'mgs': 0, 'flw2': 0.51, 'flw1': 0.29, 'flw0': 0.98, 'time': 3.13, 'compass': -49.51, 'pitch': 3.38, 'roll': 3.51}
{'lipoC2': 0.13, 'temp': 0.0, 'lipoC3S3': 12.5, 'state': 'normal', 'rot1': 15, 'rot0': 13, 'rot3': 0, 'rot2': 0, 'depth': -1.514, 'yaw': 52.67, 'datetime': '2018-12-18 17:02:20.333358', 'mgs': 0, 'flw2': 0.52, 'flw1': 0.47, 'flw0': 0.72, 'time': 3.34, 'compass': -39.59, 'pitch': 3.35, 'roll': 2.2}
{'lipoC2': 0.0, 'temp': 0.0, 'lipoC3S3': 12.35, 'state': 'normal', 'rot1': 16, 'rot0': 14, 'rot3': 0, 'rot2': 0, 'depth': -0.903, 'yaw': 61.75, 'datetime': '2018-12-18 17:02:20.542186', 'mgs': 0, 'flw2': 0.48, 'flw1': 0.29, 'flw0': 0.12, 'time': 3.55, 'compass': -30.51, 'pitch': 2.98, 'roll': 1.55}
{'lipoC2': 0.03, 'temp': 0.0, 'lipoC3S3': 12.31, 'state': 'normal', 'rot1': 17, 'rot0': 15, 'rot3': 0, 'rot2': 0, 'depth': 1.385, 'yaw': 69.98, 'datetime': '2018-12-18 17:02:20.752558', 'mgs': 0, 'flw2': 0.1, 'flw1': 0.03, 'flw0': 0.6, 'time': 3.75, 'compass': -22.28, 'pitch': 2.67, 'roll': 1.45}
{'lipoC2': 0.01, 'temp': 0.0, 'lipoC3S3': 12.35, 'state': 'normal', 'rot1': 18, 'rot0': 16, 'rot3': 0, 'rot2': 0, 'depth': 1.462, 'yaw': 77.3, 'datetime': '2018-12-18 17:02:20.962834', 'mgs': 0, 'flw2': 0.55, 'flw1': 0.0, 'flw0': 0.11, 'time': 3.96, 'compass': -14.96, 'pitch': 2.47, 'roll': 1.45}
{'lipoC2': 0.11, 'temp': 0.0, 'lipoC3S3': 12.27, 'state': 'normal', 'rot1': 20, 'rot0': 17, 'rot3': 0, 'rot2': 0, 'depth': 0.317, 'yaw': 84.66, 'datetime': '2018-12-18 17:02:21.170361', 'mgs': 0, 'flw2': 0.32, 'flw1': 0.0, 'flw0': 0.6, 'time': 4.17, 'compass': -7.6, 'pitch': 2.2, 'roll': 1.44}
{'lipoC2': 0.0, 'temp': 0.0, 'lipoC3S3': 12.71, 'state': 'normal', 'rot1': 20, 'rot0': 17, 'rot3': 0, 'rot2': 0, 'depth': 1.767, 'yaw': 91.5, 'datetime': '2018-12-18 17:02:21.379272', 'mgs': 0, 'flw2': 0.0, 'flw1': 0.0, 'flw0': 0.24, 'time': 4.38, 'compass': -0.75, 'pitch': 1.86, 'roll': 1.36}
{'lipoC2': 0.0, 'temp': 0.0, 'lipoC3S3': 12.42, 'state': 'normal', 'rot1': 20, 'rot0': 17, 'rot3': 0, 'rot2': 0, 'depth': -0.522, 'yaw': 97.26, 'datetime': '2018-12-18 17:02:21.587049', 'mgs': 0, 'flw2': 0.05, 'flw1': 0.0, 'flw0': 0.16, 'time': 4.59, 'compass': 5.0, 'pitch': 1.5, 'roll': 1.11}
{'lipoC2': 0.14, 'temp': 0.0, 'lipoC3S3': 12.31, 'state': 'normal', 'rot1': 20, 'rot0': 18, 'rot3': 0, 'rot2': 0, 'depth': 0.623, 'yaw': 102.59, 'datetime': '2018-12-18 17:02:21.797206', 'mgs': 0, 'flw2': 0.4, 'flw1': 0.0, 'flw0': 0.56, 'time': 4.8, 'compass': 10.33, 'pitch': 1.36, 'roll': 0.53}
{'lipoC2': 0.08, 'temp': 0.0, 'lipoC3S3': 12.29, 'state': 'normal', 'rot1': 21, 'rot0': 19, 'rot3': 0, 'rot2': 0, 'depth': 1.157, 'yaw': 106.66, 'datetime': '2018-12-18 17:02:22.007243', 'mgs': 0, 'flw2': 0.48, 'flw1': 0.23, 'flw0': 0.0, 'time': 5.01, 'compass': 14.4, 'pitch': 1.39, 'roll': -0.07}
{'lipoC2': 0.0, 'temp': 0.0, 'lipoC3S3': 12.55, 'state': 'normal', 'rot1': 23, 'rot0': 20, 'rot3': 0, 'rot2': 0, 'depth': 0.012, 'yaw': 109.78, 'datetime': '2018-12-18 17:02:22.215205', 'mgs': 0, 'flw2': 0.55, 'flw1': 0.0, 'flw0': 0.24, 'time': 5.22, 'compass': 17.53, 'pitch': 1.55, 'roll': -0.08}
{'lipoC2': 0.03, 'temp': 0.0, 'lipoC3S3': 12.31, 'state': 'normal', 'rot1': 24, 'rot0': 21, 'rot3': 0, 'rot2': 0, 'depth': -0.14, 'yaw': 112.11, 'datetime': '2018-12-18 17:02:22.425412', 'mgs': 0, 'flw2': 0.27, 'flw1': 0.0, 'flw0': 0.57, 'time': 5.42, 'compass': 19.85, 'pitch': 1.61, 'roll': 0.34}
{'lipoC2': 0.01, 'temp': 0.0, 'lipoC3S3': 12.6, 'state': 'normal', 'rot1': 25, 'rot0': 22, 'rot3': 0, 'rot2': 0, 'depth': -1.819, 'yaw': 113.64, 'datetime': '2018-12-18 17:02:22.633471', 'mgs': 0, 'flw2': 0.05, 'flw1': 0.38, 'flw0': 0.45, 'time': 5.63, 'compass': 21.39, 'pitch': 1.63, 'roll': 0.78}
{'lipoC2': 0.0, 'temp': 0.0, 'lipoC3S3': 12.71, 'state': 'normal', 'rot1': 26, 'rot0': 23, 'rot3': 0, 'rot2': 0, 'depth': 1.691, 'yaw': 114.59, 'datetime': '2018-12-18 17:02:22.842327', 'mgs': 0, 'flw2': 0.45, 'flw1': 0.35, 'flw0': 0.0, 'time': 5.84, 'compass': 22.33, 'pitch': 1.65, 'roll': 1.08}
{'lipoC2': 0.06, 'temp': 0.0, 'lipoC3S3': 12.29, 'state': 'normal', 'rot1': 27, 'rot0': 24, 'rot3': 0, 'rot2': 0, 'depth': 0.089, 'yaw': 114.83, 'datetime': '2018-12-18 17:02:23.050596', 'mgs': 0, 'flw2': 0.32, 'flw1': 0.0, 'flw0': 0.59, 'time': 6.05, 'compass': 22.57, 'pitch': 1.65, 'roll': 1.13}
{'lipoC2': 0.0, 'temp': 0.0, 'lipoC3S3': 12.37, 'state': 'normal', 'rot1': 29, 'rot0': 25, 'rot3': 0, 'rot2': 0, 'depth': 1.233, 'yaw': 114.48, 'datetime': '2018-12-18 17:02:23.261844', 'mgs': 0, 'flw2': 0.4, 'flw1': 0.0, 'flw0': 0.52, 'time': 6.26, 'compass': 22.23, 'pitch': 1.73, 'roll': 1.07}
{'lipoC2': 0.1, 'temp': 0.0, 'lipoC3S3': 12.55, 'state': 'normal', 'rot1': 30, 'rot0': 26, 'rot3': 0, 'rot2': 0, 'depth': -2.124, 'yaw': 113.67, 'datetime': '2018-12-18 17:02:23.470107', 'mgs': 0, 'flw2': 0.59, 'flw1': 0.0, 'flw0': 0.26, 'time': 6.47, 'compass': 21.41, 'pitch': 1.67, 'roll': 0.83}
{'lipoC2': 0.16, 'temp': 0.0, 'lipoC3S3': 12.43, 'state': 'normal', 'rot1': 31, 'rot0': 27, 'rot3': 0, 'rot2': 0, 'depth': 1.233, 'yaw': 112.33, 'datetime': '2018-12-18 17:02:23.680411', 'mgs': 0, 'flw2': 0.44, 'flw1': 0.41, 'flw0': 0.26, 'time': 6.68, 'compass': 20.07, 'pitch': 1.4, 'roll': 0.73}
{'lipoC2': 0.0, 'temp': 0.0, 'lipoC3S3': 12.5, 'state': 'normal', 'rot1': 33, 'rot0': 28, 'rot3': 0, 'rot2': 0, 'depth': 0.928, 'yaw': 110.59, 'datetime': '2018-12-18 17:02:23.888052', 'mgs': 0, 'flw2': 0.15, 'flw1': 0.41, 'flw0': 0.4, 'time': 6.89, 'compass': 18.34, 'pitch': 1.37, 'roll': 0.78}
{'lipoC2': 0.14, 'temp': 0.0, 'lipoC3S3': 12.3, 'state': 'normal', 'rot1': 33, 'rot0': 29, 'rot3': 0, 'rot2': 0, 'depth': 0.47, 'yaw': 108.51, 'datetime': '2018-12-18 17:02:24.097042', 'mgs': 0, 'flw2': 0.51, 'flw1': 0.21, 'flw0': 0.0, 'time': 7.09, 'compass': 16.25, 'pitch': 1.6, 'roll': 0.91}
{'lipoC2': 0.0, 'temp': 0.0, 'lipoC3S3': 12.6, 'state': 'normal', 'rot1': 35, 'rot0': 30, 'rot3': 0, 'rot2': 0, 'depth': 0.775, 'yaw': 106.22, 'datetime': '2018-12-18 17:02:24.304824', 'mgs': 0, 'flw2': 0.01, 'flw1': 0.23, 'flw0': 0.51, 'time': 7.3, 'compass': 13.96, 'pitch': 1.62, 'roll': 1.29}
{'lipoC2': 0.12, 'temp': 0.0, 'lipoC3S3': 12.51, 'state': 'normal', 'rot1': 36, 'rot0': 31, 'rot3': 0, 'rot2': 0, 'depth': -2.048, 'yaw': 103.48, 'datetime': '2018-12-18 17:02:24.515166', 'mgs': 0, 'flw2': 0.57, 'flw1': 0.0, 'flw0': 0.38, 'time': 7.51, 'compass': 11.22, 'pitch': 1.55, 'roll': 1.63}
{'lipoC2': 0.0, 'temp': 0.0, 'lipoC3S3': 12.7, 'state': 'normal', 'rot1': 37, 'rot0': 32, 'rot3': 0, 'rot2': 0, 'depth': 1.614, 'yaw': 100.44, 'datetime': '2018-12-18 17:02:24.724084', 'mgs': 0, 'flw2': 0.0, 'flw1': 0.21, 'flw0': 0.55, 'time': 7.72, 'compass': 8.18, 'pitch': 1.47, 'roll': 1.71}
{'lipoC2': 0.09, 'temp': 0.0, 'lipoC3S3': 12.27, 'state': 'normal', 'rot1': 38, 'rot0': 33, 'rot3': 0, 'rot2': 0, 'depth': 0.089, 'yaw': 97.09, 'datetime': '2018-12-18 17:02:24.938131', 'mgs': 0, 'flw2': 0.6, 'flw1': 0.06, 'flw0': 0.57, 'time': 7.93, 'compass': 4.84, 'pitch': 1.39, 'roll': 1.77}
{'lipoC2': 0.0, 'temp': 0.0, 'lipoC3S3': 12.71, 'state': 'normal', 'rot1': 39, 'rot0': 34, 'rot3': 0, 'rot2': 0, 'depth': 1.538, 'yaw': 93.51, 'datetime': '2018-12-18 17:02:25.144344', 'mgs': 0, 'flw2': 0.16, 'flw1': 0.26, 'flw0': 0.0, 'time': 8.14, 'compass': 1.25, 'pitch': 1.29, 'roll': 1.83}
{'lipoC2': 0.0, 'temp': 0.0, 'lipoC3S3': 12.37, 'state': 'normal', 'rot1': 39, 'rot0': 34, 'rot3': 0, 'rot2': 0, 'depth': -0.98, 'yaw': 90.51, 'datetime': '2018-12-18 17:02:25.350996', 'mgs': 0, 'flw2': 0.0, 'flw1': 0.47, 'flw0': 0.0, 'time': 8.35, 'compass': -1.75, 'pitch': 1.19, 'roll': 2.01}
{'lipoC2': 0.0, 'temp': 0.0, 'lipoC3S3': 12.71, 'state': 'normal', 'rot1': 39, 'rot0': 34, 'rot3': 0, 'rot2': 0, 'depth': 1.614, 'yaw': 87.81, 'datetime': '2018-12-18 17:02:25.561149', 'mgs': 0, 'flw2': 0.12, 'flw1': 0.32, 'flw0': 0.0, 'time': 8.55, 'compass': -4.45, 'pitch': 1.09, 'roll': 2.37}
{'lipoC2': 0.06, 'temp': 0.0, 'lipoC3S3': 12.64, 'state': 'normal', 'rot1': 39, 'rot0': 34, 'rot3': 0, 'rot2': 0, 'depth': 0.165, 'yaw': 85.45, 'datetime': '2018-12-18 17:02:25.770109', 'mgs': 0, 'flw2': 0.0, 'flw1': 0.32, 'flw0': 0.12, 'time': 8.76, 'compass': -6.8, 'pitch': 1.15, 'roll': 2.77}
{'lipoC2': 0.09, 'temp': 0.0, 'lipoC3S3': 12.54, 'state': 'normal', 'rot1': 39, 'rot0': 34, 'rot3': 0, 'rot2': 0, 'depth': -2.505, 'yaw': 83.42, 'datetime': '2018-12-18 17:02:25.981618', 'mgs': 0, 'flw2': 0.0, 'flw1': 0.0, 'flw0': 0.0, 'time': 8.97, 'compass': -8.83, 'pitch': 1.29, 'roll': 2.96}
{'lipoC2': 0.12, 'temp': 0.0, 'lipoC3S3': 12.52, 'state': 'normal', 'rot1': 39, 'rot0': 35, 'rot3': 0, 'rot2': 0, 'depth': -1.971, 'yaw': 81.5, 'datetime': '2018-12-18 17:02:26.192023', 'mgs': 0, 'flw2': 0.38, 'flw1': 0.47, 'flw0': 0.46, 'time': 9.18, 'compass': -10.76, 'pitch': 1.27, 'roll': 2.98}
{'lipoC2': 0.06, 'temp': 0.0, 'lipoC3S3': 12.29, 'state': 'normal', 'rot1': 40, 'rot0': 36, 'rot3': 0, 'rot2': 0, 'depth': 1.157, 'yaw': 80.4, 'datetime': '2018-12-18 17:02:26.400120', 'mgs': 0, 'flw2': 0.32, 'flw1': 0.0, 'flw0': 0.61, 'time': 9.39, 'compass': -11.86, 'pitch': 1.21, 'roll': 3.0}
{'lipoC2': 0.0, 'temp': 0.0, 'lipoC3S3': 12.52, 'state': 'normal', 'rot1': 42, 'rot0': 37, 'rot3': 0, 'rot2': 0, 'depth': -0.14, 'yaw': 80.26, 'datetime': '2018-12-18 17:02:26.608942', 'mgs': 0, 'flw2': 0.51, 'flw1': 0.0, 'flw0': 0.4, 'time': 9.6, 'compass': -12.0, 'pitch': 1.21, 'roll': 3.01}
{'lipoC2': 0.0, 'temp': 0.0, 'lipoC3S3': 12.66, 'state': 'normal', 'rot1': 43, 'rot0': 38, 'rot3': 0, 'rot2': 0, 'depth': 1.462, 'yaw': 80.94, 'datetime': '2018-12-18 17:02:26.818115', 'mgs': 0, 'flw2': 0.0, 'flw1': 0.18, 'flw0': 0.02, 'time': 9.81, 'compass': -11.32, 'pitch': 1.24, 'roll': 2.99}
{'lipoC2': 0.0, 'temp': 0.0, 'lipoC3S3': 12.62, 'state': 'normal', 'rot1': 44, 'rot0': 39, 'rot3': 0, 'rot2': 0, 'depth': 1.157, 'yaw': 82.23, 'datetime': '2018-12-18 17:02:27.022091', 'mgs': 0, 'flw2': 0.59, 'flw1': 0.0, 'flw0': 0.11, 'time': 10.01, 'compass': -10.03, 'pitch': 1.31, 'roll': 2.97}
{'lipoC2': 0.15, 'temp': 0.0, 'lipoC3S3': 12.35, 'state': 'normal', 'rot1': 45, 'rot0': 40, 'rot3': 0, 'rot2': 0, 'depth': 0.928, 'yaw': 84.27, 'datetime': '2018-12-18 17:02:27.231050', 'mgs': 0, 'flw2': 0.51, 'flw1': 0.32, 'flw0': 0.16, 'time': 10.22, 'compass': -7.99, 'pitch': 1.42, 'roll': 3.16}
{'lipoC2': 0.15, 'temp': 0.0, 'lipoC3S3': 12.29, 'state': 'normal', 'rot1': 46, 'rot0': 40, 'rot3': 0, 'rot2': 0, 'depth': 0.851, 'yaw': 86.6, 'datetime': '2018-12-18 17:02:27.440683', 'mgs': 0, 'flw2': 0.0, 'flw1': 0.0, 'flw0': 0.21, 'time': 10.43, 'compass': -5.66, 'pitch': 1.55, 'roll': 3.24}
{'lipoC2': 0.0, 'temp': 0.0, 'lipoC3S3': 12.34, 'state': 'normal', 'rot1': 46, 'rot0': 40, 'rot3': 0, 'rot2': 0, 'depth': -0.751, 'yaw': 88.6, 'datetime': '2018-12-18 17:02:27.649732', 'mgs': 0, 'flw2': 0.0, 'flw1': 0.0, 'flw0': 0.18, 'time': 10.64, 'compass': -3.66, 'pitch': 1.5, 'roll': 3.19}
{'lipoC2': 0.05, 'temp': 0.0, 'lipoC3S3': 12.3, 'state': 'normal', 'rot1': 46, 'rot0': 40, 'rot3': 0, 'rot2': 0, 'depth': 1.157, 'yaw': 90.31, 'datetime': '2018-12-18 17:02:27.859797', 'mgs': 0, 'flw2': 0.0, 'flw1': 0.18, 'flw0': 0.18, 'time': 10.85, 'compass': -1.95, 'pitch': 1.26, 'roll': 3.15}
{'lipoC2': 0.09, 'temp': 0.0, 'lipoC3S3': 12.54, 'state': 'normal', 'rot1': 46, 'rot0': 40, 'rot3': 0, 'rot2': 0, 'depth': -2.277, 'yaw': 92.01, 'datetime': '2018-12-18 17:02:28.067617', 'mgs': 0, 'flw2': 0.0, 'flw1': 0.47, 'flw0': 0.0, 'time': 11.06, 'compass': -0.25, 'pitch': 1.04, 'roll': 3.12}
{'lipoC2': 0.08, 'temp': 0.0, 'lipoC3S3': 12.55, 'state': 'normal', 'rot1': 46, 'rot0': 40, 'rot3': 0, 'rot2': 0, 'depth': -2.2, 'yaw': 93.6, 'datetime': '2018-12-18 17:02:28.276654', 'mgs': 0, 'flw2': 0.21, 'flw1': 0.0, 'flw0': 0.0, 'time': 11.27, 'compass': 1.35, 'pitch': 1.11, 'roll': 3.11}
{'lipoC2': 0.0, 'temp': 0.0, 'lipoC3S3': 12.34, 'state': 'normal', 'rot1': 46, 'rot0': 40, 'rot3': 0, 'rot2': 0, 'depth': 1.233, 'yaw': 95.05, 'datetime': '2018-12-18 17:02:28.484399', 'mgs': 0, 'flw2': 0.01, 'flw1': 0.0, 'flw0': 0.17, 'time': 11.47, 'compass': 2.79, 'pitch': 1.36, 'roll': 3.16}
{'lipoC2': 0.0, 'temp': 0.0, 'lipoC3S3': 12.48, 'state': 'normal', 'rot1': 46, 'rot0': 40, 'rot3': 0, 'rot2': 0, 'depth': 0.928, 'yaw': 96.52, 'datetime': '2018-12-18 17:02:28.694367', 'mgs': 0, 'flw2': 0.0, 'flw1': 0.44, 'flw0': 0.02, 'time': 11.68, 'compass': 4.26, 'pitch': 1.46, 'roll': 3.16}
{'lipoC2': 0.1, 'temp': 0.0, 'lipoC3S3': 12.54, 'state': 'normal', 'rot1': 46, 'rot0': 40, 'rot3': 0, 'rot2': 0, 'depth': -2.277, 'yaw': 97.93, 'datetime': '2018-12-18 17:02:28.903081', 'mgs': 0, 'flw2': 0.21, 'flw1': 0.0, 'flw0': 0.0, 'time': 11.89, 'compass': 5.67, 'pitch': 1.36, 'roll': 3.25}
{'lipoC2': 0.0, 'temp': 0.0, 'lipoC3S3': 12.46, 'state': 'normal', 'rot1': 46, 'rot0': 40, 'rot3': 0, 'rot2': 0, 'depth': 0.851, 'yaw': 99.07, 'datetime': '2018-12-18 17:02:29.112639', 'mgs': 0, 'flw2': 0.51, 'flw1': 0.0, 'flw0': 0.52, 'time': 12.1, 'compass': 6.81, 'pitch': 1.34, 'roll': 3.21}
{'lipoC2': 0.09, 'temp': 0.0, 'lipoC3S3': 12.52, 'state': 'normal', 'rot1': 47, 'rot0': 41, 'rot3': 0, 'rot2': 0, 'depth': -2.353, 'yaw': 99.24, 'datetime': '2018-12-18 17:02:29.322524', 'mgs': 0, 'flw2': 0.35, 'flw1': 0.47, 'flw0': 0.38, 'time': 12.31, 'compass': 6.98, 'pitch': 1.45, 'roll': 2.95}
{'lipoC2': 0.0, 'temp': 0.0, 'lipoC3S3': 12.56, 'state': 'normal', 'rot1': 48, 'rot0': 42, 'rot3': 0, 'rot2': 0, 'depth': -0.827, 'yaw': 98.65, 'datetime': '2018-12-18 17:02:29.532212', 'mgs': 0, 'flw2': 0.56, 'flw1': 0.0, 'flw0': 0.31, 'time': 12.52, 'compass': 6.39, 'pitch': 1.58, 'roll': 2.88}
{'lipoC2': 0.0, 'temp': 0.0, 'lipoC3S3': 12.64, 'state': 'normal', 'rot1': 50, 'rot0': 43, 'rot3': 0, 'rot2': 0, 'depth': 1.385, 'yaw': 97.32, 'datetime': '2018-12-18 17:02:29.740292', 'mgs': 0, 'flw2': 0.02, 'flw1': 0.29, 'flw0': 0.5, 'time': 12.73, 'compass': 5.07, 'pitch': 1.54, 'roll': 2.97}
{'lipoC2': 0.05, 'temp': 0.0, 'lipoC3S3': 12.33, 'state': 'normal', 'rot1': 51, 'rot0': 44, 'rot3': 0, 'rot2': 0, 'depth': 1.157, 'yaw': 95.38, 'datetime': '2018-12-18 17:02:29.949157', 'mgs': 0, 'flw2': 0.22, 'flw1': 0.0, 'flw0': 0.0, 'time': 12.94, 'compass': 3.13, 'pitch': 1.43, 'roll': 3.22}
{'lipoC2': 0.0, 'temp': 0.0, 'lipoC3S3': 12.71, 'state': 'normal', 'rot1': 51, 'rot0': 44, 'rot3': 0, 'rot2': 0, 'depth': 1.385, 'yaw': 93.6, 'datetime': '2018-12-18 17:02:30.156982', 'mgs': 0, 'flw2': 0.0, 'flw1': 0.0, 'flw0': 0.22, 'time': 13.14, 'compass': 1.35, 'pitch': 1.16, 'roll': 3.68}
{'lipoC2': 0.13, 'temp': 0.0, 'lipoC3S3': 12.51, 'state': 'normal', 'rot1': 51, 'rot0': 44, 'rot3': 0, 'rot2': 0, 'depth': -2.124, 'yaw': 92.13, 'datetime': '2018-12-18 17:02:30.366868', 'mgs': 0, 'flw2': 0.04, 'flw1': 0.0, 'flw0': 0.13, 'time': 13.35, 'compass': -0.13, 'pitch': 0.9, 'roll': 4.02}
{'lipoC2': 0.0, 'temp': 0.0, 'lipoC3S3': 12.35, 'state': 'normal', 'rot1': 51, 'rot0': 44, 'rot3': 0, 'rot2': 0, 'depth': -0.674, 'yaw': 90.7, 'datetime': '2018-12-18 17:02:30.576714', 'mgs': 0, 'flw2': 0.11, 'flw1': 0.38, 'flw0': 0.0, 'time': 13.56, 'compass': -1.56, 'pitch': 0.87, 'roll': 4.06}
{'lipoC2': 0.0, 'temp': 0.0, 'lipoC3S3': 12.72, 'state': 'normal', 'rot1': 51, 'rot0': 44, 'rot3': 0, 'rot2': 0, 'depth': 1.614, 'yaw': 89.38, 'datetime': '2018-12-18 17:02:30.783941', 'mgs': 0, 'flw2': 0.13, 'flw1': 0.32, 'flw0': 0.0, 'time': 13.77, 'compass': -2.88, 'pitch': 1.01, 'roll': 3.9}
{'lipoC2': 0.16, 'temp': 0.0, 'lipoC3S3': 12.37, 'state': 'normal', 'rot1': 51, 'rot0': 44, 'rot3': 0, 'rot2': 0, 'depth': 0.851, 'yaw': 88.18, 'datetime': '2018-12-18 17:02:30.993034', 'mgs': 0, 'flw2': 0.01, 'flw1': 0.0, 'flw0': 0.17, 'time': 13.98, 'compass': -4.08, 'pitch': 0.98, 'roll': 3.83}
{'lipoC2': 0.0, 'temp': 0.0, 'lipoC3S3': 12.71, 'state': 'normal', 'rot1': 51, 'rot0': 44, 'rot3': 0, 'rot2': 0, 'depth': 1.462, 'yaw': 87.09, 'datetime': '2018-12-18 17:02:31.200665', 'mgs': 0, 'flw2': 0.0, 'flw1': 0.47, 'flw0': 0.0, 'time': 14.19, 'compass': -5.17, 'pitch': 0.86, 'roll': 3.85}
{'lipoC2': 0.0, 'temp': 0.0, 'lipoC3S3': 12.46, 'state': 'normal', 'rot1': 51, 'rot0': 44, 'rot3': 0, 'rot2': 0, 'depth': 0.851, 'yaw': 86.02, 'datetime': '2018-12-18 17:02:31.409640', 'mgs': 0, 'flw2': 0.0, 'flw1': 0.47, 'flw0': 0.0, 'time': 14.4, 'compass': -6.24, 'pitch': 0.78, 'roll': 3.86}
{'lipoC2': 0.16, 'temp': 0.0, 'lipoC3S3': 12.47, 'state': 'normal', 'rot1': 51, 'rot0': 44, 'rot3': 0, 'rot2': 0, 'depth': -1.971, 'yaw': 85.01, 'datetime': '2018-12-18 17:02:31.618541', 'mgs': 0, 'flw2': 0.07, 'flw1': 0.0, 'flw0': 0.12, 'time': 14.6, 'compass': -7.25, 'pitch': 0.81, 'roll': 3.94}
{'lipoC2': 0.11, 'temp': 0.0, 'lipoC3S3': 12.52, 'state': 'normal', 'rot1': 51, 'rot0': 44, 'rot3': 0, 'rot2': 0, 'depth': -2.277, 'yaw': 84.05, 'datetime': '2018-12-18 17:02:31.828838', 'mgs': 0, 'flw2': 0.17, 'flw1': 0.0, 'flw0': 0.04, 'time': 14.81, 'compass': -8.21, 'pitch': 0.9, 'roll': 4.13}
{'lipoC2': 0.12, 'temp': 0.0, 'lipoC3S3': 12.27, 'state': 'normal', 'rot1': 51, 'rot0': 44, 'rot3': 0, 'rot2': 0, 'depth': 0.394, 'yaw': 83.21, 'datetime': '2018-12-18 17:02:32.038264', 'mgs': 0, 'flw2': 0.46, 'flw1': 0.0, 'flw0': 0.68, 'time': 15.02, 'compass': -9.05, 'pitch': 0.83, 'roll': 4.19}
{'lipoC2': 0.13, 'temp': 0.0, 'lipoC3S3': 12.3, 'state': 'normal', 'rot1': 53, 'rot0': 46, 'rot3': 0, 'rot2': 0, 'depth': 0.699, 'yaw': 83.06, 'datetime': '2018-12-18 17:02:32.251677', 'mgs': 0, 'flw2': 0.4, 'flw1': 0.0, 'flw0': 0.56, 'time': 15.23, 'compass': -9.2, 'pitch': 0.83, 'roll': 4.32}
{'lipoC2': 0.0, 'temp': 0.0, 'lipoC3S3': 12.41, 'state': 'normal', 'rot1': 54, 'rot0': 46, 'rot3': 0, 'rot2': 0, 'depth': -0.827, 'yaw': 83.8, 'datetime': '2018-12-18 17:02:32.455076', 'mgs': 0, 'flw2': 0.4, 'flw1': 0.41, 'flw0': 0.33, 'time': 15.44, 'compass': -8.46, 'pitch': 0.89, 'roll': 4.58}
{'lipoC2': 0.15, 'temp': 0.0, 'lipoC3S3': 12.45, 'state': 'normal', 'rot1': 55, 'rot0': 47, 'rot3': 0, 'rot2': 0, 'depth': -1.437, 'yaw': 85.32, 'datetime': '2018-12-18 17:02:32.664078', 'mgs': 0, 'flw2': 0.0, 'flw1': 0.47, 'flw0': 0.0, 'time': 15.65, 'compass': -6.94, 'pitch': 0.99, 'roll': 4.71}
{'lipoC2': 0.0, 'temp': 0.0, 'lipoC3S3': 12.67, 'state': 'normal', 'rot1': 55, 'rot0': 47, 'rot3': 0, 'rot2': 0, 'depth': 1.157, 'yaw': 86.73, 'datetime': '2018-12-18 17:02:32.874021', 'mgs': 0, 'flw2': 0.17, 'flw1': 0.12, 'flw0': 0.0, 'time': 15.86, 'compass': -5.53, 'pitch': 1.1, 'roll': 4.49}
{'lipoC2': 0.17, 'temp': 0.0, 'lipoC3S3': 12.37, 'state': 'normal', 'rot1': 55, 'rot0': 47, 'rot3': 0, 'rot2': 0, 'depth': -0.598, 'yaw': 88.09, 'datetime': '2018-12-18 17:02:33.083270', 'mgs': 0, 'flw2': 0.07, 'flw1': 0.0, 'flw0': 0.15, 'time': 16.07, 'compass': -4.16, 'pitch': 1.21, 'roll': 4.12}
{'lipoC2': 0.1, 'temp': 0.0, 'lipoC3S3': 12.54, 'state': 'normal', 'rot1': 55, 'rot0': 47, 'rot3': 0, 'rot2': 0, 'depth': -2.353, 'yaw': 89.36, 'datetime': '2018-12-18 17:02:33.292204', 'mgs': 0, 'flw2': 0.21, 'flw1': 0.0, 'flw0': 0.0, 'time': 16.27, 'compass': -2.9, 'pitch': 1.3, 'roll': 3.94}
{'lipoC2': 0.14, 'temp': 0.0, 'lipoC3S3': 12.27, 'state': 'normal', 'rot1': 55, 'rot0': 47, 'rot3': 0, 'rot2': 0, 'depth': 0.394, 'yaw': 90.57, 'datetime': '2018-12-18 17:02:33.500903', 'mgs': 0, 'flw2': 0.12, 'flw1': 0.0, 'flw0': 0.22, 'time': 16.48, 'compass': -1.69, 'pitch': 1.05, 'roll': 4.13}
{'lipoC2': 0.0, 'temp': 0.0, 'lipoC3S3': 12.52, 'state': 'normal', 'rot1': 55, 'rot0': 47, 'rot3': 0, 'rot2': 0, 'depth': -0.064, 'yaw': 91.68, 'datetime': '2018-12-18 17:02:33.709794', 'mgs': 0, 'flw2': 0.0, 'flw1': 0.35, 'flw0': 0.0, 'time': 16.69, 'compass': -0.57, 'pitch': 0.72, 'roll': 4.54}
