{'lipoC3S3': 0.0, 'datetime': '2019-02-27 10:02:03.257833', 'pitch': -169.35, 'rot1': 0, 'rot0': 0, 'rot3': 0, 'rot2': 0, 'state': 'normal', 'flw3': 0, 'flw2': 0, 'flw1': 0, 'flw0': 0, 'roll': 0.74, 'cur2': 0.0, 'cur0': 0.0, 'cur1': 0.0, 'mgs': 0, 'compass': -156.67, 'lipoC2': 0.0, 'temp': 24.93, 'thr3': 36.0, 'depth': 0.119, 'time': 1.39, 'thr2': 31.0, 'yaw': 0.5, 'thr0': 26.0, 'thr1': 26.0}
{'lipoC3S3': 0.0, 'datetime': '2019-02-27 10:02:03.578438', 'pitch': -169.51, 'rot1': 0, 'rot0': 0, 'rot3': 0, 'rot2': 0, 'state': 'normal', 'flw3': 0, 'flw2': 0, 'flw1': 0, 'flw0': 0, 'roll': 0.47, 'cur2': 0.0, 'cur0': 0.0, 'cur1': 0.0, 'mgs': 0, 'compass': -157.36, 'lipoC2': 0.0, 'temp': 24.87, 'thr3': 36.0, 'depth': 0.109, 'time': 1.71, 'thr2': 31.0, 'yaw': -0.19, 'thr0': 26.0, 'thr1': 26.0}
{'lipoC3S3': 0.0, 'datetime': '2019-02-27 10:02:03.910961', 'pitch': -169.51, 'rot1': 0, 'rot0': 0, 'rot3': 0, 'rot2': 0, 'state': 'normal', 'flw3': 0, 'flw2': 0, 'flw1': 0, 'flw0': 0, 'roll': 0.47, 'cur2': 0.0, 'cur0': 0.0, 'cur1': 0.0, 'mgs': 0, 'compass': -157.36, 'lipoC2': 0.0, 'temp': 24.88, 'thr3': 35.0, 'depth': 0.109, 'time': 2.03, 'thr2': 31.0, 'yaw': -0.19, 'thr0': 26.0, 'thr1': 26.0}
{'lipoC3S3': 0.0, 'datetime': '2019-02-27 10:02:04.211853', 'pitch': -169.51, 'rot1': 0, 'rot0': 0, 'rot3': 0, 'rot2': 0, 'state': 'normal', 'flw3': 0, 'flw2': 0, 'flw1': 0, 'flw0': 0, 'roll': 0.48, 'cur2': 0.0, 'cur0': 0.0, 'cur1': 0.0, 'mgs': 0, 'compass': -157.37, 'lipoC2': 0.0, 'temp': 24.88, 'thr3': 35.0, 'depth': 0.109, 'time': 2.36, 'thr2': 31.0, 'yaw': -0.19, 'thr0': 26.0, 'thr1': 26.0}
{'lipoC3S3': 0.0, 'datetime': '2019-02-27 10:02:04.531836', 'pitch': -166.33, 'rot1': 0, 'rot0': 0, 'rot3': 0, 'rot2': 0, 'state': 'normal', 'flw3': 0, 'flw2': 0, 'flw1': 0, 'flw0': 0, 'roll': 0.94, 'cur2': 0.0, 'cur0': 0.0, 'cur1': 0.0, 'mgs': 0, 'compass': -157.56, 'lipoC2': 0.0, 'temp': 24.88, 'thr3': 35.0, 'depth': 0.109, 'time': 2.68, 'thr2': 31.0, 'yaw': -0.39, 'thr0': 26.0, 'thr1': 26.0}
{'lipoC3S3': 0.0, 'datetime': '2019-02-27 10:02:04.866755', 'pitch': -168.89, 'rot1': 0, 'rot0': 0, 'rot3': 0, 'rot2': 0, 'state': 'normal', 'flw3': 0, 'flw2': 0, 'flw1': 0, 'flw0': 0, 'roll': 3.02, 'cur2': 0.0, 'cur0': 0.0, 'cur1': 0.0, 'mgs': 0, 'compass': -154.7, 'lipoC2': 0.0, 'temp': 24.89, 'thr3': 35.0, 'depth': 0.119, 'time': 3.0, 'thr2': 31.0, 'yaw': 2.47, 'thr0': 26.0, 'thr1': 26.0}
{'lipoC3S3': 0.0, 'datetime': '2019-02-27 10:02:05.186832', 'pitch': -170.55, 'rot1': 0, 'rot0': 0, 'rot3': 0, 'rot2': 0, 'state': 'normal', 'flw3': 0, 'flw2': 0, 'flw1': 0, 'flw0': 0, 'roll': 0.26, 'cur2': 0.0, 'cur0': 0.0, 'cur1': 0.0, 'mgs': 0, 'compass': -156.44, 'lipoC2': 0.0, 'temp': 24.89, 'thr3': 35.0, 'depth': 0.109, 'time': 3.32, 'thr2': 31.0, 'yaw': 0.73, 'thr0': 26.0, 'thr1': 26.0}
{'lipoC3S3': 0.0, 'datetime': '2019-02-27 10:02:05.509997', 'pitch': -172.75, 'rot1': 0, 'rot0': 0, 'rot3': 0, 'rot2': 0, 'state': 'normal', 'flw3': 0, 'flw2': 0, 'flw1': 0, 'flw0': 0, 'roll': 0.13, 'cur2': 0.0, 'cur0': 0.0, 'cur1': 0.0, 'mgs': 0, 'compass': -169.61, 'lipoC2': 0.0, 'temp': 24.89, 'thr3': 35.0, 'depth': 0.119, 'time': 3.64, 'thr2': 31.0, 'yaw': -12.43, 'thr0': 26.0, 'thr1': 26.0}
{'lipoC3S3': 0.0, 'datetime': '2019-02-27 10:02:05.830686', 'pitch': -169.36, 'rot1': 0, 'rot0': 0, 'rot3': 0, 'rot2': 0, 'state': 'normal', 'flw3': 0, 'flw2': 0, 'flw1': 0, 'flw0': 0, 'roll': -2.51, 'cur2': 0.0, 'cur0': 0.0, 'cur1': 0.0, 'mgs': 0, 'compass': 175.54, 'lipoC2': 0.0, 'temp': 24.9, 'thr3': 35.0, 'depth': 0.109, 'time': 3.96, 'thr2': 31.0, 'yaw': -27.29, 'thr0': 26.0, 'thr1': 26.0}
{'lipoC3S3': 0.0, 'datetime': '2019-02-27 10:02:06.152990', 'pitch': -166.53, 'rot1': 0, 'rot0': 0, 'rot3': 0, 'rot2': 0, 'state': 'normal', 'flw3': 0, 'flw2': 0, 'flw1': 0, 'flw0': 0, 'roll': -3.18, 'cur2': 0.0, 'cur0': 0.0, 'cur1': 0.0, 'mgs': 0, 'compass': 173.08, 'lipoC2': 0.0, 'temp': 24.9, 'thr3': 35.0, 'depth': 0.119, 'time': 4.28, 'thr2': 31.0, 'yaw': -29.75, 'thr0': 26.0, 'thr1': 26.0}
{'lipoC3S3': 0.0, 'datetime': '2019-02-27 10:02:06.473971', 'pitch': -163.25, 'rot1': 0, 'rot0': 0, 'rot3': 0, 'rot2': 0, 'state': 'normal', 'flw3': 0, 'flw2': 0, 'flw1': 0, 'flw0': 0, 'roll': -6.09, 'cur2': 0.0, 'cur0': 0.0, 'cur1': 0.0, 'mgs': 0, 'compass': 176.32, 'lipoC2': 0.0, 'temp': 24.9, 'thr3': 35.0, 'depth': 0.109, 'time': 4.6, 'thr2': 31.0, 'yaw': -26.5, 'thr0': 26.0, 'thr1': 26.0}
{'lipoC3S3': 0.0, 'datetime': '2019-02-27 10:02:06.796012', 'pitch': -164.12, 'rot1': 0, 'rot0': 0, 'rot3': 0, 'rot2': 0, 'state': 'normal', 'flw3': 0, 'flw2': 0, 'flw1': 0, 'flw0': 0, 'roll': -4.87, 'cur2': 0.0, 'cur0': 0.0, 'cur1': 0.0, 'mgs': 0, 'compass': 172.37, 'lipoC2': 0.0, 'temp': 24.9, 'thr3': 35.0, 'depth': 0.119, 'time': 4.92, 'thr2': 31.0, 'yaw': -30.46, 'thr0': 26.0, 'thr1': 26.0}
{'lipoC3S3': 0.0, 'datetime': '2019-02-27 10:02:07.112406', 'pitch': -166.56, 'rot1': 0, 'rot0': 0, 'rot3': 0, 'rot2': 0, 'state': 'normal', 'flw3': 0, 'flw2': 0, 'flw1': 0, 'flw0': 0, 'roll': -4.76, 'cur2': 0.0, 'cur0': 0.0, 'cur1': 0.0, 'mgs': 0, 'compass': 167.75, 'lipoC2': 0.0, 'temp': 24.9, 'thr3': 35.0, 'depth': 0.119, 'time': 5.24, 'thr2': 31.0, 'yaw': -35.08, 'thr0': 26.0, 'thr1': 26.0}
{'lipoC3S3': 0.0, 'datetime': '2019-02-27 10:02:07.434081', 'pitch': -168.69, 'rot1': 0, 'rot0': 0, 'rot3': 0, 'rot2': 0, 'state': 'normal', 'flw3': 0, 'flw2': 0, 'flw1': 0, 'flw0': 0, 'roll': 0.17, 'cur2': 0.0, 'cur0': 0.0, 'cur1': 0.0, 'mgs': 0, 'compass': 165.54, 'lipoC2': 0.0, 'temp': 24.89, 'thr3': 35.0, 'depth': 0.109, 'time': 5.56, 'thr2': 31.0, 'yaw': -37.28, 'thr0': 26.0, 'thr1': 26.0}
{'lipoC3S3': 0.0, 'datetime': '2019-02-27 10:02:07.756826', 'pitch': -169.02, 'rot1': 0, 'rot0': 0, 'rot3': 0, 'rot2': 0, 'state': 'normal', 'flw3': 0, 'flw2': 0, 'flw1': 0, 'flw0': 0, 'roll': 1.31, 'cur2': 0.0, 'cur0': 0.0, 'cur1': 0.0, 'mgs': 0, 'compass': 163.88, 'lipoC2': 0.0, 'temp': 24.9, 'thr3': 35.0, 'depth': 0.109, 'time': 5.88, 'thr2': 31.0, 'yaw': -38.94, 'thr0': 26.0, 'thr1': 26.0}
{'lipoC3S3': 0.0, 'datetime': '2019-02-27 10:02:08.074760', 'pitch': -169.07, 'rot1': 0, 'rot0': 0, 'rot3': 0, 'rot2': 0, 'state': 'normal', 'flw3': 0, 'flw2': 0, 'flw1': 0, 'flw0': 0, 'roll': 1.18, 'cur2': 0.0, 'cur0': 0.0, 'cur1': 0.0, 'mgs': 0, 'compass': 163.52, 'lipoC2': 0.0, 'temp': 24.9, 'thr3': 35.0, 'depth': 0.119, 'time': 6.2, 'thr2': 31.0, 'yaw': -39.3, 'thr0': 26.0, 'thr1': 26.0}
{'lipoC3S3': 0.0, 'datetime': '2019-02-27 10:02:08.394604', 'pitch': -169.09, 'rot1': 0, 'rot0': 0, 'rot3': 0, 'rot2': 0, 'state': 'normal', 'flw3': 0, 'flw2': 0, 'flw1': 0, 'flw0': 0, 'roll': 1.13, 'cur2': 0.0, 'cur0': 0.0, 'cur1': 0.0, 'mgs': 0, 'compass': 163.52, 'lipoC2': 0.0, 'temp': 24.89, 'thr3': 35.0, 'depth': 0.119, 'time': 6.52, 'thr2': 31.0, 'yaw': -39.31, 'thr0': 26.0, 'thr1': 26.0}
{'lipoC3S3': 0.0, 'datetime': '2019-02-27 10:02:08.716182', 'pitch': -169.1, 'rot1': 0, 'rot0': 0, 'rot3': 0, 'rot2': 0, 'state': 'normal', 'flw3': 0, 'flw2': 0, 'flw1': 0, 'flw0': 0, 'roll': 1.09, 'cur2': 0.0, 'cur0': 0.0, 'cur1': 0.0, 'mgs': 0, 'compass': 163.52, 'lipoC2': 0.0, 'temp': 24.9, 'thr3': 35.0, 'depth': 0.119, 'time': 6.84, 'thr2': 31.0, 'yaw': -39.3, 'thr0': 26.0, 'thr1': 26.0}
{'lipoC3S3': 0.0, 'datetime': '2019-02-27 10:02:09.037940', 'pitch': -169.11, 'rot1': 0, 'rot0': 0, 'rot3': 0, 'rot2': 0, 'state': 'normal', 'flw3': 0, 'flw2': 0, 'flw1': 0, 'flw0': 0, 'roll': 1.06, 'cur2': 0.0, 'cur0': 0.0, 'cur1': 0.0, 'mgs': 0, 'compass': 163.52, 'lipoC2': 0.0, 'temp': 24.9, 'thr3': 35.0, 'depth': 0.119, 'time': 7.16, 'thr2': 31.0, 'yaw': -39.3, 'thr0': 26.0, 'thr1': 26.0}
{'lipoC3S3': 0.0, 'datetime': '2019-02-27 10:02:09.360578', 'pitch': -169.12, 'rot1': 0, 'rot0': 0, 'rot3': 0, 'rot2': 0, 'state': 'normal', 'flw3': 0, 'flw2': 0, 'flw1': 0, 'flw0': 0, 'roll': 1.06, 'cur2': 0.0, 'cur0': 0.0, 'cur1': 0.0, 'mgs': 0, 'compass': 163.54, 'lipoC2': 0.0, 'temp': 24.9, 'thr3': 35.0, 'depth': 0.119, 'time': 7.49, 'thr2': 31.0, 'yaw': -39.29, 'thr0': 26.0, 'thr1': 26.0}
{'lipoC3S3': 0.0, 'datetime': '2019-02-27 10:02:09.681753', 'pitch': -169.18, 'rot1': 0, 'rot0': 0, 'rot3': 0, 'rot2': 0, 'state': 'normal', 'flw3': 0, 'flw2': 0, 'flw1': 0, 'flw0': 0, 'roll': 1.04, 'cur2': 0.0, 'cur0': 0.0, 'cur1': 0.0, 'mgs': 0, 'compass': 163.51, 'lipoC2': 0.0, 'temp': 24.9, 'thr3': 35.0, 'depth': 0.109, 'time': 7.81, 'thr2': 31.0, 'yaw': -39.31, 'thr0': 26.0, 'thr1': 26.0}
{'lipoC3S3': 0.0, 'datetime': '2019-02-27 10:02:10.004233', 'pitch': -169.18, 'rot1': 0, 'rot0': 0, 'rot3': 0, 'rot2': 0, 'state': 'normal', 'flw3': 0, 'flw2': 0, 'flw1': 0, 'flw0': 0, 'roll': 1.02, 'cur2': 0.0, 'cur0': 0.0, 'cur1': 0.0, 'mgs': 0, 'compass': 163.54, 'lipoC2': 0.0, 'temp': 24.9, 'thr3': 35.0, 'depth': 0.119, 'time': 8.13, 'thr2': 31.0, 'yaw': -39.28, 'thr0': 26.0, 'thr1': 26.0}
{'lipoC3S3': 0.0, 'datetime': '2019-02-27 10:02:10.326130', 'pitch': -169.19, 'rot1': 0, 'rot0': 0, 'rot3': 0, 'rot2': 0, 'state': 'normal', 'flw3': 0, 'flw2': 0, 'flw1': 0, 'flw0': 0, 'roll': 1.01, 'cur2': 0.0, 'cur0': 0.0, 'cur1': 0.0, 'mgs': 0, 'compass': 163.56, 'lipoC2': 0.0, 'temp': 24.9, 'thr3': 35.0, 'depth': 0.109, 'time': 8.45, 'thr2': 31.0, 'yaw': -39.27, 'thr0': 26.0, 'thr1': 26.0}
{'lipoC3S3': 0.0, 'datetime': '2019-02-27 10:02:10.648705', 'pitch': -169.19, 'rot1': 0, 'rot0': 0, 'rot3': 0, 'rot2': 0, 'state': 'normal', 'flw3': 0, 'flw2': 0, 'flw1': 0, 'flw0': 0, 'roll': 1.01, 'cur2': 0.0, 'cur0': 0.0, 'cur1': 0.0, 'mgs': 0, 'compass': 163.56, 'lipoC2': 0.0, 'temp': 24.9, 'thr3': 35.0, 'depth': 0.109, 'time': 8.77, 'thr2': 31.0, 'yaw': -39.27, 'thr0': 26.0, 'thr1': 26.0}
{'lipoC3S3': 0.0, 'datetime': '2019-02-27 10:02:10.970520', 'pitch': -169.21, 'rot1': 0, 'rot0': 0, 'rot3': 0, 'rot2': 0, 'state': 'normal', 'flw3': 0, 'flw2': 0, 'flw1': 0, 'flw0': 0, 'roll': 1.02, 'cur2': 0.0, 'cur0': 0.0, 'cur1': 0.0, 'mgs': 0, 'compass': 163.56, 'lipoC2': 0.0, 'temp': 24.9, 'thr3': 35.0, 'depth': 0.109, 'time': 9.09, 'thr2': 31.0, 'yaw': -39.27, 'thr0': 26.0, 'thr1': 26.0}
{'lipoC3S3': 0.0, 'datetime': '2019-02-27 10:02:11.292047', 'pitch': -169.21, 'rot1': 0, 'rot0': 0, 'rot3': 0, 'rot2': 0, 'state': 'normal', 'flw3': 0, 'flw2': 0, 'flw1': 0, 'flw0': 0, 'roll': 1.02, 'cur2': 0.0, 'cur0': 0.0, 'cur1': 0.0, 'mgs': 0, 'compass': 163.56, 'lipoC2': 0.0, 'temp': 24.9, 'thr3': 35.0, 'depth': 0.109, 'time': 9.41, 'thr2': 31.0, 'yaw': -39.27, 'thr0': 26.0, 'thr1': 26.0}
{'lipoC3S3': 0.0, 'datetime': '2019-02-27 10:02:11.613799', 'pitch': -169.21, 'rot1': 0, 'rot0': 0, 'rot3': 0, 'rot2': 0, 'state': 'normal', 'flw3': 0, 'flw2': 0, 'flw1': 0, 'flw0': 0, 'roll': 1.01, 'cur2': 0.0, 'cur0': 0.0, 'cur1': 0.0, 'mgs': 0, 'compass': 163.56, 'lipoC2': 0.0, 'temp': 24.9, 'thr3': 35.0, 'depth': 0.109, 'time': 9.74, 'thr2': 31.0, 'yaw': -39.27, 'thr0': 26.0, 'thr1': 26.0}
{'lipoC3S3': 0.0, 'datetime': '2019-02-27 10:02:11.936161', 'pitch': -169.21, 'rot1': 0, 'rot0': 0, 'rot3': 0, 'rot2': 0, 'state': 'normal', 'flw3': 0, 'flw2': 0, 'flw1': 0, 'flw0': 0, 'roll': 1.01, 'cur2': 0.0, 'cur0': 0.0, 'cur1': 0.0, 'mgs': 0, 'compass': 163.56, 'lipoC2': 0.0, 'temp': 24.9, 'thr3': 35.0, 'depth': 0.119, 'time': 10.06, 'thr2': 31.0, 'yaw': -39.27, 'thr0': 26.0, 'thr1': 26.0}
{'lipoC3S3': 0.0, 'datetime': '2019-02-27 10:02:12.258712', 'pitch': -169.21, 'rot1': 0, 'rot0': 0, 'rot3': 0, 'rot2': 0, 'state': 'normal', 'flw3': 0, 'flw2': 0, 'flw1': 0, 'flw0': 0, 'roll': 1.01, 'cur2': 0.0, 'cur0': 0.0, 'cur1': 0.0, 'mgs': 0, 'compass': 163.56, 'lipoC2': 0.0, 'temp': 24.9, 'thr3': 35.0, 'depth': 0.109, 'time': 10.38, 'thr2': 31.0, 'yaw': -39.27, 'thr0': 26.0, 'thr1': 26.0}
{'lipoC3S3': 0.0, 'datetime': '2019-02-27 10:02:12.580089', 'pitch': -169.21, 'rot1': 0, 'rot0': 0, 'rot3': 0, 'rot2': 0, 'state': 'normal', 'flw3': 0, 'flw2': 0, 'flw1': 0, 'flw0': 0, 'roll': 1.01, 'cur2': 0.0, 'cur0': 0.0, 'cur1': 0.0, 'mgs': 0, 'compass': 163.56, 'lipoC2': 0.0, 'temp': 24.9, 'thr3': 35.0, 'depth': 0.119, 'time': 10.7, 'thr2': 31.0, 'yaw': -39.27, 'thr0': 26.0, 'thr1': 26.0}
{'lipoC3S3': 0.0, 'datetime': '2019-02-27 10:02:12.903159', 'pitch': -169.21, 'rot1': 0, 'rot0': 0, 'rot3': 0, 'rot2': 0, 'state': 'normal', 'flw3': 0, 'flw2': 0, 'flw1': 0, 'flw0': 0, 'roll': 1.0, 'cur2': 0.0, 'cur0': 0.0, 'cur1': 0.0, 'mgs': 0, 'compass': 163.55, 'lipoC2': 0.0, 'temp': 24.9, 'thr3': 35.0, 'depth': 0.109, 'time': 11.02, 'thr2': 31.0, 'yaw': -39.27, 'thr0': 26.0, 'thr1': 26.0}
{'lipoC3S3': 0.0, 'datetime': '2019-02-27 10:02:13.224139', 'pitch': -169.24, 'rot1': 0, 'rot0': 0, 'rot3': 0, 'rot2': 0, 'state': 'normal', 'flw3': 0, 'flw2': 0, 'flw1': 0, 'flw0': 0, 'roll': 0.95, 'cur2': 0.0, 'cur0': 0.0, 'cur1': 0.0, 'mgs': 0, 'compass': 163.54, 'lipoC2': 0.0, 'temp': 24.9, 'thr3': 35.0, 'depth': 0.109, 'time': 11.34, 'thr2': 31.0, 'yaw': -39.28, 'thr0': 26.0, 'thr1': 26.0}
{'lipoC3S3': 0.0, 'datetime': '2019-02-27 10:02:13.546377', 'pitch': -169.28, 'rot1': 0, 'rot0': 0, 'rot3': 0, 'rot2': 0, 'state': 'normal', 'flw3': 0, 'flw2': 0, 'flw1': 0, 'flw0': 0, 'roll': 0.86, 'cur2': 0.0, 'cur0': 0.0, 'cur1': 0.0, 'mgs': 0, 'compass': 163.56, 'lipoC2': 0.0, 'temp': 24.9, 'thr3': 35.0, 'depth': 0.119, 'time': 11.66, 'thr2': 31.0, 'yaw': -39.27, 'thr0': 26.0, 'thr1': 26.0}
{'lipoC3S3': 0.0, 'datetime': '2019-02-27 10:02:13.868740', 'pitch': -169.3, 'rot1': 0, 'rot0': 0, 'rot3': 0, 'rot2': 0, 'state': 'normal', 'flw3': 0, 'flw2': 0, 'flw1': 0, 'flw0': 0, 'roll': 0.8, 'cur2': 0.0, 'cur0': 0.0, 'cur1': 0.0, 'mgs': 0, 'compass': 163.56, 'lipoC2': 0.0, 'temp': 24.9, 'thr3': 35.0, 'depth': 0.119, 'time': 11.98, 'thr2': 31.0, 'yaw': -39.27, 'thr0': 26.0, 'thr1': 26.0}
{'lipoC3S3': 0.0, 'datetime': '2019-02-27 10:02:14.190136', 'pitch': -169.32, 'rot1': 0, 'rot0': 0, 'rot3': 0, 'rot2': 0, 'state': 'normal', 'flw3': 0, 'flw2': 0, 'flw1': 0, 'flw0': 0, 'roll': 0.77, 'cur2': 0.0, 'cur0': 0.0, 'cur1': 0.0, 'mgs': 0, 'compass': 163.56, 'lipoC2': 0.0, 'temp': 24.9, 'thr3': 35.0, 'depth': 0.119, 'time': 12.31, 'thr2': 31.0, 'yaw': -39.26, 'thr0': 26.0, 'thr1': 26.0}
{'lipoC3S3': 0.0, 'datetime': '2019-02-27 10:02:14.511958', 'pitch': -169.33, 'rot1': 0, 'rot0': 0, 'rot3': 0, 'rot2': 0, 'state': 'normal', 'flw3': 0, 'flw2': 0, 'flw1': 0, 'flw0': 0, 'roll': 0.74, 'cur2': 0.0, 'cur0': 0.0, 'cur1': 0.0, 'mgs': 0, 'compass': 163.55, 'lipoC2': 0.0, 'temp': 24.9, 'thr3': 35.0, 'depth': 0.109, 'time': 12.63, 'thr2': 31.0, 'yaw': -39.27, 'thr0': 26.0, 'thr1': 26.0}
{'lipoC3S3': 0.0, 'datetime': '2019-02-27 10:02:14.834334', 'pitch': -169.33, 'rot1': 0, 'rot0': 0, 'rot3': 0, 'rot2': 0, 'state': 'normal', 'flw3': 0, 'flw2': 0, 'flw1': 0, 'flw0': 0, 'roll': 0.74, 'cur2': 0.0, 'cur0': 0.0, 'cur1': 0.0, 'mgs': 0, 'compass': 163.55, 'lipoC2': 0.0, 'temp': 24.9, 'thr3': 35.0, 'depth': 0.119, 'time': 12.95, 'thr2': 31.0, 'yaw': -39.27, 'thr0': 26.0, 'thr1': 26.0}
{'lipoC3S3': 0.0, 'datetime': '2019-02-27 10:02:15.155742', 'pitch': -169.33, 'rot1': 0, 'rot0': 0, 'rot3': 0, 'rot2': 0, 'state': 'normal', 'flw3': 0, 'flw2': 0, 'flw1': 0, 'flw0': 0, 'roll': 0.74, 'cur2': 0.0, 'cur0': 0.0, 'cur1': 0.0, 'mgs': 0, 'compass': 163.55, 'lipoC2': 0.0, 'temp': 24.9, 'thr3': 35.0, 'depth': 0.109, 'time': 13.27, 'thr2': 31.0, 'yaw': -39.27, 'thr0': 26.0, 'thr1': 26.0}
{'lipoC3S3': 0.0, 'datetime': '2019-02-27 10:02:15.481208', 'pitch': -169.33, 'rot1': 0, 'rot0': 0, 'rot3': 0, 'rot2': 0, 'state': 'normal', 'flw3': 0, 'flw2': 0, 'flw1': 0, 'flw0': 0, 'roll': 0.74, 'cur2': 0.0, 'cur0': 0.0, 'cur1': 0.0, 'mgs': 0, 'compass': 163.55, 'lipoC2': 0.0, 'temp': 24.9, 'thr3': 35.0, 'depth': 0.109, 'time': 13.59, 'thr2': 31.0, 'yaw': -39.27, 'thr0': 26.0, 'thr1': 26.0}
{'lipoC3S3': 0.0, 'datetime': '2019-02-27 10:02:15.802695', 'pitch': -169.32, 'rot1': 0, 'rot0': 0, 'rot3': 0, 'rot2': 0, 'state': 'normal', 'flw3': 0, 'flw2': 0, 'flw1': 0, 'flw0': 0, 'roll': 0.73, 'cur2': 0.0, 'cur0': 0.0, 'cur1': 0.0, 'mgs': 0, 'compass': 163.55, 'lipoC2': 0.0, 'temp': 24.9, 'thr3': 35.0, 'depth': 0.119, 'time': 13.91, 'thr2': 31.0, 'yaw': -39.27, 'thr0': 26.0, 'thr1': 26.0}
{'lipoC3S3': 0.0, 'datetime': '2019-02-27 10:02:16.124124', 'pitch': -169.32, 'rot1': 0, 'rot0': 0, 'rot3': 0, 'rot2': 0, 'state': 'normal', 'flw3': 0, 'flw2': 0, 'flw1': 0, 'flw0': 0, 'roll': 0.73, 'cur2': 0.0, 'cur0': 0.0, 'cur1': 0.0, 'mgs': 0, 'compass': 163.56, 'lipoC2': 0.0, 'temp': 24.9, 'thr3': 35.0, 'depth': 0.109, 'time': 14.23, 'thr2': 31.0, 'yaw': -39.26, 'thr0': 26.0, 'thr1': 26.0}
{'lipoC3S3': 0.0, 'datetime': '2019-02-27 10:02:16.446543', 'pitch': -169.32, 'rot1': 0, 'rot0': 0, 'rot3': 0, 'rot2': 0, 'state': 'normal', 'flw3': 0, 'flw2': 0, 'flw1': 0, 'flw0': 0, 'roll': 0.73, 'cur2': 0.0, 'cur0': 0.0, 'cur1': 0.0, 'mgs': 0, 'compass': 163.56, 'lipoC2': 0.0, 'temp': 24.9, 'thr3': 35.0, 'depth': 0.109, 'time': 14.56, 'thr2': 31.0, 'yaw': -39.26, 'thr0': 26.0, 'thr1': 26.0}
{'lipoC3S3': 0.0, 'datetime': '2019-02-27 10:02:16.769055', 'pitch': -169.32, 'rot1': 0, 'rot0': 0, 'rot3': 0, 'rot2': 0, 'state': 'normal', 'flw3': 0, 'flw2': 0, 'flw1': 0, 'flw0': 0, 'roll': 0.73, 'cur2': 0.0, 'cur0': 0.0, 'cur1': 0.0, 'mgs': 0, 'compass': 163.56, 'lipoC2': 0.0, 'temp': 24.9, 'thr3': 35.0, 'depth': 0.109, 'time': 14.88, 'thr2': 31.0, 'yaw': -39.26, 'thr0': 26.0, 'thr1': 26.0}
{'lipoC3S3': 0.0, 'datetime': '2019-02-27 10:02:17.092027', 'pitch': -169.32, 'rot1': 0, 'rot0': 0, 'rot3': 0, 'rot2': 0, 'state': 'normal', 'flw3': 0, 'flw2': 0, 'flw1': 0, 'flw0': 0, 'roll': 0.73, 'cur2': 0.0, 'cur0': 0.0, 'cur1': 0.0, 'mgs': 0, 'compass': 163.56, 'lipoC2': 0.0, 'temp': 24.9, 'thr3': 35.0, 'depth': 0.119, 'time': 15.2, 'thr2': 31.0, 'yaw': -39.26, 'thr0': 26.0, 'thr1': 26.0}
{'lipoC3S3': 0.0, 'datetime': '2019-02-27 10:02:17.413927', 'pitch': -169.32, 'rot1': 0, 'rot0': 0, 'rot3': 0, 'rot2': 0, 'state': 'normal', 'flw3': 0, 'flw2': 0, 'flw1': 0, 'flw0': 0, 'roll': 0.73, 'cur2': 0.0, 'cur0': 0.0, 'cur1': 0.0, 'mgs': 0, 'compass': 163.56, 'lipoC2': 0.0, 'temp': 24.9, 'thr3': 35.0, 'depth': 0.109, 'time': 15.52, 'thr2': 31.0, 'yaw': -39.26, 'thr0': 26.0, 'thr1': 26.0}
{'lipoC3S3': 0.0, 'datetime': '2019-02-27 10:02:17.732234', 'pitch': -169.32, 'rot1': 0, 'rot0': 0, 'rot3': 0, 'rot2': 0, 'state': 'normal', 'flw3': 0, 'flw2': 0, 'flw1': 0, 'flw0': 0, 'roll': 0.73, 'cur2': 0.0, 'cur0': 0.0, 'cur1': 0.0, 'mgs': 0, 'compass': 163.56, 'lipoC2': 0.0, 'temp': 24.9, 'thr3': 35.0, 'depth': 0.119, 'time': 15.84, 'thr2': 31.0, 'yaw': -39.26, 'thr0': 26.0, 'thr1': 26.0}
{'lipoC3S3': 0.0, 'datetime': '2019-02-27 10:02:18.053852', 'pitch': -169.32, 'rot1': 0, 'rot0': 0, 'rot3': 0, 'rot2': 0, 'state': 'normal', 'flw3': 0, 'flw2': 0, 'flw1': 0, 'flw0': 0, 'roll': 0.73, 'cur2': 0.0, 'cur0': 0.0, 'cur1': 0.0, 'mgs': 0, 'compass': 163.56, 'lipoC2': 0.0, 'temp': 24.9, 'thr3': 35.0, 'depth': 0.109, 'time': 16.16, 'thr2': 31.0, 'yaw': -39.26, 'thr0': 26.0, 'thr1': 26.0}
{'lipoC3S3': 0.0, 'datetime': '2019-02-27 10:02:18.376858', 'pitch': -169.32, 'rot1': 0, 'rot0': 0, 'rot3': 0, 'rot2': 0, 'state': 'normal', 'flw3': 0, 'flw2': 0, 'flw1': 0, 'flw0': 0, 'roll': 0.73, 'cur2': 0.0, 'cur0': 0.0, 'cur1': 0.0, 'mgs': 0, 'compass': 163.56, 'lipoC2': 0.0, 'temp': 24.9, 'thr3': 35.0, 'depth': 0.119, 'time': 16.49, 'thr2': 31.0, 'yaw': -39.26, 'thr0': 26.0, 'thr1': 26.0}
{'lipoC3S3': 0.0, 'datetime': '2019-02-27 10:02:18.698274', 'pitch': -169.32, 'rot1': 0, 'rot0': 0, 'rot3': 0, 'rot2': 0, 'state': 'normal', 'flw3': 0, 'flw2': 0, 'flw1': 0, 'flw0': 0, 'roll': 0.73, 'cur2': 0.0, 'cur0': 0.0, 'cur1': 0.0, 'mgs': 0, 'compass': 163.56, 'lipoC2': 0.0, 'temp': 24.9, 'thr3': 35.0, 'depth': 0.109, 'time': 16.81, 'thr2': 31.0, 'yaw': -39.26, 'thr0': 26.0, 'thr1': 26.0}
{'lipoC3S3': 0.0, 'datetime': '2019-02-27 10:02:19.021008', 'pitch': -169.32, 'rot1': 0, 'rot0': 0, 'rot3': 0, 'rot2': 0, 'state': 'normal', 'flw3': 0, 'flw2': 0, 'flw1': 0, 'flw0': 0, 'roll': 0.73, 'cur2': 0.0, 'cur0': 0.0, 'cur1': 0.0, 'mgs': 0, 'compass': 163.56, 'lipoC2': 0.0, 'temp': 24.9, 'thr3': 35.0, 'depth': 0.109, 'time': 17.13, 'thr2': 31.0, 'yaw': -39.26, 'thr0': 26.0, 'thr1': 26.0}
{'lipoC3S3': 0.0, 'datetime': '2019-02-27 10:02:19.342387', 'pitch': -169.32, 'rot1': 0, 'rot0': 0, 'rot3': 0, 'rot2': 0, 'state': 'normal', 'flw3': 0, 'flw2': 0, 'flw1': 0, 'flw0': 0, 'roll': 0.74, 'cur2': 0.0, 'cur0': 0.0, 'cur1': 0.0, 'mgs': 0, 'compass': 163.55, 'lipoC2': 0.0, 'temp': 24.9, 'thr3': 35.0, 'depth': 0.119, 'time': 17.45, 'thr2': 31.0, 'yaw': -39.28, 'thr0': 26.0, 'thr1': 26.0}
{'lipoC3S3': 0.0, 'datetime': '2019-02-27 10:02:19.663955', 'pitch': -169.32, 'rot1': 0, 'rot0': 0, 'rot3': 0, 'rot2': 0, 'state': 'normal', 'flw3': 0, 'flw2': 0, 'flw1': 0, 'flw0': 0, 'roll': 0.74, 'cur2': 0.0, 'cur0': 0.0, 'cur1': 0.0, 'mgs': 0, 'compass': 163.55, 'lipoC2': 0.0, 'temp': 24.9, 'thr3': 35.0, 'depth': 0.109, 'time': 17.77, 'thr2': 31.0, 'yaw': -39.28, 'thr0': 26.0, 'thr1': 26.0}
{'lipoC3S3': 0.0, 'datetime': '2019-02-27 10:02:19.986872', 'pitch': -169.32, 'rot1': 0, 'rot0': 0, 'rot3': 0, 'rot2': 0, 'state': 'normal', 'flw3': 0, 'flw2': 0, 'flw1': 0, 'flw0': 0, 'roll': 0.74, 'cur2': 0.0, 'cur0': 0.0, 'cur1': 0.0, 'mgs': 0, 'compass': 163.55, 'lipoC2': 0.0, 'temp': 24.9, 'thr3': 35.0, 'depth': 0.119, 'time': 18.09, 'thr2': 31.0, 'yaw': -39.28, 'thr0': 26.0, 'thr1': 26.0}
{'lipoC3S3': 0.0, 'datetime': '2019-02-27 10:02:20.308169', 'pitch': -169.32, 'rot1': 0, 'rot0': 0, 'rot3': 0, 'rot2': 0, 'state': 'normal', 'flw3': 0, 'flw2': 0, 'flw1': 0, 'flw0': 0, 'roll': 0.74, 'cur2': 0.0, 'cur0': 0.0, 'cur1': 0.0, 'mgs': 0, 'compass': 163.55, 'lipoC2': 0.0, 'temp': 24.9, 'thr3': 35.0, 'depth': 0.119, 'time': 18.41, 'thr2': 31.0, 'yaw': -39.28, 'thr0': 26.0, 'thr1': 26.0}
{'lipoC3S3': 0.0, 'datetime': '2019-02-27 10:02:20.630388', 'pitch': -169.32, 'rot1': 0, 'rot0': 0, 'rot3': 0, 'rot2': 0, 'state': 'normal', 'flw3': 0, 'flw2': 0, 'flw1': 0, 'flw0': 0, 'roll': 0.74, 'cur2': 0.0, 'cur0': 0.0, 'cur1': 0.0, 'mgs': 0, 'compass': 163.55, 'lipoC2': 0.0, 'temp': 24.9, 'thr3': 35.0, 'depth': 0.109, 'time': 18.74, 'thr2': 31.0, 'yaw': -39.28, 'thr0': 26.0, 'thr1': 26.0}
{'lipoC3S3': 0.0, 'datetime': '2019-02-27 10:02:20.952339', 'pitch': -169.32, 'rot1': 0, 'rot0': 0, 'rot3': 0, 'rot2': 0, 'state': 'normal', 'flw3': 0, 'flw2': 0, 'flw1': 0, 'flw0': 0, 'roll': 0.74, 'cur2': 0.0, 'cur0': 0.0, 'cur1': 0.0, 'mgs': 0, 'compass': 163.55, 'lipoC2': 0.0, 'temp': 24.9, 'thr3': 35.0, 'depth': 0.109, 'time': 19.06, 'thr2': 31.0, 'yaw': -39.28, 'thr0': 26.0, 'thr1': 26.0}
{'lipoC3S3': 0.0, 'datetime': '2019-02-27 10:02:21.274386', 'pitch': -169.32, 'rot1': 0, 'rot0': 0, 'rot3': 0, 'rot2': 0, 'state': 'normal', 'flw3': 0, 'flw2': 0, 'flw1': 0, 'flw0': 0, 'roll': 0.74, 'cur2': 0.0, 'cur0': 0.0, 'cur1': 0.0, 'mgs': 0, 'compass': 163.55, 'lipoC2': 0.0, 'temp': 24.9, 'thr3': 35.0, 'depth': 0.109, 'time': 19.38, 'thr2': 31.0, 'yaw': -39.28, 'thr0': 26.0, 'thr1': 26.0}
{'lipoC3S3': 0.0, 'datetime': '2019-02-27 10:02:21.596807', 'pitch': -169.32, 'rot1': 0, 'rot0': 0, 'rot3': 0, 'rot2': 0, 'state': 'normal', 'flw3': 0, 'flw2': 0, 'flw1': 0, 'flw0': 0, 'roll': 0.74, 'cur2': 0.0, 'cur0': 0.0, 'cur1': 0.0, 'mgs': 0, 'compass': 163.55, 'lipoC2': 0.0, 'temp': 24.9, 'thr3': 35.0, 'depth': 0.119, 'time': 19.7, 'thr2': 31.0, 'yaw': -39.28, 'thr0': 26.0, 'thr1': 26.0}
{'lipoC3S3': 0.0, 'datetime': '2019-02-27 10:02:21.918492', 'pitch': -169.32, 'rot1': 0, 'rot0': 0, 'rot3': 0, 'rot2': 0, 'state': 'normal', 'flw3': 0, 'flw2': 0, 'flw1': 0, 'flw0': 0, 'roll': 0.74, 'cur2': 0.0, 'cur0': 0.0, 'cur1': 0.0, 'mgs': 0, 'compass': 163.55, 'lipoC2': 0.0, 'temp': 24.9, 'thr3': 35.0, 'depth': 0.119, 'time': 20.02, 'thr2': 31.0, 'yaw': -39.28, 'thr0': 26.0, 'thr1': 26.0}
{'lipoC3S3': 0.0, 'datetime': '2019-02-27 10:02:22.240216', 'pitch': -169.34, 'rot1': 0, 'rot0': 0, 'rot3': 0, 'rot2': 0, 'state': 'normal', 'flw3': 0, 'flw2': 0, 'flw1': 0, 'flw0': 0, 'roll': 0.73, 'cur2': 0.0, 'cur0': 0.0, 'cur1': 0.0, 'mgs': 0, 'compass': 163.56, 'lipoC2': 0.0, 'temp': 24.9, 'thr3': 35.0, 'depth': 0.119, 'time': 20.34, 'thr2': 31.0, 'yaw': -39.26, 'thr0': 26.0, 'thr1': 26.0}
{'lipoC3S3': 0.0, 'datetime': '2019-02-27 10:02:22.562449', 'pitch': -169.34, 'rot1': 0, 'rot0': 0, 'rot3': 0, 'rot2': 0, 'state': 'normal', 'flw3': 0, 'flw2': 0, 'flw1': 0, 'flw0': 0, 'roll': 0.73, 'cur2': 0.0, 'cur0': 0.0, 'cur1': 0.0, 'mgs': 0, 'compass': 163.56, 'lipoC2': 0.0, 'temp': 24.9, 'thr3': 35.0, 'depth': 0.119, 'time': 20.66, 'thr2': 31.0, 'yaw': -39.26, 'thr0': 26.0, 'thr1': 26.0}
{'lipoC3S3': 0.0, 'datetime': '2019-02-27 10:02:22.884800', 'pitch': -169.34, 'rot1': 0, 'rot0': 0, 'rot3': 0, 'rot2': 0, 'state': 'normal', 'flw3': 0, 'flw2': 0, 'flw1': 0, 'flw0': 0, 'roll': 0.73, 'cur2': 0.0, 'cur0': 0.0, 'cur1': 0.0, 'mgs': 0, 'compass': 163.56, 'lipoC2': 0.0, 'temp': 24.9, 'thr3': 35.0, 'depth': 0.119, 'time': 20.98, 'thr2': 31.0, 'yaw': -39.26, 'thr0': 26.0, 'thr1': 26.0}
{'lipoC3S3': 0.0, 'datetime': '2019-02-27 10:02:23.205781', 'pitch': -169.34, 'rot1': 0, 'rot0': 0, 'rot3': 0, 'rot2': 0, 'state': 'normal', 'flw3': 0, 'flw2': 0, 'flw1': 0, 'flw0': 0, 'roll': 0.73, 'cur2': 0.0, 'cur0': 0.0, 'cur1': 0.0, 'mgs': 0, 'compass': 163.56, 'lipoC2': 0.0, 'temp': 24.9, 'thr3': 35.0, 'depth': 0.119, 'time': 21.31, 'thr2': 31.0, 'yaw': -39.26, 'thr0': 26.0, 'thr1': 26.0}
{'lipoC3S3': 0.0, 'datetime': '2019-02-27 10:02:23.528696', 'pitch': -169.34, 'rot1': 0, 'rot0': 0, 'rot3': 0, 'rot2': 0, 'state': 'normal', 'flw3': 0, 'flw2': 0, 'flw1': 0, 'flw0': 0, 'roll': 0.73, 'cur2': 0.0, 'cur0': 0.0, 'cur1': 0.0, 'mgs': 0, 'compass': 163.56, 'lipoC2': 0.0, 'temp': 24.9, 'thr3': 35.0, 'depth': 0.109, 'time': 21.63, 'thr2': 31.0, 'yaw': -39.26, 'thr0': 26.0, 'thr1': 26.0}
{'lipoC3S3': 0.0, 'datetime': '2019-02-27 10:02:23.850108', 'pitch': -169.34, 'rot1': 0, 'rot0': 0, 'rot3': 0, 'rot2': 0, 'state': 'normal', 'flw3': 0, 'flw2': 0, 'flw1': 0, 'flw0': 0, 'roll': 0.73, 'cur2': 0.0, 'cur0': 0.0, 'cur1': 0.0, 'mgs': 0, 'compass': 163.56, 'lipoC2': 0.0, 'temp': 24.9, 'thr3': 35.0, 'depth': 0.109, 'time': 21.95, 'thr2': 31.0, 'yaw': -39.26, 'thr0': 26.0, 'thr1': 26.0}
{'lipoC3S3': 0.0, 'datetime': '2019-02-27 10:02:24.171874', 'pitch': -169.33, 'rot1': 0, 'rot0': 0, 'rot3': 0, 'rot2': 0, 'state': 'normal', 'flw3': 0, 'flw2': 0, 'flw1': 0, 'flw0': 0, 'roll': 0.71, 'cur2': 0.0, 'cur0': 0.0, 'cur1': 0.0, 'mgs': 0, 'compass': 163.56, 'lipoC2': 0.0, 'temp': 24.9, 'thr3': 35.0, 'depth': 0.109, 'time': 22.27, 'thr2': 31.0, 'yaw': -39.27, 'thr0': 26.0, 'thr1': 26.0}
{'lipoC3S3': 0.0, 'datetime': '2019-02-27 10:02:24.495052', 'pitch': -169.32, 'rot1': 0, 'rot0': 0, 'rot3': 0, 'rot2': 0, 'state': 'normal', 'flw3': 0, 'flw2': 0, 'flw1': 0, 'flw0': 0, 'roll': 0.72, 'cur2': 0.0, 'cur0': 0.0, 'cur1': 0.0, 'mgs': 0, 'compass': 163.56, 'lipoC2': 0.0, 'temp': 24.9, 'thr3': 35.0, 'depth': 0.119, 'time': 22.59, 'thr2': 31.0, 'yaw': -39.26, 'thr0': 26.0, 'thr1': 26.0}
{'lipoC3S3': 0.0, 'datetime': '2019-02-27 10:02:24.816337', 'pitch': -169.3, 'rot1': 0, 'rot0': 0, 'rot3': 0, 'rot2': 0, 'state': 'normal', 'flw3': 0, 'flw2': 0, 'flw1': 0, 'flw0': 0, 'roll': 0.76, 'cur2': 0.0, 'cur0': 0.0, 'cur1': 0.0, 'mgs': 0, 'compass': 163.55, 'lipoC2': 0.0, 'temp': 24.9, 'thr3': 35.0, 'depth': 0.109, 'time': 22.91, 'thr2': 31.0, 'yaw': -39.28, 'thr0': 26.0, 'thr1': 26.0}
{'lipoC3S3': 0.0, 'datetime': '2019-02-27 10:02:25.138809', 'pitch': -169.3, 'rot1': 0, 'rot0': 0, 'rot3': 0, 'rot2': 0, 'state': 'normal', 'flw3': 0, 'flw2': 0, 'flw1': 0, 'flw0': 0, 'roll': 0.76, 'cur2': 0.0, 'cur0': 0.0, 'cur1': 0.0, 'mgs': 0, 'compass': 163.55, 'lipoC2': 0.0, 'temp': 24.9, 'thr3': 35.0, 'depth': 0.119, 'time': 23.23, 'thr2': 31.0, 'yaw': -39.28, 'thr0': 26.0, 'thr1': 26.0}
{'lipoC3S3': 0.0, 'datetime': '2019-02-27 10:02:25.460433', 'pitch': -169.3, 'rot1': 0, 'rot0': 0, 'rot3': 0, 'rot2': 0, 'state': 'normal', 'flw3': 0, 'flw2': 0, 'flw1': 0, 'flw0': 0, 'roll': 0.76, 'cur2': 0.0, 'cur0': 0.0, 'cur1': 0.0, 'mgs': 0, 'compass': 163.55, 'lipoC2': 0.0, 'temp': 24.9, 'thr3': 35.0, 'depth': 0.119, 'time': 23.56, 'thr2': 31.0, 'yaw': -39.28, 'thr0': 26.0, 'thr1': 26.0}
{'lipoC3S3': 0.0, 'datetime': '2019-02-27 10:02:25.783110', 'pitch': -169.3, 'rot1': 0, 'rot0': 0, 'rot3': 0, 'rot2': 0, 'state': 'normal', 'flw3': 0, 'flw2': 0, 'flw1': 0, 'flw0': 0, 'roll': 0.76, 'cur2': 0.0, 'cur0': 0.0, 'cur1': 0.0, 'mgs': 0, 'compass': 163.54, 'lipoC2': 0.0, 'temp': 24.9, 'thr3': 35.0, 'depth': 0.109, 'time': 23.88, 'thr2': 31.0, 'yaw': -39.28, 'thr0': 26.0, 'thr1': 26.0}
{'lipoC3S3': 0.0, 'datetime': '2019-02-27 10:02:26.105225', 'pitch': -169.3, 'rot1': 0, 'rot0': 0, 'rot3': 0, 'rot2': 0, 'state': 'normal', 'flw3': 0, 'flw2': 0, 'flw1': 0, 'flw0': 0, 'roll': 0.76, 'cur2': 0.0, 'cur0': 0.0, 'cur1': 0.0, 'mgs': 0, 'compass': 163.55, 'lipoC2': 0.0, 'temp': 24.9, 'thr3': 35.0, 'depth': 0.119, 'time': 24.2, 'thr2': 31.0, 'yaw': -39.28, 'thr0': 26.0, 'thr1': 26.0}
{'lipoC3S3': 0.0, 'datetime': '2019-02-27 10:02:26.426484', 'pitch': -169.28, 'rot1': 0, 'rot0': 0, 'rot3': 0, 'rot2': 0, 'state': 'normal', 'flw3': 0, 'flw2': 0, 'flw1': 0, 'flw0': 0, 'roll': 0.77, 'cur2': 0.0, 'cur0': 0.0, 'cur1': 0.0, 'mgs': 0, 'compass': 163.55, 'lipoC2': 0.0, 'temp': 24.9, 'thr3': 35.0, 'depth': 0.119, 'time': 24.52, 'thr2': 31.0, 'yaw': -39.28, 'thr0': 26.0, 'thr1': 26.0}
{'lipoC3S3': 0.0, 'datetime': '2019-02-27 10:02:26.748531', 'pitch': -169.28, 'rot1': 0, 'rot0': 0, 'rot3': 0, 'rot2': 0, 'state': 'normal', 'flw3': 0, 'flw2': 0, 'flw1': 0, 'flw0': 0, 'roll': 0.77, 'cur2': 0.0, 'cur0': 0.0, 'cur1': 0.0, 'mgs': 0, 'compass': 163.54, 'lipoC2': 0.0, 'temp': 24.9, 'thr3': 35.0, 'depth': 0.109, 'time': 24.84, 'thr2': 31.0, 'yaw': -39.28, 'thr0': 26.0, 'thr1': 26.0}
{'lipoC3S3': 0.0, 'datetime': '2019-02-27 10:02:27.070989', 'pitch': -169.3, 'rot1': 0, 'rot0': 0, 'rot3': 0, 'rot2': 0, 'state': 'normal', 'flw3': 0, 'flw2': 0, 'flw1': 0, 'flw0': 0, 'roll': 0.74, 'cur2': 0.0, 'cur0': 0.0, 'cur1': 0.0, 'mgs': 0, 'compass': 163.55, 'lipoC2': 0.0, 'temp': 24.9, 'thr3': 35.0, 'depth': 0.119, 'time': 25.16, 'thr2': 31.0, 'yaw': -39.28, 'thr0': 26.0, 'thr1': 26.0}
{'lipoC3S3': 0.0, 'datetime': '2019-02-27 10:02:27.392541', 'pitch': -169.3, 'rot1': 0, 'rot0': 0, 'rot3': 0, 'rot2': 0, 'state': 'normal', 'flw3': 0, 'flw2': 0, 'flw1': 0, 'flw0': 0, 'roll': 0.71, 'cur2': 0.0, 'cur0': 0.0, 'cur1': 0.0, 'mgs': 0, 'compass': 163.54, 'lipoC2': 0.0, 'temp': 24.9, 'thr3': 35.0, 'depth': 0.109, 'time': 25.48, 'thr2': 31.0, 'yaw': -39.29, 'thr0': 26.0, 'thr1': 26.0}
{'lipoC3S3': 0.0, 'datetime': '2019-02-27 10:02:27.714587', 'pitch': -169.32, 'rot1': 0, 'rot0': 0, 'rot3': 0, 'rot2': 0, 'state': 'normal', 'flw3': 0, 'flw2': 0, 'flw1': 0, 'flw0': 0, 'roll': 0.7, 'cur2': 0.0, 'cur0': 0.0, 'cur1': 0.0, 'mgs': 0, 'compass': 163.54, 'lipoC2': 0.0, 'temp': 24.9, 'thr3': 35.0, 'depth': 0.109, 'time': 25.8, 'thr2': 31.0, 'yaw': -39.28, 'thr0': 26.0, 'thr1': 26.0}
{'lipoC3S3': 0.0, 'datetime': '2019-02-27 10:02:28.036601', 'pitch': -169.35, 'rot1': 0, 'rot0': 0, 'rot3': 0, 'rot2': 0, 'state': 'normal', 'flw3': 0, 'flw2': 0, 'flw1': 0, 'flw0': 0, 'roll': 0.68, 'cur2': 0.0, 'cur0': 0.0, 'cur1': 0.0, 'mgs': 0, 'compass': 163.53, 'lipoC2': 0.0, 'temp': 24.9, 'thr3': 35.0, 'depth': 0.109, 'time': 26.13, 'thr2': 31.0, 'yaw': -39.29, 'thr0': 26.0, 'thr1': 26.0}
{'lipoC3S3': 0.0, 'datetime': '2019-02-27 10:02:28.359147', 'pitch': -169.35, 'rot1': 0, 'rot0': 0, 'rot3': 0, 'rot2': 0, 'state': 'normal', 'flw3': 0, 'flw2': 0, 'flw1': 0, 'flw0': 0, 'roll': 0.72, 'cur2': 0.0, 'cur0': 0.0, 'cur1': 0.0, 'mgs': 0, 'compass': 163.52, 'lipoC2': 0.0, 'temp': 24.9, 'thr3': 35.0, 'depth': 0.119, 'time': 26.45, 'thr2': 31.0, 'yaw': -39.31, 'thr0': 26.0, 'thr1': 26.0}
{'lipoC3S3': 0.0, 'datetime': '2019-02-27 10:02:28.680463', 'pitch': -169.36, 'rot1': 0, 'rot0': 0, 'rot3': 0, 'rot2': 0, 'state': 'normal', 'flw3': 0, 'flw2': 0, 'flw1': 0, 'flw0': 0, 'roll': 0.71, 'cur2': 0.0, 'cur0': 0.0, 'cur1': 0.0, 'mgs': 0, 'compass': 163.54, 'lipoC2': 0.0, 'temp': 24.9, 'thr3': 35.0, 'depth': 0.109, 'time': 26.77, 'thr2': 31.0, 'yaw': -39.28, 'thr0': 26.0, 'thr1': 26.0}
{'lipoC3S3': 0.0, 'datetime': '2019-02-27 10:02:29.003200', 'pitch': -169.35, 'rot1': 0, 'rot0': 0, 'rot3': 0, 'rot2': 0, 'state': 'normal', 'flw3': 0, 'flw2': 0, 'flw1': 0, 'flw0': 0, 'roll': 0.71, 'cur2': 0.0, 'cur0': 0.0, 'cur1': 0.0, 'mgs': 0, 'compass': 163.54, 'lipoC2': 0.0, 'temp': 24.9, 'thr3': 35.0, 'depth': 0.109, 'time': 27.09, 'thr2': 31.0, 'yaw': -39.28, 'thr0': 26.0, 'thr1': 26.0}
{'lipoC3S3': 0.0, 'datetime': '2019-02-27 10:02:29.324779', 'pitch': -169.35, 'rot1': 0, 'rot0': 0, 'rot3': 0, 'rot2': 0, 'state': 'normal', 'flw3': 0, 'flw2': 0, 'flw1': 0, 'flw0': 0, 'roll': 0.73, 'cur2': 0.0, 'cur0': 0.0, 'cur1': 0.0, 'mgs': 0, 'compass': 163.54, 'lipoC2': 0.0, 'temp': 24.9, 'thr3': 35.0, 'depth': 0.119, 'time': 27.41, 'thr2': 31.0, 'yaw': -39.29, 'thr0': 26.0, 'thr1': 26.0}
{'lipoC3S3': 0.0, 'datetime': '2019-02-27 10:02:29.646075', 'pitch': -169.35, 'rot1': 0, 'rot0': 0, 'rot3': 0, 'rot2': 0, 'state': 'normal', 'flw3': 0, 'flw2': 0, 'flw1': 0, 'flw0': 0, 'roll': 0.73, 'cur2': 0.0, 'cur0': 0.0, 'cur1': 0.0, 'mgs': 0, 'compass': 163.55, 'lipoC2': 0.0, 'temp': 24.9, 'thr3': 35.0, 'depth': 0.119, 'time': 27.73, 'thr2': 31.0, 'yaw': -39.27, 'thr0': 26.0, 'thr1': 26.0}
{'lipoC3S3': 0.0, 'datetime': '2019-02-27 10:02:29.969297', 'pitch': -169.35, 'rot1': 0, 'rot0': 0, 'rot3': 0, 'rot2': 0, 'state': 'normal', 'flw3': 0, 'flw2': 0, 'flw1': 0, 'flw0': 0, 'roll': 0.73, 'cur2': 0.0, 'cur0': 0.0, 'cur1': 0.0, 'mgs': 0, 'compass': 163.55, 'lipoC2': 0.0, 'temp': 24.9, 'thr3': 35.0, 'depth': 0.109, 'time': 28.05, 'thr2': 31.0, 'yaw': -39.28, 'thr0': 26.0, 'thr1': 26.0}
{'lipoC3S3': 0.0, 'datetime': '2019-02-27 10:02:30.290387', 'pitch': -169.35, 'rot1': 0, 'rot0': 0, 'rot3': 0, 'rot2': 0, 'state': 'normal', 'flw3': 0, 'flw2': 0, 'flw1': 0, 'flw0': 0, 'roll': 0.73, 'cur2': 0.0, 'cur0': 0.0, 'cur1': 0.0, 'mgs': 0, 'compass': 163.55, 'lipoC2': 0.0, 'temp': 24.9, 'thr3': 35.0, 'depth': 0.119, 'time': 28.38, 'thr2': 31.0, 'yaw': -39.28, 'thr0': 26.0, 'thr1': 26.0}
{'lipoC3S3': 0.0, 'datetime': '2019-02-27 10:02:30.612603', 'pitch': -169.36, 'rot1': 0, 'rot0': 0, 'rot3': 0, 'rot2': 0, 'state': 'normal', 'flw3': 0, 'flw2': 0, 'flw1': 0, 'flw0': 0, 'roll': 0.73, 'cur2': 0.0, 'cur0': 0.0, 'cur1': 0.0, 'mgs': 0, 'compass': 163.55, 'lipoC2': 0.0, 'temp': 24.9, 'thr3': 35.0, 'depth': 0.109, 'time': 28.7, 'thr2': 31.0, 'yaw': -39.28, 'thr0': 26.0, 'thr1': 26.0}
{'lipoC3S3': 0.0, 'datetime': '2019-02-27 10:02:30.939213', 'pitch': -169.3, 'rot1': 0, 'rot0': 0, 'rot3': 0, 'rot2': 0, 'state': 'normal', 'flw3': 0, 'flw2': 0, 'flw1': 0, 'flw0': 0, 'roll': 0.72, 'cur2': 0.0, 'cur0': 0.0, 'cur1': 0.0, 'mgs': 0, 'compass': 163.64, 'lipoC2': 0.0, 'temp': 24.9, 'thr3': 35.0, 'depth': 0.109, 'time': 29.02, 'thr2': 31.0, 'yaw': -39.19, 'thr0': 26.0, 'thr1': 26.0}
{'lipoC3S3': 0.0, 'datetime': '2019-02-27 10:02:31.256315', 'pitch': -169.38, 'rot1': 0, 'rot0': 0, 'rot3': 0, 'rot2': 0, 'state': 'normal', 'flw3': 0, 'flw2': 0, 'flw1': 0, 'flw0': 0, 'roll': 0.71, 'cur2': 0.0, 'cur0': 0.0, 'cur1': 0.0, 'mgs': 0, 'compass': 163.58, 'lipoC2': 0.0, 'temp': 24.9, 'thr3': 35.0, 'depth': 0.119, 'time': 29.34, 'thr2': 31.0, 'yaw': -39.24, 'thr0': 26.0, 'thr1': 26.0}
{'lipoC3S3': 0.0, 'datetime': '2019-02-27 10:02:31.580678', 'pitch': -169.38, 'rot1': 0, 'rot0': 0, 'rot3': 0, 'rot2': 0, 'state': 'normal', 'flw3': 0, 'flw2': 0, 'flw1': 0, 'flw0': 0, 'roll': 0.69, 'cur2': 0.0, 'cur0': 0.0, 'cur1': 0.0, 'mgs': 0, 'compass': 163.59, 'lipoC2': 0.0, 'temp': 24.9, 'thr3': 35.0, 'depth': 0.119, 'time': 29.66, 'thr2': 31.0, 'yaw': -39.23, 'thr0': 26.0, 'thr1': 26.0}
{'lipoC3S3': 0.0, 'datetime': '2019-02-27 10:02:31.904945', 'pitch': -169.39, 'rot1': 0, 'rot0': 0, 'rot3': 0, 'rot2': 0, 'state': 'normal', 'flw3': 0, 'flw2': 0, 'flw1': 0, 'flw0': 0, 'roll': 0.67, 'cur2': 0.0, 'cur0': 0.0, 'cur1': 0.0, 'mgs': 0, 'compass': 163.6, 'lipoC2': 0.0, 'temp': 24.9, 'thr3': 35.0, 'depth': 0.119, 'time': 29.98, 'thr2': 31.0, 'yaw': -39.23, 'thr0': 26.0, 'thr1': 26.0}
{'lipoC3S3': 0.0, 'datetime': '2019-02-27 10:02:32.225774', 'pitch': -169.39, 'rot1': 0, 'rot0': 0, 'rot3': 0, 'rot2': 0, 'state': 'normal', 'flw3': 0, 'flw2': 0, 'flw1': 0, 'flw0': 0, 'roll': 0.65, 'cur2': 0.0, 'cur0': 0.0, 'cur1': 0.0, 'mgs': 0, 'compass': 163.59, 'lipoC2': 0.0, 'temp': 24.9, 'thr3': 35.0, 'depth': 0.119, 'time': 30.3, 'thr2': 31.0, 'yaw': -39.23, 'thr0': 26.0, 'thr1': 26.0}
{'lipoC3S3': 0.0, 'datetime': '2019-02-27 10:02:32.547497', 'pitch': -169.39, 'rot1': 0, 'rot0': 0, 'rot3': 0, 'rot2': 0, 'state': 'normal', 'flw3': 0, 'flw2': 0, 'flw1': 0, 'flw0': 0, 'roll': 0.65, 'cur2': 0.0, 'cur0': 0.0, 'cur1': 0.0, 'mgs': 0, 'compass': 163.59, 'lipoC2': 0.0, 'temp': 24.9, 'thr3': 35.0, 'depth': 0.119, 'time': 30.63, 'thr2': 31.0, 'yaw': -39.23, 'thr0': 26.0, 'thr1': 26.0}
{'lipoC3S3': 0.0, 'datetime': '2019-02-27 10:02:32.871956', 'pitch': -169.39, 'rot1': 0, 'rot0': 0, 'rot3': 0, 'rot2': 0, 'state': 'normal', 'flw3': 0, 'flw2': 0, 'flw1': 0, 'flw0': 0, 'roll': 0.65, 'cur2': 0.0, 'cur0': 0.0, 'cur1': 0.0, 'mgs': 0, 'compass': 163.59, 'lipoC2': 0.0, 'temp': 24.9, 'thr3': 35.0, 'depth': 0.109, 'time': 30.95, 'thr2': 31.0, 'yaw': -39.23, 'thr0': 26.0, 'thr1': 26.0}
{'lipoC3S3': 0.0, 'datetime': '2019-02-27 10:02:33.190193', 'pitch': -169.39, 'rot1': 0, 'rot0': 0, 'rot3': 0, 'rot2': 0, 'state': 'normal', 'flw3': 0, 'flw2': 0, 'flw1': 0, 'flw0': 0, 'roll': 0.65, 'cur2': 0.0, 'cur0': 0.0, 'cur1': 0.0, 'mgs': 0, 'compass': 163.59, 'lipoC2': 0.0, 'temp': 24.9, 'thr3': 35.0, 'depth': 0.109, 'time': 31.27, 'thr2': 31.0, 'yaw': -39.23, 'thr0': 26.0, 'thr1': 26.0}
{'lipoC3S3': 0.0, 'datetime': '2019-02-27 10:02:33.510960', 'pitch': -169.39, 'rot1': 0, 'rot0': 0, 'rot3': 0, 'rot2': 0, 'state': 'normal', 'flw3': 0, 'flw2': 0, 'flw1': 0, 'flw0': 0, 'roll': 0.65, 'cur2': 0.0, 'cur0': 0.0, 'cur1': 0.0, 'mgs': 0, 'compass': 163.59, 'lipoC2': 0.0, 'temp': 24.9, 'thr3': 35.0, 'depth': 0.109, 'time': 31.59, 'thr2': 31.0, 'yaw': -39.23, 'thr0': 26.0, 'thr1': 26.0}
{'lipoC3S3': 0.0, 'datetime': '2019-02-27 10:02:33.832748', 'pitch': -169.4, 'rot1': 0, 'rot0': 0, 'rot3': 0, 'rot2': 0, 'state': 'normal', 'flw3': 0, 'flw2': 0, 'flw1': 0, 'flw0': 0, 'roll': 0.66, 'cur2': 0.0, 'cur0': 0.0, 'cur1': 0.0, 'mgs': 0, 'compass': 163.6, 'lipoC2': 0.0, 'temp': 24.9, 'thr3': 35.0, 'depth': 0.109, 'time': 31.91, 'thr2': 31.0, 'yaw': -39.23, 'thr0': 26.0, 'thr1': 26.0}
{'lipoC3S3': 0.0, 'datetime': '2019-02-27 10:02:34.155112', 'pitch': -169.4, 'rot1': 0, 'rot0': 0, 'rot3': 0, 'rot2': 0, 'state': 'normal', 'flw3': 0, 'flw2': 0, 'flw1': 0, 'flw0': 0, 'roll': 0.66, 'cur2': 0.0, 'cur0': 0.0, 'cur1': 0.0, 'mgs': 0, 'compass': 163.6, 'lipoC2': 0.0, 'temp': 24.9, 'thr3': 35.0, 'depth': 0.109, 'time': 32.23, 'thr2': 31.0, 'yaw': -39.23, 'thr0': 26.0, 'thr1': 26.0}
{'lipoC3S3': 0.0, 'datetime': '2019-02-27 10:02:34.477543', 'pitch': -169.4, 'rot1': 0, 'rot0': 0, 'rot3': 0, 'rot2': 0, 'state': 'normal', 'flw3': 0, 'flw2': 0, 'flw1': 0, 'flw0': 0, 'roll': 0.66, 'cur2': 0.0, 'cur0': 0.0, 'cur1': 0.0, 'mgs': 0, 'compass': 163.6, 'lipoC2': 0.0, 'temp': 24.9, 'thr3': 35.0, 'depth': 0.119, 'time': 32.55, 'thr2': 31.0, 'yaw': -39.23, 'thr0': 26.0, 'thr1': 26.0}
{'lipoC3S3': 0.0, 'datetime': '2019-02-27 10:02:34.799052', 'pitch': -169.39, 'rot1': 0, 'rot0': 0, 'rot3': 0, 'rot2': 0, 'state': 'normal', 'flw3': 0, 'flw2': 0, 'flw1': 0, 'flw0': 0, 'roll': 0.66, 'cur2': 0.0, 'cur0': 0.0, 'cur1': 0.0, 'mgs': 0, 'compass': 163.6, 'lipoC2': 0.0, 'temp': 24.9, 'thr3': 35.0, 'depth': 0.109, 'time': 32.88, 'thr2': 31.0, 'yaw': -39.22, 'thr0': 26.0, 'thr1': 26.0}
{'lipoC3S3': 0.0, 'datetime': '2019-02-27 10:02:35.121458', 'pitch': -169.39, 'rot1': 0, 'rot0': 0, 'rot3': 0, 'rot2': 0, 'state': 'normal', 'flw3': 0, 'flw2': 0, 'flw1': 0, 'flw0': 0, 'roll': 0.66, 'cur2': 0.0, 'cur0': 0.0, 'cur1': 0.0, 'mgs': 0, 'compass': 163.6, 'lipoC2': 0.0, 'temp': 24.9, 'thr3': 35.0, 'depth': 0.109, 'time': 33.2, 'thr2': 31.0, 'yaw': -39.22, 'thr0': 26.0, 'thr1': 26.0}
{'lipoC3S3': 0.0, 'datetime': '2019-02-27 10:02:35.443172', 'pitch': -169.39, 'rot1': 0, 'rot0': 0, 'rot3': 0, 'rot2': 0, 'state': 'normal', 'flw3': 0, 'flw2': 0, 'flw1': 0, 'flw0': 0, 'roll': 0.66, 'cur2': 0.0, 'cur0': 0.0, 'cur1': 0.0, 'mgs': 0, 'compass': 163.6, 'lipoC2': 0.0, 'temp': 24.9, 'thr3': 35.0, 'depth': 0.119, 'time': 33.52, 'thr2': 31.0, 'yaw': -39.22, 'thr0': 26.0, 'thr1': 26.0}
{'lipoC3S3': 0.0, 'datetime': '2019-02-27 10:02:35.764561', 'pitch': -169.39, 'rot1': 0, 'rot0': 0, 'rot3': 0, 'rot2': 0, 'state': 'normal', 'flw3': 0, 'flw2': 0, 'flw1': 0, 'flw0': 0, 'roll': 0.66, 'cur2': 0.0, 'cur0': 0.0, 'cur1': 0.0, 'mgs': 0, 'compass': 163.6, 'lipoC2': 0.0, 'temp': 24.9, 'thr3': 35.0, 'depth': 0.109, 'time': 33.84, 'thr2': 31.0, 'yaw': -39.22, 'thr0': 26.0, 'thr1': 26.0}
{'lipoC3S3': 0.0, 'datetime': '2019-02-27 10:02:36.087145', 'pitch': -169.39, 'rot1': 0, 'rot0': 0, 'rot3': 0, 'rot2': 0, 'state': 'normal', 'flw3': 0, 'flw2': 0, 'flw1': 0, 'flw0': 0, 'roll': 0.66, 'cur2': 0.0, 'cur0': 0.0, 'cur1': 0.0, 'mgs': 0, 'compass': 163.6, 'lipoC2': 0.0, 'temp': 24.9, 'thr3': 35.0, 'depth': 0.119, 'time': 34.16, 'thr2': 31.0, 'yaw': -39.22, 'thr0': 26.0, 'thr1': 26.0}
{'lipoC3S3': 0.0, 'datetime': '2019-02-27 10:02:36.408630', 'pitch': -169.39, 'rot1': 0, 'rot0': 0, 'rot3': 0, 'rot2': 0, 'state': 'normal', 'flw3': 0, 'flw2': 0, 'flw1': 0, 'flw0': 0, 'roll': 0.64, 'cur2': 0.0, 'cur0': 0.0, 'cur1': 0.0, 'mgs': 0, 'compass': 163.62, 'lipoC2': 0.0, 'temp': 24.9, 'thr3': 35.0, 'depth': 0.109, 'time': 34.48, 'thr2': 31.0, 'yaw': -39.21, 'thr0': 26.0, 'thr1': 26.0}
{'lipoC3S3': 0.0, 'datetime': '2019-02-27 10:02:36.730933', 'pitch': -169.39, 'rot1': 0, 'rot0': 0, 'rot3': 0, 'rot2': 0, 'state': 'normal', 'flw3': 0, 'flw2': 0, 'flw1': 0, 'flw0': 0, 'roll': 0.64, 'cur2': 0.0, 'cur0': 0.0, 'cur1': 0.0, 'mgs': 0, 'compass': 163.61, 'lipoC2': 0.0, 'temp': 24.9, 'thr3': 35.0, 'depth': 0.109, 'time': 34.8, 'thr2': 31.0, 'yaw': -39.22, 'thr0': 26.0, 'thr1': 26.0}
{'lipoC3S3': 0.0, 'datetime': '2019-02-27 10:02:37.052819', 'pitch': -169.41, 'rot1': 0, 'rot0': 0, 'rot3': 0, 'rot2': 0, 'state': 'normal', 'flw3': 0, 'flw2': 0, 'flw1': 0, 'flw0': 0, 'roll': 0.64, 'cur2': 0.0, 'cur0': 0.0, 'cur1': 0.0, 'mgs': 0, 'compass': 163.6, 'lipoC2': 0.0, 'temp': 24.9, 'thr3': 35.0, 'depth': 0.109, 'time': 35.13, 'thr2': 31.0, 'yaw': -39.22, 'thr0': 26.0, 'thr1': 26.0}
{'lipoC3S3': 0.0, 'datetime': '2019-02-27 10:02:37.374742', 'pitch': -169.41, 'rot1': 0, 'rot0': 0, 'rot3': 0, 'rot2': 0, 'state': 'normal', 'flw3': 0, 'flw2': 0, 'flw1': 0, 'flw0': 0, 'roll': 0.64, 'cur2': 0.0, 'cur0': 0.0, 'cur1': 0.0, 'mgs': 0, 'compass': 163.6, 'lipoC2': 0.0, 'temp': 24.9, 'thr3': 35.0, 'depth': 0.109, 'time': 35.45, 'thr2': 31.0, 'yaw': -39.23, 'thr0': 26.0, 'thr1': 26.0}
{'lipoC3S3': 0.0, 'datetime': '2019-02-27 10:02:37.697450', 'pitch': -169.41, 'rot1': 0, 'rot0': 0, 'rot3': 0, 'rot2': 0, 'state': 'normal', 'flw3': 0, 'flw2': 0, 'flw1': 0, 'flw0': 0, 'roll': 0.64, 'cur2': 0.0, 'cur0': 0.0, 'cur1': 0.0, 'mgs': 0, 'compass': 163.6, 'lipoC2': 0.0, 'temp': 24.9, 'thr3': 35.0, 'depth': 0.119, 'time': 35.77, 'thr2': 31.0, 'yaw': -39.23, 'thr0': 26.0, 'thr1': 26.0}
{'lipoC3S3': 0.0, 'datetime': '2019-02-27 10:02:38.018780', 'pitch': -169.41, 'rot1': 0, 'rot0': 0, 'rot3': 0, 'rot2': 0, 'state': 'normal', 'flw3': 0, 'flw2': 0, 'flw1': 0, 'flw0': 0, 'roll': 0.64, 'cur2': 0.0, 'cur0': 0.0, 'cur1': 0.0, 'mgs': 0, 'compass': 163.6, 'lipoC2': 0.0, 'temp': 24.9, 'thr3': 35.0, 'depth': 0.119, 'time': 36.09, 'thr2': 31.0, 'yaw': -39.23, 'thr0': 26.0, 'thr1': 26.0}
{'lipoC3S3': 0.0, 'datetime': '2019-02-27 10:02:38.340741', 'pitch': -169.41, 'rot1': 0, 'rot0': 0, 'rot3': 0, 'rot2': 0, 'state': 'normal', 'flw3': 0, 'flw2': 0, 'flw1': 0, 'flw0': 0, 'roll': 0.64, 'cur2': 0.0, 'cur0': 0.0, 'cur1': 0.0, 'mgs': 0, 'compass': 163.6, 'lipoC2': 0.0, 'temp': 24.9, 'thr3': 35.0, 'depth': 0.119, 'time': 36.41, 'thr2': 31.0, 'yaw': -39.23, 'thr0': 26.0, 'thr1': 26.0}
{'lipoC3S3': 0.0, 'datetime': '2019-02-27 10:02:38.662971', 'pitch': -169.41, 'rot1': 0, 'rot0': 0, 'rot3': 0, 'rot2': 0, 'state': 'normal', 'flw3': 0, 'flw2': 0, 'flw1': 0, 'flw0': 0, 'roll': 0.64, 'cur2': 0.0, 'cur0': 0.0, 'cur1': 0.0, 'mgs': 0, 'compass': 163.6, 'lipoC2': 0.0, 'temp': 24.9, 'thr3': 35.0, 'depth': 0.119, 'time': 36.73, 'thr2': 31.0, 'yaw': -39.23, 'thr0': 26.0, 'thr1': 26.0}
{'lipoC3S3': 0.0, 'datetime': '2019-02-27 10:02:38.985109', 'pitch': -169.41, 'rot1': 0, 'rot0': 0, 'rot3': 0, 'rot2': 0, 'state': 'normal', 'flw3': 0, 'flw2': 0, 'flw1': 0, 'flw0': 0, 'roll': 0.64, 'cur2': 0.0, 'cur0': 0.0, 'cur1': 0.0, 'mgs': 0, 'compass': 163.6, 'lipoC2': 0.0, 'temp': 24.9, 'thr3': 35.0, 'depth': 0.109, 'time': 37.05, 'thr2': 31.0, 'yaw': -39.23, 'thr0': 26.0, 'thr1': 26.0}
{'lipoC3S3': 0.0, 'datetime': '2019-02-27 10:02:39.301439', 'pitch': -169.41, 'rot1': 0, 'rot0': 0, 'rot3': 0, 'rot2': 0, 'state': 'normal', 'flw3': 0, 'flw2': 0, 'flw1': 0, 'flw0': 0, 'roll': 0.64, 'cur2': 0.0, 'cur0': 0.0, 'cur1': 0.0, 'mgs': 0, 'compass': 163.6, 'lipoC2': 0.0, 'temp': 24.9, 'thr3': 35.0, 'depth': 0.109, 'time': 37.37, 'thr2': 31.0, 'yaw': -39.23, 'thr0': 26.0, 'thr1': 26.0}
{'lipoC3S3': 0.0, 'datetime': '2019-02-27 10:02:39.622002', 'pitch': -169.41, 'rot1': 0, 'rot0': 0, 'rot3': 0, 'rot2': 0, 'state': 'normal', 'flw3': 0, 'flw2': 0, 'flw1': 0, 'flw0': 0, 'roll': 0.64, 'cur2': 0.0, 'cur0': 0.0, 'cur1': 0.0, 'mgs': 0, 'compass': 163.6, 'lipoC2': 0.0, 'temp': 24.9, 'thr3': 35.0, 'depth': 0.109, 'time': 37.7, 'thr2': 31.0, 'yaw': -39.23, 'thr0': 26.0, 'thr1': 26.0}
{'lipoC3S3': 0.0, 'datetime': '2019-02-27 10:02:39.955437', 'pitch': -169.41, 'rot1': 0, 'rot0': 0, 'rot3': 0, 'rot2': 0, 'state': 'normal', 'flw3': 0, 'flw2': 0, 'flw1': 0, 'flw0': 0, 'roll': 0.64, 'cur2': 0.0, 'cur0': 0.0, 'cur1': 0.0, 'mgs': 0, 'compass': 163.6, 'lipoC2': 0.0, 'temp': 24.9, 'thr3': 35.0, 'depth': 0.109, 'time': 38.02, 'thr2': 31.0, 'yaw': -39.22, 'thr0': 26.0, 'thr1': 26.0}
{'lipoC3S3': 0.0, 'datetime': '2019-02-27 10:02:40.277197', 'pitch': -169.16, 'rot1': 0, 'rot0': 0, 'rot3': 0, 'rot2': 0, 'state': 'normal', 'flw3': 0, 'flw2': 0, 'flw1': 0, 'flw0': 0, 'roll': 0.19, 'cur2': 0.0, 'cur0': 0.0, 'cur1': 0.0, 'mgs': 0, 'compass': 163.67, 'lipoC2': 0.0, 'temp': 24.9, 'thr3': 35.0, 'depth': 0.109, 'time': 38.34, 'thr2': 31.0, 'yaw': -39.15, 'thr0': 26.0, 'thr1': 26.0}
{'lipoC3S3': 0.0, 'datetime': '2019-02-27 10:02:40.599877', 'pitch': -169.36, 'rot1': 0, 'rot0': 0, 'rot3': 0, 'rot2': 0, 'state': 'normal', 'flw3': 0, 'flw2': 0, 'flw1': 0, 'flw0': 0, 'roll': 0.61, 'cur2': 0.0, 'cur0': 0.0, 'cur1': 0.0, 'mgs': 0, 'compass': 163.7, 'lipoC2': 0.0, 'temp': 24.9, 'thr3': 35.0, 'depth': 0.119, 'time': 38.66, 'thr2': 31.0, 'yaw': -39.13, 'thr0': 26.0, 'thr1': 26.0}
{'lipoC3S3': 0.0, 'datetime': '2019-02-27 10:02:40.920675', 'pitch': -169.36, 'rot1': 0, 'rot0': 0, 'rot3': 0, 'rot2': 0, 'state': 'normal', 'flw3': 0, 'flw2': 0, 'flw1': 0, 'flw0': 0, 'roll': 0.61, 'cur2': 0.0, 'cur0': 0.0, 'cur1': 0.0, 'mgs': 0, 'compass': 163.68, 'lipoC2': 0.0, 'temp': 24.9, 'thr3': 35.0, 'depth': 0.109, 'time': 38.98, 'thr2': 31.0, 'yaw': -39.14, 'thr0': 26.0, 'thr1': 26.0}
{'lipoC3S3': 0.0, 'datetime': '2019-02-27 10:02:41.243858', 'pitch': -169.36, 'rot1': 0, 'rot0': 0, 'rot3': 0, 'rot2': 0, 'state': 'normal', 'flw3': 0, 'flw2': 0, 'flw1': 0, 'flw0': 0, 'roll': 0.61, 'cur2': 0.0, 'cur0': 0.0, 'cur1': 0.0, 'mgs': 0, 'compass': 163.68, 'lipoC2': 0.0, 'temp': 24.9, 'thr3': 35.0, 'depth': 0.109, 'time': 39.3, 'thr2': 31.0, 'yaw': -39.14, 'thr0': 26.0, 'thr1': 26.0}
{'lipoC3S3': 0.0, 'datetime': '2019-02-27 10:02:41.565559', 'pitch': -169.36, 'rot1': 0, 'rot0': 0, 'rot3': 0, 'rot2': 0, 'state': 'normal', 'flw3': 0, 'flw2': 0, 'flw1': 0, 'flw0': 0, 'roll': 0.61, 'cur2': 0.0, 'cur0': 0.0, 'cur1': 0.0, 'mgs': 0, 'compass': 163.68, 'lipoC2': 0.0, 'temp': 24.9, 'thr3': 35.0, 'depth': 0.109, 'time': 39.62, 'thr2': 31.0, 'yaw': -39.14, 'thr0': 26.0, 'thr1': 26.0}
{'lipoC3S3': 0.0, 'datetime': '2019-02-27 10:02:41.876096', 'pitch': -169.36, 'rot1': 0, 'rot0': 0, 'rot3': 0, 'rot2': 0, 'state': 'normal', 'flw3': 0, 'flw2': 0, 'flw1': 0, 'flw0': 0, 'roll': 0.61, 'cur2': 0.0, 'cur0': 0.0, 'cur1': 0.0, 'mgs': 0, 'compass': 163.68, 'lipoC2': 0.0, 'temp': 24.9, 'thr3': 35.0, 'depth': 0.109, 'time': 39.95, 'thr2': 31.0, 'yaw': -39.14, 'thr0': 26.0, 'thr1': 26.0}
{'lipoC3S3': 0.0, 'datetime': '2019-02-27 10:02:42.198718', 'pitch': -169.36, 'rot1': 0, 'rot0': 0, 'rot3': 0, 'rot2': 0, 'state': 'normal', 'flw3': 0, 'flw2': 0, 'flw1': 0, 'flw0': 0, 'roll': 0.61, 'cur2': 0.0, 'cur0': 0.0, 'cur1': 0.0, 'mgs': 0, 'compass': 163.68, 'lipoC2': 0.0, 'temp': 24.9, 'thr3': 35.0, 'depth': 0.109, 'time': 40.27, 'thr2': 31.0, 'yaw': -39.14, 'thr0': 26.0, 'thr1': 26.0}
{'lipoC3S3': 0.0, 'datetime': '2019-02-27 10:02:42.530710', 'pitch': -169.36, 'rot1': 0, 'rot0': 0, 'rot3': 0, 'rot2': 0, 'state': 'normal', 'flw3': 0, 'flw2': 0, 'flw1': 0, 'flw0': 0, 'roll': 0.61, 'cur2': 0.0, 'cur0': 0.0, 'cur1': 0.0, 'mgs': 0, 'compass': 163.68, 'lipoC2': 0.0, 'temp': 24.9, 'thr3': 35.0, 'depth': 0.119, 'time': 40.59, 'thr2': 31.0, 'yaw': -39.14, 'thr0': 26.0, 'thr1': 26.0}
{'lipoC3S3': 0.0, 'datetime': '2019-02-27 10:02:42.854332', 'pitch': -169.36, 'rot1': 0, 'rot0': 0, 'rot3': 0, 'rot2': 0, 'state': 'normal', 'flw3': 0, 'flw2': 0, 'flw1': 0, 'flw0': 0, 'roll': 0.61, 'cur2': 0.0, 'cur0': 0.0, 'cur1': 0.0, 'mgs': 0, 'compass': 163.68, 'lipoC2': 0.0, 'temp': 24.9, 'thr3': 35.0, 'depth': 0.109, 'time': 40.91, 'thr2': 31.0, 'yaw': -39.14, 'thr0': 26.0, 'thr1': 26.0}
{'lipoC3S3': 0.0, 'datetime': '2019-02-27 10:02:43.174526', 'pitch': -169.36, 'rot1': 0, 'rot0': 0, 'rot3': 0, 'rot2': 0, 'state': 'normal', 'flw3': 0, 'flw2': 0, 'flw1': 0, 'flw0': 0, 'roll': 0.61, 'cur2': 0.0, 'cur0': 0.0, 'cur1': 0.0, 'mgs': 0, 'compass': 163.68, 'lipoC2': 0.0, 'temp': 24.9, 'thr3': 35.0, 'depth': 0.119, 'time': 41.23, 'thr2': 31.0, 'yaw': -39.14, 'thr0': 26.0, 'thr1': 26.0}
{'lipoC3S3': 0.0, 'datetime': '2019-02-27 10:02:43.495074', 'pitch': -169.36, 'rot1': 0, 'rot0': 0, 'rot3': 0, 'rot2': 0, 'state': 'normal', 'flw3': 0, 'flw2': 0, 'flw1': 0, 'flw0': 0, 'roll': 0.61, 'cur2': 0.0, 'cur0': 0.0, 'cur1': 0.0, 'mgs': 0, 'compass': 163.68, 'lipoC2': 0.0, 'temp': 24.9, 'thr3': 35.0, 'depth': 0.119, 'time': 41.55, 'thr2': 31.0, 'yaw': -39.14, 'thr0': 26.0, 'thr1': 26.0}
{'lipoC3S3': 0.0, 'datetime': '2019-02-27 10:02:43.819108', 'pitch': -169.36, 'rot1': 0, 'rot0': 0, 'rot3': 0, 'rot2': 0, 'state': 'normal', 'flw3': 0, 'flw2': 0, 'flw1': 0, 'flw0': 0, 'roll': 0.61, 'cur2': 0.0, 'cur0': 0.0, 'cur1': 0.0, 'mgs': 0, 'compass': 163.68, 'lipoC2': 0.0, 'temp': 24.9, 'thr3': 35.0, 'depth': 0.119, 'time': 41.87, 'thr2': 31.0, 'yaw': -39.14, 'thr0': 26.0, 'thr1': 26.0}
{'lipoC3S3': 0.0, 'datetime': '2019-02-27 10:02:44.139386', 'pitch': -169.36, 'rot1': 0, 'rot0': 0, 'rot3': 0, 'rot2': 0, 'state': 'normal', 'flw3': 0, 'flw2': 0, 'flw1': 0, 'flw0': 0, 'roll': 0.61, 'cur2': 0.0, 'cur0': 0.0, 'cur1': 0.0, 'mgs': 0, 'compass': 163.68, 'lipoC2': 0.0, 'temp': 24.9, 'thr3': 35.0, 'depth': 0.119, 'time': 42.19, 'thr2': 31.0, 'yaw': -39.14, 'thr0': 26.0, 'thr1': 26.0}
{'lipoC3S3': 0.0, 'datetime': '2019-02-27 10:02:44.461998', 'pitch': -169.36, 'rot1': 0, 'rot0': 0, 'rot3': 0, 'rot2': 0, 'state': 'normal', 'flw3': 0, 'flw2': 0, 'flw1': 0, 'flw0': 0, 'roll': 0.61, 'cur2': 0.0, 'cur0': 0.0, 'cur1': 0.0, 'mgs': 0, 'compass': 163.68, 'lipoC2': 0.0, 'temp': 24.91, 'thr3': 35.0, 'depth': 0.119, 'time': 42.52, 'thr2': 31.0, 'yaw': -39.14, 'thr0': 26.0, 'thr1': 26.0}
{'lipoC3S3': 0.0, 'datetime': '2019-02-27 10:02:44.783620', 'pitch': -169.36, 'rot1': 0, 'rot0': 0, 'rot3': 0, 'rot2': 0, 'state': 'normal', 'flw3': 0, 'flw2': 0, 'flw1': 0, 'flw0': 0, 'roll': 0.61, 'cur2': 0.0, 'cur0': 0.0, 'cur1': 0.0, 'mgs': 0, 'compass': 163.68, 'lipoC2': 0.0, 'temp': 24.9, 'thr3': 35.0, 'depth': 0.109, 'time': 42.84, 'thr2': 31.0, 'yaw': -39.14, 'thr0': 26.0, 'thr1': 26.0}
{'lipoC3S3': 0.0, 'datetime': '2019-02-27 10:02:45.105542', 'pitch': -169.36, 'rot1': 0, 'rot0': 0, 'rot3': 0, 'rot2': 0, 'state': 'normal', 'flw3': 0, 'flw2': 0, 'flw1': 0, 'flw0': 0, 'roll': 0.61, 'cur2': 0.0, 'cur0': 0.0, 'cur1': 0.0, 'mgs': 0, 'compass': 163.68, 'lipoC2': 0.0, 'temp': 24.91, 'thr3': 35.0, 'depth': 0.109, 'time': 43.16, 'thr2': 31.0, 'yaw': -39.14, 'thr0': 26.0, 'thr1': 26.0}
{'lipoC3S3': 0.0, 'datetime': '2019-02-27 10:02:45.428663', 'pitch': -169.36, 'rot1': 0, 'rot0': 0, 'rot3': 0, 'rot2': 0, 'state': 'normal', 'flw3': 0, 'flw2': 0, 'flw1': 0, 'flw0': 0, 'roll': 0.61, 'cur2': 0.0, 'cur0': 0.0, 'cur1': 0.0, 'mgs': 0, 'compass': 163.68, 'lipoC2': 0.0, 'temp': 24.9, 'thr3': 35.0, 'depth': 0.119, 'time': 43.48, 'thr2': 31.0, 'yaw': -39.14, 'thr0': 26.0, 'thr1': 26.0}
{'lipoC3S3': 0.0, 'datetime': '2019-02-27 10:02:45.749391', 'pitch': -169.36, 'rot1': 0, 'rot0': 0, 'rot3': 0, 'rot2': 0, 'state': 'normal', 'flw3': 0, 'flw2': 0, 'flw1': 0, 'flw0': 0, 'roll': 0.61, 'cur2': 0.0, 'cur0': 0.0, 'cur1': 0.0, 'mgs': 0, 'compass': 163.68, 'lipoC2': 0.0, 'temp': 24.91, 'thr3': 35.0, 'depth': 0.109, 'time': 43.8, 'thr2': 31.0, 'yaw': -39.14, 'thr0': 26.0, 'thr1': 26.0}
{'lipoC3S3': 0.0, 'datetime': '2019-02-27 10:02:46.069424', 'pitch': -169.36, 'rot1': 0, 'rot0': 0, 'rot3': 0, 'rot2': 0, 'state': 'normal', 'flw3': 0, 'flw2': 0, 'flw1': 0, 'flw0': 0, 'roll': 0.61, 'cur2': 0.0, 'cur0': 0.0, 'cur1': 0.0, 'mgs': 0, 'compass': 163.68, 'lipoC2': 0.0, 'temp': 24.91, 'thr3': 35.0, 'depth': 0.109, 'time': 44.12, 'thr2': 31.0, 'yaw': -39.14, 'thr0': 26.0, 'thr1': 26.0}
{'lipoC3S3': 0.0, 'datetime': '2019-02-27 10:02:46.391373', 'pitch': -169.36, 'rot1': 0, 'rot0': 0, 'rot3': 0, 'rot2': 0, 'state': 'normal', 'flw3': 0, 'flw2': 0, 'flw1': 0, 'flw0': 0, 'roll': 0.61, 'cur2': 0.0, 'cur0': 0.0, 'cur1': 0.0, 'mgs': 0, 'compass': 163.68, 'lipoC2': 0.0, 'temp': 24.9, 'thr3': 35.0, 'depth': 0.119, 'time': 44.44, 'thr2': 31.0, 'yaw': -39.14, 'thr0': 26.0, 'thr1': 26.0}
{'lipoC3S3': 0.0, 'datetime': '2019-02-27 10:02:46.712863', 'pitch': -169.36, 'rot1': 0, 'rot0': 0, 'rot3': 0, 'rot2': 0, 'state': 'normal', 'flw3': 0, 'flw2': 0, 'flw1': 0, 'flw0': 0, 'roll': 0.61, 'cur2': 0.0, 'cur0': 0.0, 'cur1': 0.0, 'mgs': 0, 'compass': 163.68, 'lipoC2': 0.0, 'temp': 24.91, 'thr3': 35.0, 'depth': 0.119, 'time': 44.77, 'thr2': 31.0, 'yaw': -39.14, 'thr0': 26.0, 'thr1': 26.0}
{'lipoC3S3': 0.0, 'datetime': '2019-02-27 10:02:47.037372', 'pitch': -169.36, 'rot1': 0, 'rot0': 0, 'rot3': 0, 'rot2': 0, 'state': 'normal', 'flw3': 0, 'flw2': 0, 'flw1': 0, 'flw0': 0, 'roll': 0.61, 'cur2': 0.0, 'cur0': 0.0, 'cur1': 0.0, 'mgs': 0, 'compass': 163.68, 'lipoC2': 0.0, 'temp': 24.9, 'thr3': 35.0, 'depth': 0.109, 'time': 45.09, 'thr2': 31.0, 'yaw': -39.14, 'thr0': 26.0, 'thr1': 26.0}
{'lipoC3S3': 0.0, 'datetime': '2019-02-27 10:02:47.361300', 'pitch': -169.36, 'rot1': 0, 'rot0': 0, 'rot3': 0, 'rot2': 0, 'state': 'normal', 'flw3': 0, 'flw2': 0, 'flw1': 0, 'flw0': 0, 'roll': 0.61, 'cur2': 0.0, 'cur0': 0.0, 'cur1': 0.0, 'mgs': 0, 'compass': 163.68, 'lipoC2': 0.0, 'temp': 24.9, 'thr3': 35.0, 'depth': 0.109, 'time': 45.41, 'thr2': 31.0, 'yaw': -39.14, 'thr0': 26.0, 'thr1': 26.0}
{'lipoC3S3': 0.0, 'datetime': '2019-02-27 10:02:47.683728', 'pitch': -169.37, 'rot1': 0, 'rot0': 0, 'rot3': 0, 'rot2': 0, 'state': 'normal', 'flw3': 0, 'flw2': 0, 'flw1': 0, 'flw0': 0, 'roll': 0.61, 'cur2': 0.0, 'cur0': 0.0, 'cur1': 0.0, 'mgs': 0, 'compass': 163.68, 'lipoC2': 0.0, 'temp': 24.91, 'thr3': 35.0, 'depth': 0.109, 'time': 45.73, 'thr2': 31.0, 'yaw': -39.15, 'thr0': 26.0, 'thr1': 26.0}
{'lipoC3S3': 0.0, 'datetime': '2019-02-27 10:02:48.005287', 'pitch': -169.37, 'rot1': 0, 'rot0': 0, 'rot3': 0, 'rot2': 0, 'state': 'normal', 'flw3': 0, 'flw2': 0, 'flw1': 0, 'flw0': 0, 'roll': 0.61, 'cur2': 0.0, 'cur0': 0.0, 'cur1': 0.0, 'mgs': 0, 'compass': 163.68, 'lipoC2': 0.0, 'temp': 24.9, 'thr3': 35.0, 'depth': 0.109, 'time': 46.05, 'thr2': 31.0, 'yaw': -39.15, 'thr0': 26.0, 'thr1': 26.0}
{'lipoC3S3': 0.0, 'datetime': '2019-02-27 10:02:48.327953', 'pitch': -169.37, 'rot1': 0, 'rot0': 0, 'rot3': 0, 'rot2': 0, 'state': 'normal', 'flw3': 0, 'flw2': 0, 'flw1': 0, 'flw0': 0, 'roll': 0.61, 'cur2': 0.0, 'cur0': 0.0, 'cur1': 0.0, 'mgs': 0, 'compass': 163.68, 'lipoC2': 0.0, 'temp': 24.9, 'thr3': 35.0, 'depth': 0.119, 'time': 46.37, 'thr2': 31.0, 'yaw': -39.15, 'thr0': 26.0, 'thr1': 26.0}
{'lipoC3S3': 0.0, 'datetime': '2019-02-27 10:02:48.649205', 'pitch': -169.37, 'rot1': 0, 'rot0': 0, 'rot3': 0, 'rot2': 0, 'state': 'normal', 'flw3': 0, 'flw2': 0, 'flw1': 0, 'flw0': 0, 'roll': 0.61, 'cur2': 0.0, 'cur0': 0.0, 'cur1': 0.0, 'mgs': 0, 'compass': 163.68, 'lipoC2': 0.0, 'temp': 24.9, 'thr3': 35.0, 'depth': 0.119, 'time': 46.69, 'thr2': 31.0, 'yaw': -39.15, 'thr0': 26.0, 'thr1': 26.0}
{'lipoC3S3': 0.0, 'datetime': '2019-02-27 10:02:48.971713', 'pitch': -169.37, 'rot1': 0, 'rot0': 0, 'rot3': 0, 'rot2': 0, 'state': 'normal', 'flw3': 0, 'flw2': 0, 'flw1': 0, 'flw0': 0, 'roll': 0.61, 'cur2': 0.0, 'cur0': 0.0, 'cur1': 0.0, 'mgs': 0, 'compass': 163.68, 'lipoC2': 0.0, 'temp': 24.91, 'thr3': 35.0, 'depth': 0.119, 'time': 47.01, 'thr2': 31.0, 'yaw': -39.15, 'thr0': 26.0, 'thr1': 26.0}
{'lipoC3S3': 0.0, 'datetime': '2019-02-27 10:02:49.293614', 'pitch': -169.37, 'rot1': 0, 'rot0': 0, 'rot3': 0, 'rot2': 0, 'state': 'normal', 'flw3': 0, 'flw2': 0, 'flw1': 0, 'flw0': 0, 'roll': 0.61, 'cur2': 0.0, 'cur0': 0.0, 'cur1': 0.0, 'mgs': 0, 'compass': 163.68, 'lipoC2': 0.0, 'temp': 24.9, 'thr3': 35.0, 'depth': 0.109, 'time': 47.34, 'thr2': 31.0, 'yaw': -39.15, 'thr0': 26.0, 'thr1': 26.0}
{'lipoC3S3': 0.0, 'datetime': '2019-02-27 10:02:49.613916', 'pitch': -169.37, 'rot1': 0, 'rot0': 0, 'rot3': 0, 'rot2': 0, 'state': 'normal', 'flw3': 0, 'flw2': 0, 'flw1': 0, 'flw0': 0, 'roll': 0.61, 'cur2': 0.0, 'cur0': 0.0, 'cur1': 0.0, 'mgs': 0, 'compass': 163.68, 'lipoC2': 0.0, 'temp': 24.91, 'thr3': 35.0, 'depth': 0.119, 'time': 47.66, 'thr2': 31.0, 'yaw': -39.15, 'thr0': 26.0, 'thr1': 26.0}
{'lipoC3S3': 0.0, 'datetime': '2019-02-27 10:02:49.937316', 'pitch': -169.37, 'rot1': 0, 'rot0': 0, 'rot3': 0, 'rot2': 0, 'state': 'normal', 'flw3': 0, 'flw2': 0, 'flw1': 0, 'flw0': 0, 'roll': 0.61, 'cur2': 0.0, 'cur0': 0.0, 'cur1': 0.0, 'mgs': 0, 'compass': 163.68, 'lipoC2': 0.0, 'temp': 24.9, 'thr3': 35.0, 'depth': 0.119, 'time': 47.98, 'thr2': 31.0, 'yaw': -39.15, 'thr0': 26.0, 'thr1': 26.0}
{'lipoC3S3': 0.0, 'datetime': '2019-02-27 10:02:50.258857', 'pitch': -169.37, 'rot1': 0, 'rot0': 0, 'rot3': 0, 'rot2': 0, 'state': 'normal', 'flw3': 0, 'flw2': 0, 'flw1': 0, 'flw0': 0, 'roll': 0.61, 'cur2': 0.0, 'cur0': 0.0, 'cur1': 0.0, 'mgs': 0, 'compass': 163.68, 'lipoC2': 0.0, 'temp': 24.9, 'thr3': 35.0, 'depth': 0.109, 'time': 48.3, 'thr2': 31.0, 'yaw': -39.15, 'thr0': 26.0, 'thr1': 26.0}
{'lipoC3S3': 0.0, 'datetime': '2019-02-27 10:02:50.581359', 'pitch': -169.37, 'rot1': 0, 'rot0': 0, 'rot3': 0, 'rot2': 0, 'state': 'normal', 'flw3': 0, 'flw2': 0, 'flw1': 0, 'flw0': 0, 'roll': 0.61, 'cur2': 0.0, 'cur0': 0.0, 'cur1': 0.0, 'mgs': 0, 'compass': 163.68, 'lipoC2': 0.0, 'temp': 24.9, 'thr3': 35.0, 'depth': 0.109, 'time': 48.62, 'thr2': 31.0, 'yaw': -39.15, 'thr0': 26.0, 'thr1': 26.0}
{'lipoC3S3': 0.0, 'datetime': '2019-02-27 10:02:50.901946', 'pitch': -169.37, 'rot1': 0, 'rot0': 0, 'rot3': 0, 'rot2': 0, 'state': 'normal', 'flw3': 0, 'flw2': 0, 'flw1': 0, 'flw0': 0, 'roll': 0.61, 'cur2': 0.0, 'cur0': 0.0, 'cur1': 0.0, 'mgs': 0, 'compass': 163.68, 'lipoC2': 0.0, 'temp': 24.91, 'thr3': 35.0, 'depth': 0.119, 'time': 48.94, 'thr2': 31.0, 'yaw': -39.15, 'thr0': 26.0, 'thr1': 26.0}
{'lipoC3S3': 0.0, 'datetime': '2019-02-27 10:02:51.225135', 'pitch': -169.37, 'rot1': 0, 'rot0': 0, 'rot3': 0, 'rot2': 0, 'state': 'normal', 'flw3': 0, 'flw2': 0, 'flw1': 0, 'flw0': 0, 'roll': 0.61, 'cur2': 0.0, 'cur0': 0.0, 'cur1': 0.0, 'mgs': 0, 'compass': 163.67, 'lipoC2': 0.0, 'temp': 24.9, 'thr3': 35.0, 'depth': 0.119, 'time': 49.26, 'thr2': 31.0, 'yaw': -39.15, 'thr0': 26.0, 'thr1': 26.0}
