{'lipoC2': 7.64, 'temp': 0.0, 'lipoC3S3': 11.43, 'state': 'normal', 'rot1': 0, 'rot0': 0, 'rot3': 0, 'rot2': 0, 'depth': -0.751, 'yaw': 0.0, 'datetime': '2018-12-12 13:26:48.467540', 'mgs': 0, 'flw2': 0.17, 'flw1': 0.0, 'flw0': 0.27, 'time': 1.25, 'compass': -145.1, 'pitch': -1.62, 'roll': 2.1}
{'lipoC2': 7.46, 'temp': 0.0, 'lipoC3S3': 11.79, 'state': 'normal', 'rot1': 0, 'rot0': 0, 'rot3': 0, 'rot2': 0, 'depth': 0.394, 'yaw': 0.9, 'datetime': '2018-12-12 13:26:48.675412', 'mgs': 0, 'flw2': 0.0, 'flw1': 0.53, 'flw0': 0.0, 'time': 1.46, 'compass': -144.2, 'pitch': -1.48, 'roll': 1.99}
{'lipoC2': 7.44, 'temp': 0.0, 'lipoC3S3': 11.87, 'state': 'normal', 'rot1': 0, 'rot0': 0, 'rot3': 0, 'rot2': 0, 'depth': -0.14, 'yaw': 1.75, 'datetime': '2018-12-12 13:26:48.883830', 'mgs': 0, 'flw2': 0.0, 'flw1': 0.0, 'flw0': 0.0, 'time': 1.67, 'compass': -143.35, 'pitch': -1.51, 'roll': 1.88}
{'lipoC2': 7.43, 'temp': 0.0, 'lipoC3S3': 11.88, 'state': 'normal', 'rot1': 0, 'rot0': 0, 'rot3': 0, 'rot2': 0, 'depth': 2.53, 'yaw': 2.68, 'datetime': '2018-12-12 13:26:49.091019', 'mgs': 0, 'flw2': 0.0, 'flw1': 0.0, 'flw0': 0.0, 'time': 1.88, 'compass': -142.42, 'pitch': -1.85, 'roll': 1.69}
{'lipoC2': 7.41, 'temp': 0.0, 'lipoC3S3': 11.89, 'state': 'normal', 'rot1': 0, 'rot0': 0, 'rot3': 0, 'rot2': 0, 'depth': 2.072, 'yaw': 3.6, 'datetime': '2018-12-12 13:26:49.302857', 'mgs': 0, 'flw2': 0.0, 'flw1': 0.29, 'flw0': 0.0, 'time': 2.09, 'compass': -141.5, 'pitch': -1.96, 'roll': 1.62}
{'lipoC2': 7.42, 'temp': 0.0, 'lipoC3S3': 11.87, 'state': 'normal', 'rot1': 0, 'rot0': 0, 'rot3': 0, 'rot2': 0, 'depth': 0.012, 'yaw': 4.49, 'datetime': '2018-12-12 13:26:49.512344', 'mgs': 0, 'flw2': 0.0, 'flw1': 0.09, 'flw0': 0.0, 'time': 2.29, 'compass': -140.61, 'pitch': -1.89, 'roll': 1.62}
{'lipoC2': 7.41, 'temp': 0.0, 'lipoC3S3': 11.88, 'state': 'normal', 'rot1': 0, 'rot0': 0, 'rot3': 0, 'rot2': 0, 'depth': 2.148, 'yaw': 5.43, 'datetime': '2018-12-12 13:26:49.718072', 'mgs': 0, 'flw2': 0.0, 'flw1': 0.0, 'flw0': 0.0, 'time': 2.5, 'compass': -139.67, 'pitch': -2.18, 'roll': 1.58}
{'lipoC2': 7.44, 'temp': 0.0, 'lipoC3S3': 11.69, 'state': 'normal', 'rot1': 0, 'rot0': 0, 'rot3': 0, 'rot2': 0, 'depth': 1.385, 'yaw': 6.36, 'datetime': '2018-12-12 13:26:49.925542', 'mgs': 0, 'flw2': 0.05, 'flw1': 0.0, 'flw0': 0.0, 'time': 2.71, 'compass': -138.74, 'pitch': -2.31, 'roll': 1.54}
{'lipoC2': 7.42, 'temp': 0.0, 'lipoC3S3': 11.84, 'state': 'normal', 'rot1': 0, 'rot0': 0, 'rot3': 0, 'rot2': 0, 'depth': 2.377, 'yaw': 7.27, 'datetime': '2018-12-12 13:26:50.134837', 'mgs': 0, 'flw2': 0.12, 'flw1': 0.0, 'flw0': 0.0, 'time': 2.92, 'compass': -137.84, 'pitch': -2.13, 'roll': 1.55}
{'lipoC2': 7.54, 'temp': 0.0, 'lipoC3S3': 11.44, 'state': 'normal', 'rot1': 0, 'rot0': 0, 'rot3': 0, 'rot2': 0, 'depth': -0.522, 'yaw': 8.23, 'datetime': '2018-12-12 13:26:50.341053', 'mgs': 0, 'flw2': 0.0, 'flw1': 0.0, 'flw0': 0.18, 'time': 3.13, 'compass': -136.87, 'pitch': -2.14, 'roll': 1.76}
{'lipoC2': 7.51, 'temp': 0.0, 'lipoC3S3': 11.51, 'state': 'normal', 'rot1': 0, 'rot0': 0, 'rot3': 0, 'rot2': 0, 'depth': 0.623, 'yaw': 9.17, 'datetime': '2018-12-12 13:26:50.550543', 'mgs': 0, 'flw2': 0.0, 'flw1': 0.0, 'flw0': 0.15, 'time': 3.33, 'compass': -135.93, 'pitch': -2.64, 'roll': 1.82}
{'lipoC2': 7.39, 'temp': 0.0, 'lipoC3S3': 11.55, 'state': 'normal', 'rot1': 0, 'rot0': 0, 'rot3': 0, 'rot2': 0, 'depth': -0.293, 'yaw': 10.08, 'datetime': '2018-12-12 13:26:50.756966', 'mgs': 0, 'flw2': 0.0, 'flw1': 0.41, 'flw0': 0.0, 'time': 3.54, 'compass': -135.02, 'pitch': -3.07, 'roll': 1.87}
{'lipoC2': 7.41, 'temp': 0.0, 'lipoC3S3': 11.84, 'state': 'normal', 'rot1': 0, 'rot0': 0, 'rot3': 0, 'rot2': 0, 'depth': -0.217, 'yaw': 11.06, 'datetime': '2018-12-12 13:26:50.964569', 'mgs': 0, 'flw2': 0.0, 'flw1': 0.0, 'flw0': 0.0, 'time': 3.75, 'compass': -134.04, 'pitch': -3.21, 'roll': 1.92}
{'lipoC2': 7.46, 'temp': 0.0, 'lipoC3S3': 11.87, 'state': 'normal', 'rot1': 0, 'rot0': 0, 'rot3': 0, 'rot2': 0, 'depth': 0.241, 'yaw': 12.05, 'datetime': '2018-12-12 13:26:51.175488', 'mgs': 0, 'flw2': 0.0, 'flw1': 0.0, 'flw0': 0.0, 'time': 3.96, 'compass': -133.05, 'pitch': -2.87, 'roll': 1.97}
{'lipoC2': 7.42, 'temp': 0.0, 'lipoC3S3': 11.88, 'state': 'normal', 'rot1': 0, 'rot0': 0, 'rot3': 0, 'rot2': 0, 'depth': 2.377, 'yaw': 13.02, 'datetime': '2018-12-12 13:26:51.385232', 'mgs': 0, 'flw2': 0.0, 'flw1': 0.0, 'flw0': 0.0, 'time': 4.16, 'compass': -132.09, 'pitch': -2.61, 'roll': 1.92}
{'lipoC2': 7.53, 'temp': 0.0, 'lipoC3S3': 11.48, 'state': 'normal', 'rot1': 0, 'rot0': 0, 'rot3': 0, 'rot2': 0, 'depth': -0.674, 'yaw': 13.96, 'datetime': '2018-12-12 13:26:51.593452', 'mgs': 0, 'flw2': 0.0, 'flw1': 0.62, 'flw0': 0.0, 'time': 4.37, 'compass': -131.14, 'pitch': -2.57, 'roll': 1.91}
{'lipoC2': 7.46, 'temp': 0.0, 'lipoC3S3': 11.79, 'state': 'normal', 'rot1': 0, 'rot0': 0, 'rot3': 0, 'rot2': 0, 'depth': 0.317, 'yaw': 14.95, 'datetime': '2018-12-12 13:26:51.798469', 'mgs': 0, 'flw2': 0.0, 'flw1': 0.59, 'flw0': 0.0, 'time': 4.58, 'compass': -130.16, 'pitch': -2.53, 'roll': 1.96}
{'lipoC2': 7.46, 'temp': 0.0, 'lipoC3S3': 11.79, 'state': 'normal', 'rot1': 0, 'rot0': 0, 'rot3': 0, 'rot2': 0, 'depth': 2.148, 'yaw': 15.93, 'datetime': '2018-12-12 13:26:52.010639', 'mgs': 0, 'flw2': 0.0, 'flw1': 0.12, 'flw0': 0.0, 'time': 4.79, 'compass': -129.17, 'pitch': -2.56, 'roll': 1.96}
{'lipoC2': 7.46, 'temp': 0.0, 'lipoC3S3': 11.85, 'state': 'normal', 'rot1': 0, 'rot0': 0, 'rot3': 0, 'rot2': 0, 'depth': -0.14, 'yaw': 16.89, 'datetime': '2018-12-12 13:26:52.216519', 'mgs': 0, 'flw2': 0.0, 'flw1': 0.23, 'flw0': 0.0, 'time': 5.0, 'compass': -128.22, 'pitch': -2.83, 'roll': 1.83}
{'lipoC2': 7.41, 'temp': 0.0, 'lipoC3S3': 11.68, 'state': 'normal', 'rot1': 0, 'rot0': 0, 'rot3': 0, 'rot2': 0, 'depth': 0.089, 'yaw': 17.89, 'datetime': '2018-12-12 13:26:52.424978', 'mgs': 0, 'flw2': 0.0, 'flw1': 0.47, 'flw0': 0.0, 'time': 5.2, 'compass': -127.21, 'pitch': -2.99, 'roll': 1.88}
{'lipoC2': 7.62, 'temp': 0.0, 'lipoC3S3': 11.58, 'state': 'normal', 'rot1': 0, 'rot0': 0, 'rot3': 0, 'rot2': 0, 'depth': 1.92, 'yaw': 18.92, 'datetime': '2018-12-12 13:26:52.630073', 'mgs': 0, 'flw2': 0.21, 'flw1': 0.0, 'flw0': 0.21, 'time': 5.41, 'compass': -126.18, 'pitch': -2.78, 'roll': 2.07}
{'lipoC2': 7.43, 'temp': 0.0, 'lipoC3S3': 11.87, 'state': 'normal', 'rot1': 0, 'rot0': 0, 'rot3': 0, 'rot2': 0, 'depth': -0.064, 'yaw': 19.91, 'datetime': '2018-12-12 13:26:52.837345', 'mgs': 0, 'flw2': 0.0, 'flw1': 0.15, 'flw0': 0.0, 'time': 5.62, 'compass': -125.19, 'pitch': -2.61, 'roll': 2.08}
{'lipoC2': 7.46, 'temp': 0.0, 'lipoC3S3': 11.81, 'state': 'normal', 'rot1': 0, 'rot0': 0, 'rot3': 0, 'rot2': 0, 'depth': 1.996, 'yaw': 20.95, 'datetime': '2018-12-12 13:26:53.046711', 'mgs': 0, 'flw2': 0.0, 'flw1': 0.0, 'flw0': 0.0, 'time': 5.83, 'compass': -124.16, 'pitch': -2.77, 'roll': 2.02}
{'lipoC2': 7.66, 'temp': 0.0, 'lipoC3S3': 11.51, 'state': 'normal', 'rot1': 0, 'rot0': 0, 'rot3': 0, 'rot2': 0, 'depth': 1.843, 'yaw': 22.03, 'datetime': '2018-12-12 13:26:53.254004', 'mgs': 0, 'flw2': 0.0, 'flw1': 0.59, 'flw0': 0.0, 'time': 6.03, 'compass': -123.07, 'pitch': -2.71, 'roll': 2.03}
{'lipoC2': 7.51, 'temp': 0.0, 'lipoC3S3': 11.58, 'state': 'normal', 'rot1': 0, 'rot0': 0, 'rot3': 0, 'rot2': 0, 'depth': 0.699, 'yaw': 23.09, 'datetime': '2018-12-12 13:26:53.462424', 'mgs': 0, 'flw2': 0.07, 'flw1': 0.0, 'flw0': 0.0, 'time': 6.24, 'compass': -122.02, 'pitch': -2.59, 'roll': 2.03}
{'lipoC2': 7.46, 'temp': 0.0, 'lipoC3S3': 11.76, 'state': 'normal', 'rot1': 0, 'rot0': 0, 'rot3': 0, 'rot2': 0, 'depth': 0.47, 'yaw': 24.09, 'datetime': '2018-12-12 13:26:53.669668', 'mgs': 0, 'flw2': 0.0, 'flw1': 0.41, 'flw0': 0.0, 'time': 6.45, 'compass': -121.01, 'pitch': -2.87, 'roll': 1.88}
{'lipoC2': 7.65, 'temp': 0.0, 'lipoC3S3': 11.48, 'state': 'normal', 'rot1': 0, 'rot0': 0, 'rot3': 0, 'rot2': 0, 'depth': 2.225, 'yaw': 25.16, 'datetime': '2018-12-12 13:26:53.878164', 'mgs': 0, 'flw2': 0.23, 'flw1': 0.0, 'flw0': 0.21, 'time': 6.66, 'compass': -119.95, 'pitch': -3.15, 'roll': 1.7}
{'lipoC2': 7.43, 'temp': 0.0, 'lipoC3S3': 11.6, 'state': 'normal', 'rot1': 0, 'rot0': 0, 'rot3': 0, 'rot2': 0, 'depth': 1.157, 'yaw': 26.27, 'datetime': '2018-12-12 13:26:54.085657', 'mgs': 0, 'flw2': 0.0, 'flw1': 0.0, 'flw0': 0.0, 'time': 6.86, 'compass': -118.83, 'pitch': -2.95, 'roll': 1.73}
{'lipoC2': 7.43, 'temp': 0.0, 'lipoC3S3': 11.87, 'state': 'normal', 'rot1': 0, 'rot0': 0, 'rot3': 0, 'rot2': 0, 'depth': -0.064, 'yaw': 27.35, 'datetime': '2018-12-12 13:26:54.294536', 'mgs': 0, 'flw2': 0.0, 'flw1': 0.0, 'flw0': 0.0, 'time': 7.07, 'compass': -117.76, 'pitch': -2.87, 'roll': 1.64}
{'lipoC2': 7.46, 'temp': 0.0, 'lipoC3S3': 11.56, 'state': 'normal', 'rot1': 0, 'rot0': 0, 'rot3': 0, 'rot2': 0, 'depth': 0.317, 'yaw': 28.48, 'datetime': '2018-12-12 13:26:54.501678', 'mgs': 0, 'flw2': 0.0, 'flw1': 0.23, 'flw0': 0.0, 'time': 7.28, 'compass': -116.62, 'pitch': -3.03, 'roll': 1.55}
{'lipoC2': 7.44, 'temp': 0.0, 'lipoC3S3': 11.73, 'state': 'normal', 'rot1': 0, 'rot0': 0, 'rot3': 0, 'rot2': 0, 'depth': 0.317, 'yaw': 29.63, 'datetime': '2018-12-12 13:26:54.715702', 'mgs': 0, 'flw2': 0.0, 'flw1': 0.59, 'flw0': 0.0, 'time': 7.49, 'compass': -115.47, 'pitch': -2.79, 'roll': 1.56}
{'lipoC2': 7.42, 'temp': 0.0, 'lipoC3S3': 11.56, 'state': 'normal', 'rot1': 0, 'rot0': 0, 'rot3': 0, 'rot2': 0, 'depth': -0.14, 'yaw': 30.74, 'datetime': '2018-12-12 13:26:54.925050', 'mgs': 0, 'flw2': 0.23, 'flw1': 0.0, 'flw0': 0.01, 'time': 7.7, 'compass': -114.36, 'pitch': -2.46, 'roll': 1.83}
{'lipoC2': 7.5, 'temp': 0.0, 'lipoC3S3': 11.58, 'state': 'normal', 'rot1': 0, 'rot0': 0, 'rot3': 0, 'rot2': 0, 'depth': 0.623, 'yaw': 31.94, 'datetime': '2018-12-12 13:26:55.129286', 'mgs': 0, 'flw2': 0.0, 'flw1': 0.0, 'flw0': 0.0, 'time': 7.91, 'compass': -113.16, 'pitch': -2.77, 'roll': 2.0}
{'lipoC2': 7.4, 'temp': 0.0, 'lipoC3S3': 11.56, 'state': 'normal', 'rot1': 0, 'rot0': 0, 'rot3': 0, 'rot2': 0, 'depth': -0.293, 'yaw': 33.12, 'datetime': '2018-12-12 13:26:55.335419', 'mgs': 0, 'flw2': 0.0, 'flw1': 0.47, 'flw0': 0.0, 'time': 8.11, 'compass': -111.98, 'pitch': -3.37, 'roll': 1.99}
{'lipoC2': 7.42, 'temp': 0.0, 'lipoC3S3': 11.84, 'state': 'normal', 'rot1': 0, 'rot0': 0, 'rot3': 0, 'rot2': 0, 'depth': 2.377, 'yaw': 34.27, 'datetime': '2018-12-12 13:26:55.543140', 'mgs': 0, 'flw2': 0.04, 'flw1': 0.0, 'flw0': 0.0, 'time': 8.32, 'compass': -110.83, 'pitch': -3.12, 'roll': 2.09}
{'lipoC2': 7.42, 'temp': 0.0, 'lipoC3S3': 11.85, 'state': 'normal', 'rot1': 0, 'rot0': 0, 'rot3': 0, 'rot2': 0, 'depth': -0.064, 'yaw': 35.49, 'datetime': '2018-12-12 13:26:55.758421', 'mgs': 0, 'flw2': 0.0, 'flw1': 0.0, 'flw0': 0.0, 'time': 8.53, 'compass': -109.61, 'pitch': -2.56, 'roll': 2.28}
{'lipoC2': 7.43, 'temp': 0.0, 'lipoC3S3': 11.88, 'state': 'normal', 'rot1': 0, 'rot0': 0, 'rot3': 0, 'rot2': 0, 'depth': 0.012, 'yaw': 36.71, 'datetime': '2018-12-12 13:26:55.963602', 'mgs': 0, 'flw2': 0.0, 'flw1': 0.0, 'flw0': 0.0, 'time': 8.74, 'compass': -108.39, 'pitch': -2.67, 'roll': 2.12}
{'lipoC2': 7.42, 'temp': 0.0, 'lipoC3S3': 11.77, 'state': 'normal', 'rot1': 0, 'rot0': 0, 'rot3': 0, 'rot2': 0, 'depth': 1.309, 'yaw': 37.91, 'datetime': '2018-12-12 13:26:56.169217', 'mgs': 0, 'flw2': 0.0, 'flw1': 0.15, 'flw0': 0.0, 'time': 8.94, 'compass': -107.19, 'pitch': -3.17, 'roll': 1.77}
{'lipoC2': 7.65, 'temp': 0.0, 'lipoC3S3': 11.47, 'state': 'normal', 'rot1': 0, 'rot0': 0, 'rot3': 0, 'rot2': 0, 'depth': -0.598, 'yaw': 39.07, 'datetime': '2018-12-12 13:26:56.380802', 'mgs': 0, 'flw2': 0.27, 'flw1': 0.0, 'flw0': 0.1, 'time': 9.15, 'compass': -106.03, 'pitch': -3.25, 'roll': 1.54}
{'lipoC2': 7.47, 'temp': 0.0, 'lipoC3S3': 11.56, 'state': 'normal', 'rot1': 0, 'rot0': 0, 'rot3': 0, 'rot2': 0, 'depth': -0.14, 'yaw': 40.27, 'datetime': '2018-12-12 13:26:56.589551', 'mgs': 0, 'flw2': 0.0, 'flw1': 0.0, 'flw0': 0.0, 'time': 9.36, 'compass': -104.83, 'pitch': -3.07, 'roll': 1.51}
{'lipoC2': 7.48, 'temp': 0.0, 'lipoC3S3': 11.65, 'state': 'normal', 'rot1': 0, 'rot0': 0, 'rot3': 0, 'rot2': 0, 'depth': 0.394, 'yaw': 41.5, 'datetime': '2018-12-12 13:26:56.796797', 'mgs': 0, 'flw2': 0.0, 'flw1': 0.0, 'flw0': 0.0, 'time': 9.57, 'compass': -103.6, 'pitch': -2.82, 'roll': 1.37}
{'lipoC2': 7.4, 'temp': 0.0, 'lipoC3S3': 11.56, 'state': 'normal', 'rot1': 0, 'rot0': 0, 'rot3': 0, 'rot2': 0, 'depth': -0.598, 'yaw': 42.65, 'datetime': '2018-12-12 13:26:57.009012', 'mgs': 0, 'flw2': 0.0, 'flw1': 0.47, 'flw0': 0.0, 'time': 9.78, 'compass': -102.45, 'pitch': -2.63, 'roll': 1.37}
{'lipoC2': 7.46, 'temp': 0.0, 'lipoC3S3': 11.58, 'state': 'normal', 'rot1': 0, 'rot0': 0, 'rot3': 0, 'rot2': 0, 'depth': 0.165, 'yaw': 43.86, 'datetime': '2018-12-12 13:26:57.211724', 'mgs': 0, 'flw2': 0.0, 'flw1': 0.0, 'flw0': 0.13, 'time': 9.99, 'compass': -101.24, 'pitch': -2.71, 'roll': 1.51}
{'lipoC2': 7.42, 'temp': 0.0, 'lipoC3S3': 11.88, 'state': 'normal', 'rot1': 0, 'rot0': 0, 'rot3': 0, 'rot2': 0, 'depth': 0.012, 'yaw': 45.01, 'datetime': '2018-12-12 13:26:57.418920', 'mgs': 0, 'flw2': 0.0, 'flw1': 0.0, 'flw0': 0.0, 'time': 10.19, 'compass': -100.09, 'pitch': -2.97, 'roll': 1.67}
{'lipoC2': 7.52, 'temp': 0.0, 'lipoC3S3': 11.5, 'state': 'normal', 'rot1': 0, 'rot0': 0, 'rot3': 0, 'rot2': 0, 'depth': 0.928, 'yaw': 46.16, 'datetime': '2018-12-12 13:26:57.632056', 'mgs': 0, 'flw2': 0.01, 'flw1': 0.0, 'flw0': 0.22, 'time': 10.4, 'compass': -98.94, 'pitch': -2.89, 'roll': 1.69}
{'lipoC2': 7.58, 'temp': 0.0, 'lipoC3S3': 11.43, 'state': 'normal', 'rot1': 0, 'rot0': 0, 'rot3': 0, 'rot2': 0, 'depth': -0.98, 'yaw': 47.24, 'datetime': '2018-12-12 13:26:57.839084', 'mgs': 0, 'flw2': 0.06, 'flw1': 0.0, 'flw0': 0.26, 'time': 10.61, 'compass': -97.87, 'pitch': -2.46, 'roll': 1.69}
{'lipoC2': 7.42, 'temp': 0.0, 'lipoC3S3': 11.89, 'state': 'normal', 'rot1': 0, 'rot0': 0, 'rot3': 0, 'rot2': 0, 'depth': 2.377, 'yaw': 48.37, 'datetime': '2018-12-12 13:26:58.045716', 'mgs': 0, 'flw2': 0.0, 'flw1': 0.0, 'flw0': 0.0, 'time': 10.82, 'compass': -96.74, 'pitch': -2.36, 'roll': 1.85}
{'lipoC2': 7.39, 'temp': 0.0, 'lipoC3S3': 11.56, 'state': 'normal', 'rot1': 0, 'rot0': 0, 'rot3': 0, 'rot2': 0, 'depth': 0.317, 'yaw': 49.44, 'datetime': '2018-12-12 13:26:58.253393', 'mgs': 0, 'flw2': 0.0, 'flw1': 0.0, 'flw0': 0.0, 'time': 11.02, 'compass': -95.66, 'pitch': -2.79, 'roll': 1.96}
{'lipoC2': 7.4, 'temp': 0.0, 'lipoC3S3': 11.64, 'state': 'normal', 'rot1': 0, 'rot0': 0, 'rot3': 0, 'rot2': 0, 'depth': 0.546, 'yaw': 50.46, 'datetime': '2018-12-12 13:26:58.460671', 'mgs': 0, 'flw2': 0.05, 'flw1': 0.0, 'flw0': 0.23, 'time': 11.23, 'compass': -94.64, 'pitch': -2.79, 'roll': 1.93}
{'lipoC2': 7.5, 'temp': 0.0, 'lipoC3S3': 11.56, 'state': 'normal', 'rot1': 0, 'rot0': 0, 'rot3': 0, 'rot2': 0, 'depth': -0.446, 'yaw': 51.5, 'datetime': '2018-12-12 13:26:58.669398', 'mgs': 0, 'flw2': 0.0, 'flw1': 0.0, 'flw0': 0.13, 'time': 11.44, 'compass': -93.6, 'pitch': -2.42, 'roll': 1.91}
{'lipoC2': 7.42, 'temp': 0.0, 'lipoC3S3': 11.8, 'state': 'normal', 'rot1': 0, 'rot0': 0, 'rot3': 0, 'rot2': 0, 'depth': -0.217, 'yaw': 52.52, 'datetime': '2018-12-12 13:26:58.878450', 'mgs': 0, 'flw2': 0.0, 'flw1': 0.0, 'flw0': 0.0, 'time': 11.65, 'compass': -92.58, 'pitch': -2.49, 'roll': 1.82}
{'lipoC2': 7.43, 'temp': 0.0, 'lipoC3S3': 11.76, 'state': 'normal', 'rot1': 0, 'rot0': 0, 'rot3': 0, 'rot2': 0, 'depth': -0.064, 'yaw': 53.51, 'datetime': '2018-12-12 13:26:59.087512', 'mgs': 0, 'flw2': 0.0, 'flw1': 0.09, 'flw0': 0.0, 'time': 11.85, 'compass': -91.59, 'pitch': -2.69, 'roll': 1.6}
{'lipoC2': 7.42, 'temp': 0.0, 'lipoC3S3': 11.8, 'state': 'normal', 'rot1': 0, 'rot0': 0, 'rot3': 0, 'rot2': 0, 'depth': 1.462, 'yaw': 54.54, 'datetime': '2018-12-12 13:26:59.294101', 'mgs': 0, 'flw2': 0.0, 'flw1': 0.0, 'flw0': 0.0, 'time': 12.06, 'compass': -90.56, 'pitch': -2.52, 'roll': 1.38}
{'lipoC2': 7.47, 'temp': 0.0, 'lipoC3S3': 11.81, 'state': 'normal', 'rot1': 0, 'rot0': 0, 'rot3': 0, 'rot2': 0, 'depth': 0.394, 'yaw': 55.58, 'datetime': '2018-12-12 13:26:59.501636', 'mgs': 0, 'flw2': 1.37, 'flw1': 0.0, 'flw0': 0.0, 'time': 12.27, 'compass': -89.52, 'pitch': -2.35, 'roll': 1.29}
{'lipoC2': 7.46, 'temp': 0.0, 'lipoC3S3': 11.81, 'state': 'normal', 'rot1': 0, 'rot0': 3, 'rot3': 0, 'rot2': 0, 'depth': 2.454, 'yaw': 57.87, 'datetime': '2018-12-12 13:26:59.707702', 'mgs': 0, 'flw2': 3.54, 'flw1': 0.47, 'flw0': 0.09, 'time': 12.48, 'compass': -87.23, 'pitch': -1.94, 'roll': 1.62}
{'lipoC2': 7.43, 'temp': 0.0, 'lipoC3S3': 11.64, 'state': 'normal', 'rot1': 0, 'rot0': 6, 'rot3': 0, 'rot2': 0, 'depth': -0.446, 'yaw': 63.7, 'datetime': '2018-12-12 13:26:59.911506', 'mgs': 0, 'flw2': 3.49, 'flw1': 0.38, 'flw0': 0.15, 'time': 12.68, 'compass': -81.4, 'pitch': 0.13, 'roll': 2.43}
{'lipoC2': 7.55, 'temp': 0.0, 'lipoC3S3': 11.46, 'state': 'normal', 'rot1': 1, 'rot0': 9, 'rot3': 0, 'rot2': 0, 'depth': -0.446, 'yaw': 71.79, 'datetime': '2018-12-12 13:27:00.120526', 'mgs': 0, 'flw2': 3.02, 'flw1': 0.0, 'flw0': 0.52, 'time': 12.89, 'compass': -73.31, 'pitch': 3.17, 'roll': 2.89}
{'lipoC2': 7.43, 'temp': 0.0, 'lipoC3S3': 11.65, 'state': 'normal', 'rot1': 3, 'rot0': 11, 'rot3': 0, 'rot2': 0, 'depth': 0.317, 'yaw': 79.96, 'datetime': '2018-12-12 13:27:00.328938', 'mgs': 0, 'flw2': 0.0, 'flw1': 0.18, 'flw0': 2.48, 'time': 13.1, 'compass': -65.14, 'pitch': 5.77, 'roll': 2.96}
{'lipoC2': 7.43, 'temp': 0.0, 'lipoC3S3': 11.61, 'state': 'normal', 'rot1': 6, 'rot0': 11, 'rot3': 0, 'rot2': 0, 'depth': 1.691, 'yaw': 85.03, 'datetime': '2018-12-12 13:27:00.543098', 'mgs': 0, 'flw2': 0.0, 'flw1': 0.0, 'flw0': 3.17, 'time': 13.31, 'compass': -60.07, 'pitch': 6.83, 'roll': 2.61}
{'lipoC2': 7.43, 'temp': 0.0, 'lipoC3S3': 11.67, 'state': 'normal', 'rot1': 9, 'rot0': 12, 'rot3': 0, 'rot2': 0, 'depth': 0.851, 'yaw': 85.97, 'datetime': '2018-12-12 13:27:00.755787', 'mgs': 0, 'flw2': 0.5, 'flw1': 0.0, 'flw0': 3.14, 'time': 13.52, 'compass': -59.14, 'pitch': 6.77, 'roll': 2.14}
{'lipoC2': 7.41, 'temp': 0.0, 'lipoC3S3': 11.87, 'state': 'normal', 'rot1': 11, 'rot0': 13, 'rot3': 0, 'rot2': 0, 'depth': 0.089, 'yaw': 84.56, 'datetime': '2018-12-12 13:27:00.962354', 'mgs': 0, 'flw2': 0.57, 'flw1': 0.0, 'flw0': 3.04, 'time': 13.73, 'compass': -60.54, 'pitch': 6.24, 'roll': 1.51}
{'lipoC2': 7.41, 'temp': 0.0, 'lipoC3S3': 11.84, 'state': 'normal', 'rot1': 14, 'rot0': 14, 'rot3': 0, 'rot2': 0, 'depth': -0.369, 'yaw': 81.48, 'datetime': '2018-12-12 13:27:01.168512', 'mgs': 0, 'flw2': 0.09, 'flw1': 0.56, 'flw0': 3.04, 'time': 13.93, 'compass': -63.62, 'pitch': 5.26, 'roll': 0.85}
{'lipoC2': 7.42, 'temp': 0.0, 'lipoC3S3': 11.77, 'state': 'normal', 'rot1': 17, 'rot0': 15, 'rot3': 0, 'rot2': 0, 'depth': 0.317, 'yaw': 76.97, 'datetime': '2018-12-12 13:27:01.376458', 'mgs': 0, 'flw2': 0.63, 'flw1': 0.0, 'flw0': 3.23, 'time': 14.14, 'compass': -68.13, 'pitch': 3.98, 'roll': 0.24}
{'lipoC2': 7.4, 'temp': 0.0, 'lipoC3S3': 11.5, 'state': 'normal', 'rot1': 20, 'rot0': 16, 'rot3': 0, 'rot2': 0, 'depth': -0.293, 'yaw': 72.11, 'datetime': '2018-12-12 13:27:01.586345', 'mgs': 0, 'flw2': 2.21, 'flw1': 0.0, 'flw0': 3.04, 'time': 14.35, 'compass': -73.0, 'pitch': 3.05, 'roll': -0.25}
{'lipoC2': 7.43, 'temp': 0.0, 'lipoC3S3': 11.79, 'state': 'normal', 'rot1': 22, 'rot0': 19, 'rot3': 0, 'rot2': 0, 'depth': 2.835, 'yaw': 68.2, 'datetime': '2018-12-12 13:27:01.800398', 'mgs': 0, 'flw2': 2.55, 'flw1': 0.53, 'flw0': 3.0, 'time': 14.56, 'compass': -76.9, 'pitch': 3.2, 'roll': -0.6}
{'lipoC2': 7.46, 'temp': 0.0, 'lipoC3S3': 11.69, 'state': 'normal', 'rot1': 25, 'rot0': 21, 'rot3': 0, 'rot2': 0, 'depth': 0.317, 'yaw': 65.44, 'datetime': '2018-12-12 13:27:02.008348', 'mgs': 0, 'flw2': 2.5, 'flw1': 0.12, 'flw0': 3.2, 'time': 14.77, 'compass': -79.66, 'pitch': 4.02, 'roll': -0.86}
{'lipoC2': 7.46, 'temp': 0.0, 'lipoC3S3': 11.25, 'state': 'normal', 'rot1': 28, 'rot0': 23, 'rot3': 0, 'rot2': 0, 'depth': 2.301, 'yaw': 63.48, 'datetime': '2018-12-12 13:27:02.218024', 'mgs': 0, 'flw2': 5.18, 'flw1': 0.0, 'flw0': 3.39, 'time': 14.98, 'compass': -81.63, 'pitch': 4.77, 'roll': -1.06}
{'lipoC2': 7.44, 'temp': 0.0, 'lipoC3S3': 11.56, 'state': 'normal', 'rot1': 30, 'rot0': 27, 'rot3': 0, 'rot2': 0, 'depth': 0.165, 'yaw': 62.87, 'datetime': '2018-12-12 13:27:02.424845', 'mgs': 0, 'flw2': 5.16, 'flw1': 0.15, 'flw0': 3.05, 'time': 15.19, 'compass': -82.23, 'pitch': 5.96, 'roll': -1.23}
{'lipoC2': 7.46, 'temp': 0.0, 'lipoC3S3': 11.73, 'state': 'normal', 'rot1': 33, 'rot0': 30, 'rot3': 0, 'rot2': 0, 'depth': 2.911, 'yaw': 63.74, 'datetime': '2018-12-12 13:27:02.631924', 'mgs': 0, 'flw2': 5.53, 'flw1': 0.59, 'flw0': 3.19, 'time': 15.39, 'compass': -81.36, 'pitch': 7.14, 'roll': -1.33}
{'lipoC2': 7.41, 'temp': 0.0, 'lipoC3S3': 11.46, 'state': 'normal', 'rot1': 35, 'rot0': 33, 'rot3': 0, 'rot2': 0, 'depth': 1.614, 'yaw': 65.42, 'datetime': '2018-12-12 13:27:02.839466', 'mgs': 0, 'flw2': 6.31, 'flw1': 0.0, 'flw0': 3.11, 'time': 15.6, 'compass': -79.68, 'pitch': 7.67, 'roll': -1.36}
{'lipoC2': 7.4, 'temp': 0.0, 'lipoC3S3': 11.5, 'state': 'normal', 'rot1': 38, 'rot0': 36, 'rot3': 0, 'rot2': 0, 'depth': 0.394, 'yaw': 67.59, 'datetime': '2018-12-12 13:27:03.048257', 'mgs': 0, 'flw2': 6.13, 'flw1': 0.0, 'flw0': 3.13, 'time': 15.81, 'compass': -77.51, 'pitch': 7.98, 'roll': -1.28}
{'lipoC2': 7.42, 'temp': 0.0, 'lipoC3S3': 11.65, 'state': 'normal', 'rot1': 41, 'rot0': 40, 'rot3': 0, 'rot2': 0, 'depth': 2.301, 'yaw': 70.27, 'datetime': '2018-12-12 13:27:03.260382', 'mgs': 0, 'flw2': 6.03, 'flw1': 0.53, 'flw0': 4.17, 'time': 16.02, 'compass': -74.83, 'pitch': 8.0, 'roll': -0.91}
{'lipoC2': 7.59, 'temp': 0.0, 'lipoC3S3': 11.15, 'state': 'normal', 'rot1': 44, 'rot0': 44, 'rot3': 0, 'rot2': 0, 'depth': -0.751, 'yaw': 72.76, 'datetime': '2018-12-12 13:27:03.464910', 'mgs': 0, 'flw2': 6.1, 'flw1': 0.0, 'flw0': 6.01, 'time': 16.23, 'compass': -72.35, 'pitch': 7.78, 'roll': -0.39}
{'lipoC2': 7.64, 'temp': 0.0, 'lipoC3S3': 11.35, 'state': 'normal', 'rot1': 48, 'rot0': 47, 'rot3': 0, 'rot2': 0, 'depth': 2.911, 'yaw': 74.51, 'datetime': '2018-12-12 13:27:03.674942', 'mgs': 0, 'flw2': 7.46, 'flw1': 0.0, 'flw0': 6.14, 'time': 16.44, 'compass': -70.59, 'pitch': 8.0, 'roll': 0.27}
{'lipoC2': 7.38, 'temp': 0.0, 'lipoC3S3': 11.39, 'state': 'normal', 'rot1': 52, 'rot0': 50, 'rot3': 0, 'rot2': 0, 'depth': 0.317, 'yaw': 75.64, 'datetime': '2018-12-12 13:27:03.884275', 'mgs': 0, 'flw2': 7.6, 'flw1': 0.0, 'flw0': 6.01, 'time': 16.65, 'compass': -69.46, 'pitch': 8.41, 'roll': 0.79}
{'lipoC2': 7.54, 'temp': 0.0, 'lipoC3S3': 11.32, 'state': 'normal', 'rot1': 56, 'rot0': 54, 'rot3': 0, 'rot2': 0, 'depth': 1.004, 'yaw': 76.62, 'datetime': '2018-12-12 13:27:04.096745', 'mgs': 0, 'flw2': 7.76, 'flw1': 0.0, 'flw0': 6.02, 'time': 16.86, 'compass': -68.48, 'pitch': 8.8, 'roll': 1.13}
{'lipoC2': 7.38, 'temp': 0.0, 'lipoC3S3': 11.35, 'state': 'normal', 'rot1': 59, 'rot0': 58, 'rot3': 0, 'rot2': 0, 'depth': -0.827, 'yaw': 77.61, 'datetime': '2018-12-12 13:27:04.302690', 'mgs': 0, 'flw2': 7.39, 'flw1': 0.0, 'flw0': 6.13, 'time': 17.07, 'compass': -67.49, 'pitch': 8.95, 'roll': 1.57}
{'lipoC2': 7.44, 'temp': 0.0, 'lipoC3S3': 11.34, 'state': 'normal', 'rot1': 64, 'rot0': 62, 'rot3': 0, 'rot2': 0, 'depth': 1.157, 'yaw': 78.47, 'datetime': '2018-12-12 13:27:04.511182', 'mgs': 0, 'flw2': 8.7, 'flw1': 0.0, 'flw0': 7.3, 'time': 17.27, 'compass': -66.63, 'pitch': 9.22, 'roll': 2.0}
{'lipoC2': 7.64, 'temp': 0.0, 'lipoC3S3': 11.35, 'state': 'normal', 'rot1': 68, 'rot0': 67, 'rot3': 0, 'rot2': 0, 'depth': 1.309, 'yaw': 79.26, 'datetime': '2018-12-12 13:27:04.719358', 'mgs': 0, 'flw2': 8.83, 'flw1': 0.53, 'flw0': 7.91, 'time': 17.48, 'compass': -65.84, 'pitch': 9.96, 'roll': 2.21}
{'lipoC2': 7.42, 'temp': 0.0, 'lipoC3S3': 11.59, 'state': 'normal', 'rot1': 72, 'rot0': 70, 'rot3': 0, 'rot2': 0, 'depth': 0.165, 'yaw': 80.01, 'datetime': '2018-12-12 13:27:04.928409', 'mgs': 0, 'flw2': 9.45, 'flw1': 0.38, 'flw0': 8.06, 'time': 17.69, 'compass': -65.09, 'pitch': 10.62, 'roll': 2.16}
{'lipoC2': 7.49, 'temp': 0.0, 'lipoC3S3': 11.19, 'state': 'normal', 'rot1': 76, 'rot0': 74, 'rot3': 0, 'rot2': 0, 'depth': 0.317, 'yaw': 80.81, 'datetime': '2018-12-12 13:27:05.137751', 'mgs': 0, 'flw2': 8.81, 'flw1': 0.0, 'flw0': 7.93, 'time': 17.9, 'compass': -64.3, 'pitch': 10.64, 'roll': 1.74}
{'lipoC2': 7.64, 'temp': 0.0, 'lipoC3S3': 11.09, 'state': 'normal', 'rot1': 80, 'rot0': 78, 'rot3': 0, 'rot2': 0, 'depth': -0.522, 'yaw': 81.81, 'datetime': '2018-12-12 13:27:05.345728', 'mgs': 0, 'flw2': 9.51, 'flw1': 0.0, 'flw0': 7.43, 'time': 18.11, 'compass': -63.29, 'pitch': 10.67, 'roll': 1.59}
{'lipoC2': 7.43, 'temp': 0.0, 'lipoC3S3': 11.58, 'state': 'normal', 'rot1': 85, 'rot0': 83, 'rot3': 0, 'rot2': 0, 'depth': 0.623, 'yaw': 83.35, 'datetime': '2018-12-12 13:27:05.554957', 'mgs': 0, 'flw2': 9.55, 'flw1': 0.0, 'flw0': 6.79, 'time': 18.32, 'compass': -61.75, 'pitch': 10.72, 'roll': 1.66}
{'lipoC2': 7.5, 'temp': 0.0, 'lipoC3S3': 11.36, 'state': 'normal', 'rot1': 89, 'rot0': 87, 'rot3': 0, 'rot2': 0, 'depth': -0.369, 'yaw': 85.11, 'datetime': '2018-12-12 13:27:05.763907', 'mgs': 0, 'flw2': 7.56, 'flw1': 0.0, 'flw0': 7.2, 'time': 18.53, 'compass': -59.99, 'pitch': 10.7, 'roll': 1.38}
{'lipoC2': 7.44, 'temp': 0.0, 'lipoC3S3': 11.51, 'state': 'normal', 'rot1': 93, 'rot0': 90, 'rot3': 0, 'rot2': 0, 'depth': 1.92, 'yaw': 86.53, 'datetime': '2018-12-12 13:27:05.974350', 'mgs': 0, 'flw2': 6.7, 'flw1': 0.44, 'flw0': 7.75, 'time': 18.74, 'compass': -58.57, 'pitch': 10.23, 'roll': 1.19}
{'lipoC2': 7.59, 'temp': 0.0, 'lipoC3S3': 11.27, 'state': 'normal', 'rot1': 98, 'rot0': 93, 'rot3': 0, 'rot2': 0, 'depth': -0.446, 'yaw': 86.87, 'datetime': '2018-12-12 13:27:06.183278', 'mgs': 0, 'flw2': 1.39, 'flw1': 0.0, 'flw0': 8.11, 'time': 18.94, 'compass': -58.23, 'pitch': 9.91, 'roll': 1.37}
{'lipoC2': 7.44, 'temp': 0.0, 'lipoC3S3': 11.69, 'state': 'normal', 'rot1': 103, 'rot0': 95, 'rot3': 0, 'rot2': 0, 'depth': -0.064, 'yaw': 84.33, 'datetime': '2018-12-12 13:27:06.391799', 'mgs': 0, 'flw2': 0.51, 'flw1': 0.0, 'flw0': 1.26, 'time': 19.15, 'compass': -60.77, 'pitch': 8.66, 'roll': 1.66}
{'lipoC2': 7.46, 'temp': 0.0, 'lipoC3S3': 11.75, 'state': 'normal', 'rot1': 104, 'rot0': 96, 'rot3': 0, 'rot2': 0, 'depth': 0.317, 'yaw': 81.1, 'datetime': '2018-12-12 13:27:06.600851', 'mgs': 0, 'flw2': 0.04, 'flw1': 0.56, 'flw0': 0.18, 'time': 19.36, 'compass': -64.0, 'pitch': 5.81, 'roll': 1.74}
{'lipoC2': 7.43, 'temp': 0.0, 'lipoC3S3': 11.75, 'state': 'normal', 'rot1': 106, 'rot0': 96, 'rot3': 0, 'rot2': 0, 'depth': 1.157, 'yaw': 78.97, 'datetime': '2018-12-12 13:27:06.811800', 'mgs': 0, 'flw2': 0.37, 'flw1': 0.0, 'flw0': 0.68, 'time': 19.57, 'compass': -66.13, 'pitch': 2.29, 'roll': 1.82}
{'lipoC2': 7.43, 'temp': 0.0, 'lipoC3S3': 11.77, 'state': 'normal', 'rot1': 107, 'rot0': 97, 'rot3': 0, 'rot2': 0, 'depth': -0.064, 'yaw': 77.12, 'datetime': '2018-12-12 13:27:07.019607', 'mgs': 0, 'flw2': 0.0, 'flw1': 1.03, 'flw0': 0.65, 'time': 19.78, 'compass': -67.98, 'pitch': -0.81, 'roll': 1.77}
{'lipoC2': 7.58, 'temp': 0.0, 'lipoC3S3': 11.36, 'state': 'normal', 'rot1': 109, 'rot0': 97, 'rot3': 0, 'rot2': 1, 'depth': -0.522, 'yaw': 75.03, 'datetime': '2018-12-12 13:27:07.228743', 'mgs': 0, 'flw2': 0.0, 'flw1': 0.59, 'flw0': 1.23, 'time': 19.99, 'compass': -70.07, 'pitch': -4.38, 'roll': 1.21}
{'lipoC2': 7.43, 'temp': 0.0, 'lipoC3S3': 11.63, 'state': 'normal', 'rot1': 111, 'rot0': 97, 'rot3': 1, 'rot2': 1, 'depth': -0.064, 'yaw': 72.53, 'datetime': '2018-12-12 13:27:07.439854', 'mgs': 0, 'flw2': 0.01, 'flw1': 3.37, 'flw0': 1.0, 'time': 20.2, 'compass': -72.57, 'pitch': -7.64, 'roll': 0.37}
{'lipoC2': 7.64, 'temp': 0.0, 'lipoC3S3': 11.3, 'state': 'normal', 'rot1': 112, 'rot0': 97, 'rot3': 2, 'rot2': 2, 'depth': -0.522, 'yaw': 69.64, 'datetime': '2018-12-12 13:27:07.647742', 'mgs': 0, 'flw2': 0.0, 'flw1': 4.78, 'flw0': 1.1, 'time': 20.41, 'compass': -75.46, 'pitch': -9.89, 'roll': -0.63}
{'lipoC2': 7.41, 'temp': 0.0, 'lipoC3S3': 11.56, 'state': 'normal', 'rot1': 114, 'rot0': 97, 'rot3': 3, 'rot2': 3, 'depth': 1.309, 'yaw': 66.37, 'datetime': '2018-12-12 13:27:07.858801', 'mgs': 0, 'flw2': 0.16, 'flw1': 5.42, 'flw0': 2.53, 'time': 20.61, 'compass': -78.74, 'pitch': -11.21, 'roll': -1.94}
{'lipoC2': 7.38, 'temp': 0.0, 'lipoC3S3': 11.36, 'state': 'normal', 'rot1': 116, 'rot0': 98, 'rot3': 4, 'rot2': 4, 'depth': 0.775, 'yaw': 62.65, 'datetime': '2018-12-12 13:27:08.069524', 'mgs': 0, 'flw2': 1.9, 'flw1': 5.74, 'flw0': 1.99, 'time': 20.82, 'compass': -82.45, 'pitch': -10.91, 'roll': -3.34}
{'lipoC2': 7.42, 'temp': 0.0, 'lipoC3S3': 11.6, 'state': 'normal', 'rot1': 120, 'rot0': 100, 'rot3': 5, 'rot2': 5, 'depth': 0.241, 'yaw': 59.21, 'datetime': '2018-12-12 13:27:08.279007', 'mgs': 0, 'flw2': 1.59, 'flw1': 9.43, 'flw0': 2.21, 'time': 21.03, 'compass': -85.9, 'pitch': -8.55, 'roll': -3.72}
{'lipoC2': 7.65, 'temp': 0.0, 'lipoC3S3': 11.21, 'state': 'normal', 'rot1': 122, 'rot0': 103, 'rot3': 7, 'rot2': 7, 'depth': 1.462, 'yaw': 56.54, 'datetime': '2018-12-12 13:27:08.488161', 'mgs': 0, 'flw2': 1.57, 'flw1': 10.66, 'flw0': 2.5, 'time': 21.24, 'compass': -88.56, 'pitch': -5.54, 'roll': -3.17}
{'lipoC2': 7.42, 'temp': 0.0, 'lipoC3S3': 11.6, 'state': 'normal', 'rot1': 123, 'rot0': 104, 'rot3': 8, 'rot2': 9, 'depth': 3.217, 'yaw': 54.33, 'datetime': '2018-12-12 13:27:08.697675', 'mgs': 0, 'flw2': 0.0, 'flw1': 10.75, 'flw0': 0.0, 'time': 21.45, 'compass': -90.77, 'pitch': -3.34, 'roll': -2.04}
{'lipoC2': 7.42, 'temp': 0.0, 'lipoC3S3': 11.65, 'state': 'normal', 'rot1': 123, 'rot0': 104, 'rot3': 10, 'rot2': 10, 'depth': 3.979, 'yaw': 52.59, 'datetime': '2018-12-12 13:27:08.904661', 'mgs': 0, 'flw2': 0.0, 'flw1': 10.58, 'flw0': 0.0, 'time': 21.66, 'compass': -92.51, 'pitch': -2.98, 'roll': -0.43}
{'lipoC2': 7.46, 'temp': 0.0, 'lipoC3S3': 11.69, 'state': 'normal', 'rot1': 123, 'rot0': 104, 'rot3': 12, 'rot2': 12, 'depth': 3.827, 'yaw': 51.22, 'datetime': '2018-12-12 13:27:09.113487', 'mgs': 0, 'flw2': 0.0, 'flw1': 10.11, 'flw0': 0.0, 'time': 21.87, 'compass': -93.89, 'pitch': -3.74, 'roll': 1.33}
{'lipoC2': 7.64, 'temp': 0.0, 'lipoC3S3': 11.4, 'state': 'normal', 'rot1': 123, 'rot0': 104, 'rot3': 14, 'rot2': 13, 'depth': 1.385, 'yaw': 51.4, 'datetime': '2018-12-12 13:27:09.324994', 'mgs': 0, 'flw2': 0.0, 'flw1': 10.49, 'flw0': 0.28, 'time': 22.08, 'compass': -93.71, 'pitch': -5.55, 'roll': 6.76}
{'lipoC2': 7.44, 'temp': 0.0, 'lipoC3S3': 11.71, 'state': 'normal', 'rot1': 123, 'rot0': 104, 'rot3': 15, 'rot2': 14, 'depth': 4.361, 'yaw': 52.11, 'datetime': '2018-12-12 13:27:09.536457', 'mgs': 0, 'flw2': 0.0, 'flw1': 10.81, 'flw0': 0.0, 'time': 22.29, 'compass': -92.99, 'pitch': -8.08, 'roll': 10.86}
{'lipoC2': 7.44, 'temp': 0.0, 'lipoC3S3': 11.63, 'state': 'normal', 'rot1': 123, 'rot0': 104, 'rot3': 17, 'rot2': 16, 'depth': 3.14, 'yaw': 52.2, 'datetime': '2018-12-12 13:27:09.747987', 'mgs': 0, 'flw2': 0.22, 'flw1': 10.37, 'flw0': 0.0, 'time': 22.5, 'compass': -92.9, 'pitch': -11.29, 'roll': 14.17}
{'lipoC2': 7.46, 'temp': 0.0, 'lipoC3S3': 11.63, 'state': 'normal', 'rot1': 123, 'rot0': 104, 'rot3': 19, 'rot2': 17, 'depth': 4.514, 'yaw': 52.0, 'datetime': '2018-12-12 13:27:09.960087', 'mgs': 0, 'flw2': 0.0, 'flw1': 10.58, 'flw0': 0.0, 'time': 22.71, 'compass': -93.11, 'pitch': -14.02, 'roll': 16.78}
{'lipoC2': 7.38, 'temp': 0.0, 'lipoC3S3': 11.38, 'state': 'normal', 'rot1': 123, 'rot0': 104, 'rot3': 21, 'rot2': 18, 'depth': 2.072, 'yaw': 51.8, 'datetime': '2018-12-12 13:27:10.171763', 'mgs': 0, 'flw2': 0.0, 'flw1': 10.49, 'flw0': 0.31, 'time': 22.92, 'compass': -93.3, 'pitch': -15.32, 'roll': 18.54}
{'lipoC2': 7.38, 'temp': 0.0, 'lipoC3S3': 11.4, 'state': 'normal', 'rot1': 123, 'rot0': 104, 'rot3': 22, 'rot2': 20, 'depth': 2.606, 'yaw': 51.73, 'datetime': '2018-12-12 13:27:10.379267', 'mgs': 0, 'flw2': 0.0, 'flw1': 11.43, 'flw0': 0.0, 'time': 23.13, 'compass': -93.37, 'pitch': -15.45, 'roll': 19.74}
{'lipoC2': 7.48, 'temp': 0.0, 'lipoC3S3': 11.44, 'state': 'normal', 'rot1': 123, 'rot0': 104, 'rot3': 24, 'rot2': 21, 'depth': 2.911, 'yaw': 51.86, 'datetime': '2018-12-12 13:27:10.589078', 'mgs': 0, 'flw2': 0.0, 'flw1': 9.84, 'flw0': 0.16, 'time': 23.34, 'compass': -93.24, 'pitch': -14.97, 'roll': 20.58}
{'lipoC2': 7.39, 'temp': 0.0, 'lipoC3S3': 11.4, 'state': 'normal', 'rot1': 123, 'rot0': 104, 'rot3': 26, 'rot2': 23, 'depth': 2.682, 'yaw': 52.22, 'datetime': '2018-12-12 13:27:10.802185', 'mgs': 0, 'flw2': 0.0, 'flw1': 11.02, 'flw0': 0.0, 'time': 23.55, 'compass': -92.88, 'pitch': -13.96, 'roll': 21.01}
{'lipoC2': 7.46, 'temp': 0.0, 'lipoC3S3': 11.63, 'state': 'normal', 'rot1': 123, 'rot0': 104, 'rot3': 28, 'rot2': 24, 'depth': 4.666, 'yaw': 52.82, 'datetime': '2018-12-12 13:27:11.012543', 'mgs': 0, 'flw2': 0.0, 'flw1': 10.63, 'flw0': 0.24, 'time': 23.76, 'compass': -92.28, 'pitch': -12.63, 'roll': 20.98}
{'lipoC2': 7.49, 'temp': 0.0, 'lipoC3S3': 11.36, 'state': 'normal', 'rot1': 123, 'rot0': 104, 'rot3': 30, 'rot2': 25, 'depth': 2.072, 'yaw': 53.46, 'datetime': '2018-12-12 13:27:11.222132', 'mgs': 0, 'flw2': 0.0, 'flw1': 10.37, 'flw0': 0.2, 'time': 23.97, 'compass': -91.64, 'pitch': -11.26, 'roll': 20.49}
{'lipoC2': 7.43, 'temp': 0.0, 'lipoC3S3': 11.58, 'state': 'normal', 'rot1': 123, 'rot0': 104, 'rot3': 31, 'rot2': 28, 'depth': 2.301, 'yaw': 54.19, 'datetime': '2018-12-12 13:27:11.430707', 'mgs': 0, 'flw2': 0.0, 'flw1': 10.37, 'flw0': 0.0, 'time': 24.18, 'compass': -90.91, 'pitch': -9.95, 'roll': 19.52}
{'lipoC2': 7.44, 'temp': 0.0, 'lipoC3S3': 11.69, 'state': 'normal', 'rot1': 123, 'rot0': 104, 'rot3': 33, 'rot2': 29, 'depth': 4.819, 'yaw': 54.8, 'datetime': '2018-12-12 13:27:11.641617', 'mgs': 0, 'flw2': 0.0, 'flw1': 8.41, 'flw0': 0.0, 'time': 24.39, 'compass': -90.3, 'pitch': -8.75, 'roll': 18.2}
{'lipoC2': 7.42, 'temp': 0.0, 'lipoC3S3': 11.55, 'state': 'normal', 'rot1': 123, 'rot0': 104, 'rot3': 35, 'rot2': 30, 'depth': 3.751, 'yaw': 55.34, 'datetime': '2018-12-12 13:27:11.857589', 'mgs': 0, 'flw2': 0.0, 'flw1': 6.36, 'flw0': 0.0, 'time': 24.6, 'compass': -89.76, 'pitch': -7.76, 'roll': 16.54}
{'lipoC2': 7.42, 'temp': 0.0, 'lipoC3S3': 11.77, 'state': 'normal', 'rot1': 123, 'rot0': 104, 'rot3': 36, 'rot2': 31, 'depth': 2.301, 'yaw': 55.85, 'datetime': '2018-12-12 13:27:12.069225', 'mgs': 0, 'flw2': 0.0, 'flw1': 5.16, 'flw0': 0.02, 'time': 24.81, 'compass': -89.25, 'pitch': -6.92, 'roll': 14.78}
{'lipoC2': 7.43, 'temp': 0.0, 'lipoC3S3': 11.61, 'state': 'normal', 'rot1': 123, 'rot0': 104, 'rot3': 37, 'rot2': 32, 'depth': 3.674, 'yaw': 56.42, 'datetime': '2018-12-12 13:27:12.278091', 'mgs': 0, 'flw2': 0.0, 'flw1': 2.61, 'flw0': 0.01, 'time': 25.02, 'compass': -88.68, 'pitch': -6.3, 'roll': 12.88}
{'lipoC2': 7.43, 'temp': 0.0, 'lipoC3S3': 11.68, 'state': 'normal', 'rot1': 123, 'rot0': 104, 'rot3': 38, 'rot2': 33, 'depth': 3.369, 'yaw': 56.9, 'datetime': '2018-12-12 13:27:12.488034', 'mgs': 0, 'flw2': 0.0, 'flw1': 2.34, 'flw0': 0.0, 'time': 25.23, 'compass': -88.2, 'pitch': -5.78, 'roll': 10.61}
{'lipoC2': 7.42, 'temp': 0.0, 'lipoC3S3': 11.83, 'state': 'normal', 'rot1': 123, 'rot0': 104, 'rot3': 39, 'rot2': 34, 'depth': 3.979, 'yaw': 57.22, 'datetime': '2018-12-12 13:27:12.698426', 'mgs': 0, 'flw2': 0.0, 'flw1': 0.79, 'flw0': 0.0, 'time': 25.44, 'compass': -87.88, 'pitch': -5.21, 'roll': 7.58}
{'lipoC2': 7.63, 'temp': 0.0, 'lipoC3S3': 11.38, 'state': 'normal', 'rot1': 123, 'rot0': 104, 'rot3': 39, 'rot2': 34, 'depth': 1.157, 'yaw': 57.38, 'datetime': '2018-12-12 13:27:12.908083', 'mgs': 0, 'flw2': 0.0, 'flw1': 0.62, 'flw0': 0.0, 'time': 25.65, 'compass': -87.73, 'pitch': -4.72, 'roll': 3.81}
{'lipoC2': 7.42, 'temp': 0.0, 'lipoC3S3': 11.92, 'state': 'normal', 'rot1': 123, 'rot0': 104, 'rot3': 39, 'rot2': 34, 'depth': 0.699, 'yaw': 57.39, 'datetime': '2018-12-12 13:27:13.112770', 'mgs': 0, 'flw2': 0.0, 'flw1': 0.0, 'flw0': 0.37, 'time': 25.86, 'compass': -87.71, 'pitch': -4.44, 'roll': -0.56}
{'lipoC2': 7.5, 'temp': 0.0, 'lipoC3S3': 11.51, 'state': 'normal', 'rot1': 123, 'rot0': 104, 'rot3': 39, 'rot2': 34, 'depth': 1.157, 'yaw': 57.33, 'datetime': '2018-12-12 13:27:13.321173', 'mgs': 0, 'flw2': 0.0, 'flw1': 0.79, 'flw0': 0.11, 'time': 26.07, 'compass': -87.77, 'pitch': -4.34, 'roll': -4.52}
{'lipoC2': 7.51, 'temp': 0.0, 'lipoC3S3': 11.51, 'state': 'normal', 'rot1': 123, 'rot0': 104, 'rot3': 40, 'rot2': 35, 'depth': 1.004, 'yaw': 57.22, 'datetime': '2018-12-12 13:27:13.530575', 'mgs': 0, 'flw2': 0.0, 'flw1': 1.23, 'flw0': 0.29, 'time': 26.28, 'compass': -87.89, 'pitch': -4.22, 'roll': -7.04}
{'lipoC2': 7.54, 'temp': 0.0, 'lipoC3S3': 11.72, 'state': 'normal', 'rot1': 123, 'rot0': 104, 'rot3': 41, 'rot2': 36, 'depth': 1.157, 'yaw': 57.0, 'datetime': '2018-12-12 13:27:13.740548', 'mgs': 0, 'flw2': 0.0, 'flw1': 3.69, 'flw0': 0.29, 'time': 26.49, 'compass': -88.1, 'pitch': -4.1, 'roll': -7.89}
{'lipoC2': 7.56, 'temp': 0.0, 'lipoC3S3': 11.76, 'state': 'normal', 'rot1': 123, 'rot0': 104, 'rot3': 41, 'rot2': 37, 'depth': 1.614, 'yaw': 56.66, 'datetime': '2018-12-12 13:27:13.953200', 'mgs': 0, 'flw2': 0.0, 'flw1': 5.1, 'flw0': 0.0, 'time': 26.7, 'compass': -88.44, 'pitch': -3.86, 'roll': -7.44}
{'lipoC2': 7.42, 'temp': 0.0, 'lipoC3S3': 11.51, 'state': 'normal', 'rot1': 125, 'rot0': 104, 'rot3': 42, 'rot2': 38, 'depth': 2.377, 'yaw': 55.88, 'datetime': '2018-12-12 13:27:14.167378', 'mgs': 0, 'flw2': 0.0, 'flw1': 4.63, 'flw0': 7.2, 'time': 26.91, 'compass': -89.22, 'pitch': -3.23, 'roll': -6.47}
{'lipoC2': 7.46, 'temp': 0.0, 'lipoC3S3': 11.68, 'state': 'normal', 'rot1': 128, 'rot0': 104, 'rot3': 43, 'rot2': 39, 'depth': 2.759, 'yaw': 50.81, 'datetime': '2018-12-12 13:27:14.376136', 'mgs': 0, 'flw2': 0.0, 'flw1': 5.16, 'flw0': 7.04, 'time': 27.12, 'compass': -94.29, 'pitch': 0.0, 'roll': -6.39}
{'lipoC2': 7.44, 'temp': 0.0, 'lipoC3S3': 11.64, 'state': 'normal', 'rot1': 132, 'rot0': 104, 'rot3': 44, 'rot2': 40, 'depth': 0.851, 'yaw': 41.67, 'datetime': '2018-12-12 13:27:14.587441', 'mgs': 0, 'flw2': 0.0, 'flw1': 4.8, 'flw0': 4.9, 'time': 27.33, 'compass': -103.43, 'pitch': 4.71, 'roll': -6.76}
{'lipoC2': 7.61, 'temp': 0.0, 'lipoC3S3': 11.42, 'state': 'normal', 'rot1': 134, 'rot0': 104, 'rot3': 45, 'rot2': 41, 'depth': 1.843, 'yaw': 31.38, 'datetime': '2018-12-12 13:27:14.796131', 'mgs': 0, 'flw2': 1.37, 'flw1': 4.83, 'flw0': 0.17, 'time': 27.54, 'compass': -113.73, 'pitch': 8.79, 'roll': -6.61}
{'lipoC2': 7.59, 'temp': 0.0, 'lipoC3S3': 11.32, 'state': 'normal', 'rot1': 134, 'rot0': 105, 'rot3': 46, 'rot2': 43, 'depth': -0.522, 'yaw': 23.8, 'datetime': '2018-12-12 13:27:15.007451', 'mgs': 0, 'flw2': 0.76, 'flw1': 4.39, 'flw0': 0.26, 'time': 27.75, 'compass': -121.31, 'pitch': 10.18, 'roll': -5.37}
{'lipoC2': 7.49, 'temp': 0.0, 'lipoC3S3': 11.44, 'state': 'normal', 'rot1': 134, 'rot0': 106, 'rot3': 47, 'rot2': 44, 'depth': 0.47, 'yaw': 22.4, 'datetime': '2018-12-12 13:27:15.216130', 'mgs': 0, 'flw2': 0.76, 'flw1': 3.66, 'flw0': 0.15, 'time': 27.96, 'compass': -122.7, 'pitch': 6.81, 'roll': -2.45}
{'lipoC2': 7.42, 'temp': 0.0, 'lipoC3S3': 11.71, 'state': 'normal', 'rot1': 134, 'rot0': 108, 'rot3': 48, 'rot2': 45, 'depth': 1.767, 'yaw': 22.5, 'datetime': '2018-12-12 13:27:15.428180', 'mgs': 0, 'flw2': 0.0, 'flw1': 3.11, 'flw0': 0.0, 'time': 28.17, 'compass': -122.6, 'pitch': 1.77, 'roll': -0.47}
{'lipoC2': 7.66, 'temp': 0.0, 'lipoC3S3': 11.42, 'state': 'normal', 'rot1': 134, 'rot0': 108, 'rot3': 49, 'rot2': 46, 'depth': 1.843, 'yaw': 22.49, 'datetime': '2018-12-12 13:27:15.639439', 'mgs': 0, 'flw2': 0.02, 'flw1': 4.13, 'flw0': 0.12, 'time': 28.38, 'compass': -122.61, 'pitch': -2.41, 'roll': -0.13}
{'lipoC2': 7.58, 'temp': 0.0, 'lipoC3S3': 11.43, 'state': 'normal', 'rot1': 134, 'rot0': 108, 'rot3': 50, 'rot2': 48, 'depth': -0.522, 'yaw': 22.07, 'datetime': '2018-12-12 13:27:15.847212', 'mgs': 0, 'flw2': 0.0, 'flw1': 3.75, 'flw0': 0.22, 'time': 28.59, 'compass': -123.03, 'pitch': -3.99, 'roll': -1.05}
{'lipoC2': 7.66, 'temp': 0.0, 'lipoC3S3': 11.32, 'state': 'normal', 'rot1': 135, 'rot0': 108, 'rot3': 51, 'rot2': 49, 'depth': 1.843, 'yaw': 21.51, 'datetime': '2018-12-12 13:27:16.056357', 'mgs': 0, 'flw2': 0.0, 'flw1': 4.51, 'flw0': 3.98, 'time': 28.8, 'compass': -123.59, 'pitch': -3.82, 'roll': -1.82}
{'lipoC2': 7.38, 'temp': 0.0, 'lipoC3S3': 11.44, 'state': 'normal', 'rot1': 138, 'rot0': 108, 'rot3': 52, 'rot2': 50, 'depth': -0.674, 'yaw': 18.89, 'datetime': '2018-12-12 13:27:16.267366', 'mgs': 0, 'flw2': 0.09, 'flw1': 3.98, 'flw0': 2.76, 'time': 29.01, 'compass': -126.21, 'pitch': -2.2, 'roll': -2.23}
{'lipoC2': 7.42, 'temp': 0.0, 'lipoC3S3': 11.69, 'state': 'normal', 'rot1': 140, 'rot0': 109, 'rot3': 53, 'rot2': 51, 'depth': 1.385, 'yaw': 13.82, 'datetime': '2018-12-12 13:27:16.478630', 'mgs': 0, 'flw2': 0.12, 'flw1': 4.1, 'flw0': 1.77, 'time': 29.22, 'compass': -131.28, 'pitch': 0.02, 'roll': -2.91}
{'lipoC2': 7.42, 'temp': 0.0, 'lipoC3S3': 11.79, 'state': 'normal', 'rot1': 140, 'rot0': 109, 'rot3': 54, 'rot2': 53, 'depth': -0.064, 'yaw': 8.2, 'datetime': '2018-12-12 13:27:16.688249', 'mgs': 0, 'flw2': 0.0, 'flw1': 4.01, 'flw0': 0.0, 'time': 29.43, 'compass': -136.9, 'pitch': 1.05, 'roll': -3.37}
{'lipoC2': 7.54, 'temp': 0.0, 'lipoC3S3': 11.31, 'state': 'normal', 'rot1': 140, 'rot0': 109, 'rot3': 55, 'rot2': 54, 'depth': -1.056, 'yaw': 3.81, 'datetime': '2018-12-12 13:27:16.902407', 'mgs': 0, 'flw2': 0.0, 'flw1': 3.52, 'flw0': 0.26, 'time': 29.64, 'compass': -141.3, 'pitch': 0.4, 'roll': -2.51}
{'lipoC2': 7.41, 'temp': 0.0, 'lipoC3S3': 11.5, 'state': 'normal', 'rot1': 140, 'rot0': 109, 'rot3': 55, 'rot2': 55, 'depth': -0.674, 'yaw': 0.35, 'datetime': '2018-12-12 13:27:17.107868', 'mgs': 0, 'flw2': 0.0, 'flw1': 3.54, 'flw0': 0.0, 'time': 29.85, 'compass': -144.75, 'pitch': -0.22, 'roll': -1.06}
{'lipoC2': 7.42, 'temp': 0.0, 'lipoC3S3': 11.81, 'state': 'normal', 'rot1': 140, 'rot0': 109, 'rot3': 56, 'rot2': 56, 'depth': -0.217, 'yaw': -2.62, 'datetime': '2018-12-12 13:27:17.318378', 'mgs': 0, 'flw2': 0.0, 'flw1': 2.05, 'flw0': 0.0, 'time': 30.06, 'compass': -147.72, 'pitch': -0.62, 'roll': -0.3}
{'lipoC2': 7.39, 'temp': 0.0, 'lipoC3S3': 11.58, 'state': 'normal', 'rot1': 140, 'rot0': 109, 'rot3': 57, 'rot2': 57, 'depth': -0.446, 'yaw': -5.28, 'datetime': '2018-12-12 13:27:17.529890', 'mgs': 0, 'flw2': 0.0, 'flw1': 2.61, 'flw0': 0.0, 'time': 30.27, 'compass': -150.38, 'pitch': -0.92, 'roll': -0.34}
{'lipoC2': 7.46, 'temp': 0.0, 'lipoC3S3': 11.72, 'state': 'normal', 'rot1': 140, 'rot0': 109, 'rot3': 58, 'rot2': 58, 'depth': 1.691, 'yaw': -7.51, 'datetime': '2018-12-12 13:27:17.740700', 'mgs': 0, 'flw2': 0.0, 'flw1': 1.0, 'flw0': 0.0, 'time': 30.48, 'compass': -152.61, 'pitch': -0.97, 'roll': -0.46}
{'lipoC2': 7.65, 'temp': 0.0, 'lipoC3S3': 11.5, 'state': 'normal', 'rot1': 140, 'rot0': 109, 'rot3': 58, 'rot2': 58, 'depth': -0.293, 'yaw': -9.6, 'datetime': '2018-12-12 13:27:17.950141', 'mgs': 0, 'flw2': 0.0, 'flw1': 0.7, 'flw0': 0.0, 'time': 30.69, 'compass': -154.7, 'pitch': -1.67, 'roll': -0.25}
{'lipoC2': 7.57, 'temp': 0.0, 'lipoC3S3': 11.39, 'state': 'normal', 'rot1': 141, 'rot0': 109, 'rot3': 58, 'rot2': 58, 'depth': -1.437, 'yaw': -11.5, 'datetime': '2018-12-12 13:27:18.160681', 'mgs': 0, 'flw2': 0.83, 'flw1': 0.0, 'flw0': 0.67, 'time': 30.9, 'compass': -156.6, 'pitch': -2.75, 'roll': -0.05}
{'lipoC2': 7.62, 'temp': 0.0, 'lipoC3S3': 11.48, 'state': 'normal', 'rot1': 142, 'rot0': 110, 'rot3': 59, 'rot2': 58, 'depth': 1.462, 'yaw': -13.06, 'datetime': '2018-12-12 13:27:18.372840', 'mgs': 0, 'flw2': 0.77, 'flw1': 1.46, 'flw0': 3.7, 'time': 31.11, 'compass': -158.17, 'pitch': -2.79, 'roll': -0.05}
{'lipoC2': 7.43, 'temp': 0.0, 'lipoC3S3': 11.34, 'state': 'normal', 'rot1': 144, 'rot0': 112, 'rot3': 59, 'rot2': 59, 'depth': -0.369, 'yaw': -15.94, 'datetime': '2018-12-12 13:27:18.582575', 'mgs': 0, 'flw2': 0.99, 'flw1': 3.28, 'flw0': 1.65, 'time': 31.32, 'compass': -161.04, 'pitch': -0.75, 'roll': -0.41}
{'lipoC2': 7.43, 'temp': 0.0, 'lipoC3S3': 11.68, 'state': 'normal', 'rot1': 146, 'rot0': 113, 'rot3': 60, 'rot2': 60, 'depth': 0.089, 'yaw': -19.71, 'datetime': '2018-12-12 13:27:18.791362', 'mgs': 0, 'flw2': 0.4, 'flw1': 3.98, 'flw0': 1.37, 'time': 31.53, 'compass': -164.81, 'pitch': 0.94, 'roll': -0.77}
{'lipoC2': 7.47, 'temp': 0.0, 'lipoC3S3': 11.52, 'state': 'normal', 'rot1': 148, 'rot0': 114, 'rot3': 61, 'rot2': 61, 'depth': 0.546, 'yaw': -23.96, 'datetime': '2018-12-12 13:27:19.004181', 'mgs': 0, 'flw2': 0.52, 'flw1': 4.6, 'flw0': 2.2, 'time': 31.74, 'compass': -169.06, 'pitch': 1.47, 'roll': -0.97}
{'lipoC2': 7.38, 'temp': 0.0, 'lipoC3S3': 11.34, 'state': 'normal', 'rot1': 150, 'rot0': 115, 'rot3': 62, 'rot2': 62, 'depth': -0.064, 'yaw': -28.46, 'datetime': '2018-12-12 13:27:19.212163', 'mgs': 0, 'flw2': 1.78, 'flw1': 7.97, 'flw0': 2.27, 'time': 31.95, 'compass': -173.56, 'pitch': 2.2, 'roll': -0.95}
{'lipoC2': 7.38, 'temp': 0.0, 'lipoC3S3': 11.32, 'state': 'normal', 'rot1': 153, 'rot0': 118, 'rot3': 64, 'rot2': 63, 'depth': 0.012, 'yaw': -32.29, 'datetime': '2018-12-12 13:27:19.422737', 'mgs': 0, 'flw2': 2.58, 'flw1': 8.23, 'flw0': 2.97, 'time': 32.16, 'compass': -177.4, 'pitch': 3.25, 'roll': -0.71}
{'lipoC2': 7.46, 'temp': 0.0, 'lipoC3S3': 11.5, 'state': 'normal', 'rot1': 155, 'rot0': 120, 'rot3': 65, 'rot2': 65, 'depth': 2.759, 'yaw': -35.39, 'datetime': '2018-12-12 13:27:19.633361', 'mgs': 0, 'flw2': 2.32, 'flw1': 10.61, 'flw0': 3.88, 'time': 32.37, 'compass': 179.51, 'pitch': 3.93, 'roll': -0.26}
{'lipoC2': 7.42, 'temp': 0.0, 'lipoC3S3': 11.5, 'state': 'normal', 'rot1': 159, 'rot0': 122, 'rot3': 67, 'rot2': 66, 'depth': 3.369, 'yaw': -38.69, 'datetime': '2018-12-12 13:27:19.843508', 'mgs': 0, 'flw2': 2.37, 'flw1': 11.34, 'flw0': 4.54, 'time': 32.58, 'compass': 176.21, 'pitch': 4.51, 'roll': 0.43}
{'lipoC2': 7.38, 'temp': 0.0, 'lipoC3S3': 11.26, 'state': 'normal', 'rot1': 162, 'rot0': 125, 'rot3': 68, 'rot2': 67, 'depth': 3.064, 'yaw': -42.62, 'datetime': '2018-12-12 13:27:20.055201', 'mgs': 0, 'flw2': 2.72, 'flw1': 10.4, 'flw0': 4.58, 'time': 32.79, 'compass': 172.27, 'pitch': 5.09, 'roll': 0.83}
{'lipoC2': 7.53, 'temp': 0.0, 'lipoC3S3': 11.31, 'state': 'normal', 'rot1': 165, 'rot0': 128, 'rot3': 70, 'rot2': 69, 'depth': 2.225, 'yaw': -46.79, 'datetime': '2018-12-12 13:27:20.265753', 'mgs': 0, 'flw2': 2.87, 'flw1': 10.4, 'flw0': 4.46, 'time': 33.01, 'compass': 168.11, 'pitch': 5.43, 'roll': 0.66}
{'lipoC2': 7.67, 'temp': 0.0, 'lipoC3S3': 11.39, 'state': 'normal', 'rot1': 168, 'rot0': 130, 'rot3': 72, 'rot2': 70, 'depth': 1.233, 'yaw': -50.83, 'datetime': '2018-12-12 13:27:20.475083', 'mgs': 0, 'flw2': 2.76, 'flw1': 9.64, 'flw0': 4.48, 'time': 33.22, 'compass': 164.07, 'pitch': 5.42, 'roll': 0.29}
{'lipoC2': 7.42, 'temp': 0.0, 'lipoC3S3': 11.55, 'state': 'normal', 'rot1': 172, 'rot0': 133, 'rot3': 73, 'rot2': 71, 'depth': 1.233, 'yaw': -55.59, 'datetime': '2018-12-12 13:27:20.686648', 'mgs': 0, 'flw2': 2.51, 'flw1': 11.04, 'flw0': 9.14, 'time': 33.42, 'compass': 159.31, 'pitch': 5.65, 'roll': -0.01}
{'lipoC2': 7.43, 'temp': 0.0, 'lipoC3S3': 11.47, 'state': 'normal', 'rot1': 179, 'rot0': 135, 'rot3': 75, 'rot2': 73, 'depth': 3.293, 'yaw': -61.85, 'datetime': '2018-12-12 13:27:20.899521', 'mgs': 0, 'flw2': 2.92, 'flw1': 9.9, 'flw0': 8.96, 'time': 33.64, 'compass': 153.05, 'pitch': 6.75, 'roll': -0.08}
{'lipoC2': 7.46, 'temp': 0.0, 'lipoC3S3': 11.58, 'state': 'normal', 'rot1': 185, 'rot0': 138, 'rot3': 77, 'rot2': 74, 'depth': 1.843, 'yaw': -68.81, 'datetime': '2018-12-12 13:27:21.112635', 'mgs': 0, 'flw2': 2.58, 'flw1': 10.28, 'flw0': 9.24, 'time': 33.85, 'compass': 146.09, 'pitch': 8.34, 'roll': 0.17}
{'lipoC2': 7.41, 'temp': 0.0, 'lipoC3S3': 11.31, 'state': 'normal', 'rot1': 190, 'rot0': 140, 'rot3': 78, 'rot2': 75, 'depth': 2.988, 'yaw': -75.86, 'datetime': '2018-12-12 13:27:21.319279', 'mgs': 0, 'flw2': 4.66, 'flw1': 10.31, 'flw0': 9.03, 'time': 34.06, 'compass': 139.04, 'pitch': 10.06, 'roll': 0.68}
{'lipoC2': 7.62, 'temp': 0.0, 'lipoC3S3': 11.19, 'state': 'normal', 'rot1': 195, 'rot0': 143, 'rot3': 80, 'rot2': 77, 'depth': 3.827, 'yaw': -81.92, 'datetime': '2018-12-12 13:27:21.529170', 'mgs': 0, 'flw2': 5.13, 'flw1': 9.99, 'flw0': 8.81, 'time': 34.27, 'compass': 132.98, 'pitch': 11.6, 'roll': 1.23}
{'lipoC2': 7.39, 'temp': 0.0, 'lipoC3S3': 11.46, 'state': 'normal', 'rot1': 200, 'rot0': 147, 'rot3': 81, 'rot2': 78, 'depth': 2.301, 'yaw': -86.96, 'datetime': '2018-12-12 13:27:21.738812', 'mgs': 0, 'flw2': 5.69, 'flw1': 9.64, 'flw0': 8.36, 'time': 34.48, 'compass': 127.93, 'pitch': 12.58, 'roll': 1.57}
{'lipoC2': 7.43, 'temp': 0.0, 'lipoC3S3': 11.26, 'state': 'normal', 'rot1': 204, 'rot0': 151, 'rot3': 83, 'rot2': 80, 'depth': 3.751, 'yaw': -91.36, 'datetime': '2018-12-12 13:27:21.949308', 'mgs': 0, 'flw2': 5.29, 'flw1': 9.11, 'flw0': 8.36, 'time': 34.69, 'compass': 123.54, 'pitch': 13.14, 'roll': 1.79}
{'lipoC2': 7.46, 'temp': 0.0, 'lipoC3S3': 11.46, 'state': 'normal', 'rot1': 209, 'rot0': 154, 'rot3': 85, 'rot2': 81, 'depth': 2.911, 'yaw': -95.03, 'datetime': '2018-12-12 13:27:22.159063', 'mgs': 0, 'flw2': 8.23, 'flw1': 10.28, 'flw0': 7.95, 'time': 34.9, 'compass': 119.87, 'pitch': 13.46, 'roll': 1.79}
{'lipoC2': 7.59, 'temp': 0.0, 'lipoC3S3': 10.86, 'state': 'normal', 'rot1': 213, 'rot0': 158, 'rot3': 86, 'rot2': 82, 'depth': 1.462, 'yaw': -97.67, 'datetime': '2018-12-12 13:27:22.370766', 'mgs': 0, 'flw2': 8.35, 'flw1': 9.43, 'flw0': 8.28, 'time': 35.11, 'compass': 117.23, 'pitch': 13.6, 'roll': 1.96}
{'lipoC2': 7.42, 'temp': 0.0, 'lipoC3S3': 11.5, 'state': 'normal', 'rot1': 216, 'rot0': 162, 'rot3': 88, 'rot2': 84, 'depth': 4.285, 'yaw': -99.13, 'datetime': '2018-12-12 13:27:22.580129', 'mgs': 0, 'flw2': 8.22, 'flw1': 10.72, 'flw0': 3.8, 'time': 35.32, 'compass': 115.76, 'pitch': 13.83, 'roll': 2.11}
{'lipoC2': 7.38, 'temp': 0.0, 'lipoC3S3': 11.14, 'state': 'normal', 'rot1': 219, 'rot0': 166, 'rot3': 90, 'rot2': 85, 'depth': 2.072, 'yaw': -98.16, 'datetime': '2018-12-12 13:27:22.790452', 'mgs': 0, 'flw2': 9.2, 'flw1': 10.14, 'flw0': 1.22, 'time': 35.53, 'compass': 116.74, 'pitch': 13.09, 'roll': 2.17}
{'lipoC2': 7.38, 'temp': 0.0, 'lipoC3S3': 11.19, 'state': 'normal', 'rot1': 220, 'rot0': 170, 'rot3': 91, 'rot2': 86, 'depth': 1.691, 'yaw': -94.15, 'datetime': '2018-12-12 13:27:23.000976', 'mgs': 0, 'flw2': 9.34, 'flw1': 10.4, 'flw0': 0.63, 'time': 35.74, 'compass': 120.74, 'pitch': 11.26, 'roll': 2.12}
{'lipoC2': 7.39, 'temp': 0.0, 'lipoC3S3': 11.14, 'state': 'normal', 'rot1': 222, 'rot0': 175, 'rot3': 93, 'rot2': 88, 'depth': 1.385, 'yaw': -88.04, 'datetime': '2018-12-12 13:27:23.210629', 'mgs': 0, 'flw2': 9.62, 'flw1': 10.96, 'flw0': 0.67, 'time': 35.95, 'compass': 126.86, 'pitch': 9.97, 'roll': 2.37}
{'lipoC2': 7.66, 'temp': 0.0, 'lipoC3S3': 11.14, 'state': 'normal', 'rot1': 224, 'rot0': 179, 'rot3': 95, 'rot2': 89, 'depth': 2.072, 'yaw': -80.14, 'datetime': '2018-12-12 13:27:23.422451', 'mgs': 0, 'flw2': 9.94, 'flw1': 10.34, 'flw0': 0.87, 'time': 36.16, 'compass': 134.76, 'pitch': 9.51, 'roll': 2.87}
{'lipoC2': 7.43, 'temp': 0.0, 'lipoC3S3': 11.6, 'state': 'normal', 'rot1': 225, 'rot0': 183, 'rot3': 96, 'rot2': 91, 'depth': 4.742, 'yaw': -71.5, 'datetime': '2018-12-12 13:27:23.632970', 'mgs': 0, 'flw2': 10.1, 'flw1': 10.63, 'flw0': 0.99, 'time': 36.37, 'compass': 143.4, 'pitch': 8.96, 'roll': 3.42}
{'lipoC2': 7.65, 'temp': 0.0, 'lipoC3S3': 11.23, 'state': 'normal', 'rot1': 228, 'rot0': 188, 'rot3': 98, 'rot2': 92, 'depth': 4.361, 'yaw': -63.0, 'datetime': '2018-12-12 13:27:23.842199', 'mgs': 0, 'flw2': 10.78, 'flw1': 9.14, 'flw0': 1.33, 'time': 36.58, 'compass': 151.9, 'pitch': 8.72, 'roll': 4.19}
{'lipoC2': 7.38, 'temp': 0.0, 'lipoC3S3': 11.26, 'state': 'normal', 'rot1': 230, 'rot0': 192, 'rot3': 100, 'rot2': 93, 'depth': 1.691, 'yaw': -54.49, 'datetime': '2018-12-12 13:27:24.053118', 'mgs': 0, 'flw2': 10.8, 'flw1': 10.9, 'flw0': 2.17, 'time': 36.79, 'compass': 160.41, 'pitch': 9.08, 'roll': 4.65}
{'lipoC2': 7.46, 'temp': 0.0, 'lipoC3S3': 11.11, 'state': 'normal', 'rot1': 232, 'rot0': 197, 'rot3': 101, 'rot2': 95, 'depth': 1.843, 'yaw': -46.54, 'datetime': '2018-12-12 13:27:24.262727', 'mgs': 0, 'flw2': 10.07, 'flw1': 9.76, 'flw0': 3.98, 'time': 37.0, 'compass': 168.36, 'pitch': 9.44, 'roll': 4.73}
{'lipoC2': 7.43, 'temp': 0.0, 'lipoC3S3': 11.11, 'state': 'normal', 'rot1': 235, 'rot0': 201, 'rot3': 103, 'rot2': 96, 'depth': 3.217, 'yaw': -39.5, 'datetime': '2018-12-12 13:27:24.473604', 'mgs': 0, 'flw2': 9.11, 'flw1': 9.73, 'flw0': 4.98, 'time': 37.21, 'compass': 175.4, 'pitch': 10.5, 'roll': 5.01}
{'lipoC2': 7.46, 'temp': 0.0, 'lipoC3S3': 11.13, 'state': 'normal', 'rot1': 239, 'rot0': 205, 'rot3': 104, 'rot2': 97, 'depth': 1.996, 'yaw': -33.94, 'datetime': '2018-12-12 13:27:24.683934', 'mgs': 0, 'flw2': 10.14, 'flw1': 9.73, 'flw0': 3.1, 'time': 37.42, 'compass': -179.04, 'pitch': 11.86, 'roll': 5.47}
{'lipoC2': 7.73, 'temp': 0.0, 'lipoC3S3': 10.9, 'state': 'normal', 'rot1': 243, 'rot0': 209, 'rot3': 106, 'rot2': 99, 'depth': 2.225, 'yaw': -28.15, 'datetime': '2018-12-12 13:27:24.893762', 'mgs': 0, 'flw2': 10.58, 'flw1': 10.84, 'flw0': 2.54, 'time': 37.63, 'compass': -173.25, 'pitch': 12.71, 'roll': 5.75}
{'lipoC2': 7.44, 'temp': 0.0, 'lipoC3S3': 11.22, 'state': 'normal', 'rot1': 247, 'rot0': 215, 'rot3': 108, 'rot2': 100, 'depth': 4.666, 'yaw': -21.04, 'datetime': '2018-12-12 13:27:25.104109', 'mgs': 0, 'flw2': 11.21, 'flw1': 10.2, 'flw0': 2.65, 'time': 37.84, 'compass': -166.14, 'pitch': 13.22, 'roll': 5.69}
{'lipoC2': 7.37, 'temp': 0.0, 'lipoC3S3': 11.03, 'state': 'normal', 'rot1': 250, 'rot0': 221, 'rot3': 109, 'rot2': 102, 'depth': 2.911, 'yaw': -13.12, 'datetime': '2018-12-12 13:27:25.314065', 'mgs': 0, 'flw2': 11.3, 'flw1': 9.9, 'flw0': 5.33, 'time': 38.05, 'compass': -158.22, 'pitch': 13.94, 'roll': 5.76}
{'lipoC2': 7.66, 'temp': 0.0, 'lipoC3S3': 10.9, 'state': 'normal', 'rot1': 256, 'rot0': 226, 'rot3': 111, 'rot2': 103, 'depth': 2.225, 'yaw': -5.72, 'datetime': '2018-12-12 13:27:25.529593', 'mgs': 0, 'flw2': 10.96, 'flw1': 10.61, 'flw0': 5.77, 'time': 38.26, 'compass': -150.82, 'pitch': 15.11, 'roll': 5.82}
{'lipoC2': 7.66, 'temp': 0.0, 'lipoC3S3': 11.0, 'state': 'normal', 'rot1': 259, 'rot0': 231, 'rot3': 113, 'rot2': 104, 'depth': 2.682, 'yaw': 0.95, 'datetime': '2018-12-12 13:27:25.743541', 'mgs': 0, 'flw2': 12.49, 'flw1': 9.79, 'flw0': 4.91, 'time': 38.47, 'compass': -144.15, 'pitch': 16.5, 'roll': 5.89}
{'lipoC2': 7.4, 'temp': 0.0, 'lipoC3S3': 11.07, 'state': 'normal', 'rot1': 262, 'rot0': 236, 'rot3': 114, 'rot2': 106, 'depth': 3.674, 'yaw': 8.59, 'datetime': '2018-12-12 13:27:25.955742', 'mgs': 0, 'flw2': 12.49, 'flw1': 10.31, 'flw0': 4.58, 'time': 38.68, 'compass': -136.52, 'pitch': 17.75, 'roll': 5.99}
{'lipoC2': 7.41, 'temp': 0.0, 'lipoC3S3': 11.26, 'state': 'normal', 'rot1': 266, 'rot0': 241, 'rot3': 116, 'rot2': 107, 'depth': 3.674, 'yaw': 16.65, 'datetime': '2018-12-12 13:27:26.165392', 'mgs': 0, 'flw2': 12.49, 'flw1': 10.28, 'flw0': 4.61, 'time': 38.89, 'compass': -128.45, 'pitch': 18.57, 'roll': 5.93}
{'lipoC2': 7.61, 'temp': 0.0, 'lipoC3S3': 11.05, 'state': 'normal', 'rot1': 269, 'rot0': 246, 'rot3': 118, 'rot2': 108, 'depth': 3.445, 'yaw': 24.39, 'datetime': '2018-12-12 13:27:26.375727', 'mgs': 0, 'flw2': 12.49, 'flw1': 9.96, 'flw0': 4.47, 'time': 39.1, 'compass': -120.71, 'pitch': 18.81, 'roll': 5.64}
{'lipoC2': 7.61, 'temp': 0.0, 'lipoC3S3': 11.02, 'state': 'normal', 'rot1': 272, 'rot0': 252, 'rot3': 119, 'rot2': 110, 'depth': 2.988, 'yaw': 32.03, 'datetime': '2018-12-12 13:27:26.587437', 'mgs': 0, 'flw2': 12.49, 'flw1': 9.96, 'flw0': 5.9, 'time': 39.31, 'compass': -113.07, 'pitch': 18.56, 'roll': 5.3}
{'lipoC2': 7.61, 'temp': 0.0, 'lipoC3S3': 10.88, 'state': 'normal', 'rot1': 276, 'rot0': 257, 'rot3': 121, 'rot2': 111, 'depth': 2.301, 'yaw': 39.67, 'datetime': '2018-12-12 13:27:26.801095', 'mgs': 0, 'flw2': 12.49, 'flw1': 10.05, 'flw0': 6.35, 'time': 39.53, 'compass': -105.44, 'pitch': 18.31, 'roll': 5.25}
{'lipoC2': 7.44, 'temp': 0.0, 'lipoC3S3': 11.06, 'state': 'normal', 'rot1': 280, 'rot0': 262, 'rot3': 122, 'rot2': 113, 'depth': 2.072, 'yaw': 46.88, 'datetime': '2018-12-12 13:27:27.009735', 'mgs': 0, 'flw2': 12.49, 'flw1': 9.67, 'flw0': 6.2, 'time': 39.74, 'compass': -98.22, 'pitch': 18.16, 'roll': 5.65}
{'lipoC2': 7.43, 'temp': 0.0, 'lipoC3S3': 11.15, 'state': 'normal', 'rot1': 284, 'rot0': 266, 'rot3': 124, 'rot2': 114, 'depth': 3.903, 'yaw': 53.59, 'datetime': '2018-12-12 13:27:27.221437', 'mgs': 0, 'flw2': 12.49, 'flw1': 10.02, 'flw0': 6.3, 'time': 39.94, 'compass': -91.52, 'pitch': 17.79, 'roll': 5.91}
{'lipoC2': 7.56, 'temp': 0.0, 'lipoC3S3': 11.01, 'state': 'normal', 'rot1': 287, 'rot0': 272, 'rot3': 126, 'rot2': 115, 'depth': 2.377, 'yaw': 59.97, 'datetime': '2018-12-12 13:27:27.434263', 'mgs': 0, 'flw2': 12.49, 'flw1': 9.96, 'flw0': 6.29, 'time': 40.16, 'compass': -85.14, 'pitch': 17.46, 'roll': 6.04}
{'lipoC2': 7.43, 'temp': 0.0, 'lipoC3S3': 11.34, 'state': 'normal', 'rot1': 292, 'rot0': 277, 'rot3': 127, 'rot2': 117, 'depth': 5.124, 'yaw': 66.3, 'datetime': '2018-12-12 13:27:27.644424', 'mgs': 0, 'flw2': 12.49, 'flw1': 10.02, 'flw0': 6.51, 'time': 40.37, 'compass': -78.8, 'pitch': 17.09, 'roll': 6.13}
{'lipoC2': 7.67, 'temp': 0.0, 'lipoC3S3': 10.92, 'state': 'normal', 'rot1': 295, 'rot0': 282, 'rot3': 129, 'rot2': 118, 'depth': 1.004, 'yaw': 72.55, 'datetime': '2018-12-12 13:27:27.857768', 'mgs': 0, 'flw2': 12.49, 'flw1': 9.52, 'flw0': 6.67, 'time': 40.58, 'compass': -72.55, 'pitch': 17.16, 'roll': 6.14}
{'lipoC2': 7.63, 'temp': 0.0, 'lipoC3S3': 11.0, 'state': 'normal', 'rot1': 299, 'rot0': 287, 'rot3': 131, 'rot2': 119, 'depth': 2.301, 'yaw': 78.47, 'datetime': '2018-12-12 13:27:28.066055', 'mgs': 0, 'flw2': 12.49, 'flw1': 10.08, 'flw0': 6.86, 'time': 40.79, 'compass': -66.63, 'pitch': 17.51, 'roll': 6.09}
{'lipoC2': 7.48, 'temp': 0.0, 'lipoC3S3': 10.96, 'state': 'normal', 'rot1': 303, 'rot0': 293, 'rot3': 132, 'rot2': 121, 'depth': 1.385, 'yaw': 84.5, 'datetime': '2018-12-12 13:27:28.276667', 'mgs': 0, 'flw2': 12.49, 'flw1': 9.81, 'flw0': 6.8, 'time': 41.0, 'compass': -60.6, 'pitch': 17.52, 'roll': 6.04}
{'lipoC2': 7.44, 'temp': 0.0, 'lipoC3S3': 11.21, 'state': 'normal', 'rot1': 307, 'rot0': 298, 'rot3': 134, 'rot2': 122, 'depth': 2.682, 'yaw': 90.63, 'datetime': '2018-12-12 13:27:28.487445', 'mgs': 0, 'flw2': 12.49, 'flw1': 10.93, 'flw0': 6.88, 'time': 41.21, 'compass': -54.47, 'pitch': 17.25, 'roll': 5.67}
{'lipoC2': 7.57, 'temp': 0.0, 'lipoC3S3': 10.86, 'state': 'normal', 'rot1': 310, 'rot0': 303, 'rot3': 135, 'rot2': 124, 'depth': 1.08, 'yaw': 96.75, 'datetime': '2018-12-12 13:27:28.698371', 'mgs': 0, 'flw2': 12.49, 'flw1': 8.99, 'flw0': 7.25, 'time': 41.42, 'compass': -48.35, 'pitch': 16.92, 'roll': 5.55}
{'lipoC2': 7.42, 'temp': 0.0, 'lipoC3S3': 11.02, 'state': 'normal', 'rot1': 315, 'rot0': 307, 'rot3': 137, 'rot2': 125, 'depth': 2.682, 'yaw': 103.13, 'datetime': '2018-12-12 13:27:28.912441', 'mgs': 0, 'flw2': 12.49, 'flw1': 9.7, 'flw0': 6.62, 'time': 41.63, 'compass': -41.98, 'pitch': 16.91, 'roll': 5.57}
{'lipoC2': 7.42, 'temp': 0.0, 'lipoC3S3': 11.35, 'state': 'normal', 'rot1': 319, 'rot0': 312, 'rot3': 139, 'rot2': 126, 'depth': 1.92, 'yaw': 109.36, 'datetime': '2018-12-12 13:27:29.121729', 'mgs': 0, 'flw2': 12.49, 'flw1': 10.37, 'flw0': 6.31, 'time': 41.84, 'compass': -35.74, 'pitch': 16.81, 'roll': 5.83}
{'lipoC2': 7.55, 'temp': 0.0, 'lipoC3S3': 11.05, 'state': 'normal', 'rot1': 322, 'rot0': 316, 'rot3': 140, 'rot2': 128, 'depth': 1.08, 'yaw': 115.99, 'datetime': '2018-12-12 13:27:29.330630', 'mgs': 0, 'flw2': 9.67, 'flw1': 10.11, 'flw0': 2.23, 'time': 42.05, 'compass': -29.11, 'pitch': 16.32, 'roll': 5.86}
{'lipoC2': 7.65, 'temp': 0.0, 'lipoC3S3': 11.0, 'state': 'normal', 'rot1': 325, 'rot0': 320, 'rot3': 142, 'rot2': 129, 'depth': 0.546, 'yaw': 123.17, 'datetime': '2018-12-12 13:27:29.541148', 'mgs': 0, 'flw2': 5.66, 'flw1': 10.49, 'flw0': 2.22, 'time': 42.26, 'compass': -21.94, 'pitch': 14.59, 'roll': 5.3}
{'lipoC2': 7.43, 'temp': 0.0, 'lipoC3S3': 11.13, 'state': 'normal', 'rot1': 327, 'rot0': 324, 'rot3': 144, 'rot2': 131, 'depth': 4.208, 'yaw': 129.61, 'datetime': '2018-12-12 13:27:29.754629', 'mgs': 0, 'flw2': 3.99, 'flw1': 10.75, 'flw0': 1.71, 'time': 42.47, 'compass': -15.49, 'pitch': 11.73, 'roll': 5.21}
