{'lipoC2': 0.17, 'temp': 0.0, 'lipoC3S3': 12.34, 'state': 'normal', 'rot1': 0, 'rot0': 0, 'rot3': 0, 'rot2': 0, 'depth': -2.734, 'yaw': 0.0, 'datetime': '2018-12-18 16:36:19.504767', 'mgs': 0, 'flw2': 0.15, 'flw1': 0.5, 'flw0': 0.0, 'time': 1.36, 'compass': 72.52, 'pitch': -3.11, 'roll': -8.63}
{'lipoC2': 0.0, 'temp': 0.0, 'lipoC3S3': 12.33, 'state': 'normal', 'rot1': 0, 'rot0': 0, 'rot3': 0, 'rot2': 0, 'depth': -0.064, 'yaw': 0.0, 'datetime': '2018-12-18 16:36:19.713774', 'mgs': 0, 'flw2': 0.13, 'flw1': 0.44, 'flw0': 0.0, 'time': 1.57, 'compass': 72.52, 'pitch': -3.11, 'roll': -8.63}
{'lipoC2': 0.14, 'temp': 0.0, 'lipoC3S3': 12.41, 'state': 'normal', 'rot1': 0, 'rot0': 0, 'rot3': 0, 'rot2': 0, 'depth': -1.514, 'yaw': 0.0, 'datetime': '2018-12-18 16:36:19.916832', 'mgs': 0, 'flw2': 0.21, 'flw1': 0.18, 'flw0': 0.0, 'time': 1.78, 'compass': 72.52, 'pitch': -3.11, 'roll': -8.63}
{'lipoC2': 0.15, 'temp': 0.0, 'lipoC3S3': 12.34, 'state': 'normal', 'rot1': 0, 'rot0': 0, 'rot3': 0, 'rot2': 0, 'depth': -2.277, 'yaw': 0.0, 'datetime': '2018-12-18 16:36:20.125698', 'mgs': 0, 'flw2': 0.16, 'flw1': 0.44, 'flw0': 0.0, 'time': 1.98, 'compass': 72.52, 'pitch': -3.11, 'roll': -8.63}
{'lipoC2': 0.12, 'temp': 0.0, 'lipoC3S3': 12.45, 'state': 'normal', 'rot1': 0, 'rot0': 0, 'rot3': 0, 'rot2': 0, 'depth': -1.056, 'yaw': 0.0, 'datetime': '2018-12-18 16:36:20.334358', 'mgs': 0, 'flw2': 0.0, 'flw1': 0.18, 'flw0': 0.21, 'time': 2.19, 'compass': 72.52, 'pitch': -3.11, 'roll': -8.63}
{'lipoC2': 0.16, 'temp': 0.0, 'lipoC3S3': 12.37, 'state': 'normal', 'rot1': 0, 'rot0': 0, 'rot3': 0, 'rot2': 0, 'depth': 1.157, 'yaw': 0.0, 'datetime': '2018-12-18 16:36:20.546781', 'mgs': 0, 'flw2': 0.21, 'flw1': 0.26, 'flw0': 0.0, 'time': 2.4, 'compass': 72.52, 'pitch': -3.11, 'roll': -8.63}
{'lipoC2': 0.0, 'temp': 0.0, 'lipoC3S3': 12.58, 'state': 'normal', 'rot1': 0, 'rot0': 0, 'rot3': 0, 'rot2': 0, 'depth': 1.08, 'yaw': 0.0, 'datetime': '2018-12-18 16:36:20.749600', 'mgs': 0, 'flw2': 0.01, 'flw1': 0.44, 'flw0': 0.13, 'time': 2.61, 'compass': 72.52, 'pitch': -3.11, 'roll': -8.63}
{'lipoC2': 0.13, 'temp': 0.0, 'lipoC3S3': 12.39, 'state': 'normal', 'rot1': 0, 'rot0': 0, 'rot3': 0, 'rot2': 0, 'depth': -2.505, 'yaw': 0.0, 'datetime': '2018-12-18 16:36:20.958661', 'mgs': 0, 'flw2': 0.12, 'flw1': 0.0, 'flw0': 0.0, 'time': 2.82, 'compass': 72.52, 'pitch': -3.11, 'roll': -8.63}
{'lipoC2': 0.0, 'temp': 0.0, 'lipoC3S3': 12.75, 'state': 'normal', 'rot1': 0, 'rot0': 0, 'rot3': 0, 'rot2': 0, 'depth': -0.369, 'yaw': 0.0, 'datetime': '2018-12-18 16:36:21.166889', 'mgs': 0, 'flw2': 0.0, 'flw1': 0.0, 'flw0': 0.16, 'time': 3.03, 'compass': 72.52, 'pitch': -3.11, 'roll': -8.63}
{'lipoC2': 0.0, 'temp': 0.0, 'lipoC3S3': 12.48, 'state': 'normal', 'rot1': 0, 'rot0': 0, 'rot3': 0, 'rot2': 0, 'depth': 0.699, 'yaw': 0.0, 'datetime': '2018-12-18 16:36:21.376248', 'mgs': 0, 'flw2': 0.17, 'flw1': 0.0, 'flw0': 0.0, 'time': 3.23, 'compass': 72.52, 'pitch': -3.11, 'roll': -8.63}
{'lipoC2': 0.1, 'temp': 0.0, 'lipoC3S3': 12.45, 'state': 'normal', 'rot1': 0, 'rot0': 0, 'rot3': 0, 'rot2': 0, 'depth': -0.827, 'yaw': 0.0, 'datetime': '2018-12-18 16:36:21.583659', 'mgs': 0, 'flw2': 0.18, 'flw1': 0.0, 'flw0': 0.23, 'time': 3.44, 'compass': 72.52, 'pitch': -3.11, 'roll': -8.63}
{'lipoC2': 0.13, 'temp': 0.0, 'lipoC3S3': 12.39, 'state': 'normal', 'rot1': 0, 'rot0': 0, 'rot3': 0, 'rot2': 0, 'depth': -2.505, 'yaw': 0.0, 'datetime': '2018-12-18 16:36:21.793083', 'mgs': 0, 'flw2': 0.17, 'flw1': 0.0, 'flw0': 0.0, 'time': 3.65, 'compass': 72.52, 'pitch': -3.11, 'roll': -8.63}
{'lipoC2': 0.03, 'temp': 0.0, 'lipoC3S3': 12.62, 'state': 'normal', 'rot1': 0, 'rot0': 0, 'rot3': 0, 'rot2': 0, 'depth': -0.064, 'yaw': 0.0, 'datetime': '2018-12-18 16:36:22.000179', 'mgs': 0, 'flw2': 0.22, 'flw1': 0.0, 'flw0': 0.0, 'time': 3.86, 'compass': 72.52, 'pitch': -3.11, 'roll': -8.63}
{'lipoC2': 0.0, 'temp': 0.0, 'lipoC3S3': 12.67, 'state': 'normal', 'rot1': 0, 'rot0': 0, 'rot3': 0, 'rot2': 0, 'depth': 1.233, 'yaw': 0.0, 'datetime': '2018-12-18 16:36:22.207894', 'mgs': 0, 'flw2': 0.0, 'flw1': 0.0, 'flw0': 0.21, 'time': 4.06, 'compass': 72.52, 'pitch': -3.11, 'roll': -8.63}
{'lipoC2': 0.0, 'temp': 0.0, 'lipoC3S3': 12.75, 'state': 'normal', 'rot1': 0, 'rot0': 0, 'rot3': 0, 'rot2': 0, 'depth': -0.369, 'yaw': 0.0, 'datetime': '2018-12-18 16:36:22.415739', 'mgs': 0, 'flw2': 0.0, 'flw1': 0.0, 'flw0': 0.16, 'time': 4.27, 'compass': 72.52, 'pitch': -3.11, 'roll': -8.63}
{'lipoC2': 0.01, 'temp': 0.0, 'lipoC3S3': 12.6, 'state': 'normal', 'rot1': 0, 'rot0': 0, 'rot3': 0, 'rot2': 0, 'depth': 0.623, 'yaw': 0.0, 'datetime': '2018-12-18 16:36:22.625469', 'mgs': 0, 'flw2': 0.21, 'flw1': 0.0, 'flw0': 0.0, 'time': 4.48, 'compass': 72.52, 'pitch': -3.11, 'roll': -8.63}
{'lipoC2': 0.0, 'temp': 0.0, 'lipoC3S3': 12.72, 'state': 'normal', 'rot1': 0, 'rot0': 0, 'rot3': 0, 'rot2': 0, 'depth': 1.004, 'yaw': 0.0, 'datetime': '2018-12-18 16:36:22.833390', 'mgs': 0, 'flw2': 0.22, 'flw1': 0.06, 'flw0': 0.0, 'time': 4.69, 'compass': 72.52, 'pitch': -3.11, 'roll': -8.63}
{'lipoC2': 0.12, 'temp': 0.0, 'lipoC3S3': 12.46, 'state': 'normal', 'rot1': 0, 'rot0': 0, 'rot3': 0, 'rot2': 0, 'depth': 0.928, 'yaw': 0.0, 'datetime': '2018-12-18 16:36:23.041553', 'mgs': 0, 'flw2': 0.0, 'flw1': 0.0, 'flw0': 0.02, 'time': 4.9, 'compass': 72.52, 'pitch': -3.11, 'roll': -8.63}
{'lipoC2': 0.14, 'temp': 0.0, 'lipoC3S3': 12.41, 'state': 'normal', 'rot1': 0, 'rot0': 0, 'rot3': 0, 'rot2': 0, 'depth': -2.582, 'yaw': 0.0, 'datetime': '2018-12-18 16:36:23.249746', 'mgs': 0, 'flw2': 0.13, 'flw1': 0.47, 'flw0': 0.04, 'time': 5.11, 'compass': 72.52, 'pitch': -3.11, 'roll': -8.63}
{'lipoC2': 0.04, 'temp': 0.0, 'lipoC3S3': 12.58, 'state': 'normal', 'rot1': 0, 'rot0': 0, 'rot3': 0, 'rot2': 0, 'depth': -0.674, 'yaw': 0.0, 'datetime': '2018-12-18 16:36:23.459105', 'mgs': 0, 'flw2': 0.18, 'flw1': 0.0, 'flw0': 0.0, 'time': 5.31, 'compass': 72.52, 'pitch': -3.11, 'roll': -8.63}
{'lipoC2': 0.0, 'temp': 0.0, 'lipoC3S3': 12.79, 'state': 'normal', 'rot1': 0, 'rot0': 0, 'rot3': 0, 'rot2': 0, 'depth': 0.775, 'yaw': 0.0, 'datetime': '2018-12-18 16:36:23.667019', 'mgs': 0, 'flw2': 0.0, 'flw1': 0.38, 'flw0': 0.0, 'time': 5.52, 'compass': 72.52, 'pitch': -3.11, 'roll': -8.63}
{'lipoC2': 0.0, 'temp': 0.0, 'lipoC3S3': 12.58, 'state': 'normal', 'rot1': 0, 'rot0': 0, 'rot3': 0, 'rot2': 0, 'depth': 1.08, 'yaw': 0.0, 'datetime': '2018-12-18 16:36:23.875213', 'mgs': 0, 'flw2': 0.0, 'flw1': 0.38, 'flw0': 0.2, 'time': 5.73, 'compass': 72.52, 'pitch': -3.11, 'roll': -8.63}
{'lipoC2': 0.0, 'temp': 0.0, 'lipoC3S3': 12.34, 'state': 'normal', 'rot1': 0, 'rot0': 0, 'rot3': 0, 'rot2': 0, 'depth': 0.394, 'yaw': 0.0, 'datetime': '2018-12-18 16:36:24.082993', 'mgs': 0, 'flw2': 0.15, 'flw1': 0.44, 'flw0': 0.0, 'time': 5.94, 'compass': 72.52, 'pitch': -3.11, 'roll': -8.63}
{'lipoC2': 0.0, 'temp': 0.0, 'lipoC3S3': 12.64, 'state': 'normal', 'rot1': 0, 'rot0': 0, 'rot3': 0, 'rot2': 0, 'depth': 1.385, 'yaw': 0.0, 'datetime': '2018-12-18 16:36:24.292223', 'mgs': 0, 'flw2': 0.21, 'flw1': 0.0, 'flw0': 0.0, 'time': 6.15, 'compass': 72.52, 'pitch': -3.11, 'roll': -8.63}
{'lipoC2': 0.11, 'temp': 0.0, 'lipoC3S3': 12.67, 'state': 'normal', 'rot1': 0, 'rot0': 0, 'rot3': 0, 'rot2': 0, 'depth': -0.751, 'yaw': 0.0, 'datetime': '2018-12-18 16:36:24.500210', 'mgs': 0, 'flw2': 0.0, 'flw1': 0.0, 'flw0': 0.21, 'time': 6.35, 'compass': 72.52, 'pitch': -3.11, 'roll': -8.63}
{'lipoC2': 0.08, 'temp': 0.0, 'lipoC3S3': 12.52, 'state': 'normal', 'rot1': 0, 'rot0': 0, 'rot3': 0, 'rot2': 0, 'depth': -0.293, 'yaw': 0.0, 'datetime': '2018-12-18 16:36:24.709332', 'mgs': 0, 'flw2': 0.0, 'flw1': 0.32, 'flw0': 0.23, 'time': 6.56, 'compass': 72.52, 'pitch': -3.11, 'roll': -8.63}
{'lipoC2': 0.0, 'temp': 0.0, 'lipoC3S3': 12.31, 'state': 'normal', 'rot1': 0, 'rot0': 0, 'rot3': 0, 'rot2': 0, 'depth': -0.064, 'yaw': 0.0, 'datetime': '2018-12-18 16:36:24.916684', 'mgs': 0, 'flw2': 0.16, 'flw1': 0.47, 'flw0': 0.0, 'time': 6.77, 'compass': 72.52, 'pitch': -3.11, 'roll': -8.63}
{'lipoC2': 0.0, 'temp': 0.0, 'lipoC3S3': 12.71, 'state': 'normal', 'rot1': 0, 'rot0': 0, 'rot3': 0, 'rot2': 0, 'depth': 1.08, 'yaw': 0.0, 'datetime': '2018-12-18 16:36:25.125809', 'mgs': 0, 'flw2': 0.0, 'flw1': 0.0, 'flw0': 0.2, 'time': 6.98, 'compass': 72.52, 'pitch': -3.11, 'roll': -8.63}
{'lipoC2': 0.09, 'temp': 0.0, 'lipoC3S3': 12.46, 'state': 'normal', 'rot1': 0, 'rot0': 0, 'rot3': 0, 'rot2': 0, 'depth': 0.47, 'yaw': 0.0, 'datetime': '2018-12-18 16:36:25.437686', 'mgs': 0, 'flw2': 0.0, 'flw1': 0.23, 'flw0': 0.22, 'time': 7.29, 'compass': 72.52, 'pitch': -3.11, 'roll': -8.63}
{'lipoC2': 0.15, 'temp': 0.0, 'lipoC3S3': 12.38, 'state': 'normal', 'rot1': 0, 'rot0': 0, 'rot3': 0, 'rot2': 0, 'depth': -2.658, 'yaw': 0.0, 'datetime': '2018-12-18 16:36:25.646597', 'mgs': 0, 'flw2': 0.17, 'flw1': 0.0, 'flw0': 0.0, 'time': 7.5, 'compass': 72.52, 'pitch': -3.11, 'roll': -8.63}
{'lipoC2': 0.01, 'temp': 0.0, 'lipoC3S3': 12.59, 'state': 'normal', 'rot1': 0, 'rot0': 0, 'rot3': 0, 'rot2': 0, 'depth': -0.598, 'yaw': 0.0, 'datetime': '2018-12-18 16:36:25.865002', 'mgs': 0, 'flw2': 0.0, 'flw1': 0.0, 'flw0': 0.0, 'time': 7.71, 'compass': 72.52, 'pitch': -3.11, 'roll': -8.63}
{'lipoC2': 0.0, 'temp': 0.0, 'lipoC3S3': 12.76, 'state': 'normal', 'rot1': 0, 'rot0': 0, 'rot3': 0, 'rot2': 0, 'depth': -0.369, 'yaw': 0.0, 'datetime': '2018-12-18 16:36:26.167388', 'mgs': 0, 'flw2': 0.0, 'flw1': 0.0, 'flw0': 0.17, 'time': 8.02, 'compass': 72.52, 'pitch': -3.11, 'roll': -8.63}
{'lipoC2': 0.16, 'temp': 0.0, 'lipoC3S3': 12.35, 'state': 'normal', 'rot1': 0, 'rot0': 0, 'rot3': 0, 'rot2': 0, 'depth': -2.582, 'yaw': 0.0, 'datetime': '2018-12-18 16:36:26.374490', 'mgs': 0, 'flw2': 0.0, 'flw1': 0.0, 'flw0': 0.09, 'time': 8.23, 'compass': 72.52, 'pitch': -3.11, 'roll': -8.63}
{'lipoC2': 0.09, 'temp': 0.0, 'lipoC3S3': 12.5, 'state': 'normal', 'rot1': 0, 'rot0': 0, 'rot3': 0, 'rot2': 0, 'depth': 0.394, 'yaw': 0.0, 'datetime': '2018-12-18 16:36:26.584013', 'mgs': 0, 'flw2': 0.2, 'flw1': 0.23, 'flw0': 0.0, 'time': 8.43, 'compass': 72.52, 'pitch': -3.11, 'roll': -8.63}
{'lipoC2': 0.0, 'temp': 0.0, 'lipoC3S3': 12.58, 'state': 'normal', 'rot1': 0, 'rot0': 0, 'rot3': 0, 'rot2': 0, 'depth': 1.157, 'yaw': 0.0, 'datetime': '2018-12-18 16:36:26.791581', 'mgs': 0, 'flw2': 0.2, 'flw1': 0.0, 'flw0': 0.0, 'time': 8.64, 'compass': 72.52, 'pitch': -3.11, 'roll': -8.63}
{'lipoC2': 0.16, 'temp': 0.0, 'lipoC3S3': 12.33, 'state': 'normal', 'rot1': 0, 'rot0': 0, 'rot3': 0, 'rot2': 0, 'depth': -2.353, 'yaw': 0.0, 'datetime': '2018-12-18 16:36:27.000827', 'mgs': 0, 'flw2': 0.0, 'flw1': 0.0, 'flw0': 0.15, 'time': 8.85, 'compass': 72.52, 'pitch': -3.11, 'roll': -8.63}
{'lipoC2': 0.02, 'temp': 0.0, 'lipoC3S3': 12.59, 'state': 'normal', 'rot1': 0, 'rot0': 0, 'rot3': 0, 'rot2': 0, 'depth': -0.522, 'yaw': 0.0, 'datetime': '2018-12-18 16:36:27.209112', 'mgs': 0, 'flw2': 0.21, 'flw1': 0.0, 'flw0': 0.0, 'time': 9.06, 'compass': 72.52, 'pitch': -3.11, 'roll': -8.63}
{'lipoC2': 0.13, 'temp': 0.0, 'lipoC3S3': 12.42, 'state': 'normal', 'rot1': 0, 'rot0': 0, 'rot3': 0, 'rot2': 0, 'depth': -2.582, 'yaw': 0.0, 'datetime': '2018-12-18 16:36:27.418701', 'mgs': 0, 'flw2': 0.12, 'flw1': 0.5, 'flw0': 0.05, 'time': 9.27, 'compass': 72.52, 'pitch': -3.11, 'roll': -8.63}
{'lipoC2': 0.09, 'temp': 0.0, 'lipoC3S3': 12.52, 'state': 'normal', 'rot1': 0, 'rot0': 0, 'rot3': 0, 'rot2': 0, 'depth': 0.851, 'yaw': 0.0, 'datetime': '2018-12-18 16:36:27.625185', 'mgs': 0, 'flw2': 0.0, 'flw1': 0.44, 'flw0': 0.15, 'time': 9.48, 'compass': 72.52, 'pitch': -3.11, 'roll': -8.63}
{'lipoC2': 0.14, 'temp': 0.0, 'lipoC3S3': 12.35, 'state': 'normal', 'rot1': 0, 'rot0': 0, 'rot3': 0, 'rot2': 0, 'depth': -1.361, 'yaw': 0.0, 'datetime': '2018-12-18 16:36:27.834203', 'mgs': 0, 'flw2': 0.0, 'flw1': 0.0, 'flw0': 0.18, 'time': 9.68, 'compass': 72.52, 'pitch': -3.11, 'roll': -8.63}
{'lipoC2': 0.06, 'temp': 0.0, 'lipoC3S3': 12.58, 'state': 'normal', 'rot1': 0, 'rot0': 0, 'rot3': 0, 'rot2': 0, 'depth': -1.208, 'yaw': 0.0, 'datetime': '2018-12-18 16:36:28.042559', 'mgs': 0, 'flw2': 0.21, 'flw1': 0.0, 'flw0': 0.0, 'time': 9.89, 'compass': 72.52, 'pitch': -3.11, 'roll': -8.63}
{'lipoC2': 0.06, 'temp': 0.0, 'lipoC3S3': 12.52, 'state': 'normal', 'rot1': 0, 'rot0': 0, 'rot3': 0, 'rot2': 0, 'depth': 0.241, 'yaw': 0.0, 'datetime': '2018-12-18 16:36:28.251676', 'mgs': 0, 'flw2': 0.22, 'flw1': 0.21, 'flw0': 0.0, 'time': 10.1, 'compass': 72.52, 'pitch': -3.11, 'roll': -8.63}
{'lipoC2': 0.13, 'temp': 0.0, 'lipoC3S3': 12.39, 'state': 'normal', 'rot1': 0, 'rot0': 0, 'rot3': 0, 'rot2': 0, 'depth': -0.98, 'yaw': 0.0, 'datetime': '2018-12-18 16:36:28.459582', 'mgs': 0, 'flw2': 0.16, 'flw1': 0.38, 'flw0': 0.0, 'time': 10.31, 'compass': 72.52, 'pitch': -3.11, 'roll': -8.63}
{'lipoC2': 0.0, 'temp': 0.0, 'lipoC3S3': 12.77, 'state': 'normal', 'rot1': 0, 'rot0': 0, 'rot3': 0, 'rot2': 0, 'depth': -0.369, 'yaw': 0.0, 'datetime': '2018-12-18 16:36:28.668099', 'mgs': 0, 'flw2': 0.15, 'flw1': 0.38, 'flw0': 0.0, 'time': 10.52, 'compass': 72.52, 'pitch': -3.11, 'roll': -8.63}
{'lipoC2': 0.0, 'temp': 0.0, 'lipoC3S3': 12.72, 'state': 'normal', 'rot1': 0, 'rot0': 0, 'rot3': 0, 'rot2': 0, 'depth': 1.157, 'yaw': 0.0, 'datetime': '2018-12-18 16:36:28.877614', 'mgs': 0, 'flw2': 0.0, 'flw1': 0.0, 'flw0': 0.16, 'time': 10.72, 'compass': 72.52, 'pitch': -3.11, 'roll': -8.63}
{'lipoC2': 0.05, 'temp': 0.0, 'lipoC3S3': 12.5, 'state': 'normal', 'rot1': 0, 'rot0': 0, 'rot3': 0, 'rot2': 0, 'depth': 0.089, 'yaw': 0.0, 'datetime': '2018-12-18 16:36:29.084713', 'mgs': 0, 'flw2': 0.18, 'flw1': 0.26, 'flw0': 0.0, 'time': 10.93, 'compass': 72.52, 'pitch': -3.11, 'roll': -8.63}
{'lipoC2': 0.14, 'temp': 0.0, 'lipoC3S3': 12.37, 'state': 'normal', 'rot1': 0, 'rot0': 0, 'rot3': 0, 'rot2': 0, 'depth': -2.658, 'yaw': 0.0, 'datetime': '2018-12-18 16:36:29.293124', 'mgs': 0, 'flw2': 0.13, 'flw1': 0.44, 'flw0': 0.02, 'time': 11.14, 'compass': 72.52, 'pitch': -3.11, 'roll': -8.63}
{'lipoC2': 0.08, 'temp': 0.0, 'lipoC3S3': 12.56, 'state': 'normal', 'rot1': 0, 'rot0': 0, 'rot3': 0, 'rot2': 0, 'depth': -1.056, 'yaw': 0.0, 'datetime': '2018-12-18 16:36:29.501018', 'mgs': 0, 'flw2': 0.0, 'flw1': 0.41, 'flw0': 0.17, 'time': 11.35, 'compass': 72.52, 'pitch': -3.11, 'roll': -8.63}
{'lipoC2': 0.0, 'temp': 0.0, 'lipoC3S3': 12.72, 'state': 'normal', 'rot1': 0, 'rot0': 0, 'rot3': 0, 'rot2': 0, 'depth': 1.157, 'yaw': 0.0, 'datetime': '2018-12-18 16:36:29.714375', 'mgs': 0, 'flw2': 0.2, 'flw1': 0.26, 'flw0': 0.0, 'time': 11.56, 'compass': 72.52, 'pitch': -3.11, 'roll': -8.63}
{'lipoC2': 0.06, 'temp': 0.0, 'lipoC3S3': 12.58, 'state': 'normal', 'rot1': 0, 'rot0': 0, 'rot3': 0, 'rot2': 0, 'depth': 0.851, 'yaw': 0.0, 'datetime': '2018-12-18 16:36:29.919442', 'mgs': 0, 'flw2': 0.21, 'flw1': 0.0, 'flw0': 0.0, 'time': 11.76, 'compass': 72.52, 'pitch': -3.11, 'roll': -8.63}
{'lipoC2': 0.15, 'temp': 0.0, 'lipoC3S3': 12.34, 'state': 'normal', 'rot1': 0, 'rot0': 0, 'rot3': 0, 'rot2': 0, 'depth': 0.928, 'yaw': 0.0, 'datetime': '2018-12-18 16:36:30.133225', 'mgs': 0, 'flw2': 0.13, 'flw1': 0.47, 'flw0': 0.0, 'time': 11.97, 'compass': 72.52, 'pitch': -3.11, 'roll': -8.63}
{'lipoC2': 0.16, 'temp': 0.0, 'lipoC3S3': 12.33, 'state': 'normal', 'rot1': 0, 'rot0': 0, 'rot3': 0, 'rot2': 0, 'depth': -1.971, 'yaw': 0.0, 'datetime': '2018-12-18 16:36:30.335257', 'mgs': 0, 'flw2': 0.0, 'flw1': 0.0, 'flw0': 0.16, 'time': 12.18, 'compass': 72.52, 'pitch': -3.11, 'roll': -8.63}
{'lipoC2': 0.14, 'temp': 0.0, 'lipoC3S3': 12.35, 'state': 'normal', 'rot1': 0, 'rot0': 0, 'rot3': 0, 'rot2': 0, 'depth': 0.928, 'yaw': 0.0, 'datetime': '2018-12-18 16:36:30.544550', 'mgs': 0, 'flw2': 0.0, 'flw1': 0.0, 'flw0': 0.16, 'time': 12.39, 'compass': 72.52, 'pitch': -3.11, 'roll': -8.63}
{'lipoC2': 0.05, 'temp': 0.0, 'lipoC3S3': 12.54, 'state': 'normal', 'rot1': 0, 'rot0': 0, 'rot3': 0, 'rot2': 0, 'depth': 0.089, 'yaw': 0.0, 'datetime': '2018-12-18 16:36:30.750515', 'mgs': 0, 'flw2': 0.6, 'flw1': 0.21, 'flw0': 0.0, 'time': 12.6, 'compass': 72.52, 'pitch': -3.11, 'roll': -8.63}
{'lipoC2': 0.06, 'temp': 0.0, 'lipoC3S3': 12.56, 'state': 'normal', 'rot1': 0, 'rot0': 2, 'rot3': 0, 'rot2': 0, 'depth': 0.851, 'yaw': 0.0, 'datetime': '2018-12-18 16:36:30.960283', 'mgs': 0, 'flw2': 1.73, 'flw1': 0.0, 'flw0': 0.0, 'time': 12.8, 'compass': 72.52, 'pitch': -3.11, 'roll': -8.63}
{'lipoC2': 0.13, 'temp': 0.0, 'lipoC3S3': 12.46, 'state': 'normal', 'rot1': 0, 'rot0': 5, 'rot3': 0, 'rot2': 0, 'depth': -2.429, 'yaw': 0.0, 'datetime': '2018-12-18 16:36:31.170288', 'mgs': 0, 'flw2': 1.15, 'flw1': 0.0, 'flw0': 0.0, 'time': 13.01, 'compass': 72.52, 'pitch': -3.11, 'roll': -8.63}
{'lipoC2': 0.16, 'temp': 0.0, 'lipoC3S3': 12.33, 'state': 'normal', 'rot1': 0, 'rot0': 8, 'rot3': 0, 'rot2': 0, 'depth': -2.353, 'yaw': 0.0, 'datetime': '2018-12-18 16:36:31.378609', 'mgs': 0, 'flw2': 0.27, 'flw1': 0.0, 'flw0': 0.32, 'time': 13.22, 'compass': 72.52, 'pitch': -3.11, 'roll': -8.64}
{'lipoC2': 0.05, 'temp': 0.0, 'lipoC3S3': 12.59, 'state': 'normal', 'rot1': 0, 'rot0': 9, 'rot3': 0, 'rot2': 0, 'depth': -0.98, 'yaw': 0.0, 'datetime': '2018-12-18 16:36:31.589226', 'mgs': 0, 'flw2': 0.51, 'flw1': 0.0, 'flw0': 0.16, 'time': 13.43, 'compass': 72.52, 'pitch': -3.12, 'roll': -8.65}
{'lipoC2': 0.17, 'temp': 0.0, 'lipoC3S3': 12.31, 'state': 'normal', 'rot1': 2, 'rot0': 10, 'rot3': 0, 'rot2': 0, 'depth': -2.353, 'yaw': 0.0, 'datetime': '2018-12-18 16:36:31.795453', 'mgs': 0, 'flw2': 0.46, 'flw1': 0.35, 'flw0': 2.43, 'time': 13.64, 'compass': 72.52, 'pitch': -3.12, 'roll': -8.64}
{'lipoC2': 0.0, 'temp': 0.0, 'lipoC3S3': 12.79, 'state': 'normal', 'rot1': 8, 'rot0': 11, 'rot3': 0, 'rot2': 0, 'depth': 0.546, 'yaw': 0.03, 'datetime': '2018-12-18 16:36:32.003060', 'mgs': 0, 'flw2': 0.29, 'flw1': 0.15, 'flw0': 2.53, 'time': 13.85, 'compass': 72.55, 'pitch': -3.12, 'roll': -8.66}
{'lipoC2': 0.0, 'temp': 0.0, 'lipoC3S3': 12.76, 'state': 'normal', 'rot1': 15, 'rot0': 11, 'rot3': 0, 'rot2': 0, 'depth': 1.08, 'yaw': 0.03, 'datetime': '2018-12-18 16:36:32.210236', 'mgs': 0, 'flw2': 1.89, 'flw1': 0.0, 'flw0': 2.53, 'time': 14.05, 'compass': 72.54, 'pitch': -3.12, 'roll': -8.62}
{'lipoC2': 0.09, 'temp': 0.0, 'lipoC3S3': 12.54, 'state': 'normal', 'rot1': 22, 'rot0': 15, 'rot3': 0, 'rot2': 0, 'depth': -1.361, 'yaw': 0.07, 'datetime': '2018-12-18 16:36:32.421051', 'mgs': 0, 'flw2': 2.11, 'flw1': 0.0, 'flw0': 2.23, 'time': 14.26, 'compass': 72.58, 'pitch': -3.12, 'roll': -8.6}
{'lipoC2': 0.15, 'temp': 0.0, 'lipoC3S3': 12.35, 'state': 'normal', 'rot1': 30, 'rot0': 21, 'rot3': 0, 'rot2': 0, 'depth': -2.658, 'yaw': 0.08, 'datetime': '2018-12-18 16:36:32.630444', 'mgs': 0, 'flw2': 1.73, 'flw1': 0.47, 'flw0': 2.47, 'time': 14.47, 'compass': 72.6, 'pitch': -3.11, 'roll': -8.61}
{'lipoC2': 0.01, 'temp': 0.0, 'lipoC3S3': 12.64, 'state': 'normal', 'rot1': 37, 'rot0': 26, 'rot3': 0, 'rot2': 0, 'depth': 0.012, 'yaw': 0.09, 'datetime': '2018-12-18 16:36:32.839978', 'mgs': 0, 'flw2': 2.05, 'flw1': 0.0, 'flw0': 1.29, 'time': 14.68, 'compass': 72.61, 'pitch': -3.11, 'roll': -8.59}
{'lipoC2': 0.03, 'temp': 0.0, 'lipoC3S3': 12.59, 'state': 'normal', 'rot1': 42, 'rot0': 31, 'rot3': 0, 'rot2': 0, 'depth': -0.674, 'yaw': 0.09, 'datetime': '2018-12-18 16:36:33.048573', 'mgs': 0, 'flw2': 1.37, 'flw1': 0.0, 'flw0': 0.57, 'time': 14.89, 'compass': 72.61, 'pitch': -3.09, 'roll': -8.61}
{'lipoC2': 0.0, 'temp': 0.0, 'lipoC3S3': 12.67, 'state': 'normal', 'rot1': 45, 'rot0': 35, 'rot3': 0, 'rot2': 0, 'depth': 0.851, 'yaw': 0.11, 'datetime': '2018-12-18 16:36:33.259065', 'mgs': 0, 'flw2': 1.31, 'flw1': 0.0, 'flw0': 1.16, 'time': 15.1, 'compass': 72.63, 'pitch': -3.09, 'roll': -8.6}
{'lipoC2': 0.0, 'temp': 0.0, 'lipoC3S3': 12.68, 'state': 'normal', 'rot1': 48, 'rot0': 39, 'rot3': 0, 'rot2': 0, 'depth': 1.157, 'yaw': 0.12, 'datetime': '2018-12-18 16:36:33.471019', 'mgs': 0, 'flw2': 1.73, 'flw1': 0.0, 'flw0': 0.92, 'time': 15.31, 'compass': 72.63, 'pitch': -3.1, 'roll': -8.59}
{'lipoC2': 0.11, 'temp': 0.0, 'lipoC3S3': 12.5, 'state': 'normal', 'rot1': 52, 'rot0': 44, 'rot3': 0, 'rot2': 0, 'depth': 0.623, 'yaw': 0.12, 'datetime': '2018-12-18 16:36:33.677348', 'mgs': 0, 'flw2': 0.27, 'flw1': 0.0, 'flw0': 0.85, 'time': 15.52, 'compass': 72.64, 'pitch': -3.11, 'roll': -8.56}
{'lipoC2': 0.0, 'temp': 0.0, 'lipoC3S3': 12.79, 'state': 'normal', 'rot1': 57, 'rot0': 45, 'rot3': 0, 'rot2': 0, 'depth': -0.217, 'yaw': 0.13, 'datetime': '2018-12-18 16:36:33.887389', 'mgs': 0, 'flw2': 0.28, 'flw1': 0.21, 'flw0': 2.71, 'time': 15.73, 'compass': 72.64, 'pitch': -3.11, 'roll': -8.58}
{'lipoC2': 0.0, 'temp': 0.0, 'lipoC3S3': 12.56, 'state': 'normal', 'rot1': 61, 'rot0': 52, 'rot3': 0, 'rot2': 0, 'depth': 1.691, 'yaw': 0.11, 'datetime': '2018-12-18 16:36:34.093690', 'mgs': 0, 'flw2': 3.05, 'flw1': 0.62, 'flw0': 0.11, 'time': 15.93, 'compass': 72.63, 'pitch': -3.08, 'roll': -8.57}
{'lipoC2': 0.05, 'temp': 0.0, 'lipoC3S3': 12.62, 'state': 'normal', 'rot1': 71, 'rot0': 56, 'rot3': 0, 'rot2': 0, 'depth': -0.293, 'yaw': 0.12, 'datetime': '2018-12-18 16:36:34.303815', 'mgs': 0, 'flw2': 0.11, 'flw1': 0.5, 'flw0': 3.81, 'time': 16.15, 'compass': 72.64, 'pitch': -3.07, 'roll': -8.58}
{'lipoC2': 0.09, 'temp': 0.0, 'lipoC3S3': 12.52, 'state': 'normal', 'rot1': 75, 'rot0': 62, 'rot3': 0, 'rot2': 0, 'depth': 0.928, 'yaw': 0.12, 'datetime': '2018-12-18 16:36:34.512442', 'mgs': 0, 'flw2': 3.34, 'flw1': 0.44, 'flw0': 0.16, 'time': 16.35, 'compass': 72.64, 'pitch': -3.07, 'roll': -8.6}
{'lipoC2': 0.16, 'temp': 0.0, 'lipoC3S3': 12.33, 'state': 'normal', 'rot1': 83, 'rot0': 65, 'rot3': 0, 'rot2': 0, 'depth': -2.2, 'yaw': 0.14, 'datetime': '2018-12-18 16:36:34.726867', 'mgs': 0, 'flw2': 0.0, 'flw1': 0.0, 'flw0': 4.16, 'time': 16.56, 'compass': 72.66, 'pitch': -3.05, 'roll': -8.6}
{'lipoC2': 0.03, 'temp': 0.0, 'lipoC3S3': 12.6, 'state': 'normal', 'rot1': 87, 'rot0': 73, 'rot3': 0, 'rot2': 0, 'depth': 0.546, 'yaw': 0.15, 'datetime': '2018-12-18 16:36:34.934373', 'mgs': 0, 'flw2': 3.23, 'flw1': 0.03, 'flw0': 0.0, 'time': 16.77, 'compass': 72.67, 'pitch': -3.06, 'roll': -8.59}
{'lipoC2': 0.04, 'temp': 0.0, 'lipoC3S3': 12.56, 'state': 'normal', 'rot1': 94, 'rot0': 75, 'rot3': 0, 'rot2': 0, 'depth': 0.165, 'yaw': 0.16, 'datetime': '2018-12-18 16:36:35.143247', 'mgs': 0, 'flw2': 0.21, 'flw1': 0.0, 'flw0': 2.76, 'time': 16.98, 'compass': 72.68, 'pitch': -3.06, 'roll': -8.6}
{'lipoC2': 0.16, 'temp': 0.0, 'lipoC3S3': 12.34, 'state': 'normal', 'rot1': 97, 'rot0': 81, 'rot3': 0, 'rot2': 0, 'depth': -2.277, 'yaw': 0.17, 'datetime': '2018-12-18 16:36:35.354180', 'mgs': 0, 'flw2': 2.37, 'flw1': 0.29, 'flw0': 2.12, 'time': 17.19, 'compass': 72.68, 'pitch': -3.05, 'roll': -8.61}
{'lipoC2': 0.0, 'temp': 0.0, 'lipoC3S3': 12.79, 'state': 'normal', 'rot1': 106, 'rot0': 82, 'rot3': 0, 'rot2': 0, 'depth': 0.089, 'yaw': 0.17, 'datetime': '2018-12-18 16:36:35.560833', 'mgs': 0, 'flw2': 2.15, 'flw1': 0.0, 'flw0': 0.26, 'time': 17.4, 'compass': 72.69, 'pitch': -3.05, 'roll': -8.61}
{'lipoC2': 0.0, 'temp': 0.0, 'lipoC3S3': 12.77, 'state': 'normal', 'rot1': 109, 'rot0': 89, 'rot3': 0, 'rot2': 0, 'depth': 1.08, 'yaw': 0.15, 'datetime': '2018-12-18 16:36:35.770131', 'mgs': 0, 'flw2': 0.0, 'flw1': 0.0, 'flw0': 3.53, 'time': 17.61, 'compass': 72.67, 'pitch': -3.02, 'roll': -8.59}
{'lipoC2': 0.21, 'temp': 0.0, 'lipoC3S3': 12.29, 'state': 'normal', 'rot1': 115, 'rot0': 90, 'rot3': 0, 'rot2': 0, 'depth': -2.582, 'yaw': 0.19, 'datetime': '2018-12-18 16:36:35.978942', 'mgs': 0, 'flw2': 4.02, 'flw1': 0.41, 'flw0': 0.0, 'time': 17.82, 'compass': 72.71, 'pitch': -3.01, 'roll': -8.61}
{'lipoC2': 0.02, 'temp': 0.0, 'lipoC3S3': 12.58, 'state': 'normal', 'rot1': 122, 'rot0': 94, 'rot3': 0, 'rot2': 0, 'depth': 0.623, 'yaw': 0.19, 'datetime': '2018-12-18 16:36:36.192076', 'mgs': 0, 'flw2': 0.11, 'flw1': 0.0, 'flw0': 5.08, 'time': 18.03, 'compass': 72.71, 'pitch': -3.02, 'roll': -8.61}
{'lipoC2': 0.09, 'temp': 0.0, 'lipoC3S3': 12.48, 'state': 'normal', 'rot1': 127, 'rot0': 94, 'rot3': 0, 'rot2': 0, 'depth': -0.446, 'yaw': 0.21, 'datetime': '2018-12-18 16:36:36.401796', 'mgs': 0, 'flw2': 2.05, 'flw1': 0.21, 'flw0': 0.0, 'time': 18.24, 'compass': 72.73, 'pitch': -3.02, 'roll': -8.62}
{'lipoC2': 0.0, 'temp': 0.0, 'lipoC3S3': 12.34, 'state': 'normal', 'rot1': 127, 'rot0': 102, 'rot3': 0, 'rot2': 0, 'depth': 0.012, 'yaw': 0.22, 'datetime': '2018-12-18 16:36:36.612244', 'mgs': 0, 'flw2': 0.71, 'flw1': 0.0, 'flw0': 0.16, 'time': 18.45, 'compass': 72.74, 'pitch': -3.03, 'roll': -8.64}
{'lipoC2': 0.14, 'temp': 0.0, 'lipoC3S3': 12.38, 'state': 'normal', 'rot1': 131, 'rot0': 103, 'rot3': 0, 'rot2': 0, 'depth': -2.658, 'yaw': 0.22, 'datetime': '2018-12-18 16:36:36.820106', 'mgs': 0, 'flw2': 0.06, 'flw1': 0.0, 'flw0': 3.91, 'time': 18.66, 'compass': 72.73, 'pitch': -3.01, 'roll': -8.62}
{'lipoC2': 0.15, 'temp': 0.0, 'lipoC3S3': 12.33, 'state': 'normal', 'rot1': 138, 'rot0': 103, 'rot3': 0, 'rot2': 0, 'depth': -2.124, 'yaw': 0.23, 'datetime': '2018-12-18 16:36:37.031602', 'mgs': 0, 'flw2': 2.53, 'flw1': 0.38, 'flw0': 0.01, 'time': 18.86, 'compass': 72.75, 'pitch': -3.0, 'roll': -8.63}
{'lipoC2': 0.09, 'temp': 0.0, 'lipoC3S3': 12.54, 'state': 'normal', 'rot1': 138, 'rot0': 110, 'rot3': 0, 'rot2': 0, 'depth': -1.285, 'yaw': 0.23, 'datetime': '2018-12-18 16:36:37.242697', 'mgs': 0, 'flw2': 1.95, 'flw1': 0.44, 'flw0': 0.15, 'time': 19.07, 'compass': 72.74, 'pitch': -3.0, 'roll': -8.65}
{'lipoC2': 0.04, 'temp': 0.0, 'lipoC3S3': 12.58, 'state': 'normal', 'rot1': 140, 'rot0': 111, 'rot3': 0, 'rot2': 0, 'depth': -0.751, 'yaw': 0.24, 'datetime': '2018-12-18 16:36:37.451380', 'mgs': 0, 'flw2': 0.21, 'flw1': 0.0, 'flw0': 1.25, 'time': 19.28, 'compass': 72.75, 'pitch': -3.0, 'roll': -8.66}
{'lipoC2': 0.0, 'temp': 0.0, 'lipoC3S3': 12.59, 'state': 'normal', 'rot1': 141, 'rot0': 111, 'rot3': 0, 'rot2': 0, 'depth': 1.233, 'yaw': 0.24, 'datetime': '2018-12-18 16:36:37.659924', 'mgs': 0, 'flw2': 0.17, 'flw1': 0.0, 'flw0': 0.0, 'time': 19.49, 'compass': 72.76, 'pitch': -2.99, 'roll': -8.64}
{'lipoC2': 0.12, 'temp': 0.0, 'lipoC3S3': 12.79, 'state': 'normal', 'rot1': 141, 'rot0': 111, 'rot3': 0, 'rot2': 0, 'depth': -1.971, 'yaw': 0.24, 'datetime': '2018-12-18 16:36:37.869806', 'mgs': 0, 'flw2': 0.15, 'flw1': 0.41, 'flw0': 0.02, 'time': 19.7, 'compass': 72.76, 'pitch': -2.99, 'roll': -8.64}
{'lipoC2': 0.05, 'temp': 0.0, 'lipoC3S3': 12.55, 'state': 'normal', 'rot1': 141, 'rot0': 111, 'rot3': 0, 'rot2': 0, 'depth': 0.165, 'yaw': 0.24, 'datetime': '2018-12-18 16:36:38.080428', 'mgs': 0, 'flw2': 0.0, 'flw1': 0.29, 'flw0': 0.48, 'time': 19.91, 'compass': 72.76, 'pitch': -2.99, 'roll': -8.64}
{'lipoC2': 0.16, 'temp': 0.0, 'lipoC3S3': 12.35, 'state': 'normal', 'rot1': 143, 'rot0': 111, 'rot3': 0, 'rot2': 0, 'depth': -1.819, 'yaw': 0.24, 'datetime': '2018-12-18 16:36:38.288355', 'mgs': 0, 'flw2': 0.0, 'flw1': 0.0, 'flw0': 0.49, 'time': 20.12, 'compass': 72.76, 'pitch': -2.99, 'roll': -8.64}
{'lipoC2': 0.1, 'temp': 0.0, 'lipoC3S3': 12.47, 'state': 'normal', 'rot1': 143, 'rot0': 111, 'rot3': 0, 'rot2': 0, 'depth': -0.827, 'yaw': 0.24, 'datetime': '2018-12-18 16:36:38.499212', 'mgs': 0, 'flw2': 0.0, 'flw1': 0.26, 'flw0': 0.22, 'time': 20.33, 'compass': 72.76, 'pitch': -2.99, 'roll': -8.64}
{'lipoC2': 0.0, 'temp': 0.0, 'lipoC3S3': 12.75, 'state': 'normal', 'rot1': 143, 'rot0': 111, 'rot3': 0, 'rot2': 0, 'depth': -0.217, 'yaw': 0.24, 'datetime': '2018-12-18 16:36:38.708284', 'mgs': 0, 'flw2': 0.22, 'flw1': 0.23, 'flw0': 0.0, 'time': 20.54, 'compass': 72.76, 'pitch': -2.99, 'roll': -8.64}
{'lipoC2': 0.02, 'temp': 0.0, 'lipoC3S3': 12.58, 'state': 'normal', 'rot1': 146, 'rot0': 111, 'rot3': 0, 'rot2': 0, 'depth': -0.446, 'yaw': 0.24, 'datetime': '2018-12-18 16:36:38.919861', 'mgs': 0, 'flw2': 0.07, 'flw1': 0.0, 'flw0': 5.96, 'time': 20.75, 'compass': 72.76, 'pitch': -2.99, 'roll': -8.64}
{'lipoC2': 0.06, 'temp': 0.0, 'lipoC3S3': 12.52, 'state': 'normal', 'rot1': 152, 'rot0': 111, 'rot3': 0, 'rot2': 0, 'depth': 0.394, 'yaw': 0.21, 'datetime': '2018-12-18 16:36:39.130120', 'mgs': 0, 'flw2': 0.22, 'flw1': 0.15, 'flw0': 0.0, 'time': 20.96, 'compass': 72.73, 'pitch': -2.96, 'roll': -8.65}
{'lipoC2': 0.04, 'temp': 0.0, 'lipoC3S3': 12.56, 'state': 'normal', 'rot1': 152, 'rot0': 111, 'rot3': 0, 'rot2': 0, 'depth': -0.522, 'yaw': 0.21, 'datetime': '2018-12-18 16:36:39.340210', 'mgs': 0, 'flw2': 0.06, 'flw1': 0.47, 'flw0': 0.13, 'time': 21.17, 'compass': 72.73, 'pitch': -2.95, 'roll': -8.66}
{'lipoC2': 0.12, 'temp': 0.0, 'lipoC3S3': 12.48, 'state': 'normal', 'rot1': 152, 'rot0': 111, 'rot3': 0, 'rot2': 0, 'depth': -2.2, 'yaw': 0.21, 'datetime': '2018-12-18 16:36:39.546749', 'mgs': 0, 'flw2': 0.0, 'flw1': 0.97, 'flw0': 0.12, 'time': 21.38, 'compass': 72.73, 'pitch': -2.95, 'roll': -8.67}
{'lipoC2': 0.11, 'temp': 0.0, 'lipoC3S3': 12.5, 'state': 'normal', 'rot1': 152, 'rot0': 111, 'rot3': 0, 'rot2': 0, 'depth': -1.895, 'yaw': 0.21, 'datetime': '2018-12-18 16:36:39.759582', 'mgs': 0, 'flw2': 0.02, 'flw1': 1.67, 'flw0': 0.11, 'time': 21.59, 'compass': 72.73, 'pitch': -2.95, 'roll': -8.67}
{'lipoC2': 0.0, 'temp': 0.0, 'lipoC3S3': 12.64, 'state': 'normal', 'rot1': 152, 'rot0': 111, 'rot3': 1, 'rot2': 1, 'depth': 1.309, 'yaw': 0.21, 'datetime': '2018-12-18 16:36:39.966413', 'mgs': 0, 'flw2': 0.21, 'flw1': 2.02, 'flw0': 0.0, 'time': 21.8, 'compass': 72.73, 'pitch': -2.95, 'roll': -8.67}
{'lipoC2': 0.06, 'temp': 0.0, 'lipoC3S3': 12.52, 'state': 'normal', 'rot1': 152, 'rot0': 111, 'rot3': 2, 'rot2': 2, 'depth': 0.394, 'yaw': 0.21, 'datetime': '2018-12-18 16:36:40.177165', 'mgs': 0, 'flw2': 0.0, 'flw1': 4.07, 'flw0': 0.21, 'time': 22.01, 'compass': 72.73, 'pitch': -2.95, 'roll': -8.67}
{'lipoC2': 0.1, 'temp': 0.0, 'lipoC3S3': 12.45, 'state': 'normal', 'rot1': 152, 'rot0': 111, 'rot3': 3, 'rot2': 3, 'depth': 0.47, 'yaw': 0.21, 'datetime': '2018-12-18 16:36:40.388326', 'mgs': 0, 'flw2': 0.0, 'flw1': 3.63, 'flw0': 0.21, 'time': 22.22, 'compass': 72.73, 'pitch': -2.95, 'roll': -8.67}
{'lipoC2': 0.0, 'temp': 0.0, 'lipoC3S3': 12.48, 'state': 'normal', 'rot1': 152, 'rot0': 111, 'rot3': 5, 'rot2': 4, 'depth': 0.699, 'yaw': 0.21, 'datetime': '2018-12-18 16:36:40.597306', 'mgs': 0, 'flw2': 0.12, 'flw1': 3.34, 'flw0': 0.05, 'time': 22.43, 'compass': 72.73, 'pitch': -2.95, 'roll': -8.67}
{'lipoC2': 0.13, 'temp': 0.0, 'lipoC3S3': 12.39, 'state': 'normal', 'rot1': 152, 'rot0': 111, 'rot3': 6, 'rot2': 5, 'depth': -2.277, 'yaw': 0.21, 'datetime': '2018-12-18 16:36:40.809159', 'mgs': 0, 'flw2': 0.02, 'flw1': 0.73, 'flw0': 0.0, 'time': 22.64, 'compass': 72.73, 'pitch': -2.95, 'roll': -8.67}
{'lipoC2': 0.05, 'temp': 0.0, 'lipoC3S3': 12.56, 'state': 'normal', 'rot1': 152, 'rot0': 111, 'rot3': 7, 'rot2': 6, 'depth': -0.751, 'yaw': 0.21, 'datetime': '2018-12-18 16:36:41.020689', 'mgs': 0, 'flw2': 0.0, 'flw1': 1.38, 'flw0': 0.15, 'time': 22.85, 'compass': 72.73, 'pitch': -2.95, 'roll': -8.67}
{'lipoC2': 0.0, 'temp': 0.0, 'lipoC3S3': 12.7, 'state': 'normal', 'rot1': 152, 'rot0': 111, 'rot3': 8, 'rot2': 7, 'depth': -0.98, 'yaw': 0.21, 'datetime': '2018-12-18 16:36:41.231251', 'mgs': 0, 'flw2': 0.0, 'flw1': 0.5, 'flw0': 0.22, 'time': 23.06, 'compass': 72.73, 'pitch': -2.95, 'roll': -8.67}
{'lipoC2': 0.03, 'temp': 0.0, 'lipoC3S3': 12.58, 'state': 'normal', 'rot1': 152, 'rot0': 111, 'rot3': 8, 'rot2': 7, 'depth': -0.522, 'yaw': 0.21, 'datetime': '2018-12-18 16:36:41.439727', 'mgs': 0, 'flw2': 0.11, 'flw1': 0.32, 'flw0': 0.0, 'time': 23.26, 'compass': 72.73, 'pitch': -2.95, 'roll': -8.67}
{'lipoC2': 0.0, 'temp': 0.0, 'lipoC3S3': 12.6, 'state': 'normal', 'rot1': 152, 'rot0': 111, 'rot3': 9, 'rot2': 7, 'depth': 1.157, 'yaw': 0.21, 'datetime': '2018-12-18 16:36:41.650438', 'mgs': 0, 'flw2': 0.16, 'flw1': 1.05, 'flw0': 0.0, 'time': 23.48, 'compass': 72.73, 'pitch': -2.95, 'roll': -8.67}
{'lipoC2': 0.14, 'temp': 0.0, 'lipoC3S3': 12.35, 'state': 'normal', 'rot1': 152, 'rot0': 111, 'rot3': 10, 'rot2': 8, 'depth': -1.666, 'yaw': 0.21, 'datetime': '2018-12-18 16:36:41.859986', 'mgs': 0, 'flw2': 0.0, 'flw1': 2.37, 'flw0': 0.2, 'time': 23.68, 'compass': 72.73, 'pitch': -2.95, 'roll': -8.67}
{'lipoC2': 0.15, 'temp': 0.0, 'lipoC3S3': 12.34, 'state': 'normal', 'rot1': 152, 'rot0': 111, 'rot3': 11, 'rot2': 9, 'depth': -2.582, 'yaw': 0.21, 'datetime': '2018-12-18 16:36:42.070199', 'mgs': 0, 'flw2': 0.1, 'flw1': 3.78, 'flw0': 0.0, 'time': 23.89, 'compass': 72.73, 'pitch': -2.95, 'roll': -8.67}
{'lipoC2': 0.0, 'temp': 0.0, 'lipoC3S3': 12.77, 'state': 'normal', 'rot1': 152, 'rot0': 111, 'rot3': 12, 'rot2': 10, 'depth': 0.699, 'yaw': 0.21, 'datetime': '2018-12-18 16:36:42.280747', 'mgs': 0, 'flw2': 0.18, 'flw1': 3.78, 'flw0': 0.0, 'time': 24.1, 'compass': 72.73, 'pitch': -2.95, 'roll': -8.67}
{'lipoC2': 0.11, 'temp': 0.0, 'lipoC3S3': 12.48, 'state': 'normal', 'rot1': 152, 'rot0': 111, 'rot3': 14, 'rot2': 12, 'depth': 0.623, 'yaw': 0.21, 'datetime': '2018-12-18 16:36:42.492455', 'mgs': 0, 'flw2': 0.0, 'flw1': 3.11, 'flw0': 0.2, 'time': 24.31, 'compass': 72.73, 'pitch': -2.95, 'roll': -8.67}
{'lipoC2': 0.0, 'temp': 0.0, 'lipoC3S3': 12.34, 'state': 'normal', 'rot1': 152, 'rot0': 111, 'rot3': 16, 'rot2': 13, 'depth': -0.293, 'yaw': 0.21, 'datetime': '2018-12-18 16:36:42.698835', 'mgs': 0, 'flw2': 0.0, 'flw1': 2.58, 'flw0': 0.0, 'time': 24.52, 'compass': 72.73, 'pitch': -2.95, 'roll': -8.67}
{'lipoC2': 0.12, 'temp': 0.0, 'lipoC3S3': 12.47, 'state': 'normal', 'rot1': 152, 'rot0': 111, 'rot3': 18, 'rot2': 14, 'depth': -2.429, 'yaw': 0.21, 'datetime': '2018-12-18 16:36:42.909968', 'mgs': 0, 'flw2': 0.01, 'flw1': 3.25, 'flw0': 0.12, 'time': 24.74, 'compass': 72.73, 'pitch': -2.95, 'roll': -8.67}
{'lipoC2': 0.0, 'temp': 0.0, 'lipoC3S3': 12.77, 'state': 'normal', 'rot1': 152, 'rot0': 111, 'rot3': 20, 'rot2': 16, 'depth': -0.217, 'yaw': 0.21, 'datetime': '2018-12-18 16:36:43.123060', 'mgs': 0, 'flw2': 0.17, 'flw1': 3.34, 'flw0': 0.0, 'time': 24.95, 'compass': 72.73, 'pitch': -2.95, 'roll': -8.67}
{'lipoC2': 0.16, 'temp': 0.0, 'lipoC3S3': 12.38, 'state': 'normal', 'rot1': 152, 'rot0': 111, 'rot3': 21, 'rot2': 17, 'depth': -1.59, 'yaw': 0.21, 'datetime': '2018-12-18 16:36:43.333036', 'mgs': 0, 'flw2': 0.0, 'flw1': 2.2, 'flw0': 0.18, 'time': 25.16, 'compass': 72.73, 'pitch': -2.95, 'roll': -8.67}
{'lipoC2': 0.12, 'temp': 0.0, 'lipoC3S3': 12.45, 'state': 'normal', 'rot1': 152, 'rot0': 111, 'rot3': 22, 'rot2': 18, 'depth': -1.971, 'yaw': 0.21, 'datetime': '2018-12-18 16:36:43.546438', 'mgs': 0, 'flw2': 0.1, 'flw1': 2.2, 'flw0': 0.06, 'time': 25.37, 'compass': 72.73, 'pitch': -2.95, 'roll': -8.67}
{'lipoC2': 0.1, 'temp': 0.0, 'lipoC3S3': 12.51, 'state': 'normal', 'rot1': 152, 'rot0': 111, 'rot3': 23, 'rot2': 19, 'depth': -1.514, 'yaw': 0.21, 'datetime': '2018-12-18 16:36:43.754962', 'mgs': 0, 'flw2': 0.04, 'flw1': 2.37, 'flw0': 0.12, 'time': 25.58, 'compass': 72.73, 'pitch': -2.95, 'roll': -8.67}
{'lipoC2': 0.0, 'temp': 0.0, 'lipoC3S3': 12.58, 'state': 'normal', 'rot1': 152, 'rot0': 111, 'rot3': 24, 'rot2': 19, 'depth': 1.004, 'yaw': 0.21, 'datetime': '2018-12-18 16:36:43.967796', 'mgs': 0, 'flw2': 0.21, 'flw1': 1.08, 'flw0': 0.0, 'time': 25.79, 'compass': 72.73, 'pitch': -2.95, 'roll': -8.67}
{'lipoC2': 0.11, 'temp': 0.0, 'lipoC3S3': 12.47, 'state': 'normal', 'rot1': 152, 'rot0': 111, 'rot3': 25, 'rot2': 20, 'depth': -1.666, 'yaw': 0.21, 'datetime': '2018-12-18 16:36:44.177093', 'mgs': 0, 'flw2': 0.06, 'flw1': 1.61, 'flw0': 0.11, 'time': 26.0, 'compass': 72.73, 'pitch': -2.95, 'roll': -8.67}
{'lipoC2': 0.0, 'temp': 0.0, 'lipoC3S3': 12.66, 'state': 'normal', 'rot1': 152, 'rot0': 111, 'rot3': 25, 'rot2': 20, 'depth': 1.309, 'yaw': 0.21, 'datetime': '2018-12-18 16:36:44.392207', 'mgs': 0, 'flw2': 0.0, 'flw1': 0.47, 'flw0': 0.21, 'time': 26.21, 'compass': 72.73, 'pitch': -2.95, 'roll': -8.67}
{'lipoC2': 0.0, 'temp': 0.0, 'lipoC3S3': 12.71, 'state': 'normal', 'rot1': 152, 'rot0': 111, 'rot3': 26, 'rot2': 21, 'depth': 1.233, 'yaw': 0.21, 'datetime': '2018-12-18 16:36:44.599331', 'mgs': 0, 'flw2': 0.0, 'flw1': 0.15, 'flw0': 0.18, 'time': 26.42, 'compass': 72.73, 'pitch': -2.95, 'roll': -8.67}
{'lipoC2': 0.03, 'temp': 0.0, 'lipoC3S3': 12.59, 'state': 'normal', 'rot1': 152, 'rot0': 111, 'rot3': 26, 'rot2': 21, 'depth': 0.012, 'yaw': 0.21, 'datetime': '2018-12-18 16:36:44.811153', 'mgs': 0, 'flw2': 0.22, 'flw1': 0.5, 'flw0': 0.0, 'time': 26.63, 'compass': 72.73, 'pitch': -2.95, 'roll': -8.67}
{'lipoC2': 0.16, 'temp': 0.0, 'lipoC3S3': 12.33, 'state': 'normal', 'rot1': 152, 'rot0': 111, 'rot3': 26, 'rot2': 21, 'depth': -2.353, 'yaw': 0.21, 'datetime': '2018-12-18 16:36:45.021040', 'mgs': 0, 'flw2': 0.06, 'flw1': 0.91, 'flw0': 0.0, 'time': 26.84, 'compass': 72.73, 'pitch': -2.95, 'roll': -8.67}
{'lipoC2': 0.0, 'temp': 0.0, 'lipoC3S3': 12.34, 'state': 'normal', 'rot1': 152, 'rot0': 111, 'rot3': 26, 'rot2': 21, 'depth': 0.47, 'yaw': 0.21, 'datetime': '2018-12-18 16:36:45.230268', 'mgs': 0, 'flw2': 0.0, 'flw1': 0.0, 'flw0': 0.18, 'time': 27.05, 'compass': 72.73, 'pitch': -2.95, 'roll': -8.67}
{'lipoC2': 0.17, 'temp': 0.0, 'lipoC3S3': 12.34, 'state': 'normal', 'rot1': 152, 'rot0': 111, 'rot3': 26, 'rot2': 21, 'depth': -2.582, 'yaw': 0.21, 'datetime': '2018-12-18 16:36:45.443079', 'mgs': 0, 'flw2': 0.13, 'flw1': 0.47, 'flw0': 0.0, 'time': 27.26, 'compass': 72.73, 'pitch': -2.95, 'roll': -8.67}
{'lipoC2': 0.0, 'temp': 0.0, 'lipoC3S3': 12.66, 'state': 'normal', 'rot1': 152, 'rot0': 111, 'rot3': 26, 'rot2': 21, 'depth': 1.309, 'yaw': 0.21, 'datetime': '2018-12-18 16:36:45.653481', 'mgs': 0, 'flw2': 0.21, 'flw1': 0.0, 'flw0': 0.0, 'time': 27.47, 'compass': 72.73, 'pitch': -2.95, 'roll': -8.67}
{'lipoC2': 0.0, 'temp': 0.0, 'lipoC3S3': 12.77, 'state': 'normal', 'rot1': 152, 'rot0': 111, 'rot3': 26, 'rot2': 21, 'depth': 0.699, 'yaw': 0.21, 'datetime': '2018-12-18 16:36:45.862711', 'mgs': 0, 'flw2': 0.0, 'flw1': 0.0, 'flw0': 0.1, 'time': 27.68, 'compass': 72.73, 'pitch': -2.95, 'roll': -8.67}
{'lipoC2': 0.0, 'temp': 0.0, 'lipoC3S3': 12.33, 'state': 'normal', 'rot1': 152, 'rot0': 111, 'rot3': 26, 'rot2': 21, 'depth': 0.089, 'yaw': 0.21, 'datetime': '2018-12-18 16:36:46.077063', 'mgs': 0, 'flw2': 0.12, 'flw1': 0.47, 'flw0': 0.0, 'time': 27.89, 'compass': 72.73, 'pitch': -2.95, 'roll': -8.67}
{'lipoC2': 0.08, 'temp': 0.0, 'lipoC3S3': 12.54, 'state': 'normal', 'rot1': 152, 'rot0': 111, 'rot3': 26, 'rot2': 21, 'depth': 0.851, 'yaw': 0.21, 'datetime': '2018-12-18 16:36:46.284151', 'mgs': 0, 'flw2': 0.06, 'flw1': 0.91, 'flw0': 0.11, 'time': 28.1, 'compass': 72.73, 'pitch': -2.95, 'roll': -8.67}
{'lipoC2': 0.15, 'temp': 0.0, 'lipoC3S3': 12.39, 'state': 'normal', 'rot1': 152, 'rot0': 111, 'rot3': 26, 'rot2': 21, 'depth': -2.582, 'yaw': 0.21, 'datetime': '2018-12-18 16:36:46.501853', 'mgs': 0, 'flw2': 0.12, 'flw1': 0.0, 'flw0': 0.0, 'time': 28.32, 'compass': 72.73, 'pitch': -2.95, 'roll': -8.67}
{'lipoC2': 0.0, 'temp': 0.0, 'lipoC3S3': 12.31, 'state': 'normal', 'rot1': 152, 'rot0': 111, 'rot3': 26, 'rot2': 21, 'depth': -0.293, 'yaw': 0.21, 'datetime': '2018-12-18 16:36:46.808772', 'mgs': 0, 'flw2': 0.2, 'flw1': 0.47, 'flw0': 0.0, 'time': 28.63, 'compass': 72.73, 'pitch': -2.95, 'roll': -8.67}
{'lipoC2': 0.0, 'temp': 0.0, 'lipoC3S3': 12.58, 'state': 'normal', 'rot1': 152, 'rot0': 111, 'rot3': 26, 'rot2': 21, 'depth': 1.462, 'yaw': 0.21, 'datetime': '2018-12-18 16:36:47.020254', 'mgs': 0, 'flw2': 0.0, 'flw1': 0.41, 'flw0': 0.18, 'time': 28.84, 'compass': 72.73, 'pitch': -2.95, 'roll': -8.67}
{'lipoC2': 0.0, 'temp': 0.0, 'lipoC3S3': 12.55, 'state': 'normal', 'rot1': 152, 'rot0': 111, 'rot3': 26, 'rot2': 21, 'depth': 1.691, 'yaw': 0.21, 'datetime': '2018-12-18 16:36:47.232115', 'mgs': 0, 'flw2': 0.12, 'flw1': 0.0, 'flw0': 0.0, 'time': 29.05, 'compass': 72.73, 'pitch': -2.95, 'roll': -8.67}
{'lipoC2': 0.01, 'temp': 0.0, 'lipoC3S3': 12.67, 'state': 'normal', 'rot1': 152, 'rot0': 116, 'rot3': 26, 'rot2': 21, 'depth': -0.064, 'yaw': 0.21, 'datetime': '2018-12-18 16:36:47.441544', 'mgs': 0, 'flw2': 2.48, 'flw1': 0.0, 'flw0': 0.0, 'time': 29.26, 'compass': 72.73, 'pitch': -2.95, 'roll': -8.67}
{'lipoC2': 0.2, 'temp': 0.0, 'lipoC3S3': 12.37, 'state': 'normal', 'rot1': 152, 'rot0': 122, 'rot3': 26, 'rot2': 21, 'depth': 1.233, 'yaw': 0.22, 'datetime': '2018-12-18 16:36:47.651566', 'mgs': 0, 'flw2': 0.71, 'flw1': 0.0, 'flw0': 0.2, 'time': 29.47, 'compass': 72.74, 'pitch': -2.94, 'roll': -8.67}
{'lipoC2': 0.0, 'temp': 0.0, 'lipoC3S3': 12.7, 'state': 'normal', 'rot1': 152, 'rot0': 126, 'rot3': 26, 'rot2': 21, 'depth': 1.309, 'yaw': 0.22, 'datetime': '2018-12-18 16:36:47.864237', 'mgs': 0, 'flw2': 1.35, 'flw1': 0.12, 'flw0': 0.0, 'time': 29.68, 'compass': 72.74, 'pitch': -2.95, 'roll': -8.67}
{'lipoC2': 0.11, 'temp': 0.0, 'lipoC3S3': 12.45, 'state': 'normal', 'rot1': 152, 'rot0': 130, 'rot3': 26, 'rot2': 21, 'depth': 0.851, 'yaw': 0.22, 'datetime': '2018-12-18 16:36:48.074323', 'mgs': 0, 'flw2': 1.78, 'flw1': 0.0, 'flw0': 0.17, 'time': 29.89, 'compass': 72.74, 'pitch': -2.94, 'roll': -8.65}
{'lipoC2': 0.0, 'temp': 0.0, 'lipoC3S3': 12.33, 'state': 'normal', 'rot1': 152, 'rot0': 136, 'rot3': 26, 'rot2': 21, 'depth': 0.394, 'yaw': 0.24, 'datetime': '2018-12-18 16:36:48.285375', 'mgs': 0, 'flw2': 1.75, 'flw1': 0.0, 'flw0': 0.2, 'time': 30.1, 'compass': 72.76, 'pitch': -2.94, 'roll': -8.65}
{'lipoC2': 0.0, 'temp': 0.0, 'lipoC3S3': 12.34, 'state': 'normal', 'rot1': 152, 'rot0': 142, 'rot3': 26, 'rot2': 21, 'depth': 0.317, 'yaw': 0.26, 'datetime': '2018-12-18 16:36:48.496751', 'mgs': 0, 'flw2': 2.22, 'flw1': 0.44, 'flw0': 0.0, 'time': 30.31, 'compass': 72.78, 'pitch': -2.98, 'roll': -8.67}
{'lipoC2': 0.13, 'temp': 0.0, 'lipoC3S3': 12.37, 'state': 'normal', 'rot1': 155, 'rot0': 148, 'rot3': 26, 'rot2': 21, 'depth': 1.233, 'yaw': 0.26, 'datetime': '2018-12-18 16:36:48.707069', 'mgs': 0, 'flw2': 2.21, 'flw1': 0.35, 'flw0': 3.28, 'time': 30.52, 'compass': 72.78, 'pitch': -2.96, 'roll': -8.65}
{'lipoC2': 0.0, 'temp': 0.0, 'lipoC3S3': 12.71, 'state': 'normal', 'rot1': 162, 'rot0': 154, 'rot3': 26, 'rot2': 21, 'depth': 1.157, 'yaw': 0.29, 'datetime': '2018-12-18 16:36:48.917518', 'mgs': 0, 'flw2': 1.83, 'flw1': 0.0, 'flw0': 2.55, 'time': 30.74, 'compass': 72.81, 'pitch': -2.96, 'roll': -8.69}
{'lipoC2': 0.08, 'temp': 0.0, 'lipoC3S3': 12.55, 'state': 'normal', 'rot1': 170, 'rot0': 161, 'rot3': 26, 'rot2': 21, 'depth': -1.361, 'yaw': 0.31, 'datetime': '2018-12-18 16:36:49.128439', 'mgs': 0, 'flw2': 3.0, 'flw1': 0.0, 'flw0': 2.19, 'time': 30.94, 'compass': 72.83, 'pitch': -2.96, 'roll': -8.7}
{'lipoC2': 0.15, 'temp': 0.0, 'lipoC3S3': 12.37, 'state': 'normal', 'rot1': 177, 'rot0': 168, 'rot3': 26, 'rot2': 21, 'depth': -2.353, 'yaw': 0.3, 'datetime': '2018-12-18 16:36:49.339779', 'mgs': 0, 'flw2': 2.39, 'flw1': 0.0, 'flw0': 2.26, 'time': 31.16, 'compass': 72.82, 'pitch': -2.94, 'roll': -8.7}
{'lipoC2': 0.06, 'temp': 0.0, 'lipoC3S3': 12.56, 'state': 'normal', 'rot1': 183, 'rot0': 175, 'rot3': 26, 'rot2': 21, 'depth': 0.851, 'yaw': 0.32, 'datetime': '2018-12-18 16:36:49.549052', 'mgs': 0, 'flw2': 2.09, 'flw1': 0.38, 'flw0': 2.5, 'time': 31.36, 'compass': 72.84, 'pitch': -2.94, 'roll': -8.7}
{'lipoC2': 0.15, 'temp': 0.0, 'lipoC3S3': 12.35, 'state': 'normal', 'rot1': 191, 'rot0': 182, 'rot3': 26, 'rot2': 21, 'depth': -2.582, 'yaw': 0.37, 'datetime': '2018-12-18 16:36:49.760677', 'mgs': 0, 'flw2': 2.28, 'flw1': 0.0, 'flw0': 2.36, 'time': 31.58, 'compass': 72.89, 'pitch': -2.94, 'roll': -8.69}
{'lipoC2': 0.09, 'temp': 0.0, 'lipoC3S3': 12.55, 'state': 'normal', 'rot1': 197, 'rot0': 188, 'rot3': 26, 'rot2': 21, 'depth': -1.514, 'yaw': 0.38, 'datetime': '2018-12-18 16:36:49.971008', 'mgs': 0, 'flw2': 0.99, 'flw1': 0.0, 'flw0': 0.63, 'time': 31.79, 'compass': 72.9, 'pitch': -2.93, 'roll': -8.72}
{'lipoC2': 0.13, 'temp': 0.0, 'lipoC3S3': 12.46, 'state': 'normal', 'rot1': 200, 'rot0': 191, 'rot3': 26, 'rot2': 21, 'depth': -2.048, 'yaw': 0.39, 'datetime': '2018-12-18 16:36:50.182621', 'mgs': 0, 'flw2': 1.03, 'flw1': 0.47, 'flw0': 1.05, 'time': 32.0, 'compass': 72.9, 'pitch': -2.9, 'roll': -8.72}
{'lipoC2': 0.0, 'temp': 0.0, 'lipoC3S3': 12.66, 'state': 'normal', 'rot1': 204, 'rot0': 194, 'rot3': 26, 'rot2': 21, 'depth': 1.385, 'yaw': 0.4, 'datetime': '2018-12-18 16:36:50.393925', 'mgs': 0, 'flw2': 0.23, 'flw1': 0.03, 'flw0': 0.85, 'time': 32.21, 'compass': 72.92, 'pitch': -2.88, 'roll': -8.71}
{'lipoC2': 0.03, 'temp': 0.0, 'lipoC3S3': 12.58, 'state': 'normal', 'rot1': 207, 'rot0': 196, 'rot3': 26, 'rot2': 21, 'depth': 0.012, 'yaw': 0.42, 'datetime': '2018-12-18 16:36:50.603874', 'mgs': 0, 'flw2': 0.34, 'flw1': 0.0, 'flw0': 0.0, 'time': 32.42, 'compass': 72.94, 'pitch': -2.89, 'roll': -8.7}
{'lipoC2': 0.0, 'temp': 0.0, 'lipoC3S3': 12.63, 'state': 'normal', 'rot1': 209, 'rot0': 197, 'rot3': 26, 'rot2': 21, 'depth': 1.309, 'yaw': 0.42, 'datetime': '2018-12-18 16:36:50.814610', 'mgs': 0, 'flw2': 0.28, 'flw1': 0.0, 'flw0': 0.05, 'time': 32.63, 'compass': 72.94, 'pitch': -2.89, 'roll': -8.73}
{'lipoC2': 0.0, 'temp': 0.0, 'lipoC3S3': 12.68, 'state': 'normal', 'rot1': 210, 'rot0': 199, 'rot3': 26, 'rot2': 21, 'depth': 1.233, 'yaw': 0.42, 'datetime': '2018-12-18 16:36:51.028743', 'mgs': 0, 'flw2': 1.04, 'flw1': 0.23, 'flw0': 1.28, 'time': 32.84, 'compass': 72.94, 'pitch': -2.89, 'roll': -8.74}
{'lipoC2': 0.0, 'temp': 0.0, 'lipoC3S3': 12.58, 'state': 'normal', 'rot1': 215, 'rot0': 203, 'rot3': 26, 'rot2': 21, 'depth': 1.309, 'yaw': 0.41, 'datetime': '2018-12-18 16:36:51.239905', 'mgs': 0, 'flw2': 4.0, 'flw1': 0.0, 'flw0': 3.49, 'time': 33.05, 'compass': 72.93, 'pitch': -2.88, 'roll': -8.73}
{'lipoC2': 0.0, 'temp': 0.0, 'lipoC3S3': 12.6, 'state': 'normal', 'rot1': 223, 'rot0': 208, 'rot3': 26, 'rot2': 21, 'depth': 1.385, 'yaw': 0.43, 'datetime': '2018-12-18 16:36:51.451598', 'mgs': 0, 'flw2': 0.2, 'flw1': 0.0, 'flw0': 0.0, 'time': 33.26, 'compass': 72.95, 'pitch': -2.89, 'roll': -8.76}
{'lipoC2': 0.0, 'temp': 0.0, 'lipoC3S3': 12.46, 'state': 'normal', 'rot1': 226, 'rot0': 211, 'rot3': 26, 'rot2': 21, 'depth': 1.08, 'yaw': 0.43, 'datetime': '2018-12-18 16:36:51.660806', 'mgs': 0, 'flw2': 4.06, 'flw1': 0.23, 'flw0': 4.44, 'time': 33.47, 'compass': 72.95, 'pitch': -2.88, 'roll': -8.74}
{'lipoC2': 0.14, 'temp': 0.0, 'lipoC3S3': 12.38, 'state': 'normal', 'rot1': 233, 'rot0': 216, 'rot3': 26, 'rot2': 21, 'depth': -1.361, 'yaw': 0.46, 'datetime': '2018-12-18 16:36:51.871582', 'mgs': 0, 'flw2': 0.0, 'flw1': 0.15, 'flw0': 0.28, 'time': 33.68, 'compass': 72.98, 'pitch': -2.87, 'roll': -8.74}
{'lipoC2': 0.17, 'temp': 0.0, 'lipoC3S3': 12.34, 'state': 'normal', 'rot1': 238, 'rot0': 219, 'rot3': 26, 'rot2': 21, 'depth': 1.233, 'yaw': 0.46, 'datetime': '2018-12-18 16:36:52.081134', 'mgs': 0, 'flw2': 2.75, 'flw1': 0.03, 'flw0': 2.66, 'time': 33.89, 'compass': 72.97, 'pitch': -2.89, 'roll': -8.74}
{'lipoC2': 0.1, 'temp': 0.0, 'lipoC3S3': 12.48, 'state': 'normal', 'rot1': 244, 'rot0': 223, 'rot3': 26, 'rot2': 21, 'depth': -0.674, 'yaw': 0.47, 'datetime': '2018-12-18 16:36:52.292933', 'mgs': 0, 'flw2': 0.2, 'flw1': 0.0, 'flw0': 0.0, 'time': 34.1, 'compass': 72.99, 'pitch': -2.9, 'roll': -8.76}
{'lipoC2': 0.04, 'temp': 0.0, 'lipoC3S3': 12.6, 'state': 'normal', 'rot1': 246, 'rot0': 224, 'rot3': 26, 'rot2': 21, 'depth': 0.165, 'yaw': 0.47, 'datetime': '2018-12-18 16:36:52.503899', 'mgs': 0, 'flw2': 0.07, 'flw1': 0.35, 'flw0': 0.63, 'time': 34.31, 'compass': 72.99, 'pitch': -2.89, 'roll': -8.77}
{'lipoC2': 0.04, 'temp': 0.0, 'lipoC3S3': 12.58, 'state': 'normal', 'rot1': 248, 'rot0': 225, 'rot3': 26, 'rot2': 21, 'depth': -0.522, 'yaw': 0.47, 'datetime': '2018-12-18 16:36:52.714676', 'mgs': 0, 'flw2': 0.26, 'flw1': 0.5, 'flw0': 0.55, 'time': 34.52, 'compass': 72.99, 'pitch': -2.89, 'roll': -8.77}
{'lipoC2': 0.0, 'temp': 0.0, 'lipoC3S3': 12.58, 'state': 'normal', 'rot1': 251, 'rot0': 226, 'rot3': 26, 'rot2': 21, 'depth': 1.309, 'yaw': 0.47, 'datetime': '2018-12-18 16:36:52.925845', 'mgs': 0, 'flw2': 0.07, 'flw1': 0.44, 'flw0': 0.51, 'time': 34.73, 'compass': 72.99, 'pitch': -2.89, 'roll': -8.77}
{'lipoC2': 0.0, 'temp': 0.0, 'lipoC3S3': 12.67, 'state': 'normal', 'rot1': 253, 'rot0': 226, 'rot3': 26, 'rot2': 21, 'depth': 1.157, 'yaw': 0.47, 'datetime': '2018-12-18 16:36:53.137323', 'mgs': 0, 'flw2': 0.0, 'flw1': 0.21, 'flw0': 0.33, 'time': 34.94, 'compass': 72.99, 'pitch': -2.89, 'roll': -8.77}
{'lipoC2': 0.0, 'temp': 0.0, 'lipoC3S3': 12.68, 'state': 'normal', 'rot1': 253, 'rot0': 226, 'rot3': 26, 'rot2': 21, 'depth': 1.157, 'yaw': 0.47, 'datetime': '2018-12-18 16:36:53.347602', 'mgs': 0, 'flw2': 0.0, 'flw1': 0.03, 'flw0': 0.22, 'time': 35.15, 'compass': 72.99, 'pitch': -2.89, 'roll': -8.77}
{'lipoC2': 0.0, 'temp': 0.0, 'lipoC3S3': 12.58, 'state': 'normal', 'rot1': 253, 'rot0': 226, 'rot3': 26, 'rot2': 21, 'depth': 1.08, 'yaw': 0.47, 'datetime': '2018-12-18 16:36:53.558588', 'mgs': 0, 'flw2': 0.21, 'flw1': 0.0, 'flw0': 0.0, 'time': 35.37, 'compass': 72.99, 'pitch': -2.89, 'roll': -8.77}
{'lipoC2': 0.1, 'temp': 0.0, 'lipoC3S3': 12.48, 'state': 'normal', 'rot1': 253, 'rot0': 226, 'rot3': 26, 'rot2': 21, 'depth': 0.928, 'yaw': 0.47, 'datetime': '2018-12-18 16:36:53.768717', 'mgs': 0, 'flw2': 0.11, 'flw1': 0.5, 'flw0': 0.09, 'time': 35.57, 'compass': 72.99, 'pitch': -2.89, 'roll': -8.77}
{'lipoC2': 0.0, 'temp': 0.0, 'lipoC3S3': 12.63, 'state': 'normal', 'rot1': 253, 'rot0': 226, 'rot3': 26, 'rot2': 21, 'depth': 1.233, 'yaw': 0.47, 'datetime': '2018-12-18 16:36:53.978843', 'mgs': 0, 'flw2': 0.21, 'flw1': 0.0, 'flw0': 0.0, 'time': 35.78, 'compass': 72.99, 'pitch': -2.89, 'roll': -8.77}
{'lipoC2': 0.0, 'temp': 0.0, 'lipoC3S3': 12.47, 'state': 'normal', 'rot1': 253, 'rot0': 226, 'rot3': 26, 'rot2': 21, 'depth': 0.546, 'yaw': 0.47, 'datetime': '2018-12-18 16:36:54.190156', 'mgs': 0, 'flw2': 0.2, 'flw1': 0.0, 'flw0': 0.0, 'time': 36.0, 'compass': 72.99, 'pitch': -2.89, 'roll': -8.77}
{'lipoC2': 0.0, 'temp': 0.0, 'lipoC3S3': 12.7, 'state': 'normal', 'rot1': 253, 'rot0': 226, 'rot3': 26, 'rot2': 21, 'depth': 1.004, 'yaw': 0.47, 'datetime': '2018-12-18 16:36:54.401466', 'mgs': 0, 'flw2': 0.0, 'flw1': 0.0, 'flw0': 0.2, 'time': 36.21, 'compass': 72.99, 'pitch': -2.89, 'roll': -8.77}
{'lipoC2': 0.11, 'temp': 0.0, 'lipoC3S3': 12.46, 'state': 'normal', 'rot1': 253, 'rot0': 227, 'rot3': 26, 'rot2': 21, 'depth': -1.971, 'yaw': 0.47, 'datetime': '2018-12-18 16:36:54.611744', 'mgs': 0, 'flw2': 1.07, 'flw1': 0.47, 'flw0': 0.05, 'time': 36.42, 'compass': 72.99, 'pitch': -2.89, 'roll': -8.77}
{'lipoC2': 0.09, 'temp': 0.0, 'lipoC3S3': 12.79, 'state': 'normal', 'rot1': 253, 'rot0': 229, 'rot3': 26, 'rot2': 21, 'depth': 0.928, 'yaw': 0.47, 'datetime': '2018-12-18 16:36:54.821656', 'mgs': 0, 'flw2': 0.77, 'flw1': 0.35, 'flw0': 0.01, 'time': 36.63, 'compass': 72.99, 'pitch': -2.89, 'roll': -8.77}
{'lipoC2': 0.0, 'temp': 0.0, 'lipoC3S3': 12.51, 'state': 'normal', 'rot1': 254, 'rot0': 231, 'rot3': 26, 'rot2': 21, 'depth': 0.699, 'yaw': 0.47, 'datetime': '2018-12-18 16:36:55.032959', 'mgs': 0, 'flw2': 0.68, 'flw1': 0.0, 'flw0': 0.0, 'time': 36.84, 'compass': 72.99, 'pitch': -2.89, 'roll': -8.77}
{'lipoC2': 0.01, 'temp': 0.0, 'lipoC3S3': 12.66, 'state': 'normal', 'rot1': 255, 'rot0': 233, 'rot3': 26, 'rot2': 21, 'depth': -0.064, 'yaw': 0.47, 'datetime': '2018-12-18 16:36:55.243034', 'mgs': 0, 'flw2': 0.68, 'flw1': 0.0, 'flw0': 0.0, 'time': 37.05, 'compass': 72.99, 'pitch': -2.89, 'roll': -8.77}
{'lipoC2': 0.0, 'temp': 0.0, 'lipoC3S3': 12.33, 'state': 'normal', 'rot1': 256, 'rot0': 235, 'rot3': 26, 'rot2': 21, 'depth': -0.064, 'yaw': 0.47, 'datetime': '2018-12-18 16:36:55.454948', 'mgs': 0, 'flw2': 0.24, 'flw1': 0.0, 'flw0': 0.68, 'time': 37.26, 'compass': 72.99, 'pitch': -2.89, 'roll': -8.77}
{'lipoC2': 0.0, 'temp': 0.0, 'lipoC3S3': 12.58, 'state': 'normal', 'rot1': 257, 'rot0': 235, 'rot3': 26, 'rot2': 21, 'depth': 1.08, 'yaw': 0.47, 'datetime': '2018-12-18 16:36:55.666354', 'mgs': 0, 'flw2': 0.07, 'flw1': 0.0, 'flw0': 0.2, 'time': 37.47, 'compass': 72.99, 'pitch': -2.89, 'roll': -8.77}
{'lipoC2': 0.16, 'temp': 0.0, 'lipoC3S3': 12.34, 'state': 'normal', 'rot1': 259, 'rot0': 235, 'rot3': 26, 'rot2': 21, 'depth': 1.233, 'yaw': 0.47, 'datetime': '2018-12-18 16:36:55.876203', 'mgs': 0, 'flw2': 0.17, 'flw1': 0.38, 'flw0': 0.0, 'time': 37.68, 'compass': 72.99, 'pitch': -2.89, 'roll': -8.77}
{'lipoC2': 0.13, 'temp': 0.0, 'lipoC3S3': 12.41, 'state': 'normal', 'rot1': 259, 'rot0': 235, 'rot3': 26, 'rot2': 21, 'depth': -1.59, 'yaw': 0.47, 'datetime': '2018-12-18 16:36:56.087362', 'mgs': 0, 'flw2': 0.0, 'flw1': 0.29, 'flw0': 0.24, 'time': 37.89, 'compass': 72.99, 'pitch': -2.89, 'roll': -8.77}
{'lipoC2': 0.04, 'temp': 0.0, 'lipoC3S3': 12.59, 'state': 'normal', 'rot1': 260, 'rot0': 235, 'rot3': 26, 'rot2': 21, 'depth': 0.089, 'yaw': 0.47, 'datetime': '2018-12-18 16:36:56.299261', 'mgs': 0, 'flw2': 0.11, 'flw1': 0.0, 'flw0': 0.84, 'time': 38.1, 'compass': 72.99, 'pitch': -2.89, 'roll': -8.77}
{'lipoC2': 0.0, 'temp': 0.0, 'lipoC3S3': 12.75, 'state': 'normal', 'rot1': 261, 'rot0': 235, 'rot3': 26, 'rot2': 21, 'depth': -0.217, 'yaw': 0.47, 'datetime': '2018-12-18 16:36:56.509199', 'mgs': 0, 'flw2': 0.21, 'flw1': 0.0, 'flw0': 0.01, 'time': 38.31, 'compass': 72.98, 'pitch': -2.89, 'roll': -8.76}
{'lipoC2': 0.12, 'temp': 0.0, 'lipoC3S3': 12.42, 'state': 'normal', 'rot1': 264, 'rot0': 235, 'rot3': 26, 'rot2': 21, 'depth': -1.819, 'yaw': 0.47, 'datetime': '2018-12-18 16:36:56.720959', 'mgs': 0, 'flw2': 0.16, 'flw1': 0.47, 'flw0': 0.02, 'time': 38.52, 'compass': 72.99, 'pitch': -2.89, 'roll': -8.78}
{'lipoC2': 0.0, 'temp': 0.0, 'lipoC3S3': 12.66, 'state': 'normal', 'rot1': 266, 'rot0': 235, 'rot3': 26, 'rot2': 21, 'depth': 1.157, 'yaw': 0.46, 'datetime': '2018-12-18 16:36:56.930437', 'mgs': 0, 'flw2': 0.0, 'flw1': 0.32, 'flw0': 0.32, 'time': 38.73, 'compass': 72.98, 'pitch': -2.88, 'roll': -8.81}
{'lipoC2': 0.0, 'temp': 0.0, 'lipoC3S3': 12.76, 'state': 'normal', 'rot1': 266, 'rot0': 235, 'rot3': 26, 'rot2': 21, 'depth': -0.14, 'yaw': 0.47, 'datetime': '2018-12-18 16:36:57.141994', 'mgs': 0, 'flw2': 0.28, 'flw1': 0.0, 'flw0': 0.18, 'time': 38.94, 'compass': 72.99, 'pitch': -2.88, 'roll': -8.8}
{'lipoC2': 0.01, 'temp': 0.0, 'lipoC3S3': 12.64, 'state': 'normal', 'rot1': 266, 'rot0': 236, 'rot3': 26, 'rot2': 21, 'depth': 0.012, 'yaw': 0.47, 'datetime': '2018-12-18 16:36:57.353056', 'mgs': 0, 'flw2': 0.21, 'flw1': 0.0, 'flw0': 0.0, 'time': 39.15, 'compass': 72.99, 'pitch': -2.88, 'roll': -8.8}
{'lipoC2': 0.0, 'temp': 0.0, 'lipoC3S3': 12.34, 'state': 'normal', 'rot1': 266, 'rot0': 237, 'rot3': 26, 'rot2': 21, 'depth': -0.293, 'yaw': 0.47, 'datetime': '2018-12-18 16:36:57.563599', 'mgs': 0, 'flw2': 1.38, 'flw1': 0.0, 'flw0': 0.18, 'time': 39.37, 'compass': 72.99, 'pitch': -2.88, 'roll': -8.8}
{'lipoC2': 0.11, 'temp': 0.0, 'lipoC3S3': 12.46, 'state': 'normal', 'rot1': 266, 'rot0': 238, 'rot3': 26, 'rot2': 21, 'depth': -1.819, 'yaw': 0.47, 'datetime': '2018-12-18 16:36:57.774728', 'mgs': 0, 'flw2': 0.72, 'flw1': 0.0, 'flw0': 0.0, 'time': 39.58, 'compass': 72.99, 'pitch': -2.88, 'roll': -8.8}
{'lipoC2': 0.02, 'temp': 0.0, 'lipoC3S3': 12.66, 'state': 'normal', 'rot1': 266, 'rot0': 238, 'rot3': 26, 'rot2': 21, 'depth': 0.089, 'yaw': 0.47, 'datetime': '2018-12-18 16:36:57.986588', 'mgs': 0, 'flw2': 0.21, 'flw1': 0.0, 'flw0': 0.0, 'time': 39.79, 'compass': 72.99, 'pitch': -2.89, 'roll': -8.79}
{'lipoC2': 0.0, 'temp': 0.0, 'lipoC3S3': 12.7, 'state': 'normal', 'rot1': 266, 'rot0': 239, 'rot3': 26, 'rot2': 21, 'depth': 1.08, 'yaw': 0.47, 'datetime': '2018-12-18 16:36:58.198222', 'mgs': 0, 'flw2': 0.21, 'flw1': 0.06, 'flw0': 0.0, 'time': 40.0, 'compass': 72.99, 'pitch': -2.89, 'roll': -8.79}
{'lipoC2': 0.16, 'temp': 0.0, 'lipoC3S3': 12.38, 'state': 'normal', 'rot1': 266, 'rot0': 239, 'rot3': 26, 'rot2': 21, 'depth': -2.048, 'yaw': 0.47, 'datetime': '2018-12-18 16:36:58.410704', 'mgs': 0, 'flw2': 0.0, 'flw1': 0.0, 'flw0': 0.16, 'time': 40.21, 'compass': 72.99, 'pitch': -2.89, 'roll': -8.79}
{'lipoC2': 0.0, 'temp': 0.0, 'lipoC3S3': 12.62, 'state': 'normal', 'rot1': 266, 'rot0': 239, 'rot3': 26, 'rot2': 21, 'depth': 1.385, 'yaw': 0.47, 'datetime': '2018-12-18 16:36:58.619104', 'mgs': 0, 'flw2': 0.21, 'flw1': 0.0, 'flw0': 0.0, 'time': 40.42, 'compass': 72.99, 'pitch': -2.89, 'roll': -8.79}
{'lipoC2': 0.11, 'temp': 0.0, 'lipoC3S3': 12.46, 'state': 'normal', 'rot1': 266, 'rot0': 239, 'rot3': 26, 'rot2': 21, 'depth': 0.928, 'yaw': 0.47, 'datetime': '2018-12-18 16:36:58.826884', 'mgs': 0, 'flw2': 0.16, 'flw1': 0.47, 'flw0': 0.06, 'time': 40.63, 'compass': 72.99, 'pitch': -2.89, 'roll': -8.79}
{'lipoC2': 0.17, 'temp': 0.0, 'lipoC3S3': 12.31, 'state': 'normal', 'rot1': 266, 'rot0': 239, 'rot3': 26, 'rot2': 21, 'depth': 1.233, 'yaw': 0.47, 'datetime': '2018-12-18 16:36:59.037750', 'mgs': 0, 'flw2': 0.2, 'flw1': 0.41, 'flw0': 0.0, 'time': 40.84, 'compass': 72.99, 'pitch': -2.89, 'roll': -8.79}
{'lipoC2': 0.15, 'temp': 0.0, 'lipoC3S3': 12.41, 'state': 'normal', 'rot1': 266, 'rot0': 240, 'rot3': 26, 'rot2': 21, 'depth': -1.514, 'yaw': 0.47, 'datetime': '2018-12-18 16:36:59.244013', 'mgs': 0, 'flw2': 0.23, 'flw1': 0.21, 'flw0': 0.23, 'time': 41.05, 'compass': 72.99, 'pitch': -2.89, 'roll': -8.79}
{'lipoC2': 0.0, 'temp': 0.0, 'lipoC3S3': 12.76, 'state': 'normal', 'rot1': 266, 'rot0': 242, 'rot3': 26, 'rot2': 21, 'depth': -0.217, 'yaw': 0.47, 'datetime': '2018-12-18 16:36:59.456265', 'mgs': 0, 'flw2': 0.0, 'flw1': 0.0, 'flw0': 0.21, 'time': 41.26, 'compass': 72.99, 'pitch': -2.89, 'roll': -8.79}
{'lipoC2': 0.12, 'temp': 0.0, 'lipoC3S3': 12.45, 'state': 'normal', 'rot1': 266, 'rot0': 242, 'rot3': 26, 'rot2': 21, 'depth': 0.851, 'yaw': 0.47, 'datetime': '2018-12-18 16:36:59.667806', 'mgs': 0, 'flw2': 0.0, 'flw1': 0.26, 'flw0': 0.22, 'time': 41.47, 'compass': 72.99, 'pitch': -2.89, 'roll': -8.79}
{'lipoC2': 0.0, 'temp': 0.0, 'lipoC3S3': 12.79, 'state': 'normal', 'rot1': 266, 'rot0': 246, 'rot3': 26, 'rot2': 21, 'depth': -0.14, 'yaw': 0.47, 'datetime': '2018-12-18 16:36:59.877940', 'mgs': 0, 'flw2': 0.92, 'flw1': 0.41, 'flw0': 0.0, 'time': 41.68, 'compass': 72.99, 'pitch': -2.89, 'roll': -8.79}
{'lipoC2': 0.0, 'temp': 0.0, 'lipoC3S3': 12.63, 'state': 'normal', 'rot1': 266, 'rot0': 247, 'rot3': 26, 'rot2': 21, 'depth': 1.309, 'yaw': 0.47, 'datetime': '2018-12-18 16:37:00.090352', 'mgs': 0, 'flw2': 0.22, 'flw1': 0.0, 'flw0': 0.0, 'time': 41.89, 'compass': 72.99, 'pitch': -2.89, 'roll': -8.79}
{'lipoC2': 0.0, 'temp': 0.0, 'lipoC3S3': 12.48, 'state': 'normal', 'rot1': 266, 'rot0': 251, 'rot3': 26, 'rot2': 21, 'depth': 0.775, 'yaw': 0.47, 'datetime': '2018-12-18 16:37:00.298985', 'mgs': 0, 'flw2': 0.17, 'flw1': 0.0, 'flw0': 0.0, 'time': 42.1, 'compass': 72.99, 'pitch': -2.88, 'roll': -8.81}
{'lipoC2': 0.15, 'temp': 0.0, 'lipoC3S3': 12.38, 'state': 'normal', 'rot1': 266, 'rot0': 251, 'rot3': 26, 'rot2': 21, 'depth': -2.048, 'yaw': 0.47, 'datetime': '2018-12-18 16:37:00.509083', 'mgs': 0, 'flw2': 0.27, 'flw1': 0.0, 'flw0': 0.0, 'time': 42.31, 'compass': 72.99, 'pitch': -2.87, 'roll': -8.8}
{'lipoC2': 0.1, 'temp': 0.0, 'lipoC3S3': 12.52, 'state': 'normal', 'rot1': 266, 'rot0': 251, 'rot3': 26, 'rot2': 21, 'depth': 0.851, 'yaw': 0.47, 'datetime': '2018-12-18 16:37:00.724203', 'mgs': 0, 'flw2': 0.07, 'flw1': 0.53, 'flw0': 0.11, 'time': 42.52, 'compass': 72.99, 'pitch': -2.87, 'roll': -8.81}
{'lipoC2': 0.0, 'temp': 0.0, 'lipoC3S3': 12.6, 'state': 'normal', 'rot1': 266, 'rot0': 253, 'rot3': 26, 'rot2': 21, 'depth': 1.309, 'yaw': 0.47, 'datetime': '2018-12-18 16:37:00.937149', 'mgs': 0, 'flw2': 0.0, 'flw1': 0.0, 'flw0': 0.0, 'time': 42.73, 'compass': 72.99, 'pitch': -2.87, 'roll': -8.81}
{'lipoC2': 0.05, 'temp': 0.0, 'lipoC3S3': 12.6, 'state': 'normal', 'rot1': 266, 'rot0': 255, 'rot3': 26, 'rot2': 21, 'depth': 0.394, 'yaw': 0.47, 'datetime': '2018-12-18 16:37:01.146891', 'mgs': 0, 'flw2': 3.64, 'flw1': 0.0, 'flw0': 0.0, 'time': 42.94, 'compass': 72.99, 'pitch': -2.87, 'roll': -8.82}
{'lipoC2': 0.12, 'temp': 0.0, 'lipoC3S3': 12.46, 'state': 'normal', 'rot1': 266, 'rot0': 260, 'rot3': 26, 'rot2': 21, 'depth': -0.98, 'yaw': 0.47, 'datetime': '2018-12-18 16:37:01.357030', 'mgs': 0, 'flw2': 0.0, 'flw1': 0.26, 'flw0': 0.24, 'time': 43.15, 'compass': 72.99, 'pitch': -2.88, 'roll': -8.82}
