{'lipoC2': 0.0, 'temp': 0.0, 'lipoC3S3': 12.02, 'state': 'normal', 'rot1': 0, 'rot0': 0, 'rot3': 0, 'rot2': 0, 'depth': 0.699, 'yaw': 0.0, 'datetime': '2018-12-18 21:08:28.767071', 'mgs': 0, 'flw2': 0.13, 'flw1': 0.0, 'flw0': 0.22, 'time': 1.25, 'compass': 174.32, 'pitch': 1.28, 'roll': -0.08}
{'lipoC2': 0.0, 'temp': 0.0, 'lipoC3S3': 12.04, 'state': 'normal', 'rot1': 0, 'rot0': 0, 'rot3': 0, 'rot2': 0, 'depth': 0.775, 'yaw': -0.04, 'datetime': '2018-12-18 21:08:28.976326', 'mgs': 0, 'flw2': 0.0, 'flw1': 0.0, 'flw0': 0.22, 'time': 1.46, 'compass': 174.28, 'pitch': 1.49, 'roll': -0.07}
{'lipoC2': 0.01, 'temp': 0.0, 'lipoC3S3': 11.94, 'state': 'normal', 'rot1': 0, 'rot0': 0, 'rot3': 0, 'rot2': 0, 'depth': -2.2, 'yaw': -0.17, 'datetime': '2018-12-18 21:08:29.184470', 'mgs': 0, 'flw2': 0.13, 'flw1': 0.06, 'flw0': 0.0, 'time': 1.67, 'compass': 174.15, 'pitch': 1.82, 'roll': -0.21}
{'lipoC2': 0.01, 'temp': 0.0, 'lipoC3S3': 11.96, 'state': 'normal', 'rot1': 0, 'rot0': 0, 'rot3': 0, 'rot2': 0, 'depth': 0.851, 'yaw': -0.29, 'datetime': '2018-12-18 21:08:29.393712', 'mgs': 0, 'flw2': 0.0, 'flw1': 0.18, 'flw0': 0.13, 'time': 1.88, 'compass': 174.03, 'pitch': 1.76, 'roll': -0.25}
{'lipoC2': 0.0, 'temp': 0.0, 'lipoC3S3': 11.71, 'state': 'normal', 'rot1': 0, 'rot0': 0, 'rot3': 0, 'rot2': 0, 'depth': -1.666, 'yaw': -0.44, 'datetime': '2018-12-18 21:08:29.601382', 'mgs': 0, 'flw2': 0.05, 'flw1': 0.38, 'flw0': 0.0, 'time': 2.09, 'compass': 173.88, 'pitch': 1.53, 'roll': -0.25}
{'lipoC2': 0.04, 'temp': 0.0, 'lipoC3S3': 11.87, 'state': 'normal', 'rot1': 0, 'rot0': 0, 'rot3': 0, 'rot2': 0, 'depth': -2.582, 'yaw': -0.54, 'datetime': '2018-12-18 21:08:29.816602', 'mgs': 0, 'flw2': 0.0, 'flw1': 0.21, 'flw0': 0.15, 'time': 2.3, 'compass': 173.78, 'pitch': 1.57, 'roll': -0.24}
{'lipoC2': 0.04, 'temp': 0.0, 'lipoC3S3': 11.92, 'state': 'normal', 'rot1': 0, 'rot0': 0, 'rot3': 0, 'rot2': 0, 'depth': -2.429, 'yaw': -0.68, 'datetime': '2018-12-18 21:08:30.028560', 'mgs': 0, 'flw2': 0.12, 'flw1': 0.0, 'flw0': 0.0, 'time': 2.5, 'compass': 173.63, 'pitch': 1.84, 'roll': -0.24}
{'lipoC2': 0.0, 'temp': 0.0, 'lipoC3S3': 11.8, 'state': 'normal', 'rot1': 0, 'rot0': 0, 'rot3': 0, 'rot2': 0, 'depth': -1.132, 'yaw': -0.95, 'datetime': '2018-12-18 21:08:30.332377', 'mgs': 0, 'flw2': 0.0, 'flw1': 0.44, 'flw0': 0.0, 'time': 2.82, 'compass': 173.37, 'pitch': 1.88, 'roll': -0.23}
{'lipoC2': 0.0, 'temp': 0.0, 'lipoC3S3': 11.85, 'state': 'normal', 'rot1': 0, 'rot0': 0, 'rot3': 0, 'rot2': 0, 'depth': 0.165, 'yaw': -1.12, 'datetime': '2018-12-18 21:08:30.539570', 'mgs': 0, 'flw2': 0.07, 'flw1': 0.0, 'flw0': 0.11, 'time': 3.02, 'compass': 173.2, 'pitch': 1.7, 'roll': -0.23}
{'lipoC2': 0.18, 'temp': 0.0, 'lipoC3S3': 11.77, 'state': 'normal', 'rot1': 0, 'rot0': 0, 'rot3': 0, 'rot2': 0, 'depth': 0.012, 'yaw': -1.3, 'datetime': '2018-12-18 21:08:30.748861', 'mgs': 0, 'flw2': 0.0, 'flw1': 0.0, 'flw0': 0.06, 'time': 3.23, 'compass': 173.02, 'pitch': 1.7, 'roll': -0.22}
{'lipoC2': 0.14, 'temp': 0.0, 'lipoC3S3': 11.85, 'state': 'normal', 'rot1': 0, 'rot0': 0, 'rot3': 0, 'rot2': 0, 'depth': 0.623, 'yaw': -1.47, 'datetime': '2018-12-18 21:08:30.958441', 'mgs': 0, 'flw2': 0.0, 'flw1': 0.38, 'flw0': 0.0, 'time': 3.44, 'compass': 172.85, 'pitch': 1.98, 'roll': -0.21}
{'lipoC2': 0.0, 'temp': 0.0, 'lipoC3S3': 11.87, 'state': 'normal', 'rot1': 0, 'rot0': 0, 'rot3': 0, 'rot2': 0, 'depth': -0.598, 'yaw': -1.67, 'datetime': '2018-12-18 21:08:31.168487', 'mgs': 0, 'flw2': 0.2, 'flw1': 0.0, 'flw0': 0.0, 'time': 3.65, 'compass': 172.65, 'pitch': 2.29, 'roll': -0.27}
{'lipoC2': 0.0, 'temp': 0.0, 'lipoC3S3': 12.05, 'state': 'normal', 'rot1': 0, 'rot0': 0, 'rot3': 0, 'rot2': 0, 'depth': 1.004, 'yaw': -1.88, 'datetime': '2018-12-18 21:08:31.374512', 'mgs': 0, 'flw2': 0.0, 'flw1': 0.0, 'flw0': 0.2, 'time': 3.86, 'compass': 172.43, 'pitch': 2.2, 'roll': -0.3}
{'lipoC2': 0.15, 'temp': 0.0, 'lipoC3S3': 11.84, 'state': 'normal', 'rot1': 0, 'rot0': 0, 'rot3': 0, 'rot2': 0, 'depth': -2.124, 'yaw': -2.08, 'datetime': '2018-12-18 21:08:31.581538', 'mgs': 0, 'flw2': 0.0, 'flw1': 0.44, 'flw0': 0.0, 'time': 4.06, 'compass': 172.24, 'pitch': 1.9, 'roll': -0.26}
{'lipoC2': 0.0, 'temp': 0.0, 'lipoC3S3': 11.79, 'state': 'normal', 'rot1': 0, 'rot0': 0, 'rot3': 0, 'rot2': 0, 'depth': -0.903, 'yaw': -3.23, 'datetime': '2018-12-18 21:08:32.620608', 'mgs': 0, 'flw2': 0.0, 'flw1': 0.53, 'flw0': 0.0, 'time': 5.1, 'compass': 171.09, 'pitch': 2.16, 'roll': -0.3}
{'lipoC2': 0.0, 'temp': 0.0, 'lipoC3S3': 11.69, 'state': 'normal', 'rot1': 0, 'rot0': 0, 'rot3': 0, 'rot2': 0, 'depth': 0.851, 'yaw': -3.48, 'datetime': '2018-12-18 21:08:32.829509', 'mgs': 0, 'flw2': 0.0, 'flw1': 0.5, 'flw0': 0.0, 'time': 5.31, 'compass': 170.83, 'pitch': 2.28, 'roll': -0.3}
{'lipoC2': 0.0, 'temp': 0.0, 'lipoC3S3': 11.73, 'state': 'normal', 'rot1': 0, 'rot0': 0, 'rot3': 0, 'rot2': 0, 'depth': -1.514, 'yaw': -3.74, 'datetime': '2018-12-18 21:08:33.034836', 'mgs': 0, 'flw2': 0.0, 'flw1': 0.5, 'flw0': 0.0, 'time': 5.52, 'compass': 170.58, 'pitch': 2.51, 'roll': -0.29}
{'lipoC2': 0.0, 'temp': 0.0, 'lipoC3S3': 11.83, 'state': 'normal', 'rot1': 0, 'rot0': 0, 'rot3': 0, 'rot2': 0, 'depth': -1.132, 'yaw': -4.0, 'datetime': '2018-12-18 21:08:33.245432', 'mgs': 0, 'flw2': 0.0, 'flw1': 0.29, 'flw0': 0.0, 'time': 5.73, 'compass': 170.32, 'pitch': 2.51, 'roll': -0.11}
{'lipoC2': 0.0, 'temp': 0.0, 'lipoC3S3': 12.05, 'state': 'normal', 'rot1': 0, 'rot0': 0, 'rot3': 0, 'rot2': 0, 'depth': 1.08, 'yaw': -4.29, 'datetime': '2018-12-18 21:08:33.453529', 'mgs': 0, 'flw2': 0.04, 'flw1': 0.0, 'flw0': 0.16, 'time': 5.93, 'compass': 170.03, 'pitch': 2.42, 'roll': -0.11}
{'lipoC2': 0.0, 'temp': 0.0, 'lipoC3S3': 12.02, 'state': 'normal', 'rot1': 0, 'rot0': 0, 'rot3': 0, 'rot2': 0, 'depth': 0.546, 'yaw': -4.56, 'datetime': '2018-12-18 21:08:33.662936', 'mgs': 0, 'flw2': 0.0, 'flw1': 0.0, 'flw0': 0.21, 'time': 6.14, 'compass': 169.75, 'pitch': 2.48, 'roll': -0.3}
{'lipoC2': 0.0, 'temp': 0.0, 'lipoC3S3': 12.05, 'state': 'normal', 'rot1': 0, 'rot0': 0, 'rot3': 0, 'rot2': 0, 'depth': 1.004, 'yaw': -4.83, 'datetime': '2018-12-18 21:08:33.869960', 'mgs': 0, 'flw2': 0.06, 'flw1': 0.0, 'flw0': 0.13, 'time': 6.35, 'compass': 169.48, 'pitch': 2.78, 'roll': -0.32}
{'lipoC2': 0.0, 'temp': 0.0, 'lipoC3S3': 11.81, 'state': 'normal', 'rot1': 0, 'rot0': 0, 'rot3': 0, 'rot2': 0, 'depth': -0.98, 'yaw': -5.12, 'datetime': '2018-12-18 21:08:34.079390', 'mgs': 0, 'flw2': 0.09, 'flw1': 0.0, 'flw0': 0.11, 'time': 6.56, 'compass': 169.19, 'pitch': 2.93, 'roll': -0.13}
{'lipoC2': 0.0, 'temp': 0.0, 'lipoC3S3': 11.76, 'state': 'normal', 'rot1': 0, 'rot0': 0, 'rot3': 0, 'rot2': 0, 'depth': -1.361, 'yaw': -5.42, 'datetime': '2018-12-18 21:08:34.286174', 'mgs': 0, 'flw2': 0.0, 'flw1': 0.47, 'flw0': 0.0, 'time': 6.77, 'compass': 168.9, 'pitch': 2.67, 'roll': -0.11}
{'lipoC2': 0.16, 'temp': 0.0, 'lipoC3S3': 11.8, 'state': 'normal', 'rot1': 0, 'rot0': 0, 'rot3': 0, 'rot2': 0, 'depth': 0.241, 'yaw': -5.69, 'datetime': '2018-12-18 21:08:34.495122', 'mgs': 0, 'flw2': 0.0, 'flw1': 0.41, 'flw0': 0.0, 'time': 6.97, 'compass': 168.62, 'pitch': 2.45, 'roll': -0.19}
{'lipoC2': 0.0, 'temp': 0.0, 'lipoC3S3': 11.87, 'state': 'normal', 'rot1': 0, 'rot0': 0, 'rot3': 0, 'rot2': 0, 'depth': -0.217, 'yaw': -6.0, 'datetime': '2018-12-18 21:08:34.702206', 'mgs': 0, 'flw2': 0.0, 'flw1': 0.26, 'flw0': 0.0, 'time': 7.18, 'compass': 168.31, 'pitch': 2.68, 'roll': -0.18}
{'lipoC2': 0.0, 'temp': 0.0, 'lipoC3S3': 12.05, 'state': 'normal', 'rot1': 0, 'rot0': 0, 'rot3': 0, 'rot2': 0, 'depth': 1.004, 'yaw': -6.29, 'datetime': '2018-12-18 21:08:34.911629', 'mgs': 0, 'flw2': 0.0, 'flw1': 0.0, 'flw0': 0.18, 'time': 7.39, 'compass': 168.02, 'pitch': 3.03, 'roll': -0.16}
{'lipoC2': 0.02, 'temp': 0.0, 'lipoC3S3': 11.65, 'state': 'normal', 'rot1': 0, 'rot0': 0, 'rot3': 0, 'rot2': 0, 'depth': 0.775, 'yaw': -6.6, 'datetime': '2018-12-18 21:08:35.128441', 'mgs': 0, 'flw2': 0.07, 'flw1': 0.26, 'flw0': 0.0, 'time': 7.6, 'compass': 167.72, 'pitch': 3.09, 'roll': -0.15}
{'lipoC2': 0.0, 'temp': 0.0, 'lipoC3S3': 11.79, 'state': 'normal', 'rot1': 0, 'rot0': 0, 'rot3': 0, 'rot2': 0, 'depth': -1.437, 'yaw': -6.91, 'datetime': '2018-12-18 21:08:35.330055', 'mgs': 0, 'flw2': 0.0, 'flw1': 0.44, 'flw0': 0.0, 'time': 7.8, 'compass': 167.41, 'pitch': 2.85, 'roll': -0.03}
{'lipoC2': 0.14, 'temp': 0.0, 'lipoC3S3': 11.84, 'state': 'normal', 'rot1': 0, 'rot0': 0, 'rot3': 0, 'rot2': 0, 'depth': 0.623, 'yaw': -7.22, 'datetime': '2018-12-18 21:08:35.537127', 'mgs': 0, 'flw2': 0.0, 'flw1': 0.26, 'flw0': 0.0, 'time': 8.01, 'compass': 167.1, 'pitch': 2.72, 'roll': 0.05}
{'lipoC2': 0.0, 'temp': 0.0, 'lipoC3S3': 12.06, 'state': 'normal', 'rot1': 0, 'rot0': 0, 'rot3': 0, 'rot2': 0, 'depth': 1.004, 'yaw': -7.5, 'datetime': '2018-12-18 21:08:35.746798', 'mgs': 0, 'flw2': 0.0, 'flw1': 0.41, 'flw0': 0.0, 'time': 8.22, 'compass': 166.82, 'pitch': 2.84, 'roll': 0.0}
{'lipoC2': 0.05, 'temp': 0.0, 'lipoC3S3': 11.92, 'state': 'normal', 'rot1': 0, 'rot0': 0, 'rot3': 0, 'rot2': 0, 'depth': -2.582, 'yaw': -7.81, 'datetime': '2018-12-18 21:08:35.952864', 'mgs': 0, 'flw2': 0.11, 'flw1': 0.0, 'flw0': 0.0, 'time': 8.43, 'compass': 166.5, 'pitch': 3.15, 'roll': -0.11}
{'lipoC2': 0.14, 'temp': 0.0, 'lipoC3S3': 11.85, 'state': 'normal', 'rot1': 0, 'rot0': 0, 'rot3': 0, 'rot2': 0, 'depth': -2.277, 'yaw': -8.1, 'datetime': '2018-12-18 21:08:36.161263', 'mgs': 0, 'flw2': 0.0, 'flw1': 0.35, 'flw0': 0.0, 'time': 8.64, 'compass': 166.22, 'pitch': 3.39, 'roll': -0.09}
{'lipoC2': 0.0, 'temp': 0.0, 'lipoC3S3': 11.83, 'state': 'normal', 'rot1': 0, 'rot0': 0, 'rot3': 0, 'rot2': 0, 'depth': -0.751, 'yaw': -8.38, 'datetime': '2018-12-18 21:08:36.370628', 'mgs': 0, 'flw2': 0.0, 'flw1': 0.38, 'flw0': 0.0, 'time': 8.85, 'compass': 165.93, 'pitch': 3.38, 'roll': -0.07}
{'lipoC2': 0.0, 'temp': 0.0, 'lipoC3S3': 12.04, 'state': 'normal', 'rot1': 0, 'rot0': 0, 'rot3': 0, 'rot2': 0, 'depth': 0.775, 'yaw': -8.68, 'datetime': '2018-12-18 21:08:36.577873', 'mgs': 0, 'flw2': 0.11, 'flw1': 0.0, 'flw0': 0.22, 'time': 9.05, 'compass': 165.64, 'pitch': 3.19, 'roll': -0.05}
{'lipoC2': 0.1, 'temp': 0.0, 'lipoC3S3': 11.88, 'state': 'normal', 'rot1': 0, 'rot0': 0, 'rot3': 0, 'rot2': 0, 'depth': -2.353, 'yaw': -8.95, 'datetime': '2018-12-18 21:08:36.789716', 'mgs': 0, 'flw2': 0.0, 'flw1': 0.21, 'flw0': 0.09, 'time': 9.26, 'compass': 165.37, 'pitch': 3.09, 'roll': 0.11}
{'lipoC2': 0.0, 'temp': 0.0, 'lipoC3S3': 11.79, 'state': 'normal', 'rot1': 0, 'rot0': 0, 'rot3': 0, 'rot2': 0, 'depth': -1.285, 'yaw': -9.22, 'datetime': '2018-12-18 21:08:36.996194', 'mgs': 0, 'flw2': 0.0, 'flw1': 0.53, 'flw0': 0.0, 'time': 9.47, 'compass': 165.1, 'pitch': 3.19, 'roll': 0.13}
{'lipoC2': 0.12, 'temp': 0.0, 'lipoC3S3': 11.68, 'state': 'normal', 'rot1': 0, 'rot0': 0, 'rot3': 0, 'rot2': 0, 'depth': -0.522, 'yaw': -9.51, 'datetime': '2018-12-18 21:08:37.204476', 'mgs': 0, 'flw2': 0.02, 'flw1': 0.0, 'flw0': 0.17, 'time': 9.68, 'compass': 164.81, 'pitch': 3.42, 'roll': -0.0}
{'lipoC2': 0.05, 'temp': 0.0, 'lipoC3S3': 11.65, 'state': 'normal', 'rot1': 0, 'rot0': 0, 'rot3': 0, 'rot2': 0, 'depth': -0.369, 'yaw': -9.79, 'datetime': '2018-12-18 21:08:37.411301', 'mgs': 0, 'flw2': 3.65, 'flw1': 0.35, 'flw0': 0.0, 'time': 9.88, 'compass': 164.53, 'pitch': 3.45, 'roll': -0.16}
{'lipoC2': 0.0, 'temp': 0.0, 'lipoC3S3': 11.85, 'state': 'normal', 'rot1': 0, 'rot0': 2, 'rot3': 0, 'rot2': 0, 'depth': 0.012, 'yaw': -8.12, 'datetime': '2018-12-18 21:08:37.617734', 'mgs': 0, 'flw2': 0.0, 'flw1': 0.35, 'flw0': 0.0, 'time': 10.09, 'compass': 166.2, 'pitch': 4.45, 'roll': 0.17}
{'lipoC2': 0.16, 'temp': 0.0, 'lipoC3S3': 11.79, 'state': 'normal', 'rot1': 0, 'rot0': 2, 'rot3': 0, 'rot2': 0, 'depth': 0.012, 'yaw': -4.15, 'datetime': '2018-12-18 21:08:37.825592', 'mgs': 0, 'flw2': 0.0, 'flw1': 0.41, 'flw0': 0.0, 'time': 10.3, 'compass': 170.16, 'pitch': 5.45, 'roll': 0.44}
{'lipoC2': 0.0, 'temp': 0.0, 'lipoC3S3': 12.04, 'state': 'normal', 'rot1': 0, 'rot0': 2, 'rot3': 0, 'rot2': 0, 'depth': 1.08, 'yaw': -0.69, 'datetime': '2018-12-18 21:08:38.037343', 'mgs': 0, 'flw2': 0.1, 'flw1': 0.0, 'flw0': 0.12, 'time': 10.51, 'compass': 173.63, 'pitch': 4.06, 'roll': 0.06}
{'lipoC2': 0.14, 'temp': 0.0, 'lipoC3S3': 11.84, 'state': 'normal', 'rot1': 0, 'rot0': 2, 'rot3': 0, 'rot2': 0, 'depth': 0.623, 'yaw': 2.24, 'datetime': '2018-12-18 21:08:38.244872', 'mgs': 0, 'flw2': 0.0, 'flw1': 0.35, 'flw0': 0.0, 'time': 10.72, 'compass': 176.56, 'pitch': 2.66, 'roll': -0.5}
{'lipoC2': 0.0, 'temp': 0.0, 'lipoC3S3': 12.06, 'state': 'normal', 'rot1': 0, 'rot0': 2, 'rot3': 0, 'rot2': 0, 'depth': -1.437, 'yaw': 5.06, 'datetime': '2018-12-18 21:08:38.452620', 'mgs': 0, 'flw2': 0.0, 'flw1': 0.44, 'flw0': 0.0, 'time': 10.92, 'compass': 179.38, 'pitch': 2.78, 'roll': -0.94}
{'lipoC2': 0.0, 'temp': 0.0, 'lipoC3S3': 12.06, 'state': 'normal', 'rot1': 0, 'rot0': 2, 'rot3': 0, 'rot2': 0, 'depth': 1.004, 'yaw': 7.67, 'datetime': '2018-12-18 21:08:38.664352', 'mgs': 0, 'flw2': 0.0, 'flw1': 0.0, 'flw0': 0.17, 'time': 11.13, 'compass': -178.01, 'pitch': 3.55, 'roll': -1.26}
{'lipoC2': 0.0, 'temp': 0.0, 'lipoC3S3': 11.71, 'state': 'normal', 'rot1': 0, 'rot0': 2, 'rot3': 0, 'rot2': 0, 'depth': 0.928, 'yaw': 9.99, 'datetime': '2018-12-18 21:08:38.869293', 'mgs': 0, 'flw2': 0.0, 'flw1': 0.47, 'flw0': 0.0, 'time': 11.34, 'compass': -175.69, 'pitch': 3.56, 'roll': -1.31}
{'lipoC2': 0.0, 'temp': 0.0, 'lipoC3S3': 11.88, 'state': 'normal', 'rot1': 0, 'rot0': 2, 'rot3': 0, 'rot2': 0, 'depth': -0.522, 'yaw': 12.26, 'datetime': '2018-12-18 21:08:39.078767', 'mgs': 0, 'flw2': 0.11, 'flw1': 0.0, 'flw0': 0.0, 'time': 11.55, 'compass': -173.43, 'pitch': 2.87, 'roll': -1.1}
{'lipoC2': 0.16, 'temp': 0.0, 'lipoC3S3': 11.79, 'state': 'normal', 'rot1': 0, 'rot0': 2, 'rot3': 0, 'rot2': 0, 'depth': -0.14, 'yaw': 14.37, 'datetime': '2018-12-18 21:08:39.285243', 'mgs': 0, 'flw2': 0.0, 'flw1': 0.41, 'flw0': 0.0, 'time': 11.75, 'compass': -171.31, 'pitch': 2.52, 'roll': -0.89}
{'lipoC2': 0.0, 'temp': 0.0, 'lipoC3S3': 12.06, 'state': 'normal', 'rot1': 0, 'rot0': 2, 'rot3': 0, 'rot2': 0, 'depth': 1.004, 'yaw': 16.32, 'datetime': '2018-12-18 21:08:39.492968', 'mgs': 0, 'flw2': 0.0, 'flw1': 0.47, 'flw0': 0.0, 'time': 11.96, 'compass': -169.37, 'pitch': 2.97, 'roll': -0.93}
{'lipoC2': 0.0, 'temp': 0.0, 'lipoC3S3': 11.88, 'state': 'normal', 'rot1': 0, 'rot0': 2, 'rot3': 0, 'rot2': 0, 'depth': -0.522, 'yaw': 18.04, 'datetime': '2018-12-18 21:08:39.704966', 'mgs': 0, 'flw2': 0.0, 'flw1': 0.23, 'flw0': 0.11, 'time': 12.17, 'compass': -167.65, 'pitch': 3.38, 'roll': -1.22}
{'lipoC2': 0.0, 'temp': 0.0, 'lipoC3S3': 11.85, 'state': 'normal', 'rot1': 0, 'rot0': 2, 'rot3': 0, 'rot2': 0, 'depth': -0.598, 'yaw': 19.72, 'datetime': '2018-12-18 21:08:39.911371', 'mgs': 0, 'flw2': 0.0, 'flw1': 0.29, 'flw0': 0.0, 'time': 12.38, 'compass': -165.96, 'pitch': 3.15, 'roll': -1.47}
{'lipoC2': 0.01, 'temp': 0.0, 'lipoC3S3': 11.96, 'state': 'normal', 'rot1': 0, 'rot0': 2, 'rot3': 0, 'rot2': 0, 'depth': 0.928, 'yaw': 21.35, 'datetime': '2018-12-18 21:08:40.120790', 'mgs': 0, 'flw2': 0.0, 'flw1': 0.15, 'flw0': 0.13, 'time': 12.59, 'compass': -164.34, 'pitch': 2.63, 'roll': -1.56}
{'lipoC2': 0.0, 'temp': 0.0, 'lipoC3S3': 11.93, 'state': 'normal', 'rot1': 0, 'rot0': 2, 'rot3': 0, 'rot2': 0, 'depth': -1.971, 'yaw': 22.8, 'datetime': '2018-12-18 21:08:40.325458', 'mgs': 0, 'flw2': 0.11, 'flw1': 0.0, 'flw0': 0.0, 'time': 12.8, 'compass': -162.88, 'pitch': 2.5, 'roll': -1.6}
{'lipoC2': 0.12, 'temp': 0.0, 'lipoC3S3': 11.87, 'state': 'normal', 'rot1': 0, 'rot0': 2, 'rot3': 0, 'rot2': 0, 'depth': 0.851, 'yaw': 24.25, 'datetime': '2018-12-18 21:08:40.534789', 'mgs': 0, 'flw2': 0.2, 'flw1': 0.0, 'flw0': 0.0, 'time': 13.0, 'compass': -161.43, 'pitch': 2.73, 'roll': -1.67}
{'lipoC2': 0.05, 'temp': 0.0, 'lipoC3S3': 11.92, 'state': 'normal', 'rot1': 0, 'rot0': 2, 'rot3': 0, 'rot2': 0, 'depth': -2.658, 'yaw': 25.65, 'datetime': '2018-12-18 21:08:40.744041', 'mgs': 0, 'flw2': 0.16, 'flw1': 0.03, 'flw0': 0.0, 'time': 13.21, 'compass': -160.03, 'pitch': 2.85, 'roll': -1.74}
{'lipoC2': 0.15, 'temp': 0.0, 'lipoC3S3': 11.85, 'state': 'normal', 'rot1': 0, 'rot0': 2, 'rot3': 0, 'rot2': 0, 'depth': -1.437, 'yaw': 26.91, 'datetime': '2018-12-18 21:08:40.954832', 'mgs': 0, 'flw2': 0.16, 'flw1': 0.26, 'flw0': 0.0, 'time': 13.42, 'compass': -158.77, 'pitch': 2.72, 'roll': -1.8}
{'lipoC2': 0.12, 'temp': 0.0, 'lipoC3S3': 11.98, 'state': 'normal', 'rot1': 0, 'rot0': 2, 'rot3': 0, 'rot2': 0, 'depth': -2.277, 'yaw': 28.19, 'datetime': '2018-12-18 21:08:41.163972', 'mgs': 0, 'flw2': 0.2, 'flw1': 0.0, 'flw0': 0.0, 'time': 13.63, 'compass': -157.49, 'pitch': 2.41, 'roll': -1.86}
{'lipoC2': 0.04, 'temp': 0.0, 'lipoC3S3': 11.93, 'state': 'normal', 'rot1': 0, 'rot0': 2, 'rot3': 0, 'rot2': 0, 'depth': -2.658, 'yaw': 29.42, 'datetime': '2018-12-18 21:08:41.370465', 'mgs': 0, 'flw2': 0.16, 'flw1': 0.06, 'flw0': 0.0, 'time': 13.84, 'compass': -156.26, 'pitch': 2.39, 'roll': -1.9}
{'lipoC2': 0.0, 'temp': 0.0, 'lipoC3S3': 11.87, 'state': 'normal', 'rot1': 0, 'rot0': 2, 'rot3': 0, 'rot2': 0, 'depth': -0.598, 'yaw': 30.61, 'datetime': '2018-12-18 21:08:41.579934', 'mgs': 0, 'flw2': 0.22, 'flw1': 0.0, 'flw0': 0.0, 'time': 14.04, 'compass': -155.07, 'pitch': 2.42, 'roll': -1.96}
{'lipoC2': 0.0, 'temp': 0.0, 'lipoC3S3': 12.06, 'state': 'normal', 'rot1': 0, 'rot0': 2, 'rot3': 0, 'rot2': 0, 'depth': 1.004, 'yaw': 31.71, 'datetime': '2018-12-18 21:08:41.786652', 'mgs': 0, 'flw2': 0.0, 'flw1': 0.53, 'flw0': 0.0, 'time': 14.25, 'compass': -153.97, 'pitch': 2.32, 'roll': -1.96}
{'lipoC2': 0.16, 'temp': 0.0, 'lipoC3S3': 11.83, 'state': 'normal', 'rot1': 0, 'rot0': 2, 'rot3': 0, 'rot2': 0, 'depth': -1.437, 'yaw': 32.82, 'datetime': '2018-12-18 21:08:41.994658', 'mgs': 0, 'flw2': 0.22, 'flw1': 0.0, 'flw0': 0.0, 'time': 14.46, 'compass': -152.86, 'pitch': 2.34, 'roll': -1.96}
{'lipoC2': 0.0, 'temp': 0.0, 'lipoC3S3': 11.85, 'state': 'normal', 'rot1': 0, 'rot0': 2, 'rot3': 0, 'rot2': 0, 'depth': 0.012, 'yaw': 33.87, 'datetime': '2018-12-18 21:08:42.200850', 'mgs': 0, 'flw2': 0.0, 'flw1': 0.35, 'flw0': 0.04, 'time': 14.67, 'compass': -151.81, 'pitch': 2.58, 'roll': -2.0}
{'lipoC2': 0.0, 'temp': 0.0, 'lipoC3S3': 11.79, 'state': 'normal', 'rot1': 0, 'rot0': 2, 'rot3': 0, 'rot2': 0, 'depth': 0.47, 'yaw': 34.85, 'datetime': '2018-12-18 21:08:42.411606', 'mgs': 0, 'flw2': 0.0, 'flw1': 0.41, 'flw0': 0.0, 'time': 14.87, 'compass': -150.83, 'pitch': 2.54, 'roll': -2.05}
{'lipoC2': 0.0, 'temp': 0.0, 'lipoC3S3': 11.84, 'state': 'normal', 'rot1': 0, 'rot0': 2, 'rot3': 0, 'rot2': 0, 'depth': -1.056, 'yaw': 35.8, 'datetime': '2018-12-18 21:08:42.620932', 'mgs': 0, 'flw2': 0.0, 'flw1': 0.26, 'flw0': 0.0, 'time': 15.08, 'compass': -149.88, 'pitch': 2.27, 'roll': -2.09}
{'lipoC2': 0.13, 'temp': 0.0, 'lipoC3S3': 11.87, 'state': 'normal', 'rot1': 0, 'rot0': 2, 'rot3': 0, 'rot2': 0, 'depth': 0.47, 'yaw': 36.73, 'datetime': '2018-12-18 21:08:42.830702', 'mgs': 0, 'flw2': 0.12, 'flw1': 0.0, 'flw0': 0.0, 'time': 15.29, 'compass': -148.95, 'pitch': 2.17, 'roll': -2.13}
{'lipoC2': 0.0, 'temp': 0.0, 'lipoC3S3': 11.84, 'state': 'normal', 'rot1': 0, 'rot0': 2, 'rot3': 0, 'rot2': 0, 'depth': -0.98, 'yaw': 37.64, 'datetime': '2018-12-18 21:08:43.034014', 'mgs': 0, 'flw2': 0.0, 'flw1': 0.23, 'flw0': 0.0, 'time': 15.5, 'compass': -148.04, 'pitch': 2.34, 'roll': -2.16}
{'lipoC2': 0.16, 'temp': 0.0, 'lipoC3S3': 11.85, 'state': 'normal', 'rot1': 0, 'rot0': 2, 'rot3': 0, 'rot2': 0, 'depth': -1.743, 'yaw': 38.46, 'datetime': '2018-12-18 21:08:43.244630', 'mgs': 0, 'flw2': 0.0, 'flw1': 0.23, 'flw0': 0.0, 'time': 15.71, 'compass': -147.23, 'pitch': 2.51, 'roll': -2.2}
{'lipoC2': 0.0, 'temp': 0.0, 'lipoC3S3': 11.88, 'state': 'normal', 'rot1': 0, 'rot0': 2, 'rot3': 0, 'rot2': 0, 'depth': -0.217, 'yaw': 39.29, 'datetime': '2018-12-18 21:08:43.453997', 'mgs': 0, 'flw2': 0.15, 'flw1': 0.0, 'flw0': 0.0, 'time': 15.91, 'compass': -146.39, 'pitch': 2.48, 'roll': -2.23}
{'lipoC2': 0.17, 'temp': 0.0, 'lipoC3S3': 11.76, 'state': 'normal', 'rot1': 0, 'rot0': 2, 'rot3': 0, 'rot2': 0, 'depth': -0.598, 'yaw': 40.05, 'datetime': '2018-12-18 21:08:43.656594', 'mgs': 0, 'flw2': 0.0, 'flw1': 0.5, 'flw0': 0.0, 'time': 16.12, 'compass': -145.63, 'pitch': 2.24, 'roll': -2.27}
{'lipoC2': 0.0, 'temp': 0.0, 'lipoC3S3': 12.04, 'state': 'normal', 'rot1': 0, 'rot0': 2, 'rot3': 0, 'rot2': 0, 'depth': 1.004, 'yaw': 40.81, 'datetime': '2018-12-18 21:08:43.868855', 'mgs': 0, 'flw2': 0.18, 'flw1': 0.0, 'flw0': 0.05, 'time': 16.33, 'compass': -144.88, 'pitch': 1.93, 'roll': -2.29}
{'lipoC2': 0.0, 'temp': 0.0, 'lipoC3S3': 12.05, 'state': 'normal', 'rot1': 0, 'rot0': 2, 'rot3': 0, 'rot2': 0, 'depth': 1.157, 'yaw': 41.52, 'datetime': '2018-12-18 21:08:44.075188', 'mgs': 0, 'flw2': 0.09, 'flw1': 0.0, 'flw0': 0.15, 'time': 16.54, 'compass': -144.16, 'pitch': 1.94, 'roll': -2.32}
{'lipoC2': 0.12, 'temp': 0.0, 'lipoC3S3': 11.87, 'state': 'normal', 'rot1': 0, 'rot0': 2, 'rot3': 0, 'rot2': 0, 'depth': -2.124, 'yaw': 42.2, 'datetime': '2018-12-18 21:08:44.285891', 'mgs': 0, 'flw2': 0.0, 'flw1': 0.38, 'flw0': 0.02, 'time': 16.75, 'compass': -143.48, 'pitch': 2.32, 'roll': -2.5}
{'lipoC2': 0.0, 'temp': 0.0, 'lipoC3S3': 11.73, 'state': 'normal', 'rot1': 0, 'rot0': 2, 'rot3': 0, 'rot2': 0, 'depth': 0.851, 'yaw': 42.89, 'datetime': '2018-12-18 21:08:44.492771', 'mgs': 0, 'flw2': 0.0, 'flw1': 0.44, 'flw0': 0.0, 'time': 16.96, 'compass': -142.8, 'pitch': 2.49, 'roll': -2.62}
{'lipoC2': 0.16, 'temp': 0.0, 'lipoC3S3': 11.79, 'state': 'normal', 'rot1': 0, 'rot0': 2, 'rot3': 0, 'rot2': 0, 'depth': -0.446, 'yaw': 43.49, 'datetime': '2018-12-18 21:08:44.699689', 'mgs': 0, 'flw2': 0.0, 'flw1': 0.32, 'flw0': 0.0, 'time': 17.16, 'compass': -142.2, 'pitch': 2.12, 'roll': -2.53}
{'lipoC2': 0.12, 'temp': 0.0, 'lipoC3S3': 11.87, 'state': 'normal', 'rot1': 0, 'rot0': 2, 'rot3': 0, 'rot2': 0, 'depth': 0.928, 'yaw': 44.11, 'datetime': '2018-12-18 21:08:44.908739', 'mgs': 0, 'flw2': 0.0, 'flw1': 0.26, 'flw0': 0.06, 'time': 17.37, 'compass': -141.57, 'pitch': 1.7, 'roll': -2.31}
{'lipoC2': 0.0, 'temp': 0.0, 'lipoC3S3': 11.73, 'state': 'normal', 'rot1': 0, 'rot0': 2, 'rot3': 0, 'rot2': 0, 'depth': -2.124, 'yaw': 44.66, 'datetime': '2018-12-18 21:08:45.115350', 'mgs': 0, 'flw2': 0.0, 'flw1': 0.47, 'flw0': 0.0, 'time': 17.58, 'compass': -141.02, 'pitch': 1.9, 'roll': -2.31}
{'lipoC2': 0.18, 'temp': 0.0, 'lipoC3S3': 11.79, 'state': 'normal', 'rot1': 0, 'rot0': 2, 'rot3': 0, 'rot2': 0, 'depth': 0.241, 'yaw': 45.24, 'datetime': '2018-12-18 21:08:45.325070', 'mgs': 0, 'flw2': 0.01, 'flw1': 0.59, 'flw0': 0.0, 'time': 17.79, 'compass': -140.44, 'pitch': 2.45, 'roll': -2.5}
{'lipoC2': 0.15, 'temp': 0.0, 'lipoC3S3': 11.73, 'state': 'normal', 'rot1': 0, 'rot0': 2, 'rot3': 0, 'rot2': 0, 'depth': -0.217, 'yaw': 45.79, 'datetime': '2018-12-18 21:08:45.532444', 'mgs': 0, 'flw2': 0.0, 'flw1': 0.53, 'flw0': 0.0, 'time': 17.99, 'compass': -139.89, 'pitch': 2.37, 'roll': -2.51}
{'lipoC2': 0.04, 'temp': 0.0, 'lipoC3S3': 11.64, 'state': 'normal', 'rot1': 0, 'rot0': 2, 'rot3': 0, 'rot2': 0, 'depth': 0.699, 'yaw': 46.32, 'datetime': '2018-12-18 21:08:45.742058', 'mgs': 0, 'flw2': 0.07, 'flw1': 0.32, 'flw0': 0.0, 'time': 18.2, 'compass': -139.37, 'pitch': 1.84, 'roll': -2.53}
{'lipoC2': 0.0, 'temp': 0.0, 'lipoC3S3': 11.73, 'state': 'normal', 'rot1': 0, 'rot0': 2, 'rot3': 0, 'rot2': 0, 'depth': 0.851, 'yaw': 46.78, 'datetime': '2018-12-18 21:08:45.950827', 'mgs': 0, 'flw2': 0.0, 'flw1': 0.47, 'flw0': 0.0, 'time': 18.41, 'compass': -138.91, 'pitch': 1.87, 'roll': -2.56}
{'lipoC2': 0.14, 'temp': 0.0, 'lipoC3S3': 11.85, 'state': 'normal', 'rot1': 0, 'rot0': 2, 'rot3': 0, 'rot2': 0, 'depth': 0.47, 'yaw': 47.28, 'datetime': '2018-12-18 21:08:46.159203', 'mgs': 0, 'flw2': 0.0, 'flw1': 0.32, 'flw0': 0.02, 'time': 18.62, 'compass': -138.4, 'pitch': 2.48, 'roll': -2.57}
{'lipoC2': 0.08, 'temp': 0.0, 'lipoC3S3': 11.89, 'state': 'normal', 'rot1': 0, 'rot0': 2, 'rot3': 0, 'rot2': 0, 'depth': -2.582, 'yaw': 47.76, 'datetime': '2018-12-18 21:08:46.366614', 'mgs': 0, 'flw2': 0.0, 'flw1': 0.0, 'flw0': 0.0, 'time': 18.83, 'compass': -137.92, 'pitch': 2.69, 'roll': -2.59}
{'lipoC2': 0.0, 'temp': 0.0, 'lipoC3S3': 12.01, 'state': 'normal', 'rot1': 0, 'rot0': 2, 'rot3': 0, 'rot2': 0, 'depth': 0.546, 'yaw': 48.19, 'datetime': '2018-12-18 21:08:46.574952', 'mgs': 0, 'flw2': 0.0, 'flw1': 0.0, 'flw0': 0.23, 'time': 19.04, 'compass': -137.49, 'pitch': 2.24, 'roll': -2.61}
{'lipoC2': 0.0, 'temp': 0.0, 'lipoC3S3': 11.9, 'state': 'normal', 'rot1': 0, 'rot0': 3, 'rot3': 0, 'rot2': 0, 'depth': -0.446, 'yaw': 48.62, 'datetime': '2018-12-18 21:08:46.783414', 'mgs': 0, 'flw2': 0.0, 'flw1': 0.23, 'flw0': 0.09, 'time': 19.24, 'compass': -137.06, 'pitch': 1.76, 'roll': -2.62}
{'lipoC2': 0.0, 'temp': 0.0, 'lipoC3S3': 11.88, 'state': 'normal', 'rot1': 0, 'rot0': 4, 'rot3': 0, 'rot2': 0, 'depth': -0.522, 'yaw': 49.02, 'datetime': '2018-12-18 21:08:46.992021', 'mgs': 0, 'flw2': 0.12, 'flw1': 0.0, 'flw0': 0.0, 'time': 19.45, 'compass': -136.66, 'pitch': 1.82, 'roll': -2.64}
{'lipoC2': 0.0, 'temp': 0.0, 'lipoC3S3': 11.83, 'state': 'normal', 'rot1': 0, 'rot0': 5, 'rot3': 0, 'rot2': 0, 'depth': -0.98, 'yaw': 49.43, 'datetime': '2018-12-18 21:08:47.200682', 'mgs': 0, 'flw2': 0.13, 'flw1': 0.29, 'flw0': 0.0, 'time': 19.66, 'compass': -136.25, 'pitch': 2.39, 'roll': -2.65}
{'lipoC2': 0.0, 'temp': 0.0, 'lipoC3S3': 11.76, 'state': 'normal', 'rot1': 0, 'rot0': 5, 'rot3': 0, 'rot2': 0, 'depth': -1.819, 'yaw': 49.81, 'datetime': '2018-12-18 21:08:47.410278', 'mgs': 0, 'flw2': 0.0, 'flw1': 0.44, 'flw0': 0.0, 'time': 19.87, 'compass': -135.87, 'pitch': 2.69, 'roll': -2.67}
{'lipoC2': 0.17, 'temp': 0.0, 'lipoC3S3': 11.79, 'state': 'normal', 'rot1': 0, 'rot0': 5, 'rot3': 0, 'rot2': 0, 'depth': -0.064, 'yaw': 50.17, 'datetime': '2018-12-18 21:08:47.617579', 'mgs': 0, 'flw2': 0.0, 'flw1': 0.38, 'flw0': 0.0, 'time': 20.08, 'compass': -135.52, 'pitch': 2.28, 'roll': -2.68}
{'lipoC2': 0.0, 'temp': 0.0, 'lipoC3S3': 11.75, 'state': 'normal', 'rot1': 0, 'rot0': 5, 'rot3': 0, 'rot2': 0, 'depth': 0.699, 'yaw': 50.52, 'datetime': '2018-12-18 21:08:47.826017', 'mgs': 0, 'flw2': 0.0, 'flw1': 0.47, 'flw0': 0.0, 'time': 20.28, 'compass': -135.17, 'pitch': 1.69, 'roll': -2.69}
{'lipoC2': 0.02, 'temp': 0.0, 'lipoC3S3': 11.65, 'state': 'normal', 'rot1': 0, 'rot0': 5, 'rot3': 0, 'rot2': 0, 'depth': 0.775, 'yaw': 50.84, 'datetime': '2018-12-18 21:08:48.033362', 'mgs': 0, 'flw2': 0.1, 'flw1': 0.26, 'flw0': 0.0, 'time': 20.49, 'compass': -134.84, 'pitch': 1.75, 'roll': -2.71}
{'lipoC2': 0.0, 'temp': 0.0, 'lipoC3S3': 11.85, 'state': 'normal', 'rot1': 0, 'rot0': 7, 'rot3': 0, 'rot2': 0, 'depth': -0.598, 'yaw': 51.16, 'datetime': '2018-12-18 21:08:48.242956', 'mgs': 0, 'flw2': 0.0, 'flw1': 0.32, 'flw0': 0.0, 'time': 20.7, 'compass': -134.52, 'pitch': 2.23, 'roll': -2.72}
{'lipoC2': 0.0, 'temp': 0.0, 'lipoC3S3': 12.05, 'state': 'normal', 'rot1': 0, 'rot0': 8, 'rot3': 0, 'rot2': 0, 'depth': 1.08, 'yaw': 51.5, 'datetime': '2018-12-18 21:08:48.449650', 'mgs': 0, 'flw2': 0.04, 'flw1': 0.0, 'flw0': 0.16, 'time': 20.91, 'compass': -134.19, 'pitch': 2.47, 'roll': -2.73}
{'lipoC2': 0.15, 'temp': 0.0, 'lipoC3S3': 11.83, 'state': 'normal', 'rot1': 0, 'rot0': 8, 'rot3': 0, 'rot2': 0, 'depth': 0.317, 'yaw': 51.82, 'datetime': '2018-12-18 21:08:48.658859', 'mgs': 0, 'flw2': 0.0, 'flw1': 0.38, 'flw0': 0.0, 'time': 21.12, 'compass': -133.87, 'pitch': 2.46, 'roll': -2.74}
{'lipoC2': 0.0, 'temp': 0.0, 'lipoC3S3': 11.83, 'state': 'normal', 'rot1': 0, 'rot0': 9, 'rot3': 0, 'rot2': 0, 'depth': -0.98, 'yaw': 52.09, 'datetime': '2018-12-18 21:08:48.869032', 'mgs': 0, 'flw2': 0.0, 'flw1': 0.38, 'flw0': 0.0, 'time': 21.33, 'compass': -133.59, 'pitch': 2.27, 'roll': -2.76}
{'lipoC2': 0.15, 'temp': 0.0, 'lipoC3S3': 11.84, 'state': 'normal', 'rot1': 0, 'rot0': 10, 'rot3': 0, 'rot2': 0, 'depth': -2.048, 'yaw': 52.37, 'datetime': '2018-12-18 21:08:49.076352', 'mgs': 0, 'flw2': 0.0, 'flw1': 0.44, 'flw0': 0.0, 'time': 21.53, 'compass': -133.31, 'pitch': 2.07, 'roll': -2.77}
{'lipoC2': 0.17, 'temp': 0.0, 'lipoC3S3': 11.73, 'state': 'normal', 'rot1': 0, 'rot0': 11, 'rot3': 0, 'rot2': 0, 'depth': -0.751, 'yaw': 52.65, 'datetime': '2018-12-18 21:08:49.285443', 'mgs': 0, 'flw2': 0.01, 'flw1': 0.53, 'flw0': 0.0, 'time': 21.74, 'compass': -133.03, 'pitch': 2.13, 'roll': -2.78}
{'lipoC2': 0.0, 'temp': 0.0, 'lipoC3S3': 11.98, 'state': 'normal', 'rot1': 0, 'rot0': 12, 'rot3': 0, 'rot2': 0, 'depth': 0.546, 'yaw': 52.9, 'datetime': '2018-12-18 21:08:49.493208', 'mgs': 0, 'flw2': 0.0, 'flw1': 0.21, 'flw0': 0.15, 'time': 21.95, 'compass': -132.78, 'pitch': 2.37, 'roll': -2.82}
{'lipoC2': 0.0, 'temp': 0.0, 'lipoC3S3': 11.77, 'state': 'normal', 'rot1': 0, 'rot0': 14, 'rot3': 0, 'rot2': 0, 'depth': -1.132, 'yaw': 53.16, 'datetime': '2018-12-18 21:08:49.702825', 'mgs': 0, 'flw2': 0.07, 'flw1': 0.0, 'flw0': 0.11, 'time': 22.16, 'compass': -132.52, 'pitch': 2.53, 'roll': -2.83}
{'lipoC2': 0.1, 'temp': 0.0, 'lipoC3S3': 11.87, 'state': 'normal', 'rot1': 0, 'rot0': 15, 'rot3': 0, 'rot2': 0, 'depth': 0.928, 'yaw': 53.42, 'datetime': '2018-12-18 21:08:49.911428', 'mgs': 0, 'flw2': 0.0, 'flw1': 0.38, 'flw0': 0.01, 'time': 22.37, 'compass': -132.26, 'pitch': 2.51, 'roll': -2.77}
{'lipoC2': 0.17, 'temp': 0.0, 'lipoC3S3': 11.79, 'state': 'normal', 'rot1': 0, 'rot0': 16, 'rot3': 0, 'rot2': 0, 'depth': 0.47, 'yaw': 53.66, 'datetime': '2018-12-18 21:08:50.120840', 'mgs': 0, 'flw2': 0.0, 'flw1': 0.47, 'flw0': 0.0, 'time': 22.58, 'compass': -132.02, 'pitch': 2.32, 'roll': -2.66}
{'lipoC2': 0.16, 'temp': 0.0, 'lipoC3S3': 11.8, 'state': 'normal', 'rot1': 0, 'rot0': 16, 'rot3': 0, 'rot2': 0, 'depth': 0.165, 'yaw': 53.89, 'datetime': '2018-12-18 21:08:50.329258', 'mgs': 0, 'flw2': 0.0, 'flw1': 0.41, 'flw0': 0.0, 'time': 22.78, 'compass': -131.79, 'pitch': 2.25, 'roll': -2.67}
{'lipoC2': 0.09, 'temp': 0.0, 'lipoC3S3': 11.88, 'state': 'normal', 'rot1': 0, 'rot0': 16, 'rot3': 0, 'rot2': 0, 'depth': -2.658, 'yaw': 54.1, 'datetime': '2018-12-18 21:08:50.539320', 'mgs': 0, 'flw2': 0.18, 'flw1': 0.0, 'flw0': 0.0, 'time': 22.99, 'compass': -131.59, 'pitch': 2.28, 'roll': -2.79}
{'lipoC2': 0.15, 'temp': 0.0, 'lipoC3S3': 11.8, 'state': 'normal', 'rot1': 0, 'rot0': 16, 'rot3': 0, 'rot2': 0, 'depth': 0.241, 'yaw': 54.33, 'datetime': '2018-12-18 21:08:50.747967', 'mgs': 0, 'flw2': 0.0, 'flw1': 0.41, 'flw0': 0.0, 'time': 23.2, 'compass': -131.36, 'pitch': 2.45, 'roll': -2.85}
{'lipoC2': 0.13, 'temp': 0.0, 'lipoC3S3': 11.65, 'state': 'normal', 'rot1': 0, 'rot0': 16, 'rot3': 0, 'rot2': 0, 'depth': -0.369, 'yaw': 54.52, 'datetime': '2018-12-18 21:08:50.956985', 'mgs': 0, 'flw2': 0.11, 'flw1': 0.32, 'flw0': 0.0, 'time': 23.41, 'compass': -131.16, 'pitch': 2.67, 'roll': -2.86}
{'lipoC2': 0.0, 'temp': 0.0, 'lipoC3S3': 11.72, 'state': 'normal', 'rot1': 0, 'rot0': 16, 'rot3': 0, 'rot2': 0, 'depth': 0.623, 'yaw': 54.73, 'datetime': '2018-12-18 21:08:51.166626', 'mgs': 0, 'flw2': 0.0, 'flw1': 0.0, 'flw0': 0.16, 'time': 23.62, 'compass': -130.95, 'pitch': 2.7, 'roll': -2.87}
{'lipoC2': 0.09, 'temp': 0.0, 'lipoC3S3': 11.88, 'state': 'normal', 'rot1': 0, 'rot0': 16, 'rot3': 0, 'rot2': 0, 'depth': -2.582, 'yaw': 54.93, 'datetime': '2018-12-18 21:08:51.378440', 'mgs': 0, 'flw2': 0.2, 'flw1': 0.0, 'flw0': 0.0, 'time': 23.83, 'compass': -130.75, 'pitch': 2.37, 'roll': -2.88}
{'lipoC2': 0.0, 'temp': 0.0, 'lipoC3S3': 11.8, 'state': 'normal', 'rot1': 0, 'rot0': 16, 'rot3': 0, 'rot2': 0, 'depth': -0.903, 'yaw': 55.12, 'datetime': '2018-12-18 21:08:51.585258', 'mgs': 0, 'flw2': 0.07, 'flw1': 0.0, 'flw0': 0.0, 'time': 24.04, 'compass': -130.56, 'pitch': 2.15, 'roll': -2.89}
{'lipoC2': 0.15, 'temp': 0.0, 'lipoC3S3': 11.8, 'state': 'normal', 'rot1': 0, 'rot0': 16, 'rot3': 0, 'rot2': 0, 'depth': -1.132, 'yaw': 55.31, 'datetime': '2018-12-18 21:08:51.792872', 'mgs': 0, 'flw2': 0.0, 'flw1': 0.47, 'flw0': 0.0, 'time': 24.25, 'compass': -130.37, 'pitch': 2.43, 'roll': -2.89}
{'lipoC2': 0.16, 'temp': 0.0, 'lipoC3S3': 11.76, 'state': 'normal', 'rot1': 0, 'rot0': 16, 'rot3': 0, 'rot2': 0, 'depth': -0.522, 'yaw': 55.47, 'datetime': '2018-12-18 21:08:52.001732', 'mgs': 0, 'flw2': 0.0, 'flw1': 0.44, 'flw0': 0.0, 'time': 24.45, 'compass': -130.21, 'pitch': 2.84, 'roll': -2.9}
{'lipoC2': 0.0, 'temp': 0.0, 'lipoC3S3': 11.84, 'state': 'normal', 'rot1': 0, 'rot0': 16, 'rot3': 0, 'rot2': 0, 'depth': -0.14, 'yaw': 55.63, 'datetime': '2018-12-18 21:08:52.211436', 'mgs': 0, 'flw2': 0.0, 'flw1': 0.41, 'flw0': 0.0, 'time': 24.66, 'compass': -130.05, 'pitch': 2.62, 'roll': -2.92}
{'lipoC2': 0.0, 'temp': 0.0, 'lipoC3S3': 12.05, 'state': 'normal', 'rot1': 0, 'rot0': 16, 'rot3': 0, 'rot2': 0, 'depth': 1.08, 'yaw': 55.8, 'datetime': '2018-12-18 21:08:52.420956', 'mgs': 0, 'flw2': 0.0, 'flw1': 0.0, 'flw0': 0.23, 'time': 24.87, 'compass': -129.89, 'pitch': 2.17, 'roll': -2.93}
{'lipoC2': 0.0, 'temp': 0.0, 'lipoC3S3': 11.87, 'state': 'normal', 'rot1': 0, 'rot0': 16, 'rot3': 0, 'rot2': 0, 'depth': -0.522, 'yaw': 55.95, 'datetime': '2018-12-18 21:08:52.630225', 'mgs': 0, 'flw2': 0.2, 'flw1': 0.0, 'flw0': 0.0, 'time': 25.08, 'compass': -129.73, 'pitch': 2.42, 'roll': -2.93}
{'lipoC2': 0.0, 'temp': 0.0, 'lipoC3S3': 11.84, 'state': 'normal', 'rot1': 0, 'rot0': 16, 'rot3': 0, 'rot2': 0, 'depth': -0.674, 'yaw': 56.09, 'datetime': '2018-12-18 21:08:52.837843', 'mgs': 0, 'flw2': 0.0, 'flw1': 0.41, 'flw0': 0.0, 'time': 25.29, 'compass': -129.59, 'pitch': 3.17, 'roll': -2.94}
{'lipoC2': 0.0, 'temp': 0.0, 'lipoC3S3': 11.79, 'state': 'normal', 'rot1': 0, 'rot0': 16, 'rot3': 0, 'rot2': 0, 'depth': 0.623, 'yaw': 56.25, 'datetime': '2018-12-18 21:08:53.047835', 'mgs': 0, 'flw2': 0.0, 'flw1': 0.5, 'flw0': 0.0, 'time': 25.5, 'compass': -129.44, 'pitch': 3.22, 'roll': -2.95}
{'lipoC2': 0.16, 'temp': 0.0, 'lipoC3S3': 11.79, 'state': 'normal', 'rot1': 0, 'rot0': 16, 'rot3': 0, 'rot2': 0, 'depth': 0.089, 'yaw': 56.35, 'datetime': '2018-12-18 21:08:53.255379', 'mgs': 0, 'flw2': 0.0, 'flw1': 0.44, 'flw0': 0.0, 'time': 25.71, 'compass': -129.34, 'pitch': 2.46, 'roll': -2.83}
{'lipoC2': 0.04, 'temp': 0.0, 'lipoC3S3': 11.92, 'state': 'normal', 'rot1': 0, 'rot0': 16, 'rot3': 0, 'rot2': 0, 'depth': 0.928, 'yaw': 56.44, 'datetime': '2018-12-18 21:08:53.465332', 'mgs': 0, 'flw2': 0.12, 'flw1': 0.0, 'flw0': 0.0, 'time': 25.92, 'compass': -129.24, 'pitch': 1.99, 'roll': -2.79}
{'lipoC2': 0.06, 'temp': 0.0, 'lipoC3S3': 11.89, 'state': 'normal', 'rot1': 0, 'rot0': 16, 'rot3': 0, 'rot2': 0, 'depth': -2.658, 'yaw': 56.49, 'datetime': '2018-12-18 21:08:53.673145', 'mgs': 0, 'flw2': 0.17, 'flw1': 0.0, 'flw0': 0.0, 'time': 26.12, 'compass': -129.19, 'pitch': 2.53, 'roll': -2.99}
{'lipoC2': 0.02, 'temp': 0.0, 'lipoC3S3': 11.67, 'state': 'normal', 'rot1': 0, 'rot0': 16, 'rot3': 0, 'rot2': 0, 'depth': 0.699, 'yaw': 56.59, 'datetime': '2018-12-18 21:08:53.883167', 'mgs': 0, 'flw2': 0.12, 'flw1': 0.18, 'flw0': 0.0, 'time': 26.33, 'compass': -129.09, 'pitch': 3.36, 'roll': -3.15}
{'lipoC2': 0.0, 'temp': 0.0, 'lipoC3S3': 12.06, 'state': 'normal', 'rot1': 0, 'rot0': 16, 'rot3': 0, 'rot2': 0, 'depth': 1.08, 'yaw': 56.67, 'datetime': '2018-12-18 21:08:54.091937', 'mgs': 0, 'flw2': 0.06, 'flw1': 0.38, 'flw0': 0.0, 'time': 26.54, 'compass': -129.01, 'pitch': 3.41, 'roll': -3.15}
{'lipoC2': 0.0, 'temp': 0.0, 'lipoC3S3': 12.05, 'state': 'normal', 'rot1': 0, 'rot0': 16, 'rot3': 0, 'rot2': 0, 'depth': -2.2, 'yaw': 56.7, 'datetime': '2018-12-18 21:08:54.301715', 'mgs': 0, 'flw2': 0.0, 'flw1': 0.0, 'flw0': 0.21, 'time': 26.75, 'compass': -128.98, 'pitch': 2.68, 'roll': -3.05}
{'lipoC2': 0.0, 'temp': 0.0, 'lipoC3S3': 12.04, 'state': 'normal', 'rot1': 0, 'rot0': 16, 'rot3': 0, 'rot2': 0, 'depth': -2.582, 'yaw': 56.72, 'datetime': '2018-12-18 21:08:54.509309', 'mgs': 0, 'flw2': 0.0, 'flw1': 0.0, 'flw0': 0.21, 'time': 26.96, 'compass': -128.96, 'pitch': 2.12, 'roll': -2.86}
{'lipoC2': 0.0, 'temp': 0.0, 'lipoC3S3': 12.06, 'state': 'normal', 'rot1': 0, 'rot0': 16, 'rot3': 0, 'rot2': 0, 'depth': -1.895, 'yaw': 56.79, 'datetime': '2018-12-18 21:08:54.718115', 'mgs': 0, 'flw2': 0.0, 'flw1': 0.41, 'flw0': 0.0, 'time': 27.17, 'compass': -128.89, 'pitch': 2.55, 'roll': -2.87}
{'lipoC2': 0.04, 'temp': 0.0, 'lipoC3S3': 11.88, 'state': 'normal', 'rot1': 0, 'rot0': 16, 'rot3': 0, 'rot2': 0, 'depth': -2.429, 'yaw': 56.79, 'datetime': '2018-12-18 21:08:54.925360', 'mgs': 0, 'flw2': 0.0, 'flw1': 0.26, 'flw0': 0.09, 'time': 27.37, 'compass': -128.89, 'pitch': 3.37, 'roll': -3.0}
{'lipoC2': 0.0, 'temp': 0.0, 'lipoC3S3': 11.8, 'state': 'normal', 'rot1': 0, 'rot0': 16, 'rot3': 0, 'rot2': 0, 'depth': -0.903, 'yaw': 56.79, 'datetime': '2018-12-18 21:08:55.135626', 'mgs': 0, 'flw2': 0.0, 'flw1': 0.5, 'flw0': 0.0, 'time': 27.58, 'compass': -128.89, 'pitch': 3.43, 'roll': -3.03}
{'lipoC2': 0.16, 'temp': 0.0, 'lipoC3S3': 11.79, 'state': 'normal', 'rot1': 0, 'rot0': 16, 'rot3': 0, 'rot2': 0, 'depth': 0.089, 'yaw': 56.78, 'datetime': '2018-12-18 21:08:55.343170', 'mgs': 0, 'flw2': 0.0, 'flw1': 0.0, 'flw0': 0.17, 'time': 27.79, 'compass': -128.9, 'pitch': 2.75, 'roll': -3.03}
{'lipoC2': 0.0, 'temp': 0.0, 'lipoC3S3': 12.01, 'state': 'normal', 'rot1': 0, 'rot0': 16, 'rot3': 0, 'rot2': 0, 'depth': 0.775, 'yaw': 56.79, 'datetime': '2018-12-18 21:08:55.552789', 'mgs': 0, 'flw2': 0.13, 'flw1': 0.0, 'flw0': 0.0, 'time': 28.0, 'compass': -128.9, 'pitch': 2.44, 'roll': -3.03}
{'lipoC2': 0.0, 'temp': 0.0, 'lipoC3S3': 11.88, 'state': 'normal', 'rot1': 0, 'rot0': 16, 'rot3': 0, 'rot2': 0, 'depth': -0.446, 'yaw': 56.79, 'datetime': '2018-12-18 21:08:55.763156', 'mgs': 0, 'flw2': 0.12, 'flw1': 0.0, 'flw0': 0.0, 'time': 28.21, 'compass': -128.89, 'pitch': 2.83, 'roll': -3.03}
{'lipoC2': 0.0, 'temp': 0.0, 'lipoC3S3': 11.89, 'state': 'normal', 'rot1': 0, 'rot0': 16, 'rot3': 0, 'rot2': 0, 'depth': -1.056, 'yaw': 56.8, 'datetime': '2018-12-18 21:08:55.970828', 'mgs': 0, 'flw2': 0.15, 'flw1': 0.0, 'flw0': 0.0, 'time': 28.42, 'compass': -128.89, 'pitch': 3.38, 'roll': -2.99}
{'lipoC2': 0.15, 'temp': 0.0, 'lipoC3S3': 11.76, 'state': 'normal', 'rot1': 0, 'rot0': 16, 'rot3': 0, 'rot2': 0, 'depth': -0.064, 'yaw': 56.8, 'datetime': '2018-12-18 21:08:56.179295', 'mgs': 0, 'flw2': 0.0, 'flw1': 0.5, 'flw0': 0.0, 'time': 28.63, 'compass': -128.89, 'pitch': 3.42, 'roll': -2.96}
{'lipoC2': 0.0, 'temp': 0.0, 'lipoC3S3': 11.85, 'state': 'normal', 'rot1': 0, 'rot0': 16, 'rot3': 0, 'rot2': 0, 'depth': 0.241, 'yaw': 56.8, 'datetime': '2018-12-18 21:08:56.386672', 'mgs': 0, 'flw2': 0.0, 'flw1': 0.35, 'flw0': 0.0, 'time': 28.83, 'compass': -128.88, 'pitch': 3.15, 'roll': -2.96}
{'lipoC2': 0.0, 'temp': 0.0, 'lipoC3S3': 11.84, 'state': 'normal', 'rot1': 0, 'rot0': 16, 'rot3': 0, 'rot2': 0, 'depth': 0.317, 'yaw': 56.8, 'datetime': '2018-12-18 21:08:56.596716', 'mgs': 0, 'flw2': 0.0, 'flw1': 0.47, 'flw0': 0.0, 'time': 29.04, 'compass': -128.89, 'pitch': 3.09, 'roll': -2.96}
{'lipoC2': 0.13, 'temp': 0.0, 'lipoC3S3': 11.69, 'state': 'normal', 'rot1': 0, 'rot0': 16, 'rot3': 0, 'rot2': 0, 'depth': -0.369, 'yaw': 56.8, 'datetime': '2018-12-18 21:08:56.805356', 'mgs': 0, 'flw2': 0.0, 'flw1': 0.47, 'flw0': 0.0, 'time': 29.25, 'compass': -128.89, 'pitch': 3.09, 'roll': -2.96}
{'lipoC2': 0.0, 'temp': 0.0, 'lipoC3S3': 12.04, 'state': 'normal', 'rot1': 0, 'rot0': 16, 'rot3': 0, 'rot2': 0, 'depth': 1.004, 'yaw': 56.8, 'datetime': '2018-12-18 21:08:57.014288', 'mgs': 0, 'flw2': 0.05, 'flw1': 0.0, 'flw0': 0.13, 'time': 29.46, 'compass': -128.88, 'pitch': 3.1, 'roll': -2.96}
{'lipoC2': 0.0, 'temp': 0.0, 'lipoC3S3': 12.01, 'state': 'normal', 'rot1': 0, 'rot0': 16, 'rot3': 0, 'rot2': 0, 'depth': 0.546, 'yaw': 56.8, 'datetime': '2018-12-18 21:08:57.224030', 'mgs': 0, 'flw2': 0.0, 'flw1': 0.0, 'flw0': 0.24, 'time': 29.67, 'compass': -128.89, 'pitch': 3.25, 'roll': -2.96}
{'lipoC2': 0.11, 'temp': 0.0, 'lipoC3S3': 11.87, 'state': 'normal', 'rot1': 0, 'rot0': 16, 'rot3': 0, 'rot2': 0, 'depth': -2.582, 'yaw': 56.8, 'datetime': '2018-12-18 21:08:57.432583', 'mgs': 0, 'flw2': 0.18, 'flw1': 0.0, 'flw0': 0.0, 'time': 29.88, 'compass': -128.88, 'pitch': 3.36, 'roll': -2.96}
{'lipoC2': 0.05, 'temp': 0.0, 'lipoC3S3': 11.9, 'state': 'normal', 'rot1': 0, 'rot0': 16, 'rot3': 0, 'rot2': 0, 'depth': -2.505, 'yaw': 56.8, 'datetime': '2018-12-18 21:08:57.642863', 'mgs': 0, 'flw2': 0.0, 'flw1': 0.26, 'flw0': 0.07, 'time': 30.09, 'compass': -128.88, 'pitch': 3.36, 'roll': -2.96}
{'lipoC2': 0.0, 'temp': 0.0, 'lipoC3S3': 11.71, 'state': 'normal', 'rot1': 0, 'rot0': 16, 'rot3': 0, 'rot2': 0, 'depth': -2.124, 'yaw': 56.8, 'datetime': '2018-12-18 21:08:57.851452', 'mgs': 0, 'flw2': 0.0, 'flw1': 0.0, 'flw0': 0.2, 'time': 30.3, 'compass': -128.88, 'pitch': 3.22, 'roll': -2.96}
{'lipoC2': 0.09, 'temp': 0.0, 'lipoC3S3': 11.89, 'state': 'normal', 'rot1': 0, 'rot0': 16, 'rot3': 0, 'rot2': 0, 'depth': -2.658, 'yaw': 56.8, 'datetime': '2018-12-18 21:08:58.061350', 'mgs': 0, 'flw2': 0.0, 'flw1': 0.12, 'flw0': 0.0, 'time': 30.5, 'compass': -128.88, 'pitch': 3.22, 'roll': -2.96}
{'lipoC2': 0.01, 'temp': 0.0, 'lipoC3S3': 11.68, 'state': 'normal', 'rot1': 0, 'rot0': 16, 'rot3': 0, 'rot2': 0, 'depth': 0.775, 'yaw': 56.8, 'datetime': '2018-12-18 21:08:58.269664', 'mgs': 0, 'flw2': 0.0, 'flw1': 0.0, 'flw0': 0.21, 'time': 30.71, 'compass': -128.88, 'pitch': 3.38, 'roll': -2.96}
{'lipoC2': 0.01, 'temp': 0.0, 'lipoC3S3': 11.67, 'state': 'normal', 'rot1': 0, 'rot0': 16, 'rot3': 0, 'rot2': 0, 'depth': 0.775, 'yaw': 56.8, 'datetime': '2018-12-18 21:08:58.479872', 'mgs': 0, 'flw2': 0.09, 'flw1': 0.29, 'flw0': 0.0, 'time': 30.92, 'compass': -128.88, 'pitch': 3.58, 'roll': -2.95}
{'lipoC2': 0.1, 'temp': 0.0, 'lipoC3S3': 11.65, 'state': 'normal', 'rot1': 0, 'rot0': 16, 'rot3': 0, 'rot2': 0, 'depth': -0.522, 'yaw': 56.8, 'datetime': '2018-12-18 21:08:58.687363', 'mgs': 0, 'flw2': 0.0, 'flw1': 0.44, 'flw0': 0.0, 'time': 31.13, 'compass': -128.88, 'pitch': 3.57, 'roll': -2.96}
{'lipoC2': 0.16, 'temp': 0.0, 'lipoC3S3': 11.83, 'state': 'normal', 'rot1': 0, 'rot0': 16, 'rot3': 0, 'rot2': 0, 'depth': -1.208, 'yaw': 56.8, 'datetime': '2018-12-18 21:08:58.897322', 'mgs': 0, 'flw2': 0.0, 'flw1': 0.35, 'flw0': 0.0, 'time': 31.34, 'compass': -128.88, 'pitch': 3.31, 'roll': -2.96}
{'lipoC2': 0.0, 'temp': 0.0, 'lipoC3S3': 12.0, 'state': 'normal', 'rot1': 0, 'rot0': 16, 'rot3': 0, 'rot2': 0, 'depth': 0.546, 'yaw': 56.8, 'datetime': '2018-12-18 21:08:59.109093', 'mgs': 0, 'flw2': 0.12, 'flw1': 0.18, 'flw0': 0.0, 'time': 31.55, 'compass': -128.89, 'pitch': 3.26, 'roll': -2.95}
{'lipoC2': 0.13, 'temp': 0.0, 'lipoC3S3': 11.84, 'state': 'normal', 'rot1': 0, 'rot0': 16, 'rot3': 0, 'rot2': 0, 'depth': -2.353, 'yaw': 56.8, 'datetime': '2018-12-18 21:08:59.318697', 'mgs': 0, 'flw2': 0.0, 'flw1': 0.32, 'flw0': 0.0, 'time': 31.76, 'compass': -128.88, 'pitch': 3.61, 'roll': -2.95}
{'lipoC2': 0.0, 'temp': 0.0, 'lipoC3S3': 12.08, 'state': 'normal', 'rot1': 0, 'rot0': 16, 'rot3': 0, 'rot2': 0, 'depth': 1.08, 'yaw': 56.8, 'datetime': '2018-12-18 21:08:59.527369', 'mgs': 0, 'flw2': 0.02, 'flw1': 0.38, 'flw0': 0.0, 'time': 31.97, 'compass': -128.88, 'pitch': 3.92, 'roll': -2.91}
{'lipoC2': 0.11, 'temp': 0.0, 'lipoC3S3': 11.88, 'state': 'normal', 'rot1': 0, 'rot0': 16, 'rot3': 0, 'rot2': 0, 'depth': -2.124, 'yaw': 56.8, 'datetime': '2018-12-18 21:08:59.736827', 'mgs': 0, 'flw2': 0.16, 'flw1': 0.0, 'flw0': 0.0, 'time': 32.17, 'compass': -128.88, 'pitch': 3.71, 'roll': -2.92}
{'lipoC2': 0.0, 'temp': 0.0, 'lipoC3S3': 11.89, 'state': 'normal', 'rot1': 0, 'rot0': 16, 'rot3': 0, 'rot2': 0, 'depth': -0.446, 'yaw': 56.8, 'datetime': '2018-12-18 21:08:59.944802', 'mgs': 0, 'flw2': 0.13, 'flw1': 0.0, 'flw0': 0.0, 'time': 32.38, 'compass': -128.88, 'pitch': 3.4, 'roll': -2.92}
{'lipoC2': 0.0, 'temp': 0.0, 'lipoC3S3': 12.06, 'state': 'normal', 'rot1': 0, 'rot0': 16, 'rot3': 0, 'rot2': 0, 'depth': 1.004, 'yaw': 56.81, 'datetime': '2018-12-18 21:09:00.152220', 'mgs': 0, 'flw2': 0.0, 'flw1': 0.47, 'flw0': 0.0, 'time': 32.59, 'compass': -128.88, 'pitch': 3.67, 'roll': -2.92}
{'lipoC2': 0.0, 'temp': 0.0, 'lipoC3S3': 12.06, 'state': 'normal', 'rot1': 0, 'rot0': 16, 'rot3': 0, 'rot2': 0, 'depth': 1.08, 'yaw': 56.8, 'datetime': '2018-12-18 21:09:00.362242', 'mgs': 0, 'flw2': 0.0, 'flw1': 0.0, 'flw0': 0.18, 'time': 32.8, 'compass': -128.88, 'pitch': 4.01, 'roll': -2.92}
{'lipoC2': 0.0, 'temp': 0.0, 'lipoC3S3': 11.87, 'state': 'normal', 'rot1': 0, 'rot0': 16, 'rot3': 0, 'rot2': 0, 'depth': -0.522, 'yaw': 56.8, 'datetime': '2018-12-18 21:09:00.570304', 'mgs': 0, 'flw2': 0.17, 'flw1': 0.0, 'flw0': 0.0, 'time': 33.01, 'compass': -128.88, 'pitch': 3.96, 'roll': -2.92}
{'lipoC2': 0.16, 'temp': 0.0, 'lipoC3S3': 11.73, 'state': 'normal', 'rot1': 0, 'rot0': 16, 'rot3': 0, 'rot2': 0, 'depth': -0.217, 'yaw': 56.8, 'datetime': '2018-12-18 21:09:00.780005', 'mgs': 0, 'flw2': 0.0, 'flw1': 0.47, 'flw0': 0.0, 'time': 33.22, 'compass': -128.88, 'pitch': 3.8, 'roll': -2.92}
{'lipoC2': 0.0, 'temp': 0.0, 'lipoC3S3': 11.9, 'state': 'normal', 'rot1': 0, 'rot0': 16, 'rot3': 0, 'rot2': 0, 'depth': -1.056, 'yaw': 56.8, 'datetime': '2018-12-18 21:09:00.988161', 'mgs': 0, 'flw2': 0.11, 'flw1': 0.0, 'flw0': 0.0, 'time': 33.43, 'compass': -128.88, 'pitch': 3.82, 'roll': -2.92}
{'lipoC2': 0.02, 'temp': 0.0, 'lipoC3S3': 11.65, 'state': 'normal', 'rot1': 0, 'rot0': 16, 'rot3': 0, 'rot2': 0, 'depth': 0.775, 'yaw': 56.8, 'datetime': '2018-12-18 21:09:01.197900', 'mgs': 0, 'flw2': 0.1, 'flw1': 0.23, 'flw0': 0.0, 'time': 33.63, 'compass': -128.88, 'pitch': 3.85, 'roll': -2.92}
{'lipoC2': 0.0, 'temp': 0.0, 'lipoC3S3': 11.75, 'state': 'normal', 'rot1': 0, 'rot0': 16, 'rot3': 0, 'rot2': 0, 'depth': 0.623, 'yaw': 56.81, 'datetime': '2018-12-18 21:09:01.407328', 'mgs': 0, 'flw2': 0.0, 'flw1': 0.5, 'flw0': 0.0, 'time': 33.84, 'compass': -128.87, 'pitch': 3.84, 'roll': -2.76}
{'lipoC2': 0.04, 'temp': 0.0, 'lipoC3S3': 11.65, 'state': 'normal', 'rot1': 0, 'rot0': 16, 'rot3': 0, 'rot2': 0, 'depth': 0.546, 'yaw': 56.81, 'datetime': '2018-12-18 21:09:01.617323', 'mgs': 0, 'flw2': 0.02, 'flw1': 0.35, 'flw0': 0.0, 'time': 34.05, 'compass': -128.87, 'pitch': 3.99, 'roll': -2.73}
{'lipoC2': 0.0, 'temp': 0.0, 'lipoC3S3': 12.05, 'state': 'normal', 'rot1': 0, 'rot0': 16, 'rot3': 0, 'rot2': 0, 'depth': 1.157, 'yaw': 56.8, 'datetime': '2018-12-18 21:09:01.820322', 'mgs': 0, 'flw2': 0.0, 'flw1': 0.47, 'flw0': 0.0, 'time': 34.26, 'compass': -128.88, 'pitch': 4.18, 'roll': -2.84}
{'lipoC2': 0.04, 'temp': 0.0, 'lipoC3S3': 11.65, 'state': 'normal', 'rot1': 0, 'rot0': 16, 'rot3': 0, 'rot2': 0, 'depth': 0.546, 'yaw': 56.81, 'datetime': '2018-12-18 21:09:02.029843', 'mgs': 0, 'flw2': 0.13, 'flw1': 0.12, 'flw0': 0.0, 'time': 34.47, 'compass': -128.87, 'pitch': 4.07, 'roll': -2.85}
{'lipoC2': 0.02, 'temp': 0.0, 'lipoC3S3': 11.93, 'state': 'normal', 'rot1': 0, 'rot0': 16, 'rot3': 0, 'rot2': 0, 'depth': 0.928, 'yaw': 56.8, 'datetime': '2018-12-18 21:09:02.240668', 'mgs': 0, 'flw2': 0.0, 'flw1': 0.26, 'flw0': 0.11, 'time': 34.68, 'compass': -128.88, 'pitch': 3.82, 'roll': -2.85}
{'lipoC2': 0.17, 'temp': 0.0, 'lipoC3S3': 11.79, 'state': 'normal', 'rot1': 0, 'rot0': 16, 'rot3': 0, 'rot2': 0, 'depth': -0.751, 'yaw': 56.81, 'datetime': '2018-12-18 21:09:02.451621', 'mgs': 0, 'flw2': 0.0, 'flw1': 0.44, 'flw0': 0.0, 'time': 34.89, 'compass': -128.87, 'pitch': 3.92, 'roll': -2.85}
{'lipoC2': 0.06, 'temp': 0.0, 'lipoC3S3': 11.89, 'state': 'normal', 'rot1': 0, 'rot0': 16, 'rot3': 0, 'rot2': 0, 'depth': -2.582, 'yaw': 56.81, 'datetime': '2018-12-18 21:09:02.660449', 'mgs': 0, 'flw2': 0.0, 'flw1': 0.15, 'flw0': 0.15, 'time': 35.1, 'compass': -128.88, 'pitch': 4.28, 'roll': -2.85}
{'lipoC2': 0.0, 'temp': 0.0, 'lipoC3S3': 11.8, 'state': 'normal', 'rot1': 0, 'rot0': 17, 'rot3': 0, 'rot2': 0, 'depth': 0.47, 'yaw': 56.81, 'datetime': '2018-12-18 21:09:02.869827', 'mgs': 0, 'flw2': 0.0, 'flw1': 0.5, 'flw0': 0.0, 'time': 35.31, 'compass': -128.87, 'pitch': 4.36, 'roll': -2.85}
{'lipoC2': 0.16, 'temp': 0.0, 'lipoC3S3': 11.76, 'state': 'normal', 'rot1': 0, 'rot0': 17, 'rot3': 0, 'rot2': 0, 'depth': 0.47, 'yaw': 56.8, 'datetime': '2018-12-18 21:09:03.079619', 'mgs': 0, 'flw2': 0.0, 'flw1': 0.47, 'flw0': 0.0, 'time': 35.51, 'compass': -128.88, 'pitch': 4.31, 'roll': -2.85}
{'lipoC2': 0.12, 'temp': 0.0, 'lipoC3S3': 11.87, 'state': 'normal', 'rot1': 0, 'rot0': 17, 'rot3': 0, 'rot2': 0, 'depth': -2.277, 'yaw': 56.8, 'datetime': '2018-12-18 21:09:03.288345', 'mgs': 0, 'flw2': 0.2, 'flw1': 0.0, 'flw0': 0.0, 'time': 35.72, 'compass': -128.88, 'pitch': 4.31, 'roll': -2.85}
{'lipoC2': 0.12, 'temp': 0.0, 'lipoC3S3': 11.69, 'state': 'normal', 'rot1': 0, 'rot0': 17, 'rot3': 0, 'rot2': 0, 'depth': -0.369, 'yaw': 56.8, 'datetime': '2018-12-18 21:09:03.497281', 'mgs': 0, 'flw2': 0.0, 'flw1': 0.5, 'flw0': 0.0, 'time': 35.93, 'compass': -128.88, 'pitch': 4.31, 'roll': -2.84}
{'lipoC2': 0.0, 'temp': 0.0, 'lipoC3S3': 12.05, 'state': 'normal', 'rot1': 0, 'rot0': 17, 'rot3': 0, 'rot2': 0, 'depth': 1.004, 'yaw': 56.8, 'datetime': '2018-12-18 21:09:03.705922', 'mgs': 0, 'flw2': 0.0, 'flw1': 0.0, 'flw0': 0.22, 'time': 36.14, 'compass': -128.88, 'pitch': 4.31, 'roll': -2.89}
{'lipoC2': 0.0, 'temp': 0.0, 'lipoC3S3': 11.85, 'state': 'normal', 'rot1': 0, 'rot0': 17, 'rot3': 0, 'rot2': 0, 'depth': -0.598, 'yaw': 56.79, 'datetime': '2018-12-18 21:09:03.915050', 'mgs': 0, 'flw2': 0.0, 'flw1': 0.35, 'flw0': 0.0, 'time': 36.35, 'compass': -128.9, 'pitch': 4.4, 'roll': -3.06}
{'lipoC2': 0.08, 'temp': 0.0, 'lipoC3S3': 11.89, 'state': 'normal', 'rot1': 0, 'rot0': 17, 'rot3': 0, 'rot2': 0, 'depth': -2.582, 'yaw': 56.77, 'datetime': '2018-12-18 21:09:04.126853', 'mgs': 0, 'flw2': 0.11, 'flw1': 0.0, 'flw0': 0.0, 'time': 36.56, 'compass': -128.91, 'pitch': 4.55, 'roll': -3.06}
{'lipoC2': 0.14, 'temp': 0.0, 'lipoC3S3': 11.85, 'state': 'normal', 'rot1': 0, 'rot0': 17, 'rot3': 0, 'rot2': 0, 'depth': 0.623, 'yaw': 56.73, 'datetime': '2018-12-18 21:09:04.340673', 'mgs': 0, 'flw2': 0.0, 'flw1': 0.29, 'flw0': 0.0, 'time': 36.77, 'compass': -128.96, 'pitch': 4.56, 'roll': -2.98}
{'lipoC2': 0.04, 'temp': 0.0, 'lipoC3S3': 11.64, 'state': 'normal', 'rot1': 0, 'rot0': 17, 'rot3': 0, 'rot2': 0, 'depth': 0.699, 'yaw': 56.72, 'datetime': '2018-12-18 21:09:04.552211', 'mgs': 0, 'flw2': 0.0, 'flw1': 0.44, 'flw0': 0.0, 'time': 36.97, 'compass': -128.97, 'pitch': 4.54, 'roll': -2.97}
{'lipoC2': 0.0, 'temp': 0.0, 'lipoC3S3': 12.05, 'state': 'normal', 'rot1': 0, 'rot0': 17, 'rot3': 0, 'rot2': 0, 'depth': 0.775, 'yaw': 56.63, 'datetime': '2018-12-18 21:09:04.756162', 'mgs': 0, 'flw2': 0.05, 'flw1': 0.35, 'flw0': 0.0, 'time': 37.18, 'compass': -129.05, 'pitch': 4.54, 'roll': -2.96}
{'lipoC2': 0.0, 'temp': 0.0, 'lipoC3S3': 12.06, 'state': 'normal', 'rot1': 0, 'rot0': 17, 'rot3': 0, 'rot2': 0, 'depth': 1.004, 'yaw': 56.57, 'datetime': '2018-12-18 21:09:04.967112', 'mgs': 0, 'flw2': 0.01, 'flw1': 0.0, 'flw0': 0.18, 'time': 37.39, 'compass': -129.11, 'pitch': 4.72, 'roll': -2.96}
{'lipoC2': 0.0, 'temp': 0.0, 'lipoC3S3': 11.81, 'state': 'normal', 'rot1': 0, 'rot0': 17, 'rot3': 0, 'rot2': 0, 'depth': -1.056, 'yaw': 56.49, 'datetime': '2018-12-18 21:09:05.180932', 'mgs': 0, 'flw2': 0.0, 'flw1': 0.41, 'flw0': 0.0, 'time': 37.6, 'compass': -129.19, 'pitch': 4.86, 'roll': -2.95}
{'lipoC2': 0.0, 'temp': 0.0, 'lipoC3S3': 11.75, 'state': 'normal', 'rot1': 0, 'rot0': 17, 'rot3': 0, 'rot2': 0, 'depth': -1.819, 'yaw': 56.35, 'datetime': '2018-12-18 21:09:05.491165', 'mgs': 0, 'flw2': 0.0, 'flw1': 0.44, 'flw0': 0.0, 'time': 37.92, 'compass': -129.33, 'pitch': 4.86, 'roll': -3.02}
{'lipoC2': 0.0, 'temp': 0.0, 'lipoC3S3': 11.85, 'state': 'normal', 'rot1': 0, 'rot0': 17, 'rot3': 0, 'rot2': 0, 'depth': 0.394, 'yaw': 56.24, 'datetime': '2018-12-18 21:09:05.695757', 'mgs': 0, 'flw2': 0.0, 'flw1': 0.26, 'flw0': 0.0, 'time': 38.12, 'compass': -129.44, 'pitch': 4.87, 'roll': -3.01}
{'lipoC2': 0.14, 'temp': 0.0, 'lipoC3S3': 11.76, 'state': 'normal', 'rot1': 0, 'rot0': 17, 'rot3': 0, 'rot2': 0, 'depth': -0.293, 'yaw': 56.11, 'datetime': '2018-12-18 21:09:05.905881', 'mgs': 0, 'flw2': 0.0, 'flw1': 0.44, 'flw0': 0.0, 'time': 38.33, 'compass': -129.57, 'pitch': 4.87, 'roll': -2.96}
{'lipoC2': 0.0, 'temp': 0.0, 'lipoC3S3': 11.8, 'state': 'normal', 'rot1': 0, 'rot0': 17, 'rot3': 0, 'rot2': 0, 'depth': 0.623, 'yaw': 56.0, 'datetime': '2018-12-18 21:09:06.117391', 'mgs': 0, 'flw2': 0.0, 'flw1': 0.35, 'flw0': 0.0, 'time': 38.54, 'compass': -129.68, 'pitch': 4.68, 'roll': -2.95}
{'lipoC2': 0.0, 'temp': 0.0, 'lipoC3S3': 12.04, 'state': 'normal', 'rot1': 0, 'rot0': 17, 'rot3': 0, 'rot2': 0, 'depth': 0.775, 'yaw': 55.87, 'datetime': '2018-12-18 21:09:06.323556', 'mgs': 0, 'flw2': 0.0, 'flw1': 0.0, 'flw0': 0.22, 'time': 38.75, 'compass': -129.81, 'pitch': 4.76, 'roll': -2.94}
{'lipoC2': 0.0, 'temp': 0.0, 'lipoC3S3': 11.87, 'state': 'normal', 'rot1': 0, 'rot0': 17, 'rot3': 0, 'rot2': 0, 'depth': -0.598, 'yaw': 55.75, 'datetime': '2018-12-18 21:09:06.534170', 'mgs': 0, 'flw2': 0.0, 'flw1': 0.32, 'flw0': 0.04, 'time': 38.96, 'compass': -129.93, 'pitch': 5.24, 'roll': -2.93}
{'lipoC2': 0.0, 'temp': 0.0, 'lipoC3S3': 11.85, 'state': 'normal', 'rot1': 0, 'rot0': 19, 'rot3': 0, 'rot2': 0, 'depth': -0.369, 'yaw': 55.6, 'datetime': '2018-12-18 21:09:06.737591', 'mgs': 0, 'flw2': 0.0, 'flw1': 0.47, 'flw0': 0.0, 'time': 39.17, 'compass': -130.08, 'pitch': 5.55, 'roll': -2.92}
{'lipoC2': 0.08, 'temp': 0.0, 'lipoC3S3': 11.89, 'state': 'normal', 'rot1': 0, 'rot0': 20, 'rot3': 0, 'rot2': 0, 'depth': -2.658, 'yaw': 55.43, 'datetime': '2018-12-18 21:09:06.947000', 'mgs': 0, 'flw2': 0.17, 'flw1': 0.0, 'flw0': 0.0, 'time': 39.38, 'compass': -130.25, 'pitch': 5.2, 'roll': -2.9}
{'lipoC2': 0.0, 'temp': 0.0, 'lipoC3S3': 12.05, 'state': 'normal', 'rot1': 0, 'rot0': 20, 'rot3': 0, 'rot2': 0, 'depth': 1.157, 'yaw': 55.26, 'datetime': '2018-12-18 21:09:07.154370', 'mgs': 0, 'flw2': 0.0, 'flw1': 0.0, 'flw0': 0.22, 'time': 39.58, 'compass': -130.42, 'pitch': 4.76, 'roll': -2.89}
{'lipoC2': 0.13, 'temp': 0.0, 'lipoC3S3': 11.85, 'state': 'normal', 'rot1': 0, 'rot0': 21, 'rot3': 0, 'rot2': 0, 'depth': -2.505, 'yaw': 55.09, 'datetime': '2018-12-18 21:09:07.364520', 'mgs': 0, 'flw2': 0.07, 'flw1': 0.0, 'flw0': 0.12, 'time': 39.79, 'compass': -130.59, 'pitch': 5.03, 'roll': -2.88}
{'lipoC2': 0.15, 'temp': 0.0, 'lipoC3S3': 11.84, 'state': 'normal', 'rot1': 0, 'rot0': 21, 'rot3': 0, 'rot2': 0, 'depth': 0.851, 'yaw': 54.92, 'datetime': '2018-12-18 21:09:07.574464', 'mgs': 0, 'flw2': 0.0, 'flw1': 0.47, 'flw0': 0.0, 'time': 40.0, 'compass': -130.76, 'pitch': 5.57, 'roll': -2.86}
{'lipoC2': 0.0, 'temp': 0.0, 'lipoC3S3': 11.75, 'state': 'normal', 'rot1': 0, 'rot0': 22, 'rot3': 0, 'rot2': 0, 'depth': 0.623, 'yaw': 54.78, 'datetime': '2018-12-18 21:09:07.782390', 'mgs': 0, 'flw2': 0.0, 'flw1': 0.53, 'flw0': 0.0, 'time': 40.21, 'compass': -130.9, 'pitch': 5.62, 'roll': -2.75}
{'lipoC2': 0.0, 'temp': 0.0, 'lipoC3S3': 12.02, 'state': 'normal', 'rot1': 0, 'rot0': 22, 'rot3': 0, 'rot2': 0, 'depth': -2.658, 'yaw': 54.63, 'datetime': '2018-12-18 21:09:07.993751', 'mgs': 0, 'flw2': 0.0, 'flw1': 0.18, 'flw0': 0.2, 'time': 40.42, 'compass': -131.05, 'pitch': 5.36, 'roll': -2.73}
{'lipoC2': 0.13, 'temp': 0.0, 'lipoC3S3': 11.85, 'state': 'normal', 'rot1': 0, 'rot0': 22, 'rot3': 0, 'rot2': 0, 'depth': 0.928, 'yaw': 54.46, 'datetime': '2018-12-18 21:09:08.200525', 'mgs': 0, 'flw2': 0.0, 'flw1': 0.35, 'flw0': 0.0, 'time': 40.63, 'compass': -131.23, 'pitch': 5.25, 'roll': -2.72}
{'lipoC2': 0.0, 'temp': 0.0, 'lipoC3S3': 11.73, 'state': 'normal', 'rot1': 0, 'rot0': 22, 'rot3': 0, 'rot2': 0, 'depth': -1.666, 'yaw': 54.33, 'datetime': '2018-12-18 21:09:08.410165', 'mgs': 0, 'flw2': 0.0, 'flw1': 0.47, 'flw0': 0.0, 'time': 40.84, 'compass': -131.35, 'pitch': 5.3, 'roll': -2.7}
{'lipoC2': 0.02, 'temp': 0.0, 'lipoC3S3': 11.65, 'state': 'normal', 'rot1': 0, 'rot0': 23, 'rot3': 0, 'rot2': 0, 'depth': 0.775, 'yaw': 54.2, 'datetime': '2018-12-18 21:09:08.619056', 'mgs': 0, 'flw2': 0.17, 'flw1': 0.03, 'flw0': 0.0, 'time': 41.05, 'compass': -131.48, 'pitch': 5.43, 'roll': -2.76}
{'lipoC2': 0.0, 'temp': 0.0, 'lipoC3S3': 12.02, 'state': 'normal', 'rot1': 0, 'rot0': 23, 'rot3': 0, 'rot2': 0, 'depth': 0.546, 'yaw': 54.1, 'datetime': '2018-12-18 21:09:08.827719', 'mgs': 0, 'flw2': 0.0, 'flw1': 0.0, 'flw0': 0.23, 'time': 41.25, 'compass': -131.58, 'pitch': 5.44, 'roll': -2.75}
{'lipoC2': 0.0, 'temp': 0.0, 'lipoC3S3': 12.05, 'state': 'normal', 'rot1': 0, 'rot0': 24, 'rot3': 0, 'rot2': 0, 'depth': 1.08, 'yaw': 53.96, 'datetime': '2018-12-18 21:09:09.037276', 'mgs': 0, 'flw2': 0.0, 'flw1': 0.0, 'flw0': 0.2, 'time': 41.46, 'compass': -131.72, 'pitch': 5.48, 'roll': -2.74}
{'lipoC2': 0.0, 'temp': 0.0, 'lipoC3S3': 12.01, 'state': 'normal', 'rot1': 0, 'rot0': 27, 'rot3': 0, 'rot2': 0, 'depth': 0.699, 'yaw': 53.9, 'datetime': '2018-12-18 21:09:09.246296', 'mgs': 0, 'flw2': 0.17, 'flw1': 0.03, 'flw0': 0.0, 'time': 41.67, 'compass': -131.78, 'pitch': 5.57, 'roll': -2.74}
{'lipoC2': 0.0, 'temp': 0.0, 'lipoC3S3': 12.05, 'state': 'normal', 'rot1': 0, 'rot0': 28, 'rot3': 0, 'rot2': 0, 'depth': 1.004, 'yaw': 53.85, 'datetime': '2018-12-18 21:09:09.454361', 'mgs': 0, 'flw2': 0.0, 'flw1': 0.0, 'flw0': 0.16, 'time': 41.88, 'compass': -131.83, 'pitch': 5.57, 'roll': -2.73}
{'lipoC2': 0.0, 'temp': 0.0, 'lipoC3S3': 11.88, 'state': 'normal', 'rot1': 0, 'rot0': 28, 'rot3': 0, 'rot2': 0, 'depth': -0.446, 'yaw': 53.74, 'datetime': '2018-12-18 21:09:09.663097', 'mgs': 0, 'flw2': 0.15, 'flw1': 0.0, 'flw0': 0.0, 'time': 42.09, 'compass': -131.94, 'pitch': 5.58, 'roll': -2.72}
{'lipoC2': 0.12, 'temp': 0.0, 'lipoC3S3': 11.87, 'state': 'normal', 'rot1': 0, 'rot0': 29, 'rot3': 0, 'rot2': 0, 'depth': -2.277, 'yaw': 53.59, 'datetime': '2018-12-18 21:09:09.871636', 'mgs': 0, 'flw2': 0.0, 'flw1': 0.26, 'flw0': 0.0, 'time': 42.3, 'compass': -132.09, 'pitch': 5.65, 'roll': -2.71}
{'lipoC2': 0.16, 'temp': 0.0, 'lipoC3S3': 11.81, 'state': 'normal', 'rot1': 0, 'rot0': 29, 'rot3': 0, 'rot2': 0, 'depth': 0.089, 'yaw': 53.46, 'datetime': '2018-12-18 21:09:10.082038', 'mgs': 0, 'flw2': 0.0, 'flw1': 0.44, 'flw0': 0.0, 'time': 42.51, 'compass': -132.22, 'pitch': 5.67, 'roll': -2.69}
{'lipoC2': 0.15, 'temp': 0.0, 'lipoC3S3': 11.84, 'state': 'normal', 'rot1': 0, 'rot0': 30, 'rot3': 0, 'rot2': 0, 'depth': -1.895, 'yaw': 53.34, 'datetime': '2018-12-18 21:09:10.291978', 'mgs': 0, 'flw2': 0.2, 'flw1': 0.0, 'flw0': 0.0, 'time': 42.72, 'compass': -132.34, 'pitch': 5.6, 'roll': -2.68}
{'lipoC2': 0.0, 'temp': 0.0, 'lipoC3S3': 11.73, 'state': 'normal', 'rot1': 0, 'rot0': 30, 'rot3': 0, 'rot2': 0, 'depth': -1.743, 'yaw': 53.23, 'datetime': '2018-12-18 21:09:10.500708', 'mgs': 0, 'flw2': 0.01, 'flw1': 0.0, 'flw0': 0.18, 'time': 42.92, 'compass': -132.45, 'pitch': 5.51, 'roll': -2.67}
{'lipoC2': 0.0, 'temp': 0.0, 'lipoC3S3': 11.85, 'state': 'normal', 'rot1': 0, 'rot0': 30, 'rot3': 0, 'rot2': 0, 'depth': 0.241, 'yaw': 53.13, 'datetime': '2018-12-18 21:09:10.709537', 'mgs': 0, 'flw2': 0.0, 'flw1': 0.29, 'flw0': 0.0, 'time': 43.13, 'compass': -132.55, 'pitch': 5.58, 'roll': -2.66}
{'lipoC2': 0.0, 'temp': 0.0, 'lipoC3S3': 12.05, 'state': 'normal', 'rot1': 0, 'rot0': 30, 'rot3': 0, 'rot2': 0, 'depth': 1.004, 'yaw': 53.05, 'datetime': '2018-12-18 21:09:10.920695', 'mgs': 0, 'flw2': 0.0, 'flw1': 0.0, 'flw0': 0.23, 'time': 43.34, 'compass': -132.63, 'pitch': 5.82, 'roll': -2.65}
{'lipoC2': 0.11, 'temp': 0.0, 'lipoC3S3': 11.87, 'state': 'normal', 'rot1': 0, 'rot0': 30, 'rot3': 0, 'rot2': 0, 'depth': 0.928, 'yaw': 53.0, 'datetime': '2018-12-18 21:09:11.127389', 'mgs': 0, 'flw2': 0.23, 'flw1': 0.0, 'flw0': 0.0, 'time': 43.55, 'compass': -132.68, 'pitch': 6.05, 'roll': -2.64}
{'lipoC2': 0.0, 'temp': 0.0, 'lipoC3S3': 11.88, 'state': 'normal', 'rot1': 0, 'rot0': 31, 'rot3': 0, 'rot2': 0, 'depth': -0.522, 'yaw': 52.9, 'datetime': '2018-12-18 21:09:11.341302', 'mgs': 0, 'flw2': 0.13, 'flw1': 0.0, 'flw0': 0.0, 'time': 43.76, 'compass': -132.78, 'pitch': 5.97, 'roll': -2.64}
{'lipoC2': 0.0, 'temp': 0.0, 'lipoC3S3': 11.81, 'state': 'normal', 'rot1': 0, 'rot0': 31, 'rot3': 0, 'rot2': 0, 'depth': 0.241, 'yaw': 52.78, 'datetime': '2018-12-18 21:09:11.548615', 'mgs': 0, 'flw2': 0.0, 'flw1': 0.41, 'flw0': 0.0, 'time': 43.97, 'compass': -132.9, 'pitch': 5.65, 'roll': -2.62}
