{'lipoC2': 7.49, 'temp': 0.0, 'lipoC3S3': 11.1, 'state': 'normal', 'rot1': 0, 'rot0': 0, 'rot3': 0, 'rot2': 0, 'depth': -0.903, 'yaw': -0.01, 'datetime': '2018-12-12 14:40:32.710311', 'mgs': 0, 'flw2': 0.0, 'flw1': 0.0, 'flw0': 0.0, 'time': 1.26, 'compass': -128.12, 'pitch': -2.38, 'roll': 0.72}
{'lipoC2': 7.13, 'temp': 0.0, 'lipoC3S3': 11.59, 'state': 'normal', 'rot1': 0, 'rot0': 0, 'rot3': 0, 'rot2': 0, 'depth': -1.59, 'yaw': -1.23, 'datetime': '2018-12-12 14:40:32.919270', 'mgs': 0, 'flw2': 0.0, 'flw1': 0.62, 'flw0': 0.0, 'time': 1.47, 'compass': -129.33, 'pitch': -1.93, 'roll': 0.74}
{'lipoC2': 7.1, 'temp': 0.0, 'lipoC3S3': 11.14, 'state': 'normal', 'rot1': 0, 'rot0': 0, 'rot3': 0, 'rot2': 0, 'depth': 1.614, 'yaw': -2.2, 'datetime': '2018-12-12 14:40:33.126880', 'mgs': 0, 'flw2': 0.0, 'flw1': 0.03, 'flw0': 0.0, 'time': 1.67, 'compass': -130.31, 'pitch': -1.67, 'roll': 0.66}
{'lipoC2': 7.37, 'temp': 0.0, 'lipoC3S3': 11.27, 'state': 'normal', 'rot1': 0, 'rot0': 0, 'rot3': 0, 'rot2': 0, 'depth': -0.369, 'yaw': -3.29, 'datetime': '2018-12-12 14:40:33.334003', 'mgs': 0, 'flw2': 0.2, 'flw1': 0.0, 'flw0': 0.0, 'time': 1.88, 'compass': -131.4, 'pitch': -2.13, 'roll': 0.55}
{'lipoC2': 7.28, 'temp': 0.0, 'lipoC3S3': 11.19, 'state': 'normal', 'rot1': 0, 'rot0': 0, 'rot3': 0, 'rot2': 0, 'depth': -0.522, 'yaw': -4.14, 'datetime': '2018-12-12 14:40:33.540533', 'mgs': 0, 'flw2': 4.44, 'flw1': 0.0, 'flw0': 5.16, 'time': 2.09, 'compass': -132.25, 'pitch': -2.78, 'roll': 0.4}
{'lipoC2': 7.29, 'temp': 0.0, 'lipoC3S3': 10.9, 'state': 'normal', 'rot1': 4, 'rot0': 3, 'rot3': 0, 'rot2': 0, 'depth': 2.301, 'yaw': -1.59, 'datetime': '2018-12-12 14:40:33.747269', 'mgs': 0, 'flw2': 4.96, 'flw1': 0.0, 'flw0': 4.97, 'time': 2.29, 'compass': -129.7, 'pitch': -2.61, 'roll': 1.26}
{'lipoC2': 7.14, 'temp': 0.0, 'lipoC3S3': 11.39, 'state': 'normal', 'rot1': 8, 'rot0': 6, 'rot3': 0, 'rot2': 0, 'depth': -0.751, 'yaw': 7.71, 'datetime': '2018-12-12 14:40:33.955208', 'mgs': 0, 'flw2': 4.3, 'flw1': 0.0, 'flw0': 4.7, 'time': 2.5, 'compass': -120.4, 'pitch': -0.83, 'roll': 3.35}
{'lipoC2': 7.1, 'temp': 0.0, 'lipoC3S3': 11.13, 'state': 'normal', 'rot1': 11, 'rot0': 9, 'rot3': 0, 'rot2': 0, 'depth': 1.767, 'yaw': 20.13, 'datetime': '2018-12-12 14:40:34.164652', 'mgs': 0, 'flw2': 3.71, 'flw1': 0.09, 'flw0': 4.5, 'time': 2.71, 'compass': -107.97, 'pitch': 0.51, 'roll': 4.51}
{'lipoC2': 7.22, 'temp': 0.0, 'lipoC3S3': 11.23, 'state': 'normal', 'rot1': 14, 'rot0': 12, 'rot3': 0, 'rot2': 0, 'depth': -1.285, 'yaw': 34.27, 'datetime': '2018-12-12 14:40:34.377823', 'mgs': 0, 'flw2': 2.67, 'flw1': 0.12, 'flw0': 2.73, 'time': 2.92, 'compass': -93.84, 'pitch': 0.34, 'roll': 4.43}
{'lipoC2': 7.18, 'temp': 0.0, 'lipoC3S3': 11.09, 'state': 'normal', 'rot1': 17, 'rot0': 14, 'rot3': 0, 'rot2': 0, 'depth': -0.446, 'yaw': 48.34, 'datetime': '2018-12-12 14:40:34.586065', 'mgs': 0, 'flw2': 1.94, 'flw1': 0.56, 'flw0': 2.33, 'time': 3.13, 'compass': -79.77, 'pitch': -0.62, 'roll': 3.51}
{'lipoC2': 7.32, 'temp': 0.0, 'lipoC3S3': 11.25, 'state': 'normal', 'rot1': 19, 'rot0': 16, 'rot3': 0, 'rot2': 0, 'depth': -0.751, 'yaw': 62.0, 'datetime': '2018-12-12 14:40:34.795478', 'mgs': 0, 'flw2': 1.82, 'flw1': 0.0, 'flw0': 2.0, 'time': 3.34, 'compass': -66.1, 'pitch': -1.18, 'roll': 2.86}
{'lipoC2': 7.18, 'temp': 0.0, 'lipoC3S3': 11.18, 'state': 'normal', 'rot1': 21, 'rot0': 18, 'rot3': 0, 'rot2': 0, 'depth': 0.546, 'yaw': 75.07, 'datetime': '2018-12-12 14:40:35.004542', 'mgs': 0, 'flw2': 0.82, 'flw1': 0.0, 'flw0': 0.96, 'time': 3.55, 'compass': -53.03, 'pitch': -0.75, 'roll': 2.77}
{'lipoC2': 7.33, 'temp': 0.0, 'lipoC3S3': 11.22, 'state': 'normal', 'rot1': 23, 'rot0': 20, 'rot3': 0, 'rot2': 0, 'depth': -0.369, 'yaw': 87.62, 'datetime': '2018-12-12 14:40:35.214509', 'mgs': 0, 'flw2': 0.81, 'flw1': 0.0, 'flw0': 0.67, 'time': 3.76, 'compass': -40.48, 'pitch': -0.61, 'roll': 2.68}
{'lipoC2': 7.11, 'temp': 0.0, 'lipoC3S3': 11.19, 'state': 'normal', 'rot1': 24, 'rot0': 21, 'rot3': 0, 'rot2': 0, 'depth': -0.369, 'yaw': 98.24, 'datetime': '2018-12-12 14:40:35.424772', 'mgs': 0, 'flw2': 0.1, 'flw1': 0.21, 'flw0': 0.18, 'time': 3.97, 'compass': -29.87, 'pitch': -1.54, 'roll': 2.57}
{'lipoC2': 7.24, 'temp': 0.0, 'lipoC3S3': 10.96, 'state': 'normal', 'rot1': 25, 'rot0': 22, 'rot3': 0, 'rot2': 0, 'depth': 1.614, 'yaw': 108.36, 'datetime': '2018-12-12 14:40:35.633786', 'mgs': 0, 'flw2': 0.28, 'flw1': 0.0, 'flw0': 0.46, 'time': 4.18, 'compass': -19.74, 'pitch': -2.69, 'roll': 2.26}
{'lipoC2': 7.18, 'temp': 0.0, 'lipoC3S3': 11.35, 'state': 'normal', 'rot1': 26, 'rot0': 23, 'rot3': 0, 'rot2': 0, 'depth': -1.132, 'yaw': 117.63, 'datetime': '2018-12-12 14:40:35.843194', 'mgs': 0, 'flw2': 0.12, 'flw1': 0.12, 'flw0': 0.21, 'time': 4.38, 'compass': -10.48, 'pitch': -2.56, 'roll': 1.78}
{'lipoC2': 7.21, 'temp': 0.0, 'lipoC3S3': 11.18, 'state': 'normal', 'rot1': 26, 'rot0': 24, 'rot3': 0, 'rot2': 0, 'depth': 0.317, 'yaw': 126.87, 'datetime': '2018-12-12 14:40:36.051208', 'mgs': 0, 'flw2': 0.18, 'flw1': 0.0, 'flw0': 0.0, 'time': 4.59, 'compass': -1.24, 'pitch': -1.49, 'roll': 1.23}
{'lipoC2': 7.21, 'temp': 0.0, 'lipoC3S3': 10.9, 'state': 'normal', 'rot1': 26, 'rot0': 24, 'rot3': 0, 'rot2': 0, 'depth': -1.59, 'yaw': 134.24, 'datetime': '2018-12-12 14:40:36.260461', 'mgs': 0, 'flw2': 0.0, 'flw1': 0.0, 'flw0': 0.15, 'time': 4.8, 'compass': 6.13, 'pitch': -0.96, 'roll': 0.59}
{'lipoC2': 7.17, 'temp': 0.0, 'lipoC3S3': 11.4, 'state': 'normal', 'rot1': 27, 'rot0': 24, 'rot3': 0, 'rot2': 0, 'depth': -0.522, 'yaw': 141.08, 'datetime': '2018-12-12 14:40:36.468346', 'mgs': 0, 'flw2': 0.59, 'flw1': 0.0, 'flw0': 0.66, 'time': 5.01, 'compass': 12.98, 'pitch': -1.57, 'roll': 0.28}
{'lipoC2': 7.25, 'temp': 0.0, 'lipoC3S3': 10.9, 'state': 'normal', 'rot1': 28, 'rot0': 25, 'rot3': 0, 'rot2': 0, 'depth': 1.538, 'yaw': 146.7, 'datetime': '2018-12-12 14:40:36.677553', 'mgs': 0, 'flw2': 0.43, 'flw1': 0.0, 'flw0': 0.04, 'time': 5.22, 'compass': 18.59, 'pitch': -2.27, 'roll': 0.39}
{'lipoC2': 7.38, 'temp': 0.0, 'lipoC3S3': 11.4, 'state': 'normal', 'rot1': 29, 'rot0': 26, 'rot3': 0, 'rot2': 0, 'depth': -1.132, 'yaw': 151.15, 'datetime': '2018-12-12 14:40:36.886327', 'mgs': 0, 'flw2': 0.33, 'flw1': 0.0, 'flw0': 0.17, 'time': 5.43, 'compass': 23.04, 'pitch': -2.37, 'roll': 0.83}
{'lipoC2': 7.23, 'temp': 0.0, 'lipoC3S3': 11.05, 'state': 'normal', 'rot1': 30, 'rot0': 27, 'rot3': 0, 'rot2': 0, 'depth': 1.614, 'yaw': 155.05, 'datetime': '2018-12-12 14:40:37.096361', 'mgs': 0, 'flw2': 0.31, 'flw1': 0.62, 'flw0': 0.2, 'time': 5.64, 'compass': 26.95, 'pitch': -1.84, 'roll': 1.16}
{'lipoC2': 7.4, 'temp': 0.0, 'lipoC3S3': 11.13, 'state': 'normal', 'rot1': 31, 'rot0': 28, 'rot3': 0, 'rot2': 0, 'depth': -1.056, 'yaw': 157.78, 'datetime': '2018-12-12 14:40:37.304501', 'mgs': 0, 'flw2': 0.56, 'flw1': 0.0, 'flw0': 0.24, 'time': 5.84, 'compass': 29.67, 'pitch': -1.34, 'roll': 0.94}
{'lipoC2': 7.42, 'temp': 0.0, 'lipoC3S3': 11.06, 'state': 'normal', 'rot1': 32, 'rot0': 29, 'rot3': 0, 'rot2': 0, 'depth': -0.217, 'yaw': 160.26, 'datetime': '2018-12-12 14:40:37.515337', 'mgs': 0, 'flw2': 0.71, 'flw1': 0.0, 'flw0': 0.18, 'time': 6.05, 'compass': 32.15, 'pitch': -1.66, 'roll': 0.46}
{'lipoC2': 7.33, 'temp': 0.0, 'lipoC3S3': 11.13, 'state': 'normal', 'rot1': 33, 'rot0': 30, 'rot3': 0, 'rot2': 0, 'depth': 0.47, 'yaw': 161.82, 'datetime': '2018-12-12 14:40:37.723056', 'mgs': 0, 'flw2': 0.12, 'flw1': 0.0, 'flw0': 0.67, 'time': 6.26, 'compass': 33.71, 'pitch': -2.07, 'roll': -0.02}
{'lipoC2': 7.44, 'temp': 0.0, 'lipoC3S3': 11.44, 'state': 'normal', 'rot1': 35, 'rot0': 31, 'rot3': 0, 'rot2': 0, 'depth': 0.47, 'yaw': 162.85, 'datetime': '2018-12-12 14:40:37.932895', 'mgs': 0, 'flw2': 0.34, 'flw1': 0.0, 'flw0': 0.15, 'time': 6.47, 'compass': 34.74, 'pitch': -1.86, 'roll': -0.27}
{'lipoC2': 7.22, 'temp': 0.0, 'lipoC3S3': 11.31, 'state': 'normal', 'rot1': 36, 'rot0': 32, 'rot3': 0, 'rot2': 0, 'depth': -0.751, 'yaw': 163.06, 'datetime': '2018-12-12 14:40:38.142934', 'mgs': 0, 'flw2': 0.33, 'flw1': 0.0, 'flw0': 0.63, 'time': 6.68, 'compass': 34.96, 'pitch': -1.42, 'roll': 0.07}
{'lipoC2': 7.17, 'temp': 0.0, 'lipoC3S3': 11.23, 'state': 'normal', 'rot1': 37, 'rot0': 33, 'rot3': 0, 'rot2': 0, 'depth': -0.369, 'yaw': 162.53, 'datetime': '2018-12-12 14:40:38.351756', 'mgs': 0, 'flw2': 0.49, 'flw1': 0.0, 'flw0': 0.38, 'time': 6.89, 'compass': 34.43, 'pitch': -1.81, 'roll': 0.55}
{'lipoC2': 7.38, 'temp': 0.0, 'lipoC3S3': 11.15, 'state': 'normal', 'rot1': 38, 'rot0': 34, 'rot3': 0, 'rot2': 0, 'depth': -1.743, 'yaw': 161.41, 'datetime': '2018-12-12 14:40:38.560722', 'mgs': 0, 'flw2': 0.32, 'flw1': 0.0, 'flw0': 0.79, 'time': 7.1, 'compass': 33.31, 'pitch': -2.63, 'roll': 0.31}
{'lipoC2': 7.23, 'temp': 0.0, 'lipoC3S3': 11.23, 'state': 'normal', 'rot1': 39, 'rot0': 35, 'rot3': 0, 'rot2': 0, 'depth': -1.514, 'yaw': 159.76, 'datetime': '2018-12-12 14:40:38.769726', 'mgs': 0, 'flw2': 0.31, 'flw1': 0.0, 'flw0': 0.35, 'time': 7.31, 'compass': 31.65, 'pitch': -2.53, 'roll': -0.4}
{'lipoC2': 7.11, 'temp': 0.0, 'lipoC3S3': 11.51, 'state': 'normal', 'rot1': 40, 'rot0': 37, 'rot3': 0, 'rot2': 0, 'depth': -0.369, 'yaw': 157.83, 'datetime': '2018-12-12 14:40:38.978245', 'mgs': 0, 'flw2': 0.18, 'flw1': 0.09, 'flw0': 0.18, 'time': 7.51, 'compass': 29.72, 'pitch': -1.61, 'roll': -0.69}
{'lipoC2': 7.29, 'temp': 0.0, 'lipoC3S3': 11.46, 'state': 'normal', 'rot1': 41, 'rot0': 38, 'rot3': 0, 'rot2': 0, 'depth': 0.165, 'yaw': 155.6, 'datetime': '2018-12-12 14:40:39.187062', 'mgs': 0, 'flw2': 0.24, 'flw1': 0.0, 'flw0': 0.1, 'time': 7.72, 'compass': 27.5, 'pitch': -1.1, 'roll': -0.27}
{'lipoC2': 7.33, 'temp': 0.0, 'lipoC3S3': 11.13, 'state': 'normal', 'rot1': 42, 'rot0': 39, 'rot3': 0, 'rot2': 0, 'depth': -1.132, 'yaw': 153.36, 'datetime': '2018-12-12 14:40:39.405137', 'mgs': 0, 'flw2': 0.18, 'flw1': 0.5, 'flw0': 0.39, 'time': 7.93, 'compass': 25.26, 'pitch': -1.57, 'roll': 0.25}
{'lipoC2': 7.39, 'temp': 0.0, 'lipoC3S3': 11.23, 'state': 'normal', 'rot1': 43, 'rot0': 40, 'rot3': 0, 'rot2': 0, 'depth': -0.827, 'yaw': 150.88, 'datetime': '2018-12-12 14:40:39.606431', 'mgs': 0, 'flw2': 0.38, 'flw1': 0.0, 'flw0': 0.43, 'time': 8.14, 'compass': 22.78, 'pitch': -2.23, 'roll': 0.06}
{'lipoC2': 7.33, 'temp': 0.0, 'lipoC3S3': 11.01, 'state': 'normal', 'rot1': 44, 'rot0': 41, 'rot3': 0, 'rot2': 0, 'depth': 0.546, 'yaw': 148.3, 'datetime': '2018-12-12 14:40:39.815314', 'mgs': 0, 'flw2': 0.37, 'flw1': 0.59, 'flw0': 0.0, 'time': 8.35, 'compass': 20.19, 'pitch': -2.19, 'roll': -0.51}
{'lipoC2': 7.26, 'temp': 0.0, 'lipoC3S3': 11.18, 'state': 'normal', 'rot1': 45, 'rot0': 42, 'rot3': 0, 'rot2': 0, 'depth': -0.751, 'yaw': 145.58, 'datetime': '2018-12-12 14:40:40.023664', 'mgs': 0, 'flw2': 0.27, 'flw1': 0.47, 'flw0': 0.28, 'time': 8.56, 'compass': 17.48, 'pitch': -1.83, 'roll': -0.79}
{'lipoC2': 7.41, 'temp': 0.0, 'lipoC3S3': 11.03, 'state': 'normal', 'rot1': 46, 'rot0': 43, 'rot3': 0, 'rot2': 0, 'depth': -0.217, 'yaw': 142.87, 'datetime': '2018-12-12 14:40:40.232560', 'mgs': 0, 'flw2': 0.31, 'flw1': 0.0, 'flw0': 0.46, 'time': 8.77, 'compass': 14.76, 'pitch': -1.85, 'roll': -0.71}
{'lipoC2': 7.3, 'temp': 0.0, 'lipoC3S3': 10.93, 'state': 'normal', 'rot1': 47, 'rot0': 44, 'rot3': 0, 'rot2': 0, 'depth': -0.217, 'yaw': 139.95, 'datetime': '2018-12-12 14:40:40.440834', 'mgs': 0, 'flw2': 0.18, 'flw1': 0.0, 'flw0': 0.27, 'time': 8.98, 'compass': 11.85, 'pitch': -2.32, 'roll': -0.5}
{'lipoC2': 7.27, 'temp': 0.0, 'lipoC3S3': 11.31, 'state': 'normal', 'rot1': 48, 'rot0': 44, 'rot3': 0, 'rot2': 0, 'depth': 0.012, 'yaw': 136.9, 'datetime': '2018-12-12 14:40:40.649937', 'mgs': 0, 'flw2': 0.22, 'flw1': 0.0, 'flw0': 0.28, 'time': 9.18, 'compass': 8.79, 'pitch': -2.51, 'roll': -0.28}
{'lipoC2': 7.48, 'temp': 0.0, 'lipoC3S3': 10.98, 'state': 'normal', 'rot1': 49, 'rot0': 45, 'rot3': 0, 'rot2': 0, 'depth': -2.277, 'yaw': 133.72, 'datetime': '2018-12-12 14:40:40.858741', 'mgs': 0, 'flw2': 0.44, 'flw1': 0.0, 'flw0': 0.38, 'time': 9.39, 'compass': 5.62, 'pitch': -1.98, 'roll': -0.32}
{'lipoC2': 7.1, 'temp': 0.0, 'lipoC3S3': 11.13, 'state': 'normal', 'rot1': 50, 'rot0': 46, 'rot3': 0, 'rot2': 0, 'depth': 1.462, 'yaw': 130.41, 'datetime': '2018-12-12 14:40:41.068811', 'mgs': 0, 'flw2': 0.0, 'flw1': 0.0, 'flw0': 0.01, 'time': 9.6, 'compass': 2.3, 'pitch': -1.53, 'roll': -0.39}
