{'lipoC2': 7.83, 'temp': 0.0, 'lipoC3S3': 12.26, 'state': 'normal', 'rot1': 0, 'rot0': 0, 'rot3': 0, 'rot2': 0, 'depth': 1.767, 'yaw': 0.0, 'datetime': '2018-12-12 11:23:38.992634', 'mgs': 0, 'flw2': 0.31, 'flw1': 0.23, 'flw0': 0.1, 'time': 1.26, 'compass': 41.44, 'pitch': -1.71, 'roll': 1.75}
{'lipoC2': 7.8, 'temp': 0.0, 'lipoC3S3': 12.18, 'state': 'normal', 'rot1': 0, 'rot0': 2, 'rot3': 0, 'rot2': 0, 'depth': 0.241, 'yaw': 1.46, 'datetime': '2018-12-12 11:23:39.200797', 'mgs': 0, 'flw2': 2.1, 'flw1': 0.0, 'flw0': 0.42, 'time': 1.46, 'compass': 42.9, 'pitch': -1.03, 'roll': 1.79}
{'lipoC2': 7.86, 'temp': 0.0, 'lipoC3S3': 11.85, 'state': 'normal', 'rot1': 0, 'rot0': 5, 'rot3': 0, 'rot2': 0, 'depth': 0.928, 'yaw': 5.35, 'datetime': '2018-12-12 11:23:39.414872', 'mgs': 0, 'flw2': 5.64, 'flw1': 0.0, 'flw0': 0.42, 'time': 1.67, 'compass': 46.79, 'pitch': 0.97, 'roll': 1.99}
{'lipoC2': 8.08, 'temp': 0.0, 'lipoC3S3': 11.83, 'state': 'normal', 'rot1': 0, 'rot0': 6, 'rot3': 0, 'rot2': 0, 'depth': -0.293, 'yaw': 12.8, 'datetime': '2018-12-12 11:23:39.625684', 'mgs': 0, 'flw2': 0.28, 'flw1': 0.0, 'flw0': 0.16, 'time': 1.88, 'compass': 54.24, 'pitch': 3.4, 'roll': 2.48}
{'lipoC2': 7.78, 'temp': 0.0, 'lipoC3S3': 11.93, 'state': 'normal', 'rot1': 0, 'rot0': 6, 'rot3': 0, 'rot2': 0, 'depth': 0.012, 'yaw': 19.61, 'datetime': '2018-12-12 11:23:39.828622', 'mgs': 0, 'flw2': 0.0, 'flw1': 0.67, 'flw0': 0.0, 'time': 2.09, 'compass': 61.05, 'pitch': 4.11, 'roll': 2.65}
{'lipoC2': 7.85, 'temp': 0.0, 'lipoC3S3': 11.9, 'state': 'normal', 'rot1': 0, 'rot0': 6, 'rot3': 0, 'rot2': 0, 'depth': 2.148, 'yaw': 25.12, 'datetime': '2018-12-12 11:23:40.037123', 'mgs': 0, 'flw2': 0.26, 'flw1': 0.0, 'flw0': 0.31, 'time': 2.3, 'compass': 66.56, 'pitch': 3.98, 'roll': 2.32}
{'lipoC2': 7.81, 'temp': 0.0, 'lipoC3S3': 12.21, 'state': 'normal', 'rot1': 0, 'rot0': 6, 'rot3': 0, 'rot2': 0, 'depth': 3.217, 'yaw': 30.15, 'datetime': '2018-12-12 11:23:40.245586', 'mgs': 0, 'flw2': 0.16, 'flw1': 0.0, 'flw0': 0.24, 'time': 2.5, 'compass': 71.59, 'pitch': 2.74, 'roll': 1.66}
{'lipoC2': 7.81, 'temp': 0.0, 'lipoC3S3': 12.14, 'state': 'normal', 'rot1': 0, 'rot0': 6, 'rot3': 1, 'rot2': 0, 'depth': 0.623, 'yaw': 34.69, 'datetime': '2018-12-12 11:23:40.453867', 'mgs': 0, 'flw2': 0.0, 'flw1': 2.96, 'flw0': 0.0, 'time': 2.71, 'compass': 76.13, 'pitch': 0.63, 'roll': 1.38}
{'lipoC2': 7.8, 'temp': 0.0, 'lipoC3S3': 11.89, 'state': 'normal', 'rot1': 0, 'rot0': 6, 'rot3': 2, 'rot2': 1, 'depth': -0.064, 'yaw': 38.85, 'datetime': '2018-12-12 11:23:40.662511', 'mgs': 0, 'flw2': 0.0, 'flw1': 2.96, 'flw0': 0.31, 'time': 2.92, 'compass': 80.29, 'pitch': -0.9, 'roll': 1.4}
{'lipoC2': 7.83, 'temp': 0.0, 'lipoC3S3': 12.3, 'state': 'normal', 'rot1': 0, 'rot0': 6, 'rot3': 2, 'rot2': 2, 'depth': 0.47, 'yaw': 42.3, 'datetime': '2018-12-12 11:23:40.869861', 'mgs': 0, 'flw2': 0.0, 'flw1': 3.66, 'flw0': 0.0, 'time': 3.13, 'compass': 83.74, 'pitch': -1.16, 'roll': 1.15}
{'lipoC2': 7.82, 'temp': 0.0, 'lipoC3S3': 12.16, 'state': 'normal', 'rot1': 0, 'rot0': 6, 'rot3': 3, 'rot2': 3, 'depth': 0.012, 'yaw': 45.45, 'datetime': '2018-12-12 11:23:41.077367', 'mgs': 0, 'flw2': 0.31, 'flw1': 5.1, 'flw0': 0.0, 'time': 3.33, 'compass': 86.89, 'pitch': -0.54, 'roll': 0.51}
{'lipoC2': 8.02, 'temp': 0.0, 'lipoC3S3': 11.83, 'state': 'normal', 'rot1': 0, 'rot0': 6, 'rot3': 4, 'rot2': 4, 'depth': -1.056, 'yaw': 48.11, 'datetime': '2018-12-12 11:23:41.280999', 'mgs': 0, 'flw2': 0.0, 'flw1': 5.48, 'flw0': 0.0, 'time': 3.54, 'compass': 89.55, 'pitch': 0.06, 'roll': 0.2}
{'lipoC2': 7.83, 'temp': 0.0, 'lipoC3S3': 12.19, 'state': 'normal', 'rot1': 0, 'rot0': 6, 'rot3': 5, 'rot2': 6, 'depth': -0.064, 'yaw': 50.29, 'datetime': '2018-12-12 11:23:41.489091', 'mgs': 0, 'flw2': 0.0, 'flw1': 5.04, 'flw0': 0.0, 'time': 3.75, 'compass': 91.73, 'pitch': 0.37, 'roll': 0.34}
{'lipoC2': 7.82, 'temp': 0.0, 'lipoC3S3': 12.12, 'state': 'normal', 'rot1': 0, 'rot0': 6, 'rot3': 6, 'rot2': 7, 'depth': 2.682, 'yaw': 52.45, 'datetime': '2018-12-12 11:23:41.698392', 'mgs': 0, 'flw2': 0.0, 'flw1': 4.22, 'flw0': 0.0, 'time': 3.96, 'compass': 93.89, 'pitch': 0.9, 'roll': 0.59}
{'lipoC2': 7.83, 'temp': 0.0, 'lipoC3S3': 12.27, 'state': 'normal', 'rot1': 0, 'rot0': 6, 'rot3': 7, 'rot2': 8, 'depth': 1.691, 'yaw': 54.72, 'datetime': '2018-12-12 11:23:41.920022', 'mgs': 0, 'flw2': 0.0, 'flw1': 3.87, 'flw0': 0.0, 'time': 4.17, 'compass': 96.16, 'pitch': 1.71, 'roll': 0.47}
{'lipoC2': 7.81, 'temp': 0.0, 'lipoC3S3': 12.22, 'state': 'normal', 'rot1': 0, 'rot0': 6, 'rot3': 7, 'rot2': 9, 'depth': 2.606, 'yaw': 56.96, 'datetime': '2018-12-12 11:23:42.127070', 'mgs': 0, 'flw2': 0.0, 'flw1': 2.26, 'flw0': 0.16, 'time': 4.37, 'compass': 98.4, 'pitch': 2.39, 'roll': 0.27}
{'lipoC2': 7.8, 'temp': 0.0, 'lipoC3S3': 12.18, 'state': 'normal', 'rot1': 0, 'rot0': 6, 'rot3': 8, 'rot2': 10, 'depth': 2.682, 'yaw': 59.17, 'datetime': '2018-12-12 11:23:42.333278', 'mgs': 0, 'flw2': 0.0, 'flw1': 1.26, 'flw0': 0.18, 'time': 4.58, 'compass': 100.61, 'pitch': 2.59, 'roll': 0.58}
{'lipoC2': 7.85, 'temp': 0.0, 'lipoC3S3': 11.88, 'state': 'normal', 'rot1': 0, 'rot0': 6, 'rot3': 9, 'rot2': 11, 'depth': 1.157, 'yaw': 61.24, 'datetime': '2018-12-12 11:23:42.541100', 'mgs': 0, 'flw2': 0.01, 'flw1': 0.53, 'flw0': 0.28, 'time': 4.79, 'compass': 102.68, 'pitch': 2.44, 'roll': 1.13}
{'lipoC2': 7.98, 'temp': 0.0, 'lipoC3S3': 11.73, 'state': 'normal', 'rot1': 0, 'rot0': 6, 'rot3': 9, 'rot2': 12, 'depth': -0.674, 'yaw': 63.23, 'datetime': '2018-12-12 11:23:42.748741', 'mgs': 0, 'flw2': 0.0, 'flw1': 0.62, 'flw0': 0.29, 'time': 5.0, 'compass': 104.67, 'pitch': 2.07, 'roll': 1.38}
{'lipoC2': 8.05, 'temp': 0.0, 'lipoC3S3': 11.79, 'state': 'normal', 'rot1': 0, 'rot0': 6, 'rot3': 10, 'rot2': 12, 'depth': -0.98, 'yaw': 65.13, 'datetime': '2018-12-12 11:23:42.960258', 'mgs': 0, 'flw2': 0.18, 'flw1': 0.67, 'flw0': 0.0, 'time': 5.21, 'compass': 106.57, 'pitch': 1.5, 'roll': 1.7}
{'lipoC2': 7.81, 'temp': 0.0, 'lipoC3S3': 12.09, 'state': 'normal', 'rot1': 0, 'rot0': 6, 'rot3': 10, 'rot2': 13, 'depth': 3.445, 'yaw': 66.85, 'datetime': '2018-12-12 11:23:43.171915', 'mgs': 0, 'flw2': 0.0, 'flw1': 1.79, 'flw0': 4.35, 'time': 5.42, 'compass': 108.29, 'pitch': 1.4, 'roll': 2.29}
{'lipoC2': 7.98, 'temp': 0.0, 'lipoC3S3': 11.67, 'state': 'normal', 'rot1': 7, 'rot0': 6, 'rot3': 11, 'rot2': 13, 'depth': 2.53, 'yaw': 65.86, 'datetime': '2018-12-12 11:23:43.377315', 'mgs': 0, 'flw2': 0.21, 'flw1': 0.82, 'flw0': 12.49, 'time': 5.63, 'compass': 107.3, 'pitch': 2.86, 'roll': 2.56}
{'lipoC2': 7.81, 'temp': 0.0, 'lipoC3S3': 12.0, 'state': 'normal', 'rot1': 12, 'rot0': 6, 'rot3': 11, 'rot2': 14, 'depth': -0.217, 'yaw': 56.62, 'datetime': '2018-12-12 11:23:43.587624', 'mgs': 0, 'flw2': 0.0, 'flw1': 1.7, 'flw0': 6.82, 'time': 5.83, 'compass': 98.06, 'pitch': 6.81, 'roll': 2.17}
{'lipoC2': 7.87, 'temp': 0.0, 'lipoC3S3': 11.88, 'state': 'normal', 'rot1': 15, 'rot0': 6, 'rot3': 12, 'rot2': 14, 'depth': 0.394, 'yaw': 45.35, 'datetime': '2018-12-12 11:23:43.796934', 'mgs': 0, 'flw2': 0.0, 'flw1': 1.14, 'flw0': 0.0, 'time': 6.04, 'compass': 86.79, 'pitch': 8.57, 'roll': 2.53}
{'lipoC2': 7.8, 'temp': 0.0, 'lipoC3S3': 11.92, 'state': 'normal', 'rot1': 15, 'rot0': 6, 'rot3': 12, 'rot2': 15, 'depth': 0.317, 'yaw': 36.88, 'datetime': '2018-12-12 11:23:44.006775', 'mgs': 0, 'flw2': 0.12, 'flw1': 0.88, 'flw0': 0.2, 'time': 6.25, 'compass': 78.32, 'pitch': 7.12, 'roll': 3.53}
{'lipoC2': 7.8, 'temp': 0.0, 'lipoC3S3': 12.16, 'state': 'normal', 'rot1': 15, 'rot0': 7, 'rot3': 13, 'rot2': 15, 'depth': 0.089, 'yaw': 30.14, 'datetime': '2018-12-12 11:23:44.215642', 'mgs': 0, 'flw2': 2.72, 'flw1': 0.5, 'flw0': 0.17, 'time': 6.46, 'compass': 71.58, 'pitch': 5.45, 'roll': 4.47}
{'lipoC2': 8.08, 'temp': 0.0, 'lipoC3S3': 11.83, 'state': 'normal', 'rot1': 16, 'rot0': 9, 'rot3': 13, 'rot2': 16, 'depth': -0.598, 'yaw': 25.9, 'datetime': '2018-12-12 11:23:44.427147', 'mgs': 0, 'flw2': 2.87, 'flw1': 0.7, 'flw0': 2.23, 'time': 6.67, 'compass': 67.34, 'pitch': 5.45, 'roll': 4.89}
{'lipoC2': 8.08, 'temp': 0.0, 'lipoC3S3': 11.77, 'state': 'normal', 'rot1': 19, 'rot0': 12, 'rot3': 14, 'rot2': 16, 'depth': 2.988, 'yaw': 23.53, 'datetime': '2018-12-12 11:23:44.637153', 'mgs': 0, 'flw2': 7.45, 'flw1': 0.64, 'flw0': 3.26, 'time': 6.88, 'compass': 64.97, 'pitch': 6.97, 'roll': 4.54}
{'lipoC2': 7.8, 'temp': 0.0, 'lipoC3S3': 12.06, 'state': 'normal', 'rot1': 22, 'rot0': 15, 'rot3': 14, 'rot2': 17, 'depth': 0.241, 'yaw': 22.95, 'datetime': '2018-12-12 11:23:44.844193', 'mgs': 0, 'flw2': 7.53, 'flw1': 1.0, 'flw0': 4.86, 'time': 7.09, 'compass': 64.39, 'pitch': 9.2, 'roll': 4.06}
{'lipoC2': 8.07, 'temp': 0.0, 'lipoC3S3': 11.55, 'state': 'normal', 'rot1': 26, 'rot0': 19, 'rot3': 14, 'rot2': 17, 'depth': -0.522, 'yaw': 23.37, 'datetime': '2018-12-12 11:23:45.056102', 'mgs': 0, 'flw2': 4.52, 'flw1': 0.85, 'flw0': 5.21, 'time': 7.3, 'compass': 64.81, 'pitch': 11.6, 'roll': 3.53}
{'lipoC2': 7.8, 'temp': 0.0, 'lipoC3S3': 12.16, 'state': 'normal', 'rot1': 31, 'rot0': 21, 'rot3': 15, 'rot2': 18, 'depth': 3.674, 'yaw': 22.38, 'datetime': '2018-12-12 11:23:45.264855', 'mgs': 0, 'flw2': 3.17, 'flw1': 0.73, 'flw0': 6.49, 'time': 7.51, 'compass': 63.82, 'pitch': 13.22, 'roll': 2.61}
{'lipoC2': 7.82, 'temp': 0.0, 'lipoC3S3': 11.8, 'state': 'normal', 'rot1': 35, 'rot0': 24, 'rot3': 16, 'rot2': 18, 'depth': 1.004, 'yaw': 19.07, 'datetime': '2018-12-12 11:23:45.473938', 'mgs': 0, 'flw2': 3.11, 'flw1': 1.76, 'flw0': 6.65, 'time': 7.72, 'compass': 60.51, 'pitch': 13.89, 'roll': 1.89}
{'lipoC2': 7.81, 'temp': 0.0, 'lipoC3S3': 12.02, 'state': 'normal', 'rot1': 39, 'rot0': 27, 'rot3': 16, 'rot2': 19, 'depth': 3.674, 'yaw': 14.65, 'datetime': '2018-12-12 11:23:45.685804', 'mgs': 0, 'flw2': 3.31, 'flw1': 0.91, 'flw0': 6.47, 'time': 7.93, 'compass': 56.09, 'pitch': 13.28, 'roll': 1.6}
{'lipoC2': 7.8, 'temp': 0.0, 'lipoC3S3': 11.8, 'state': 'normal', 'rot1': 43, 'rot0': 29, 'rot3': 17, 'rot2': 19, 'depth': 3.751, 'yaw': 9.97, 'datetime': '2018-12-12 11:23:45.897570', 'mgs': 0, 'flw2': 3.45, 'flw1': 0.73, 'flw0': 6.56, 'time': 8.14, 'compass': 51.41, 'pitch': 11.74, 'roll': 1.31}
{'lipoC2': 7.76, 'temp': 0.0, 'lipoC3S3': 11.83, 'state': 'normal', 'rot1': 47, 'rot0': 32, 'rot3': 17, 'rot2': 20, 'depth': 0.699, 'yaw': 5.27, 'datetime': '2018-12-12 11:23:46.109868', 'mgs': 0, 'flw2': 2.94, 'flw1': 1.79, 'flw0': 6.74, 'time': 8.35, 'compass': 46.71, 'pitch': 10.43, 'roll': 0.91}
{'lipoC2': 8.01, 'temp': 0.0, 'lipoC3S3': 11.72, 'state': 'normal', 'rot1': 52, 'rot0': 36, 'rot3': 18, 'rot2': 21, 'depth': 1.843, 'yaw': -1.71, 'datetime': '2018-12-12 11:23:46.412726', 'mgs': 0, 'flw2': 2.55, 'flw1': 0.44, 'flw0': 0.0, 'time': 8.66, 'compass': 39.73, 'pitch': 8.35, 'roll': 0.08}
{'lipoC2': 7.88, 'temp': 0.0, 'lipoC3S3': 11.76, 'state': 'normal', 'rot1': 52, 'rot0': 39, 'rot3': 18, 'rot2': 21, 'depth': 0.47, 'yaw': -2.26, 'datetime': '2018-12-12 11:23:46.621793', 'mgs': 0, 'flw2': 2.01, 'flw1': 0.5, 'flw0': 0.34, 'time': 8.88, 'compass': 39.18, 'pitch': 5.95, 'roll': 0.19}
{'lipoC2': 7.82, 'temp': 0.0, 'lipoC3S3': 11.85, 'state': 'normal', 'rot1': 52, 'rot0': 41, 'rot3': 19, 'rot2': 22, 'depth': 0.928, 'yaw': -1.1, 'datetime': '2018-12-12 11:23:46.833982', 'mgs': 0, 'flw2': 1.88, 'flw1': 1.9, 'flw0': 0.0, 'time': 9.09, 'compass': 40.34, 'pitch': 4.2, 'roll': 0.57}
{'lipoC2': 7.82, 'temp': 0.0, 'lipoC3S3': 12.23, 'state': 'normal', 'rot1': 52, 'rot0': 43, 'rot3': 19, 'rot2': 22, 'depth': 2.911, 'yaw': 1.14, 'datetime': '2018-12-12 11:23:47.057669', 'mgs': 0, 'flw2': 0.0, 'flw1': 0.53, 'flw0': 0.18, 'time': 9.29, 'compass': 42.58, 'pitch': 3.03, 'roll': 0.83}
{'lipoC2': 7.81, 'temp': 0.0, 'lipoC3S3': 12.09, 'state': 'normal', 'rot1': 52, 'rot0': 43, 'rot3': 20, 'rot2': 23, 'depth': 3.14, 'yaw': 3.05, 'datetime': '2018-12-12 11:23:47.260515', 'mgs': 0, 'flw2': 0.0, 'flw1': 1.73, 'flw0': 0.0, 'time': 9.5, 'compass': 44.49, 'pitch': 1.45, 'roll': 1.2}
{'lipoC2': 7.81, 'temp': 0.0, 'lipoC3S3': 11.88, 'state': 'normal', 'rot1': 52, 'rot0': 43, 'rot3': 20, 'rot2': 23, 'depth': 0.394, 'yaw': 4.23, 'datetime': '2018-12-12 11:23:47.474212', 'mgs': 0, 'flw2': 0.0, 'flw1': 0.5, 'flw0': 2.48, 'time': 9.71, 'compass': 45.68, 'pitch': -0.95, 'roll': 1.84}
{'lipoC2': 7.82, 'temp': 0.0, 'lipoC3S3': 12.27, 'state': 'normal', 'rot1': 53, 'rot0': 43, 'rot3': 21, 'rot2': 24, 'depth': 2.759, 'yaw': 4.32, 'datetime': '2018-12-12 11:23:47.685493', 'mgs': 0, 'flw2': 0.0, 'flw1': 0.56, 'flw0': 0.0, 'time': 9.92, 'compass': 45.76, 'pitch': -3.13, 'roll': 2.51}
{'lipoC2': 7.81, 'temp': 0.0, 'lipoC3S3': 12.12, 'state': 'normal', 'rot1': 53, 'rot0': 43, 'rot3': 21, 'rot2': 24, 'depth': 0.012, 'yaw': 4.26, 'datetime': '2018-12-12 11:23:47.891923', 'mgs': 0, 'flw2': 0.0, 'flw1': 1.79, 'flw0': 0.0, 'time': 10.13, 'compass': 45.7, 'pitch': -4.44, 'roll': 3.24}
{'lipoC2': 7.78, 'temp': 0.0, 'lipoC3S3': 12.06, 'state': 'normal', 'rot1': 53, 'rot0': 43, 'rot3': 22, 'rot2': 25, 'depth': 0.546, 'yaw': 4.16, 'datetime': '2018-12-12 11:23:48.100054', 'mgs': 0, 'flw2': 0.1, 'flw1': 0.79, 'flw0': 0.23, 'time': 10.34, 'compass': 45.6, 'pitch': -4.67, 'roll': 3.78}
{'lipoC2': 7.86, 'temp': 0.0, 'lipoC3S3': 11.87, 'state': 'normal', 'rot1': 53, 'rot0': 43, 'rot3': 22, 'rot2': 25, 'depth': 0.394, 'yaw': 3.85, 'datetime': '2018-12-12 11:23:48.308487', 'mgs': 0, 'flw2': 0.0, 'flw1': 1.03, 'flw0': 0.0, 'time': 10.55, 'compass': 45.29, 'pitch': -4.45, 'roll': 4.11}
{'lipoC2': 7.8, 'temp': 0.0, 'lipoC3S3': 12.14, 'state': 'normal', 'rot1': 53, 'rot0': 43, 'rot3': 23, 'rot2': 26, 'depth': 0.089, 'yaw': 3.4, 'datetime': '2018-12-12 11:23:48.517110', 'mgs': 0, 'flw2': 0.0, 'flw1': 0.76, 'flw0': 0.0, 'time': 10.76, 'compass': 44.84, 'pitch': -4.0, 'roll': 4.31}
{'lipoC2': 7.81, 'temp': 0.0, 'lipoC3S3': 12.06, 'state': 'normal', 'rot1': 53, 'rot0': 43, 'rot3': 23, 'rot2': 26, 'depth': 3.14, 'yaw': 2.84, 'datetime': '2018-12-12 11:23:48.727000', 'mgs': 0, 'flw2': 0.0, 'flw1': 1.35, 'flw0': 0.0, 'time': 10.97, 'compass': 44.28, 'pitch': -3.14, 'roll': 4.43}
{'lipoC2': 8.06, 'temp': 0.0, 'lipoC3S3': 12.27, 'state': 'normal', 'rot1': 53, 'rot0': 43, 'rot3': 24, 'rot2': 27, 'depth': -0.293, 'yaw': 2.17, 'datetime': '2018-12-12 11:23:48.938448', 'mgs': 0, 'flw2': 0.0, 'flw1': 1.49, 'flw0': 0.0, 'time': 11.18, 'compass': 43.61, 'pitch': -2.18, 'roll': 4.38}
{'lipoC2': 7.85, 'temp': 0.0, 'lipoC3S3': 11.9, 'state': 'normal', 'rot1': 53, 'rot0': 43, 'rot3': 24, 'rot2': 28, 'depth': 0.623, 'yaw': 1.41, 'datetime': '2018-12-12 11:23:49.146469', 'mgs': 0, 'flw2': 0.0, 'flw1': 0.94, 'flw0': 0.0, 'time': 11.39, 'compass': 42.86, 'pitch': -1.69, 'roll': 4.12}
{'lipoC2': 7.82, 'temp': 0.0, 'lipoC3S3': 12.16, 'state': 'normal', 'rot1': 53, 'rot0': 43, 'rot3': 25, 'rot2': 28, 'depth': 0.394, 'yaw': 0.68, 'datetime': '2018-12-12 11:23:49.357709', 'mgs': 0, 'flw2': 0.0, 'flw1': 0.41, 'flw0': 0.0, 'time': 11.6, 'compass': 42.12, 'pitch': -1.58, 'roll': 4.02}
{'lipoC2': 8.08, 'temp': 0.0, 'lipoC3S3': 11.89, 'state': 'normal', 'rot1': 53, 'rot0': 43, 'rot3': 25, 'rot2': 29, 'depth': 3.369, 'yaw': -0.17, 'datetime': '2018-12-12 11:23:49.564569', 'mgs': 0, 'flw2': 0.0, 'flw1': 0.56, 'flw0': 0.11, 'time': 11.81, 'compass': 41.27, 'pitch': -1.43, 'roll': 4.1}
{'lipoC2': 7.84, 'temp': 0.0, 'lipoC3S3': 12.25, 'state': 'normal', 'rot1': 53, 'rot0': 43, 'rot3': 26, 'rot2': 29, 'depth': 0.928, 'yaw': -1.09, 'datetime': '2018-12-12 11:23:49.776844', 'mgs': 0, 'flw2': 0.24, 'flw1': 1.26, 'flw0': 0.0, 'time': 12.02, 'compass': 40.35, 'pitch': -1.56, 'roll': 4.31}
{'lipoC2': 7.87, 'temp': 0.0, 'lipoC3S3': 11.81, 'state': 'normal', 'rot1': 53, 'rot0': 43, 'rot3': 27, 'rot2': 30, 'depth': 1.996, 'yaw': -2.05, 'datetime': '2018-12-12 11:23:49.985581', 'mgs': 0, 'flw2': 0.0, 'flw1': 1.61, 'flw0': 0.29, 'time': 12.23, 'compass': 39.39, 'pitch': -1.89, 'roll': 4.45}
{'lipoC2': 7.81, 'temp': 0.0, 'lipoC3S3': 12.18, 'state': 'normal', 'rot1': 53, 'rot0': 43, 'rot3': 27, 'rot2': 31, 'depth': 1.767, 'yaw': -3.05, 'datetime': '2018-12-12 11:23:50.197038', 'mgs': 0, 'flw2': 0.0, 'flw1': 1.44, 'flw0': 0.0, 'time': 12.44, 'compass': 38.39, 'pitch': -1.78, 'roll': 4.62}
{'lipoC2': 8.08, 'temp': 0.0, 'lipoC3S3': 11.9, 'state': 'normal', 'rot1': 53, 'rot0': 43, 'rot3': 28, 'rot2': 31, 'depth': 3.293, 'yaw': -4.13, 'datetime': '2018-12-12 11:23:50.407553', 'mgs': 0, 'flw2': 0.0, 'flw1': 1.38, 'flw0': 0.22, 'time': 12.65, 'compass': 37.31, 'pitch': -1.32, 'roll': 5.01}
{'lipoC2': 7.92, 'temp': 0.0, 'lipoC3S3': 11.76, 'state': 'normal', 'rot1': 53, 'rot0': 43, 'rot3': 29, 'rot2': 32, 'depth': 0.851, 'yaw': -5.31, 'datetime': '2018-12-12 11:23:50.616121', 'mgs': 0, 'flw2': 0.23, 'flw1': 1.82, 'flw0': 0.07, 'time': 12.86, 'compass': 36.13, 'pitch': -1.0, 'roll': 5.49}
{'lipoC2': 7.81, 'temp': 0.0, 'lipoC3S3': 12.21, 'state': 'normal', 'rot1': 53, 'rot0': 43, 'rot3': 29, 'rot2': 33, 'depth': 3.293, 'yaw': -6.49, 'datetime': '2018-12-12 11:23:50.824972', 'mgs': 0, 'flw2': 0.0, 'flw1': 2.05, 'flw0': 0.0, 'time': 13.07, 'compass': 34.96, 'pitch': -1.01, 'roll': 5.92}
{'lipoC2': 7.83, 'temp': 0.0, 'lipoC3S3': 12.22, 'state': 'normal', 'rot1': 53, 'rot0': 43, 'rot3': 30, 'rot2': 34, 'depth': 2.454, 'yaw': -7.77, 'datetime': '2018-12-12 11:23:51.036628', 'mgs': 0, 'flw2': 0.0, 'flw1': 1.58, 'flw0': 0.01, 'time': 13.28, 'compass': 33.67, 'pitch': -1.15, 'roll': 6.35}
{'lipoC2': 7.78, 'temp': 0.0, 'lipoC3S3': 11.92, 'state': 'normal', 'rot1': 53, 'rot0': 43, 'rot3': 31, 'rot2': 35, 'depth': 0.546, 'yaw': -9.12, 'datetime': '2018-12-12 11:23:51.244891', 'mgs': 0, 'flw2': 0.24, 'flw1': 1.79, 'flw0': 0.04, 'time': 13.49, 'compass': 32.32, 'pitch': -0.93, 'roll': 6.61}
{'lipoC2': 7.96, 'temp': 0.0, 'lipoC3S3': 11.76, 'state': 'normal', 'rot1': 53, 'rot0': 43, 'rot3': 31, 'rot2': 35, 'depth': 1.233, 'yaw': -10.44, 'datetime': '2018-12-12 11:23:51.455220', 'mgs': 0, 'flw2': 0.06, 'flw1': 1.7, 'flw0': 0.17, 'time': 13.7, 'compass': 31.0, 'pitch': -0.02, 'roll': 6.62}
{'lipoC2': 7.83, 'temp': 0.0, 'lipoC3S3': 12.23, 'state': 'normal', 'rot1': 53, 'rot0': 43, 'rot3': 32, 'rot2': 36, 'depth': 1.691, 'yaw': -11.68, 'datetime': '2018-12-12 11:23:51.668683', 'mgs': 0, 'flw2': 0.0, 'flw1': 1.38, 'flw0': 0.0, 'time': 13.91, 'compass': 29.76, 'pitch': 0.85, 'roll': 6.73}
{'lipoC2': 7.81, 'temp': 0.0, 'lipoC3S3': 12.14, 'state': 'normal', 'rot1': 53, 'rot0': 43, 'rot3': 33, 'rot2': 37, 'depth': 0.394, 'yaw': -12.85, 'datetime': '2018-12-12 11:23:51.875822', 'mgs': 0, 'flw2': 0.0, 'flw1': 2.43, 'flw0': 0.0, 'time': 14.12, 'compass': 28.59, 'pitch': 0.99, 'roll': 6.93}
{'lipoC2': 7.77, 'temp': 0.0, 'lipoC3S3': 12.05, 'state': 'normal', 'rot1': 53, 'rot0': 43, 'rot3': 33, 'rot2': 38, 'depth': -0.14, 'yaw': -13.96, 'datetime': '2018-12-12 11:23:52.085773', 'mgs': 0, 'flw2': 0.0, 'flw1': 1.46, 'flw0': 0.29, 'time': 14.32, 'compass': 27.48, 'pitch': 0.9, 'roll': 6.93}
{'lipoC2': 7.81, 'temp': 0.0, 'lipoC3S3': 12.22, 'state': 'normal', 'rot1': 53, 'rot0': 43, 'rot3': 34, 'rot2': 39, 'depth': 0.47, 'yaw': -14.92, 'datetime': '2018-12-12 11:23:52.295020', 'mgs': 0, 'flw2': 0.0, 'flw1': 2.67, 'flw0': 0.0, 'time': 14.53, 'compass': 26.52, 'pitch': 1.22, 'roll': 6.84}
{'lipoC2': 7.81, 'temp': 0.0, 'lipoC3S3': 12.22, 'state': 'normal', 'rot1': 53, 'rot0': 43, 'rot3': 35, 'rot2': 39, 'depth': 2.759, 'yaw': -15.66, 'datetime': '2018-12-12 11:23:52.507132', 'mgs': 0, 'flw2': 0.0, 'flw1': 2.4, 'flw0': 0.0, 'time': 14.75, 'compass': 25.78, 'pitch': 1.64, 'roll': 6.96}
{'lipoC2': 7.77, 'temp': 0.0, 'lipoC3S3': 11.89, 'state': 'normal', 'rot1': 53, 'rot0': 43, 'rot3': 36, 'rot2': 40, 'depth': 0.165, 'yaw': -16.27, 'datetime': '2018-12-12 11:23:52.716779', 'mgs': 0, 'flw2': 0.27, 'flw1': 1.67, 'flw0': 0.05, 'time': 14.96, 'compass': 25.17, 'pitch': 1.86, 'roll': 7.36}
{'lipoC2': 7.84, 'temp': 0.0, 'lipoC3S3': 11.93, 'state': 'normal', 'rot1': 53, 'rot0': 43, 'rot3': 36, 'rot2': 41, 'depth': 0.089, 'yaw': -16.8, 'datetime': '2018-12-12 11:23:52.927458', 'mgs': 0, 'flw2': 0.0, 'flw1': 2.72, 'flw0': 0.0, 'time': 15.16, 'compass': 24.64, 'pitch': 1.94, 'roll': 7.45}
{'lipoC2': 7.78, 'temp': 0.0, 'lipoC3S3': 12.13, 'state': 'normal', 'rot1': 53, 'rot0': 43, 'rot3': 37, 'rot2': 42, 'depth': -0.369, 'yaw': -17.25, 'datetime': '2018-12-12 11:23:53.136782', 'mgs': 0, 'flw2': 0.0, 'flw1': 1.41, 'flw0': 0.09, 'time': 15.37, 'compass': 24.19, 'pitch': 1.57, 'roll': 7.33}
{'lipoC2': 7.86, 'temp': 0.0, 'lipoC3S3': 11.81, 'state': 'normal', 'rot1': 53, 'rot0': 43, 'rot3': 38, 'rot2': 43, 'depth': 1.385, 'yaw': -17.55, 'datetime': '2018-12-12 11:23:53.347667', 'mgs': 0, 'flw2': 0.21, 'flw1': 1.7, 'flw0': 0.2, 'time': 15.59, 'compass': 23.89, 'pitch': 0.96, 'roll': 7.62}
{'lipoC2': 7.81, 'temp': 0.0, 'lipoC3S3': 12.05, 'state': 'normal', 'rot1': 53, 'rot0': 43, 'rot3': 38, 'rot2': 43, 'depth': 2.682, 'yaw': -17.87, 'datetime': '2018-12-12 11:23:53.556338', 'mgs': 0, 'flw2': 0.0, 'flw1': 2.29, 'flw0': 0.0, 'time': 15.8, 'compass': 23.57, 'pitch': 0.87, 'roll': 8.22}
{'lipoC2': 7.82, 'temp': 0.0, 'lipoC3S3': 11.92, 'state': 'normal', 'rot1': 53, 'rot0': 43, 'rot3': 39, 'rot2': 44, 'depth': 2.301, 'yaw': -18.24, 'datetime': '2018-12-12 11:23:53.768976', 'mgs': 0, 'flw2': 0.16, 'flw1': 1.85, 'flw0': 0.23, 'time': 16.01, 'compass': 23.21, 'pitch': 1.12, 'roll': 8.6}
{'lipoC2': 7.83, 'temp': 0.0, 'lipoC3S3': 11.9, 'state': 'normal', 'rot1': 53, 'rot0': 43, 'rot3': 40, 'rot2': 45, 'depth': 2.53, 'yaw': -18.61, 'datetime': '2018-12-12 11:23:53.977088', 'mgs': 0, 'flw2': 0.1, 'flw1': 1.49, 'flw0': 0.33, 'time': 16.22, 'compass': 22.83, 'pitch': 1.02, 'roll': 8.64}
{'lipoC2': 7.94, 'temp': 0.0, 'lipoC3S3': 11.71, 'state': 'normal', 'rot1': 53, 'rot0': 45, 'rot3': 40, 'rot2': 46, 'depth': 1.08, 'yaw': -18.02, 'datetime': '2018-12-12 11:23:54.187734', 'mgs': 0, 'flw2': 4.71, 'flw1': 1.76, 'flw0': 0.44, 'time': 16.42, 'compass': 23.42, 'pitch': 1.48, 'roll': 8.73}
{'lipoC2': 7.88, 'temp': 0.0, 'lipoC3S3': 11.71, 'state': 'normal', 'rot1': 55, 'rot0': 48, 'rot3': 41, 'rot2': 47, 'depth': 0.928, 'yaw': -14.8, 'datetime': '2018-12-12 11:23:54.396608', 'mgs': 0, 'flw2': 3.64, 'flw1': 1.67, 'flw0': 2.53, 'time': 16.63, 'compass': 26.64, 'pitch': 4.39, 'roll': 9.02}
{'lipoC2': 7.84, 'temp': 0.0, 'lipoC3S3': 11.8, 'state': 'normal', 'rot1': 57, 'rot0': 50, 'rot3': 42, 'rot2': 47, 'depth': 0.47, 'yaw': -12.15, 'datetime': '2018-12-12 11:23:54.606002', 'mgs': 0, 'flw2': 1.34, 'flw1': 1.61, 'flw0': 2.67, 'time': 16.84, 'compass': 29.29, 'pitch': 7.77, 'roll': 9.1}
{'lipoC2': 7.9, 'temp': 0.0, 'lipoC3S3': 11.73, 'state': 'normal', 'rot1': 60, 'rot0': 52, 'rot3': 43, 'rot2': 48, 'depth': 1.004, 'yaw': -11.19, 'datetime': '2018-12-12 11:23:54.815790', 'mgs': 0, 'flw2': 0.89, 'flw1': 1.85, 'flw0': 2.72, 'time': 17.05, 'compass': 30.25, 'pitch': 9.92, 'roll': 8.94}
{'lipoC2': 7.8, 'temp': 0.0, 'lipoC3S3': 11.94, 'state': 'normal', 'rot1': 63, 'rot0': 53, 'rot3': 43, 'rot2': 49, 'depth': 3.674, 'yaw': -12.51, 'datetime': '2018-12-12 11:23:55.028364', 'mgs': 0, 'flw2': 1.18, 'flw1': 1.79, 'flw0': 2.77, 'time': 17.26, 'compass': 28.93, 'pitch': 10.87, 'roll': 9.08}
{'lipoC2': 7.84, 'temp': 0.0, 'lipoC3S3': 11.84, 'state': 'normal', 'rot1': 65, 'rot0': 55, 'rot3': 44, 'rot2': 50, 'depth': 1.996, 'yaw': -15.32, 'datetime': '2018-12-12 11:23:55.236785', 'mgs': 0, 'flw2': 2.76, 'flw1': 2.75, 'flw0': 2.56, 'time': 17.47, 'compass': 26.12, 'pitch': 11.43, 'roll': 9.34}
{'lipoC2': 7.92, 'temp': 0.0, 'lipoC3S3': 11.71, 'state': 'normal', 'rot1': 68, 'rot0': 57, 'rot3': 45, 'rot2': 50, 'depth': 0.546, 'yaw': -17.92, 'datetime': '2018-12-12 11:23:55.448161', 'mgs': 0, 'flw2': 2.92, 'flw1': 1.7, 'flw0': 2.61, 'time': 17.68, 'compass': 23.52, 'pitch': 12.38, 'roll': 9.09}
{'lipoC2': 7.8, 'temp': 0.0, 'lipoC3S3': 12.08, 'state': 'normal', 'rot1': 71, 'rot0': 60, 'rot3': 45, 'rot2': 51, 'depth': 3.064, 'yaw': -20.06, 'datetime': '2018-12-12 11:23:55.656389', 'mgs': 0, 'flw2': 2.43, 'flw1': 2.43, 'flw0': 2.69, 'time': 17.89, 'compass': 21.38, 'pitch': 12.69, 'roll': 8.54}
{'lipoC2': 7.83, 'temp': 0.0, 'lipoC3S3': 12.14, 'state': 'normal', 'rot1': 73, 'rot0': 63, 'rot3': 46, 'rot2': 52, 'depth': 2.759, 'yaw': -21.87, 'datetime': '2018-12-12 11:23:55.865826', 'mgs': 0, 'flw2': 2.58, 'flw1': 2.72, 'flw0': 2.73, 'time': 18.1, 'compass': 19.57, 'pitch': 11.55, 'roll': 8.1}
{'lipoC2': 8.07, 'temp': 0.0, 'lipoC3S3': 11.76, 'state': 'normal', 'rot1': 76, 'rot0': 65, 'rot3': 47, 'rot2': 53, 'depth': -0.598, 'yaw': -23.42, 'datetime': '2018-12-12 11:23:56.086895', 'mgs': 0, 'flw2': 2.93, 'flw1': 1.64, 'flw0': 2.5, 'time': 18.31, 'compass': 18.02, 'pitch': 9.64, 'roll': 7.47}
{'lipoC2': 8.01, 'temp': 0.0, 'lipoC3S3': 11.73, 'state': 'normal', 'rot1': 79, 'rot0': 67, 'rot3': 47, 'rot2': 54, 'depth': -0.446, 'yaw': -24.61, 'datetime': '2018-12-12 11:23:56.290310', 'mgs': 0, 'flw2': 3.74, 'flw1': 1.67, 'flw0': 2.55, 'time': 18.52, 'compass': 16.84, 'pitch': 8.47, 'roll': 6.85}
{'lipoC2': 7.78, 'temp': 0.0, 'lipoC3S3': 11.75, 'state': 'normal', 'rot1': 81, 'rot0': 70, 'rot3': 48, 'rot2': 54, 'depth': 0.47, 'yaw': -25.1, 'datetime': '2018-12-12 11:23:56.505593', 'mgs': 0, 'flw2': 3.58, 'flw1': 2.31, 'flw0': 2.56, 'time': 18.73, 'compass': 16.34, 'pitch': 8.95, 'roll': 6.98}
{'lipoC2': 7.85, 'temp': 0.0, 'lipoC3S3': 11.61, 'state': 'normal', 'rot1': 84, 'rot0': 73, 'rot3': 49, 'rot2': 55, 'depth': 0.012, 'yaw': -25.05, 'datetime': '2018-12-12 11:23:56.716089', 'mgs': 0, 'flw2': 3.52, 'flw1': 2.52, 'flw0': 2.56, 'time': 18.94, 'compass': 16.39, 'pitch': 9.61, 'roll': 7.21}
{'lipoC2': 7.84, 'temp': 0.0, 'lipoC3S3': 12.14, 'state': 'normal', 'rot1': 87, 'rot0': 75, 'rot3': 49, 'rot2': 56, 'depth': 1.691, 'yaw': -25.1, 'datetime': '2018-12-12 11:23:56.923879', 'mgs': 0, 'flw2': 3.54, 'flw1': 2.43, 'flw0': 2.55, 'time': 19.15, 'compass': 16.35, 'pitch': 9.52, 'roll': 6.89}
{'lipoC2': 7.88, 'temp': 0.0, 'lipoC3S3': 11.69, 'state': 'normal', 'rot1': 89, 'rot0': 78, 'rot3': 50, 'rot2': 57, 'depth': 0.165, 'yaw': -25.08, 'datetime': '2018-12-12 11:23:57.130057', 'mgs': 0, 'flw2': 3.85, 'flw1': 1.64, 'flw0': 2.59, 'time': 19.36, 'compass': 16.37, 'pitch': 9.4, 'roll': 6.89}
{'lipoC2': 7.84, 'temp': 0.0, 'lipoC3S3': 12.05, 'state': 'normal', 'rot1': 92, 'rot0': 81, 'rot3': 51, 'rot2': 57, 'depth': 0.47, 'yaw': -24.67, 'datetime': '2018-12-12 11:23:57.339188', 'mgs': 0, 'flw2': 3.59, 'flw1': 1.41, 'flw0': 2.75, 'time': 19.57, 'compass': 16.77, 'pitch': 8.86, 'roll': 7.38}
{'lipoC2': 7.83, 'temp': 0.0, 'lipoC3S3': 12.13, 'state': 'normal', 'rot1': 94, 'rot0': 84, 'rot3': 52, 'rot2': 58, 'depth': 1.92, 'yaw': -24.15, 'datetime': '2018-12-12 11:23:57.548422', 'mgs': 0, 'flw2': 3.61, 'flw1': 2.02, 'flw0': 2.49, 'time': 19.78, 'compass': 17.29, 'pitch': 8.28, 'roll': 7.67}
{'lipoC2': 7.96, 'temp': 0.0, 'lipoC3S3': 11.69, 'state': 'normal', 'rot1': 97, 'rot0': 86, 'rot3': 52, 'rot2': 59, 'depth': 0.699, 'yaw': -23.89, 'datetime': '2018-12-12 11:23:57.761731', 'mgs': 0, 'flw2': 3.61, 'flw1': 2.75, 'flw0': 2.64, 'time': 19.99, 'compass': 17.55, 'pitch': 8.59, 'roll': 7.49}
{'lipoC2': 8.06, 'temp': 0.0, 'lipoC3S3': 11.8, 'state': 'normal', 'rot1': 99, 'rot0': 89, 'rot3': 53, 'rot2': 60, 'depth': -0.598, 'yaw': -23.69, 'datetime': '2018-12-12 11:23:57.969673', 'mgs': 0, 'flw2': 3.67, 'flw1': 1.85, 'flw0': 2.69, 'time': 20.2, 'compass': 17.75, 'pitch': 9.47, 'roll': 7.67}
{'lipoC2': 7.83, 'temp': 0.0, 'lipoC3S3': 11.72, 'state': 'normal', 'rot1': 102, 'rot0': 91, 'rot3': 54, 'rot2': 60, 'depth': 0.089, 'yaw': -23.28, 'datetime': '2018-12-12 11:23:58.178490', 'mgs': 0, 'flw2': 3.93, 'flw1': 1.73, 'flw0': 2.78, 'time': 20.41, 'compass': 18.16, 'pitch': 9.97, 'roll': 8.1}
{'lipoC2': 7.88, 'temp': 0.0, 'lipoC3S3': 11.79, 'state': 'normal', 'rot1': 104, 'rot0': 94, 'rot3': 54, 'rot2': 61, 'depth': 1.157, 'yaw': -22.59, 'datetime': '2018-12-12 11:23:58.389845', 'mgs': 0, 'flw2': 5.3, 'flw1': 2.67, 'flw0': 2.67, 'time': 20.62, 'compass': 18.85, 'pitch': 10.48, 'roll': 8.31}
{'lipoC2': 8.05, 'temp': 0.0, 'lipoC3S3': 11.94, 'state': 'normal', 'rot1': 106, 'rot0': 98, 'rot3': 55, 'rot2': 62, 'depth': 0.699, 'yaw': -21.08, 'datetime': '2018-12-12 11:23:58.601779', 'mgs': 0, 'flw2': 5.69, 'flw1': 1.85, 'flw0': 2.4, 'time': 20.83, 'compass': 20.36, 'pitch': 11.66, 'roll': 8.35}
{'lipoC2': 7.83, 'temp': 0.0, 'lipoC3S3': 12.13, 'state': 'normal', 'rot1': 109, 'rot0': 101, 'rot3': 56, 'rot2': 63, 'depth': 0.623, 'yaw': -18.77, 'datetime': '2018-12-12 11:23:58.814131', 'mgs': 0, 'flw2': 5.48, 'flw1': 2.67, 'flw0': 2.67, 'time': 21.04, 'compass': 22.67, 'pitch': 13.03, 'roll': 8.47}
{'lipoC2': 7.84, 'temp': 0.0, 'lipoC3S3': 12.12, 'state': 'normal', 'rot1': 111, 'rot0': 104, 'rot3': 57, 'rot2': 63, 'depth': 0.089, 'yaw': -15.95, 'datetime': '2018-12-12 11:23:59.020504', 'mgs': 0, 'flw2': 5.37, 'flw1': 2.43, 'flw0': 2.55, 'time': 21.25, 'compass': 25.49, 'pitch': 13.68, 'roll': 8.91}
{'lipoC2': 7.84, 'temp': 0.0, 'lipoC3S3': 11.63, 'state': 'normal', 'rot1': 114, 'rot0': 107, 'rot3': 57, 'rot2': 64, 'depth': 2.301, 'yaw': -12.75, 'datetime': '2018-12-12 11:23:59.228430', 'mgs': 0, 'flw2': 5.6, 'flw1': 1.67, 'flw0': 2.7, 'time': 21.46, 'compass': 28.69, 'pitch': 14.03, 'roll': 9.51}
{'lipoC2': 7.77, 'temp': 0.0, 'lipoC3S3': 11.81, 'state': 'normal', 'rot1': 116, 'rot0': 110, 'rot3': 58, 'rot2': 65, 'depth': 0.012, 'yaw': -9.57, 'datetime': '2018-12-12 11:23:59.441870', 'mgs': 0, 'flw2': 5.35, 'flw1': 2.67, 'flw0': 2.59, 'time': 21.67, 'compass': 31.87, 'pitch': 14.15, 'roll': 9.45}
{'lipoC2': 7.78, 'temp': 0.0, 'lipoC3S3': 11.8, 'state': 'normal', 'rot1': 118, 'rot0': 114, 'rot3': 59, 'rot2': 66, 'depth': 0.928, 'yaw': -6.45, 'datetime': '2018-12-12 11:23:59.652472', 'mgs': 0, 'flw2': 5.46, 'flw1': 2.34, 'flw0': 2.48, 'time': 21.88, 'compass': 34.99, 'pitch': 14.78, 'roll': 9.09}
{'lipoC2': 7.79, 'temp': 0.0, 'lipoC3S3': 11.83, 'state': 'normal', 'rot1': 121, 'rot0': 117, 'rot3': 59, 'rot2': 66, 'depth': 0.623, 'yaw': -2.8, 'datetime': '2018-12-12 11:23:59.865742', 'mgs': 0, 'flw2': 5.29, 'flw1': 2.11, 'flw0': 2.6, 'time': 22.09, 'compass': 38.64, 'pitch': 15.59, 'roll': 9.22}
{'lipoC2': 7.83, 'temp': 0.0, 'lipoC3S3': 11.68, 'state': 'normal', 'rot1': 124, 'rot0': 120, 'rot3': 61, 'rot2': 67, 'depth': 0.623, 'yaw': 1.06, 'datetime': '2018-12-12 11:24:00.074013', 'mgs': 0, 'flw2': 5.51, 'flw1': 1.52, 'flw0': 2.84, 'time': 22.3, 'compass': 42.5, 'pitch': 15.99, 'roll': 9.46}
{'lipoC2': 7.77, 'temp': 0.0, 'lipoC3S3': 11.92, 'state': 'normal', 'rot1': 126, 'rot0': 124, 'rot3': 61, 'rot2': 68, 'depth': 0.851, 'yaw': 4.83, 'datetime': '2018-12-12 11:24:00.286529', 'mgs': 0, 'flw2': 5.69, 'flw1': 1.76, 'flw0': 2.42, 'time': 22.51, 'compass': 46.27, 'pitch': 16.81, 'roll': 9.4}
{'lipoC2': 7.81, 'temp': 0.0, 'lipoC3S3': 11.85, 'state': 'normal', 'rot1': 129, 'rot0': 127, 'rot3': 62, 'rot2': 69, 'depth': 3.522, 'yaw': 8.45, 'datetime': '2018-12-12 11:24:00.497141', 'mgs': 0, 'flw2': 5.81, 'flw1': 1.85, 'flw0': 3.33, 'time': 22.72, 'compass': 49.89, 'pitch': 17.95, 'roll': 9.17}
{'lipoC2': 7.8, 'temp': 0.0, 'lipoC3S3': 11.89, 'state': 'normal', 'rot1': 131, 'rot0': 130, 'rot3': 63, 'rot2': 70, 'depth': -0.217, 'yaw': 11.74, 'datetime': '2018-12-12 11:24:00.708960', 'mgs': 0, 'flw2': 5.33, 'flw1': 1.61, 'flw0': 4.58, 'time': 22.93, 'compass': 53.18, 'pitch': 18.69, 'roll': 9.02}
{'lipoC2': 7.82, 'temp': 0.0, 'lipoC3S3': 11.9, 'state': 'normal', 'rot1': 134, 'rot0': 133, 'rot3': 63, 'rot2': 70, 'depth': 0.623, 'yaw': 13.9, 'datetime': '2018-12-12 11:24:00.918403', 'mgs': 0, 'flw2': 5.22, 'flw1': 1.9, 'flw0': 4.98, 'time': 23.14, 'compass': 55.34, 'pitch': 19.28, 'roll': 8.91}
{'lipoC2': 7.82, 'temp': 0.0, 'lipoC3S3': 11.75, 'state': 'normal', 'rot1': 138, 'rot0': 137, 'rot3': 64, 'rot2': 71, 'depth': 1.767, 'yaw': 15.17, 'datetime': '2018-12-12 11:24:01.127599', 'mgs': 0, 'flw2': 5.62, 'flw1': 2.7, 'flw0': 4.76, 'time': 23.35, 'compass': 56.61, 'pitch': 19.53, 'roll': 8.76}
{'lipoC2': 7.78, 'temp': 0.0, 'lipoC3S3': 11.61, 'state': 'normal', 'rot1': 140, 'rot0': 140, 'rot3': 65, 'rot2': 72, 'depth': 0.165, 'yaw': 16.21, 'datetime': '2018-12-12 11:24:01.338316', 'mgs': 0, 'flw2': 5.46, 'flw1': 2.2, 'flw0': 4.74, 'time': 23.56, 'compass': 57.65, 'pitch': 19.26, 'roll': 8.64}
{'lipoC2': 7.77, 'temp': 0.0, 'lipoC3S3': 11.85, 'state': 'normal', 'rot1': 143, 'rot0': 143, 'rot3': 65, 'rot2': 73, 'depth': 1.691, 'yaw': 17.0, 'datetime': '2018-12-12 11:24:01.548750', 'mgs': 0, 'flw2': 5.66, 'flw1': 2.05, 'flw0': 4.94, 'time': 23.77, 'compass': 58.44, 'pitch': 19.12, 'roll': 8.14}
{'lipoC2': 8.01, 'temp': 0.0, 'lipoC3S3': 11.5, 'state': 'normal', 'rot1': 147, 'rot0': 146, 'rot3': 66, 'rot2': 73, 'depth': -0.446, 'yaw': 17.63, 'datetime': '2018-12-12 11:24:01.760587', 'mgs': 0, 'flw2': 5.49, 'flw1': 1.23, 'flw0': 5.0, 'time': 23.98, 'compass': 59.07, 'pitch': 19.64, 'roll': 7.47}
{'lipoC2': 7.84, 'temp': 0.0, 'lipoC3S3': 12.0, 'state': 'normal', 'rot1': 150, 'rot0': 149, 'rot3': 66, 'rot2': 74, 'depth': 0.317, 'yaw': 18.38, 'datetime': '2018-12-12 11:24:01.971306', 'mgs': 0, 'flw2': 5.16, 'flw1': 2.05, 'flw0': 4.64, 'time': 24.19, 'compass': 59.82, 'pitch': 19.99, 'roll': 7.24}
{'lipoC2': 7.88, 'temp': 0.0, 'lipoC3S3': 11.76, 'state': 'normal', 'rot1': 153, 'rot0': 152, 'rot3': 67, 'rot2': 75, 'depth': 0.546, 'yaw': 19.08, 'datetime': '2018-12-12 11:24:02.181555', 'mgs': 0, 'flw2': 5.32, 'flw1': 2.64, 'flw0': 5.27, 'time': 24.4, 'compass': 60.52, 'pitch': 20.14, 'roll': 7.2}
{'lipoC2': 7.77, 'temp': 0.0, 'lipoC3S3': 11.83, 'state': 'normal', 'rot1': 157, 'rot0': 156, 'rot3': 68, 'rot2': 76, 'depth': -0.064, 'yaw': 19.76, 'datetime': '2018-12-12 11:24:02.391812', 'mgs': 0, 'flw2': 5.63, 'flw1': 2.31, 'flw0': 5.03, 'time': 24.61, 'compass': 61.2, 'pitch': 20.03, 'roll': 6.85}
{'lipoC2': 7.99, 'temp': 0.0, 'lipoC3S3': 11.51, 'state': 'normal', 'rot1': 160, 'rot0': 159, 'rot3': 68, 'rot2': 77, 'depth': -0.293, 'yaw': 20.6, 'datetime': '2018-12-12 11:24:02.602821', 'mgs': 0, 'flw2': 5.68, 'flw1': 1.58, 'flw0': 5.03, 'time': 24.82, 'compass': 62.05, 'pitch': 19.04, 'roll': 6.41}
{'lipoC2': 7.83, 'temp': 0.0, 'lipoC3S3': 11.92, 'state': 'normal', 'rot1': 163, 'rot0': 162, 'rot3': 69, 'rot2': 77, 'depth': 0.47, 'yaw': 21.67, 'datetime': '2018-12-12 11:24:02.814479', 'mgs': 0, 'flw2': 5.21, 'flw1': 2.46, 'flw0': 5.36, 'time': 25.03, 'compass': 63.11, 'pitch': 18.4, 'roll': 6.17}
{'lipoC2': 7.77, 'temp': 0.0, 'lipoC3S3': 11.72, 'state': 'normal', 'rot1': 166, 'rot0': 165, 'rot3': 70, 'rot2': 78, 'depth': -0.217, 'yaw': 22.75, 'datetime': '2018-12-12 11:24:03.025398', 'mgs': 0, 'flw2': 5.38, 'flw1': 2.58, 'flw0': 5.26, 'time': 25.25, 'compass': 64.19, 'pitch': 18.53, 'roll': 5.63}
{'lipoC2': 7.82, 'temp': 0.0, 'lipoC3S3': 11.72, 'state': 'normal', 'rot1': 170, 'rot0': 168, 'rot3': 70, 'rot2': 79, 'depth': 1.385, 'yaw': 23.61, 'datetime': '2018-12-12 11:24:03.234344', 'mgs': 0, 'flw2': 5.75, 'flw1': 1.82, 'flw0': 5.41, 'time': 25.46, 'compass': 65.05, 'pitch': 18.89, 'roll': 5.04}
{'lipoC2': 7.95, 'temp': 0.0, 'lipoC3S3': 11.71, 'state': 'normal', 'rot1': 173, 'rot0': 171, 'rot3': 71, 'rot2': 80, 'depth': 1.614, 'yaw': 24.61, 'datetime': '2018-12-12 11:24:03.444989', 'mgs': 0, 'flw2': 5.46, 'flw1': 2.67, 'flw0': 5.21, 'time': 25.67, 'compass': 66.05, 'pitch': 19.48, 'roll': 4.93}
{'lipoC2': 7.8, 'temp': 0.0, 'lipoC3S3': 11.9, 'state': 'normal', 'rot1': 177, 'rot0': 173, 'rot3': 72, 'rot2': 81, 'depth': 0.317, 'yaw': 25.87, 'datetime': '2018-12-12 11:24:03.656039', 'mgs': 0, 'flw2': 0.0, 'flw1': 1.9, 'flw0': 1.43, 'time': 25.88, 'compass': 67.31, 'pitch': 20.29, 'roll': 5.1}
{'lipoC2': 7.85, 'temp': 0.0, 'lipoC3S3': 11.84, 'state': 'normal', 'rot1': 177, 'rot0': 173, 'rot3': 72, 'rot2': 81, 'depth': 1.92, 'yaw': 26.66, 'datetime': '2018-12-12 11:24:03.867054', 'mgs': 0, 'flw2': 0.09, 'flw1': 1.73, 'flw0': 0.28, 'time': 26.09, 'compass': 68.1, 'pitch': 19.0, 'roll': 5.23}
{'lipoC2': 7.84, 'temp': 0.0, 'lipoC3S3': 12.18, 'state': 'normal', 'rot1': 177, 'rot0': 173, 'rot3': 73, 'rot2': 82, 'depth': 1.92, 'yaw': 27.31, 'datetime': '2018-12-12 11:24:04.077941', 'mgs': 0, 'flw2': 0.0, 'flw1': 2.64, 'flw0': 0.0, 'time': 26.3, 'compass': 68.75, 'pitch': 15.65, 'roll': 4.94}
{'lipoC2': 7.84, 'temp': 0.0, 'lipoC3S3': 12.16, 'state': 'normal', 'rot1': 177, 'rot0': 173, 'rot3': 73, 'rot2': 83, 'depth': 1.462, 'yaw': 28.12, 'datetime': '2018-12-12 11:24:04.287415', 'mgs': 0, 'flw2': 0.0, 'flw1': 1.38, 'flw0': 0.1, 'time': 26.51, 'compass': 69.57, 'pitch': 13.09, 'roll': 4.75}
{'lipoC2': 7.87, 'temp': 0.0, 'lipoC3S3': 11.73, 'state': 'normal', 'rot1': 177, 'rot0': 173, 'rot3': 74, 'rot2': 84, 'depth': 0.241, 'yaw': 29.29, 'datetime': '2018-12-12 11:24:04.497178', 'mgs': 0, 'flw2': 0.0, 'flw1': 1.76, 'flw0': 0.0, 'time': 26.72, 'compass': 70.73, 'pitch': 11.45, 'roll': 5.12}
{'lipoC2': 7.94, 'temp': 0.0, 'lipoC3S3': 11.72, 'state': 'normal', 'rot1': 177, 'rot0': 173, 'rot3': 75, 'rot2': 85, 'depth': 0.699, 'yaw': 30.61, 'datetime': '2018-12-12 11:24:04.707809', 'mgs': 0, 'flw2': 0.0, 'flw1': 1.52, 'flw0': 0.0, 'time': 26.93, 'compass': 72.05, 'pitch': 9.57, 'roll': 5.66}
{'lipoC2': 8.0, 'temp': 0.0, 'lipoC3S3': 11.87, 'state': 'normal', 'rot1': 177, 'rot0': 173, 'rot3': 75, 'rot2': 85, 'depth': 2.835, 'yaw': 31.95, 'datetime': '2018-12-12 11:24:04.917662', 'mgs': 0, 'flw2': 0.12, 'flw1': 1.73, 'flw0': 0.26, 'time': 27.14, 'compass': 73.39, 'pitch': 7.02, 'roll': 5.74}
{'lipoC2': 7.97, 'temp': 0.0, 'lipoC3S3': 11.73, 'state': 'normal', 'rot1': 177, 'rot0': 173, 'rot3': 76, 'rot2': 86, 'depth': 0.623, 'yaw': 33.33, 'datetime': '2018-12-12 11:24:05.124213', 'mgs': 0, 'flw2': 0.0, 'flw1': 1.67, 'flw0': 0.0, 'time': 27.35, 'compass': 74.77, 'pitch': 4.8, 'roll': 5.46}
{'lipoC2': 7.82, 'temp': 0.0, 'lipoC3S3': 12.17, 'state': 'normal', 'rot1': 177, 'rot0': 173, 'rot3': 77, 'rot2': 87, 'depth': 2.377, 'yaw': 34.97, 'datetime': '2018-12-12 11:24:05.335760', 'mgs': 0, 'flw2': 0.2, 'flw1': 1.67, 'flw0': 0.15, 'time': 27.56, 'compass': 76.41, 'pitch': 4.04, 'roll': 5.12}
{'lipoC2': 7.8, 'temp': 0.0, 'lipoC3S3': 12.1, 'state': 'normal', 'rot1': 177, 'rot0': 173, 'rot3': 77, 'rot2': 88, 'depth': 0.317, 'yaw': 36.98, 'datetime': '2018-12-12 11:24:05.545416', 'mgs': 0, 'flw2': 0.0, 'flw1': 1.44, 'flw0': 0.29, 'time': 27.77, 'compass': 78.42, 'pitch': 4.85, 'roll': 4.71}
{'lipoC2': 7.84, 'temp': 0.0, 'lipoC3S3': 12.12, 'state': 'normal', 'rot1': 178, 'rot0': 173, 'rot3': 78, 'rot2': 89, 'depth': 0.089, 'yaw': 39.24, 'datetime': '2018-12-12 11:24:05.757626', 'mgs': 0, 'flw2': 0.0, 'flw1': 2.4, 'flw0': 1.44, 'time': 27.98, 'compass': 80.68, 'pitch': 5.82, 'roll': 3.86}
{'lipoC2': 7.81, 'temp': 0.0, 'lipoC3S3': 11.9, 'state': 'normal', 'rot1': 180, 'rot0': 173, 'rot3': 79, 'rot2': 89, 'depth': 2.53, 'yaw': 40.54, 'datetime': '2018-12-12 11:24:05.966484', 'mgs': 0, 'flw2': 0.0, 'flw1': 2.43, 'flw0': 2.43, 'time': 28.19, 'compass': 81.98, 'pitch': 6.46, 'roll': 2.67}
{'lipoC2': 7.8, 'temp': 0.0, 'lipoC3S3': 11.68, 'state': 'normal', 'rot1': 183, 'rot0': 173, 'rot3': 80, 'rot2': 90, 'depth': 0.317, 'yaw': 39.96, 'datetime': '2018-12-12 11:24:06.176214', 'mgs': 0, 'flw2': 0.17, 'flw1': 1.9, 'flw0': 3.33, 'time': 28.4, 'compass': 81.4, 'pitch': 7.89, 'roll': 1.86}
{'lipoC2': 7.83, 'temp': 0.0, 'lipoC3S3': 11.75, 'state': 'normal', 'rot1': 185, 'rot0': 173, 'rot3': 80, 'rot2': 91, 'depth': 0.928, 'yaw': 37.34, 'datetime': '2018-12-12 11:24:06.387527', 'mgs': 0, 'flw2': 0.0, 'flw1': 1.29, 'flw0': 3.5, 'time': 28.61, 'compass': 78.78, 'pitch': 10.64, 'roll': 1.66}
{'lipoC2': 7.78, 'temp': 0.0, 'lipoC3S3': 12.02, 'state': 'normal', 'rot1': 188, 'rot0': 173, 'rot3': 81, 'rot2': 92, 'depth': 1.157, 'yaw': 33.3, 'datetime': '2018-12-12 11:24:06.597935', 'mgs': 0, 'flw2': 0.0, 'flw1': 2.43, 'flw0': 3.11, 'time': 28.82, 'compass': 74.74, 'pitch': 13.14, 'roll': 1.77}
{'lipoC2': 7.88, 'temp': 0.0, 'lipoC3S3': 11.75, 'state': 'normal', 'rot1': 191, 'rot0': 173, 'rot3': 82, 'rot2': 93, 'depth': 0.394, 'yaw': 28.11, 'datetime': '2018-12-12 11:24:06.806964', 'mgs': 0, 'flw2': 0.0, 'flw1': 2.52, 'flw0': 3.26, 'time': 29.03, 'compass': 69.55, 'pitch': 14.94, 'roll': 2.04}
{'lipoC2': 7.84, 'temp': 0.0, 'lipoC3S3': 12.18, 'state': 'normal', 'rot1': 194, 'rot0': 173, 'rot3': 82, 'rot2': 93, 'depth': 1.996, 'yaw': 22.18, 'datetime': '2018-12-12 11:24:07.020072', 'mgs': 0, 'flw2': 0.0, 'flw1': 2.17, 'flw0': 2.32, 'time': 29.24, 'compass': 63.62, 'pitch': 16.58, 'roll': 2.98}
{'lipoC2': 7.82, 'temp': 0.0, 'lipoC3S3': 12.19, 'state': 'normal', 'rot1': 194, 'rot0': 173, 'rot3': 83, 'rot2': 94, 'depth': 1.08, 'yaw': 16.9, 'datetime': '2018-12-12 11:24:07.230253', 'mgs': 0, 'flw2': 0.0, 'flw1': 2.64, 'flw0': 0.0, 'time': 29.45, 'compass': 58.34, 'pitch': 16.91, 'roll': 4.48}
{'lipoC2': 7.85, 'temp': 0.0, 'lipoC3S3': 11.87, 'state': 'normal', 'rot1': 194, 'rot0': 173, 'rot3': 84, 'rot2': 95, 'depth': 1.843, 'yaw': 13.56, 'datetime': '2018-12-12 11:24:07.438481', 'mgs': 0, 'flw2': 0.0, 'flw1': 2.2, 'flw0': 0.0, 'time': 29.66, 'compass': 55.0, 'pitch': 14.83, 'roll': 5.8}
{'lipoC2': 8.07, 'temp': 0.0, 'lipoC3S3': 11.87, 'state': 'normal', 'rot1': 194, 'rot0': 173, 'rot3': 85, 'rot2': 96, 'depth': -0.293, 'yaw': 11.26, 'datetime': '2018-12-12 11:24:07.651253', 'mgs': 0, 'flw2': 0.11, 'flw1': 1.67, 'flw0': 0.23, 'time': 29.87, 'compass': 52.7, 'pitch': 11.96, 'roll': 7.02}
{'lipoC2': 7.8, 'temp': 0.0, 'lipoC3S3': 12.06, 'state': 'normal', 'rot1': 194, 'rot0': 173, 'rot3': 85, 'rot2': 96, 'depth': 2.759, 'yaw': 9.65, 'datetime': '2018-12-12 11:24:07.860673', 'mgs': 0, 'flw2': 0.0, 'flw1': 1.41, 'flw0': 0.28, 'time': 30.08, 'compass': 51.09, 'pitch': 9.5, 'roll': 8.31}
{'lipoC2': 7.88, 'temp': 0.0, 'lipoC3S3': 11.71, 'state': 'normal', 'rot1': 194, 'rot0': 173, 'rot3': 86, 'rot2': 97, 'depth': 1.614, 'yaw': 8.48, 'datetime': '2018-12-12 11:24:08.071035', 'mgs': 0, 'flw2': 0.15, 'flw1': 1.7, 'flw0': 0.0, 'time': 30.29, 'compass': 49.92, 'pitch': 7.56, 'roll': 9.33}
{'lipoC2': 7.83, 'temp': 0.0, 'lipoC3S3': 11.88, 'state': 'normal', 'rot1': 194, 'rot0': 173, 'rot3': 87, 'rot2': 98, 'depth': 0.012, 'yaw': 7.64, 'datetime': '2018-12-12 11:24:08.282978', 'mgs': 0, 'flw2': 0.0, 'flw1': 1.76, 'flw0': 0.0, 'time': 30.5, 'compass': 49.08, 'pitch': 6.13, 'roll': 9.87}
{'lipoC2': 7.81, 'temp': 0.0, 'lipoC3S3': 12.16, 'state': 'normal', 'rot1': 194, 'rot0': 173, 'rot3': 87, 'rot2': 99, 'depth': 0.165, 'yaw': 7.18, 'datetime': '2018-12-12 11:24:08.494424', 'mgs': 0, 'flw2': 0.0, 'flw1': 1.41, 'flw0': 0.0, 'time': 30.71, 'compass': 48.62, 'pitch': 5.33, 'roll': 10.08}
{'lipoC2': 7.92, 'temp': 0.0, 'lipoC3S3': 11.67, 'state': 'normal', 'rot1': 194, 'rot0': 173, 'rot3': 88, 'rot2': 99, 'depth': 0.546, 'yaw': 7.13, 'datetime': '2018-12-12 11:24:08.706066', 'mgs': 0, 'flw2': 0.11, 'flw1': 2.99, 'flw0': 0.2, 'time': 30.92, 'compass': 48.57, 'pitch': 5.27, 'roll': 9.94}
{'lipoC2': 7.8, 'temp': 0.0, 'lipoC3S3': 12.08, 'state': 'normal', 'rot1': 195, 'rot0': 174, 'rot3': 89, 'rot2': 100, 'depth': 4.285, 'yaw': 7.49, 'datetime': '2018-12-12 11:24:08.910888', 'mgs': 0, 'flw2': 3.7, 'flw1': 3.02, 'flw0': 3.82, 'time': 31.13, 'compass': 48.94, 'pitch': 6.1, 'roll': 9.27}
{'lipoC2': 7.92, 'temp': 0.0, 'lipoC3S3': 11.8, 'state': 'normal', 'rot1': 200, 'rot0': 178, 'rot3': 89, 'rot2': 101, 'depth': 1.233, 'yaw': 11.66, 'datetime': '2018-12-12 11:24:09.121080', 'mgs': 0, 'flw2': 1.81, 'flw1': 2.55, 'flw0': 1.64, 'time': 31.34, 'compass': 53.1, 'pitch': 8.63, 'roll': 8.63}
{'lipoC2': 7.83, 'temp': 0.0, 'lipoC3S3': 12.23, 'state': 'normal', 'rot1': 203, 'rot0': 182, 'rot3': 90, 'rot2': 102, 'depth': 0.623, 'yaw': 18.59, 'datetime': '2018-12-12 11:24:09.331413', 'mgs': 0, 'flw2': 0.51, 'flw1': 3.75, 'flw0': 0.71, 'time': 31.55, 'compass': 60.03, 'pitch': 11.78, 'roll': 7.77}
{'lipoC2': 7.82, 'temp': 0.0, 'lipoC3S3': 11.65, 'state': 'normal', 'rot1': 206, 'rot0': 184, 'rot3': 91, 'rot2': 103, 'depth': 0.928, 'yaw': 26.51, 'datetime': '2018-12-12 11:24:09.541582', 'mgs': 0, 'flw2': 0.4, 'flw1': 2.37, 'flw0': 0.84, 'time': 31.76, 'compass': 67.95, 'pitch': 14.27, 'roll': 6.29}
{'lipoC2': 7.8, 'temp': 0.0, 'lipoC3S3': 11.84, 'state': 'normal', 'rot1': 208, 'rot0': 185, 'rot3': 92, 'rot2': 104, 'depth': 3.369, 'yaw': 34.24, 'datetime': '2018-12-12 11:24:09.753308', 'mgs': 0, 'flw2': 0.65, 'flw1': 2.7, 'flw0': 0.15, 'time': 31.97, 'compass': 75.68, 'pitch': 15.84, 'roll': 4.5}
{'lipoC2': 7.78, 'temp': 0.0, 'lipoC3S3': 11.92, 'state': 'normal', 'rot1': 211, 'rot0': 186, 'rot3': 92, 'rot2': 105, 'depth': 0.241, 'yaw': 41.58, 'datetime': '2018-12-12 11:24:09.963440', 'mgs': 0, 'flw2': 0.26, 'flw1': 2.52, 'flw0': 0.61, 'time': 32.18, 'compass': 83.02, 'pitch': 16.3, 'roll': 2.62}
{'lipoC2': 7.82, 'temp': 0.0, 'lipoC3S3': 12.21, 'state': 'normal', 'rot1': 214, 'rot0': 188, 'rot3': 93, 'rot2': 106, 'depth': 1.233, 'yaw': 48.88, 'datetime': '2018-12-12 11:24:10.173288', 'mgs': 0, 'flw2': 1.27, 'flw1': 2.58, 'flw0': 1.28, 'time': 32.39, 'compass': 90.32, 'pitch': 15.48, 'roll': 0.71}
{'lipoC2': 8.12, 'temp': 0.0, 'lipoC3S3': 11.63, 'state': 'normal', 'rot1': 217, 'rot0': 190, 'rot3': 94, 'rot2': 107, 'depth': 0.546, 'yaw': 57.42, 'datetime': '2018-12-12 11:24:10.385434', 'mgs': 0, 'flw2': 1.45, 'flw1': 2.78, 'flw0': 1.79, 'time': 32.6, 'compass': 98.86, 'pitch': 14.0, 'roll': -1.13}
{'lipoC2': 8.07, 'temp': 0.0, 'lipoC3S3': 11.71, 'state': 'normal', 'rot1': 221, 'rot0': 194, 'rot3': 95, 'rot2': 108, 'depth': -0.598, 'yaw': 67.8, 'datetime': '2018-12-12 11:24:10.597244', 'mgs': 0, 'flw2': 2.99, 'flw1': 2.72, 'flw0': 3.04, 'time': 32.81, 'compass': 109.24, 'pitch': 12.57, 'roll': -2.66}
{'lipoC2': 7.8, 'temp': 0.0, 'lipoC3S3': 11.92, 'state': 'normal', 'rot1': 225, 'rot0': 198, 'rot3': 96, 'rot2': 109, 'depth': 1.233, 'yaw': 80.46, 'datetime': '2018-12-12 11:24:10.807553', 'mgs': 0, 'flw2': 2.6, 'flw1': 2.58, 'flw0': 2.78, 'time': 33.02, 'compass': 121.9, 'pitch': 10.93, 'roll': -3.91}
{'lipoC2': 7.81, 'temp': 0.0, 'lipoC3S3': 12.04, 'state': 'normal', 'rot1': 231, 'rot0': 201, 'rot3': 96, 'rot2': 110, 'depth': 0.394, 'yaw': 94.72, 'datetime': '2018-12-12 11:24:11.018970', 'mgs': 0, 'flw2': 2.19, 'flw1': 3.63, 'flw0': 2.47, 'time': 33.23, 'compass': 136.16, 'pitch': 8.83, 'roll': -5.12}
{'lipoC2': 7.95, 'temp': 0.0, 'lipoC3S3': 11.79, 'state': 'normal', 'rot1': 235, 'rot0': 205, 'rot3': 97, 'rot2': 111, 'depth': 0.775, 'yaw': 109.71, 'datetime': '2018-12-12 11:24:11.228569', 'mgs': 0, 'flw2': 2.66, 'flw1': 3.08, 'flw0': 3.02, 'time': 33.44, 'compass': 151.15, 'pitch': 7.05, 'roll': -6.35}
{'lipoC2': 7.82, 'temp': 0.0, 'lipoC3S3': 12.16, 'state': 'normal', 'rot1': 240, 'rot0': 208, 'rot3': 98, 'rot2': 112, 'depth': 2.911, 'yaw': 125.19, 'datetime': '2018-12-12 11:24:11.441407', 'mgs': 0, 'flw2': 2.55, 'flw1': 3.69, 'flw0': 3.0, 'time': 33.65, 'compass': 166.63, 'pitch': 5.58, 'roll': -7.6}
{'lipoC2': 8.0, 'temp': 0.0, 'lipoC3S3': 11.51, 'state': 'normal', 'rot1': 244, 'rot0': 212, 'rot3': 98, 'rot2': 113, 'depth': -0.903, 'yaw': 141.31, 'datetime': '2018-12-12 11:24:11.650629', 'mgs': 0, 'flw2': 2.73, 'flw1': 2.2, 'flw0': 3.59, 'time': 33.87, 'compass': -177.25, 'pitch': 4.05, 'roll': -8.46}
{'lipoC2': 7.73, 'temp': 0.0, 'lipoC3S3': 12.22, 'state': 'normal', 'rot1': 249, 'rot0': 218, 'rot3': 99, 'rot2': 114, 'depth': 2.835, 'yaw': 158.02, 'datetime': '2018-12-12 11:24:11.863665', 'mgs': 0, 'flw2': 3.33, 'flw1': 3.4, 'flw0': 3.43, 'time': 34.08, 'compass': -160.54, 'pitch': 2.2, 'roll': -8.45}
{'lipoC2': 7.81, 'temp': 0.0, 'lipoC3S3': 12.04, 'state': 'normal', 'rot1': 254, 'rot0': 222, 'rot3': 100, 'rot2': 115, 'depth': 0.47, 'yaw': 175.33, 'datetime': '2018-12-12 11:24:12.073979', 'mgs': 0, 'flw2': 3.8, 'flw1': 3.08, 'flw0': 4.0, 'time': 34.29, 'compass': -143.23, 'pitch': -0.39, 'roll': -7.16}
{'lipoC2': 7.81, 'temp': 0.0, 'lipoC3S3': 11.96, 'state': 'normal', 'rot1': 259, 'rot0': 225, 'rot3': 101, 'rot2': 116, 'depth': 3.369, 'yaw': -166.78, 'datetime': '2018-12-12 11:24:12.284998', 'mgs': 0, 'flw2': 3.63, 'flw1': 2.99, 'flw0': 3.91, 'time': 34.5, 'compass': -125.34, 'pitch': -3.58, 'roll': -4.14}
{'lipoC2': 7.81, 'temp': 0.0, 'lipoC3S3': 11.79, 'state': 'normal', 'rot1': 264, 'rot0': 229, 'rot3': 102, 'rot2': 117, 'depth': 2.988, 'yaw': -148.76, 'datetime': '2018-12-12 11:24:12.498296', 'mgs': 0, 'flw2': 3.38, 'flw1': 2.52, 'flw0': 3.26, 'time': 34.71, 'compass': -107.32, 'pitch': -5.78, 'roll': -0.07}
{'lipoC2': 7.8, 'temp': 0.0, 'lipoC3S3': 12.13, 'state': 'normal', 'rot1': 271, 'rot0': 233, 'rot3': 102, 'rot2': 118, 'depth': 4.132, 'yaw': -131.04, 'datetime': '2018-12-12 11:24:12.708334', 'mgs': 0, 'flw2': 3.91, 'flw1': 3.37, 'flw0': 4.08, 'time': 34.92, 'compass': -89.6, 'pitch': -6.47, 'roll': 3.76}
{'lipoC2': 7.75, 'temp': 0.0, 'lipoC3S3': 11.71, 'state': 'normal', 'rot1': 277, 'rot0': 238, 'rot3': 103, 'rot2': 119, 'depth': 1.309, 'yaw': -112.92, 'datetime': '2018-12-12 11:24:12.920006', 'mgs': 0, 'flw2': 4.31, 'flw1': 2.75, 'flw0': 4.37, 'time': 35.13, 'compass': -71.48, 'pitch': -5.73, 'roll': 7.65}
{'lipoC2': 7.8, 'temp': 0.0, 'lipoC3S3': 11.68, 'state': 'normal', 'rot1': 282, 'rot0': 244, 'rot3': 104, 'rot2': 120, 'depth': -0.064, 'yaw': -93.63, 'datetime': '2018-12-12 11:24:13.131203', 'mgs': 0, 'flw2': 3.8, 'flw1': 3.52, 'flw0': 4.42, 'time': 35.34, 'compass': -52.19, 'pitch': -3.1, 'roll': 11.45}
{'lipoC2': 8.04, 'temp': 0.0, 'lipoC3S3': 11.42, 'state': 'normal', 'rot1': 287, 'rot0': 248, 'rot3': 104, 'rot2': 121, 'depth': 1.843, 'yaw': -73.42, 'datetime': '2018-12-12 11:24:13.341614', 'mgs': 0, 'flw2': 3.54, 'flw1': 3.57, 'flw0': 3.93, 'time': 35.55, 'compass': -31.97, 'pitch': 0.46, 'roll': 14.15}
{'lipoC2': 7.82, 'temp': 0.0, 'lipoC3S3': 12.0, 'state': 'normal', 'rot1': 293, 'rot0': 253, 'rot3': 105, 'rot2': 122, 'depth': 3.522, 'yaw': -52.99, 'datetime': '2018-12-12 11:24:13.551877', 'mgs': 0, 'flw2': 2.72, 'flw1': 2.43, 'flw0': 3.54, 'time': 35.76, 'compass': -11.55, 'pitch': 3.76, 'roll': 15.8}
{'lipoC2': 7.83, 'temp': 0.0, 'lipoC3S3': 12.12, 'state': 'normal', 'rot1': 298, 'rot0': 256, 'rot3': 106, 'rot2': 123, 'depth': 0.165, 'yaw': -33.35, 'datetime': '2018-12-12 11:24:13.764251', 'mgs': 0, 'flw2': 2.28, 'flw1': 2.49, 'flw0': 1.97, 'time': 35.98, 'compass': 8.09, 'pitch': 6.97, 'roll': 16.16}
{'lipoC2': 7.95, 'temp': 0.0, 'lipoC3S3': 11.58, 'state': 'normal', 'rot1': 301, 'rot0': 259, 'rot3': 107, 'rot2': 124, 'depth': 0.851, 'yaw': -14.74, 'datetime': '2018-12-12 11:24:13.976281', 'mgs': 0, 'flw2': 1.54, 'flw1': 3.54, 'flw0': 1.68, 'time': 36.19, 'compass': 26.7, 'pitch': 10.56, 'roll': 15.4}
{'lipoC2': 7.77, 'temp': 0.0, 'lipoC3S3': 11.83, 'state': 'normal', 'rot1': 306, 'rot0': 262, 'rot3': 108, 'rot2': 125, 'depth': 2.53, 'yaw': 2.87, 'datetime': '2018-12-12 11:24:14.185825', 'mgs': 0, 'flw2': 1.42, 'flw1': 2.14, 'flw0': 1.86, 'time': 36.4, 'compass': 44.31, 'pitch': 13.5, 'roll': 13.24}
{'lipoC2': 8.05, 'temp': 0.0, 'lipoC3S3': 11.65, 'state': 'normal', 'rot1': 310, 'rot0': 264, 'rot3': 108, 'rot2': 126, 'depth': -0.598, 'yaw': 19.37, 'datetime': '2018-12-12 11:24:14.398380', 'mgs': 0, 'flw2': 1.35, 'flw1': 2.72, 'flw0': 1.7, 'time': 36.61, 'compass': 60.81, 'pitch': 14.97, 'roll': 10.2}
{'lipoC2': 7.82, 'temp': 0.0, 'lipoC3S3': 12.16, 'state': 'normal', 'rot1': 313, 'rot0': 267, 'rot3': 109, 'rot2': 127, 'depth': 2.072, 'yaw': 34.82, 'datetime': '2018-12-12 11:24:14.608648', 'mgs': 0, 'flw2': 1.01, 'flw1': 2.87, 'flw0': 1.14, 'time': 36.82, 'compass': 76.26, 'pitch': 16.06, 'roll': 6.96}
{'lipoC2': 8.11, 'temp': 0.0, 'lipoC3S3': 11.68, 'state': 'normal', 'rot1': 316, 'rot0': 269, 'rot3': 110, 'rot2': 128, 'depth': -0.446, 'yaw': 49.42, 'datetime': '2018-12-12 11:24:14.820273', 'mgs': 0, 'flw2': 0.52, 'flw1': 3.6, 'flw0': 0.71, 'time': 37.03, 'compass': 90.86, 'pitch': 16.55, 'roll': 3.46}
{'lipoC2': 8.06, 'temp': 0.0, 'lipoC3S3': 11.83, 'state': 'normal', 'rot1': 319, 'rot0': 271, 'rot3': 111, 'rot2': 129, 'depth': -0.598, 'yaw': 63.17, 'datetime': '2018-12-12 11:24:15.030575', 'mgs': 0, 'flw2': 1.49, 'flw1': 2.43, 'flw0': 1.9, 'time': 37.24, 'compass': 104.61, 'pitch': 15.6, 'roll': -0.21}
{'lipoC2': 7.94, 'temp': 0.0, 'lipoC3S3': 11.68, 'state': 'normal', 'rot1': 323, 'rot0': 274, 'rot3': 111, 'rot2': 130, 'depth': 0.623, 'yaw': 77.42, 'datetime': '2018-12-12 11:24:15.242785', 'mgs': 0, 'flw2': 2.45, 'flw1': 2.37, 'flw0': 2.12, 'time': 37.45, 'compass': 118.86, 'pitch': 13.7, 'roll': -3.26}
{'lipoC2': 7.75, 'temp': 0.0, 'lipoC3S3': 11.67, 'state': 'normal', 'rot1': 328, 'rot0': 277, 'rot3': 112, 'rot2': 131, 'depth': 0.546, 'yaw': 93.1, 'datetime': '2018-12-12 11:24:15.451460', 'mgs': 0, 'flw2': 2.36, 'flw1': 2.37, 'flw0': 2.04, 'time': 37.66, 'compass': 134.54, 'pitch': 11.5, 'roll': -5.34}
{'lipoC2': 7.82, 'temp': 0.0, 'lipoC3S3': 12.18, 'state': 'normal', 'rot1': 330, 'rot0': 282, 'rot3': 113, 'rot2': 132, 'depth': 0.394, 'yaw': 109.33, 'datetime': '2018-12-12 11:24:15.664981', 'mgs': 0, 'flw2': 0.82, 'flw1': 2.87, 'flw0': 0.65, 'time': 37.87, 'compass': 150.77, 'pitch': 8.22, 'roll': -7.3}
{'lipoC2': 7.85, 'temp': 0.0, 'lipoC3S3': 11.97, 'state': 'normal', 'rot1': 333, 'rot0': 283, 'rot3': 114, 'rot2': 133, 'depth': 0.47, 'yaw': 124.63, 'datetime': '2018-12-12 11:24:15.874867', 'mgs': 0, 'flw2': 0.0, 'flw1': 1.05, 'flw0': 0.0, 'time': 38.08, 'compass': 166.07, 'pitch': 3.87, 'roll': -9.08}
{'lipoC2': 7.76, 'temp': 0.0, 'lipoC3S3': 12.22, 'state': 'normal', 'rot1': 335, 'rot0': 285, 'rot3': 114, 'rot2': 134, 'depth': 2.682, 'yaw': 137.33, 'datetime': '2018-12-12 11:24:16.086115', 'mgs': 0, 'flw2': 2.92, 'flw1': 3.54, 'flw0': 0.0, 'time': 38.29, 'compass': 178.77, 'pitch': 0.9, 'roll': -10.29}
{'lipoC2': 7.81, 'temp': 0.0, 'lipoC3S3': 12.05, 'state': 'normal', 'rot1': 335, 'rot0': 289, 'rot3': 115, 'rot2': 135, 'depth': 0.012, 'yaw': 150.35, 'datetime': '2018-12-12 11:24:16.297260', 'mgs': 0, 'flw2': 0.02, 'flw1': 3.22, 'flw0': 4.24, 'time': 38.51, 'compass': -168.21, 'pitch': -0.46, 'roll': -10.15}
{'lipoC2': 7.79, 'temp': 0.0, 'lipoC3S3': 11.79, 'state': 'normal', 'rot1': 340, 'rot0': 290, 'rot3': 115, 'rot2': 136, 'depth': 0.317, 'yaw': 161.47, 'datetime': '2018-12-12 11:24:16.508372', 'mgs': 0, 'flw2': 0.0, 'flw1': 0.73, 'flw0': 2.77, 'time': 38.72, 'compass': -157.09, 'pitch': -2.15, 'roll': -9.26}
{'lipoC2': 7.93, 'temp': 0.0, 'lipoC3S3': 11.63, 'state': 'normal', 'rot1': 343, 'rot0': 291, 'rot3': 116, 'rot2': 136, 'depth': 0.47, 'yaw': 167.98, 'datetime': '2018-12-12 11:24:16.720121', 'mgs': 0, 'flw2': 2.99, 'flw1': 4.34, 'flw0': 0.0, 'time': 38.93, 'compass': -150.58, 'pitch': -3.91, 'roll': -8.39}
{'lipoC2': 8.07, 'temp': 0.0, 'lipoC3S3': 11.79, 'state': 'normal', 'rot1': 343, 'rot0': 293, 'rot3': 116, 'rot2': 137, 'depth': -1.132, 'yaw': 175.0, 'datetime': '2018-12-12 11:24:16.930439', 'mgs': 0, 'flw2': 2.5, 'flw1': 0.56, 'flw0': 0.0, 'time': 39.14, 'compass': -143.56, 'pitch': -5.45, 'roll': -7.27}
{'lipoC2': 7.83, 'temp': 0.0, 'lipoC3S3': 12.13, 'state': 'normal', 'rot1': 343, 'rot0': 297, 'rot3': 117, 'rot2': 137, 'depth': 0.165, 'yaw': -175.75, 'datetime': '2018-12-12 11:24:17.142007', 'mgs': 0, 'flw2': 2.56, 'flw1': 3.28, 'flw0': 0.0, 'time': 39.35, 'compass': -134.31, 'pitch': -6.69, 'roll': -5.58}
{'lipoC2': 7.84, 'temp': 0.0, 'lipoC3S3': 12.14, 'state': 'normal', 'rot1': 343, 'rot0': 300, 'rot3': 117, 'rot2': 138, 'depth': 1.767, 'yaw': -165.23, 'datetime': '2018-12-12 11:24:17.357934', 'mgs': 0, 'flw2': 2.76, 'flw1': 3.57, 'flw0': 0.0, 'time': 39.56, 'compass': -123.79, 'pitch': -7.42, 'roll': -3.29}
{'lipoC2': 7.81, 'temp': 0.0, 'lipoC3S3': 11.96, 'state': 'normal', 'rot1': 343, 'rot0': 302, 'rot3': 118, 'rot2': 139, 'depth': 2.682, 'yaw': -153.94, 'datetime': '2018-12-12 11:24:17.568546', 'mgs': 0, 'flw2': 2.78, 'flw1': 0.0, 'flw0': 0.2, 'time': 39.77, 'compass': -112.5, 'pitch': -6.84, 'roll': -0.61}
{'lipoC2': 8.04, 'temp': 0.0, 'lipoC3S3': 11.65, 'state': 'normal', 'rot1': 343, 'rot0': 305, 'rot3': 119, 'rot2': 139, 'depth': -0.598, 'yaw': -142.11, 'datetime': '2018-12-12 11:24:17.781743', 'mgs': 0, 'flw2': 2.49, 'flw1': 3.52, 'flw0': 0.0, 'time': 39.98, 'compass': -100.67, 'pitch': -6.05, 'roll': 2.22}
{'lipoC2': 7.94, 'temp': 0.0, 'lipoC3S3': 11.56, 'state': 'normal', 'rot1': 343, 'rot0': 307, 'rot3': 119, 'rot2': 140, 'depth': 0.241, 'yaw': -130.08, 'datetime': '2018-12-12 11:24:17.992195', 'mgs': 0, 'flw2': 2.4, 'flw1': 3.81, 'flw0': 0.0, 'time': 40.19, 'compass': -88.64, 'pitch': -6.03, 'roll': 5.05}
{'lipoC2': 7.82, 'temp': 0.0, 'lipoC3S3': 12.09, 'state': 'normal', 'rot1': 343, 'rot0': 309, 'rot3': 119, 'rot2': 141, 'depth': 2.301, 'yaw': -117.88, 'datetime': '2018-12-12 11:24:18.202324', 'mgs': 0, 'flw2': 2.81, 'flw1': 0.0, 'flw0': 0.0, 'time': 40.4, 'compass': -76.44, 'pitch': -5.78, 'roll': 7.74}
{'lipoC2': 7.82, 'temp': 0.0, 'lipoC3S3': 12.05, 'state': 'normal', 'rot1': 343, 'rot0': 312, 'rot3': 120, 'rot2': 141, 'depth': 0.851, 'yaw': -105.43, 'datetime': '2018-12-12 11:24:18.413169', 'mgs': 0, 'flw2': 2.88, 'flw1': 2.75, 'flw0': 0.28, 'time': 40.61, 'compass': -63.99, 'pitch': -4.42, 'roll': 10.3}
{'lipoC2': 7.84, 'temp': 0.0, 'lipoC3S3': 12.13, 'state': 'normal', 'rot1': 343, 'rot0': 314, 'rot3': 120, 'rot2': 142, 'depth': 0.47, 'yaw': -92.9, 'datetime': '2018-12-12 11:24:18.624997', 'mgs': 0, 'flw2': 2.98, 'flw1': 3.63, 'flw0': 0.15, 'time': 40.82, 'compass': -51.45, 'pitch': -2.04, 'roll': 12.28}
{'lipoC2': 7.81, 'temp': 0.0, 'lipoC3S3': 12.09, 'state': 'normal', 'rot1': 343, 'rot0': 317, 'rot3': 121, 'rot2': 143, 'depth': 0.47, 'yaw': -79.99, 'datetime': '2018-12-12 11:24:18.832862', 'mgs': 0, 'flw2': 2.73, 'flw1': 0.0, 'flw0': 0.0, 'time': 41.03, 'compass': -38.55, 'pitch': 0.69, 'roll': 13.82}
{'lipoC2': 8.0, 'temp': 0.0, 'lipoC3S3': 11.68, 'state': 'normal', 'rot1': 343, 'rot0': 320, 'rot3': 121, 'rot2': 143, 'depth': 1.385, 'yaw': -66.66, 'datetime': '2018-12-12 11:24:19.042675', 'mgs': 0, 'flw2': 2.64, 'flw1': 2.64, 'flw0': 0.0, 'time': 41.24, 'compass': -25.22, 'pitch': 3.38, 'roll': 15.31}
{'lipoC2': 7.82, 'temp': 0.0, 'lipoC3S3': 11.63, 'state': 'normal', 'rot1': 346, 'rot0': 325, 'rot3': 122, 'rot2': 144, 'depth': 0.012, 'yaw': -52.69, 'datetime': '2018-12-12 11:24:19.252958', 'mgs': 0, 'flw2': 5.44, 'flw1': 2.46, 'flw0': 6.26, 'time': 41.46, 'compass': -11.25, 'pitch': 6.26, 'roll': 16.52}
{'lipoC2': 7.8, 'temp': 0.0, 'lipoC3S3': 11.76, 'state': 'normal', 'rot1': 352, 'rot0': 329, 'rot3': 123, 'rot2': 145, 'depth': 1.843, 'yaw': -35.08, 'datetime': '2018-12-12 11:24:19.464331', 'mgs': 0, 'flw2': 4.63, 'flw1': 3.34, 'flw0': 5.19, 'time': 41.67, 'compass': 6.36, 'pitch': 10.22, 'roll': 17.18}
{'lipoC2': 7.81, 'temp': 0.0, 'lipoC3S3': 11.71, 'state': 'normal', 'rot1': 357, 'rot0': 333, 'rot3': 123, 'rot2': 146, 'depth': 2.377, 'yaw': -15.66, 'datetime': '2018-12-12 11:24:19.679622', 'mgs': 0, 'flw2': 4.15, 'flw1': 2.52, 'flw0': 4.58, 'time': 41.88, 'compass': 25.78, 'pitch': 13.97, 'roll': 16.42}
{'lipoC2': 7.81, 'temp': 0.0, 'lipoC3S3': 11.8, 'state': 'normal', 'rot1': 361, 'rot0': 336, 'rot3': 124, 'rot2': 147, 'depth': 2.911, 'yaw': 3.62, 'datetime': '2018-12-12 11:24:19.887249', 'mgs': 0, 'flw2': 3.16, 'flw1': 2.43, 'flw0': 3.43, 'time': 42.09, 'compass': 45.06, 'pitch': 16.27, 'roll': 14.16}
{'lipoC2': 7.82, 'temp': 0.0, 'lipoC3S3': 12.02, 'state': 'normal', 'rot1': 365, 'rot0': 340, 'rot3': 125, 'rot2': 148, 'depth': 2.072, 'yaw': 21.93, 'datetime': '2018-12-12 11:24:20.096239', 'mgs': 0, 'flw2': 1.89, 'flw1': 2.08, 'flw0': 2.28, 'time': 42.3, 'compass': 63.37, 'pitch': 17.84, 'roll': 11.21}
{'lipoC2': 7.83, 'temp': 0.0, 'lipoC3S3': 11.65, 'state': 'normal', 'rot1': 368, 'rot0': 342, 'rot3': 126, 'rot2': 149, 'depth': 1.767, 'yaw': 38.61, 'datetime': '2018-12-12 11:24:20.309010', 'mgs': 0, 'flw2': 1.03, 'flw1': 3.37, 'flw0': 1.2, 'time': 42.51, 'compass': 80.05, 'pitch': 18.9, 'roll': 7.77}
{'lipoC2': 7.77, 'temp': 0.0, 'lipoC3S3': 11.75, 'state': 'normal', 'rot1': 370, 'rot0': 344, 'rot3': 127, 'rot2': 150, 'depth': 0.317, 'yaw': 53.21, 'datetime': '2018-12-12 11:24:20.525215', 'mgs': 0, 'flw2': 0.85, 'flw1': 2.4, 'flw0': 0.51, 'time': 42.72, 'compass': 94.65, 'pitch': 18.75, 'roll': 3.79}
