{'lipoC3S3': 0.0, 'datetime': '2019-03-01 09:21:08.738088', 'pitch': 4.4, 'rot1': 0, 'rot0': 0, 'rot3': 0, 'rot2': 0, 'state': 'normal', 'flw3': 0, 'flw2': 0, 'flw1': 0, 'flw0': 0, 'roll': 1.53, 'cur2': 0.0, 'cur0': 0.0, 'cur1': 0.0, 'mgs': 0, 'compass': -142.19, 'lipoC2': 0.0, 'temp': 24.66, 'thr3': 33.0, 'depth': 0.129, 'time': 1.39, 'thr2': 32.0, 'yaw': 0.0, 'thr0': 27.0, 'thr1': 27.0}
{'lipoC3S3': 0.0, 'datetime': '2019-03-01 09:21:09.059243', 'pitch': 4.4, 'rot1': 0, 'rot0': 0, 'rot3': 0, 'rot2': 0, 'state': 'normal', 'flw3': 0, 'flw2': 0, 'flw1': 0, 'flw0': 0, 'roll': 1.53, 'cur2': 0.0, 'cur0': 0.0, 'cur1': 0.0, 'mgs': 0, 'compass': -142.19, 'lipoC2': 0.0, 'temp': 24.6, 'thr3': 33.0, 'depth': 0.129, 'time': 1.71, 'thr2': 33.0, 'yaw': 0.0, 'thr0': 27.0, 'thr1': 27.0}
{'lipoC3S3': 0.0, 'datetime': '2019-03-01 09:21:09.376775', 'pitch': 4.4, 'rot1': 0, 'rot0': 0, 'rot3': 0, 'rot2': 0, 'state': 'normal', 'flw3': 0, 'flw2': 0, 'flw1': 0, 'flw0': 0, 'roll': 1.53, 'cur2': 0.0, 'cur0': 0.0, 'cur1': 0.0, 'mgs': 0, 'compass': -142.19, 'lipoC2': 0.0, 'temp': 24.61, 'thr3': 33.0, 'depth': 0.129, 'time': 2.04, 'thr2': 33.0, 'yaw': 0.0, 'thr0': 27.0, 'thr1': 27.0}
{'lipoC3S3': 0.0, 'datetime': '2019-03-01 09:21:09.694568', 'pitch': 4.39, 'rot1': 2, 'rot0': 4, 'rot3': 2, 'rot2': 11, 'state': 'normal', 'flw3': 0, 'flw2': 0, 'flw1': 0, 'flw0': 0, 'roll': 1.6, 'cur2': 0.0, 'cur0': 0.0, 'cur1': 0.0, 'mgs': 0, 'compass': -142.19, 'lipoC2': 0.0, 'temp': 24.61, 'thr3': 33.0, 'depth': 0.129, 'time': 2.36, 'thr2': 33.0, 'yaw': -0.0, 'thr0': 27.0, 'thr1': 28.0}
{'lipoC3S3': 0.0, 'datetime': '2019-03-01 09:21:10.017270', 'pitch': 4.36, 'rot1': 2, 'rot0': 4, 'rot3': 2, 'rot2': 11, 'state': 'normal', 'flw3': 0, 'flw2': 0, 'flw1': 0, 'flw0': 0, 'roll': 1.8, 'cur2': 0.0, 'cur0': 0.0, 'cur1': 0.0, 'mgs': 0, 'compass': -142.19, 'lipoC2': 0.0, 'temp': 24.62, 'thr3': 33.0, 'depth': 0.129, 'time': 2.68, 'thr2': 33.0, 'yaw': -0.0, 'thr0': 27.0, 'thr1': 27.0}
{'lipoC3S3': 0.0, 'datetime': '2019-03-01 09:21:10.346304', 'pitch': 4.36, 'rot1': 2, 'rot0': 4, 'rot3': 2, 'rot2': 11, 'state': 'normal', 'flw3': 0, 'flw2': 0, 'flw1': 0, 'flw0': 0, 'roll': 1.92, 'cur2': 0.0, 'cur0': 0.0, 'cur1': 0.0, 'mgs': 0, 'compass': -142.19, 'lipoC2': 0.0, 'temp': 24.62, 'thr3': 33.0, 'depth': 0.129, 'time': 3.0, 'thr2': 33.0, 'yaw': -0.0, 'thr0': 27.0, 'thr1': 27.0}
{'lipoC3S3': 0.0, 'datetime': '2019-03-01 09:21:10.666714', 'pitch': 4.36, 'rot1': 2, 'rot0': 4, 'rot3': 2, 'rot2': 11, 'state': 'normal', 'flw3': 0, 'flw2': 0, 'flw1': 0, 'flw0': 0, 'roll': 2.01, 'cur2': 0.0, 'cur0': 0.0, 'cur1': 0.0, 'mgs': 0, 'compass': -142.19, 'lipoC2': 0.0, 'temp': 24.62, 'thr3': 33.0, 'depth': 0.129, 'time': 3.32, 'thr2': 33.0, 'yaw': -0.0, 'thr0': 27.0, 'thr1': 27.0}
{'lipoC3S3': 0.0, 'datetime': '2019-03-01 09:21:10.987894', 'pitch': 4.36, 'rot1': 2, 'rot0': 4, 'rot3': 2, 'rot2': 11, 'state': 'normal', 'flw3': 0, 'flw2': 0, 'flw1': 0, 'flw0': 0, 'roll': 2.04, 'cur2': 0.0, 'cur0': 0.0, 'cur1': 0.0, 'mgs': 0, 'compass': -142.19, 'lipoC2': 0.0, 'temp': 24.62, 'thr3': 33.0, 'depth': 0.129, 'time': 3.64, 'thr2': 33.0, 'yaw': -0.0, 'thr0': 27.0, 'thr1': 27.0}
{'lipoC3S3': 0.0, 'datetime': '2019-03-01 09:21:11.311173', 'pitch': 4.36, 'rot1': 2, 'rot0': 4, 'rot3': 2, 'rot2': 11, 'state': 'normal', 'flw3': 0, 'flw2': 0, 'flw1': 0, 'flw0': 0, 'roll': 2.04, 'cur2': 0.0, 'cur0': 0.0, 'cur1': 0.0, 'mgs': 0, 'compass': -142.19, 'lipoC2': 0.0, 'temp': 24.62, 'thr3': 33.0, 'depth': 0.129, 'time': 3.96, 'thr2': 33.0, 'yaw': -0.0, 'thr0': 27.0, 'thr1': 27.0}
{'lipoC3S3': 0.0, 'datetime': '2019-03-01 09:21:11.634237', 'pitch': 4.36, 'rot1': 2, 'rot0': 4, 'rot3': 2, 'rot2': 11, 'state': 'normal', 'flw3': 0, 'flw2': 0, 'flw1': 0, 'flw0': 0, 'roll': 2.04, 'cur2': 0.0, 'cur0': 0.0, 'cur1': 0.0, 'mgs': 0, 'compass': -142.19, 'lipoC2': 0.0, 'temp': 24.62, 'thr3': 33.0, 'depth': 0.129, 'time': 4.28, 'thr2': 33.0, 'yaw': -0.0, 'thr0': 27.0, 'thr1': 27.0}
{'lipoC3S3': 0.0, 'datetime': '2019-03-01 09:21:11.954282', 'pitch': 4.36, 'rot1': 2, 'rot0': 4, 'rot3': 2, 'rot2': 11, 'state': 'normal', 'flw3': 0, 'flw2': 0, 'flw1': 0, 'flw0': 0, 'roll': 2.04, 'cur2': 0.0, 'cur0': 0.0, 'cur1': 0.0, 'mgs': 0, 'compass': -142.19, 'lipoC2': 0.0, 'temp': 24.63, 'thr3': 33.0, 'depth': 0.129, 'time': 4.61, 'thr2': 33.0, 'yaw': -0.0, 'thr0': 27.0, 'thr1': 27.0}
{'lipoC3S3': 0.0, 'datetime': '2019-03-01 09:21:12.276783', 'pitch': 4.36, 'rot1': 2, 'rot0': 4, 'rot3': 2, 'rot2': 11, 'state': 'normal', 'flw3': 0, 'flw2': 0, 'flw1': 0, 'flw0': 0, 'roll': 2.04, 'cur2': 0.0, 'cur0': 0.0, 'cur1': 0.0, 'mgs': 0, 'compass': -142.19, 'lipoC2': 0.0, 'temp': 24.62, 'thr3': 33.0, 'depth': 0.129, 'time': 4.93, 'thr2': 33.0, 'yaw': -0.0, 'thr0': 27.0, 'thr1': 27.0}
{'lipoC3S3': 0.0, 'datetime': '2019-03-01 09:21:12.599681', 'pitch': 4.36, 'rot1': 2, 'rot0': 4, 'rot3': 2, 'rot2': 11, 'state': 'normal', 'flw3': 0, 'flw2': 0, 'flw1': 0, 'flw0': 0, 'roll': 2.04, 'cur2': 0.0, 'cur0': 0.0, 'cur1': 0.0, 'mgs': 0, 'compass': -142.19, 'lipoC2': 0.0, 'temp': 24.63, 'thr3': 33.0, 'depth': 0.119, 'time': 5.25, 'thr2': 33.0, 'yaw': -0.0, 'thr0': 27.0, 'thr1': 27.0}
{'lipoC3S3': 0.0, 'datetime': '2019-03-01 09:21:12.920104', 'pitch': 4.36, 'rot1': 2, 'rot0': 4, 'rot3': 2, 'rot2': 11, 'state': 'normal', 'flw3': 0, 'flw2': 0, 'flw1': 0, 'flw0': 0, 'roll': 2.04, 'cur2': 0.0, 'cur0': 0.0, 'cur1': 0.0, 'mgs': 0, 'compass': -142.19, 'lipoC2': 0.0, 'temp': 24.63, 'thr3': 33.0, 'depth': 0.119, 'time': 5.57, 'thr2': 32.0, 'yaw': -0.0, 'thr0': 27.0, 'thr1': 27.0}
{'lipoC3S3': 0.0, 'datetime': '2019-03-01 09:21:13.241132', 'pitch': 4.36, 'rot1': 2, 'rot0': 4, 'rot3': 2, 'rot2': 11, 'state': 'normal', 'flw3': 0, 'flw2': 0, 'flw1': 0, 'flw0': 0, 'roll': 2.04, 'cur2': 0.0, 'cur0': 0.0, 'cur1': 0.0, 'mgs': 0, 'compass': -142.19, 'lipoC2': 0.0, 'temp': 24.63, 'thr3': 33.0, 'depth': 0.129, 'time': 5.89, 'thr2': 32.0, 'yaw': -0.0, 'thr0': 27.0, 'thr1': 27.0}
{'lipoC3S3': 0.0, 'datetime': '2019-03-01 09:21:13.559179', 'pitch': 4.36, 'rot1': 2, 'rot0': 4, 'rot3': 2, 'rot2': 11, 'state': 'normal', 'flw3': 0, 'flw2': 0, 'flw1': 0, 'flw0': 0, 'roll': 2.04, 'cur2': 0.0, 'cur0': 0.0, 'cur1': 0.0, 'mgs': 0, 'compass': -142.19, 'lipoC2': 0.0, 'temp': 24.63, 'thr3': 33.0, 'depth': 0.129, 'time': 6.21, 'thr2': 33.0, 'yaw': -0.0, 'thr0': 27.0, 'thr1': 27.0}
{'lipoC3S3': 0.0, 'datetime': '2019-03-01 09:21:13.881209', 'pitch': 4.29, 'rot1': 2, 'rot0': 4, 'rot3': 2, 'rot2': 11, 'state': 'normal', 'flw3': 0, 'flw2': 0, 'flw1': 0, 'flw0': 0, 'roll': 2.08, 'cur2': 0.0, 'cur0': 0.0, 'cur1': 0.0, 'mgs': 0, 'compass': -142.31, 'lipoC2': 0.0, 'temp': 24.63, 'thr3': 33.0, 'depth': 0.119, 'time': 6.53, 'thr2': 33.0, 'yaw': -0.12, 'thr0': 27.0, 'thr1': 27.0}
{'lipoC3S3': 0.0, 'datetime': '2019-03-01 09:21:14.203358', 'pitch': 3.53, 'rot1': 2, 'rot0': 4, 'rot3': 2, 'rot2': 11, 'state': 'normal', 'flw3': 0, 'flw2': 0, 'flw1': 0, 'flw0': 0, 'roll': 2.75, 'cur2': 0.0, 'cur0': 0.0, 'cur1': 0.0, 'mgs': 0, 'compass': -148.92, 'lipoC2': 0.0, 'temp': 24.63, 'thr3': 33.0, 'depth': 0.129, 'time': 6.86, 'thr2': 33.0, 'yaw': -6.73, 'thr0': 27.0, 'thr1': 27.0}
{'lipoC3S3': 0.0, 'datetime': '2019-03-01 09:21:14.524275', 'pitch': 3.92, 'rot1': 2, 'rot0': 4, 'rot3': 2, 'rot2': 11, 'state': 'normal', 'flw3': 0, 'flw2': 0, 'flw1': 0, 'flw0': 0, 'roll': 3.15, 'cur2': 0.0, 'cur0': 0.0, 'cur1': 0.0, 'mgs': 0, 'compass': -163.68, 'lipoC2': 0.0, 'temp': 24.63, 'thr3': 33.0, 'depth': 0.129, 'time': 7.18, 'thr2': 33.0, 'yaw': -21.49, 'thr0': 27.0, 'thr1': 28.0}
{'lipoC3S3': 0.0, 'datetime': '2019-03-01 09:21:14.845497', 'pitch': 4.29, 'rot1': 4, 'rot0': 7, 'rot3': 2, 'rot2': 11, 'state': 'normal', 'flw3': 0, 'flw2': 0, 'flw1': 0, 'flw0': 0, 'roll': 2.95, 'cur2': 0.4, 'cur0': 0.35, 'cur1': 0.0, 'mgs': 0, 'compass': -173.5, 'lipoC2': 0.0, 'temp': 24.63, 'thr3': 33.0, 'depth': 0.129, 'time': 7.5, 'thr2': 32.0, 'yaw': -31.31, 'thr0': 27.0, 'thr1': 27.0}
{'lipoC3S3': 0.0, 'datetime': '2019-03-01 09:21:15.168142', 'pitch': 4.2, 'rot1': 7, 'rot0': 11, 'rot3': 2, 'rot2': 11, 'state': 'normal', 'flw3': 0, 'flw2': 0, 'flw1': 0, 'flw0': 0, 'roll': 2.93, 'cur2': 0.38, 'cur0': 0.37, 'cur1': 0.0, 'mgs': 0, 'compass': -177.11, 'lipoC2': 0.0, 'temp': 24.63, 'thr3': 33.0, 'depth': 0.129, 'time': 7.82, 'thr2': 32.0, 'yaw': -34.92, 'thr0': 27.0, 'thr1': 27.0}
{'lipoC3S3': 0.0, 'datetime': '2019-03-01 09:21:15.488758', 'pitch': 4.18, 'rot1': 10, 'rot0': 15, 'rot3': 2, 'rot2': 11, 'state': 'normal', 'flw3': 0, 'flw2': 0, 'flw1': 0, 'flw0': 0, 'roll': 2.97, 'cur2': 0.38, 'cur0': 0.34, 'cur1': 0.0, 'mgs': 0, 'compass': -178.7, 'lipoC2': 0.0, 'temp': 24.63, 'thr3': 33.0, 'depth': 0.129, 'time': 8.14, 'thr2': 32.0, 'yaw': -36.51, 'thr0': 27.0, 'thr1': 27.0}
{'lipoC3S3': 0.0, 'datetime': '2019-03-01 09:21:15.815410', 'pitch': 4.26, 'rot1': 13, 'rot0': 20, 'rot3': 2, 'rot2': 11, 'state': 'normal', 'flw3': 0, 'flw2': 0, 'flw1': 0, 'flw0': 0, 'roll': 3.0, 'cur2': 0.39, 'cur0': 0.34, 'cur1': 0.0, 'mgs': 0, 'compass': -178.74, 'lipoC2': 0.0, 'temp': 24.63, 'thr3': 33.0, 'depth': 0.119, 'time': 8.46, 'thr2': 32.0, 'yaw': -36.55, 'thr0': 27.0, 'thr1': 27.0}
{'lipoC3S3': 0.0, 'datetime': '2019-03-01 09:21:16.135012', 'pitch': 4.31, 'rot1': 16, 'rot0': 25, 'rot3': 2, 'rot2': 11, 'state': 'normal', 'flw3': 0, 'flw2': 0, 'flw1': 0, 'flw0': 0, 'roll': 3.0, 'cur2': 0.38, 'cur0': 0.35, 'cur1': 0.0, 'mgs': 0, 'compass': -178.75, 'lipoC2': 0.0, 'temp': 24.64, 'thr3': 33.0, 'depth': 0.129, 'time': 8.78, 'thr2': 32.0, 'yaw': -36.56, 'thr0': 27.0, 'thr1': 27.0}
{'lipoC3S3': 0.0, 'datetime': '2019-03-01 09:21:16.461579', 'pitch': 4.51, 'rot1': 21, 'rot0': 30, 'rot3': 2, 'rot2': 11, 'state': 'normal', 'flw3': 0, 'flw2': 0, 'flw1': 0, 'flw0': 0, 'roll': 2.99, 'cur2': 0.39, 'cur0': 0.33, 'cur1': 0.0, 'mgs': 0, 'compass': -178.52, 'lipoC2': 0.0, 'temp': 24.63, 'thr3': 33.0, 'depth': 0.129, 'time': 9.11, 'thr2': 32.0, 'yaw': -36.33, 'thr0': 27.0, 'thr1': 27.0}
{'lipoC3S3': 0.0, 'datetime': '2019-03-01 09:21:16.782568', 'pitch': 4.9, 'rot1': 23, 'rot0': 36, 'rot3': 2, 'rot2': 11, 'state': 'normal', 'flw3': 0, 'flw2': 0, 'flw1': 0, 'flw0': 0, 'roll': 2.56, 'cur2': 0.38, 'cur0': 0.34, 'cur1': 0.0, 'mgs': 0, 'compass': -173.88, 'lipoC2': 0.0, 'temp': 24.63, 'thr3': 33.0, 'depth': 0.129, 'time': 9.43, 'thr2': 32.0, 'yaw': -31.69, 'thr0': 27.0, 'thr1': 27.0}
{'lipoC3S3': 0.0, 'datetime': '2019-03-01 09:21:17.102768', 'pitch': 5.15, 'rot1': 24, 'rot0': 40, 'rot3': 2, 'rot2': 11, 'state': 'normal', 'flw3': 0, 'flw2': 0, 'flw1': 0, 'flw0': 0, 'roll': 2.16, 'cur2': 0.38, 'cur0': 0.34, 'cur1': 0.0, 'mgs': 0, 'compass': -163.59, 'lipoC2': 0.0, 'temp': 24.63, 'thr3': 32.0, 'depth': 0.129, 'time': 9.75, 'thr2': 32.0, 'yaw': -21.4, 'thr0': 27.0, 'thr1': 27.0}
{'lipoC3S3': 0.0, 'datetime': '2019-03-01 09:21:17.427056', 'pitch': 5.18, 'rot1': 28, 'rot0': 47, 'rot3': 2, 'rot2': 11, 'state': 'normal', 'flw3': 0, 'flw2': 0, 'flw1': 0, 'flw0': 0, 'roll': 1.81, 'cur2': 0.39, 'cur0': 0.33, 'cur1': 0.0, 'mgs': 0, 'compass': -151.35, 'lipoC2': 0.0, 'temp': 24.64, 'thr3': 33.0, 'depth': 0.129, 'time': 10.07, 'thr2': 32.0, 'yaw': -9.16, 'thr0': 27.0, 'thr1': 27.0}
{'lipoC3S3': 0.0, 'datetime': '2019-03-01 09:21:17.746629', 'pitch': 4.68, 'rot1': 30, 'rot0': 51, 'rot3': 2, 'rot2': 11, 'state': 'normal', 'flw3': 0, 'flw2': 0, 'flw1': 0, 'flw0': 0, 'roll': 2.01, 'cur2': 0.0, 'cur0': 0.0, 'cur1': 0.0, 'mgs': 0, 'compass': -143.12, 'lipoC2': 0.0, 'temp': 24.64, 'thr3': 33.0, 'depth': 0.129, 'time': 10.39, 'thr2': 32.0, 'yaw': -0.93, 'thr0': 27.0, 'thr1': 27.0}
{'lipoC3S3': 0.0, 'datetime': '2019-03-01 09:21:18.071719', 'pitch': 4.84, 'rot1': 30, 'rot0': 51, 'rot3': 2, 'rot2': 11, 'state': 'normal', 'flw3': 0, 'flw2': 0, 'flw1': 0, 'flw0': 0, 'roll': 1.82, 'cur2': 0.0, 'cur0': 0.0, 'cur1': 0.0, 'mgs': 0, 'compass': -136.38, 'lipoC2': 0.0, 'temp': 24.64, 'thr3': 33.0, 'depth': 0.129, 'time': 10.71, 'thr2': 32.0, 'yaw': 5.81, 'thr0': 27.0, 'thr1': 27.0}
{'lipoC3S3': 0.0, 'datetime': '2019-03-01 09:21:18.385770', 'pitch': 5.01, 'rot1': 32, 'rot0': 53, 'rot3': 2, 'rot2': 11, 'state': 'normal', 'flw3': 0, 'flw2': 0, 'flw1': 0, 'flw0': 0, 'roll': 1.49, 'cur2': 0.43, 'cur0': 0.38, 'cur1': 0.0, 'mgs': 0, 'compass': -126.63, 'lipoC2': 0.0, 'temp': 24.64, 'thr3': 33.0, 'depth': 0.129, 'time': 11.03, 'thr2': 32.0, 'yaw': 15.56, 'thr0': 27.0, 'thr1': 28.0}
{'lipoC3S3': 0.0, 'datetime': '2019-03-01 09:21:18.708280', 'pitch': 4.86, 'rot1': 37, 'rot0': 59, 'rot3': 2, 'rot2': 13, 'state': 'normal', 'flw3': 0, 'flw2': 0, 'flw1': 0, 'flw0': 0, 'roll': 1.23, 'cur2': 0.4, 'cur0': 0.37, 'cur1': 0.0, 'mgs': 0, 'compass': -113.99, 'lipoC2': 0.0, 'temp': 24.64, 'thr3': 33.0, 'depth': 0.129, 'time': 11.36, 'thr2': 33.0, 'yaw': 28.2, 'thr0': 27.0, 'thr1': 28.0}
{'lipoC3S3': 0.0, 'datetime': '2019-03-01 09:21:19.028344', 'pitch': 4.77, 'rot1': 42, 'rot0': 64, 'rot3': 2, 'rot2': 14, 'state': 'normal', 'flw3': 0, 'flw2': 0, 'flw1': 0, 'flw0': 0, 'roll': 1.27, 'cur2': 0.38, 'cur0': 0.38, 'cur1': 0.0, 'mgs': 0, 'compass': -103.49, 'lipoC2': 0.0, 'temp': 24.64, 'thr3': 32.0, 'depth': 0.119, 'time': 11.68, 'thr2': 32.0, 'yaw': 38.7, 'thr0': 27.0, 'thr1': 27.0}
{'lipoC3S3': 0.0, 'datetime': '2019-03-01 09:21:19.350706', 'pitch': 4.5, 'rot1': 47, 'rot0': 69, 'rot3': 2, 'rot2': 15, 'state': 'normal', 'flw3': 0, 'flw2': 0, 'flw1': 0, 'flw0': 0, 'roll': 1.45, 'cur2': 0.4, 'cur0': 0.33, 'cur1': 0.0, 'mgs': 0, 'compass': -96.66, 'lipoC2': 0.0, 'temp': 24.64, 'thr3': 33.0, 'depth': 0.129, 'time': 12.0, 'thr2': 33.0, 'yaw': 45.53, 'thr0': 27.0, 'thr1': 27.0}
{'lipoC3S3': 0.0, 'datetime': '2019-03-01 09:21:19.677500', 'pitch': 4.16, 'rot1': 52, 'rot0': 76, 'rot3': 3, 'rot2': 17, 'state': 'normal', 'flw3': 0, 'flw2': 0, 'flw1': 0, 'flw0': 0, 'roll': 1.71, 'cur2': 0.4, 'cur0': 0.34, 'cur1': 0.0, 'mgs': 0, 'compass': -95.03, 'lipoC2': 0.0, 'temp': 24.64, 'thr3': 33.0, 'depth': 0.129, 'time': 12.32, 'thr2': 33.0, 'yaw': 47.16, 'thr0': 27.0, 'thr1': 27.0}
{'lipoC3S3': 0.0, 'datetime': '2019-03-01 09:21:20.000996', 'pitch': 4.21, 'rot1': 55, 'rot0': 84, 'rot3': 3, 'rot2': 17, 'state': 'normal', 'flw3': 0, 'flw2': 0, 'flw1': 0, 'flw0': 0, 'roll': 1.8, 'cur2': 0.38, 'cur0': 0.35, 'cur1': 0.0, 'mgs': 0, 'compass': -95.68, 'lipoC2': 0.0, 'temp': 24.64, 'thr3': 33.0, 'depth': 0.129, 'time': 12.64, 'thr2': 32.0, 'yaw': 46.51, 'thr0': 27.0, 'thr1': 27.0}
{'lipoC3S3': 0.0, 'datetime': '2019-03-01 09:21:20.321506', 'pitch': 4.18, 'rot1': 61, 'rot0': 91, 'rot3': 3, 'rot2': 18, 'state': 'normal', 'flw3': 0, 'flw2': 0, 'flw1': 0, 'flw0': 0, 'roll': 1.8, 'cur2': 0.39, 'cur0': 0.38, 'cur1': 0.0, 'mgs': 0, 'compass': -95.31, 'lipoC2': 0.0, 'temp': 24.64, 'thr3': 33.0, 'depth': 0.129, 'time': 12.96, 'thr2': 32.0, 'yaw': 46.88, 'thr0': 27.0, 'thr1': 27.0}
{'lipoC3S3': 0.0, 'datetime': '2019-03-01 09:21:20.646195', 'pitch': 4.15, 'rot1': 66, 'rot0': 95, 'rot3': 3, 'rot2': 18, 'state': 'normal', 'flw3': 0, 'flw2': 0, 'flw1': 0, 'flw0': 0, 'roll': 1.78, 'cur2': 0.39, 'cur0': 0.35, 'cur1': 0.0, 'mgs': 0, 'compass': -94.8, 'lipoC2': 0.0, 'temp': 24.64, 'thr3': 33.0, 'depth': 0.119, 'time': 13.28, 'thr2': 32.0, 'yaw': 47.39, 'thr0': 27.0, 'thr1': 27.0}
{'lipoC3S3': 0.0, 'datetime': '2019-03-01 09:21:20.962497', 'pitch': 3.97, 'rot1': 70, 'rot0': 101, 'rot3': 3, 'rot2': 18, 'state': 'normal', 'flw3': 0, 'flw2': 0, 'flw1': 0, 'flw0': 0, 'roll': 1.82, 'cur2': 0.39, 'cur0': 0.35, 'cur1': 0.0, 'mgs': 0, 'compass': -94.25, 'lipoC2': 0.0, 'temp': 24.64, 'thr3': 33.0, 'depth': 0.129, 'time': 13.6, 'thr2': 32.0, 'yaw': 47.94, 'thr0': 27.0, 'thr1': 27.0}
{'lipoC3S3': 0.0, 'datetime': '2019-03-01 09:21:21.290704', 'pitch': 4.0, 'rot1': 75, 'rot0': 106, 'rot3': 3, 'rot2': 18, 'state': 'normal', 'flw3': 0, 'flw2': 0, 'flw1': 0, 'flw0': 0, 'roll': 1.77, 'cur2': 0.38, 'cur0': 0.37, 'cur1': 0.0, 'mgs': 0, 'compass': -92.42, 'lipoC2': 0.0, 'temp': 24.64, 'thr3': 33.0, 'depth': 0.119, 'time': 13.93, 'thr2': 32.0, 'yaw': 49.77, 'thr0': 27.0, 'thr1': 27.0}
{'lipoC3S3': 0.0, 'datetime': '2019-03-01 09:21:21.615297', 'pitch': 4.13, 'rot1': 80, 'rot0': 112, 'rot3': 3, 'rot2': 18, 'state': 'normal', 'flw3': 0, 'flw2': 0, 'flw1': 0, 'flw0': 0, 'roll': 1.63, 'cur2': 0.39, 'cur0': 0.37, 'cur1': 0.0, 'mgs': 0, 'compass': -88.07, 'lipoC2': 0.0, 'temp': 24.64, 'thr3': 33.0, 'depth': 0.129, 'time': 14.25, 'thr2': 32.0, 'yaw': 54.12, 'thr0': 27.0, 'thr1': 27.0}
{'lipoC3S3': 0.0, 'datetime': '2019-03-01 09:21:21.931371', 'pitch': 4.14, 'rot1': 85, 'rot0': 119, 'rot3': 3, 'rot2': 18, 'state': 'normal', 'flw3': 0, 'flw2': 0, 'flw1': 0, 'flw0': 0, 'roll': 1.53, 'cur2': 0.4, 'cur0': 0.38, 'cur1': 0.0, 'mgs': 0, 'compass': -83.02, 'lipoC2': 0.0, 'temp': 24.64, 'thr3': 32.0, 'depth': 0.129, 'time': 14.57, 'thr2': 32.0, 'yaw': 59.17, 'thr0': 27.0, 'thr1': 27.0}
{'lipoC3S3': 0.0, 'datetime': '2019-03-01 09:21:22.253512', 'pitch': 3.97, 'rot1': 90, 'rot0': 125, 'rot3': 3, 'rot2': 18, 'state': 'normal', 'flw3': 0, 'flw2': 0, 'flw1': 0, 'flw0': 0, 'roll': 1.55, 'cur2': 0.37, 'cur0': 0.33, 'cur1': 0.0, 'mgs': 0, 'compass': -78.13, 'lipoC2': 0.0, 'temp': 24.64, 'thr3': 33.0, 'depth': 0.129, 'time': 14.89, 'thr2': 32.0, 'yaw': 64.06, 'thr0': 27.0, 'thr1': 27.0}
{'lipoC3S3': 0.0, 'datetime': '2019-03-01 09:21:22.572097', 'pitch': 3.54, 'rot1': 95, 'rot0': 130, 'rot3': 3, 'rot2': 18, 'state': 'normal', 'flw3': 0, 'flw2': 0, 'flw1': 0, 'flw0': 0, 'roll': 1.93, 'cur2': 0.45, 'cur0': 0.38, 'cur1': 0.0, 'mgs': 0, 'compass': -78.64, 'lipoC2': 0.0, 'temp': 24.64, 'thr3': 33.0, 'depth': 0.129, 'time': 15.21, 'thr2': 32.0, 'yaw': 63.55, 'thr0': 27.0, 'thr1': 27.0}
{'lipoC3S3': 0.0, 'datetime': '2019-03-01 09:21:22.893387', 'pitch': 3.45, 'rot1': 100, 'rot0': 135, 'rot3': 3, 'rot2': 18, 'state': 'normal', 'flw3': 0, 'flw2': 0, 'flw1': 0, 'flw0': 0, 'roll': 2.33, 'cur2': 0.38, 'cur0': 0.37, 'cur1': 0.0, 'mgs': 0, 'compass': -85.23, 'lipoC2': 0.0, 'temp': 24.64, 'thr3': 33.0, 'depth': 0.119, 'time': 15.53, 'thr2': 33.0, 'yaw': 56.96, 'thr0': 27.0, 'thr1': 27.0}
{'lipoC3S3': 0.0, 'datetime': '2019-03-01 09:21:23.216418', 'pitch': 3.26, 'rot1': 104, 'rot0': 140, 'rot3': 3, 'rot2': 18, 'state': 'normal', 'flw3': 0, 'flw2': 0, 'flw1': 0, 'flw0': 0, 'roll': 2.67, 'cur2': 0.39, 'cur0': 0.32, 'cur1': 0.0, 'mgs': 0, 'compass': -96.71, 'lipoC2': 0.0, 'temp': 24.64, 'thr3': 33.0, 'depth': 0.129, 'time': 15.86, 'thr2': 32.0, 'yaw': 45.48, 'thr0': 27.0, 'thr1': 27.0}
{'lipoC3S3': 0.0, 'datetime': '2019-03-01 09:21:23.537752', 'pitch': 3.05, 'rot1': 109, 'rot0': 146, 'rot3': 3, 'rot2': 18, 'state': 'normal', 'flw3': 0, 'flw2': 0, 'flw1': 0, 'flw0': 0, 'roll': 3.0, 'cur2': 0.4, 'cur0': 0.37, 'cur1': 0.0, 'mgs': 0, 'compass': -111.61, 'lipoC2': 0.0, 'temp': 24.64, 'thr3': 33.0, 'depth': 0.129, 'time': 16.18, 'thr2': 33.0, 'yaw': 30.58, 'thr0': 27.0, 'thr1': 27.0}
{'lipoC3S3': 0.0, 'datetime': '2019-03-01 09:21:23.859196', 'pitch': 3.01, 'rot1': 113, 'rot0': 152, 'rot3': 3, 'rot2': 18, 'state': 'normal', 'flw3': 0, 'flw2': 0, 'flw1': 0, 'flw0': 0, 'roll': 3.24, 'cur2': 0.38, 'cur0': 0.35, 'cur1': 0.0, 'mgs': 0, 'compass': -128.11, 'lipoC2': 0.0, 'temp': 24.64, 'thr3': 33.0, 'depth': 0.129, 'time': 16.5, 'thr2': 32.0, 'yaw': 14.08, 'thr0': 27.0, 'thr1': 27.0}
{'lipoC3S3': 0.0, 'datetime': '2019-03-01 09:21:24.182242', 'pitch': 3.16, 'rot1': 117, 'rot0': 157, 'rot3': 3, 'rot2': 18, 'state': 'normal', 'flw3': 0, 'flw2': 0, 'flw1': 0, 'flw0': 0, 'roll': 3.26, 'cur2': 0.4, 'cur0': 0.33, 'cur1': 0.0, 'mgs': 0, 'compass': -144.0, 'lipoC2': 0.0, 'temp': 24.65, 'thr3': 33.0, 'depth': 0.119, 'time': 16.82, 'thr2': 32.0, 'yaw': -1.82, 'thr0': 27.0, 'thr1': 27.0}
{'lipoC3S3': 0.0, 'datetime': '2019-03-01 09:21:24.503172', 'pitch': 3.61, 'rot1': 119, 'rot0': 158, 'rot3': 3, 'rot2': 18, 'state': 'normal', 'flw3': 0, 'flw2': 0, 'flw1': 0, 'flw0': 0, 'roll': 3.01, 'cur2': 0.0, 'cur0': 0.0, 'cur1': 0.0, 'mgs': 0, 'compass': -154.73, 'lipoC2': 0.0, 'temp': 24.64, 'thr3': 33.0, 'depth': 0.119, 'time': 17.14, 'thr2': 33.0, 'yaw': -12.54, 'thr0': 27.0, 'thr1': 27.0}
{'lipoC3S3': 0.0, 'datetime': '2019-03-01 09:21:24.826131', 'pitch': 4.08, 'rot1': 121, 'rot0': 161, 'rot3': 4, 'rot2': 21, 'state': 'normal', 'flw3': 0, 'flw2': 0, 'flw1': 0, 'flw0': 0, 'roll': 2.57, 'cur2': 0.39, 'cur0': 0.35, 'cur1': 0.0, 'mgs': 0, 'compass': -157.03, 'lipoC2': 0.0, 'temp': 24.65, 'thr3': 33.0, 'depth': 0.129, 'time': 17.46, 'thr2': 33.0, 'yaw': -14.84, 'thr0': 27.0, 'thr1': 27.0}
{'lipoC3S3': 0.0, 'datetime': '2019-03-01 09:21:25.147419', 'pitch': 4.0, 'rot1': 124, 'rot0': 168, 'rot3': 4, 'rot2': 21, 'state': 'normal', 'flw3': 0, 'flw2': 0, 'flw1': 0, 'flw0': 0, 'roll': 2.52, 'cur2': 0.39, 'cur0': 0.32, 'cur1': 0.0, 'mgs': 0, 'compass': -152.45, 'lipoC2': 0.0, 'temp': 24.64, 'thr3': 33.0, 'depth': 0.119, 'time': 17.78, 'thr2': 33.0, 'yaw': -10.26, 'thr0': 27.0, 'thr1': 27.0}
{'lipoC3S3': 0.0, 'datetime': '2019-03-01 09:21:25.468767', 'pitch': 4.21, 'rot1': 125, 'rot0': 171, 'rot3': 4, 'rot2': 21, 'state': 'normal', 'flw3': 0, 'flw2': 0, 'flw1': 0, 'flw0': 0, 'roll': 2.41, 'cur2': 0.0, 'cur0': 0.0, 'cur1': 0.0, 'mgs': 0, 'compass': -147.1, 'lipoC2': 0.0, 'temp': 24.65, 'thr3': 33.0, 'depth': 0.119, 'time': 18.11, 'thr2': 33.0, 'yaw': -4.91, 'thr0': 27.0, 'thr1': 27.0}
{'lipoC3S3': 0.0, 'datetime': '2019-03-01 09:21:25.790447', 'pitch': 4.05, 'rot1': 125, 'rot0': 171, 'rot3': 4, 'rot2': 21, 'state': 'normal', 'flw3': 0, 'flw2': 0, 'flw1': 0, 'flw0': 0, 'roll': 2.49, 'cur2': 0.0, 'cur0': 0.0, 'cur1': 0.0, 'mgs': 0, 'compass': -144.26, 'lipoC2': 0.0, 'temp': 24.64, 'thr3': 33.0, 'depth': 0.129, 'time': 18.43, 'thr2': 33.0, 'yaw': -2.07, 'thr0': 27.0, 'thr1': 27.0}
{'lipoC3S3': 0.0, 'datetime': '2019-03-01 09:21:26.112831', 'pitch': 4.13, 'rot1': 125, 'rot0': 171, 'rot3': 4, 'rot2': 21, 'state': 'normal', 'flw3': 0, 'flw2': 0, 'flw1': 0, 'flw0': 0, 'roll': 2.55, 'cur2': 0.0, 'cur0': 0.0, 'cur1': 0.0, 'mgs': 0, 'compass': -144.57, 'lipoC2': 0.0, 'temp': 24.64, 'thr3': 33.0, 'depth': 0.129, 'time': 18.75, 'thr2': 32.0, 'yaw': -2.38, 'thr0': 27.0, 'thr1': 27.0}
{'lipoC3S3': 0.0, 'datetime': '2019-03-01 09:21:26.434615', 'pitch': 4.16, 'rot1': 125, 'rot0': 171, 'rot3': 4, 'rot2': 21, 'state': 'normal', 'flw3': 0, 'flw2': 0, 'flw1': 0, 'flw0': 0, 'roll': 2.55, 'cur2': 0.0, 'cur0': 0.0, 'cur1': 0.0, 'mgs': 0, 'compass': -144.57, 'lipoC2': 0.0, 'temp': 24.64, 'thr3': 33.0, 'depth': 0.129, 'time': 19.07, 'thr2': 32.0, 'yaw': -2.38, 'thr0': 27.0, 'thr1': 27.0}
{'lipoC3S3': 0.0, 'datetime': '2019-03-01 09:21:26.757062', 'pitch': 4.17, 'rot1': 125, 'rot0': 171, 'rot3': 4, 'rot2': 21, 'state': 'normal', 'flw3': 0, 'flw2': 0, 'flw1': 0, 'flw0': 0, 'roll': 2.55, 'cur2': 0.0, 'cur0': 0.0, 'cur1': 0.0, 'mgs': 0, 'compass': -144.57, 'lipoC2': 0.0, 'temp': 24.65, 'thr3': 33.0, 'depth': 0.129, 'time': 19.39, 'thr2': 32.0, 'yaw': -2.38, 'thr0': 27.0, 'thr1': 27.0}
{'lipoC3S3': 0.0, 'datetime': '2019-03-01 09:21:27.078699', 'pitch': 4.18, 'rot1': 125, 'rot0': 171, 'rot3': 4, 'rot2': 21, 'state': 'normal', 'flw3': 0, 'flw2': 0, 'flw1': 0, 'flw0': 0, 'roll': 2.55, 'cur2': 0.0, 'cur0': 0.0, 'cur1': 0.0, 'mgs': 0, 'compass': -144.57, 'lipoC2': 0.0, 'temp': 24.65, 'thr3': 33.0, 'depth': 0.129, 'time': 19.71, 'thr2': 32.0, 'yaw': -2.38, 'thr0': 27.0, 'thr1': 27.0}
{'lipoC3S3': 0.0, 'datetime': '2019-03-01 09:21:27.407236', 'pitch': 4.36, 'rot1': 125, 'rot0': 171, 'rot3': 4, 'rot2': 21, 'state': 'normal', 'flw3': 0, 'flw2': 0, 'flw1': 0, 'flw0': 0, 'roll': 2.65, 'cur2': 0.0, 'cur0': 0.0, 'cur1': 0.0, 'mgs': 0, 'compass': -144.57, 'lipoC2': 0.0, 'temp': 24.65, 'thr3': 33.0, 'depth': 0.129, 'time': 20.03, 'thr2': 32.0, 'yaw': -2.38, 'thr0': 27.0, 'thr1': 27.0}
{'lipoC3S3': 0.0, 'datetime': '2019-03-01 09:21:27.725130', 'pitch': 4.27, 'rot1': 125, 'rot0': 171, 'rot3': 4, 'rot2': 21, 'state': 'normal', 'flw3': 0, 'flw2': 0, 'flw1': 0, 'flw0': 0, 'roll': 2.64, 'cur2': 0.0, 'cur0': 0.0, 'cur1': 0.0, 'mgs': 0, 'compass': -144.57, 'lipoC2': 0.0, 'temp': 24.64, 'thr3': 33.0, 'depth': 0.129, 'time': 20.36, 'thr2': 32.0, 'yaw': -2.38, 'thr0': 27.0, 'thr1': 27.0}
{'lipoC3S3': 0.0, 'datetime': '2019-03-01 09:21:28.045895', 'pitch': 4.2, 'rot1': 125, 'rot0': 171, 'rot3': 4, 'rot2': 21, 'state': 'normal', 'flw3': 0, 'flw2': 0, 'flw1': 0, 'flw0': 0, 'roll': 2.63, 'cur2': 0.0, 'cur0': 0.0, 'cur1': 0.0, 'mgs': 0, 'compass': -144.57, 'lipoC2': 0.0, 'temp': 24.65, 'thr3': 33.0, 'depth': 0.129, 'time': 20.68, 'thr2': 32.0, 'yaw': -2.38, 'thr0': 27.0, 'thr1': 27.0}
{'lipoC3S3': 0.0, 'datetime': '2019-03-01 09:21:28.369353', 'pitch': 4.18, 'rot1': 125, 'rot0': 171, 'rot3': 4, 'rot2': 21, 'state': 'normal', 'flw3': 0, 'flw2': 0, 'flw1': 0, 'flw0': 0, 'roll': 2.65, 'cur2': 0.0, 'cur0': 0.0, 'cur1': 0.0, 'mgs': 0, 'compass': -144.57, 'lipoC2': 0.0, 'temp': 24.65, 'thr3': 33.0, 'depth': 0.129, 'time': 21.0, 'thr2': 32.0, 'yaw': -2.38, 'thr0': 27.0, 'thr1': 27.0}
{'lipoC3S3': 0.0, 'datetime': '2019-03-01 09:21:28.691310', 'pitch': 4.19, 'rot1': 125, 'rot0': 171, 'rot3': 4, 'rot2': 21, 'state': 'normal', 'flw3': 0, 'flw2': 0, 'flw1': 0, 'flw0': 0, 'roll': 2.64, 'cur2': 0.0, 'cur0': 0.0, 'cur1': 0.0, 'mgs': 0, 'compass': -144.57, 'lipoC2': 0.0, 'temp': 24.65, 'thr3': 33.0, 'depth': 0.129, 'time': 21.32, 'thr2': 32.0, 'yaw': -2.38, 'thr0': 27.0, 'thr1': 27.0}
{'lipoC3S3': 0.0, 'datetime': '2019-03-01 09:21:29.015492', 'pitch': 4.19, 'rot1': 125, 'rot0': 171, 'rot3': 4, 'rot2': 21, 'state': 'normal', 'flw3': 0, 'flw2': 0, 'flw1': 0, 'flw0': 0, 'roll': 2.64, 'cur2': 0.0, 'cur0': 0.0, 'cur1': 0.0, 'mgs': 0, 'compass': -144.57, 'lipoC2': 0.0, 'temp': 24.65, 'thr3': 33.0, 'depth': 0.129, 'time': 21.64, 'thr2': 32.0, 'yaw': -2.38, 'thr0': 27.0, 'thr1': 27.0}
{'lipoC3S3': 0.0, 'datetime': '2019-03-01 09:21:29.337879', 'pitch': 4.19, 'rot1': 125, 'rot0': 171, 'rot3': 4, 'rot2': 21, 'state': 'normal', 'flw3': 0, 'flw2': 0, 'flw1': 0, 'flw0': 0, 'roll': 2.64, 'cur2': 0.0, 'cur0': 0.0, 'cur1': 0.0, 'mgs': 0, 'compass': -144.57, 'lipoC2': 0.0, 'temp': 24.65, 'thr3': 33.0, 'depth': 0.129, 'time': 21.96, 'thr2': 32.0, 'yaw': -2.38, 'thr0': 27.0, 'thr1': 27.0}
{'lipoC3S3': 0.0, 'datetime': '2019-03-01 09:21:29.654068', 'pitch': 4.19, 'rot1': 125, 'rot0': 171, 'rot3': 4, 'rot2': 21, 'state': 'normal', 'flw3': 0, 'flw2': 0, 'flw1': 0, 'flw0': 0, 'roll': 2.64, 'cur2': 0.0, 'cur0': 0.0, 'cur1': 0.0, 'mgs': 0, 'compass': -144.57, 'lipoC2': 0.0, 'temp': 24.65, 'thr3': 33.0, 'depth': 0.119, 'time': 22.28, 'thr2': 32.0, 'yaw': -2.38, 'thr0': 27.0, 'thr1': 27.0}
{'lipoC3S3': 0.0, 'datetime': '2019-03-01 09:21:29.975469', 'pitch': 4.19, 'rot1': 125, 'rot0': 171, 'rot3': 4, 'rot2': 21, 'state': 'normal', 'flw3': 0, 'flw2': 0, 'flw1': 0, 'flw0': 0, 'roll': 2.64, 'cur2': 0.0, 'cur0': 0.0, 'cur1': 0.0, 'mgs': 0, 'compass': -144.57, 'lipoC2': 0.0, 'temp': 24.65, 'thr3': 33.0, 'depth': 0.129, 'time': 22.6, 'thr2': 32.0, 'yaw': -2.38, 'thr0': 27.0, 'thr1': 27.0}
{'lipoC3S3': 0.0, 'datetime': '2019-03-01 09:21:30.300409', 'pitch': 4.19, 'rot1': 125, 'rot0': 171, 'rot3': 4, 'rot2': 21, 'state': 'normal', 'flw3': 0, 'flw2': 0, 'flw1': 0, 'flw0': 0, 'roll': 2.64, 'cur2': 0.0, 'cur0': 0.0, 'cur1': 0.0, 'mgs': 0, 'compass': -144.57, 'lipoC2': 0.0, 'temp': 24.65, 'thr3': 33.0, 'depth': 0.129, 'time': 22.93, 'thr2': 32.0, 'yaw': -2.38, 'thr0': 27.0, 'thr1': 27.0}
{'lipoC3S3': 0.0, 'datetime': '2019-03-01 09:21:30.617315', 'pitch': 4.19, 'rot1': 125, 'rot0': 171, 'rot3': 4, 'rot2': 21, 'state': 'normal', 'flw3': 0, 'flw2': 0, 'flw1': 0, 'flw0': 0, 'roll': 2.64, 'cur2': 0.0, 'cur0': 0.0, 'cur1': 0.0, 'mgs': 0, 'compass': -144.57, 'lipoC2': 0.0, 'temp': 24.65, 'thr3': 33.0, 'depth': 0.129, 'time': 23.25, 'thr2': 32.0, 'yaw': -2.38, 'thr0': 27.0, 'thr1': 27.0}
{'lipoC3S3': 0.0, 'datetime': '2019-03-01 09:21:30.937553', 'pitch': 4.19, 'rot1': 125, 'rot0': 171, 'rot3': 4, 'rot2': 21, 'state': 'normal', 'flw3': 0, 'flw2': 0, 'flw1': 0, 'flw0': 0, 'roll': 2.64, 'cur2': 0.0, 'cur0': 0.0, 'cur1': 0.0, 'mgs': 0, 'compass': -144.57, 'lipoC2': 0.0, 'temp': 24.66, 'thr3': 33.0, 'depth': 0.129, 'time': 23.57, 'thr2': 32.0, 'yaw': -2.38, 'thr0': 27.0, 'thr1': 27.0}
{'lipoC3S3': 0.0, 'datetime': '2019-03-01 09:21:31.264924', 'pitch': 4.23, 'rot1': 125, 'rot0': 171, 'rot3': 4, 'rot2': 21, 'state': 'normal', 'flw3': 0, 'flw2': 0, 'flw1': 0, 'flw0': 0, 'roll': 2.64, 'cur2': 0.0, 'cur0': 0.0, 'cur1': 0.0, 'mgs': 0, 'compass': -144.51, 'lipoC2': 0.0, 'temp': 24.65, 'thr3': 33.0, 'depth': 0.119, 'time': 23.89, 'thr2': 32.0, 'yaw': -2.32, 'thr0': 27.0, 'thr1': 27.0}
{'lipoC3S3': 0.0, 'datetime': '2019-03-01 09:21:31.584082', 'pitch': 4.41, 'rot1': 125, 'rot0': 171, 'rot3': 4, 'rot2': 21, 'state': 'normal', 'flw3': 0, 'flw2': 0, 'flw1': 0, 'flw0': 0, 'roll': 2.41, 'cur2': 0.0, 'cur0': 0.0, 'cur1': 0.0, 'mgs': 0, 'compass': -141.77, 'lipoC2': 0.0, 'temp': 24.65, 'thr3': 33.0, 'depth': 0.129, 'time': 24.21, 'thr2': 32.0, 'yaw': 0.42, 'thr0': 27.0, 'thr1': 27.0}
{'lipoC3S3': 0.0, 'datetime': '2019-03-01 09:21:31.912720', 'pitch': 4.65, 'rot1': 125, 'rot0': 171, 'rot3': 4, 'rot2': 21, 'state': 'normal', 'flw3': 0, 'flw2': 0, 'flw1': 0, 'flw0': 0, 'roll': 2.08, 'cur2': 0.0, 'cur0': 0.0, 'cur1': 0.0, 'mgs': 0, 'compass': -133.03, 'lipoC2': 0.0, 'temp': 24.65, 'thr3': 33.0, 'depth': 0.129, 'time': 24.53, 'thr2': 32.0, 'yaw': 9.16, 'thr0': 27.0, 'thr1': 27.0}
{'lipoC3S3': 0.0, 'datetime': '2019-03-01 09:21:32.232321', 'pitch': 4.74, 'rot1': 126, 'rot0': 172, 'rot3': 4, 'rot2': 21, 'state': 'normal', 'flw3': 0, 'flw2': 0, 'flw1': 0, 'flw0': 0, 'roll': 1.95, 'cur2': 0.44, 'cur0': 0.38, 'cur1': 0.0, 'mgs': 0, 'compass': -124.67, 'lipoC2': 0.0, 'temp': 24.66, 'thr3': 33.0, 'depth': 0.129, 'time': 24.85, 'thr2': 32.0, 'yaw': 17.52, 'thr0': 27.0, 'thr1': 27.0}
{'lipoC3S3': 0.0, 'datetime': '2019-03-01 09:21:32.557522', 'pitch': 4.62, 'rot1': 130, 'rot0': 180, 'rot3': 4, 'rot2': 21, 'state': 'normal', 'flw3': 0, 'flw2': 0, 'flw1': 0, 'flw0': 0, 'roll': 1.85, 'cur2': 0.38, 'cur0': 0.37, 'cur1': 0.0, 'mgs': 0, 'compass': -118.26, 'lipoC2': 0.0, 'temp': 24.65, 'thr3': 33.0, 'depth': 0.129, 'time': 25.18, 'thr2': 32.0, 'yaw': 23.93, 'thr0': 27.0, 'thr1': 27.0}
{'lipoC3S3': 0.0, 'datetime': '2019-03-01 09:21:32.879619', 'pitch': 4.49, 'rot1': 134, 'rot0': 185, 'rot3': 4, 'rot2': 21, 'state': 'normal', 'flw3': 0, 'flw2': 0, 'flw1': 0, 'flw0': 0, 'roll': 1.82, 'cur2': 0.39, 'cur0': 0.37, 'cur1': 0.0, 'mgs': 0, 'compass': -113.96, 'lipoC2': 0.0, 'temp': 24.65, 'thr3': 33.0, 'depth': 0.129, 'time': 25.5, 'thr2': 32.0, 'yaw': 28.23, 'thr0': 27.0, 'thr1': 27.0}
{'lipoC3S3': 0.0, 'datetime': '2019-03-01 09:21:33.200613', 'pitch': 4.19, 'rot1': 138, 'rot0': 191, 'rot3': 4, 'rot2': 21, 'state': 'normal', 'flw3': 0, 'flw2': 0, 'flw1': 0, 'flw0': 0, 'roll': 2.06, 'cur2': 0.39, 'cur0': 0.35, 'cur1': 0.0, 'mgs': 0, 'compass': -112.91, 'lipoC2': 0.0, 'temp': 24.65, 'thr3': 33.0, 'depth': 0.129, 'time': 25.82, 'thr2': 32.0, 'yaw': 29.28, 'thr0': 27.0, 'thr1': 27.0}
{'lipoC3S3': 0.0, 'datetime': '2019-03-01 09:21:33.523868', 'pitch': 3.89, 'rot1': 143, 'rot0': 197, 'rot3': 4, 'rot2': 21, 'state': 'normal', 'flw3': 0, 'flw2': 0, 'flw1': 0, 'flw0': 0, 'roll': 2.42, 'cur2': 0.37, 'cur0': 0.33, 'cur1': 0.0, 'mgs': 0, 'compass': -117.26, 'lipoC2': 0.0, 'temp': 24.65, 'thr3': 33.0, 'depth': 0.129, 'time': 26.14, 'thr2': 32.0, 'yaw': 24.93, 'thr0': 27.0, 'thr1': 27.0}
{'lipoC3S3': 0.0, 'datetime': '2019-03-01 09:21:33.844886', 'pitch': 3.87, 'rot1': 147, 'rot0': 203, 'rot3': 4, 'rot2': 21, 'state': 'normal', 'flw3': 0, 'flw2': 0, 'flw1': 0, 'flw0': 0, 'roll': 2.67, 'cur2': 0.38, 'cur0': 0.35, 'cur1': 0.0, 'mgs': 0, 'compass': -125.4, 'lipoC2': 0.0, 'temp': 24.65, 'thr3': 33.0, 'depth': 0.129, 'time': 26.46, 'thr2': 33.0, 'yaw': 16.79, 'thr0': 27.0, 'thr1': 27.0}
{'lipoC3S3': 0.0, 'datetime': '2019-03-01 09:21:34.166445', 'pitch': 3.7, 'rot1': 150, 'rot0': 209, 'rot3': 4, 'rot2': 21, 'state': 'normal', 'flw3': 0, 'flw2': 0, 'flw1': 0, 'flw0': 0, 'roll': 2.78, 'cur2': 0.39, 'cur0': 0.33, 'cur1': 0.0, 'mgs': 0, 'compass': -132.97, 'lipoC2': 0.0, 'temp': 24.66, 'thr3': 33.0, 'depth': 0.119, 'time': 26.78, 'thr2': 32.0, 'yaw': 9.22, 'thr0': 27.0, 'thr1': 27.0}
{'lipoC3S3': 0.0, 'datetime': '2019-03-01 09:21:34.488145', 'pitch': 3.62, 'rot1': 154, 'rot0': 214, 'rot3': 4, 'rot2': 21, 'state': 'normal', 'flw3': 0, 'flw2': 0, 'flw1': 0, 'flw0': 0, 'roll': 2.88, 'cur2': 0.39, 'cur0': 0.33, 'cur1': 0.0, 'mgs': 0, 'compass': -139.35, 'lipoC2': 0.0, 'temp': 24.66, 'thr3': 33.0, 'depth': 0.119, 'time': 27.1, 'thr2': 32.0, 'yaw': 2.84, 'thr0': 27.0, 'thr1': 27.0}
{'lipoC3S3': 0.0, 'datetime': '2019-03-01 09:21:34.809648', 'pitch': 3.55, 'rot1': 155, 'rot0': 215, 'rot3': 4, 'rot2': 21, 'state': 'normal', 'flw3': 0, 'flw2': 0, 'flw1': 0, 'flw0': 0, 'roll': 3.02, 'cur2': 0.0, 'cur0': 0.0, 'cur1': 0.0, 'mgs': 0, 'compass': -144.72, 'lipoC2': 0.0, 'temp': 24.66, 'thr3': 33.0, 'depth': 0.119, 'time': 27.43, 'thr2': 33.0, 'yaw': -2.53, 'thr0': 27.0, 'thr1': 27.0}
{'lipoC3S3': 0.0, 'datetime': '2019-03-01 09:21:35.132121', 'pitch': 3.68, 'rot1': 155, 'rot0': 215, 'rot3': 4, 'rot2': 21, 'state': 'normal', 'flw3': 0, 'flw2': 0, 'flw1': 0, 'flw0': 0, 'roll': 2.97, 'cur2': 0.0, 'cur0': 0.0, 'cur1': 0.0, 'mgs': 0, 'compass': -147.19, 'lipoC2': 0.0, 'temp': 24.66, 'thr3': 33.0, 'depth': 0.129, 'time': 27.75, 'thr2': 32.0, 'yaw': -5.0, 'thr0': 27.0, 'thr1': 27.0}
{'lipoC3S3': 0.0, 'datetime': '2019-03-01 09:21:35.455917', 'pitch': 4.07, 'rot1': 155, 'rot0': 215, 'rot3': 4, 'rot2': 21, 'state': 'normal', 'flw3': 0, 'flw2': 0, 'flw1': 0, 'flw0': 0, 'roll': 2.89, 'cur2': 0.0, 'cur0': 0.0, 'cur1': 0.0, 'mgs': 0, 'compass': -147.21, 'lipoC2': 0.0, 'temp': 24.66, 'thr3': 33.0, 'depth': 0.129, 'time': 28.07, 'thr2': 32.0, 'yaw': -5.02, 'thr0': 27.0, 'thr1': 27.0}
{'lipoC3S3': 0.0, 'datetime': '2019-03-01 09:21:35.778705', 'pitch': 4.13, 'rot1': 155, 'rot0': 215, 'rot3': 4, 'rot2': 21, 'state': 'normal', 'flw3': 0, 'flw2': 0, 'flw1': 0, 'flw0': 0, 'roll': 2.84, 'cur2': 0.0, 'cur0': 0.0, 'cur1': 0.0, 'mgs': 0, 'compass': -147.21, 'lipoC2': 0.0, 'temp': 24.66, 'thr3': 33.0, 'depth': 0.129, 'time': 28.39, 'thr2': 32.0, 'yaw': -5.02, 'thr0': 27.0, 'thr1': 27.0}
{'lipoC3S3': 0.0, 'datetime': '2019-03-01 09:21:36.094425', 'pitch': 4.18, 'rot1': 155, 'rot0': 215, 'rot3': 4, 'rot2': 21, 'state': 'normal', 'flw3': 0, 'flw2': 0, 'flw1': 0, 'flw0': 0, 'roll': 2.81, 'cur2': 0.0, 'cur0': 0.0, 'cur1': 0.0, 'mgs': 0, 'compass': -147.21, 'lipoC2': 0.0, 'temp': 24.66, 'thr3': 33.0, 'depth': 0.129, 'time': 28.71, 'thr2': 32.0, 'yaw': -5.02, 'thr0': 27.0, 'thr1': 27.0}
{'lipoC3S3': 0.0, 'datetime': '2019-03-01 09:21:36.412891', 'pitch': 4.18, 'rot1': 155, 'rot0': 215, 'rot3': 4, 'rot2': 21, 'state': 'normal', 'flw3': 0, 'flw2': 0, 'flw1': 0, 'flw0': 0, 'roll': 2.8, 'cur2': 0.0, 'cur0': 0.0, 'cur1': 0.0, 'mgs': 0, 'compass': -147.21, 'lipoC2': 0.0, 'temp': 24.66, 'thr3': 33.0, 'depth': 0.119, 'time': 29.03, 'thr2': 32.0, 'yaw': -5.02, 'thr0': 27.0, 'thr1': 27.0}
{'lipoC3S3': 0.0, 'datetime': '2019-03-01 09:21:36.742893', 'pitch': 4.17, 'rot1': 155, 'rot0': 215, 'rot3': 4, 'rot2': 21, 'state': 'normal', 'flw3': 0, 'flw2': 0, 'flw1': 0, 'flw0': 0, 'roll': 2.8, 'cur2': 0.0, 'cur0': 0.0, 'cur1': 0.0, 'mgs': 0, 'compass': -147.21, 'lipoC2': 0.0, 'temp': 24.66, 'thr3': 33.0, 'depth': 0.129, 'time': 29.35, 'thr2': 32.0, 'yaw': -5.02, 'thr0': 27.0, 'thr1': 27.0}
{'lipoC3S3': 0.0, 'datetime': '2019-03-01 09:21:37.056637', 'pitch': 4.17, 'rot1': 155, 'rot0': 215, 'rot3': 4, 'rot2': 21, 'state': 'normal', 'flw3': 0, 'flw2': 0, 'flw1': 0, 'flw0': 0, 'roll': 2.8, 'cur2': 0.0, 'cur0': 0.0, 'cur1': 0.0, 'mgs': 0, 'compass': -147.21, 'lipoC2': 0.0, 'temp': 24.66, 'thr3': 33.0, 'depth': 0.129, 'time': 29.68, 'thr2': 32.0, 'yaw': -5.02, 'thr0': 27.0, 'thr1': 27.0}
{'lipoC3S3': 0.0, 'datetime': '2019-03-01 09:21:37.382163', 'pitch': 4.17, 'rot1': 155, 'rot0': 215, 'rot3': 4, 'rot2': 21, 'state': 'normal', 'flw3': 0, 'flw2': 0, 'flw1': 0, 'flw0': 0, 'roll': 2.8, 'cur2': 0.0, 'cur0': 0.0, 'cur1': 0.0, 'mgs': 0, 'compass': -147.21, 'lipoC2': 0.0, 'temp': 24.66, 'thr3': 33.0, 'depth': 0.129, 'time': 30.0, 'thr2': 32.0, 'yaw': -5.02, 'thr0': 27.0, 'thr1': 27.0}
{'lipoC3S3': 0.0, 'datetime': '2019-03-01 09:21:37.703558', 'pitch': 4.17, 'rot1': 155, 'rot0': 215, 'rot3': 4, 'rot2': 21, 'state': 'normal', 'flw3': 0, 'flw2': 0, 'flw1': 0, 'flw0': 0, 'roll': 2.8, 'cur2': 0.0, 'cur0': 0.0, 'cur1': 0.0, 'mgs': 0, 'compass': -147.21, 'lipoC2': 0.0, 'temp': 24.66, 'thr3': 33.0, 'depth': 0.119, 'time': 30.32, 'thr2': 32.0, 'yaw': -5.02, 'thr0': 27.0, 'thr1': 27.0}
{'lipoC3S3': 0.0, 'datetime': '2019-03-01 09:21:38.021232', 'pitch': 4.17, 'rot1': 155, 'rot0': 215, 'rot3': 4, 'rot2': 21, 'state': 'normal', 'flw3': 0, 'flw2': 0, 'flw1': 0, 'flw0': 0, 'roll': 2.8, 'cur2': 0.0, 'cur0': 0.0, 'cur1': 0.0, 'mgs': 0, 'compass': -147.21, 'lipoC2': 0.0, 'temp': 24.66, 'thr3': 33.0, 'depth': 0.129, 'time': 30.64, 'thr2': 32.0, 'yaw': -5.02, 'thr0': 27.0, 'thr1': 27.0}
{'lipoC3S3': 0.0, 'datetime': '2019-03-01 09:21:38.350460', 'pitch': 4.17, 'rot1': 155, 'rot0': 215, 'rot3': 4, 'rot2': 21, 'state': 'normal', 'flw3': 0, 'flw2': 0, 'flw1': 0, 'flw0': 0, 'roll': 2.8, 'cur2': 0.0, 'cur0': 0.0, 'cur1': 0.0, 'mgs': 0, 'compass': -147.21, 'lipoC2': 0.0, 'temp': 24.66, 'thr3': 33.0, 'depth': 0.129, 'time': 30.96, 'thr2': 32.0, 'yaw': -5.02, 'thr0': 27.0, 'thr1': 27.0}
{'lipoC3S3': 0.0, 'datetime': '2019-03-01 09:21:38.672463', 'pitch': 4.17, 'rot1': 155, 'rot0': 215, 'rot3': 4, 'rot2': 21, 'state': 'normal', 'flw3': 0, 'flw2': 0, 'flw1': 0, 'flw0': 0, 'roll': 2.8, 'cur2': 0.0, 'cur0': 0.0, 'cur1': 0.0, 'mgs': 0, 'compass': -147.21, 'lipoC2': 0.0, 'temp': 24.66, 'thr3': 33.0, 'depth': 0.129, 'time': 31.28, 'thr2': 32.0, 'yaw': -5.02, 'thr0': 27.0, 'thr1': 27.0}
{'lipoC3S3': 0.0, 'datetime': '2019-03-01 09:21:38.994660', 'pitch': 4.17, 'rot1': 155, 'rot0': 215, 'rot3': 4, 'rot2': 21, 'state': 'normal', 'flw3': 0, 'flw2': 0, 'flw1': 0, 'flw0': 0, 'roll': 2.8, 'cur2': 0.0, 'cur0': 0.0, 'cur1': 0.0, 'mgs': 0, 'compass': -147.21, 'lipoC2': 0.0, 'temp': 24.66, 'thr3': 33.0, 'depth': 0.129, 'time': 31.6, 'thr2': 32.0, 'yaw': -5.02, 'thr0': 27.0, 'thr1': 27.0}
{'lipoC3S3': 0.0, 'datetime': '2019-03-01 09:21:39.315875', 'pitch': 4.17, 'rot1': 155, 'rot0': 215, 'rot3': 4, 'rot2': 21, 'state': 'normal', 'flw3': 0, 'flw2': 0, 'flw1': 0, 'flw0': 0, 'roll': 2.8, 'cur2': 0.0, 'cur0': 0.0, 'cur1': 0.0, 'mgs': 0, 'compass': -147.21, 'lipoC2': 0.0, 'temp': 24.66, 'thr3': 33.0, 'depth': 0.129, 'time': 31.93, 'thr2': 32.0, 'yaw': -5.02, 'thr0': 27.0, 'thr1': 27.0}
{'lipoC3S3': 0.0, 'datetime': '2019-03-01 09:21:39.637482', 'pitch': 4.17, 'rot1': 155, 'rot0': 215, 'rot3': 4, 'rot2': 21, 'state': 'normal', 'flw3': 0, 'flw2': 0, 'flw1': 0, 'flw0': 0, 'roll': 2.8, 'cur2': 0.0, 'cur0': 0.0, 'cur1': 0.0, 'mgs': 0, 'compass': -147.21, 'lipoC2': 0.0, 'temp': 24.66, 'thr3': 33.0, 'depth': 0.119, 'time': 32.25, 'thr2': 32.0, 'yaw': -5.02, 'thr0': 27.0, 'thr1': 27.0}
{'lipoC3S3': 0.0, 'datetime': '2019-03-01 09:21:39.959872', 'pitch': 4.17, 'rot1': 155, 'rot0': 215, 'rot3': 4, 'rot2': 21, 'state': 'normal', 'flw3': 0, 'flw2': 0, 'flw1': 0, 'flw0': 0, 'roll': 2.8, 'cur2': 0.0, 'cur0': 0.0, 'cur1': 0.0, 'mgs': 0, 'compass': -147.21, 'lipoC2': 0.0, 'temp': 24.66, 'thr3': 33.0, 'depth': 0.129, 'time': 32.57, 'thr2': 32.0, 'yaw': -5.02, 'thr0': 27.0, 'thr1': 27.0}
{'lipoC3S3': 0.0, 'datetime': '2019-03-01 09:21:40.281046', 'pitch': 4.17, 'rot1': 155, 'rot0': 215, 'rot3': 4, 'rot2': 21, 'state': 'normal', 'flw3': 0, 'flw2': 0, 'flw1': 0, 'flw0': 0, 'roll': 2.8, 'cur2': 0.0, 'cur0': 0.0, 'cur1': 0.0, 'mgs': 0, 'compass': -147.21, 'lipoC2': 0.0, 'temp': 24.66, 'thr3': 33.0, 'depth': 0.129, 'time': 32.89, 'thr2': 32.0, 'yaw': -5.02, 'thr0': 27.0, 'thr1': 27.0}
{'lipoC3S3': 0.0, 'datetime': '2019-03-01 09:21:40.603679', 'pitch': 4.17, 'rot1': 155, 'rot0': 215, 'rot3': 4, 'rot2': 21, 'state': 'normal', 'flw3': 0, 'flw2': 0, 'flw1': 0, 'flw0': 0, 'roll': 2.8, 'cur2': 0.0, 'cur0': 0.0, 'cur1': 0.0, 'mgs': 0, 'compass': -147.21, 'lipoC2': 0.0, 'temp': 24.67, 'thr3': 33.0, 'depth': 0.129, 'time': 33.21, 'thr2': 32.0, 'yaw': -5.02, 'thr0': 27.0, 'thr1': 27.0}
{'lipoC3S3': 0.0, 'datetime': '2019-03-01 09:21:40.925237', 'pitch': 4.17, 'rot1': 155, 'rot0': 215, 'rot3': 4, 'rot2': 21, 'state': 'normal', 'flw3': 0, 'flw2': 0, 'flw1': 0, 'flw0': 0, 'roll': 2.8, 'cur2': 0.0, 'cur0': 0.0, 'cur1': 0.0, 'mgs': 0, 'compass': -147.21, 'lipoC2': 0.0, 'temp': 24.66, 'thr3': 33.0, 'depth': 0.129, 'time': 33.53, 'thr2': 32.0, 'yaw': -5.02, 'thr0': 27.0, 'thr1': 27.0}
{'lipoC3S3': 0.0, 'datetime': '2019-03-01 09:21:41.247221', 'pitch': 4.17, 'rot1': 155, 'rot0': 215, 'rot3': 4, 'rot2': 21, 'state': 'normal', 'flw3': 0, 'flw2': 0, 'flw1': 0, 'flw0': 0, 'roll': 2.8, 'cur2': 0.0, 'cur0': 0.0, 'cur1': 0.0, 'mgs': 0, 'compass': -147.21, 'lipoC2': 0.0, 'temp': 24.67, 'thr3': 33.0, 'depth': 0.129, 'time': 33.85, 'thr2': 32.0, 'yaw': -5.02, 'thr0': 27.0, 'thr1': 27.0}
{'lipoC3S3': 0.0, 'datetime': '2019-03-01 09:21:41.569464', 'pitch': 4.17, 'rot1': 155, 'rot0': 215, 'rot3': 4, 'rot2': 21, 'state': 'normal', 'flw3': 0, 'flw2': 0, 'flw1': 0, 'flw0': 0, 'roll': 2.8, 'cur2': 0.0, 'cur0': 0.0, 'cur1': 0.0, 'mgs': 0, 'compass': -147.21, 'lipoC2': 0.0, 'temp': 24.66, 'thr3': 33.0, 'depth': 0.129, 'time': 34.18, 'thr2': 32.0, 'yaw': -5.02, 'thr0': 27.0, 'thr1': 27.0}
{'lipoC3S3': 0.0, 'datetime': '2019-03-01 09:21:41.892448', 'pitch': 4.17, 'rot1': 155, 'rot0': 215, 'rot3': 4, 'rot2': 21, 'state': 'normal', 'flw3': 0, 'flw2': 0, 'flw1': 0, 'flw0': 0, 'roll': 2.8, 'cur2': 0.0, 'cur0': 0.0, 'cur1': 0.0, 'mgs': 0, 'compass': -147.21, 'lipoC2': 0.0, 'temp': 24.67, 'thr3': 33.0, 'depth': 0.129, 'time': 34.5, 'thr2': 32.0, 'yaw': -5.02, 'thr0': 27.0, 'thr1': 27.0}
{'lipoC3S3': 0.0, 'datetime': '2019-03-01 09:21:42.213592', 'pitch': 4.17, 'rot1': 155, 'rot0': 215, 'rot3': 4, 'rot2': 21, 'state': 'normal', 'flw3': 0, 'flw2': 0, 'flw1': 0, 'flw0': 0, 'roll': 2.8, 'cur2': 0.0, 'cur0': 0.0, 'cur1': 0.0, 'mgs': 0, 'compass': -147.21, 'lipoC2': 0.0, 'temp': 24.67, 'thr3': 33.0, 'depth': 0.119, 'time': 34.82, 'thr2': 32.0, 'yaw': -5.02, 'thr0': 27.0, 'thr1': 27.0}
{'lipoC3S3': 0.0, 'datetime': '2019-03-01 09:21:42.536951', 'pitch': 4.17, 'rot1': 155, 'rot0': 215, 'rot3': 4, 'rot2': 21, 'state': 'normal', 'flw3': 0, 'flw2': 0, 'flw1': 0, 'flw0': 0, 'roll': 2.8, 'cur2': 0.0, 'cur0': 0.0, 'cur1': 0.0, 'mgs': 0, 'compass': -147.21, 'lipoC2': 0.0, 'temp': 24.66, 'thr3': 33.0, 'depth': 0.129, 'time': 35.14, 'thr2': 32.0, 'yaw': -5.02, 'thr0': 27.0, 'thr1': 27.0}
{'lipoC3S3': 0.0, 'datetime': '2019-03-01 09:21:42.855256', 'pitch': 4.17, 'rot1': 155, 'rot0': 215, 'rot3': 4, 'rot2': 21, 'state': 'normal', 'flw3': 0, 'flw2': 0, 'flw1': 0, 'flw0': 0, 'roll': 2.8, 'cur2': 0.0, 'cur0': 0.0, 'cur1': 0.0, 'mgs': 0, 'compass': -147.21, 'lipoC2': 0.0, 'temp': 24.67, 'thr3': 33.0, 'depth': 0.129, 'time': 35.46, 'thr2': 32.0, 'yaw': -5.02, 'thr0': 27.0, 'thr1': 27.0}
{'lipoC3S3': 0.0, 'datetime': '2019-03-01 09:21:43.174671', 'pitch': 4.17, 'rot1': 155, 'rot0': 215, 'rot3': 4, 'rot2': 21, 'state': 'normal', 'flw3': 0, 'flw2': 0, 'flw1': 0, 'flw0': 0, 'roll': 2.8, 'cur2': 0.0, 'cur0': 0.0, 'cur1': 0.0, 'mgs': 0, 'compass': -147.21, 'lipoC2': 0.0, 'temp': 24.67, 'thr3': 33.0, 'depth': 0.119, 'time': 35.78, 'thr2': 32.0, 'yaw': -5.02, 'thr0': 27.0, 'thr1': 27.0}
{'lipoC3S3': 0.0, 'datetime': '2019-03-01 09:21:43.495866', 'pitch': 4.17, 'rot1': 155, 'rot0': 215, 'rot3': 4, 'rot2': 21, 'state': 'normal', 'flw3': 0, 'flw2': 0, 'flw1': 0, 'flw0': 0, 'roll': 2.8, 'cur2': 0.0, 'cur0': 0.0, 'cur1': 0.0, 'mgs': 0, 'compass': -147.21, 'lipoC2': 0.0, 'temp': 24.67, 'thr3': 33.0, 'depth': 0.129, 'time': 36.1, 'thr2': 32.0, 'yaw': -5.02, 'thr0': 27.0, 'thr1': 27.0}
{'lipoC3S3': 0.0, 'datetime': '2019-03-01 09:21:43.813348', 'pitch': 4.17, 'rot1': 155, 'rot0': 215, 'rot3': 4, 'rot2': 21, 'state': 'normal', 'flw3': 0, 'flw2': 0, 'flw1': 0, 'flw0': 0, 'roll': 2.8, 'cur2': 0.0, 'cur0': 0.0, 'cur1': 0.0, 'mgs': 0, 'compass': -147.21, 'lipoC2': 0.0, 'temp': 24.67, 'thr3': 33.0, 'depth': 0.119, 'time': 36.43, 'thr2': 32.0, 'yaw': -5.02, 'thr0': 27.0, 'thr1': 27.0}
{'lipoC3S3': 0.0, 'datetime': '2019-03-01 09:21:44.135714', 'pitch': 4.17, 'rot1': 155, 'rot0': 215, 'rot3': 4, 'rot2': 21, 'state': 'normal', 'flw3': 0, 'flw2': 0, 'flw1': 0, 'flw0': 0, 'roll': 2.8, 'cur2': 0.0, 'cur0': 0.0, 'cur1': 0.0, 'mgs': 0, 'compass': -147.21, 'lipoC2': 0.0, 'temp': 24.67, 'thr3': 33.0, 'depth': 0.129, 'time': 36.75, 'thr2': 32.0, 'yaw': -5.02, 'thr0': 27.0, 'thr1': 27.0}
{'lipoC3S3': 0.0, 'datetime': '2019-03-01 09:21:44.457112', 'pitch': 4.17, 'rot1': 155, 'rot0': 215, 'rot3': 4, 'rot2': 21, 'state': 'normal', 'flw3': 0, 'flw2': 0, 'flw1': 0, 'flw0': 0, 'roll': 2.79, 'cur2': 0.0, 'cur0': 0.0, 'cur1': 0.0, 'mgs': 0, 'compass': -147.21, 'lipoC2': 0.0, 'temp': 24.67, 'thr3': 33.0, 'depth': 0.129, 'time': 37.07, 'thr2': 32.0, 'yaw': -5.02, 'thr0': 27.0, 'thr1': 27.0}
{'lipoC3S3': 0.0, 'datetime': '2019-03-01 09:21:44.779533', 'pitch': 4.2, 'rot1': 155, 'rot0': 215, 'rot3': 4, 'rot2': 21, 'state': 'normal', 'flw3': 0, 'flw2': 0, 'flw1': 0, 'flw0': 0, 'roll': 2.73, 'cur2': 0.0, 'cur0': 0.0, 'cur1': 0.0, 'mgs': 0, 'compass': -147.21, 'lipoC2': 0.0, 'temp': 24.67, 'thr3': 33.0, 'depth': 0.129, 'time': 37.39, 'thr2': 32.0, 'yaw': -5.02, 'thr0': 27.0, 'thr1': 27.0}
{'lipoC3S3': 0.0, 'datetime': '2019-03-01 09:21:45.104383', 'pitch': 4.21, 'rot1': 155, 'rot0': 215, 'rot3': 4, 'rot2': 21, 'state': 'normal', 'flw3': 0, 'flw2': 0, 'flw1': 0, 'flw0': 0, 'roll': 2.75, 'cur2': 0.0, 'cur0': 0.0, 'cur1': 0.0, 'mgs': 0, 'compass': -147.21, 'lipoC2': 0.0, 'temp': 24.67, 'thr3': 33.0, 'depth': 0.129, 'time': 37.71, 'thr2': 32.0, 'yaw': -5.02, 'thr0': 27.0, 'thr1': 27.0}
{'lipoC3S3': 0.0, 'datetime': '2019-03-01 09:21:45.428745', 'pitch': 4.21, 'rot1': 155, 'rot0': 215, 'rot3': 4, 'rot2': 21, 'state': 'normal', 'flw3': 0, 'flw2': 0, 'flw1': 0, 'flw0': 0, 'roll': 2.74, 'cur2': 0.0, 'cur0': 0.0, 'cur1': 0.0, 'mgs': 0, 'compass': -147.21, 'lipoC2': 0.0, 'temp': 24.67, 'thr3': 33.0, 'depth': 0.129, 'time': 38.03, 'thr2': 32.0, 'yaw': -5.02, 'thr0': 27.0, 'thr1': 27.0}
{'lipoC3S3': 0.0, 'datetime': '2019-03-01 09:21:45.752186', 'pitch': 4.28, 'rot1': 155, 'rot0': 215, 'rot3': 4, 'rot2': 21, 'state': 'normal', 'flw3': 0, 'flw2': 0, 'flw1': 0, 'flw0': 0, 'roll': 2.74, 'cur2': 0.0, 'cur0': 0.0, 'cur1': 0.0, 'mgs': 0, 'compass': -147.24, 'lipoC2': 0.0, 'temp': 24.67, 'thr3': 33.0, 'depth': 0.129, 'time': 38.35, 'thr2': 32.0, 'yaw': -5.05, 'thr0': 27.0, 'thr1': 27.0}
{'lipoC3S3': 0.0, 'datetime': '2019-03-01 09:21:46.070371', 'pitch': 4.4, 'rot1': 155, 'rot0': 215, 'rot3': 4, 'rot2': 21, 'state': 'normal', 'flw3': 0, 'flw2': 0, 'flw1': 0, 'flw0': 0, 'roll': 2.78, 'cur2': 0.0, 'cur0': 0.0, 'cur1': 0.0, 'mgs': 0, 'compass': -147.41, 'lipoC2': 0.0, 'temp': 24.67, 'thr3': 33.0, 'depth': 0.129, 'time': 38.68, 'thr2': 32.0, 'yaw': -5.22, 'thr0': 27.0, 'thr1': 27.0}
{'lipoC3S3': 0.0, 'datetime': '2019-03-01 09:21:46.394935', 'pitch': 4.33, 'rot1': 155, 'rot0': 215, 'rot3': 4, 'rot2': 21, 'state': 'normal', 'flw3': 0, 'flw2': 0, 'flw1': 0, 'flw0': 0, 'roll': 2.77, 'cur2': 0.0, 'cur0': 0.0, 'cur1': 0.0, 'mgs': 0, 'compass': -147.43, 'lipoC2': 0.0, 'temp': 24.67, 'thr3': 33.0, 'depth': 0.129, 'time': 39.0, 'thr2': 32.0, 'yaw': -5.24, 'thr0': 27.0, 'thr1': 27.0}
{'lipoC3S3': 0.0, 'datetime': '2019-03-01 09:21:46.718531', 'pitch': 4.33, 'rot1': 155, 'rot0': 215, 'rot3': 4, 'rot2': 21, 'state': 'normal', 'flw3': 0, 'flw2': 0, 'flw1': 0, 'flw0': 0, 'roll': 2.77, 'cur2': 0.0, 'cur0': 0.0, 'cur1': 0.0, 'mgs': 0, 'compass': -147.43, 'lipoC2': 0.0, 'temp': 24.67, 'thr3': 33.0, 'depth': 0.129, 'time': 39.32, 'thr2': 32.0, 'yaw': -5.24, 'thr0': 27.0, 'thr1': 27.0}
{'lipoC3S3': 0.0, 'datetime': '2019-03-01 09:21:47.033370', 'pitch': 4.35, 'rot1': 155, 'rot0': 215, 'rot3': 4, 'rot2': 21, 'state': 'normal', 'flw3': 0, 'flw2': 0, 'flw1': 0, 'flw0': 0, 'roll': 2.77, 'cur2': 0.0, 'cur0': 0.0, 'cur1': 0.0, 'mgs': 0, 'compass': -147.4, 'lipoC2': 0.0, 'temp': 24.67, 'thr3': 33.0, 'depth': 0.129, 'time': 39.64, 'thr2': 32.0, 'yaw': -5.21, 'thr0': 27.0, 'thr1': 27.0}
{'lipoC3S3': 0.0, 'datetime': '2019-03-01 09:21:47.359896', 'pitch': 4.36, 'rot1': 155, 'rot0': 215, 'rot3': 4, 'rot2': 21, 'state': 'normal', 'flw3': 0, 'flw2': 0, 'flw1': 0, 'flw0': 0, 'roll': 2.77, 'cur2': 0.0, 'cur0': 0.0, 'cur1': 0.0, 'mgs': 0, 'compass': -147.51, 'lipoC2': 0.0, 'temp': 24.67, 'thr3': 33.0, 'depth': 0.129, 'time': 39.96, 'thr2': 32.0, 'yaw': -5.32, 'thr0': 27.0, 'thr1': 27.0}
{'lipoC3S3': 0.0, 'datetime': '2019-03-01 09:21:47.677628', 'pitch': 4.36, 'rot1': 155, 'rot0': 215, 'rot3': 4, 'rot2': 21, 'state': 'normal', 'flw3': 0, 'flw2': 0, 'flw1': 0, 'flw0': 0, 'roll': 2.77, 'cur2': 0.0, 'cur0': 0.0, 'cur1': 0.0, 'mgs': 0, 'compass': -147.52, 'lipoC2': 0.0, 'temp': 24.67, 'thr3': 33.0, 'depth': 0.129, 'time': 40.28, 'thr2': 32.0, 'yaw': -5.33, 'thr0': 27.0, 'thr1': 27.0}
{'lipoC3S3': 0.0, 'datetime': '2019-03-01 09:21:47.999602', 'pitch': 4.3, 'rot1': 155, 'rot0': 215, 'rot3': 4, 'rot2': 21, 'state': 'normal', 'flw3': 0, 'flw2': 0, 'flw1': 0, 'flw0': 0, 'roll': 2.85, 'cur2': 0.0, 'cur0': 0.0, 'cur1': 0.0, 'mgs': 0, 'compass': -148.63, 'lipoC2': 0.0, 'temp': 24.67, 'thr3': 33.0, 'depth': 0.129, 'time': 40.6, 'thr2': 32.0, 'yaw': -6.44, 'thr0': 27.0, 'thr1': 27.0}
{'lipoC3S3': 0.0, 'datetime': '2019-03-01 09:21:48.322562', 'pitch': 4.2, 'rot1': 155, 'rot0': 215, 'rot3': 4, 'rot2': 21, 'state': 'normal', 'flw3': 0, 'flw2': 0, 'flw1': 0, 'flw0': 0, 'roll': 2.99, 'cur2': 0.0, 'cur0': 0.0, 'cur1': 0.0, 'mgs': 0, 'compass': -150.62, 'lipoC2': 0.0, 'temp': 24.67, 'thr3': 33.0, 'depth': 0.129, 'time': 40.93, 'thr2': 32.0, 'yaw': -8.43, 'thr0': 27.0, 'thr1': 27.0}
{'lipoC3S3': 0.0, 'datetime': '2019-03-01 09:21:48.644305', 'pitch': 4.18, 'rot1': 157, 'rot0': 219, 'rot3': 4, 'rot2': 21, 'state': 'normal', 'flw3': 0, 'flw2': 0, 'flw1': 0, 'flw0': 0, 'roll': 2.97, 'cur2': 0.39, 'cur0': 0.37, 'cur1': 0.0, 'mgs': 0, 'compass': -150.86, 'lipoC2': 0.0, 'temp': 24.67, 'thr3': 33.0, 'depth': 0.129, 'time': 41.25, 'thr2': 32.0, 'yaw': -8.67, 'thr0': 27.0, 'thr1': 27.0}
{'lipoC3S3': 0.0, 'datetime': '2019-03-01 09:21:48.965946', 'pitch': 4.23, 'rot1': 159, 'rot0': 223, 'rot3': 4, 'rot2': 21, 'state': 'normal', 'flw3': 0, 'flw2': 0, 'flw1': 0, 'flw0': 0, 'roll': 2.96, 'cur2': 0.37, 'cur0': 0.32, 'cur1': 0.0, 'mgs': 0, 'compass': -150.86, 'lipoC2': 0.0, 'temp': 24.68, 'thr3': 33.0, 'depth': 0.119, 'time': 41.57, 'thr2': 32.0, 'yaw': -8.67, 'thr0': 27.0, 'thr1': 27.0}
{'lipoC3S3': 0.0, 'datetime': '2019-03-01 09:21:49.287607', 'pitch': 4.28, 'rot1': 161, 'rot0': 228, 'rot3': 4, 'rot2': 21, 'state': 'normal', 'flw3': 0, 'flw2': 0, 'flw1': 0, 'flw0': 0, 'roll': 2.91, 'cur2': 0.4, 'cur0': 0.34, 'cur1': 0.0, 'mgs': 0, 'compass': -150.85, 'lipoC2': 0.0, 'temp': 24.67, 'thr3': 33.0, 'depth': 0.129, 'time': 41.89, 'thr2': 32.0, 'yaw': -8.66, 'thr0': 27.0, 'thr1': 27.0}
{'lipoC3S3': 0.0, 'datetime': '2019-03-01 09:21:49.608861', 'pitch': 4.33, 'rot1': 164, 'rot0': 234, 'rot3': 4, 'rot2': 21, 'state': 'normal', 'flw3': 0, 'flw2': 0, 'flw1': 0, 'flw0': 0, 'roll': 2.9, 'cur2': 0.39, 'cur0': 0.34, 'cur1': 0.0, 'mgs': 0, 'compass': -150.56, 'lipoC2': 0.0, 'temp': 24.68, 'thr3': 33.0, 'depth': 0.129, 'time': 42.21, 'thr2': 32.0, 'yaw': -8.37, 'thr0': 27.0, 'thr1': 27.0}
