{'lipoC2': 0.15, 'temp': 0.0, 'lipoC3S3': 0.0, 'state': 'd9_error', 'rot1': 0, 'rot0': 0, 'rot3': 0, 'rot2': 0, 'depth': -12.5, 'yaw': 0.0, 'datetime': '2019-02-26 09:13:22.139040', 'mgs': 0, 'flw2': 0.0, 'flw1': 0.0, 'flw0': 0.0, 'time': 1.25, 'compass': 0.0, 'pitch': 0.0, 'roll': 0.0}
{'lipoC2': 0.13, 'temp': 0.0, 'lipoC3S3': 0.13, 'state': 'd9_error', 'rot1': 0, 'rot0': 0, 'rot3': 0, 'rot2': 0, 'depth': -10.898, 'yaw': 0.0, 'datetime': '2019-02-26 09:13:22.342977', 'mgs': 0, 'flw2': 0.24, 'flw1': 0.0, 'flw0': 0.21, 'time': 1.46, 'compass': 0.0, 'pitch': 0.0, 'roll': 0.0}
{'lipoC2': 0.0, 'temp': 0.0, 'lipoC3S3': 0.17, 'state': 'd9_error', 'rot1': 0, 'rot0': 0, 'rot3': 0, 'rot2': 0, 'depth': -12.5, 'yaw': 0.0, 'datetime': '2019-02-26 09:13:22.548057', 'mgs': 0, 'flw2': 0.26, 'flw1': 0.0, 'flw0': 0.0, 'time': 1.66, 'compass': 0.0, 'pitch': 0.0, 'roll': 0.0}
{'lipoC2': 0.0, 'temp': 0.0, 'lipoC3S3': 0.0, 'state': 'd9_error', 'rot1': 0, 'rot0': 0, 'rot3': 0, 'rot2': 0, 'depth': -12.5, 'yaw': 0.0, 'datetime': '2019-02-26 09:13:22.751970', 'mgs': 0, 'flw2': 0.04, 'flw1': 0.0, 'flw0': 0.0, 'time': 1.86, 'compass': 0.0, 'pitch': 0.0, 'roll': 0.0}
{'lipoC2': 0.2, 'temp': 0.0, 'lipoC3S3': 0.0, 'state': 'd9_error', 'rot1': 0, 'rot0': 0, 'rot3': 0, 'rot2': 0, 'depth': -12.5, 'yaw': 0.0, 'datetime': '2019-02-26 09:13:22.954886', 'mgs': 0, 'flw2': 0.0, 'flw1': 0.0, 'flw0': 0.0, 'time': 2.07, 'compass': 0.0, 'pitch': 0.0, 'roll': 0.0}
{'lipoC2': 0.08, 'temp': 0.0, 'lipoC3S3': 0.0, 'state': 'd9_error', 'rot1': 0, 'rot0': 0, 'rot3': 0, 'rot2': 0, 'depth': -12.195, 'yaw': 0.0, 'datetime': '2019-02-26 09:13:23.159521', 'mgs': 0, 'flw2': 0.27, 'flw1': 0.0, 'flw0': 0.0, 'time': 2.27, 'compass': 0.0, 'pitch': 0.0, 'roll': 0.0}
{'lipoC2': 0.0, 'temp': 0.0, 'lipoC3S3': 0.01, 'state': 'd9_error', 'rot1': 0, 'rot0': 0, 'rot3': 0, 'rot2': 0, 'depth': -10.593, 'yaw': 0.0, 'datetime': '2019-02-26 09:13:23.364177', 'mgs': 0, 'flw2': 0.01, 'flw1': 0.0, 'flw0': 0.0, 'time': 2.47, 'compass': 0.0, 'pitch': 0.0, 'roll': 0.0}
{'lipoC2': 0.0, 'temp': 0.0, 'lipoC3S3': 0.0, 'state': 'd9_error', 'rot1': 0, 'rot0': 0, 'rot3': 0, 'rot2': 0, 'depth': -10.669, 'yaw': 0.0, 'datetime': '2019-02-26 09:13:23.568820', 'mgs': 0, 'flw2': 0.21, 'flw1': 0.0, 'flw0': 0.2, 'time': 2.68, 'compass': 0.0, 'pitch': 0.0, 'roll': 0.0}
{'lipoC2': 0.2, 'temp': 0.0, 'lipoC3S3': 0.0, 'state': 'd9_error', 'rot1': 0, 'rot0': 0, 'rot3': 0, 'rot2': 0, 'depth': -12.5, 'yaw': 0.0, 'datetime': '2019-02-26 09:13:23.773798', 'mgs': 0, 'flw2': 0.16, 'flw1': 0.0, 'flw0': 0.0, 'time': 2.88, 'compass': 0.0, 'pitch': 0.0, 'roll': 0.0}
{'lipoC2': 0.0, 'temp': 0.0, 'lipoC3S3': 0.0, 'state': 'd9_error', 'rot1': 0, 'rot0': 0, 'rot3': 0, 'rot2': 0, 'depth': -12.5, 'yaw': 0.0, 'datetime': '2019-02-26 09:13:23.977744', 'mgs': 0, 'flw2': 0.0, 'flw1': 0.0, 'flw0': 0.32, 'time': 3.09, 'compass': 0.0, 'pitch': 0.0, 'roll': 0.0}
{'lipoC2': 0.0, 'temp': 0.0, 'lipoC3S3': 0.0, 'state': 'd9_error', 'rot1': 0, 'rot0': 0, 'rot3': 0, 'rot2': 0, 'depth': -12.5, 'yaw': 0.0, 'datetime': '2019-02-26 09:13:24.182925', 'mgs': 0, 'flw2': 0.17, 'flw1': 0.0, 'flw0': 0.0, 'time': 3.29, 'compass': 0.0, 'pitch': 0.0, 'roll': 0.0}
{'lipoC2': 0.0, 'temp': 0.0, 'lipoC3S3': 0.0, 'state': 'd9_error', 'rot1': 0, 'rot0': 0, 'rot3': 0, 'rot2': 0, 'depth': -12.042, 'yaw': 0.0, 'datetime': '2019-02-26 09:13:24.386728', 'mgs': 0, 'flw2': 0.26, 'flw1': 0.0, 'flw0': 0.0, 'time': 3.49, 'compass': 0.0, 'pitch': 0.0, 'roll': 0.0}
{'lipoC2': 0.18, 'temp': 0.0, 'lipoC3S3': 0.0, 'state': 'd9_error', 'rot1': 0, 'rot0': 0, 'rot3': 0, 'rot2': 0, 'depth': -12.5, 'yaw': 0.0, 'datetime': '2019-02-26 09:13:24.591963', 'mgs': 0, 'flw2': 0.0, 'flw1': 0.0, 'flw0': 0.0, 'time': 3.7, 'compass': 0.0, 'pitch': 0.0, 'roll': 0.0}
{'lipoC2': 0.0, 'temp': 0.0, 'lipoC3S3': 0.0, 'state': 'd9_error', 'rot1': 0, 'rot0': 0, 'rot3': 0, 'rot2': 0, 'depth': -12.5, 'yaw': 0.0, 'datetime': '2019-02-26 09:13:24.795761', 'mgs': 0, 'flw2': 0.0, 'flw1': 0.0, 'flw0': 0.0, 'time': 3.9, 'compass': 0.0, 'pitch': 0.0, 'roll': 0.0}
{'lipoC2': 0.02, 'temp': 0.0, 'lipoC3S3': 0.0, 'state': 'd9_error', 'rot1': 0, 'rot0': 0, 'rot3': 0, 'rot2': 0, 'depth': -12.5, 'yaw': 0.0, 'datetime': '2019-02-26 09:13:25.000206', 'mgs': 0, 'flw2': 0.1, 'flw1': 0.15, 'flw0': 0.01, 'time': 4.11, 'compass': 0.0, 'pitch': 0.0, 'roll': 0.0}
{'lipoC2': 0.0, 'temp': 0.0, 'lipoC3S3': 0.0, 'state': 'd9_error', 'rot1': 0, 'rot0': 0, 'rot3': 0, 'rot2': 0, 'depth': -12.5, 'yaw': 0.0, 'datetime': '2019-02-26 09:13:25.307367', 'mgs': 0, 'flw2': 0.0, 'flw1': 0.79, 'flw0': 0.0, 'time': 4.41, 'compass': 0.0, 'pitch': 0.0, 'roll': 0.0}
{'lipoC2': 0.04, 'temp': 0.0, 'lipoC3S3': 0.0, 'state': 'd9_error', 'rot1': 0, 'rot0': 0, 'rot3': 0, 'rot2': 0, 'depth': -12.5, 'yaw': 0.0, 'datetime': '2019-02-26 09:13:25.511716', 'mgs': 0, 'flw2': 0.0, 'flw1': 0.0, 'flw0': 0.0, 'time': 4.62, 'compass': 0.0, 'pitch': 0.0, 'roll': 0.0}
{'lipoC2': 0.16, 'temp': 0.0, 'lipoC3S3': 0.0, 'state': 'd9_error', 'rot1': 0, 'rot0': 0, 'rot3': 0, 'rot2': 0, 'depth': -12.5, 'yaw': 0.0, 'datetime': '2019-02-26 09:13:25.716245', 'mgs': 0, 'flw2': 0.18, 'flw1': 0.0, 'flw0': 0.02, 'time': 4.82, 'compass': 0.0, 'pitch': 0.0, 'roll': 0.0}
{'lipoC2': 0.0, 'temp': 0.0, 'lipoC3S3': 0.0, 'state': 'd9_error', 'rot1': 0, 'rot0': 0, 'rot3': 0, 'rot2': 0, 'depth': -11.279, 'yaw': 0.0, 'datetime': '2019-02-26 09:13:25.920380', 'mgs': 0, 'flw2': 0.24, 'flw1': 0.0, 'flw0': 0.04, 'time': 5.03, 'compass': 0.0, 'pitch': 0.0, 'roll': 0.0}
{'lipoC2': 0.0, 'temp': 0.0, 'lipoC3S3': 0.0, 'state': 'd9_error', 'rot1': 0, 'rot0': 0, 'rot3': 0, 'rot2': 0, 'depth': -12.5, 'yaw': 0.0, 'datetime': '2019-02-26 09:13:26.124319', 'mgs': 0, 'flw2': 0.22, 'flw1': 0.0, 'flw0': 0.0, 'time': 5.23, 'compass': 0.0, 'pitch': 0.0, 'roll': 0.0}
{'lipoC2': 0.0, 'temp': 0.0, 'lipoC3S3': 0.0, 'state': 'd9_error', 'rot1': 0, 'rot0': 0, 'rot3': 0, 'rot2': 0, 'depth': -12.424, 'yaw': 0.0, 'datetime': '2019-02-26 09:13:26.329289', 'mgs': 0, 'flw2': 0.11, 'flw1': 0.0, 'flw0': 0.22, 'time': 5.43, 'compass': 0.0, 'pitch': 0.0, 'roll': 0.0}
{'lipoC2': 0.18, 'temp': 0.0, 'lipoC3S3': 0.04, 'state': 'd9_error', 'rot1': 0, 'rot0': 0, 'rot3': 0, 'rot2': 0, 'depth': -12.5, 'yaw': 0.0, 'datetime': '2019-02-26 09:13:26.533282', 'mgs': 0, 'flw2': 0.0, 'flw1': 0.0, 'flw0': 0.16, 'time': 5.64, 'compass': 0.0, 'pitch': 0.0, 'roll': 0.0}
{'lipoC2': 0.31, 'temp': 0.0, 'lipoC3S3': 0.0, 'state': 'd9_error', 'rot1': 0, 'rot0': 0, 'rot3': 0, 'rot2': 0, 'depth': -12.5, 'yaw': 0.0, 'datetime': '2019-02-26 09:13:26.737160', 'mgs': 0, 'flw2': 0.0, 'flw1': 0.0, 'flw0': 0.0, 'time': 5.84, 'compass': 0.0, 'pitch': 0.0, 'roll': 0.0}
{'lipoC2': 0.31, 'temp': 0.0, 'lipoC3S3': 0.0, 'state': 'd9_error', 'rot1': 0, 'rot0': 0, 'rot3': 0, 'rot2': 0, 'depth': -12.347, 'yaw': 0.0, 'datetime': '2019-02-26 09:13:26.942351', 'mgs': 0, 'flw2': 0.24, 'flw1': 0.0, 'flw0': 0.0, 'time': 6.05, 'compass': 0.0, 'pitch': 0.0, 'roll': 0.0}
{'lipoC2': 0.0, 'temp': 0.0, 'lipoC3S3': 0.0, 'state': 'd9_error', 'rot1': 0, 'rot0': 0, 'rot3': 0, 'rot2': 0, 'depth': -12.5, 'yaw': 0.0, 'datetime': '2019-02-26 09:13:27.146608', 'mgs': 0, 'flw2': 0.2, 'flw1': 0.0, 'flw0': 0.2, 'time': 6.25, 'compass': 0.0, 'pitch': 0.0, 'roll': 0.0}
{'lipoC2': 0.0, 'temp': 0.0, 'lipoC3S3': 0.0, 'state': 'd9_error', 'rot1': 0, 'rot0': 0, 'rot3': 0, 'rot2': 0, 'depth': -12.5, 'yaw': 0.0, 'datetime': '2019-02-26 09:13:27.350882', 'mgs': 0, 'flw2': 0.0, 'flw1': 0.0, 'flw0': 0.0, 'time': 6.45, 'compass': 0.0, 'pitch': 0.0, 'roll': 0.0}
{'lipoC2': 0.0, 'temp': 0.0, 'lipoC3S3': 0.0, 'state': 'd9_error', 'rot1': 0, 'rot0': 0, 'rot3': 0, 'rot2': 0, 'depth': -12.5, 'yaw': 0.0, 'datetime': '2019-02-26 09:13:27.555259', 'mgs': 0, 'flw2': 0.27, 'flw1': 0.03, 'flw0': 0.0, 'time': 6.66, 'compass': 0.0, 'pitch': 0.0, 'roll': 0.0}
{'lipoC2': 0.04, 'temp': 0.0, 'lipoC3S3': 0.09, 'state': 'd9_error', 'rot1': 0, 'rot0': 0, 'rot3': 0, 'rot2': 0, 'depth': -10.745, 'yaw': 0.0, 'datetime': '2019-02-26 09:13:27.760012', 'mgs': 0, 'flw2': 0.24, 'flw1': 0.0, 'flw0': 0.1, 'time': 6.86, 'compass': 0.0, 'pitch': 0.0, 'roll': 0.0}
{'lipoC2': 0.01, 'temp': 0.0, 'lipoC3S3': 0.11, 'state': 'd9_error', 'rot1': 0, 'rot0': 0, 'rot3': 0, 'rot2': 0, 'depth': -10.745, 'yaw': 0.0, 'datetime': '2019-02-26 09:13:27.964491', 'mgs': 0, 'flw2': 0.0, 'flw1': 0.5, 'flw0': 0.0, 'time': 7.07, 'compass': 0.0, 'pitch': 0.0, 'roll': 0.0}
{'lipoC2': 0.0, 'temp': 0.0, 'lipoC3S3': 0.09, 'state': 'd9_error', 'rot1': 0, 'rot0': 0, 'rot3': 0, 'rot2': 0, 'depth': -12.5, 'yaw': 0.0, 'datetime': '2019-02-26 09:13:28.168326', 'mgs': 0, 'flw2': 0.22, 'flw1': 0.0, 'flw0': 0.04, 'time': 7.27, 'compass': 0.0, 'pitch': 0.0, 'roll': 0.0}
{'lipoC2': 0.0, 'temp': 0.0, 'lipoC3S3': 0.0, 'state': 'd9_error', 'rot1': 0, 'rot0': 0, 'rot3': 0, 'rot2': 0, 'depth': -12.5, 'yaw': 0.0, 'datetime': '2019-02-26 09:13:28.383174', 'mgs': 0, 'flw2': 0.28, 'flw1': 0.0, 'flw0': 0.0, 'time': 7.48, 'compass': 0.0, 'pitch': 0.0, 'roll': 0.0}
{'lipoC2': 0.0, 'temp': 0.0, 'lipoC3S3': 0.0, 'state': 'd9_error', 'rot1': 0, 'rot0': 0, 'rot3': 0, 'rot2': 0, 'depth': -10.593, 'yaw': 0.0, 'datetime': '2019-02-26 09:13:28.679930', 'mgs': 0, 'flw2': 0.27, 'flw1': 0.09, 'flw0': 0.22, 'time': 7.78, 'compass': 0.0, 'pitch': 0.0, 'roll': 0.0}
{'lipoC2': 0.0, 'temp': 0.0, 'lipoC3S3': 0.0, 'state': 'd9_error', 'rot1': 0, 'rot0': 0, 'rot3': 0, 'rot2': 0, 'depth': -12.5, 'yaw': 0.0, 'datetime': '2019-02-26 09:13:28.883817', 'mgs': 0, 'flw2': 0.26, 'flw1': 0.0, 'flw0': 0.0, 'time': 7.99, 'compass': 0.0, 'pitch': 0.0, 'roll': 0.0}
{'lipoC2': 0.0, 'temp': 0.0, 'lipoC3S3': 0.04, 'state': 'd9_error', 'rot1': 0, 'rot0': 0, 'rot3': 0, 'rot2': 0, 'depth': -12.5, 'yaw': 0.0, 'datetime': '2019-02-26 09:13:29.088894', 'mgs': 0, 'flw2': 0.0, 'flw1': 0.35, 'flw0': 0.09, 'time': 8.19, 'compass': 0.0, 'pitch': 0.0, 'roll': 0.0}
{'lipoC2': 0.0, 'temp': 0.0, 'lipoC3S3': 0.0, 'state': 'd9_error', 'rot1': 0, 'rot0': 0, 'rot3': 0, 'rot2': 0, 'depth': -12.5, 'yaw': 0.0, 'datetime': '2019-02-26 09:13:29.293057', 'mgs': 0, 'flw2': 0.38, 'flw1': 0.0, 'flw0': 0.0, 'time': 8.39, 'compass': 0.0, 'pitch': 0.0, 'roll': 0.0}
{'lipoC2': 0.0, 'temp': 0.0, 'lipoC3S3': 0.0, 'state': 'd9_error', 'rot1': 0, 'rot0': 0, 'rot3': 0, 'rot2': 0, 'depth': -12.5, 'yaw': 0.0, 'datetime': '2019-02-26 09:13:29.497520', 'mgs': 0, 'flw2': 0.0, 'flw1': 0.18, 'flw0': 0.0, 'time': 8.6, 'compass': 0.0, 'pitch': 0.0, 'roll': 0.0}
{'lipoC2': 0.0, 'temp': 0.0, 'lipoC3S3': 0.04, 'state': 'd9_error', 'rot1': 0, 'rot0': 0, 'rot3': 0, 'rot2': 0, 'depth': -12.5, 'yaw': 0.0, 'datetime': '2019-02-26 09:13:29.702358', 'mgs': 0, 'flw2': 0.24, 'flw1': 0.0, 'flw0': 0.0, 'time': 8.8, 'compass': 0.0, 'pitch': 0.0, 'roll': 0.0}
{'lipoC2': 0.0, 'temp': 0.0, 'lipoC3S3': 0.0, 'state': 'd9_error', 'rot1': 0, 'rot0': 0, 'rot3': 0, 'rot2': 0, 'depth': -12.5, 'yaw': 0.0, 'datetime': '2019-02-26 09:13:29.906657', 'mgs': 0, 'flw2': 0.21, 'flw1': 0.0, 'flw0': 0.0, 'time': 9.01, 'compass': 0.0, 'pitch': 0.0, 'roll': 0.0}
{'lipoC2': 0.28, 'temp': 0.0, 'lipoC3S3': 0.04, 'state': 'd9_error', 'rot1': 0, 'rot0': 0, 'rot3': 0, 'rot2': 0, 'depth': -12.5, 'yaw': 0.0, 'datetime': '2019-02-26 09:13:30.110910', 'mgs': 0, 'flw2': 0.0, 'flw1': 0.0, 'flw0': 0.32, 'time': 9.21, 'compass': 0.0, 'pitch': 0.0, 'roll': 0.0}
{'lipoC2': 0.0, 'temp': 0.0, 'lipoC3S3': 0.0, 'state': 'd9_error', 'rot1': 0, 'rot0': 0, 'rot3': 0, 'rot2': 0, 'depth': -12.5, 'yaw': 0.0, 'datetime': '2019-02-26 09:13:30.319370', 'mgs': 0, 'flw2': 0.27, 'flw1': 0.12, 'flw0': 0.26, 'time': 9.41, 'compass': 0.0, 'pitch': 0.0, 'roll': 0.0}
{'lipoC2': 0.19, 'temp': 0.0, 'lipoC3S3': 0.0, 'state': 'd9_error', 'rot1': 0, 'rot0': 0, 'rot3': 0, 'rot2': 0, 'depth': -12.5, 'yaw': 0.0, 'datetime': '2019-02-26 09:13:30.523872', 'mgs': 0, 'flw2': 0.07, 'flw1': 0.0, 'flw0': 0.2, 'time': 9.62, 'compass': 0.0, 'pitch': 0.0, 'roll': 0.0}
{'lipoC2': 0.0, 'temp': 0.0, 'lipoC3S3': 0.0, 'state': 'd9_error', 'rot1': 0, 'rot0': 0, 'rot3': 0, 'rot2': 0, 'depth': -11.432, 'yaw': 0.0, 'datetime': '2019-02-26 09:13:30.828495', 'mgs': 0, 'flw2': 0.02, 'flw1': 0.0, 'flw0': 0.0, 'time': 9.93, 'compass': 0.0, 'pitch': 0.0, 'roll': 0.0}
{'lipoC2': 0.0, 'temp': 0.0, 'lipoC3S3': 0.09, 'state': 'd9_error', 'rot1': 0, 'rot0': 0, 'rot3': 0, 'rot2': 0, 'depth': -12.042, 'yaw': 0.0, 'datetime': '2019-02-26 09:13:31.035789', 'mgs': 0, 'flw2': 0.0, 'flw1': 0.0, 'flw0': 0.0, 'time': 10.13, 'compass': 0.0, 'pitch': 0.0, 'roll': 0.0}
{'lipoC2': 0.0, 'temp': 0.0, 'lipoC3S3': 0.0, 'state': 'd9_error', 'rot1': 0, 'rot0': 0, 'rot3': 0, 'rot2': 0, 'depth': -12.5, 'yaw': 0.0, 'datetime': '2019-02-26 09:13:31.241251', 'mgs': 0, 'flw2': 0.0, 'flw1': 0.53, 'flw0': 0.06, 'time': 10.33, 'compass': 0.0, 'pitch': 0.0, 'roll': 0.0}
{'lipoC2': 0.09, 'temp': 0.0, 'lipoC3S3': 0.08, 'state': 'd9_error', 'rot1': 0, 'rot0': 0, 'rot3': 0, 'rot2': 0, 'depth': -12.5, 'yaw': 0.0, 'datetime': '2019-02-26 09:13:31.442560', 'mgs': 0, 'flw2': 0.0, 'flw1': 0.0, 'flw0': 0.05, 'time': 10.54, 'compass': 0.0, 'pitch': 0.0, 'roll': 0.0}
{'lipoC2': 0.0, 'temp': 0.0, 'lipoC3S3': 0.0, 'state': 'd9_error', 'rot1': 0, 'rot0': 0, 'rot3': 0, 'rot2': 0, 'depth': -12.5, 'yaw': 0.0, 'datetime': '2019-02-26 09:13:31.650327', 'mgs': 0, 'flw2': 0.27, 'flw1': 0.0, 'flw0': 0.0, 'time': 10.74, 'compass': 0.0, 'pitch': 0.0, 'roll': 0.0}
{'lipoC2': 0.0, 'temp': 0.0, 'lipoC3S3': 0.0, 'state': 'd9_error', 'rot1': 0, 'rot0': 0, 'rot3': 0, 'rot2': 0, 'depth': -12.5, 'yaw': 0.0, 'datetime': '2019-02-26 09:13:31.956054', 'mgs': 0, 'flw2': 0.26, 'flw1': 0.0, 'flw0': 0.0, 'time': 11.05, 'compass': 0.0, 'pitch': 0.0, 'roll': 0.0}
{'lipoC2': 0.02, 'temp': 0.0, 'lipoC3S3': 0.0, 'state': 'd9_error', 'rot1': 0, 'rot0': 0, 'rot3': 0, 'rot2': 0, 'depth': -12.5, 'yaw': 0.0, 'datetime': '2019-02-26 09:13:32.160192', 'mgs': 0, 'flw2': 0.0, 'flw1': 0.67, 'flw0': 0.05, 'time': 11.25, 'compass': 0.0, 'pitch': 0.0, 'roll': 0.0}
{'lipoC2': 0.12, 'temp': 0.0, 'lipoC3S3': 0.0, 'state': 'd9_error', 'rot1': 0, 'rot0': 0, 'rot3': 0, 'rot2': 0, 'depth': -12.5, 'yaw': 0.0, 'datetime': '2019-02-26 09:13:32.363571', 'mgs': 0, 'flw2': 0.06, 'flw1': 0.0, 'flw0': 0.0, 'time': 11.46, 'compass': 0.0, 'pitch': 0.0, 'roll': 0.0}
{'lipoC2': 0.0, 'temp': 0.0, 'lipoC3S3': 0.0, 'state': 'd9_error', 'rot1': 0, 'rot0': 0, 'rot3': 0, 'rot2': 0, 'depth': -12.5, 'yaw': 0.0, 'datetime': '2019-02-26 09:13:32.567748', 'mgs': 0, 'flw2': 0.0, 'flw1': 0.0, 'flw0': 0.22, 'time': 11.66, 'compass': 0.0, 'pitch': 0.0, 'roll': 0.0}
{'lipoC2': 0.0, 'temp': 0.0, 'lipoC3S3': 0.0, 'state': 'd9_error', 'rot1': 0, 'rot0': 0, 'rot3': 0, 'rot2': 0, 'depth': -12.5, 'yaw': 0.0, 'datetime': '2019-02-26 09:13:32.774568', 'mgs': 0, 'flw2': 0.27, 'flw1': 0.0, 'flw0': 0.0, 'time': 11.86, 'compass': 0.0, 'pitch': 0.0, 'roll': 0.0}
{'lipoC2': 0.08, 'temp': 0.0, 'lipoC3S3': 0.09, 'state': 'd9_error', 'rot1': 0, 'rot0': 0, 'rot3': 0, 'rot2': 0, 'depth': -12.5, 'yaw': 0.0, 'datetime': '2019-02-26 09:13:33.081227', 'mgs': 0, 'flw2': 0.02, 'flw1': 0.0, 'flw0': 0.01, 'time': 12.17, 'compass': 0.0, 'pitch': 0.0, 'roll': 0.0}
{'lipoC2': 0.0, 'temp': 0.0, 'lipoC3S3': 0.0, 'state': 'd9_error', 'rot1': 0, 'rot0': 0, 'rot3': 0, 'rot2': 0, 'depth': -12.5, 'yaw': 0.0, 'datetime': '2019-02-26 09:13:33.386488', 'mgs': 0, 'flw2': 0.1, 'flw1': 0.0, 'flw0': 0.0, 'time': 12.48, 'compass': 0.0, 'pitch': 0.0, 'roll': 0.0}
{'lipoC2': 0.0, 'temp': 0.0, 'lipoC3S3': 0.18, 'state': 'd9_error', 'rot1': 0, 'rot0': 0, 'rot3': 0, 'rot2': 0, 'depth': -12.5, 'yaw': 0.0, 'datetime': '2019-02-26 09:13:33.690156', 'mgs': 0, 'flw2': 0.0, 'flw1': 0.03, 'flw0': 0.04, 'time': 12.78, 'compass': 0.0, 'pitch': 0.0, 'roll': 0.0}
{'lipoC2': 0.0, 'temp': 0.0, 'lipoC3S3': 0.0, 'state': 'd9_error', 'rot1': 0, 'rot0': 0, 'rot3': 0, 'rot2': 0, 'depth': -12.5, 'yaw': 0.0, 'datetime': '2019-02-26 09:13:33.894158', 'mgs': 0, 'flw2': 0.0, 'flw1': 0.56, 'flw0': 0.07, 'time': 12.99, 'compass': 0.0, 'pitch': 0.0, 'roll': 0.0}
{'lipoC2': 0.13, 'temp': 0.0, 'lipoC3S3': 0.03, 'state': 'd9_error', 'rot1': 0, 'rot0': 0, 'rot3': 0, 'rot2': 0, 'depth': -11.356, 'yaw': 0.0, 'datetime': '2019-02-26 09:13:34.100125', 'mgs': 0, 'flw2': 0.2, 'flw1': 0.0, 'flw0': 0.0, 'time': 13.19, 'compass': 0.0, 'pitch': 0.0, 'roll': 0.0}
{'lipoC2': 0.0, 'temp': 0.0, 'lipoC3S3': 0.0, 'state': 'd9_error', 'rot1': 0, 'rot0': 0, 'rot3': 0, 'rot2': 0, 'depth': -10.44, 'yaw': 0.0, 'datetime': '2019-02-26 09:13:34.302065', 'mgs': 0, 'flw2': 0.28, 'flw1': 0.0, 'flw0': 0.0, 'time': 13.4, 'compass': 0.0, 'pitch': 0.0, 'roll': 0.0}
{'lipoC2': 0.0, 'temp': 0.0, 'lipoC3S3': 0.2, 'state': 'd9_error', 'rot1': 0, 'rot0': 0, 'rot3': 0, 'rot2': 0, 'depth': -10.898, 'yaw': 0.0, 'datetime': '2019-02-26 09:13:34.508853', 'mgs': 0, 'flw2': 0.0, 'flw1': 0.0, 'flw0': 0.31, 'time': 13.6, 'compass': 0.0, 'pitch': 0.0, 'roll': 0.0}
{'lipoC2': 0.05, 'temp': 0.0, 'lipoC3S3': 0.0, 'state': 'd9_error', 'rot1': 0, 'rot0': 0, 'rot3': 0, 'rot2': 0, 'depth': -12.5, 'yaw': 0.0, 'datetime': '2019-02-26 09:13:34.715595', 'mgs': 0, 'flw2': 0.0, 'flw1': 0.0, 'flw0': 0.0, 'time': 13.8, 'compass': 0.0, 'pitch': 0.0, 'roll': 0.0}
{'lipoC2': 0.21, 'temp': 0.0, 'lipoC3S3': 0.0, 'state': 'd9_error', 'rot1': 0, 'rot0': 0, 'rot3': 0, 'rot2': 0, 'depth': -11.737, 'yaw': 0.0, 'datetime': '2019-02-26 09:13:35.018902', 'mgs': 0, 'flw2': 0.0, 'flw1': 0.0, 'flw0': 0.2, 'time': 14.11, 'compass': 0.0, 'pitch': 0.0, 'roll': 0.0}
{'lipoC2': 0.0, 'temp': 0.0, 'lipoC3S3': 0.0, 'state': 'd9_error', 'rot1': 0, 'rot0': 0, 'rot3': 0, 'rot2': 0, 'depth': -12.5, 'yaw': 0.0, 'datetime': '2019-02-26 09:13:35.222823', 'mgs': 0, 'flw2': 0.09, 'flw1': 0.47, 'flw0': 0.0, 'time': 14.31, 'compass': 0.0, 'pitch': 0.0, 'roll': 0.0}
{'lipoC2': 0.18, 'temp': 0.0, 'lipoC3S3': 0.0, 'state': 'd9_error', 'rot1': 0, 'rot0': 0, 'rot3': 0, 'rot2': 0, 'depth': -11.89, 'yaw': 0.0, 'datetime': '2019-02-26 09:13:35.426567', 'mgs': 0, 'flw2': 0.0, 'flw1': 0.5, 'flw0': 0.17, 'time': 14.52, 'compass': 0.0, 'pitch': 0.0, 'roll': 0.0}
{'lipoC2': 0.0, 'temp': 0.0, 'lipoC3S3': 0.0, 'state': 'd9_error', 'rot1': 0, 'rot0': 0, 'rot3': 0, 'rot2': 0, 'depth': -12.5, 'yaw': 0.0, 'datetime': '2019-02-26 09:13:35.632542', 'mgs': 0, 'flw2': 0.18, 'flw1': 0.0, 'flw0': 0.0, 'time': 14.72, 'compass': 0.0, 'pitch': 0.0, 'roll': 0.0}
{'lipoC2': 0.0, 'temp': 0.0, 'lipoC3S3': 0.15, 'state': 'd9_error', 'rot1': 0, 'rot0': 0, 'rot3': 0, 'rot2': 0, 'depth': -12.5, 'yaw': 0.0, 'datetime': '2019-02-26 09:13:35.838187', 'mgs': 0, 'flw2': 0.24, 'flw1': 0.0, 'flw0': 0.0, 'time': 14.93, 'compass': 0.0, 'pitch': 0.0, 'roll': 0.0}
{'lipoC2': 0.0, 'temp': 0.0, 'lipoC3S3': 0.15, 'state': 'd9_error', 'rot1': 0, 'rot0': 0, 'rot3': 0, 'rot2': 0, 'depth': -12.5, 'yaw': 0.0, 'datetime': '2019-02-26 09:13:36.041724', 'mgs': 0, 'flw2': 0.23, 'flw1': 0.0, 'flw0': 0.04, 'time': 15.13, 'compass': 0.0, 'pitch': 0.0, 'roll': 0.0}
{'lipoC2': 0.01, 'temp': 0.0, 'lipoC3S3': 0.0, 'state': 'd9_error', 'rot1': 0, 'rot0': 0, 'rot3': 0, 'rot2': 0, 'depth': -12.5, 'yaw': 0.0, 'datetime': '2019-02-26 09:13:36.245126', 'mgs': 0, 'flw2': 0.01, 'flw1': 0.0, 'flw0': 0.17, 'time': 15.34, 'compass': 0.0, 'pitch': 0.0, 'roll': 0.0}
{'lipoC2': 0.0, 'temp': 0.0, 'lipoC3S3': 0.0, 'state': 'd9_error', 'rot1': 0, 'rot0': 0, 'rot3': 0, 'rot2': 0, 'depth': -11.737, 'yaw': 0.0, 'datetime': '2019-02-26 09:13:36.451008', 'mgs': 0, 'flw2': 0.16, 'flw1': 0.0, 'flw0': 0.0, 'time': 15.54, 'compass': 0.0, 'pitch': 0.0, 'roll': 0.0}
{'lipoC2': 0.0, 'temp': 0.0, 'lipoC3S3': 0.04, 'state': 'd9_error', 'rot1': 0, 'rot0': 0, 'rot3': 0, 'rot2': 0, 'depth': -9.83, 'yaw': 0.0, 'datetime': '2019-02-26 09:13:36.655470', 'mgs': 0, 'flw2': 0.24, 'flw1': 0.0, 'flw0': 0.0, 'time': 15.74, 'compass': 0.0, 'pitch': 0.0, 'roll': 0.0}
{'lipoC2': 0.0, 'temp': 0.0, 'lipoC3S3': 0.0, 'state': 'd9_error', 'rot1': 0, 'rot0': 0, 'rot3': 0, 'rot2': 0, 'depth': -12.424, 'yaw': 0.0, 'datetime': '2019-02-26 09:13:36.860194', 'mgs': 0, 'flw2': 0.0, 'flw1': 0.21, 'flw0': 0.04, 'time': 15.95, 'compass': 0.0, 'pitch': 0.0, 'roll': 0.0}
{'lipoC2': 0.19, 'temp': 0.0, 'lipoC3S3': 0.0, 'state': 'd9_error', 'rot1': 0, 'rot0': 0, 'rot3': 0, 'rot2': 0, 'depth': -11.89, 'yaw': 0.0, 'datetime': '2019-02-26 09:13:37.062806', 'mgs': 0, 'flw2': 0.17, 'flw1': 0.0, 'flw0': 0.05, 'time': 16.15, 'compass': 0.0, 'pitch': 0.0, 'roll': 0.0}
{'lipoC2': 0.0, 'temp': 0.0, 'lipoC3S3': 0.0, 'state': 'd9_error', 'rot1': 0, 'rot0': 0, 'rot3': 0, 'rot2': 0, 'depth': -12.5, 'yaw': 0.0, 'datetime': '2019-02-26 09:13:37.269003', 'mgs': 0, 'flw2': 0.27, 'flw1': 0.0, 'flw0': 0.0, 'time': 16.36, 'compass': 0.0, 'pitch': 0.0, 'roll': 0.0}
{'lipoC2': 0.3, 'temp': 0.0, 'lipoC3S3': 0.0, 'state': 'd9_error', 'rot1': 0, 'rot0': 0, 'rot3': 0, 'rot2': 0, 'depth': -12.042, 'yaw': 0.0, 'datetime': '2019-02-26 09:13:37.473880', 'mgs': 0, 'flw2': 0.18, 'flw1': 0.0, 'flw0': 0.02, 'time': 16.56, 'compass': 0.0, 'pitch': 0.0, 'roll': 0.0}
{'lipoC2': 0.0, 'temp': 0.0, 'lipoC3S3': 0.07, 'state': 'd9_error', 'rot1': 0, 'rot0': 0, 'rot3': 0, 'rot2': 0, 'depth': -12.5, 'yaw': 0.0, 'datetime': '2019-02-26 09:13:37.676440', 'mgs': 0, 'flw2': 0.34, 'flw1': 0.0, 'flw0': 0.04, 'time': 16.76, 'compass': 0.0, 'pitch': 0.0, 'roll': 0.0}
{'lipoC2': 0.02, 'temp': 0.0, 'lipoC3S3': 0.17, 'state': 'd9_error', 'rot1': 0, 'rot0': 0, 'rot3': 0, 'rot2': 0, 'depth': -12.5, 'yaw': 0.0, 'datetime': '2019-02-26 09:13:37.880723', 'mgs': 0, 'flw2': 0.04, 'flw1': 0.44, 'flw0': 0.04, 'time': 16.97, 'compass': 0.0, 'pitch': 0.0, 'roll': 0.0}
{'lipoC2': 0.0, 'temp': 0.0, 'lipoC3S3': 0.18, 'state': 'd9_error', 'rot1': 0, 'rot0': 0, 'rot3': 0, 'rot2': 0, 'depth': -11.05, 'yaw': 0.0, 'datetime': '2019-02-26 09:13:38.091535', 'mgs': 0, 'flw2': 0.11, 'flw1': 0.0, 'flw0': 0.22, 'time': 17.17, 'compass': 0.0, 'pitch': 0.0, 'roll': 0.0}
{'lipoC2': 0.14, 'temp': 0.0, 'lipoC3S3': 0.0, 'state': 'd9_error', 'rot1': 0, 'rot0': 0, 'rot3': 0, 'rot2': 0, 'depth': -12.5, 'yaw': 0.0, 'datetime': '2019-02-26 09:13:38.393319', 'mgs': 0, 'flw2': 0.0, 'flw1': 0.0, 'flw0': 0.0, 'time': 17.48, 'compass': 0.0, 'pitch': 0.0, 'roll': 0.0}
{'lipoC2': 0.0, 'temp': 0.0, 'lipoC3S3': 0.11, 'state': 'd9_error', 'rot1': 0, 'rot0': 0, 'rot3': 0, 'rot2': 0, 'depth': -10.593, 'yaw': 0.0, 'datetime': '2019-02-26 09:13:38.599046', 'mgs': 0, 'flw2': 0.0, 'flw1': 0.56, 'flw0': 0.0, 'time': 17.68, 'compass': 0.0, 'pitch': 0.0, 'roll': 0.0}
{'lipoC2': 0.0, 'temp': 0.0, 'lipoC3S3': 0.0, 'state': 'd9_error', 'rot1': 0, 'rot0': 0, 'rot3': 0, 'rot2': 0, 'depth': -12.5, 'yaw': 0.0, 'datetime': '2019-02-26 09:13:38.805535', 'mgs': 0, 'flw2': 0.0, 'flw1': 0.0, 'flw0': 0.27, 'time': 17.89, 'compass': 0.0, 'pitch': 0.0, 'roll': 0.0}
{'lipoC2': 0.0, 'temp': 0.0, 'lipoC3S3': 0.13, 'state': 'd9_error', 'rot1': 0, 'rot0': 0, 'rot3': 0, 'rot2': 0, 'depth': -10.669, 'yaw': 0.0, 'datetime': '2019-02-26 09:13:39.008157', 'mgs': 0, 'flw2': 0.0, 'flw1': 0.29, 'flw0': 0.0, 'time': 18.09, 'compass': 0.0, 'pitch': 0.0, 'roll': 0.0}
{'lipoC2': 0.06, 'temp': 0.0, 'lipoC3S3': 0.04, 'state': 'd9_error', 'rot1': 0, 'rot0': 0, 'rot3': 0, 'rot2': 0, 'depth': -12.5, 'yaw': 0.0, 'datetime': '2019-02-26 09:13:39.211957', 'mgs': 0, 'flw2': 0.0, 'flw1': 0.0, 'flw0': 0.38, 'time': 18.3, 'compass': 0.0, 'pitch': 0.0, 'roll': 0.0}
{'lipoC2': 0.0, 'temp': 0.0, 'lipoC3S3': 0.0, 'state': 'd9_error', 'rot1': 0, 'rot0': 0, 'rot3': 0, 'rot2': 0, 'depth': -12.5, 'yaw': 0.0, 'datetime': '2019-02-26 09:13:39.418885', 'mgs': 0, 'flw2': 0.0, 'flw1': 0.18, 'flw0': 0.0, 'time': 18.5, 'compass': 0.0, 'pitch': 0.0, 'roll': 0.0}
{'lipoC2': 0.0, 'temp': 0.0, 'lipoC3S3': 0.0, 'state': 'd9_error', 'rot1': 0, 'rot0': 0, 'rot3': 0, 'rot2': 0, 'depth': -12.5, 'yaw': 0.0, 'datetime': '2019-02-26 09:13:39.720803', 'mgs': 0, 'flw2': 0.23, 'flw1': 0.0, 'flw0': 0.0, 'time': 18.81, 'compass': 0.0, 'pitch': 0.0, 'roll': 0.0}
{'lipoC2': 0.0, 'temp': 0.0, 'lipoC3S3': 0.16, 'state': 'd9_error', 'rot1': 0, 'rot0': 0, 'rot3': 0, 'rot2': 0, 'depth': -12.195, 'yaw': 0.0, 'datetime': '2019-02-26 09:13:39.927469', 'mgs': 0, 'flw2': 0.0, 'flw1': 0.56, 'flw0': 0.0, 'time': 19.01, 'compass': 0.0, 'pitch': 0.0, 'roll': 0.0}
{'lipoC2': 0.01, 'temp': 0.0, 'lipoC3S3': 0.0, 'state': 'd9_error', 'rot1': 0, 'rot0': 0, 'rot3': 0, 'rot2': 0, 'depth': -12.424, 'yaw': 0.0, 'datetime': '2019-02-26 09:13:40.129808', 'mgs': 0, 'flw2': 0.09, 'flw1': 0.0, 'flw0': 0.0, 'time': 19.22, 'compass': 0.0, 'pitch': 0.0, 'roll': 0.0}
{'lipoC2': 0.0, 'temp': 0.0, 'lipoC3S3': 0.18, 'state': 'd9_error', 'rot1': 0, 'rot0': 0, 'rot3': 0, 'rot2': 0, 'depth': -11.05, 'yaw': 0.0, 'datetime': '2019-02-26 09:13:40.336585', 'mgs': 0, 'flw2': 0.0, 'flw1': 0.44, 'flw0': 0.01, 'time': 19.42, 'compass': 0.0, 'pitch': 0.0, 'roll': 0.0}
{'lipoC2': 0.09, 'temp': 0.0, 'lipoC3S3': 0.07, 'state': 'd9_error', 'rot1': 0, 'rot0': 0, 'rot3': 0, 'rot2': 0, 'depth': -11.05, 'yaw': 0.0, 'datetime': '2019-02-26 09:13:40.540465', 'mgs': 0, 'flw2': 0.27, 'flw1': 0.0, 'flw0': 0.01, 'time': 19.62, 'compass': 0.0, 'pitch': 0.0, 'roll': 0.0}
{'lipoC2': 0.0, 'temp': 0.0, 'lipoC3S3': 0.0, 'state': 'd9_error', 'rot1': 0, 'rot0': 0, 'rot3': 0, 'rot2': 0, 'depth': -12.5, 'yaw': 0.0, 'datetime': '2019-02-26 09:13:40.744094', 'mgs': 0, 'flw2': 0.24, 'flw1': 0.0, 'flw0': 0.0, 'time': 19.83, 'compass': 0.0, 'pitch': 0.0, 'roll': 0.0}
{'lipoC2': 0.0, 'temp': 0.0, 'lipoC3S3': 0.0, 'state': 'd9_error', 'rot1': 0, 'rot0': 0, 'rot3': 0, 'rot2': 0, 'depth': -10.135, 'yaw': 0.0, 'datetime': '2019-02-26 09:13:40.947347', 'mgs': 0, 'flw2': 0.27, 'flw1': 0.0, 'flw0': 0.04, 'time': 20.03, 'compass': 0.0, 'pitch': 0.0, 'roll': 0.0}
{'lipoC2': 0.18, 'temp': 0.0, 'lipoC3S3': 0.0, 'state': 'd9_error', 'rot1': 0, 'rot0': 0, 'rot3': 0, 'rot2': 0, 'depth': -12.5, 'yaw': 0.0, 'datetime': '2019-02-26 09:13:41.151290', 'mgs': 0, 'flw2': 0.0, 'flw1': 0.0, 'flw0': 0.12, 'time': 20.24, 'compass': 0.0, 'pitch': 0.0, 'roll': 0.0}
{'lipoC2': 0.05, 'temp': 0.0, 'lipoC3S3': 0.0, 'state': 'd9_error', 'rot1': 0, 'rot0': 0, 'rot3': 0, 'rot2': 0, 'depth': -12.5, 'yaw': 0.0, 'datetime': '2019-02-26 09:13:41.357806', 'mgs': 0, 'flw2': 0.0, 'flw1': 0.0, 'flw0': 0.0, 'time': 20.44, 'compass': 0.0, 'pitch': 0.0, 'roll': 0.0}
{'lipoC2': 0.18, 'temp': 0.0, 'lipoC3S3': 0.07, 'state': 'd9_error', 'rot1': 0, 'rot0': 0, 'rot3': 0, 'rot2': 0, 'depth': -12.5, 'yaw': 0.0, 'datetime': '2019-02-26 09:13:41.562729', 'mgs': 0, 'flw2': 0.0, 'flw1': 0.0, 'flw0': 0.26, 'time': 20.64, 'compass': 0.0, 'pitch': 0.0, 'roll': 0.0}
{'lipoC2': 0.0, 'temp': 0.0, 'lipoC3S3': 0.17, 'state': 'd9_error', 'rot1': 0, 'rot0': 0, 'rot3': 0, 'rot2': 0, 'depth': -12.5, 'yaw': 0.0, 'datetime': '2019-02-26 09:13:41.769798', 'mgs': 0, 'flw2': 0.0, 'flw1': 0.0, 'flw0': 0.04, 'time': 20.85, 'compass': 0.0, 'pitch': 0.0, 'roll': 0.0}
{'lipoC2': 0.0, 'temp': 0.0, 'lipoC3S3': 0.0, 'state': 'd9_error', 'rot1': 0, 'rot0': 0, 'rot3': 0, 'rot2': 0, 'depth': -12.5, 'yaw': 0.0, 'datetime': '2019-02-26 09:13:41.971033', 'mgs': 0, 'flw2': 0.0, 'flw1': 0.0, 'flw0': 0.0, 'time': 21.05, 'compass': 0.0, 'pitch': 0.0, 'roll': 0.0}
{'lipoC2': 0.17, 'temp': 0.0, 'lipoC3S3': 0.0, 'state': 'd9_error', 'rot1': 0, 'rot0': 0, 'rot3': 0, 'rot2': 0, 'depth': -12.5, 'yaw': 0.0, 'datetime': '2019-02-26 09:13:42.175050', 'mgs': 0, 'flw2': 0.07, 'flw1': 0.0, 'flw0': 0.23, 'time': 21.26, 'compass': 0.0, 'pitch': 0.0, 'roll': 0.0}
{'lipoC2': 0.0, 'temp': 0.0, 'lipoC3S3': 0.0, 'state': 'd9_error', 'rot1': 0, 'rot0': 0, 'rot3': 0, 'rot2': 0, 'depth': -12.5, 'yaw': 0.0, 'datetime': '2019-02-26 09:13:42.381354', 'mgs': 0, 'flw2': 0.26, 'flw1': 0.09, 'flw0': 0.26, 'time': 21.46, 'compass': 0.0, 'pitch': 0.0, 'roll': 0.0}
{'lipoC2': 0.16, 'temp': 0.0, 'lipoC3S3': 0.01, 'state': 'd9_error', 'rot1': 0, 'rot0': 0, 'rot3': 0, 'rot2': 0, 'depth': -12.5, 'yaw': 0.0, 'datetime': '2019-02-26 09:13:42.588258', 'mgs': 0, 'flw2': 0.02, 'flw1': 0.0, 'flw0': 0.34, 'time': 21.66, 'compass': 0.0, 'pitch': 0.0, 'roll': 0.0}
{'lipoC2': 0.0, 'temp': 0.0, 'lipoC3S3': 0.05, 'state': 'd9_error', 'rot1': 0, 'rot0': 0, 'rot3': 0, 'rot2': 0, 'depth': -10.898, 'yaw': 0.0, 'datetime': '2019-02-26 09:13:42.889753', 'mgs': 0, 'flw2': 0.0, 'flw1': 0.0, 'flw0': 0.18, 'time': 21.97, 'compass': 0.0, 'pitch': 0.0, 'roll': 0.0}
{'lipoC2': 0.19, 'temp': 0.0, 'lipoC3S3': 0.0, 'state': 'd9_error', 'rot1': 0, 'rot0': 0, 'rot3': 0, 'rot2': 0, 'depth': -12.5, 'yaw': 0.0, 'datetime': '2019-02-26 09:13:43.094857', 'mgs': 0, 'flw2': 0.26, 'flw1': 0.09, 'flw0': 0.24, 'time': 22.17, 'compass': 0.0, 'pitch': 0.0, 'roll': 0.0}
{'lipoC2': 0.0, 'temp': 0.0, 'lipoC3S3': 0.0, 'state': 'd9_error', 'rot1': 0, 'rot0': 0, 'rot3': 0, 'rot2': 0, 'depth': -12.5, 'yaw': 0.0, 'datetime': '2019-02-26 09:13:43.302618', 'mgs': 0, 'flw2': 0.11, 'flw1': 0.0, 'flw0': 0.0, 'time': 22.38, 'compass': 0.0, 'pitch': 0.0, 'roll': 0.0}
{'lipoC2': 0.0, 'temp': 0.0, 'lipoC3S3': 0.16, 'state': 'd9_error', 'rot1': 0, 'rot0': 0, 'rot3': 0, 'rot2': 0, 'depth': -10.745, 'yaw': 0.0, 'datetime': '2019-02-26 09:13:43.504086', 'mgs': 0, 'flw2': 0.0, 'flw1': 0.0, 'flw0': 0.17, 'time': 22.58, 'compass': 0.0, 'pitch': 0.0, 'roll': 0.0}
{'lipoC2': 0.0, 'temp': 0.0, 'lipoC3S3': 0.09, 'state': 'd9_error', 'rot1': 0, 'rot0': 0, 'rot3': 0, 'rot2': 0, 'depth': -12.5, 'yaw': 0.0, 'datetime': '2019-02-26 09:13:43.709825', 'mgs': 0, 'flw2': 0.0, 'flw1': 0.0, 'flw0': 0.0, 'time': 22.79, 'compass': 0.0, 'pitch': 0.0, 'roll': 0.0}
{'lipoC2': 0.0, 'temp': 0.0, 'lipoC3S3': 0.21, 'state': 'd9_error', 'rot1': 0, 'rot0': 1, 'rot3': 0, 'rot2': 0, 'depth': -11.279, 'yaw': 0.0, 'datetime': '2019-02-26 09:13:43.914075', 'mgs': 0, 'flw2': 0.0, 'flw1': 0.0, 'flw0': 0.27, 'time': 22.99, 'compass': 0.0, 'pitch': 0.0, 'roll': 0.0}
{'lipoC2': 0.0, 'temp': 0.0, 'lipoC3S3': 0.0, 'state': 'd9_error', 'rot1': 0, 'rot0': 1, 'rot3': 0, 'rot2': 0, 'depth': -10.287, 'yaw': 0.0, 'datetime': '2019-02-26 09:13:44.121386', 'mgs': 0, 'flw2': 0.18, 'flw1': 0.0, 'flw0': 0.0, 'time': 23.19, 'compass': 0.0, 'pitch': 0.0, 'roll': 0.0}
{'lipoC2': 0.0, 'temp': 0.0, 'lipoC3S3': 0.0, 'state': 'd9_error', 'rot1': 0, 'rot0': 1, 'rot3': 0, 'rot2': 0, 'depth': -12.5, 'yaw': 0.0, 'datetime': '2019-02-26 09:13:44.322903', 'mgs': 0, 'flw2': 0.32, 'flw1': 0.09, 'flw0': 0.27, 'time': 23.4, 'compass': 0.0, 'pitch': 0.0, 'roll': 0.0}
{'lipoC2': 0.16, 'temp': 0.0, 'lipoC3S3': 0.0, 'state': 'd9_error', 'rot1': 0, 'rot0': 1, 'rot3': 0, 'rot2': 0, 'depth': -12.5, 'yaw': 0.0, 'datetime': '2019-02-26 09:13:44.525710', 'mgs': 0, 'flw2': 0.26, 'flw1': 0.15, 'flw0': 0.27, 'time': 23.6, 'compass': 0.0, 'pitch': 0.0, 'roll': 0.0}
{'lipoC2': 0.0, 'temp': 0.0, 'lipoC3S3': 0.0, 'state': 'd9_error', 'rot1': 0, 'rot0': 1, 'rot3': 0, 'rot2': 0, 'depth': -12.5, 'yaw': 0.0, 'datetime': '2019-02-26 09:13:44.731412', 'mgs': 0, 'flw2': 0.0, 'flw1': 0.0, 'flw0': 0.27, 'time': 23.81, 'compass': 0.0, 'pitch': 0.0, 'roll': 0.0}
{'lipoC2': 0.0, 'temp': 0.0, 'lipoC3S3': 0.0, 'state': 'd9_error', 'rot1': 0, 'rot0': 1, 'rot3': 0, 'rot2': 0, 'depth': -12.5, 'yaw': 0.0, 'datetime': '2019-02-26 09:13:44.933897', 'mgs': 0, 'flw2': 0.18, 'flw1': 0.0, 'flw0': 0.23, 'time': 24.01, 'compass': 0.0, 'pitch': 0.0, 'roll': 0.0}
{'lipoC2': 0.0, 'temp': 0.0, 'lipoC3S3': 0.09, 'state': 'd9_error', 'rot1': 0, 'rot0': 1, 'rot3': 0, 'rot2': 0, 'depth': -11.279, 'yaw': 0.0, 'datetime': '2019-02-26 09:13:45.137834', 'mgs': 0, 'flw2': 0.0, 'flw1': 0.0, 'flw0': 0.18, 'time': 24.22, 'compass': 0.0, 'pitch': 0.0, 'roll': 0.0}
{'lipoC2': 0.0, 'temp': 0.0, 'lipoC3S3': 0.0, 'state': 'd9_error', 'rot1': 0, 'rot0': 1, 'rot3': 0, 'rot2': 0, 'depth': -10.974, 'yaw': 0.0, 'datetime': '2019-02-26 09:13:45.345696', 'mgs': 0, 'flw2': 0.16, 'flw1': 0.0, 'flw0': 0.0, 'time': 24.42, 'compass': 0.0, 'pitch': 0.0, 'roll': 0.0}
{'lipoC2': 0.0, 'temp': 0.0, 'lipoC3S3': 0.09, 'state': 'd9_error', 'rot1': 0, 'rot0': 1, 'rot3': 0, 'rot2': 0, 'depth': -12.5, 'yaw': 0.0, 'datetime': '2019-02-26 09:13:45.548679', 'mgs': 0, 'flw2': 0.0, 'flw1': 0.62, 'flw0': 0.0, 'time': 24.62, 'compass': 0.0, 'pitch': 0.0, 'roll': 0.0}
{'lipoC2': 0.03, 'temp': 0.0, 'lipoC3S3': 0.0, 'state': 'd9_error', 'rot1': 0, 'rot0': 1, 'rot3': 0, 'rot2': 0, 'depth': -10.898, 'yaw': 0.0, 'datetime': '2019-02-26 09:13:45.754705', 'mgs': 0, 'flw2': 0.0, 'flw1': 0.21, 'flw0': 0.02, 'time': 24.83, 'compass': 0.0, 'pitch': 0.0, 'roll': 0.0}
{'lipoC2': 0.0, 'temp': 0.0, 'lipoC3S3': 0.07, 'state': 'd9_error', 'rot1': 0, 'rot0': 1, 'rot3': 0, 'rot2': 0, 'depth': -11.432, 'yaw': 0.0, 'datetime': '2019-02-26 09:13:46.062315', 'mgs': 0, 'flw2': 0.0, 'flw1': 0.0, 'flw0': 0.0, 'time': 25.14, 'compass': 0.0, 'pitch': 0.0, 'roll': 0.0}
{'lipoC2': 0.0, 'temp': 0.0, 'lipoC3S3': 0.05, 'state': 'd9_error', 'rot1': 0, 'rot0': 1, 'rot3': 0, 'rot2': 0, 'depth': -12.5, 'yaw': 0.0, 'datetime': '2019-02-26 09:13:46.264905', 'mgs': 0, 'flw2': 0.37, 'flw1': 0.0, 'flw0': 0.02, 'time': 25.34, 'compass': 0.0, 'pitch': 0.0, 'roll': 0.0}
{'lipoC2': 0.04, 'temp': 0.0, 'lipoC3S3': 0.0, 'state': 'd9_error', 'rot1': 0, 'rot0': 1, 'rot3': 0, 'rot2': 0, 'depth': -12.5, 'yaw': 0.0, 'datetime': '2019-02-26 09:13:46.573486', 'mgs': 0, 'flw2': 0.07, 'flw1': 0.0, 'flw0': 0.0, 'time': 25.65, 'compass': 0.0, 'pitch': 0.0, 'roll': 0.0}
{'lipoC2': 0.0, 'temp': 0.0, 'lipoC3S3': 0.0, 'state': 'd9_error', 'rot1': 0, 'rot0': 1, 'rot3': 0, 'rot2': 0, 'depth': -12.5, 'yaw': 0.0, 'datetime': '2019-02-26 09:13:46.776778', 'mgs': 0, 'flw2': 0.18, 'flw1': 0.0, 'flw0': 0.0, 'time': 25.85, 'compass': 0.0, 'pitch': 0.0, 'roll': 0.0}
{'lipoC2': 0.0, 'temp': 0.0, 'lipoC3S3': 0.0, 'state': 'd9_error', 'rot1': 0, 'rot0': 1, 'rot3': 0, 'rot2': 0, 'depth': -10.44, 'yaw': 0.0, 'datetime': '2019-02-26 09:13:46.979867', 'mgs': 0, 'flw2': 0.26, 'flw1': 0.03, 'flw0': 0.35, 'time': 26.05, 'compass': 0.0, 'pitch': 0.0, 'roll': 0.0}
{'lipoC2': 0.02, 'temp': 0.0, 'lipoC3S3': 0.0, 'state': 'd9_error', 'rot1': 0, 'rot0': 1, 'rot3': 0, 'rot2': 0, 'depth': -12.5, 'yaw': 0.0, 'datetime': '2019-02-26 09:13:47.182244', 'mgs': 0, 'flw2': 0.32, 'flw1': 0.0, 'flw0': 0.0, 'time': 26.26, 'compass': 0.0, 'pitch': 0.0, 'roll': 0.0}
{'lipoC2': 0.17, 'temp': 0.0, 'lipoC3S3': 0.0, 'state': 'd9_error', 'rot1': 0, 'rot0': 1, 'rot3': 0, 'rot2': 0, 'depth': -12.5, 'yaw': 0.0, 'datetime': '2019-02-26 09:13:47.388803', 'mgs': 0, 'flw2': 0.0, 'flw1': 0.0, 'flw0': 0.17, 'time': 26.46, 'compass': 0.0, 'pitch': 0.0, 'roll': 0.0}
{'lipoC2': 0.0, 'temp': 0.0, 'lipoC3S3': 0.2, 'state': 'd9_error', 'rot1': 0, 'rot0': 1, 'rot3': 0, 'rot2': 0, 'depth': -11.203, 'yaw': 0.0, 'datetime': '2019-02-26 09:13:47.595631', 'mgs': 0, 'flw2': 0.0, 'flw1': 0.0, 'flw0': 0.37, 'time': 26.67, 'compass': 0.0, 'pitch': 0.0, 'roll': 0.0}
{'lipoC2': 0.0, 'temp': 0.0, 'lipoC3S3': 0.0, 'state': 'd9_error', 'rot1': 0, 'rot0': 1, 'rot3': 0, 'rot2': 0, 'depth': -11.737, 'yaw': 0.0, 'datetime': '2019-02-26 09:13:47.796690', 'mgs': 0, 'flw2': 0.09, 'flw1': 0.0, 'flw0': 0.0, 'time': 26.87, 'compass': 0.0, 'pitch': 0.0, 'roll': 0.0}
{'lipoC2': 0.0, 'temp': 0.0, 'lipoC3S3': 0.09, 'state': 'd9_error', 'rot1': 0, 'rot0': 1, 'rot3': 0, 'rot2': 0, 'depth': -10.822, 'yaw': 0.0, 'datetime': '2019-02-26 09:13:48.001126', 'mgs': 0, 'flw2': 0.0, 'flw1': 0.0, 'flw0': 0.04, 'time': 27.07, 'compass': 0.0, 'pitch': 0.0, 'roll': 0.0}
{'lipoC2': 0.0, 'temp': 0.0, 'lipoC3S3': 0.28, 'state': 'd9_error', 'rot1': 0, 'rot0': 1, 'rot3': 0, 'rot2': 0, 'depth': -11.356, 'yaw': 0.0, 'datetime': '2019-02-26 09:13:48.206043', 'mgs': 0, 'flw2': 0.23, 'flw1': 0.15, 'flw0': 0.24, 'time': 27.28, 'compass': 0.0, 'pitch': 0.0, 'roll': 0.0}
{'lipoC2': 0.17, 'temp': 0.0, 'lipoC3S3': 0.0, 'state': 'd9_error', 'rot1': 0, 'rot0': 1, 'rot3': 0, 'rot2': 0, 'depth': -12.5, 'yaw': 0.0, 'datetime': '2019-02-26 09:13:48.409777', 'mgs': 0, 'flw2': 0.0, 'flw1': 0.0, 'flw0': 0.0, 'time': 27.48, 'compass': 0.0, 'pitch': 0.0, 'roll': 0.0}
{'lipoC2': 0.11, 'temp': 0.0, 'lipoC3S3': 0.04, 'state': 'd9_error', 'rot1': 0, 'rot0': 1, 'rot3': 0, 'rot2': 0, 'depth': -12.5, 'yaw': 0.0, 'datetime': '2019-02-26 09:13:48.615340', 'mgs': 0, 'flw2': 0.0, 'flw1': 0.0, 'flw0': 0.16, 'time': 27.69, 'compass': 0.0, 'pitch': 0.0, 'roll': 0.0}
{'lipoC2': 0.15, 'temp': 0.0, 'lipoC3S3': 0.0, 'state': 'd9_error', 'rot1': 0, 'rot0': 1, 'rot3': 0, 'rot2': 0, 'depth': -12.5, 'yaw': 0.0, 'datetime': '2019-02-26 09:13:48.818027', 'mgs': 0, 'flw2': 0.0, 'flw1': 0.0, 'flw0': 0.28, 'time': 27.89, 'compass': 0.0, 'pitch': 0.0, 'roll': 0.0}
{'lipoC2': 0.19, 'temp': 0.0, 'lipoC3S3': 0.0, 'state': 'd9_error', 'rot1': 0, 'rot0': 1, 'rot3': 0, 'rot2': 0, 'depth': -12.5, 'yaw': 0.0, 'datetime': '2019-02-26 09:13:49.023364', 'mgs': 0, 'flw2': 0.0, 'flw1': 0.0, 'flw0': 0.09, 'time': 28.09, 'compass': 0.0, 'pitch': 0.0, 'roll': 0.0}
{'lipoC2': 0.0, 'temp': 0.0, 'lipoC3S3': 0.03, 'state': 'd9_error', 'rot1': 0, 'rot0': 1, 'rot3': 0, 'rot2': 0, 'depth': -12.119, 'yaw': 0.0, 'datetime': '2019-02-26 09:13:49.230585', 'mgs': 0, 'flw2': 0.18, 'flw1': 0.03, 'flw0': 0.0, 'time': 28.3, 'compass': 0.0, 'pitch': 0.0, 'roll': 0.0}
{'lipoC2': 0.08, 'temp': 0.0, 'lipoC3S3': 0.0, 'state': 'd9_error', 'rot1': 0, 'rot0': 1, 'rot3': 0, 'rot2': 0, 'depth': -12.5, 'yaw': 0.0, 'datetime': '2019-02-26 09:13:49.434400', 'mgs': 0, 'flw2': 0.23, 'flw1': 0.06, 'flw0': 0.0, 'time': 28.5, 'compass': 0.0, 'pitch': 0.0, 'roll': 0.0}
{'lipoC2': 0.0, 'temp': 0.0, 'lipoC3S3': 0.0, 'state': 'd9_error', 'rot1': 0, 'rot0': 1, 'rot3': 0, 'rot2': 0, 'depth': -12.271, 'yaw': 0.0, 'datetime': '2019-02-26 09:13:49.637778', 'mgs': 0, 'flw2': 0.23, 'flw1': 0.0, 'flw0': 0.05, 'time': 28.71, 'compass': 0.0, 'pitch': 0.0, 'roll': 0.0}
{'lipoC2': 0.0, 'temp': 0.0, 'lipoC3S3': 0.01, 'state': 'd9_error', 'rot1': 0, 'rot0': 1, 'rot3': 0, 'rot2': 0, 'depth': -12.5, 'yaw': 0.0, 'datetime': '2019-02-26 09:13:49.845969', 'mgs': 0, 'flw2': 0.0, 'flw1': 0.03, 'flw0': 0.02, 'time': 28.91, 'compass': 0.0, 'pitch': 0.0, 'roll': 0.0}
{'lipoC2': 0.19, 'temp': 0.0, 'lipoC3S3': 0.0, 'state': 'd9_error', 'rot1': 0, 'rot0': 1, 'rot3': 0, 'rot2': 0, 'depth': -12.271, 'yaw': 0.0, 'datetime': '2019-02-26 09:13:50.050416', 'mgs': 0, 'flw2': 0.26, 'flw1': 0.03, 'flw0': 0.38, 'time': 29.11, 'compass': 0.0, 'pitch': 0.0, 'roll': 0.0}
{'lipoC2': 0.0, 'temp': 0.0, 'lipoC3S3': 0.0, 'state': 'd9_error', 'rot1': 0, 'rot0': 1, 'rot3': 0, 'rot2': 0, 'depth': -12.5, 'yaw': 0.0, 'datetime': '2019-02-26 09:13:50.253005', 'mgs': 0, 'flw2': 0.01, 'flw1': 0.0, 'flw0': 0.0, 'time': 29.32, 'compass': 0.0, 'pitch': 0.0, 'roll': 0.0}
{'lipoC2': 0.0, 'temp': 0.0, 'lipoC3S3': 0.0, 'state': 'd9_error', 'rot1': 0, 'rot0': 1, 'rot3': 0, 'rot2': 0, 'depth': -11.508, 'yaw': 0.0, 'datetime': '2019-02-26 09:13:50.458935', 'mgs': 0, 'flw2': 0.28, 'flw1': 0.0, 'flw0': 0.0, 'time': 29.52, 'compass': 0.0, 'pitch': 0.0, 'roll': 0.0}
{'lipoC2': 0.0, 'temp': 0.0, 'lipoC3S3': 0.0, 'state': 'd9_error', 'rot1': 0, 'rot0': 1, 'rot3': 0, 'rot2': 0, 'depth': -12.5, 'yaw': 0.0, 'datetime': '2019-02-26 09:13:50.760840', 'mgs': 0, 'flw2': 0.26, 'flw1': 0.0, 'flw0': 0.01, 'time': 29.83, 'compass': 0.0, 'pitch': 0.0, 'roll': 0.0}
{'lipoC2': 0.11, 'temp': 0.0, 'lipoC3S3': 0.0, 'state': 'd9_error', 'rot1': 0, 'rot0': 1, 'rot3': 0, 'rot2': 0, 'depth': -12.5, 'yaw': 0.0, 'datetime': '2019-02-26 09:13:50.965306', 'mgs': 0, 'flw2': 0.0, 'flw1': 0.0, 'flw0': 0.0, 'time': 30.03, 'compass': 0.0, 'pitch': 0.0, 'roll': 0.0}
{'lipoC2': 0.0, 'temp': 0.0, 'lipoC3S3': 0.13, 'state': 'd9_error', 'rot1': 0, 'rot0': 1, 'rot3': 0, 'rot2': 0, 'depth': -10.974, 'yaw': 0.0, 'datetime': '2019-02-26 09:13:51.172791', 'mgs': 0, 'flw2': 0.06, 'flw1': 0.0, 'flw0': 0.11, 'time': 30.24, 'compass': 0.0, 'pitch': 0.0, 'roll': 0.0}
{'lipoC2': 0.11, 'temp': 0.0, 'lipoC3S3': 0.0, 'state': 'd9_error', 'rot1': 0, 'rot0': 1, 'rot3': 0, 'rot2': 0, 'depth': -12.5, 'yaw': 0.0, 'datetime': '2019-02-26 09:13:51.379993', 'mgs': 0, 'flw2': 0.0, 'flw1': 0.0, 'flw0': 0.0, 'time': 30.44, 'compass': 0.0, 'pitch': 0.0, 'roll': 0.0}
{'lipoC2': 0.0, 'temp': 0.0, 'lipoC3S3': 0.0, 'state': 'd9_error', 'rot1': 0, 'rot0': 1, 'rot3': 0, 'rot2': 0, 'depth': -12.5, 'yaw': 0.0, 'datetime': '2019-02-26 09:13:51.584280', 'mgs': 0, 'flw2': 0.17, 'flw1': 0.0, 'flw0': 0.0, 'time': 30.65, 'compass': 0.0, 'pitch': 0.0, 'roll': 0.0}
{'lipoC2': 0.0, 'temp': 0.0, 'lipoC3S3': 0.0, 'state': 'd9_error', 'rot1': 0, 'rot0': 1, 'rot3': 0, 'rot2': 0, 'depth': -12.5, 'yaw': 0.0, 'datetime': '2019-02-26 09:13:51.787703', 'mgs': 0, 'flw2': 0.0, 'flw1': 0.85, 'flw0': 0.0, 'time': 30.85, 'compass': 0.0, 'pitch': 0.0, 'roll': 0.0}
{'lipoC2': 0.0, 'temp': 0.0, 'lipoC3S3': 0.0, 'state': 'd9_error', 'rot1': 0, 'rot0': 1, 'rot3': 0, 'rot2': 0, 'depth': -12.195, 'yaw': 0.0, 'datetime': '2019-02-26 09:13:52.090823', 'mgs': 0, 'flw2': 0.12, 'flw1': 0.0, 'flw0': 0.02, 'time': 31.16, 'compass': 0.0, 'pitch': 0.0, 'roll': 0.0}
{'lipoC2': 0.0, 'temp': 0.0, 'lipoC3S3': 0.0, 'state': 'd9_error', 'rot1': 0, 'rot0': 1, 'rot3': 0, 'rot2': 0, 'depth': -12.271, 'yaw': 0.0, 'datetime': '2019-02-26 09:13:52.298726', 'mgs': 0, 'flw2': 0.0, 'flw1': 0.0, 'flw0': 0.26, 'time': 31.36, 'compass': 0.0, 'pitch': 0.0, 'roll': 0.0}
{'lipoC2': 0.0, 'temp': 0.0, 'lipoC3S3': 0.0, 'state': 'd9_error', 'rot1': 0, 'rot0': 1, 'rot3': 0, 'rot2': 0, 'depth': -10.745, 'yaw': 0.0, 'datetime': '2019-02-26 09:13:52.600118', 'mgs': 0, 'flw2': 0.24, 'flw1': 0.12, 'flw0': 0.26, 'time': 31.67, 'compass': 0.0, 'pitch': 0.0, 'roll': 0.0}
{'lipoC2': 0.04, 'temp': 0.0, 'lipoC3S3': 0.0, 'state': 'd9_error', 'rot1': 0, 'rot0': 1, 'rot3': 0, 'rot2': 0, 'depth': -12.5, 'yaw': 0.0, 'datetime': '2019-02-26 09:13:52.811873', 'mgs': 0, 'flw2': 0.21, 'flw1': 0.0, 'flw0': 0.0, 'time': 31.87, 'compass': 0.0, 'pitch': 0.0, 'roll': 0.0}
{'lipoC2': 0.0, 'temp': 0.0, 'lipoC3S3': 0.12, 'state': 'd9_error', 'rot1': 0, 'rot0': 1, 'rot3': 0, 'rot2': 0, 'depth': -10.745, 'yaw': 0.0, 'datetime': '2019-02-26 09:13:53.015103', 'mgs': 0, 'flw2': 0.0, 'flw1': 0.41, 'flw0': 0.0, 'time': 32.07, 'compass': 0.0, 'pitch': 0.0, 'roll': 0.0}
{'lipoC2': 0.0, 'temp': 0.0, 'lipoC3S3': 0.0, 'state': 'd9_error', 'rot1': 0, 'rot0': 1, 'rot3': 0, 'rot2': 0, 'depth': -12.271, 'yaw': 0.0, 'datetime': '2019-02-26 09:13:53.219030', 'mgs': 0, 'flw2': 0.27, 'flw1': 0.0, 'flw0': 0.15, 'time': 32.28, 'compass': 0.0, 'pitch': 0.0, 'roll': 0.0}
{'lipoC2': 0.01, 'temp': 0.0, 'lipoC3S3': 0.0, 'state': 'd9_error', 'rot1': 0, 'rot0': 1, 'rot3': 0, 'rot2': 0, 'depth': -12.5, 'yaw': 0.0, 'datetime': '2019-02-26 09:13:53.420953', 'mgs': 0, 'flw2': 0.0, 'flw1': 0.0, 'flw0': 0.0, 'time': 32.48, 'compass': 0.0, 'pitch': 0.0, 'roll': 0.0}
{'lipoC2': 0.0, 'temp': 0.0, 'lipoC3S3': 0.2, 'state': 'd9_error', 'rot1': 0, 'rot0': 1, 'rot3': 0, 'rot2': 0, 'depth': -12.119, 'yaw': 0.0, 'datetime': '2019-02-26 09:13:53.723489', 'mgs': 0, 'flw2': 0.05, 'flw1': 0.0, 'flw0': 0.21, 'time': 32.79, 'compass': 0.0, 'pitch': 0.0, 'roll': 0.0}
{'lipoC2': 0.0, 'temp': 0.0, 'lipoC3S3': 0.0, 'state': 'd9_error', 'rot1': 0, 'rot0': 1, 'rot3': 0, 'rot2': 0, 'depth': -12.5, 'yaw': 0.0, 'datetime': '2019-02-26 09:13:53.929030', 'mgs': 0, 'flw2': 0.34, 'flw1': 0.0, 'flw0': 0.02, 'time': 32.99, 'compass': 0.0, 'pitch': 0.0, 'roll': 0.0}
{'lipoC2': 0.0, 'temp': 0.0, 'lipoC3S3': 0.24, 'state': 'd9_error', 'rot1': 0, 'rot0': 1, 'rot3': 0, 'rot2': 0, 'depth': -12.5, 'yaw': 0.0, 'datetime': '2019-02-26 09:13:54.136266', 'mgs': 0, 'flw2': 0.21, 'flw1': 0.0, 'flw0': 0.0, 'time': 33.2, 'compass': 0.0, 'pitch': 0.0, 'roll': 0.0}
{'lipoC2': 0.0, 'temp': 0.0, 'lipoC3S3': 0.2, 'state': 'd9_error', 'rot1': 0, 'rot0': 1, 'rot3': 0, 'rot2': 0, 'depth': -11.737, 'yaw': 0.0, 'datetime': '2019-02-26 09:13:54.341212', 'mgs': 0, 'flw2': 0.0, 'flw1': 0.0, 'flw0': 0.24, 'time': 33.4, 'compass': 0.0, 'pitch': 0.0, 'roll': 0.0}
{'lipoC2': 0.0, 'temp': 0.0, 'lipoC3S3': 0.0, 'state': 'd9_error', 'rot1': 0, 'rot0': 1, 'rot3': 0, 'rot2': 0, 'depth': -12.5, 'yaw': 0.0, 'datetime': '2019-02-26 09:13:54.645837', 'mgs': 0, 'flw2': 0.18, 'flw1': 0.0, 'flw0': 0.0, 'time': 33.71, 'compass': 0.0, 'pitch': 0.0, 'roll': 0.0}
{'lipoC2': 0.13, 'temp': 0.0, 'lipoC3S3': 0.0, 'state': 'd9_error', 'rot1': 0, 'rot0': 1, 'rot3': 0, 'rot2': 0, 'depth': -12.5, 'yaw': 0.0, 'datetime': '2019-02-26 09:13:54.849651', 'mgs': 0, 'flw2': 0.05, 'flw1': 0.53, 'flw0': 0.09, 'time': 33.91, 'compass': 0.0, 'pitch': 0.0, 'roll': 0.0}
{'lipoC2': 0.03, 'temp': 0.0, 'lipoC3S3': 0.0, 'state': 'd9_error', 'rot1': 0, 'rot0': 1, 'rot3': 0, 'rot2': 0, 'depth': -10.287, 'yaw': 0.0, 'datetime': '2019-02-26 09:13:55.057084', 'mgs': 0, 'flw2': 0.26, 'flw1': 0.09, 'flw0': 0.23, 'time': 34.12, 'compass': 0.0, 'pitch': 0.0, 'roll': 0.0}
{'lipoC2': 0.0, 'temp': 0.0, 'lipoC3S3': 0.09, 'state': 'd9_error', 'rot1': 0, 'rot0': 1, 'rot3': 0, 'rot2': 0, 'depth': -12.5, 'yaw': 0.0, 'datetime': '2019-02-26 09:13:55.258332', 'mgs': 0, 'flw2': 0.0, 'flw1': 0.32, 'flw0': 0.0, 'time': 34.32, 'compass': 0.0, 'pitch': 0.0, 'roll': 0.0}
{'lipoC2': 0.0, 'temp': 0.0, 'lipoC3S3': 0.01, 'state': 'd9_error', 'rot1': 0, 'rot0': 1, 'rot3': 0, 'rot2': 0, 'depth': -12.5, 'yaw': 0.0, 'datetime': '2019-02-26 09:13:55.464466', 'mgs': 0, 'flw2': 0.0, 'flw1': 0.06, 'flw0': 0.0, 'time': 34.52, 'compass': 0.0, 'pitch': 0.0, 'roll': 0.0}
{'lipoC2': 0.0, 'temp': 0.0, 'lipoC3S3': 0.03, 'state': 'd9_error', 'rot1': 0, 'rot0': 1, 'rot3': 0, 'rot2': 0, 'depth': -12.5, 'yaw': 0.0, 'datetime': '2019-02-26 09:13:55.768686', 'mgs': 0, 'flw2': 0.26, 'flw1': 0.0, 'flw0': 0.0, 'time': 34.83, 'compass': 0.0, 'pitch': 0.0, 'roll': 0.0}
{'lipoC2': 0.0, 'temp': 0.0, 'lipoC3S3': 0.24, 'state': 'd9_error', 'rot1': 0, 'rot0': 1, 'rot3': 0, 'rot2': 0, 'depth': -10.593, 'yaw': 0.0, 'datetime': '2019-02-26 09:13:55.975424', 'mgs': 0, 'flw2': 0.01, 'flw1': 0.44, 'flw0': 0.0, 'time': 35.03, 'compass': 0.0, 'pitch': 0.0, 'roll': 0.0}
{'lipoC2': 0.0, 'temp': 0.0, 'lipoC3S3': 0.0, 'state': 'd9_error', 'rot1': 0, 'rot0': 1, 'rot3': 0, 'rot2': 0, 'depth': -12.5, 'yaw': 0.0, 'datetime': '2019-02-26 09:13:56.177268', 'mgs': 0, 'flw2': 0.28, 'flw1': 0.0, 'flw0': 0.0, 'time': 35.24, 'compass': 0.0, 'pitch': 0.0, 'roll': 0.0}
{'lipoC2': 0.0, 'temp': 0.0, 'lipoC3S3': 0.0, 'state': 'd9_error', 'rot1': 0, 'rot0': 1, 'rot3': 0, 'rot2': 0, 'depth': -10.974, 'yaw': 0.0, 'datetime': '2019-02-26 09:13:56.380931', 'mgs': 0, 'flw2': 0.17, 'flw1': 0.18, 'flw0': 0.24, 'time': 35.44, 'compass': 0.0, 'pitch': 0.0, 'roll': 0.0}
{'lipoC2': 0.0, 'temp': 0.0, 'lipoC3S3': 0.2, 'state': 'd9_error', 'rot1': 0, 'rot0': 1, 'rot3': 0, 'rot2': 0, 'depth': -11.203, 'yaw': 0.0, 'datetime': '2019-02-26 09:13:56.584807', 'mgs': 0, 'flw2': 0.0, 'flw1': 0.0, 'flw0': 0.26, 'time': 35.65, 'compass': 0.0, 'pitch': 0.0, 'roll': 0.0}
{'lipoC2': 0.0, 'temp': 0.0, 'lipoC3S3': 0.0, 'state': 'd9_error', 'rot1': 0, 'rot0': 1, 'rot3': 0, 'rot2': 0, 'depth': -11.279, 'yaw': 0.0, 'datetime': '2019-02-26 09:13:56.788666', 'mgs': 0, 'flw2': 0.0, 'flw1': 0.29, 'flw0': 0.05, 'time': 35.85, 'compass': 0.0, 'pitch': 0.0, 'roll': 0.0}
{'lipoC2': 0.08, 'temp': 0.0, 'lipoC3S3': 0.0, 'state': 'd9_error', 'rot1': 0, 'rot0': 1, 'rot3': 0, 'rot2': 0, 'depth': -12.5, 'yaw': 0.0, 'datetime': '2019-02-26 09:13:56.999376', 'mgs': 0, 'flw2': 0.0, 'flw1': 0.0, 'flw0': 0.0, 'time': 36.06, 'compass': 0.0, 'pitch': 0.0, 'roll': 0.0}
{'lipoC2': 0.0, 'temp': 0.0, 'lipoC3S3': 0.0, 'state': 'd9_error', 'rot1': 0, 'rot0': 1, 'rot3': 0, 'rot2': 0, 'depth': -11.127, 'yaw': 0.0, 'datetime': '2019-02-26 09:13:57.298631', 'mgs': 0, 'flw2': 0.0, 'flw1': 0.0, 'flw0': 0.23, 'time': 36.36, 'compass': 0.0, 'pitch': 0.0, 'roll': 0.0}
{'lipoC2': 0.0, 'temp': 0.0, 'lipoC3S3': 0.0, 'state': 'd9_error', 'rot1': 0, 'rot0': 1, 'rot3': 0, 'rot2': 0, 'depth': -11.813, 'yaw': 0.0, 'datetime': '2019-02-26 09:13:57.503087', 'mgs': 0, 'flw2': 0.07, 'flw1': 0.0, 'flw0': 0.0, 'time': 36.56, 'compass': 0.0, 'pitch': 0.0, 'roll': 0.0}
{'lipoC2': 0.0, 'temp': 0.0, 'lipoC3S3': 0.13, 'state': 'd9_error', 'rot1': 0, 'rot0': 1, 'rot3': 0, 'rot2': 0, 'depth': -12.347, 'yaw': 0.0, 'datetime': '2019-02-26 09:13:57.707594', 'mgs': 0, 'flw2': 0.0, 'flw1': 0.0, 'flw0': 0.0, 'time': 36.77, 'compass': 0.0, 'pitch': 0.0, 'roll': 0.0}
{'lipoC2': 0.02, 'temp': 0.0, 'lipoC3S3': 0.0, 'state': 'd9_error', 'rot1': 0, 'rot0': 1, 'rot3': 0, 'rot2': 0, 'depth': -12.5, 'yaw': 0.0, 'datetime': '2019-02-26 09:13:57.920712', 'mgs': 0, 'flw2': 0.0, 'flw1': 0.0, 'flw0': 0.07, 'time': 36.97, 'compass': 0.0, 'pitch': 0.0, 'roll': 0.0}
{'lipoC2': 0.0, 'temp': 0.0, 'lipoC3S3': 0.0, 'state': 'd9_error', 'rot1': 0, 'rot0': 1, 'rot3': 0, 'rot2': 0, 'depth': -11.05, 'yaw': 0.0, 'datetime': '2019-02-26 09:13:58.222392', 'mgs': 0, 'flw2': 0.0, 'flw1': 0.0, 'flw0': 0.0, 'time': 37.28, 'compass': 0.0, 'pitch': 0.0, 'roll': 0.0}
{'lipoC2': 0.19, 'temp': 0.0, 'lipoC3S3': 0.0, 'state': 'd9_error', 'rot1': 0, 'rot0': 1, 'rot3': 0, 'rot2': 0, 'depth': -11.432, 'yaw': 0.0, 'datetime': '2019-02-26 09:13:58.426397', 'mgs': 0, 'flw2': 0.21, 'flw1': 0.0, 'flw0': 0.0, 'time': 37.48, 'compass': 0.0, 'pitch': 0.0, 'roll': 0.0}
{'lipoC2': 0.11, 'temp': 0.0, 'lipoC3S3': 0.09, 'state': 'd9_error', 'rot1': 0, 'rot0': 1, 'rot3': 0, 'rot2': 0, 'depth': -11.127, 'yaw': 0.0, 'datetime': '2019-02-26 09:13:58.631307', 'mgs': 0, 'flw2': 0.23, 'flw1': 0.0, 'flw0': 0.17, 'time': 37.69, 'compass': 0.0, 'pitch': 0.0, 'roll': 0.0}
{'lipoC2': 0.0, 'temp': 0.0, 'lipoC3S3': 0.0, 'state': 'd9_error', 'rot1': 0, 'rot0': 1, 'rot3': 0, 'rot2': 0, 'depth': -12.5, 'yaw': 0.0, 'datetime': '2019-02-26 09:13:58.835917', 'mgs': 0, 'flw2': 0.13, 'flw1': 0.0, 'flw0': 0.0, 'time': 37.89, 'compass': 0.0, 'pitch': 0.0, 'roll': 0.0}
{'lipoC2': 0.0, 'temp': 0.0, 'lipoC3S3': 0.08, 'state': 'd9_error', 'rot1': 0, 'rot0': 1, 'rot3': 0, 'rot2': 0, 'depth': -11.661, 'yaw': 0.0, 'datetime': '2019-02-26 09:13:59.041053', 'mgs': 0, 'flw2': 0.31, 'flw1': 0.0, 'flw0': 0.05, 'time': 38.1, 'compass': 0.0, 'pitch': 0.0, 'roll': 0.0}
{'lipoC2': 0.0, 'temp': 0.0, 'lipoC3S3': 0.0, 'state': 'd9_error', 'rot1': 0, 'rot0': 1, 'rot3': 0, 'rot2': 0, 'depth': -12.5, 'yaw': 0.0, 'datetime': '2019-02-26 09:13:59.248721', 'mgs': 0, 'flw2': 0.38, 'flw1': 0.0, 'flw0': 0.0, 'time': 38.3, 'compass': 0.0, 'pitch': 0.0, 'roll': 0.0}
{'lipoC2': 0.15, 'temp': 0.0, 'lipoC3S3': 0.0, 'state': 'd9_error', 'rot1': 0, 'rot0': 1, 'rot3': 0, 'rot2': 0, 'depth': -12.5, 'yaw': 0.0, 'datetime': '2019-02-26 09:13:59.452548', 'mgs': 0, 'flw2': 0.0, 'flw1': 0.0, 'flw0': 0.02, 'time': 38.5, 'compass': 0.0, 'pitch': 0.0, 'roll': 0.0}
{'lipoC2': 0.12, 'temp': 0.0, 'lipoC3S3': 0.07, 'state': 'd9_error', 'rot1': 0, 'rot0': 1, 'rot3': 0, 'rot2': 0, 'depth': -12.5, 'yaw': 0.0, 'datetime': '2019-02-26 09:13:59.655642', 'mgs': 0, 'flw2': 0.02, 'flw1': 0.18, 'flw0': 0.0, 'time': 38.71, 'compass': 0.0, 'pitch': 0.0, 'roll': 0.0}
{'lipoC2': 0.0, 'temp': 0.0, 'lipoC3S3': 0.0, 'state': 'd9_error', 'rot1': 0, 'rot0': 1, 'rot3': 0, 'rot2': 0, 'depth': -12.5, 'yaw': 0.0, 'datetime': '2019-02-26 09:13:59.859655', 'mgs': 0, 'flw2': 0.0, 'flw1': 0.56, 'flw0': 0.09, 'time': 38.91, 'compass': 0.0, 'pitch': 0.0, 'roll': 0.0}
{'lipoC2': 0.01, 'temp': 0.0, 'lipoC3S3': 0.0, 'state': 'd9_error', 'rot1': 1, 'rot0': 1, 'rot3': 0, 'rot2': 0, 'depth': -12.5, 'yaw': 0.0, 'datetime': '2019-02-26 09:14:00.063983', 'mgs': 0, 'flw2': 0.0, 'flw1': 0.0, 'flw0': 0.27, 'time': 39.12, 'compass': 0.0, 'pitch': 0.0, 'roll': 0.0}
{'lipoC2': 0.16, 'temp': 0.0, 'lipoC3S3': 0.0, 'state': 'd9_error', 'rot1': 1, 'rot0': 1, 'rot3': 0, 'rot2': 0, 'depth': -12.5, 'yaw': 0.0, 'datetime': '2019-02-26 09:14:00.268606', 'mgs': 0, 'flw2': 0.28, 'flw1': 0.0, 'flw0': 0.0, 'time': 39.32, 'compass': 0.0, 'pitch': 0.0, 'roll': 0.0}
{'lipoC2': 0.0, 'temp': 0.0, 'lipoC3S3': 0.0, 'state': 'd9_error', 'rot1': 1, 'rot0': 1, 'rot3': 0, 'rot2': 0, 'depth': -12.5, 'yaw': 0.0, 'datetime': '2019-02-26 09:14:00.473073', 'mgs': 0, 'flw2': 0.2, 'flw1': 0.0, 'flw0': 0.0, 'time': 39.52, 'compass': 0.0, 'pitch': 0.0, 'roll': 0.0}
{'lipoC2': 0.0, 'temp': 0.0, 'lipoC3S3': 0.11, 'state': 'd9_error', 'rot1': 1, 'rot0': 1, 'rot3': 0, 'rot2': 0, 'depth': -12.5, 'yaw': 0.0, 'datetime': '2019-02-26 09:14:00.677248', 'mgs': 0, 'flw2': 0.28, 'flw1': 0.0, 'flw0': 0.0, 'time': 39.73, 'compass': 0.0, 'pitch': 0.0, 'roll': 0.0}
{'lipoC2': 0.0, 'temp': 0.0, 'lipoC3S3': 0.0, 'state': 'd9_error', 'rot1': 1, 'rot0': 1, 'rot3': 0, 'rot2': 0, 'depth': -12.5, 'yaw': 0.0, 'datetime': '2019-02-26 09:14:00.881972', 'mgs': 0, 'flw2': 0.07, 'flw1': 0.0, 'flw0': 0.0, 'time': 39.93, 'compass': 0.0, 'pitch': 0.0, 'roll': 0.0}
{'lipoC2': 0.0, 'temp': 0.0, 'lipoC3S3': 0.0, 'state': 'd9_error', 'rot1': 1, 'rot0': 1, 'rot3': 0, 'rot2': 0, 'depth': -10.974, 'yaw': 0.0, 'datetime': '2019-02-26 09:14:01.086403', 'mgs': 0, 'flw2': 0.33, 'flw1': 0.0, 'flw0': 0.02, 'time': 40.14, 'compass': 0.0, 'pitch': 0.0, 'roll': 0.0}
{'lipoC2': 0.0, 'temp': 0.0, 'lipoC3S3': 0.09, 'state': 'd9_error', 'rot1': 1, 'rot0': 1, 'rot3': 0, 'rot2': 0, 'depth': -10.898, 'yaw': 0.0, 'datetime': '2019-02-26 09:14:01.290609', 'mgs': 0, 'flw2': 0.0, 'flw1': 0.5, 'flw0': 0.0, 'time': 40.34, 'compass': 0.0, 'pitch': 0.0, 'roll': 0.0}
{'lipoC2': 0.18, 'temp': 0.0, 'lipoC3S3': 0.0, 'state': 'd9_error', 'rot1': 1, 'rot0': 1, 'rot3': 0, 'rot2': 0, 'depth': -12.5, 'yaw': 0.0, 'datetime': '2019-02-26 09:14:01.494850', 'mgs': 0, 'flw2': 0.0, 'flw1': 0.0, 'flw0': 0.2, 'time': 40.54, 'compass': 0.0, 'pitch': 0.0, 'roll': 0.0}
{'lipoC2': 0.0, 'temp': 0.0, 'lipoC3S3': 0.0, 'state': 'd9_error', 'rot1': 1, 'rot0': 1, 'rot3': 0, 'rot2': 0, 'depth': -12.5, 'yaw': 0.0, 'datetime': '2019-02-26 09:14:01.698924', 'mgs': 0, 'flw2': 0.0, 'flw1': 0.0, 'flw0': 0.0, 'time': 40.75, 'compass': 0.0, 'pitch': 0.0, 'roll': 0.0}
{'lipoC2': 0.14, 'temp': 0.0, 'lipoC3S3': 0.13, 'state': 'd9_error', 'rot1': 1, 'rot0': 1, 'rot3': 0, 'rot2': 0, 'depth': -11.813, 'yaw': 0.0, 'datetime': '2019-02-26 09:14:02.006269', 'mgs': 0, 'flw2': 0.26, 'flw1': 0.09, 'flw0': 0.24, 'time': 41.06, 'compass': 0.0, 'pitch': 0.0, 'roll': 0.0}
{'lipoC2': 0.0, 'temp': 0.0, 'lipoC3S3': 0.08, 'state': 'd9_error', 'rot1': 1, 'rot0': 1, 'rot3': 0, 'rot2': 0, 'depth': -10.898, 'yaw': 0.0, 'datetime': '2019-02-26 09:14:02.210506', 'mgs': 0, 'flw2': 0.11, 'flw1': 0.0, 'flw0': 0.0, 'time': 41.26, 'compass': 0.0, 'pitch': 0.0, 'roll': 0.0}
{'lipoC2': 0.2, 'temp': 0.0, 'lipoC3S3': 0.0, 'state': 'd9_error', 'rot1': 1, 'rot0': 1, 'rot3': 0, 'rot2': 0, 'depth': -12.5, 'yaw': 0.0, 'datetime': '2019-02-26 09:14:02.416083', 'mgs': 0, 'flw2': 0.0, 'flw1': 0.0, 'flw0': 0.23, 'time': 41.46, 'compass': 0.0, 'pitch': 0.0, 'roll': 0.0}
{'lipoC2': 0.27, 'temp': 0.0, 'lipoC3S3': 0.0, 'state': 'd9_error', 'rot1': 1, 'rot0': 1, 'rot3': 0, 'rot2': 0, 'depth': -12.5, 'yaw': 0.0, 'datetime': '2019-02-26 09:14:02.620217', 'mgs': 0, 'flw2': 0.0, 'flw1': 0.0, 'flw0': 0.0, 'time': 41.67, 'compass': 0.0, 'pitch': 0.0, 'roll': 0.0}
{'lipoC2': 0.17, 'temp': 0.0, 'lipoC3S3': 0.0, 'state': 'd9_error', 'rot1': 1, 'rot0': 1, 'rot3': 0, 'rot2': 0, 'depth': -12.5, 'yaw': 0.0, 'datetime': '2019-02-26 09:14:02.824466', 'mgs': 0, 'flw2': 0.0, 'flw1': 0.0, 'flw0': 0.1, 'time': 41.87, 'compass': 0.0, 'pitch': 0.0, 'roll': 0.0}
{'lipoC2': 0.0, 'temp': 0.0, 'lipoC3S3': 0.0, 'state': 'd9_error', 'rot1': 1, 'rot0': 1, 'rot3': 0, 'rot2': 0, 'depth': -11.966, 'yaw': 0.0, 'datetime': '2019-02-26 09:14:03.028926', 'mgs': 0, 'flw2': 0.0, 'flw1': 0.0, 'flw0': 0.15, 'time': 42.08, 'compass': 0.0, 'pitch': 0.0, 'roll': 0.0}
{'lipoC2': 0.15, 'temp': 0.0, 'lipoC3S3': 0.0, 'state': 'd9_error', 'rot1': 1, 'rot0': 1, 'rot3': 0, 'rot2': 0, 'depth': -12.5, 'yaw': 0.0, 'datetime': '2019-02-26 09:14:03.232697', 'mgs': 0, 'flw2': 0.0, 'flw1': 0.0, 'flw0': 0.21, 'time': 42.28, 'compass': 0.0, 'pitch': 0.0, 'roll': 0.0}
{'lipoC2': 0.23, 'temp': 0.0, 'lipoC3S3': 0.0, 'state': 'd9_error', 'rot1': 1, 'rot0': 1, 'rot3': 0, 'rot2': 0, 'depth': -12.5, 'yaw': 0.0, 'datetime': '2019-02-26 09:14:03.438699', 'mgs': 0, 'flw2': 0.23, 'flw1': 0.06, 'flw0': 0.0, 'time': 42.48, 'compass': 0.0, 'pitch': 0.0, 'roll': 0.0}
{'lipoC2': 0.0, 'temp': 0.0, 'lipoC3S3': 0.01, 'state': 'd9_error', 'rot1': 1, 'rot0': 1, 'rot3': 0, 'rot2': 0, 'depth': -12.5, 'yaw': 0.0, 'datetime': '2019-02-26 09:14:03.642181', 'mgs': 0, 'flw2': 0.33, 'flw1': 0.0, 'flw0': 0.04, 'time': 42.69, 'compass': 0.0, 'pitch': 0.0, 'roll': 0.0}
{'lipoC2': 0.18, 'temp': 0.0, 'lipoC3S3': 0.0, 'state': 'd9_error', 'rot1': 1, 'rot0': 1, 'rot3': 0, 'rot2': 0, 'depth': -12.424, 'yaw': 0.0, 'datetime': '2019-02-26 09:14:03.846567', 'mgs': 0, 'flw2': 0.21, 'flw1': 0.0, 'flw0': 0.0, 'time': 42.89, 'compass': 0.0, 'pitch': 0.0, 'roll': 0.0}
{'lipoC2': 0.0, 'temp': 0.0, 'lipoC3S3': 0.0, 'state': 'd9_error', 'rot1': 1, 'rot0': 1, 'rot3': 0, 'rot2': 0, 'depth': -12.5, 'yaw': 0.0, 'datetime': '2019-02-26 09:14:04.052073', 'mgs': 0, 'flw2': 0.23, 'flw1': 0.0, 'flw0': 0.0, 'time': 43.1, 'compass': 0.0, 'pitch': 0.0, 'roll': 0.0}
{'lipoC2': 0.0, 'temp': 0.0, 'lipoC3S3': 0.0, 'state': 'd9_error', 'rot1': 1, 'rot0': 1, 'rot3': 0, 'rot2': 0, 'depth': -12.5, 'yaw': 0.0, 'datetime': '2019-02-26 09:14:04.255990', 'mgs': 0, 'flw2': 0.1, 'flw1': 0.0, 'flw0': 0.15, 'time': 43.3, 'compass': 0.0, 'pitch': 0.0, 'roll': 0.0}
{'lipoC2': 0.11, 'temp': 0.0, 'lipoC3S3': 0.0, 'state': 'd9_error', 'rot1': 1, 'rot0': 1, 'rot3': 0, 'rot2': 0, 'depth': -12.5, 'yaw': 0.0, 'datetime': '2019-02-26 09:14:04.458532', 'mgs': 0, 'flw2': 0.0, 'flw1': 0.0, 'flw0': 0.09, 'time': 43.5, 'compass': 0.0, 'pitch': 0.0, 'roll': 0.0}
{'lipoC2': 0.01, 'temp': 0.0, 'lipoC3S3': 0.0, 'state': 'd9_error', 'rot1': 1, 'rot0': 1, 'rot3': 0, 'rot2': 0, 'depth': -12.5, 'yaw': 0.0, 'datetime': '2019-02-26 09:14:04.662619', 'mgs': 0, 'flw2': 0.18, 'flw1': 0.03, 'flw0': 0.0, 'time': 43.71, 'compass': 0.0, 'pitch': 0.0, 'roll': 0.0}
{'lipoC2': 0.0, 'temp': 0.0, 'lipoC3S3': 0.0, 'state': 'd9_error', 'rot1': 1, 'rot0': 1, 'rot3': 0, 'rot2': 0, 'depth': -12.5, 'yaw': 0.0, 'datetime': '2019-02-26 09:14:04.867380', 'mgs': 0, 'flw2': 0.17, 'flw1': 0.15, 'flw0': 0.26, 'time': 43.91, 'compass': 0.0, 'pitch': 0.0, 'roll': 0.0}
{'lipoC2': 0.0, 'temp': 0.0, 'lipoC3S3': 0.15, 'state': 'd9_error', 'rot1': 1, 'rot0': 1, 'rot3': 0, 'rot2': 0, 'depth': -10.898, 'yaw': 0.0, 'datetime': '2019-02-26 09:14:05.071603', 'mgs': 0, 'flw2': 0.0, 'flw1': 0.0, 'flw0': 0.06, 'time': 44.12, 'compass': 0.0, 'pitch': 0.0, 'roll': 0.0}
{'lipoC2': 0.0, 'temp': 0.0, 'lipoC3S3': 0.0, 'state': 'd9_error', 'rot1': 1, 'rot0': 1, 'rot3': 0, 'rot2': 0, 'depth': -11.966, 'yaw': 0.0, 'datetime': '2019-02-26 09:14:05.276774', 'mgs': 0, 'flw2': 0.0, 'flw1': 0.0, 'flw0': 0.0, 'time': 44.32, 'compass': 0.0, 'pitch': 0.0, 'roll': 0.0}
{'lipoC2': 0.0, 'temp': 0.0, 'lipoC3S3': 0.13, 'state': 'd9_error', 'rot1': 1, 'rot0': 2, 'rot3': 0, 'rot2': 0, 'depth': -12.5, 'yaw': 0.0, 'datetime': '2019-02-26 09:14:05.481144', 'mgs': 0, 'flw2': 0.0, 'flw1': 0.0, 'flw0': 0.0, 'time': 44.53, 'compass': 0.0, 'pitch': 0.0, 'roll': 0.0}
{'lipoC2': 0.0, 'temp': 0.0, 'lipoC3S3': 0.03, 'state': 'd9_error', 'rot1': 1, 'rot0': 2, 'rot3': 0, 'rot2': 0, 'depth': -12.5, 'yaw': 0.0, 'datetime': '2019-02-26 09:14:05.685365', 'mgs': 0, 'flw2': 0.0, 'flw1': 0.47, 'flw0': 0.0, 'time': 44.73, 'compass': 0.0, 'pitch': 0.0, 'roll': 0.0}
{'lipoC2': 0.0, 'temp': 0.0, 'lipoC3S3': 0.0, 'state': 'd9_error', 'rot1': 1, 'rot0': 2, 'rot3': 0, 'rot2': 0, 'depth': -10.516, 'yaw': 0.0, 'datetime': '2019-02-26 09:14:05.889510', 'mgs': 0, 'flw2': 0.0, 'flw1': 0.0, 'flw0': 0.09, 'time': 44.93, 'compass': 0.0, 'pitch': 0.0, 'roll': 0.0}
{'lipoC2': 0.31, 'temp': 0.0, 'lipoC3S3': 0.0, 'state': 'd9_error', 'rot1': 1, 'rot0': 2, 'rot3': 0, 'rot2': 0, 'depth': -12.5, 'yaw': 0.0, 'datetime': '2019-02-26 09:14:06.093910', 'mgs': 0, 'flw2': 0.21, 'flw1': 0.0, 'flw0': 0.0, 'time': 45.14, 'compass': 0.0, 'pitch': 0.0, 'roll': 0.0}
{'lipoC2': 0.03, 'temp': 0.0, 'lipoC3S3': 0.01, 'state': 'd9_error', 'rot1': 1, 'rot0': 2, 'rot3': 0, 'rot2': 0, 'depth': -12.5, 'yaw': 0.0, 'datetime': '2019-02-26 09:14:06.298063', 'mgs': 0, 'flw2': 0.0, 'flw1': 0.0, 'flw0': 0.0, 'time': 45.34, 'compass': 0.0, 'pitch': 0.0, 'roll': 0.0}
