{'lipoC2': 0.0, 'temp': 0.0, 'lipoC3S3': 12.52, 'state': 'normal', 'rot1': 0, 'rot0': 0, 'rot3': 0, 'rot2': 0, 'depth': 0.775, 'yaw': 0.0, 'datetime': '2018-12-18 17:07:54.259470', 'mgs': 0, 'flw2': 0.0, 'flw1': 0.38, 'flw0': 0.0, 'time': 1.25, 'compass': -10.14, 'pitch': 0.97, 'roll': 1.72}
{'lipoC2': 0.0, 'temp': 0.0, 'lipoC3S3': 12.7, 'state': 'normal', 'rot1': 0, 'rot0': 0, 'rot3': 0, 'rot2': 0, 'depth': 1.691, 'yaw': -0.22, 'datetime': '2018-12-18 17:07:54.468621', 'mgs': 0, 'flw2': 0.11, 'flw1': 0.32, 'flw0': 0.0, 'time': 1.46, 'compass': -10.36, 'pitch': 0.71, 'roll': 1.81}
{'lipoC2': 0.1, 'temp': 0.0, 'lipoC3S3': 12.51, 'state': 'normal', 'rot1': 0, 'rot0': 0, 'rot3': 0, 'rot2': 0, 'depth': -1.895, 'yaw': -0.44, 'datetime': '2018-12-18 17:07:54.675524', 'mgs': 0, 'flw2': 0.0, 'flw1': 0.41, 'flw0': 0.02, 'time': 1.67, 'compass': -10.58, 'pitch': 0.22, 'roll': 1.82}
{'lipoC2': 0.14, 'temp': 0.0, 'lipoC3S3': 12.42, 'state': 'normal', 'rot1': 0, 'rot0': 0, 'rot3': 0, 'rot2': 0, 'depth': -0.903, 'yaw': -0.65, 'datetime': '2018-12-18 17:07:54.883597', 'mgs': 0, 'flw2': 0.07, 'flw1': 0.41, 'flw0': 0.0, 'time': 1.88, 'compass': -10.79, 'pitch': 0.01, 'roll': 1.67}
{'lipoC2': 0.0, 'temp': 0.0, 'lipoC3S3': 12.46, 'state': 'normal', 'rot1': 0, 'rot0': 0, 'rot3': 0, 'rot2': 0, 'depth': -0.064, 'yaw': -0.83, 'datetime': '2018-12-18 17:07:55.088914', 'mgs': 0, 'flw2': 0.0, 'flw1': 0.0, 'flw0': 0.16, 'time': 2.09, 'compass': -10.97, 'pitch': 0.25, 'roll': 1.66}
{'lipoC2': 0.15, 'temp': 0.0, 'lipoC3S3': 12.35, 'state': 'normal', 'rot1': 0, 'rot0': 0, 'rot3': 0, 'rot2': 0, 'depth': -0.446, 'yaw': -1.03, 'datetime': '2018-12-18 17:07:55.298149', 'mgs': 0, 'flw2': 0.12, 'flw1': 0.38, 'flw0': 0.0, 'time': 2.29, 'compass': -11.17, 'pitch': 0.64, 'roll': 1.66}
{'lipoC2': 0.0, 'temp': 0.0, 'lipoC3S3': 12.29, 'state': 'normal', 'rot1': 0, 'rot0': 0, 'rot3': 0, 'rot2': 0, 'depth': -0.827, 'yaw': -1.22, 'datetime': '2018-12-18 17:07:55.505796', 'mgs': 0, 'flw2': 0.0, 'flw1': 0.0, 'flw0': 0.21, 'time': 2.5, 'compass': -11.36, 'pitch': 0.52, 'roll': 1.66}
{'lipoC2': 0.03, 'temp': 0.0, 'lipoC3S3': 12.37, 'state': 'normal', 'rot1': 0, 'rot0': 0, 'rot3': 0, 'rot2': 0, 'depth': 1.462, 'yaw': -1.43, 'datetime': '2018-12-18 17:07:55.715170', 'mgs': 0, 'flw2': 0.0, 'flw1': 0.5, 'flw0': 0.0, 'time': 2.71, 'compass': -11.57, 'pitch': 0.06, 'roll': 1.74}
{'lipoC2': 0.16, 'temp': 0.0, 'lipoC3S3': 12.22, 'state': 'normal', 'rot1': 0, 'rot0': 0, 'rot3': 0, 'rot2': 0, 'depth': 0.546, 'yaw': -1.63, 'datetime': '2018-12-18 17:07:55.923354', 'mgs': 0, 'flw2': 0.96, 'flw1': 0.35, 'flw0': 0.2, 'time': 2.92, 'compass': -11.77, 'pitch': -0.13, 'roll': 1.92}
{'lipoC2': 0.0, 'temp': 0.0, 'lipoC3S3': 12.58, 'state': 'normal', 'rot1': 0, 'rot0': 4, 'rot3': 0, 'rot2': 0, 'depth': 1.385, 'yaw': -1.04, 'datetime': '2018-12-18 17:07:56.129874', 'mgs': 0, 'flw2': 0.93, 'flw1': 0.35, 'flw0': 0.0, 'time': 3.13, 'compass': -11.19, 'pitch': 0.21, 'roll': 2.11}
{'lipoC2': 0.14, 'temp': 0.0, 'lipoC3S3': 12.48, 'state': 'normal', 'rot1': 0, 'rot0': 8, 'rot3': 0, 'rot2': 0, 'depth': 1.843, 'yaw': 1.19, 'datetime': '2018-12-18 17:07:56.337665', 'mgs': 0, 'flw2': 1.25, 'flw1': 0.0, 'flw0': 0.74, 'time': 3.33, 'compass': -8.96, 'pitch': 1.03, 'roll': 2.41}
{'lipoC2': 0.1, 'temp': 0.0, 'lipoC3S3': 12.26, 'state': 'normal', 'rot1': 2, 'rot0': 12, 'rot3': 0, 'rot2': 0, 'depth': 0.546, 'yaw': 3.91, 'datetime': '2018-12-18 17:07:56.546797', 'mgs': 0, 'flw2': 1.5, 'flw1': 0.29, 'flw0': 3.37, 'time': 3.54, 'compass': -6.23, 'pitch': 1.85, 'roll': 2.49}
{'lipoC2': 0.0, 'temp': 0.0, 'lipoC3S3': 12.39, 'state': 'normal', 'rot1': 4, 'rot0': 15, 'rot3': 0, 'rot2': 0, 'depth': 0.699, 'yaw': 5.49, 'datetime': '2018-12-18 17:07:56.754776', 'mgs': 0, 'flw2': 2.62, 'flw1': 0.06, 'flw0': 2.7, 'time': 3.75, 'compass': -4.65, 'pitch': 3.11, 'roll': 2.06}
{'lipoC2': 0.09, 'temp': 0.0, 'lipoC3S3': 12.5, 'state': 'normal', 'rot1': 8, 'rot0': 18, 'rot3': 0, 'rot2': 0, 'depth': 1.92, 'yaw': 5.9, 'datetime': '2018-12-18 17:07:56.964451', 'mgs': 0, 'flw2': 2.43, 'flw1': 0.0, 'flw0': 3.13, 'time': 3.96, 'compass': -4.24, 'pitch': 4.14, 'roll': 1.65}
{'lipoC2': 0.0, 'temp': 0.0, 'lipoC3S3': 12.26, 'state': 'normal', 'rot1': 11, 'rot0': 20, 'rot3': 0, 'rot2': 0, 'depth': -0.98, 'yaw': 5.64, 'datetime': '2018-12-18 17:07:57.172984', 'mgs': 0, 'flw2': 2.56, 'flw1': 0.03, 'flw0': 2.73, 'time': 4.16, 'compass': -4.5, 'pitch': 4.31, 'roll': 1.63}
{'lipoC2': 0.0, 'temp': 0.0, 'lipoC3S3': 12.46, 'state': 'normal', 'rot1': 13, 'rot0': 23, 'rot3': 0, 'rot2': 0, 'depth': 0.546, 'yaw': 4.98, 'datetime': '2018-12-18 17:07:57.384290', 'mgs': 0, 'flw2': 2.38, 'flw1': 0.0, 'flw0': 3.2, 'time': 4.37, 'compass': -5.16, 'pitch': 3.92, 'roll': 1.8}
{'lipoC2': 0.0, 'temp': 0.0, 'lipoC3S3': 12.63, 'state': 'normal', 'rot1': 16, 'rot0': 26, 'rot3': 0, 'rot2': 0, 'depth': -1.819, 'yaw': 3.97, 'datetime': '2018-12-18 17:07:57.593278', 'mgs': 0, 'flw2': 2.08, 'flw1': 0.23, 'flw0': 3.19, 'time': 4.58, 'compass': -6.17, 'pitch': 3.5, 'roll': 1.91}
{'lipoC2': 0.09, 'temp': 0.0, 'lipoC3S3': 12.52, 'state': 'normal', 'rot1': 18, 'rot0': 28, 'rot3': 0, 'rot2': 0, 'depth': 1.843, 'yaw': 2.82, 'datetime': '2018-12-18 17:07:57.801127', 'mgs': 0, 'flw2': 2.28, 'flw1': 0.47, 'flw0': 3.14, 'time': 4.79, 'compass': -7.32, 'pitch': 3.23, 'roll': 1.74}
{'lipoC2': 0.1, 'temp': 0.0, 'lipoC3S3': 12.5, 'state': 'normal', 'rot1': 21, 'rot0': 30, 'rot3': 0, 'rot2': 0, 'depth': -1.743, 'yaw': 1.57, 'datetime': '2018-12-18 17:07:58.010447', 'mgs': 0, 'flw2': 2.55, 'flw1': 0.41, 'flw0': 3.14, 'time': 5.0, 'compass': -8.57, 'pitch': 3.15, 'roll': 1.45}
{'lipoC2': 0.12, 'temp': 0.0, 'lipoC3S3': 12.27, 'state': 'normal', 'rot1': 23, 'rot0': 32, 'rot3': 0, 'rot2': 0, 'depth': 0.928, 'yaw': 0.2, 'datetime': '2018-12-18 17:07:58.219233', 'mgs': 0, 'flw2': 2.19, 'flw1': 0.0, 'flw0': 3.2, 'time': 5.21, 'compass': -9.94, 'pitch': 3.1, 'roll': 1.46}
{'lipoC2': 0.12, 'temp': 0.0, 'lipoC3S3': 12.48, 'state': 'normal', 'rot1': 26, 'rot0': 35, 'rot3': 0, 'rot2': 0, 'depth': 1.843, 'yaw': -1.15, 'datetime': '2018-12-18 17:07:58.428191', 'mgs': 0, 'flw2': 2.42, 'flw1': 0.0, 'flw0': 3.09, 'time': 5.42, 'compass': -11.29, 'pitch': 2.85, 'roll': 1.53}
{'lipoC2': 0.11, 'temp': 0.0, 'lipoC3S3': 12.5, 'state': 'normal', 'rot1': 28, 'rot0': 37, 'rot3': 0, 'rot2': 0, 'depth': 1.92, 'yaw': -2.44, 'datetime': '2018-12-18 17:07:58.638356', 'mgs': 0, 'flw2': 2.44, 'flw1': 0.0, 'flw0': 2.51, 'time': 5.63, 'compass': -12.59, 'pitch': 2.55, 'roll': 1.48}
{'lipoC2': 0.08, 'temp': 0.0, 'lipoC3S3': 12.52, 'state': 'normal', 'rot1': 30, 'rot0': 40, 'rot3': 0, 'rot2': 0, 'depth': -1.514, 'yaw': -3.56, 'datetime': '2018-12-18 17:07:58.847566', 'mgs': 0, 'flw2': 2.5, 'flw1': 0.47, 'flw0': 2.43, 'time': 5.84, 'compass': -13.7, 'pitch': 2.15, 'roll': 1.37}
{'lipoC2': 0.09, 'temp': 0.0, 'lipoC3S3': 12.52, 'state': 'normal', 'rot1': 33, 'rot0': 42, 'rot3': 0, 'rot2': 0, 'depth': -1.819, 'yaw': -4.4, 'datetime': '2018-12-18 17:07:59.056742', 'mgs': 0, 'flw2': 2.27, 'flw1': 0.0, 'flw0': 2.37, 'time': 6.04, 'compass': -14.54, 'pitch': 2.03, 'roll': 1.65}
{'lipoC2': 0.08, 'temp': 0.0, 'lipoC3S3': 12.54, 'state': 'normal', 'rot1': 35, 'rot0': 45, 'rot3': 0, 'rot2': 0, 'depth': -1.819, 'yaw': -4.92, 'datetime': '2018-12-18 17:07:59.264573', 'mgs': 0, 'flw2': 2.53, 'flw1': 0.0, 'flw0': 2.38, 'time': 6.25, 'compass': -15.06, 'pitch': 2.01, 'roll': 2.04}
{'lipoC2': 0.0, 'temp': 0.0, 'lipoC3S3': 12.55, 'state': 'normal', 'rot1': 37, 'rot0': 47, 'rot3': 0, 'rot2': 0, 'depth': 1.004, 'yaw': -5.48, 'datetime': '2018-12-18 17:07:59.473696', 'mgs': 0, 'flw2': 2.2, 'flw1': 0.44, 'flw0': 2.28, 'time': 6.46, 'compass': -15.62, 'pitch': 1.67, 'roll': 2.05}
{'lipoC2': 0.13, 'temp': 0.0, 'lipoC3S3': 12.45, 'state': 'normal', 'rot1': 39, 'rot0': 50, 'rot3': 0, 'rot2': 0, 'depth': 1.691, 'yaw': -5.87, 'datetime': '2018-12-18 17:07:59.682628', 'mgs': 0, 'flw2': 2.21, 'flw1': 0.29, 'flw0': 2.12, 'time': 6.67, 'compass': -16.01, 'pitch': 1.37, 'roll': 1.74}
{'lipoC2': 0.02, 'temp': 0.0, 'lipoC3S3': 12.58, 'state': 'normal', 'rot1': 41, 'rot0': 53, 'rot3': 0, 'rot2': 0, 'depth': -1.208, 'yaw': -6.11, 'datetime': '2018-12-18 17:07:59.892971', 'mgs': 0, 'flw2': 2.09, 'flw1': 0.26, 'flw0': 2.11, 'time': 6.88, 'compass': -16.26, 'pitch': 1.51, 'roll': 1.66}
{'lipoC2': 0.11, 'temp': 0.0, 'lipoC3S3': 12.27, 'state': 'normal', 'rot1': 43, 'rot0': 55, 'rot3': 0, 'rot2': 0, 'depth': 1.157, 'yaw': -6.1, 'datetime': '2018-12-18 17:08:00.104361', 'mgs': 0, 'flw2': 2.56, 'flw1': 0.06, 'flw0': 1.48, 'time': 7.09, 'compass': -16.24, 'pitch': 2.04, 'roll': 1.99}
{'lipoC2': 0.12, 'temp': 0.0, 'lipoC3S3': 12.48, 'state': 'normal', 'rot1': 45, 'rot0': 57, 'rot3': 0, 'rot2': 0, 'depth': -1.514, 'yaw': -5.85, 'datetime': '2018-12-18 17:08:00.312811', 'mgs': 0, 'flw2': 2.5, 'flw1': 0.0, 'flw0': 1.86, 'time': 7.3, 'compass': -15.99, 'pitch': 2.19, 'roll': 2.14}
{'lipoC2': 0.04, 'temp': 0.0, 'lipoC3S3': 12.55, 'state': 'normal', 'rot1': 47, 'rot0': 59, 'rot3': 0, 'rot2': 0, 'depth': 1.843, 'yaw': -5.42, 'datetime': '2018-12-18 17:08:00.520852', 'mgs': 0, 'flw2': 2.42, 'flw1': 0.0, 'flw0': 1.59, 'time': 7.51, 'compass': -15.57, 'pitch': 1.89, 'roll': 2.13}
{'lipoC2': 0.0, 'temp': 0.0, 'lipoC3S3': 12.45, 'state': 'normal', 'rot1': 48, 'rot0': 61, 'rot3': 0, 'rot2': 0, 'depth': 0.546, 'yaw': -4.97, 'datetime': '2018-12-18 17:08:00.730996', 'mgs': 0, 'flw2': 1.97, 'flw1': 0.12, 'flw0': 1.37, 'time': 7.71, 'compass': -15.11, 'pitch': 1.45, 'roll': 2.23}
{'lipoC2': 0.1, 'temp': 0.0, 'lipoC3S3': 12.51, 'state': 'normal', 'rot1': 50, 'rot0': 65, 'rot3': 0, 'rot2': 0, 'depth': -1.743, 'yaw': -4.59, 'datetime': '2018-12-18 17:08:00.939186', 'mgs': 0, 'flw2': 1.77, 'flw1': 0.38, 'flw0': 1.5, 'time': 7.92, 'compass': -14.74, 'pitch': 1.17, 'roll': 2.38}
{'lipoC2': 0.0, 'temp': 0.0, 'lipoC3S3': 12.68, 'state': 'normal', 'rot1': 52, 'rot0': 68, 'rot3': 0, 'rot2': 0, 'depth': 1.691, 'yaw': -4.09, 'datetime': '2018-12-18 17:08:01.150200', 'mgs': 0, 'flw2': 1.92, 'flw1': 0.18, 'flw0': 1.07, 'time': 8.13, 'compass': -14.23, 'pitch': 1.38, 'roll': 2.55}
{'lipoC2': 0.0, 'temp': 0.0, 'lipoC3S3': 12.45, 'state': 'normal', 'rot1': 54, 'rot0': 70, 'rot3': 0, 'rot2': 0, 'depth': 0.699, 'yaw': -3.44, 'datetime': '2018-12-18 17:08:01.357145', 'mgs': 0, 'flw2': 1.93, 'flw1': 0.26, 'flw0': 1.15, 'time': 8.34, 'compass': -13.58, 'pitch': 1.79, 'roll': 2.69}
{'lipoC2': 0.0, 'temp': 0.0, 'lipoC3S3': 12.66, 'state': 'normal', 'rot1': 56, 'rot0': 72, 'rot3': 0, 'rot2': 0, 'depth': 1.767, 'yaw': -2.75, 'datetime': '2018-12-18 17:08:01.566057', 'mgs': 0, 'flw2': 1.97, 'flw1': 0.0, 'flw0': 1.0, 'time': 8.55, 'compass': -12.9, 'pitch': 1.76, 'roll': 2.66}
{'lipoC2': 0.13, 'temp': 0.0, 'lipoC3S3': 12.27, 'state': 'normal', 'rot1': 57, 'rot0': 75, 'rot3': 0, 'rot2': 0, 'depth': 0.775, 'yaw': -2.02, 'datetime': '2018-12-18 17:08:01.778043', 'mgs': 0, 'flw2': 1.95, 'flw1': 0.12, 'flw0': 0.9, 'time': 8.76, 'compass': -12.17, 'pitch': 1.39, 'roll': 2.64}
{'lipoC2': 0.09, 'temp': 0.0, 'lipoC3S3': 12.27, 'state': 'normal', 'rot1': 59, 'rot0': 78, 'rot3': 0, 'rot2': 0, 'depth': 1.233, 'yaw': -1.19, 'datetime': '2018-12-18 17:08:01.987194', 'mgs': 0, 'flw2': 0.99, 'flw1': 0.21, 'flw0': 1.42, 'time': 8.97, 'compass': -11.33, 'pitch': 1.06, 'roll': 2.71}
{'lipoC2': 0.0, 'temp': 0.0, 'lipoC3S3': 12.54, 'state': 'normal', 'rot1': 61, 'rot0': 82, 'rot3': 0, 'rot2': 0, 'depth': 1.08, 'yaw': -0.41, 'datetime': '2018-12-18 17:08:02.194529', 'mgs': 0, 'flw2': 1.06, 'flw1': 0.41, 'flw0': 0.81, 'time': 9.17, 'compass': -10.56, 'pitch': 0.95, 'roll': 2.91}
{'lipoC2': 0.14, 'temp': 0.0, 'lipoC3S3': 12.42, 'state': 'normal', 'rot1': 62, 'rot0': 84, 'rot3': 0, 'rot2': 0, 'depth': -0.751, 'yaw': 0.22, 'datetime': '2018-12-18 17:08:02.405454', 'mgs': 0, 'flw2': 0.83, 'flw1': 0.18, 'flw0': 0.29, 'time': 9.38, 'compass': -9.92, 'pitch': 0.7, 'roll': 3.11}
{'lipoC2': 0.0, 'temp': 0.0, 'lipoC3S3': 12.43, 'state': 'normal', 'rot1': 63, 'rot0': 86, 'rot3': 0, 'rot2': 0, 'depth': 0.928, 'yaw': 0.91, 'datetime': '2018-12-18 17:08:02.612822', 'mgs': 0, 'flw2': 0.33, 'flw1': 0.38, 'flw0': 0.0, 'time': 9.59, 'compass': -9.23, 'pitch': 0.04, 'roll': 3.18}
{'lipoC2': 0.0, 'temp': 0.0, 'lipoC3S3': 12.51, 'state': 'normal', 'rot1': 63, 'rot0': 88, 'rot3': 0, 'rot2': 0, 'depth': 0.546, 'yaw': 1.8, 'datetime': '2018-12-18 17:08:02.821392', 'mgs': 0, 'flw2': 0.0, 'flw1': 0.41, 'flw0': 0.02, 'time': 9.8, 'compass': -8.34, 'pitch': -0.96, 'roll': 3.0}
{'lipoC2': 0.0, 'temp': 0.0, 'lipoC3S3': 12.6, 'state': 'normal', 'rot1': 63, 'rot0': 88, 'rot3': 0, 'rot2': 0, 'depth': 1.691, 'yaw': 2.52, 'datetime': '2018-12-18 17:08:03.031397', 'mgs': 0, 'flw2': 0.0, 'flw1': 0.38, 'flw0': 0.04, 'time': 10.01, 'compass': -7.63, 'pitch': -1.45, 'roll': 2.78}
{'lipoC2': 0.0, 'temp': 0.0, 'lipoC3S3': 12.5, 'state': 'normal', 'rot1': 63, 'rot0': 88, 'rot3': 0, 'rot2': 0, 'depth': 0.47, 'yaw': 3.22, 'datetime': '2018-12-18 17:08:03.242493', 'mgs': 0, 'flw2': 0.06, 'flw1': 0.0, 'flw0': 0.12, 'time': 10.22, 'compass': -6.92, 'pitch': -1.29, 'roll': 2.55}
{'lipoC2': 0.03, 'temp': 0.0, 'lipoC3S3': 12.34, 'state': 'normal', 'rot1': 63, 'rot0': 88, 'rot3': 0, 'rot2': 0, 'depth': 1.462, 'yaw': 3.91, 'datetime': '2018-12-18 17:08:03.447893', 'mgs': 0, 'flw2': 0.0, 'flw1': 0.29, 'flw0': 0.11, 'time': 10.43, 'compass': -6.23, 'pitch': -1.1, 'roll': 2.5}
{'lipoC2': 0.0, 'temp': 0.0, 'lipoC3S3': 12.58, 'state': 'normal', 'rot1': 63, 'rot0': 88, 'rot3': 0, 'rot2': 0, 'depth': 1.309, 'yaw': 4.57, 'datetime': '2018-12-18 17:08:03.655911', 'mgs': 0, 'flw2': 0.2, 'flw1': 0.0, 'flw0': 0.0, 'time': 10.64, 'compass': -5.57, 'pitch': -1.15, 'roll': 2.69}
{'lipoC2': 0.0, 'temp': 0.0, 'lipoC3S3': 12.52, 'state': 'normal', 'rot1': 63, 'rot0': 88, 'rot3': 0, 'rot2': 0, 'depth': -0.446, 'yaw': 5.1, 'datetime': '2018-12-18 17:08:03.863213', 'mgs': 0, 'flw2': 0.0, 'flw1': 0.38, 'flw0': 0.0, 'time': 10.84, 'compass': -5.04, 'pitch': -1.27, 'roll': 2.97}
{'lipoC2': 0.12, 'temp': 0.0, 'lipoC3S3': 12.5, 'state': 'normal', 'rot1': 63, 'rot0': 88, 'rot3': 0, 'rot2': 0, 'depth': -1.514, 'yaw': 5.54, 'datetime': '2018-12-18 17:08:04.076697', 'mgs': 0, 'flw2': 0.13, 'flw1': 0.0, 'flw0': 0.07, 'time': 11.05, 'compass': -4.6, 'pitch': -1.28, 'roll': 3.16}
{'lipoC2': 0.0, 'temp': 0.0, 'lipoC3S3': 12.34, 'state': 'normal', 'rot1': 63, 'rot0': 88, 'rot3': 0, 'rot2': 0, 'depth': -0.293, 'yaw': 5.86, 'datetime': '2018-12-18 17:08:04.287300', 'mgs': 0, 'flw2': 0.12, 'flw1': 0.29, 'flw0': 0.0, 'time': 11.26, 'compass': -4.28, 'pitch': -1.19, 'roll': 3.09}
{'lipoC2': 0.14, 'temp': 0.0, 'lipoC3S3': 12.41, 'state': 'normal', 'rot1': 63, 'rot0': 88, 'rot3': 0, 'rot2': 0, 'depth': 1.309, 'yaw': 6.12, 'datetime': '2018-12-18 17:08:04.491661', 'mgs': 0, 'flw2': 0.04, 'flw1': 0.41, 'flw0': 0.0, 'time': 11.47, 'compass': -4.02, 'pitch': -1.19, 'roll': 2.88}
{'lipoC2': 0.0, 'temp': 0.0, 'lipoC3S3': 12.54, 'state': 'normal', 'rot1': 63, 'rot0': 88, 'rot3': 0, 'rot2': 0, 'depth': 0.775, 'yaw': 6.29, 'datetime': '2018-12-18 17:08:04.700949', 'mgs': 0, 'flw2': 0.17, 'flw1': 0.0, 'flw0': 0.0, 'time': 11.68, 'compass': -3.85, 'pitch': -1.4, 'roll': 2.86}
{'lipoC2': 0.04, 'temp': 0.0, 'lipoC3S3': 12.3, 'state': 'normal', 'rot1': 63, 'rot0': 88, 'rot3': 0, 'rot2': 0, 'depth': 1.385, 'yaw': 6.35, 'datetime': '2018-12-18 17:08:04.909238', 'mgs': 0, 'flw2': 0.0, 'flw1': 0.23, 'flw0': 0.17, 'time': 11.89, 'compass': -3.79, 'pitch': -1.42, 'roll': 3.07}
{'lipoC2': 0.0, 'temp': 0.0, 'lipoC3S3': 12.68, 'state': 'normal', 'rot1': 63, 'rot0': 88, 'rot3': 0, 'rot2': 0, 'depth': 1.767, 'yaw': 6.35, 'datetime': '2018-12-18 17:08:05.119986', 'mgs': 0, 'flw2': 0.17, 'flw1': 0.12, 'flw0': 0.0, 'time': 12.1, 'compass': -3.79, 'pitch': -1.42, 'roll': 3.26}
{'lipoC2': 0.0, 'temp': 0.0, 'lipoC3S3': 12.63, 'state': 'normal', 'rot1': 63, 'rot0': 88, 'rot3': 0, 'rot2': 0, 'depth': 1.538, 'yaw': 6.35, 'datetime': '2018-12-18 17:08:05.328726', 'mgs': 0, 'flw2': 0.0, 'flw1': 0.35, 'flw0': 0.11, 'time': 12.31, 'compass': -3.79, 'pitch': -1.42, 'roll': 3.27}
{'lipoC2': 0.0, 'temp': 0.0, 'lipoC3S3': 12.64, 'state': 'normal', 'rot1': 63, 'rot0': 88, 'rot3': 0, 'rot2': 0, 'depth': -2.124, 'yaw': 6.23, 'datetime': '2018-12-18 17:08:05.538942', 'mgs': 0, 'flw2': 0.0, 'flw1': 0.32, 'flw0': 0.11, 'time': 12.52, 'compass': -3.91, 'pitch': -1.25, 'roll': 3.23}
{'lipoC2': 0.0, 'temp': 0.0, 'lipoC3S3': 12.29, 'state': 'normal', 'rot1': 63, 'rot0': 88, 'rot3': 0, 'rot2': 0, 'depth': -0.293, 'yaw': 6.04, 'datetime': '2018-12-18 17:08:05.751696', 'mgs': 0, 'flw2': 0.13, 'flw1': 0.29, 'flw0': 0.0, 'time': 12.73, 'compass': -4.11, 'pitch': -1.22, 'roll': 3.06}
{'lipoC2': 0.0, 'temp': 0.0, 'lipoC3S3': 12.52, 'state': 'normal', 'rot1': 63, 'rot0': 88, 'rot3': 0, 'rot2': 0, 'depth': -0.14, 'yaw': 5.83, 'datetime': '2018-12-18 17:08:05.960029', 'mgs': 0, 'flw2': 0.15, 'flw1': 0.0, 'flw0': 0.02, 'time': 12.93, 'compass': -4.31, 'pitch': -1.43, 'roll': 3.03}
{'lipoC2': 0.0, 'temp': 0.0, 'lipoC3S3': 12.54, 'state': 'normal', 'rot1': 63, 'rot0': 88, 'rot3': 0, 'rot2': 0, 'depth': 0.775, 'yaw': 5.54, 'datetime': '2018-12-18 17:08:06.165694', 'mgs': 0, 'flw2': 0.2, 'flw1': 0.0, 'flw0': 0.0, 'time': 13.14, 'compass': -4.6, 'pitch': -1.57, 'roll': 3.02}
{'lipoC2': 0.0, 'temp': 0.0, 'lipoC3S3': 12.29, 'state': 'normal', 'rot1': 63, 'rot0': 88, 'rot3': 0, 'rot2': 0, 'depth': -0.827, 'yaw': 5.19, 'datetime': '2018-12-18 17:08:06.375839', 'mgs': 0, 'flw2': 0.0, 'flw1': 0.0, 'flw0': 0.2, 'time': 13.35, 'compass': -4.96, 'pitch': -1.56, 'roll': 3.08}
{'lipoC2': 0.0, 'temp': 0.0, 'lipoC3S3': 12.66, 'state': 'normal', 'rot1': 63, 'rot0': 88, 'rot3': 0, 'rot2': 0, 'depth': 1.691, 'yaw': 4.8, 'datetime': '2018-12-18 17:08:06.584180', 'mgs': 0, 'flw2': 0.15, 'flw1': 0.0, 'flw0': 0.66, 'time': 13.56, 'compass': -5.34, 'pitch': -1.39, 'roll': 3.3}
{'lipoC2': 0.08, 'temp': 0.0, 'lipoC3S3': 12.29, 'state': 'normal', 'rot1': 64, 'rot0': 88, 'rot3': 0, 'rot2': 0, 'depth': 1.309, 'yaw': 3.75, 'datetime': '2018-12-18 17:08:06.791362', 'mgs': 0, 'flw2': 0.0, 'flw1': 0.06, 'flw0': 1.18, 'time': 13.77, 'compass': -6.39, 'pitch': -1.09, 'roll': 3.13}
{'lipoC2': 0.0, 'temp': 0.0, 'lipoC3S3': 12.67, 'state': 'normal', 'rot1': 66, 'rot0': 88, 'rot3': 0, 'rot2': 0, 'depth': 1.767, 'yaw': 1.48, 'datetime': '2018-12-18 17:08:07.006002', 'mgs': 0, 'flw2': 0.0, 'flw1': 0.26, 'flw0': 1.11, 'time': 13.98, 'compass': -8.66, 'pitch': -1.02, 'roll': 2.5}
{'lipoC2': 0.04, 'temp': 0.0, 'lipoC3S3': 12.33, 'state': 'normal', 'rot1': 67, 'rot0': 88, 'rot3': 0, 'rot2': 0, 'depth': 0.394, 'yaw': -1.94, 'datetime': '2018-12-18 17:08:07.211819', 'mgs': 0, 'flw2': 0.18, 'flw1': 0.0, 'flw0': 0.92, 'time': 14.19, 'compass': -12.08, 'pitch': -1.51, 'roll': 1.9}
{'lipoC2': 0.02, 'temp': 0.0, 'lipoC3S3': 12.38, 'state': 'normal', 'rot1': 69, 'rot0': 88, 'rot3': 0, 'rot2': 0, 'depth': 1.538, 'yaw': -6.25, 'datetime': '2018-12-18 17:08:07.420119', 'mgs': 0, 'flw2': 0.0, 'flw1': 0.32, 'flw0': 1.06, 'time': 14.39, 'compass': -16.39, 'pitch': -1.75, 'roll': 1.63}
{'lipoC2': 0.0, 'temp': 0.0, 'lipoC3S3': 12.51, 'state': 'normal', 'rot1': 71, 'rot0': 88, 'rot3': 0, 'rot2': 0, 'depth': 0.012, 'yaw': -10.92, 'datetime': '2018-12-18 17:08:07.626811', 'mgs': 0, 'flw2': 0.0, 'flw1': 0.41, 'flw0': 1.28, 'time': 14.6, 'compass': -21.06, 'pitch': -1.76, 'roll': 1.47}
{'lipoC2': 0.13, 'temp': 0.0, 'lipoC3S3': 12.26, 'state': 'normal', 'rot1': 72, 'rot0': 88, 'rot3': 0, 'rot2': 0, 'depth': 0.851, 'yaw': -16.38, 'datetime': '2018-12-18 17:08:07.838552', 'mgs': 0, 'flw2': 0.0, 'flw1': 0.03, 'flw0': 1.43, 'time': 14.81, 'compass': -26.52, 'pitch': -1.88, 'roll': 1.15}
{'lipoC2': 0.0, 'temp': 0.0, 'lipoC3S3': 12.7, 'state': 'normal', 'rot1': 74, 'rot0': 88, 'rot3': 0, 'rot2': 0, 'depth': 0.241, 'yaw': -22.41, 'datetime': '2018-12-18 17:08:08.043522', 'mgs': 0, 'flw2': 0.0, 'flw1': 0.18, 'flw0': 1.42, 'time': 15.02, 'compass': -32.55, 'pitch': -1.99, 'roll': 0.93}
{'lipoC2': 0.0, 'temp': 0.0, 'lipoC3S3': 12.48, 'state': 'normal', 'rot1': 76, 'rot0': 88, 'rot3': 0, 'rot2': 0, 'depth': -0.217, 'yaw': -28.73, 'datetime': '2018-12-18 17:08:08.251983', 'mgs': 0, 'flw2': 0.0, 'flw1': 0.0, 'flw0': 1.06, 'time': 15.23, 'compass': -38.87, 'pitch': -2.13, 'roll': 0.71}
{'lipoC2': 0.12, 'temp': 0.0, 'lipoC3S3': 12.47, 'state': 'normal', 'rot1': 78, 'rot0': 88, 'rot3': 0, 'rot2': 0, 'depth': -1.819, 'yaw': -35.03, 'datetime': '2018-12-18 17:08:08.461804', 'mgs': 0, 'flw2': 0.1, 'flw1': 0.0, 'flw0': 1.01, 'time': 15.44, 'compass': -45.17, 'pitch': -2.33, 'roll': 0.32}
{'lipoC2': 0.13, 'temp': 0.0, 'lipoC3S3': 12.23, 'state': 'normal', 'rot1': 80, 'rot0': 88, 'rot3': 0, 'rot2': 0, 'depth': 1.004, 'yaw': -41.07, 'datetime': '2018-12-18 17:08:08.669800', 'mgs': 0, 'flw2': 0.31, 'flw1': 0.0, 'flw0': 0.7, 'time': 15.64, 'compass': -51.21, 'pitch': -2.34, 'roll': -0.07}
{'lipoC2': 0.11, 'temp': 0.0, 'lipoC3S3': 12.48, 'state': 'normal', 'rot1': 82, 'rot0': 88, 'rot3': 0, 'rot2': 0, 'depth': -2.124, 'yaw': -47.56, 'datetime': '2018-12-18 17:08:08.879521', 'mgs': 0, 'flw2': 0.09, 'flw1': 0.0, 'flw0': 0.99, 'time': 15.85, 'compass': -57.7, 'pitch': -2.31, 'roll': -0.46}
{'lipoC2': 0.16, 'temp': 0.0, 'lipoC3S3': 12.35, 'state': 'normal', 'rot1': 84, 'rot0': 88, 'rot3': 0, 'rot2': 0, 'depth': 1.233, 'yaw': -54.2, 'datetime': '2018-12-18 17:08:09.087353', 'mgs': 0, 'flw2': 0.06, 'flw1': 0.15, 'flw0': 0.56, 'time': 16.06, 'compass': -64.34, 'pitch': -2.23, 'roll': -0.95}
{'lipoC2': 0.05, 'temp': 0.0, 'lipoC3S3': 12.3, 'state': 'normal', 'rot1': 87, 'rot0': 89, 'rot3': 0, 'rot2': 0, 'depth': 0.47, 'yaw': -60.43, 'datetime': '2018-12-18 17:08:09.296975', 'mgs': 0, 'flw2': 0.0, 'flw1': 0.15, 'flw0': 1.11, 'time': 16.27, 'compass': -70.57, 'pitch': -1.84, 'roll': -1.33}
{'lipoC2': 0.15, 'temp': 0.0, 'lipoC3S3': 12.39, 'state': 'normal', 'rot1': 88, 'rot0': 90, 'rot3': 0, 'rot2': 0, 'depth': -0.522, 'yaw': -66.75, 'datetime': '2018-12-18 17:08:09.505507', 'mgs': 0, 'flw2': 0.34, 'flw1': 0.0, 'flw0': 1.04, 'time': 16.48, 'compass': -76.89, 'pitch': -1.49, 'roll': -1.71}
{'lipoC2': 0.0, 'temp': 0.0, 'lipoC3S3': 12.58, 'state': 'normal', 'rot1': 90, 'rot0': 91, 'rot3': 0, 'rot2': 0, 'depth': 1.767, 'yaw': -72.82, 'datetime': '2018-12-18 17:08:09.714918', 'mgs': 0, 'flw2': 0.55, 'flw1': 0.56, 'flw0': 0.87, 'time': 16.69, 'compass': -82.96, 'pitch': -1.28, 'roll': -2.22}
{'lipoC2': 0.0, 'temp': 0.0, 'lipoC3S3': 12.7, 'state': 'normal', 'rot1': 92, 'rot0': 92, 'rot3': 0, 'rot2': 0, 'depth': 2.225, 'yaw': -78.33, 'datetime': '2018-12-18 17:08:09.923832', 'mgs': 0, 'flw2': 0.67, 'flw1': 0.38, 'flw0': 0.94, 'time': 16.9, 'compass': -88.47, 'pitch': -1.04, 'roll': -2.81}
{'lipoC2': 0.14, 'temp': 0.0, 'lipoC3S3': 12.45, 'state': 'normal', 'rot1': 94, 'rot0': 93, 'rot3': 0, 'rot2': 0, 'depth': 1.691, 'yaw': -83.08, 'datetime': '2018-12-18 17:08:10.132608', 'mgs': 0, 'flw2': 1.03, 'flw1': 0.0, 'flw0': 1.06, 'time': 17.1, 'compass': -93.22, 'pitch': -0.67, 'roll': -3.22}
{'lipoC2': 0.05, 'temp': 0.0, 'lipoC3S3': 12.56, 'state': 'normal', 'rot1': 96, 'rot0': 95, 'rot3': 0, 'rot2': 0, 'depth': 1.843, 'yaw': -86.78, 'datetime': '2018-12-18 17:08:10.343666', 'mgs': 0, 'flw2': 1.22, 'flw1': 0.0, 'flw0': 0.71, 'time': 17.31, 'compass': -96.92, 'pitch': -0.31, 'roll': -3.11}
{'lipoC2': 0.0, 'temp': 0.0, 'lipoC3S3': 12.64, 'state': 'normal', 'rot1': 98, 'rot0': 97, 'rot3': 0, 'rot2': 0, 'depth': 1.691, 'yaw': -89.99, 'datetime': '2018-12-18 17:08:10.552385', 'mgs': 0, 'flw2': 1.28, 'flw1': 0.0, 'flw0': 0.6, 'time': 17.52, 'compass': -100.14, 'pitch': -0.26, 'roll': -2.87}
{'lipoC2': 0.0, 'temp': 0.0, 'lipoC3S3': 12.51, 'state': 'normal', 'rot1': 99, 'rot0': 98, 'rot3': 0, 'rot2': 0, 'depth': 0.394, 'yaw': -92.61, 'datetime': '2018-12-18 17:08:10.765930', 'mgs': 0, 'flw2': 1.14, 'flw1': 0.38, 'flw0': 0.92, 'time': 17.73, 'compass': -102.75, 'pitch': -0.32, 'roll': -2.89}
{'lipoC2': 0.14, 'temp': 0.0, 'lipoC3S3': 12.33, 'state': 'normal', 'rot1': 101, 'rot0': 100, 'rot3': 0, 'rot2': 0, 'depth': 0.699, 'yaw': -94.46, 'datetime': '2018-12-18 17:08:10.977669', 'mgs': 0, 'flw2': 1.61, 'flw1': 0.23, 'flw0': 0.67, 'time': 17.94, 'compass': -104.6, 'pitch': -0.18, 'roll': -2.9}
{'lipoC2': 0.11, 'temp': 0.0, 'lipoC3S3': 12.51, 'state': 'normal', 'rot1': 102, 'rot0': 102, 'rot3': 0, 'rot2': 0, 'depth': -1.59, 'yaw': -95.57, 'datetime': '2018-12-18 17:08:11.188823', 'mgs': 0, 'flw2': 1.64, 'flw1': 0.0, 'flw0': 0.96, 'time': 18.15, 'compass': -105.71, 'pitch': -0.11, 'roll': -2.9}
{'lipoC2': 0.0, 'temp': 0.0, 'lipoC3S3': 12.67, 'state': 'normal', 'rot1': 104, 'rot0': 104, 'rot3': 0, 'rot2': 0, 'depth': -1.514, 'yaw': -96.11, 'datetime': '2018-12-18 17:08:11.392490', 'mgs': 0, 'flw2': 1.62, 'flw1': 0.03, 'flw0': 0.56, 'time': 18.36, 'compass': -106.25, 'pitch': -0.13, 'roll': -2.94}
{'lipoC2': 0.09, 'temp': 0.0, 'lipoC3S3': 12.27, 'state': 'normal', 'rot1': 105, 'rot0': 106, 'rot3': 0, 'rot2': 0, 'depth': 1.309, 'yaw': -96.25, 'datetime': '2018-12-18 17:08:11.601797', 'mgs': 0, 'flw2': 1.61, 'flw1': 0.26, 'flw0': 0.7, 'time': 18.57, 'compass': -106.4, 'pitch': -0.21, 'roll': -2.93}
{'lipoC2': 0.08, 'temp': 0.0, 'lipoC3S3': 12.52, 'state': 'normal', 'rot1': 107, 'rot0': 108, 'rot3': 0, 'rot2': 0, 'depth': -1.743, 'yaw': -96.0, 'datetime': '2018-12-18 17:08:11.813126', 'mgs': 0, 'flw2': 1.64, 'flw1': 0.0, 'flw0': 0.94, 'time': 18.78, 'compass': -106.14, 'pitch': -0.24, 'roll': -2.66}
{'lipoC2': 0.0, 'temp': 0.0, 'lipoC3S3': 12.68, 'state': 'normal', 'rot1': 108, 'rot0': 110, 'rot3': 0, 'rot2': 0, 'depth': 1.691, 'yaw': -95.34, 'datetime': '2018-12-18 17:08:12.021250', 'mgs': 0, 'flw2': 1.59, 'flw1': 0.18, 'flw0': 0.63, 'time': 18.99, 'compass': -105.48, 'pitch': -0.34, 'roll': -2.35}
{'lipoC2': 0.12, 'temp': 0.0, 'lipoC3S3': 12.48, 'state': 'normal', 'rot1': 110, 'rot0': 112, 'rot3': 0, 'rot2': 0, 'depth': -1.437, 'yaw': -94.44, 'datetime': '2018-12-18 17:08:12.233883', 'mgs': 0, 'flw2': 1.55, 'flw1': 0.0, 'flw0': 1.03, 'time': 19.2, 'compass': -104.58, 'pitch': -0.6, 'roll': -2.11}
{'lipoC2': 0.04, 'temp': 0.0, 'lipoC3S3': 12.33, 'state': 'normal', 'rot1': 112, 'rot0': 114, 'rot3': 0, 'rot2': 0, 'depth': 0.47, 'yaw': -93.39, 'datetime': '2018-12-18 17:08:12.447838', 'mgs': 0, 'flw2': 1.68, 'flw1': 0.0, 'flw0': 0.84, 'time': 19.41, 'compass': -103.53, 'pitch': -0.67, 'roll': -2.08}
{'lipoC2': 0.12, 'temp': 0.0, 'lipoC3S3': 12.5, 'state': 'normal', 'rot1': 114, 'rot0': 115, 'rot3': 0, 'rot2': 0, 'depth': 1.843, 'yaw': -92.3, 'datetime': '2018-12-18 17:08:12.651235', 'mgs': 0, 'flw2': 1.46, 'flw1': 0.35, 'flw0': 2.0, 'time': 19.62, 'compass': -102.44, 'pitch': -0.62, 'roll': -2.07}
{'lipoC2': 0.0, 'temp': 0.0, 'lipoC3S3': 12.51, 'state': 'normal', 'rot1': 116, 'rot0': 117, 'rot3': 0, 'rot2': 0, 'depth': 0.012, 'yaw': -91.77, 'datetime': '2018-12-18 17:08:12.862076', 'mgs': 0, 'flw2': 1.27, 'flw1': 0.41, 'flw0': 2.47, 'time': 19.83, 'compass': -101.91, 'pitch': -0.45, 'roll': -2.11}
{'lipoC2': 0.1, 'temp': 0.0, 'lipoC3S3': 12.26, 'state': 'normal', 'rot1': 118, 'rot0': 119, 'rot3': 0, 'rot2': 0, 'depth': 0.623, 'yaw': -92.37, 'datetime': '2018-12-18 17:08:13.069507', 'mgs': 0, 'flw2': 1.14, 'flw1': 0.09, 'flw0': 2.47, 'time': 20.03, 'compass': -102.52, 'pitch': -0.13, 'roll': -2.16}
{'lipoC2': 0.1, 'temp': 0.0, 'lipoC3S3': 12.64, 'state': 'normal', 'rot1': 120, 'rot0': 121, 'rot3': 0, 'rot2': 0, 'depth': -1.743, 'yaw': -93.56, 'datetime': '2018-12-18 17:08:13.279388', 'mgs': 0, 'flw2': 1.54, 'flw1': 0.0, 'flw0': 2.48, 'time': 20.25, 'compass': -103.7, 'pitch': -0.08, 'roll': -2.17}
{'lipoC2': 0.13, 'temp': 0.0, 'lipoC3S3': 12.26, 'state': 'normal', 'rot1': 122, 'rot0': 123, 'rot3': 0, 'rot2': 0, 'depth': 0.851, 'yaw': -95.04, 'datetime': '2018-12-18 17:08:13.489564', 'mgs': 0, 'flw2': 1.46, 'flw1': 0.0, 'flw0': 2.55, 'time': 20.45, 'compass': -105.18, 'pitch': -0.05, 'roll': -2.36}
{'lipoC2': 0.0, 'temp': 0.0, 'lipoC3S3': 12.68, 'state': 'normal', 'rot1': 125, 'rot0': 125, 'rot3': 0, 'rot2': 0, 'depth': 0.089, 'yaw': -96.92, 'datetime': '2018-12-18 17:08:13.699188', 'mgs': 0, 'flw2': 1.35, 'flw1': 0.21, 'flw0': 1.97, 'time': 20.67, 'compass': -107.06, 'pitch': 0.14, 'roll': -2.78}
{'lipoC2': 0.0, 'temp': 0.0, 'lipoC3S3': 12.66, 'state': 'normal', 'rot1': 127, 'rot0': 126, 'rot3': 0, 'rot2': 0, 'depth': 1.691, 'yaw': -98.89, 'datetime': '2018-12-18 17:08:13.908808', 'mgs': 0, 'flw2': 1.12, 'flw1': 0.26, 'flw0': 2.44, 'time': 20.87, 'compass': -109.03, 'pitch': 0.21, 'roll': -2.93}
{'lipoC2': 0.02, 'temp': 0.0, 'lipoC3S3': 12.35, 'state': 'normal', 'rot1': 129, 'rot0': 128, 'rot3': 0, 'rot2': 0, 'depth': 0.317, 'yaw': -101.05, 'datetime': '2018-12-18 17:08:14.116967', 'mgs': 0, 'flw2': 1.75, 'flw1': 0.0, 'flw0': 2.05, 'time': 21.08, 'compass': -111.19, 'pitch': -0.08, 'roll': -2.81}
{'lipoC2': 0.0, 'temp': 0.0, 'lipoC3S3': 12.68, 'state': 'normal', 'rot1': 131, 'rot0': 130, 'rot3': 0, 'rot2': 0, 'depth': 1.767, 'yaw': -103.39, 'datetime': '2018-12-18 17:08:14.326795', 'mgs': 0, 'flw2': 1.62, 'flw1': 0.03, 'flw0': 2.04, 'time': 21.29, 'compass': -113.53, 'pitch': -0.17, 'roll': -2.65}
{'lipoC2': 0.0, 'temp': 0.0, 'lipoC3S3': 12.5, 'state': 'normal', 'rot1': 133, 'rot0': 132, 'rot3': 0, 'rot2': 0, 'depth': 0.546, 'yaw': -106.21, 'datetime': '2018-12-18 17:08:14.537915', 'mgs': 0, 'flw2': 1.62, 'flw1': 0.41, 'flw0': 2.32, 'time': 21.5, 'compass': -116.35, 'pitch': 0.08, 'roll': -2.69}
{'lipoC2': 0.0, 'temp': 0.0, 'lipoC3S3': 12.39, 'state': 'normal', 'rot1': 135, 'rot0': 134, 'rot3': 0, 'rot2': 0, 'depth': 1.233, 'yaw': -109.38, 'datetime': '2018-12-18 17:08:14.747489', 'mgs': 0, 'flw2': 1.64, 'flw1': 0.0, 'flw0': 2.48, 'time': 21.71, 'compass': -119.52, 'pitch': 0.46, 'roll': -3.06}
{'lipoC2': 0.1, 'temp': 0.0, 'lipoC3S3': 12.51, 'state': 'normal', 'rot1': 138, 'rot0': 136, 'rot3': 0, 'rot2': 0, 'depth': 1.843, 'yaw': -112.52, 'datetime': '2018-12-18 17:08:14.958382', 'mgs': 0, 'flw2': 1.9, 'flw1': 0.0, 'flw0': 2.42, 'time': 21.92, 'compass': -122.66, 'pitch': 0.67, 'roll': -3.48}
{'lipoC2': 0.0, 'temp': 0.0, 'lipoC3S3': 12.48, 'state': 'normal', 'rot1': 140, 'rot0': 138, 'rot3': 0, 'rot2': 0, 'depth': 0.546, 'yaw': -115.37, 'datetime': '2018-12-18 17:08:15.166840', 'mgs': 0, 'flw2': 1.87, 'flw1': 0.0, 'flw0': 2.34, 'time': 22.13, 'compass': -125.51, 'pitch': 0.65, 'roll': -3.75}
{'lipoC2': 0.01, 'temp': 0.0, 'lipoC3S3': 12.38, 'state': 'normal', 'rot1': 142, 'rot0': 140, 'rot3': 0, 'rot2': 0, 'depth': -0.14, 'yaw': -118.25, 'datetime': '2018-12-18 17:08:15.376860', 'mgs': 0, 'flw2': 1.97, 'flw1': 0.0, 'flw0': 2.2, 'time': 22.34, 'compass': -128.39, 'pitch': 0.65, 'roll': -3.74}
{'lipoC2': 0.09, 'temp': 0.0, 'lipoC3S3': 12.52, 'state': 'normal', 'rot1': 144, 'rot0': 142, 'rot3': 0, 'rot2': 0, 'depth': -1.59, 'yaw': -121.06, 'datetime': '2018-12-18 17:08:15.585495', 'mgs': 0, 'flw2': 1.94, 'flw1': 0.0, 'flw0': 2.27, 'time': 22.55, 'compass': -131.2, 'pitch': 0.78, 'roll': -3.72}
{'lipoC2': 0.02, 'temp': 0.0, 'lipoC3S3': 12.33, 'state': 'normal', 'rot1': 147, 'rot0': 144, 'rot3': 0, 'rot2': 0, 'depth': 1.767, 'yaw': -123.92, 'datetime': '2018-12-18 17:08:15.796495', 'mgs': 0, 'flw2': 2.03, 'flw1': 0.0, 'flw0': 1.99, 'time': 22.76, 'compass': -134.07, 'pitch': 1.24, 'roll': -3.78}
{'lipoC2': 0.0, 'temp': 0.0, 'lipoC3S3': 12.52, 'state': 'normal', 'rot1': 149, 'rot0': 146, 'rot3': 0, 'rot2': 0, 'depth': 0.47, 'yaw': -126.74, 'datetime': '2018-12-18 17:08:16.007574', 'mgs': 0, 'flw2': 1.65, 'flw1': 0.38, 'flw0': 2.26, 'time': 22.97, 'compass': -136.88, 'pitch': 1.85, 'roll': -3.95}
{'lipoC2': 0.06, 'temp': 0.0, 'lipoC3S3': 12.27, 'state': 'normal', 'rot1': 151, 'rot0': 148, 'rot3': 0, 'rot2': 0, 'depth': 1.538, 'yaw': -129.43, 'datetime': '2018-12-18 17:08:16.220646', 'mgs': 0, 'flw2': 1.82, 'flw1': 0.12, 'flw0': 2.38, 'time': 23.18, 'compass': -139.58, 'pitch': 2.09, 'roll': -3.94}
{'lipoC2': 0.13, 'temp': 0.0, 'lipoC3S3': 12.41, 'state': 'normal', 'rot1': 153, 'rot0': 150, 'rot3': 0, 'rot2': 0, 'depth': -1.056, 'yaw': -131.72, 'datetime': '2018-12-18 17:08:16.427442', 'mgs': 0, 'flw2': 2.2, 'flw1': 0.32, 'flw0': 2.04, 'time': 23.39, 'compass': -141.86, 'pitch': 2.23, 'roll': -3.87}
{'lipoC2': 0.0, 'temp': 0.0, 'lipoC3S3': 12.42, 'state': 'normal', 'rot1': 156, 'rot0': 152, 'rot3': 0, 'rot2': 0, 'depth': 0.394, 'yaw': -134.07, 'datetime': '2018-12-18 17:08:16.636698', 'mgs': 0, 'flw2': 2.12, 'flw1': 0.38, 'flw0': 2.2, 'time': 23.6, 'compass': -144.22, 'pitch': 2.39, 'roll': -3.87}
{'lipoC2': 0.1, 'temp': 0.0, 'lipoC3S3': 12.51, 'state': 'normal', 'rot1': 158, 'rot0': 155, 'rot3': 0, 'rot2': 0, 'depth': -1.514, 'yaw': -136.38, 'datetime': '2018-12-18 17:08:16.848377', 'mgs': 0, 'flw2': 1.83, 'flw1': 0.32, 'flw0': 2.37, 'time': 23.81, 'compass': -146.52, 'pitch': 2.55, 'roll': -4.0}
{'lipoC2': 0.14, 'temp': 0.0, 'lipoC3S3': 12.38, 'state': 'normal', 'rot1': 160, 'rot0': 157, 'rot3': 0, 'rot2': 0, 'depth': -0.522, 'yaw': -138.6, 'datetime': '2018-12-18 17:08:17.056156', 'mgs': 0, 'flw2': 2.03, 'flw1': 0.0, 'flw0': 2.42, 'time': 24.01, 'compass': -148.75, 'pitch': 2.54, 'roll': -4.22}
{'lipoC2': 0.14, 'temp': 0.0, 'lipoC3S3': 12.45, 'state': 'normal', 'rot1': 162, 'rot0': 159, 'rot3': 0, 'rot2': 0, 'depth': -1.132, 'yaw': -140.67, 'datetime': '2018-12-18 17:08:17.266120', 'mgs': 0, 'flw2': 2.22, 'flw1': 0.32, 'flw0': 2.1, 'time': 24.23, 'compass': -150.81, 'pitch': 2.53, 'roll': -4.4}
{'lipoC2': 0.0, 'temp': 0.0, 'lipoC3S3': 12.63, 'state': 'normal', 'rot1': 164, 'rot0': 161, 'rot3': 0, 'rot2': 0, 'depth': 1.996, 'yaw': -142.65, 'datetime': '2018-12-18 17:08:17.476947', 'mgs': 0, 'flw2': 1.79, 'flw1': 0.26, 'flw0': 2.38, 'time': 24.44, 'compass': -152.79, 'pitch': 2.68, 'roll': -4.39}
{'lipoC2': 0.13, 'temp': 0.0, 'lipoC3S3': 12.27, 'state': 'normal', 'rot1': 167, 'rot0': 164, 'rot3': 0, 'rot2': 0, 'depth': 1.004, 'yaw': -144.51, 'datetime': '2018-12-18 17:08:17.685772', 'mgs': 0, 'flw2': 2.08, 'flw1': 0.0, 'flw0': 2.39, 'time': 24.65, 'compass': -154.65, 'pitch': 2.82, 'roll': -4.33}
{'lipoC2': 0.0, 'temp': 0.0, 'lipoC3S3': 12.62, 'state': 'normal', 'rot1': 169, 'rot0': 166, 'rot3': 0, 'rot2': 0, 'depth': 1.614, 'yaw': -146.46, 'datetime': '2018-12-18 17:08:17.895397', 'mgs': 0, 'flw2': 2.26, 'flw1': 0.0, 'flw0': 2.21, 'time': 24.85, 'compass': -156.6, 'pitch': 3.03, 'roll': -4.23}
{'lipoC2': 0.13, 'temp': 0.0, 'lipoC3S3': 12.47, 'state': 'normal', 'rot1': 171, 'rot0': 168, 'rot3': 0, 'rot2': 0, 'depth': -1.666, 'yaw': -148.53, 'datetime': '2018-12-18 17:08:18.105836', 'mgs': 0, 'flw2': 2.1, 'flw1': 0.0, 'flw0': 2.4, 'time': 25.06, 'compass': -158.67, 'pitch': 3.15, 'roll': -4.11}
{'lipoC2': 0.09, 'temp': 0.0, 'lipoC3S3': 12.52, 'state': 'normal', 'rot1': 173, 'rot0': 170, 'rot3': 0, 'rot2': 0, 'depth': -1.895, 'yaw': -150.78, 'datetime': '2018-12-18 17:08:18.314384', 'mgs': 0, 'flw2': 2.12, 'flw1': 0.0, 'flw0': 2.16, 'time': 25.27, 'compass': -160.93, 'pitch': 3.31, 'roll': -4.02}
{'lipoC2': 0.13, 'temp': 0.0, 'lipoC3S3': 12.48, 'state': 'normal', 'rot1': 175, 'rot0': 172, 'rot3': 0, 'rot2': 0, 'depth': -1.285, 'yaw': -152.97, 'datetime': '2018-12-18 17:08:18.525541', 'mgs': 0, 'flw2': 2.33, 'flw1': 0.0, 'flw0': 2.17, 'time': 25.48, 'compass': -163.11, 'pitch': 3.44, 'roll': -4.1}
{'lipoC2': 0.08, 'temp': 0.0, 'lipoC3S3': 12.54, 'state': 'normal', 'rot1': 177, 'rot0': 174, 'rot3': 0, 'rot2': 0, 'depth': -1.743, 'yaw': -154.85, 'datetime': '2018-12-18 17:08:18.736407', 'mgs': 0, 'flw2': 2.16, 'flw1': 0.38, 'flw0': 2.14, 'time': 25.69, 'compass': -164.99, 'pitch': 3.58, 'roll': -4.18}
{'lipoC2': 0.13, 'temp': 0.0, 'lipoC3S3': 12.27, 'state': 'normal', 'rot1': 179, 'rot0': 177, 'rot3': 0, 'rot2': 0, 'depth': 1.004, 'yaw': -156.3, 'datetime': '2018-12-18 17:08:18.945126', 'mgs': 0, 'flw2': 2.32, 'flw1': 0.0, 'flw0': 2.34, 'time': 25.9, 'compass': -166.45, 'pitch': 3.94, 'roll': -4.08}
{'lipoC2': 0.14, 'temp': 0.0, 'lipoC3S3': 12.45, 'state': 'normal', 'rot1': 181, 'rot0': 179, 'rot3': 0, 'rot2': 0, 'depth': -1.056, 'yaw': -157.63, 'datetime': '2018-12-18 17:08:19.154866', 'mgs': 0, 'flw2': 2.48, 'flw1': 0.35, 'flw0': 2.06, 'time': 26.11, 'compass': -167.78, 'pitch': 4.17, 'roll': -3.99}
{'lipoC2': 0.13, 'temp': 0.0, 'lipoC3S3': 12.29, 'state': 'normal', 'rot1': 183, 'rot0': 181, 'rot3': 0, 'rot2': 0, 'depth': 0.928, 'yaw': -158.86, 'datetime': '2018-12-18 17:08:19.365061', 'mgs': 0, 'flw2': 2.95, 'flw1': 0.06, 'flw0': 1.83, 'time': 26.32, 'compass': -169.0, 'pitch': 4.22, 'roll': -3.89}
{'lipoC2': 0.05, 'temp': 0.0, 'lipoC3S3': 12.55, 'state': 'normal', 'rot1': 185, 'rot0': 184, 'rot3': 0, 'rot2': 0, 'depth': 1.767, 'yaw': -159.7, 'datetime': '2018-12-18 17:08:19.575862', 'mgs': 0, 'flw2': 2.98, 'flw1': 0.0, 'flw0': 2.11, 'time': 26.53, 'compass': -169.84, 'pitch': 4.28, 'roll': -3.84}
{'lipoC2': 0.04, 'temp': 0.0, 'lipoC3S3': 12.56, 'state': 'normal', 'rot1': 188, 'rot0': 187, 'rot3': 0, 'rot2': 0, 'depth': -1.59, 'yaw': -160.33, 'datetime': '2018-12-18 17:08:19.785933', 'mgs': 0, 'flw2': 2.95, 'flw1': 0.0, 'flw0': 1.97, 'time': 26.74, 'compass': -170.47, 'pitch': 4.32, 'roll': -3.64}
{'lipoC2': 0.1, 'temp': 0.0, 'lipoC3S3': 12.51, 'state': 'normal', 'rot1': 190, 'rot0': 189, 'rot3': 0, 'rot2': 0, 'depth': -1.743, 'yaw': -160.93, 'datetime': '2018-12-18 17:08:19.996185', 'mgs': 0, 'flw2': 2.84, 'flw1': 0.0, 'flw0': 2.22, 'time': 26.95, 'compass': -171.07, 'pitch': 4.23, 'roll': -3.54}
{'lipoC2': 0.02, 'temp': 0.0, 'lipoC3S3': 12.58, 'state': 'normal', 'rot1': 192, 'rot0': 192, 'rot3': 0, 'rot2': 0, 'depth': 1.614, 'yaw': -161.45, 'datetime': '2018-12-18 17:08:20.204697', 'mgs': 0, 'flw2': 2.99, 'flw1': 0.0, 'flw0': 2.04, 'time': 27.16, 'compass': -171.59, 'pitch': 4.03, 'roll': -3.5}
{'lipoC2': 0.13, 'temp': 0.0, 'lipoC3S3': 12.29, 'state': 'normal', 'rot1': 194, 'rot0': 194, 'rot3': 0, 'rot2': 0, 'depth': 0.928, 'yaw': -161.71, 'datetime': '2018-12-18 17:08:20.415915', 'mgs': 0, 'flw2': 2.78, 'flw1': 0.0, 'flw0': 2.31, 'time': 27.37, 'compass': -171.86, 'pitch': 3.89, 'roll': -3.49}
{'lipoC2': 0.0, 'temp': 0.0, 'lipoC3S3': 12.68, 'state': 'normal', 'rot1': 196, 'rot0': 197, 'rot3': 0, 'rot2': 0, 'depth': 1.996, 'yaw': -161.99, 'datetime': '2018-12-18 17:08:20.626638', 'mgs': 0, 'flw2': 3.05, 'flw1': 0.23, 'flw0': 1.92, 'time': 27.58, 'compass': -172.13, 'pitch': 3.7, 'roll': -3.4}
{'lipoC2': 0.04, 'temp': 0.0, 'lipoC3S3': 12.51, 'state': 'normal', 'rot1': 199, 'rot0': 199, 'rot3': 0, 'rot2': 0, 'depth': 1.843, 'yaw': -162.27, 'datetime': '2018-12-18 17:08:20.834541', 'mgs': 0, 'flw2': 3.02, 'flw1': 0.5, 'flw0': 2.11, 'time': 27.79, 'compass': -172.42, 'pitch': 3.69, 'roll': -3.37}
{'lipoC2': 0.0, 'temp': 0.0, 'lipoC3S3': 12.63, 'state': 'normal', 'rot1': 201, 'rot0': 201, 'rot3': 0, 'rot2': 0, 'depth': 2.072, 'yaw': -162.57, 'datetime': '2018-12-18 17:08:21.044431', 'mgs': 0, 'flw2': 2.56, 'flw1': 0.26, 'flw0': 2.09, 'time': 28.0, 'compass': -172.71, 'pitch': 3.77, 'roll': -3.45}
{'lipoC2': 0.09, 'temp': 0.0, 'lipoC3S3': 12.52, 'state': 'normal', 'rot1': 204, 'rot0': 204, 'rot3': 0, 'rot2': 0, 'depth': 1.92, 'yaw': -162.7, 'datetime': '2018-12-18 17:08:21.254094', 'mgs': 0, 'flw2': 2.54, 'flw1': 0.5, 'flw0': 2.04, 'time': 28.21, 'compass': -172.84, 'pitch': 3.73, 'roll': -3.37}
{'lipoC2': 0.0, 'temp': 0.0, 'lipoC3S3': 12.31, 'state': 'normal', 'rot1': 206, 'rot0': 206, 'rot3': 0, 'rot2': 0, 'depth': -0.827, 'yaw': -162.65, 'datetime': '2018-12-18 17:08:21.464762', 'mgs': 0, 'flw2': 2.73, 'flw1': 0.41, 'flw0': 1.94, 'time': 28.42, 'compass': -172.79, 'pitch': 3.45, 'roll': -3.16}
{'lipoC2': 0.1, 'temp': 0.0, 'lipoC3S3': 12.21, 'state': 'normal', 'rot1': 208, 'rot0': 209, 'rot3': 0, 'rot2': 0, 'depth': 1.614, 'yaw': -162.53, 'datetime': '2018-12-18 17:08:21.674824', 'mgs': 0, 'flw2': 2.95, 'flw1': 0.0, 'flw0': 1.78, 'time': 28.63, 'compass': -172.68, 'pitch': 3.26, 'roll': -2.99}
{'lipoC2': 0.0, 'temp': 0.0, 'lipoC3S3': 12.48, 'state': 'normal', 'rot1': 211, 'rot0': 211, 'rot3': 0, 'rot2': 0, 'depth': 0.928, 'yaw': -162.51, 'datetime': '2018-12-18 17:08:21.883702', 'mgs': 0, 'flw2': 2.86, 'flw1': 0.0, 'flw0': 2.05, 'time': 28.84, 'compass': -172.65, 'pitch': 3.39, 'roll': -2.71}
{'lipoC2': 0.0, 'temp': 0.0, 'lipoC3S3': 12.5, 'state': 'normal', 'rot1': 214, 'rot0': 214, 'rot3': 0, 'rot2': 0, 'depth': 0.546, 'yaw': -162.49, 'datetime': '2018-12-18 17:08:22.096064', 'mgs': 0, 'flw2': 2.75, 'flw1': 0.5, 'flw0': 2.0, 'time': 29.05, 'compass': -172.63, 'pitch': 3.71, 'roll': -2.45}
{'lipoC2': 0.14, 'temp': 0.0, 'lipoC3S3': 12.29, 'state': 'normal', 'rot1': 217, 'rot0': 217, 'rot3': 0, 'rot2': 0, 'depth': 1.004, 'yaw': -162.51, 'datetime': '2018-12-18 17:08:22.308998', 'mgs': 0, 'flw2': 2.88, 'flw1': 0.35, 'flw0': 1.92, 'time': 29.26, 'compass': -172.65, 'pitch': 4.0, 'roll': -2.47}
{'lipoC2': 0.0, 'temp': 0.0, 'lipoC3S3': 12.5, 'state': 'normal', 'rot1': 219, 'rot0': 219, 'rot3': 0, 'rot2': 0, 'depth': 0.546, 'yaw': -162.7, 'datetime': '2018-12-18 17:08:22.523238', 'mgs': 0, 'flw2': 2.99, 'flw1': 0.0, 'flw0': 2.16, 'time': 29.47, 'compass': -172.84, 'pitch': 3.91, 'roll': -2.57}
{'lipoC2': 0.0, 'temp': 0.0, 'lipoC3S3': 12.45, 'state': 'normal', 'rot1': 221, 'rot0': 222, 'rot3': 0, 'rot2': 0, 'depth': 0.851, 'yaw': -162.75, 'datetime': '2018-12-18 17:08:22.731187', 'mgs': 0, 'flw2': 2.94, 'flw1': 0.0, 'flw0': 2.03, 'time': 29.68, 'compass': -172.89, 'pitch': 3.63, 'roll': -2.39}
{'lipoC2': 0.0, 'temp': 0.0, 'lipoC3S3': 12.68, 'state': 'normal', 'rot1': 223, 'rot0': 224, 'rot3': 0, 'rot2': 0, 'depth': -0.522, 'yaw': -162.74, 'datetime': '2018-12-18 17:08:22.943852', 'mgs': 0, 'flw2': 2.83, 'flw1': 0.29, 'flw0': 1.78, 'time': 29.89, 'compass': -172.88, 'pitch': 3.43, 'roll': -2.29}
{'lipoC2': 0.13, 'temp': 0.0, 'lipoC3S3': 12.47, 'state': 'normal', 'rot1': 225, 'rot0': 226, 'rot3': 0, 'rot2': 0, 'depth': -1.437, 'yaw': -162.48, 'datetime': '2018-12-18 17:08:23.145057', 'mgs': 0, 'flw2': 2.83, 'flw1': 0.0, 'flw0': 1.78, 'time': 30.1, 'compass': -172.62, 'pitch': 3.37, 'roll': -2.34}
{'lipoC2': 0.0, 'temp': 0.0, 'lipoC3S3': 12.54, 'state': 'normal', 'rot1': 228, 'rot0': 229, 'rot3': 0, 'rot2': 0, 'depth': 1.004, 'yaw': -161.74, 'datetime': '2018-12-18 17:08:23.355062', 'mgs': 0, 'flw2': 2.94, 'flw1': 0.0, 'flw0': 1.68, 'time': 30.31, 'compass': -171.89, 'pitch': 3.34, 'roll': -2.29}
{'lipoC2': 0.0, 'temp': 0.0, 'lipoC3S3': 12.68, 'state': 'normal', 'rot1': 230, 'rot0': 232, 'rot3': 0, 'rot2': 0, 'depth': 2.072, 'yaw': -160.61, 'datetime': '2018-12-18 17:08:23.565989', 'mgs': 0, 'flw2': 3.04, 'flw1': 0.03, 'flw0': 1.2, 'time': 30.52, 'compass': -170.75, 'pitch': 3.27, 'roll': -1.96}
{'lipoC2': 0.01, 'temp': 0.0, 'lipoC3S3': 12.34, 'state': 'normal', 'rot1': 233, 'rot0': 234, 'rot3': 0, 'rot2': 0, 'depth': -0.14, 'yaw': -159.15, 'datetime': '2018-12-18 17:08:23.775721', 'mgs': 0, 'flw2': 3.1, 'flw1': 0.0, 'flw0': 1.18, 'time': 30.73, 'compass': -169.29, 'pitch': 3.09, 'roll': -1.7}
{'lipoC2': 0.0, 'temp': 0.0, 'lipoC3S3': 12.66, 'state': 'normal', 'rot1': 235, 'rot0': 237, 'rot3': 0, 'rot2': 0, 'depth': 1.767, 'yaw': -157.42, 'datetime': '2018-12-18 17:08:23.986004', 'mgs': 0, 'flw2': 2.43, 'flw1': 0.26, 'flw0': 1.66, 'time': 30.94, 'compass': -167.56, 'pitch': 2.74, 'roll': -1.57}
{'lipoC2': 0.0, 'temp': 0.0, 'lipoC3S3': 12.55, 'state': 'normal', 'rot1': 237, 'rot0': 239, 'rot3': 0, 'rot2': 0, 'depth': 1.004, 'yaw': -155.43, 'datetime': '2018-12-18 17:08:24.196509', 'mgs': 0, 'flw2': 2.65, 'flw1': 0.41, 'flw0': 1.6, 'time': 31.15, 'compass': -165.57, 'pitch': 2.65, 'roll': -1.46}
{'lipoC2': 0.09, 'temp': 0.0, 'lipoC3S3': 12.26, 'state': 'normal', 'rot1': 238, 'rot0': 241, 'rot3': 0, 'rot2': 0, 'depth': 0.623, 'yaw': -153.07, 'datetime': '2018-12-18 17:08:24.407269', 'mgs': 0, 'flw2': 1.46, 'flw1': 0.0, 'flw0': 0.29, 'time': 31.35, 'compass': -163.21, 'pitch': 2.6, 'roll': -1.22}
{'lipoC2': 0.0, 'temp': 0.0, 'lipoC3S3': 12.31, 'state': 'normal', 'rot1': 239, 'rot0': 243, 'rot3': 0, 'rot2': 0, 'depth': -0.598, 'yaw': -150.5, 'datetime': '2018-12-18 17:08:24.615926', 'mgs': 0, 'flw2': 0.95, 'flw1': 0.0, 'flw0': 0.44, 'time': 31.57, 'compass': -160.64, 'pitch': 1.58, 'roll': -0.94}
{'lipoC2': 0.0, 'temp': 0.0, 'lipoC3S3': 12.35, 'state': 'normal', 'rot1': 240, 'rot0': 244, 'rot3': 0, 'rot2': 0, 'depth': -0.293, 'yaw': -148.03, 'datetime': '2018-12-18 17:08:24.826962', 'mgs': 0, 'flw2': 0.34, 'flw1': 0.38, 'flw0': 0.0, 'time': 31.77, 'compass': -158.17, 'pitch': -0.02, 'roll': -0.94}
{'lipoC2': 0.0, 'temp': 0.0, 'lipoC3S3': 12.58, 'state': 'normal', 'rot1': 240, 'rot0': 245, 'rot3': 0, 'rot2': 0, 'depth': -0.98, 'yaw': -145.85, 'datetime': '2018-12-18 17:08:25.035533', 'mgs': 0, 'flw2': 0.17, 'flw1': 0.0, 'flw0': 0.0, 'time': 31.98, 'compass': -155.99, 'pitch': -0.85, 'roll': -1.13}
{'lipoC2': 0.0, 'temp': 0.0, 'lipoC3S3': 12.67, 'state': 'normal', 'rot1': 240, 'rot0': 245, 'rot3': 0, 'rot2': 0, 'depth': -0.369, 'yaw': -144.16, 'datetime': '2018-12-18 17:08:25.246156', 'mgs': 0, 'flw2': 0.02, 'flw1': 0.41, 'flw0': 0.0, 'time': 32.19, 'compass': -154.3, 'pitch': -1.06, 'roll': -1.27}
{'lipoC2': 0.0, 'temp': 0.0, 'lipoC3S3': 12.56, 'state': 'normal', 'rot1': 240, 'rot0': 245, 'rot3': 0, 'rot2': 0, 'depth': 1.004, 'yaw': -142.64, 'datetime': '2018-12-18 17:08:25.456133', 'mgs': 0, 'flw2': 0.18, 'flw1': 0.0, 'flw0': 0.0, 'time': 32.4, 'compass': -152.78, 'pitch': -1.09, 'roll': -1.22}
{'lipoC2': 0.0, 'temp': 0.0, 'lipoC3S3': 12.31, 'state': 'normal', 'rot1': 240, 'rot0': 245, 'rot3': 0, 'rot2': 0, 'depth': -1.208, 'yaw': -141.31, 'datetime': '2018-12-18 17:08:25.667387', 'mgs': 0, 'flw2': 0.0, 'flw1': 0.0, 'flw0': 0.17, 'time': 32.61, 'compass': -151.45, 'pitch': -1.27, 'roll': -0.98}
{'lipoC2': 0.08, 'temp': 0.0, 'lipoC3S3': 12.54, 'state': 'normal', 'rot1': 240, 'rot0': 245, 'rot3': 0, 'rot2': 0, 'depth': 1.843, 'yaw': -140.24, 'datetime': '2018-12-18 17:08:25.876452', 'mgs': 0, 'flw2': 0.0, 'flw1': 0.41, 'flw0': 0.04, 'time': 32.82, 'compass': -150.38, 'pitch': -1.62, 'roll': -0.79}
{'lipoC2': 0.02, 'temp': 0.0, 'lipoC3S3': 12.33, 'state': 'normal', 'rot1': 240, 'rot0': 245, 'rot3': 0, 'rot2': 0, 'depth': -0.14, 'yaw': -139.42, 'datetime': '2018-12-18 17:08:26.087590', 'mgs': 0, 'flw2': 0.16, 'flw1': 0.09, 'flw0': 0.0, 'time': 33.03, 'compass': -149.56, 'pitch': -1.71, 'roll': -0.7}
{'lipoC2': 0.01, 'temp': 0.0, 'lipoC3S3': 12.37, 'state': 'normal', 'rot1': 240, 'rot0': 245, 'rot3': 0, 'rot2': 0, 'depth': 1.614, 'yaw': -138.79, 'datetime': '2018-12-18 17:08:26.296435', 'mgs': 0, 'flw2': 0.0, 'flw1': 0.21, 'flw0': 0.17, 'time': 33.24, 'compass': -148.93, 'pitch': -1.51, 'roll': -0.76}
{'lipoC2': 0.04, 'temp': 0.0, 'lipoC3S3': 12.55, 'state': 'normal', 'rot1': 240, 'rot0': 245, 'rot3': 0, 'rot2': 0, 'depth': -1.437, 'yaw': -138.35, 'datetime': '2018-12-18 17:08:26.506194', 'mgs': 0, 'flw2': 0.22, 'flw1': 0.0, 'flw0': 0.0, 'time': 33.45, 'compass': -148.49, 'pitch': -1.57, 'roll': -1.07}
{'lipoC2': 0.0, 'temp': 0.0, 'lipoC3S3': 12.56, 'state': 'normal', 'rot1': 240, 'rot0': 245, 'rot3': 0, 'rot2': 0, 'depth': 1.157, 'yaw': -138.25, 'datetime': '2018-12-18 17:08:26.714102', 'mgs': 0, 'flw2': 0.23, 'flw1': 0.0, 'flw0': 0.0, 'time': 33.66, 'compass': -148.39, 'pitch': -1.94, 'roll': -1.2}
{'lipoC2': 0.17, 'temp': 0.0, 'lipoC3S3': 12.33, 'state': 'normal', 'rot1': 240, 'rot0': 245, 'rot3': 0, 'rot2': 0, 'depth': -0.522, 'yaw': -138.38, 'datetime': '2018-12-18 17:08:26.925308', 'mgs': 0, 'flw2': 0.12, 'flw1': 0.35, 'flw0': 0.0, 'time': 33.87, 'compass': -148.52, 'pitch': -2.11, 'roll': -1.09}
{'lipoC2': 0.0, 'temp': 0.0, 'lipoC3S3': 12.58, 'state': 'normal', 'rot1': 240, 'rot0': 245, 'rot3': 0, 'rot2': 0, 'depth': 1.157, 'yaw': -138.78, 'datetime': '2018-12-18 17:08:27.136291', 'mgs': 0, 'flw2': 0.0, 'flw1': 0.44, 'flw0': 0.05, 'time': 34.08, 'compass': -148.92, 'pitch': -1.97, 'roll': -0.93}
{'lipoC2': 0.0, 'temp': 0.0, 'lipoC3S3': 12.68, 'state': 'normal', 'rot1': 240, 'rot0': 245, 'rot3': 0, 'rot2': 0, 'depth': 1.767, 'yaw': -139.39, 'datetime': '2018-12-18 17:08:27.345752', 'mgs': 0, 'flw2': 0.17, 'flw1': 0.18, 'flw0': 0.0, 'time': 34.29, 'compass': -149.53, 'pitch': -1.79, 'roll': -0.94}
{'lipoC2': 0.05, 'temp': 0.0, 'lipoC3S3': 12.29, 'state': 'normal', 'rot1': 240, 'rot0': 245, 'rot3': 0, 'rot2': 0, 'depth': 0.47, 'yaw': -140.11, 'datetime': '2018-12-18 17:08:27.552311', 'mgs': 0, 'flw2': 0.0, 'flw1': 0.18, 'flw0': 0.18, 'time': 34.5, 'compass': -150.25, 'pitch': -1.78, 'roll': -0.96}
{'lipoC2': 0.0, 'temp': 0.0, 'lipoC3S3': 12.6, 'state': 'normal', 'rot1': 240, 'rot0': 245, 'rot3': 0, 'rot2': 0, 'depth': 1.309, 'yaw': -140.96, 'datetime': '2018-12-18 17:08:27.760608', 'mgs': 0, 'flw2': 0.0, 'flw1': 0.29, 'flw0': 0.11, 'time': 34.71, 'compass': -151.1, 'pitch': -1.77, 'roll': -0.99}
{'lipoC2': 0.13, 'temp': 0.0, 'lipoC3S3': 12.29, 'state': 'normal', 'rot1': 240, 'rot0': 246, 'rot3': 0, 'rot2': 0, 'depth': 0.699, 'yaw': -141.68, 'datetime': '2018-12-18 17:08:27.974858', 'mgs': 0, 'flw2': 1.12, 'flw1': 0.0, 'flw0': 0.2, 'time': 34.92, 'compass': -151.82, 'pitch': -1.6, 'roll': -0.96}
{'lipoC2': 0.09, 'temp': 0.0, 'lipoC3S3': 12.52, 'state': 'normal', 'rot1': 240, 'rot0': 247, 'rot3': 0, 'rot2': 0, 'depth': -1.971, 'yaw': -141.01, 'datetime': '2018-12-18 17:08:28.186273', 'mgs': 0, 'flw2': 1.27, 'flw1': 0.38, 'flw0': 0.0, 'time': 35.12, 'compass': -151.15, 'pitch': -0.73, 'roll': -0.75}
{'lipoC2': 0.0, 'temp': 0.0, 'lipoC3S3': 12.64, 'state': 'normal', 'rot1': 240, 'rot0': 249, 'rot3': 0, 'rot2': 0, 'depth': 1.538, 'yaw': -138.63, 'datetime': '2018-12-18 17:08:28.393998', 'mgs': 0, 'flw2': 1.09, 'flw1': 0.29, 'flw0': 0.16, 'time': 35.33, 'compass': -148.77, 'pitch': -0.27, 'roll': -0.43}
{'lipoC2': 0.12, 'temp': 0.0, 'lipoC3S3': 12.27, 'state': 'normal', 'rot1': 240, 'rot0': 251, 'rot3': 0, 'rot2': 0, 'depth': 0.851, 'yaw': -135.12, 'datetime': '2018-12-18 17:08:28.607762', 'mgs': 0, 'flw2': 1.45, 'flw1': 0.44, 'flw0': 0.0, 'time': 35.54, 'compass': -145.26, 'pitch': -0.77, 'roll': 0.03}
{'lipoC2': 0.0, 'temp': 0.0, 'lipoC3S3': 12.62, 'state': 'normal', 'rot1': 240, 'rot0': 253, 'rot3': 0, 'rot2': 0, 'depth': 1.691, 'yaw': -131.21, 'datetime': '2018-12-18 17:08:28.814964', 'mgs': 0, 'flw2': 1.65, 'flw1': 0.0, 'flw0': 0.0, 'time': 35.75, 'compass': -141.35, 'pitch': -1.32, 'roll': 0.4}
{'lipoC2': 0.01, 'temp': 0.0, 'lipoC3S3': 12.38, 'state': 'normal', 'rot1': 240, 'rot0': 255, 'rot3': 0, 'rot2': 0, 'depth': 1.538, 'yaw': -126.52, 'datetime': '2018-12-18 17:08:29.020481', 'mgs': 0, 'flw2': 1.46, 'flw1': 0.32, 'flw0': 0.11, 'time': 35.96, 'compass': -136.66, 'pitch': -1.19, 'roll': 0.57}
{'lipoC2': 0.05, 'temp': 0.0, 'lipoC3S3': 12.3, 'state': 'normal', 'rot1': 240, 'rot0': 257, 'rot3': 0, 'rot2': 0, 'depth': 0.47, 'yaw': -120.94, 'datetime': '2018-12-18 17:08:29.229753', 'mgs': 0, 'flw2': 2.05, 'flw1': 0.0, 'flw0': 0.0, 'time': 36.17, 'compass': -131.08, 'pitch': -0.91, 'roll': 0.97}
{'lipoC2': 0.15, 'temp': 0.0, 'lipoC3S3': 12.38, 'state': 'normal', 'rot1': 240, 'rot0': 259, 'rot3': 0, 'rot2': 0, 'depth': -0.446, 'yaw': -114.51, 'datetime': '2018-12-18 17:08:29.442659', 'mgs': 0, 'flw2': 1.9, 'flw1': 0.0, 'flw0': 0.21, 'time': 36.38, 'compass': -124.65, 'pitch': -1.12, 'roll': 1.71}
{'lipoC2': 0.0, 'temp': 0.0, 'lipoC3S3': 12.68, 'state': 'normal', 'rot1': 240, 'rot0': 261, 'rot3': 0, 'rot2': 0, 'depth': 1.614, 'yaw': -107.45, 'datetime': '2018-12-18 17:08:29.650908', 'mgs': 0, 'flw2': 2.59, 'flw1': 0.38, 'flw0': 0.0, 'time': 36.59, 'compass': -117.59, 'pitch': -1.39, 'roll': 2.73}
{'lipoC2': 0.05, 'temp': 0.0, 'lipoC3S3': 12.3, 'state': 'normal', 'rot1': 240, 'rot0': 264, 'rot3': 0, 'rot2': 0, 'depth': 1.385, 'yaw': -99.51, 'datetime': '2018-12-18 17:08:29.859269', 'mgs': 0, 'flw2': 2.65, 'flw1': 0.0, 'flw0': 0.0, 'time': 36.8, 'compass': -109.65, 'pitch': -0.91, 'roll': 3.97}
{'lipoC2': 0.0, 'temp': 0.0, 'lipoC3S3': 12.59, 'state': 'normal', 'rot1': 240, 'rot0': 266, 'rot3': 0, 'rot2': 0, 'depth': 1.614, 'yaw': -91.07, 'datetime': '2018-12-18 17:08:30.070250', 'mgs': 0, 'flw2': 2.39, 'flw1': 0.38, 'flw0': 0.21, 'time': 37.01, 'compass': -101.21, 'pitch': -0.09, 'roll': 5.01}
{'lipoC2': 0.03, 'temp': 0.0, 'lipoC3S3': 12.34, 'state': 'normal', 'rot1': 240, 'rot0': 269, 'rot3': 0, 'rot2': 0, 'depth': 1.462, 'yaw': -81.52, 'datetime': '2018-12-18 17:08:30.281491', 'mgs': 0, 'flw2': 2.49, 'flw1': 0.26, 'flw0': 0.22, 'time': 37.22, 'compass': -91.66, 'pitch': 0.53, 'roll': 6.03}
{'lipoC2': 0.13, 'temp': 0.0, 'lipoC3S3': 12.47, 'state': 'normal', 'rot1': 240, 'rot0': 271, 'rot3': 0, 'rot2': 0, 'depth': -1.514, 'yaw': -71.11, 'datetime': '2018-12-18 17:08:30.487239', 'mgs': 0, 'flw2': 2.42, 'flw1': 0.0, 'flw0': 0.22, 'time': 37.43, 'compass': -81.25, 'pitch': 1.18, 'roll': 7.03}
{'lipoC2': 0.14, 'temp': 0.0, 'lipoC3S3': 12.42, 'state': 'normal', 'rot1': 240, 'rot0': 273, 'rot3': 0, 'rot2': 0, 'depth': -0.522, 'yaw': -60.23, 'datetime': '2018-12-18 17:08:30.697121', 'mgs': 0, 'flw2': 2.49, 'flw1': 0.0, 'flw0': 0.23, 'time': 37.64, 'compass': -70.37, 'pitch': 2.07, 'roll': 7.71}
{'lipoC2': 0.12, 'temp': 0.0, 'lipoC3S3': 12.31, 'state': 'normal', 'rot1': 240, 'rot0': 276, 'rot3': 0, 'rot2': 0, 'depth': 0.928, 'yaw': -49.17, 'datetime': '2018-12-18 17:08:30.906492', 'mgs': 0, 'flw2': 2.43, 'flw1': 0.0, 'flw0': 0.26, 'time': 37.85, 'compass': -59.31, 'pitch': 3.16, 'roll': 8.12}
{'lipoC2': 0.09, 'temp': 0.0, 'lipoC3S3': 12.52, 'state': 'normal', 'rot1': 241, 'rot0': 278, 'rot3': 0, 'rot2': 0, 'depth': -1.666, 'yaw': -38.08, 'datetime': '2018-12-18 17:08:31.118500', 'mgs': 0, 'flw2': 2.27, 'flw1': 0.5, 'flw0': 3.25, 'time': 38.06, 'compass': -48.23, 'pitch': 4.47, 'roll': 8.38}
{'lipoC2': 0.1, 'temp': 0.0, 'lipoC3S3': 12.26, 'state': 'normal', 'rot1': 243, 'rot0': 280, 'rot3': 0, 'rot2': 0, 'depth': 1.385, 'yaw': -29.41, 'datetime': '2018-12-18 17:08:31.327296', 'mgs': 0, 'flw2': 2.98, 'flw1': 0.06, 'flw0': 2.53, 'time': 38.26, 'compass': -39.55, 'pitch': 6.21, 'roll': 8.4}
{'lipoC2': 0.05, 'temp': 0.0, 'lipoC3S3': 12.31, 'state': 'normal', 'rot1': 246, 'rot0': 283, 'rot3': 0, 'rot2': 0, 'depth': 1.462, 'yaw': -22.63, 'datetime': '2018-12-18 17:08:31.534872', 'mgs': 0, 'flw2': 2.65, 'flw1': 0.0, 'flw0': 2.32, 'time': 38.47, 'compass': -32.77, 'pitch': 7.94, 'roll': 8.63}
{'lipoC2': 0.15, 'temp': 0.0, 'lipoC3S3': 12.43, 'state': 'normal', 'rot1': 248, 'rot0': 285, 'rot3': 0, 'rot2': 0, 'depth': -0.293, 'yaw': -17.23, 'datetime': '2018-12-18 17:08:31.744747', 'mgs': 0, 'flw2': 2.32, 'flw1': 0.38, 'flw0': 2.4, 'time': 38.68, 'compass': -27.37, 'pitch': 7.88, 'roll': 9.01}
{'lipoC2': 0.0, 'temp': 0.0, 'lipoC3S3': 12.59, 'state': 'normal', 'rot1': 250, 'rot0': 288, 'rot3': 0, 'rot2': 0, 'depth': 1.691, 'yaw': -12.73, 'datetime': '2018-12-18 17:08:31.954435', 'mgs': 0, 'flw2': 1.99, 'flw1': 0.35, 'flw0': 2.16, 'time': 38.89, 'compass': -22.87, 'pitch': 6.25, 'roll': 9.18}
{'lipoC2': 0.03, 'temp': 0.0, 'lipoC3S3': 12.31, 'state': 'normal', 'rot1': 252, 'rot0': 290, 'rot3': 0, 'rot2': 0, 'depth': 1.462, 'yaw': -8.81, 'datetime': '2018-12-18 17:08:32.165152', 'mgs': 0, 'flw2': 2.32, 'flw1': 0.0, 'flw0': 1.97, 'time': 39.1, 'compass': -18.95, 'pitch': 4.71, 'roll': 8.96}
{'lipoC2': 0.0, 'temp': 0.0, 'lipoC3S3': 12.47, 'state': 'normal', 'rot1': 254, 'rot0': 293, 'rot3': 0, 'rot2': 0, 'depth': 0.851, 'yaw': -5.33, 'datetime': '2018-12-18 17:08:32.375839', 'mgs': 0, 'flw2': 2.23, 'flw1': 0.0, 'flw0': 2.27, 'time': 39.31, 'compass': -15.47, 'pitch': 4.32, 'roll': 8.63}
{'lipoC2': 0.12, 'temp': 0.0, 'lipoC3S3': 12.27, 'state': 'normal', 'rot1': 256, 'rot0': 295, 'rot3': 0, 'rot2': 0, 'depth': 0.699, 'yaw': -1.78, 'datetime': '2018-12-18 17:08:32.584934', 'mgs': 0, 'flw2': 2.15, 'flw1': 0.0, 'flw0': 2.26, 'time': 39.52, 'compass': -11.92, 'pitch': 4.61, 'roll': 8.38}
{'lipoC2': 0.0, 'temp': 0.0, 'lipoC3S3': 12.58, 'state': 'normal', 'rot1': 259, 'rot0': 297, 'rot3': 0, 'rot2': 0, 'depth': 1.462, 'yaw': 1.8, 'datetime': '2018-12-18 17:08:32.795552', 'mgs': 0, 'flw2': 2.42, 'flw1': 0.0, 'flw0': 1.88, 'time': 39.73, 'compass': -8.35, 'pitch': 5.04, 'roll': 8.29}
{'lipoC2': 0.0, 'temp': 0.0, 'lipoC3S3': 12.43, 'state': 'normal', 'rot1': 261, 'rot0': 301, 'rot3': 0, 'rot2': 0, 'depth': 1.233, 'yaw': 5.19, 'datetime': '2018-12-18 17:08:33.006501', 'mgs': 0, 'flw2': 2.31, 'flw1': 0.26, 'flw0': 2.09, 'time': 39.94, 'compass': -4.95, 'pitch': 5.19, 'roll': 8.14}
{'lipoC2': 0.1, 'temp': 0.0, 'lipoC3S3': 12.27, 'state': 'normal', 'rot1': 263, 'rot0': 304, 'rot3': 0, 'rot2': 0, 'depth': 1.08, 'yaw': 8.32, 'datetime': '2018-12-18 17:08:33.217141', 'mgs': 0, 'flw2': 1.88, 'flw1': 0.06, 'flw0': 2.56, 'time': 40.15, 'compass': -1.82, 'pitch': 5.13, 'roll': 7.91}
{'lipoC2': 0.08, 'temp': 0.0, 'lipoC3S3': 12.52, 'state': 'normal', 'rot1': 266, 'rot0': 306, 'rot3': 0, 'rot2': 0, 'depth': -1.819, 'yaw': 11.03, 'datetime': '2018-12-18 17:08:33.427876', 'mgs': 0, 'flw2': 2.14, 'flw1': 0.53, 'flw0': 2.75, 'time': 40.36, 'compass': 0.89, 'pitch': 5.28, 'roll': 7.73}
{'lipoC2': 0.0, 'temp': 0.0, 'lipoC3S3': 12.48, 'state': 'normal', 'rot1': 268, 'rot0': 309, 'rot3': 0, 'rot2': 0, 'depth': 1.385, 'yaw': 13.54, 'datetime': '2018-12-18 17:08:33.630185', 'mgs': 0, 'flw2': 2.27, 'flw1': 0.0, 'flw0': 2.99, 'time': 40.57, 'compass': 3.4, 'pitch': 5.56, 'roll': 7.5}
{'lipoC2': 0.05, 'temp': 0.0, 'lipoC3S3': 12.58, 'state': 'normal', 'rot1': 271, 'rot0': 311, 'rot3': 0, 'rot2': 0, 'depth': 1.767, 'yaw': 15.6, 'datetime': '2018-12-18 17:08:33.839636', 'mgs': 0, 'flw2': 2.0, 'flw1': 0.0, 'flw0': 2.82, 'time': 40.78, 'compass': 5.46, 'pitch': 5.55, 'roll': 7.32}
{'lipoC2': 0.09, 'temp': 0.0, 'lipoC3S3': 12.23, 'state': 'normal', 'rot1': 274, 'rot0': 314, 'rot3': 0, 'rot2': 0, 'depth': 0.47, 'yaw': 17.19, 'datetime': '2018-12-18 17:08:34.047832', 'mgs': 0, 'flw2': 2.03, 'flw1': 0.0, 'flw0': 2.55, 'time': 40.99, 'compass': 7.04, 'pitch': 5.21, 'roll': 7.33}
{'lipoC2': 0.0, 'temp': 0.0, 'lipoC3S3': 12.59, 'state': 'normal', 'rot1': 277, 'rot0': 316, 'rot3': 0, 'rot2': 0, 'depth': 1.309, 'yaw': 18.39, 'datetime': '2018-12-18 17:08:34.262149', 'mgs': 0, 'flw2': 1.55, 'flw1': 0.35, 'flw0': 2.88, 'time': 41.19, 'compass': 8.25, 'pitch': 5.01, 'roll': 7.19}
{'lipoC2': 0.08, 'temp': 0.0, 'lipoC3S3': 12.26, 'state': 'normal', 'rot1': 280, 'rot0': 319, 'rot3': 0, 'rot2': 0, 'depth': 1.385, 'yaw': 19.05, 'datetime': '2018-12-18 17:08:34.470640', 'mgs': 0, 'flw2': 2.04, 'flw1': 0.0, 'flw0': 2.51, 'time': 41.4, 'compass': 8.91, 'pitch': 5.11, 'roll': 6.82}
{'lipoC2': 0.0, 'temp': 0.0, 'lipoC3S3': 12.27, 'state': 'normal', 'rot1': 282, 'rot0': 321, 'rot3': 0, 'rot2': 0, 'depth': -0.674, 'yaw': 19.34, 'datetime': '2018-12-18 17:08:34.680152', 'mgs': 0, 'flw2': 1.98, 'flw1': 0.0, 'flw0': 2.95, 'time': 41.61, 'compass': 9.2, 'pitch': 5.22, 'roll': 6.59}
{'lipoC2': 0.0, 'temp': 0.0, 'lipoC3S3': 12.27, 'state': 'normal', 'rot1': 286, 'rot0': 323, 'rot3': 0, 'rot2': 0, 'depth': 1.538, 'yaw': 19.34, 'datetime': '2018-12-18 17:08:34.891086', 'mgs': 0, 'flw2': 1.86, 'flw1': 0.0, 'flw0': 3.0, 'time': 41.82, 'compass': 9.2, 'pitch': 5.23, 'roll': 6.59}
{'lipoC2': 0.01, 'temp': 0.0, 'lipoC3S3': 12.58, 'state': 'normal', 'rot1': 288, 'rot0': 325, 'rot3': 0, 'rot2': 0, 'depth': -1.285, 'yaw': 19.14, 'datetime': '2018-12-18 17:08:35.099863', 'mgs': 0, 'flw2': 1.68, 'flw1': 0.35, 'flw0': 2.86, 'time': 42.03, 'compass': 9.0, 'pitch': 5.18, 'roll': 6.63}
{'lipoC2': 0.0, 'temp': 0.0, 'lipoC3S3': 12.5, 'state': 'normal', 'rot1': 291, 'rot0': 327, 'rot3': 0, 'rot2': 0, 'depth': 0.699, 'yaw': 18.69, 'datetime': '2018-12-18 17:08:35.308408', 'mgs': 0, 'flw2': 1.87, 'flw1': 0.44, 'flw0': 2.87, 'time': 42.24, 'compass': 8.54, 'pitch': 4.98, 'roll': 6.65}
{'lipoC2': 0.0, 'temp': 0.0, 'lipoC3S3': 12.72, 'state': 'normal', 'rot1': 293, 'rot0': 329, 'rot3': 0, 'rot2': 0, 'depth': 1.996, 'yaw': 18.08, 'datetime': '2018-12-18 17:08:35.514050', 'mgs': 0, 'flw2': 2.0, 'flw1': 0.15, 'flw0': 2.56, 'time': 42.45, 'compass': 7.94, 'pitch': 4.9, 'roll': 6.6}
