{'lipoC3S3': 0.0, 'datetime': '2019-03-01 10:46:08.744461', 'pitch': 0.55, 'rot1': 0, 'rot0': 0, 'rot3': 0, 'rot2': 0, 'state': 'normal', 'flw3': 0, 'flw2': 0, 'flw1': 0, 'flw0': 0, 'roll': 3.97, 'cur2': 0.0, 'cur0': 0.0, 'cur1': 0.0, 'mgs': 0, 'compass': -96.51, 'lipoC2': 0.0, 'temp': 24.52, 'thr3': 33.0, 'depth': 0.238, 'time': 1.55, 'thr2': 33.0, 'yaw': -2.43, 'thr0': 28.0, 'thr1': 28.0}
{'lipoC3S3': 0.0, 'datetime': '2019-03-01 10:46:09.064167', 'pitch': 0.53, 'rot1': 0, 'rot0': 0, 'rot3': 0, 'rot2': 0, 'state': 'normal', 'flw3': 0, 'flw2': 0, 'flw1': 0, 'flw0': 0, 'roll': 3.84, 'cur2': 0.0, 'cur0': 0.0, 'cur1': 0.0, 'mgs': 0, 'compass': -101.01, 'lipoC2': 0.0, 'temp': 24.52, 'thr3': 33.0, 'depth': 0.238, 'time': 1.87, 'thr2': 32.0, 'yaw': -6.93, 'thr0': 28.0, 'thr1': 28.0}
{'lipoC3S3': 0.0, 'datetime': '2019-03-01 10:46:09.382339', 'pitch': 0.53, 'rot1': 2, 'rot0': 6, 'rot3': 1, 'rot2': 1, 'state': 'normal', 'flw3': 0, 'flw2': 0, 'flw1': 0, 'flw0': 0, 'roll': 3.85, 'cur2': 1.92, 'cur0': 1.76, 'cur1': 0.0, 'mgs': 0, 'compass': -99.9, 'lipoC2': 0.0, 'temp': 24.53, 'thr3': 34.0, 'depth': 0.238, 'time': 2.19, 'thr2': 33.0, 'yaw': -5.82, 'thr0': 28.0, 'thr1': 28.0}
{'lipoC3S3': 0.0, 'datetime': '2019-03-01 10:46:09.701285', 'pitch': 0.32, 'rot1': 7, 'rot0': 13, 'rot3': 1, 'rot2': 1, 'state': 'normal', 'flw3': 0, 'flw2': 0, 'flw1': 0, 'flw0': 0, 'roll': 4.08, 'cur2': 1.01, 'cur0': 0.94, 'cur1': 0.0, 'mgs': 0, 'compass': -104.64, 'lipoC2': 0.0, 'temp': 24.53, 'thr3': 34.0, 'depth': 0.238, 'time': 2.51, 'thr2': 33.0, 'yaw': -10.56, 'thr0': 28.0, 'thr1': 28.0}
{'lipoC3S3': 0.0, 'datetime': '2019-03-01 10:46:10.025469', 'pitch': 0.33, 'rot1': 10, 'rot0': 18, 'rot3': 1, 'rot2': 1, 'state': 'normal', 'flw3': 0, 'flw2': 0, 'flw1': 0, 'flw0': 0, 'roll': 3.87, 'cur2': 0.39, 'cur0': 0.34, 'cur1': 0.0, 'mgs': 0, 'compass': -114.43, 'lipoC2': 0.0, 'temp': 24.53, 'thr3': 33.0, 'depth': 0.238, 'time': 2.84, 'thr2': 32.0, 'yaw': -20.35, 'thr0': 28.0, 'thr1': 28.0}
{'lipoC3S3': 0.0, 'datetime': '2019-03-01 10:46:10.348184', 'pitch': 0.2, 'rot1': 12, 'rot0': 21, 'rot3': 1, 'rot2': 1, 'state': 'normal', 'flw3': 0, 'flw2': 0, 'flw1': 0, 'flw0': 0, 'roll': 3.81, 'cur2': 0.39, 'cur0': 0.34, 'cur1': 0.0, 'mgs': 0, 'compass': -118.78, 'lipoC2': 0.0, 'temp': 24.53, 'thr3': 33.0, 'depth': 0.228, 'time': 3.16, 'thr2': 32.0, 'yaw': -24.7, 'thr0': 28.0, 'thr1': 28.0}
{'lipoC3S3': 0.0, 'datetime': '2019-03-01 10:46:10.680394', 'pitch': 0.31, 'rot1': 16, 'rot0': 27, 'rot3': 1, 'rot2': 1, 'state': 'normal', 'flw3': 0, 'flw2': 0, 'flw1': 0, 'flw0': 0, 'roll': 3.59, 'cur2': 0.38, 'cur0': 0.33, 'cur1': 0.0, 'mgs': 0, 'compass': -123.53, 'lipoC2': 0.0, 'temp': 24.53, 'thr3': 33.0, 'depth': 0.238, 'time': 3.48, 'thr2': 33.0, 'yaw': -29.44, 'thr0': 28.0, 'thr1': 28.0}
{'lipoC3S3': 0.0, 'datetime': '2019-03-01 10:46:11.000328', 'pitch': 1.54, 'rot1': 18, 'rot0': 35, 'rot3': 1, 'rot2': 1, 'state': 'normal', 'flw3': 0, 'flw2': 0, 'flw1': 0, 'flw0': 0, 'roll': 2.43, 'cur2': 0.37, 'cur0': 0.33, 'cur1': 0.0, 'mgs': 0, 'compass': -119.33, 'lipoC2': 0.0, 'temp': 24.53, 'thr3': 33.0, 'depth': 0.238, 'time': 3.8, 'thr2': 32.0, 'yaw': -25.25, 'thr0': 28.0, 'thr1': 28.0}
{'lipoC3S3': 0.0, 'datetime': '2019-03-01 10:46:11.319253', 'pitch': 1.86, 'rot1': 21, 'rot0': 40, 'rot3': 1, 'rot2': 1, 'state': 'normal', 'flw3': 0, 'flw2': 0, 'flw1': 0, 'flw0': 0, 'roll': 2.35, 'cur2': 0.38, 'cur0': 0.34, 'cur1': 0.0, 'mgs': 0, 'compass': -101.16, 'lipoC2': 0.0, 'temp': 24.53, 'thr3': 33.0, 'depth': 0.238, 'time': 4.12, 'thr2': 32.0, 'yaw': -7.08, 'thr0': 28.0, 'thr1': 28.0}
{'lipoC3S3': 0.0, 'datetime': '2019-03-01 10:46:11.641408', 'pitch': 1.67, 'rot1': 22, 'rot0': 41, 'rot3': 1, 'rot2': 1, 'state': 'normal', 'flw3': 0, 'flw2': 0, 'flw1': 0, 'flw0': 0, 'roll': 2.92, 'cur2': 0.0, 'cur0': 0.0, 'cur1': 0.0, 'mgs': 0, 'compass': -80.7, 'lipoC2': 0.0, 'temp': 24.53, 'thr3': 33.0, 'depth': 0.238, 'time': 4.45, 'thr2': 32.0, 'yaw': 13.38, 'thr0': 28.0, 'thr1': 28.0}
{'lipoC3S3': 0.0, 'datetime': '2019-03-01 10:46:11.964052', 'pitch': 1.14, 'rot1': 24, 'rot0': 45, 'rot3': 1, 'rot2': 1, 'state': 'normal', 'flw3': 0, 'flw2': 0, 'flw1': 0, 'flw0': 0, 'roll': 4.03, 'cur2': 0.4, 'cur0': 0.35, 'cur1': 0.0, 'mgs': 0, 'compass': -72.46, 'lipoC2': 0.0, 'temp': 24.54, 'thr3': 33.0, 'depth': 0.238, 'time': 4.77, 'thr2': 32.0, 'yaw': 21.62, 'thr0': 28.0, 'thr1': 28.0}
{'lipoC3S3': 0.0, 'datetime': '2019-03-01 10:46:12.600891', 'pitch': 0.72, 'rot1': 33, 'rot0': 57, 'rot3': 1, 'rot2': 1, 'state': 'normal', 'flw3': 0, 'flw2': 0, 'flw1': 0, 'flw0': 0, 'roll': 3.94, 'cur2': 0.39, 'cur0': 0.34, 'cur1': 0.0, 'mgs': 0, 'compass': -84.11, 'lipoC2': 0.0, 'temp': 24.54, 'thr3': 33.0, 'depth': 0.228, 'time': 5.41, 'thr2': 32.0, 'yaw': 9.97, 'thr0': 28.0, 'thr1': 28.0}
{'lipoC3S3': 0.0, 'datetime': '2019-03-01 10:46:12.921794', 'pitch': 0.61, 'rot1': 37, 'rot0': 62, 'rot3': 1, 'rot2': 1, 'state': 'normal', 'flw3': 0, 'flw2': 0, 'flw1': 0, 'flw0': 0, 'roll': 3.64, 'cur2': 0.39, 'cur0': 0.37, 'cur1': 0.0, 'mgs': 0, 'compass': -89.34, 'lipoC2': 0.0, 'temp': 24.54, 'thr3': 33.0, 'depth': 0.228, 'time': 5.73, 'thr2': 32.0, 'yaw': 4.74, 'thr0': 28.0, 'thr1': 28.0}
{'lipoC3S3': 0.0, 'datetime': '2019-03-01 10:46:13.246145', 'pitch': 0.53, 'rot1': 40, 'rot0': 65, 'rot3': 1, 'rot2': 1, 'state': 'normal', 'flw3': 0, 'flw2': 0, 'flw1': 0, 'flw0': 0, 'roll': 3.58, 'cur2': 0.0, 'cur0': 0.0, 'cur1': 0.0, 'mgs': 0, 'compass': -93.09, 'lipoC2': 0.0, 'temp': 24.54, 'thr3': 33.0, 'depth': 0.228, 'time': 6.05, 'thr2': 32.0, 'yaw': 0.99, 'thr0': 28.0, 'thr1': 28.0}
{'lipoC3S3': 0.0, 'datetime': '2019-03-01 10:46:13.568463', 'pitch': 0.6, 'rot1': 40, 'rot0': 65, 'rot3': 1, 'rot2': 1, 'state': 'normal', 'flw3': 0, 'flw2': 0, 'flw1': 0, 'flw0': 0, 'roll': 3.21, 'cur2': 0.0, 'cur0': 0.0, 'cur1': 0.0, 'mgs': 0, 'compass': -96.84, 'lipoC2': 0.0, 'temp': 24.54, 'thr3': 33.0, 'depth': 0.228, 'time': 6.37, 'thr2': 32.0, 'yaw': -2.75, 'thr0': 28.0, 'thr1': 27.0}
{'lipoC3S3': 0.0, 'datetime': '2019-03-01 10:46:13.889983', 'pitch': 0.61, 'rot1': 40, 'rot0': 65, 'rot3': 1, 'rot2': 1, 'state': 'normal', 'flw3': 0, 'flw2': 0, 'flw1': 0, 'flw0': 0, 'roll': 3.36, 'cur2': 0.0, 'cur0': 0.0, 'cur1': 0.0, 'mgs': 0, 'compass': -95.85, 'lipoC2': 0.0, 'temp': 24.54, 'thr3': 33.0, 'depth': 0.228, 'time': 6.69, 'thr2': 32.0, 'yaw': -1.77, 'thr0': 28.0, 'thr1': 28.0}
{'lipoC3S3': 0.0, 'datetime': '2019-03-01 10:46:14.211900', 'pitch': 0.5, 'rot1': 40, 'rot0': 65, 'rot3': 1, 'rot2': 1, 'state': 'normal', 'flw3': 0, 'flw2': 0, 'flw1': 0, 'flw0': 0, 'roll': 3.54, 'cur2': 0.0, 'cur0': 0.0, 'cur1': 0.0, 'mgs': 0, 'compass': -96.33, 'lipoC2': 0.0, 'temp': 24.54, 'thr3': 33.0, 'depth': 0.228, 'time': 7.02, 'thr2': 32.0, 'yaw': -2.25, 'thr0': 28.0, 'thr1': 27.0}
{'lipoC3S3': 0.0, 'datetime': '2019-03-01 10:46:14.533291', 'pitch': 0.33, 'rot1': 40, 'rot0': 65, 'rot3': 1, 'rot2': 1, 'state': 'normal', 'flw3': 0, 'flw2': 0, 'flw1': 0, 'flw0': 0, 'roll': 3.67, 'cur2': 0.0, 'cur0': 0.0, 'cur1': 0.0, 'mgs': 0, 'compass': -99.62, 'lipoC2': 0.0, 'temp': 24.54, 'thr3': 33.0, 'depth': 0.238, 'time': 7.34, 'thr2': 32.0, 'yaw': -5.53, 'thr0': 28.0, 'thr1': 28.0}
{'lipoC3S3': 0.0, 'datetime': '2019-03-01 10:46:14.855129', 'pitch': -0.03, 'rot1': 40, 'rot0': 67, 'rot3': 1, 'rot2': 1, 'state': 'normal', 'flw3': 0, 'flw2': 0, 'flw1': 0, 'flw0': 0, 'roll': 3.8, 'cur2': 0.45, 'cur0': 0.4, 'cur1': 0.0, 'mgs': 0, 'compass': -109.55, 'lipoC2': 0.0, 'temp': 24.54, 'thr3': 33.0, 'depth': 0.238, 'time': 7.66, 'thr2': 33.0, 'yaw': -15.47, 'thr0': 28.0, 'thr1': 27.0}
{'lipoC3S3': 0.0, 'datetime': '2019-03-01 10:46:15.177011', 'pitch': 0.14, 'rot1': 43, 'rot0': 70, 'rot3': 1, 'rot2': 1, 'state': 'normal', 'flw3': 0, 'flw2': 0, 'flw1': 0, 'flw0': 0, 'roll': 3.24, 'cur2': 0.42, 'cur0': 0.34, 'cur1': 0.0, 'mgs': 0, 'compass': -124.67, 'lipoC2': 0.0, 'temp': 24.54, 'thr3': 34.0, 'depth': 0.238, 'time': 7.98, 'thr2': 32.0, 'yaw': -30.58, 'thr0': 28.0, 'thr1': 28.0}
{'lipoC3S3': 0.0, 'datetime': '2019-03-01 10:46:15.498907', 'pitch': 0.61, 'rot1': 45, 'rot0': 75, 'rot3': 1, 'rot2': 1, 'state': 'normal', 'flw3': 0, 'flw2': 0, 'flw1': 0, 'flw0': 0, 'roll': 2.74, 'cur2': 0.39, 'cur0': 0.35, 'cur1': 0.0, 'mgs': 0, 'compass': -127.43, 'lipoC2': 0.0, 'temp': 24.54, 'thr3': 33.0, 'depth': 0.238, 'time': 8.3, 'thr2': 32.0, 'yaw': -33.35, 'thr0': 28.0, 'thr1': 27.0}
{'lipoC3S3': 0.0, 'datetime': '2019-03-01 10:46:15.821767', 'pitch': 0.48, 'rot1': 49, 'rot0': 78, 'rot3': 1, 'rot2': 1, 'state': 'normal', 'flw3': 0, 'flw2': 0, 'flw1': 0, 'flw0': 0, 'roll': 3.02, 'cur2': 0.4, 'cur0': 0.33, 'cur1': 0.0, 'mgs': 0, 'compass': -126.6, 'lipoC2': 0.0, 'temp': 24.54, 'thr3': 33.0, 'depth': 0.228, 'time': 8.62, 'thr2': 32.0, 'yaw': -32.52, 'thr0': 28.0, 'thr1': 27.0}
{'lipoC3S3': 0.0, 'datetime': '2019-03-01 10:46:16.144658', 'pitch': 0.5, 'rot1': 51, 'rot0': 83, 'rot3': 1, 'rot2': 1, 'state': 'normal', 'flw3': 0, 'flw2': 0, 'flw1': 0, 'flw0': 0, 'roll': 3.09, 'cur2': 0.4, 'cur0': 0.34, 'cur1': 0.0, 'mgs': 0, 'compass': -126.69, 'lipoC2': 0.0, 'temp': 24.54, 'thr3': 33.0, 'depth': 0.238, 'time': 8.94, 'thr2': 32.0, 'yaw': -32.61, 'thr0': 28.0, 'thr1': 27.0}
{'lipoC3S3': 0.0, 'datetime': '2019-03-01 10:46:16.469800', 'pitch': 0.55, 'rot1': 52, 'rot0': 87, 'rot3': 1, 'rot2': 1, 'state': 'normal', 'flw3': 0, 'flw2': 0, 'flw1': 0, 'flw0': 0, 'roll': 3.11, 'cur2': 0.4, 'cur0': 0.33, 'cur1': 0.0, 'mgs': 0, 'compass': -126.69, 'lipoC2': 0.0, 'temp': 24.54, 'thr3': 33.0, 'depth': 0.238, 'time': 9.27, 'thr2': 32.0, 'yaw': -32.6, 'thr0': 28.0, 'thr1': 27.0}
{'lipoC3S3': 0.0, 'datetime': '2019-03-01 10:46:16.787498', 'pitch': 0.57, 'rot1': 54, 'rot0': 92, 'rot3': 1, 'rot2': 1, 'state': 'normal', 'flw3': 0, 'flw2': 0, 'flw1': 0, 'flw0': 0, 'roll': 3.13, 'cur2': 0.4, 'cur0': 0.34, 'cur1': 0.0, 'mgs': 0, 'compass': -126.69, 'lipoC2': 0.0, 'temp': 24.54, 'thr3': 33.0, 'depth': 0.228, 'time': 9.59, 'thr2': 32.0, 'yaw': -32.6, 'thr0': 28.0, 'thr1': 28.0}
{'lipoC3S3': 0.0, 'datetime': '2019-03-01 10:46:17.110300', 'pitch': 0.57, 'rot1': 57, 'rot0': 96, 'rot3': 1, 'rot2': 1, 'state': 'normal', 'flw3': 0, 'flw2': 0, 'flw1': 0, 'flw0': 0, 'roll': 3.18, 'cur2': 0.42, 'cur0': 0.32, 'cur1': 0.0, 'mgs': 0, 'compass': -126.66, 'lipoC2': 0.0, 'temp': 24.54, 'thr3': 33.0, 'depth': 0.228, 'time': 9.91, 'thr2': 32.0, 'yaw': -32.58, 'thr0': 28.0, 'thr1': 28.0}
{'lipoC3S3': 0.0, 'datetime': '2019-03-01 10:46:17.432300', 'pitch': 0.55, 'rot1': 60, 'rot0': 101, 'rot3': 1, 'rot2': 1, 'state': 'normal', 'flw3': 0, 'flw2': 0, 'flw1': 0, 'flw0': 0, 'roll': 3.24, 'cur2': 0.39, 'cur0': 0.34, 'cur1': 0.0, 'mgs': 0, 'compass': -126.66, 'lipoC2': 0.0, 'temp': 24.54, 'thr3': 33.0, 'depth': 0.228, 'time': 10.23, 'thr2': 32.0, 'yaw': -32.58, 'thr0': 28.0, 'thr1': 28.0}
{'lipoC3S3': 0.0, 'datetime': '2019-03-01 10:46:17.753064', 'pitch': 0.32, 'rot1': 64, 'rot0': 107, 'rot3': 1, 'rot2': 1, 'state': 'normal', 'flw3': 0, 'flw2': 0, 'flw1': 0, 'flw0': 0, 'roll': 3.19, 'cur2': 0.4, 'cur0': 0.32, 'cur1': 0.0, 'mgs': 0, 'compass': -127.03, 'lipoC2': 0.0, 'temp': 24.54, 'thr3': 33.0, 'depth': 0.228, 'time': 10.55, 'thr2': 32.0, 'yaw': -32.94, 'thr0': 28.0, 'thr1': 27.0}
{'lipoC3S3': 0.0, 'datetime': '2019-03-01 10:46:18.076291', 'pitch': 0.45, 'rot1': 67, 'rot0': 112, 'rot3': 1, 'rot2': 1, 'state': 'normal', 'flw3': 0, 'flw2': 0, 'flw1': 0, 'flw0': 0, 'roll': 3.22, 'cur2': 0.42, 'cur0': 0.33, 'cur1': 0.0, 'mgs': 0, 'compass': -127.53, 'lipoC2': 0.0, 'temp': 24.54, 'thr3': 33.0, 'depth': 0.238, 'time': 10.87, 'thr2': 32.0, 'yaw': -33.45, 'thr0': 28.0, 'thr1': 27.0}
{'lipoC3S3': 0.0, 'datetime': '2019-03-01 10:46:18.397889', 'pitch': 0.9, 'rot1': 69, 'rot0': 116, 'rot3': 1, 'rot2': 1, 'state': 'normal', 'flw3': 0, 'flw2': 0, 'flw1': 0, 'flw0': 0, 'roll': 3.09, 'cur2': 0.38, 'cur0': 0.33, 'cur1': 0.0, 'mgs': 0, 'compass': -125.17, 'lipoC2': 0.0, 'temp': 24.54, 'thr3': 33.0, 'depth': 0.228, 'time': 11.19, 'thr2': 32.0, 'yaw': -31.09, 'thr0': 28.0, 'thr1': 28.0}
{'lipoC3S3': 0.0, 'datetime': '2019-03-01 10:46:18.719069', 'pitch': 1.67, 'rot1': 71, 'rot0': 121, 'rot3': 1, 'rot2': 1, 'state': 'normal', 'flw3': 0, 'flw2': 0, 'flw1': 0, 'flw0': 0, 'roll': 2.73, 'cur2': 0.42, 'cur0': 0.32, 'cur1': 0.0, 'mgs': 0, 'compass': -114.99, 'lipoC2': 0.0, 'temp': 24.54, 'thr3': 33.0, 'depth': 0.238, 'time': 11.52, 'thr2': 32.0, 'yaw': -20.91, 'thr0': 28.0, 'thr1': 28.0}
{'lipoC3S3': 0.0, 'datetime': '2019-03-01 10:46:19.042107', 'pitch': 2.0, 'rot1': 75, 'rot0': 127, 'rot3': 1, 'rot2': 1, 'state': 'normal', 'flw3': 0, 'flw2': 0, 'flw1': 0, 'flw0': 0, 'roll': 2.77, 'cur2': 0.38, 'cur0': 0.35, 'cur1': 0.0, 'mgs': 0, 'compass': -95.28, 'lipoC2': 0.0, 'temp': 24.54, 'thr3': 33.0, 'depth': 0.238, 'time': 11.84, 'thr2': 32.0, 'yaw': -1.2, 'thr0': 28.0, 'thr1': 27.0}
{'lipoC3S3': 0.0, 'datetime': '2019-03-01 10:46:19.362535', 'pitch': 1.92, 'rot1': 75, 'rot0': 127, 'rot3': 1, 'rot2': 1, 'state': 'normal', 'flw3': 0, 'flw2': 0, 'flw1': 0, 'flw0': 0, 'roll': 2.94, 'cur2': 0.0, 'cur0': 0.0, 'cur1': 0.0, 'mgs': 0, 'compass': -81.67, 'lipoC2': 0.0, 'temp': 24.54, 'thr3': 33.0, 'depth': 0.238, 'time': 12.16, 'thr2': 32.0, 'yaw': 12.42, 'thr0': 28.0, 'thr1': 28.0}
{'lipoC3S3': 0.0, 'datetime': '2019-03-01 10:46:19.682630', 'pitch': 1.68, 'rot1': 77, 'rot0': 132, 'rot3': 1, 'rot2': 1, 'state': 'normal', 'flw3': 0, 'flw2': 0, 'flw1': 0, 'flw0': 0, 'roll': 3.18, 'cur2': 0.42, 'cur0': 0.32, 'cur1': 0.0, 'mgs': 0, 'compass': -76.7, 'lipoC2': 0.0, 'temp': 24.54, 'thr3': 33.0, 'depth': 0.238, 'time': 12.48, 'thr2': 32.0, 'yaw': 17.38, 'thr0': 28.0, 'thr1': 28.0}
{'lipoC3S3': 0.0, 'datetime': '2019-03-01 10:46:20.006158', 'pitch': 1.92, 'rot1': 82, 'rot0': 138, 'rot3': 1, 'rot2': 1, 'state': 'normal', 'flw3': 0, 'flw2': 0, 'flw1': 0, 'flw0': 0, 'roll': 3.26, 'cur2': 0.39, 'cur0': 0.37, 'cur1': 0.0, 'mgs': 0, 'compass': -68.2, 'lipoC2': 0.0, 'temp': 24.54, 'thr3': 33.0, 'depth': 0.238, 'time': 12.8, 'thr2': 32.0, 'yaw': 25.88, 'thr0': 28.0, 'thr1': 27.0}
{'lipoC3S3': 0.0, 'datetime': '2019-03-01 10:46:20.328786', 'pitch': 1.86, 'rot1': 85, 'rot0': 145, 'rot3': 1, 'rot2': 1, 'state': 'normal', 'flw3': 0, 'flw2': 0, 'flw1': 0, 'flw0': 0, 'roll': 3.44, 'cur2': 0.39, 'cur0': 0.34, 'cur1': 0.0, 'mgs': 0, 'compass': -61.5, 'lipoC2': 0.0, 'temp': 24.54, 'thr3': 33.0, 'depth': 0.238, 'time': 13.12, 'thr2': 32.0, 'yaw': 32.58, 'thr0': 27.0, 'thr1': 27.0}
{'lipoC3S3': 0.0, 'datetime': '2019-03-01 10:46:20.650572', 'pitch': 1.52, 'rot1': 88, 'rot0': 150, 'rot3': 1, 'rot2': 1, 'state': 'normal', 'flw3': 0, 'flw2': 0, 'flw1': 0, 'flw0': 0, 'roll': 3.58, 'cur2': 0.37, 'cur0': 0.35, 'cur1': 0.0, 'mgs': 0, 'compass': -61.05, 'lipoC2': 0.0, 'temp': 24.54, 'thr3': 32.0, 'depth': 0.238, 'time': 13.44, 'thr2': 31.0, 'yaw': 33.03, 'thr0': 28.0, 'thr1': 28.0}
{'lipoC3S3': 0.0, 'datetime': '2019-03-01 10:46:20.974779', 'pitch': 1.24, 'rot1': 93, 'rot0': 157, 'rot3': 1, 'rot2': 1, 'state': 'normal', 'flw3': 0, 'flw2': 0, 'flw1': 0, 'flw0': 0, 'roll': 3.5, 'cur2': 0.39, 'cur0': 0.34, 'cur1': 0.0, 'mgs': 0, 'compass': -64.74, 'lipoC2': 0.0, 'temp': 24.54, 'thr3': 33.0, 'depth': 0.238, 'time': 13.77, 'thr2': 32.0, 'yaw': 29.34, 'thr0': 28.0, 'thr1': 28.0}
{'lipoC3S3': 0.0, 'datetime': '2019-03-01 10:46:21.294254', 'pitch': 0.97, 'rot1': 97, 'rot0': 164, 'rot3': 1, 'rot2': 1, 'state': 'normal', 'flw3': 0, 'flw2': 0, 'flw1': 0, 'flw0': 0, 'roll': 3.59, 'cur2': 0.39, 'cur0': 0.35, 'cur1': 0.0, 'mgs': 0, 'compass': -69.24, 'lipoC2': 0.0, 'temp': 24.54, 'thr3': 33.0, 'depth': 0.238, 'time': 14.09, 'thr2': 32.0, 'yaw': 24.84, 'thr0': 28.0, 'thr1': 27.0}
{'lipoC3S3': 0.0, 'datetime': '2019-03-01 10:46:21.617183', 'pitch': 0.7, 'rot1': 101, 'rot0': 172, 'rot3': 1, 'rot2': 1, 'state': 'normal', 'flw3': 0, 'flw2': 0, 'flw1': 0, 'flw0': 0, 'roll': 3.66, 'cur2': 0.38, 'cur0': 0.35, 'cur1': 0.0, 'mgs': 0, 'compass': -75.95, 'lipoC2': 0.0, 'temp': 24.54, 'thr3': 33.0, 'depth': 0.238, 'time': 14.41, 'thr2': 32.0, 'yaw': 18.14, 'thr0': 28.0, 'thr1': 27.0}
{'lipoC3S3': 0.0, 'datetime': '2019-03-01 10:46:21.938749', 'pitch': 0.52, 'rot1': 106, 'rot0': 178, 'rot3': 1, 'rot2': 1, 'state': 'normal', 'flw3': 0, 'flw2': 0, 'flw1': 0, 'flw0': 0, 'roll': 3.9, 'cur2': 0.39, 'cur0': 0.34, 'cur1': 0.0, 'mgs': 0, 'compass': -86.52, 'lipoC2': 0.0, 'temp': 24.54, 'thr3': 33.0, 'depth': 0.228, 'time': 14.73, 'thr2': 32.0, 'yaw': 7.56, 'thr0': 27.0, 'thr1': 27.0}
{'lipoC3S3': 0.0, 'datetime': '2019-03-01 10:46:22.260453', 'pitch': 0.41, 'rot1': 108, 'rot0': 182, 'rot3': 1, 'rot2': 1, 'state': 'normal', 'flw3': 0, 'flw2': 0, 'flw1': 0, 'flw0': 0, 'roll': 3.57, 'cur2': 0.0, 'cur0': 0.0, 'cur1': 0.0, 'mgs': 0, 'compass': -99.91, 'lipoC2': 0.0, 'temp': 24.54, 'thr3': 33.0, 'depth': 0.238, 'time': 15.05, 'thr2': 32.0, 'yaw': -5.83, 'thr0': 28.0, 'thr1': 27.0}
{'lipoC3S3': 0.0, 'datetime': '2019-03-01 10:46:22.582762', 'pitch': 0.32, 'rot1': 108, 'rot0': 183, 'rot3': 1, 'rot2': 1, 'state': 'normal', 'flw3': 0, 'flw2': 0, 'flw1': 0, 'flw0': 0, 'roll': 3.55, 'cur2': 0.43, 'cur0': 0.35, 'cur1': 0.0, 'mgs': 0, 'compass': -108.71, 'lipoC2': 0.0, 'temp': 24.54, 'thr3': 33.0, 'depth': 0.228, 'time': 15.37, 'thr2': 32.0, 'yaw': -14.63, 'thr0': 28.0, 'thr1': 27.0}
{'lipoC3S3': 0.0, 'datetime': '2019-03-01 10:46:22.904496', 'pitch': 0.63, 'rot1': 110, 'rot0': 190, 'rot3': 1, 'rot2': 1, 'state': 'normal', 'flw3': 0, 'flw2': 0, 'flw1': 0, 'flw0': 0, 'roll': 3.43, 'cur2': 0.38, 'cur0': 0.34, 'cur1': 0.0, 'mgs': 0, 'compass': -106.05, 'lipoC2': 0.0, 'temp': 24.54, 'thr3': 33.0, 'depth': 0.228, 'time': 15.69, 'thr2': 32.0, 'yaw': -11.97, 'thr0': 27.0, 'thr1': 27.0}
{'lipoC3S3': 0.0, 'datetime': '2019-03-01 10:46:23.226663', 'pitch': 0.41, 'rot1': 114, 'rot0': 194, 'rot3': 1, 'rot2': 1, 'state': 'normal', 'flw3': 0, 'flw2': 0, 'flw1': 0, 'flw0': 0, 'roll': 3.7, 'cur2': 0.0, 'cur0': 0.0, 'cur1': 0.0, 'mgs': 0, 'compass': -97.93, 'lipoC2': 0.0, 'temp': 24.54, 'thr3': 33.0, 'depth': 0.228, 'time': 16.02, 'thr2': 32.0, 'yaw': -3.84, 'thr0': 28.0, 'thr1': 27.0}
{'lipoC3S3': 0.0, 'datetime': '2019-03-01 10:46:23.548674', 'pitch': 0.69, 'rot1': 114, 'rot0': 196, 'rot3': 1, 'rot2': 1, 'state': 'normal', 'flw3': 0, 'flw2': 0, 'flw1': 0, 'flw0': 0, 'roll': 3.29, 'cur2': 0.56, 'cur0': 0.37, 'cur1': 0.0, 'mgs': 0, 'compass': -107.35, 'lipoC2': 0.0, 'temp': 24.54, 'thr3': 33.0, 'depth': 0.238, 'time': 16.34, 'thr2': 32.0, 'yaw': -13.27, 'thr0': 28.0, 'thr1': 28.0}
{'lipoC3S3': 0.0, 'datetime': '2019-03-01 10:46:23.873219', 'pitch': 1.62, 'rot1': 114, 'rot0': 202, 'rot3': 1, 'rot2': 1, 'state': 'normal', 'flw3': 0, 'flw2': 0, 'flw1': 0, 'flw0': 0, 'roll': 2.42, 'cur2': 0.59, 'cur0': 0.33, 'cur1': 0.0, 'mgs': 0, 'compass': -101.38, 'lipoC2': 0.0, 'temp': 24.54, 'thr3': 33.0, 'depth': 0.228, 'time': 16.66, 'thr2': 32.0, 'yaw': -7.3, 'thr0': 28.0, 'thr1': 27.0}
{'lipoC3S3': 0.0, 'datetime': '2019-03-01 10:46:24.198546', 'pitch': 0.85, 'rot1': 114, 'rot0': 202, 'rot3': 1, 'rot2': 1, 'state': 'normal', 'flw3': 0, 'flw2': 0, 'flw1': 0, 'flw0': 0, 'roll': 3.39, 'cur2': 0.0, 'cur0': 0.0, 'cur1': 0.0, 'mgs': 0, 'compass': -99.23, 'lipoC2': 0.0, 'temp': 24.54, 'thr3': 33.0, 'depth': 0.238, 'time': 16.98, 'thr2': 32.0, 'yaw': -5.14, 'thr0': 28.0, 'thr1': 27.0}
{'lipoC3S3': 0.0, 'datetime': '2019-03-01 10:46:24.520172', 'pitch': 0.86, 'rot1': 114, 'rot0': 202, 'rot3': 1, 'rot2': 1, 'state': 'normal', 'flw3': 0, 'flw2': 0, 'flw1': 0, 'flw0': 0, 'roll': 3.4, 'cur2': 0.0, 'cur0': 0.0, 'cur1': 0.0, 'mgs': 0, 'compass': -103.54, 'lipoC2': 0.0, 'temp': 24.54, 'thr3': 33.0, 'depth': 0.228, 'time': 17.3, 'thr2': 32.0, 'yaw': -9.45, 'thr0': 28.0, 'thr1': 27.0}
{'lipoC3S3': 0.0, 'datetime': '2019-03-01 10:46:24.841962', 'pitch': 0.97, 'rot1': 114, 'rot0': 208, 'rot3': 1, 'rot2': 1, 'state': 'normal', 'flw3': 0, 'flw2': 0, 'flw1': 0, 'flw0': 0, 'roll': 3.47, 'cur2': 0.5, 'cur0': 0.33, 'cur1': 0.0, 'mgs': 0, 'compass': -106.92, 'lipoC2': 0.0, 'temp': 24.54, 'thr3': 33.0, 'depth': 0.238, 'time': 17.62, 'thr2': 32.0, 'yaw': -12.84, 'thr0': 28.0, 'thr1': 27.0}
{'lipoC3S3': 0.0, 'datetime': '2019-03-01 10:46:25.161914', 'pitch': 1.05, 'rot1': 114, 'rot0': 214, 'rot3': 1, 'rot2': 2, 'state': 'normal', 'flw3': 0, 'flw2': 0, 'flw1': 0, 'flw0': 0, 'roll': 3.44, 'cur2': 0.55, 'cur0': 0.33, 'cur1': 0.0, 'mgs': 0, 'compass': -108.27, 'lipoC2': 0.0, 'temp': 24.54, 'thr3': 33.0, 'depth': 0.238, 'time': 17.94, 'thr2': 32.0, 'yaw': -14.19, 'thr0': 27.0, 'thr1': 27.0}
{'lipoC3S3': 0.0, 'datetime': '2019-03-01 10:46:25.483677', 'pitch': 1.22, 'rot1': 114, 'rot0': 219, 'rot3': 1, 'rot2': 2, 'state': 'normal', 'flw3': 0, 'flw2': 0, 'flw1': 0, 'flw0': 0, 'roll': 3.07, 'cur2': 0.57, 'cur0': 0.33, 'cur1': 0.0, 'mgs': 0, 'compass': -104.91, 'lipoC2': 0.0, 'temp': 24.54, 'thr3': 33.0, 'depth': 0.228, 'time': 18.27, 'thr2': 32.0, 'yaw': -10.83, 'thr0': 27.0, 'thr1': 27.0}
{'lipoC3S3': 0.0, 'datetime': '2019-03-01 10:46:25.798927', 'pitch': 0.62, 'rot1': 114, 'rot0': 220, 'rot3': 1, 'rot2': 2, 'state': 'normal', 'flw3': 0, 'flw2': 0, 'flw1': 0, 'flw0': 0, 'roll': 3.67, 'cur2': 0.0, 'cur0': 0.0, 'cur1': 0.0, 'mgs': 0, 'compass': -102.38, 'lipoC2': 0.0, 'temp': 24.54, 'thr3': 33.0, 'depth': 0.238, 'time': 18.59, 'thr2': 32.0, 'yaw': -8.3, 'thr0': 28.0, 'thr1': 27.0}
{'lipoC3S3': 0.0, 'datetime': '2019-03-01 10:46:26.121333', 'pitch': 0.72, 'rot1': 115, 'rot0': 221, 'rot3': 1, 'rot2': 2, 'state': 'normal', 'flw3': 0, 'flw2': 0, 'flw1': 0, 'flw0': 0, 'roll': 3.24, 'cur2': 0.44, 'cur0': 0.35, 'cur1': 0.0, 'mgs': 0, 'compass': -107.3, 'lipoC2': 0.0, 'temp': 24.54, 'thr3': 33.0, 'depth': 0.238, 'time': 18.91, 'thr2': 32.0, 'yaw': -13.22, 'thr0': 28.0, 'thr1': 27.0}
{'lipoC3S3': 0.0, 'datetime': '2019-03-01 10:46:26.446527', 'pitch': 0.7, 'rot1': 118, 'rot0': 225, 'rot3': 1, 'rot2': 2, 'state': 'normal', 'flw3': 0, 'flw2': 0, 'flw1': 0, 'flw0': 0, 'roll': 3.13, 'cur2': 0.38, 'cur0': 0.33, 'cur1': 0.0, 'mgs': 0, 'compass': -107.98, 'lipoC2': 0.0, 'temp': 24.53, 'thr3': 33.0, 'depth': 0.238, 'time': 19.23, 'thr2': 32.0, 'yaw': -13.9, 'thr0': 28.0, 'thr1': 27.0}
{'lipoC3S3': 0.0, 'datetime': '2019-03-01 10:46:26.776336', 'pitch': 0.76, 'rot1': 121, 'rot0': 228, 'rot3': 1, 'rot2': 2, 'state': 'normal', 'flw3': 0, 'flw2': 0, 'flw1': 0, 'flw0': 0, 'roll': 3.25, 'cur2': 0.42, 'cur0': 0.33, 'cur1': 0.0, 'mgs': 0, 'compass': -105.5, 'lipoC2': 0.0, 'temp': 24.53, 'thr3': 33.0, 'depth': 0.238, 'time': 19.55, 'thr2': 32.0, 'yaw': -11.42, 'thr0': 27.0, 'thr1': 27.0}
{'lipoC3S3': 0.0, 'datetime': '2019-03-01 10:46:27.097668', 'pitch': 0.63, 'rot1': 123, 'rot0': 232, 'rot3': 1, 'rot2': 2, 'state': 'normal', 'flw3': 0, 'flw2': 0, 'flw1': 0, 'flw0': 0, 'roll': 3.32, 'cur2': 0.39, 'cur0': 0.33, 'cur1': 0.0, 'mgs': 0, 'compass': -105.79, 'lipoC2': 0.0, 'temp': 24.54, 'thr3': 33.0, 'depth': 0.238, 'time': 19.87, 'thr2': 32.0, 'yaw': -11.71, 'thr0': 27.0, 'thr1': 27.0}
{'lipoC3S3': 0.0, 'datetime': '2019-03-01 10:46:27.417920', 'pitch': 0.67, 'rot1': 124, 'rot0': 236, 'rot3': 1, 'rot2': 2, 'state': 'normal', 'flw3': 0, 'flw2': 0, 'flw1': 0, 'flw0': 0, 'roll': 3.29, 'cur2': 0.4, 'cur0': 0.32, 'cur1': 0.0, 'mgs': 0, 'compass': -105.73, 'lipoC2': 0.0, 'temp': 24.53, 'thr3': 33.0, 'depth': 0.238, 'time': 20.19, 'thr2': 32.0, 'yaw': -11.65, 'thr0': 28.0, 'thr1': 27.0}
{'lipoC3S3': 0.0, 'datetime': '2019-03-01 10:46:27.741083', 'pitch': 0.65, 'rot1': 127, 'rot0': 241, 'rot3': 1, 'rot2': 2, 'state': 'normal', 'flw3': 0, 'flw2': 0, 'flw1': 0, 'flw0': 0, 'roll': 3.25, 'cur2': 0.39, 'cur0': 0.33, 'cur1': 0.0, 'mgs': 0, 'compass': -105.57, 'lipoC2': 0.0, 'temp': 24.54, 'thr3': 33.0, 'depth': 0.238, 'time': 20.52, 'thr2': 32.0, 'yaw': -11.49, 'thr0': 28.0, 'thr1': 27.0}
{'lipoC3S3': 0.0, 'datetime': '2019-03-01 10:46:28.062655', 'pitch': 0.87, 'rot1': 128, 'rot0': 245, 'rot3': 1, 'rot2': 2, 'state': 'normal', 'flw3': 0, 'flw2': 0, 'flw1': 0, 'flw0': 0, 'roll': 3.35, 'cur2': 0.42, 'cur0': 0.32, 'cur1': 0.0, 'mgs': 0, 'compass': -105.52, 'lipoC2': 0.0, 'temp': 24.54, 'thr3': 33.0, 'depth': 0.238, 'time': 20.84, 'thr2': 32.0, 'yaw': -11.44, 'thr0': 28.0, 'thr1': 28.0}
{'lipoC3S3': 0.0, 'datetime': '2019-03-01 10:46:28.383853', 'pitch': 0.84, 'rot1': 131, 'rot0': 249, 'rot3': 1, 'rot2': 2, 'state': 'normal', 'flw3': 0, 'flw2': 0, 'flw1': 0, 'flw0': 0, 'roll': 3.36, 'cur2': 0.39, 'cur0': 0.33, 'cur1': 0.0, 'mgs': 0, 'compass': -105.42, 'lipoC2': 0.0, 'temp': 24.54, 'thr3': 33.0, 'depth': 0.238, 'time': 21.16, 'thr2': 32.0, 'yaw': -11.34, 'thr0': 28.0, 'thr1': 27.0}
{'lipoC3S3': 0.0, 'datetime': '2019-03-01 10:46:28.708113', 'pitch': 0.8, 'rot1': 133, 'rot0': 253, 'rot3': 1, 'rot2': 2, 'state': 'normal', 'flw3': 0, 'flw2': 0, 'flw1': 0, 'flw0': 0, 'roll': 3.36, 'cur2': 0.42, 'cur0': 0.34, 'cur1': 0.0, 'mgs': 0, 'compass': -105.31, 'lipoC2': 0.0, 'temp': 24.53, 'thr3': 33.0, 'depth': 0.238, 'time': 21.48, 'thr2': 32.0, 'yaw': -11.22, 'thr0': 27.0, 'thr1': 27.0}
{'lipoC3S3': 0.0, 'datetime': '2019-03-01 10:46:29.029790', 'pitch': 0.8, 'rot1': 137, 'rot0': 258, 'rot3': 1, 'rot2': 2, 'state': 'normal', 'flw3': 0, 'flw2': 0, 'flw1': 0, 'flw0': 0, 'roll': 3.34, 'cur2': 0.4, 'cur0': 0.33, 'cur1': 0.0, 'mgs': 0, 'compass': -105.33, 'lipoC2': 0.0, 'temp': 24.54, 'thr3': 33.0, 'depth': 0.238, 'time': 21.8, 'thr2': 32.0, 'yaw': -11.25, 'thr0': 28.0, 'thr1': 27.0}
{'lipoC3S3': 0.0, 'datetime': '2019-03-01 10:46:29.350068', 'pitch': 0.93, 'rot1': 139, 'rot0': 261, 'rot3': 1, 'rot2': 2, 'state': 'normal', 'flw3': 0, 'flw2': 0, 'flw1': 0, 'flw0': 0, 'roll': 3.45, 'cur2': 0.39, 'cur0': 0.31, 'cur1': 0.0, 'mgs': 0, 'compass': -105.28, 'lipoC2': 0.0, 'temp': 24.54, 'thr3': 33.0, 'depth': 0.228, 'time': 22.12, 'thr2': 32.0, 'yaw': -11.2, 'thr0': 28.0, 'thr1': 27.0}
{'lipoC3S3': 0.0, 'datetime': '2019-03-01 10:46:29.672508', 'pitch': 0.79, 'rot1': 142, 'rot0': 267, 'rot3': 1, 'rot2': 2, 'state': 'normal', 'flw3': 0, 'flw2': 0, 'flw1': 0, 'flw0': 0, 'roll': 3.46, 'cur2': 0.42, 'cur0': 0.35, 'cur1': 0.0, 'mgs': 0, 'compass': -105.38, 'lipoC2': 0.0, 'temp': 24.54, 'thr3': 33.0, 'depth': 0.228, 'time': 22.45, 'thr2': 32.0, 'yaw': -11.3, 'thr0': 27.0, 'thr1': 27.0}
{'lipoC3S3': 0.0, 'datetime': '2019-03-01 10:46:29.990768', 'pitch': 0.8, 'rot1': 144, 'rot0': 271, 'rot3': 1, 'rot2': 2, 'state': 'normal', 'flw3': 0, 'flw2': 0, 'flw1': 0, 'flw0': 0, 'roll': 3.45, 'cur2': 0.39, 'cur0': 0.31, 'cur1': 0.0, 'mgs': 0, 'compass': -105.37, 'lipoC2': 0.0, 'temp': 24.54, 'thr3': 33.0, 'depth': 0.238, 'time': 22.77, 'thr2': 32.0, 'yaw': -11.28, 'thr0': 28.0, 'thr1': 27.0}
{'lipoC3S3': 0.0, 'datetime': '2019-03-01 10:46:30.308009', 'pitch': 0.81, 'rot1': 147, 'rot0': 275, 'rot3': 1, 'rot2': 2, 'state': 'normal', 'flw3': 0, 'flw2': 0, 'flw1': 0, 'flw0': 0, 'roll': 3.44, 'cur2': 0.4, 'cur0': 0.33, 'cur1': 0.0, 'mgs': 0, 'compass': -104.26, 'lipoC2': 0.0, 'temp': 24.53, 'thr3': 33.0, 'depth': 0.238, 'time': 23.09, 'thr2': 32.0, 'yaw': -10.18, 'thr0': 27.0, 'thr1': 27.0}
{'lipoC3S3': 0.0, 'datetime': '2019-03-01 10:46:30.628134', 'pitch': 0.84, 'rot1': 148, 'rot0': 278, 'rot3': 1, 'rot2': 2, 'state': 'normal', 'flw3': 0, 'flw2': 0, 'flw1': 0, 'flw0': 0, 'roll': 3.67, 'cur2': 0.39, 'cur0': 0.32, 'cur1': 0.0, 'mgs': 0, 'compass': -103.24, 'lipoC2': 0.0, 'temp': 24.54, 'thr3': 33.0, 'depth': 0.238, 'time': 23.41, 'thr2': 32.0, 'yaw': -9.16, 'thr0': 27.0, 'thr1': 27.0}
{'lipoC3S3': 0.0, 'datetime': '2019-03-01 10:46:30.950226', 'pitch': 0.88, 'rot1': 151, 'rot0': 283, 'rot3': 1, 'rot2': 2, 'state': 'normal', 'flw3': 0, 'flw2': 0, 'flw1': 0, 'flw0': 0, 'roll': 3.62, 'cur2': 0.43, 'cur0': 0.34, 'cur1': 0.0, 'mgs': 0, 'compass': -104.75, 'lipoC2': 0.0, 'temp': 24.53, 'thr3': 33.0, 'depth': 0.238, 'time': 23.73, 'thr2': 32.0, 'yaw': -10.67, 'thr0': 27.0, 'thr1': 27.0}
{'lipoC3S3': 0.0, 'datetime': '2019-03-01 10:46:31.273774', 'pitch': 1.08, 'rot1': 154, 'rot0': 288, 'rot3': 1, 'rot2': 2, 'state': 'normal', 'flw3': 0, 'flw2': 0, 'flw1': 0, 'flw0': 0, 'roll': 3.59, 'cur2': 0.39, 'cur0': 0.32, 'cur1': 0.0, 'mgs': 0, 'compass': -104.93, 'lipoC2': 0.0, 'temp': 24.54, 'thr3': 33.0, 'depth': 0.238, 'time': 24.05, 'thr2': 32.0, 'yaw': -10.85, 'thr0': 27.0, 'thr1': 28.0}
{'lipoC3S3': 0.0, 'datetime': '2019-03-01 10:46:31.603954', 'pitch': 0.98, 'rot1': 157, 'rot0': 293, 'rot3': 1, 'rot2': 2, 'state': 'normal', 'flw3': 0, 'flw2': 0, 'flw1': 0, 'flw0': 0, 'roll': 3.56, 'cur2': 0.42, 'cur0': 0.31, 'cur1': 0.0, 'mgs': 0, 'compass': -104.97, 'lipoC2': 0.0, 'temp': 24.53, 'thr3': 33.0, 'depth': 0.238, 'time': 24.38, 'thr2': 32.0, 'yaw': -10.89, 'thr0': 28.0, 'thr1': 27.0}
{'lipoC3S3': 0.0, 'datetime': '2019-03-01 10:46:31.925973', 'pitch': 1.0, 'rot1': 160, 'rot0': 297, 'rot3': 1, 'rot2': 2, 'state': 'normal', 'flw3': 0, 'flw2': 0, 'flw1': 0, 'flw0': 0, 'roll': 3.51, 'cur2': 0.38, 'cur0': 0.32, 'cur1': 0.0, 'mgs': 0, 'compass': -104.97, 'lipoC2': 0.0, 'temp': 24.54, 'thr3': 33.0, 'depth': 0.238, 'time': 24.7, 'thr2': 32.0, 'yaw': -10.89, 'thr0': 28.0, 'thr1': 27.0}
{'lipoC3S3': 0.0, 'datetime': '2019-03-01 10:46:32.247410', 'pitch': 1.14, 'rot1': 164, 'rot0': 300, 'rot3': 1, 'rot2': 2, 'state': 'normal', 'flw3': 0, 'flw2': 0, 'flw1': 0, 'flw0': 0, 'roll': 3.52, 'cur2': 0.4, 'cur0': 0.31, 'cur1': 0.0, 'mgs': 0, 'compass': -104.97, 'lipoC2': 0.0, 'temp': 24.53, 'thr3': 33.0, 'depth': 0.238, 'time': 25.02, 'thr2': 32.0, 'yaw': -10.89, 'thr0': 27.0, 'thr1': 27.0}
{'lipoC3S3': 0.0, 'datetime': '2019-03-01 10:46:32.565773', 'pitch': 1.13, 'rot1': 167, 'rot0': 304, 'rot3': 1, 'rot2': 2, 'state': 'normal', 'flw3': 0, 'flw2': 0, 'flw1': 0, 'flw0': 0, 'roll': 3.56, 'cur2': 0.4, 'cur0': 0.33, 'cur1': 0.0, 'mgs': 0, 'compass': -104.97, 'lipoC2': 0.0, 'temp': 24.53, 'thr3': 33.0, 'depth': 0.228, 'time': 25.34, 'thr2': 32.0, 'yaw': -10.89, 'thr0': 28.0, 'thr1': 27.0}
{'lipoC3S3': 0.0, 'datetime': '2019-03-01 10:46:32.885806', 'pitch': 1.18, 'rot1': 171, 'rot0': 309, 'rot3': 1, 'rot2': 2, 'state': 'normal', 'flw3': 0, 'flw2': 0, 'flw1': 0, 'flw0': 0, 'roll': 3.55, 'cur2': 0.42, 'cur0': 0.31, 'cur1': 0.0, 'mgs': 0, 'compass': -104.97, 'lipoC2': 0.0, 'temp': 24.54, 'thr3': 33.0, 'depth': 0.238, 'time': 25.66, 'thr2': 32.0, 'yaw': -10.89, 'thr0': 27.0, 'thr1': 27.0}
{'lipoC3S3': 0.0, 'datetime': '2019-03-01 10:46:33.207443', 'pitch': 1.15, 'rot1': 175, 'rot0': 315, 'rot3': 1, 'rot2': 2, 'state': 'normal', 'flw3': 0, 'flw2': 0, 'flw1': 0, 'flw0': 0, 'roll': 3.55, 'cur2': 0.4, 'cur0': 0.34, 'cur1': 0.0, 'mgs': 0, 'compass': -104.97, 'lipoC2': 0.0, 'temp': 24.54, 'thr3': 33.0, 'depth': 0.228, 'time': 25.98, 'thr2': 32.0, 'yaw': -10.89, 'thr0': 27.0, 'thr1': 27.0}
{'lipoC3S3': 0.0, 'datetime': '2019-03-01 10:46:33.537096', 'pitch': 1.14, 'rot1': 179, 'rot0': 318, 'rot3': 1, 'rot2': 2, 'state': 'normal', 'flw3': 0, 'flw2': 0, 'flw1': 0, 'flw0': 0, 'roll': 3.56, 'cur2': 0.4, 'cur0': 0.31, 'cur1': 0.0, 'mgs': 0, 'compass': -104.97, 'lipoC2': 0.0, 'temp': 24.53, 'thr3': 33.0, 'depth': 0.238, 'time': 26.3, 'thr2': 32.0, 'yaw': -10.89, 'thr0': 27.0, 'thr1': 27.0}
{'lipoC3S3': 0.0, 'datetime': '2019-03-01 10:46:33.858052', 'pitch': 1.19, 'rot1': 184, 'rot0': 324, 'rot3': 1, 'rot2': 2, 'state': 'normal', 'flw3': 0, 'flw2': 0, 'flw1': 0, 'flw0': 0, 'roll': 3.58, 'cur2': 0.44, 'cur0': 0.34, 'cur1': 0.0, 'mgs': 0, 'compass': -104.97, 'lipoC2': 0.0, 'temp': 24.54, 'thr3': 33.0, 'depth': 0.238, 'time': 26.63, 'thr2': 32.0, 'yaw': -10.89, 'thr0': 27.0, 'thr1': 27.0}
{'lipoC3S3': 0.0, 'datetime': '2019-03-01 10:46:34.180821', 'pitch': 1.17, 'rot1': 188, 'rot0': 328, 'rot3': 1, 'rot2': 2, 'state': 'normal', 'flw3': 0, 'flw2': 0, 'flw1': 0, 'flw0': 0, 'roll': 3.57, 'cur2': 0.38, 'cur0': 0.33, 'cur1': 0.0, 'mgs': 0, 'compass': -104.97, 'lipoC2': 0.0, 'temp': 24.54, 'thr3': 33.0, 'depth': 0.228, 'time': 26.95, 'thr2': 32.0, 'yaw': -10.89, 'thr0': 27.0, 'thr1': 27.0}
{'lipoC3S3': 0.0, 'datetime': '2019-03-01 10:46:34.502702', 'pitch': 1.11, 'rot1': 192, 'rot0': 333, 'rot3': 1, 'rot2': 2, 'state': 'normal', 'flw3': 0, 'flw2': 0, 'flw1': 0, 'flw0': 0, 'roll': 3.55, 'cur2': 0.4, 'cur0': 0.31, 'cur1': 0.0, 'mgs': 0, 'compass': -104.97, 'lipoC2': 0.0, 'temp': 24.53, 'thr3': 33.0, 'depth': 0.238, 'time': 27.27, 'thr2': 32.0, 'yaw': -10.89, 'thr0': 27.0, 'thr1': 27.0}
{'lipoC3S3': 0.0, 'datetime': '2019-03-01 10:46:34.824503', 'pitch': 1.24, 'rot1': 196, 'rot0': 336, 'rot3': 1, 'rot2': 2, 'state': 'normal', 'flw3': 0, 'flw2': 0, 'flw1': 0, 'flw0': 0, 'roll': 3.55, 'cur2': 0.39, 'cur0': 0.33, 'cur1': 0.0, 'mgs': 0, 'compass': -104.97, 'lipoC2': 0.0, 'temp': 24.54, 'thr3': 33.0, 'depth': 0.238, 'time': 27.59, 'thr2': 32.0, 'yaw': -10.89, 'thr0': 27.0, 'thr1': 27.0}
{'lipoC3S3': 0.0, 'datetime': '2019-03-01 10:46:35.146969', 'pitch': 1.22, 'rot1': 200, 'rot0': 340, 'rot3': 1, 'rot2': 2, 'state': 'normal', 'flw3': 0, 'flw2': 0, 'flw1': 0, 'flw0': 0, 'roll': 3.57, 'cur2': 0.39, 'cur0': 0.33, 'cur1': 0.0, 'mgs': 0, 'compass': -104.97, 'lipoC2': 0.0, 'temp': 24.54, 'thr3': 33.0, 'depth': 0.238, 'time': 27.91, 'thr2': 32.0, 'yaw': -10.89, 'thr0': 28.0, 'thr1': 27.0}
{'lipoC3S3': 0.0, 'datetime': '2019-03-01 10:46:35.468977', 'pitch': 1.24, 'rot1': 202, 'rot0': 345, 'rot3': 1, 'rot2': 2, 'state': 'normal', 'flw3': 0, 'flw2': 0, 'flw1': 0, 'flw0': 0, 'roll': 3.58, 'cur2': 0.39, 'cur0': 0.34, 'cur1': 0.0, 'mgs': 0, 'compass': -104.97, 'lipoC2': 0.0, 'temp': 24.54, 'thr3': 33.0, 'depth': 0.238, 'time': 28.23, 'thr2': 32.0, 'yaw': -10.89, 'thr0': 27.0, 'thr1': 27.0}
{'lipoC3S3': 0.0, 'datetime': '2019-03-01 10:46:35.791470', 'pitch': 1.22, 'rot1': 204, 'rot0': 349, 'rot3': 1, 'rot2': 2, 'state': 'normal', 'flw3': 0, 'flw2': 0, 'flw1': 0, 'flw0': 0, 'roll': 3.56, 'cur2': 0.42, 'cur0': 0.31, 'cur1': 0.0, 'mgs': 0, 'compass': -104.97, 'lipoC2': 0.0, 'temp': 24.53, 'thr3': 33.0, 'depth': 0.238, 'time': 28.55, 'thr2': 32.0, 'yaw': -10.89, 'thr0': 28.0, 'thr1': 27.0}
{'lipoC3S3': 0.0, 'datetime': '2019-03-01 10:46:36.107337', 'pitch': 0.99, 'rot1': 207, 'rot0': 354, 'rot3': 1, 'rot2': 2, 'state': 'normal', 'flw3': 0, 'flw2': 0, 'flw1': 0, 'flw0': 0, 'roll': 3.53, 'cur2': 0.39, 'cur0': 0.33, 'cur1': 0.0, 'mgs': 0, 'compass': -104.97, 'lipoC2': 0.0, 'temp': 24.54, 'thr3': 33.0, 'depth': 0.238, 'time': 28.87, 'thr2': 32.0, 'yaw': -10.89, 'thr0': 27.0, 'thr1': 27.0}
{'lipoC3S3': 0.0, 'datetime': '2019-03-01 10:46:36.428319', 'pitch': 1.17, 'rot1': 210, 'rot0': 357, 'rot3': 1, 'rot2': 2, 'state': 'normal', 'flw3': 0, 'flw2': 0, 'flw1': 0, 'flw0': 0, 'roll': 3.58, 'cur2': 0.39, 'cur0': 0.31, 'cur1': 0.0, 'mgs': 0, 'compass': -105.02, 'lipoC2': 0.0, 'temp': 24.54, 'thr3': 33.0, 'depth': 0.238, 'time': 29.2, 'thr2': 32.0, 'yaw': -10.94, 'thr0': 27.0, 'thr1': 27.0}
{'lipoC3S3': 0.0, 'datetime': '2019-03-01 10:46:36.757399', 'pitch': 1.14, 'rot1': 215, 'rot0': 363, 'rot3': 1, 'rot2': 2, 'state': 'normal', 'flw3': 0, 'flw2': 0, 'flw1': 0, 'flw0': 0, 'roll': 3.5, 'cur2': 0.4, 'cur0': 0.32, 'cur1': 0.0, 'mgs': 0, 'compass': -105.03, 'lipoC2': 0.0, 'temp': 24.54, 'thr3': 33.0, 'depth': 0.238, 'time': 29.52, 'thr2': 32.0, 'yaw': -10.95, 'thr0': 27.0, 'thr1': 27.0}
{'lipoC3S3': 0.0, 'datetime': '2019-03-01 10:46:37.072845', 'pitch': 1.17, 'rot1': 217, 'rot0': 368, 'rot3': 1, 'rot2': 2, 'state': 'normal', 'flw3': 0, 'flw2': 0, 'flw1': 0, 'flw0': 0, 'roll': 3.49, 'cur2': 0.38, 'cur0': 0.33, 'cur1': 0.0, 'mgs': 0, 'compass': -105.03, 'lipoC2': 0.0, 'temp': 24.53, 'thr3': 33.0, 'depth': 0.238, 'time': 29.84, 'thr2': 32.0, 'yaw': -10.95, 'thr0': 27.0, 'thr1': 27.0}
