{'lipoC2': 0.04, 'temp': 0.0, 'lipoC3S3': 11.68, 'state': 'normal', 'rot1': 0, 'rot0': 0, 'rot3': 0, 'rot2': 0, 'depth': 1.157, 'yaw': -0.01, 'datetime': '2018-12-18 20:51:13.516221', 'mgs': 0, 'flw2': 0.13, 'flw1': 0.18, 'flw0': 0.0, 'time': 1.26, 'compass': 38.38, 'pitch': 0.04, 'roll': 0.84}
{'lipoC2': 0.01, 'temp': 0.0, 'lipoC3S3': 11.96, 'state': 'normal', 'rot1': 0, 'rot0': 0, 'rot3': 0, 'rot2': 0, 'depth': -1.59, 'yaw': -0.01, 'datetime': '2018-12-18 20:51:13.725482', 'mgs': 0, 'flw2': 0.0, 'flw1': 0.38, 'flw0': 0.05, 'time': 1.47, 'compass': 38.38, 'pitch': 0.3, 'roll': 0.8}
{'lipoC2': 0.15, 'temp': 0.0, 'lipoC3S3': 11.76, 'state': 'normal', 'rot1': 0, 'rot0': 0, 'rot3': 0, 'rot2': 0, 'depth': -0.293, 'yaw': -0.18, 'datetime': '2018-12-18 20:51:13.932496', 'mgs': 0, 'flw2': 0.0, 'flw1': 0.44, 'flw0': 0.0, 'time': 1.67, 'compass': 38.2, 'pitch': 0.44, 'roll': 0.78}
{'lipoC2': 0.0, 'temp': 0.0, 'lipoC3S3': 11.81, 'state': 'normal', 'rot1': 0, 'rot0': 0, 'rot3': 0, 'rot2': 0, 'depth': -0.598, 'yaw': -0.43, 'datetime': '2018-12-18 20:51:14.140905', 'mgs': 0, 'flw2': 0.0, 'flw1': 0.44, 'flw0': 0.0, 'time': 1.88, 'compass': 37.95, 'pitch': 0.3, 'roll': 0.98}
{'lipoC2': 0.11, 'temp': 0.0, 'lipoC3S3': 11.71, 'state': 'normal', 'rot1': 0, 'rot0': 0, 'rot3': 0, 'rot2': 0, 'depth': 0.089, 'yaw': 0.34, 'datetime': '2018-12-18 20:51:14.347545', 'mgs': 0, 'flw2': 0.04, 'flw1': 0.38, 'flw0': 0.0, 'time': 2.09, 'compass': 38.72, 'pitch': 0.18, 'roll': 1.21}
{'lipoC2': 0.0, 'temp': 0.0, 'lipoC3S3': 12.04, 'state': 'normal', 'rot1': 0, 'rot0': 0, 'rot3': 0, 'rot2': 0, 'depth': 1.157, 'yaw': 0.27, 'datetime': '2018-12-18 20:51:14.556092', 'mgs': 0, 'flw2': 0.0, 'flw1': 0.0, 'flw0': 0.2, 'time': 2.29, 'compass': 38.66, 'pitch': 0.33, 'roll': 1.22}
{'lipoC2': 0.09, 'temp': 0.0, 'lipoC3S3': 11.9, 'state': 'normal', 'rot1': 0, 'rot0': 0, 'rot3': 0, 'rot2': 0, 'depth': -2.048, 'yaw': 0.06, 'datetime': '2018-12-18 20:51:14.764084', 'mgs': 0, 'flw2': 0.0, 'flw1': 0.29, 'flw0': 0.0, 'time': 2.5, 'compass': 38.44, 'pitch': 0.51, 'roll': 1.2}
{'lipoC2': 0.0, 'temp': 0.0, 'lipoC3S3': 12.06, 'state': 'normal', 'rot1': 0, 'rot0': 0, 'rot3': 0, 'rot2': 0, 'depth': 1.538, 'yaw': -0.2, 'datetime': '2018-12-18 20:51:14.973065', 'mgs': 0, 'flw2': 0.1, 'flw1': 0.26, 'flw0': 0.0, 'time': 2.71, 'compass': 38.19, 'pitch': 0.45, 'roll': 1.05}
{'lipoC2': 0.09, 'temp': 0.0, 'lipoC3S3': 11.68, 'state': 'normal', 'rot1': 0, 'rot0': 0, 'rot3': 0, 'rot2': 0, 'depth': 0.012, 'yaw': -0.44, 'datetime': '2018-12-18 20:51:15.181213', 'mgs': 0, 'flw2': 0.09, 'flw1': 0.32, 'flw0': 0.0, 'time': 2.92, 'compass': 37.95, 'pitch': 0.38, 'roll': 0.93}
{'lipoC2': 0.17, 'temp': 0.0, 'lipoC3S3': 11.81, 'state': 'normal', 'rot1': 0, 'rot0': 0, 'rot3': 0, 'rot2': 0, 'depth': 0.851, 'yaw': -0.69, 'datetime': '2018-12-18 20:51:15.389629', 'mgs': 0, 'flw2': 0.0, 'flw1': 0.47, 'flw0': 0.0, 'time': 3.13, 'compass': 37.7, 'pitch': 0.34, 'roll': 0.86}
{'lipoC2': 0.12, 'temp': 0.0, 'lipoC3S3': 11.89, 'state': 'normal', 'rot1': 0, 'rot0': 0, 'rot3': 0, 'rot2': 0, 'depth': -1.895, 'yaw': -0.9, 'datetime': '2018-12-18 20:51:15.597556', 'mgs': 0, 'flw2': 0.16, 'flw1': 0.0, 'flw0': 0.01, 'time': 3.33, 'compass': 37.49, 'pitch': 0.38, 'roll': 0.8}
{'lipoC2': 0.12, 'temp': 0.0, 'lipoC3S3': 11.89, 'state': 'normal', 'rot1': 0, 'rot0': 0, 'rot3': 0, 'rot2': 0, 'depth': 1.385, 'yaw': -0.9, 'datetime': '2018-12-18 20:51:15.804656', 'mgs': 0, 'flw2': 0.22, 'flw1': 0.0, 'flw0': 0.0, 'time': 3.54, 'compass': 37.49, 'pitch': 0.37, 'roll': 0.84}
{'lipoC2': 0.12, 'temp': 0.0, 'lipoC3S3': 11.68, 'state': 'normal', 'rot1': 0, 'rot0': 0, 'rot3': 0, 'rot2': 0, 'depth': 0.546, 'yaw': -0.51, 'datetime': '2018-12-18 20:51:16.013851', 'mgs': 0, 'flw2': 0.0, 'flw1': 0.0, 'flw0': 0.21, 'time': 3.75, 'compass': 37.88, 'pitch': 0.35, 'roll': 0.89}
{'lipoC2': 0.0, 'temp': 0.0, 'lipoC3S3': 11.87, 'state': 'normal', 'rot1': 0, 'rot0': 0, 'rot3': 0, 'rot2': 0, 'depth': 0.394, 'yaw': -0.43, 'datetime': '2018-12-18 20:51:16.221605', 'mgs': 0, 'flw2': 0.05, 'flw1': 0.0, 'flw0': 0.12, 'time': 3.96, 'compass': 37.96, 'pitch': 0.33, 'roll': 0.86}
{'lipoC2': 0.03, 'temp': 0.0, 'lipoC3S3': 11.69, 'state': 'normal', 'rot1': 0, 'rot0': 0, 'rot3': 0, 'rot2': 0, 'depth': 1.157, 'yaw': -0.47, 'datetime': '2018-12-18 20:51:16.430095', 'mgs': 0, 'flw2': 2.69, 'flw1': 0.15, 'flw0': 3.22, 'time': 4.16, 'compass': 37.92, 'pitch': 0.45, 'roll': 0.87}
{'lipoC2': 0.09, 'temp': 0.0, 'lipoC3S3': 12.05, 'state': 'normal', 'rot1': 4, 'rot0': 3, 'rot3': 0, 'rot2': 0, 'depth': 0.317, 'yaw': -2.92, 'datetime': '2018-12-18 20:51:16.637096', 'mgs': 0, 'flw2': 2.09, 'flw1': 0.59, 'flw0': 2.27, 'time': 4.37, 'compass': 35.46, 'pitch': 0.89, 'roll': 0.25}
{'lipoC2': 0.08, 'temp': 0.0, 'lipoC3S3': 11.68, 'state': 'normal', 'rot1': 7, 'rot0': 6, 'rot3': 0, 'rot2': 0, 'depth': 0.012, 'yaw': -9.14, 'datetime': '2018-12-18 20:51:16.846528', 'mgs': 0, 'flw2': 2.08, 'flw1': 0.0, 'flw0': 2.32, 'time': 4.58, 'compass': 29.24, 'pitch': 1.44, 'roll': -0.76}
{'lipoC2': 0.0, 'temp': 0.0, 'lipoC3S3': 11.83, 'state': 'normal', 'rot1': 10, 'rot0': 9, 'rot3': 0, 'rot2': 0, 'depth': 1.538, 'yaw': -18.04, 'datetime': '2018-12-18 20:51:17.051946', 'mgs': 0, 'flw2': 2.15, 'flw1': 0.0, 'flw0': 1.78, 'time': 4.79, 'compass': 20.35, 'pitch': 1.45, 'roll': -1.52}
{'lipoC2': 0.17, 'temp': 0.0, 'lipoC3S3': 11.79, 'state': 'normal', 'rot1': 13, 'rot0': 11, 'rot3': 0, 'rot2': 0, 'depth': -1.208, 'yaw': -28.19, 'datetime': '2018-12-18 20:51:17.261317', 'mgs': 0, 'flw2': 1.89, 'flw1': 0.09, 'flw0': 1.49, 'time': 5.0, 'compass': 10.2, 'pitch': 1.07, 'roll': -1.5}
{'lipoC2': 0.0, 'temp': 0.0, 'lipoC3S3': 12.12, 'state': 'normal', 'rot1': 16, 'rot0': 14, 'rot3': 0, 'rot2': 0, 'depth': 1.691, 'yaw': -38.6, 'datetime': '2018-12-18 20:51:17.469321', 'mgs': 0, 'flw2': 1.66, 'flw1': 0.0, 'flw0': 1.07, 'time': 5.21, 'compass': -0.22, 'pitch': 0.92, 'roll': -0.9}
{'lipoC2': 0.0, 'temp': 0.0, 'lipoC3S3': 12.09, 'state': 'normal', 'rot1': 18, 'rot0': 18, 'rot3': 0, 'rot2': 0, 'depth': 1.385, 'yaw': -46.99, 'datetime': '2018-12-18 20:51:17.678572', 'mgs': 0, 'flw2': 1.28, 'flw1': 0.38, 'flw0': 1.12, 'time': 5.41, 'compass': -8.61, 'pitch': 1.77, 'roll': 0.84}
{'lipoC2': 0.02, 'temp': 0.0, 'lipoC3S3': 11.68, 'state': 'normal', 'rot1': 20, 'rot0': 20, 'rot3': 0, 'rot2': 0, 'depth': -0.14, 'yaw': -55.12, 'datetime': '2018-12-18 20:51:17.888639', 'mgs': 0, 'flw2': 1.26, 'flw1': 0.0, 'flw0': 0.84, 'time': 5.62, 'compass': -16.74, 'pitch': 2.36, 'roll': 2.11}
{'lipoC2': 0.0, 'temp': 0.0, 'lipoC3S3': 12.02, 'state': 'normal', 'rot1': 22, 'rot0': 25, 'rot3': 0, 'rot2': 0, 'depth': 1.08, 'yaw': -64.14, 'datetime': '2018-12-18 20:51:18.098829', 'mgs': 0, 'flw2': 0.63, 'flw1': 0.18, 'flw0': 1.14, 'time': 5.83, 'compass': -25.76, 'pitch': 2.24, 'roll': 2.48}
{'lipoC2': 0.13, 'temp': 0.0, 'lipoC3S3': 11.67, 'state': 'normal', 'rot1': 23, 'rot0': 33, 'rot3': 0, 'rot2': 0, 'depth': 0.089, 'yaw': -73.05, 'datetime': '2018-12-18 20:51:18.307862', 'mgs': 0, 'flw2': 0.93, 'flw1': 0.0, 'flw0': 0.45, 'time': 6.04, 'compass': -34.66, 'pitch': 1.92, 'roll': 2.17}
{'lipoC2': 0.0, 'temp': 0.0, 'lipoC3S3': 12.1, 'state': 'normal', 'rot1': 25, 'rot0': 37, 'rot3': 0, 'rot2': 0, 'depth': -0.674, 'yaw': -82.45, 'datetime': '2018-12-18 20:51:18.516714', 'mgs': 0, 'flw2': 0.63, 'flw1': 0.0, 'flw0': 0.96, 'time': 6.25, 'compass': -44.07, 'pitch': 1.58, 'roll': 1.35}
{'lipoC2': 0.15, 'temp': 0.0, 'lipoC3S3': 11.87, 'state': 'normal', 'rot1': 26, 'rot0': 44, 'rot3': 0, 'rot2': 0, 'depth': -1.819, 'yaw': -91.79, 'datetime': '2018-12-18 20:51:18.725846', 'mgs': 0, 'flw2': 0.62, 'flw1': 0.0, 'flw0': 0.65, 'time': 6.46, 'compass': -53.4, 'pitch': 1.34, 'roll': 0.55}
{'lipoC2': 0.12, 'temp': 0.0, 'lipoC3S3': 11.88, 'state': 'normal', 'rot1': 27, 'rot0': 48, 'rot3': 0, 'rot2': 0, 'depth': -2.048, 'yaw': -100.59, 'datetime': '2018-12-18 20:51:18.933899', 'mgs': 0, 'flw2': 0.52, 'flw1': 0.41, 'flw0': 0.44, 'time': 6.66, 'compass': -62.2, 'pitch': 1.06, 'roll': 0.34}
{'lipoC2': 0.0, 'temp': 0.0, 'lipoC3S3': 12.08, 'state': 'normal', 'rot1': 28, 'rot0': 51, 'rot3': 0, 'rot2': 0, 'depth': -1.895, 'yaw': -108.54, 'datetime': '2018-12-18 20:51:19.144564', 'mgs': 0, 'flw2': 0.49, 'flw1': 0.09, 'flw0': 0.02, 'time': 6.87, 'compass': -70.16, 'pitch': 0.59, 'roll': 0.47}
{'lipoC2': 0.09, 'temp': 0.0, 'lipoC3S3': 11.89, 'state': 'normal', 'rot1': 29, 'rot0': 52, 'rot3': 0, 'rot2': 0, 'depth': -2.277, 'yaw': -116.36, 'datetime': '2018-12-18 20:51:19.355836', 'mgs': 0, 'flw2': 0.52, 'flw1': 0.0, 'flw0': 0.29, 'time': 7.08, 'compass': -77.98, 'pitch': 0.36, 'roll': 0.55}
{'lipoC2': 0.0, 'temp': 0.0, 'lipoC3S3': 11.71, 'state': 'normal', 'rot1': 30, 'rot0': 53, 'rot3': 0, 'rot2': 0, 'depth': 1.004, 'yaw': -124.14, 'datetime': '2018-12-18 20:51:19.561362', 'mgs': 0, 'flw2': 0.54, 'flw1': 0.0, 'flw0': 0.17, 'time': 7.29, 'compass': -85.75, 'pitch': 0.46, 'roll': 0.52}
{'lipoC2': 0.05, 'temp': 0.0, 'lipoC3S3': 11.67, 'state': 'normal', 'rot1': 32, 'rot0': 54, 'rot3': 0, 'rot2': 0, 'depth': 1.004, 'yaw': -131.16, 'datetime': '2018-12-18 20:51:19.771855', 'mgs': 0, 'flw2': 0.51, 'flw1': 0.12, 'flw0': 0.0, 'time': 7.5, 'compass': -92.77, 'pitch': 0.49, 'roll': 0.72}
{'lipoC2': 0.0, 'temp': 0.0, 'lipoC3S3': 12.05, 'state': 'normal', 'rot1': 33, 'rot0': 55, 'rot3': 0, 'rot2': 0, 'depth': 1.309, 'yaw': -132.62, 'datetime': '2018-12-18 20:51:19.980474', 'mgs': 0, 'flw2': 0.0, 'flw1': 0.18, 'flw0': 0.5, 'time': 7.71, 'compass': -94.24, 'pitch': -0.17, 'roll': 3.41}
{'lipoC2': 0.03, 'temp': 0.0, 'lipoC3S3': 11.68, 'state': 'normal', 'rot1': 34, 'rot0': 56, 'rot3': 0, 'rot2': 0, 'depth': 1.004, 'yaw': -134.74, 'datetime': '2018-12-18 20:51:20.189623', 'mgs': 0, 'flw2': 0.07, 'flw1': 0.06, 'flw0': 0.0, 'time': 7.92, 'compass': -96.35, 'pitch': 0.34, 'roll': 4.01}
{'lipoC2': 0.09, 'temp': 0.0, 'lipoC3S3': 11.9, 'state': 'normal', 'rot1': 35, 'rot0': 57, 'rot3': 0, 'rot2': 0, 'depth': -2.353, 'yaw': -137.21, 'datetime': '2018-12-18 20:51:20.398143', 'mgs': 0, 'flw2': 0.18, 'flw1': 0.5, 'flw0': 0.34, 'time': 8.13, 'compass': -98.82, 'pitch': 1.64, 'roll': 2.39}
{'lipoC2': 0.0, 'temp': 0.0, 'lipoC3S3': 12.1, 'state': 'normal', 'rot1': 37, 'rot0': 58, 'rot3': 0, 'rot2': 0, 'depth': 1.691, 'yaw': -140.28, 'datetime': '2018-12-18 20:51:20.606982', 'mgs': 0, 'flw2': 0.46, 'flw1': 0.21, 'flw0': 0.1, 'time': 8.33, 'compass': -101.9, 'pitch': 1.97, 'roll': 0.21}
{'lipoC2': 0.15, 'temp': 0.0, 'lipoC3S3': 11.72, 'state': 'normal', 'rot1': 38, 'rot0': 59, 'rot3': 0, 'rot2': 0, 'depth': 0.394, 'yaw': -143.25, 'datetime': '2018-12-18 20:51:20.831827', 'mgs': 0, 'flw2': 0.34, 'flw1': 0.0, 'flw0': 0.55, 'time': 8.54, 'compass': -104.86, 'pitch': 1.07, 'roll': -0.82}
{'lipoC2': 0.2, 'temp': 0.0, 'lipoC3S3': 11.73, 'state': 'normal', 'rot1': 40, 'rot0': 61, 'rot3': 0, 'rot2': 0, 'depth': -2.353, 'yaw': -148.39, 'datetime': '2018-12-18 20:51:21.126972', 'mgs': 0, 'flw2': 0.49, 'flw1': 0.0, 'flw0': 0.0, 'time': 8.86, 'compass': -110.01, 'pitch': 0.67, 'roll': -0.68}
{'lipoC2': 0.0, 'temp': 0.0, 'lipoC3S3': 11.92, 'state': 'normal', 'rot1': 41, 'rot0': 62, 'rot3': 0, 'rot2': 0, 'depth': 1.614, 'yaw': -151.69, 'datetime': '2018-12-18 20:51:21.336444', 'mgs': 0, 'flw2': 0.5, 'flw1': 0.38, 'flw0': 0.21, 'time': 9.07, 'compass': -113.31, 'pitch': 1.23, 'roll': 0.13}
{'lipoC2': 0.0, 'temp': 0.0, 'lipoC3S3': 11.69, 'state': 'normal', 'rot1': 42, 'rot0': 63, 'rot3': 0, 'rot2': 0, 'depth': -0.674, 'yaw': -155.82, 'datetime': '2018-12-18 20:51:21.544599', 'mgs': 0, 'flw2': 0.59, 'flw1': 0.03, 'flw0': 0.0, 'time': 9.27, 'compass': -117.43, 'pitch': 1.36, 'roll': 1.02}
{'lipoC2': 0.15, 'temp': 0.0, 'lipoC3S3': 11.69, 'state': 'normal', 'rot1': 43, 'rot0': 64, 'rot3': 0, 'rot2': 0, 'depth': 0.241, 'yaw': -160.35, 'datetime': '2018-12-18 20:51:21.759274', 'mgs': 0, 'flw2': 0.0, 'flw1': 0.0, 'flw0': 0.0, 'time': 9.48, 'compass': -121.97, 'pitch': 0.88, 'roll': 1.3}
{'lipoC2': 0.06, 'temp': 0.0, 'lipoC3S3': 11.92, 'state': 'normal', 'rot1': 43, 'rot0': 64, 'rot3': 0, 'rot2': 0, 'depth': -2.505, 'yaw': -164.79, 'datetime': '2018-12-18 20:51:21.966951', 'mgs': 0, 'flw2': 0.0, 'flw1': 0.47, 'flw0': 0.01, 'time': 9.69, 'compass': -126.41, 'pitch': 0.52, 'roll': 1.04}
{'lipoC2': 0.0, 'temp': 0.0, 'lipoC3S3': 11.71, 'state': 'normal', 'rot1': 44, 'rot0': 65, 'rot3': 0, 'rot2': 0, 'depth': 1.233, 'yaw': -168.07, 'datetime': '2018-12-18 20:51:22.178241', 'mgs': 0, 'flw2': 2.83, 'flw1': 0.09, 'flw0': 0.43, 'time': 9.9, 'compass': -129.68, 'pitch': 0.97, 'roll': 0.69}
{'lipoC2': 0.0, 'temp': 0.0, 'lipoC3S3': 12.1, 'state': 'normal', 'rot1': 45, 'rot0': 68, 'rot3': 0, 'rot2': 0, 'depth': 1.614, 'yaw': -169.59, 'datetime': '2018-12-18 20:51:22.387506', 'mgs': 0, 'flw2': 2.87, 'flw1': 0.09, 'flw0': 0.5, 'time': 10.11, 'compass': -131.21, 'pitch': 3.23, 'roll': 0.59}
{'lipoC2': 0.06, 'temp': 0.0, 'lipoC3S3': 11.93, 'state': 'normal', 'rot1': 47, 'rot0': 70, 'rot3': 0, 'rot2': 0, 'depth': -2.2, 'yaw': -169.31, 'datetime': '2018-12-18 20:51:22.596819', 'mgs': 0, 'flw2': 2.87, 'flw1': 0.0, 'flw0': 0.56, 'time': 10.32, 'compass': -130.93, 'pitch': 4.64, 'roll': 0.64}
{'lipoC2': 0.0, 'temp': 0.0, 'lipoC3S3': 11.96, 'state': 'normal', 'rot1': 48, 'rot0': 73, 'rot3': 0, 'rot2': 0, 'depth': 0.546, 'yaw': -167.61, 'datetime': '2018-12-18 20:51:22.803396', 'mgs': 0, 'flw2': 2.37, 'flw1': 0.23, 'flw0': 0.87, 'time': 10.53, 'compass': -129.23, 'pitch': 4.35, 'roll': 0.69}
{'lipoC2': 0.09, 'temp': 0.0, 'lipoC3S3': 11.89, 'state': 'normal', 'rot1': 49, 'rot0': 75, 'rot3': 0, 'rot2': 0, 'depth': 1.843, 'yaw': -164.99, 'datetime': '2018-12-18 20:51:23.016215', 'mgs': 0, 'flw2': 2.91, 'flw1': 0.0, 'flw0': 0.78, 'time': 10.74, 'compass': -126.61, 'pitch': 3.53, 'roll': 0.84}
{'lipoC2': 0.15, 'temp': 0.0, 'lipoC3S3': 11.87, 'state': 'normal', 'rot1': 50, 'rot0': 77, 'rot3': 0, 'rot2': 0, 'depth': -1.743, 'yaw': -161.94, 'datetime': '2018-12-18 20:51:23.223993', 'mgs': 0, 'flw2': 2.59, 'flw1': 0.47, 'flw0': 0.72, 'time': 10.94, 'compass': -123.56, 'pitch': 3.22, 'roll': 1.22}
{'lipoC2': 0.13, 'temp': 0.0, 'lipoC3S3': 11.89, 'state': 'normal', 'rot1': 52, 'rot0': 80, 'rot3': 0, 'rot2': 0, 'depth': -2.124, 'yaw': -158.77, 'datetime': '2018-12-18 20:51:23.432453', 'mgs': 0, 'flw2': 2.91, 'flw1': 0.0, 'flw0': 2.89, 'time': 11.15, 'compass': -120.38, 'pitch': 3.71, 'roll': 1.61}
{'lipoC2': 0.0, 'temp': 0.0, 'lipoC3S3': 12.08, 'state': 'normal', 'rot1': 55, 'rot0': 82, 'rot3': 0, 'rot2': 0, 'depth': -0.369, 'yaw': -157.2, 'datetime': '2018-12-18 20:51:23.642483', 'mgs': 0, 'flw2': 0.55, 'flw1': 0.35, 'flw0': 2.82, 'time': 11.36, 'compass': -118.81, 'pitch': 5.1, 'roll': 1.65}
{'lipoC2': 0.0, 'temp': 0.0, 'lipoC3S3': 12.09, 'state': 'normal', 'rot1': 57, 'rot0': 83, 'rot3': 0, 'rot2': 0, 'depth': 1.233, 'yaw': -157.9, 'datetime': '2018-12-18 20:51:23.851851', 'mgs': 0, 'flw2': 0.88, 'flw1': 0.0, 'flw0': 2.65, 'time': 11.57, 'compass': -119.51, 'pitch': 5.16, 'roll': 1.29}
{'lipoC2': 0.16, 'temp': 0.0, 'lipoC3S3': 11.79, 'state': 'normal', 'rot1': 59, 'rot0': 84, 'rot3': 0, 'rot2': 0, 'depth': 0.851, 'yaw': -160.56, 'datetime': '2018-12-18 20:51:24.058846', 'mgs': 0, 'flw2': 0.82, 'flw1': 0.35, 'flw0': 2.76, 'time': 11.78, 'compass': -122.18, 'pitch': 4.0, 'roll': 0.74}
{'lipoC2': 0.15, 'temp': 0.0, 'lipoC3S3': 11.87, 'state': 'normal', 'rot1': 61, 'rot0': 86, 'rot3': 0, 'rot2': 0, 'depth': -1.743, 'yaw': -163.99, 'datetime': '2018-12-18 20:51:24.268615', 'mgs': 0, 'flw2': 2.95, 'flw1': 0.47, 'flw0': 2.59, 'time': 11.99, 'compass': -125.61, 'pitch': 3.05, 'roll': 0.29}
{'lipoC2': 0.0, 'temp': 0.0, 'lipoC3S3': 11.84, 'state': 'normal', 'rot1': 64, 'rot0': 88, 'rot3': 0, 'rot2': 0, 'depth': 0.851, 'yaw': -166.96, 'datetime': '2018-12-18 20:51:24.477590', 'mgs': 0, 'flw2': 2.71, 'flw1': 0.47, 'flw0': 2.86, 'time': 12.2, 'compass': -128.58, 'pitch': 3.5, 'roll': 0.27}
{'lipoC2': 0.0, 'temp': 0.0, 'lipoC3S3': 12.1, 'state': 'normal', 'rot1': 66, 'rot0': 90, 'rot3': 0, 'rot2': 0, 'depth': 1.614, 'yaw': -168.52, 'datetime': '2018-12-18 20:51:24.685996', 'mgs': 0, 'flw2': 2.64, 'flw1': 0.0, 'flw0': 0.94, 'time': 12.41, 'compass': -130.13, 'pitch': 4.05, 'roll': 0.7}
{'lipoC2': 0.0, 'temp': 0.0, 'lipoC3S3': 11.94, 'state': 'normal', 'rot1': 67, 'rot0': 93, 'rot3': 0, 'rot2': 0, 'depth': -1.208, 'yaw': -168.05, 'datetime': '2018-12-18 20:51:24.897152', 'mgs': 0, 'flw2': 2.37, 'flw1': 0.32, 'flw0': 0.83, 'time': 12.62, 'compass': -129.67, 'pitch': 3.21, 'roll': 1.25}
{'lipoC2': 0.0, 'temp': 0.0, 'lipoC3S3': 11.97, 'state': 'normal', 'rot1': 69, 'rot0': 95, 'rot3': 0, 'rot2': 0, 'depth': 0.775, 'yaw': -166.47, 'datetime': '2018-12-18 20:51:25.106643', 'mgs': 0, 'flw2': 2.82, 'flw1': 0.0, 'flw0': 0.49, 'time': 12.83, 'compass': -128.08, 'pitch': 2.66, 'roll': 1.55}
{'lipoC2': 0.0, 'temp': 0.0, 'lipoC3S3': 11.72, 'state': 'normal', 'rot1': 70, 'rot0': 97, 'rot3': 0, 'rot2': 0, 'depth': -1.056, 'yaw': -164.24, 'datetime': '2018-12-18 20:51:25.318638', 'mgs': 0, 'flw2': 2.82, 'flw1': 0.21, 'flw0': 0.54, 'time': 13.04, 'compass': -125.85, 'pitch': 2.9, 'roll': 1.74}
{'lipoC2': 0.13, 'temp': 0.0, 'lipoC3S3': 11.88, 'state': 'normal', 'rot1': 71, 'rot0': 100, 'rot3': 0, 'rot2': 0, 'depth': -2.124, 'yaw': -161.38, 'datetime': '2018-12-18 20:51:25.528753', 'mgs': 0, 'flw2': 2.73, 'flw1': 0.0, 'flw0': 3.13, 'time': 13.24, 'compass': -123.0, 'pitch': 3.38, 'roll': 1.89}
{'lipoC2': 0.0, 'temp': 0.0, 'lipoC3S3': 11.81, 'state': 'normal', 'rot1': 72, 'rot0': 100, 'rot3': 0, 'rot2': 0, 'depth': 0.851, 'yaw': -159.39, 'datetime': '2018-12-18 20:51:25.735935', 'mgs': 0, 'flw2': 0.0, 'flw1': 0.56, 'flw0': 0.0, 'time': 13.45, 'compass': -121.0, 'pitch': 3.28, 'roll': 1.7}
{'lipoC2': 0.1, 'temp': 0.0, 'lipoC3S3': 11.65, 'state': 'normal', 'rot1': 73, 'rot0': 101, 'rot3': 0, 'rot2': 0, 'depth': 0.775, 'yaw': -158.08, 'datetime': '2018-12-18 20:51:25.939481', 'mgs': 0, 'flw2': 0.7, 'flw1': 0.0, 'flw0': 0.07, 'time': 13.66, 'compass': -119.69, 'pitch': 1.51, 'roll': 1.1}
{'lipoC2': 0.0, 'temp': 0.0, 'lipoC3S3': 11.84, 'state': 'normal', 'rot1': 74, 'rot0': 101, 'rot3': 0, 'rot2': 0, 'depth': 0.317, 'yaw': -157.73, 'datetime': '2018-12-18 20:51:26.149357', 'mgs': 0, 'flw2': 0.31, 'flw1': 0.0, 'flw0': 0.13, 'time': 13.87, 'compass': -119.35, 'pitch': 0.4, 'roll': 0.32}
{'lipoC2': 0.17, 'temp': 0.0, 'lipoC3S3': 11.83, 'state': 'normal', 'rot1': 75, 'rot0': 102, 'rot3': 0, 'rot2': 0, 'depth': -1.819, 'yaw': -158.05, 'datetime': '2018-12-18 20:51:26.360562', 'mgs': 0, 'flw2': 0.49, 'flw1': 0.32, 'flw0': 0.18, 'time': 14.08, 'compass': -119.67, 'pitch': 0.49, 'roll': -0.31}
{'lipoC2': 0.0, 'temp': 0.0, 'lipoC3S3': 11.89, 'state': 'normal', 'rot1': 76, 'rot0': 103, 'rot3': 0, 'rot2': 0, 'depth': -0.903, 'yaw': -158.78, 'datetime': '2018-12-18 20:51:26.570050', 'mgs': 0, 'flw2': 0.43, 'flw1': 0.0, 'flw0': 0.43, 'time': 14.29, 'compass': -120.39, 'pitch': 0.87, 'roll': -0.46}
{'lipoC2': 0.16, 'temp': 0.0, 'lipoC3S3': 11.79, 'state': 'normal', 'rot1': 77, 'rot0': 104, 'rot3': 0, 'rot2': 0, 'depth': -0.293, 'yaw': -159.91, 'datetime': '2018-12-18 20:51:26.781548', 'mgs': 0, 'flw2': 0.43, 'flw1': 0.38, 'flw0': 0.26, 'time': 14.5, 'compass': -121.52, 'pitch': 0.81, 'roll': -0.19}
{'lipoC2': 0.0, 'temp': 0.0, 'lipoC3S3': 12.08, 'state': 'normal', 'rot1': 78, 'rot0': 105, 'rot3': 0, 'rot2': 0, 'depth': 1.309, 'yaw': -161.51, 'datetime': '2018-12-18 20:51:26.990666', 'mgs': 0, 'flw2': 0.32, 'flw1': 0.44, 'flw0': 0.29, 'time': 14.71, 'compass': -123.12, 'pitch': 0.65, 'roll': 0.28}
{'lipoC2': 0.01, 'temp': 0.0, 'lipoC3S3': 11.72, 'state': 'normal', 'rot1': 78, 'rot0': 105, 'rot3': 0, 'rot2': 0, 'depth': -0.369, 'yaw': -163.29, 'datetime': '2018-12-18 20:51:27.201187', 'mgs': 0, 'flw2': 0.0, 'flw1': 0.06, 'flw0': 0.2, 'time': 14.92, 'compass': -124.9, 'pitch': 0.9, 'roll': 0.59}
{'lipoC2': 0.0, 'temp': 0.0, 'lipoC3S3': 12.09, 'state': 'normal', 'rot1': 79, 'rot0': 106, 'rot3': 0, 'rot2': 0, 'depth': -1.59, 'yaw': -164.86, 'datetime': '2018-12-18 20:51:27.415672', 'mgs': 0, 'flw2': 1.01, 'flw1': 0.32, 'flw0': 3.17, 'time': 15.13, 'compass': -126.47, 'pitch': 1.27, 'roll': 0.68}
{'lipoC2': 0.0, 'temp': 0.0, 'lipoC3S3': 11.87, 'state': 'normal', 'rot1': 81, 'rot0': 107, 'rot3': 0, 'rot2': 0, 'depth': 0.928, 'yaw': -167.73, 'datetime': '2018-12-18 20:51:27.626311', 'mgs': 0, 'flw2': 0.93, 'flw1': 0.0, 'flw0': 2.73, 'time': 15.34, 'compass': -129.34, 'pitch': 2.4, 'roll': 0.33}
{'lipoC2': 0.09, 'temp': 0.0, 'lipoC3S3': 11.67, 'state': 'normal', 'rot1': 83, 'rot0': 109, 'rot3': 0, 'rot2': 0, 'depth': -0.064, 'yaw': -171.88, 'datetime': '2018-12-18 20:51:27.834666', 'mgs': 0, 'flw2': 2.73, 'flw1': 0.0, 'flw0': 2.54, 'time': 15.55, 'compass': -133.49, 'pitch': 3.64, 'roll': -0.17}
{'lipoC2': 0.0, 'temp': 0.0, 'lipoC3S3': 11.97, 'state': 'normal', 'rot1': 86, 'rot0': 112, 'rot3': 0, 'rot2': 0, 'depth': 1.004, 'yaw': -176.08, 'datetime': '2018-12-18 20:51:28.142343', 'mgs': 0, 'flw2': 2.92, 'flw1': 0.0, 'flw0': 0.4, 'time': 15.86, 'compass': -137.7, 'pitch': 4.18, 'roll': -0.14}
{'lipoC2': 0.09, 'temp': 0.0, 'lipoC3S3': 11.9, 'state': 'normal', 'rot1': 87, 'rot0': 114, 'rot3': 0, 'rot2': 0, 'depth': -2.124, 'yaw': -176.43, 'datetime': '2018-12-18 20:51:28.351034', 'mgs': 0, 'flw2': 2.91, 'flw1': 0.0, 'flw0': 0.62, 'time': 16.07, 'compass': -138.04, 'pitch': 3.54, 'roll': 0.41}
{'lipoC2': 0.0, 'temp': 0.0, 'lipoC3S3': 12.06, 'state': 'normal', 'rot1': 89, 'rot0': 117, 'rot3': 0, 'rot2': 0, 'depth': 1.538, 'yaw': -175.2, 'datetime': '2018-12-18 20:51:28.561740', 'mgs': 0, 'flw2': 2.67, 'flw1': 0.47, 'flw0': 0.73, 'time': 16.28, 'compass': -136.82, 'pitch': 3.52, 'roll': 0.91}
{'lipoC2': 0.0, 'temp': 0.0, 'lipoC3S3': 12.09, 'state': 'normal', 'rot1': 90, 'rot0': 119, 'rot3': 0, 'rot2': 0, 'depth': 1.767, 'yaw': -173.0, 'datetime': '2018-12-18 20:51:28.770982', 'mgs': 0, 'flw2': 2.75, 'flw1': 0.38, 'flw0': 0.62, 'time': 16.49, 'compass': -134.61, 'pitch': 3.91, 'roll': 1.07}
{'lipoC2': 0.0, 'temp': 0.0, 'lipoC3S3': 11.73, 'state': 'normal', 'rot1': 91, 'rot0': 121, 'rot3': 0, 'rot2': 0, 'depth': -1.437, 'yaw': -170.27, 'datetime': '2018-12-18 20:51:28.982652', 'mgs': 0, 'flw2': 2.65, 'flw1': 0.0, 'flw0': 0.98, 'time': 16.7, 'compass': -131.88, 'pitch': 4.02, 'roll': 1.13}
{'lipoC2': 0.17, 'temp': 0.0, 'lipoC3S3': 11.83, 'state': 'normal', 'rot1': 93, 'rot0': 123, 'rot3': 0, 'rot2': 0, 'depth': -0.446, 'yaw': -167.19, 'datetime': '2018-12-18 20:51:29.191837', 'mgs': 0, 'flw2': 2.73, 'flw1': 0.0, 'flw0': 0.94, 'time': 16.91, 'compass': -128.8, 'pitch': 3.97, 'roll': 1.26}
{'lipoC2': 0.0, 'temp': 0.0, 'lipoC3S3': 12.04, 'state': 'normal', 'rot1': 94, 'rot0': 126, 'rot3': 0, 'rot2': 0, 'depth': 1.233, 'yaw': -164.06, 'datetime': '2018-12-18 20:51:29.399554', 'mgs': 0, 'flw2': 2.23, 'flw1': 0.15, 'flw0': 2.95, 'time': 17.11, 'compass': -125.68, 'pitch': 4.35, 'roll': 1.44}
{'lipoC2': 0.13, 'temp': 0.0, 'lipoC3S3': 11.89, 'state': 'normal', 'rot1': 97, 'rot0': 128, 'rot3': 0, 'rot2': 0, 'depth': -1.743, 'yaw': -162.41, 'datetime': '2018-12-18 20:51:29.609489', 'mgs': 0, 'flw2': 0.83, 'flw1': 0.0, 'flw0': 2.73, 'time': 17.32, 'compass': -124.02, 'pitch': 5.21, 'roll': 1.39}
{'lipoC2': 0.16, 'temp': 0.0, 'lipoC3S3': 11.81, 'state': 'normal', 'rot1': 99, 'rot0': 129, 'rot3': 0, 'rot2': 0, 'depth': 0.928, 'yaw': -162.68, 'datetime': '2018-12-18 20:51:29.819070', 'mgs': 0, 'flw2': 0.79, 'flw1': 0.35, 'flw0': 2.82, 'time': 17.53, 'compass': -124.3, 'pitch': 4.52, 'roll': 0.95}
{'lipoC2': 0.0, 'temp': 0.0, 'lipoC3S3': 12.08, 'state': 'normal', 'rot1': 102, 'rot0': 130, 'rot3': 0, 'rot2': 0, 'depth': 1.614, 'yaw': -164.69, 'datetime': '2018-12-18 20:51:30.031260', 'mgs': 0, 'flw2': 0.68, 'flw1': 0.0, 'flw0': 3.13, 'time': 17.74, 'compass': -126.31, 'pitch': 2.9, 'roll': 0.25}
{'lipoC2': 0.14, 'temp': 0.0, 'lipoC3S3': 11.69, 'state': 'normal', 'rot1': 104, 'rot0': 132, 'rot3': 0, 'rot2': 0, 'depth': 0.317, 'yaw': -167.81, 'datetime': '2018-12-18 20:51:30.241089', 'mgs': 0, 'flw2': 3.05, 'flw1': 0.29, 'flw0': 2.62, 'time': 17.95, 'compass': -129.43, 'pitch': 2.28, 'roll': -0.22}
{'lipoC2': 0.04, 'temp': 0.0, 'lipoC3S3': 11.67, 'state': 'normal', 'rot1': 107, 'rot0': 134, 'rot3': 0, 'rot2': 0, 'depth': 1.385, 'yaw': -170.47, 'datetime': '2018-12-18 20:51:30.449718', 'mgs': 0, 'flw2': 2.93, 'flw1': 0.0, 'flw0': 2.36, 'time': 18.16, 'compass': -132.09, 'pitch': 2.99, 'roll': -0.14}
{'lipoC2': 0.08, 'temp': 0.0, 'lipoC3S3': 11.92, 'state': 'normal', 'rot1': 108, 'rot0': 136, 'rot3': 0, 'rot2': 0, 'depth': 1.538, 'yaw': -172.12, 'datetime': '2018-12-18 20:51:30.659555', 'mgs': 0, 'flw2': 0.2, 'flw1': 0.0, 'flw0': 0.0, 'time': 18.37, 'compass': -133.74, 'pitch': 3.57, 'roll': 0.15}
{'lipoC2': 0.0, 'temp': 0.0, 'lipoC3S3': 12.09, 'state': 'normal', 'rot1': 108, 'rot0': 136, 'rot3': 0, 'rot2': 0, 'depth': 1.385, 'yaw': -172.97, 'datetime': '2018-12-18 20:51:30.867647', 'mgs': 0, 'flw2': 0.0, 'flw1': 0.5, 'flw0': 0.0, 'time': 18.58, 'compass': -134.58, 'pitch': 1.51, 'roll': 0.68}
{'lipoC2': 0.0, 'temp': 0.0, 'lipoC3S3': 12.12, 'state': 'normal', 'rot1': 109, 'rot0': 137, 'rot3': 0, 'rot2': 0, 'depth': 1.614, 'yaw': -173.99, 'datetime': '2018-12-18 20:51:31.075948', 'mgs': 0, 'flw2': 3.16, 'flw1': 0.09, 'flw0': 0.56, 'time': 18.79, 'compass': -135.61, 'pitch': -0.27, 'roll': 1.16}
{'lipoC2': 0.17, 'temp': 0.0, 'lipoC3S3': 11.81, 'state': 'normal', 'rot1': 110, 'rot0': 139, 'rot3': 0, 'rot2': 0, 'depth': -0.674, 'yaw': -173.87, 'datetime': '2018-12-18 20:51:31.284891', 'mgs': 0, 'flw2': 2.76, 'flw1': 0.0, 'flw0': 0.92, 'time': 19.0, 'compass': -135.48, 'pitch': 1.27, 'roll': 1.49}
{'lipoC2': 0.0, 'temp': 0.0, 'lipoC3S3': 12.09, 'state': 'normal', 'rot1': 112, 'rot0': 141, 'rot3': 0, 'rot2': 0, 'depth': 1.614, 'yaw': -172.41, 'datetime': '2018-12-18 20:51:31.497241', 'mgs': 0, 'flw2': 2.72, 'flw1': 0.38, 'flw0': 0.63, 'time': 19.21, 'compass': -134.02, 'pitch': 3.2, 'roll': 1.46}
{'lipoC2': 0.1, 'temp': 0.0, 'lipoC3S3': 12.08, 'state': 'normal', 'rot1': 114, 'rot0': 144, 'rot3': 0, 'rot2': 0, 'depth': -0.064, 'yaw': -170.13, 'datetime': '2018-12-18 20:51:31.706965', 'mgs': 0, 'flw2': 2.82, 'flw1': 0.06, 'flw0': 2.54, 'time': 19.42, 'compass': -131.74, 'pitch': 3.37, 'roll': 1.34}
{'lipoC2': 0.0, 'temp': 0.0, 'lipoC3S3': 11.94, 'state': 'normal', 'rot1': 116, 'rot0': 146, 'rot3': 0, 'rot2': 0, 'depth': -1.361, 'yaw': -168.69, 'datetime': '2018-12-18 20:51:31.918460', 'mgs': 0, 'flw2': 2.73, 'flw1': 0.0, 'flw0': 2.62, 'time': 19.63, 'compass': -130.31, 'pitch': 3.25, 'roll': 1.16}
{'lipoC2': 0.0, 'temp': 0.0, 'lipoC3S3': 11.76, 'state': 'normal', 'rot1': 119, 'rot0': 149, 'rot3': 0, 'rot2': 0, 'depth': 0.928, 'yaw': -168.28, 'datetime': '2018-12-18 20:51:32.127826', 'mgs': 0, 'flw2': 2.72, 'flw1': 0.21, 'flw0': 2.64, 'time': 19.84, 'compass': -129.9, 'pitch': 3.95, 'roll': 0.85}
{'lipoC2': 0.0, 'temp': 0.0, 'lipoC3S3': 12.12, 'state': 'normal', 'rot1': 122, 'rot0': 152, 'rot3': 0, 'rot2': 0, 'depth': -0.369, 'yaw': -168.35, 'datetime': '2018-12-18 20:51:32.334041', 'mgs': 0, 'flw2': 2.44, 'flw1': 0.03, 'flw0': 2.54, 'time': 20.05, 'compass': -129.97, 'pitch': 4.8, 'roll': 0.55}
{'lipoC2': 0.01, 'temp': 0.0, 'lipoC3S3': 11.72, 'state': 'normal', 'rot1': 125, 'rot0': 155, 'rot3': 0, 'rot2': 0, 'depth': 1.309, 'yaw': -168.66, 'datetime': '2018-12-18 20:51:32.544944', 'mgs': 0, 'flw2': 2.83, 'flw1': 0.0, 'flw0': 2.56, 'time': 20.26, 'compass': -130.28, 'pitch': 5.11, 'roll': 0.46}
{'lipoC2': 0.23, 'temp': 0.0, 'lipoC3S3': 11.73, 'state': 'normal', 'rot1': 128, 'rot0': 158, 'rot3': 0, 'rot2': 0, 'depth': -2.353, 'yaw': -169.01, 'datetime': '2018-12-18 20:51:32.754961', 'mgs': 0, 'flw2': 2.95, 'flw1': 0.0, 'flw0': 2.39, 'time': 20.47, 'compass': -130.63, 'pitch': 4.93, 'roll': 0.48}
{'lipoC2': 0.0, 'temp': 0.0, 'lipoC3S3': 11.73, 'state': 'normal', 'rot1': 130, 'rot0': 160, 'rot3': 0, 'rot2': 0, 'depth': -0.522, 'yaw': -169.37, 'datetime': '2018-12-18 20:51:32.979639', 'mgs': 0, 'flw2': 2.81, 'flw1': 0.15, 'flw0': 2.53, 'time': 20.68, 'compass': -130.98, 'pitch': 4.67, 'roll': 0.34}
{'lipoC2': 0.17, 'temp': 0.0, 'lipoC3S3': 11.77, 'state': 'normal', 'rot1': 133, 'rot0': 162, 'rot3': 0, 'rot2': 0, 'depth': -0.293, 'yaw': -169.86, 'datetime': '2018-12-18 20:51:33.187811', 'mgs': 0, 'flw2': 2.78, 'flw1': 0.32, 'flw0': 2.47, 'time': 20.89, 'compass': -131.47, 'pitch': 4.65, 'roll': 0.25}
{'lipoC2': 0.0, 'temp': 0.0, 'lipoC3S3': 12.01, 'state': 'normal', 'rot1': 135, 'rot0': 165, 'rot3': 0, 'rot2': 0, 'depth': 1.08, 'yaw': -170.35, 'datetime': '2018-12-18 20:51:33.393924', 'mgs': 0, 'flw2': 2.73, 'flw1': 0.44, 'flw0': 2.87, 'time': 21.09, 'compass': -131.96, 'pitch': 4.65, 'roll': 0.53}
{'lipoC2': 0.18, 'temp': 0.0, 'lipoC3S3': 11.84, 'state': 'normal', 'rot1': 138, 'rot0': 167, 'rot3': 0, 'rot2': 0, 'depth': -1.437, 'yaw': -170.9, 'datetime': '2018-12-18 20:51:33.606578', 'mgs': 0, 'flw2': 2.59, 'flw1': 0.5, 'flw0': 2.72, 'time': 21.3, 'compass': -132.52, 'pitch': 4.64, 'roll': 1.08}
{'lipoC2': 0.01, 'temp': 0.0, 'lipoC3S3': 11.69, 'state': 'normal', 'rot1': 138, 'rot0': 168, 'rot3': 0, 'rot2': 0, 'depth': 1.233, 'yaw': -172.13, 'datetime': '2018-12-18 20:51:33.919284', 'mgs': 0, 'flw2': 0.0, 'flw1': 0.35, 'flw0': 0.06, 'time': 21.62, 'compass': -133.74, 'pitch': 2.26, 'roll': 1.29}
{'lipoC2': 0.16, 'temp': 0.0, 'lipoC3S3': 11.79, 'state': 'normal', 'rot1': 138, 'rot0': 168, 'rot3': 0, 'rot2': 0, 'depth': -0.98, 'yaw': -173.24, 'datetime': '2018-12-18 20:51:34.222033', 'mgs': 0, 'flw2': 0.0, 'flw1': 0.47, 'flw0': 0.0, 'time': 21.93, 'compass': -134.85, 'pitch': -0.07, 'roll': 1.05}
{'lipoC2': 0.09, 'temp': 0.0, 'lipoC3S3': 11.64, 'state': 'normal', 'rot1': 138, 'rot0': 168, 'rot3': 0, 'rot2': 0, 'depth': 0.089, 'yaw': -173.89, 'datetime': '2018-12-18 20:51:34.433799', 'mgs': 0, 'flw2': 0.17, 'flw1': 0.09, 'flw0': 0.0, 'time': 22.14, 'compass': -135.5, 'pitch': 0.36, 'roll': 0.83}
{'lipoC2': 0.03, 'temp': 0.0, 'lipoC3S3': 11.68, 'state': 'normal', 'rot1': 138, 'rot0': 168, 'rot3': 0, 'rot2': 0, 'depth': -0.064, 'yaw': -174.47, 'datetime': '2018-12-18 20:51:34.642097', 'mgs': 0, 'flw2': 0.0, 'flw1': 0.0, 'flw0': 0.22, 'time': 22.35, 'compass': -136.09, 'pitch': 0.96, 'roll': 0.65}
{'lipoC2': 0.14, 'temp': 0.0, 'lipoC3S3': 11.65, 'state': 'normal', 'rot1': 138, 'rot0': 168, 'rot3': 0, 'rot2': 0, 'depth': 0.165, 'yaw': -175.01, 'datetime': '2018-12-18 20:51:34.853733', 'mgs': 0, 'flw2': 0.17, 'flw1': 0.0, 'flw0': 0.0, 'time': 22.56, 'compass': -136.62, 'pitch': 1.03, 'roll': 0.63}
{'lipoC2': 0.0, 'temp': 0.0, 'lipoC3S3': 12.09, 'state': 'normal', 'rot1': 138, 'rot0': 168, 'rot3': 0, 'rot2': 0, 'depth': 1.614, 'yaw': -175.48, 'datetime': '2018-12-18 20:51:35.066223', 'mgs': 0, 'flw2': 0.0, 'flw1': 0.0, 'flw0': 0.26, 'time': 22.77, 'compass': -137.1, 'pitch': 0.85, 'roll': 0.63}
{'lipoC2': 0.0, 'temp': 0.0, 'lipoC3S3': 12.08, 'state': 'normal', 'rot1': 138, 'rot0': 168, 'rot3': 0, 'rot2': 0, 'depth': 1.462, 'yaw': -175.84, 'datetime': '2018-12-18 20:51:35.276213', 'mgs': 0, 'flw2': 0.0, 'flw1': 0.56, 'flw0': 0.0, 'time': 22.98, 'compass': -137.45, 'pitch': 0.89, 'roll': 0.63}
{'lipoC2': 0.06, 'temp': 0.0, 'lipoC3S3': 11.92, 'state': 'normal', 'rot1': 138, 'rot0': 168, 'rot3': 0, 'rot2': 0, 'depth': -2.2, 'yaw': -176.05, 'datetime': '2018-12-18 20:51:35.485789', 'mgs': 0, 'flw2': 0.23, 'flw1': 0.0, 'flw0': 0.0, 'time': 23.19, 'compass': -137.66, 'pitch': 1.14, 'roll': 0.63}
{'lipoC2': 0.0, 'temp': 0.0, 'lipoC3S3': 12.01, 'state': 'normal', 'rot1': 138, 'rot0': 168, 'rot3': 0, 'rot2': 0, 'depth': 1.004, 'yaw': -176.06, 'datetime': '2018-12-18 20:51:35.696948', 'mgs': 0, 'flw2': 0.0, 'flw1': 0.23, 'flw0': 0.13, 'time': 23.4, 'compass': -137.67, 'pitch': 1.33, 'roll': 0.63}
{'lipoC2': 0.02, 'temp': 0.0, 'lipoC3S3': 11.69, 'state': 'normal', 'rot1': 138, 'rot0': 168, 'rot3': 0, 'rot2': 0, 'depth': -0.217, 'yaw': -176.06, 'datetime': '2018-12-18 20:51:35.905585', 'mgs': 0, 'flw2': 0.0, 'flw1': 0.12, 'flw0': 0.21, 'time': 23.61, 'compass': -137.67, 'pitch': 1.29, 'roll': 0.63}
{'lipoC2': 0.0, 'temp': 0.0, 'lipoC3S3': 11.97, 'state': 'normal', 'rot1': 138, 'rot0': 168, 'rot3': 0, 'rot2': 0, 'depth': 0.699, 'yaw': -175.89, 'datetime': '2018-12-18 20:51:36.114637', 'mgs': 0, 'flw2': 0.13, 'flw1': 0.0, 'flw0': 0.0, 'time': 23.82, 'compass': -137.5, 'pitch': 1.09, 'roll': 0.63}
{'lipoC2': 0.0, 'temp': 0.0, 'lipoC3S3': 11.8, 'state': 'normal', 'rot1': 138, 'rot0': 168, 'rot3': 0, 'rot2': 0, 'depth': -0.598, 'yaw': -175.58, 'datetime': '2018-12-18 20:51:36.329445', 'mgs': 0, 'flw2': 0.01, 'flw1': 0.44, 'flw0': 0.0, 'time': 24.03, 'compass': -137.19, 'pitch': 1.21, 'roll': 0.62}
{'lipoC2': 0.09, 'temp': 0.0, 'lipoC3S3': 11.73, 'state': 'normal', 'rot1': 139, 'rot0': 168, 'rot3': 0, 'rot2': 0, 'depth': 0.928, 'yaw': -174.85, 'datetime': '2018-12-18 20:51:36.532510', 'mgs': 0, 'flw2': 0.76, 'flw1': 0.0, 'flw0': 0.51, 'time': 24.24, 'compass': -136.47, 'pitch': 1.5, 'roll': 0.65}
{'lipoC2': 0.0, 'temp': 0.0, 'lipoC3S3': 11.68, 'state': 'normal', 'rot1': 141, 'rot0': 170, 'rot3': 0, 'rot2': 0, 'depth': 0.012, 'yaw': -172.97, 'datetime': '2018-12-18 20:51:36.740114', 'mgs': 0, 'flw2': 0.92, 'flw1': 0.0, 'flw0': 0.32, 'time': 24.45, 'compass': -134.59, 'pitch': 1.48, 'roll': 0.88}
{'lipoC2': 0.17, 'temp': 0.0, 'lipoC3S3': 11.81, 'state': 'normal', 'rot1': 143, 'rot0': 171, 'rot3': 0, 'rot2': 0, 'depth': 0.851, 'yaw': -169.88, 'datetime': '2018-12-18 20:51:36.949671', 'mgs': 0, 'flw2': 0.65, 'flw1': 0.41, 'flw0': 0.46, 'time': 24.66, 'compass': -131.49, 'pitch': 1.31, 'roll': 1.11}
{'lipoC2': 0.0, 'temp': 0.0, 'lipoC3S3': 12.05, 'state': 'normal', 'rot1': 144, 'rot0': 172, 'rot3': 0, 'rot2': 0, 'depth': 1.538, 'yaw': -165.99, 'datetime': '2018-12-18 20:51:37.164251', 'mgs': 0, 'flw2': 0.35, 'flw1': 0.0, 'flw0': 0.71, 'time': 24.86, 'compass': -127.61, 'pitch': 1.36, 'roll': 1.12}
{'lipoC2': 0.0, 'temp': 0.0, 'lipoC3S3': 12.09, 'state': 'normal', 'rot1': 145, 'rot0': 174, 'rot3': 0, 'rot2': 0, 'depth': 1.538, 'yaw': -161.58, 'datetime': '2018-12-18 20:51:37.371199', 'mgs': 0, 'flw2': 0.59, 'flw1': 0.26, 'flw0': 0.29, 'time': 25.07, 'compass': -123.2, 'pitch': 1.48, 'roll': 1.0}
{'lipoC2': 0.16, 'temp': 0.0, 'lipoC3S3': 11.69, 'state': 'normal', 'rot1': 147, 'rot0': 175, 'rot3': 0, 'rot2': 0, 'depth': 0.394, 'yaw': -156.75, 'datetime': '2018-12-18 20:51:37.581965', 'mgs': 0, 'flw2': 0.55, 'flw1': 0.15, 'flw0': 0.12, 'time': 25.28, 'compass': -118.37, 'pitch': 1.49, 'roll': 0.88}
{'lipoC2': 0.12, 'temp': 0.0, 'lipoC3S3': 11.89, 'state': 'normal', 'rot1': 148, 'rot0': 176, 'rot3': 0, 'rot2': 0, 'depth': -1.743, 'yaw': -151.77, 'datetime': '2018-12-18 20:51:37.791764', 'mgs': 0, 'flw2': 0.57, 'flw1': 0.0, 'flw0': 0.24, 'time': 25.49, 'compass': -113.38, 'pitch': 1.26, 'roll': 0.89}
{'lipoC2': 0.18, 'temp': 0.0, 'lipoC3S3': 11.8, 'state': 'normal', 'rot1': 149, 'rot0': 177, 'rot3': 0, 'rot2': 0, 'depth': 0.623, 'yaw': -147.05, 'datetime': '2018-12-18 20:51:38.002095', 'mgs': 0, 'flw2': 0.39, 'flw1': 0.41, 'flw0': 0.28, 'time': 25.7, 'compass': -108.66, 'pitch': 1.12, 'roll': 1.02}
{'lipoC2': 0.08, 'temp': 0.0, 'lipoC3S3': 11.65, 'state': 'normal', 'rot1': 150, 'rot0': 177, 'rot3': 0, 'rot2': 0, 'depth': 0.012, 'yaw': -142.06, 'datetime': '2018-12-18 20:51:38.210716', 'mgs': 0, 'flw2': 0.5, 'flw1': 0.18, 'flw0': 0.0, 'time': 25.91, 'compass': -103.68, 'pitch': 1.22, 'roll': 1.07}
{'lipoC2': 0.0, 'temp': 0.0, 'lipoC3S3': 12.08, 'state': 'normal', 'rot1': 151, 'rot0': 178, 'rot3': 0, 'rot2': 0, 'depth': 1.462, 'yaw': -137.06, 'datetime': '2018-12-18 20:51:38.420336', 'mgs': 0, 'flw2': 0.37, 'flw1': 0.5, 'flw0': 0.29, 'time': 26.12, 'compass': -98.68, 'pitch': 1.3, 'roll': 0.85}
{'lipoC2': 0.0, 'temp': 0.0, 'lipoC3S3': 12.08, 'state': 'normal', 'rot1': 152, 'rot0': 179, 'rot3': 0, 'rot2': 0, 'depth': 1.614, 'yaw': -132.05, 'datetime': '2018-12-18 20:51:38.629588', 'mgs': 0, 'flw2': 0.49, 'flw1': 0.18, 'flw0': 0.09, 'time': 26.33, 'compass': -93.66, 'pitch': 1.16, 'roll': 0.34}
{'lipoC2': 0.18, 'temp': 0.0, 'lipoC3S3': 11.81, 'state': 'normal', 'rot1': 153, 'rot0': 180, 'rot3': 0, 'rot2': 0, 'depth': -0.446, 'yaw': -126.98, 'datetime': '2018-12-18 20:51:38.840801', 'mgs': 0, 'flw2': 0.35, 'flw1': 0.47, 'flw0': 0.29, 'time': 26.54, 'compass': -88.59, 'pitch': 0.75, 'roll': -0.04}
{'lipoC2': 0.09, 'temp': 0.0, 'lipoC3S3': 11.67, 'state': 'normal', 'rot1': 154, 'rot0': 181, 'rot3': 0, 'rot2': 0, 'depth': 0.012, 'yaw': -121.83, 'datetime': '2018-12-18 20:51:39.051243', 'mgs': 0, 'flw2': 0.46, 'flw1': 0.21, 'flw0': 0.0, 'time': 26.75, 'compass': -83.45, 'pitch': 0.45, 'roll': -0.05}
{'lipoC2': 0.0, 'temp': 0.0, 'lipoC3S3': 11.73, 'state': 'normal', 'rot1': 155, 'rot0': 182, 'rot3': 0, 'rot2': 0, 'depth': 1.233, 'yaw': -116.78, 'datetime': '2018-12-18 20:51:39.262671', 'mgs': 0, 'flw2': 0.44, 'flw1': 0.32, 'flw0': 0.2, 'time': 26.96, 'compass': -78.39, 'pitch': 0.43, 'roll': 0.21}
{'lipoC2': 0.1, 'temp': 0.0, 'lipoC3S3': 11.9, 'state': 'normal', 'rot1': 156, 'rot0': 183, 'rot3': 0, 'rot2': 0, 'depth': -2.2, 'yaw': -111.31, 'datetime': '2018-12-18 20:51:39.473962', 'mgs': 0, 'flw2': 0.07, 'flw1': 0.38, 'flw0': 0.38, 'time': 27.17, 'compass': -72.93, 'pitch': 0.47, 'roll': 0.49}
{'lipoC2': 0.08, 'temp': 0.0, 'lipoC3S3': 11.67, 'state': 'normal', 'rot1': 157, 'rot0': 184, 'rot3': 0, 'rot2': 0, 'depth': -0.064, 'yaw': -105.68, 'datetime': '2018-12-18 20:51:39.678468', 'mgs': 0, 'flw2': 0.46, 'flw1': 0.21, 'flw0': 0.11, 'time': 27.38, 'compass': -67.29, 'pitch': 0.43, 'roll': 0.67}
{'lipoC2': 0.0, 'temp': 0.0, 'lipoC3S3': 11.9, 'state': 'normal', 'rot1': 158, 'rot0': 192, 'rot3': 0, 'rot2': 0, 'depth': -0.064, 'yaw': -99.88, 'datetime': '2018-12-18 20:51:39.892968', 'mgs': 0, 'flw2': 0.06, 'flw1': 0.41, 'flw0': 0.4, 'time': 27.59, 'compass': -61.49, 'pitch': 0.21, 'roll': 0.83}
{'lipoC2': 0.16, 'temp': 0.0, 'lipoC3S3': 11.84, 'state': 'normal', 'rot1': 159, 'rot0': 195, 'rot3': 0, 'rot2': 0, 'depth': -0.903, 'yaw': -93.94, 'datetime': '2018-12-18 20:51:40.100735', 'mgs': 0, 'flw2': 0.33, 'flw1': 0.44, 'flw0': 0.31, 'time': 27.8, 'compass': -55.56, 'pitch': 0.03, 'roll': 0.87}
{'lipoC2': 0.0, 'temp': 0.0, 'lipoC3S3': 12.08, 'state': 'normal', 'rot1': 159, 'rot0': 195, 'rot3': 0, 'rot2': 0, 'depth': 1.385, 'yaw': -88.11, 'datetime': '2018-12-18 20:51:40.312675', 'mgs': 0, 'flw2': 0.01, 'flw1': 0.0, 'flw0': 0.18, 'time': 28.01, 'compass': -49.72, 'pitch': -0.07, 'roll': 0.74}
{'lipoC2': 0.0, 'temp': 0.0, 'lipoC3S3': 12.02, 'state': 'normal', 'rot1': 160, 'rot0': 195, 'rot3': 0, 'rot2': 0, 'depth': 1.157, 'yaw': -83.06, 'datetime': '2018-12-18 20:51:40.519721', 'mgs': 0, 'flw2': 0.99, 'flw1': 0.0, 'flw0': 2.95, 'time': 28.22, 'compass': -44.67, 'pitch': -0.16, 'roll': 0.49}
{'lipoC2': 0.0, 'temp': 0.0, 'lipoC3S3': 11.81, 'state': 'normal', 'rot1': 162, 'rot0': 202, 'rot3': 0, 'rot2': 0, 'depth': 0.928, 'yaw': -79.6, 'datetime': '2018-12-18 20:51:40.730687', 'mgs': 0, 'flw2': 0.77, 'flw1': 0.0, 'flw0': 2.87, 'time': 28.42, 'compass': -41.21, 'pitch': 1.44, 'roll': -0.03}
{'lipoC2': 0.14, 'temp': 0.0, 'lipoC3S3': 11.88, 'state': 'normal', 'rot1': 164, 'rot0': 204, 'rot3': 0, 'rot2': 0, 'depth': -1.361, 'yaw': -78.53, 'datetime': '2018-12-18 20:51:40.936520', 'mgs': 0, 'flw2': 0.92, 'flw1': 0.0, 'flw0': 2.76, 'time': 28.63, 'compass': -40.14, 'pitch': 3.42, 'roll': -0.38}
{'lipoC2': 0.05, 'temp': 0.0, 'lipoC3S3': 12.05, 'state': 'normal', 'rot1': 167, 'rot0': 205, 'rot3': 0, 'rot2': 0, 'depth': 1.157, 'yaw': -79.24, 'datetime': '2018-12-18 20:51:41.147352', 'mgs': 0, 'flw2': 0.68, 'flw1': 0.0, 'flw0': 3.0, 'time': 28.84, 'compass': -40.85, 'pitch': 3.68, 'roll': -0.25}
{'lipoC2': 0.0, 'temp': 0.0, 'lipoC3S3': 11.8, 'state': 'normal', 'rot1': 169, 'rot0': 207, 'rot3': 0, 'rot2': 0, 'depth': -0.827, 'yaw': -81.14, 'datetime': '2018-12-18 20:51:41.357676', 'mgs': 0, 'flw2': 0.73, 'flw1': 0.41, 'flw0': 2.71, 'time': 29.05, 'compass': -42.76, 'pitch': 2.9, 'roll': 0.15}
{'lipoC2': 0.0, 'temp': 0.0, 'lipoC3S3': 11.9, 'state': 'normal', 'rot1': 171, 'rot0': 213, 'rot3': 0, 'rot2': 0, 'depth': 0.012, 'yaw': -84.21, 'datetime': '2018-12-18 20:51:41.564049', 'mgs': 0, 'flw2': 0.94, 'flw1': 0.0, 'flw0': 2.8, 'time': 29.26, 'compass': -45.83, 'pitch': 2.62, 'roll': 0.58}
{'lipoC2': 0.01, 'temp': 0.0, 'lipoC3S3': 11.97, 'state': 'normal', 'rot1': 174, 'rot0': 224, 'rot3': 0, 'rot2': 0, 'depth': -1.743, 'yaw': -88.17, 'datetime': '2018-12-18 20:51:41.774503', 'mgs': 0, 'flw2': 0.92, 'flw1': 0.0, 'flw0': 2.54, 'time': 29.47, 'compass': -49.79, 'pitch': 3.33, 'roll': 0.66}
{'lipoC2': 0.09, 'temp': 0.0, 'lipoC3S3': 11.67, 'state': 'normal', 'rot1': 176, 'rot0': 225, 'rot3': 0, 'rot2': 0, 'depth': 0.165, 'yaw': -92.79, 'datetime': '2018-12-18 20:51:41.984834', 'mgs': 0, 'flw2': 0.88, 'flw1': 0.0, 'flw0': 2.34, 'time': 29.68, 'compass': -54.41, 'pitch': 4.08, 'roll': 0.39}
{'lipoC2': 0.0, 'temp': 0.0, 'lipoC3S3': 11.96, 'state': 'normal', 'rot1': 179, 'rot0': 227, 'rot3': 0, 'rot2': 0, 'depth': 0.775, 'yaw': -97.35, 'datetime': '2018-12-18 20:51:42.193812', 'mgs': 0, 'flw2': 2.37, 'flw1': 0.44, 'flw0': 2.87, 'time': 29.89, 'compass': -58.96, 'pitch': 4.37, 'roll': 0.16}
{'lipoC2': 0.16, 'temp': 0.0, 'lipoC3S3': 11.73, 'state': 'normal', 'rot1': 181, 'rot0': 230, 'rot3': 0, 'rot2': 0, 'depth': 0.47, 'yaw': -100.25, 'datetime': '2018-12-18 20:51:42.405166', 'mgs': 0, 'flw2': 2.66, 'flw1': 0.29, 'flw0': 0.44, 'time': 30.1, 'compass': -61.86, 'pitch': 4.99, 'roll': 0.06}
{'lipoC2': 0.1, 'temp': 0.0, 'lipoC3S3': 11.9, 'state': 'normal', 'rot1': 182, 'rot0': 232, 'rot3': 0, 'rot2': 0, 'depth': -2.124, 'yaw': -101.23, 'datetime': '2018-12-18 20:51:42.615777', 'mgs': 0, 'flw2': 2.43, 'flw1': 0.44, 'flw0': 0.73, 'time': 30.31, 'compass': -62.85, 'pitch': 4.91, 'roll': 0.14}
{'lipoC2': 0.15, 'temp': 0.0, 'lipoC3S3': 11.88, 'state': 'normal', 'rot1': 183, 'rot0': 234, 'rot3': 0, 'rot2': 0, 'depth': -1.056, 'yaw': -100.35, 'datetime': '2018-12-18 20:51:42.824206', 'mgs': 0, 'flw2': 0.18, 'flw1': 0.0, 'flw0': 0.01, 'time': 30.51, 'compass': -61.96, 'pitch': 4.14, 'roll': 0.39}
{'lipoC2': 0.03, 'temp': 0.0, 'lipoC3S3': 12.02, 'state': 'normal', 'rot1': 183, 'rot0': 234, 'rot3': 0, 'rot2': 0, 'depth': 1.157, 'yaw': -99.52, 'datetime': '2018-12-18 20:51:43.032968', 'mgs': 0, 'flw2': 0.18, 'flw1': 0.06, 'flw0': 0.0, 'time': 30.73, 'compass': -61.13, 'pitch': 2.21, 'roll': 0.78}
{'lipoC2': 0.0, 'temp': 0.0, 'lipoC3S3': 11.72, 'state': 'normal', 'rot1': 184, 'rot0': 243, 'rot3': 0, 'rot2': 0, 'depth': -0.903, 'yaw': -99.09, 'datetime': '2018-12-18 20:51:43.236750', 'mgs': 0, 'flw2': 0.49, 'flw1': 0.23, 'flw0': 0.13, 'time': 30.93, 'compass': -60.7, 'pitch': 0.88, 'roll': 1.15}
{'lipoC2': 0.1, 'temp': 0.0, 'lipoC3S3': 11.89, 'state': 'normal', 'rot1': 185, 'rot0': 249, 'rot3': 0, 'rot2': 0, 'depth': -2.353, 'yaw': -98.4, 'datetime': '2018-12-18 20:51:43.445123', 'mgs': 0, 'flw2': 0.55, 'flw1': 0.0, 'flw0': 0.31, 'time': 31.14, 'compass': -60.01, 'pitch': 0.94, 'roll': 1.37}
{'lipoC2': 0.0, 'temp': 0.0, 'lipoC3S3': 11.87, 'state': 'normal', 'rot1': 187, 'rot0': 253, 'rot3': 0, 'rot2': 0, 'depth': 0.089, 'yaw': -97.51, 'datetime': '2018-12-18 20:51:43.654458', 'mgs': 0, 'flw2': 0.5, 'flw1': 0.0, 'flw0': 0.43, 'time': 31.35, 'compass': -59.12, 'pitch': 1.27, 'roll': 1.29}
{'lipoC2': 0.0, 'temp': 0.0, 'lipoC3S3': 12.05, 'state': 'normal', 'rot1': 188, 'rot0': 259, 'rot3': 0, 'rot2': 0, 'depth': 1.309, 'yaw': -96.41, 'datetime': '2018-12-18 20:51:43.862951', 'mgs': 0, 'flw2': 0.01, 'flw1': 0.15, 'flw0': 0.56, 'time': 31.56, 'compass': -58.03, 'pitch': 0.93, 'roll': 0.91}
{'lipoC2': 0.14, 'temp': 0.0, 'lipoC3S3': 11.71, 'state': 'normal', 'rot1': 189, 'rot0': 262, 'rot3': 0, 'rot2': 0, 'depth': 0.241, 'yaw': -95.04, 'datetime': '2018-12-18 20:51:44.078576', 'mgs': 0, 'flw2': 0.5, 'flw1': 0.12, 'flw0': 0.06, 'time': 31.77, 'compass': -56.65, 'pitch': 0.36, 'roll': 0.67}
{'lipoC2': 0.0, 'temp': 0.0, 'lipoC3S3': 12.09, 'state': 'normal', 'rot1': 190, 'rot0': 262, 'rot3': 0, 'rot2': 0, 'depth': 1.309, 'yaw': -93.35, 'datetime': '2018-12-18 20:51:44.290335', 'mgs': 0, 'flw2': 0.29, 'flw1': 0.0, 'flw0': 0.61, 'time': 31.98, 'compass': -54.97, 'pitch': 0.37, 'roll': 0.66}
{'lipoC2': 0.0, 'temp': 0.0, 'lipoC3S3': 11.94, 'state': 'normal', 'rot1': 191, 'rot0': 263, 'rot3': 0, 'rot2': 0, 'depth': 0.546, 'yaw': -91.42, 'datetime': '2018-12-18 20:51:44.497846', 'mgs': 0, 'flw2': 0.0, 'flw1': 0.32, 'flw0': 0.44, 'time': 32.19, 'compass': -53.03, 'pitch': 0.82, 'roll': 0.64}
{'lipoC2': 0.14, 'temp': 0.0, 'lipoC3S3': 11.71, 'state': 'normal', 'rot1': 192, 'rot0': 267, 'rot3': 0, 'rot2': 0, 'depth': 0.241, 'yaw': -89.02, 'datetime': '2018-12-18 20:51:44.707950', 'mgs': 0, 'flw2': 0.44, 'flw1': 0.29, 'flw0': 0.17, 'time': 32.4, 'compass': -50.64, 'pitch': 1.02, 'roll': 0.68}
{'lipoC2': 0.11, 'temp': 0.0, 'lipoC3S3': 11.89, 'state': 'normal', 'rot1': 192, 'rot0': 268, 'rot3': 0, 'rot2': 0, 'depth': -2.124, 'yaw': -86.49, 'datetime': '2018-12-18 20:51:44.920040', 'mgs': 0, 'flw2': 0.0, 'flw1': 0.35, 'flw0': 0.0, 'time': 32.6, 'compass': -48.11, 'pitch': 0.59, 'roll': 0.73}
{'lipoC2': 0.1, 'temp': 0.0, 'lipoC3S3': 11.64, 'state': 'normal', 'rot1': 192, 'rot0': 268, 'rot3': 0, 'rot2': 0, 'depth': 0.699, 'yaw': -84.27, 'datetime': '2018-12-18 20:51:45.130466', 'mgs': 0, 'flw2': 0.24, 'flw1': 0.0, 'flw0': 0.0, 'time': 32.81, 'compass': -45.89, 'pitch': 0.08, 'roll': 0.72}
{'lipoC2': 0.01, 'temp': 0.0, 'lipoC3S3': 11.96, 'state': 'normal', 'rot1': 192, 'rot0': 270, 'rot3': 0, 'rot2': 0, 'depth': -1.743, 'yaw': -82.28, 'datetime': '2018-12-18 20:51:45.339399', 'mgs': 0, 'flw2': 0.0, 'flw1': 0.41, 'flw0': 0.04, 'time': 33.02, 'compass': -43.89, 'pitch': 0.22, 'roll': 0.63}
{'lipoC2': 0.06, 'temp': 0.0, 'lipoC3S3': 11.92, 'state': 'normal', 'rot1': 194, 'rot0': 273, 'rot3': 0, 'rot2': 0, 'depth': -2.124, 'yaw': -80.58, 'datetime': '2018-12-18 20:51:45.549262', 'mgs': 0, 'flw2': 3.02, 'flw1': 0.0, 'flw0': 2.7, 'time': 33.23, 'compass': -42.2, 'pitch': 1.39, 'roll': 0.42}
{'lipoC2': 0.0, 'temp': 0.0, 'lipoC3S3': 12.1, 'state': 'normal', 'rot1': 196, 'rot0': 276, 'rot3': 0, 'rot2': 0, 'depth': 1.462, 'yaw': -79.19, 'datetime': '2018-12-18 20:51:45.758817', 'mgs': 0, 'flw2': 2.72, 'flw1': 0.0, 'flw0': 3.04, 'time': 33.44, 'compass': -40.8, 'pitch': 4.47, 'roll': 0.45}
{'lipoC2': 0.0, 'temp': 0.0, 'lipoC3S3': 12.01, 'state': 'normal', 'rot1': 199, 'rot0': 278, 'rot3': 0, 'rot2': 0, 'depth': -2.429, 'yaw': -78.24, 'datetime': '2018-12-18 20:51:45.967726', 'mgs': 0, 'flw2': 2.34, 'flw1': 0.5, 'flw0': 2.86, 'time': 33.65, 'compass': -39.86, 'pitch': 5.69, 'roll': 0.82}
{'lipoC2': 0.01, 'temp': 0.0, 'lipoC3S3': 11.68, 'state': 'normal', 'rot1': 204, 'rot0': 281, 'rot3': 0, 'rot2': 0, 'depth': 1.309, 'yaw': -79.0, 'datetime': '2018-12-18 20:51:46.271221', 'mgs': 0, 'flw2': 0.35, 'flw1': 0.29, 'flw0': 2.88, 'time': 33.96, 'compass': -40.61, 'pitch': 4.0, 'roll': 1.07}
{'lipoC2': 0.15, 'temp': 0.0, 'lipoC3S3': 11.84, 'state': 'normal', 'rot1': 207, 'rot0': 286, 'rot3': 0, 'rot2': 0, 'depth': -2.811, 'yaw': -81.06, 'datetime': '2018-12-18 20:51:46.480970', 'mgs': 0, 'flw2': 2.86, 'flw1': 0.09, 'flw0': 2.44, 'time': 34.17, 'compass': -42.67, 'pitch': 3.41, 'roll': 0.94}
{'lipoC2': 0.09, 'temp': 0.0, 'lipoC3S3': 11.98, 'state': 'normal', 'rot1': 210, 'rot0': 289, 'rot3': 0, 'rot2': 0, 'depth': 1.843, 'yaw': -82.5, 'datetime': '2018-12-18 20:51:46.694271', 'mgs': 0, 'flw2': 2.5, 'flw1': 0.7, 'flw0': 2.82, 'time': 34.38, 'compass': -44.11, 'pitch': 4.91, 'roll': 0.87}
{'lipoC2': 0.02, 'temp': 0.0, 'lipoC3S3': 11.69, 'state': 'normal', 'rot1': 212, 'rot0': 292, 'rot3': 0, 'rot2': 0, 'depth': 1.462, 'yaw': -83.47, 'datetime': '2018-12-18 20:51:46.911560', 'mgs': 0, 'flw2': 2.83, 'flw1': 0.0, 'flw0': 2.53, 'time': 34.59, 'compass': -45.08, 'pitch': 5.91, 'roll': 0.86}
{'lipoC2': 0.18, 'temp': 0.0, 'lipoC3S3': 11.8, 'state': 'normal', 'rot1': 214, 'rot0': 298, 'rot3': 0, 'rot2': 0, 'depth': 0.623, 'yaw': -84.17, 'datetime': '2018-12-18 20:51:47.119997', 'mgs': 0, 'flw2': 2.67, 'flw1': 0.0, 'flw0': 2.92, 'time': 34.8, 'compass': -45.79, 'pitch': 5.62, 'roll': 0.93}
{'lipoC2': 0.19, 'temp': 0.0, 'lipoC3S3': 11.79, 'state': 'normal', 'rot1': 216, 'rot0': 301, 'rot3': 0, 'rot2': 0, 'depth': -0.827, 'yaw': -84.88, 'datetime': '2018-12-18 20:51:47.330061', 'mgs': 0, 'flw2': 2.67, 'flw1': 0.47, 'flw0': 2.69, 'time': 35.01, 'compass': -46.49, 'pitch': 4.88, 'roll': 0.99}
{'lipoC2': 0.16, 'temp': 0.0, 'lipoC3S3': 11.84, 'state': 'normal', 'rot1': 219, 'rot0': 303, 'rot3': 0, 'rot2': 0, 'depth': -1.132, 'yaw': -85.74, 'datetime': '2018-12-18 20:51:47.537697', 'mgs': 0, 'flw2': 2.71, 'flw1': 0.59, 'flw0': 2.82, 'time': 35.22, 'compass': -47.35, 'pitch': 4.51, 'roll': 1.06}
{'lipoC2': 0.1, 'temp': 0.0, 'lipoC3S3': 11.65, 'state': 'normal', 'rot1': 221, 'rot0': 312, 'rot3': 0, 'rot2': 0, 'depth': -0.064, 'yaw': -86.68, 'datetime': '2018-12-18 20:51:47.747782', 'mgs': 0, 'flw2': 0.1, 'flw1': 0.35, 'flw0': 0.0, 'time': 35.43, 'compass': -48.29, 'pitch': 4.18, 'roll': 1.09}
{'lipoC2': 0.08, 'temp': 0.0, 'lipoC3S3': 11.67, 'state': 'normal', 'rot1': 221, 'rot0': 313, 'rot3': 0, 'rot2': 0, 'depth': -0.064, 'yaw': -87.57, 'datetime': '2018-12-18 20:51:47.956693', 'mgs': 0, 'flw2': 0.09, 'flw1': 0.35, 'flw0': 0.0, 'time': 35.64, 'compass': -49.19, 'pitch': 1.62, 'roll': 1.06}
{'lipoC2': 0.0, 'temp': 0.0, 'lipoC3S3': 11.79, 'state': 'normal', 'rot1': 221, 'rot0': 315, 'rot3': 0, 'rot2': 0, 'depth': -0.674, 'yaw': -88.33, 'datetime': '2018-12-18 20:51:48.158941', 'mgs': 0, 'flw2': 2.39, 'flw1': 0.38, 'flw0': 0.84, 'time': 35.85, 'compass': -49.94, 'pitch': -0.29, 'roll': 0.9}
{'lipoC2': 0.1, 'temp': 0.0, 'lipoC3S3': 11.65, 'state': 'normal', 'rot1': 222, 'rot0': 317, 'rot3': 0, 'rot2': 0, 'depth': 0.012, 'yaw': -88.45, 'datetime': '2018-12-18 20:51:48.368316', 'mgs': 0, 'flw2': 2.8, 'flw1': 0.0, 'flw0': 0.35, 'time': 36.06, 'compass': -50.06, 'pitch': 0.3, 'roll': 0.71}
{'lipoC2': 0.02, 'temp': 0.0, 'lipoC3S3': 11.96, 'state': 'normal', 'rot1': 224, 'rot0': 322, 'rot3': 0, 'rot2': 0, 'depth': 1.691, 'yaw': -86.86, 'datetime': '2018-12-18 20:51:48.576608', 'mgs': 0, 'flw2': 2.25, 'flw1': 0.38, 'flw0': 0.79, 'time': 36.26, 'compass': -48.47, 'pitch': 2.21, 'roll': 0.72}
{'lipoC2': 0.04, 'temp': 0.0, 'lipoC3S3': 11.68, 'state': 'normal', 'rot1': 226, 'rot0': 326, 'rot3': 0, 'rot2': 0, 'depth': 0.241, 'yaw': -84.22, 'datetime': '2018-12-18 20:51:48.786100', 'mgs': 0, 'flw2': 2.42, 'flw1': 0.15, 'flw0': 3.05, 'time': 36.47, 'compass': -45.83, 'pitch': 2.65, 'roll': 1.07}
{'lipoC2': 0.02, 'temp': 0.0, 'lipoC3S3': 11.71, 'state': 'normal', 'rot1': 229, 'rot0': 332, 'rot3': 0, 'rot2': 0, 'depth': 1.462, 'yaw': -82.28, 'datetime': '2018-12-18 20:51:49.004774', 'mgs': 0, 'flw2': 2.48, 'flw1': 0.0, 'flw0': 2.47, 'time': 36.68, 'compass': -43.89, 'pitch': 2.8, 'roll': 1.39}
{'lipoC2': 0.0, 'temp': 0.0, 'lipoC3S3': 11.88, 'state': 'normal', 'rot1': 231, 'rot0': 335, 'rot3': 0, 'rot2': 0, 'depth': 0.012, 'yaw': -81.55, 'datetime': '2018-12-18 20:51:49.214274', 'mgs': 0, 'flw2': 0.88, 'flw1': 0.0, 'flw0': 2.75, 'time': 36.89, 'compass': -43.16, 'pitch': 3.23, 'roll': 1.36}
{'lipoC2': 0.1, 'temp': 0.0, 'lipoC3S3': 12.06, 'state': 'normal', 'rot1': 233, 'rot0': 339, 'rot3': 0, 'rot2': 0, 'depth': 0.012, 'yaw': -83.0, 'datetime': '2018-12-18 20:51:49.424227', 'mgs': 0, 'flw2': 0.68, 'flw1': 0.0, 'flw0': 3.11, 'time': 37.1, 'compass': -44.61, 'pitch': 3.15, 'roll': 0.79}
{'lipoC2': 0.08, 'temp': 0.0, 'lipoC3S3': 11.9, 'state': 'normal', 'rot1': 236, 'rot0': 341, 'rot3': 0, 'rot2': 0, 'depth': -2.124, 'yaw': -85.87, 'datetime': '2018-12-18 20:51:49.632960', 'mgs': 0, 'flw2': 0.6, 'flw1': 0.44, 'flw0': 2.84, 'time': 37.31, 'compass': -47.49, 'pitch': 2.98, 'roll': 0.14}
{'lipoC2': 0.14, 'temp': 0.0, 'lipoC3S3': 11.64, 'state': 'normal', 'rot1': 238, 'rot0': 343, 'rot3': 0, 'rot2': 0, 'depth': 0.775, 'yaw': -89.29, 'datetime': '2018-12-18 20:51:49.841443', 'mgs': 0, 'flw2': 2.84, 'flw1': 0.0, 'flw0': 2.38, 'time': 37.52, 'compass': -50.9, 'pitch': 3.26, 'roll': -0.1}
{'lipoC2': 0.0, 'temp': 0.0, 'lipoC3S3': 11.87, 'state': 'normal', 'rot1': 240, 'rot0': 349, 'rot3': 0, 'rot2': 0, 'depth': 0.775, 'yaw': -91.66, 'datetime': '2018-12-18 20:51:50.051356', 'mgs': 0, 'flw2': 2.86, 'flw1': 0.0, 'flw0': 0.73, 'time': 37.73, 'compass': -53.28, 'pitch': 4.2, 'roll': 0.17}
{'lipoC2': 0.16, 'temp': 0.0, 'lipoC3S3': 11.8, 'state': 'normal', 'rot1': 241, 'rot0': 354, 'rot3': 0, 'rot2': 0, 'depth': -0.903, 'yaw': -92.34, 'datetime': '2018-12-18 20:51:50.262291', 'mgs': 0, 'flw2': 2.61, 'flw1': 0.26, 'flw0': 0.54, 'time': 37.94, 'compass': -53.95, 'pitch': 4.16, 'roll': 0.78}
{'lipoC2': 0.16, 'temp': 0.0, 'lipoC3S3': 11.83, 'state': 'normal', 'rot1': 242, 'rot0': 357, 'rot3': 0, 'rot2': 0, 'depth': -1.132, 'yaw': -91.41, 'datetime': '2018-12-18 20:51:50.471380', 'mgs': 0, 'flw2': 0.0, 'flw1': 0.5, 'flw0': 0.0, 'time': 38.15, 'compass': -53.03, 'pitch': 3.44, 'roll': 1.47}
{'lipoC2': 0.16, 'temp': 0.0, 'lipoC3S3': 11.83, 'state': 'normal', 'rot1': 242, 'rot0': 357, 'rot3': 0, 'rot2': 0, 'depth': 0.851, 'yaw': -90.58, 'datetime': '2018-12-18 20:51:50.680162', 'mgs': 0, 'flw2': 0.0, 'flw1': 0.5, 'flw0': 0.0, 'time': 38.35, 'compass': -52.19, 'pitch': 1.8, 'roll': 1.83}
{'lipoC2': 0.11, 'temp': 0.0, 'lipoC3S3': 12.08, 'state': 'normal', 'rot1': 242, 'rot0': 357, 'rot3': 0, 'rot2': 0, 'depth': 0.012, 'yaw': -90.22, 'datetime': '2018-12-18 20:51:50.889449', 'mgs': 0, 'flw2': 0.0, 'flw1': 0.18, 'flw0': 0.22, 'time': 38.56, 'compass': -51.83, 'pitch': 0.58, 'roll': 1.63}
{'lipoC2': 0.0, 'temp': 0.0, 'lipoC3S3': 12.12, 'state': 'normal', 'rot1': 245, 'rot0': 368, 'rot3': 0, 'rot2': 0, 'depth': 1.767, 'yaw': -90.2, 'datetime': '2018-12-18 20:51:51.194450', 'mgs': 0, 'flw2': 2.4, 'flw1': 0.23, 'flw0': 2.95, 'time': 38.88, 'compass': -51.82, 'pitch': 2.25, 'roll': 0.7}
{'lipoC2': 0.03, 'temp': 0.0, 'lipoC3S3': 11.69, 'state': 'normal', 'rot1': 248, 'rot0': 382, 'rot3': 0, 'rot2': 0, 'depth': 0.241, 'yaw': -90.58, 'datetime': '2018-12-18 20:51:51.402715', 'mgs': 0, 'flw2': 2.97, 'flw1': 0.0, 'flw0': 2.55, 'time': 39.09, 'compass': -52.2, 'pitch': 4.53, 'roll': 0.38}
{'lipoC2': 0.0, 'temp': 0.0, 'lipoC3S3': 11.88, 'state': 'normal', 'rot1': 250, 'rot0': 385, 'rot3': 0, 'rot2': 0, 'depth': 0.089, 'yaw': -90.94, 'datetime': '2018-12-18 20:51:51.614242', 'mgs': 0, 'flw2': 2.8, 'flw1': 0.0, 'flw0': 2.82, 'time': 39.3, 'compass': -52.56, 'pitch': 4.58, 'roll': 0.41}
{'lipoC2': 0.0, 'temp': 0.0, 'lipoC3S3': 11.9, 'state': 'normal', 'rot1': 253, 'rot0': 389, 'rot3': 0, 'rot2': 0, 'depth': -0.217, 'yaw': -91.48, 'datetime': '2018-12-18 20:51:51.829876', 'mgs': 0, 'flw2': 2.76, 'flw1': 0.0, 'flw0': 2.65, 'time': 39.51, 'compass': -53.1, 'pitch': 3.77, 'roll': 0.49}
{'lipoC2': 0.05, 'temp': 0.0, 'lipoC3S3': 11.67, 'state': 'normal', 'rot1': 255, 'rot0': 398, 'rot3': 0, 'rot2': 0, 'depth': -0.064, 'yaw': -92.14, 'datetime': '2018-12-18 20:51:52.039181', 'mgs': 0, 'flw2': 2.62, 'flw1': 0.0, 'flw0': 3.03, 'time': 39.72, 'compass': -53.75, 'pitch': 3.74, 'roll': 0.27}
{'lipoC2': 0.12, 'temp': 0.0, 'lipoC3S3': 11.68, 'state': 'normal', 'rot1': 257, 'rot0': 403, 'rot3': 0, 'rot2': 0, 'depth': 0.089, 'yaw': -92.68, 'datetime': '2018-12-18 20:51:52.249501', 'mgs': 0, 'flw2': 2.72, 'flw1': 0.15, 'flw0': 2.51, 'time': 39.92, 'compass': -54.29, 'pitch': 4.59, 'roll': 0.04}
{'lipoC2': 0.0, 'temp': 0.0, 'lipoC3S3': 12.06, 'state': 'normal', 'rot1': 260, 'rot0': 406, 'rot3': 0, 'rot2': 0, 'depth': -0.14, 'yaw': -93.02, 'datetime': '2018-12-18 20:51:52.456165', 'mgs': 0, 'flw2': 2.78, 'flw1': 0.0, 'flw0': 2.76, 'time': 40.13, 'compass': -54.63, 'pitch': 5.51, 'roll': 0.04}
{'lipoC2': 0.0, 'temp': 0.0, 'lipoC3S3': 12.08, 'state': 'normal', 'rot1': 261, 'rot0': 408, 'rot3': 0, 'rot2': 0, 'depth': 1.614, 'yaw': -93.34, 'datetime': '2018-12-18 20:51:52.667697', 'mgs': 0, 'flw2': 0.09, 'flw1': 0.35, 'flw0': 0.0, 'time': 40.34, 'compass': -54.96, 'pitch': 4.88, 'roll': 0.21}
{'lipoC2': 0.12, 'temp': 0.0, 'lipoC3S3': 11.89, 'state': 'normal', 'rot1': 261, 'rot0': 408, 'rot3': 0, 'rot2': 0, 'depth': -2.277, 'yaw': -93.64, 'datetime': '2018-12-18 20:51:52.873645', 'mgs': 0, 'flw2': 0.0, 'flw1': 0.38, 'flw0': 0.0, 'time': 40.55, 'compass': -55.25, 'pitch': 1.78, 'roll': 0.59}
{'lipoC2': 0.0, 'temp': 0.0, 'lipoC3S3': 11.97, 'state': 'normal', 'rot1': 261, 'rot0': 409, 'rot3': 0, 'rot2': 0, 'depth': 0.699, 'yaw': -93.72, 'datetime': '2018-12-18 20:51:53.082590', 'mgs': 0, 'flw2': 0.0, 'flw1': 0.0, 'flw0': 0.0, 'time': 40.76, 'compass': -55.33, 'pitch': 0.15, 'roll': 1.01}
{'lipoC2': 0.05, 'temp': 0.0, 'lipoC3S3': 11.67, 'state': 'normal', 'rot1': 261, 'rot0': 409, 'rot3': 0, 'rot2': 0, 'depth': 1.08, 'yaw': -93.74, 'datetime': '2018-12-18 20:51:53.291451', 'mgs': 0, 'flw2': 0.15, 'flw1': 0.18, 'flw0': 0.0, 'time': 40.97, 'compass': -55.36, 'pitch': 0.47, 'roll': 1.24}
{'lipoC2': 0.17, 'temp': 0.0, 'lipoC3S3': 11.77, 'state': 'normal', 'rot1': 261, 'rot0': 410, 'rot3': 0, 'rot2': 0, 'depth': 0.394, 'yaw': -93.88, 'datetime': '2018-12-18 20:51:53.501214', 'mgs': 0, 'flw2': 0.07, 'flw1': 0.0, 'flw0': 0.12, 'time': 41.18, 'compass': -55.49, 'pitch': 1.01, 'roll': 1.06}
{'lipoC2': 0.0, 'temp': 0.0, 'lipoC3S3': 11.87, 'state': 'normal', 'rot1': 261, 'rot0': 412, 'rot3': 0, 'rot2': 0, 'depth': 0.394, 'yaw': -94.1, 'datetime': '2018-12-18 20:51:53.708762', 'mgs': 0, 'flw2': 0.17, 'flw1': 0.0, 'flw0': 0.05, 'time': 41.38, 'compass': -55.71, 'pitch': 0.97, 'roll': 0.67}
{'lipoC2': 0.03, 'temp': 0.0, 'lipoC3S3': 11.68, 'state': 'normal', 'rot1': 261, 'rot0': 412, 'rot3': 0, 'rot2': 0, 'depth': -0.217, 'yaw': -94.35, 'datetime': '2018-12-18 20:51:53.922077', 'mgs': 0, 'flw2': 0.0, 'flw1': 0.0, 'flw0': 0.23, 'time': 41.59, 'compass': -55.97, 'pitch': 0.6, 'roll': 0.38}
{'lipoC2': 0.01, 'temp': 0.0, 'lipoC3S3': 11.69, 'state': 'normal', 'rot1': 261, 'rot0': 412, 'rot3': 0, 'rot2': 0, 'depth': 1.233, 'yaw': -94.53, 'datetime': '2018-12-18 20:51:54.128008', 'mgs': 0, 'flw2': 0.0, 'flw1': 0.23, 'flw0': 0.13, 'time': 41.8, 'compass': -56.14, 'pitch': 0.38, 'roll': 0.32}
{'lipoC2': 0.1, 'temp': 0.0, 'lipoC3S3': 11.88, 'state': 'normal', 'rot1': 261, 'rot0': 413, 'rot3': 0, 'rot2': 0, 'depth': 1.843, 'yaw': -94.66, 'datetime': '2018-12-18 20:51:54.339684', 'mgs': 0, 'flw2': 0.12, 'flw1': 0.0, 'flw0': 0.06, 'time': 42.01, 'compass': -56.28, 'pitch': 0.46, 'roll': 0.32}
{'lipoC2': 0.02, 'temp': 0.0, 'lipoC3S3': 12.01, 'state': 'normal', 'rot1': 261, 'rot0': 414, 'rot3': 0, 'rot2': 0, 'depth': 1.233, 'yaw': -94.68, 'datetime': '2018-12-18 20:51:54.549943', 'mgs': 0, 'flw2': 0.0, 'flw1': 0.18, 'flw0': 0.17, 'time': 42.22, 'compass': -56.29, 'pitch': 0.78, 'roll': 0.37}
{'lipoC2': 0.1, 'temp': 0.0, 'lipoC3S3': 11.89, 'state': 'normal', 'rot1': 261, 'rot0': 414, 'rot3': 0, 'rot2': 0, 'depth': -1.895, 'yaw': -94.68, 'datetime': '2018-12-18 20:51:54.759382', 'mgs': 0, 'flw2': 0.17, 'flw1': 0.0, 'flw0': 0.0, 'time': 42.43, 'compass': -56.29, 'pitch': 0.83, 'roll': 0.53}
{'lipoC2': 0.06, 'temp': 0.0, 'lipoC3S3': 11.67, 'state': 'normal', 'rot1': 261, 'rot0': 414, 'rot3': 0, 'rot2': 0, 'depth': 1.08, 'yaw': -94.67, 'datetime': '2018-12-18 20:51:54.965715', 'mgs': 0, 'flw2': 0.0, 'flw1': 0.44, 'flw0': 0.0, 'time': 42.64, 'compass': -56.28, 'pitch': 0.79, 'roll': 0.54}
{'lipoC2': 0.0, 'temp': 0.0, 'lipoC3S3': 12.08, 'state': 'normal', 'rot1': 261, 'rot0': 414, 'rot3': 0, 'rot2': 0, 'depth': 1.309, 'yaw': -94.67, 'datetime': '2018-12-18 20:51:55.173057', 'mgs': 0, 'flw2': 0.13, 'flw1': 0.21, 'flw0': 0.0, 'time': 42.85, 'compass': -56.28, 'pitch': 0.79, 'roll': 0.54}
{'lipoC2': 0.15, 'temp': 0.0, 'lipoC3S3': 11.88, 'state': 'normal', 'rot1': 261, 'rot0': 415, 'rot3': 0, 'rot2': 0, 'depth': -1.666, 'yaw': -94.58, 'datetime': '2018-12-18 20:51:55.383905', 'mgs': 0, 'flw2': 0.24, 'flw1': 0.0, 'flw0': 0.0, 'time': 43.06, 'compass': -56.2, 'pitch': 0.96, 'roll': 0.54}
