{'lipoC2': 0.0, 'temp': 0.0, 'lipoC3S3': 12.6, 'state': 'normal', 'rot1': 0, 'rot0': 0, 'rot3': 0, 'rot2': 0, 'depth': 1.614, 'yaw': 0.01, 'datetime': '2018-12-18 17:41:42.734104', 'mgs': 0, 'flw2': 0.0, 'flw1': 0.12, 'flw0': 0.2, 'time': 1.26, 'compass': 99.79, 'pitch': -0.96, 'roll': 1.55}
{'lipoC2': 0.15, 'temp': 0.0, 'lipoC3S3': 12.35, 'state': 'normal', 'rot1': 0, 'rot0': 0, 'rot3': 0, 'rot2': 0, 'depth': -2.2, 'yaw': 0.38, 'datetime': '2018-12-18 17:41:42.940704', 'mgs': 0, 'flw2': 0.0, 'flw1': 0.47, 'flw0': 0.0, 'time': 1.46, 'compass': 100.16, 'pitch': -0.79, 'roll': 1.49}
{'lipoC2': 0.1, 'temp': 0.0, 'lipoC3S3': 12.42, 'state': 'normal', 'rot1': 0, 'rot0': 0, 'rot3': 0, 'rot2': 0, 'depth': 1.843, 'yaw': 0.71, 'datetime': '2018-12-18 17:41:43.148863', 'mgs': 0, 'flw2': 0.0, 'flw1': 0.41, 'flw0': 0.0, 'time': 1.67, 'compass': 100.49, 'pitch': -0.59, 'roll': 1.46}
{'lipoC2': 0.0, 'temp': 0.0, 'lipoC3S3': 12.5, 'state': 'normal', 'rot1': 0, 'rot0': 0, 'rot3': 0, 'rot2': 0, 'depth': 1.385, 'yaw': 1.06, 'datetime': '2018-12-18 17:41:43.360436', 'mgs': 0, 'flw2': 0.0, 'flw1': 0.21, 'flw0': 0.16, 'time': 1.88, 'compass': 100.84, 'pitch': -0.56, 'roll': 1.46}
{'lipoC2': 0.0, 'temp': 0.0, 'lipoC3S3': 12.52, 'state': 'normal', 'rot1': 0, 'rot0': 0, 'rot3': 0, 'rot2': 0, 'depth': 1.538, 'yaw': 1.36, 'datetime': '2018-12-18 17:41:43.567947', 'mgs': 0, 'flw2': 0.16, 'flw1': 0.0, 'flw0': 0.0, 'time': 2.09, 'compass': 101.13, 'pitch': -0.55, 'roll': 1.47}
{'lipoC2': 0.04, 'temp': 0.0, 'lipoC3S3': 12.47, 'state': 'normal', 'rot1': 0, 'rot0': 0, 'rot3': 0, 'rot2': 0, 'depth': -1.437, 'yaw': 1.66, 'datetime': '2018-12-18 17:41:43.776063', 'mgs': 0, 'flw2': 0.0, 'flw1': 0.35, 'flw0': 0.05, 'time': 2.29, 'compass': 101.43, 'pitch': -0.54, 'roll': 1.47}
{'lipoC2': 0.0, 'temp': 0.0, 'lipoC3S3': 12.47, 'state': 'normal', 'rot1': 0, 'rot0': 0, 'rot3': 0, 'rot2': 0, 'depth': 1.08, 'yaw': 1.93, 'datetime': '2018-12-18 17:41:43.984377', 'mgs': 0, 'flw2': 0.0, 'flw1': 0.35, 'flw0': 0.15, 'time': 2.5, 'compass': 101.71, 'pitch': -0.53, 'roll': 1.47}
{'lipoC2': 0.0, 'temp': 0.0, 'lipoC3S3': 12.25, 'state': 'normal', 'rot1': 0, 'rot0': 0, 'rot3': 0, 'rot2': 0, 'depth': -0.598, 'yaw': 2.15, 'datetime': '2018-12-18 17:41:44.188580', 'mgs': 0, 'flw2': 0.06, 'flw1': 0.35, 'flw0': 0.0, 'time': 2.71, 'compass': 101.93, 'pitch': -0.52, 'roll': 1.47}
{'lipoC2': 0.0, 'temp': 0.0, 'lipoC3S3': 12.58, 'state': 'normal', 'rot1': 0, 'rot0': 0, 'rot3': 0, 'rot2': 0, 'depth': 1.767, 'yaw': 2.33, 'datetime': '2018-12-18 17:41:44.401156', 'mgs': 0, 'flw2': 0.15, 'flw1': 0.21, 'flw0': 0.0, 'time': 2.92, 'compass': 102.11, 'pitch': -0.52, 'roll': 1.57}
{'lipoC2': 0.0, 'temp': 0.0, 'lipoC3S3': 12.59, 'state': 'normal', 'rot1': 1, 'rot0': 0, 'rot3': 0, 'rot2': 0, 'depth': -0.217, 'yaw': 2.18, 'datetime': '2018-12-18 17:41:44.605512', 'mgs': 0, 'flw2': 0.0, 'flw1': 0.0, 'flw0': 3.11, 'time': 3.13, 'compass': 101.96, 'pitch': -0.31, 'roll': 1.49}
{'lipoC2': 0.03, 'temp': 0.0, 'lipoC3S3': 12.47, 'state': 'normal', 'rot1': 3, 'rot0': 0, 'rot3': 0, 'rot2': 0, 'depth': -1.285, 'yaw': -0.56, 'datetime': '2018-12-18 17:41:44.813988', 'mgs': 0, 'flw2': 0.0, 'flw1': 0.29, 'flw0': 3.0, 'time': 3.33, 'compass': 99.21, 'pitch': 0.93, 'roll': 0.85}
{'lipoC2': 0.08, 'temp': 0.0, 'lipoC3S3': 12.43, 'state': 'normal', 'rot1': 5, 'rot0': 0, 'rot3': 0, 'rot2': 0, 'depth': -1.743, 'yaw': -5.93, 'datetime': '2018-12-18 17:41:45.019619', 'mgs': 0, 'flw2': 0.0, 'flw1': 0.47, 'flw0': 0.11, 'time': 3.54, 'compass': 93.84, 'pitch': 1.56, 'roll': 0.08}
{'lipoC2': 0.14, 'temp': 0.0, 'lipoC3S3': 12.34, 'state': 'normal', 'rot1': 6, 'rot0': 0, 'rot3': 0, 'rot2': 0, 'depth': 1.614, 'yaw': -11.54, 'datetime': '2018-12-18 17:41:45.227829', 'mgs': 0, 'flw2': 0.13, 'flw1': 0.21, 'flw0': 2.72, 'time': 3.75, 'compass': 88.24, 'pitch': 0.11, 'roll': -0.01}
{'lipoC2': 0.15, 'temp': 0.0, 'lipoC3S3': 12.25, 'state': 'normal', 'rot1': 9, 'rot0': 0, 'rot3': 0, 'rot2': 0, 'depth': -0.293, 'yaw': -18.57, 'datetime': '2018-12-18 17:41:45.435498', 'mgs': 0, 'flw2': 0.17, 'flw1': 0.09, 'flw0': 2.76, 'time': 3.95, 'compass': 81.21, 'pitch': -0.01, 'roll': -0.08}
{'lipoC2': 0.0, 'temp': 0.0, 'lipoC3S3': 12.41, 'state': 'normal', 'rot1': 11, 'rot0': 0, 'rot3': 0, 'rot2': 0, 'depth': -0.14, 'yaw': -27.45, 'datetime': '2018-12-18 17:41:45.645455', 'mgs': 0, 'flw2': 0.15, 'flw1': 0.32, 'flw0': 2.83, 'time': 4.16, 'compass': 72.33, 'pitch': 1.28, 'roll': -0.2}
{'lipoC2': 0.0, 'temp': 0.0, 'lipoC3S3': 12.58, 'state': 'normal', 'rot1': 14, 'rot0': 0, 'rot3': 0, 'rot2': 0, 'depth': 1.767, 'yaw': -37.32, 'datetime': '2018-12-18 17:41:45.852821', 'mgs': 0, 'flw2': 0.0, 'flw1': 0.0, 'flw0': 3.11, 'time': 4.37, 'compass': 62.46, 'pitch': 2.0, 'roll': -0.36}
{'lipoC2': 0.02, 'temp': 0.0, 'lipoC3S3': 12.26, 'state': 'normal', 'rot1': 16, 'rot0': 0, 'rot3': 0, 'rot2': 0, 'depth': 0.317, 'yaw': -48.02, 'datetime': '2018-12-18 17:41:46.063910', 'mgs': 0, 'flw2': 0.0, 'flw1': 0.26, 'flw0': 3.06, 'time': 4.58, 'compass': 51.76, 'pitch': 1.65, 'roll': -0.79}
{'lipoC2': 0.14, 'temp': 0.0, 'lipoC3S3': 12.31, 'state': 'normal', 'rot1': 17, 'rot0': 0, 'rot3': 0, 'rot2': 0, 'depth': -1.208, 'yaw': -57.82, 'datetime': '2018-12-18 17:41:46.271527', 'mgs': 0, 'flw2': 0.21, 'flw1': 0.0, 'flw0': 0.17, 'time': 4.79, 'compass': 41.96, 'pitch': 0.68, 'roll': -1.01}
{'lipoC2': 0.14, 'temp': 0.0, 'lipoC3S3': 12.3, 'state': 'normal', 'rot1': 17, 'rot0': 2, 'rot3': 0, 'rot2': 0, 'depth': -0.98, 'yaw': -65.69, 'datetime': '2018-12-18 17:41:46.480246', 'mgs': 0, 'flw2': 2.86, 'flw1': 0.38, 'flw0': 0.0, 'time': 5.0, 'compass': 34.09, 'pitch': -0.0, 'roll': -0.53}
{'lipoC2': 0.0, 'temp': 0.0, 'lipoC3S3': 12.43, 'state': 'normal', 'rot1': 17, 'rot0': 4, 'rot3': 0, 'rot2': 0, 'depth': 0.012, 'yaw': -69.36, 'datetime': '2018-12-18 17:41:46.687439', 'mgs': 0, 'flw2': 3.02, 'flw1': 0.41, 'flw0': 0.0, 'time': 5.2, 'compass': 30.42, 'pitch': 1.36, 'roll': 0.31}
{'lipoC2': 0.0, 'temp': 0.0, 'lipoC3S3': 12.54, 'state': 'normal', 'rot1': 17, 'rot0': 6, 'rot3': 0, 'rot2': 0, 'depth': 1.691, 'yaw': -69.72, 'datetime': '2018-12-18 17:41:46.896281', 'mgs': 0, 'flw2': 3.03, 'flw1': 0.0, 'flw0': 0.01, 'time': 5.41, 'compass': 30.06, 'pitch': 2.49, 'roll': 0.79}
{'lipoC2': 0.12, 'temp': 0.0, 'lipoC3S3': 12.55, 'state': 'normal', 'rot1': 19, 'rot0': 9, 'rot3': 0, 'rot2': 0, 'depth': -1.59, 'yaw': -68.61, 'datetime': '2018-12-18 17:41:47.104310', 'mgs': 0, 'flw2': 2.89, 'flw1': 0.0, 'flw0': 2.95, 'time': 5.62, 'compass': 31.17, 'pitch': 2.72, 'roll': 0.66}
{'lipoC2': 0.05, 'temp': 0.0, 'lipoC3S3': 12.19, 'state': 'normal', 'rot1': 21, 'rot0': 12, 'rot3': 0, 'rot2': 0, 'depth': 0.623, 'yaw': -68.5, 'datetime': '2018-12-18 17:41:47.313786', 'mgs': 0, 'flw2': 2.64, 'flw1': 0.23, 'flw0': 3.04, 'time': 5.83, 'compass': 31.27, 'pitch': 3.17, 'roll': 0.06}
{'lipoC2': 0.04, 'temp': 0.0, 'lipoC3S3': 12.23, 'state': 'normal', 'rot1': 24, 'rot0': 14, 'rot3': 0, 'rot2': 0, 'depth': 1.462, 'yaw': -69.26, 'datetime': '2018-12-18 17:41:47.522368', 'mgs': 0, 'flw2': 2.51, 'flw1': 0.32, 'flw0': 3.05, 'time': 6.04, 'compass': 30.51, 'pitch': 3.5, 'roll': -0.38}
{'lipoC2': 0.05, 'temp': 0.0, 'lipoC3S3': 12.45, 'state': 'normal', 'rot1': 26, 'rot0': 16, 'rot3': 0, 'rot2': 0, 'depth': -1.514, 'yaw': -70.29, 'datetime': '2018-12-18 17:41:47.731722', 'mgs': 0, 'flw2': 2.81, 'flw1': 0.47, 'flw0': 2.99, 'time': 6.25, 'compass': 29.48, 'pitch': 3.39, 'roll': -0.37}
{'lipoC2': 0.03, 'temp': 0.0, 'lipoC3S3': 12.25, 'state': 'normal', 'rot1': 28, 'rot0': 19, 'rot3': 0, 'rot2': 0, 'depth': 0.47, 'yaw': -71.5, 'datetime': '2018-12-18 17:41:47.939462', 'mgs': 0, 'flw2': 3.03, 'flw1': 0.32, 'flw0': 3.11, 'time': 6.45, 'compass': 28.27, 'pitch': 3.1, 'roll': -0.25}
{'lipoC2': 0.15, 'temp': 0.0, 'lipoC3S3': 12.25, 'state': 'normal', 'rot1': 30, 'rot0': 21, 'rot3': 0, 'rot2': 0, 'depth': 1.233, 'yaw': -72.74, 'datetime': '2018-12-18 17:41:48.148332', 'mgs': 0, 'flw2': 2.92, 'flw1': 0.38, 'flw0': 0.0, 'time': 6.66, 'compass': 27.03, 'pitch': 2.74, 'roll': 0.07}
{'lipoC2': 0.04, 'temp': 0.0, 'lipoC3S3': 12.46, 'state': 'normal', 'rot1': 30, 'rot0': 23, 'rot3': 0, 'rot2': 0, 'depth': -0.903, 'yaw': -71.67, 'datetime': '2018-12-18 17:41:48.359631', 'mgs': 0, 'flw2': 2.86, 'flw1': 0.47, 'flw0': 0.01, 'time': 6.87, 'compass': 28.1, 'pitch': 1.54, 'roll': 0.74}
{'lipoC2': 0.05, 'temp': 0.0, 'lipoC3S3': 12.21, 'state': 'normal', 'rot1': 30, 'rot0': 26, 'rot3': 0, 'rot2': 0, 'depth': 0.47, 'yaw': -68.6, 'datetime': '2018-12-18 17:41:48.573029', 'mgs': 0, 'flw2': 3.0, 'flw1': 0.0, 'flw0': 0.0, 'time': 7.08, 'compass': 31.18, 'pitch': 0.87, 'roll': 1.43}
{'lipoC2': 0.0, 'temp': 0.0, 'lipoC3S3': 12.48, 'state': 'normal', 'rot1': 30, 'rot0': 28, 'rot3': 0, 'rot2': 0, 'depth': 1.538, 'yaw': -64.26, 'datetime': '2018-12-18 17:41:48.778779', 'mgs': 0, 'flw2': 0.51, 'flw1': 0.29, 'flw0': 0.12, 'time': 7.29, 'compass': 35.51, 'pitch': 1.14, 'roll': 1.85}
{'lipoC2': 0.0, 'temp': 0.0, 'lipoC3S3': 12.58, 'state': 'normal', 'rot1': 30, 'rot0': 29, 'rot3': 0, 'rot2': 0, 'depth': 1.767, 'yaw': -59.97, 'datetime': '2018-12-18 17:41:48.986531', 'mgs': 0, 'flw2': 0.0, 'flw1': 0.0, 'flw0': 0.2, 'time': 7.5, 'compass': 39.81, 'pitch': 0.75, 'roll': 1.95}
{'lipoC2': 0.09, 'temp': 0.0, 'lipoC3S3': 12.42, 'state': 'normal', 'rot1': 30, 'rot0': 29, 'rot3': 0, 'rot2': 0, 'depth': 1.843, 'yaw': -56.85, 'datetime': '2018-12-18 17:41:49.195849', 'mgs': 0, 'flw2': 0.11, 'flw1': 0.0, 'flw0': 0.07, 'time': 7.71, 'compass': 42.92, 'pitch': -0.49, 'roll': 1.59}
{'lipoC2': 0.0, 'temp': 0.0, 'lipoC3S3': 12.39, 'state': 'normal', 'rot1': 30, 'rot0': 29, 'rot3': 0, 'rot2': 0, 'depth': 0.47, 'yaw': -54.4, 'datetime': '2018-12-18 17:41:49.403904', 'mgs': 0, 'flw2': 0.06, 'flw1': 0.0, 'flw0': 0.12, 'time': 7.91, 'compass': 45.37, 'pitch': -1.09, 'roll': 1.09}
{'lipoC2': 0.0, 'temp': 0.0, 'lipoC3S3': 12.3, 'state': 'normal', 'rot1': 30, 'rot0': 29, 'rot3': 0, 'rot2': 0, 'depth': 1.157, 'yaw': -52.51, 'datetime': '2018-12-18 17:41:49.614202', 'mgs': 0, 'flw2': 0.12, 'flw1': 0.26, 'flw0': 0.0, 'time': 8.12, 'compass': 47.27, 'pitch': -0.87, 'roll': 0.79}
{'lipoC2': 0.0, 'temp': 0.0, 'lipoC3S3': 12.54, 'state': 'normal', 'rot1': 30, 'rot0': 29, 'rot3': 0, 'rot2': 0, 'depth': 1.767, 'yaw': -50.84, 'datetime': '2018-12-18 17:41:49.822534', 'mgs': 0, 'flw2': 0.0, 'flw1': 0.21, 'flw0': 0.16, 'time': 8.33, 'compass': 48.93, 'pitch': -0.7, 'roll': 0.78}
{'lipoC2': 0.03, 'temp': 0.0, 'lipoC3S3': 12.26, 'state': 'normal', 'rot1': 30, 'rot0': 29, 'rot3': 0, 'rot2': 0, 'depth': 0.394, 'yaw': -49.41, 'datetime': '2018-12-18 17:41:50.035699', 'mgs': 0, 'flw2': 0.2, 'flw1': 0.0, 'flw0': 0.0, 'time': 8.54, 'compass': 50.36, 'pitch': -1.22, 'roll': 0.81}
{'lipoC2': 0.06, 'temp': 0.0, 'lipoC3S3': 12.43, 'state': 'normal', 'rot1': 30, 'rot0': 29, 'rot3': 0, 'rot2': 0, 'depth': -1.437, 'yaw': -48.15, 'datetime': '2018-12-18 17:41:50.244998', 'mgs': 0, 'flw2': 0.0, 'flw1': 0.41, 'flw0': 0.0, 'time': 8.75, 'compass': 51.63, 'pitch': -1.83, 'roll': 0.85}
{'lipoC2': 0.0, 'temp': 0.0, 'lipoC3S3': 12.59, 'state': 'normal', 'rot1': 30, 'rot0': 29, 'rot3': 0, 'rot2': 0, 'depth': 1.614, 'yaw': -47.06, 'datetime': '2018-12-18 17:41:50.450325', 'mgs': 0, 'flw2': 0.0, 'flw1': 0.15, 'flw0': 0.18, 'time': 8.96, 'compass': 52.72, 'pitch': -1.85, 'roll': 0.81}
{'lipoC2': 0.0, 'temp': 0.0, 'lipoC3S3': 12.48, 'state': 'normal', 'rot1': 30, 'rot0': 29, 'rot3': 0, 'rot2': 0, 'depth': 1.309, 'yaw': -45.99, 'datetime': '2018-12-18 17:41:50.658909', 'mgs': 0, 'flw2': 0.0, 'flw1': 0.26, 'flw0': 0.11, 'time': 9.17, 'compass': 53.78, 'pitch': -1.59, 'roll': 0.62}
{'lipoC2': 0.14, 'temp': 0.0, 'lipoC3S3': 12.3, 'state': 'normal', 'rot1': 30, 'rot0': 29, 'rot3': 0, 'rot2': 0, 'depth': -0.98, 'yaw': -45.01, 'datetime': '2018-12-18 17:41:50.866112', 'mgs': 0, 'flw2': 0.0, 'flw1': 0.0, 'flw0': 0.2, 'time': 9.37, 'compass': 54.76, 'pitch': -1.62, 'roll': 0.47}
{'lipoC2': 0.09, 'temp': 0.0, 'lipoC3S3': 12.39, 'state': 'normal', 'rot1': 30, 'rot0': 29, 'rot3': 0, 'rot2': 0, 'depth': 1.767, 'yaw': -44.12, 'datetime': '2018-12-18 17:41:51.076359', 'mgs': 0, 'flw2': 0.0, 'flw1': 0.0, 'flw0': 0.17, 'time': 9.58, 'compass': 55.65, 'pitch': -1.96, 'roll': 0.5}
{'lipoC2': 0.12, 'temp': 0.0, 'lipoC3S3': 12.39, 'state': 'normal', 'rot1': 32, 'rot0': 30, 'rot3': 0, 'rot2': 0, 'depth': 1.843, 'yaw': -43.15, 'datetime': '2018-12-18 17:41:51.282810', 'mgs': 0, 'flw2': 2.75, 'flw1': 0.0, 'flw0': 2.33, 'time': 9.79, 'compass': 56.63, 'pitch': -2.49, 'roll': 0.61}
{'lipoC2': 0.0, 'temp': 0.0, 'lipoC3S3': 12.19, 'state': 'normal', 'rot1': 34, 'rot0': 32, 'rot3': 0, 'rot2': 0, 'depth': 0.241, 'yaw': -42.27, 'datetime': '2018-12-18 17:41:51.494594', 'mgs': 0, 'flw2': 0.24, 'flw1': 0.0, 'flw0': 2.64, 'time': 10.0, 'compass': 57.51, 'pitch': -3.55, 'roll': 0.69}
{'lipoC2': 0.08, 'temp': 0.0, 'lipoC3S3': 12.43, 'state': 'normal', 'rot1': 35, 'rot0': 32, 'rot3': 0, 'rot2': 0, 'depth': -1.743, 'yaw': -40.99, 'datetime': '2018-12-18 17:41:51.705693', 'mgs': 0, 'flw2': 0.05, 'flw1': 0.0, 'flw0': 0.01, 'time': 10.21, 'compass': 58.79, 'pitch': -3.18, 'roll': 0.72}
{'lipoC2': 0.0, 'temp': 0.0, 'lipoC3S3': 12.48, 'state': 'normal', 'rot1': 35, 'rot0': 32, 'rot3': 0, 'rot2': 0, 'depth': 1.385, 'yaw': -39.82, 'datetime': '2018-12-18 17:41:51.911247', 'mgs': 0, 'flw2': 0.0, 'flw1': 0.32, 'flw0': 0.1, 'time': 10.42, 'compass': 59.96, 'pitch': -1.34, 'roll': 0.47}
{'lipoC2': 0.11, 'temp': 0.0, 'lipoC3S3': 12.38, 'state': 'normal', 'rot1': 35, 'rot0': 32, 'rot3': 0, 'rot2': 0, 'depth': -1.666, 'yaw': -38.84, 'datetime': '2018-12-18 17:41:52.118744', 'mgs': 0, 'flw2': 0.0, 'flw1': 0.0, 'flw0': 0.16, 'time': 10.63, 'compass': 60.94, 'pitch': -0.64, 'roll': 0.39}
{'lipoC2': 0.0, 'temp': 0.0, 'lipoC3S3': 12.52, 'state': 'normal', 'rot1': 35, 'rot0': 33, 'rot3': 0, 'rot2': 0, 'depth': 1.691, 'yaw': -37.96, 'datetime': '2018-12-18 17:41:52.330851', 'mgs': 0, 'flw2': 2.66, 'flw1': 0.32, 'flw0': 0.1, 'time': 10.83, 'compass': 61.82, 'pitch': -1.34, 'roll': 0.55}
{'lipoC2': 0.0, 'temp': 0.0, 'lipoC3S3': 12.43, 'state': 'normal', 'rot1': 35, 'rot0': 35, 'rot3': 0, 'rot2': 0, 'depth': -1.208, 'yaw': -34.62, 'datetime': '2018-12-18 17:41:52.535393', 'mgs': 0, 'flw2': 2.87, 'flw1': 0.0, 'flw0': 0.09, 'time': 11.04, 'compass': 65.16, 'pitch': -0.35, 'roll': 1.39}
{'lipoC2': 0.03, 'temp': 0.0, 'lipoC3S3': 12.27, 'state': 'normal', 'rot1': 35, 'rot0': 38, 'rot3': 0, 'rot2': 0, 'depth': 0.394, 'yaw': -28.5, 'datetime': '2018-12-18 17:41:52.748283', 'mgs': 0, 'flw2': 3.08, 'flw1': 0.0, 'flw0': 0.0, 'time': 11.25, 'compass': 71.28, 'pitch': 1.88, 'roll': 2.28}
{'lipoC2': 0.04, 'temp': 0.0, 'lipoC3S3': 12.46, 'state': 'normal', 'rot1': 35, 'rot0': 40, 'rot3': 0, 'rot2': 0, 'depth': -1.285, 'yaw': -20.76, 'datetime': '2018-12-18 17:41:52.961905', 'mgs': 0, 'flw2': 2.75, 'flw1': 0.44, 'flw0': 0.0, 'time': 11.46, 'compass': 79.01, 'pitch': 2.75, 'roll': 2.69}
{'lipoC2': 0.11, 'temp': 0.0, 'lipoC3S3': 12.39, 'state': 'normal', 'rot1': 35, 'rot0': 42, 'rot3': 0, 'rot2': 0, 'depth': 1.843, 'yaw': -12.7, 'datetime': '2018-12-18 17:41:53.169350', 'mgs': 0, 'flw2': 2.82, 'flw1': 0.0, 'flw0': 0.16, 'time': 11.67, 'compass': 87.08, 'pitch': 2.21, 'roll': 2.84}
{'lipoC2': 0.0, 'temp': 0.0, 'lipoC3S3': 12.46, 'state': 'normal', 'rot1': 35, 'rot0': 45, 'rot3': 0, 'rot2': 0, 'depth': 1.004, 'yaw': -3.48, 'datetime': '2018-12-18 17:41:53.373311', 'mgs': 0, 'flw2': 2.69, 'flw1': 0.41, 'flw0': 0.02, 'time': 11.88, 'compass': 96.29, 'pitch': 1.83, 'roll': 3.07}
{'lipoC2': 0.0, 'temp': 0.0, 'lipoC3S3': 12.59, 'state': 'normal', 'rot1': 35, 'rot0': 46, 'rot3': 0, 'rot2': 0, 'depth': -0.217, 'yaw': 5.87, 'datetime': '2018-12-18 17:41:53.583764', 'mgs': 0, 'flw2': 0.0, 'flw1': 0.06, 'flw0': 0.2, 'time': 12.09, 'compass': 105.65, 'pitch': 1.92, 'roll': 3.17}
{'lipoC2': 0.05, 'temp': 0.0, 'lipoC3S3': 12.22, 'state': 'normal', 'rot1': 35, 'rot0': 46, 'rot3': 0, 'rot2': 0, 'depth': 0.47, 'yaw': 13.56, 'datetime': '2018-12-18 17:41:53.789966', 'mgs': 0, 'flw2': 0.0, 'flw1': 0.29, 'flw0': 0.13, 'time': 12.3, 'compass': 113.33, 'pitch': 0.89, 'roll': 2.92}
{'lipoC2': 0.09, 'temp': 0.0, 'lipoC3S3': 12.42, 'state': 'normal', 'rot1': 35, 'rot0': 46, 'rot3': 0, 'rot2': 0, 'depth': -1.743, 'yaw': 19.87, 'datetime': '2018-12-18 17:41:54.000995', 'mgs': 0, 'flw2': 0.04, 'flw1': 0.0, 'flw0': 0.12, 'time': 12.5, 'compass': 119.65, 'pitch': 0.03, 'roll': 2.69}
{'lipoC2': 0.0, 'temp': 0.0, 'lipoC3S3': 12.59, 'state': 'normal', 'rot1': 35, 'rot0': 47, 'rot3': 0, 'rot2': 0, 'depth': 0.165, 'yaw': 25.81, 'datetime': '2018-12-18 17:41:54.207793', 'mgs': 0, 'flw2': 0.0, 'flw1': 0.09, 'flw0': 0.21, 'time': 12.71, 'compass': 125.59, 'pitch': -0.12, 'roll': 2.58}
{'lipoC2': 0.0, 'temp': 0.0, 'lipoC3S3': 12.58, 'state': 'normal', 'rot1': 35, 'rot0': 47, 'rot3': 0, 'rot2': 0, 'depth': 1.767, 'yaw': 31.27, 'datetime': '2018-12-18 17:41:54.416376', 'mgs': 0, 'flw2': 0.17, 'flw1': 0.06, 'flw0': 0.0, 'time': 12.92, 'compass': 131.05, 'pitch': 0.06, 'roll': 2.65}
{'lipoC2': 0.0, 'temp': 0.0, 'lipoC3S3': 12.52, 'state': 'normal', 'rot1': 35, 'rot0': 47, 'rot3': 0, 'rot2': 0, 'depth': 1.538, 'yaw': 36.36, 'datetime': '2018-12-18 17:41:54.624131', 'mgs': 0, 'flw2': 0.18, 'flw1': 0.0, 'flw0': 0.16, 'time': 13.13, 'compass': 136.14, 'pitch': -0.15, 'roll': 2.65}
{'lipoC2': 0.01, 'temp': 0.0, 'lipoC3S3': 12.29, 'state': 'normal', 'rot1': 35, 'rot0': 47, 'rot3': 0, 'rot2': 0, 'depth': 0.241, 'yaw': 40.89, 'datetime': '2018-12-18 17:41:54.833682', 'mgs': 0, 'flw2': 0.0, 'flw1': 0.23, 'flw0': 0.13, 'time': 13.34, 'compass': 140.67, 'pitch': -0.6, 'roll': 2.61}
{'lipoC2': 0.0, 'temp': 0.0, 'lipoC3S3': 12.59, 'state': 'normal', 'rot1': 35, 'rot0': 47, 'rot3': 0, 'rot2': 0, 'depth': 1.614, 'yaw': 45.37, 'datetime': '2018-12-18 17:41:55.042559', 'mgs': 0, 'flw2': 0.0, 'flw1': 0.09, 'flw0': 0.21, 'time': 13.55, 'compass': 145.15, 'pitch': -0.92, 'roll': 2.45}
{'lipoC2': 0.02, 'temp': 0.0, 'lipoC3S3': 12.25, 'state': 'normal', 'rot1': 35, 'rot0': 47, 'rot3': 0, 'rot2': 0, 'depth': 0.165, 'yaw': 49.62, 'datetime': '2018-12-18 17:41:55.251724', 'mgs': 0, 'flw2': 2.04, 'flw1': 0.26, 'flw0': 0.13, 'time': 13.75, 'compass': 149.4, 'pitch': -0.84, 'roll': 2.08}
{'lipoC2': 0.0, 'temp': 0.0, 'lipoC3S3': 12.46, 'state': 'normal', 'rot1': 35, 'rot0': 50, 'rot3': 0, 'rot2': 0, 'depth': 1.157, 'yaw': 55.09, 'datetime': '2018-12-18 17:41:55.461218', 'mgs': 0, 'flw2': 0.06, 'flw1': 0.32, 'flw0': 0.11, 'time': 13.96, 'compass': 154.87, 'pitch': 0.19, 'roll': 2.03}
{'lipoC2': 0.1, 'temp': 0.0, 'lipoC3S3': 12.17, 'state': 'normal', 'rot1': 35, 'rot0': 50, 'rot3': 0, 'rot2': 0, 'depth': 0.623, 'yaw': 61.87, 'datetime': '2018-12-18 17:41:55.670790', 'mgs': 0, 'flw2': 0.0, 'flw1': 0.15, 'flw0': 0.2, 'time': 14.17, 'compass': 161.65, 'pitch': 0.89, 'roll': 2.4}
{'lipoC2': 0.04, 'temp': 0.0, 'lipoC3S3': 12.46, 'state': 'normal', 'rot1': 35, 'rot0': 50, 'rot3': 0, 'rot2': 0, 'depth': -1.437, 'yaw': 67.65, 'datetime': '2018-12-18 17:41:55.879218', 'mgs': 0, 'flw2': 0.2, 'flw1': 0.0, 'flw0': 0.0, 'time': 14.38, 'compass': 167.42, 'pitch': -0.11, 'roll': 2.44}
{'lipoC2': 0.06, 'temp': 0.0, 'lipoC3S3': 12.19, 'state': 'normal', 'rot1': 35, 'rot0': 50, 'rot3': 0, 'rot2': 0, 'depth': 1.385, 'yaw': 73.03, 'datetime': '2018-12-18 17:41:56.087611', 'mgs': 0, 'flw2': 0.16, 'flw1': 0.0, 'flw0': 0.0, 'time': 14.59, 'compass': 172.81, 'pitch': -1.05, 'roll': 2.09}
{'lipoC2': 0.13, 'temp': 0.0, 'lipoC3S3': 12.37, 'state': 'normal', 'rot1': 35, 'rot0': 50, 'rot3': 0, 'rot2': 0, 'depth': -1.208, 'yaw': 77.93, 'datetime': '2018-12-18 17:41:56.295568', 'mgs': 0, 'flw2': 0.01, 'flw1': 0.0, 'flw0': 3.28, 'time': 14.8, 'compass': 177.7, 'pitch': -0.66, 'roll': 1.6}
{'lipoC2': 0.08, 'temp': 0.0, 'lipoC3S3': 12.43, 'state': 'normal', 'rot1': 37, 'rot0': 50, 'rot3': 0, 'rot2': 0, 'depth': 1.843, 'yaw': 80.05, 'datetime': '2018-12-18 17:41:56.503995', 'mgs': 0, 'flw2': 0.1, 'flw1': 0.0, 'flw0': 0.28, 'time': 15.01, 'compass': 179.83, 'pitch': 1.1, 'roll': 0.98}
{'lipoC2': 0.0, 'temp': 0.0, 'lipoC3S3': 12.52, 'state': 'normal', 'rot1': 38, 'rot0': 50, 'rot3': 0, 'rot2': 0, 'depth': 1.614, 'yaw': 80.91, 'datetime': '2018-12-18 17:41:56.714341', 'mgs': 0, 'flw2': 0.0, 'flw1': 0.18, 'flw0': 0.21, 'time': 15.22, 'compass': -179.31, 'pitch': 1.24, 'roll': 1.01}
{'lipoC2': 0.05, 'temp': 0.0, 'lipoC3S3': 12.19, 'state': 'normal', 'rot1': 38, 'rot0': 50, 'rot3': 0, 'rot2': 0, 'depth': 1.309, 'yaw': 82.01, 'datetime': '2018-12-18 17:41:56.922693', 'mgs': 0, 'flw2': 0.15, 'flw1': 0.0, 'flw0': 0.0, 'time': 15.42, 'compass': -178.22, 'pitch': -0.61, 'roll': 1.57}
{'lipoC2': 0.05, 'temp': 0.0, 'lipoC3S3': 12.45, 'state': 'normal', 'rot1': 38, 'rot0': 50, 'rot3': 0, 'rot2': 0, 'depth': -1.514, 'yaw': 83.25, 'datetime': '2018-12-18 17:41:57.132541', 'mgs': 0, 'flw2': 0.0, 'flw1': 0.41, 'flw0': 0.01, 'time': 15.63, 'compass': -176.98, 'pitch': -1.61, 'roll': 2.02}
{'lipoC2': 0.0, 'temp': 0.0, 'lipoC3S3': 12.43, 'state': 'normal', 'rot1': 38, 'rot0': 50, 'rot3': 0, 'rot2': 0, 'depth': 0.775, 'yaw': 84.61, 'datetime': '2018-12-18 17:41:57.340458', 'mgs': 0, 'flw2': 0.07, 'flw1': 0.0, 'flw0': 0.11, 'time': 15.84, 'compass': -175.62, 'pitch': -0.92, 'roll': 2.06}
{'lipoC2': 0.12, 'temp': 0.0, 'lipoC3S3': 12.38, 'state': 'normal', 'rot1': 38, 'rot0': 50, 'rot3': 0, 'rot2': 0, 'depth': -1.743, 'yaw': 85.96, 'datetime': '2018-12-18 17:41:57.549625', 'mgs': 0, 'flw2': 0.05, 'flw1': 0.0, 'flw0': 0.12, 'time': 16.05, 'compass': -174.26, 'pitch': -0.31, 'roll': 1.82}
{'lipoC2': 0.04, 'temp': 0.0, 'lipoC3S3': 12.23, 'state': 'normal', 'rot1': 38, 'rot0': 50, 'rot3': 0, 'rot2': 0, 'depth': 0.47, 'yaw': 87.44, 'datetime': '2018-12-18 17:41:57.757488', 'mgs': 0, 'flw2': 0.2, 'flw1': 0.0, 'flw0': 0.12, 'time': 16.26, 'compass': -172.78, 'pitch': -0.76, 'roll': 1.5}
{'lipoC2': 0.0, 'temp': 0.0, 'lipoC3S3': 12.35, 'state': 'normal', 'rot1': 38, 'rot0': 50, 'rot3': 0, 'rot2': 0, 'depth': 1.004, 'yaw': 88.95, 'datetime': '2018-12-18 17:41:57.967836', 'mgs': 0, 'flw2': 0.0, 'flw1': 0.41, 'flw0': 0.0, 'time': 16.47, 'compass': -171.28, 'pitch': -1.4, 'roll': 1.19}
{'lipoC2': 0.0, 'temp': 0.0, 'lipoC3S3': 12.58, 'state': 'normal', 'rot1': 38, 'rot0': 50, 'rot3': 0, 'rot2': 0, 'depth': 1.691, 'yaw': 90.48, 'datetime': '2018-12-18 17:41:58.180466', 'mgs': 0, 'flw2': 0.2, 'flw1': 0.03, 'flw0': 0.0, 'time': 16.67, 'compass': -169.74, 'pitch': -1.35, 'roll': 1.05}
{'lipoC2': 0.12, 'temp': 0.0, 'lipoC3S3': 12.41, 'state': 'normal', 'rot1': 38, 'rot0': 50, 'rot3': 0, 'rot2': 0, 'depth': -1.819, 'yaw': 92.01, 'datetime': '2018-12-18 17:41:58.391028', 'mgs': 0, 'flw2': 0.07, 'flw1': 0.0, 'flw0': 0.1, 'time': 16.89, 'compass': -168.22, 'pitch': -0.95, 'roll': 1.08}
{'lipoC2': 0.06, 'temp': 0.0, 'lipoC3S3': 12.45, 'state': 'normal', 'rot1': 38, 'rot0': 50, 'rot3': 0, 'rot2': 0, 'depth': -1.666, 'yaw': 93.47, 'datetime': '2018-12-18 17:41:58.598499', 'mgs': 0, 'flw2': 0.0, 'flw1': 0.44, 'flw0': 0.01, 'time': 17.09, 'compass': -166.75, 'pitch': -0.86, 'roll': 1.19}
{'lipoC2': 0.09, 'temp': 0.0, 'lipoC3S3': 12.42, 'state': 'normal', 'rot1': 38, 'rot0': 50, 'rot3': 0, 'rot2': 0, 'depth': -1.819, 'yaw': 94.98, 'datetime': '2018-12-18 17:41:58.805466', 'mgs': 0, 'flw2': 0.2, 'flw1': 0.0, 'flw0': 0.0, 'time': 17.3, 'compass': -165.25, 'pitch': -1.15, 'roll': 1.4}
{'lipoC2': 0.0, 'temp': 0.0, 'lipoC3S3': 12.54, 'state': 'normal', 'rot1': 38, 'rot0': 50, 'rot3': 0, 'rot2': 0, 'depth': 1.691, 'yaw': 96.48, 'datetime': '2018-12-18 17:41:59.012167', 'mgs': 0, 'flw2': 0.17, 'flw1': 0.0, 'flw0': 0.0, 'time': 17.51, 'compass': -163.74, 'pitch': -1.44, 'roll': 1.48}
{'lipoC2': 0.0, 'temp': 0.0, 'lipoC3S3': 12.41, 'state': 'normal', 'rot1': 38, 'rot0': 50, 'rot3': 0, 'rot2': 0, 'depth': 0.546, 'yaw': 97.9, 'datetime': '2018-12-18 17:41:59.221168', 'mgs': 0, 'flw2': 0.06, 'flw1': 0.44, 'flw0': 0.0, 'time': 17.72, 'compass': -162.33, 'pitch': -1.47, 'roll': 1.52}
{'lipoC2': 0.0, 'temp': 0.0, 'lipoC3S3': 12.25, 'state': 'normal', 'rot1': 38, 'rot0': 50, 'rot3': 0, 'rot2': 0, 'depth': 1.233, 'yaw': 99.36, 'datetime': '2018-12-18 17:41:59.430792', 'mgs': 0, 'flw2': 0.0, 'flw1': 0.0, 'flw0': 0.2, 'time': 17.93, 'compass': -160.86, 'pitch': -1.43, 'roll': 1.47}
{'lipoC2': 0.11, 'temp': 0.0, 'lipoC3S3': 12.18, 'state': 'normal', 'rot1': 38, 'rot0': 50, 'rot3': 0, 'rot2': 0, 'depth': 0.623, 'yaw': 100.82, 'datetime': '2018-12-18 17:41:59.639122', 'mgs': 0, 'flw2': 0.0, 'flw1': 0.0, 'flw0': 0.18, 'time': 18.14, 'compass': -159.4, 'pitch': -1.4, 'roll': 1.29}
{'lipoC2': 0.0, 'temp': 0.0, 'lipoC3S3': 12.54, 'state': 'normal', 'rot1': 38, 'rot0': 50, 'rot3': 0, 'rot2': 0, 'depth': 1.767, 'yaw': 102.26, 'datetime': '2018-12-18 17:41:59.848715', 'mgs': 0, 'flw2': 0.0, 'flw1': 0.38, 'flw0': 0.05, 'time': 18.34, 'compass': -157.96, 'pitch': -1.37, 'roll': 1.19}
{'lipoC2': 0.02, 'temp': 0.0, 'lipoC3S3': 12.47, 'state': 'normal', 'rot1': 38, 'rot0': 50, 'rot3': 0, 'rot2': 0, 'depth': -0.903, 'yaw': 103.67, 'datetime': '2018-12-18 17:42:00.056781', 'mgs': 0, 'flw2': 0.0, 'flw1': 0.41, 'flw0': 0.01, 'time': 18.55, 'compass': -156.56, 'pitch': -1.34, 'roll': 1.23}
{'lipoC2': 0.0, 'temp': 0.0, 'lipoC3S3': 12.47, 'state': 'normal', 'rot1': 38, 'rot0': 50, 'rot3': 0, 'rot2': 0, 'depth': 1.004, 'yaw': 104.94, 'datetime': '2018-12-18 17:42:00.265957', 'mgs': 0, 'flw2': 0.0, 'flw1': 0.23, 'flw0': 0.13, 'time': 18.76, 'compass': -155.28, 'pitch': -1.31, 'roll': 1.27}
{'lipoC2': 0.08, 'temp': 0.0, 'lipoC3S3': 12.18, 'state': 'normal', 'rot1': 38, 'rot0': 50, 'rot3': 0, 'rot2': 0, 'depth': 1.233, 'yaw': 106.27, 'datetime': '2018-12-18 17:42:00.474932', 'mgs': 0, 'flw2': 0.0, 'flw1': 0.23, 'flw0': 0.17, 'time': 18.97, 'compass': -153.96, 'pitch': -1.28, 'roll': 1.31}
{'lipoC2': 0.0, 'temp': 0.0, 'lipoC3S3': 12.38, 'state': 'normal', 'rot1': 38, 'rot0': 50, 'rot3': 0, 'rot2': 0, 'depth': 0.089, 'yaw': 107.52, 'datetime': '2018-12-18 17:42:00.684860', 'mgs': 0, 'flw2': 0.0, 'flw1': 0.0, 'flw0': 0.17, 'time': 19.18, 'compass': -152.7, 'pitch': -1.26, 'roll': 1.34}
{'lipoC2': 0.0, 'temp': 0.0, 'lipoC3S3': 12.39, 'state': 'normal', 'rot1': 38, 'rot0': 50, 'rot3': 0, 'rot2': 0, 'depth': 0.317, 'yaw': 108.73, 'datetime': '2018-12-18 17:42:00.897427', 'mgs': 0, 'flw2': 0.02, 'flw1': 0.0, 'flw0': 0.13, 'time': 19.39, 'compass': -151.5, 'pitch': -1.23, 'roll': 1.37}
{'lipoC2': 0.1, 'temp': 0.0, 'lipoC3S3': 12.17, 'state': 'normal', 'rot1': 38, 'rot0': 50, 'rot3': 0, 'rot2': 0, 'depth': 1.08, 'yaw': 109.9, 'datetime': '2018-12-18 17:42:01.103136', 'mgs': 0, 'flw2': 0.0, 'flw1': 0.0, 'flw0': 0.21, 'time': 19.6, 'compass': -150.32, 'pitch': -1.18, 'roll': 1.3}
{'lipoC2': 0.02, 'temp': 0.0, 'lipoC3S3': 12.25, 'state': 'normal', 'rot1': 38, 'rot0': 50, 'rot3': 0, 'rot2': 0, 'depth': 1.385, 'yaw': 110.94, 'datetime': '2018-12-18 17:42:01.312067', 'mgs': 0, 'flw2': 0.0, 'flw1': 0.23, 'flw0': 0.13, 'time': 19.81, 'compass': -149.29, 'pitch': -1.01, 'roll': 1.23}
{'lipoC2': 0.05, 'temp': 0.0, 'lipoC3S3': 12.43, 'state': 'normal', 'rot1': 38, 'rot0': 50, 'rot3': 0, 'rot2': 0, 'depth': -1.437, 'yaw': 112.01, 'datetime': '2018-12-18 17:42:01.520681', 'mgs': 0, 'flw2': 0.0, 'flw1': 0.0, 'flw0': 0.05, 'time': 20.01, 'compass': -148.21, 'pitch': -0.99, 'roll': 1.25}
{'lipoC2': 0.08, 'temp': 0.0, 'lipoC3S3': 12.18, 'state': 'normal', 'rot1': 38, 'rot0': 50, 'rot3': 0, 'rot2': 0, 'depth': 0.47, 'yaw': 113.07, 'datetime': '2018-12-18 17:42:01.729316', 'mgs': 0, 'flw2': 0.0, 'flw1': 0.15, 'flw0': 0.17, 'time': 20.22, 'compass': -147.16, 'pitch': -1.19, 'roll': 1.27}
{'lipoC2': 0.0, 'temp': 0.0, 'lipoC3S3': 12.39, 'state': 'normal', 'rot1': 38, 'rot0': 50, 'rot3': 0, 'rot2': 0, 'depth': 0.623, 'yaw': 114.04, 'datetime': '2018-12-18 17:42:01.938134', 'mgs': 0, 'flw2': 0.13, 'flw1': 0.26, 'flw0': 0.13, 'time': 20.43, 'compass': -146.18, 'pitch': -1.27, 'roll': 1.29}
{'lipoC2': 0.0, 'temp': 0.0, 'lipoC3S3': 12.56, 'state': 'normal', 'rot1': 38, 'rot0': 50, 'rot3': 0, 'rot2': 0, 'depth': 1.691, 'yaw': 115.04, 'datetime': '2018-12-18 17:42:02.147806', 'mgs': 0, 'flw2': 0.0, 'flw1': 0.26, 'flw0': 0.13, 'time': 20.64, 'compass': -145.18, 'pitch': -1.08, 'roll': 1.31}
{'lipoC2': 0.12, 'temp': 0.0, 'lipoC3S3': 12.38, 'state': 'normal', 'rot1': 38, 'rot0': 50, 'rot3': 0, 'rot2': 0, 'depth': -1.514, 'yaw': 116.01, 'datetime': '2018-12-18 17:42:02.359812', 'mgs': 0, 'flw2': 0.01, 'flw1': 0.41, 'flw0': 0.0, 'time': 20.85, 'compass': -144.22, 'pitch': -0.96, 'roll': 1.33}
{'lipoC2': 0.0, 'temp': 0.0, 'lipoC3S3': 12.39, 'state': 'normal', 'rot1': 38, 'rot0': 50, 'rot3': 0, 'rot2': 0, 'depth': 0.317, 'yaw': 116.95, 'datetime': '2018-12-18 17:42:02.566039', 'mgs': 0, 'flw2': 0.02, 'flw1': 0.0, 'flw0': 0.13, 'time': 21.06, 'compass': -143.28, 'pitch': -1.15, 'roll': 1.34}
{'lipoC2': 0.0, 'temp': 0.0, 'lipoC3S3': 12.23, 'state': 'normal', 'rot1': 38, 'rot0': 50, 'rot3': 0, 'rot2': 0, 'depth': -0.522, 'yaw': 117.85, 'datetime': '2018-12-18 17:42:02.777528', 'mgs': 0, 'flw2': 0.17, 'flw1': 0.12, 'flw0': 0.0, 'time': 21.27, 'compass': -142.38, 'pitch': -1.35, 'roll': 1.36}
{'lipoC2': 0.12, 'temp': 0.0, 'lipoC3S3': 12.18, 'state': 'normal', 'rot1': 38, 'rot0': 50, 'rot3': 0, 'rot2': 0, 'depth': 0.775, 'yaw': 118.7, 'datetime': '2018-12-18 17:42:02.983106', 'mgs': 0, 'flw2': 0.0, 'flw1': 0.0, 'flw0': 0.2, 'time': 21.48, 'compass': -141.52, 'pitch': -1.26, 'roll': 1.38}
{'lipoC2': 0.06, 'temp': 0.0, 'lipoC3S3': 12.19, 'state': 'normal', 'rot1': 38, 'rot0': 50, 'rot3': 0, 'rot2': 0, 'depth': 0.47, 'yaw': 119.58, 'datetime': '2018-12-18 17:42:03.193966', 'mgs': 0, 'flw2': 0.0, 'flw1': 0.0, 'flw0': 0.2, 'time': 21.68, 'compass': -140.64, 'pitch': -1.04, 'roll': 1.4}
{'lipoC2': 0.0, 'temp': 0.0, 'lipoC3S3': 12.58, 'state': 'normal', 'rot1': 38, 'rot0': 50, 'rot3': 0, 'rot2': 0, 'depth': -0.14, 'yaw': 120.45, 'datetime': '2018-12-18 17:42:03.401711', 'mgs': 0, 'flw2': 0.0, 'flw1': 0.0, 'flw0': 0.16, 'time': 21.89, 'compass': -139.78, 'pitch': -1.02, 'roll': 1.42}
{'lipoC2': 0.09, 'temp': 0.0, 'lipoC3S3': 12.18, 'state': 'normal', 'rot1': 38, 'rot0': 50, 'rot3': 0, 'rot2': 0, 'depth': 1.004, 'yaw': 121.28, 'datetime': '2018-12-18 17:42:03.612899', 'mgs': 0, 'flw2': 0.0, 'flw1': 0.06, 'flw0': 0.18, 'time': 22.1, 'compass': -138.94, 'pitch': -1.14, 'roll': 1.43}
{'lipoC2': 0.0, 'temp': 0.0, 'lipoC3S3': 12.43, 'state': 'normal', 'rot1': 38, 'rot0': 50, 'rot3': 0, 'rot2': 0, 'depth': 0.775, 'yaw': 122.1, 'datetime': '2018-12-18 17:42:03.821779', 'mgs': 0, 'flw2': 0.16, 'flw1': 0.0, 'flw0': 0.02, 'time': 22.31, 'compass': -138.12, 'pitch': -1.2, 'roll': 1.45}
{'lipoC2': 0.08, 'temp': 0.0, 'lipoC3S3': 12.42, 'state': 'normal', 'rot1': 38, 'rot0': 50, 'rot3': 0, 'rot2': 0, 'depth': 1.843, 'yaw': 122.87, 'datetime': '2018-12-18 17:42:04.029813', 'mgs': 0, 'flw2': 0.0, 'flw1': 0.38, 'flw0': 0.0, 'time': 22.52, 'compass': -137.36, 'pitch': -1.18, 'roll': 1.47}
{'lipoC2': 0.0, 'temp': 0.0, 'lipoC3S3': 12.3, 'state': 'normal', 'rot1': 38, 'rot0': 50, 'rot3': 0, 'rot2': 0, 'depth': -0.293, 'yaw': 123.61, 'datetime': '2018-12-18 17:42:04.238297', 'mgs': 0, 'flw2': 0.0, 'flw1': 0.47, 'flw0': 0.0, 'time': 22.73, 'compass': -136.61, 'pitch': -1.17, 'roll': 1.48}
{'lipoC2': 0.0, 'temp': 0.0, 'lipoC3S3': 12.58, 'state': 'normal', 'rot1': 38, 'rot0': 50, 'rot3': 0, 'rot2': 0, 'depth': -0.217, 'yaw': 124.32, 'datetime': '2018-12-18 17:42:04.445445', 'mgs': 0, 'flw2': 0.0, 'flw1': 0.35, 'flw0': 0.0, 'time': 22.93, 'compass': -135.9, 'pitch': -1.14, 'roll': 1.5}
{'lipoC2': 0.0, 'temp': 0.0, 'lipoC3S3': 12.59, 'state': 'normal', 'rot1': 38, 'rot0': 50, 'rot3': 0, 'rot2': 0, 'depth': 1.691, 'yaw': 124.95, 'datetime': '2018-12-18 17:42:04.654009', 'mgs': 0, 'flw2': 0.0, 'flw1': 0.12, 'flw0': 0.17, 'time': 23.14, 'compass': -135.27, 'pitch': -1.13, 'roll': 1.51}
{'lipoC2': 0.0, 'temp': 0.0, 'lipoC3S3': 12.58, 'state': 'normal', 'rot1': 39, 'rot0': 50, 'rot3': 0, 'rot2': 0, 'depth': 1.691, 'yaw': 125.21, 'datetime': '2018-12-18 17:42:04.864710', 'mgs': 0, 'flw2': 0.0, 'flw1': 0.0, 'flw0': 3.0, 'time': 23.35, 'compass': -135.01, 'pitch': -0.84, 'roll': 1.35}
{'lipoC2': 0.06, 'temp': 0.0, 'lipoC3S3': 12.5, 'state': 'normal', 'rot1': 42, 'rot0': 50, 'rot3': 0, 'rot2': 0, 'depth': -1.59, 'yaw': 122.47, 'datetime': '2018-12-18 17:42:05.072716', 'mgs': 0, 'flw2': 0.09, 'flw1': 0.0, 'flw0': 2.93, 'time': 23.56, 'compass': -137.75, 'pitch': 0.75, 'roll': 0.65}
{'lipoC2': 0.1, 'temp': 0.0, 'lipoC3S3': 12.18, 'state': 'normal', 'rot1': 44, 'rot0': 50, 'rot3': 0, 'rot2': 0, 'depth': 1.08, 'yaw': 116.83, 'datetime': '2018-12-18 17:42:05.282585', 'mgs': 0, 'flw2': 0.0, 'flw1': 0.0, 'flw0': 2.73, 'time': 23.77, 'compass': -143.39, 'pitch': 1.76, 'roll': 0.04}
{'lipoC2': 0.02, 'temp': 0.0, 'lipoC3S3': 12.48, 'state': 'normal', 'rot1': 46, 'rot0': 50, 'rot3': 0, 'rot2': 0, 'depth': -1.285, 'yaw': 109.19, 'datetime': '2018-12-18 17:42:05.490341', 'mgs': 0, 'flw2': 0.0, 'flw1': 0.18, 'flw0': 3.14, 'time': 23.98, 'compass': -151.04, 'pitch': 1.32, 'roll': -0.14}
{'lipoC2': 0.05, 'temp': 0.0, 'lipoC3S3': 12.22, 'state': 'normal', 'rot1': 48, 'rot0': 52, 'rot3': 0, 'rot2': 0, 'depth': 0.394, 'yaw': 101.17, 'datetime': '2018-12-18 17:42:05.699691', 'mgs': 0, 'flw2': 2.4, 'flw1': 0.29, 'flw0': 3.02, 'time': 24.19, 'compass': -159.06, 'pitch': 0.87, 'roll': -0.0}
{'lipoC2': 0.0, 'temp': 0.0, 'lipoC3S3': 12.58, 'state': 'normal', 'rot1': 51, 'rot0': 54, 'rot3': 0, 'rot2': 0, 'depth': 1.691, 'yaw': 94.77, 'datetime': '2018-12-18 17:42:05.907496', 'mgs': 0, 'flw2': 2.81, 'flw1': 0.0, 'flw0': 3.09, 'time': 24.4, 'compass': -165.45, 'pitch': 2.23, 'roll': 0.48}
{'lipoC2': 0.13, 'temp': 0.0, 'lipoC3S3': 12.18, 'state': 'normal', 'rot1': 53, 'rot0': 56, 'rot3': 0, 'rot2': 0, 'depth': 1.08, 'yaw': 90.15, 'datetime': '2018-12-18 17:42:06.117000', 'mgs': 0, 'flw2': 2.99, 'flw1': 0.0, 'flw0': 2.56, 'time': 24.6, 'compass': -170.08, 'pitch': 3.6, 'roll': 0.91}
{'lipoC2': 0.11, 'temp': 0.0, 'lipoC3S3': 12.39, 'state': 'normal', 'rot1': 56, 'rot0': 59, 'rot3': 0, 'rot2': 0, 'depth': 1.843, 'yaw': 86.55, 'datetime': '2018-12-18 17:42:06.327160', 'mgs': 0, 'flw2': 2.81, 'flw1': 0.0, 'flw0': 3.03, 'time': 24.81, 'compass': -173.67, 'pitch': 3.81, 'roll': 1.02}
{'lipoC2': 0.0, 'temp': 0.0, 'lipoC3S3': 12.59, 'state': 'normal', 'rot1': 58, 'rot0': 61, 'rot3': 0, 'rot2': 0, 'depth': -0.217, 'yaw': 83.67, 'datetime': '2018-12-18 17:42:06.536291', 'mgs': 0, 'flw2': 2.77, 'flw1': 0.0, 'flw0': 3.13, 'time': 25.02, 'compass': -176.56, 'pitch': 3.32, 'roll': 0.73}
{'lipoC2': 0.0, 'temp': 0.0, 'lipoC3S3': 12.42, 'state': 'normal', 'rot1': 60, 'rot0': 63, 'rot3': 0, 'rot2': 0, 'depth': 0.165, 'yaw': 81.44, 'datetime': '2018-12-18 17:42:06.745405', 'mgs': 0, 'flw2': 2.88, 'flw1': 0.0, 'flw0': 2.95, 'time': 25.23, 'compass': -178.78, 'pitch': 2.96, 'roll': 0.37}
{'lipoC2': 0.0, 'temp': 0.0, 'lipoC3S3': 12.51, 'state': 'normal', 'rot1': 62, 'rot0': 66, 'rot3': 0, 'rot2': 0, 'depth': 0.699, 'yaw': 79.37, 'datetime': '2018-12-18 17:42:06.962755', 'mgs': 0, 'flw2': 2.91, 'flw1': 0.0, 'flw0': 2.97, 'time': 25.44, 'compass': 179.15, 'pitch': 3.01, 'roll': 0.01}
{'lipoC2': 0.0, 'temp': 0.0, 'lipoC3S3': 12.54, 'state': 'normal', 'rot1': 65, 'rot0': 68, 'rot3': 0, 'rot2': 0, 'depth': 1.767, 'yaw': 77.49, 'datetime': '2018-12-18 17:42:07.166574', 'mgs': 0, 'flw2': 2.6, 'flw1': 0.26, 'flw0': 3.16, 'time': 25.65, 'compass': 177.26, 'pitch': 3.28, 'roll': -0.06}
{'lipoC2': 0.0, 'temp': 0.0, 'lipoC3S3': 12.56, 'state': 'normal', 'rot1': 67, 'rot0': 71, 'rot3': 0, 'rot2': 0, 'depth': 1.767, 'yaw': 75.8, 'datetime': '2018-12-18 17:42:07.378137', 'mgs': 0, 'flw2': 2.7, 'flw1': 0.0, 'flw0': 3.08, 'time': 25.86, 'compass': 175.57, 'pitch': 3.33, 'roll': 0.13}
{'lipoC2': 0.03, 'temp': 0.0, 'lipoC3S3': 12.22, 'state': 'normal', 'rot1': 70, 'rot0': 74, 'rot3': 0, 'rot2': 0, 'depth': 1.462, 'yaw': 74.25, 'datetime': '2018-12-18 17:42:07.588848', 'mgs': 0, 'flw2': 3.02, 'flw1': 0.32, 'flw0': 2.97, 'time': 26.07, 'compass': 174.03, 'pitch': 3.03, 'roll': 0.58}
{'lipoC2': 0.0, 'temp': 0.0, 'lipoC3S3': 12.52, 'state': 'normal', 'rot1': 72, 'rot0': 76, 'rot3': 0, 'rot2': 0, 'depth': 1.614, 'yaw': 72.93, 'datetime': '2018-12-18 17:42:07.795155', 'mgs': 0, 'flw2': 2.99, 'flw1': 0.0, 'flw0': 2.82, 'time': 26.27, 'compass': 172.71, 'pitch': 2.75, 'roll': 0.99}
{'lipoC2': 0.0, 'temp': 0.0, 'lipoC3S3': 12.52, 'state': 'normal', 'rot1': 75, 'rot0': 78, 'rot3': 0, 'rot2': 0, 'depth': 1.996, 'yaw': 71.56, 'datetime': '2018-12-18 17:42:08.003322', 'mgs': 0, 'flw2': 3.02, 'flw1': 0.0, 'flw0': 2.73, 'time': 26.48, 'compass': 171.33, 'pitch': 2.67, 'roll': 1.39}
{'lipoC2': 0.0, 'temp': 0.0, 'lipoC3S3': 12.6, 'state': 'normal', 'rot1': 78, 'rot0': 81, 'rot3': 0, 'rot2': 0, 'depth': 1.614, 'yaw': 70.23, 'datetime': '2018-12-18 17:42:08.216001', 'mgs': 0, 'flw2': 2.54, 'flw1': 0.12, 'flw0': 3.11, 'time': 26.69, 'compass': 170.01, 'pitch': 2.72, 'roll': 1.54}
{'lipoC2': 0.03, 'temp': 0.0, 'lipoC3S3': 12.51, 'state': 'normal', 'rot1': 80, 'rot0': 83, 'rot3': 0, 'rot2': 0, 'depth': 1.462, 'yaw': 69.16, 'datetime': '2018-12-18 17:42:08.427311', 'mgs': 0, 'flw2': 2.45, 'flw1': 0.21, 'flw0': 3.17, 'time': 26.9, 'compass': 168.93, 'pitch': 2.7, 'roll': 1.42}
{'lipoC2': 0.09, 'temp': 0.0, 'lipoC3S3': 12.41, 'state': 'normal', 'rot1': 84, 'rot0': 87, 'rot3': 0, 'rot2': 0, 'depth': -1.743, 'yaw': 67.41, 'datetime': '2018-12-18 17:42:08.734244', 'mgs': 0, 'flw2': 2.73, 'flw1': 0.41, 'flw0': 2.89, 'time': 27.21, 'compass': 167.19, 'pitch': 2.67, 'roll': 1.07}
{'lipoC2': 0.12, 'temp': 0.0, 'lipoC3S3': 12.39, 'state': 'normal', 'rot1': 86, 'rot0': 89, 'rot3': 0, 'rot2': 0, 'depth': -1.361, 'yaw': 66.41, 'datetime': '2018-12-18 17:42:08.943054', 'mgs': 0, 'flw2': 3.03, 'flw1': 0.0, 'flw0': 3.0, 'time': 27.42, 'compass': 166.18, 'pitch': 2.89, 'roll': 1.13}
{'lipoC2': 0.04, 'temp': 0.0, 'lipoC3S3': 12.21, 'state': 'normal', 'rot1': 88, 'rot0': 92, 'rot3': 0, 'rot2': 0, 'depth': 1.767, 'yaw': 65.46, 'datetime': '2018-12-18 17:42:09.148244', 'mgs': 0, 'flw2': 3.03, 'flw1': 0.0, 'flw0': 2.65, 'time': 27.63, 'compass': 165.24, 'pitch': 3.39, 'roll': 1.19}
{'lipoC2': 0.0, 'temp': 0.0, 'lipoC3S3': 12.48, 'state': 'normal', 'rot1': 91, 'rot0': 94, 'rot3': 0, 'rot2': 0, 'depth': 1.462, 'yaw': 64.19, 'datetime': '2018-12-18 17:42:09.357651', 'mgs': 0, 'flw2': 2.53, 'flw1': 0.35, 'flw0': 3.11, 'time': 27.84, 'compass': 163.97, 'pitch': 3.71, 'roll': 1.05}
{'lipoC2': 0.05, 'temp': 0.0, 'lipoC3S3': 12.45, 'state': 'normal', 'rot1': 93, 'rot0': 97, 'rot3': 0, 'rot2': 0, 'depth': -1.437, 'yaw': 62.93, 'datetime': '2018-12-18 17:42:09.565603', 'mgs': 0, 'flw2': 2.72, 'flw1': 0.32, 'flw0': 2.94, 'time': 28.05, 'compass': 162.7, 'pitch': 3.69, 'roll': 0.79}
{'lipoC2': 0.0, 'temp': 0.0, 'lipoC3S3': 12.21, 'state': 'normal', 'rot1': 96, 'rot0': 99, 'rot3': 0, 'rot2': 0, 'depth': 1.843, 'yaw': 61.71, 'datetime': '2018-12-18 17:42:09.774408', 'mgs': 0, 'flw2': 2.77, 'flw1': 0.0, 'flw0': 3.05, 'time': 28.26, 'compass': 161.48, 'pitch': 3.69, 'roll': 0.79}
{'lipoC2': 0.0, 'temp': 0.0, 'lipoC3S3': 12.56, 'state': 'normal', 'rot1': 98, 'rot0': 101, 'rot3': 0, 'rot2': 0, 'depth': -0.903, 'yaw': 60.36, 'datetime': '2018-12-18 17:42:09.982202', 'mgs': 0, 'flw2': 2.44, 'flw1': 0.09, 'flw0': 3.11, 'time': 28.47, 'compass': 160.14, 'pitch': 3.68, 'roll': 0.87}
{'lipoC2': 0.01, 'temp': 0.0, 'lipoC3S3': 12.29, 'state': 'normal', 'rot1': 100, 'rot0': 104, 'rot3': 0, 'rot2': 0, 'depth': 0.317, 'yaw': 58.86, 'datetime': '2018-12-18 17:42:10.192200', 'mgs': 0, 'flw2': 2.92, 'flw1': 0.32, 'flw0': 3.14, 'time': 28.67, 'compass': 158.63, 'pitch': 3.66, 'roll': 0.97}
{'lipoC2': 0.0, 'temp': 0.0, 'lipoC3S3': 12.59, 'state': 'normal', 'rot1': 103, 'rot0': 107, 'rot3': 0, 'rot2': 0, 'depth': 2.148, 'yaw': 57.26, 'datetime': '2018-12-18 17:42:10.402818', 'mgs': 0, 'flw2': 2.59, 'flw1': 0.23, 'flw0': 3.0, 'time': 28.88, 'compass': 157.04, 'pitch': 3.63, 'roll': 1.07}
{'lipoC2': 0.0, 'temp': 0.0, 'lipoC3S3': 12.39, 'state': 'normal', 'rot1': 105, 'rot0': 109, 'rot3': 0, 'rot2': 0, 'depth': 0.546, 'yaw': 55.69, 'datetime': '2018-12-18 17:42:10.612141', 'mgs': 0, 'flw2': 2.76, 'flw1': 0.0, 'flw0': 3.0, 'time': 29.09, 'compass': 155.47, 'pitch': 3.61, 'roll': 1.17}
{'lipoC2': 0.0, 'temp': 0.0, 'lipoC3S3': 12.25, 'state': 'normal', 'rot1': 107, 'rot0': 112, 'rot3': 0, 'rot2': 0, 'depth': -0.293, 'yaw': 54.15, 'datetime': '2018-12-18 17:42:10.821552', 'mgs': 0, 'flw2': 2.73, 'flw1': 0.0, 'flw0': 3.1, 'time': 29.3, 'compass': 153.93, 'pitch': 3.61, 'roll': 1.26}
{'lipoC2': 0.0, 'temp': 0.0, 'lipoC3S3': 12.45, 'state': 'normal', 'rot1': 110, 'rot0': 114, 'rot3': 0, 'rot2': 0, 'depth': 1.538, 'yaw': 52.45, 'datetime': '2018-12-18 17:42:11.029692', 'mgs': 0, 'flw2': 2.83, 'flw1': 0.5, 'flw0': 2.87, 'time': 29.51, 'compass': 152.23, 'pitch': 3.53, 'roll': 1.37}
{'lipoC2': 0.0, 'temp': 0.0, 'lipoC3S3': 12.55, 'state': 'normal', 'rot1': 112, 'rot0': 117, 'rot3': 0, 'rot2': 0, 'depth': 0.623, 'yaw': 50.87, 'datetime': '2018-12-18 17:42:11.239263', 'mgs': 0, 'flw2': 2.82, 'flw1': 0.35, 'flw0': 2.84, 'time': 29.72, 'compass': 150.65, 'pitch': 3.53, 'roll': 1.5}
{'lipoC2': 0.0, 'temp': 0.0, 'lipoC3S3': 12.47, 'state': 'normal', 'rot1': 114, 'rot0': 119, 'rot3': 0, 'rot2': 0, 'depth': 1.309, 'yaw': 49.4, 'datetime': '2018-12-18 17:42:11.450406', 'mgs': 0, 'flw2': 2.5, 'flw1': 0.23, 'flw0': 2.99, 'time': 29.93, 'compass': 149.18, 'pitch': 3.8, 'roll': 1.6}
{'lipoC2': 0.05, 'temp': 0.0, 'lipoC3S3': 12.19, 'state': 'normal', 'rot1': 117, 'rot0': 121, 'rot3': 0, 'rot2': 0, 'depth': 1.462, 'yaw': 47.87, 'datetime': '2018-12-18 17:42:11.661426', 'mgs': 0, 'flw2': 2.47, 'flw1': 0.15, 'flw0': 3.14, 'time': 30.14, 'compass': 147.64, 'pitch': 4.14, 'roll': 1.54}
{'lipoC2': 0.0, 'temp': 0.0, 'lipoC3S3': 12.45, 'state': 'normal', 'rot1': 119, 'rot0': 124, 'rot3': 0, 'rot2': 0, 'depth': 1.157, 'yaw': 46.42, 'datetime': '2018-12-18 17:42:11.875048', 'mgs': 0, 'flw2': 2.82, 'flw1': 0.53, 'flw0': 3.02, 'time': 30.35, 'compass': 146.2, 'pitch': 4.23, 'roll': 1.45}
{'lipoC2': 0.0, 'temp': 0.0, 'lipoC3S3': 12.45, 'state': 'normal', 'rot1': 121, 'rot0': 126, 'rot3': 0, 'rot2': 0, 'depth': 1.004, 'yaw': 45.08, 'datetime': '2018-12-18 17:42:12.081524', 'mgs': 0, 'flw2': 2.64, 'flw1': 0.5, 'flw0': 3.02, 'time': 30.56, 'compass': 144.86, 'pitch': 4.14, 'roll': 1.4}
{'lipoC2': 0.1, 'temp': 0.0, 'lipoC3S3': 12.18, 'state': 'normal', 'rot1': 124, 'rot0': 128, 'rot3': 0, 'rot2': 0, 'depth': 1.08, 'yaw': 43.81, 'datetime': '2018-12-18 17:42:12.286811', 'mgs': 0, 'flw2': 2.87, 'flw1': 0.03, 'flw0': 2.59, 'time': 30.76, 'compass': 143.58, 'pitch': 4.14, 'roll': 1.4}
{'lipoC2': 0.13, 'temp': 0.0, 'lipoC3S3': 12.39, 'state': 'normal', 'rot1': 126, 'rot0': 131, 'rot3': 0, 'rot2': 0, 'depth': -0.751, 'yaw': 42.5, 'datetime': '2018-12-18 17:42:12.496336', 'mgs': 0, 'flw2': 2.93, 'flw1': 0.0, 'flw0': 2.95, 'time': 30.97, 'compass': 142.28, 'pitch': 4.36, 'roll': 1.25}
{'lipoC2': 0.01, 'temp': 0.0, 'lipoC3S3': 12.48, 'state': 'normal', 'rot1': 129, 'rot0': 133, 'rot3': 0, 'rot2': 0, 'depth': -1.208, 'yaw': 41.19, 'datetime': '2018-12-18 17:42:12.708740', 'mgs': 0, 'flw2': 2.42, 'flw1': 0.21, 'flw0': 3.15, 'time': 31.18, 'compass': 140.97, 'pitch': 4.57, 'roll': 0.92}
{'lipoC2': 0.0, 'temp': 0.0, 'lipoC3S3': 12.45, 'state': 'normal', 'rot1': 131, 'rot0': 135, 'rot3': 0, 'rot2': 0, 'depth': 1.08, 'yaw': 39.91, 'datetime': '2018-12-18 17:42:12.916671', 'mgs': 0, 'flw2': 2.87, 'flw1': 0.5, 'flw0': 2.99, 'time': 31.39, 'compass': 139.69, 'pitch': 4.61, 'roll': 0.75}
{'lipoC2': 0.13, 'temp': 0.0, 'lipoC3S3': 12.38, 'state': 'normal', 'rot1': 133, 'rot0': 138, 'rot3': 0, 'rot2': 0, 'depth': 1.843, 'yaw': 38.68, 'datetime': '2018-12-18 17:42:13.128037', 'mgs': 0, 'flw2': 2.88, 'flw1': 0.41, 'flw0': 2.81, 'time': 31.6, 'compass': 138.46, 'pitch': 4.22, 'roll': 0.82}
{'lipoC2': 0.14, 'temp': 0.0, 'lipoC3S3': 12.23, 'state': 'normal', 'rot1': 136, 'rot0': 140, 'rot3': 0, 'rot2': 0, 'depth': 0.546, 'yaw': 37.48, 'datetime': '2018-12-18 17:42:13.335150', 'mgs': 0, 'flw2': 2.81, 'flw1': 0.0, 'flw0': 3.02, 'time': 31.81, 'compass': 137.26, 'pitch': 3.97, 'roll': 1.02}
{'lipoC2': 0.0, 'temp': 0.0, 'lipoC3S3': 12.42, 'state': 'normal', 'rot1': 139, 'rot0': 143, 'rot3': 0, 'rot2': 0, 'depth': -0.14, 'yaw': 36.27, 'datetime': '2018-12-18 17:42:13.544293', 'mgs': 0, 'flw2': 2.81, 'flw1': 0.0, 'flw0': 2.98, 'time': 32.02, 'compass': 136.05, 'pitch': 3.99, 'roll': 0.86}
{'lipoC2': 0.0, 'temp': 0.0, 'lipoC3S3': 12.56, 'state': 'normal', 'rot1': 141, 'rot0': 145, 'rot3': 0, 'rot2': 0, 'depth': 1.92, 'yaw': 34.8, 'datetime': '2018-12-18 17:42:13.751929', 'mgs': 0, 'flw2': 2.95, 'flw1': 0.06, 'flw0': 2.53, 'time': 32.23, 'compass': 134.58, 'pitch': 4.01, 'roll': 0.66}
{'lipoC2': 0.11, 'temp': 0.0, 'lipoC3S3': 12.41, 'state': 'normal', 'rot1': 143, 'rot0': 148, 'rot3': 0, 'rot2': 0, 'depth': -1.514, 'yaw': 33.26, 'datetime': '2018-12-18 17:42:13.965460', 'mgs': 0, 'flw2': 2.91, 'flw1': 0.41, 'flw0': 2.98, 'time': 32.44, 'compass': 133.03, 'pitch': 3.99, 'roll': 0.75}
{'lipoC2': 0.0, 'temp': 0.0, 'lipoC3S3': 12.34, 'state': 'normal', 'rot1': 146, 'rot0': 150, 'rot3': 0, 'rot2': 0, 'depth': 1.157, 'yaw': 31.71, 'datetime': '2018-12-18 17:42:14.174098', 'mgs': 0, 'flw2': 2.97, 'flw1': 0.0, 'flw0': 3.02, 'time': 32.65, 'compass': 131.49, 'pitch': 3.97, 'roll': 1.02}
{'lipoC2': 0.0, 'temp': 0.0, 'lipoC3S3': 12.26, 'state': 'normal', 'rot1': 148, 'rot0': 152, 'rot3': 0, 'rot2': 0, 'depth': -0.293, 'yaw': 30.15, 'datetime': '2018-12-18 17:42:14.383540', 'mgs': 0, 'flw2': 2.75, 'flw1': 0.0, 'flw0': 3.02, 'time': 32.86, 'compass': 129.93, 'pitch': 3.94, 'roll': 1.12}
{'lipoC2': 0.03, 'temp': 0.0, 'lipoC3S3': 12.46, 'state': 'normal', 'rot1': 150, 'rot0': 155, 'rot3': 0, 'rot2': 0, 'depth': -0.98, 'yaw': 28.5, 'datetime': '2018-12-18 17:42:14.593506', 'mgs': 0, 'flw2': 2.69, 'flw1': 0.5, 'flw0': 2.88, 'time': 33.06, 'compass': 128.28, 'pitch': 3.99, 'roll': 0.94}
{'lipoC2': 0.0, 'temp': 0.0, 'lipoC3S3': 12.56, 'state': 'normal', 'rot1': 152, 'rot0': 157, 'rot3': 0, 'rot2': 0, 'depth': 1.92, 'yaw': 26.81, 'datetime': '2018-12-18 17:42:14.802311', 'mgs': 0, 'flw2': 2.75, 'flw1': 0.0, 'flw0': 3.1, 'time': 33.27, 'compass': 126.59, 'pitch': 4.28, 'roll': 0.69}
{'lipoC2': 0.12, 'temp': 0.0, 'lipoC3S3': 12.37, 'state': 'normal', 'rot1': 155, 'rot0': 159, 'rot3': 0, 'rot2': 0, 'depth': -1.514, 'yaw': 25.14, 'datetime': '2018-12-18 17:42:15.012025', 'mgs': 0, 'flw2': 2.77, 'flw1': 0.0, 'flw0': 2.98, 'time': 33.48, 'compass': 124.92, 'pitch': 4.55, 'roll': 0.63}
{'lipoC2': 0.0, 'temp': 0.0, 'lipoC3S3': 12.42, 'state': 'normal', 'rot1': 157, 'rot0': 162, 'rot3': 0, 'rot2': 0, 'depth': -0.14, 'yaw': 23.37, 'datetime': '2018-12-18 17:42:15.219057', 'mgs': 0, 'flw2': 2.88, 'flw1': 0.0, 'flw0': 2.92, 'time': 33.69, 'compass': 123.14, 'pitch': 4.58, 'roll': 0.6}
{'lipoC2': 0.12, 'temp': 0.0, 'lipoC3S3': 12.39, 'state': 'normal', 'rot1': 160, 'rot0': 164, 'rot3': 0, 'rot2': 0, 'depth': 1.843, 'yaw': 21.55, 'datetime': '2018-12-18 17:42:15.427663', 'mgs': 0, 'flw2': 2.89, 'flw1': 0.0, 'flw0': 3.03, 'time': 33.9, 'compass': 121.33, 'pitch': 4.5, 'roll': 0.64}
{'lipoC2': 0.0, 'temp': 0.0, 'lipoC3S3': 12.45, 'state': 'normal', 'rot1': 162, 'rot0': 166, 'rot3': 0, 'rot2': 0, 'depth': 1.233, 'yaw': 19.85, 'datetime': '2018-12-18 17:42:15.640535', 'mgs': 0, 'flw2': 2.81, 'flw1': 0.5, 'flw0': 3.03, 'time': 34.11, 'compass': 119.62, 'pitch': 4.4, 'roll': 0.76}
{'lipoC2': 0.02, 'temp': 0.0, 'lipoC3S3': 12.23, 'state': 'normal', 'rot1': 164, 'rot0': 169, 'rot3': 0, 'rot2': 0, 'depth': 1.538, 'yaw': 18.06, 'datetime': '2018-12-18 17:42:15.847543', 'mgs': 0, 'flw2': 2.6, 'flw1': 0.41, 'flw0': 2.91, 'time': 34.32, 'compass': 117.84, 'pitch': 4.29, 'roll': 0.86}
{'lipoC2': 0.11, 'temp': 0.0, 'lipoC3S3': 12.41, 'state': 'normal', 'rot1': 167, 'rot0': 171, 'rot3': 0, 'rot2': 0, 'depth': -1.743, 'yaw': 16.23, 'datetime': '2018-12-18 17:42:16.060947', 'mgs': 0, 'flw2': 2.78, 'flw1': 0.47, 'flw0': 2.94, 'time': 34.53, 'compass': 116.01, 'pitch': 4.13, 'roll': 0.91}
{'lipoC2': 0.12, 'temp': 0.0, 'lipoC3S3': 12.37, 'state': 'normal', 'rot1': 169, 'rot0': 174, 'rot3': 0, 'rot2': 0, 'depth': 1.92, 'yaw': 14.13, 'datetime': '2018-12-18 17:42:16.268712', 'mgs': 0, 'flw2': 2.97, 'flw1': 0.38, 'flw0': 2.77, 'time': 34.74, 'compass': 113.91, 'pitch': 4.01, 'roll': 1.05}
{'lipoC2': 0.0, 'temp': 0.0, 'lipoC3S3': 12.59, 'state': 'normal', 'rot1': 171, 'rot0': 176, 'rot3': 0, 'rot2': 0, 'depth': 1.767, 'yaw': 12.14, 'datetime': '2018-12-18 17:42:16.473581', 'mgs': 0, 'flw2': 2.54, 'flw1': 0.09, 'flw0': 3.15, 'time': 34.95, 'compass': 111.92, 'pitch': 4.01, 'roll': 1.14}
{'lipoC2': 0.05, 'temp': 0.0, 'lipoC3S3': 12.19, 'state': 'normal', 'rot1': 173, 'rot0': 178, 'rot3': 0, 'rot2': 0, 'depth': 1.614, 'yaw': 10.29, 'datetime': '2018-12-18 17:42:16.683512', 'mgs': 0, 'flw2': 2.75, 'flw1': 0.0, 'flw0': 3.15, 'time': 35.15, 'compass': 110.07, 'pitch': 3.99, 'roll': 1.0}
{'lipoC2': 0.01, 'temp': 0.0, 'lipoC3S3': 12.25, 'state': 'normal', 'rot1': 177, 'rot0': 181, 'rot3': 0, 'rot2': 0, 'depth': 1.767, 'yaw': 8.57, 'datetime': '2018-12-18 17:42:16.895231', 'mgs': 0, 'flw2': 2.43, 'flw1': 0.21, 'flw0': 3.09, 'time': 35.36, 'compass': 108.35, 'pitch': 3.98, 'roll': 0.95}
{'lipoC2': 0.04, 'temp': 0.0, 'lipoC3S3': 12.21, 'state': 'normal', 'rot1': 179, 'rot0': 183, 'rot3': 0, 'rot2': 0, 'depth': 1.614, 'yaw': 6.79, 'datetime': '2018-12-18 17:42:17.111211', 'mgs': 0, 'flw2': 2.51, 'flw1': 0.21, 'flw0': 3.27, 'time': 35.57, 'compass': 106.57, 'pitch': 4.02, 'roll': 0.75}
{'lipoC2': 0.1, 'temp': 0.0, 'lipoC3S3': 12.42, 'state': 'normal', 'rot1': 181, 'rot0': 185, 'rot3': 0, 'rot2': 0, 'depth': -1.59, 'yaw': 5.0, 'datetime': '2018-12-18 17:42:17.317354', 'mgs': 0, 'flw2': 2.88, 'flw1': 0.0, 'flw0': 2.97, 'time': 35.78, 'compass': 104.78, 'pitch': 4.26, 'roll': 0.55}
{'lipoC2': 0.1, 'temp': 0.0, 'lipoC3S3': 12.42, 'state': 'normal', 'rot1': 184, 'rot0': 188, 'rot3': 0, 'rot2': 0, 'depth': -1.59, 'yaw': 3.23, 'datetime': '2018-12-18 17:42:17.525355', 'mgs': 0, 'flw2': 2.93, 'flw1': 0.0, 'flw0': 1.92, 'time': 35.99, 'compass': 103.01, 'pitch': 4.26, 'roll': 0.57}
{'lipoC2': 0.12, 'temp': 0.0, 'lipoC3S3': 12.38, 'state': 'normal', 'rot1': 185, 'rot0': 190, 'rot3': 0, 'rot2': 0, 'depth': -1.59, 'yaw': 2.07, 'datetime': '2018-12-18 17:42:17.729757', 'mgs': 0, 'flw2': 2.89, 'flw1': 0.0, 'flw0': 0.4, 'time': 36.2, 'compass': 101.84, 'pitch': 3.77, 'roll': 0.81}
{'lipoC2': 0.08, 'temp': 0.0, 'lipoC3S3': 12.43, 'state': 'normal', 'rot1': 186, 'rot0': 192, 'rot3': 0, 'rot2': 0, 'depth': 1.92, 'yaw': 2.73, 'datetime': '2018-12-18 17:42:17.945818', 'mgs': 0, 'flw2': 2.8, 'flw1': 0.41, 'flw0': 0.52, 'time': 36.41, 'compass': 102.51, 'pitch': 2.71, 'roll': 1.36}
{'lipoC2': 0.11, 'temp': 0.0, 'lipoC3S3': 12.39, 'state': 'normal', 'rot1': 188, 'rot0': 195, 'rot3': 0, 'rot2': 0, 'depth': 1.92, 'yaw': 4.5, 'datetime': '2018-12-18 17:42:18.150981', 'mgs': 0, 'flw2': 2.86, 'flw1': 0.29, 'flw0': 0.74, 'time': 36.62, 'compass': 104.27, 'pitch': 2.27, 'roll': 1.93}
{'lipoC2': 0.0, 'temp': 0.0, 'lipoC3S3': 12.59, 'state': 'normal', 'rot1': 189, 'rot0': 198, 'rot3': 0, 'rot2': 0, 'depth': 1.767, 'yaw': 6.73, 'datetime': '2018-12-18 17:42:18.363318', 'mgs': 0, 'flw2': 2.61, 'flw1': 0.0, 'flw0': 3.22, 'time': 36.83, 'compass': 106.51, 'pitch': 2.58, 'roll': 2.35}
{'lipoC2': 0.05, 'temp': 0.0, 'lipoC3S3': 12.21, 'state': 'normal', 'rot1': 191, 'rot0': 200, 'rot3': 0, 'rot2': 0, 'depth': 1.385, 'yaw': 7.86, 'datetime': '2018-12-18 17:42:18.570354', 'mgs': 0, 'flw2': 2.91, 'flw1': 0.0, 'flw0': 2.75, 'time': 37.04, 'compass': 107.63, 'pitch': 3.35, 'roll': 2.54}
{'lipoC2': 0.0, 'temp': 0.0, 'lipoC3S3': 12.55, 'state': 'normal', 'rot1': 194, 'rot0': 202, 'rot3': 0, 'rot2': 0, 'depth': 2.454, 'yaw': 7.61, 'datetime': '2018-12-18 17:42:18.774555', 'mgs': 0, 'flw2': 2.84, 'flw1': 0.62, 'flw0': 2.95, 'time': 37.24, 'compass': 107.38, 'pitch': 3.71, 'roll': 2.5}
{'lipoC2': 0.12, 'temp': 0.0, 'lipoC3S3': 12.17, 'state': 'normal', 'rot1': 197, 'rot0': 205, 'rot3': 0, 'rot2': 0, 'depth': 0.851, 'yaw': 6.54, 'datetime': '2018-12-18 17:42:18.982615', 'mgs': 0, 'flw2': 2.72, 'flw1': 0.0, 'flw0': 3.21, 'time': 37.45, 'compass': 106.32, 'pitch': 3.66, 'roll': 2.23}
{'lipoC2': 0.0, 'temp': 0.0, 'lipoC3S3': 12.22, 'state': 'normal', 'rot1': 200, 'rot0': 207, 'rot3': 0, 'rot2': 0, 'depth': -0.598, 'yaw': 5.26, 'datetime': '2018-12-18 17:42:19.194465', 'mgs': 0, 'flw2': 2.93, 'flw1': 0.29, 'flw0': 1.28, 'time': 37.66, 'compass': 105.04, 'pitch': 3.52, 'roll': 1.78}
{'lipoC2': 0.08, 'temp': 0.0, 'lipoC3S3': 12.18, 'state': 'normal', 'rot1': 201, 'rot0': 210, 'rot3': 0, 'rot2': 0, 'depth': 0.851, 'yaw': 4.79, 'datetime': '2018-12-18 17:42:19.405851', 'mgs': 0, 'flw2': 3.13, 'flw1': 0.0, 'flw0': 1.32, 'time': 37.87, 'compass': 104.57, 'pitch': 3.04, 'roll': 1.32}
{'lipoC2': 0.14, 'temp': 0.0, 'lipoC3S3': 12.19, 'state': 'normal', 'rot1': 203, 'rot0': 212, 'rot3': 0, 'rot2': 0, 'depth': 1.233, 'yaw': 5.12, 'datetime': '2018-12-18 17:42:19.616238', 'mgs': 0, 'flw2': 2.67, 'flw1': 0.0, 'flw0': 1.33, 'time': 38.08, 'compass': 104.9, 'pitch': 2.79, 'roll': 1.27}
{'lipoC2': 0.08, 'temp': 0.0, 'lipoC3S3': 12.18, 'state': 'normal', 'rot1': 205, 'rot0': 214, 'rot3': 0, 'rot2': 0, 'depth': 0.623, 'yaw': 6.36, 'datetime': '2018-12-18 17:42:19.824387', 'mgs': 0, 'flw2': 2.98, 'flw1': 0.0, 'flw0': 0.72, 'time': 38.29, 'compass': 106.13, 'pitch': 2.9, 'roll': 1.69}
{'lipoC2': 0.0, 'temp': 0.0, 'lipoC3S3': 12.48, 'state': 'normal', 'rot1': 206, 'rot0': 217, 'rot3': 0, 'rot2': 0, 'depth': -1.743, 'yaw': 8.27, 'datetime': '2018-12-18 17:42:20.033945', 'mgs': 0, 'flw2': 2.47, 'flw1': 0.26, 'flw0': 1.26, 'time': 38.5, 'compass': 108.05, 'pitch': 3.11, 'roll': 2.33}
{'lipoC2': 0.0, 'temp': 0.0, 'lipoC3S3': 12.41, 'state': 'normal', 'rot1': 208, 'rot0': 219, 'rot3': 0, 'rot2': 0, 'depth': 0.241, 'yaw': 10.64, 'datetime': '2018-12-18 17:42:20.242273', 'mgs': 0, 'flw2': 2.76, 'flw1': 0.44, 'flw0': 1.0, 'time': 38.71, 'compass': 110.42, 'pitch': 3.21, 'roll': 2.95}
{'lipoC2': 0.0, 'temp': 0.0, 'lipoC3S3': 12.37, 'state': 'normal', 'rot1': 209, 'rot0': 222, 'rot3': 0, 'rot2': 0, 'depth': 0.241, 'yaw': 13.5, 'datetime': '2018-12-18 17:42:20.451533', 'mgs': 0, 'flw2': 2.71, 'flw1': 0.0, 'flw0': 1.33, 'time': 38.92, 'compass': 113.28, 'pitch': 3.35, 'roll': 3.35}
{'lipoC2': 0.0, 'temp': 0.0, 'lipoC3S3': 12.5, 'state': 'normal', 'rot1': 211, 'rot0': 224, 'rot3': 0, 'rot2': 0, 'depth': 1.462, 'yaw': 16.91, 'datetime': '2018-12-18 17:42:20.661570', 'mgs': 0, 'flw2': 2.87, 'flw1': 0.0, 'flw0': 2.15, 'time': 39.13, 'compass': 116.69, 'pitch': 3.42, 'roll': 3.64}
{'lipoC2': 0.0, 'temp': 0.0, 'lipoC3S3': 12.42, 'state': 'normal', 'rot1': 213, 'rot0': 227, 'rot3': 0, 'rot2': 0, 'depth': 0.699, 'yaw': 20.12, 'datetime': '2018-12-18 17:42:20.873554', 'mgs': 0, 'flw2': 2.61, 'flw1': 0.41, 'flw0': 2.37, 'time': 39.33, 'compass': 119.89, 'pitch': 3.69, 'roll': 3.9}
{'lipoC2': 0.0, 'temp': 0.0, 'lipoC3S3': 12.47, 'state': 'normal', 'rot1': 215, 'rot0': 229, 'rot3': 0, 'rot2': 0, 'depth': 1.538, 'yaw': 22.86, 'datetime': '2018-12-18 17:42:21.079996', 'mgs': 0, 'flw2': 2.66, 'flw1': 0.44, 'flw0': 2.31, 'time': 39.54, 'compass': 122.63, 'pitch': 3.91, 'roll': 4.12}
{'lipoC2': 0.05, 'temp': 0.0, 'lipoC3S3': 12.21, 'state': 'normal', 'rot1': 218, 'rot0': 231, 'rot3': 0, 'rot2': 0, 'depth': 0.394, 'yaw': 25.18, 'datetime': '2018-12-18 17:42:21.289360', 'mgs': 0, 'flw2': 2.87, 'flw1': 0.0, 'flw0': 2.05, 'time': 39.75, 'compass': 124.96, 'pitch': 3.68, 'roll': 4.43}
{'lipoC2': 0.0, 'temp': 0.0, 'lipoC3S3': 12.47, 'state': 'normal', 'rot1': 220, 'rot0': 234, 'rot3': 0, 'rot2': 0, 'depth': 1.309, 'yaw': 27.48, 'datetime': '2018-12-18 17:42:21.500099', 'mgs': 0, 'flw2': 2.48, 'flw1': 0.29, 'flw0': 2.34, 'time': 39.96, 'compass': 127.26, 'pitch': 3.28, 'roll': 4.72}
{'lipoC2': 0.0, 'temp': 0.0, 'lipoC3S3': 12.58, 'state': 'normal', 'rot1': 222, 'rot0': 236, 'rot3': 0, 'rot2': 0, 'depth': 1.996, 'yaw': 29.62, 'datetime': '2018-12-18 17:42:21.709037', 'mgs': 0, 'flw2': 2.86, 'flw1': 0.0, 'flw0': 2.58, 'time': 40.17, 'compass': 129.4, 'pitch': 2.98, 'roll': 4.75}
{'lipoC2': 0.1, 'temp': 0.0, 'lipoC3S3': 12.17, 'state': 'normal', 'rot1': 224, 'rot0': 238, 'rot3': 0, 'rot2': 0, 'depth': 1.691, 'yaw': 31.44, 'datetime': '2018-12-18 17:42:21.921083', 'mgs': 0, 'flw2': 2.84, 'flw1': 0.0, 'flw0': 2.93, 'time': 40.38, 'compass': 131.22, 'pitch': 2.97, 'roll': 4.56}
{'lipoC2': 0.0, 'temp': 0.0, 'lipoC3S3': 12.43, 'state': 'normal', 'rot1': 227, 'rot0': 241, 'rot3': 0, 'rot2': 0, 'depth': -0.14, 'yaw': 32.87, 'datetime': '2018-12-18 17:42:22.131276', 'mgs': 0, 'flw2': 2.56, 'flw1': 0.44, 'flw0': 2.91, 'time': 40.59, 'compass': 132.65, 'pitch': 3.41, 'roll': 4.48}
{'lipoC2': 0.13, 'temp': 0.0, 'lipoC3S3': 12.19, 'state': 'normal', 'rot1': 229, 'rot0': 243, 'rot3': 0, 'rot2': 0, 'depth': 0.851, 'yaw': 33.98, 'datetime': '2018-12-18 17:42:22.340997', 'mgs': 0, 'flw2': 2.75, 'flw1': 0.0, 'flw0': 3.06, 'time': 40.8, 'compass': 133.75, 'pitch': 3.93, 'roll': 4.6}
{'lipoC2': 0.0, 'temp': 0.0, 'lipoC3S3': 12.47, 'state': 'normal', 'rot1': 232, 'rot0': 246, 'rot3': 0, 'rot2': 0, 'depth': 1.157, 'yaw': 34.94, 'datetime': '2018-12-18 17:42:22.545491', 'mgs': 0, 'flw2': 2.43, 'flw1': 0.44, 'flw0': 2.89, 'time': 41.01, 'compass': 134.72, 'pitch': 4.13, 'roll': 4.61}
{'lipoC2': 0.1, 'temp': 0.0, 'lipoC3S3': 12.42, 'state': 'normal', 'rot1': 234, 'rot0': 248, 'rot3': 0, 'rot2': 0, 'depth': 1.843, 'yaw': 35.87, 'datetime': '2018-12-18 17:42:22.757778', 'mgs': 0, 'flw2': 2.97, 'flw1': 0.0, 'flw0': 2.67, 'time': 41.22, 'compass': 135.65, 'pitch': 4.18, 'roll': 4.45}
{'lipoC2': 0.0, 'temp': 0.0, 'lipoC3S3': 12.42, 'state': 'normal', 'rot1': 236, 'rot0': 251, 'rot3': 0, 'rot2': 0, 'depth': 0.699, 'yaw': 36.65, 'datetime': '2018-12-18 17:42:22.965524', 'mgs': 0, 'flw2': 2.75, 'flw1': 0.5, 'flw0': 2.84, 'time': 41.42, 'compass': 136.42, 'pitch': 4.24, 'roll': 4.28}
{'lipoC2': 0.0, 'temp': 0.0, 'lipoC3S3': 12.54, 'state': 'normal', 'rot1': 239, 'rot0': 253, 'rot3': 0, 'rot2': 0, 'depth': 1.691, 'yaw': 37.36, 'datetime': '2018-12-18 17:42:23.174837', 'mgs': 0, 'flw2': 2.86, 'flw1': 0.0, 'flw0': 2.64, 'time': 41.63, 'compass': 137.14, 'pitch': 4.28, 'roll': 4.12}
{'lipoC2': 0.0, 'temp': 0.0, 'lipoC3S3': 12.58, 'state': 'normal', 'rot1': 241, 'rot0': 256, 'rot3': 0, 'rot2': 0, 'depth': 0.012, 'yaw': 37.98, 'datetime': '2018-12-18 17:42:23.384341', 'mgs': 0, 'flw2': 2.84, 'flw1': 0.32, 'flw0': 2.72, 'time': 41.84, 'compass': 137.76, 'pitch': 4.26, 'roll': 4.14}
{'lipoC2': 0.0, 'temp': 0.0, 'lipoC3S3': 12.42, 'state': 'normal', 'rot1': 243, 'rot0': 258, 'rot3': 0, 'rot2': 0, 'depth': 0.012, 'yaw': 38.45, 'datetime': '2018-12-18 17:42:23.596358', 'mgs': 0, 'flw2': 2.89, 'flw1': 0.0, 'flw0': 2.77, 'time': 42.05, 'compass': 138.23, 'pitch': 4.12, 'roll': 4.31}
{'lipoC2': 0.0, 'temp': 0.0, 'lipoC3S3': 12.48, 'state': 'normal', 'rot1': 246, 'rot0': 260, 'rot3': 0, 'rot2': 0, 'depth': 1.385, 'yaw': 39.16, 'datetime': '2018-12-18 17:42:23.805780', 'mgs': 0, 'flw2': 2.61, 'flw1': 0.41, 'flw0': 2.83, 'time': 42.26, 'compass': 138.94, 'pitch': 4.04, 'roll': 4.4}
{'lipoC2': 0.12, 'temp': 0.0, 'lipoC3S3': 12.19, 'state': 'normal', 'rot1': 248, 'rot0': 263, 'rot3': 0, 'rot2': 0, 'depth': 0.775, 'yaw': 39.93, 'datetime': '2018-12-18 17:42:24.015818', 'mgs': 0, 'flw2': 2.8, 'flw1': 0.0, 'flw0': 3.13, 'time': 42.47, 'compass': 139.71, 'pitch': 3.9, 'roll': 4.42}
{'lipoC2': 0.0, 'temp': 0.0, 'lipoC3S3': 12.59, 'state': 'normal', 'rot1': 250, 'rot0': 266, 'rot3': 0, 'rot2': 0, 'depth': -0.217, 'yaw': 40.69, 'datetime': '2018-12-18 17:42:24.220678', 'mgs': 0, 'flw2': 2.76, 'flw1': 0.0, 'flw0': 3.15, 'time': 42.68, 'compass': 140.47, 'pitch': 3.64, 'roll': 4.37}
