{'lipoC2': 7.69, 'temp': 24.0, 'lipoC3S3': 12.58, 'state': 'normal', 'rot1': 0, 'rot0': 0, 'rot3': 0, 'rot2': 0, 'depth': 2.072, 'yaw': -0.4, 'datetime': '2018-11-26 10:55:20.769583', 'mgs': 0, 'flw2': 0.0, 'flw1': 0.0, 'flw0': 0.0, 'time': 1.47, 'compass': 165.06, 'pitch': 1.8, 'roll': -4.3}
{'lipoC2': 7.69, 'temp': 24.0, 'lipoC3S3': 12.54, 'state': 'normal', 'rot1': 0, 'rot0': 0, 'rot3': 0, 'rot2': 0, 'depth': 2.225, 'yaw': -0.75, 'datetime': '2018-11-26 10:55:20.978414', 'mgs': 0, 'flw2': 3.33, 'flw1': 0.0, 'flw0': 3.54, 'time': 1.68, 'compass': 164.71, 'pitch': 2.95, 'roll': -3.55}
{'lipoC2': 7.68, 'temp': 23.75, 'lipoC3S3': 12.54, 'state': 'normal', 'rot1': 3, 'rot0': 3, 'rot3': 0, 'rot2': 0, 'depth': 3.827, 'yaw': -0.86, 'datetime': '2018-11-26 10:55:21.184058', 'mgs': 0, 'flw2': 3.05, 'flw1': 0.0, 'flw0': 3.0, 'time': 1.89, 'compass': 164.59, 'pitch': 3.57, 'roll': -1.98}
{'lipoC2': 7.69, 'temp': 23.94, 'lipoC3S3': 12.54, 'state': 'normal', 'rot1': 5, 'rot0': 5, 'rot3': 0, 'rot2': 0, 'depth': 2.225, 'yaw': -1.17, 'datetime': '2018-11-26 10:55:21.393229', 'mgs': 0, 'flw2': 2.93, 'flw1': 0.0, 'flw0': 3.14, 'time': 2.09, 'compass': 164.29, 'pitch': 3.33, 'roll': 0.51}
{'lipoC2': 7.7, 'temp': 23.94, 'lipoC3S3': 12.55, 'state': 'normal', 'rot1': 8, 'rot0': 7, 'rot3': 0, 'rot2': 0, 'depth': 2.301, 'yaw': -1.59, 'datetime': '2018-11-26 10:55:21.602258', 'mgs': 0, 'flw2': 2.88, 'flw1': 0.0, 'flw0': 1.35, 'time': 2.3, 'compass': 163.87, 'pitch': 2.54, 'roll': 3.48}
{'lipoC2': 7.69, 'temp': 23.81, 'lipoC3S3': 12.5, 'state': 'normal', 'rot1': 10, 'rot0': 9, 'rot3': 0, 'rot2': 0, 'depth': 2.301, 'yaw': -1.12, 'datetime': '2018-11-26 10:55:21.813495', 'mgs': 0, 'flw2': 2.87, 'flw1': 0.0, 'flw0': 1.39, 'time': 2.51, 'compass': 164.33, 'pitch': 1.69, 'roll': 5.81}
{'lipoC2': 7.69, 'temp': 23.75, 'lipoC3S3': 12.54, 'state': 'normal', 'rot1': 13, 'rot0': 11, 'rot3': 0, 'rot2': 0, 'depth': 2.835, 'yaw': 0.38, 'datetime': '2018-11-26 10:55:22.041939', 'mgs': 0, 'flw2': 3.02, 'flw1': 0.0, 'flw0': 1.38, 'time': 2.72, 'compass': 165.84, 'pitch': 0.93, 'roll': 7.33}
{'lipoC2': 7.69, 'temp': 23.81, 'lipoC3S3': 12.56, 'state': 'normal', 'rot1': 15, 'rot0': 13, 'rot3': 1, 'rot2': 1, 'depth': 2.072, 'yaw': 3.12, 'datetime': '2018-11-26 10:55:22.334003', 'mgs': 0, 'flw2': 0.0, 'flw1': 0.0, 'flw0': 0.0, 'time': 3.04, 'compass': 168.58, 'pitch': 0.06, 'roll': 8.19}
{'lipoC2': 7.69, 'temp': 23.81, 'lipoC3S3': 12.56, 'state': 'normal', 'rot1': 15, 'rot0': 13, 'rot3': 1, 'rot2': 1, 'depth': 2.148, 'yaw': 3.87, 'datetime': '2018-11-26 10:55:22.543510', 'mgs': 0, 'flw2': 0.0, 'flw1': 0.0, 'flw0': 0.0, 'time': 3.24, 'compass': 169.33, 'pitch': 0.04, 'roll': 6.07}
{'lipoC2': 7.69, 'temp': 23.88, 'lipoC3S3': 12.45, 'state': 'normal', 'rot1': 16, 'rot0': 14, 'rot3': 1, 'rot2': 1, 'depth': 1.996, 'yaw': 4.35, 'datetime': '2018-11-26 10:55:22.756191', 'mgs': 0, 'flw2': 1.55, 'flw1': 0.0, 'flw0': 3.53, 'time': 3.46, 'compass': 169.81, 'pitch': 0.4, 'roll': 2.5}
{'lipoC2': 7.69, 'temp': 23.94, 'lipoC3S3': 12.45, 'state': 'normal', 'rot1': 18, 'rot0': 16, 'rot3': 1, 'rot2': 1, 'depth': 1.996, 'yaw': 3.72, 'datetime': '2018-11-26 10:55:22.964308', 'mgs': 0, 'flw2': 1.35, 'flw1': 4.54, 'flw0': 3.05, 'time': 3.66, 'compass': 169.18, 'pitch': 0.83, 'roll': 1.71}
{'lipoC2': 7.69, 'temp': 23.94, 'lipoC3S3': 12.39, 'state': 'normal', 'rot1': 19, 'rot0': 19, 'rot3': 2, 'rot2': 2, 'depth': 1.92, 'yaw': 1.79, 'datetime': '2018-11-26 10:55:23.173728', 'mgs': 0, 'flw2': 1.35, 'flw1': 3.81, 'flw0': 3.05, 'time': 3.88, 'compass': 167.24, 'pitch': 0.98, 'roll': 2.8}
{'lipoC2': 7.69, 'temp': 23.88, 'lipoC3S3': 12.54, 'state': 'normal', 'rot1': 21, 'rot0': 21, 'rot3': 2, 'rot2': 2, 'depth': 2.072, 'yaw': -0.93, 'datetime': '2018-11-26 10:55:23.382957', 'mgs': 0, 'flw2': 2.98, 'flw1': 0.0, 'flw0': 3.16, 'time': 4.08, 'compass': 164.53, 'pitch': 1.28, 'roll': 3.15}
{'lipoC2': 7.69, 'temp': 23.88, 'lipoC3S3': 12.51, 'state': 'normal', 'rot1': 24, 'rot0': 24, 'rot3': 2, 'rot2': 3, 'depth': 1.92, 'yaw': -3.17, 'datetime': '2018-11-26 10:55:23.592911', 'mgs': 0, 'flw2': 2.91, 'flw1': 4.92, 'flw0': 3.19, 'time': 4.29, 'compass': 162.29, 'pitch': 1.72, 'roll': 2.83}
{'lipoC2': 7.7, 'temp': 23.88, 'lipoC3S3': 12.52, 'state': 'normal', 'rot1': 26, 'rot0': 25, 'rot3': 3, 'rot2': 4, 'depth': 2.682, 'yaw': -4.48, 'datetime': '2018-11-26 10:55:23.802486', 'mgs': 0, 'flw2': 2.98, 'flw1': 3.87, 'flw0': 1.44, 'time': 4.5, 'compass': 160.98, 'pitch': 1.55, 'roll': 4.02}
{'lipoC2': 7.7, 'temp': 23.88, 'lipoC3S3': 12.54, 'state': 'normal', 'rot1': 29, 'rot0': 27, 'rot3': 3, 'rot2': 4, 'depth': 2.148, 'yaw': -4.63, 'datetime': '2018-11-26 10:55:24.012051', 'mgs': 0, 'flw2': 2.99, 'flw1': 0.0, 'flw0': 1.45, 'time': 4.71, 'compass': 160.82, 'pitch': 1.08, 'roll': 5.6}
{'lipoC2': 7.69, 'temp': 23.88, 'lipoC3S3': 12.54, 'state': 'normal', 'rot1': 31, 'rot0': 29, 'rot3': 3, 'rot2': 4, 'depth': 2.835, 'yaw': -3.67, 'datetime': '2018-11-26 10:55:24.222973', 'mgs': 0, 'flw2': 2.98, 'flw1': 4.72, 'flw0': 1.45, 'time': 4.92, 'compass': 161.78, 'pitch': 1.1, 'roll': 6.04}
{'lipoC2': 7.7, 'temp': 23.88, 'lipoC3S3': 12.52, 'state': 'normal', 'rot1': 34, 'rot0': 31, 'rot3': 4, 'rot2': 6, 'depth': 3.217, 'yaw': -2.07, 'datetime': '2018-11-26 10:55:24.435194', 'mgs': 0, 'flw2': 2.97, 'flw1': 3.6, 'flw0': 1.42, 'time': 5.13, 'compass': 163.39, 'pitch': 1.15, 'roll': 6.63}
{'lipoC2': 7.7, 'temp': 23.94, 'lipoC3S3': 12.52, 'state': 'normal', 'rot1': 37, 'rot0': 32, 'rot3': 5, 'rot2': 7, 'depth': 2.682, 'yaw': -0.46, 'datetime': '2018-11-26 10:55:24.643364', 'mgs': 0, 'flw2': 3.05, 'flw1': 4.04, 'flw0': 1.45, 'time': 5.34, 'compass': 165.0, 'pitch': 0.85, 'roll': 7.49}
{'lipoC2': 7.7, 'temp': 23.94, 'lipoC3S3': 12.46, 'state': 'normal', 'rot1': 39, 'rot0': 34, 'rot3': 6, 'rot2': 8, 'depth': 2.072, 'yaw': 1.22, 'datetime': '2018-11-26 10:55:24.855546', 'mgs': 0, 'flw2': 2.89, 'flw1': 0.0, 'flw0': 1.4, 'time': 5.55, 'compass': 166.67, 'pitch': 0.34, 'roll': 7.56}
{'lipoC2': 7.7, 'temp': 23.94, 'lipoC3S3': 12.52, 'state': 'normal', 'rot1': 41, 'rot0': 36, 'rot3': 6, 'rot2': 8, 'depth': 2.301, 'yaw': 2.75, 'datetime': '2018-11-26 10:55:25.062341', 'mgs': 0, 'flw2': 1.37, 'flw1': 0.0, 'flw0': 3.06, 'time': 5.76, 'compass': 168.21, 'pitch': 0.86, 'roll': 6.33}
{'lipoC2': 7.7, 'temp': 24.0, 'lipoC3S3': 12.54, 'state': 'normal', 'rot1': 43, 'rot0': 39, 'rot3': 6, 'rot2': 8, 'depth': 2.225, 'yaw': 2.35, 'datetime': '2018-11-26 10:55:25.274055', 'mgs': 0, 'flw2': 1.37, 'flw1': 0.0, 'flw0': 3.13, 'time': 5.97, 'compass': 167.8, 'pitch': 1.84, 'roll': 5.0}
{'lipoC2': 7.7, 'temp': 24.0, 'lipoC3S3': 12.52, 'state': 'normal', 'rot1': 45, 'rot0': 41, 'rot3': 6, 'rot2': 8, 'depth': 1.996, 'yaw': 0.76, 'datetime': '2018-11-26 10:55:25.483672', 'mgs': 0, 'flw2': 1.39, 'flw1': 0.0, 'flw0': 3.03, 'time': 6.18, 'compass': 166.21, 'pitch': 2.44, 'roll': 4.58}
{'lipoC2': 7.71, 'temp': 24.38, 'lipoC3S3': 12.51, 'state': 'normal', 'rot1': 47, 'rot0': 44, 'rot3': 6, 'rot2': 8, 'depth': 2.225, 'yaw': -1.34, 'datetime': '2018-11-26 10:55:25.694954', 'mgs': 0, 'flw2': 3.06, 'flw1': 0.0, 'flw0': 3.09, 'time': 6.39, 'compass': 164.12, 'pitch': 2.65, 'roll': 4.56}
{'lipoC2': 7.7, 'temp': 24.0, 'lipoC3S3': 12.54, 'state': 'normal', 'rot1': 50, 'rot0': 46, 'rot3': 6, 'rot2': 8, 'depth': 2.301, 'yaw': -2.94, 'datetime': '2018-11-26 10:55:25.901089', 'mgs': 0, 'flw2': 3.11, 'flw1': 0.0, 'flw0': 1.34, 'time': 6.6, 'compass': 162.52, 'pitch': 2.65, 'roll': 4.9}
{'lipoC2': 7.7, 'temp': 24.0, 'lipoC3S3': 12.54, 'state': 'normal', 'rot1': 52, 'rot0': 48, 'rot3': 6, 'rot2': 8, 'depth': 2.301, 'yaw': -3.32, 'datetime': '2018-11-26 10:55:26.109258', 'mgs': 0, 'flw2': 2.97, 'flw1': 0.0, 'flw0': 1.4, 'time': 6.81, 'compass': 162.14, 'pitch': 2.22, 'roll': 5.01}
{'lipoC2': 7.7, 'temp': 24.0, 'lipoC3S3': 12.54, 'state': 'normal', 'rot1': 55, 'rot0': 50, 'rot3': 6, 'rot2': 8, 'depth': 2.377, 'yaw': -2.31, 'datetime': '2018-11-26 10:55:26.319074', 'mgs': 0, 'flw2': 2.93, 'flw1': 0.0, 'flw0': 1.45, 'time': 7.02, 'compass': 163.15, 'pitch': 1.85, 'roll': 4.77}
{'lipoC2': 7.7, 'temp': 24.0, 'lipoC3S3': 12.54, 'state': 'normal', 'rot1': 57, 'rot0': 52, 'rot3': 6, 'rot2': 8, 'depth': 2.377, 'yaw': -0.43, 'datetime': '2018-11-26 10:55:26.524646', 'mgs': 0, 'flw2': 2.88, 'flw1': 0.0, 'flw0': 1.43, 'time': 7.23, 'compass': 165.03, 'pitch': 1.82, 'roll': 4.52}
{'lipoC2': 7.7, 'temp': 24.0, 'lipoC3S3': 12.54, 'state': 'normal', 'rot1': 60, 'rot0': 53, 'rot3': 6, 'rot2': 8, 'depth': 3.064, 'yaw': 1.79, 'datetime': '2018-11-26 10:55:26.741645', 'mgs': 0, 'flw2': 2.97, 'flw1': 0.0, 'flw0': 1.39, 'time': 7.44, 'compass': 167.25, 'pitch': 1.81, 'roll': 4.56}
{'lipoC2': 7.71, 'temp': 23.94, 'lipoC3S3': 12.52, 'state': 'normal', 'rot1': 62, 'rot0': 56, 'rot3': 6, 'rot2': 8, 'depth': 2.454, 'yaw': 3.47, 'datetime': '2018-11-26 10:55:26.943312', 'mgs': 0, 'flw2': 1.28, 'flw1': 0.0, 'flw0': 3.03, 'time': 7.65, 'compass': 168.93, 'pitch': 1.65, 'roll': 4.31}
{'lipoC2': 7.7, 'temp': 23.88, 'lipoC3S3': 12.54, 'state': 'normal', 'rot1': 64, 'rot0': 58, 'rot3': 6, 'rot2': 8, 'depth': 2.454, 'yaw': 3.21, 'datetime': '2018-11-26 10:55:27.153761', 'mgs': 0, 'flw2': 1.34, 'flw1': 0.0, 'flw0': 3.06, 'time': 7.86, 'compass': 168.67, 'pitch': 1.71, 'roll': 3.24}
{'lipoC2': 7.71, 'temp': 23.88, 'lipoC3S3': 12.52, 'state': 'normal', 'rot1': 66, 'rot0': 61, 'rot3': 6, 'rot2': 8, 'depth': 2.759, 'yaw': 1.66, 'datetime': '2018-11-26 10:55:27.364913', 'mgs': 0, 'flw2': 1.35, 'flw1': 0.0, 'flw0': 3.05, 'time': 8.07, 'compass': 167.12, 'pitch': 1.76, 'roll': 2.12}
{'lipoC2': 7.7, 'temp': 23.94, 'lipoC3S3': 12.52, 'state': 'normal', 'rot1': 68, 'rot0': 63, 'rot3': 6, 'rot2': 8, 'depth': 3.217, 'yaw': -0.89, 'datetime': '2018-11-26 10:55:27.576064', 'mgs': 0, 'flw2': 1.44, 'flw1': 0.0, 'flw0': 3.02, 'time': 8.28, 'compass': 164.57, 'pitch': 1.44, 'roll': 1.62}
{'lipoC2': 7.71, 'temp': 24.06, 'lipoC3S3': 12.46, 'state': 'normal', 'rot1': 69, 'rot0': 66, 'rot3': 6, 'rot2': 9, 'depth': 2.454, 'yaw': -3.93, 'datetime': '2018-11-26 10:55:27.784098', 'mgs': 0, 'flw2': 2.97, 'flw1': 4.13, 'flw0': 1.25, 'time': 8.49, 'compass': 161.53, 'pitch': 0.96, 'roll': 1.33}
{'lipoC2': 7.7, 'temp': 24.06, 'lipoC3S3': 12.43, 'state': 'normal', 'rot1': 72, 'rot0': 68, 'rot3': 7, 'rot2': 10, 'depth': 2.53, 'yaw': -5.64, 'datetime': '2018-11-26 10:55:27.994987', 'mgs': 0, 'flw2': 2.84, 'flw1': 3.87, 'flw0': 1.34, 'time': 8.7, 'compass': 159.81, 'pitch': 0.54, 'roll': 1.89}
{'lipoC2': 7.71, 'temp': 24.0, 'lipoC3S3': 12.51, 'state': 'normal', 'rot1': 75, 'rot0': 70, 'rot3': 8, 'rot2': 11, 'depth': 3.827, 'yaw': -5.45, 'datetime': '2018-11-26 10:55:28.206017', 'mgs': 0, 'flw2': 3.0, 'flw1': 3.75, 'flw0': 1.31, 'time': 8.91, 'compass': 160.01, 'pitch': 0.23, 'roll': 3.1}
{'lipoC2': 7.7, 'temp': 24.0, 'lipoC3S3': 12.43, 'state': 'normal', 'rot1': 77, 'rot0': 71, 'rot3': 9, 'rot2': 12, 'depth': 3.903, 'yaw': -4.15, 'datetime': '2018-11-26 10:55:28.418491', 'mgs': 0, 'flw2': 3.09, 'flw1': 5.27, 'flw0': 1.32, 'time': 9.12, 'compass': 161.31, 'pitch': -0.15, 'roll': 4.5}
{'lipoC2': 7.69, 'temp': 23.69, 'lipoC3S3': 12.54, 'state': 'normal', 'rot1': 80, 'rot0': 73, 'rot3': 10, 'rot2': 13, 'depth': 2.454, 'yaw': -2.1, 'datetime': '2018-11-26 10:55:28.625231', 'mgs': 0, 'flw2': 2.95, 'flw1': 0.0, 'flw0': 1.43, 'time': 9.33, 'compass': 163.36, 'pitch': -0.47, 'roll': 6.29}
{'lipoC2': 7.7, 'temp': 24.19, 'lipoC3S3': 12.52, 'state': 'normal', 'rot1': 82, 'rot0': 75, 'rot3': 10, 'rot2': 13, 'depth': 2.377, 'yaw': 0.62, 'datetime': '2018-11-26 10:55:28.835188', 'mgs': 0, 'flw2': 2.87, 'flw1': 0.0, 'flw0': 1.43, 'time': 9.54, 'compass': 166.08, 'pitch': -0.3, 'roll': 7.45}
{'lipoC2': 7.7, 'temp': 24.0, 'lipoC3S3': 12.54, 'state': 'normal', 'rot1': 85, 'rot0': 77, 'rot3': 10, 'rot2': 13, 'depth': 2.377, 'yaw': 3.99, 'datetime': '2018-11-26 10:55:29.045554', 'mgs': 0, 'flw2': 1.26, 'flw1': 0.0, 'flw0': 3.27, 'time': 9.75, 'compass': 169.45, 'pitch': 0.49, 'roll': 7.25}
{'lipoC2': 7.7, 'temp': 24.0, 'lipoC3S3': 12.52, 'state': 'normal', 'rot1': 86, 'rot0': 80, 'rot3': 10, 'rot2': 13, 'depth': 2.301, 'yaw': 5.93, 'datetime': '2018-11-26 10:55:29.257131', 'mgs': 0, 'flw2': 1.38, 'flw1': 0.0, 'flw0': 3.21, 'time': 9.96, 'compass': 171.38, 'pitch': 1.49, 'roll': 5.99}
{'lipoC2': 7.7, 'temp': 24.0, 'lipoC3S3': 12.54, 'state': 'normal', 'rot1': 88, 'rot0': 82, 'rot3': 10, 'rot2': 13, 'depth': 2.225, 'yaw': 5.78, 'datetime': '2018-11-26 10:55:29.464547', 'mgs': 0, 'flw2': 1.35, 'flw1': 0.0, 'flw0': 3.25, 'time': 10.17, 'compass': 171.24, 'pitch': 2.52, 'roll': 4.59}
{'lipoC2': 7.7, 'temp': 24.0, 'lipoC3S3': 12.45, 'state': 'normal', 'rot1': 90, 'rot0': 85, 'rot3': 10, 'rot2': 13, 'depth': 2.301, 'yaw': 3.89, 'datetime': '2018-11-26 10:55:29.675402', 'mgs': 0, 'flw2': 1.33, 'flw1': 0.0, 'flw0': 3.13, 'time': 10.38, 'compass': 169.34, 'pitch': 3.13, 'roll': 3.57}
{'lipoC2': 7.7, 'temp': 24.0, 'lipoC3S3': 12.52, 'state': 'normal', 'rot1': 92, 'rot0': 87, 'rot3': 10, 'rot2': 13, 'depth': 2.301, 'yaw': 0.79, 'datetime': '2018-11-26 10:55:29.884596', 'mgs': 0, 'flw2': 1.42, 'flw1': 0.0, 'flw0': 3.23, 'time': 10.59, 'compass': 166.24, 'pitch': 3.0, 'roll': 2.69}
{'lipoC2': 7.7, 'temp': 24.0, 'lipoC3S3': 12.52, 'state': 'normal', 'rot1': 94, 'rot0': 90, 'rot3': 10, 'rot2': 13, 'depth': 3.674, 'yaw': -2.64, 'datetime': '2018-11-26 10:55:30.095229', 'mgs': 0, 'flw2': 3.08, 'flw1': 0.0, 'flw0': 2.92, 'time': 10.8, 'compass': 162.82, 'pitch': 2.51, 'roll': 1.81}
{'lipoC2': 7.71, 'temp': 24.0, 'lipoC3S3': 12.45, 'state': 'normal', 'rot1': 97, 'rot0': 92, 'rot3': 10, 'rot2': 14, 'depth': 3.445, 'yaw': -5.05, 'datetime': '2018-11-26 10:55:30.304615', 'mgs': 0, 'flw2': 3.03, 'flw1': 4.98, 'flw0': 1.23, 'time': 11.01, 'compass': 160.41, 'pitch': 1.72, 'roll': 1.73}
{'lipoC2': 7.71, 'temp': 24.0, 'lipoC3S3': 12.54, 'state': 'normal', 'rot1': 99, 'rot0': 94, 'rot3': 11, 'rot2': 15, 'depth': 2.377, 'yaw': -6.01, 'datetime': '2018-11-26 10:55:30.515244', 'mgs': 0, 'flw2': 3.02, 'flw1': 0.0, 'flw0': 1.42, 'time': 11.22, 'compass': 159.45, 'pitch': 0.77, 'roll': 2.55}
{'lipoC2': 7.7, 'temp': 24.06, 'lipoC3S3': 12.47, 'state': 'normal', 'rot1': 102, 'rot0': 96, 'rot3': 11, 'rot2': 15, 'depth': 2.377, 'yaw': -5.3, 'datetime': '2018-11-26 10:55:30.726280', 'mgs': 0, 'flw2': 2.78, 'flw1': 0.0, 'flw0': 1.39, 'time': 11.43, 'compass': 160.16, 'pitch': 0.35, 'roll': 3.11}
{'lipoC2': 7.7, 'temp': 23.94, 'lipoC3S3': 12.52, 'state': 'normal', 'rot1': 104, 'rot0': 98, 'rot3': 11, 'rot2': 15, 'depth': 2.988, 'yaw': -3.79, 'datetime': '2018-11-26 10:55:30.936158', 'mgs': 0, 'flw2': 3.0, 'flw1': 0.0, 'flw0': 1.34, 'time': 11.64, 'compass': 161.67, 'pitch': 0.33, 'roll': 3.43}
{'lipoC2': 7.7, 'temp': 23.94, 'lipoC3S3': 12.54, 'state': 'normal', 'rot1': 107, 'rot0': 99, 'rot3': 11, 'rot2': 15, 'depth': 2.454, 'yaw': -1.66, 'datetime': '2018-11-26 10:55:31.146879', 'mgs': 0, 'flw2': 2.97, 'flw1': 0.0, 'flw0': 1.45, 'time': 11.85, 'compass': 163.8, 'pitch': 0.51, 'roll': 3.5}
{'lipoC2': 7.7, 'temp': 24.0, 'lipoC3S3': 12.54, 'state': 'normal', 'rot1': 109, 'rot0': 101, 'rot3': 11, 'rot2': 15, 'depth': 2.53, 'yaw': 0.88, 'datetime': '2018-11-26 10:55:31.357746', 'mgs': 0, 'flw2': 2.92, 'flw1': 0.0, 'flw0': 1.48, 'time': 12.06, 'compass': 166.34, 'pitch': 1.0, 'roll': 3.19}
{'lipoC2': 7.7, 'temp': 24.0, 'lipoC3S3': 12.43, 'state': 'normal', 'rot1': 112, 'rot0': 103, 'rot3': 11, 'rot2': 15, 'depth': 2.53, 'yaw': 3.82, 'datetime': '2018-11-26 10:55:31.567513', 'mgs': 0, 'flw2': 1.23, 'flw1': 0.0, 'flw0': 3.27, 'time': 12.27, 'compass': 169.28, 'pitch': 1.75, 'roll': 2.95}
{'lipoC2': 7.7, 'temp': 24.06, 'lipoC3S3': 12.51, 'state': 'normal', 'rot1': 114, 'rot0': 105, 'rot3': 11, 'rot2': 15, 'depth': 3.293, 'yaw': 5.28, 'datetime': '2018-11-26 10:55:31.778761', 'mgs': 0, 'flw2': 1.27, 'flw1': 5.71, 'flw0': 3.2, 'time': 12.49, 'compass': 170.74, 'pitch': 2.21, 'roll': 2.89}
{'lipoC2': 7.7, 'temp': 24.0, 'lipoC3S3': 12.52, 'state': 'normal', 'rot1': 116, 'rot0': 108, 'rot3': 12, 'rot2': 17, 'depth': 2.682, 'yaw': 4.58, 'datetime': '2018-11-26 10:55:31.990992', 'mgs': 0, 'flw2': 1.27, 'flw1': 4.34, 'flw0': 3.14, 'time': 12.7, 'compass': 170.04, 'pitch': 2.1, 'roll': 3.33}
{'lipoC2': 7.7, 'temp': 24.0, 'lipoC3S3': 12.47, 'state': 'normal', 'rot1': 117, 'rot0': 110, 'rot3': 12, 'rot2': 17, 'depth': 2.682, 'yaw': 2.66, 'datetime': '2018-11-26 10:55:32.202055', 'mgs': 0, 'flw2': 1.25, 'flw1': 0.0, 'flw0': 3.19, 'time': 12.91, 'compass': 168.12, 'pitch': 1.8, 'roll': 4.43}
{'lipoC2': 7.7, 'temp': 24.06, 'lipoC3S3': 12.43, 'state': 'normal', 'rot1': 119, 'rot0': 113, 'rot3': 12, 'rot2': 17, 'depth': 2.759, 'yaw': -0.19, 'datetime': '2018-11-26 10:55:32.411378', 'mgs': 0, 'flw2': 1.32, 'flw1': 0.0, 'flw0': 3.04, 'time': 13.12, 'compass': 165.26, 'pitch': 1.47, 'roll': 4.95}
{'lipoC2': 7.7, 'temp': 24.0, 'lipoC3S3': 12.52, 'state': 'normal', 'rot1': 122, 'rot0': 115, 'rot3': 12, 'rot2': 17, 'depth': 4.361, 'yaw': -3.27, 'datetime': '2018-11-26 10:55:32.622435', 'mgs': 0, 'flw2': 3.02, 'flw1': 0.0, 'flw0': 2.97, 'time': 13.33, 'compass': 162.19, 'pitch': 1.27, 'roll': 4.92}
{'lipoC2': 7.7, 'temp': 24.0, 'lipoC3S3': 12.43, 'state': 'normal', 'rot1': 124, 'rot0': 118, 'rot3': 13, 'rot2': 18, 'depth': 2.759, 'yaw': -5.56, 'datetime': '2018-11-26 10:55:32.836170', 'mgs': 0, 'flw2': 2.83, 'flw1': 6.53, 'flw0': 1.35, 'time': 13.54, 'compass': 159.9, 'pitch': 0.91, 'roll': 5.19}
{'lipoC2': 7.7, 'temp': 24.06, 'lipoC3S3': 12.51, 'state': 'normal', 'rot1': 126, 'rot0': 120, 'rot3': 14, 'rot2': 19, 'depth': 2.759, 'yaw': -6.77, 'datetime': '2018-11-26 10:55:33.046444', 'mgs': 0, 'flw2': 2.97, 'flw1': 0.0, 'flw0': 1.39, 'time': 13.75, 'compass': 158.69, 'pitch': -0.12, 'roll': 6.3}
{'lipoC2': 7.7, 'temp': 24.0, 'lipoC3S3': 12.52, 'state': 'normal', 'rot1': 129, 'rot0': 121, 'rot3': 14, 'rot2': 19, 'depth': 3.14, 'yaw': -6.36, 'datetime': '2018-11-26 10:55:33.256496', 'mgs': 0, 'flw2': 2.95, 'flw1': 0.0, 'flw0': 1.35, 'time': 13.96, 'compass': 159.1, 'pitch': -0.64, 'roll': 6.99}
{'lipoC2': 7.7, 'temp': 24.0, 'lipoC3S3': 12.5, 'state': 'normal', 'rot1': 131, 'rot0': 123, 'rot3': 14, 'rot2': 20, 'depth': 3.369, 'yaw': -4.82, 'datetime': '2018-11-26 10:55:33.466306', 'mgs': 0, 'flw2': 3.05, 'flw1': 4.22, 'flw0': 1.4, 'time': 14.17, 'compass': 160.64, 'pitch': -0.63, 'roll': 6.82}
{'lipoC2': 7.7, 'temp': 24.0, 'lipoC3S3': 12.41, 'state': 'normal', 'rot1': 134, 'rot0': 125, 'rot3': 15, 'rot2': 21, 'depth': 2.454, 'yaw': -2.7, 'datetime': '2018-11-26 10:55:33.678141', 'mgs': 0, 'flw2': 2.91, 'flw1': 3.78, 'flw0': 1.43, 'time': 14.38, 'compass': 162.76, 'pitch': -0.51, 'roll': 6.69}
{'lipoC2': 7.69, 'temp': 24.0, 'lipoC3S3': 12.51, 'state': 'normal', 'rot1': 137, 'rot0': 127, 'rot3': 16, 'rot2': 22, 'depth': 2.225, 'yaw': -0.21, 'datetime': '2018-11-26 10:55:33.884381', 'mgs': 0, 'flw2': 2.88, 'flw1': 4.1, 'flw0': 1.43, 'time': 14.6, 'compass': 165.25, 'pitch': -0.2, 'roll': 6.58}
{'lipoC2': 7.7, 'temp': 24.0, 'lipoC3S3': 12.47, 'state': 'normal', 'rot1': 139, 'rot0': 129, 'rot3': 16, 'rot2': 23, 'depth': 2.148, 'yaw': 2.59, 'datetime': '2018-11-26 10:55:34.094446', 'mgs': 0, 'flw2': 1.25, 'flw1': 0.0, 'flw0': 3.23, 'time': 14.81, 'compass': 168.04, 'pitch': 0.4, 'roll': 6.07}
{'lipoC2': 7.71, 'temp': 24.0, 'lipoC3S3': 12.51, 'state': 'normal', 'rot1': 141, 'rot0': 131, 'rot3': 16, 'rot2': 23, 'depth': 2.148, 'yaw': 3.6, 'datetime': '2018-11-26 10:55:34.305323', 'mgs': 0, 'flw2': 1.37, 'flw1': 0.0, 'flw0': 3.14, 'time': 15.02, 'compass': 169.06, 'pitch': 1.16, 'roll': 4.8}
{'lipoC2': 7.7, 'temp': 24.0, 'lipoC3S3': 12.51, 'state': 'normal', 'rot1': 143, 'rot0': 133, 'rot3': 16, 'rot2': 23, 'depth': 2.148, 'yaw': 2.41, 'datetime': '2018-11-26 10:55:34.518890', 'mgs': 0, 'flw2': 1.39, 'flw1': 0.0, 'flw0': 3.21, 'time': 15.23, 'compass': 167.87, 'pitch': 1.49, 'roll': 3.45}
{'lipoC2': 7.7, 'temp': 24.0, 'lipoC3S3': 12.52, 'state': 'normal', 'rot1': 145, 'rot0': 136, 'rot3': 16, 'rot2': 23, 'depth': 2.148, 'yaw': -0.06, 'datetime': '2018-11-26 10:55:34.731262', 'mgs': 0, 'flw2': 1.37, 'flw1': 0.0, 'flw0': 3.2, 'time': 15.44, 'compass': 165.4, 'pitch': 1.49, 'roll': 2.78}
{'lipoC2': 7.7, 'temp': 24.0, 'lipoC3S3': 12.51, 'state': 'normal', 'rot1': 146, 'rot0': 138, 'rot3': 16, 'rot2': 23, 'depth': 2.988, 'yaw': -3.28, 'datetime': '2018-11-26 10:55:34.941370', 'mgs': 0, 'flw2': 1.46, 'flw1': 0.0, 'flw0': 3.05, 'time': 15.65, 'compass': 162.18, 'pitch': 1.37, 'roll': 2.48}
{'lipoC2': 7.7, 'temp': 24.0, 'lipoC3S3': 12.52, 'state': 'normal', 'rot1': 149, 'rot0': 140, 'rot3': 16, 'rot2': 23, 'depth': 3.293, 'yaw': -6.02, 'datetime': '2018-11-26 10:55:35.150333', 'mgs': 0, 'flw2': 3.04, 'flw1': 0.0, 'flw0': 1.33, 'time': 15.86, 'compass': 159.44, 'pitch': 0.95, 'roll': 2.19}
{'lipoC2': 7.69, 'temp': 24.0, 'lipoC3S3': 12.5, 'state': 'normal', 'rot1': 152, 'rot0': 142, 'rot3': 17, 'rot2': 23, 'depth': 2.835, 'yaw': -6.43, 'datetime': '2018-11-26 10:55:35.357690', 'mgs': 0, 'flw2': 2.94, 'flw1': 4.54, 'flw0': 1.4, 'time': 16.07, 'compass': 159.03, 'pitch': 0.63, 'roll': 2.03}
{'lipoC2': 7.69, 'temp': 24.0, 'lipoC3S3': 12.5, 'state': 'normal', 'rot1': 154, 'rot0': 144, 'rot3': 17, 'rot2': 25, 'depth': 2.454, 'yaw': -5.59, 'datetime': '2018-11-26 10:55:35.567714', 'mgs': 0, 'flw2': 2.88, 'flw1': 3.75, 'flw0': 1.42, 'time': 16.28, 'compass': 159.86, 'pitch': 0.41, 'roll': 2.47}
{'lipoC2': 7.7, 'temp': 24.0, 'lipoC3S3': 12.51, 'state': 'normal', 'rot1': 157, 'rot0': 145, 'rot3': 18, 'rot2': 26, 'depth': 2.53, 'yaw': -4.06, 'datetime': '2018-11-26 10:55:35.778113', 'mgs': 0, 'flw2': 2.86, 'flw1': 3.93, 'flw0': 1.44, 'time': 16.49, 'compass': 161.39, 'pitch': 0.12, 'roll': 3.47}
{'lipoC2': 7.71, 'temp': 24.0, 'lipoC3S3': 12.51, 'state': 'normal', 'rot1': 159, 'rot0': 147, 'rot3': 18, 'rot2': 26, 'depth': 2.454, 'yaw': -2.11, 'datetime': '2018-11-26 10:55:35.995383', 'mgs': 0, 'flw2': 2.86, 'flw1': 0.0, 'flw0': 1.35, 'time': 16.7, 'compass': 163.35, 'pitch': 0.03, 'roll': 4.63}
{'lipoC2': 7.7, 'temp': 23.94, 'lipoC3S3': 12.51, 'state': 'normal', 'rot1': 162, 'rot0': 149, 'rot3': 18, 'rot2': 26, 'depth': 2.911, 'yaw': 0.37, 'datetime': '2018-11-26 10:55:36.199079', 'mgs': 0, 'flw2': 2.93, 'flw1': 0.0, 'flw0': 1.35, 'time': 16.91, 'compass': 165.83, 'pitch': 0.38, 'roll': 5.07}
{'lipoC2': 7.7, 'temp': 24.0, 'lipoC3S3': 12.5, 'state': 'normal', 'rot1': 164, 'rot0': 152, 'rot3': 18, 'rot2': 26, 'depth': 3.14, 'yaw': 2.95, 'datetime': '2018-11-26 10:55:36.411214', 'mgs': 0, 'flw2': 3.06, 'flw1': 0.0, 'flw0': 3.05, 'time': 17.13, 'compass': 168.41, 'pitch': 0.75, 'roll': 5.4}
{'lipoC2': 7.7, 'temp': 24.0, 'lipoC3S3': 12.5, 'state': 'normal', 'rot1': 166, 'rot0': 154, 'rot3': 19, 'rot2': 27, 'depth': 3.827, 'yaw': 4.71, 'datetime': '2018-11-26 10:55:36.621259', 'mgs': 0, 'flw2': 1.34, 'flw1': 4.1, 'flw0': 3.06, 'time': 17.33, 'compass': 170.17, 'pitch': 1.0, 'roll': 6.2}
{'lipoC2': 7.7, 'temp': 24.0, 'lipoC3S3': 12.43, 'state': 'normal', 'rot1': 168, 'rot0': 156, 'rot3': 20, 'rot2': 28, 'depth': 2.682, 'yaw': 5.03, 'datetime': '2018-11-26 10:55:36.832500', 'mgs': 0, 'flw2': 1.28, 'flw1': 0.0, 'flw0': 3.16, 'time': 17.55, 'compass': 170.48, 'pitch': 1.11, 'roll': 6.71}
{'lipoC2': 7.7, 'temp': 24.0, 'lipoC3S3': 12.51, 'state': 'normal', 'rot1': 170, 'rot0': 159, 'rot3': 20, 'rot2': 28, 'depth': 2.682, 'yaw': 3.84, 'datetime': '2018-11-26 10:55:37.046420', 'mgs': 0, 'flw2': 1.35, 'flw1': 0.0, 'flw0': 3.16, 'time': 17.76, 'compass': 169.29, 'pitch': 1.33, 'roll': 6.79}
{'lipoC2': 7.7, 'temp': 23.94, 'lipoC3S3': 12.51, 'state': 'normal', 'rot1': 172, 'rot0': 161, 'rot3': 20, 'rot2': 28, 'depth': 2.606, 'yaw': 1.68, 'datetime': '2018-11-26 10:55:37.257845', 'mgs': 0, 'flw2': 1.31, 'flw1': 0.0, 'flw0': 3.15, 'time': 17.97, 'compass': 167.14, 'pitch': 1.37, 'roll': 6.84}
{'lipoC2': 7.7, 'temp': 24.0, 'lipoC3S3': 12.5, 'state': 'normal', 'rot1': 174, 'rot0': 164, 'rot3': 20, 'rot2': 28, 'depth': 2.606, 'yaw': -1.24, 'datetime': '2018-11-26 10:55:37.466356', 'mgs': 0, 'flw2': 1.31, 'flw1': 0.0, 'flw0': 3.04, 'time': 18.18, 'compass': 164.22, 'pitch': 1.29, 'roll': 6.61}
{'lipoC2': 7.7, 'temp': 24.0, 'lipoC3S3': 12.52, 'state': 'normal', 'rot1': 176, 'rot0': 166, 'rot3': 20, 'rot2': 28, 'depth': 2.53, 'yaw': -4.23, 'datetime': '2018-11-26 10:55:37.679098', 'mgs': 0, 'flw2': 2.97, 'flw1': 0.0, 'flw0': 1.39, 'time': 18.39, 'compass': 161.23, 'pitch': 1.03, 'roll': 5.52}
{'lipoC2': 7.7, 'temp': 23.75, 'lipoC3S3': 12.5, 'state': 'normal', 'rot1': 179, 'rot0': 168, 'rot3': 20, 'rot2': 28, 'depth': 2.606, 'yaw': -5.29, 'datetime': '2018-11-26 10:55:37.892356', 'mgs': 0, 'flw2': 2.93, 'flw1': 0.0, 'flw0': 1.35, 'time': 18.6, 'compass': 160.17, 'pitch': 0.56, 'roll': 4.4}
{'lipoC2': 7.7, 'temp': 24.06, 'lipoC3S3': 12.52, 'state': 'normal', 'rot1': 181, 'rot0': 169, 'rot3': 20, 'rot2': 28, 'depth': 2.682, 'yaw': -4.74, 'datetime': '2018-11-26 10:55:38.099488', 'mgs': 0, 'flw2': 3.11, 'flw1': 0.0, 'flw0': 1.45, 'time': 18.81, 'compass': 160.72, 'pitch': 0.15, 'roll': 3.86}
{'lipoC2': 7.7, 'temp': 24.0, 'lipoC3S3': 12.52, 'state': 'normal', 'rot1': 184, 'rot0': 171, 'rot3': 20, 'rot2': 28, 'depth': 2.682, 'yaw': -3.17, 'datetime': '2018-11-26 10:55:38.311704', 'mgs': 0, 'flw2': 2.92, 'flw1': 0.0, 'flw0': 1.44, 'time': 19.02, 'compass': 162.29, 'pitch': -0.02, 'roll': 3.67}
{'lipoC2': 7.7, 'temp': 24.0, 'lipoC3S3': 12.51, 'state': 'normal', 'rot1': 187, 'rot0': 173, 'rot3': 20, 'rot2': 28, 'depth': 2.682, 'yaw': -0.94, 'datetime': '2018-11-26 10:55:38.519342', 'mgs': 0, 'flw2': 2.84, 'flw1': 0.0, 'flw0': 1.42, 'time': 19.23, 'compass': 164.52, 'pitch': 0.06, 'roll': 3.54}
{'lipoC2': 7.7, 'temp': 24.0, 'lipoC3S3': 12.51, 'state': 'normal', 'rot1': 189, 'rot0': 175, 'rot3': 20, 'rot2': 28, 'depth': 2.682, 'yaw': 1.64, 'datetime': '2018-11-26 10:55:38.735148', 'mgs': 0, 'flw2': 2.89, 'flw1': 0.0, 'flw0': 1.44, 'time': 19.44, 'compass': 167.1, 'pitch': 0.39, 'roll': 3.33}
{'lipoC2': 7.7, 'temp': 23.88, 'lipoC3S3': 12.52, 'state': 'normal', 'rot1': 191, 'rot0': 177, 'rot3': 20, 'rot2': 28, 'depth': 2.759, 'yaw': 3.55, 'datetime': '2018-11-26 10:55:38.945122', 'mgs': 0, 'flw2': 1.29, 'flw1': 0.0, 'flw0': 3.17, 'time': 19.66, 'compass': 169.01, 'pitch': 1.0, 'roll': 2.93}
{'lipoC2': 7.7, 'temp': 23.88, 'lipoC3S3': 12.51, 'state': 'normal', 'rot1': 193, 'rot0': 179, 'rot3': 20, 'rot2': 28, 'depth': 2.682, 'yaw': 3.01, 'datetime': '2018-11-26 10:55:39.152756', 'mgs': 0, 'flw2': 1.33, 'flw1': 0.0, 'flw0': 3.2, 'time': 19.87, 'compass': 168.47, 'pitch': 1.58, 'roll': 2.53}
{'lipoC2': 7.7, 'temp': 24.19, 'lipoC3S3': 12.46, 'state': 'normal', 'rot1': 195, 'rot0': 182, 'rot3': 20, 'rot2': 28, 'depth': 2.682, 'yaw': 1.17, 'datetime': '2018-11-26 10:55:39.366098', 'mgs': 0, 'flw2': 1.27, 'flw1': 0.0, 'flw0': 3.11, 'time': 20.08, 'compass': 166.63, 'pitch': 1.75, 'roll': 2.34}
{'lipoC2': 7.7, 'temp': 24.0, 'lipoC3S3': 12.42, 'state': 'normal', 'rot1': 197, 'rot0': 184, 'rot3': 20, 'rot2': 28, 'depth': 2.682, 'yaw': -1.44, 'datetime': '2018-11-26 10:55:39.576252', 'mgs': 0, 'flw2': 1.28, 'flw1': 0.0, 'flw0': 3.03, 'time': 20.29, 'compass': 164.02, 'pitch': 1.65, 'roll': 2.3}
{'lipoC2': 7.7, 'temp': 24.06, 'lipoC3S3': 12.51, 'state': 'normal', 'rot1': 199, 'rot0': 187, 'rot3': 20, 'rot2': 28, 'depth': 3.751, 'yaw': -4.67, 'datetime': '2018-11-26 10:55:39.786131', 'mgs': 0, 'flw2': 3.17, 'flw1': 0.0, 'flw0': 1.29, 'time': 20.5, 'compass': 160.79, 'pitch': 1.47, 'roll': 2.17}
{'lipoC2': 7.7, 'temp': 24.0, 'lipoC3S3': 12.51, 'state': 'normal', 'rot1': 201, 'rot0': 188, 'rot3': 20, 'rot2': 28, 'depth': 2.759, 'yaw': -6.45, 'datetime': '2018-11-26 10:55:39.997330', 'mgs': 0, 'flw2': 2.93, 'flw1': 5.83, 'flw0': 1.38, 'time': 20.71, 'compass': 159.01, 'pitch': 1.12, 'roll': 1.99}
{'lipoC2': 7.7, 'temp': 23.75, 'lipoC3S3': 12.38, 'state': 'normal', 'rot1': 204, 'rot0': 190, 'rot3': 21, 'rot2': 29, 'depth': 2.682, 'yaw': -6.63, 'datetime': '2018-11-26 10:55:40.206301', 'mgs': 0, 'flw2': 2.99, 'flw1': 4.51, 'flw0': 1.34, 'time': 20.92, 'compass': 158.83, 'pitch': 0.73, 'roll': 2.31}
{'lipoC2': 7.7, 'temp': 24.5, 'lipoC3S3': 12.51, 'state': 'normal', 'rot1': 206, 'rot0': 192, 'rot3': 21, 'rot2': 30, 'depth': 3.064, 'yaw': -5.8, 'datetime': '2018-11-26 10:55:40.415876', 'mgs': 0, 'flw2': 2.94, 'flw1': 0.0, 'flw0': 1.32, 'time': 21.13, 'compass': 159.66, 'pitch': 0.63, 'roll': 3.35}
{'lipoC2': 7.7, 'temp': 24.06, 'lipoC3S3': 12.5, 'state': 'normal', 'rot1': 209, 'rot0': 194, 'rot3': 21, 'rot2': 30, 'depth': 3.445, 'yaw': -3.91, 'datetime': '2018-11-26 10:55:40.625887', 'mgs': 0, 'flw2': 3.02, 'flw1': 6.15, 'flw0': 1.42, 'time': 21.34, 'compass': 161.55, 'pitch': 0.89, 'roll': 4.07}
{'lipoC2': 7.7, 'temp': 24.06, 'lipoC3S3': 12.48, 'state': 'normal', 'rot1': 211, 'rot0': 196, 'rot3': 22, 'rot2': 31, 'depth': 2.682, 'yaw': -1.59, 'datetime': '2018-11-26 10:55:40.843467', 'mgs': 0, 'flw2': 2.89, 'flw1': 4.86, 'flw0': 1.4, 'time': 21.55, 'compass': 163.87, 'pitch': 1.02, 'roll': 4.79}
{'lipoC2': 7.7, 'temp': 24.06, 'lipoC3S3': 12.51, 'state': 'normal', 'rot1': 214, 'rot0': 198, 'rot3': 22, 'rot2': 32, 'depth': 2.53, 'yaw': 0.94, 'datetime': '2018-11-26 10:55:41.046785', 'mgs': 0, 'flw2': 2.95, 'flw1': 0.0, 'flw0': 3.25, 'time': 21.76, 'compass': 166.4, 'pitch': 1.25, 'roll': 5.49}
{'lipoC2': 7.7, 'temp': 23.69, 'lipoC3S3': 12.51, 'state': 'normal', 'rot1': 216, 'rot0': 200, 'rot3': 22, 'rot2': 32, 'depth': 2.454, 'yaw': 2.85, 'datetime': '2018-11-26 10:55:41.256651', 'mgs': 0, 'flw2': 2.93, 'flw1': 0.0, 'flw0': 3.21, 'time': 21.98, 'compass': 168.3, 'pitch': 1.53, 'roll': 5.82}
{'lipoC2': 7.7, 'temp': 24.63, 'lipoC3S3': 12.41, 'state': 'normal', 'rot1': 218, 'rot0': 202, 'rot3': 22, 'rot2': 32, 'depth': 2.377, 'yaw': 3.64, 'datetime': '2018-11-26 10:55:41.466847', 'mgs': 0, 'flw2': 1.33, 'flw1': 0.0, 'flw0': 3.2, 'time': 22.19, 'compass': 169.09, 'pitch': 1.64, 'roll': 5.99}
{'lipoC2': 7.7, 'temp': 24.0, 'lipoC3S3': 12.5, 'state': 'normal', 'rot1': 220, 'rot0': 205, 'rot3': 22, 'rot2': 32, 'depth': 3.14, 'yaw': 2.64, 'datetime': '2018-11-26 10:55:41.686016', 'mgs': 0, 'flw2': 1.39, 'flw1': 0.0, 'flw0': 3.1, 'time': 22.4, 'compass': 168.1, 'pitch': 1.92, 'roll': 5.06}
{'lipoC2': 7.7, 'temp': 23.94, 'lipoC3S3': 12.48, 'state': 'normal', 'rot1': 222, 'rot0': 207, 'rot3': 23, 'rot2': 32, 'depth': 3.064, 'yaw': 0.55, 'datetime': '2018-11-26 10:55:41.898210', 'mgs': 0, 'flw2': 1.31, 'flw1': 5.21, 'flw0': 3.02, 'time': 22.61, 'compass': 166.01, 'pitch': 1.88, 'roll': 3.7}
{'lipoC2': 7.7, 'temp': 24.06, 'lipoC3S3': 12.45, 'state': 'normal', 'rot1': 224, 'rot0': 210, 'rot3': 23, 'rot2': 33, 'depth': 2.148, 'yaw': -1.96, 'datetime': '2018-11-26 10:55:42.110183', 'mgs': 0, 'flw2': 2.87, 'flw1': 4.16, 'flw0': 3.06, 'time': 22.82, 'compass': 163.49, 'pitch': 1.08, 'roll': 3.12}
{'lipoC2': 7.7, 'temp': 24.06, 'lipoC3S3': 12.45, 'state': 'normal', 'rot1': 226, 'rot0': 212, 'rot3': 24, 'rot2': 33, 'depth': 2.301, 'yaw': -3.59, 'datetime': '2018-11-26 10:55:42.320378', 'mgs': 0, 'flw2': 2.86, 'flw1': 0.0, 'flw0': 1.29, 'time': 23.03, 'compass': 161.87, 'pitch': 0.28, 'roll': 3.33}
{'lipoC2': 7.7, 'temp': 24.06, 'lipoC3S3': 12.5, 'state': 'normal', 'rot1': 229, 'rot0': 214, 'rot3': 24, 'rot2': 33, 'depth': 2.225, 'yaw': -3.53, 'datetime': '2018-11-26 10:55:42.525838', 'mgs': 0, 'flw2': 2.82, 'flw1': 0.0, 'flw0': 1.34, 'time': 23.24, 'compass': 161.93, 'pitch': 0.06, 'roll': 2.77}
{'lipoC2': 7.7, 'temp': 24.0, 'lipoC3S3': 12.54, 'state': 'normal', 'rot1': 231, 'rot0': 215, 'rot3': 24, 'rot2': 33, 'depth': 2.225, 'yaw': -2.03, 'datetime': '2018-11-26 10:55:42.739613', 'mgs': 0, 'flw2': 0.0, 'flw1': 0.0, 'flw0': 0.0, 'time': 23.45, 'compass': 163.43, 'pitch': 0.19, 'roll': 2.09}
{'lipoC2': 7.7, 'temp': 24.0, 'lipoC3S3': 12.5, 'state': 'normal', 'rot1': 231, 'rot0': 215, 'rot3': 25, 'rot2': 33, 'depth': 2.682, 'yaw': -0.78, 'datetime': '2018-11-26 10:55:42.946985', 'mgs': 0, 'flw2': 0.0, 'flw1': 8.99, 'flw0': 0.0, 'time': 23.66, 'compass': 164.67, 'pitch': 0.38, 'roll': 0.1}
{'lipoC2': 7.7, 'temp': 23.75, 'lipoC3S3': 12.46, 'state': 'normal', 'rot1': 233, 'rot0': 217, 'rot3': 26, 'rot2': 34, 'depth': 1.92, 'yaw': -0.05, 'datetime': '2018-11-26 10:55:43.161147', 'mgs': 0, 'flw2': 2.87, 'flw1': 6.8, 'flw0': 3.16, 'time': 23.87, 'compass': 165.41, 'pitch': 1.2, 'roll': -2.71}
{'lipoC2': 7.7, 'temp': 24.5, 'lipoC3S3': 12.31, 'state': 'normal', 'rot1': 235, 'rot0': 219, 'rot3': 27, 'rot2': 35, 'depth': 2.53, 'yaw': 0.12, 'datetime': '2018-11-26 10:55:43.370870', 'mgs': 0, 'flw2': 2.84, 'flw1': 6.3, 'flw0': 3.08, 'time': 24.08, 'compass': 165.58, 'pitch': 2.49, 'roll': -3.54}
{'lipoC2': 7.7, 'temp': 24.31, 'lipoC3S3': 12.42, 'state': 'normal', 'rot1': 238, 'rot0': 222, 'rot3': 28, 'rot2': 37, 'depth': 3.827, 'yaw': 0.16, 'datetime': '2018-11-26 10:55:43.581655', 'mgs': 0, 'flw2': 2.95, 'flw1': 5.83, 'flw0': 2.95, 'time': 24.29, 'compass': 165.62, 'pitch': 3.47, 'roll': -3.45}
{'lipoC2': 7.7, 'temp': 24.06, 'lipoC3S3': 12.46, 'state': 'normal', 'rot1': 240, 'rot0': 224, 'rot3': 29, 'rot2': 38, 'depth': 3.064, 'yaw': -0.04, 'datetime': '2018-11-26 10:55:43.792836', 'mgs': 0, 'flw2': 2.8, 'flw1': 6.36, 'flw0': 3.08, 'time': 24.5, 'compass': 165.41, 'pitch': 3.84, 'roll': -2.99}
{'lipoC2': 7.7, 'temp': 24.06, 'lipoC3S3': 12.47, 'state': 'normal', 'rot1': 243, 'rot0': 227, 'rot3': 31, 'rot2': 39, 'depth': 3.293, 'yaw': -0.55, 'datetime': '2018-11-26 10:55:44.002177', 'mgs': 0, 'flw2': 2.94, 'flw1': 5.42, 'flw0': 3.04, 'time': 24.72, 'compass': 164.91, 'pitch': 3.84, 'roll': -2.11}
{'lipoC2': 7.7, 'temp': 24.06, 'lipoC3S3': 12.5, 'state': 'normal', 'rot1': 245, 'rot0': 229, 'rot3': 32, 'rot2': 41, 'depth': 3.445, 'yaw': -1.23, 'datetime': '2018-11-26 10:55:44.213446', 'mgs': 0, 'flw2': 2.86, 'flw1': 4.45, 'flw0': 3.03, 'time': 24.93, 'compass': 164.22, 'pitch': 3.68, 'roll': -0.74}
{'lipoC2': 7.7, 'temp': 24.25, 'lipoC3S3': 12.37, 'state': 'normal', 'rot1': 248, 'rot0': 231, 'rot3': 33, 'rot2': 42, 'depth': 3.751, 'yaw': -1.56, 'datetime': '2018-11-26 10:55:44.424264', 'mgs': 0, 'flw2': 2.87, 'flw1': 4.37, 'flw0': 1.27, 'time': 25.14, 'compass': 163.9, 'pitch': 3.47, 'roll': 0.59}
{'lipoC2': 7.7, 'temp': 24.06, 'lipoC3S3': 12.42, 'state': 'normal', 'rot1': 251, 'rot0': 233, 'rot3': 34, 'rot2': 43, 'depth': 4.971, 'yaw': -0.48, 'datetime': '2018-11-26 10:55:44.634442', 'mgs': 0, 'flw2': 2.95, 'flw1': 4.16, 'flw0': 1.27, 'time': 25.35, 'compass': 164.97, 'pitch': 3.24, 'roll': 1.22}
{'lipoC2': 7.7, 'temp': 24.06, 'lipoC3S3': 12.45, 'state': 'normal', 'rot1': 253, 'rot0': 235, 'rot3': 35, 'rot2': 44, 'depth': 4.208, 'yaw': 1.4, 'datetime': '2018-11-26 10:55:44.846943', 'mgs': 0, 'flw2': 2.71, 'flw1': 0.0, 'flw0': 1.37, 'time': 25.56, 'compass': 166.85, 'pitch': 2.92, 'roll': 1.44}
{'lipoC2': 7.7, 'temp': 24.0, 'lipoC3S3': 12.5, 'state': 'normal', 'rot1': 255, 'rot0': 237, 'rot3': 35, 'rot2': 44, 'depth': 5.2, 'yaw': 3.05, 'datetime': '2018-11-26 10:55:45.057409', 'mgs': 0, 'flw2': 1.34, 'flw1': 0.0, 'flw0': 3.06, 'time': 25.77, 'compass': 168.51, 'pitch': 2.32, 'roll': 1.75}
{'lipoC2': 7.7, 'temp': 23.75, 'lipoC3S3': 12.48, 'state': 'normal', 'rot1': 257, 'rot0': 240, 'rot3': 36, 'rot2': 45, 'depth': 4.971, 'yaw': 2.77, 'datetime': '2018-11-26 10:55:45.267518', 'mgs': 0, 'flw2': 1.35, 'flw1': 4.66, 'flw0': 3.15, 'time': 25.98, 'compass': 168.23, 'pitch': 1.57, 'roll': 2.34}
{'lipoC2': 7.7, 'temp': 24.25, 'lipoC3S3': 12.47, 'state': 'normal', 'rot1': 259, 'rot0': 242, 'rot3': 38, 'rot2': 46, 'depth': 4.514, 'yaw': 1.29, 'datetime': '2018-11-26 10:55:45.478629', 'mgs': 0, 'flw2': 1.23, 'flw1': 5.71, 'flw0': 3.0, 'time': 26.19, 'compass': 166.74, 'pitch': 0.86, 'roll': 3.56}
{'lipoC2': 7.7, 'temp': 24.25, 'lipoC3S3': 12.37, 'state': 'normal', 'rot1': 261, 'rot0': 245, 'rot3': 38, 'rot2': 47, 'depth': 4.514, 'yaw': -0.71, 'datetime': '2018-11-26 10:55:45.688326', 'mgs': 0, 'flw2': 1.27, 'flw1': 3.46, 'flw0': 2.97, 'time': 26.41, 'compass': 164.75, 'pitch': 0.62, 'roll': 4.15}
{'lipoC2': 7.7, 'temp': 24.0, 'lipoC3S3': 12.51, 'state': 'normal', 'rot1': 263, 'rot0': 247, 'rot3': 39, 'rot2': 48, 'depth': 4.59, 'yaw': -3.09, 'datetime': '2018-11-26 10:55:45.900174', 'mgs': 0, 'flw2': 3.16, 'flw1': 0.0, 'flw0': 1.35, 'time': 26.62, 'compass': 162.37, 'pitch': 0.53, 'roll': 4.17}
{'lipoC2': 7.7, 'temp': 24.06, 'lipoC3S3': 12.51, 'state': 'normal', 'rot1': 265, 'rot0': 249, 'rot3': 39, 'rot2': 48, 'depth': 4.59, 'yaw': -4.1, 'datetime': '2018-11-26 10:55:46.111212', 'mgs': 0, 'flw2': 2.97, 'flw1': 0.0, 'flw0': 1.44, 'time': 26.83, 'compass': 161.36, 'pitch': 0.64, 'roll': 4.26}
{'lipoC2': 7.7, 'temp': 24.19, 'lipoC3S3': 12.51, 'state': 'normal', 'rot1': 268, 'rot0': 251, 'rot3': 39, 'rot2': 48, 'depth': 4.59, 'yaw': -3.43, 'datetime': '2018-11-26 10:55:46.321438', 'mgs': 0, 'flw2': 2.84, 'flw1': 0.0, 'flw0': 1.43, 'time': 27.04, 'compass': 162.03, 'pitch': 0.87, 'roll': 4.18}
{'lipoC2': 7.7, 'temp': 24.06, 'lipoC3S3': 12.43, 'state': 'normal', 'rot1': 271, 'rot0': 252, 'rot3': 39, 'rot2': 48, 'depth': 4.59, 'yaw': -1.91, 'datetime': '2018-11-26 10:55:46.536852', 'mgs': 0, 'flw2': 2.82, 'flw1': 0.0, 'flw0': 1.38, 'time': 27.25, 'compass': 163.55, 'pitch': 1.14, 'roll': 4.28}
{'lipoC2': 7.7, 'temp': 24.0, 'lipoC3S3': 12.5, 'state': 'normal', 'rot1': 274, 'rot0': 255, 'rot3': 39, 'rot2': 48, 'depth': 4.514, 'yaw': 1.63, 'datetime': '2018-11-26 10:55:46.840710', 'mgs': 0, 'flw2': 3.05, 'flw1': 0.0, 'flw0': 3.25, 'time': 27.57, 'compass': 167.08, 'pitch': 1.56, 'roll': 5.28}
{'lipoC2': 7.7, 'temp': 24.0, 'lipoC3S3': 12.42, 'state': 'normal', 'rot1': 277, 'rot0': 258, 'rot3': 39, 'rot2': 48, 'depth': 4.514, 'yaw': 3.49, 'datetime': '2018-11-26 10:55:47.051714', 'mgs': 0, 'flw2': 2.81, 'flw1': 0.0, 'flw0': 3.14, 'time': 27.78, 'compass': 168.94, 'pitch': 1.89, 'roll': 6.53}
{'lipoC2': 7.7, 'temp': 24.25, 'lipoC3S3': 12.42, 'state': 'normal', 'rot1': 279, 'rot0': 260, 'rot3': 39, 'rot2': 48, 'depth': 4.285, 'yaw': 4.05, 'datetime': '2018-11-26 10:55:47.261563', 'mgs': 0, 'flw2': 1.25, 'flw1': 0.0, 'flw0': 3.05, 'time': 27.99, 'compass': 169.51, 'pitch': 2.25, 'roll': 7.41}
{'lipoC2': 7.71, 'temp': 24.0, 'lipoC3S3': 12.47, 'state': 'normal', 'rot1': 281, 'rot0': 263, 'rot3': 39, 'rot2': 48, 'depth': 5.124, 'yaw': 3.02, 'datetime': '2018-11-26 10:55:47.474392', 'mgs': 0, 'flw2': 1.39, 'flw1': 3.57, 'flw0': 2.95, 'time': 28.2, 'compass': 168.48, 'pitch': 2.45, 'roll': 7.13}
{'lipoC2': 7.7, 'temp': 24.06, 'lipoC3S3': 12.47, 'state': 'normal', 'rot1': 282, 'rot0': 265, 'rot3': 40, 'rot2': 49, 'depth': 4.666, 'yaw': 1.01, 'datetime': '2018-11-26 10:55:47.682587', 'mgs': 0, 'flw2': 1.35, 'flw1': 6.27, 'flw0': 3.05, 'time': 28.41, 'compass': 166.47, 'pitch': 2.6, 'roll': 5.77}
{'lipoC2': 7.7, 'temp': 24.0, 'lipoC3S3': 12.48, 'state': 'normal', 'rot1': 284, 'rot0': 267, 'rot3': 41, 'rot2': 50, 'depth': 5.276, 'yaw': -1.86, 'datetime': '2018-11-26 10:55:47.892995', 'mgs': 0, 'flw2': 1.4, 'flw1': 4.13, 'flw0': 3.02, 'time': 28.62, 'compass': 163.6, 'pitch': 1.91, 'roll': 4.87}
{'lipoC2': 7.7, 'temp': 24.0, 'lipoC3S3': 12.38, 'state': 'normal', 'rot1': 286, 'rot0': 270, 'rot3': 42, 'rot2': 51, 'depth': 3.827, 'yaw': -5.18, 'datetime': '2018-11-26 10:55:48.105418', 'mgs': 0, 'flw2': 2.86, 'flw1': 4.07, 'flw0': 1.31, 'time': 28.83, 'compass': 160.27, 'pitch': 0.89, 'roll': 4.79}
{'lipoC2': 7.71, 'temp': 24.0, 'lipoC3S3': 12.39, 'state': 'normal', 'rot1': 289, 'rot0': 272, 'rot3': 42, 'rot2': 52, 'depth': 3.674, 'yaw': -7.11, 'datetime': '2018-11-26 10:55:48.314223', 'mgs': 0, 'flw2': 2.92, 'flw1': 6.56, 'flw0': 1.32, 'time': 29.04, 'compass': 158.35, 'pitch': 0.07, 'roll': 5.3}
{'lipoC2': 7.7, 'temp': 24.0, 'lipoC3S3': 12.46, 'state': 'normal', 'rot1': 291, 'rot0': 274, 'rot3': 43, 'rot2': 53, 'depth': 4.742, 'yaw': -6.94, 'datetime': '2018-11-26 10:55:48.528534', 'mgs': 0, 'flw2': 3.03, 'flw1': 4.28, 'flw0': 1.32, 'time': 29.25, 'compass': 158.52, 'pitch': 0.05, 'roll': 4.94}
{'lipoC2': 7.69, 'temp': 24.0, 'lipoC3S3': 12.5, 'state': 'normal', 'rot1': 294, 'rot0': 275, 'rot3': 43, 'rot2': 53, 'depth': 4.132, 'yaw': -5.61, 'datetime': '2018-11-26 10:55:48.736242', 'mgs': 0, 'flw2': 3.0, 'flw1': 0.0, 'flw0': 1.38, 'time': 29.46, 'compass': 159.85, 'pitch': 0.5, 'roll': 4.25}
{'lipoC2': 7.7, 'temp': 24.06, 'lipoC3S3': 12.45, 'state': 'normal', 'rot1': 296, 'rot0': 277, 'rot3': 43, 'rot2': 54, 'depth': 3.293, 'yaw': -3.5, 'datetime': '2018-11-26 10:55:48.947902', 'mgs': 0, 'flw2': 2.95, 'flw1': 6.8, 'flw0': 1.39, 'time': 29.67, 'compass': 161.96, 'pitch': 1.05, 'roll': 3.89}
{'lipoC2': 7.7, 'temp': 23.88, 'lipoC3S3': 12.37, 'state': 'normal', 'rot1': 299, 'rot0': 279, 'rot3': 44, 'rot2': 55, 'depth': 3.217, 'yaw': -0.89, 'datetime': '2018-11-26 10:55:49.158453', 'mgs': 0, 'flw2': 2.82, 'flw1': 5.27, 'flw0': 1.35, 'time': 29.89, 'compass': 164.56, 'pitch': 1.86, 'roll': 2.97}
{'lipoC2': 7.71, 'temp': 24.0, 'lipoC3S3': 12.47, 'state': 'normal', 'rot1': 302, 'rot0': 281, 'rot3': 46, 'rot2': 56, 'depth': 3.827, 'yaw': 1.98, 'datetime': '2018-11-26 10:55:49.374783', 'mgs': 0, 'flw2': 3.02, 'flw1': 5.27, 'flw0': 3.22, 'time': 30.1, 'compass': 167.44, 'pitch': 2.71, 'roll': 1.85}
{'lipoC2': 7.7, 'temp': 24.13, 'lipoC3S3': 12.47, 'state': 'normal', 'rot1': 304, 'rot0': 284, 'rot3': 47, 'rot2': 57, 'depth': 3.293, 'yaw': 3.82, 'datetime': '2018-11-26 10:55:49.584319', 'mgs': 0, 'flw2': 2.92, 'flw1': 4.51, 'flw0': 3.22, 'time': 30.31, 'compass': 169.28, 'pitch': 3.35, 'roll': 1.41}
{'lipoC2': 7.71, 'temp': 24.13, 'lipoC3S3': 12.35, 'state': 'normal', 'rot1': 306, 'rot0': 286, 'rot3': 48, 'rot2': 58, 'depth': 3.293, 'yaw': 3.96, 'datetime': '2018-11-26 10:55:49.803077', 'mgs': 0, 'flw2': 1.23, 'flw1': 4.39, 'flw0': 3.11, 'time': 30.52, 'compass': 169.42, 'pitch': 3.45, 'roll': 1.4}
{'lipoC2': 7.7, 'temp': 24.06, 'lipoC3S3': 12.47, 'state': 'normal', 'rot1': 308, 'rot0': 289, 'rot3': 49, 'rot2': 60, 'depth': 3.674, 'yaw': 2.23, 'datetime': '2018-11-26 10:55:50.007646', 'mgs': 0, 'flw2': 1.33, 'flw1': 5.24, 'flw0': 3.0, 'time': 30.73, 'compass': 167.69, 'pitch': 2.91, 'roll': 0.77}
{'lipoC2': 7.7, 'temp': 24.0, 'lipoC3S3': 12.42, 'state': 'normal', 'rot1': 310, 'rot0': 291, 'rot3': 50, 'rot2': 61, 'depth': 3.293, 'yaw': -0.46, 'datetime': '2018-11-26 10:55:50.218250', 'mgs': 0, 'flw2': 1.34, 'flw1': 5.51, 'flw0': 3.05, 'time': 30.94, 'compass': 165.0, 'pitch': 2.3, 'roll': -0.15}
{'lipoC2': 7.71, 'temp': 24.06, 'lipoC3S3': 12.42, 'state': 'normal', 'rot1': 312, 'rot0': 294, 'rot3': 51, 'rot2': 62, 'depth': 4.514, 'yaw': -3.31, 'datetime': '2018-11-26 10:55:50.429695', 'mgs': 0, 'flw2': 3.04, 'flw1': 5.21, 'flw0': 2.89, 'time': 31.15, 'compass': 162.14, 'pitch': 1.82, 'roll': -0.96}
{'lipoC2': 7.7, 'temp': 24.06, 'lipoC3S3': 12.5, 'state': 'normal', 'rot1': 315, 'rot0': 296, 'rot3': 51, 'rot2': 63, 'depth': 4.208, 'yaw': -5.13, 'datetime': '2018-11-26 10:55:50.639371', 'mgs': 0, 'flw2': 2.98, 'flw1': 0.0, 'flw0': 1.31, 'time': 31.36, 'compass': 160.33, 'pitch': 1.25, 'roll': -0.93}
{'lipoC2': 7.7, 'temp': 24.0, 'lipoC3S3': 12.47, 'state': 'normal', 'rot1': 317, 'rot0': 298, 'rot3': 52, 'rot2': 63, 'depth': 4.208, 'yaw': -5.33, 'datetime': '2018-11-26 10:55:50.850135', 'mgs': 0, 'flw2': 2.93, 'flw1': 6.24, 'flw0': 1.44, 'time': 31.57, 'compass': 160.13, 'pitch': 0.71, 'roll': -0.46}
{'lipoC2': 7.7, 'temp': 24.06, 'lipoC3S3': 12.39, 'state': 'normal', 'rot1': 320, 'rot0': 299, 'rot3': 53, 'rot2': 64, 'depth': 3.674, 'yaw': -4.5, 'datetime': '2018-11-26 10:55:51.061547', 'mgs': 0, 'flw2': 2.75, 'flw1': 4.51, 'flw0': 1.35, 'time': 31.78, 'compass': 160.96, 'pitch': 0.84, 'roll': -0.38}
{'lipoC2': 7.7, 'temp': 24.06, 'lipoC3S3': 12.48, 'state': 'normal', 'rot1': 322, 'rot0': 301, 'rot3': 54, 'rot2': 65, 'depth': 4.437, 'yaw': -3.22, 'datetime': '2018-11-26 10:55:51.276155', 'mgs': 0, 'flw2': 2.91, 'flw1': 4.63, 'flw0': 1.42, 'time': 31.99, 'compass': 162.24, 'pitch': 1.3, 'roll': -0.27}
{'lipoC2': 7.7, 'temp': 24.06, 'lipoC3S3': 12.5, 'state': 'normal', 'rot1': 325, 'rot0': 303, 'rot3': 55, 'rot2': 67, 'depth': 3.979, 'yaw': -1.55, 'datetime': '2018-11-26 10:55:51.484885', 'mgs': 0, 'flw2': 2.86, 'flw1': 4.28, 'flw0': 1.39, 'time': 32.21, 'compass': 163.91, 'pitch': 1.67, 'roll': -0.15}
{'lipoC2': 7.7, 'temp': 24.0, 'lipoC3S3': 12.38, 'state': 'normal', 'rot1': 327, 'rot0': 305, 'rot3': 56, 'rot2': 68, 'depth': 3.979, 'yaw': 0.34, 'datetime': '2018-11-26 10:55:51.696261', 'mgs': 0, 'flw2': 2.8, 'flw1': 4.16, 'flw0': 1.35, 'time': 32.42, 'compass': 165.8, 'pitch': 1.89, 'roll': -0.11}
{'lipoC2': 7.7, 'temp': 24.06, 'lipoC3S3': 12.48, 'state': 'normal', 'rot1': 330, 'rot0': 307, 'rot3': 57, 'rot2': 69, 'depth': 4.666, 'yaw': 2.38, 'datetime': '2018-11-26 10:55:51.910170', 'mgs': 0, 'flw2': 1.2, 'flw1': 4.28, 'flw0': 3.3, 'time': 32.63, 'compass': 167.84, 'pitch': 1.95, 'roll': -0.14}
{'lipoC2': 7.7, 'temp': 24.0, 'lipoC3S3': 12.38, 'state': 'normal', 'rot1': 332, 'rot0': 309, 'rot3': 57, 'rot2': 70, 'depth': 4.132, 'yaw': 2.54, 'datetime': '2018-11-26 10:55:52.118635', 'mgs': 0, 'flw2': 1.26, 'flw1': 5.39, 'flw0': 3.06, 'time': 32.84, 'compass': 168.0, 'pitch': 1.62, 'roll': -0.09}
{'lipoC2': 7.7, 'temp': 24.0, 'lipoC3S3': 12.48, 'state': 'normal', 'rot1': 333, 'rot0': 312, 'rot3': 57, 'rot2': 71, 'depth': 4.285, 'yaw': 0.98, 'datetime': '2018-11-26 10:55:52.330650', 'mgs': 0, 'flw2': 1.31, 'flw1': 3.93, 'flw0': 3.13, 'time': 33.05, 'compass': 166.44, 'pitch': 0.79, 'roll': 0.68}
{'lipoC2': 7.7, 'temp': 24.06, 'lipoC3S3': 12.47, 'state': 'normal', 'rot1': 335, 'rot0': 314, 'rot3': 59, 'rot2': 71, 'depth': 4.361, 'yaw': -1.39, 'datetime': '2018-11-26 10:55:52.539615', 'mgs': 0, 'flw2': 2.94, 'flw1': 4.1, 'flw0': 3.05, 'time': 33.26, 'compass': 164.07, 'pitch': 0.06, 'roll': 1.87}
{'lipoC2': 7.7, 'temp': 24.06, 'lipoC3S3': 12.35, 'state': 'normal', 'rot1': 338, 'rot0': 317, 'rot3': 60, 'rot2': 72, 'depth': 4.437, 'yaw': -3.31, 'datetime': '2018-11-26 10:55:52.751014', 'mgs': 0, 'flw2': 2.92, 'flw1': 0.0, 'flw0': 2.99, 'time': 33.47, 'compass': 162.14, 'pitch': -0.2, 'roll': 2.93}
{'lipoC2': 7.7, 'temp': 24.06, 'lipoC3S3': 12.48, 'state': 'normal', 'rot1': 340, 'rot0': 319, 'rot3': 60, 'rot2': 72, 'depth': 4.971, 'yaw': -4.35, 'datetime': '2018-11-26 10:55:52.961733', 'mgs': 0, 'flw2': 2.97, 'flw1': 0.0, 'flw0': 1.31, 'time': 33.68, 'compass': 161.11, 'pitch': -0.2, 'roll': 4.1}
{'lipoC2': 7.7, 'temp': 24.06, 'lipoC3S3': 12.38, 'state': 'normal', 'rot1': 343, 'rot0': 320, 'rot3': 61, 'rot2': 72, 'depth': 4.437, 'yaw': -4.11, 'datetime': '2018-11-26 10:55:53.174336', 'mgs': 0, 'flw2': 2.76, 'flw1': 3.93, 'flw0': 1.34, 'time': 33.89, 'compass': 161.35, 'pitch': -0.12, 'roll': 4.69}
{'lipoC2': 7.71, 'temp': 24.13, 'lipoC3S3': 12.48, 'state': 'normal', 'rot1': 345, 'rot0': 322, 'rot3': 61, 'rot2': 73, 'depth': 4.514, 'yaw': -3.15, 'datetime': '2018-11-26 10:55:53.384055', 'mgs': 0, 'flw2': 2.84, 'flw1': 0.0, 'flw0': 1.32, 'time': 34.1, 'compass': 162.31, 'pitch': -0.06, 'roll': 5.41}
{'lipoC2': 7.7, 'temp': 24.06, 'lipoC3S3': 12.48, 'state': 'normal', 'rot1': 348, 'rot0': 324, 'rot3': 62, 'rot2': 73, 'depth': 4.819, 'yaw': -1.49, 'datetime': '2018-11-26 10:55:53.593771', 'mgs': 0, 'flw2': 2.93, 'flw1': 0.0, 'flw0': 1.34, 'time': 34.31, 'compass': 163.97, 'pitch': 0.27, 'roll': 5.91}
{'lipoC2': 7.7, 'temp': 24.0, 'lipoC3S3': 12.46, 'state': 'normal', 'rot1': 350, 'rot0': 326, 'rot3': 62, 'rot2': 74, 'depth': 5.582, 'yaw': 0.56, 'datetime': '2018-11-26 10:55:53.803933', 'mgs': 0, 'flw2': 2.93, 'flw1': 3.66, 'flw0': 3.05, 'time': 34.52, 'compass': 166.02, 'pitch': 0.57, 'roll': 5.78}
{'lipoC2': 7.7, 'temp': 24.0, 'lipoC3S3': 12.46, 'state': 'normal', 'rot1': 353, 'rot0': 329, 'rot3': 63, 'rot2': 75, 'depth': 4.285, 'yaw': 1.8, 'datetime': '2018-11-26 10:55:54.014249', 'mgs': 0, 'flw2': 2.93, 'flw1': 5.54, 'flw0': 3.05, 'time': 34.74, 'compass': 167.26, 'pitch': 0.7, 'roll': 6.48}
{'lipoC2': 7.7, 'temp': 24.06, 'lipoC3S3': 12.35, 'state': 'normal', 'rot1': 355, 'rot0': 331, 'rot3': 64, 'rot2': 76, 'depth': 3.979, 'yaw': 1.86, 'datetime': '2018-11-26 10:55:54.224868', 'mgs': 0, 'flw2': 1.29, 'flw1': 5.36, 'flw0': 3.02, 'time': 34.95, 'compass': 167.32, 'pitch': 0.7, 'roll': 8.19}
{'lipoC2': 7.71, 'temp': 24.06, 'lipoC3S3': 12.41, 'state': 'normal', 'rot1': 357, 'rot0': 334, 'rot3': 65, 'rot2': 78, 'depth': 3.979, 'yaw': 0.39, 'datetime': '2018-11-26 10:55:54.433198', 'mgs': 0, 'flw2': 1.39, 'flw1': 4.45, 'flw0': 3.04, 'time': 35.16, 'compass': 165.84, 'pitch': 0.77, 'roll': 9.67}
{'lipoC2': 7.7, 'temp': 24.06, 'lipoC3S3': 12.48, 'state': 'normal', 'rot1': 359, 'rot0': 336, 'rot3': 65, 'rot2': 79, 'depth': 4.361, 'yaw': -2.07, 'datetime': '2018-11-26 10:55:54.647920', 'mgs': 0, 'flw2': 1.4, 'flw1': 0.0, 'flw0': 3.0, 'time': 35.37, 'compass': 163.39, 'pitch': 1.26, 'roll': 9.75}
{'lipoC2': 7.7, 'temp': 24.06, 'lipoC3S3': 12.5, 'state': 'normal', 'rot1': 361, 'rot0': 339, 'rot3': 65, 'rot2': 79, 'depth': 4.208, 'yaw': -4.69, 'datetime': '2018-11-26 10:55:54.858969', 'mgs': 0, 'flw2': 3.05, 'flw1': 0.0, 'flw0': 1.33, 'time': 35.58, 'compass': 160.76, 'pitch': 1.76, 'roll': 9.04}
{'lipoC2': 7.7, 'temp': 24.06, 'lipoC3S3': 12.39, 'state': 'normal', 'rot1': 364, 'rot0': 340, 'rot3': 66, 'rot2': 79, 'depth': 3.217, 'yaw': -5.23, 'datetime': '2018-11-26 10:55:55.070960', 'mgs': 0, 'flw2': 2.88, 'flw1': 3.84, 'flw0': 1.37, 'time': 35.79, 'compass': 160.23, 'pitch': 1.87, 'roll': 7.54}
{'lipoC2': 7.7, 'temp': 24.0, 'lipoC3S3': 12.41, 'state': 'normal', 'rot1': 366, 'rot0': 342, 'rot3': 67, 'rot2': 80, 'depth': 3.14, 'yaw': -4.51, 'datetime': '2018-11-26 10:55:55.276209', 'mgs': 0, 'flw2': 2.81, 'flw1': 5.83, 'flw0': 1.34, 'time': 36.0, 'compass': 160.95, 'pitch': 1.87, 'roll': 5.3}
{'lipoC2': 7.7, 'temp': 24.06, 'lipoC3S3': 12.42, 'state': 'normal', 'rot1': 369, 'rot0': 344, 'rot3': 68, 'rot2': 82, 'depth': 2.759, 'yaw': -3.04, 'datetime': '2018-11-26 10:55:55.486786', 'mgs': 0, 'flw2': 2.83, 'flw1': 5.24, 'flw0': 1.33, 'time': 36.21, 'compass': 162.42, 'pitch': 2.05, 'roll': 2.61}
{'lipoC2': 7.7, 'temp': 24.06, 'lipoC3S3': 12.39, 'state': 'normal', 'rot1': 371, 'rot0': 346, 'rot3': 69, 'rot2': 83, 'depth': 3.751, 'yaw': -1.02, 'datetime': '2018-11-26 10:55:55.698392', 'mgs': 0, 'flw2': 3.02, 'flw1': 6.06, 'flw0': 1.37, 'time': 36.42, 'compass': 164.44, 'pitch': 2.58, 'roll': 0.28}
{'lipoC2': 7.7, 'temp': 24.06, 'lipoC3S3': 12.48, 'state': 'normal', 'rot1': 374, 'rot0': 348, 'rot3': 70, 'rot2': 85, 'depth': 3.14, 'yaw': 1.46, 'datetime': '2018-11-26 10:55:55.907344', 'mgs': 0, 'flw2': 2.98, 'flw1': 5.48, 'flw0': 1.4, 'time': 36.63, 'compass': 166.92, 'pitch': 3.38, 'roll': -1.64}
{'lipoC2': 7.71, 'temp': 24.13, 'lipoC3S3': 12.35, 'state': 'normal', 'rot1': 376, 'rot0': 350, 'rot3': 71, 'rot2': 86, 'depth': 2.988, 'yaw': 3.32, 'datetime': '2018-11-26 10:55:56.119557', 'mgs': 0, 'flw2': 1.27, 'flw1': 5.45, 'flw0': 3.14, 'time': 36.85, 'compass': 168.78, 'pitch': 3.72, 'roll': -3.11}
{'lipoC2': 7.7, 'temp': 24.13, 'lipoC3S3': 12.47, 'state': 'normal', 'rot1': 378, 'rot0': 352, 'rot3': 73, 'rot2': 88, 'depth': 3.522, 'yaw': 2.89, 'datetime': '2018-11-26 10:55:56.331463', 'mgs': 0, 'flw2': 1.35, 'flw1': 5.57, 'flw0': 3.23, 'time': 37.06, 'compass': 168.34, 'pitch': 3.49, 'roll': -3.94}
{'lipoC2': 7.7, 'temp': 24.06, 'lipoC3S3': 12.48, 'state': 'normal', 'rot1': 380, 'rot0': 355, 'rot3': 74, 'rot2': 89, 'depth': 3.064, 'yaw': 1.02, 'datetime': '2018-11-26 10:55:56.541318', 'mgs': 0, 'flw2': 1.27, 'flw1': 4.48, 'flw0': 3.04, 'time': 37.27, 'compass': 166.47, 'pitch': 2.87, 'roll': -4.05}
{'lipoC2': 7.7, 'temp': 24.06, 'lipoC3S3': 12.37, 'state': 'normal', 'rot1': 382, 'rot0': 357, 'rot3': 75, 'rot2': 90, 'depth': 3.14, 'yaw': -1.69, 'datetime': '2018-11-26 10:55:56.751858', 'mgs': 0, 'flw2': 1.27, 'flw1': 4.63, 'flw0': 3.0, 'time': 37.48, 'compass': 163.77, 'pitch': 1.89, 'roll': -3.65}
{'lipoC2': 7.7, 'temp': 24.06, 'lipoC3S3': 12.42, 'state': 'normal', 'rot1': 384, 'rot0': 360, 'rot3': 76, 'rot2': 91, 'depth': 4.056, 'yaw': -4.77, 'datetime': '2018-11-26 10:55:56.962187', 'mgs': 0, 'flw2': 3.03, 'flw1': 5.01, 'flw0': 1.26, 'time': 37.69, 'compass': 160.69, 'pitch': 0.8, 'roll': -3.1}
{'lipoC2': 7.7, 'temp': 24.06, 'lipoC3S3': 12.41, 'state': 'normal', 'rot1': 386, 'rot0': 362, 'rot3': 77, 'rot2': 93, 'depth': 3.598, 'yaw': -6.36, 'datetime': '2018-11-26 10:55:57.173461', 'mgs': 0, 'flw2': 2.83, 'flw1': 4.89, 'flw0': 1.34, 'time': 37.9, 'compass': 159.1, 'pitch': 0.38, 'roll': -2.59}
{'lipoC2': 7.7, 'temp': 24.06, 'lipoC3S3': 12.45, 'state': 'normal', 'rot1': 389, 'rot0': 363, 'rot3': 78, 'rot2': 94, 'depth': 3.827, 'yaw': -6.15, 'datetime': '2018-11-26 10:55:57.385602', 'mgs': 0, 'flw2': 2.87, 'flw1': 4.89, 'flw0': 1.34, 'time': 38.11, 'compass': 159.31, 'pitch': 0.6, 'roll': -2.07}
{'lipoC2': 7.71, 'temp': 24.06, 'lipoC3S3': 12.41, 'state': 'normal', 'rot1': 391, 'rot0': 365, 'rot3': 79, 'rot2': 95, 'depth': 4.208, 'yaw': -4.92, 'datetime': '2018-11-26 10:55:57.594662', 'mgs': 0, 'flw2': 2.93, 'flw1': 4.16, 'flw0': 1.35, 'time': 38.32, 'compass': 160.53, 'pitch': 1.29, 'roll': -1.43}
{'lipoC2': 7.71, 'temp': 24.13, 'lipoC3S3': 12.46, 'state': 'normal', 'rot1': 394, 'rot0': 367, 'rot3': 80, 'rot2': 96, 'depth': 5.124, 'yaw': -3.22, 'datetime': '2018-11-26 10:55:57.806397', 'mgs': 0, 'flw2': 2.87, 'flw1': 6.91, 'flw0': 1.4, 'time': 38.53, 'compass': 162.23, 'pitch': 2.02, 'roll': -0.65}
{'lipoC2': 7.7, 'temp': 24.13, 'lipoC3S3': 12.35, 'state': 'normal', 'rot1': 397, 'rot0': 369, 'rot3': 81, 'rot2': 98, 'depth': 4.056, 'yaw': -1.33, 'datetime': '2018-11-26 10:55:58.017176', 'mgs': 0, 'flw2': 2.8, 'flw1': 4.54, 'flw0': 1.33, 'time': 38.74, 'compass': 164.13, 'pitch': 2.35, 'roll': 1.05}
{'lipoC2': 7.7, 'temp': 24.0, 'lipoC3S3': 12.47, 'state': 'normal', 'rot1': 399, 'rot0': 371, 'rot3': 81, 'rot2': 99, 'depth': 4.285, 'yaw': 0.86, 'datetime': '2018-11-26 10:55:58.227087', 'mgs': 0, 'flw2': 2.84, 'flw1': 4.69, 'flw0': 3.15, 'time': 38.96, 'compass': 166.31, 'pitch': 2.44, 'roll': 2.99}
{'lipoC2': 7.7, 'temp': 24.06, 'lipoC3S3': 12.35, 'state': 'normal', 'rot1': 402, 'rot0': 374, 'rot3': 82, 'rot2': 100, 'depth': 4.285, 'yaw': 2.51, 'datetime': '2018-11-26 10:55:58.437661', 'mgs': 0, 'flw2': 2.77, 'flw1': 3.52, 'flw0': 3.08, 'time': 39.17, 'compass': 167.97, 'pitch': 2.6, 'roll': 4.39}
{'lipoC2': 7.7, 'temp': 24.06, 'lipoC3S3': 12.47, 'state': 'normal', 'rot1': 404, 'rot0': 377, 'rot3': 83, 'rot2': 101, 'depth': 5.734, 'yaw': 2.62, 'datetime': '2018-11-26 10:55:58.648859', 'mgs': 0, 'flw2': 1.38, 'flw1': 3.78, 'flw0': 2.97, 'time': 39.38, 'compass': 168.08, 'pitch': 2.36, 'roll': 5.11}
{'lipoC2': 7.7, 'temp': 24.13, 'lipoC3S3': 12.39, 'state': 'normal', 'rot1': 406, 'rot0': 379, 'rot3': 83, 'rot2': 102, 'depth': 4.514, 'yaw': -3.34, 'datetime': '2018-11-26 10:55:58.859568', 'mgs': 0, 'flw2': 3.14, 'flw1': 5.39, 'flw0': 2.94, 'time': 39.59, 'compass': 162.12, 'pitch': 6.43, 'roll': 5.9}
{'lipoC2': 7.7, 'temp': 24.06, 'lipoC3S3': 12.29, 'state': 'normal', 'rot1': 409, 'rot0': 382, 'rot3': 84, 'rot2': 103, 'depth': 4.285, 'yaw': -15.81, 'datetime': '2018-11-26 10:55:59.071171', 'mgs': 0, 'flw2': 2.86, 'flw1': 5.24, 'flw0': 3.05, 'time': 39.8, 'compass': 149.65, 'pitch': 13.41, 'roll': 5.64}
{'lipoC2': 7.7, 'temp': 24.06, 'lipoC3S3': 12.42, 'state': 'normal', 'rot1': 411, 'rot0': 384, 'rot3': 85, 'rot2': 104, 'depth': 4.361, 'yaw': -27.36, 'datetime': '2018-11-26 10:55:59.283567', 'mgs': 0, 'flw2': 2.83, 'flw1': 5.63, 'flw0': 1.34, 'time': 40.01, 'compass': 138.1, 'pitch': 17.9, 'roll': 5.4}
{'lipoC2': 7.7, 'temp': 24.06, 'lipoC3S3': 12.47, 'state': 'normal', 'rot1': 414, 'rot0': 385, 'rot3': 85, 'rot2': 104, 'depth': 4.971, 'yaw': -36.4, 'datetime': '2018-11-26 10:55:59.487526', 'mgs': 0, 'flw2': 2.98, 'flw1': 4.22, 'flw0': 1.4, 'time': 40.22, 'compass': 129.05, 'pitch': 16.88, 'roll': 4.66}
{'lipoC2': 7.7, 'temp': 24.06, 'lipoC3S3': 12.45, 'state': 'normal', 'rot1': 416, 'rot0': 387, 'rot3': 86, 'rot2': 105, 'depth': 4.361, 'yaw': -42.49, 'datetime': '2018-11-26 10:55:59.696529', 'mgs': 0, 'flw2': 2.88, 'flw1': 0.0, 'flw0': 1.37, 'time': 40.43, 'compass': 122.97, 'pitch': 13.36, 'roll': 3.6}
{'lipoC2': 7.7, 'temp': 24.06, 'lipoC3S3': 12.48, 'state': 'normal', 'rot1': 419, 'rot0': 389, 'rot3': 86, 'rot2': 105, 'depth': 5.353, 'yaw': -47.12, 'datetime': '2018-11-26 10:55:59.909053', 'mgs': 0, 'flw2': 2.94, 'flw1': 0.0, 'flw0': 1.35, 'time': 40.65, 'compass': 118.34, 'pitch': 8.18, 'roll': 2.91}
{'lipoC2': 7.7, 'temp': 24.0, 'lipoC3S3': 12.46, 'state': 'normal', 'rot1': 421, 'rot0': 391, 'rot3': 86, 'rot2': 106, 'depth': 5.048, 'yaw': -50.02, 'datetime': '2018-11-26 10:56:00.124631', 'mgs': 0, 'flw2': 2.91, 'flw1': 4.45, 'flw0': 1.44, 'time': 40.86, 'compass': 115.44, 'pitch': 3.21, 'roll': 2.81}
{'lipoC2': 7.7, 'temp': 24.0, 'lipoC3S3': 12.47, 'state': 'normal', 'rot1': 424, 'rot0': 392, 'rot3': 87, 'rot2': 107, 'depth': 5.048, 'yaw': -52.33, 'datetime': '2018-11-26 10:56:00.330969', 'mgs': 0, 'flw2': 2.84, 'flw1': 0.0, 'flw0': 1.39, 'time': 41.07, 'compass': 113.13, 'pitch': -1.0, 'roll': 3.5}
{'lipoC2': 7.69, 'temp': 24.0, 'lipoC3S3': 12.48, 'state': 'normal', 'rot1': 426, 'rot0': 394, 'rot3': 87, 'rot2': 107, 'depth': 5.276, 'yaw': -53.61, 'datetime': '2018-11-26 10:56:00.541127', 'mgs': 0, 'flw2': 2.91, 'flw1': 0.0, 'flw0': 1.46, 'time': 41.28, 'compass': 111.85, 'pitch': -3.64, 'roll': 4.07}
{'lipoC2': 7.7, 'temp': 24.0, 'lipoC3S3': 12.48, 'state': 'normal', 'rot1': 429, 'rot0': 396, 'rot3': 88, 'rot2': 108, 'depth': 4.514, 'yaw': -53.91, 'datetime': '2018-11-26 10:56:00.752142', 'mgs': 0, 'flw2': 2.82, 'flw1': 4.57, 'flw0': 1.45, 'time': 41.49, 'compass': 111.54, 'pitch': -4.6, 'roll': 4.27}
{'lipoC2': 7.7, 'temp': 24.0, 'lipoC3S3': 12.37, 'state': 'normal', 'rot1': 432, 'rot0': 398, 'rot3': 88, 'rot2': 109, 'depth': 4.742, 'yaw': -53.6, 'datetime': '2018-11-26 10:56:00.964049', 'mgs': 0, 'flw2': 2.99, 'flw1': 5.3, 'flw0': 1.38, 'time': 41.7, 'compass': 111.85, 'pitch': -4.32, 'roll': 5.32}
{'lipoC2': 7.69, 'temp': 24.0, 'lipoC3S3': 12.47, 'state': 'normal', 'rot1': 434, 'rot0': 399, 'rot3': 89, 'rot2': 110, 'depth': 4.895, 'yaw': -52.48, 'datetime': '2018-11-26 10:56:01.176022', 'mgs': 0, 'flw2': 2.92, 'flw1': 3.75, 'flw0': 1.46, 'time': 41.91, 'compass': 112.98, 'pitch': -2.66, 'roll': 6.13}
{'lipoC2': 7.69, 'temp': 24.06, 'lipoC3S3': 12.46, 'state': 'normal', 'rot1': 437, 'rot0': 401, 'rot3': 90, 'rot2': 112, 'depth': 4.742, 'yaw': -50.92, 'datetime': '2018-11-26 10:56:01.383907', 'mgs': 0, 'flw2': 3.02, 'flw1': 4.19, 'flw0': 1.46, 'time': 42.12, 'compass': 114.54, 'pitch': -0.51, 'roll': 6.58}
{'lipoC2': 7.69, 'temp': 24.06, 'lipoC3S3': 12.35, 'state': 'normal', 'rot1': 439, 'rot0': 403, 'rot3': 90, 'rot2': 113, 'depth': 4.132, 'yaw': -49.37, 'datetime': '2018-11-26 10:56:01.596184', 'mgs': 0, 'flw2': 2.86, 'flw1': 5.86, 'flw0': 1.42, 'time': 42.33, 'compass': 116.08, 'pitch': 1.41, 'roll': 7.29}
{'lipoC2': 7.7, 'temp': 24.0, 'lipoC3S3': 12.46, 'state': 'normal', 'rot1': 442, 'rot0': 404, 'rot3': 91, 'rot2': 114, 'depth': 4.666, 'yaw': -47.39, 'datetime': '2018-11-26 10:56:01.806219', 'mgs': 0, 'flw2': 3.04, 'flw1': 3.87, 'flw0': 1.35, 'time': 42.55, 'compass': 118.07, 'pitch': 3.03, 'roll': 7.21}
{'lipoC2': 7.7, 'temp': 24.06, 'lipoC3S3': 12.42, 'state': 'normal', 'rot1': 444, 'rot0': 406, 'rot3': 91, 'rot2': 115, 'depth': 3.674, 'yaw': -45.11, 'datetime': '2018-11-26 10:56:02.017775', 'mgs': 0, 'flw2': 2.83, 'flw1': 0.0, 'flw0': 1.39, 'time': 42.76, 'compass': 120.35, 'pitch': 4.02, 'roll': 6.71}
{'lipoC2': 7.7, 'temp': 24.0, 'lipoC3S3': 12.46, 'state': 'normal', 'rot1': 447, 'rot0': 408, 'rot3': 91, 'rot2': 115, 'depth': 4.132, 'yaw': -42.75, 'datetime': '2018-11-26 10:56:02.235202', 'mgs': 0, 'flw2': 2.93, 'flw1': 6.15, 'flw0': 1.45, 'time': 42.97, 'compass': 122.71, 'pitch': 4.4, 'roll': 6.1}
