{'lipoC2': 7.34, 'temp': 0.0, 'lipoC3S3': 11.17, 'state': 'normal', 'rot1': 0, 'rot0': 0, 'rot3': 0, 'rot2': 0, 'depth': -1.514, 'yaw': 0.0, 'datetime': '2018-12-12 14:44:54.659271', 'mgs': 0, 'flw2': 0.0, 'flw1': 0.56, 'flw0': 0.0, 'time': 1.25, 'compass': -2.35, 'pitch': -4.96, 'roll': 0.65}
{'lipoC2': 7.13, 'temp': 0.0, 'lipoC3S3': 11.14, 'state': 'normal', 'rot1': 0, 'rot0': 0, 'rot3': 0, 'rot2': 0, 'depth': -0.446, 'yaw': 0.25, 'datetime': '2018-12-12 14:44:54.865993', 'mgs': 0, 'flw2': 0.0, 'flw1': 0.41, 'flw0': 0.0, 'time': 1.46, 'compass': -2.1, 'pitch': -3.61, 'roll': 0.76}
{'lipoC2': 7.3, 'temp': 0.0, 'lipoC3S3': 11.36, 'state': 'normal', 'rot1': 0, 'rot0': 0, 'rot3': 0, 'rot2': 0, 'depth': -0.522, 'yaw': 0.49, 'datetime': '2018-12-12 14:44:55.075588', 'mgs': 0, 'flw2': 0.0, 'flw1': 0.44, 'flw0': 0.0, 'time': 1.67, 'compass': -1.86, 'pitch': -3.45, 'roll': 0.66}
{'lipoC2': 7.21, 'temp': 0.0, 'lipoC3S3': 11.25, 'state': 'normal', 'rot1': 0, 'rot0': 0, 'rot3': 0, 'rot2': 0, 'depth': -1.208, 'yaw': 0.72, 'datetime': '2018-12-12 14:44:55.282961', 'mgs': 0, 'flw2': 0.16, 'flw1': 0.0, 'flw0': 0.0, 'time': 1.88, 'compass': -1.63, 'pitch': -4.46, 'roll': 0.45}
{'lipoC2': 7.08, 'temp': 0.0, 'lipoC3S3': 11.19, 'state': 'normal', 'rot1': 0, 'rot0': 0, 'rot3': 0, 'rot2': 0, 'depth': -0.674, 'yaw': 0.96, 'datetime': '2018-12-12 14:44:55.491412', 'mgs': 0, 'flw2': 0.12, 'flw1': 0.0, 'flw0': 0.05, 'time': 2.09, 'compass': -1.39, 'pitch': -5.4, 'roll': 0.47}
{'lipoC2': 7.29, 'temp': 0.0, 'lipoC3S3': 11.38, 'state': 'normal', 'rot1': 0, 'rot0': 0, 'rot3': 0, 'rot2': 0, 'depth': -0.217, 'yaw': 1.2, 'datetime': '2018-12-12 14:44:55.701137', 'mgs': 0, 'flw2': 0.0, 'flw1': 0.5, 'flw0': 0.0, 'time': 2.3, 'compass': -1.15, 'pitch': -5.48, 'roll': 0.49}
{'lipoC2': 7.43, 'temp': 0.0, 'lipoC3S3': 11.02, 'state': 'normal', 'rot1': 0, 'rot0': 0, 'rot3': 0, 'rot2': 0, 'depth': -0.446, 'yaw': 1.43, 'datetime': '2018-12-12 14:44:55.909806', 'mgs': 0, 'flw2': 0.0, 'flw1': 0.0, 'flw0': 0.1, 'time': 2.5, 'compass': -0.92, 'pitch': -4.91, 'roll': 0.66}
{'lipoC2': 7.24, 'temp': 0.0, 'lipoC3S3': 11.3, 'state': 'normal', 'rot1': 0, 'rot0': 0, 'rot3': 0, 'rot2': 0, 'depth': -0.369, 'yaw': 1.7, 'datetime': '2018-12-12 14:44:56.118211', 'mgs': 0, 'flw2': 0.23, 'flw1': 0.0, 'flw0': 0.0, 'time': 2.71, 'compass': -0.65, 'pitch': -4.45, 'roll': 1.02}
{'lipoC2': 7.24, 'temp': 0.0, 'lipoC3S3': 11.13, 'state': 'normal', 'rot1': 0, 'rot0': 0, 'rot3': 0, 'rot2': 0, 'depth': -2.2, 'yaw': 1.97, 'datetime': '2018-12-12 14:44:56.324729', 'mgs': 0, 'flw2': 0.0, 'flw1': 0.0, 'flw0': 0.02, 'time': 2.92, 'compass': -0.38, 'pitch': -4.5, 'roll': 1.4}
{'lipoC2': 7.32, 'temp': 0.0, 'lipoC3S3': 11.43, 'state': 'normal', 'rot1': 0, 'rot0': 0, 'rot3': 0, 'rot2': 0, 'depth': -0.522, 'yaw': 2.18, 'datetime': '2018-12-12 14:44:56.532985', 'mgs': 0, 'flw2': 0.0, 'flw1': 0.56, 'flw0': 0.06, 'time': 3.13, 'compass': -0.17, 'pitch': -4.81, 'roll': 1.72}
{'lipoC2': 7.17, 'temp': 0.0, 'lipoC3S3': 11.15, 'state': 'normal', 'rot1': 0, 'rot0': 0, 'rot3': 0, 'rot2': 0, 'depth': -0.598, 'yaw': 2.41, 'datetime': '2018-12-12 14:44:56.742148', 'mgs': 0, 'flw2': 0.0, 'flw1': 0.0, 'flw0': 0.06, 'time': 3.34, 'compass': 0.05, 'pitch': -5.04, 'roll': 1.79}
{'lipoC2': 7.11, 'temp': 0.0, 'lipoC3S3': 11.18, 'state': 'normal', 'rot1': 0, 'rot0': 0, 'rot3': 0, 'rot2': 0, 'depth': -0.751, 'yaw': 2.68, 'datetime': '2018-12-12 14:44:56.949521', 'mgs': 0, 'flw2': 0.0, 'flw1': 0.0, 'flw0': 0.13, 'time': 3.54, 'compass': 0.33, 'pitch': -5.15, 'roll': 1.35}
{'lipoC2': 7.3, 'temp': 0.0, 'lipoC3S3': 11.23, 'state': 'normal', 'rot1': 0, 'rot0': 0, 'rot3': 0, 'rot2': 0, 'depth': -1.285, 'yaw': 3.0, 'datetime': '2018-12-12 14:44:57.158029', 'mgs': 0, 'flw2': 0.06, 'flw1': 0.0, 'flw0': 0.0, 'time': 3.75, 'compass': 0.65, 'pitch': -5.0, 'roll': 0.67}
{'lipoC2': 7.27, 'temp': 0.0, 'lipoC3S3': 11.13, 'state': 'normal', 'rot1': 0, 'rot0': 0, 'rot3': 0, 'rot2': 0, 'depth': -1.437, 'yaw': 3.26, 'datetime': '2018-12-12 14:44:57.367866', 'mgs': 0, 'flw2': 0.0, 'flw1': 0.5, 'flw0': 0.0, 'time': 3.96, 'compass': 0.91, 'pitch': -4.8, 'roll': 0.44}
{'lipoC2': 7.22, 'temp': 0.0, 'lipoC3S3': 11.17, 'state': 'normal', 'rot1': 0, 'rot0': 0, 'rot3': 0, 'rot2': 0, 'depth': -1.59, 'yaw': 3.46, 'datetime': '2018-12-12 14:44:57.575821', 'mgs': 0, 'flw2': 0.0, 'flw1': 0.09, 'flw0': 0.0, 'time': 4.17, 'compass': 1.1, 'pitch': -5.12, 'roll': 0.98}
{'lipoC2': 7.08, 'temp': 0.0, 'lipoC3S3': 11.54, 'state': 'normal', 'rot1': 0, 'rot0': 0, 'rot3': 0, 'rot2': 0, 'depth': -0.522, 'yaw': 3.7, 'datetime': '2018-12-12 14:44:57.784209', 'mgs': 0, 'flw2': 0.0, 'flw1': 0.67, 'flw0': 0.05, 'time': 4.38, 'compass': 1.35, 'pitch': -5.63, 'roll': 1.81}
{'lipoC2': 7.29, 'temp': 0.0, 'lipoC3S3': 11.38, 'state': 'normal', 'rot1': 0, 'rot0': 0, 'rot3': 0, 'rot2': 0, 'depth': -0.217, 'yaw': 3.93, 'datetime': '2018-12-12 14:44:57.990938', 'mgs': 0, 'flw2': 0.23, 'flw1': 0.0, 'flw0': 0.02, 'time': 4.58, 'compass': 1.57, 'pitch': -5.46, 'roll': 2.27}
{'lipoC2': 7.26, 'temp': 0.0, 'lipoC3S3': 11.39, 'state': 'normal', 'rot1': 0, 'rot0': 0, 'rot3': 0, 'rot2': 0, 'depth': -0.14, 'yaw': 4.14, 'datetime': '2018-12-12 14:44:58.199820', 'mgs': 0, 'flw2': 0.0, 'flw1': 0.0, 'flw0': 0.0, 'time': 4.79, 'compass': 1.79, 'pitch': -4.79, 'roll': 2.27}
{'lipoC2': 7.26, 'temp': 0.0, 'lipoC3S3': 11.44, 'state': 'normal', 'rot1': 0, 'rot0': 0, 'rot3': 0, 'rot2': 0, 'depth': -1.056, 'yaw': 4.38, 'datetime': '2018-12-12 14:44:58.406805', 'mgs': 0, 'flw2': 0.0, 'flw1': 0.62, 'flw0': 0.0, 'time': 5.0, 'compass': 2.02, 'pitch': -4.68, 'roll': 1.91}
{'lipoC2': 7.12, 'temp': 0.0, 'lipoC3S3': 11.18, 'state': 'normal', 'rot1': 0, 'rot0': 0, 'rot3': 0, 'rot2': 0, 'depth': 1.614, 'yaw': 4.64, 'datetime': '2018-12-12 14:44:58.616223', 'mgs': 0, 'flw2': 0.0, 'flw1': 0.0, 'flw0': 0.0, 'time': 5.21, 'compass': 2.29, 'pitch': -5.53, 'roll': 1.41}
{'lipoC2': 7.12, 'temp': 0.0, 'lipoC3S3': 11.13, 'state': 'normal', 'rot1': 0, 'rot0': 0, 'rot3': 0, 'rot2': 0, 'depth': -0.98, 'yaw': 4.89, 'datetime': '2018-12-12 14:44:58.825605', 'mgs': 0, 'flw2': 0.24, 'flw1': 0.0, 'flw0': 0.0, 'time': 5.41, 'compass': 2.54, 'pitch': -6.38, 'roll': 1.49}
{'lipoC2': 7.37, 'temp': 0.0, 'lipoC3S3': 11.23, 'state': 'normal', 'rot1': 0, 'rot0': 0, 'rot3': 0, 'rot2': 0, 'depth': 0.775, 'yaw': 5.07, 'datetime': '2018-12-12 14:44:59.034241', 'mgs': 0, 'flw2': 0.0, 'flw1': 0.0, 'flw0': 0.23, 'time': 5.62, 'compass': 2.72, 'pitch': -6.11, 'roll': 1.93}
{'lipoC2': 7.26, 'temp': 0.0, 'lipoC3S3': 10.9, 'state': 'normal', 'rot1': 0, 'rot0': 0, 'rot3': 0, 'rot2': 0, 'depth': -0.598, 'yaw': 5.28, 'datetime': '2018-12-12 14:44:59.241131', 'mgs': 0, 'flw2': 0.0, 'flw1': 0.47, 'flw0': 0.0, 'time': 5.83, 'compass': 2.93, 'pitch': -5.14, 'roll': 2.2}
{'lipoC2': 7.18, 'temp': 0.0, 'lipoC3S3': 11.29, 'state': 'normal', 'rot1': 0, 'rot0': 0, 'rot3': 0, 'rot2': 0, 'depth': -0.522, 'yaw': 5.54, 'datetime': '2018-12-12 14:44:59.449611', 'mgs': 0, 'flw2': 0.0, 'flw1': 0.0, 'flw0': 0.23, 'time': 6.04, 'compass': 3.19, 'pitch': -4.82, 'roll': 2.22}
{'lipoC2': 7.35, 'temp': 0.0, 'lipoC3S3': 11.36, 'state': 'normal', 'rot1': 0, 'rot0': 0, 'rot3': 0, 'rot2': 0, 'depth': 0.165, 'yaw': 5.79, 'datetime': '2018-12-12 14:44:59.657709', 'mgs': 0, 'flw2': 0.0, 'flw1': 0.5, 'flw0': 0.06, 'time': 6.25, 'compass': 3.43, 'pitch': -5.5, 'roll': 2.29}
{'lipoC2': 7.47, 'temp': 0.0, 'lipoC3S3': 11.01, 'state': 'normal', 'rot1': 0, 'rot0': 0, 'rot3': 0, 'rot2': 0, 'depth': -1.285, 'yaw': 6.02, 'datetime': '2018-12-12 14:44:59.865927', 'mgs': 0, 'flw2': 0.0, 'flw1': 0.0, 'flw0': 0.0, 'time': 6.45, 'compass': 3.67, 'pitch': -6.33, 'roll': 2.53}
{'lipoC2': 7.38, 'temp': 0.0, 'lipoC3S3': 11.02, 'state': 'normal', 'rot1': 0, 'rot0': 0, 'rot3': 0, 'rot2': 0, 'depth': -2.658, 'yaw': 6.28, 'datetime': '2018-12-12 14:45:00.071158', 'mgs': 0, 'flw2': 0.0, 'flw1': 0.0, 'flw0': 0.18, 'time': 6.66, 'compass': 3.92, 'pitch': -6.54, 'roll': 2.61}
{'lipoC2': 7.43, 'temp': 0.0, 'lipoC3S3': 11.03, 'state': 'normal', 'rot1': 0, 'rot0': 0, 'rot3': 0, 'rot2': 0, 'depth': -0.446, 'yaw': 6.55, 'datetime': '2018-12-12 14:45:00.279384', 'mgs': 0, 'flw2': 0.0, 'flw1': 0.0, 'flw0': 0.27, 'time': 6.87, 'compass': 4.2, 'pitch': -6.15, 'roll': 2.5}
{'lipoC2': 7.46, 'temp': 0.0, 'lipoC3S3': 11.17, 'state': 'normal', 'rot1': 0, 'rot0': 0, 'rot3': 0, 'rot2': 0, 'depth': -0.674, 'yaw': 6.83, 'datetime': '2018-12-12 14:45:00.487786', 'mgs': 0, 'flw2': 0.0, 'flw1': 0.0, 'flw0': 0.18, 'time': 7.08, 'compass': 4.48, 'pitch': -5.67, 'roll': 2.35}
{'lipoC2': 7.09, 'temp': 0.0, 'lipoC3S3': 11.29, 'state': 'normal', 'rot1': 0, 'rot0': 0, 'rot3': 0, 'rot2': 0, 'depth': 1.004, 'yaw': 7.11, 'datetime': '2018-12-12 14:45:00.694585', 'mgs': 0, 'flw2': 0.17, 'flw1': 0.0, 'flw0': 0.13, 'time': 7.29, 'compass': 4.76, 'pitch': -5.75, 'roll': 2.36}
{'lipoC2': 7.35, 'temp': 0.0, 'lipoC3S3': 11.03, 'state': 'normal', 'rot1': 0, 'rot0': 0, 'rot3': 0, 'rot2': 0, 'depth': -0.369, 'yaw': 7.36, 'datetime': '2018-12-12 14:45:00.903253', 'mgs': 0, 'flw2': 0.0, 'flw1': 0.03, 'flw0': 0.02, 'time': 7.49, 'compass': 5.01, 'pitch': -5.91, 'roll': 2.61}
{'lipoC2': 7.24, 'temp': 0.0, 'lipoC3S3': 11.31, 'state': 'normal', 'rot1': 0, 'rot0': 0, 'rot3': 0, 'rot2': 0, 'depth': -1.437, 'yaw': 7.65, 'datetime': '2018-12-12 14:45:01.113867', 'mgs': 0, 'flw2': 0.23, 'flw1': 0.0, 'flw0': 0.0, 'time': 7.7, 'compass': 5.29, 'pitch': -5.76, 'roll': 3.01}
{'lipoC2': 7.23, 'temp': 0.0, 'lipoC3S3': 11.22, 'state': 'normal', 'rot1': 0, 'rot0': 0, 'rot3': 0, 'rot2': 0, 'depth': -1.59, 'yaw': 7.9, 'datetime': '2018-12-12 14:45:01.320286', 'mgs': 0, 'flw2': 0.0, 'flw1': 0.59, 'flw0': 0.0, 'time': 7.91, 'compass': 5.55, 'pitch': -5.89, 'roll': 3.2}
{'lipoC2': 7.38, 'temp': 0.0, 'lipoC3S3': 11.19, 'state': 'normal', 'rot1': 0, 'rot0': 0, 'rot3': 0, 'rot2': 0, 'depth': -0.598, 'yaw': 8.17, 'datetime': '2018-12-12 14:45:01.529407', 'mgs': 0, 'flw2': 0.0, 'flw1': 0.0, 'flw0': 0.09, 'time': 8.12, 'compass': 5.82, 'pitch': -6.4, 'roll': 3.12}
{'lipoC2': 7.2, 'temp': 0.0, 'lipoC3S3': 11.51, 'state': 'normal', 'rot1': 0, 'rot0': 0, 'rot3': 0, 'rot2': 0, 'depth': -0.674, 'yaw': 8.48, 'datetime': '2018-12-12 14:45:01.739847', 'mgs': 0, 'flw2': 0.0, 'flw1': 0.62, 'flw0': 0.0, 'time': 8.33, 'compass': 6.13, 'pitch': -6.79, 'roll': 3.14}
{'lipoC2': 7.33, 'temp': 0.0, 'lipoC3S3': 11.34, 'state': 'normal', 'rot1': 0, 'rot0': 0, 'rot3': 0, 'rot2': 0, 'depth': -0.674, 'yaw': 8.75, 'datetime': '2018-12-12 14:45:01.947858', 'mgs': 0, 'flw2': 0.0, 'flw1': 0.44, 'flw0': 0.0, 'time': 8.53, 'compass': 6.4, 'pitch': -6.45, 'roll': 3.17}
{'lipoC2': 7.08, 'temp': 0.0, 'lipoC3S3': 11.23, 'state': 'normal', 'rot1': 0, 'rot0': 0, 'rot3': 0, 'rot2': 0, 'depth': -0.217, 'yaw': 9.04, 'datetime': '2018-12-12 14:45:02.156198', 'mgs': 0, 'flw2': 0.22, 'flw1': 0.0, 'flw0': 0.06, 'time': 8.74, 'compass': 6.68, 'pitch': -6.07, 'roll': 3.11}
{'lipoC2': 7.22, 'temp': 0.0, 'lipoC3S3': 10.92, 'state': 'normal', 'rot1': 0, 'rot0': 0, 'rot3': 0, 'rot2': 0, 'depth': 1.691, 'yaw': 9.31, 'datetime': '2018-12-12 14:45:02.361753', 'mgs': 0, 'flw2': 0.11, 'flw1': 0.0, 'flw0': 0.0, 'time': 8.95, 'compass': 6.96, 'pitch': -6.42, 'roll': 3.09}
{'lipoC2': 7.19, 'temp': 0.0, 'lipoC3S3': 11.3, 'state': 'normal', 'rot1': 0, 'rot0': 0, 'rot3': 0, 'rot2': 0, 'depth': -0.903, 'yaw': 9.61, 'datetime': '2018-12-12 14:45:02.571249', 'mgs': 0, 'flw2': 0.0, 'flw1': 0.0, 'flw0': 0.06, 'time': 9.16, 'compass': 7.25, 'pitch': -6.84, 'roll': 3.13}
{'lipoC2': 7.09, 'temp': 0.0, 'lipoC3S3': 11.07, 'state': 'normal', 'rot1': 0, 'rot0': 0, 'rot3': 0, 'rot2': 0, 'depth': 1.309, 'yaw': 9.91, 'datetime': '2018-12-12 14:45:02.778183', 'mgs': 0, 'flw2': 0.27, 'flw1': 0.0, 'flw0': 0.05, 'time': 9.37, 'compass': 7.55, 'pitch': -6.45, 'roll': 3.38}
{'lipoC2': 7.18, 'temp': 0.0, 'lipoC3S3': 11.65, 'state': 'normal', 'rot1': 0, 'rot0': 0, 'rot3': 0, 'rot2': 0, 'depth': -0.674, 'yaw': 10.17, 'datetime': '2018-12-12 14:45:02.988876', 'mgs': 0, 'flw2': 0.0, 'flw1': 0.7, 'flw0': 0.0, 'time': 9.57, 'compass': 7.82, 'pitch': -5.85, 'roll': 3.78}
{'lipoC2': 7.25, 'temp': 0.0, 'lipoC3S3': 11.21, 'state': 'normal', 'rot1': 0, 'rot0': 0, 'rot3': 0, 'rot2': 0, 'depth': -0.751, 'yaw': 10.44, 'datetime': '2018-12-12 14:45:03.197554', 'mgs': 0, 'flw2': 0.0, 'flw1': 0.0, 'flw0': 0.26, 'time': 9.78, 'compass': 8.08, 'pitch': -6.24, 'roll': 4.32}
{'lipoC2': 7.28, 'temp': 0.0, 'lipoC3S3': 11.07, 'state': 'normal', 'rot1': 0, 'rot0': 0, 'rot3': 0, 'rot2': 0, 'depth': -1.59, 'yaw': 10.65, 'datetime': '2018-12-12 14:45:03.403638', 'mgs': 0, 'flw2': 6.4, 'flw1': 0.03, 'flw0': 3.0, 'time': 9.99, 'compass': 8.3, 'pitch': -7.3, 'roll': 4.47}
{'lipoC2': 7.12, 'temp': 0.0, 'lipoC3S3': 10.81, 'state': 'normal', 'rot1': 3, 'rot0': 3, 'rot3': 0, 'rot2': 0, 'depth': -0.751, 'yaw': 10.25, 'datetime': '2018-12-12 14:45:03.612329', 'mgs': 0, 'flw2': 6.52, 'flw1': 0.0, 'flw0': 6.43, 'time': 10.2, 'compass': 7.89, 'pitch': -9.34, 'roll': 3.77}
{'lipoC2': 7.08, 'temp': 0.0, 'lipoC3S3': 11.14, 'state': 'normal', 'rot1': 6, 'rot0': 7, 'rot3': 0, 'rot2': 0, 'depth': 2.072, 'yaw': 9.92, 'datetime': '2018-12-12 14:45:03.825117', 'mgs': 0, 'flw2': 6.51, 'flw1': 0.38, 'flw0': 6.67, 'time': 10.41, 'compass': 7.57, 'pitch': -10.83, 'roll': 3.27}
{'lipoC2': 7.11, 'temp': 0.0, 'lipoC3S3': 11.17, 'state': 'normal', 'rot1': 10, 'rot0': 10, 'rot3': 0, 'rot2': 0, 'depth': 0.012, 'yaw': 9.54, 'datetime': '2018-12-12 14:45:04.030635', 'mgs': 0, 'flw2': 6.41, 'flw1': 0.44, 'flw0': 6.34, 'time': 10.61, 'compass': 7.18, 'pitch': -9.72, 'roll': 3.46}
{'lipoC2': 7.2, 'temp': 0.0, 'lipoC3S3': 10.97, 'state': 'normal', 'rot1': 13, 'rot0': 13, 'rot3': 0, 'rot2': 0, 'depth': 0.699, 'yaw': 9.03, 'datetime': '2018-12-12 14:45:04.240887', 'mgs': 0, 'flw2': 6.24, 'flw1': 0.0, 'flw0': 6.84, 'time': 10.82, 'compass': 6.68, 'pitch': -7.96, 'roll': 4.12}
{'lipoC2': 7.11, 'temp': 0.0, 'lipoC3S3': 10.8, 'state': 'normal', 'rot1': 17, 'rot0': 17, 'rot3': 0, 'rot2': 0, 'depth': -0.064, 'yaw': 8.61, 'datetime': '2018-12-12 14:45:04.447291', 'mgs': 0, 'flw2': 3.67, 'flw1': 0.0, 'flw0': 6.19, 'time': 11.03, 'compass': 6.25, 'pitch': -7.45, 'roll': 4.73}
{'lipoC2': 7.24, 'temp': 0.0, 'lipoC3S3': 11.02, 'state': 'normal', 'rot1': 21, 'rot0': 18, 'rot3': 0, 'rot2': 0, 'depth': -1.285, 'yaw': 9.84, 'datetime': '2018-12-12 14:45:04.655387', 'mgs': 0, 'flw2': 0.38, 'flw1': 0.0, 'flw0': 6.25, 'time': 11.24, 'compass': 7.49, 'pitch': -7.36, 'roll': 5.46}
{'lipoC2': 7.12, 'temp': 0.0, 'lipoC3S3': 11.15, 'state': 'normal', 'rot1': 26, 'rot0': 19, 'rot3': 0, 'rot2': 0, 'depth': 2.606, 'yaw': 13.65, 'datetime': '2018-12-12 14:45:04.864643', 'mgs': 0, 'flw2': 1.12, 'flw1': 0.0, 'flw0': 6.77, 'time': 11.45, 'compass': 11.29, 'pitch': -6.71, 'roll': 6.38}
{'lipoC2': 7.39, 'temp': 0.0, 'lipoC3S3': 11.07, 'state': 'normal', 'rot1': 30, 'rot0': 21, 'rot3': 0, 'rot2': 0, 'depth': -0.369, 'yaw': 19.51, 'datetime': '2018-12-12 14:45:05.072879', 'mgs': 0, 'flw2': 3.13, 'flw1': 0.0, 'flw0': 6.62, 'time': 11.66, 'compass': 17.16, 'pitch': -5.56, 'roll': 7.64}
{'lipoC2': 7.23, 'temp': 0.0, 'lipoC3S3': 11.14, 'state': 'normal', 'rot1': 34, 'rot0': 23, 'rot3': 0, 'rot2': 0, 'depth': -0.827, 'yaw': 29.49, 'datetime': '2018-12-12 14:45:05.291023', 'mgs': 0, 'flw2': 5.62, 'flw1': 0.44, 'flw0': 6.25, 'time': 11.87, 'compass': 27.14, 'pitch': -3.26, 'roll': 9.24}
{'lipoC2': 7.41, 'temp': 0.0, 'lipoC3S3': 11.14, 'state': 'normal', 'rot1': 38, 'rot0': 27, 'rot3': 0, 'rot2': 0, 'depth': -0.369, 'yaw': 44.24, 'datetime': '2018-12-12 14:45:05.501661', 'mgs': 0, 'flw2': 5.65, 'flw1': 0.0, 'flw0': 6.77, 'time': 12.08, 'compass': 41.88, 'pitch': -0.44, 'roll': 10.42}
{'lipoC2': 7.24, 'temp': 0.0, 'lipoC3S3': 11.17, 'state': 'normal', 'rot1': 41, 'rot0': 30, 'rot3': 0, 'rot2': 0, 'depth': -0.522, 'yaw': 61.77, 'datetime': '2018-12-12 14:45:05.708519', 'mgs': 0, 'flw2': 5.76, 'flw1': 0.53, 'flw0': 4.28, 'time': 12.29, 'compass': 59.41, 'pitch': 1.15, 'roll': 10.88}
{'lipoC2': 7.27, 'temp': 0.0, 'lipoC3S3': 11.3, 'state': 'normal', 'rot1': 41, 'rot0': 33, 'rot3': 0, 'rot2': 0, 'depth': -0.827, 'yaw': 79.51, 'datetime': '2018-12-12 14:45:05.923428', 'mgs': 0, 'flw2': 5.92, 'flw1': 0.0, 'flw0': 0.23, 'time': 12.5, 'compass': 77.15, 'pitch': 2.96, 'roll': 10.32}
{'lipoC2': 7.22, 'temp': 0.0, 'lipoC3S3': 11.34, 'state': 'normal', 'rot1': 44, 'rot0': 36, 'rot3': 0, 'rot2': 0, 'depth': -0.98, 'yaw': 93.52, 'datetime': '2018-12-12 14:45:06.131956', 'mgs': 0, 'flw2': 5.97, 'flw1': 0.0, 'flw0': 6.73, 'time': 12.7, 'compass': 91.16, 'pitch': 6.32, 'roll': 8.23}
{'lipoC2': 7.28, 'temp': 0.0, 'lipoC3S3': 10.98, 'state': 'normal', 'rot1': 47, 'rot0': 39, 'rot3': 0, 'rot2': 0, 'depth': -0.827, 'yaw': 102.97, 'datetime': '2018-12-12 14:45:06.337897', 'mgs': 0, 'flw2': 5.53, 'flw1': 0.26, 'flw0': 6.49, 'time': 12.91, 'compass': 100.62, 'pitch': 10.05, 'roll': 5.93}
{'lipoC2': 7.52, 'temp': 0.0, 'lipoC3S3': 11.02, 'state': 'normal', 'rot1': 50, 'rot0': 42, 'rot3': 0, 'rot2': 0, 'depth': 0.241, 'yaw': 109.87, 'datetime': '2018-12-12 14:45:06.544277', 'mgs': 0, 'flw2': 6.29, 'flw1': 0.0, 'flw0': 6.79, 'time': 13.12, 'compass': 107.51, 'pitch': 11.24, 'roll': 5.55}
{'lipoC2': 7.1, 'temp': 0.0, 'lipoC3S3': 10.86, 'state': 'normal', 'rot1': 54, 'rot0': 45, 'rot3': 0, 'rot2': 0, 'depth': 1.385, 'yaw': 115.04, 'datetime': '2018-12-12 14:45:06.751717', 'mgs': 0, 'flw2': 6.19, 'flw1': 0.0, 'flw0': 6.73, 'time': 13.33, 'compass': 112.68, 'pitch': 10.62, 'roll': 6.38}
{'lipoC2': 7.24, 'temp': 0.0, 'lipoC3S3': 11.03, 'state': 'normal', 'rot1': 58, 'rot0': 49, 'rot3': 0, 'rot2': 0, 'depth': -1.437, 'yaw': 118.68, 'datetime': '2018-12-12 14:45:06.963700', 'mgs': 0, 'flw2': 5.99, 'flw1': 0.0, 'flw0': 6.62, 'time': 13.54, 'compass': 116.33, 'pitch': 10.17, 'roll': 6.85}
{'lipoC2': 7.13, 'temp': 0.0, 'lipoC3S3': 10.97, 'state': 'normal', 'rot1': 61, 'rot0': 52, 'rot3': 0, 'rot2': 0, 'depth': 1.614, 'yaw': 121.31, 'datetime': '2018-12-12 14:45:07.170949', 'mgs': 0, 'flw2': 6.2, 'flw1': 0.0, 'flw0': 6.96, 'time': 13.75, 'compass': 118.96, 'pitch': 10.64, 'roll': 7.12}
{'lipoC2': 7.26, 'temp': 0.0, 'lipoC3S3': 11.15, 'state': 'normal', 'rot1': 64, 'rot0': 55, 'rot3': 0, 'rot2': 0, 'depth': -1.514, 'yaw': 123.19, 'datetime': '2018-12-12 14:45:07.381731', 'mgs': 0, 'flw2': 6.04, 'flw1': 0.0, 'flw0': 6.46, 'time': 13.96, 'compass': 120.83, 'pitch': 11.3, 'roll': 7.35}
{'lipoC2': 7.43, 'temp': 0.0, 'lipoC3S3': 10.77, 'state': 'normal', 'rot1': 68, 'rot0': 58, 'rot3': 0, 'rot2': 0, 'depth': -1.361, 'yaw': 124.65, 'datetime': '2018-12-12 14:45:07.592847', 'mgs': 0, 'flw2': 5.64, 'flw1': 0.0, 'flw0': 6.77, 'time': 14.17, 'compass': 122.3, 'pitch': 11.45, 'roll': 7.4}
{'lipoC2': 7.26, 'temp': 0.0, 'lipoC3S3': 11.09, 'state': 'normal', 'rot1': 71, 'rot0': 61, 'rot3': 0, 'rot2': 0, 'depth': -0.369, 'yaw': 125.51, 'datetime': '2018-12-12 14:45:07.801944', 'mgs': 0, 'flw2': 6.19, 'flw1': 0.0, 'flw0': 6.54, 'time': 14.38, 'compass': 123.16, 'pitch': 11.13, 'roll': 7.04}
{'lipoC2': 7.12, 'temp': 0.0, 'lipoC3S3': 11.03, 'state': 'normal', 'rot1': 75, 'rot0': 65, 'rot3': 0, 'rot2': 0, 'depth': -0.827, 'yaw': 126.4, 'datetime': '2018-12-12 14:45:08.010033', 'mgs': 0, 'flw2': 5.48, 'flw1': 0.53, 'flw0': 6.56, 'time': 14.59, 'compass': 124.05, 'pitch': 10.9, 'roll': 6.17}
{'lipoC2': 7.3, 'temp': 0.0, 'lipoC3S3': 11.19, 'state': 'normal', 'rot1': 78, 'rot0': 68, 'rot3': 0, 'rot2': 0, 'depth': 0.928, 'yaw': 127.19, 'datetime': '2018-12-12 14:45:08.219503', 'mgs': 0, 'flw2': 5.83, 'flw1': 0.0, 'flw0': 6.62, 'time': 14.79, 'compass': 124.84, 'pitch': 11.25, 'roll': 5.56}
{'lipoC2': 7.34, 'temp': 0.0, 'lipoC3S3': 11.02, 'state': 'normal', 'rot1': 81, 'rot0': 71, 'rot3': 0, 'rot2': 0, 'depth': 0.165, 'yaw': 128.16, 'datetime': '2018-12-12 14:45:08.426362', 'mgs': 0, 'flw2': 5.96, 'flw1': 0.0, 'flw0': 6.76, 'time': 15.0, 'compass': 125.81, 'pitch': 11.71, 'roll': 5.22}
{'lipoC2': 7.11, 'temp': 0.0, 'lipoC3S3': 10.85, 'state': 'normal', 'rot1': 84, 'rot0': 74, 'rot3': 0, 'rot2': 0, 'depth': 1.004, 'yaw': 128.79, 'datetime': '2018-12-12 14:45:08.637251', 'mgs': 0, 'flw2': 6.12, 'flw1': 0.0, 'flw0': 6.88, 'time': 15.21, 'compass': 126.44, 'pitch': 11.88, 'roll': 5.05}
{'lipoC2': 7.12, 'temp': 0.0, 'lipoC3S3': 11.35, 'state': 'normal', 'rot1': 88, 'rot0': 77, 'rot3': 0, 'rot2': 0, 'depth': -1.056, 'yaw': 129.47, 'datetime': '2018-12-12 14:45:08.842197', 'mgs': 0, 'flw2': 5.76, 'flw1': 0.38, 'flw0': 6.69, 'time': 15.42, 'compass': 127.11, 'pitch': 12.13, 'roll': 5.27}
{'lipoC2': 7.17, 'temp': 0.0, 'lipoC3S3': 10.85, 'state': 'normal', 'rot1': 92, 'rot0': 80, 'rot3': 0, 'rot2': 0, 'depth': 2.301, 'yaw': 130.08, 'datetime': '2018-12-12 14:45:09.052890', 'mgs': 0, 'flw2': 5.85, 'flw1': 0.0, 'flw0': 6.71, 'time': 15.63, 'compass': 127.73, 'pitch': 12.29, 'roll': 5.54}
{'lipoC2': 7.43, 'temp': 0.0, 'lipoC3S3': 10.78, 'state': 'normal', 'rot1': 95, 'rot0': 83, 'rot3': 0, 'rot2': 0, 'depth': -0.293, 'yaw': 130.29, 'datetime': '2018-12-12 14:45:09.265832', 'mgs': 0, 'flw2': 5.75, 'flw1': 0.0, 'flw0': 6.81, 'time': 15.84, 'compass': 127.94, 'pitch': 12.75, 'roll': 5.55}
{'lipoC2': 7.44, 'temp': 0.0, 'lipoC3S3': 10.85, 'state': 'normal', 'rot1': 98, 'rot0': 86, 'rot3': 0, 'rot2': 0, 'depth': -0.217, 'yaw': 130.79, 'datetime': '2018-12-12 14:45:09.475879', 'mgs': 0, 'flw2': 5.86, 'flw1': 0.0, 'flw0': 6.97, 'time': 16.05, 'compass': 128.44, 'pitch': 13.02, 'roll': 5.66}
{'lipoC2': 7.27, 'temp': 0.0, 'lipoC3S3': 11.29, 'state': 'normal', 'rot1': 101, 'rot0': 90, 'rot3': 0, 'rot2': 0, 'depth': -0.751, 'yaw': 131.18, 'datetime': '2018-12-12 14:45:09.687549', 'mgs': 0, 'flw2': 5.6, 'flw1': 0.09, 'flw0': 6.62, 'time': 16.26, 'compass': 128.83, 'pitch': 12.8, 'roll': 5.61}
{'lipoC2': 7.23, 'temp': 0.0, 'lipoC3S3': 10.56, 'state': 'normal', 'rot1': 105, 'rot0': 93, 'rot3': 0, 'rot2': 0, 'depth': 1.08, 'yaw': 131.59, 'datetime': '2018-12-12 14:45:09.890965', 'mgs': 0, 'flw2': 5.87, 'flw1': 0.0, 'flw0': 6.24, 'time': 16.47, 'compass': 129.23, 'pitch': 12.27, 'roll': 5.52}
{'lipoC2': 7.12, 'temp': 0.0, 'lipoC3S3': 11.36, 'state': 'normal', 'rot1': 108, 'rot0': 97, 'rot3': 0, 'rot2': 0, 'depth': 3.293, 'yaw': 131.81, 'datetime': '2018-12-12 14:45:10.099898', 'mgs': 0, 'flw2': 5.7, 'flw1': 0.47, 'flw0': 7.04, 'time': 16.68, 'compass': 129.46, 'pitch': 12.13, 'roll': 5.8}
{'lipoC2': 7.43, 'temp': 0.0, 'lipoC3S3': 10.69, 'state': 'normal', 'rot1': 111, 'rot0': 100, 'rot3': 0, 'rot2': 0, 'depth': 1.004, 'yaw': 131.93, 'datetime': '2018-12-12 14:45:10.312263', 'mgs': 0, 'flw2': 5.64, 'flw1': 0.0, 'flw0': 6.63, 'time': 16.89, 'compass': 129.58, 'pitch': 12.6, 'roll': 6.19}
{'lipoC2': 7.15, 'temp': 0.0, 'lipoC3S3': 10.68, 'state': 'normal', 'rot1': 114, 'rot0': 103, 'rot3': 0, 'rot2': 0, 'depth': -1.132, 'yaw': 132.06, 'datetime': '2018-12-12 14:45:10.520153', 'mgs': 0, 'flw2': 5.85, 'flw1': 0.0, 'flw0': 6.73, 'time': 17.09, 'compass': 129.71, 'pitch': 13.16, 'roll': 6.5}
{'lipoC2': 7.36, 'temp': 0.0, 'lipoC3S3': 11.23, 'state': 'normal', 'rot1': 117, 'rot0': 106, 'rot3': 0, 'rot2': 0, 'depth': -0.446, 'yaw': 131.92, 'datetime': '2018-12-12 14:45:10.733122', 'mgs': 0, 'flw2': 6.03, 'flw1': 0.56, 'flw0': 6.43, 'time': 17.31, 'compass': 129.57, 'pitch': 13.52, 'roll': 6.6}
{'lipoC2': 7.22, 'temp': 0.0, 'lipoC3S3': 10.77, 'state': 'normal', 'rot1': 121, 'rot0': 109, 'rot3': 0, 'rot2': 0, 'depth': 2.225, 'yaw': 131.9, 'datetime': '2018-12-12 14:45:10.947809', 'mgs': 0, 'flw2': 6.08, 'flw1': 0.0, 'flw0': 6.51, 'time': 17.51, 'compass': 129.55, 'pitch': 12.98, 'roll': 6.55}
{'lipoC2': 7.34, 'temp': 0.0, 'lipoC3S3': 10.85, 'state': 'normal', 'rot1': 124, 'rot0': 113, 'rot3': 0, 'rot2': 0, 'depth': 2.53, 'yaw': 131.88, 'datetime': '2018-12-12 14:45:11.153711', 'mgs': 0, 'flw2': 5.79, 'flw1': 0.32, 'flw0': 6.49, 'time': 17.73, 'compass': 129.53, 'pitch': 12.56, 'roll': 6.46}
{'lipoC2': 7.12, 'temp': 0.0, 'lipoC3S3': 10.92, 'state': 'normal', 'rot1': 127, 'rot0': 116, 'rot3': 0, 'rot2': 0, 'depth': -0.751, 'yaw': 131.89, 'datetime': '2018-12-12 14:45:11.362260', 'mgs': 0, 'flw2': 5.96, 'flw1': 0.0, 'flw0': 1.71, 'time': 17.93, 'compass': 129.54, 'pitch': 12.63, 'roll': 6.05}
{'lipoC2': 7.09, 'temp': 0.0, 'lipoC3S3': 11.18, 'state': 'normal', 'rot1': 129, 'rot0': 119, 'rot3': 0, 'rot2': 0, 'depth': 2.682, 'yaw': 134.2, 'datetime': '2018-12-12 14:45:11.573672', 'mgs': 0, 'flw2': 5.62, 'flw1': 0.44, 'flw0': 1.89, 'time': 18.14, 'compass': 131.85, 'pitch': 11.99, 'roll': 5.59}
{'lipoC2': 7.56, 'temp': 0.0, 'lipoC3S3': 10.92, 'state': 'normal', 'rot1': 131, 'rot0': 123, 'rot3': 0, 'rot2': 0, 'depth': 1.538, 'yaw': 138.76, 'datetime': '2018-12-12 14:45:11.787374', 'mgs': 0, 'flw2': 5.62, 'flw1': 0.0, 'flw0': 3.0, 'time': 18.35, 'compass': 136.4, 'pitch': 11.13, 'roll': 5.58}
{'lipoC2': 7.13, 'temp': 0.0, 'lipoC3S3': 10.84, 'state': 'normal', 'rot1': 137, 'rot0': 128, 'rot3': 0, 'rot2': 0, 'depth': 0.089, 'yaw': 145.26, 'datetime': '2018-12-12 14:45:12.092974', 'mgs': 0, 'flw2': 6.23, 'flw1': 0.0, 'flw0': 6.26, 'time': 18.67, 'compass': 142.91, 'pitch': 11.86, 'roll': 5.49}
{'lipoC2': 7.48, 'temp': 0.0, 'lipoC3S3': 10.78, 'state': 'normal', 'rot1': 141, 'rot0': 131, 'rot3': 0, 'rot2': 0, 'depth': -0.293, 'yaw': 147.82, 'datetime': '2018-12-12 14:45:12.301383', 'mgs': 0, 'flw2': 5.88, 'flw1': 0.15, 'flw0': 6.64, 'time': 18.88, 'compass': 145.47, 'pitch': 13.39, 'roll': 5.42}
{'lipoC2': 7.34, 'temp': 0.0, 'lipoC3S3': 10.92, 'state': 'normal', 'rot1': 145, 'rot0': 134, 'rot3': 0, 'rot2': 0, 'depth': -0.293, 'yaw': 149.65, 'datetime': '2018-12-12 14:45:12.510981', 'mgs': 0, 'flw2': 6.13, 'flw1': 0.0, 'flw0': 6.75, 'time': 19.08, 'compass': 147.3, 'pitch': 14.4, 'roll': 5.47}
{'lipoC2': 7.34, 'temp': 0.0, 'lipoC3S3': 11.11, 'state': 'normal', 'rot1': 148, 'rot0': 137, 'rot3': 0, 'rot2': 0, 'depth': 1.157, 'yaw': 150.95, 'datetime': '2018-12-12 14:45:12.729739', 'mgs': 0, 'flw2': 6.12, 'flw1': 0.0, 'flw0': 6.45, 'time': 19.29, 'compass': 148.59, 'pitch': 14.49, 'roll': 5.3}
{'lipoC2': 7.21, 'temp': 0.0, 'lipoC3S3': 11.3, 'state': 'normal', 'rot1': 152, 'rot0': 140, 'rot3': 0, 'rot2': 0, 'depth': -0.522, 'yaw': 151.84, 'datetime': '2018-12-12 14:45:12.937389', 'mgs': 0, 'flw2': 5.81, 'flw1': 0.62, 'flw0': 6.81, 'time': 19.5, 'compass': 149.49, 'pitch': 13.64, 'roll': 5.07}
{'lipoC2': 7.08, 'temp': 0.0, 'lipoC3S3': 11.05, 'state': 'normal', 'rot1': 155, 'rot0': 143, 'rot3': 0, 'rot2': 0, 'depth': 0.241, 'yaw': 152.67, 'datetime': '2018-12-12 14:45:13.146888', 'mgs': 0, 'flw2': 5.74, 'flw1': 0.0, 'flw0': 6.76, 'time': 19.71, 'compass': 150.32, 'pitch': 12.77, 'roll': 4.98}
{'lipoC2': 7.09, 'temp': 0.0, 'lipoC3S3': 10.92, 'state': 'normal', 'rot1': 159, 'rot0': 147, 'rot3': 0, 'rot2': 0, 'depth': -0.064, 'yaw': 153.41, 'datetime': '2018-12-12 14:45:13.358798', 'mgs': 0, 'flw2': 6.01, 'flw1': 0.0, 'flw0': 6.91, 'time': 19.92, 'compass': 151.05, 'pitch': 12.45, 'roll': 5.16}
{'lipoC2': 7.24, 'temp': 0.0, 'lipoC3S3': 10.96, 'state': 'normal', 'rot1': 162, 'rot0': 150, 'rot3': 0, 'rot2': 0, 'depth': -0.293, 'yaw': 154.27, 'datetime': '2018-12-12 14:45:13.570106', 'mgs': 0, 'flw2': 6.08, 'flw1': 0.09, 'flw0': 6.26, 'time': 20.13, 'compass': 151.92, 'pitch': 12.53, 'roll': 5.71}
{'lipoC2': 7.25, 'temp': 0.0, 'lipoC3S3': 11.05, 'state': 'normal', 'rot1': 165, 'rot0': 154, 'rot3': 0, 'rot2': 0, 'depth': 0.851, 'yaw': 154.99, 'datetime': '2018-12-12 14:45:13.775432', 'mgs': 0, 'flw2': 6.02, 'flw1': 0.0, 'flw0': 6.6, 'time': 20.34, 'compass': 152.64, 'pitch': 12.55, 'roll': 6.14}
{'lipoC2': 7.15, 'temp': 0.0, 'lipoC3S3': 10.8, 'state': 'normal', 'rot1': 169, 'rot0': 157, 'rot3': 0, 'rot2': 0, 'depth': 1.614, 'yaw': 155.31, 'datetime': '2018-12-12 14:45:13.984489', 'mgs': 0, 'flw2': 5.86, 'flw1': 0.0, 'flw0': 7.02, 'time': 20.55, 'compass': 152.95, 'pitch': 12.42, 'roll': 5.97}
{'lipoC2': 7.27, 'temp': 0.0, 'lipoC3S3': 10.82, 'state': 'normal', 'rot1': 172, 'rot0': 160, 'rot3': 0, 'rot2': 0, 'depth': -0.903, 'yaw': 155.7, 'datetime': '2018-12-12 14:45:14.194023', 'mgs': 0, 'flw2': 6.02, 'flw1': 0.0, 'flw0': 6.58, 'time': 20.76, 'compass': 153.35, 'pitch': 12.36, 'roll': 5.31}
{'lipoC2': 7.17, 'temp': 0.0, 'lipoC3S3': 11.18, 'state': 'normal', 'rot1': 176, 'rot0': 164, 'rot3': 0, 'rot2': 0, 'depth': 1.233, 'yaw': 156.71, 'datetime': '2018-12-12 14:45:14.402555', 'mgs': 0, 'flw2': 5.58, 'flw1': 0.26, 'flw0': 6.42, 'time': 20.97, 'compass': 154.36, 'pitch': 12.76, 'roll': 4.75}
{'lipoC2': 7.33, 'temp': 0.0, 'lipoC3S3': 10.81, 'state': 'normal', 'rot1': 179, 'rot0': 167, 'rot3': 0, 'rot2': 0, 'depth': 0.928, 'yaw': 158.22, 'datetime': '2018-12-12 14:45:14.612670', 'mgs': 0, 'flw2': 5.8, 'flw1': 0.0, 'flw0': 6.86, 'time': 21.18, 'compass': 155.87, 'pitch': 13.49, 'roll': 4.31}
{'lipoC2': 7.34, 'temp': 0.0, 'lipoC3S3': 10.82, 'state': 'normal', 'rot1': 182, 'rot0': 170, 'rot3': 0, 'rot2': 0, 'depth': 1.538, 'yaw': 160.03, 'datetime': '2018-12-12 14:45:14.823024', 'mgs': 0, 'flw2': 5.52, 'flw1': 0.0, 'flw0': 6.67, 'time': 21.39, 'compass': 157.68, 'pitch': 14.27, 'roll': 3.81}
{'lipoC2': 7.27, 'temp': 0.0, 'lipoC3S3': 11.26, 'state': 'normal', 'rot1': 186, 'rot0': 173, 'rot3': 0, 'rot2': 0, 'depth': -0.98, 'yaw': 162.29, 'datetime': '2018-12-12 14:45:15.031816', 'mgs': 0, 'flw2': 5.55, 'flw1': 0.21, 'flw0': 6.76, 'time': 21.6, 'compass': 159.93, 'pitch': 14.34, 'roll': 3.42}
{'lipoC2': 7.21, 'temp': 0.0, 'lipoC3S3': 10.85, 'state': 'normal', 'rot1': 189, 'rot0': 177, 'rot3': 0, 'rot2': 0, 'depth': 1.157, 'yaw': 164.52, 'datetime': '2018-12-12 14:45:15.240941', 'mgs': 0, 'flw2': 5.73, 'flw1': 0.0, 'flw0': 7.08, 'time': 21.81, 'compass': 162.17, 'pitch': 14.19, 'roll': 3.25}
{'lipoC2': 7.48, 'temp': 0.0, 'lipoC3S3': 11.1, 'state': 'normal', 'rot1': 193, 'rot0': 180, 'rot3': 0, 'rot2': 0, 'depth': -0.446, 'yaw': 166.77, 'datetime': '2018-12-12 14:45:15.449881', 'mgs': 0, 'flw2': 5.75, 'flw1': 0.0, 'flw0': 6.79, 'time': 22.02, 'compass': 164.41, 'pitch': 14.27, 'roll': 3.26}
{'lipoC2': 7.22, 'temp': 0.0, 'lipoC3S3': 10.6, 'state': 'normal', 'rot1': 196, 'rot0': 183, 'rot3': 0, 'rot2': 0, 'depth': 0.47, 'yaw': 169.13, 'datetime': '2018-12-12 14:45:15.661800', 'mgs': 0, 'flw2': 5.97, 'flw1': 0.0, 'flw0': 6.59, 'time': 22.23, 'compass': 166.77, 'pitch': 14.63, 'roll': 3.49}
{'lipoC2': 7.25, 'temp': 0.0, 'lipoC3S3': 10.8, 'state': 'normal', 'rot1': 199, 'rot0': 186, 'rot3': 0, 'rot2': 0, 'depth': -0.827, 'yaw': 171.27, 'datetime': '2018-12-12 14:45:15.871761', 'mgs': 0, 'flw2': 5.88, 'flw1': 0.0, 'flw0': 6.48, 'time': 22.43, 'compass': 168.92, 'pitch': 14.77, 'roll': 3.53}
{'lipoC2': 7.23, 'temp': 0.0, 'lipoC3S3': 10.84, 'state': 'normal', 'rot1': 203, 'rot0': 189, 'rot3': 0, 'rot2': 0, 'depth': -1.361, 'yaw': 173.06, 'datetime': '2018-12-12 14:45:16.081597', 'mgs': 0, 'flw2': 5.52, 'flw1': 0.0, 'flw0': 6.38, 'time': 22.64, 'compass': 170.71, 'pitch': 14.82, 'roll': 3.41}
{'lipoC2': 7.35, 'temp': 0.0, 'lipoC3S3': 10.88, 'state': 'normal', 'rot1': 206, 'rot0': 192, 'rot3': 0, 'rot2': 0, 'depth': -1.132, 'yaw': 174.38, 'datetime': '2018-12-12 14:45:16.293770', 'mgs': 0, 'flw2': 4.5, 'flw1': 0.0, 'flw0': 6.88, 'time': 22.85, 'compass': 172.03, 'pitch': 14.62, 'roll': 3.27}
{'lipoC2': 7.08, 'temp': 0.0, 'lipoC3S3': 11.29, 'state': 'normal', 'rot1': 209, 'rot0': 195, 'rot3': 0, 'rot2': 0, 'depth': 1.843, 'yaw': 174.83, 'datetime': '2018-12-12 14:45:16.502191', 'mgs': 0, 'flw2': 4.32, 'flw1': 0.0, 'flw0': 6.81, 'time': 23.06, 'compass': 172.48, 'pitch': 13.61, 'roll': 3.01}
{'lipoC2': 7.25, 'temp': 0.0, 'lipoC3S3': 10.61, 'state': 'normal', 'rot1': 212, 'rot0': 197, 'rot3': 0, 'rot2': 0, 'depth': -0.98, 'yaw': 174.97, 'datetime': '2018-12-12 14:45:16.712021', 'mgs': 0, 'flw2': 4.93, 'flw1': 0.0, 'flw0': 6.34, 'time': 23.27, 'compass': 172.62, 'pitch': 12.72, 'roll': 3.29}
{'lipoC2': 7.25, 'temp': 0.0, 'lipoC3S3': 10.55, 'state': 'normal', 'rot1': 216, 'rot0': 200, 'rot3': 0, 'rot2': 0, 'depth': -0.293, 'yaw': 175.36, 'datetime': '2018-12-12 14:45:16.923418', 'mgs': 0, 'flw2': 5.54, 'flw1': 0.0, 'flw0': 6.29, 'time': 23.48, 'compass': 173.01, 'pitch': 12.63, 'roll': 3.79}
{'lipoC2': 7.35, 'temp': 0.0, 'lipoC3S3': 10.97, 'state': 'normal', 'rot1': 219, 'rot0': 203, 'rot3': 0, 'rot2': 0, 'depth': -0.369, 'yaw': 175.87, 'datetime': '2018-12-12 14:45:17.133240', 'mgs': 0, 'flw2': 5.75, 'flw1': 0.0, 'flw0': 6.35, 'time': 23.69, 'compass': 173.51, 'pitch': 13.0, 'roll': 3.36}
{'lipoC2': 7.3, 'temp': 0.0, 'lipoC3S3': 10.94, 'state': 'normal', 'rot1': 222, 'rot0': 206, 'rot3': 0, 'rot2': 0, 'depth': -0.369, 'yaw': 176.81, 'datetime': '2018-12-12 14:45:17.339115', 'mgs': 0, 'flw2': 5.92, 'flw1': 0.0, 'flw0': 6.63, 'time': 23.9, 'compass': 174.45, 'pitch': 13.61, 'roll': 2.84}
{'lipoC2': 7.35, 'temp': 0.0, 'lipoC3S3': 11.03, 'state': 'normal', 'rot1': 226, 'rot0': 209, 'rot3': 0, 'rot2': 0, 'depth': -1.132, 'yaw': 178.5, 'datetime': '2018-12-12 14:45:17.547886', 'mgs': 0, 'flw2': 5.7, 'flw1': 0.23, 'flw0': 6.59, 'time': 24.11, 'compass': 176.15, 'pitch': 13.77, 'roll': 2.59}
{'lipoC2': 7.39, 'temp': 0.0, 'lipoC3S3': 10.84, 'state': 'normal', 'rot1': 229, 'rot0': 213, 'rot3': 0, 'rot2': 0, 'depth': -0.903, 'yaw': -179.54, 'datetime': '2018-12-12 14:45:17.759840', 'mgs': 0, 'flw2': 6.12, 'flw1': 0.0, 'flw0': 6.46, 'time': 24.32, 'compass': 178.11, 'pitch': 13.43, 'roll': 2.46}
{'lipoC2': 7.1, 'temp': 0.0, 'lipoC3S3': 11.14, 'state': 'normal', 'rot1': 232, 'rot0': 216, 'rot3': 0, 'rot2': 0, 'depth': 1.309, 'yaw': -177.68, 'datetime': '2018-12-12 14:45:17.969066', 'mgs': 0, 'flw2': 5.83, 'flw1': 0.06, 'flw0': 6.53, 'time': 24.53, 'compass': 179.96, 'pitch': 12.88, 'roll': 2.3}
{'lipoC2': 7.25, 'temp': 0.0, 'lipoC3S3': 10.73, 'state': 'normal', 'rot1': 235, 'rot0': 220, 'rot3': 0, 'rot2': 0, 'depth': 1.004, 'yaw': -175.81, 'datetime': '2018-12-12 14:45:18.178478', 'mgs': 0, 'flw2': 6.08, 'flw1': 0.0, 'flw0': 6.7, 'time': 24.74, 'compass': -178.16, 'pitch': 12.82, 'roll': 2.24}
{'lipoC2': 7.27, 'temp': 0.0, 'lipoC3S3': 11.18, 'state': 'normal', 'rot1': 239, 'rot0': 223, 'rot3': 0, 'rot2': 0, 'depth': 0.317, 'yaw': -174.11, 'datetime': '2018-12-12 14:45:18.388211', 'mgs': 0, 'flw2': 5.97, 'flw1': 0.0, 'flw0': 7.09, 'time': 24.95, 'compass': -176.47, 'pitch': 13.09, 'roll': 2.25}
{'lipoC2': 7.35, 'temp': 0.0, 'lipoC3S3': 10.97, 'state': 'normal', 'rot1': 242, 'rot0': 227, 'rot3': 0, 'rot2': 0, 'depth': -1.361, 'yaw': -172.44, 'datetime': '2018-12-12 14:45:18.597703', 'mgs': 0, 'flw2': 4.88, 'flw1': 0.09, 'flw0': 6.43, 'time': 25.16, 'compass': -174.79, 'pitch': 13.15, 'roll': 2.08}
{'lipoC2': 7.09, 'temp': 0.0, 'lipoC3S3': 10.93, 'state': 'normal', 'rot1': 245, 'rot0': 229, 'rot3': 0, 'rot2': 0, 'depth': -0.14, 'yaw': -171.5, 'datetime': '2018-12-12 14:45:18.807971', 'mgs': 0, 'flw2': 4.85, 'flw1': 0.56, 'flw0': 6.65, 'time': 25.37, 'compass': -173.85, 'pitch': 13.01, 'roll': 1.65}
{'lipoC2': 7.29, 'temp': 0.0, 'lipoC3S3': 10.92, 'state': 'normal', 'rot1': 249, 'rot0': 233, 'rot3': 0, 'rot2': 0, 'depth': 0.089, 'yaw': -170.63, 'datetime': '2018-12-12 14:45:19.017833', 'mgs': 0, 'flw2': 4.88, 'flw1': 0.35, 'flw0': 6.47, 'time': 25.58, 'compass': -172.98, 'pitch': 12.99, 'roll': 1.49}
{'lipoC2': 7.24, 'temp': 0.0, 'lipoC3S3': 10.98, 'state': 'normal', 'rot1': 252, 'rot0': 236, 'rot3': 0, 'rot2': 0, 'depth': 0.394, 'yaw': -169.68, 'datetime': '2018-12-12 14:45:19.228216', 'mgs': 0, 'flw2': 5.33, 'flw1': 0.0, 'flw0': 6.29, 'time': 25.79, 'compass': -172.03, 'pitch': 13.26, 'roll': 1.69}
{'lipoC2': 7.18, 'temp': 0.0, 'lipoC3S3': 11.02, 'state': 'normal', 'rot1': 256, 'rot0': 239, 'rot3': 0, 'rot2': 0, 'depth': -0.98, 'yaw': -168.88, 'datetime': '2018-12-12 14:45:19.439576', 'mgs': 0, 'flw2': 4.24, 'flw1': 0.7, 'flw0': 6.75, 'time': 26.0, 'compass': -171.23, 'pitch': 13.41, 'roll': 1.8}
{'lipoC2': 7.12, 'temp': 0.0, 'lipoC3S3': 10.89, 'state': 'normal', 'rot1': 259, 'rot0': 241, 'rot3': 0, 'rot2': 0, 'depth': -0.369, 'yaw': -168.61, 'datetime': '2018-12-12 14:45:19.648618', 'mgs': 0, 'flw2': 3.49, 'flw1': 0.06, 'flw0': 6.69, 'time': 26.21, 'compass': -170.96, 'pitch': 13.09, 'roll': 1.8}
{'lipoC2': 7.29, 'temp': 0.0, 'lipoC3S3': 10.85, 'state': 'normal', 'rot1': 262, 'rot0': 244, 'rot3': 0, 'rot2': 0, 'depth': 0.623, 'yaw': -169.02, 'datetime': '2018-12-12 14:45:19.858257', 'mgs': 0, 'flw2': 4.05, 'flw1': 0.0, 'flw0': 6.26, 'time': 26.42, 'compass': -171.37, 'pitch': 12.69, 'roll': 1.54}
{'lipoC2': 7.47, 'temp': 0.0, 'lipoC3S3': 10.89, 'state': 'normal', 'rot1': 265, 'rot0': 246, 'rot3': 0, 'rot2': 0, 'depth': 2.301, 'yaw': -169.92, 'datetime': '2018-12-12 14:45:20.067873', 'mgs': 0, 'flw2': 3.88, 'flw1': 0.0, 'flw0': 6.45, 'time': 26.63, 'compass': -172.27, 'pitch': 12.67, 'roll': 1.26}
{'lipoC2': 7.15, 'temp': 0.0, 'lipoC3S3': 11.03, 'state': 'normal', 'rot1': 269, 'rot0': 249, 'rot3': 0, 'rot2': 0, 'depth': -0.369, 'yaw': -171.18, 'datetime': '2018-12-12 14:45:20.278471', 'mgs': 0, 'flw2': 3.53, 'flw1': 0.79, 'flw0': 6.79, 'time': 26.83, 'compass': -173.54, 'pitch': 12.6, 'roll': 1.46}
{'lipoC2': 7.23, 'temp': 0.0, 'lipoC3S3': 10.85, 'state': 'normal', 'rot1': 273, 'rot0': 251, 'rot3': 0, 'rot2': 0, 'depth': 0.012, 'yaw': -172.68, 'datetime': '2018-12-12 14:45:20.488122', 'mgs': 0, 'flw2': 3.67, 'flw1': 0.5, 'flw0': 6.54, 'time': 27.05, 'compass': -175.03, 'pitch': 12.28, 'roll': 1.51}
{'lipoC2': 7.32, 'temp': 0.0, 'lipoC3S3': 11.05, 'state': 'normal', 'rot1': 276, 'rot0': 254, 'rot3': 0, 'rot2': 0, 'depth': -0.598, 'yaw': -174.6, 'datetime': '2018-12-12 14:45:20.699908', 'mgs': 0, 'flw2': 3.45, 'flw1': 0.0, 'flw0': 6.8, 'time': 27.26, 'compass': -176.96, 'pitch': 11.74, 'roll': 1.36}
{'lipoC2': 7.26, 'temp': 0.0, 'lipoC3S3': 11.1, 'state': 'normal', 'rot1': 279, 'rot0': 257, 'rot3': 0, 'rot2': 0, 'depth': 0.623, 'yaw': -176.61, 'datetime': '2018-12-12 14:45:20.910146', 'mgs': 0, 'flw2': 4.0, 'flw1': 0.03, 'flw0': 7.01, 'time': 27.47, 'compass': -178.96, 'pitch': 11.47, 'roll': 1.27}
{'lipoC2': 7.38, 'temp': 0.0, 'lipoC3S3': 11.1, 'state': 'normal', 'rot1': 282, 'rot0': 260, 'rot3': 0, 'rot2': 0, 'depth': 0.928, 'yaw': -178.39, 'datetime': '2018-12-12 14:45:21.120872', 'mgs': 0, 'flw2': 4.39, 'flw1': 0.5, 'flw0': 6.53, 'time': 27.67, 'compass': 179.26, 'pitch': 11.93, 'roll': 0.94}
{'lipoC2': 7.32, 'temp': 0.0, 'lipoC3S3': 11.0, 'state': 'normal', 'rot1': 286, 'rot0': 263, 'rot3': 0, 'rot2': 0, 'depth': 0.699, 'yaw': -179.81, 'datetime': '2018-12-12 14:45:21.331205', 'mgs': 0, 'flw2': 6.21, 'flw1': 0.0, 'flw0': 6.73, 'time': 27.89, 'compass': 177.84, 'pitch': 12.75, 'roll': 0.69}
{'lipoC2': 7.22, 'temp': 0.0, 'lipoC3S3': 11.29, 'state': 'normal', 'rot1': 289, 'rot0': 266, 'rot3': 0, 'rot2': 0, 'depth': -0.598, 'yaw': -179.81, 'datetime': '2018-12-12 14:45:21.540132', 'mgs': 0, 'flw2': 5.51, 'flw1': 0.21, 'flw0': 6.56, 'time': 28.09, 'compass': 177.83, 'pitch': 13.2, 'roll': 0.56}
{'lipoC2': 7.22, 'temp': 0.0, 'lipoC3S3': 10.86, 'state': 'normal', 'rot1': 293, 'rot0': 270, 'rot3': 0, 'rot2': 0, 'depth': -0.522, 'yaw': -178.99, 'datetime': '2018-12-12 14:45:21.750567', 'mgs': 0, 'flw2': 5.71, 'flw1': 0.47, 'flw0': 6.21, 'time': 28.31, 'compass': 178.65, 'pitch': 13.24, 'roll': 0.78}
{'lipoC2': 7.48, 'temp': 0.0, 'lipoC3S3': 10.94, 'state': 'normal', 'rot1': 296, 'rot0': 273, 'rot3': 0, 'rot2': 0, 'depth': 2.072, 'yaw': -178.19, 'datetime': '2018-12-12 14:45:21.961466', 'mgs': 0, 'flw2': 5.77, 'flw1': 0.29, 'flw0': 6.54, 'time': 28.51, 'compass': 179.46, 'pitch': 13.27, 'roll': 0.95}
{'lipoC2': 7.22, 'temp': 0.0, 'lipoC3S3': 10.72, 'state': 'normal', 'rot1': 299, 'rot0': 276, 'rot3': 0, 'rot2': 0, 'depth': 0.775, 'yaw': -178.02, 'datetime': '2018-12-12 14:45:22.171249', 'mgs': 0, 'flw2': 6.2, 'flw1': 0.0, 'flw0': 6.38, 'time': 28.72, 'compass': 179.63, 'pitch': 13.37, 'roll': 1.23}
{'lipoC2': 7.24, 'temp': 0.0, 'lipoC3S3': 10.81, 'state': 'normal', 'rot1': 302, 'rot0': 279, 'rot3': 0, 'rot2': 0, 'depth': 1.996, 'yaw': -177.64, 'datetime': '2018-12-12 14:45:22.380998', 'mgs': 0, 'flw2': 5.96, 'flw1': 0.56, 'flw0': 6.84, 'time': 28.93, 'compass': -179.99, 'pitch': 13.43, 'roll': 1.64}
{'lipoC2': 7.29, 'temp': 0.0, 'lipoC3S3': 11.17, 'state': 'normal', 'rot1': 305, 'rot0': 283, 'rot3': 0, 'rot2': 0, 'depth': -1.056, 'yaw': -177.59, 'datetime': '2018-12-12 14:45:22.592035', 'mgs': 0, 'flw2': 5.57, 'flw1': 0.0, 'flw0': 6.65, 'time': 29.14, 'compass': -179.94, 'pitch': 13.28, 'roll': 1.9}
{'lipoC2': 7.46, 'temp': 0.0, 'lipoC3S3': 10.81, 'state': 'normal', 'rot1': 309, 'rot0': 286, 'rot3': 0, 'rot2': 0, 'depth': 2.148, 'yaw': -177.87, 'datetime': '2018-12-12 14:45:22.801793', 'mgs': 0, 'flw2': 5.85, 'flw1': 0.03, 'flw0': 6.41, 'time': 29.35, 'compass': 179.78, 'pitch': 13.17, 'roll': 1.69}
{'lipoC2': 7.25, 'temp': 0.0, 'lipoC3S3': 10.96, 'state': 'normal', 'rot1': 312, 'rot0': 290, 'rot3': 0, 'rot2': 0, 'depth': 0.775, 'yaw': -178.57, 'datetime': '2018-12-12 14:45:23.013839', 'mgs': 0, 'flw2': 5.93, 'flw1': 0.53, 'flw0': 6.62, 'time': 29.56, 'compass': 179.08, 'pitch': 13.26, 'roll': 1.52}
{'lipoC2': 7.26, 'temp': 0.0, 'lipoC3S3': 10.85, 'state': 'normal', 'rot1': 315, 'rot0': 294, 'rot3': 0, 'rot2': 0, 'depth': -1.285, 'yaw': -179.24, 'datetime': '2018-12-12 14:45:23.221537', 'mgs': 0, 'flw2': 5.64, 'flw1': 0.0, 'flw0': 6.84, 'time': 29.77, 'compass': 178.41, 'pitch': 13.34, 'roll': 1.43}
{'lipoC2': 7.09, 'temp': 0.0, 'lipoC3S3': 11.44, 'state': 'normal', 'rot1': 318, 'rot0': 297, 'rot3': 0, 'rot2': 0, 'depth': 1.92, 'yaw': 179.97, 'datetime': '2018-12-12 14:45:23.430601', 'mgs': 0, 'flw2': 5.53, 'flw1': 0.67, 'flw0': 6.65, 'time': 29.98, 'compass': 177.61, 'pitch': 12.91, 'roll': 1.37}
{'lipoC2': 7.27, 'temp': 0.0, 'lipoC3S3': 10.86, 'state': 'normal', 'rot1': 321, 'rot0': 300, 'rot3': 0, 'rot2': 0, 'depth': -0.064, 'yaw': 179.18, 'datetime': '2018-12-12 14:45:23.638073', 'mgs': 0, 'flw2': 5.98, 'flw1': 0.0, 'flw0': 6.18, 'time': 30.19, 'compass': 176.83, 'pitch': 12.53, 'roll': 1.58}
{'lipoC2': 7.27, 'temp': 0.0, 'lipoC3S3': 11.34, 'state': 'normal', 'rot1': 325, 'rot0': 304, 'rot3': 0, 'rot2': 0, 'depth': -0.98, 'yaw': 178.17, 'datetime': '2018-12-12 14:45:23.847805', 'mgs': 0, 'flw2': 5.86, 'flw1': 0.0, 'flw0': 6.74, 'time': 30.4, 'compass': 175.82, 'pitch': 12.26, 'roll': 2.0}
{'lipoC2': 7.32, 'temp': 0.0, 'lipoC3S3': 10.85, 'state': 'normal', 'rot1': 328, 'rot0': 307, 'rot3': 0, 'rot2': 0, 'depth': -1.132, 'yaw': 176.91, 'datetime': '2018-12-12 14:45:24.059323', 'mgs': 0, 'flw2': 5.75, 'flw1': 0.0, 'flw0': 6.4, 'time': 30.61, 'compass': 174.56, 'pitch': 12.43, 'roll': 2.39}
{'lipoC2': 7.09, 'temp': 0.0, 'lipoC3S3': 10.78, 'state': 'normal', 'rot1': 332, 'rot0': 311, 'rot3': 0, 'rot2': 0, 'depth': 0.012, 'yaw': 175.34, 'datetime': '2018-12-12 14:45:24.268755', 'mgs': 0, 'flw2': 5.8, 'flw1': 0.06, 'flw0': 6.84, 'time': 30.82, 'compass': 172.98, 'pitch': 12.74, 'roll': 2.31}
{'lipoC2': 7.23, 'temp': 0.0, 'lipoC3S3': 10.76, 'state': 'normal', 'rot1': 335, 'rot0': 314, 'rot3': 0, 'rot2': 0, 'depth': 0.851, 'yaw': 173.65, 'datetime': '2018-12-12 14:45:24.477327', 'mgs': 0, 'flw2': 6.04, 'flw1': 0.0, 'flw0': 5.63, 'time': 31.03, 'compass': 171.3, 'pitch': 12.71, 'roll': 2.19}
{'lipoC2': 7.08, 'temp': 0.0, 'lipoC3S3': 11.3, 'state': 'normal', 'rot1': 338, 'rot0': 317, 'rot3': 0, 'rot2': 0, 'depth': 0.699, 'yaw': 172.5, 'datetime': '2018-12-12 14:45:24.687131', 'mgs': 0, 'flw2': 5.62, 'flw1': 0.0, 'flw0': 4.65, 'time': 31.24, 'compass': 170.15, 'pitch': 12.33, 'roll': 2.25}
{'lipoC2': 7.25, 'temp': 0.0, 'lipoC3S3': 10.76, 'state': 'normal', 'rot1': 341, 'rot0': 320, 'rot3': 0, 'rot2': 0, 'depth': -0.446, 'yaw': 171.87, 'datetime': '2018-12-12 14:45:24.897014', 'mgs': 0, 'flw2': 5.74, 'flw1': 0.0, 'flw0': 4.75, 'time': 31.45, 'compass': 169.52, 'pitch': 11.7, 'roll': 2.62}
{'lipoC2': 7.11, 'temp': 0.0, 'lipoC3S3': 10.8, 'state': 'normal', 'rot1': 344, 'rot0': 323, 'rot3': 0, 'rot2': 0, 'depth': -0.064, 'yaw': 171.18, 'datetime': '2018-12-12 14:45:25.108023', 'mgs': 0, 'flw2': 5.93, 'flw1': 0.0, 'flw0': 4.88, 'time': 31.66, 'compass': 168.83, 'pitch': 11.28, 'roll': 2.93}
{'lipoC2': 7.08, 'temp': 0.0, 'lipoC3S3': 11.06, 'state': 'normal', 'rot1': 347, 'rot0': 327, 'rot3': 0, 'rot2': 0, 'depth': 1.004, 'yaw': 170.43, 'datetime': '2018-12-12 14:45:25.315987', 'mgs': 0, 'flw2': 5.92, 'flw1': 0.0, 'flw0': 4.65, 'time': 31.87, 'compass': 168.08, 'pitch': 11.21, 'roll': 3.1}
{'lipoC2': 7.08, 'temp': 0.0, 'lipoC3S3': 11.02, 'state': 'normal', 'rot1': 349, 'rot0': 330, 'rot3': 0, 'rot2': 0, 'depth': -0.217, 'yaw': 170.15, 'datetime': '2018-12-12 14:45:25.526712', 'mgs': 0, 'flw2': 5.71, 'flw1': 0.0, 'flw0': 1.43, 'time': 32.08, 'compass': 167.8, 'pitch': 10.83, 'roll': 3.25}
{'lipoC2': 7.22, 'temp': 0.0, 'lipoC3S3': 10.74, 'state': 'normal', 'rot1': 350, 'rot0': 333, 'rot3': 0, 'rot2': 0, 'depth': 1.538, 'yaw': 171.96, 'datetime': '2018-12-12 14:45:25.735516', 'mgs': 0, 'flw2': 6.02, 'flw1': 0.0, 'flw0': 1.27, 'time': 32.28, 'compass': 169.61, 'pitch': 9.74, 'roll': 3.57}
{'lipoC2': 7.21, 'temp': 0.0, 'lipoC3S3': 10.74, 'state': 'normal', 'rot1': 352, 'rot0': 337, 'rot3': 0, 'rot2': 0, 'depth': -0.674, 'yaw': 174.79, 'datetime': '2018-12-12 14:45:25.945261', 'mgs': 0, 'flw2': 6.03, 'flw1': 0.0, 'flw0': 1.23, 'time': 32.49, 'compass': 172.44, 'pitch': 9.07, 'roll': 3.91}
{'lipoC2': 7.27, 'temp': 0.0, 'lipoC3S3': 10.84, 'state': 'normal', 'rot1': 354, 'rot0': 340, 'rot3': 0, 'rot2': 0, 'depth': 0.394, 'yaw': 178.35, 'datetime': '2018-12-12 14:45:26.154659', 'mgs': 0, 'flw2': 6.13, 'flw1': 0.0, 'flw0': 1.26, 'time': 32.7, 'compass': 175.99, 'pitch': 9.46, 'roll': 4.47}
{'lipoC2': 7.33, 'temp': 0.0, 'lipoC3S3': 11.26, 'state': 'normal', 'rot1': 356, 'rot0': 343, 'rot3': 0, 'rot2': 0, 'depth': 0.775, 'yaw': -177.63, 'datetime': '2018-12-12 14:45:26.365518', 'mgs': 0, 'flw2': 5.62, 'flw1': 0.0, 'flw0': 1.37, 'time': 32.91, 'compass': -179.98, 'pitch': 10.29, 'roll': 5.04}
{'lipoC2': 7.13, 'temp': 0.0, 'lipoC3S3': 10.97, 'state': 'normal', 'rot1': 358, 'rot0': 346, 'rot3': 0, 'rot2': 0, 'depth': -0.903, 'yaw': -173.24, 'datetime': '2018-12-12 14:45:26.576832', 'mgs': 0, 'flw2': 5.75, 'flw1': 0.0, 'flw0': 1.34, 'time': 33.12, 'compass': -175.59, 'pitch': 10.81, 'roll': 5.37}
{'lipoC2': 7.14, 'temp': 0.0, 'lipoC3S3': 11.0, 'state': 'normal', 'rot1': 360, 'rot0': 349, 'rot3': 0, 'rot2': 0, 'depth': 2.072, 'yaw': -168.33, 'datetime': '2018-12-12 14:45:26.788102', 'mgs': 0, 'flw2': 5.66, 'flw1': 0.09, 'flw0': 1.62, 'time': 33.33, 'compass': -170.69, 'pitch': 10.63, 'roll': 5.68}
{'lipoC2': 7.22, 'temp': 0.0, 'lipoC3S3': 11.05, 'state': 'normal', 'rot1': 361, 'rot0': 352, 'rot3': 0, 'rot2': 0, 'depth': -0.751, 'yaw': -163.21, 'datetime': '2018-12-12 14:45:27.000319', 'mgs': 0, 'flw2': 5.86, 'flw1': 0.47, 'flw0': 1.62, 'time': 33.54, 'compass': -165.56, 'pitch': 10.36, 'roll': 5.81}
{'lipoC2': 7.25, 'temp': 0.0, 'lipoC3S3': 11.01, 'state': 'normal', 'rot1': 363, 'rot0': 356, 'rot3': 0, 'rot2': 0, 'depth': -0.98, 'yaw': -158.31, 'datetime': '2018-12-12 14:45:27.208585', 'mgs': 0, 'flw2': 5.9, 'flw1': 0.0, 'flw0': 2.33, 'time': 33.75, 'compass': -160.66, 'pitch': 10.11, 'roll': 5.6}
{'lipoC2': 7.26, 'temp': 0.0, 'lipoC3S3': 10.97, 'state': 'normal', 'rot1': 365, 'rot0': 359, 'rot3': 0, 'rot2': 0, 'depth': -0.751, 'yaw': -153.85, 'datetime': '2018-12-12 14:45:27.417377', 'mgs': 0, 'flw2': 5.99, 'flw1': 0.03, 'flw0': 2.94, 'time': 33.96, 'compass': -156.2, 'pitch': 9.94, 'roll': 5.31}
{'lipoC2': 7.09, 'temp': 0.0, 'lipoC3S3': 10.97, 'state': 'normal', 'rot1': 368, 'rot0': 362, 'rot3': 0, 'rot2': 0, 'depth': 1.462, 'yaw': -149.98, 'datetime': '2018-12-12 14:45:27.627001', 'mgs': 0, 'flw2': 5.82, 'flw1': 0.0, 'flw0': 3.21, 'time': 34.17, 'compass': -152.33, 'pitch': 10.17, 'roll': 4.85}
{'lipoC2': 7.22, 'temp': 0.0, 'lipoC3S3': 11.07, 'state': 'normal', 'rot1': 370, 'rot0': 365, 'rot3': 0, 'rot2': 0, 'depth': -0.064, 'yaw': -146.28, 'datetime': '2018-12-12 14:45:27.839359', 'mgs': 0, 'flw2': 5.6, 'flw1': 0.0, 'flw0': 3.44, 'time': 34.38, 'compass': -148.63, 'pitch': 10.66, 'roll': 4.41}
{'lipoC2': 7.2, 'temp': 0.0, 'lipoC3S3': 11.05, 'state': 'normal', 'rot1': 373, 'rot0': 368, 'rot3': 0, 'rot2': 0, 'depth': 1.538, 'yaw': -142.54, 'datetime': '2018-12-12 14:45:28.048990', 'mgs': 0, 'flw2': 5.93, 'flw1': 0.03, 'flw0': 4.58, 'time': 34.59, 'compass': -144.89, 'pitch': 11.21, 'roll': 4.25}
{'lipoC2': 7.23, 'temp': 0.0, 'lipoC3S3': 11.13, 'state': 'normal', 'rot1': 376, 'rot0': 372, 'rot3': 0, 'rot2': 0, 'depth': -1.285, 'yaw': -139.15, 'datetime': '2018-12-12 14:45:28.259259', 'mgs': 0, 'flw2': 6.02, 'flw1': 0.0, 'flw0': 6.75, 'time': 34.8, 'compass': -141.5, 'pitch': 11.74, 'roll': 4.14}
{'lipoC2': 7.1, 'temp': 0.0, 'lipoC3S3': 10.89, 'state': 'normal', 'rot1': 379, 'rot0': 375, 'rot3': 0, 'rot2': 0, 'depth': 0.394, 'yaw': -137.45, 'datetime': '2018-12-12 14:45:28.469916', 'mgs': 0, 'flw2': 5.97, 'flw1': 0.0, 'flw0': 6.52, 'time': 35.01, 'compass': -139.8, 'pitch': 11.95, 'roll': 3.99}
{'lipoC2': 7.4, 'temp': 0.0, 'lipoC3S3': 10.76, 'state': 'normal', 'rot1': 382, 'rot0': 379, 'rot3': 0, 'rot2': 0, 'depth': 0.47, 'yaw': -136.71, 'datetime': '2018-12-12 14:45:28.679850', 'mgs': 0, 'flw2': 6.05, 'flw1': 0.0, 'flw0': 6.59, 'time': 35.22, 'compass': -139.06, 'pitch': 11.36, 'roll': 3.94}
{'lipoC2': 7.24, 'temp': 0.0, 'lipoC3S3': 10.67, 'state': 'normal', 'rot1': 386, 'rot0': 382, 'rot3': 0, 'rot2': 0, 'depth': -0.369, 'yaw': -136.37, 'datetime': '2018-12-12 14:45:28.892826', 'mgs': 0, 'flw2': 5.82, 'flw1': 0.0, 'flw0': 6.63, 'time': 35.43, 'compass': -138.73, 'pitch': 10.43, 'roll': 3.87}
{'lipoC2': 7.23, 'temp': 0.0, 'lipoC3S3': 11.03, 'state': 'normal', 'rot1': 389, 'rot0': 385, 'rot3': 0, 'rot2': 0, 'depth': 2.682, 'yaw': -136.29, 'datetime': '2018-12-12 14:45:29.100939', 'mgs': 0, 'flw2': 5.81, 'flw1': 0.0, 'flw0': 6.58, 'time': 35.64, 'compass': -138.64, 'pitch': 9.73, 'roll': 3.41}
{'lipoC2': 7.34, 'temp': 0.0, 'lipoC3S3': 11.13, 'state': 'normal', 'rot1': 392, 'rot0': 388, 'rot3': 0, 'rot2': 0, 'depth': 0.623, 'yaw': -136.01, 'datetime': '2018-12-12 14:45:29.311349', 'mgs': 0, 'flw2': 6.07, 'flw1': 0.0, 'flw0': 6.41, 'time': 35.85, 'compass': -138.37, 'pitch': 9.53, 'roll': 2.93}
{'lipoC2': 7.38, 'temp': 0.0, 'lipoC3S3': 11.03, 'state': 'normal', 'rot1': 395, 'rot0': 391, 'rot3': 0, 'rot2': 0, 'depth': 1.767, 'yaw': -135.52, 'datetime': '2018-12-12 14:45:29.521507', 'mgs': 0, 'flw2': 5.81, 'flw1': 0.0, 'flw0': 6.75, 'time': 36.06, 'compass': -137.88, 'pitch': 9.7, 'roll': 2.79}
{'lipoC2': 7.47, 'temp': 0.0, 'lipoC3S3': 10.65, 'state': 'normal', 'rot1': 399, 'rot0': 394, 'rot3': 0, 'rot2': 0, 'depth': 1.767, 'yaw': -134.88, 'datetime': '2018-12-12 14:45:29.730850', 'mgs': 0, 'flw2': 5.79, 'flw1': 0.0, 'flw0': 6.34, 'time': 36.27, 'compass': -137.24, 'pitch': 10.0, 'roll': 2.66}
{'lipoC2': 7.22, 'temp': 0.0, 'lipoC3S3': 11.11, 'state': 'normal', 'rot1': 403, 'rot0': 397, 'rot3': 0, 'rot2': 0, 'depth': -0.369, 'yaw': -133.92, 'datetime': '2018-12-12 14:45:29.938829', 'mgs': 0, 'flw2': 5.76, 'flw1': 0.79, 'flw0': 6.53, 'time': 36.48, 'compass': -136.28, 'pitch': 10.11, 'roll': 2.62}
{'lipoC2': 7.22, 'temp': 0.0, 'lipoC3S3': 10.97, 'state': 'normal', 'rot1': 407, 'rot0': 400, 'rot3': 0, 'rot2': 0, 'depth': -1.59, 'yaw': -132.74, 'datetime': '2018-12-12 14:45:30.146637', 'mgs': 0, 'flw2': 5.86, 'flw1': 0.56, 'flw0': 6.37, 'time': 36.69, 'compass': -135.1, 'pitch': 10.3, 'roll': 2.82}
{'lipoC2': 7.12, 'temp': 0.0, 'lipoC3S3': 11.13, 'state': 'normal', 'rot1': 410, 'rot0': 404, 'rot3': 0, 'rot2': 0, 'depth': 0.851, 'yaw': -131.16, 'datetime': '2018-12-12 14:45:30.353109', 'mgs': 0, 'flw2': 5.69, 'flw1': 0.76, 'flw0': 6.4, 'time': 36.9, 'compass': -133.51, 'pitch': 10.24, 'roll': 2.95}
{'lipoC2': 7.18, 'temp': 0.0, 'lipoC3S3': 11.09, 'state': 'normal', 'rot1': 414, 'rot0': 407, 'rot3': 0, 'rot2': 0, 'depth': 0.394, 'yaw': -129.42, 'datetime': '2018-12-12 14:45:30.565572', 'mgs': 0, 'flw2': 5.87, 'flw1': 0.0, 'flw0': 6.47, 'time': 37.11, 'compass': -131.77, 'pitch': 9.76, 'roll': 3.08}
{'lipoC2': 7.15, 'temp': 0.0, 'lipoC3S3': 10.94, 'state': 'normal', 'rot1': 417, 'rot0': 410, 'rot3': 0, 'rot2': 0, 'depth': 0.317, 'yaw': -127.56, 'datetime': '2018-12-12 14:45:30.774743', 'mgs': 0, 'flw2': 5.87, 'flw1': 0.0, 'flw0': 6.51, 'time': 37.32, 'compass': -129.91, 'pitch': 9.78, 'roll': 3.07}
{'lipoC2': 7.24, 'temp': 0.0, 'lipoC3S3': 10.76, 'state': 'normal', 'rot1': 420, 'rot0': 413, 'rot3': 0, 'rot2': 0, 'depth': -0.903, 'yaw': -125.92, 'datetime': '2018-12-12 14:45:30.985737', 'mgs': 0, 'flw2': 6.02, 'flw1': 0.0, 'flw0': 6.59, 'time': 37.53, 'compass': -128.27, 'pitch': 10.19, 'roll': 2.91}
{'lipoC2': 7.24, 'temp': 0.0, 'lipoC3S3': 10.92, 'state': 'normal', 'rot1': 424, 'rot0': 416, 'rot3': 0, 'rot2': 0, 'depth': -1.437, 'yaw': -124.1, 'datetime': '2018-12-12 14:45:31.194981', 'mgs': 0, 'flw2': 6.04, 'flw1': 0.18, 'flw0': 6.32, 'time': 37.74, 'compass': -126.46, 'pitch': 10.29, 'roll': 2.58}
{'lipoC2': 7.28, 'temp': 0.0, 'lipoC3S3': 10.92, 'state': 'normal', 'rot1': 427, 'rot0': 420, 'rot3': 0, 'rot2': 0, 'depth': -1.895, 'yaw': -122.44, 'datetime': '2018-12-12 14:45:31.405708', 'mgs': 0, 'flw2': 5.96, 'flw1': 0.0, 'flw0': 6.51, 'time': 37.95, 'compass': -124.79, 'pitch': 9.99, 'roll': 2.27}
{'lipoC2': 7.29, 'temp': 0.0, 'lipoC3S3': 11.05, 'state': 'normal', 'rot1': 430, 'rot0': 423, 'rot3': 0, 'rot2': 0, 'depth': 0.165, 'yaw': -120.68, 'datetime': '2018-12-12 14:45:31.616753', 'mgs': 0, 'flw2': 5.62, 'flw1': 0.0, 'flw0': 6.52, 'time': 38.16, 'compass': -123.03, 'pitch': 9.89, 'roll': 2.07}
{'lipoC2': 7.13, 'temp': 0.0, 'lipoC3S3': 10.74, 'state': 'normal', 'rot1': 434, 'rot0': 426, 'rot3': 0, 'rot2': 0, 'depth': 1.996, 'yaw': -119.06, 'datetime': '2018-12-12 14:45:31.828933', 'mgs': 0, 'flw2': 5.9, 'flw1': 0.0, 'flw0': 6.36, 'time': 38.37, 'compass': -121.42, 'pitch': 9.84, 'roll': 1.94}
{'lipoC2': 7.43, 'temp': 0.0, 'lipoC3S3': 10.81, 'state': 'normal', 'rot1': 437, 'rot0': 429, 'rot3': 0, 'rot2': 0, 'depth': 1.462, 'yaw': -117.52, 'datetime': '2018-12-12 14:45:32.040008', 'mgs': 0, 'flw2': 5.91, 'flw1': 0.0, 'flw0': 6.82, 'time': 38.58, 'compass': -119.88, 'pitch': 9.86, 'roll': 1.58}
{'lipoC2': 7.18, 'temp': 0.0, 'lipoC3S3': 10.97, 'state': 'normal', 'rot1': 441, 'rot0': 432, 'rot3': 0, 'rot2': 0, 'depth': 1.157, 'yaw': -115.82, 'datetime': '2018-12-12 14:45:32.247405', 'mgs': 0, 'flw2': 5.63, 'flw1': 0.0, 'flw0': 6.92, 'time': 38.79, 'compass': -118.17, 'pitch': 9.92, 'roll': 1.29}
{'lipoC2': 7.46, 'temp': 0.0, 'lipoC3S3': 10.76, 'state': 'normal', 'rot1': 444, 'rot0': 435, 'rot3': 0, 'rot2': 0, 'depth': -1.437, 'yaw': -113.9, 'datetime': '2018-12-12 14:45:32.456613', 'mgs': 0, 'flw2': 0.0, 'flw1': 0.0, 'flw0': 6.6, 'time': 39.0, 'compass': -116.25, 'pitch': 9.75, 'roll': 1.24}
{'lipoC2': 7.38, 'temp': 0.0, 'lipoC3S3': 10.81, 'state': 'normal', 'rot1': 447, 'rot0': 435, 'rot3': 0, 'rot2': 0, 'depth': 0.546, 'yaw': -115.45, 'datetime': '2018-12-12 14:45:32.666126', 'mgs': 0, 'flw2': 0.0, 'flw1': 0.0, 'flw0': 6.59, 'time': 39.21, 'compass': -117.8, 'pitch': 7.78, 'roll': 0.92}
{'lipoC2': 7.09, 'temp': 0.0, 'lipoC3S3': 11.17, 'state': 'normal', 'rot1': 451, 'rot0': 435, 'rot3': 0, 'rot2': 0, 'depth': -0.293, 'yaw': -119.98, 'datetime': '2018-12-12 14:45:32.875222', 'mgs': 0, 'flw2': 0.0, 'flw1': 0.47, 'flw0': 6.4, 'time': 39.42, 'compass': -122.33, 'pitch': 6.06, 'roll': 0.34}
{'lipoC2': 7.08, 'temp': 0.0, 'lipoC3S3': 11.15, 'state': 'normal', 'rot1': 454, 'rot0': 435, 'rot3': 0, 'rot2': 0, 'depth': 0.851, 'yaw': -126.44, 'datetime': '2018-12-12 14:45:33.085194', 'mgs': 0, 'flw2': 0.27, 'flw1': 0.03, 'flw0': 6.75, 'time': 39.62, 'compass': -128.79, 'pitch': 6.11, 'roll': -0.29}
{'lipoC2': 7.32, 'temp': 0.0, 'lipoC3S3': 11.06, 'state': 'normal', 'rot1': 458, 'rot0': 436, 'rot3': 0, 'rot2': 0, 'depth': -0.064, 'yaw': -134.44, 'datetime': '2018-12-12 14:45:33.297150', 'mgs': 0, 'flw2': 0.93, 'flw1': 0.44, 'flw0': 6.67, 'time': 39.83, 'compass': -136.8, 'pitch': 7.18, 'roll': -0.79}
{'lipoC2': 7.12, 'temp': 0.0, 'lipoC3S3': 10.97, 'state': 'normal', 'rot1': 461, 'rot0': 438, 'rot3': 0, 'rot2': 0, 'depth': -0.14, 'yaw': -143.97, 'datetime': '2018-12-12 14:45:33.507502', 'mgs': 0, 'flw2': 2.75, 'flw1': 0.09, 'flw0': 7.04, 'time': 40.04, 'compass': -146.33, 'pitch': 7.11, 'roll': -1.12}
{'lipoC2': 7.11, 'temp': 0.0, 'lipoC3S3': 10.74, 'state': 'normal', 'rot1': 465, 'rot0': 440, 'rot3': 0, 'rot2': 0, 'depth': -0.369, 'yaw': -154.97, 'datetime': '2018-12-12 14:45:33.721132', 'mgs': 0, 'flw2': 4.25, 'flw1': 0.0, 'flw0': 6.62, 'time': 40.26, 'compass': -157.32, 'pitch': 5.76, 'roll': -0.98}
{'lipoC2': 7.22, 'temp': 0.0, 'lipoC3S3': 11.01, 'state': 'normal', 'rot1': 468, 'rot0': 443, 'rot3': 0, 'rot2': 0, 'depth': 0.317, 'yaw': -167.16, 'datetime': '2018-12-12 14:45:33.930414', 'mgs': 0, 'flw2': 4.35, 'flw1': 0.0, 'flw0': 6.63, 'time': 40.46, 'compass': -169.51, 'pitch': 4.82, 'roll': -0.83}
{'lipoC2': 7.08, 'temp': 0.0, 'lipoC3S3': 11.02, 'state': 'normal', 'rot1': 471, 'rot0': 446, 'rot3': 0, 'rot2': 0, 'depth': -0.293, 'yaw': 177.96, 'datetime': '2018-12-12 14:45:34.140148', 'mgs': 0, 'flw2': 6.34, 'flw1': 0.67, 'flw0': 6.68, 'time': 40.67, 'compass': 175.6, 'pitch': 5.32, 'roll': -1.31}
{'lipoC2': 7.12, 'temp': 0.0, 'lipoC3S3': 11.01, 'state': 'normal', 'rot1': 474, 'rot0': 450, 'rot3': 0, 'rot2': 0, 'depth': -0.369, 'yaw': 160.75, 'datetime': '2018-12-12 14:45:34.345412', 'mgs': 0, 'flw2': 6.42, 'flw1': 0.56, 'flw0': 6.92, 'time': 40.88, 'compass': 158.4, 'pitch': 5.34, 'roll': -1.58}
{'lipoC2': 7.23, 'temp': 0.0, 'lipoC3S3': 10.85, 'state': 'normal', 'rot1': 478, 'rot0': 453, 'rot3': 0, 'rot2': 0, 'depth': 1.92, 'yaw': 141.43, 'datetime': '2018-12-12 14:45:34.559809', 'mgs': 0, 'flw2': 6.23, 'flw1': 0.0, 'flw0': 6.63, 'time': 41.09, 'compass': 139.07, 'pitch': 3.71, 'roll': -2.07}
{'lipoC2': 7.21, 'temp': 0.0, 'lipoC3S3': 11.48, 'state': 'normal', 'rot1': 481, 'rot0': 455, 'rot3': 0, 'rot2': 0, 'depth': 2.072, 'yaw': 121.66, 'datetime': '2018-12-12 14:45:34.770971', 'mgs': 0, 'flw2': 0.26, 'flw1': 0.21, 'flw0': 1.33, 'time': 41.3, 'compass': 119.31, 'pitch': 2.12, 'roll': -3.4}
{'lipoC2': 7.22, 'temp': 0.0, 'lipoC3S3': 11.18, 'state': 'normal', 'rot1': 482, 'rot0': 455, 'rot3': 0, 'rot2': 0, 'depth': -0.446, 'yaw': 105.61, 'datetime': '2018-12-12 14:45:34.983509', 'mgs': 0, 'flw2': 0.0, 'flw1': 0.0, 'flw0': 0.18, 'time': 41.51, 'compass': 103.26, 'pitch': 1.45, 'roll': -2.91}
{'lipoC2': 7.18, 'temp': 0.0, 'lipoC3S3': 11.15, 'state': 'normal', 'rot1': 482, 'rot0': 455, 'rot3': 0, 'rot2': 0, 'depth': -0.369, 'yaw': 93.58, 'datetime': '2018-12-12 14:45:35.186828', 'mgs': 0, 'flw2': 0.22, 'flw1': 0.09, 'flw0': 0.26, 'time': 41.72, 'compass': 91.23, 'pitch': -0.68, 'roll': -0.7}
{'lipoC2': 7.13, 'temp': 0.0, 'lipoC3S3': 11.07, 'state': 'normal', 'rot1': 482, 'rot0': 455, 'rot3': 0, 'rot2': 0, 'depth': -1.056, 'yaw': 82.46, 'datetime': '2018-12-12 14:45:35.397695', 'mgs': 0, 'flw2': 0.1, 'flw1': 0.0, 'flw0': 0.0, 'time': 41.93, 'compass': 80.11, 'pitch': -3.02, 'roll': 1.33}
{'lipoC2': 7.24, 'temp': 0.0, 'lipoC3S3': 11.25, 'state': 'normal', 'rot1': 482, 'rot0': 455, 'rot3': 0, 'rot2': 0, 'depth': 0.623, 'yaw': 72.35, 'datetime': '2018-12-12 14:45:35.604852', 'mgs': 0, 'flw2': 0.0, 'flw1': 0.0, 'flw0': 0.0, 'time': 42.14, 'compass': 70.0, 'pitch': -4.15, 'roll': 1.78}
{'lipoC2': 7.14, 'temp': 0.0, 'lipoC3S3': 11.18, 'state': 'normal', 'rot1': 482, 'rot0': 455, 'rot3': 0, 'rot2': 0, 'depth': 0.699, 'yaw': 62.9, 'datetime': '2018-12-12 14:45:35.817384', 'mgs': 0, 'flw2': 0.0, 'flw1': 0.62, 'flw0': 0.05, 'time': 42.35, 'compass': 60.54, 'pitch': -4.2, 'roll': 0.78}
{'lipoC2': 7.12, 'temp': 0.0, 'lipoC3S3': 11.3, 'state': 'normal', 'rot1': 482, 'rot0': 455, 'rot3': 0, 'rot2': 0, 'depth': -0.98, 'yaw': 50.7, 'datetime': '2018-12-12 14:45:36.123995', 'mgs': 0, 'flw2': 0.0, 'flw1': 0.21, 'flw0': 0.0, 'time': 42.66, 'compass': 48.35, 'pitch': -5.2, 'roll': -0.54}
