{'lipoC2': 0.08, 'temp': 0.0, 'lipoC3S3': 12.33, 'state': 'normal', 'rot1': 0, 'rot0': 0, 'rot3': 0, 'rot2': 0, 'depth': 1.157, 'yaw': 0.0, 'datetime': '2018-12-18 16:55:16.936793', 'mgs': 0, 'flw2': 0.21, 'flw1': 0.0, 'flw0': 0.0, 'time': 1.26, 'compass': -0.61, 'pitch': 1.54, 'roll': 2.06}
{'lipoC2': 0.0, 'temp': 0.0, 'lipoC3S3': 12.72, 'state': 'normal', 'rot1': 0, 'rot0': 0, 'rot3': 0, 'rot2': 0, 'depth': 1.538, 'yaw': -0.0, 'datetime': '2018-12-18 16:55:17.144661', 'mgs': 0, 'flw2': 0.0, 'flw1': 0.0, 'flw0': 0.0, 'time': 1.46, 'compass': -0.61, 'pitch': 1.7, 'roll': 2.07}
{'lipoC2': 0.05, 'temp': 0.0, 'lipoC3S3': 12.35, 'state': 'normal', 'rot1': 0, 'rot0': 0, 'rot3': 0, 'rot2': 0, 'depth': 1.233, 'yaw': -0.0, 'datetime': '2018-12-18 16:55:17.351638', 'mgs': 0, 'flw2': 0.2, 'flw1': 0.0, 'flw0': 0.0, 'time': 1.67, 'compass': -0.61, 'pitch': 1.33, 'roll': 2.06}
{'lipoC2': 0.11, 'temp': 0.0, 'lipoC3S3': 12.54, 'state': 'normal', 'rot1': 0, 'rot0': 0, 'rot3': 0, 'rot2': 0, 'depth': -1.971, 'yaw': -0.0, 'datetime': '2018-12-18 16:55:17.561045', 'mgs': 0, 'flw2': 0.11, 'flw1': 0.0, 'flw0': 0.0, 'time': 1.88, 'compass': -0.61, 'pitch': 1.09, 'roll': 2.07}
{'lipoC2': 0.0, 'temp': 0.0, 'lipoC3S3': 12.75, 'state': 'normal', 'rot1': 0, 'rot0': 0, 'rot3': 0, 'rot2': 0, 'depth': -0.369, 'yaw': -0.0, 'datetime': '2018-12-18 16:55:17.764137', 'mgs': 0, 'flw2': 0.0, 'flw1': 0.41, 'flw0': 0.1, 'time': 2.09, 'compass': -0.61, 'pitch': 1.4, 'roll': 2.06}
{'lipoC2': 0.05, 'temp': 0.0, 'lipoC3S3': 12.39, 'state': 'normal', 'rot1': 0, 'rot0': 0, 'rot3': 0, 'rot2': 0, 'depth': 0.241, 'yaw': -0.0, 'datetime': '2018-12-18 16:55:17.972211', 'mgs': 0, 'flw2': 0.0, 'flw1': 0.47, 'flw0': 0.05, 'time': 2.3, 'compass': -0.61, 'pitch': 1.82, 'roll': 2.07}
{'lipoC2': 0.15, 'temp': 0.0, 'lipoC3S3': 12.27, 'state': 'normal', 'rot1': 0, 'rot0': 0, 'rot3': 0, 'rot2': 0, 'depth': 0.851, 'yaw': -0.0, 'datetime': '2018-12-18 16:55:18.181647', 'mgs': 0, 'flw2': 0.0, 'flw1': 0.35, 'flw0': 0.15, 'time': 2.5, 'compass': -0.61, 'pitch': 1.71, 'roll': 2.07}
{'lipoC2': 0.01, 'temp': 0.0, 'lipoC3S3': 12.45, 'state': 'normal', 'rot1': 0, 'rot0': 0, 'rot3': 0, 'rot2': 0, 'depth': 0.012, 'yaw': -0.0, 'datetime': '2018-12-18 16:55:18.388371', 'mgs': 0, 'flw2': 0.0, 'flw1': 0.44, 'flw0': 0.05, 'time': 2.71, 'compass': -0.61, 'pitch': 1.35, 'roll': 2.06}
{'lipoC2': 0.0, 'temp': 0.0, 'lipoC3S3': 12.66, 'state': 'normal', 'rot1': 0, 'rot0': 0, 'rot3': 0, 'rot2': 0, 'depth': 1.691, 'yaw': -0.0, 'datetime': '2018-12-18 16:55:18.601826', 'mgs': 0, 'flw2': 0.21, 'flw1': 0.0, 'flw0': 0.0, 'time': 2.92, 'compass': -0.61, 'pitch': 1.39, 'roll': 2.01}
{'lipoC2': 0.0, 'temp': 0.0, 'lipoC3S3': 12.46, 'state': 'normal', 'rot1': 0, 'rot0': 0, 'rot3': 0, 'rot2': 0, 'depth': 0.47, 'yaw': -0.01, 'datetime': '2018-12-18 16:55:18.809406', 'mgs': 0, 'flw2': 0.0, 'flw1': 0.0, 'flw0': 0.21, 'time': 3.13, 'compass': -0.62, 'pitch': 1.76, 'roll': 1.95}
{'lipoC2': 0.15, 'temp': 0.0, 'lipoC3S3': 12.43, 'state': 'normal', 'rot1': 0, 'rot0': 0, 'rot3': 0, 'rot2': 0, 'depth': -1.819, 'yaw': -0.01, 'datetime': '2018-12-18 16:55:19.017082', 'mgs': 0, 'flw2': 0.16, 'flw1': 0.23, 'flw0': 0.0, 'time': 3.33, 'compass': -0.62, 'pitch': 1.75, 'roll': 1.92}
{'lipoC2': 0.17, 'temp': 0.0, 'lipoC3S3': 12.3, 'state': 'normal', 'rot1': 0, 'rot0': 0, 'rot3': 0, 'rot2': 0, 'depth': -0.446, 'yaw': -0.01, 'datetime': '2018-12-18 16:55:19.224404', 'mgs': 0, 'flw2': 0.21, 'flw1': 0.06, 'flw0': 0.0, 'time': 3.54, 'compass': -0.62, 'pitch': 1.3, 'roll': 1.88}
{'lipoC2': 0.0, 'temp': 0.0, 'lipoC3S3': 12.74, 'state': 'normal', 'rot1': 0, 'rot0': 0, 'rot3': 0, 'rot2': 0, 'depth': -0.369, 'yaw': -0.02, 'datetime': '2018-12-18 16:55:19.433193', 'mgs': 0, 'flw2': 0.18, 'flw1': 0.15, 'flw0': 0.0, 'time': 3.75, 'compass': -0.63, 'pitch': 1.08, 'roll': 1.84}
{'lipoC2': 0.0, 'temp': 0.0, 'lipoC3S3': 12.39, 'state': 'normal', 'rot1': 0, 'rot0': 0, 'rot3': 0, 'rot2': 0, 'depth': 0.928, 'yaw': -0.02, 'datetime': '2018-12-18 16:55:19.640500', 'mgs': 0, 'flw2': 0.0, 'flw1': 0.0, 'flw0': 0.2, 'time': 3.96, 'compass': -0.63, 'pitch': 1.4, 'roll': 1.82}
{'lipoC2': 0.03, 'temp': 0.0, 'lipoC3S3': 12.38, 'state': 'normal', 'rot1': 0, 'rot0': 0, 'rot3': 0, 'rot2': 0, 'depth': 1.385, 'yaw': -0.02, 'datetime': '2018-12-18 16:55:19.846384', 'mgs': 0, 'flw2': 0.0, 'flw1': 0.38, 'flw0': 0.11, 'time': 4.16, 'compass': -0.63, 'pitch': 1.81, 'roll': 1.82}
{'lipoC2': 0.01, 'temp': 0.0, 'lipoC3S3': 12.42, 'state': 'normal', 'rot1': 0, 'rot0': 0, 'rot3': 0, 'rot2': 0, 'depth': -0.14, 'yaw': -0.02, 'datetime': '2018-12-18 16:55:20.055551', 'mgs': 0, 'flw2': 0.0, 'flw1': 0.38, 'flw0': 0.09, 'time': 4.37, 'compass': -0.63, 'pitch': 1.71, 'roll': 1.82}
{'lipoC2': 0.0, 'temp': 0.0, 'lipoC3S3': 12.35, 'state': 'normal', 'rot1': 0, 'rot0': 0, 'rot3': 0, 'rot2': 0, 'depth': 1.233, 'yaw': -0.02, 'datetime': '2018-12-18 16:55:20.262132', 'mgs': 0, 'flw2': 0.15, 'flw1': 0.23, 'flw0': 0.0, 'time': 4.58, 'compass': -0.63, 'pitch': 1.32, 'roll': 1.83}
{'lipoC2': 0.02, 'temp': 0.0, 'lipoC3S3': 12.41, 'state': 'normal', 'rot1': 0, 'rot0': 0, 'rot3': 0, 'rot2': 0, 'depth': 0.089, 'yaw': -0.02, 'datetime': '2018-12-18 16:55:20.470382', 'mgs': 0, 'flw2': 0.22, 'flw1': 0.0, 'flw0': 0.0, 'time': 4.79, 'compass': -0.63, 'pitch': 1.28, 'roll': 1.83}
{'lipoC2': 0.0, 'temp': 0.0, 'lipoC3S3': 12.47, 'state': 'normal', 'rot1': 0, 'rot0': 0, 'rot3': 0, 'rot2': 0, 'depth': 0.012, 'yaw': -0.02, 'datetime': '2018-12-18 16:55:20.680284', 'mgs': 0, 'flw2': 0.0, 'flw1': 0.0, 'flw0': 0.21, 'time': 4.99, 'compass': -0.63, 'pitch': 1.6, 'roll': 1.81}
{'lipoC2': 0.05, 'temp': 0.0, 'lipoC3S3': 12.38, 'state': 'normal', 'rot1': 0, 'rot0': 0, 'rot3': 0, 'rot2': 0, 'depth': 1.309, 'yaw': -0.03, 'datetime': '2018-12-18 16:55:20.884883', 'mgs': 0, 'flw2': 0.0, 'flw1': 0.47, 'flw0': 0.06, 'time': 5.2, 'compass': -0.64, 'pitch': 1.74, 'roll': 1.79}
{'lipoC2': 0.02, 'temp': 0.0, 'lipoC3S3': 12.58, 'state': 'normal', 'rot1': 0, 'rot0': 0, 'rot3': 0, 'rot2': 0, 'depth': -1.132, 'yaw': -0.03, 'datetime': '2018-12-18 16:55:21.092999', 'mgs': 0, 'flw2': 0.0, 'flw1': 0.53, 'flw0': 0.0, 'time': 5.41, 'compass': -0.64, 'pitch': 1.53, 'roll': 1.76}
{'lipoC2': 0.02, 'temp': 0.0, 'lipoC3S3': 12.62, 'state': 'normal', 'rot1': 0, 'rot0': 0, 'rot3': 0, 'rot2': 0, 'depth': -1.285, 'yaw': -0.04, 'datetime': '2018-12-18 16:55:21.301698', 'mgs': 0, 'flw2': 0.21, 'flw1': 0.0, 'flw0': 0.0, 'time': 5.62, 'compass': -0.65, 'pitch': 1.27, 'roll': 1.74}
{'lipoC2': 0.11, 'temp': 0.0, 'lipoC3S3': 12.52, 'state': 'normal', 'rot1': 0, 'rot0': 0, 'rot3': 0, 'rot2': 0, 'depth': -2.124, 'yaw': -0.03, 'datetime': '2018-12-18 16:55:21.514439', 'mgs': 0, 'flw2': 0.02, 'flw1': 0.0, 'flw0': 0.15, 'time': 5.82, 'compass': -0.64, 'pitch': 1.29, 'roll': 1.86}
{'lipoC2': 0.0, 'temp': 0.0, 'lipoC3S3': 12.68, 'state': 'normal', 'rot1': 0, 'rot0': 0, 'rot3': 0, 'rot2': 0, 'depth': 1.767, 'yaw': -0.04, 'datetime': '2018-12-18 16:55:21.719147', 'mgs': 0, 'flw2': 0.22, 'flw1': 0.0, 'flw0': 0.0, 'time': 6.03, 'compass': -0.65, 'pitch': 1.58, 'roll': 1.86}
{'lipoC2': 0.08, 'temp': 0.0, 'lipoC3S3': 12.34, 'state': 'normal', 'rot1': 0, 'rot0': 0, 'rot3': 0, 'rot2': 0, 'depth': 1.157, 'yaw': -0.04, 'datetime': '2018-12-18 16:55:21.926111', 'mgs': 0, 'flw2': 0.23, 'flw1': 0.0, 'flw0': 0.0, 'time': 6.24, 'compass': -0.65, 'pitch': 1.64, 'roll': 1.85}
{'lipoC2': 0.15, 'temp': 0.0, 'lipoC3S3': 12.29, 'state': 'normal', 'rot1': 0, 'rot0': 0, 'rot3': 0, 'rot2': 0, 'depth': 0.851, 'yaw': -0.05, 'datetime': '2018-12-18 16:55:22.135305', 'mgs': 0, 'flw2': 0.17, 'flw1': 0.21, 'flw0': 0.0, 'time': 6.45, 'compass': -0.66, 'pitch': 1.45, 'roll': 1.85}
{'lipoC2': 0.0, 'temp': 0.0, 'lipoC3S3': 12.55, 'state': 'normal', 'rot1': 0, 'rot0': 0, 'rot3': 0, 'rot2': 0, 'depth': 0.775, 'yaw': -0.05, 'datetime': '2018-12-18 16:55:22.344466', 'mgs': 0, 'flw2': 0.04, 'flw1': 0.0, 'flw0': 0.13, 'time': 6.66, 'compass': -0.66, 'pitch': 1.45, 'roll': 1.85}
{'lipoC2': 0.13, 'temp': 0.0, 'lipoC3S3': 12.5, 'state': 'normal', 'rot1': 0, 'rot0': 0, 'rot3': 0, 'rot2': 0, 'depth': -1.895, 'yaw': -0.06, 'datetime': '2018-12-18 16:55:22.553718', 'mgs': 0, 'flw2': 0.1, 'flw1': 0.44, 'flw0': 0.0, 'time': 6.86, 'compass': -0.67, 'pitch': 1.72, 'roll': 1.85}
{'lipoC2': 0.0, 'temp': 0.0, 'lipoC3S3': 12.71, 'state': 'normal', 'rot1': 0, 'rot0': 0, 'rot3': 0, 'rot2': 0, 'depth': 1.691, 'yaw': -0.1, 'datetime': '2018-12-18 16:55:22.761422', 'mgs': 0, 'flw2': 0.17, 'flw1': 0.0, 'flw0': 0.0, 'time': 7.07, 'compass': -0.71, 'pitch': 1.81, 'roll': 1.85}
{'lipoC2': 0.0, 'temp': 0.0, 'lipoC3S3': 12.55, 'state': 'normal', 'rot1': 0, 'rot0': 0, 'rot3': 0, 'rot2': 0, 'depth': 0.775, 'yaw': -0.13, 'datetime': '2018-12-18 16:55:22.971610', 'mgs': 0, 'flw2': 0.0, 'flw1': 0.47, 'flw0': 0.0, 'time': 7.28, 'compass': -0.74, 'pitch': 1.59, 'roll': 1.85}
{'lipoC2': 0.01, 'temp': 0.0, 'lipoC3S3': 12.6, 'state': 'normal', 'rot1': 0, 'rot0': 0, 'rot3': 0, 'rot2': 0, 'depth': -0.14, 'yaw': -0.16, 'datetime': '2018-12-18 16:55:23.179490', 'mgs': 0, 'flw2': 0.23, 'flw1': 0.0, 'flw0': 0.0, 'time': 7.49, 'compass': -0.77, 'pitch': 1.44, 'roll': 1.81}
{'lipoC2': 0.0, 'temp': 0.0, 'lipoC3S3': 12.74, 'state': 'normal', 'rot1': 0, 'rot0': 0, 'rot3': 0, 'rot2': 0, 'depth': 1.462, 'yaw': -0.25, 'datetime': '2018-12-18 16:55:23.389475', 'mgs': 0, 'flw2': 0.18, 'flw1': 0.18, 'flw0': 0.0, 'time': 7.7, 'compass': -0.86, 'pitch': 1.66, 'roll': 1.87}
{'lipoC2': 0.02, 'temp': 0.0, 'lipoC3S3': 12.41, 'state': 'normal', 'rot1': 0, 'rot0': 0, 'rot3': 0, 'rot2': 0, 'depth': 0.165, 'yaw': -0.4, 'datetime': '2018-12-18 16:55:23.593789', 'mgs': 0, 'flw2': 0.21, 'flw1': 0.0, 'flw0': 0.0, 'time': 7.9, 'compass': -1.01, 'pitch': 1.8, 'roll': 1.86}
{'lipoC2': 0.04, 'temp': 0.0, 'lipoC3S3': 12.37, 'state': 'normal', 'rot1': 0, 'rot0': 0, 'rot3': 0, 'rot2': 0, 'depth': 0.241, 'yaw': -0.52, 'datetime': '2018-12-18 16:55:23.804801', 'mgs': 0, 'flw2': 0.0, 'flw1': 0.35, 'flw0': 0.1, 'time': 8.11, 'compass': -1.13, 'pitch': 1.44, 'roll': 1.82}
{'lipoC2': 0.15, 'temp': 0.0, 'lipoC3S3': 12.31, 'state': 'normal', 'rot1': 0, 'rot0': 0, 'rot3': 0, 'rot2': 0, 'depth': 0.928, 'yaw': -0.65, 'datetime': '2018-12-18 16:55:24.010922', 'mgs': 0, 'flw2': 0.0, 'flw1': 0.09, 'flw0': 0.23, 'time': 8.32, 'compass': -1.26, 'pitch': 1.02, 'roll': 1.78}
{'lipoC2': 0.1, 'temp': 0.0, 'lipoC3S3': 12.7, 'state': 'normal', 'rot1': 0, 'rot0': 0, 'rot3': 0, 'rot2': 0, 'depth': 1.08, 'yaw': -0.81, 'datetime': '2018-12-18 16:55:24.217323', 'mgs': 0, 'flw2': 0.2, 'flw1': 0.0, 'flw0': 0.0, 'time': 8.53, 'compass': -1.42, 'pitch': 1.18, 'roll': 1.74}
{'lipoC2': 0.05, 'temp': 0.0, 'lipoC3S3': 12.58, 'state': 'normal', 'rot1': 0, 'rot0': 0, 'rot3': 0, 'rot2': 0, 'depth': -1.514, 'yaw': -0.96, 'datetime': '2018-12-18 16:55:24.428262', 'mgs': 0, 'flw2': 0.1, 'flw1': 0.0, 'flw0': 0.06, 'time': 8.73, 'compass': -1.57, 'pitch': 1.66, 'roll': 1.74}
{'lipoC2': 0.0, 'temp': 0.0, 'lipoC3S3': 12.6, 'state': 'normal', 'rot1': 0, 'rot0': 0, 'rot3': 0, 'rot2': 0, 'depth': 1.233, 'yaw': -1.13, 'datetime': '2018-12-18 16:55:24.631508', 'mgs': 0, 'flw2': 0.22, 'flw1': 0.0, 'flw0': 0.0, 'time': 8.94, 'compass': -1.74, 'pitch': 1.83, 'roll': 1.74}
{'lipoC2': 0.11, 'temp': 0.0, 'lipoC3S3': 12.52, 'state': 'normal', 'rot1': 0, 'rot0': 0, 'rot3': 0, 'rot2': 0, 'depth': -2.2, 'yaw': -1.3, 'datetime': '2018-12-18 16:55:24.839730', 'mgs': 0, 'flw2': 0.09, 'flw1': 0.47, 'flw0': 0.0, 'time': 9.15, 'compass': -1.91, 'pitch': 1.66, 'roll': 1.75}
{'lipoC2': 0.0, 'temp': 0.0, 'lipoC3S3': 12.31, 'state': 'normal', 'rot1': 0, 'rot0': 0, 'rot3': 0, 'rot2': 0, 'depth': 1.233, 'yaw': -1.47, 'datetime': '2018-12-18 16:55:25.048797', 'mgs': 0, 'flw2': 0.0, 'flw1': 0.0, 'flw0': 0.21, 'time': 9.36, 'compass': -2.08, 'pitch': 1.42, 'roll': 1.75}
{'lipoC2': 0.14, 'temp': 0.0, 'lipoC3S3': 12.48, 'state': 'normal', 'rot1': 0, 'rot0': 0, 'rot3': 0, 'rot2': 0, 'depth': -1.971, 'yaw': -1.66, 'datetime': '2018-12-18 16:55:25.257686', 'mgs': 0, 'flw2': 0.0, 'flw1': 0.0, 'flw0': 0.17, 'time': 9.57, 'compass': -2.27, 'pitch': 1.46, 'roll': 1.76}
{'lipoC2': 0.0, 'temp': 0.0, 'lipoC3S3': 12.7, 'state': 'normal', 'rot1': 0, 'rot0': 0, 'rot3': 0, 'rot2': 0, 'depth': 1.767, 'yaw': -1.85, 'datetime': '2018-12-18 16:55:25.469662', 'mgs': 0, 'flw2': 0.22, 'flw1': 0.0, 'flw0': 0.0, 'time': 9.77, 'compass': -2.46, 'pitch': 1.68, 'roll': 1.76}
{'lipoC2': 0.0, 'temp': 0.0, 'lipoC3S3': 12.54, 'state': 'normal', 'rot1': 0, 'rot0': 0, 'rot3': 0, 'rot2': 0, 'depth': 0.699, 'yaw': -2.03, 'datetime': '2018-12-18 16:55:25.678218', 'mgs': 0, 'flw2': 0.01, 'flw1': 0.0, 'flw0': 0.15, 'time': 9.98, 'compass': -2.64, 'pitch': 1.73, 'roll': 1.76}
{'lipoC2': 0.05, 'temp': 0.0, 'lipoC3S3': 12.58, 'state': 'normal', 'rot1': 0, 'rot0': 0, 'rot3': 0, 'rot2': 0, 'depth': -1.743, 'yaw': -2.24, 'datetime': '2018-12-18 16:55:25.883544', 'mgs': 0, 'flw2': 0.0, 'flw1': 0.44, 'flw0': 0.0, 'time': 10.19, 'compass': -2.84, 'pitch': 1.69, 'roll': 1.62}
{'lipoC2': 0.0, 'temp': 0.0, 'lipoC3S3': 12.3, 'state': 'normal', 'rot1': 0, 'rot0': 0, 'rot3': 0, 'rot2': 0, 'depth': -0.827, 'yaw': -2.4, 'datetime': '2018-12-18 16:55:26.095870', 'mgs': 0, 'flw2': 0.0, 'flw1': 0.18, 'flw0': 0.2, 'time': 10.4, 'compass': -3.01, 'pitch': 1.62, 'roll': 1.59}
{'lipoC2': 0.1, 'temp': 0.0, 'lipoC3S3': 12.55, 'state': 'normal', 'rot1': 0, 'rot0': 0, 'rot3': 0, 'rot2': 0, 'depth': -2.048, 'yaw': -2.55, 'datetime': '2018-12-18 16:55:26.305091', 'mgs': 0, 'flw2': 0.09, 'flw1': 0.47, 'flw0': 0.0, 'time': 10.61, 'compass': -3.16, 'pitch': 1.3, 'roll': 1.74}
{'lipoC2': 0.02, 'temp': 0.0, 'lipoC3S3': 12.43, 'state': 'normal', 'rot1': 0, 'rot0': 0, 'rot3': 0, 'rot2': 0, 'depth': 0.241, 'yaw': -2.69, 'datetime': '2018-12-18 16:55:26.511558', 'mgs': 0, 'flw2': 0.0, 'flw1': 0.44, 'flw0': 0.05, 'time': 10.81, 'compass': -3.3, 'pitch': 0.98, 'roll': 1.9}
{'lipoC2': 0.15, 'temp': 0.0, 'lipoC3S3': 12.43, 'state': 'normal', 'rot1': 0, 'rot0': 0, 'rot3': 0, 'rot2': 0, 'depth': -1.666, 'yaw': -2.85, 'datetime': '2018-12-18 16:55:26.721612', 'mgs': 0, 'flw2': 0.15, 'flw1': 0.26, 'flw0': 0.0, 'time': 11.02, 'compass': -3.46, 'pitch': 1.15, 'roll': 1.89}
{'lipoC2': 0.12, 'temp': 0.0, 'lipoC3S3': 12.27, 'state': 'normal', 'rot1': 0, 'rot0': 0, 'rot3': 0, 'rot2': 0, 'depth': 0.623, 'yaw': -3.02, 'datetime': '2018-12-18 16:55:26.925196', 'mgs': 0, 'flw2': 0.0, 'flw1': 0.29, 'flw0': 0.18, 'time': 11.23, 'compass': -3.63, 'pitch': 1.63, 'roll': 1.88}
{'lipoC2': 0.0, 'temp': 0.0, 'lipoC3S3': 12.5, 'state': 'normal', 'rot1': 0, 'rot0': 0, 'rot3': 0, 'rot2': 0, 'depth': 0.165, 'yaw': -3.19, 'datetime': '2018-12-18 16:55:27.134684', 'mgs': 0, 'flw2': 0.16, 'flw1': 0.23, 'flw0': 0.16, 'time': 11.44, 'compass': -3.8, 'pitch': 1.63, 'roll': 1.89}
{'lipoC2': 0.1, 'temp': 0.0, 'lipoC3S3': 12.54, 'state': 'normal', 'rot1': 0, 'rot0': 0, 'rot3': 0, 'rot2': 0, 'depth': -2.2, 'yaw': -3.37, 'datetime': '2018-12-18 16:55:27.340477', 'mgs': 0, 'flw2': 0.04, 'flw1': 0.0, 'flw0': 0.15, 'time': 11.64, 'compass': -3.98, 'pitch': 1.04, 'roll': 1.89}
{'lipoC2': 0.0, 'temp': 0.0, 'lipoC3S3': 12.52, 'state': 'normal', 'rot1': 0, 'rot0': 0, 'rot3': 0, 'rot2': 0, 'depth': -0.369, 'yaw': -3.55, 'datetime': '2018-12-18 16:55:27.551976', 'mgs': 0, 'flw2': 0.15, 'flw1': 0.38, 'flw0': 0.0, 'time': 11.85, 'compass': -4.16, 'pitch': 0.79, 'roll': 1.89}
{'lipoC2': 0.05, 'temp': 0.0, 'lipoC3S3': 12.58, 'state': 'normal', 'rot1': 0, 'rot0': 0, 'rot3': 0, 'rot2': 0, 'depth': -1.361, 'yaw': -3.72, 'datetime': '2018-12-18 16:55:27.756050', 'mgs': 0, 'flw2': 0.0, 'flw1': 0.5, 'flw0': 0.0, 'time': 12.06, 'compass': -4.33, 'pitch': 1.2, 'roll': 1.89}
{'lipoC2': 0.0, 'temp': 0.0, 'lipoC3S3': 12.54, 'state': 'normal', 'rot1': 0, 'rot0': 0, 'rot3': 0, 'rot2': 0, 'depth': -0.369, 'yaw': -3.88, 'datetime': '2018-12-18 16:55:27.963038', 'mgs': 0, 'flw2': 0.1, 'flw1': 0.5, 'flw0': 0.0, 'time': 12.27, 'compass': -4.49, 'pitch': 1.61, 'roll': 2.13}
{'lipoC2': 0.1, 'temp': 0.0, 'lipoC3S3': 12.31, 'state': 'normal', 'rot1': 0, 'rot0': 0, 'rot3': 0, 'rot2': 0, 'depth': 0.47, 'yaw': -4.04, 'datetime': '2018-12-18 16:55:28.171121', 'mgs': 0, 'flw2': 0.0, 'flw1': 0.41, 'flw0': 0.1, 'time': 12.48, 'compass': -4.65, 'pitch': 1.49, 'roll': 2.45}
{'lipoC2': 0.0, 'temp': 0.0, 'lipoC3S3': 12.74, 'state': 'normal', 'rot1': 0, 'rot0': 0, 'rot3': 0, 'rot2': 0, 'depth': -0.217, 'yaw': -4.21, 'datetime': '2018-12-18 16:55:28.382798', 'mgs': 0, 'flw2': 0.17, 'flw1': 0.0, 'flw0': 0.0, 'time': 12.68, 'compass': -4.82, 'pitch': 1.16, 'roll': 2.55}
{'lipoC2': 0.15, 'temp': 0.0, 'lipoC3S3': 12.42, 'state': 'normal', 'rot1': 0, 'rot0': 0, 'rot3': 0, 'rot2': 0, 'depth': -1.666, 'yaw': -4.39, 'datetime': '2018-12-18 16:55:28.589074', 'mgs': 0, 'flw2': 0.0, 'flw1': 0.0, 'flw0': 0.22, 'time': 12.89, 'compass': -5.0, 'pitch': 1.07, 'roll': 2.55}
{'lipoC2': 0.0, 'temp': 0.0, 'lipoC3S3': 12.33, 'state': 'normal', 'rot1': 0, 'rot0': 0, 'rot3': 0, 'rot2': 0, 'depth': -0.674, 'yaw': -4.58, 'datetime': '2018-12-18 16:55:28.797216', 'mgs': 0, 'flw2': 0.16, 'flw1': 0.18, 'flw0': 0.0, 'time': 13.1, 'compass': -5.19, 'pitch': 1.28, 'roll': 2.53}
{'lipoC2': 0.04, 'temp': 0.0, 'lipoC3S3': 12.38, 'state': 'normal', 'rot1': 0, 'rot0': 0, 'rot3': 0, 'rot2': 0, 'depth': 1.309, 'yaw': -4.78, 'datetime': '2018-12-18 16:55:29.010733', 'mgs': 0, 'flw2': 0.18, 'flw1': 0.0, 'flw0': 0.11, 'time': 13.31, 'compass': -5.39, 'pitch': 1.47, 'roll': 2.5}
{'lipoC2': 0.0, 'temp': 0.0, 'lipoC3S3': 12.5, 'state': 'normal', 'rot1': 0, 'rot0': 0, 'rot3': 0, 'rot2': 0, 'depth': 0.394, 'yaw': -5.07, 'datetime': '2018-12-18 16:55:29.315965', 'mgs': 0, 'flw2': 0.12, 'flw1': 0.41, 'flw0': 0.0, 'time': 13.62, 'compass': -5.68, 'pitch': 1.02, 'roll': 2.37}
{'lipoC2': 0.17, 'temp': 0.0, 'lipoC3S3': 12.39, 'state': 'normal', 'rot1': 0, 'rot0': 0, 'rot3': 0, 'rot2': 0, 'depth': -1.361, 'yaw': -5.25, 'datetime': '2018-12-18 16:55:29.524209', 'mgs': 0, 'flw2': 0.0, 'flw1': 0.0, 'flw0': 0.22, 'time': 13.83, 'compass': -5.86, 'pitch': 0.76, 'roll': 2.33}
{'lipoC2': 0.1, 'temp': 0.0, 'lipoC3S3': 12.31, 'state': 'normal', 'rot1': 0, 'rot0': 0, 'rot3': 0, 'rot2': 0, 'depth': 0.47, 'yaw': -5.46, 'datetime': '2018-12-18 16:55:29.733157', 'mgs': 0, 'flw2': 0.0, 'flw1': 0.38, 'flw0': 0.12, 'time': 14.03, 'compass': -6.07, 'pitch': 0.97, 'roll': 2.26}
{'lipoC2': 0.13, 'temp': 0.0, 'lipoC3S3': 12.29, 'state': 'normal', 'rot1': 0, 'rot0': 0, 'rot3': 0, 'rot2': 0, 'depth': 0.546, 'yaw': -5.64, 'datetime': '2018-12-18 16:55:29.940509', 'mgs': 0, 'flw2': 0.0, 'flw1': 0.32, 'flw0': 0.15, 'time': 14.24, 'compass': -6.25, 'pitch': 1.29, 'roll': 2.28}
{'lipoC2': 0.16, 'temp': 0.0, 'lipoC3S3': 12.39, 'state': 'normal', 'rot1': 0, 'rot0': 0, 'rot3': 0, 'rot2': 0, 'depth': -0.903, 'yaw': -5.83, 'datetime': '2018-12-18 16:55:30.146524', 'mgs': 0, 'flw2': 0.0, 'flw1': 0.0, 'flw0': 0.2, 'time': 14.45, 'compass': -6.43, 'pitch': 1.22, 'roll': 2.53}
{'lipoC2': 0.0, 'temp': 0.0, 'lipoC3S3': 12.72, 'state': 'normal', 'rot1': 0, 'rot0': 0, 'rot3': 0, 'rot2': 0, 'depth': -0.369, 'yaw': -6.01, 'datetime': '2018-12-18 16:55:30.355368', 'mgs': 0, 'flw2': 0.0, 'flw1': 0.12, 'flw0': 0.21, 'time': 14.66, 'compass': -6.62, 'pitch': 0.75, 'roll': 2.73}
{'lipoC2': 0.0, 'temp': 0.0, 'lipoC3S3': 12.33, 'state': 'normal', 'rot1': 0, 'rot0': 0, 'rot3': 0, 'rot2': 0, 'depth': 0.241, 'yaw': -6.21, 'datetime': '2018-12-18 16:55:30.563197', 'mgs': 0, 'flw2': 0.2, 'flw1': 0.09, 'flw0': 0.0, 'time': 14.87, 'compass': -6.82, 'pitch': 0.65, 'roll': 2.69}
{'lipoC2': 0.0, 'temp': 0.0, 'lipoC3S3': 12.74, 'state': 'normal', 'rot1': 0, 'rot0': 0, 'rot3': 0, 'rot2': 0, 'depth': 1.462, 'yaw': -6.41, 'datetime': '2018-12-18 16:55:30.773397', 'mgs': 0, 'flw2': 0.2, 'flw1': 0.09, 'flw0': 0.0, 'time': 15.07, 'compass': -7.02, 'pitch': 1.23, 'roll': 2.47}
{'lipoC2': 0.01, 'temp': 0.0, 'lipoC3S3': 12.47, 'state': 'normal', 'rot1': 0, 'rot0': 0, 'rot3': 0, 'rot2': 0, 'depth': -0.064, 'yaw': -6.63, 'datetime': '2018-12-18 16:55:30.980664', 'mgs': 0, 'flw2': 0.0, 'flw1': 0.44, 'flw0': 0.02, 'time': 15.28, 'compass': -7.24, 'pitch': 1.51, 'roll': 2.38}
{'lipoC2': 0.11, 'temp': 0.0, 'lipoC3S3': 12.52, 'state': 'normal', 'rot1': 0, 'rot0': 0, 'rot3': 0, 'rot2': 0, 'depth': 1.843, 'yaw': -6.82, 'datetime': '2018-12-18 16:55:31.187862', 'mgs': 0, 'flw2': 0.11, 'flw1': 0.41, 'flw0': 0.0, 'time': 15.49, 'compass': -7.43, 'pitch': 0.93, 'roll': 2.37}
{'lipoC2': 0.06, 'temp': 0.0, 'lipoC3S3': 12.37, 'state': 'normal', 'rot1': 0, 'rot0': 0, 'rot3': 0, 'rot2': 0, 'depth': 0.317, 'yaw': -7.0, 'datetime': '2018-12-18 16:55:31.399901', 'mgs': 0, 'flw2': 0.0, 'flw1': 0.38, 'flw0': 0.1, 'time': 15.7, 'compass': -7.61, 'pitch': 0.29, 'roll': 2.46}
{'lipoC2': 0.0, 'temp': 0.0, 'lipoC3S3': 12.72, 'state': 'normal', 'rot1': 0, 'rot0': 0, 'rot3': 0, 'rot2': 0, 'depth': 1.691, 'yaw': -7.17, 'datetime': '2018-12-18 16:55:31.603525', 'mgs': 0, 'flw2': 0.0, 'flw1': 0.29, 'flw0': 0.15, 'time': 15.9, 'compass': -7.78, 'pitch': 0.6, 'roll': 2.44}
{'lipoC2': 0.0, 'temp': 0.0, 'lipoC3S3': 12.58, 'state': 'normal', 'rot1': 0, 'rot0': 0, 'rot3': 0, 'rot2': 0, 'depth': -1.514, 'yaw': -7.37, 'datetime': '2018-12-18 16:55:31.811093', 'mgs': 0, 'flw2': 0.0, 'flw1': 0.44, 'flw0': 0.0, 'time': 16.11, 'compass': -7.97, 'pitch': 1.36, 'roll': 2.37}
{'lipoC2': 0.12, 'temp': 0.0, 'lipoC3S3': 12.54, 'state': 'normal', 'rot1': 0, 'rot0': 0, 'rot3': 0, 'rot2': 0, 'depth': -2.2, 'yaw': -7.57, 'datetime': '2018-12-18 16:55:32.024742', 'mgs': 0, 'flw2': 0.01, 'flw1': 0.47, 'flw0': 0.0, 'time': 16.32, 'compass': -8.18, 'pitch': 1.33, 'roll': 2.4}
{'lipoC2': 0.0, 'temp': 0.0, 'lipoC3S3': 12.62, 'state': 'normal', 'rot1': 0, 'rot0': 0, 'rot3': 0, 'rot2': 0, 'depth': 1.385, 'yaw': -7.74, 'datetime': '2018-12-18 16:55:32.229213', 'mgs': 0, 'flw2': 0.65, 'flw1': 0.0, 'flw0': 0.39, 'time': 16.53, 'compass': -8.35, 'pitch': 0.63, 'roll': 2.49}
{'lipoC2': 0.16, 'temp': 0.0, 'lipoC3S3': 12.42, 'state': 'normal', 'rot1': 1, 'rot0': 1, 'rot3': 0, 'rot2': 0, 'depth': -0.98, 'yaw': -7.29, 'datetime': '2018-12-18 16:55:32.438200', 'mgs': 0, 'flw2': 0.39, 'flw1': 0.0, 'flw0': 0.54, 'time': 16.74, 'compass': -7.9, 'pitch': 0.45, 'roll': 2.65}
{'lipoC2': 0.0, 'temp': 0.0, 'lipoC3S3': 12.68, 'state': 'normal', 'rot1': 1, 'rot0': 1, 'rot3': 0, 'rot2': 0, 'depth': 1.92, 'yaw': -6.23, 'datetime': '2018-12-18 16:55:32.644977', 'mgs': 0, 'flw2': 0.22, 'flw1': 0.0, 'flw0': 0.0, 'time': 16.94, 'compass': -6.84, 'pitch': 1.09, 'roll': 2.65}
{'lipoC2': 0.0, 'temp': 0.0, 'lipoC3S3': 12.51, 'state': 'normal', 'rot1': 1, 'rot0': 1, 'rot3': 0, 'rot2': 0, 'depth': 0.47, 'yaw': -5.36, 'datetime': '2018-12-18 16:55:32.855647', 'mgs': 0, 'flw2': 0.04, 'flw1': 0.0, 'flw0': 0.15, 'time': 17.15, 'compass': -5.97, 'pitch': 1.43, 'roll': 2.54}
{'lipoC2': 0.04, 'temp': 0.0, 'lipoC3S3': 12.35, 'state': 'normal', 'rot1': 1, 'rot0': 1, 'rot3': 0, 'rot2': 0, 'depth': 0.165, 'yaw': -4.55, 'datetime': '2018-12-18 16:55:33.063108', 'mgs': 0, 'flw2': 0.21, 'flw1': 0.0, 'flw0': 0.0, 'time': 17.36, 'compass': -5.16, 'pitch': 1.09, 'roll': 2.39}
{'lipoC2': 0.11, 'temp': 0.0, 'lipoC3S3': 12.29, 'state': 'normal', 'rot1': 1, 'rot0': 1, 'rot3': 0, 'rot2': 0, 'depth': 0.47, 'yaw': -3.79, 'datetime': '2018-12-18 16:55:33.266981', 'mgs': 0, 'flw2': 0.0, 'flw1': 0.15, 'flw0': 0.2, 'time': 17.56, 'compass': -4.4, 'pitch': 0.68, 'roll': 2.28}
{'lipoC2': 0.13, 'temp': 0.0, 'lipoC3S3': 12.51, 'state': 'normal', 'rot1': 1, 'rot0': 1, 'rot3': 0, 'rot2': 0, 'depth': -2.048, 'yaw': -3.13, 'datetime': '2018-12-18 16:55:33.473817', 'mgs': 0, 'flw2': 0.05, 'flw1': 0.0, 'flw0': 0.15, 'time': 17.77, 'compass': -3.74, 'pitch': 0.76, 'roll': 2.17}
{'lipoC2': 0.0, 'temp': 0.0, 'lipoC3S3': 12.47, 'state': 'normal', 'rot1': 1, 'rot0': 1, 'rot3': 0, 'rot2': 0, 'depth': 0.47, 'yaw': -2.44, 'datetime': '2018-12-18 16:55:33.683835', 'mgs': 0, 'flw2': 0.0, 'flw1': 0.0, 'flw0': 0.18, 'time': 17.98, 'compass': -3.05, 'pitch': 1.07, 'roll': 2.29}
{'lipoC2': 0.06, 'temp': 0.0, 'lipoC3S3': 12.58, 'state': 'normal', 'rot1': 1, 'rot0': 1, 'rot3': 0, 'rot2': 0, 'depth': -1.971, 'yaw': -1.78, 'datetime': '2018-12-18 16:55:33.894991', 'mgs': 0, 'flw2': 0.16, 'flw1': 0.0, 'flw0': 0.01, 'time': 18.19, 'compass': -2.39, 'pitch': 1.0, 'roll': 2.47}
{'lipoC2': 0.16, 'temp': 0.0, 'lipoC3S3': 12.42, 'state': 'normal', 'rot1': 1, 'rot0': 1, 'rot3': 0, 'rot2': 0, 'depth': -1.437, 'yaw': -1.18, 'datetime': '2018-12-18 16:55:34.100276', 'mgs': 0, 'flw2': 0.0, 'flw1': 0.0, 'flw0': 0.18, 'time': 18.4, 'compass': -1.79, 'pitch': 0.63, 'roll': 2.66}
{'lipoC2': 0.16, 'temp': 0.0, 'lipoC3S3': 12.41, 'state': 'normal', 'rot1': 1, 'rot0': 1, 'rot3': 0, 'rot2': 0, 'depth': -1.208, 'yaw': -0.64, 'datetime': '2018-12-18 16:55:34.307462', 'mgs': 0, 'flw2': 0.13, 'flw1': 0.35, 'flw0': 0.0, 'time': 18.6, 'compass': -1.25, 'pitch': 0.58, 'roll': 2.78}
{'lipoC2': 0.08, 'temp': 0.0, 'lipoC3S3': 12.33, 'state': 'normal', 'rot1': 1, 'rot0': 1, 'rot3': 0, 'rot2': 0, 'depth': 1.157, 'yaw': -0.08, 'datetime': '2018-12-18 16:55:34.517488', 'mgs': 0, 'flw2': 0.22, 'flw1': 0.0, 'flw0': 0.0, 'time': 18.81, 'compass': -0.69, 'pitch': 0.91, 'roll': 2.67}
{'lipoC2': 0.0, 'temp': 0.0, 'lipoC3S3': 12.43, 'state': 'normal', 'rot1': 1, 'rot0': 1, 'rot3': 0, 'rot2': 0, 'depth': 0.623, 'yaw': 0.42, 'datetime': '2018-12-18 16:55:34.722308', 'mgs': 0, 'flw2': 0.16, 'flw1': 0.26, 'flw0': 0.0, 'time': 19.02, 'compass': -0.19, 'pitch': 1.17, 'roll': 2.45}
{'lipoC2': 0.0, 'temp': 0.0, 'lipoC3S3': 12.71, 'state': 'normal', 'rot1': 1, 'rot0': 1, 'rot3': 0, 'rot2': 0, 'depth': -2.048, 'yaw': 0.9, 'datetime': '2018-12-18 16:55:34.930832', 'mgs': 0, 'flw2': 0.2, 'flw1': 0.09, 'flw0': 0.0, 'time': 19.23, 'compass': 0.29, 'pitch': 1.05, 'roll': 2.38}
{'lipoC2': 0.0, 'temp': 0.0, 'lipoC3S3': 12.68, 'state': 'normal', 'rot1': 1, 'rot0': 1, 'rot3': 0, 'rot2': 0, 'depth': -2.124, 'yaw': 1.37, 'datetime': '2018-12-18 16:55:35.139847', 'mgs': 0, 'flw2': 0.2, 'flw1': 0.0, 'flw0': 0.0, 'time': 19.43, 'compass': 0.76, 'pitch': 0.69, 'roll': 2.44}
{'lipoC2': 0.0, 'temp': 0.0, 'lipoC3S3': 12.74, 'state': 'normal', 'rot1': 1, 'rot0': 1, 'rot3': 0, 'rot2': 0, 'depth': -0.217, 'yaw': 1.81, 'datetime': '2018-12-18 16:55:35.350883', 'mgs': 0, 'flw2': 0.16, 'flw1': 0.23, 'flw0': 0.0, 'time': 19.64, 'compass': 1.2, 'pitch': 0.66, 'roll': 2.57}
{'lipoC2': 0.1, 'temp': 0.0, 'lipoC3S3': 12.3, 'state': 'normal', 'rot1': 1, 'rot0': 1, 'rot3': 0, 'rot2': 0, 'depth': 1.004, 'yaw': 2.25, 'datetime': '2018-12-18 16:55:35.556659', 'mgs': 0, 'flw2': 0.17, 'flw1': 0.0, 'flw0': 0.0, 'time': 19.85, 'compass': 1.64, 'pitch': 0.95, 'roll': 2.56}
{'lipoC2': 0.0, 'temp': 0.0, 'lipoC3S3': 12.74, 'state': 'normal', 'rot1': 1, 'rot0': 1, 'rot3': 0, 'rot2': 0, 'depth': 1.538, 'yaw': 2.64, 'datetime': '2018-12-18 16:55:35.763847', 'mgs': 0, 'flw2': 0.17, 'flw1': 0.18, 'flw0': 0.0, 'time': 20.06, 'compass': 2.03, 'pitch': 1.18, 'roll': 2.49}
{'lipoC2': 0.03, 'temp': 0.0, 'lipoC3S3': 12.38, 'state': 'normal', 'rot1': 1, 'rot0': 1, 'rot3': 0, 'rot2': 0, 'depth': 0.165, 'yaw': 2.98, 'datetime': '2018-12-18 16:55:35.975481', 'mgs': 0, 'flw2': 0.21, 'flw1': 0.0, 'flw0': 0.0, 'time': 20.26, 'compass': 2.37, 'pitch': 0.97, 'roll': 2.4}
{'lipoC2': 0.03, 'temp': 0.0, 'lipoC3S3': 12.38, 'state': 'normal', 'rot1': 1, 'rot0': 1, 'rot3': 0, 'rot2': 0, 'depth': 1.309, 'yaw': 3.32, 'datetime': '2018-12-18 16:55:36.180435', 'mgs': 0, 'flw2': 0.22, 'flw1': 0.0, 'flw0': 0.0, 'time': 20.47, 'compass': 2.71, 'pitch': 0.52, 'roll': 2.34}
{'lipoC2': 0.14, 'temp': 0.0, 'lipoC3S3': 12.51, 'state': 'normal', 'rot1': 1, 'rot0': 1, 'rot3': 0, 'rot2': 0, 'depth': -1.743, 'yaw': 3.67, 'datetime': '2018-12-18 16:55:36.385904', 'mgs': 0, 'flw2': 0.04, 'flw1': 0.47, 'flw0': 0.0, 'time': 20.68, 'compass': 3.06, 'pitch': 0.56, 'roll': 2.34}
{'lipoC2': 0.02, 'temp': 0.0, 'lipoC3S3': 12.42, 'state': 'normal', 'rot1': 1, 'rot0': 1, 'rot3': 0, 'rot2': 0, 'depth': 0.241, 'yaw': 3.98, 'datetime': '2018-12-18 16:55:36.599365', 'mgs': 0, 'flw2': 0.15, 'flw1': 0.0, 'flw0': 0.04, 'time': 20.89, 'compass': 3.37, 'pitch': 1.04, 'roll': 2.33}
{'lipoC2': 0.0, 'temp': 0.0, 'lipoC3S3': 12.7, 'state': 'normal', 'rot1': 1, 'rot0': 1, 'rot3': 0, 'rot2': 0, 'depth': 1.691, 'yaw': 4.29, 'datetime': '2018-12-18 16:55:36.807199', 'mgs': 0, 'flw2': 0.2, 'flw1': 0.03, 'flw0': 0.0, 'time': 21.1, 'compass': 3.68, 'pitch': 1.29, 'roll': 2.38}
{'lipoC2': 0.0, 'temp': 0.0, 'lipoC3S3': 12.52, 'state': 'normal', 'rot1': 1, 'rot0': 1, 'rot3': 0, 'rot2': 0, 'depth': -0.217, 'yaw': 4.57, 'datetime': '2018-12-18 16:55:37.014073', 'mgs': 0, 'flw2': 0.06, 'flw1': 0.47, 'flw0': 0.0, 'time': 21.3, 'compass': 3.96, 'pitch': 0.89, 'roll': 2.57}
{'lipoC2': 0.0, 'temp': 0.0, 'lipoC3S3': 12.5, 'state': 'normal', 'rot1': 1, 'rot0': 1, 'rot3': 0, 'rot2': 0, 'depth': 0.165, 'yaw': 4.84, 'datetime': '2018-12-18 16:55:37.224942', 'mgs': 0, 'flw2': 0.09, 'flw1': 0.47, 'flw0': 0.0, 'time': 21.51, 'compass': 4.24, 'pitch': 0.37, 'roll': 2.69}
{'lipoC2': 0.11, 'temp': 0.0, 'lipoC3S3': 12.29, 'state': 'normal', 'rot1': 1, 'rot0': 1, 'rot3': 0, 'rot2': 0, 'depth': 0.47, 'yaw': 5.12, 'datetime': '2018-12-18 16:55:37.428332', 'mgs': 0, 'flw2': 0.0, 'flw1': 0.21, 'flw0': 0.2, 'time': 21.72, 'compass': 4.51, 'pitch': 0.49, 'roll': 2.59}
{'lipoC2': 0.08, 'temp': 0.0, 'lipoC3S3': 12.31, 'state': 'normal', 'rot1': 1, 'rot0': 1, 'rot3': 0, 'rot2': 0, 'depth': 1.157, 'yaw': 5.38, 'datetime': '2018-12-18 16:55:37.637951', 'mgs': 0, 'flw2': 0.0, 'flw1': 0.26, 'flw0': 0.18, 'time': 21.93, 'compass': 4.77, 'pitch': 1.06, 'roll': 2.5}
{'lipoC2': 0.0, 'temp': 0.0, 'lipoC3S3': 12.64, 'state': 'normal', 'rot1': 2, 'rot0': 2, 'rot3': 0, 'rot2': 0, 'depth': 1.462, 'yaw': 5.38, 'datetime': '2018-12-18 16:55:37.848719', 'mgs': 0, 'flw2': 0.1, 'flw1': 0.32, 'flw0': 0.48, 'time': 22.14, 'compass': 4.77, 'pitch': 1.23, 'roll': 2.39}
{'lipoC2': 0.0, 'temp': 0.0, 'lipoC3S3': 12.3, 'state': 'normal', 'rot1': 3, 'rot0': 3, 'rot3': 0, 'rot2': 0, 'depth': -0.98, 'yaw': 4.54, 'datetime': '2018-12-18 16:55:38.054663', 'mgs': 0, 'flw2': 0.0, 'flw1': 0.0, 'flw0': 0.22, 'time': 22.34, 'compass': 3.93, 'pitch': 0.94, 'roll': 2.19}
{'lipoC2': 0.0, 'temp': 0.0, 'lipoC3S3': 12.54, 'state': 'normal', 'rot1': 3, 'rot0': 3, 'rot3': 0, 'rot2': 0, 'depth': 0.089, 'yaw': 3.59, 'datetime': '2018-12-18 16:55:38.260143', 'mgs': 0, 'flw2': 0.1, 'flw1': 0.0, 'flw0': 0.11, 'time': 22.55, 'compass': 2.98, 'pitch': 0.76, 'roll': 2.14}
{'lipoC2': 0.0, 'temp': 0.0, 'lipoC3S3': 12.62, 'state': 'normal', 'rot1': 3, 'rot0': 3, 'rot3': 0, 'rot2': 0, 'depth': 1.462, 'yaw': 2.76, 'datetime': '2018-12-18 16:55:38.473696', 'mgs': 0, 'flw2': 0.0, 'flw1': 0.47, 'flw0': 0.02, 'time': 22.76, 'compass': 2.15, 'pitch': 0.81, 'roll': 2.31}
{'lipoC2': 0.04, 'temp': 0.0, 'lipoC3S3': 12.35, 'state': 'normal', 'rot1': 3, 'rot0': 3, 'rot3': 0, 'rot2': 0, 'depth': 0.165, 'yaw': 2.03, 'datetime': '2018-12-18 16:55:38.677398', 'mgs': 0, 'flw2': 0.0, 'flw1': 0.38, 'flw0': 0.0, 'time': 22.97, 'compass': 1.42, 'pitch': 0.91, 'roll': 2.58}
{'lipoC2': 0.0, 'temp': 0.0, 'lipoC3S3': 12.6, 'state': 'normal', 'rot1': 3, 'rot0': 3, 'rot3': 0, 'rot2': 0, 'depth': 1.309, 'yaw': 1.3, 'datetime': '2018-12-18 16:55:38.889440', 'mgs': 0, 'flw2': 0.0, 'flw1': 0.47, 'flw0': 0.01, 'time': 23.17, 'compass': 0.69, 'pitch': 0.82, 'roll': 2.68}
{'lipoC2': 0.0, 'temp': 0.0, 'lipoC3S3': 12.74, 'state': 'normal', 'rot1': 3, 'rot0': 3, 'rot3': 0, 'rot2': 0, 'depth': 1.614, 'yaw': 0.63, 'datetime': '2018-12-18 16:55:39.093839', 'mgs': 0, 'flw2': 0.18, 'flw1': 0.12, 'flw0': 0.0, 'time': 23.38, 'compass': 0.02, 'pitch': 0.57, 'roll': 2.5}
{'lipoC2': 0.01, 'temp': 0.0, 'lipoC3S3': 12.47, 'state': 'normal', 'rot1': 3, 'rot0': 3, 'rot3': 0, 'rot2': 0, 'depth': 0.012, 'yaw': -0.04, 'datetime': '2018-12-18 16:55:39.302365', 'mgs': 0, 'flw2': 0.02, 'flw1': 0.5, 'flw0': 0.01, 'time': 23.59, 'compass': -0.65, 'pitch': 0.43, 'roll': 2.32}
{'lipoC2': 0.0, 'temp': 0.0, 'lipoC3S3': 12.74, 'state': 'normal', 'rot1': 3, 'rot0': 3, 'rot3': 0, 'rot2': 0, 'depth': 1.538, 'yaw': -0.7, 'datetime': '2018-12-18 16:55:39.511518', 'mgs': 0, 'flw2': 0.17, 'flw1': 0.21, 'flw0': 0.0, 'time': 23.8, 'compass': -1.3, 'pitch': 0.58, 'roll': 2.19}
{'lipoC2': 0.0, 'temp': 0.0, 'lipoC3S3': 12.51, 'state': 'normal', 'rot1': 3, 'rot0': 3, 'rot3': 0, 'rot2': 0, 'depth': -0.14, 'yaw': -1.3, 'datetime': '2018-12-18 16:55:39.720483', 'mgs': 0, 'flw2': 0.0, 'flw1': 0.0, 'flw0': 0.16, 'time': 24.0, 'compass': -1.91, 'pitch': 0.96, 'roll': 2.19}
{'lipoC2': 0.0, 'temp': 0.0, 'lipoC3S3': 12.7, 'state': 'normal', 'rot1': 3, 'rot0': 3, 'rot3': 0, 'rot2': 0, 'depth': 1.691, 'yaw': -1.9, 'datetime': '2018-12-18 16:55:39.926997', 'mgs': 0, 'flw2': 0.18, 'flw1': 0.0, 'flw0': 0.0, 'time': 24.21, 'compass': -2.51, 'pitch': 1.04, 'roll': 2.18}
{'lipoC2': 0.0, 'temp': 0.0, 'lipoC3S3': 12.71, 'state': 'normal', 'rot1': 3, 'rot0': 3, 'rot3': 0, 'rot2': 0, 'depth': 1.767, 'yaw': -2.47, 'datetime': '2018-12-18 16:55:40.132445', 'mgs': 0, 'flw2': 0.0, 'flw1': 0.32, 'flw0': 0.12, 'time': 24.42, 'compass': -3.08, 'pitch': 0.66, 'roll': 2.31}
{'lipoC2': 0.11, 'temp': 0.0, 'lipoC3S3': 12.54, 'state': 'normal', 'rot1': 3, 'rot0': 3, 'rot3': 0, 'rot2': 0, 'depth': -2.124, 'yaw': -3.01, 'datetime': '2018-12-18 16:55:40.343101', 'mgs': 0, 'flw2': 0.04, 'flw1': 0.0, 'flw0': 0.13, 'time': 24.63, 'compass': -3.62, 'pitch': 0.43, 'roll': 2.44}
{'lipoC2': 0.11, 'temp': 0.0, 'lipoC3S3': 12.67, 'state': 'normal', 'rot1': 3, 'rot0': 3, 'rot3': 0, 'rot2': 0, 'depth': 1.843, 'yaw': -3.58, 'datetime': '2018-12-18 16:55:40.551529', 'mgs': 0, 'flw2': 0.02, 'flw1': 0.0, 'flw0': 0.15, 'time': 24.84, 'compass': -4.19, 'pitch': 0.49, 'roll': 2.45}
{'lipoC2': 0.0, 'temp': 0.0, 'lipoC3S3': 12.68, 'state': 'normal', 'rot1': 3, 'rot0': 3, 'rot3': 0, 'rot2': 0, 'depth': 1.691, 'yaw': -4.11, 'datetime': '2018-12-18 16:55:40.757206', 'mgs': 0, 'flw2': 0.0, 'flw1': 0.26, 'flw0': 0.0, 'time': 25.04, 'compass': -4.72, 'pitch': 0.73, 'roll': 2.45}
{'lipoC2': 0.06, 'temp': 0.0, 'lipoC3S3': 12.56, 'state': 'normal', 'rot1': 3, 'rot0': 3, 'rot3': 0, 'rot2': 0, 'depth': -1.743, 'yaw': -4.59, 'datetime': '2018-12-18 16:55:40.968986', 'mgs': 0, 'flw2': 0.09, 'flw1': 0.0, 'flw0': 0.1, 'time': 25.25, 'compass': -5.2, 'pitch': 0.83, 'roll': 2.45}
{'lipoC2': 0.0, 'temp': 0.0, 'lipoC3S3': 12.63, 'state': 'normal', 'rot1': 3, 'rot0': 3, 'rot3': 0, 'rot2': 0, 'depth': 1.385, 'yaw': -5.09, 'datetime': '2018-12-18 16:55:41.175342', 'mgs': 0, 'flw2': 0.0, 'flw1': 0.47, 'flw0': 0.01, 'time': 25.46, 'compass': -5.7, 'pitch': 0.73, 'roll': 2.42}
{'lipoC2': 0.0, 'temp': 0.0, 'lipoC3S3': 12.67, 'state': 'normal', 'rot1': 3, 'rot0': 3, 'rot3': 0, 'rot2': 0, 'depth': 1.614, 'yaw': -5.59, 'datetime': '2018-12-18 16:55:41.383620', 'mgs': 0, 'flw2': 0.21, 'flw1': 0.0, 'flw0': 0.0, 'time': 25.67, 'compass': -6.2, 'pitch': 0.47, 'roll': 2.43}
{'lipoC2': 0.0, 'temp': 0.0, 'lipoC3S3': 12.62, 'state': 'normal', 'rot1': 3, 'rot0': 3, 'rot3': 0, 'rot2': 0, 'depth': 1.309, 'yaw': -6.03, 'datetime': '2018-12-18 16:55:41.591961', 'mgs': 0, 'flw2': 0.22, 'flw1': 0.0, 'flw0': 0.0, 'time': 25.87, 'compass': -6.64, 'pitch': 0.42, 'roll': 2.45}
{'lipoC2': 0.11, 'temp': 0.0, 'lipoC3S3': 12.54, 'state': 'normal', 'rot1': 3, 'rot0': 3, 'rot3': 0, 'rot2': 0, 'depth': -2.124, 'yaw': -6.48, 'datetime': '2018-12-18 16:55:41.798117', 'mgs': 0, 'flw2': 0.0, 'flw1': 0.47, 'flw0': 0.0, 'time': 26.08, 'compass': -7.09, 'pitch': 0.63, 'roll': 2.41}
{'lipoC2': 0.0, 'temp': 0.0, 'lipoC3S3': 12.56, 'state': 'normal', 'rot1': 3, 'rot0': 3, 'rot3': 0, 'rot2': 0, 'depth': 0.775, 'yaw': -6.9, 'datetime': '2018-12-18 16:55:42.008471', 'mgs': 0, 'flw2': 0.13, 'flw1': 0.0, 'flw0': 0.06, 'time': 26.29, 'compass': -7.51, 'pitch': 0.8, 'roll': 2.36}
{'lipoC2': 0.11, 'temp': 0.0, 'lipoC3S3': 12.3, 'state': 'normal', 'rot1': 3, 'rot0': 3, 'rot3': 0, 'rot2': 0, 'depth': 1.004, 'yaw': -7.3, 'datetime': '2018-12-18 16:55:42.212813', 'mgs': 0, 'flw2': 0.17, 'flw1': 0.0, 'flw0': 0.0, 'time': 26.5, 'compass': -7.91, 'pitch': 0.61, 'roll': 2.32}
{'lipoC2': 0.0, 'temp': 0.0, 'lipoC3S3': 12.74, 'state': 'normal', 'rot1': 3, 'rot0': 3, 'rot3': 0, 'rot2': 0, 'depth': 1.614, 'yaw': -7.72, 'datetime': '2018-12-18 16:55:42.421901', 'mgs': 0, 'flw2': 0.0, 'flw1': 0.29, 'flw0': 0.17, 'time': 26.7, 'compass': -8.32, 'pitch': 0.35, 'roll': 2.41}
{'lipoC2': 0.15, 'temp': 0.0, 'lipoC3S3': 12.47, 'state': 'normal', 'rot1': 3, 'rot0': 3, 'rot3': 0, 'rot2': 0, 'depth': -1.285, 'yaw': -8.11, 'datetime': '2018-12-18 16:55:42.629666', 'mgs': 0, 'flw2': 0.5, 'flw1': 0.0, 'flw0': 0.62, 'time': 26.91, 'compass': -8.72, 'pitch': 0.42, 'roll': 2.46}
{'lipoC2': 0.0, 'temp': 0.0, 'lipoC3S3': 12.39, 'state': 'normal', 'rot1': 4, 'rot0': 4, 'rot3': 0, 'rot2': 0, 'depth': 1.233, 'yaw': -7.85, 'datetime': '2018-12-18 16:55:42.839345', 'mgs': 0, 'flw2': 0.37, 'flw1': 0.0, 'flw0': 0.57, 'time': 27.12, 'compass': -8.46, 'pitch': 0.79, 'roll': 2.58}
{'lipoC2': 0.15, 'temp': 0.0, 'lipoC3S3': 12.45, 'state': 'normal', 'rot1': 4, 'rot0': 5, 'rot3': 0, 'rot2': 0, 'depth': -1.666, 'yaw': -6.7, 'datetime': '2018-12-18 16:55:43.046234', 'mgs': 0, 'flw2': 0.0, 'flw1': 0.0, 'flw0': 0.22, 'time': 27.33, 'compass': -7.31, 'pitch': 1.16, 'roll': 2.77}
{'lipoC2': 0.0, 'temp': 0.0, 'lipoC3S3': 12.35, 'state': 'normal', 'rot1': 5, 'rot0': 5, 'rot3': 0, 'rot2': 0, 'depth': 1.309, 'yaw': -5.53, 'datetime': '2018-12-18 16:55:43.255321', 'mgs': 0, 'flw2': 0.12, 'flw1': 0.29, 'flw0': 0.0, 'time': 27.54, 'compass': -6.13, 'pitch': 1.06, 'roll': 2.78}
{'lipoC2': 0.02, 'temp': 0.0, 'lipoC3S3': 12.45, 'state': 'normal', 'rot1': 5, 'rot0': 5, 'rot3': 0, 'rot2': 0, 'depth': 0.089, 'yaw': -4.47, 'datetime': '2018-12-18 16:55:43.463882', 'mgs': 0, 'flw2': 0.13, 'flw1': 0.0, 'flw0': 0.01, 'time': 27.75, 'compass': -5.08, 'pitch': 0.65, 'roll': 2.75}
{'lipoC2': 0.05, 'temp': 0.0, 'lipoC3S3': 12.34, 'state': 'normal', 'rot1': 5, 'rot0': 5, 'rot3': 0, 'rot2': 0, 'depth': 0.241, 'yaw': -3.55, 'datetime': '2018-12-18 16:55:43.671859', 'mgs': 0, 'flw2': 0.17, 'flw1': 0.26, 'flw0': 0.15, 'time': 27.95, 'compass': -4.16, 'pitch': 0.53, 'roll': 2.55}
{'lipoC2': 0.0, 'temp': 0.0, 'lipoC3S3': 12.64, 'state': 'normal', 'rot1': 5, 'rot0': 5, 'rot3': 0, 'rot2': 0, 'depth': 1.462, 'yaw': -2.62, 'datetime': '2018-12-18 16:55:43.877997', 'mgs': 0, 'flw2': 0.0, 'flw1': 0.38, 'flw0': 0.06, 'time': 28.16, 'compass': -3.23, 'pitch': 0.78, 'roll': 2.27}
{'lipoC2': 0.0, 'temp': 0.0, 'lipoC3S3': 12.56, 'state': 'normal', 'rot1': 5, 'rot0': 5, 'rot3': 0, 'rot2': 0, 'depth': -1.514, 'yaw': -1.77, 'datetime': '2018-12-18 16:55:44.085142', 'mgs': 0, 'flw2': 0.1, 'flw1': 0.0, 'flw0': 0.09, 'time': 28.37, 'compass': -2.38, 'pitch': 0.91, 'roll': 2.15}
{'lipoC2': 0.0, 'temp': 0.0, 'lipoC3S3': 12.5, 'state': 'normal', 'rot1': 5, 'rot0': 5, 'rot3': 0, 'rot2': 0, 'depth': 0.394, 'yaw': -0.89, 'datetime': '2018-12-18 16:55:44.293162', 'mgs': 0, 'flw2': 0.0, 'flw1': 0.0, 'flw0': 0.18, 'time': 28.57, 'compass': -1.5, 'pitch': 0.71, 'roll': 2.32}
{'lipoC2': 0.13, 'temp': 0.0, 'lipoC3S3': 12.29, 'state': 'normal', 'rot1': 5, 'rot0': 5, 'rot3': 0, 'rot2': 0, 'depth': 0.623, 'yaw': -0.06, 'datetime': '2018-12-18 16:55:44.501787', 'mgs': 0, 'flw2': 0.16, 'flw1': 0.23, 'flw0': 0.0, 'time': 28.78, 'compass': -0.67, 'pitch': 0.49, 'roll': 2.67}
{'lipoC2': 0.0, 'temp': 0.0, 'lipoC3S3': 12.74, 'state': 'normal', 'rot1': 5, 'rot0': 5, 'rot3': 0, 'rot2': 0, 'depth': 1.614, 'yaw': 0.69, 'datetime': '2018-12-18 16:55:44.712742', 'mgs': 0, 'flw2': 0.18, 'flw1': 0.12, 'flw0': 0.0, 'time': 28.99, 'compass': 0.08, 'pitch': 0.6, 'roll': 2.76}
{'lipoC2': 0.15, 'temp': 0.0, 'lipoC3S3': 12.42, 'state': 'normal', 'rot1': 5, 'rot0': 5, 'rot3': 0, 'rot2': 0, 'depth': -1.285, 'yaw': 1.48, 'datetime': '2018-12-18 16:55:44.920203', 'mgs': 0, 'flw2': 0.0, 'flw1': 0.0, 'flw0': 0.2, 'time': 29.2, 'compass': 0.87, 'pitch': 0.87, 'roll': 2.68}
{'lipoC2': 0.16, 'temp': 0.0, 'lipoC3S3': 12.39, 'state': 'normal', 'rot1': 5, 'rot0': 5, 'rot3': 0, 'rot2': 0, 'depth': -1.056, 'yaw': 2.24, 'datetime': '2018-12-18 16:55:45.126006', 'mgs': 0, 'flw2': 0.0, 'flw1': 0.0, 'flw0': 0.22, 'time': 29.41, 'compass': 1.63, 'pitch': 0.9, 'roll': 2.58}
{'lipoC2': 0.03, 'temp': 0.0, 'lipoC3S3': 12.38, 'state': 'normal', 'rot1': 5, 'rot0': 5, 'rot3': 0, 'rot2': 0, 'depth': 1.309, 'yaw': 2.92, 'datetime': '2018-12-18 16:55:45.334413', 'mgs': 0, 'flw2': 0.0, 'flw1': 0.29, 'flw0': 0.16, 'time': 29.61, 'compass': 2.31, 'pitch': 0.74, 'roll': 2.48}
{'lipoC2': 0.0, 'temp': 0.0, 'lipoC3S3': 12.5, 'state': 'normal', 'rot1': 5, 'rot0': 5, 'rot3': 0, 'rot2': 0, 'depth': 0.394, 'yaw': 3.61, 'datetime': '2018-12-18 16:55:45.541198', 'mgs': 0, 'flw2': 0.01, 'flw1': 0.0, 'flw0': 0.15, 'time': 29.82, 'compass': 3.0, 'pitch': 0.76, 'roll': 2.47}
{'lipoC2': 0.0, 'temp': 0.0, 'lipoC3S3': 12.74, 'state': 'normal', 'rot1': 5, 'rot0': 5, 'rot3': 0, 'rot2': 0, 'depth': -1.132, 'yaw': 4.31, 'datetime': '2018-12-18 16:55:45.751538', 'mgs': 0, 'flw2': 0.21, 'flw1': 0.12, 'flw0': 0.0, 'time': 30.03, 'compass': 3.7, 'pitch': 0.95, 'roll': 2.46}
{'lipoC2': 0.0, 'temp': 0.0, 'lipoC3S3': 12.31, 'state': 'normal', 'rot1': 5, 'rot0': 5, 'rot3': 0, 'rot2': 0, 'depth': -0.598, 'yaw': 4.94, 'datetime': '2018-12-18 16:55:45.959122', 'mgs': 0, 'flw2': 0.0, 'flw1': 0.09, 'flw0': 0.23, 'time': 30.24, 'compass': 4.33, 'pitch': 1.06, 'roll': 2.56}
{'lipoC2': 0.14, 'temp': 0.0, 'lipoC3S3': 12.27, 'state': 'normal', 'rot1': 5, 'rot0': 5, 'rot3': 0, 'rot2': 0, 'depth': 0.775, 'yaw': 5.57, 'datetime': '2018-12-18 16:55:46.166397', 'mgs': 0, 'flw2': 0.43, 'flw1': 0.0, 'flw0': 0.67, 'time': 30.44, 'compass': 4.96, 'pitch': 0.88, 'roll': 2.67}
{'lipoC2': 0.01, 'temp': 0.0, 'lipoC3S3': 12.45, 'state': 'normal', 'rot1': 6, 'rot0': 6, 'rot3': 0, 'rot2': 0, 'depth': -0.064, 'yaw': 5.54, 'datetime': '2018-12-18 16:55:46.373684', 'mgs': 0, 'flw2': 0.54, 'flw1': 0.0, 'flw0': 0.34, 'time': 30.65, 'compass': 4.93, 'pitch': 0.65, 'roll': 2.58}
{'lipoC2': 0.16, 'temp': 0.0, 'lipoC3S3': 12.31, 'state': 'normal', 'rot1': 7, 'rot0': 7, 'rot3': 0, 'rot2': 0, 'depth': -0.293, 'yaw': 4.6, 'datetime': '2018-12-18 16:55:46.584942', 'mgs': 0, 'flw2': 0.0, 'flw1': 0.0, 'flw0': 0.23, 'time': 30.86, 'compass': 3.99, 'pitch': 0.82, 'roll': 2.33}
{'lipoC2': 0.0, 'temp': 0.0, 'lipoC3S3': 12.67, 'state': 'normal', 'rot1': 7, 'rot0': 7, 'rot3': 0, 'rot2': 0, 'depth': 1.538, 'yaw': 3.69, 'datetime': '2018-12-18 16:55:46.790680', 'mgs': 0, 'flw2': 0.22, 'flw1': 0.0, 'flw0': 0.0, 'time': 31.07, 'compass': 3.09, 'pitch': 1.05, 'roll': 2.27}
{'lipoC2': 0.0, 'temp': 0.0, 'lipoC3S3': 12.75, 'state': 'normal', 'rot1': 7, 'rot0': 7, 'rot3': 0, 'rot2': 0, 'depth': 1.462, 'yaw': 2.87, 'datetime': '2018-12-18 16:55:47.001819', 'mgs': 0, 'flw2': 0.0, 'flw1': 0.26, 'flw0': 0.2, 'time': 31.28, 'compass': 2.27, 'pitch': 0.94, 'roll': 2.42}
{'lipoC2': 0.0, 'temp': 0.0, 'lipoC3S3': 12.74, 'state': 'normal', 'rot1': 7, 'rot0': 7, 'rot3': 0, 'rot2': 0, 'depth': 1.538, 'yaw': 2.16, 'datetime': '2018-12-18 16:55:47.209649', 'mgs': 0, 'flw2': 0.17, 'flw1': 0.18, 'flw0': 0.0, 'time': 31.48, 'compass': 1.55, 'pitch': 0.68, 'roll': 2.55}
{'lipoC2': 0.16, 'temp': 0.0, 'lipoC3S3': 12.3, 'state': 'normal', 'rot1': 7, 'rot0': 7, 'rot3': 0, 'rot2': 0, 'depth': 0.928, 'yaw': 1.45, 'datetime': '2018-12-18 16:55:47.414432', 'mgs': 0, 'flw2': 0.0, 'flw1': 0.0, 'flw0': 0.21, 'time': 31.69, 'compass': 0.84, 'pitch': 0.61, 'roll': 2.65}
{'lipoC2': 0.0, 'temp': 0.0, 'lipoC3S3': 12.72, 'state': 'normal', 'rot1': 7, 'rot0': 7, 'rot3': 0, 'rot2': 0, 'depth': 1.691, 'yaw': 0.78, 'datetime': '2018-12-18 16:55:47.620891', 'mgs': 0, 'flw2': 0.0, 'flw1': 0.26, 'flw0': 0.17, 'time': 31.9, 'compass': 0.17, 'pitch': 0.58, 'roll': 2.64}
{'lipoC2': 0.09, 'temp': 0.0, 'lipoC3S3': 12.31, 'state': 'normal', 'rot1': 7, 'rot0': 7, 'rot3': 0, 'rot2': 0, 'depth': 0.317, 'yaw': 0.17, 'datetime': '2018-12-18 16:55:47.829916', 'mgs': 0, 'flw2': 0.0, 'flw1': 0.26, 'flw0': 0.17, 'time': 32.11, 'compass': -0.44, 'pitch': 0.56, 'roll': 2.54}
{'lipoC2': 0.0, 'temp': 0.0, 'lipoC3S3': 12.67, 'state': 'normal', 'rot1': 7, 'rot0': 7, 'rot3': 0, 'rot2': 0, 'depth': 1.691, 'yaw': -0.45, 'datetime': '2018-12-18 16:55:48.038423', 'mgs': 0, 'flw2': 0.2, 'flw1': 0.0, 'flw0': 0.0, 'time': 32.31, 'compass': -1.06, 'pitch': 0.6, 'roll': 2.43}
{'lipoC2': 0.16, 'temp': 0.0, 'lipoC3S3': 12.38, 'state': 'normal', 'rot1': 7, 'rot0': 7, 'rot3': 0, 'rot2': 0, 'depth': -0.903, 'yaw': -1.04, 'datetime': '2018-12-18 16:55:48.247496', 'mgs': 0, 'flw2': 0.0, 'flw1': 0.0, 'flw0': 0.2, 'time': 32.52, 'compass': -1.65, 'pitch': 0.77, 'roll': 2.38}
{'lipoC2': 0.14, 'temp': 0.0, 'lipoC3S3': 12.48, 'state': 'normal', 'rot1': 7, 'rot0': 7, 'rot3': 0, 'rot2': 0, 'depth': 1.614, 'yaw': -1.54, 'datetime': '2018-12-18 16:55:48.454493', 'mgs': 0, 'flw2': 0.02, 'flw1': 0.0, 'flw0': 0.15, 'time': 32.73, 'compass': -2.15, 'pitch': 0.77, 'roll': 2.32}
{'lipoC2': 0.0, 'temp': 0.0, 'lipoC3S3': 12.72, 'state': 'normal', 'rot1': 7, 'rot0': 7, 'rot3': 0, 'rot2': 0, 'depth': 1.767, 'yaw': -2.05, 'datetime': '2018-12-18 16:55:48.665476', 'mgs': 0, 'flw2': 0.0, 'flw1': 0.26, 'flw0': 0.18, 'time': 32.94, 'compass': -2.66, 'pitch': 0.5, 'roll': 2.37}
{'lipoC2': 0.04, 'temp': 0.0, 'lipoC3S3': 12.59, 'state': 'normal', 'rot1': 7, 'rot0': 7, 'rot3': 0, 'rot2': 0, 'depth': -1.437, 'yaw': -2.77, 'datetime': '2018-12-18 16:55:48.974128', 'mgs': 0, 'flw2': 0.0, 'flw1': 0.38, 'flw0': 0.0, 'time': 33.25, 'compass': -3.38, 'pitch': 0.13, 'roll': 2.53}
{'lipoC2': 0.1, 'temp': 0.0, 'lipoC3S3': 12.55, 'state': 'normal', 'rot1': 7, 'rot0': 7, 'rot3': 0, 'rot2': 0, 'depth': -2.2, 'yaw': -3.22, 'datetime': '2018-12-18 16:55:49.184111', 'mgs': 0, 'flw2': 0.01, 'flw1': 0.47, 'flw0': 0.0, 'time': 33.46, 'compass': -3.83, 'pitch': 0.36, 'roll': 2.56}
{'lipoC2': 0.04, 'temp': 0.0, 'lipoC3S3': 12.38, 'state': 'normal', 'rot1': 7, 'rot0': 7, 'rot3': 0, 'rot2': 0, 'depth': 1.233, 'yaw': -3.64, 'datetime': '2018-12-18 16:55:49.394361', 'mgs': 0, 'flw2': 0.0, 'flw1': 0.32, 'flw0': 0.13, 'time': 33.67, 'compass': -4.25, 'pitch': 0.62, 'roll': 2.54}
{'lipoC2': 0.12, 'temp': 0.0, 'lipoC3S3': 12.29, 'state': 'normal', 'rot1': 7, 'rot0': 7, 'rot3': 0, 'rot2': 0, 'depth': 0.47, 'yaw': -4.09, 'datetime': '2018-12-18 16:55:49.601929', 'mgs': 0, 'flw2': 0.0, 'flw1': 0.23, 'flw0': 0.2, 'time': 33.87, 'compass': -4.69, 'pitch': 0.38, 'roll': 2.4}
{'lipoC2': 0.0, 'temp': 0.0, 'lipoC3S3': 12.74, 'state': 'normal', 'rot1': 7, 'rot0': 7, 'rot3': 0, 'rot2': 0, 'depth': 1.614, 'yaw': -4.51, 'datetime': '2018-12-18 16:55:49.808366', 'mgs': 0, 'flw2': 0.0, 'flw1': 0.15, 'flw0': 0.22, 'time': 34.08, 'compass': -5.12, 'pitch': -0.14, 'roll': 2.4}
{'lipoC2': 0.06, 'temp': 0.0, 'lipoC3S3': 12.34, 'state': 'normal', 'rot1': 7, 'rot0': 7, 'rot3': 0, 'rot2': 0, 'depth': 0.241, 'yaw': -4.88, 'datetime': '2018-12-18 16:55:50.017073', 'mgs': 0, 'flw2': 0.18, 'flw1': 0.0, 'flw0': 0.0, 'time': 34.29, 'compass': -5.49, 'pitch': -0.28, 'roll': 2.3}
{'lipoC2': 0.16, 'temp': 0.0, 'lipoC3S3': 12.29, 'state': 'normal', 'rot1': 7, 'rot0': 7, 'rot3': 0, 'rot2': 0, 'depth': 0.928, 'yaw': -5.24, 'datetime': '2018-12-18 16:55:50.225180', 'mgs': 0, 'flw2': 0.0, 'flw1': 0.0, 'flw0': 0.22, 'time': 34.49, 'compass': -5.85, 'pitch': 0.04, 'roll': 2.28}
{'lipoC2': 0.0, 'temp': 0.0, 'lipoC3S3': 12.72, 'state': 'normal', 'rot1': 7, 'rot0': 7, 'rot3': 0, 'rot2': 0, 'depth': 1.691, 'yaw': -5.6, 'datetime': '2018-12-18 16:55:50.433496', 'mgs': 0, 'flw2': 0.0, 'flw1': 0.18, 'flw0': 0.18, 'time': 34.7, 'compass': -6.21, 'pitch': 0.42, 'roll': 2.33}
{'lipoC2': 0.12, 'temp': 0.0, 'lipoC3S3': 12.29, 'state': 'normal', 'rot1': 7, 'rot0': 7, 'rot3': 0, 'rot2': 0, 'depth': 0.47, 'yaw': -5.93, 'datetime': '2018-12-18 16:55:50.641376', 'mgs': 0, 'flw2': 0.15, 'flw1': 0.26, 'flw0': 0.0, 'time': 34.91, 'compass': -6.54, 'pitch': 0.43, 'roll': 2.36}
{'lipoC2': 0.05, 'temp': 0.0, 'lipoC3S3': 12.34, 'state': 'normal', 'rot1': 7, 'rot0': 7, 'rot3': 0, 'rot2': 0, 'depth': 0.241, 'yaw': -6.25, 'datetime': '2018-12-18 16:55:50.849962', 'mgs': 0, 'flw2': 0.0, 'flw1': 0.29, 'flw0': 0.15, 'time': 35.12, 'compass': -6.86, 'pitch': 0.23, 'roll': 2.31}
{'lipoC2': 0.0, 'temp': 0.0, 'lipoC3S3': 12.72, 'state': 'normal', 'rot1': 7, 'rot0': 7, 'rot3': 0, 'rot2': 0, 'depth': -1.895, 'yaw': -6.56, 'datetime': '2018-12-18 16:55:51.057451', 'mgs': 0, 'flw2': 0.0, 'flw1': 0.0, 'flw0': 0.21, 'time': 35.33, 'compass': -7.17, 'pitch': 0.09, 'roll': 2.29}
{'lipoC2': 0.13, 'temp': 0.0, 'lipoC3S3': 12.51, 'state': 'normal', 'rot1': 7, 'rot0': 7, 'rot3': 0, 'rot2': 0, 'depth': -2.048, 'yaw': -6.88, 'datetime': '2018-12-18 16:55:51.266865', 'mgs': 0, 'flw2': 0.0, 'flw1': 0.41, 'flw0': 0.0, 'time': 35.53, 'compass': -7.49, 'pitch': -0.0, 'roll': 2.26}
{'lipoC2': 0.03, 'temp': 0.0, 'lipoC3S3': 12.35, 'state': 'normal', 'rot1': 7, 'rot0': 7, 'rot3': 0, 'rot2': 0, 'depth': 1.385, 'yaw': -7.12, 'datetime': '2018-12-18 16:55:51.473846', 'mgs': 0, 'flw2': 0.2, 'flw1': 0.0, 'flw0': 0.0, 'time': 35.74, 'compass': -7.73, 'pitch': -0.01, 'roll': 2.26}
{'lipoC2': 0.13, 'temp': 0.0, 'lipoC3S3': 12.29, 'state': 'normal', 'rot1': 7, 'rot0': 7, 'rot3': 0, 'rot2': 0, 'depth': 0.775, 'yaw': -7.33, 'datetime': '2018-12-18 16:55:51.682531', 'mgs': 0, 'flw2': 0.12, 'flw1': 0.35, 'flw0': 0.0, 'time': 35.95, 'compass': -7.94, 'pitch': 0.15, 'roll': 2.38}
{'lipoC2': 0.0, 'temp': 0.0, 'lipoC3S3': 12.7, 'state': 'normal', 'rot1': 7, 'rot0': 7, 'rot3': 0, 'rot2': 0, 'depth': 1.614, 'yaw': -7.52, 'datetime': '2018-12-18 16:55:51.890777', 'mgs': 0, 'flw2': 0.17, 'flw1': 0.15, 'flw0': 0.0, 'time': 36.16, 'compass': -8.13, 'pitch': 0.37, 'roll': 2.52}
{'lipoC2': 0.04, 'temp': 0.0, 'lipoC3S3': 12.6, 'state': 'normal', 'rot1': 7, 'rot0': 7, 'rot3': 0, 'rot2': 0, 'depth': 1.538, 'yaw': -7.69, 'datetime': '2018-12-18 16:55:52.100078', 'mgs': 0, 'flw2': 0.22, 'flw1': 0.0, 'flw0': 0.0, 'time': 36.37, 'compass': -8.3, 'pitch': 0.41, 'roll': 2.6}
{'lipoC2': 0.0, 'temp': 0.0, 'lipoC3S3': 12.74, 'state': 'normal', 'rot1': 8, 'rot0': 7, 'rot3': 0, 'rot2': 0, 'depth': 1.614, 'yaw': -7.66, 'datetime': '2018-12-18 16:55:52.308037', 'mgs': 0, 'flw2': 0.55, 'flw1': 0.06, 'flw0': 0.07, 'time': 36.57, 'compass': -8.27, 'pitch': 0.23, 'roll': 2.74}
{'lipoC2': 0.0, 'temp': 0.0, 'lipoC3S3': 12.67, 'state': 'normal', 'rot1': 9, 'rot0': 8, 'rot3': 0, 'rot2': 0, 'depth': 1.538, 'yaw': -6.75, 'datetime': '2018-12-18 16:55:52.515928', 'mgs': 0, 'flw2': 0.17, 'flw1': 0.0, 'flw0': 0.0, 'time': 36.78, 'compass': -7.35, 'pitch': 0.17, 'roll': 2.93}
{'lipoC2': 0.01, 'temp': 0.0, 'lipoC3S3': 12.42, 'state': 'normal', 'rot1': 9, 'rot0': 8, 'rot3': 0, 'rot2': 0, 'depth': 1.462, 'yaw': -5.8, 'datetime': '2018-12-18 16:55:52.725420', 'mgs': 0, 'flw2': 0.0, 'flw1': 0.44, 'flw0': 0.07, 'time': 36.99, 'compass': -6.41, 'pitch': 0.43, 'roll': 2.83}
{'lipoC2': 0.0, 'temp': 0.0, 'lipoC3S3': 12.56, 'state': 'normal', 'rot1': 9, 'rot0': 8, 'rot3': 0, 'rot2': 0, 'depth': -1.361, 'yaw': -4.93, 'datetime': '2018-12-18 16:55:52.932182', 'mgs': 0, 'flw2': 0.12, 'flw1': 0.0, 'flw0': 0.07, 'time': 37.2, 'compass': -5.54, 'pitch': 0.82, 'roll': 2.53}
{'lipoC2': 0.0, 'temp': 0.0, 'lipoC3S3': 12.71, 'state': 'normal', 'rot1': 9, 'rot0': 8, 'rot3': 0, 'rot2': 0, 'depth': 1.614, 'yaw': -4.14, 'datetime': '2018-12-18 16:55:53.139772', 'mgs': 0, 'flw2': 0.2, 'flw1': 0.09, 'flw0': 0.0, 'time': 37.4, 'compass': -4.75, 'pitch': 0.86, 'roll': 2.34}
{'lipoC2': 0.0, 'temp': 0.0, 'lipoC3S3': 12.34, 'state': 'normal', 'rot1': 9, 'rot0': 8, 'rot3': 0, 'rot2': 0, 'depth': -0.827, 'yaw': -3.42, 'datetime': '2018-12-18 16:55:53.347459', 'mgs': 0, 'flw2': 0.0, 'flw1': 0.0, 'flw0': 0.21, 'time': 37.61, 'compass': -4.03, 'pitch': 0.56, 'roll': 2.25}
{'lipoC2': 0.17, 'temp': 0.0, 'lipoC3S3': 12.38, 'state': 'normal', 'rot1': 9, 'rot0': 8, 'rot3': 0, 'rot2': 0, 'depth': -0.598, 'yaw': -2.69, 'datetime': '2018-12-18 16:55:53.554275', 'mgs': 0, 'flw2': 0.12, 'flw1': 0.35, 'flw0': 0.0, 'time': 37.82, 'compass': -3.3, 'pitch': 0.32, 'roll': 2.31}
{'lipoC2': 0.0, 'temp': 0.0, 'lipoC3S3': 12.71, 'state': 'normal', 'rot1': 9, 'rot0': 8, 'rot3': 0, 'rot2': 0, 'depth': 1.691, 'yaw': -1.97, 'datetime': '2018-12-18 16:55:53.763195', 'mgs': 0, 'flw2': 0.2, 'flw1': 0.12, 'flw0': 0.0, 'time': 38.03, 'compass': -2.58, 'pitch': 0.35, 'roll': 2.55}
{'lipoC2': 0.0, 'temp': 0.0, 'lipoC3S3': 12.59, 'state': 'normal', 'rot1': 9, 'rot0': 8, 'rot3': 0, 'rot2': 0, 'depth': 1.08, 'yaw': -1.31, 'datetime': '2018-12-18 16:55:53.972144', 'mgs': 0, 'flw2': 0.21, 'flw1': 0.0, 'flw0': 0.0, 'time': 38.24, 'compass': -1.92, 'pitch': 0.39, 'roll': 2.74}
{'lipoC2': 0.0, 'temp': 0.0, 'lipoC3S3': 12.55, 'state': 'normal', 'rot1': 9, 'rot0': 8, 'rot3': 0, 'rot2': 0, 'depth': -0.903, 'yaw': -0.64, 'datetime': '2018-12-18 16:55:54.179545', 'mgs': 0, 'flw2': 0.0, 'flw1': 0.47, 'flw0': 0.0, 'time': 38.44, 'compass': -1.25, 'pitch': 0.45, 'roll': 2.87}
{'lipoC2': 0.14, 'temp': 0.0, 'lipoC3S3': 12.29, 'state': 'normal', 'rot1': 9, 'rot0': 8, 'rot3': 0, 'rot2': 0, 'depth': 0.623, 'yaw': 0.01, 'datetime': '2018-12-18 16:55:54.388773', 'mgs': 0, 'flw2': 0.17, 'flw1': 0.0, 'flw0': 0.0, 'time': 38.65, 'compass': -0.6, 'pitch': 0.5, 'roll': 2.79}
{'lipoC2': 0.02, 'temp': 0.0, 'lipoC3S3': 12.6, 'state': 'normal', 'rot1': 9, 'rot0': 8, 'rot3': 0, 'rot2': 0, 'depth': -1.437, 'yaw': 0.61, 'datetime': '2018-12-18 16:55:54.596705', 'mgs': 0, 'flw2': 0.22, 'flw1': 0.0, 'flw0': 0.0, 'time': 38.86, 'compass': -0.0, 'pitch': 0.54, 'roll': 2.65}
{'lipoC2': 0.02, 'temp': 0.0, 'lipoC3S3': 12.39, 'state': 'normal', 'rot1': 9, 'rot0': 8, 'rot3': 0, 'rot2': 0, 'depth': 1.385, 'yaw': 1.53, 'datetime': '2018-12-18 16:55:54.908110', 'mgs': 0, 'flw2': 0.0, 'flw1': 0.32, 'flw0': 0.13, 'time': 39.17, 'compass': 0.92, 'pitch': 0.57, 'roll': 2.45}
{'lipoC2': 0.1, 'temp': 0.0, 'lipoC3S3': 12.3, 'state': 'normal', 'rot1': 9, 'rot0': 8, 'rot3': 0, 'rot2': 0, 'depth': 0.394, 'yaw': 2.08, 'datetime': '2018-12-18 16:55:55.116909', 'mgs': 0, 'flw2': 0.22, 'flw1': 0.03, 'flw0': 0.0, 'time': 39.38, 'compass': 1.47, 'pitch': 0.59, 'roll': 2.45}
{'lipoC2': 0.0, 'temp': 0.0, 'lipoC3S3': 12.74, 'state': 'normal', 'rot1': 9, 'rot0': 8, 'rot3': 0, 'rot2': 0, 'depth': 1.691, 'yaw': 2.6, 'datetime': '2018-12-18 16:55:55.324772', 'mgs': 0, 'flw2': 0.0, 'flw1': 0.29, 'flw0': 0.17, 'time': 39.58, 'compass': 1.99, 'pitch': 0.62, 'roll': 2.52}
{'lipoC2': 0.13, 'temp': 0.0, 'lipoC3S3': 12.5, 'state': 'normal', 'rot1': 9, 'rot0': 8, 'rot3': 0, 'rot2': 0, 'depth': -2.124, 'yaw': 3.09, 'datetime': '2018-12-18 16:55:55.532312', 'mgs': 0, 'flw2': 0.0, 'flw1': 0.0, 'flw0': 0.18, 'time': 39.79, 'compass': 2.48, 'pitch': 0.65, 'roll': 2.6}
{'lipoC2': 0.03, 'temp': 0.0, 'lipoC3S3': 12.62, 'state': 'normal', 'rot1': 9, 'rot0': 8, 'rot3': 0, 'rot2': 0, 'depth': 1.309, 'yaw': 3.54, 'datetime': '2018-12-18 16:55:55.739176', 'mgs': 0, 'flw2': 0.21, 'flw1': 0.0, 'flw0': 0.0, 'time': 40.0, 'compass': 2.93, 'pitch': 0.68, 'roll': 2.62}
{'lipoC2': 0.0, 'temp': 0.0, 'lipoC3S3': 12.68, 'state': 'normal', 'rot1': 9, 'rot0': 8, 'rot3': 0, 'rot2': 0, 'depth': 1.767, 'yaw': 3.99, 'datetime': '2018-12-18 16:55:55.948025', 'mgs': 0, 'flw2': 0.21, 'flw1': 0.0, 'flw0': 0.0, 'time': 40.21, 'compass': 3.38, 'pitch': 0.5, 'roll': 2.55}
{'lipoC2': 0.0, 'temp': 0.0, 'lipoC3S3': 12.56, 'state': 'normal', 'rot1': 9, 'rot0': 8, 'rot3': 0, 'rot2': 0, 'depth': 1.004, 'yaw': 4.39, 'datetime': '2018-12-18 16:55:56.154771', 'mgs': 0, 'flw2': 0.05, 'flw1': 0.0, 'flw0': 0.13, 'time': 40.42, 'compass': 3.78, 'pitch': 0.29, 'roll': 2.53}
{'lipoC2': 0.05, 'temp': 0.0, 'lipoC3S3': 12.34, 'state': 'normal', 'rot1': 9, 'rot0': 8, 'rot3': 0, 'rot2': 0, 'depth': 0.241, 'yaw': 4.79, 'datetime': '2018-12-18 16:55:56.363279', 'mgs': 0, 'flw2': 0.18, 'flw1': 0.0, 'flw0': 0.0, 'time': 40.62, 'compass': 4.18, 'pitch': 0.33, 'roll': 2.53}
{'lipoC2': 0.16, 'temp': 0.0, 'lipoC3S3': 12.39, 'state': 'normal', 'rot1': 9, 'rot0': 8, 'rot3': 0, 'rot2': 0, 'depth': -0.98, 'yaw': 5.18, 'datetime': '2018-12-18 16:55:56.569961', 'mgs': 0, 'flw2': 0.0, 'flw1': 0.0, 'flw0': 0.18, 'time': 40.83, 'compass': 4.57, 'pitch': 0.49, 'roll': 2.49}
{'lipoC2': 0.0, 'temp': 0.0, 'lipoC3S3': 12.38, 'state': 'normal', 'rot1': 9, 'rot0': 8, 'rot3': 0, 'rot2': 0, 'depth': -0.293, 'yaw': 5.59, 'datetime': '2018-12-18 16:55:56.778162', 'mgs': 0, 'flw2': 0.0, 'flw1': 0.0, 'flw0': 0.2, 'time': 41.04, 'compass': 4.98, 'pitch': 0.54, 'roll': 2.46}
{'lipoC2': 0.0, 'temp': 0.0, 'lipoC3S3': 12.62, 'state': 'normal', 'rot1': 9, 'rot0': 9, 'rot3': 0, 'rot2': 0, 'depth': 1.157, 'yaw': 5.75, 'datetime': '2018-12-18 16:55:56.986300', 'mgs': 0, 'flw2': 0.18, 'flw1': 0.38, 'flw0': 0.45, 'time': 41.25, 'compass': 5.14, 'pitch': 0.52, 'roll': 2.43}
