{'lipoC3S3': 11.22, 'datetime': '2018-11-26 13:20:01.686912', 'pitch': 0.41, 'alt': 37.4, 'lng': 127.822431667, 'rot1': 0, 'rot0': 0, 'rot3': 0, 'rot2': 0, 'state': 'normal', 'flw2': 0.0, 'flw1': 0.0, 'flw0': 0.0, 'roll': -2.2, 'mgs': 0, 'compass': 66.39, 'lat': 26.377696667, 'lipoC2': 7.07, 'temp': 29.63, 'depth': 1.92, 'time': 1.36, 'yaw': -0.22}
{'lipoC3S3': 11.22, 'datetime': '2018-11-26 13:20:01.895198', 'pitch': 0.71, 'alt': 37.4, 'lng': 127.822431667, 'rot1': 0, 'rot0': 0, 'rot3': 0, 'rot2': 0, 'state': 'normal', 'flw2': 0.0, 'flw1': 0.0, 'flw0': 0.0, 'roll': -2.43, 'mgs': 0, 'compass': 65.97, 'lat': 26.377696667, 'lipoC2': 7.06, 'temp': 29.19, 'depth': 1.92, 'time': 1.57, 'yaw': -0.64}
{'lipoC3S3': 11.22, 'datetime': '2018-11-26 13:20:02.104317', 'pitch': 0.75, 'alt': 37.4, 'lng': 127.822431667, 'rot1': 0, 'rot0': 0, 'rot3': 0, 'rot2': 0, 'state': 'normal', 'flw2': 0.0, 'flw1': 0.0, 'flw0': 0.01, 'roll': -2.81, 'mgs': 0, 'compass': 65.51, 'lat': 26.377696667, 'lipoC2': 7.05, 'temp': 29.31, 'depth': 1.614, 'time': 1.78, 'yaw': -1.09}
{'lipoC3S3': 11.22, 'datetime': '2018-11-26 13:20:02.312591', 'pitch': 0.43, 'alt': 37.4, 'lng': 127.822431667, 'rot1': 0, 'rot0': 0, 'rot3': 0, 'rot2': 0, 'state': 'normal', 'flw2': 0.0, 'flw1': 0.0, 'flw0': 0.0, 'roll': -3.38, 'mgs': 0, 'compass': 65.09, 'lat': 26.377696667, 'lipoC2': 7.06, 'temp': 29.13, 'depth': 1.843, 'time': 1.99, 'yaw': -1.51}
{'lipoC3S3': 11.25, 'datetime': '2018-11-26 13:20:02.518171', 'pitch': -0.13, 'alt': 37.4, 'lng': 127.822431667, 'rot1': 0, 'rot0': 0, 'rot3': 0, 'rot2': 0, 'state': 'normal', 'flw2': 0.0, 'flw1': 0.0, 'flw0': 0.0, 'roll': -4.05, 'mgs': 0, 'compass': 64.7, 'lat': 26.377696667, 'lipoC2': 7.12, 'temp': 28.81, 'depth': 2.072, 'time': 2.19, 'yaw': -1.9}
{'lipoC3S3': 11.22, 'datetime': '2018-11-26 13:20:02.728020', 'pitch': -0.72, 'alt': 37.4, 'lng': 127.822431667, 'rot1': 0, 'rot0': 0, 'rot3': 0, 'rot2': 0, 'state': 'normal', 'flw2': 0.0, 'flw1': 0.0, 'flw0': 0.0, 'roll': -4.56, 'mgs': 0, 'compass': 64.34, 'lat': 26.377696667, 'lipoC2': 7.06, 'temp': 28.81, 'depth': 1.767, 'time': 2.4, 'yaw': -2.26}
{'lipoC3S3': 11.6, 'datetime': '2018-11-26 13:20:02.937848', 'pitch': -1.17, 'alt': 37.4, 'lng': 127.822431667, 'rot1': 0, 'rot0': 0, 'rot3': 0, 'rot2': 0, 'state': 'normal', 'flw2': 0.0, 'flw1': 0.0, 'flw0': 0.0, 'roll': -4.83, 'mgs': 0, 'compass': 64.02, 'lat': 26.377696667, 'lipoC2': 7.05, 'temp': 29.63, 'depth': 1.767, 'time': 2.61, 'yaw': -2.58}
{'lipoC3S3': 11.22, 'datetime': '2018-11-26 13:20:03.146414', 'pitch': -1.4, 'alt': 37.4, 'lng': 127.822431667, 'rot1': 0, 'rot0': 0, 'rot3': 0, 'rot2': 0, 'state': 'normal', 'flw2': 0.0, 'flw1': 0.0, 'flw0': 0.0, 'roll': -5.04, 'mgs': 0, 'compass': 63.73, 'lat': 26.377696667, 'lipoC2': 7.06, 'temp': 29.13, 'depth': 1.92, 'time': 2.82, 'yaw': -2.87}
{'lipoC3S3': 11.22, 'datetime': '2018-11-26 13:20:03.356818', 'pitch': -1.41, 'alt': 37.3, 'lng': 127.822431667, 'rot1': 0, 'rot0': 0, 'rot3': 0, 'rot2': 0, 'state': 'normal', 'flw2': 0.0, 'flw1': 0.0, 'flw0': 0.09, 'roll': -5.23, 'mgs': 0, 'compass': 63.43, 'lat': 26.377696667, 'lipoC2': 7.07, 'temp': 29.0, 'depth': 1.767, 'time': 3.03, 'yaw': -3.17}
{'lipoC3S3': 11.22, 'datetime': '2018-11-26 13:20:03.562129', 'pitch': -1.15, 'alt': 37.3, 'lng': 127.822431667, 'rot1': 0, 'rot0': 0, 'rot3': 0, 'rot2': 0, 'state': 'normal', 'flw2': 0.11, 'flw1': 0.0, 'flw0': 0.0, 'roll': -5.08, 'mgs': 0, 'compass': 63.13, 'lat': 26.377696667, 'lipoC2': 7.06, 'temp': 29.25, 'depth': 1.843, 'time': 3.24, 'yaw': -3.47}
{'lipoC3S3': 11.22, 'datetime': '2018-11-26 13:20:03.770343', 'pitch': -0.73, 'alt': 37.3, 'lng': 127.822431667, 'rot1': 0, 'rot0': 0, 'rot3': 0, 'rot2': 0, 'state': 'normal', 'flw2': 0.0, 'flw1': 0.0, 'flw0': 0.0, 'roll': -4.81, 'mgs': 0, 'compass': 62.8, 'lat': 26.377696667, 'lipoC2': 7.06, 'temp': 29.44, 'depth': 1.843, 'time': 3.45, 'yaw': -3.8}
{'lipoC3S3': 11.22, 'datetime': '2018-11-26 13:20:03.981817', 'pitch': -0.24, 'alt': 37.3, 'lng': 127.822431667, 'rot1': 0, 'rot0': 0, 'rot3': 0, 'rot2': 0, 'state': 'normal', 'flw2': 0.0, 'flw1': 0.0, 'flw0': 0.0, 'roll': -4.61, 'mgs': 0, 'compass': 62.44, 'lat': 26.377696667, 'lipoC2': 7.05, 'temp': 29.0, 'depth': 1.767, 'time': 3.66, 'yaw': -4.16}
{'lipoC3S3': 11.25, 'datetime': '2018-11-26 13:20:04.187596', 'pitch': 0.15, 'alt': 37.3, 'lng': 127.822431667, 'rot1': 0, 'rot0': 0, 'rot3': 0, 'rot2': 0, 'state': 'normal', 'flw2': 0.0, 'flw1': 0.0, 'flw0': 0.0, 'roll': -4.53, 'mgs': 0, 'compass': 62.07, 'lat': 26.377696667, 'lipoC2': 7.23, 'temp': 29.0, 'depth': 1.233, 'time': 3.87, 'yaw': -4.53}
{'lipoC3S3': 11.34, 'datetime': '2018-11-26 13:20:04.392137', 'pitch': 0.32, 'alt': 37.3, 'lng': 127.822431667, 'rot1': 0, 'rot0': 0, 'rot3': 0, 'rot2': 0, 'state': 'normal', 'flw2': 0.0, 'flw1': 0.0, 'flw0': 0.0, 'roll': -4.55, 'mgs': 0, 'compass': 61.74, 'lat': 26.377696667, 'lipoC2': 7.21, 'temp': 28.94, 'depth': 1.843, 'time': 4.07, 'yaw': -4.87}
{'lipoC3S3': 11.25, 'datetime': '2018-11-26 13:20:04.601601', 'pitch': 0.31, 'alt': 37.3, 'lng': 127.822431667, 'rot1': 1, 'rot0': 1, 'rot3': 0, 'rot2': 0, 'state': 'normal', 'flw2': 2.58, 'flw1': 0.0, 'flw0': 1.31, 'roll': -4.09, 'mgs': 0, 'compass': 61.5, 'lat': 26.377696667, 'lipoC2': 7.07, 'temp': 29.0, 'depth': 1.843, 'time': 4.28, 'yaw': -5.1}
{'lipoC3S3': 11.22, 'datetime': '2018-11-26 13:20:04.809426', 'pitch': 0.24, 'alt': 37.3, 'lng': 127.82243, 'rot1': 3, 'rot0': 3, 'rot3': 0, 'rot2': 0, 'state': 'normal', 'flw2': 2.61, 'flw1': 0.0, 'flw0': 1.22, 'roll': -2.07, 'mgs': 0, 'compass': 62.24, 'lat': 26.377695, 'lipoC2': 7.07, 'temp': 29.0, 'depth': 1.843, 'time': 4.49, 'yaw': -4.36}
{'lipoC3S3': 11.25, 'datetime': '2018-11-26 13:20:05.018748', 'pitch': 0.0, 'alt': 37.3, 'lng': 127.82243, 'rot1': 6, 'rot0': 4, 'rot3': 0, 'rot2': 0, 'state': 'normal', 'flw2': 2.62, 'flw1': 3.72, 'flw0': 1.17, 'roll': 0.67, 'mgs': 0, 'compass': 63.97, 'lat': 26.377695, 'lipoC2': 7.08, 'temp': 29.13, 'depth': 1.843, 'time': 4.7, 'yaw': -2.64}
{'lipoC3S3': 11.21, 'datetime': '2018-11-26 13:20:05.226895', 'pitch': -0.58, 'alt': 37.3, 'lng': 127.82243, 'rot1': 8, 'rot0': 6, 'rot3': 1, 'rot2': 1, 'state': 'normal', 'flw2': 2.56, 'flw1': 3.43, 'flw0': 1.35, 'roll': 3.53, 'mgs': 0, 'compass': 66.19, 'lat': 26.377695, 'lipoC2': 7.07, 'temp': 29.0, 'depth': 2.377, 'time': 4.91, 'yaw': -0.41}
{'lipoC3S3': 11.5, 'datetime': '2018-11-26 13:20:05.436122', 'pitch': -1.2, 'alt': 37.3, 'lng': 127.822428333, 'rot1': 10, 'rot0': 8, 'rot3': 1, 'rot2': 2, 'state': 'normal', 'flw2': 2.56, 'flw1': 3.81, 'flw0': 2.76, 'roll': 5.84, 'mgs': 0, 'compass': 68.6, 'lat': 26.377691667, 'lipoC2': 7.06, 'temp': 28.94, 'depth': 1.843, 'time': 5.12, 'yaw': 1.99}
{'lipoC3S3': 11.19, 'datetime': '2018-11-26 13:20:05.646053', 'pitch': -1.59, 'alt': 37.3, 'lng': 127.822428333, 'rot1': 13, 'rot0': 10, 'rot3': 2, 'rot2': 4, 'state': 'normal', 'flw2': 2.59, 'flw1': 5.07, 'flw0': 2.73, 'roll': 7.89, 'mgs': 0, 'compass': 70.36, 'lat': 26.377691667, 'lipoC2': 7.06, 'temp': 28.94, 'depth': 2.225, 'time': 5.33, 'yaw': 3.76}
{'lipoC3S3': 11.18, 'datetime': '2018-11-26 13:20:05.863380', 'pitch': -1.74, 'alt': 37.3, 'lng': 127.822428333, 'rot1': 14, 'rot0': 13, 'rot3': 3, 'rot2': 5, 'state': 'normal', 'flw2': 1.2, 'flw1': 5.01, 'flw0': 2.78, 'roll': 9.5, 'mgs': 0, 'compass': 71.05, 'lat': 26.377691667, 'lipoC2': 7.06, 'temp': 28.94, 'depth': 2.072, 'time': 5.54, 'yaw': 4.45}
{'lipoC3S3': 11.18, 'datetime': '2018-11-26 13:20:06.072041', 'pitch': -1.61, 'alt': 37.3, 'lng': 127.822428333, 'rot1': 16, 'rot0': 15, 'rot3': 4, 'rot2': 6, 'state': 'normal', 'flw2': 1.23, 'flw1': 3.31, 'flw0': 2.84, 'roll': 10.01, 'mgs': 0, 'compass': 70.29, 'lat': 26.377691667, 'lipoC2': 7.06, 'temp': 28.75, 'depth': 2.454, 'time': 5.74, 'yaw': 3.69}
{'lipoC3S3': 11.21, 'datetime': '2018-11-26 13:20:06.284322', 'pitch': -1.31, 'alt': 36.6, 'lng': 127.822421667, 'rot1': 18, 'rot0': 17, 'rot3': 5, 'rot2': 7, 'state': 'normal', 'flw2': 1.22, 'flw1': 0.0, 'flw0': 2.78, 'roll': 8.78, 'mgs': 0, 'compass': 68.63, 'lat': 26.377675, 'lipoC2': 7.06, 'temp': 28.94, 'depth': 1.309, 'time': 5.95, 'yaw': 2.02}
{'lipoC3S3': 11.21, 'datetime': '2018-11-26 13:20:06.489915', 'pitch': -1.01, 'alt': 36.6, 'lng': 127.822421667, 'rot1': 19, 'rot0': 19, 'rot3': 5, 'rot2': 7, 'state': 'normal', 'flw2': 1.27, 'flw1': 0.0, 'flw0': 2.59, 'roll': 5.74, 'mgs': 0, 'compass': 66.52, 'lat': 26.377675, 'lipoC2': 7.12, 'temp': 29.0, 'depth': 1.996, 'time': 6.16, 'yaw': -0.08}
{'lipoC3S3': 11.18, 'datetime': '2018-11-26 13:20:06.700208', 'pitch': -0.92, 'alt': 36.6, 'lng': 127.822421667, 'rot1': 21, 'rot0': 21, 'rot3': 5, 'rot2': 7, 'state': 'normal', 'flw2': 2.88, 'flw1': 3.49, 'flw0': 1.07, 'roll': 2.8, 'mgs': 0, 'compass': 63.74, 'lat': 26.377675, 'lipoC2': 7.06, 'temp': 28.94, 'depth': 1.462, 'time': 6.38, 'yaw': -2.86}
{'lipoC3S3': 11.56, 'datetime': '2018-11-26 13:20:06.910931', 'pitch': -1.04, 'alt': 36.6, 'lng': 127.822421667, 'rot1': 23, 'rot0': 23, 'rot3': 6, 'rot2': 8, 'state': 'normal', 'flw2': 2.76, 'flw1': 0.0, 'flw0': 1.15, 'roll': 2.12, 'mgs': 0, 'compass': 62.16, 'lat': 26.377675, 'lipoC2': 7.06, 'temp': 28.94, 'depth': 2.072, 'time': 6.59, 'yaw': -4.45}
{'lipoC3S3': 11.14, 'datetime': '2018-11-26 13:20:07.120099', 'pitch': -1.18, 'alt': 36.6, 'lng': 127.822421667, 'rot1': 25, 'rot0': 25, 'rot3': 6, 'rot2': 8, 'state': 'normal', 'flw2': 2.58, 'flw1': 0.0, 'flw0': 1.2, 'roll': 2.68, 'mgs': 0, 'compass': 62.38, 'lat': 26.377675, 'lipoC2': 7.23, 'temp': 29.0, 'depth': 0.47, 'time': 6.79, 'yaw': -4.22}
{'lipoC3S3': 11.13, 'datetime': '2018-11-26 13:20:07.327887', 'pitch': -1.43, 'alt': 36.5, 'lng': 127.822413333, 'rot1': 28, 'rot0': 26, 'rot3': 6, 'rot2': 8, 'state': 'normal', 'flw2': 2.54, 'flw1': 0.0, 'flw0': 1.21, 'roll': 2.98, 'mgs': 0, 'compass': 63.61, 'lat': 26.37767, 'lipoC2': 7.11, 'temp': 29.0, 'depth': 1.691, 'time': 7.0, 'yaw': -2.99}
{'lipoC3S3': 11.19, 'datetime': '2018-11-26 13:20:07.536181', 'pitch': -1.54, 'alt': 36.5, 'lng': 127.822413333, 'rot1': 30, 'rot0': 28, 'rot3': 6, 'rot2': 8, 'state': 'normal', 'flw2': 2.5, 'flw1': 0.0, 'flw0': 1.25, 'roll': 3.32, 'mgs': 0, 'compass': 65.46, 'lat': 26.37767, 'lipoC2': 7.06, 'temp': 28.94, 'depth': 1.157, 'time': 7.21, 'yaw': -1.15}
{'lipoC3S3': 11.19, 'datetime': '2018-11-26 13:20:07.746015', 'pitch': -1.63, 'alt': 36.5, 'lng': 127.822413333, 'rot1': 32, 'rot0': 30, 'rot3': 6, 'rot2': 8, 'state': 'normal', 'flw2': 2.53, 'flw1': 0.0, 'flw0': 1.26, 'roll': 4.1, 'mgs': 0, 'compass': 67.64, 'lat': 26.37767, 'lipoC2': 7.06, 'temp': 29.0, 'depth': 1.309, 'time': 7.42, 'yaw': 1.04}
{'lipoC3S3': 11.15, 'datetime': '2018-11-26 13:20:07.958310', 'pitch': -1.61, 'alt': 36.5, 'lng': 127.822413333, 'rot1': 34, 'rot0': 31, 'rot3': 6, 'rot2': 8, 'state': 'normal', 'flw2': 1.06, 'flw1': 0.0, 'flw0': 2.86, 'roll': 4.85, 'mgs': 0, 'compass': 70.06, 'lat': 26.37767, 'lipoC2': 7.06, 'temp': 28.94, 'depth': 1.309, 'time': 7.63, 'yaw': 3.46}
{'lipoC3S3': 11.21, 'datetime': '2018-11-26 13:20:08.166572', 'pitch': -1.39, 'alt': 36.5, 'lng': 127.822413333, 'rot1': 36, 'rot0': 34, 'rot3': 6, 'rot2': 8, 'state': 'normal', 'flw2': 1.17, 'flw1': 5.04, 'flw0': 2.7, 'roll': 5.22, 'mgs': 0, 'compass': 71.15, 'lat': 26.37767, 'lipoC2': 7.22, 'temp': 28.94, 'depth': 0.623, 'time': 7.84, 'yaw': 4.55}
{'lipoC3S3': 11.48, 'datetime': '2018-11-26 13:20:08.374755', 'pitch': -1.28, 'alt': 36.0, 'lng': 127.822411667, 'rot1': 38, 'rot0': 36, 'rot3': 7, 'rot2': 9, 'state': 'normal', 'flw2': 1.17, 'flw1': 4.01, 'flw0': 2.72, 'roll': 5.38, 'mgs': 0, 'compass': 70.51, 'lat': 26.37767, 'lipoC2': 7.06, 'temp': 28.94, 'depth': 1.843, 'time': 8.05, 'yaw': 3.91}
{'lipoC3S3': 11.17, 'datetime': '2018-11-26 13:20:08.584031', 'pitch': -1.32, 'alt': 36.0, 'lng': 127.822411667, 'rot1': 40, 'rot0': 38, 'rot3': 7, 'rot2': 10, 'state': 'normal', 'flw2': 1.2, 'flw1': 0.0, 'flw0': 2.77, 'roll': 5.61, 'mgs': 0, 'compass': 68.7, 'lat': 26.37767, 'lipoC2': 7.06, 'temp': 29.0, 'depth': 1.309, 'time': 8.26, 'yaw': 2.09}
{'lipoC3S3': 11.19, 'datetime': '2018-11-26 13:20:08.793946', 'pitch': -1.28, 'alt': 36.0, 'lng': 127.822411667, 'rot1': 41, 'rot0': 41, 'rot3': 7, 'rot2': 10, 'state': 'normal', 'flw2': 1.18, 'flw1': 0.0, 'flw0': 2.77, 'roll': 5.15, 'mgs': 0, 'compass': 66.34, 'lat': 26.37767, 'lipoC2': 7.06, 'temp': 29.0, 'depth': 1.385, 'time': 8.47, 'yaw': -0.26}
{'lipoC3S3': 11.11, 'datetime': '2018-11-26 13:20:09.006102', 'pitch': -1.31, 'alt': 36.0, 'lng': 127.822411667, 'rot1': 43, 'rot0': 43, 'rot3': 7, 'rot2': 10, 'state': 'normal', 'flw2': 2.59, 'flw1': 0.0, 'flw0': 2.73, 'roll': 4.44, 'mgs': 0, 'compass': 63.63, 'lat': 26.37767, 'lipoC2': 7.06, 'temp': 29.0, 'depth': 1.385, 'time': 8.68, 'yaw': -2.98}
{'lipoC3S3': 11.27, 'datetime': '2018-11-26 13:20:09.214802', 'pitch': -1.28, 'alt': 36.0, 'lng': 127.822411667, 'rot1': 46, 'rot0': 45, 'rot3': 7, 'rot2': 10, 'state': 'normal', 'flw2': 2.5, 'flw1': 0.0, 'flw0': 1.12, 'roll': 4.5, 'mgs': 0, 'compass': 61.59, 'lat': 26.37767, 'lipoC2': 7.07, 'temp': 29.0, 'depth': 1.385, 'time': 8.89, 'yaw': -5.01}
{'lipoC3S3': 11.25, 'datetime': '2018-11-26 13:20:09.424464', 'pitch': -1.2, 'alt': 36.0, 'lng': 127.822411667, 'rot1': 48, 'rot0': 47, 'rot3': 7, 'rot2': 10, 'state': 'normal', 'flw2': 2.66, 'flw1': 4.1, 'flw0': 1.16, 'roll': 4.15, 'mgs': 0, 'compass': 60.64, 'lat': 26.37767, 'lipoC2': 7.23, 'temp': 29.0, 'depth': 1.92, 'time': 9.1, 'yaw': -5.96}
{'lipoC3S3': 11.18, 'datetime': '2018-11-26 13:20:09.634779', 'pitch': -1.35, 'alt': 36.0, 'lng': 127.822411667, 'rot1': 51, 'rot0': 49, 'rot3': 8, 'rot2': 11, 'state': 'normal', 'flw2': 2.64, 'flw1': 3.54, 'flw0': 1.27, 'roll': 3.71, 'mgs': 0, 'compass': 60.66, 'lat': 26.37767, 'lipoC2': 7.06, 'temp': 28.94, 'depth': 1.92, 'time': 9.31, 'yaw': -5.94}
{'lipoC3S3': 11.1, 'datetime': '2018-11-26 13:20:09.843949', 'pitch': -1.64, 'alt': 35.6, 'lng': 127.822413333, 'rot1': 53, 'rot0': 50, 'rot3': 9, 'rot2': 12, 'state': 'normal', 'flw2': 2.5, 'flw1': 3.43, 'flw0': 1.17, 'roll': 3.67, 'mgs': 0, 'compass': 61.35, 'lat': 26.377671667, 'lipoC2': 7.07, 'temp': 29.0, 'depth': 1.385, 'time': 9.52, 'yaw': -5.25}
{'lipoC3S3': 11.22, 'datetime': '2018-11-26 13:20:10.053417', 'pitch': -1.73, 'alt': 35.6, 'lng': 127.822413333, 'rot1': 55, 'rot0': 52, 'rot3': 10, 'rot2': 13, 'state': 'normal', 'flw2': 2.67, 'flw1': 0.0, 'flw0': 1.25, 'roll': 3.81, 'mgs': 0, 'compass': 62.62, 'lat': 26.377671667, 'lipoC2': 7.23, 'temp': 28.94, 'depth': 1.538, 'time': 9.73, 'yaw': -3.98}
{'lipoC3S3': 11.19, 'datetime': '2018-11-26 13:20:10.260535', 'pitch': -1.55, 'alt': 35.6, 'lng': 127.822413333, 'rot1': 58, 'rot0': 53, 'rot3': 10, 'rot2': 13, 'state': 'normal', 'flw2': 2.67, 'flw1': 0.0, 'flw0': 1.2, 'roll': 3.67, 'mgs': 0, 'compass': 64.43, 'lat': 26.377671667, 'lipoC2': 7.07, 'temp': 29.0, 'depth': 2.225, 'time': 9.94, 'yaw': -2.17}
{'lipoC3S3': 11.19, 'datetime': '2018-11-26 13:20:12.616558', 'pitch': -1.09, 'alt': 34.8, 'lng': 127.822413333, 'rot1': 71, 'rot0': 68, 'rot3': 13, 'rot2': 17, 'state': 'normal', 'flw2': 2.77, 'flw1': 0.0, 'flw0': 2.77, 'roll': 4.51, 'mgs': 0, 'compass': 65.46, 'lat': 26.377673333, 'lipoC2': 7.06, 'temp': 29.0, 'depth': 1.385, 'time': 11.41, 'yaw': -1.15}
{'lipoC3S3': 11.27, 'datetime': '2018-11-26 13:20:12.882482', 'pitch': -0.77, 'alt': 34.1, 'lng': 127.822415, 'rot1': 84, 'rot0': 78, 'rot3': 14, 'rot2': 19, 'state': 'normal', 'flw2': 2.54, 'flw1': 0.0, 'flw0': 1.22, 'roll': 4.16, 'mgs': 0, 'compass': 65.61, 'lat': 26.377673333, 'lipoC2': 7.07, 'temp': 29.0, 'depth': 1.309, 'time': 12.57, 'yaw': -0.99}
{'lipoC3S3': 11.21, 'datetime': '2018-11-26 13:20:13.095122', 'pitch': -0.38, 'alt': 33.3, 'lng': 127.822413333, 'rot1': 86, 'rot0': 80, 'rot3': 14, 'rot2': 19, 'state': 'normal', 'flw2': 2.65, 'flw1': 0.21, 'flw0': 2.49, 'roll': 3.55, 'mgs': 0, 'compass': 67.64, 'lat': 26.377673333, 'lipoC2': 7.07, 'temp': 28.94, 'depth': 2.377, 'time': 12.78, 'yaw': 1.04}
{'lipoC3S3': 11.09, 'datetime': '2018-11-26 13:20:13.312245', 'pitch': -0.06, 'alt': 32.7, 'lng': 127.822413333, 'rot1': 88, 'rot0': 82, 'rot3': 15, 'rot2': 19, 'state': 'normal', 'flw2': 1.09, 'flw1': 3.87, 'flw0': 2.66, 'roll': 3.64, 'mgs': 0, 'compass': 68.79, 'lat': 26.377675, 'lipoC2': 7.09, 'temp': 28.88, 'depth': 1.996, 'time': 12.99, 'yaw': 2.19}
{'lipoC3S3': 11.18, 'datetime': '2018-11-26 13:20:13.516115', 'pitch': 0.06, 'alt': 32.7, 'lng': 127.822413333, 'rot1': 90, 'rot0': 84, 'rot3': 16, 'rot2': 20, 'state': 'normal', 'flw2': 1.18, 'flw1': 0.0, 'flw0': 2.77, 'roll': 4.01, 'mgs': 0, 'compass': 68.74, 'lat': 26.377675, 'lipoC2': 7.06, 'temp': 29.0, 'depth': 1.385, 'time': 13.2, 'yaw': 2.13}
{'lipoC3S3': 11.14, 'datetime': '2018-11-26 13:20:13.726804', 'pitch': 0.19, 'alt': 32.7, 'lng': 127.822413333, 'rot1': 92, 'rot0': 86, 'rot3': 16, 'rot2': 20, 'state': 'normal', 'flw2': 1.18, 'flw1': 0.0, 'flw0': 2.73, 'roll': 3.81, 'mgs': 0, 'compass': 67.67, 'lat': 26.377675, 'lipoC2': 7.06, 'temp': 28.94, 'depth': 1.385, 'time': 13.41, 'yaw': 1.07}
{'lipoC3S3': 11.02, 'datetime': '2018-11-26 13:20:13.936424', 'pitch': 0.03, 'alt': 32.7, 'lng': 127.822413333, 'rot1': 93, 'rot0': 89, 'rot3': 16, 'rot2': 20, 'state': 'normal', 'flw2': 2.82, 'flw1': 0.0, 'flw0': 2.67, 'roll': 3.3, 'mgs': 0, 'compass': 65.91, 'lat': 26.377675, 'lipoC2': 7.06, 'temp': 29.0, 'depth': 1.538, 'time': 13.63, 'yaw': -0.69}
{'lipoC3S3': 11.18, 'datetime': '2018-11-26 13:20:14.147210', 'pitch': -0.32, 'alt': 32.7, 'lng': 127.822413333, 'rot1': 96, 'rot0': 91, 'rot3': 16, 'rot2': 20, 'state': 'normal', 'flw2': 2.7, 'flw1': 0.0, 'flw0': 2.88, 'roll': 3.43, 'mgs': 0, 'compass': 64.23, 'lat': 26.377675, 'lipoC2': 7.06, 'temp': 29.06, 'depth': 1.538, 'time': 13.84, 'yaw': -2.37}
{'lipoC3S3': 11.13, 'datetime': '2018-11-26 13:20:14.357334', 'pitch': -0.65, 'alt': 32.7, 'lng': 127.822413333, 'rot1': 98, 'rot0': 93, 'rot3': 16, 'rot2': 20, 'state': 'normal', 'flw2': 2.42, 'flw1': 0.0, 'flw0': 1.21, 'roll': 3.6, 'mgs': 0, 'compass': 63.39, 'lat': 26.377675, 'lipoC2': 7.05, 'temp': 29.06, 'depth': 1.538, 'time': 14.05, 'yaw': -3.21}
{'lipoC3S3': 11.46, 'datetime': '2018-11-26 13:20:14.567752', 'pitch': -0.96, 'alt': 32.7, 'lng': 127.822413333, 'rot1': 100, 'rot0': 95, 'rot3': 16, 'rot2': 20, 'state': 'normal', 'flw2': 2.6, 'flw1': 0.0, 'flw0': 1.26, 'roll': 3.0, 'mgs': 0, 'compass': 64.12, 'lat': 26.377675, 'lipoC2': 7.06, 'temp': 29.0, 'depth': 1.538, 'time': 14.26, 'yaw': -2.48}
{'lipoC3S3': 11.15, 'datetime': '2018-11-26 13:20:14.783226', 'pitch': -1.13, 'alt': 32.1, 'lng': 127.822411667, 'rot1': 103, 'rot0': 96, 'rot3': 16, 'rot2': 20, 'state': 'normal', 'flw2': 2.61, 'flw1': 0.0, 'flw0': 1.28, 'roll': 2.34, 'mgs': 0, 'compass': 65.89, 'lat': 26.377676667, 'lipoC2': 7.06, 'temp': 29.0, 'depth': 1.538, 'time': 14.47, 'yaw': -0.71}
{'lipoC3S3': 11.29, 'datetime': '2018-11-26 13:20:14.995012', 'pitch': -1.19, 'alt': 32.1, 'lng': 127.822411667, 'rot1': 105, 'rot0': 98, 'rot3': 16, 'rot2': 20, 'state': 'normal', 'flw2': 2.72, 'flw1': 0.0, 'flw0': 2.71, 'roll': 2.24, 'mgs': 0, 'compass': 67.98, 'lat': 26.377676667, 'lipoC2': 7.24, 'temp': 29.0, 'depth': 2.835, 'time': 14.68, 'yaw': 1.38}
{'lipoC3S3': 11.09, 'datetime': '2018-11-26 13:20:15.202977', 'pitch': -1.17, 'alt': 32.1, 'lng': 127.822411667, 'rot1': 107, 'rot0': 101, 'rot3': 16, 'rot2': 21, 'state': 'normal', 'flw2': 1.01, 'flw1': 4.42, 'flw0': 2.62, 'roll': 2.82, 'mgs': 0, 'compass': 69.47, 'lat': 26.377676667, 'lipoC2': 7.06, 'temp': 29.0, 'depth': 1.614, 'time': 14.89, 'yaw': 2.86}
{'lipoC3S3': 11.17, 'datetime': '2018-11-26 13:20:15.411557', 'pitch': -1.25, 'alt': 31.6, 'lng': 127.82241, 'rot1': 109, 'rot0': 103, 'rot3': 17, 'rot2': 22, 'state': 'normal', 'flw2': 1.18, 'flw1': 3.75, 'flw0': 2.64, 'roll': 3.33, 'mgs': 0, 'compass': 69.55, 'lat': 26.377678333, 'lipoC2': 7.06, 'temp': 29.0, 'depth': 2.682, 'time': 15.1, 'yaw': 2.95}
{'lipoC3S3': 11.19, 'datetime': '2018-11-26 13:20:15.623611', 'pitch': -1.16, 'alt': 31.6, 'lng': 127.82241, 'rot1': 111, 'rot0': 105, 'rot3': 18, 'rot2': 23, 'state': 'normal', 'flw2': 1.15, 'flw1': 3.93, 'flw0': 2.82, 'roll': 4.1, 'mgs': 0, 'compass': 68.48, 'lat': 26.377678333, 'lipoC2': 7.23, 'temp': 28.94, 'depth': 2.148, 'time': 15.31, 'yaw': 1.88}
{'lipoC3S3': 11.17, 'datetime': '2018-11-26 13:20:15.832120', 'pitch': -1.03, 'alt': 31.6, 'lng': 127.82241, 'rot1': 112, 'rot0': 108, 'rot3': 19, 'rot2': 24, 'state': 'normal', 'flw2': 2.7, 'flw1': 3.43, 'flw0': 2.73, 'roll': 5.2, 'mgs': 0, 'compass': 66.51, 'lat': 26.377678333, 'lipoC2': 7.06, 'temp': 29.06, 'depth': 1.614, 'time': 15.52, 'yaw': -0.1}
{'lipoC3S3': 11.39, 'datetime': '2018-11-26 13:20:16.044357', 'pitch': -1.07, 'alt': 31.6, 'lng': 127.82241, 'rot1': 115, 'rot0': 110, 'rot3': 19, 'rot2': 25, 'state': 'normal', 'flw2': 2.59, 'flw1': 0.0, 'flw0': 2.69, 'roll': 6.57, 'mgs': 0, 'compass': 64.84, 'lat': 26.377678333, 'lipoC2': 7.08, 'temp': 29.06, 'depth': 1.614, 'time': 15.73, 'yaw': -1.76}
{'lipoC3S3': 11.39, 'datetime': '2018-11-26 13:20:16.256500', 'pitch': -1.3, 'alt': 31.6, 'lng': 127.82241, 'rot1': 117, 'rot0': 112, 'rot3': 19, 'rot2': 25, 'state': 'normal', 'flw2': 2.51, 'flw1': 0.0, 'flw0': 1.21, 'roll': 7.25, 'mgs': 0, 'compass': 63.96, 'lat': 26.377678333, 'lipoC2': 7.08, 'temp': 29.25, 'depth': 1.614, 'time': 15.94, 'yaw': -2.64}
{'lipoC3S3': 11.19, 'datetime': '2018-11-26 13:20:16.466754', 'pitch': -1.43, 'alt': 31.5, 'lng': 127.822406667, 'rot1': 119, 'rot0': 113, 'rot3': 19, 'rot2': 25, 'state': 'normal', 'flw2': 2.64, 'flw1': 0.0, 'flw0': 1.25, 'roll': 6.87, 'mgs': 0, 'compass': 64.57, 'lat': 26.37768, 'lipoC2': 7.06, 'temp': 29.06, 'depth': 1.462, 'time': 16.15, 'yaw': -2.03}
{'lipoC3S3': 11.18, 'datetime': '2018-11-26 13:20:16.672264', 'pitch': -1.59, 'alt': 31.5, 'lng': 127.822406667, 'rot1': 121, 'rot0': 115, 'rot3': 19, 'rot2': 25, 'state': 'normal', 'flw2': 2.66, 'flw1': 0.0, 'flw0': 1.29, 'roll': 6.08, 'mgs': 0, 'compass': 66.28, 'lat': 26.37768, 'lipoC2': 7.22, 'temp': 29.13, 'depth': 0.928, 'time': 16.36, 'yaw': -0.33}
{'lipoC3S3': 11.15, 'datetime': '2018-11-26 13:20:16.883187', 'pitch': -1.55, 'alt': 31.5, 'lng': 127.822406667, 'rot1': 124, 'rot0': 117, 'rot3': 19, 'rot2': 25, 'state': 'normal', 'flw2': 2.66, 'flw1': 0.0, 'flw0': 2.87, 'roll': 5.15, 'mgs': 0, 'compass': 68.27, 'lat': 26.37768, 'lipoC2': 7.06, 'temp': 29.0, 'depth': 1.385, 'time': 16.57, 'yaw': 1.67}
{'lipoC3S3': 11.17, 'datetime': '2018-11-26 13:20:17.094549', 'pitch': -1.34, 'alt': 31.5, 'lng': 127.822406667, 'rot1': 126, 'rot0': 119, 'rot3': 19, 'rot2': 25, 'state': 'normal', 'flw2': 1.07, 'flw1': 0.0, 'flw0': 2.83, 'roll': 4.73, 'mgs': 0, 'compass': 69.24, 'lat': 26.37768, 'lipoC2': 7.29, 'temp': 29.19, 'depth': 1.309, 'time': 16.78, 'yaw': 2.64}
{'lipoC3S3': 11.18, 'datetime': '2018-11-26 13:20:17.308074', 'pitch': -1.04, 'alt': 31.2, 'lng': 127.822405, 'rot1': 128, 'rot0': 121, 'rot3': 19, 'rot2': 25, 'state': 'normal', 'flw2': 1.26, 'flw1': 0.09, 'flw0': 2.83, 'roll': 3.88, 'mgs': 0, 'compass': 68.84, 'lat': 26.377681667, 'lipoC2': 7.05, 'temp': 29.0, 'depth': 1.385, 'time': 17.0, 'yaw': 2.24}
{'lipoC3S3': 11.17, 'datetime': '2018-11-26 13:20:17.514975', 'pitch': -0.82, 'alt': 31.2, 'lng': 127.822405, 'rot1': 129, 'rot0': 124, 'rot3': 19, 'rot2': 25, 'state': 'normal', 'flw2': 1.25, 'flw1': 0.0, 'flw0': 2.72, 'roll': 2.73, 'mgs': 0, 'compass': 67.27, 'lat': 26.377681667, 'lipoC2': 7.06, 'temp': 28.94, 'depth': 1.767, 'time': 17.21, 'yaw': 0.67}
{'lipoC3S3': 11.19, 'datetime': '2018-11-26 13:20:17.726590', 'pitch': -0.74, 'alt': 31.2, 'lng': 127.822405, 'rot1': 131, 'rot0': 126, 'rot3': 19, 'rot2': 25, 'state': 'normal', 'flw2': 2.87, 'flw1': 0.0, 'flw0': 2.6, 'roll': 1.96, 'mgs': 0, 'compass': 64.96, 'lat': 26.377681667, 'lipoC2': 7.05, 'temp': 28.94, 'depth': 1.996, 'time': 17.42, 'yaw': -1.65}
{'lipoC3S3': 11.32, 'datetime': '2018-11-26 13:20:17.935510', 'pitch': -0.77, 'alt': 31.2, 'lng': 127.822405, 'rot1': 133, 'rot0': 129, 'rot3': 20, 'rot2': 25, 'state': 'normal', 'flw2': 2.66, 'flw1': 4.39, 'flw0': 2.56, 'roll': 1.87, 'mgs': 0, 'compass': 62.92, 'lat': 26.377681667, 'lipoC2': 7.07, 'temp': 29.0, 'depth': 2.911, 'time': 17.63, 'yaw': -3.68}
{'lipoC3S3': 11.17, 'datetime': '2018-11-26 13:20:18.146272', 'pitch': -1.02, 'alt': 31.2, 'lng': 127.822405, 'rot1': 136, 'rot0': 131, 'rot3': 20, 'rot2': 26, 'state': 'normal', 'flw2': 2.66, 'flw1': 3.52, 'flw0': 1.33, 'roll': 2.08, 'mgs': 0, 'compass': 61.68, 'lat': 26.377681667, 'lipoC2': 7.05, 'temp': 29.0, 'depth': 1.996, 'time': 17.84, 'yaw': -4.92}
{'lipoC3S3': 11.09, 'datetime': '2018-11-26 13:20:18.358181', 'pitch': -1.21, 'alt': 31.0, 'lng': 127.822401667, 'rot1': 138, 'rot0': 132, 'rot3': 21, 'rot2': 27, 'state': 'normal', 'flw2': 2.55, 'flw1': 3.57, 'flw0': 1.18, 'roll': 2.37, 'mgs': 0, 'compass': 61.65, 'lat': 26.377683333, 'lipoC2': 7.05, 'temp': 29.06, 'depth': 1.462, 'time': 18.05, 'yaw': -4.95}
{'lipoC3S3': 11.22, 'datetime': '2018-11-26 13:20:18.569632', 'pitch': -1.28, 'alt': 31.0, 'lng': 127.822401667, 'rot1': 140, 'rot0': 134, 'rot3': 22, 'rot2': 28, 'state': 'normal', 'flw2': 2.7, 'flw1': 0.0, 'flw0': 1.18, 'roll': 3.04, 'mgs': 0, 'compass': 62.47, 'lat': 26.377683333, 'lipoC2': 7.1, 'temp': 29.0, 'depth': 2.53, 'time': 18.26, 'yaw': -4.13}
{'lipoC3S3': 11.17, 'datetime': '2018-11-26 13:20:18.782811', 'pitch': -1.24, 'alt': 31.0, 'lng': 127.822401667, 'rot1': 142, 'rot0': 135, 'rot3': 22, 'rot2': 28, 'state': 'normal', 'flw2': 2.64, 'flw1': 0.21, 'flw0': 1.17, 'roll': 3.53, 'mgs': 0, 'compass': 63.87, 'lat': 26.377683333, 'lipoC2': 7.05, 'temp': 29.0, 'depth': 1.462, 'time': 18.47, 'yaw': -2.74}
{'lipoC3S3': 11.26, 'datetime': '2018-11-26 13:20:18.990506', 'pitch': -0.94, 'alt': 31.0, 'lng': 127.822401667, 'rot1': 145, 'rot0': 137, 'rot3': 22, 'rot2': 28, 'state': 'normal', 'flw2': 2.56, 'flw1': 0.0, 'flw0': 1.23, 'roll': 3.4, 'mgs': 0, 'compass': 65.85, 'lat': 26.377683333, 'lipoC2': 7.05, 'temp': 29.0, 'depth': 1.462, 'time': 18.68, 'yaw': -0.76}
{'lipoC3S3': 11.13, 'datetime': '2018-11-26 13:20:19.199845', 'pitch': -0.49, 'alt': 31.0, 'lng': 127.822401667, 'rot1': 147, 'rot0': 139, 'rot3': 22, 'rot2': 28, 'state': 'normal', 'flw2': 2.51, 'flw1': 0.0, 'flw0': 1.21, 'roll': 3.05, 'mgs': 0, 'compass': 68.47, 'lat': 26.377683333, 'lipoC2': 7.26, 'temp': 29.0, 'depth': 1.538, 'time': 18.89, 'yaw': 1.87}
{'lipoC3S3': 11.19, 'datetime': '2018-11-26 13:20:19.411337', 'pitch': 0.0, 'alt': 31.0, 'lng': 127.822401667, 'rot1': 149, 'rot0': 141, 'rot3': 22, 'rot2': 28, 'state': 'normal', 'flw2': 1.23, 'flw1': 0.0, 'flw0': 2.86, 'roll': 2.73, 'mgs': 0, 'compass': 71.09, 'lat': 26.377683333, 'lipoC2': 7.1, 'temp': 29.0, 'depth': 2.072, 'time': 19.1, 'yaw': 4.49}
{'lipoC3S3': 11.18, 'datetime': '2018-11-26 13:20:19.622019', 'pitch': 0.35, 'alt': 31.0, 'lng': 127.822401667, 'rot1': 150, 'rot0': 143, 'rot3': 22, 'rot2': 29, 'state': 'normal', 'flw2': 1.17, 'flw1': 3.49, 'flw0': 2.81, 'roll': 2.51, 'mgs': 0, 'compass': 71.72, 'lat': 26.377683333, 'lipoC2': 7.06, 'temp': 29.06, 'depth': 1.538, 'time': 19.32, 'yaw': 5.12}
{'lipoC3S3': 11.17, 'datetime': '2018-11-26 13:20:19.832254', 'pitch': 0.22, 'alt': 30.8, 'lng': 127.822398333, 'rot1': 152, 'rot0': 146, 'rot3': 23, 'rot2': 30, 'state': 'normal', 'flw2': 1.16, 'flw1': 3.4, 'flw0': 2.72, 'roll': 2.81, 'mgs': 0, 'compass': 70.82, 'lat': 26.377685, 'lipoC2': 7.06, 'temp': 28.94, 'depth': 1.614, 'time': 19.52, 'yaw': 4.22}
{'lipoC3S3': 11.07, 'datetime': '2018-11-26 13:20:20.042061', 'pitch': -0.25, 'alt': 30.8, 'lng': 127.822398333, 'rot1': 154, 'rot0': 148, 'rot3': 24, 'rot2': 31, 'state': 'normal', 'flw2': 1.16, 'flw1': 3.22, 'flw0': 2.65, 'roll': 3.74, 'mgs': 0, 'compass': 68.91, 'lat': 26.377685, 'lipoC2': 7.22, 'temp': 29.06, 'depth': 0.928, 'time': 19.74, 'yaw': 2.31}
{'lipoC3S3': 11.13, 'datetime': '2018-11-26 13:20:20.256726', 'pitch': -0.83, 'alt': 30.8, 'lng': 127.822398333, 'rot1': 155, 'rot0': 150, 'rot3': 24, 'rot2': 31, 'state': 'normal', 'flw2': 1.26, 'flw1': 0.0, 'flw0': 2.75, 'roll': 4.72, 'mgs': 0, 'compass': 66.29, 'lat': 26.377685, 'lipoC2': 7.06, 'temp': 29.0, 'depth': 1.538, 'time': 19.95, 'yaw': -0.31}
{'lipoC3S3': 11.1, 'datetime': '2018-11-26 13:20:20.465105', 'pitch': -1.57, 'alt': 30.7, 'lng': 127.822396667, 'rot1': 157, 'rot0': 152, 'rot3': 24, 'rot2': 31, 'state': 'normal', 'flw2': 1.18, 'flw1': 0.0, 'flw0': 2.67, 'roll': 4.79, 'mgs': 0, 'compass': 62.98, 'lat': 26.377686667, 'lipoC2': 7.06, 'temp': 29.0, 'depth': 1.614, 'time': 20.16, 'yaw': -3.62}
{'lipoC3S3': 11.52, 'datetime': '2018-11-26 13:20:20.676433', 'pitch': -2.04, 'alt': 30.7, 'lng': 127.822396667, 'rot1': 159, 'rot0': 154, 'rot3': 24, 'rot2': 31, 'state': 'normal', 'flw2': 2.75, 'flw1': 0.0, 'flw0': 1.26, 'roll': 4.44, 'mgs': 0, 'compass': 59.93, 'lat': 26.377686667, 'lipoC2': 7.06, 'temp': 29.0, 'depth': 2.454, 'time': 20.37, 'yaw': -6.67}
{'lipoC3S3': 11.3, 'datetime': '2018-11-26 13:20:20.883951', 'pitch': -2.19, 'alt': 30.7, 'lng': 127.822396667, 'rot1': 161, 'rot0': 156, 'rot3': 24, 'rot2': 32, 'state': 'normal', 'flw2': 2.64, 'flw1': 4.01, 'flw0': 1.25, 'roll': 3.9, 'mgs': 0, 'compass': 58.53, 'lat': 26.377686667, 'lipoC2': 7.07, 'temp': 29.0, 'depth': 2.072, 'time': 20.58, 'yaw': -8.08}
{'lipoC3S3': 11.19, 'datetime': '2018-11-26 13:20:21.096290', 'pitch': -2.22, 'alt': 30.7, 'lng': 127.822396667, 'rot1': 163, 'rot0': 157, 'rot3': 25, 'rot2': 33, 'state': 'normal', 'flw2': 2.67, 'flw1': 0.0, 'flw0': 1.27, 'roll': 3.73, 'mgs': 0, 'compass': 58.06, 'lat': 26.377686667, 'lipoC2': 7.06, 'temp': 28.81, 'depth': 1.843, 'time': 20.79, 'yaw': -8.54}
{'lipoC3S3': 11.13, 'datetime': '2018-11-26 13:20:21.307132', 'pitch': -1.75, 'alt': 30.7, 'lng': 127.822393333, 'rot1': 166, 'rot0': 159, 'rot3': 25, 'rot2': 33, 'state': 'normal', 'flw2': 2.54, 'flw1': 0.0, 'flw0': 1.22, 'roll': 3.73, 'mgs': 0, 'compass': 58.29, 'lat': 26.377688333, 'lipoC2': 7.06, 'temp': 29.06, 'depth': 1.614, 'time': 21.0, 'yaw': -8.31}
{'lipoC3S3': 11.21, 'datetime': '2018-11-26 13:20:21.516254', 'pitch': -1.23, 'alt': 30.7, 'lng': 127.822393333, 'rot1': 168, 'rot0': 161, 'rot3': 25, 'rot2': 33, 'state': 'normal', 'flw2': 2.67, 'flw1': 0.0, 'flw0': 1.23, 'roll': 3.61, 'mgs': 0, 'compass': 59.06, 'lat': 26.377688333, 'lipoC2': 7.07, 'temp': 29.06, 'depth': 2.454, 'time': 21.21, 'yaw': -7.54}
{'lipoC3S3': 11.17, 'datetime': '2018-11-26 13:20:21.726212', 'pitch': -0.77, 'alt': 30.7, 'lng': 127.822393333, 'rot1': 170, 'rot0': 162, 'rot3': 25, 'rot2': 33, 'state': 'normal', 'flw2': 2.69, 'flw1': 5.07, 'flw0': 1.22, 'roll': 3.44, 'mgs': 0, 'compass': 60.16, 'lat': 26.377688333, 'lipoC2': 7.08, 'temp': 28.94, 'depth': 2.225, 'time': 21.42, 'yaw': -6.44}
{'lipoC3S3': 11.18, 'datetime': '2018-11-26 13:20:21.935953', 'pitch': -0.49, 'alt': 30.7, 'lng': 127.822393333, 'rot1': 173, 'rot0': 164, 'rot3': 26, 'rot2': 34, 'state': 'normal', 'flw2': 2.56, 'flw1': 4.25, 'flw0': 1.32, 'roll': 3.38, 'mgs': 0, 'compass': 61.36, 'lat': 26.377688333, 'lipoC2': 7.06, 'temp': 29.0, 'depth': 2.072, 'time': 21.63, 'yaw': -5.24}
{'lipoC3S3': 11.07, 'datetime': '2018-11-26 13:20:22.152884', 'pitch': -0.29, 'alt': 30.7, 'lng': 127.822393333, 'rot1': 175, 'rot0': 165, 'rot3': 27, 'rot2': 35, 'state': 'normal', 'flw2': 2.58, 'flw1': 3.16, 'flw0': 1.25, 'roll': 3.56, 'mgs': 0, 'compass': 62.4, 'lat': 26.377688333, 'lipoC2': 7.06, 'temp': 29.0, 'depth': 1.462, 'time': 21.84, 'yaw': -4.2}
{'lipoC3S3': 11.19, 'datetime': '2018-11-26 13:20:22.363573', 'pitch': -0.34, 'alt': 30.7, 'lng': 127.822391667, 'rot1': 177, 'rot0': 167, 'rot3': 28, 'rot2': 36, 'state': 'normal', 'flw2': 2.6, 'flw1': 0.0, 'flw0': 1.22, 'roll': 3.91, 'mgs': 0, 'compass': 63.58, 'lat': 26.37769, 'lipoC2': 7.23, 'temp': 29.0, 'depth': 1.538, 'time': 22.06, 'yaw': -3.02}
{'lipoC3S3': 11.42, 'datetime': '2018-11-26 13:20:22.573731', 'pitch': -0.41, 'alt': 30.7, 'lng': 127.822391667, 'rot1': 179, 'rot0': 169, 'rot3': 28, 'rot2': 36, 'state': 'normal', 'flw2': 2.49, 'flw1': 0.0, 'flw0': 1.23, 'roll': 4.18, 'mgs': 0, 'compass': 64.98, 'lat': 26.37769, 'lipoC2': 7.06, 'temp': 29.0, 'depth': 1.462, 'time': 22.27, 'yaw': -1.62}
{'lipoC3S3': 11.15, 'datetime': '2018-11-26 13:20:22.796973', 'pitch': -0.17, 'alt': 30.7, 'lng': 127.822391667, 'rot1': 182, 'rot0': 170, 'rot3': 28, 'rot2': 36, 'state': 'normal', 'flw2': 2.64, 'flw1': 0.0, 'flw0': 2.83, 'roll': 4.04, 'mgs': 0, 'compass': 66.63, 'lat': 26.37769, 'lipoC2': 7.07, 'temp': 28.94, 'depth': 1.614, 'time': 22.48, 'yaw': 0.03}
{'lipoC3S3': 11.21, 'datetime': '2018-11-26 13:20:23.093861', 'pitch': 0.46, 'alt': 30.7, 'lng': 127.822391667, 'rot1': 185, 'rot0': 174, 'rot3': 28, 'rot2': 36, 'state': 'normal', 'flw2': 1.16, 'flw1': 0.0, 'flw0': 2.78, 'roll': 3.99, 'mgs': 0, 'compass': 67.79, 'lat': 26.37769, 'lipoC2': 7.07, 'temp': 29.06, 'depth': 1.309, 'time': 22.79, 'yaw': 1.19}
{'lipoC3S3': 11.19, 'datetime': '2018-11-26 13:20:23.307405', 'pitch': 0.69, 'alt': 30.7, 'lng': 127.822388333, 'rot1': 187, 'rot0': 176, 'rot3': 28, 'rot2': 36, 'state': 'normal', 'flw2': 1.23, 'flw1': 0.0, 'flw0': 2.72, 'roll': 3.67, 'mgs': 0, 'compass': 66.85, 'lat': 26.377691667, 'lipoC2': 7.22, 'temp': 29.06, 'depth': 0.928, 'time': 23.0, 'yaw': 0.25}
{'lipoC3S3': 11.18, 'datetime': '2018-11-26 13:20:23.635788', 'pitch': 0.64, 'alt': 30.7, 'lng': 127.822388333, 'rot1': 190, 'rot0': 179, 'rot3': 28, 'rot2': 36, 'state': 'normal', 'flw2': 2.71, 'flw1': 0.0, 'flw0': 2.73, 'roll': 3.23, 'mgs': 0, 'compass': 63.33, 'lat': 26.377691667, 'lipoC2': 7.06, 'temp': 29.0, 'depth': 1.385, 'time': 23.32, 'yaw': -3.27}
{'lipoC3S3': 11.19, 'datetime': '2018-11-26 13:20:23.841673', 'pitch': 0.44, 'alt': 30.7, 'lng': 127.822388333, 'rot1': 192, 'rot0': 181, 'rot3': 28, 'rot2': 36, 'state': 'normal', 'flw2': 2.58, 'flw1': 0.09, 'flw0': 1.03, 'roll': 3.28, 'mgs': 0, 'compass': 61.39, 'lat': 26.377691667, 'lipoC2': 7.05, 'temp': 29.0, 'depth': 1.462, 'time': 23.53, 'yaw': -5.22}
{'lipoC3S3': 11.15, 'datetime': '2018-11-26 13:20:24.050171', 'pitch': 0.25, 'alt': 30.7, 'lng': 127.822388333, 'rot1': 194, 'rot0': 183, 'rot3': 28, 'rot2': 36, 'state': 'normal', 'flw2': 2.49, 'flw1': 0.0, 'flw0': 1.21, 'roll': 2.86, 'mgs': 0, 'compass': 60.63, 'lat': 26.377691667, 'lipoC2': 7.06, 'temp': 29.0, 'depth': 1.462, 'time': 23.74, 'yaw': -5.98}
{'lipoC3S3': 11.14, 'datetime': '2018-11-26 13:20:24.260603', 'pitch': 0.1, 'alt': 30.7, 'lng': 127.822388333, 'rot1': 197, 'rot0': 184, 'rot3': 28, 'rot2': 36, 'state': 'normal', 'flw2': 2.47, 'flw1': 0.0, 'flw0': 1.21, 'roll': 2.21, 'mgs': 0, 'compass': 60.61, 'lat': 26.377691667, 'lipoC2': 7.05, 'temp': 29.0, 'depth': 1.538, 'time': 23.95, 'yaw': -5.99}
{'lipoC3S3': 11.51, 'datetime': '2018-11-26 13:20:24.471167', 'pitch': 0.06, 'alt': 30.7, 'lng': 127.822388333, 'rot1': 199, 'rot0': 186, 'rot3': 28, 'rot2': 36, 'state': 'normal', 'flw2': 2.51, 'flw1': 0.0, 'flw0': 1.2, 'roll': 2.0, 'mgs': 0, 'compass': 61.26, 'lat': 26.377691667, 'lipoC2': 7.07, 'temp': 29.06, 'depth': 1.538, 'time': 24.16, 'yaw': -5.34}
{'lipoC3S3': 11.22, 'datetime': '2018-11-26 13:20:24.681254', 'pitch': -0.01, 'alt': 30.7, 'lng': 127.822388333, 'rot1': 202, 'rot0': 188, 'rot3': 28, 'rot2': 36, 'state': 'normal', 'flw2': 2.59, 'flw1': 0.0, 'flw0': 1.23, 'roll': 2.13, 'mgs': 0, 'compass': 62.38, 'lat': 26.377691667, 'lipoC2': 7.07, 'temp': 28.94, 'depth': 1.691, 'time': 24.37, 'yaw': -4.22}
{'lipoC3S3': 11.54, 'datetime': '2018-11-26 13:20:24.892365', 'pitch': 0.01, 'alt': 30.7, 'lng': 127.822385, 'rot1': 204, 'rot0': 189, 'rot3': 28, 'rot2': 36, 'state': 'normal', 'flw2': 2.58, 'flw1': 0.0, 'flw0': 1.23, 'roll': 2.31, 'mgs': 0, 'compass': 63.75, 'lat': 26.377693333, 'lipoC2': 7.06, 'temp': 29.25, 'depth': 1.843, 'time': 24.58, 'yaw': -2.85}
{'lipoC3S3': 11.18, 'datetime': '2018-11-26 13:20:25.098560', 'pitch': 0.11, 'alt': 30.7, 'lng': 127.822385, 'rot1': 207, 'rot0': 191, 'rot3': 28, 'rot2': 36, 'state': 'normal', 'flw2': 2.59, 'flw1': 0.0, 'flw0': 1.28, 'roll': 2.51, 'mgs': 0, 'compass': 65.1, 'lat': 26.377693333, 'lipoC2': 7.06, 'temp': 29.06, 'depth': 1.843, 'time': 24.8, 'yaw': -1.5}
{'lipoC3S3': 11.22, 'datetime': '2018-11-26 13:20:25.311586', 'pitch': 0.34, 'alt': 30.7, 'lng': 127.822383333, 'rot1': 209, 'rot0': 193, 'rot3': 28, 'rot2': 36, 'state': 'normal', 'flw2': 2.7, 'flw1': 0.0, 'flw0': 2.82, 'roll': 2.84, 'mgs': 0, 'compass': 66.66, 'lat': 26.377695, 'lipoC2': 7.08, 'temp': 29.06, 'depth': 1.92, 'time': 25.0, 'yaw': 0.06}
{'lipoC3S3': 11.18, 'datetime': '2018-11-26 13:20:25.519322', 'pitch': 0.6, 'alt': 30.7, 'lng': 127.822383333, 'rot1': 211, 'rot0': 195, 'rot3': 28, 'rot2': 36, 'state': 'normal', 'flw2': 2.58, 'flw1': 0.03, 'flw0': 2.8, 'roll': 3.47, 'mgs': 0, 'compass': 67.39, 'lat': 26.377695, 'lipoC2': 7.06, 'temp': 29.5, 'depth': 1.843, 'time': 25.22, 'yaw': 0.79}
{'lipoC3S3': 11.26, 'datetime': '2018-11-26 13:20:25.729511', 'pitch': 0.74, 'alt': 30.7, 'lng': 127.822383333, 'rot1': 213, 'rot0': 197, 'rot3': 28, 'rot2': 36, 'state': 'normal', 'flw2': 2.55, 'flw1': 0.0, 'flw0': 2.8, 'roll': 4.09, 'mgs': 0, 'compass': 66.93, 'lat': 26.377695, 'lipoC2': 7.24, 'temp': 29.5, 'depth': 1.92, 'time': 25.43, 'yaw': 0.33}
{'lipoC3S3': 11.18, 'datetime': '2018-11-26 13:20:25.943646', 'pitch': 0.65, 'alt': 30.7, 'lng': 127.822383333, 'rot1': 216, 'rot0': 200, 'rot3': 28, 'rot2': 37, 'state': 'normal', 'flw2': 2.49, 'flw1': 3.4, 'flw0': 2.7, 'roll': 4.69, 'mgs': 0, 'compass': 65.55, 'lat': 26.377695, 'lipoC2': 7.34, 'temp': 29.0, 'depth': 1.92, 'time': 25.64, 'yaw': -1.06}
{'lipoC3S3': 11.05, 'datetime': '2018-11-26 13:20:26.153120', 'pitch': 0.15, 'alt': 30.7, 'lng': 127.822383333, 'rot1': 218, 'rot0': 202, 'rot3': 29, 'rot2': 38, 'state': 'normal', 'flw2': 2.49, 'flw1': 3.11, 'flw0': 2.84, 'roll': 5.31, 'mgs': 0, 'compass': 63.49, 'lat': 26.377695, 'lipoC2': 7.06, 'temp': 29.06, 'depth': 1.996, 'time': 25.85, 'yaw': -3.11}
{'lipoC3S3': 11.1, 'datetime': '2018-11-26 13:20:26.359494', 'pitch': -0.5, 'alt': 30.8, 'lng': 127.822378333, 'rot1': 220, 'rot0': 204, 'rot3': 30, 'rot2': 39, 'state': 'normal', 'flw2': 2.59, 'flw1': 3.43, 'flw0': 1.03, 'roll': 5.91, 'mgs': 0, 'compass': 61.24, 'lat': 26.377698333, 'lipoC2': 7.07, 'temp': 29.06, 'depth': 2.225, 'time': 26.06, 'yaw': -5.36}
{'lipoC3S3': 11.17, 'datetime': '2018-11-26 13:20:26.574206', 'pitch': -1.29, 'alt': 30.8, 'lng': 127.822378333, 'rot1': 223, 'rot0': 206, 'rot3': 30, 'rot2': 40, 'state': 'normal', 'flw2': 2.59, 'flw1': 3.75, 'flw0': 1.26, 'roll': 6.18, 'mgs': 0, 'compass': 59.64, 'lat': 26.377698333, 'lipoC2': 7.06, 'temp': 29.19, 'depth': 2.454, 'time': 26.27, 'yaw': -6.96}
{'lipoC3S3': 11.15, 'datetime': '2018-11-26 13:20:26.786100', 'pitch': -1.96, 'alt': 30.8, 'lng': 127.822378333, 'rot1': 225, 'rot0': 207, 'rot3': 31, 'rot2': 41, 'state': 'normal', 'flw2': 2.65, 'flw1': 4.25, 'flw0': 1.35, 'roll': 6.34, 'mgs': 0, 'compass': 58.61, 'lat': 26.377698333, 'lipoC2': 7.06, 'temp': 29.06, 'depth': 3.064, 'time': 26.48, 'yaw': -7.99}
{'lipoC3S3': 11.17, 'datetime': '2018-11-26 13:20:26.996699', 'pitch': -2.49, 'alt': 30.8, 'lng': 127.822378333, 'rot1': 227, 'rot0': 209, 'rot3': 32, 'rot2': 42, 'state': 'normal', 'flw2': 2.7, 'flw1': 4.22, 'flw0': 1.25, 'roll': 6.47, 'mgs': 0, 'compass': 58.14, 'lat': 26.377698333, 'lipoC2': 7.06, 'temp': 29.0, 'depth': 1.767, 'time': 26.69, 'yaw': -8.46}
{'lipoC3S3': 11.18, 'datetime': '2018-11-26 13:20:27.206326', 'pitch': -2.6, 'alt': 30.8, 'lng': 127.822378333, 'rot1': 230, 'rot0': 210, 'rot3': 33, 'rot2': 42, 'state': 'normal', 'flw2': 2.69, 'flw1': 0.0, 'flw0': 1.22, 'roll': 6.45, 'mgs': 0, 'compass': 58.05, 'lat': 26.377698333, 'lipoC2': 7.06, 'temp': 29.06, 'depth': 2.072, 'time': 26.91, 'yaw': -8.55}
{'lipoC3S3': 11.48, 'datetime': '2018-11-26 13:20:27.415320', 'pitch': -1.95, 'alt': 30.8, 'lng': 127.822378333, 'rot1': 232, 'rot0': 212, 'rot3': 33, 'rot2': 42, 'state': 'normal', 'flw2': 2.62, 'flw1': 0.0, 'flw0': 1.27, 'roll': 5.72, 'mgs': 0, 'compass': 58.29, 'lat': 26.377698333, 'lipoC2': 7.06, 'temp': 29.06, 'depth': 1.538, 'time': 27.11, 'yaw': -8.32}
{'lipoC3S3': 11.5, 'datetime': '2018-11-26 13:20:27.630043', 'pitch': -0.97, 'alt': 30.8, 'lng': 127.822378333, 'rot1': 234, 'rot0': 214, 'rot3': 33, 'rot2': 42, 'state': 'normal', 'flw2': 2.64, 'flw1': 0.0, 'flw0': 1.26, 'roll': 4.8, 'mgs': 0, 'compass': 58.9, 'lat': 26.377698333, 'lipoC2': 7.06, 'temp': 29.06, 'depth': 1.462, 'time': 27.33, 'yaw': -7.7}
{'lipoC3S3': 11.19, 'datetime': '2018-11-26 13:20:27.835196', 'pitch': -0.15, 'alt': 30.8, 'lng': 127.822378333, 'rot1': 236, 'rot0': 215, 'rot3': 33, 'rot2': 42, 'state': 'normal', 'flw2': 2.6, 'flw1': 0.0, 'flw0': 1.26, 'roll': 3.91, 'mgs': 0, 'compass': 59.61, 'lat': 26.377698333, 'lipoC2': 7.06, 'temp': 29.0, 'depth': 1.385, 'time': 27.54, 'yaw': -6.99}
{'lipoC3S3': 11.19, 'datetime': '2018-11-26 13:20:28.047794', 'pitch': 0.41, 'alt': 30.8, 'lng': 127.822378333, 'rot1': 239, 'rot0': 217, 'rot3': 33, 'rot2': 42, 'state': 'normal', 'flw2': 2.58, 'flw1': 0.0, 'flw0': 1.27, 'roll': 3.04, 'mgs': 0, 'compass': 60.28, 'lat': 26.377698333, 'lipoC2': 7.06, 'temp': 29.06, 'depth': 1.309, 'time': 27.75, 'yaw': -6.32}
{'lipoC3S3': 11.18, 'datetime': '2018-11-26 13:20:28.256312', 'pitch': 0.79, 'alt': 30.8, 'lng': 127.822378333, 'rot1': 241, 'rot0': 218, 'rot3': 33, 'rot2': 42, 'state': 'normal', 'flw2': 2.6, 'flw1': 0.0, 'flw0': 1.27, 'roll': 2.34, 'mgs': 0, 'compass': 61.18, 'lat': 26.377698333, 'lipoC2': 7.06, 'temp': 29.06, 'depth': 1.385, 'time': 27.96, 'yaw': -5.42}
{'lipoC3S3': 11.21, 'datetime': '2018-11-26 13:20:28.467302', 'pitch': 0.89, 'alt': 30.7, 'lng': 127.822373333, 'rot1': 243, 'rot0': 220, 'rot3': 33, 'rot2': 42, 'state': 'normal', 'flw2': 2.56, 'flw1': 0.0, 'flw0': 1.26, 'roll': 2.05, 'mgs': 0, 'compass': 62.15, 'lat': 26.3777, 'lipoC2': 7.22, 'temp': 28.69, 'depth': 0.928, 'time': 28.17, 'yaw': -4.45}
{'lipoC3S3': 11.17, 'datetime': '2018-11-26 13:20:28.678591', 'pitch': 0.77, 'alt': 30.7, 'lng': 127.822373333, 'rot1': 246, 'rot0': 222, 'rot3': 33, 'rot2': 42, 'state': 'normal', 'flw2': 2.58, 'flw1': 0.06, 'flw0': 1.25, 'roll': 2.17, 'mgs': 0, 'compass': 63.11, 'lat': 26.3777, 'lipoC2': 7.06, 'temp': 29.19, 'depth': 1.309, 'time': 28.38, 'yaw': -3.49}
{'lipoC3S3': 11.17, 'datetime': '2018-11-26 13:20:28.889229', 'pitch': 0.3, 'alt': 30.7, 'lng': 127.822373333, 'rot1': 248, 'rot0': 223, 'rot3': 33, 'rot2': 42, 'state': 'normal', 'flw2': 2.67, 'flw1': 0.06, 'flw0': 1.2, 'roll': 2.04, 'mgs': 0, 'compass': 63.92, 'lat': 26.3777, 'lipoC2': 7.06, 'temp': 29.19, 'depth': 1.767, 'time': 28.59, 'yaw': -2.69}
{'lipoC3S3': 11.18, 'datetime': '2018-11-26 13:20:29.102202', 'pitch': -0.1, 'alt': 30.7, 'lng': 127.822373333, 'rot1': 250, 'rot0': 225, 'rot3': 33, 'rot2': 42, 'state': 'normal', 'flw2': 2.7, 'flw1': 0.0, 'flw0': 1.17, 'roll': 1.93, 'mgs': 0, 'compass': 64.87, 'lat': 26.3777, 'lipoC2': 7.11, 'temp': 29.0, 'depth': 2.835, 'time': 28.8, 'yaw': -1.74}
{'lipoC3S3': 11.14, 'datetime': '2018-11-26 13:20:29.312622', 'pitch': -0.27, 'alt': 30.7, 'lng': 127.822373333, 'rot1': 252, 'rot0': 226, 'rot3': 33, 'rot2': 42, 'state': 'normal', 'flw2': 2.69, 'flw1': 4.28, 'flw0': 1.12, 'roll': 1.92, 'mgs': 0, 'compass': 65.88, 'lat': 26.3777, 'lipoC2': 7.07, 'temp': 29.0, 'depth': 3.14, 'time': 29.01, 'yaw': -0.72}
{'lipoC3S3': 11.17, 'datetime': '2018-11-26 13:20:29.524123', 'pitch': -0.46, 'alt': 30.7, 'lng': 127.822373333, 'rot1': 255, 'rot0': 229, 'rot3': 33, 'rot2': 43, 'state': 'normal', 'flw2': 2.59, 'flw1': 3.84, 'flw0': 2.73, 'roll': 2.5, 'mgs': 0, 'compass': 66.7, 'lat': 26.3777, 'lipoC2': 7.06, 'temp': 29.0, 'depth': 1.614, 'time': 29.22, 'yaw': 0.1}
{'lipoC3S3': 11.39, 'datetime': '2018-11-26 13:20:29.727972', 'pitch': -0.74, 'alt': 30.7, 'lng': 127.822373333, 'rot1': 257, 'rot0': 231, 'rot3': 34, 'rot2': 44, 'state': 'normal', 'flw2': 2.5, 'flw1': 0.0, 'flw0': 2.67, 'roll': 3.72, 'mgs': 0, 'compass': 66.48, 'lat': 26.3777, 'lipoC2': 7.08, 'temp': 29.06, 'depth': 1.538, 'time': 29.43, 'yaw': -0.12}
{'lipoC3S3': 11.48, 'datetime': '2018-11-26 13:20:29.938749', 'pitch': -1.16, 'alt': 30.7, 'lng': 127.82237, 'rot1': 259, 'rot0': 233, 'rot3': 34, 'rot2': 44, 'state': 'normal', 'flw2': 2.51, 'flw1': 0.0, 'flw0': 2.62, 'roll': 4.5, 'mgs': 0, 'compass': 65.69, 'lat': 26.377701667, 'lipoC2': 7.06, 'temp': 29.0, 'depth': 1.614, 'time': 29.64, 'yaw': -0.92}
{'lipoC3S3': 11.07, 'datetime': '2018-11-26 13:20:30.149165', 'pitch': -1.41, 'alt': 30.7, 'lng': 127.82237, 'rot1': 262, 'rot0': 235, 'rot3': 34, 'rot2': 44, 'state': 'normal', 'flw2': 2.47, 'flw1': 0.0, 'flw0': 2.64, 'roll': 5.13, 'mgs': 0, 'compass': 64.57, 'lat': 26.377701667, 'lipoC2': 7.05, 'temp': 28.88, 'depth': 1.691, 'time': 29.85, 'yaw': -2.03}
{'lipoC3S3': 11.17, 'datetime': '2018-11-26 13:20:30.361065', 'pitch': -1.55, 'alt': 30.7, 'lng': 127.822366667, 'rot1': 264, 'rot0': 238, 'rot3': 34, 'rot2': 44, 'state': 'normal', 'flw2': 2.54, 'flw1': 0.0, 'flw0': 1.1, 'roll': 5.8, 'mgs': 0, 'compass': 63.17, 'lat': 26.377705, 'lipoC2': 7.07, 'temp': 29.13, 'depth': 1.767, 'time': 30.06, 'yaw': -3.43}
{'lipoC3S3': 11.15, 'datetime': '2018-11-26 13:20:30.571892', 'pitch': -1.53, 'alt': 30.7, 'lng': 127.822366667, 'rot1': 266, 'rot0': 239, 'rot3': 34, 'rot2': 44, 'state': 'normal', 'flw2': 2.72, 'flw1': 4.92, 'flw0': 1.21, 'roll': 5.62, 'mgs': 0, 'compass': 62.4, 'lat': 26.377705, 'lipoC2': 7.07, 'temp': 29.13, 'depth': 2.759, 'time': 30.27, 'yaw': -4.2}
{'lipoC3S3': 11.07, 'datetime': '2018-11-26 13:20:30.782684', 'pitch': -1.47, 'alt': 30.7, 'lng': 127.822366667, 'rot1': 269, 'rot0': 241, 'rot3': 35, 'rot2': 45, 'state': 'normal', 'flw2': 2.54, 'flw1': 3.63, 'flw0': 1.22, 'roll': 5.06, 'mgs': 0, 'compass': 62.48, 'lat': 26.377705, 'lipoC2': 7.23, 'temp': 29.0, 'depth': 0.928, 'time': 30.49, 'yaw': -4.12}
{'lipoC3S3': 11.39, 'datetime': '2018-11-26 13:20:30.995949', 'pitch': -1.39, 'alt': 30.7, 'lng': 127.822366667, 'rot1': 271, 'rot0': 243, 'rot3': 35, 'rot2': 45, 'state': 'normal', 'flw2': 2.56, 'flw1': 0.0, 'flw0': 1.26, 'roll': 4.89, 'mgs': 0, 'compass': 62.96, 'lat': 26.377705, 'lipoC2': 7.1, 'temp': 29.19, 'depth': 1.538, 'time': 30.69, 'yaw': -3.64}
{'lipoC3S3': 11.27, 'datetime': '2018-11-26 13:20:31.205149', 'pitch': -1.2, 'alt': 30.7, 'lng': 127.822366667, 'rot1': 273, 'rot0': 244, 'rot3': 35, 'rot2': 45, 'state': 'normal', 'flw2': 2.55, 'flw1': 0.0, 'flw0': 1.22, 'roll': 4.38, 'mgs': 0, 'compass': 63.74, 'lat': 26.377705, 'lipoC2': 7.07, 'temp': 29.06, 'depth': 1.538, 'time': 30.91, 'yaw': -2.86}
{'lipoC3S3': 11.17, 'datetime': '2018-11-26 13:20:31.411038', 'pitch': -0.92, 'alt': 30.6, 'lng': 127.822363333, 'rot1': 275, 'rot0': 246, 'rot3': 35, 'rot2': 45, 'state': 'normal', 'flw2': 2.48, 'flw1': 0.0, 'flw0': 1.2, 'roll': 3.65, 'mgs': 0, 'compass': 64.54, 'lat': 26.377705, 'lipoC2': 7.13, 'temp': 29.0, 'depth': 1.462, 'time': 31.12, 'yaw': -2.06}
{'lipoC3S3': 11.18, 'datetime': '2018-11-26 13:20:31.622952', 'pitch': -0.61, 'alt': 30.6, 'lng': 127.822363333, 'rot1': 278, 'rot0': 248, 'rot3': 35, 'rot2': 45, 'state': 'normal', 'flw2': 2.81, 'flw1': 0.0, 'flw0': 1.17, 'roll': 2.7, 'mgs': 0, 'compass': 65.51, 'lat': 26.377705, 'lipoC2': 7.06, 'temp': 29.06, 'depth': 2.454, 'time': 31.33, 'yaw': -1.09}
{'lipoC3S3': 11.15, 'datetime': '2018-11-26 13:20:31.835018', 'pitch': -0.23, 'alt': 30.6, 'lng': 127.822363333, 'rot1': 280, 'rot0': 250, 'rot3': 35, 'rot2': 45, 'state': 'normal', 'flw2': 2.54, 'flw1': 0.0, 'flw0': 1.21, 'roll': 2.03, 'mgs': 0, 'compass': 66.99, 'lat': 26.377705, 'lipoC2': 7.06, 'temp': 29.0, 'depth': 1.614, 'time': 31.54, 'yaw': 0.39}
{'lipoC3S3': 11.07, 'datetime': '2018-11-26 13:20:32.046339', 'pitch': 0.23, 'alt': 30.6, 'lng': 127.822363333, 'rot1': 283, 'rot0': 252, 'rot3': 35, 'rot2': 45, 'state': 'normal', 'flw2': 2.51, 'flw1': 0.0, 'flw0': 2.67, 'roll': 2.04, 'mgs': 0, 'compass': 68.23, 'lat': 26.377705, 'lipoC2': 7.06, 'temp': 29.06, 'depth': 1.462, 'time': 31.75, 'yaw': 1.63}
{'lipoC3S3': 11.44, 'datetime': '2018-11-26 13:20:32.254904', 'pitch': 0.47, 'alt': 30.6, 'lng': 127.822363333, 'rot1': 285, 'rot0': 254, 'rot3': 35, 'rot2': 45, 'state': 'normal', 'flw2': 1.05, 'flw1': 0.0, 'flw0': 2.7, 'roll': 2.48, 'mgs': 0, 'compass': 68.31, 'lat': 26.377705, 'lipoC2': 7.06, 'temp': 29.06, 'depth': 1.538, 'time': 31.96, 'yaw': 1.71}
{'lipoC3S3': 11.17, 'datetime': '2018-11-26 13:20:32.466464', 'pitch': 0.21, 'alt': 30.8, 'lng': 127.822358333, 'rot1': 286, 'rot0': 256, 'rot3': 35, 'rot2': 45, 'state': 'normal', 'flw2': 1.15, 'flw1': 0.0, 'flw0': 2.66, 'roll': 2.44, 'mgs': 0, 'compass': 66.96, 'lat': 26.377706667, 'lipoC2': 7.13, 'temp': 29.0, 'depth': 1.233, 'time': 32.17, 'yaw': 0.36}
{'lipoC3S3': 11.17, 'datetime': '2018-11-26 13:20:32.672549', 'pitch': -0.48, 'alt': 30.8, 'lng': 127.822358333, 'rot1': 289, 'rot0': 258, 'rot3': 35, 'rot2': 45, 'state': 'normal', 'flw2': 2.71, 'flw1': 0.0, 'flw0': 2.6, 'roll': 2.32, 'mgs': 0, 'compass': 64.61, 'lat': 26.377706667, 'lipoC2': 7.06, 'temp': 29.06, 'depth': 2.759, 'time': 32.38, 'yaw': -1.99}
{'lipoC3S3': 11.06, 'datetime': '2018-11-26 13:20:32.885397', 'pitch': -1.19, 'alt': 30.8, 'lng': 127.822358333, 'rot1': 291, 'rot0': 261, 'rot3': 35, 'rot2': 46, 'state': 'normal', 'flw2': 2.48, 'flw1': 4.42, 'flw0': 1.14, 'roll': 3.07, 'mgs': 0, 'compass': 62.44, 'lat': 26.377706667, 'lipoC2': 7.06, 'temp': 29.06, 'depth': 1.767, 'time': 32.59, 'yaw': -4.16}
{'lipoC3S3': 11.17, 'datetime': '2018-11-26 13:20:33.096625', 'pitch': -1.86, 'alt': 30.8, 'lng': 127.822358333, 'rot1': 293, 'rot0': 262, 'rot3': 36, 'rot2': 47, 'state': 'normal', 'flw2': 2.69, 'flw1': 0.0, 'flw0': 1.2, 'roll': 4.12, 'mgs': 0, 'compass': 61.1, 'lat': 26.377706667, 'lipoC2': 7.07, 'temp': 29.0, 'depth': 1.538, 'time': 32.8, 'yaw': -5.51}
{'lipoC3S3': 11.17, 'datetime': '2018-11-26 13:20:33.308809', 'pitch': -1.99, 'alt': 30.9, 'lng': 127.822353333, 'rot1': 296, 'rot0': 264, 'rot3': 36, 'rot2': 47, 'state': 'normal', 'flw2': 2.54, 'flw1': 0.0, 'flw0': 1.16, 'roll': 4.96, 'mgs': 0, 'compass': 60.65, 'lat': 26.377708333, 'lipoC2': 7.06, 'temp': 29.06, 'depth': 1.92, 'time': 33.01, 'yaw': -5.95}
{'lipoC3S3': 11.15, 'datetime': '2018-11-26 13:20:33.518656', 'pitch': -2.12, 'alt': 30.9, 'lng': 127.822353333, 'rot1': 298, 'rot0': 266, 'rot3': 37, 'rot2': 48, 'state': 'normal', 'flw2': 2.73, 'flw1': 3.19, 'flw0': 1.16, 'roll': 4.96, 'mgs': 0, 'compass': 60.81, 'lat': 26.377708333, 'lipoC2': 7.06, 'temp': 29.06, 'depth': 2.835, 'time': 33.22, 'yaw': -5.79}
{'lipoC3S3': 11.51, 'datetime': '2018-11-26 13:20:33.727737', 'pitch': -2.53, 'alt': 30.9, 'lng': 127.822353333, 'rot1': 300, 'rot0': 267, 'rot3': 37, 'rot2': 48, 'state': 'normal', 'flw2': 2.56, 'flw1': 0.0, 'flw0': 1.17, 'roll': 4.84, 'mgs': 0, 'compass': 61.34, 'lat': 26.377708333, 'lipoC2': 7.07, 'temp': 29.06, 'depth': 1.614, 'time': 33.43, 'yaw': -5.26}
{'lipoC3S3': 11.15, 'datetime': '2018-11-26 13:20:33.934924', 'pitch': -2.9, 'alt': 30.9, 'lng': 127.822353333, 'rot1': 302, 'rot0': 269, 'rot3': 37, 'rot2': 48, 'state': 'normal', 'flw2': 2.54, 'flw1': 0.0, 'flw0': 1.18, 'roll': 4.3, 'mgs': 0, 'compass': 62.16, 'lat': 26.377708333, 'lipoC2': 7.09, 'temp': 29.06, 'depth': 2.377, 'time': 33.64, 'yaw': -4.44}
{'lipoC3S3': 11.22, 'datetime': '2018-11-26 13:20:34.145360', 'pitch': -2.92, 'alt': 30.9, 'lng': 127.822353333, 'rot1': 305, 'rot0': 271, 'rot3': 38, 'rot2': 49, 'state': 'normal', 'flw2': 2.53, 'flw1': 3.69, 'flw0': 1.17, 'roll': 3.69, 'mgs': 0, 'compass': 63.68, 'lat': 26.377708333, 'lipoC2': 7.07, 'temp': 29.06, 'depth': 1.538, 'time': 33.85, 'yaw': -2.92}
{'lipoC3S3': 11.18, 'datetime': '2018-11-26 13:20:34.356335', 'pitch': -2.74, 'alt': 30.9, 'lng': 127.822353333, 'rot1': 307, 'rot0': 272, 'rot3': 39, 'rot2': 50, 'state': 'normal', 'flw2': 2.69, 'flw1': 3.16, 'flw0': 1.2, 'roll': 3.68, 'mgs': 0, 'compass': 65.57, 'lat': 26.377708333, 'lipoC2': 7.07, 'temp': 28.94, 'depth': 2.606, 'time': 34.07, 'yaw': -1.03}
{'lipoC3S3': 11.17, 'datetime': '2018-11-26 13:20:34.572098', 'pitch': -2.43, 'alt': 30.9, 'lng': 127.822353333, 'rot1': 309, 'rot0': 274, 'rot3': 39, 'rot2': 51, 'state': 'normal', 'flw2': 2.62, 'flw1': 3.52, 'flw0': 1.28, 'roll': 4.02, 'mgs': 0, 'compass': 67.6, 'lat': 26.377708333, 'lipoC2': 7.06, 'temp': 29.06, 'depth': 1.92, 'time': 34.28, 'yaw': 1.0}
{'lipoC3S3': 11.18, 'datetime': '2018-11-26 13:20:34.786319', 'pitch': -2.18, 'alt': 30.9, 'lng': 127.82235, 'rot1': 311, 'rot0': 275, 'rot3': 40, 'rot2': 52, 'state': 'normal', 'flw2': 1.09, 'flw1': 3.37, 'flw0': 2.93, 'roll': 4.31, 'mgs': 0, 'compass': 69.87, 'lat': 26.37771, 'lipoC2': 7.22, 'temp': 29.06, 'depth': 1.233, 'time': 34.49, 'yaw': 3.26}
{'lipoC3S3': 11.17, 'datetime': '2018-11-26 13:20:34.998567', 'pitch': -1.98, 'alt': 30.9, 'lng': 127.82235, 'rot1': 313, 'rot0': 278, 'rot3': 41, 'rot2': 53, 'state': 'normal', 'flw2': 1.17, 'flw1': 0.0, 'flw0': 2.7, 'roll': 4.61, 'mgs': 0, 'compass': 70.53, 'lat': 26.37771, 'lipoC2': 7.06, 'temp': 29.06, 'depth': 1.309, 'time': 34.7, 'yaw': 3.93}
{'lipoC3S3': 11.18, 'datetime': '2018-11-26 13:20:35.303867', 'pitch': -1.95, 'alt': 31.0, 'lng': 127.822348333, 'rot1': 315, 'rot0': 281, 'rot3': 41, 'rot2': 53, 'state': 'normal', 'flw2': 1.22, 'flw1': 0.06, 'flw0': 2.6, 'roll': 3.75, 'mgs': 0, 'compass': 67.55, 'lat': 26.377713333, 'lipoC2': 7.06, 'temp': 29.0, 'depth': 1.92, 'time': 35.01, 'yaw': 0.95}
{'lipoC3S3': 11.19, 'datetime': '2018-11-26 13:20:35.512684', 'pitch': -1.65, 'alt': 31.0, 'lng': 127.822348333, 'rot1': 318, 'rot0': 283, 'rot3': 41, 'rot2': 53, 'state': 'normal', 'flw2': 2.71, 'flw1': 0.0, 'flw0': 2.59, 'roll': 3.46, 'mgs': 0, 'compass': 64.27, 'lat': 26.377713333, 'lipoC2': 7.07, 'temp': 29.0, 'depth': 2.301, 'time': 35.22, 'yaw': -2.33}
{'lipoC3S3': 11.18, 'datetime': '2018-11-26 13:20:35.724938', 'pitch': -1.52, 'alt': 31.0, 'lng': 127.822348333, 'rot1': 320, 'rot0': 285, 'rot3': 41, 'rot2': 54, 'state': 'normal', 'flw2': 2.66, 'flw1': 3.75, 'flw0': 1.25, 'roll': 3.86, 'mgs': 0, 'compass': 61.26, 'lat': 26.377713333, 'lipoC2': 7.07, 'temp': 29.0, 'depth': 1.843, 'time': 35.44, 'yaw': -5.34}
{'lipoC3S3': 11.14, 'datetime': '2018-11-26 13:20:35.938420', 'pitch': -1.86, 'alt': 31.0, 'lng': 127.822348333, 'rot1': 322, 'rot0': 287, 'rot3': 42, 'rot2': 55, 'state': 'normal', 'flw2': 2.59, 'flw1': 0.09, 'flw0': 1.17, 'roll': 4.06, 'mgs': 0, 'compass': 59.24, 'lat': 26.377713333, 'lipoC2': 7.05, 'temp': 29.06, 'depth': 1.462, 'time': 35.65, 'yaw': -7.36}
{'lipoC3S3': 11.44, 'datetime': '2018-11-26 13:20:36.149525', 'pitch': -2.11, 'alt': 31.0, 'lng': 127.822348333, 'rot1': 324, 'rot0': 289, 'rot3': 42, 'rot2': 55, 'state': 'normal', 'flw2': 2.56, 'flw1': 0.0, 'flw0': 1.28, 'roll': 3.73, 'mgs': 0, 'compass': 58.14, 'lat': 26.377713333, 'lipoC2': 7.06, 'temp': 29.06, 'depth': 1.462, 'time': 35.86, 'yaw': -8.46}
{'lipoC3S3': 11.17, 'datetime': '2018-11-26 13:20:36.359241', 'pitch': -2.05, 'alt': 31.1, 'lng': 127.822345, 'rot1': 327, 'rot0': 290, 'rot3': 42, 'rot2': 55, 'state': 'normal', 'flw2': 2.53, 'flw1': 0.0, 'flw0': 1.25, 'roll': 3.2, 'mgs': 0, 'compass': 57.54, 'lat': 26.377715, 'lipoC2': 7.06, 'temp': 29.06, 'depth': 1.462, 'time': 36.07, 'yaw': -9.06}
{'lipoC3S3': 11.15, 'datetime': '2018-11-26 13:20:36.571260', 'pitch': -1.91, 'alt': 31.1, 'lng': 127.822345, 'rot1': 329, 'rot0': 292, 'rot3': 42, 'rot2': 55, 'state': 'normal', 'flw2': 2.7, 'flw1': 4.07, 'flw0': 1.2, 'roll': 2.62, 'mgs': 0, 'compass': 57.0, 'lat': 26.377715, 'lipoC2': 7.09, 'temp': 29.06, 'depth': 3.293, 'time': 36.28, 'yaw': -9.6}
{'lipoC3S3': 11.17, 'datetime': '2018-11-26 13:20:36.781347', 'pitch': -1.74, 'alt': 31.1, 'lng': 127.822345, 'rot1': 331, 'rot0': 293, 'rot3': 43, 'rot2': 56, 'state': 'normal', 'flw2': 2.64, 'flw1': 3.52, 'flw0': 1.27, 'roll': 2.44, 'mgs': 0, 'compass': 56.45, 'lat': 26.377715, 'lipoC2': 7.12, 'temp': 29.0, 'depth': 1.462, 'time': 36.49, 'yaw': -10.15}
{'lipoC3S3': 11.17, 'datetime': '2018-11-26 13:20:36.994590', 'pitch': -1.69, 'alt': 31.1, 'lng': 127.822345, 'rot1': 334, 'rot0': 295, 'rot3': 43, 'rot2': 56, 'state': 'normal', 'flw2': 2.56, 'flw1': 0.0, 'flw0': 1.29, 'roll': 2.64, 'mgs': 0, 'compass': 55.73, 'lat': 26.377715, 'lipoC2': 7.06, 'temp': 29.13, 'depth': 1.614, 'time': 36.7, 'yaw': -10.87}
{'lipoC3S3': 11.18, 'datetime': '2018-11-26 13:20:37.204606', 'pitch': -1.19, 'alt': 31.1, 'lng': 127.822345, 'rot1': 336, 'rot0': 297, 'rot3': 43, 'rot2': 56, 'state': 'normal', 'flw2': 2.59, 'flw1': 0.0, 'flw0': 1.35, 'roll': 2.9, 'mgs': 0, 'compass': 55.14, 'lat': 26.377715, 'lipoC2': 7.05, 'temp': 29.0, 'depth': 1.614, 'time': 36.91, 'yaw': -11.46}
{'lipoC3S3': 11.18, 'datetime': '2018-11-26 13:20:37.412092', 'pitch': -0.79, 'alt': 31.2, 'lng': 127.82234, 'rot1': 338, 'rot0': 298, 'rot3': 43, 'rot2': 56, 'state': 'normal', 'flw2': 2.6, 'flw1': 0.0, 'flw0': 1.27, 'roll': 3.06, 'mgs': 0, 'compass': 54.47, 'lat': 26.377716667, 'lipoC2': 7.12, 'temp': 29.0, 'depth': 2.072, 'time': 37.12, 'yaw': -12.13}
{'lipoC3S3': 11.17, 'datetime': '2018-11-26 13:20:37.622900', 'pitch': -0.57, 'alt': 31.2, 'lng': 127.82234, 'rot1': 341, 'rot0': 300, 'rot3': 44, 'rot2': 57, 'state': 'normal', 'flw2': 2.49, 'flw1': 3.49, 'flw0': 1.29, 'roll': 3.15, 'mgs': 0, 'compass': 53.83, 'lat': 26.377716667, 'lipoC2': 7.06, 'temp': 28.88, 'depth': 1.767, 'time': 37.33, 'yaw': -12.78}
{'lipoC3S3': 11.26, 'datetime': '2018-11-26 13:20:37.834325', 'pitch': -0.54, 'alt': 31.2, 'lng': 127.82234, 'rot1': 343, 'rot0': 301, 'rot3': 44, 'rot2': 58, 'state': 'normal', 'flw2': 2.62, 'flw1': 0.0, 'flw0': 1.25, 'roll': 3.62, 'mgs': 0, 'compass': 53.23, 'lat': 26.377716667, 'lipoC2': 7.21, 'temp': 28.88, 'depth': 1.691, 'time': 37.54, 'yaw': -13.38}
{'lipoC3S3': 11.11, 'datetime': '2018-11-26 13:20:38.049047', 'pitch': -0.53, 'alt': 31.2, 'lng': 127.82234, 'rot1': 346, 'rot0': 303, 'rot3': 44, 'rot2': 58, 'state': 'normal', 'flw2': 2.58, 'flw1': 0.0, 'flw0': 1.17, 'roll': 3.69, 'mgs': 0, 'compass': 52.72, 'lat': 26.377716667, 'lipoC2': 7.06, 'temp': 29.31, 'depth': 1.691, 'time': 37.76, 'yaw': -13.88}
{'lipoC3S3': 11.1, 'datetime': '2018-11-26 13:20:38.258460', 'pitch': -0.46, 'alt': 31.2, 'lng': 127.82234, 'rot1': 348, 'rot0': 305, 'rot3': 44, 'rot2': 58, 'state': 'normal', 'flw2': 2.53, 'flw1': 0.12, 'flw0': 1.17, 'roll': 3.59, 'mgs': 0, 'compass': 52.36, 'lat': 26.377716667, 'lipoC2': 7.06, 'temp': 29.06, 'depth': 1.691, 'time': 37.97, 'yaw': -14.24}
{'lipoC3S3': 11.17, 'datetime': '2018-11-26 13:20:38.472806', 'pitch': -0.41, 'alt': 31.3, 'lng': 127.822338333, 'rot1': 350, 'rot0': 306, 'rot3': 44, 'rot2': 58, 'state': 'normal', 'flw2': 2.67, 'flw1': 0.0, 'flw0': 1.29, 'roll': 3.51, 'mgs': 0, 'compass': 52.16, 'lat': 26.37772, 'lipoC2': 7.06, 'temp': 29.06, 'depth': 1.767, 'time': 38.18, 'yaw': -14.44}
{'lipoC3S3': 11.18, 'datetime': '2018-11-26 13:20:38.678164', 'pitch': -0.35, 'alt': 31.3, 'lng': 127.822338333, 'rot1': 352, 'rot0': 308, 'rot3': 44, 'rot2': 58, 'state': 'normal', 'flw2': 2.54, 'flw1': 0.0, 'flw0': 1.27, 'roll': 3.12, 'mgs': 0, 'compass': 51.91, 'lat': 26.37772, 'lipoC2': 7.22, 'temp': 29.63, 'depth': 1.233, 'time': 38.39, 'yaw': -14.69}
{'lipoC3S3': 11.18, 'datetime': '2018-11-26 13:20:38.888742', 'pitch': -0.11, 'alt': 31.3, 'lng': 127.822338333, 'rot1': 355, 'rot0': 309, 'rot3': 44, 'rot2': 58, 'state': 'normal', 'flw2': 2.66, 'flw1': 0.0, 'flw0': 1.37, 'roll': 2.66, 'mgs': 0, 'compass': 51.51, 'lat': 26.37772, 'lipoC2': 7.05, 'temp': 29.06, 'depth': 2.759, 'time': 38.6, 'yaw': -15.1}
{'lipoC3S3': 11.11, 'datetime': '2018-11-26 13:20:39.100049', 'pitch': 0.21, 'alt': 31.3, 'lng': 127.822338333, 'rot1': 357, 'rot0': 311, 'rot3': 44, 'rot2': 58, 'state': 'normal', 'flw2': 2.53, 'flw1': 0.0, 'flw0': 1.25, 'roll': 2.35, 'mgs': 0, 'compass': 50.97, 'lat': 26.37772, 'lipoC2': 7.07, 'temp': 28.94, 'depth': 2.53, 'time': 38.81, 'yaw': -15.63}
{'lipoC3S3': 11.39, 'datetime': '2018-11-26 13:20:39.310294', 'pitch': 0.32, 'alt': 31.3, 'lng': 127.822338333, 'rot1': 360, 'rot0': 313, 'rot3': 44, 'rot2': 58, 'state': 'normal', 'flw2': 2.56, 'flw1': 0.0, 'flw0': 1.21, 'roll': 1.8, 'mgs': 0, 'compass': 50.64, 'lat': 26.37772, 'lipoC2': 7.08, 'temp': 29.13, 'depth': 1.614, 'time': 39.02, 'yaw': -15.96}
